{"last_updated":1773217743,"ttl":60,"version":"2.2","data":{"bikes":[{"bike_id":"75cf4bd6-26ec-4a20-ab13-281954683241","system_id":"levelo_inurba_marseille","lat":43.24087,"lon":5.37733,"is_reserved":false,"is_disabled":false,"rental_uris":{"android":"levelo://app?vid=75cf4bd6-26ec-4a20-ab13-281954683241","ios":"levelo://app?vid=75cf4bd6-26ec-4a20-ab13-281954683241"},"vehicle_type_id":"4","last_reported":1773217744,"current_range_meters":33200,"station_id":"ce4bhnp2rcd13ifvqgvg","pricing_plan_id":"cebpf4jnsgd1na2vs0mg"},{"bike_id":"ead3593f-fa2e-4a2b-924f-b78da0a491ce","system_id":"levelo_inurba_marseille","lat":43.301145,"lon":5.374057,"is_reserved":false,"is_disabled":false,"rental_uris":{"android":"levelo://app?vid=ead3593f-fa2e-4a2b-924f-b78da0a491ce","ios":"levelo://app?vid=ead3593f-fa2e-4a2b-924f-b78da0a491ce"},"vehicle_type_id":"4","last_reported":1773217744,"current_range_meters":39200,"station_id":"ce4bgs92rcd13ifvqcc0","pricing_plan_id":"cebpf4jnsgd1na2vs0mg"},{"bike_id":"3dec1967-a2d4-4b31-91e4-8f35aaaccd28","system_id":"levelo_inurba_marseille","lat":43.30897,"lon":5.3685,"is_reserved":false,"is_disabled":false,"rental_uris":{"android":"levelo://app?vid=3dec1967-a2d4-4b31-91e4-8f35aaaccd28","ios":"levelo://app?vid=3dec1967-a2d4-4b31-91e4-8f35aaaccd28"},"vehicle_type_id":"4","last_reported":1773217744,"current_range_meters":39200,"station_id":"ce4bgn92rcd13ifvqbvg","pricing_plan_id":"cebpf4jnsgd1na2vs0mg"},{"bike_id":"05e93773-9c85-4161-99c1-b96593794e37","system_id":"levelo_inurba_marseille","lat":43.29029,"lon":5.39985,"is_reserved":false,"is_disabled":false,"rental_uris":{"android":"levelo://app?vid=05e93773-9c85-4161-99c1-b96593794e37","ios":"levelo://app?vid=05e93773-9c85-4161-99c1-b96593794e37"},"vehicle_type_id":"4","last_reported":1773217744,"current_range_meters":30000,"station_id":"ce4bh392rcd13ifvqdm0","pricing_plan_id":"cebpf4jnsgd1na2vs0mg"},{"bike_id":"ccc1cd5b-0d83-4be5-bc94-8798d4c7b6ab","system_id":"levelo_inurba_marseille","lat":43.30548,"lon":5.36529,"is_reserved":false,"is_disabled":false,"rental_uris":{"android":"levelo://app?vid=ccc1cd5b-0d83-4be5-bc94-8798d4c7b6ab","ios":"levelo://app?vid=ccc1cd5b-0d83-4be5-bc94-8798d4c7b6ab"},"vehicle_type_id":"4","last_reported":1773217744,"current_range_meters":9600,"station_id":"ce4bgs12rcd13ifvqcag","pricing_plan_id":"cebpf4jnsgd1na2vs0mg"},{"bike_id":"beb344ca-4534-4ba9-9c05-5bf124c258c5","system_id":"levelo_inurba_marseille","lat":43.29263,"lon":5.40141,"is_reserved":false,"is_disabled":false,"rental_uris":{"android":"levelo://app?vid=beb344ca-4534-4ba9-9c05-5bf124c258c5","ios":"levelo://app?vid=beb344ca-4534-4ba9-9c05-5bf124c258c5"},"vehicle_type_id":"4","last_reported":1773217744,"current_range_meters":12800,"station_id":"ce4bh312rcd13ifvqdk0","pricing_plan_id":"cebpf4jnsgd1na2vs0mg"},{"bike_id":"b859b55a-0746-4154-87f6-0c4c9b9172ba","system_id":"levelo_inurba_marseille","lat":43.24062,"lon":5.37791,"is_reserved":false,"is_disabled":false,"rental_uris":{"android":"levelo://app?vid=b859b55a-0746-4154-87f6-0c4c9b9172ba","ios":"levelo://app?vid=b859b55a-0746-4154-87f6-0c4c9b9172ba"},"vehicle_type_id":"4","last_reported":1773217744,"current_range_meters":36800,"station_id":"ce4bhnp2rcd13ifvqgvg","pricing_plan_id":"cebpf4jnsgd1na2vs0mg"},{"bike_id":"5061e64b-7a6f-416d-95f6-434ea56b6a99","system_id":"levelo_inurba_marseille","lat":43.3464,"lon":5.36722,"is_reserved":false,"is_disabled":false,"rental_uris":{"android":"levelo://app?vid=5061e64b-7a6f-416d-95f6-434ea56b6a99","ios":"levelo://app?vid=5061e64b-7a6f-416d-95f6-434ea56b6a99"},"vehicle_type_id":"4","last_reported":1773217744,"current_range_meters":30400,"station_id":"","pricing_plan_id":"cebpf4jnsgd1na2vs0mg"},{"bike_id":"2e0998c3-285b-4a51-9d8a-491c28e4b524","system_id":"levelo_inurba_marseille","lat":43.27828,"lon":5.40711,"is_reserved":false,"is_disabled":true,"rental_uris":{"android":"levelo://app?vid=2e0998c3-285b-4a51-9d8a-491c28e4b524","ios":"levelo://app?vid=2e0998c3-285b-4a51-9d8a-491c28e4b524"},"vehicle_type_id":"4","last_reported":1773217744,"current_range_meters":30800,"station_id":"ce4bhnh2rcd13ifvqgtg","pricing_plan_id":"cebpf4jnsgd1na2vs0mg"},{"bike_id":"9faea34b-1c48-4a1b-8f51-2bafe5184a50","system_id":"levelo_inurba_marseille","lat":43.28478,"lon":5.48393,"is_reserved":false,"is_disabled":false,"rental_uris":{"android":"levelo://app?vid=9faea34b-1c48-4a1b-8f51-2bafe5184a50","ios":"levelo://app?vid=9faea34b-1c48-4a1b-8f51-2bafe5184a50"},"vehicle_type_id":"4","last_reported":1773217744,"current_range_meters":35600,"station_id":"st_d3svhcjqgbts73a3dn0g","pricing_plan_id":"cebpf4jnsgd1na2vs0mg"},{"bike_id":"3ed7cc46-dfe0-48b3-b403-50ad5ae704c8","system_id":"levelo_inurba_marseille","lat":43.29924,"lon":5.36529,"is_reserved":false,"is_disabled":false,"rental_uris":{"android":"levelo://app?vid=3ed7cc46-dfe0-48b3-b403-50ad5ae704c8","ios":"levelo://app?vid=3ed7cc46-dfe0-48b3-b403-50ad5ae704c8"},"vehicle_type_id":"4","last_reported":1773217744,"current_range_meters":36000,"station_id":"ce4bgm92rcd13ifvqbr0","pricing_plan_id":"cebpf4jnsgd1na2vs0mg"},{"bike_id":"d427d34d-e739-4c0f-a843-74b85111544b","system_id":"levelo_inurba_marseille","lat":43.33158,"lon":5.37734,"is_reserved":false,"is_disabled":false,"rental_uris":{"android":"levelo://app?vid=d427d34d-e739-4c0f-a843-74b85111544b","ios":"levelo://app?vid=d427d34d-e739-4c0f-a843-74b85111544b"},"vehicle_type_id":"4","last_reported":1773217744,"current_range_meters":28800,"station_id":"st_d46cu089ee8s73dldbu0","pricing_plan_id":"cebpf4jnsgd1na2vs0mg"},{"bike_id":"f8c71ea2-bafc-4c25-8fba-9c4f4612dbff","system_id":"levelo_inurba_marseille","lat":43.30518,"lon":5.36729,"is_reserved":false,"is_disabled":false,"rental_uris":{"android":"levelo://app?vid=f8c71ea2-bafc-4c25-8fba-9c4f4612dbff","ios":"levelo://app?vid=f8c71ea2-bafc-4c25-8fba-9c4f4612dbff"},"vehicle_type_id":"4","last_reported":1773217744,"current_range_meters":38000,"station_id":"ce4bgrp2rcd13ifvqc9g","pricing_plan_id":"cebpf4jnsgd1na2vs0mg"},{"bike_id":"c943c8f2-fd97-497f-b02c-47e60712859d","system_id":"levelo_inurba_marseille","lat":43.25831,"lon":5.39442,"is_reserved":false,"is_disabled":false,"rental_uris":{"android":"levelo://app?vid=c943c8f2-fd97-497f-b02c-47e60712859d","ios":"levelo://app?vid=c943c8f2-fd97-497f-b02c-47e60712859d"},"vehicle_type_id":"4","last_reported":1773217744,"current_range_meters":28000,"station_id":"ce4bhip2rcd13ifvqft0","pricing_plan_id":"cebpf4jnsgd1na2vs0mg"},{"bike_id":"b62be4eb-4a5e-4a6f-92a7-2da931c160d2","system_id":"levelo_inurba_marseille","lat":43.30137,"lon":5.37419,"is_reserved":false,"is_disabled":false,"rental_uris":{"android":"levelo://app?vid=b62be4eb-4a5e-4a6f-92a7-2da931c160d2","ios":"levelo://app?vid=b62be4eb-4a5e-4a6f-92a7-2da931c160d2"},"vehicle_type_id":"4","last_reported":1773217744,"current_range_meters":28000,"station_id":"ce4bgs92rcd13ifvqcc0","pricing_plan_id":"cebpf4jnsgd1na2vs0mg"},{"bike_id":"f427c05d-406c-4d8b-9ac6-d7e32710e6c3","system_id":"levelo_inurba_marseille","lat":43.31666,"lon":5.40488,"is_reserved":false,"is_disabled":false,"rental_uris":{"android":"levelo://app?vid=f427c05d-406c-4d8b-9ac6-d7e32710e6c3","ios":"levelo://app?vid=f427c05d-406c-4d8b-9ac6-d7e32710e6c3"},"vehicle_type_id":"4","last_reported":1773217744,"current_range_meters":28800,"station_id":"ce4bh012rcd13ifvqd00","pricing_plan_id":"cebpf4jnsgd1na2vs0mg"},{"bike_id":"e06f31ba-4239-4f51-b31e-8def2528240c","system_id":"levelo_inurba_marseille","lat":43.29618,"lon":5.37726,"is_reserved":false,"is_disabled":false,"rental_uris":{"android":"levelo://app?vid=e06f31ba-4239-4f51-b31e-8def2528240c","ios":"levelo://app?vid=e06f31ba-4239-4f51-b31e-8def2528240c"},"vehicle_type_id":"4","last_reported":1773217744,"current_range_meters":22000,"station_id":"","pricing_plan_id":"cebpf4jnsgd1na2vs0mg"},{"bike_id":"4be35303-a285-477a-a9f7-112d75dc7eb6","system_id":"levelo_inurba_marseille","lat":43.30947,"lon":5.39055,"is_reserved":false,"is_disabled":false,"rental_uris":{"android":"levelo://app?vid=4be35303-a285-477a-a9f7-112d75dc7eb6","ios":"levelo://app?vid=4be35303-a285-477a-a9f7-112d75dc7eb6"},"vehicle_type_id":"4","last_reported":1773217744,"current_range_meters":39200,"station_id":"ce4bgup2rcd13ifvqco0","pricing_plan_id":"cebpf4jnsgd1na2vs0mg"},{"bike_id":"93f3bbca-10f8-4fdf-8ca9-d7edbda02bc6","system_id":"levelo_inurba_marseille","lat":43.33605,"lon":5.41027,"is_reserved":false,"is_disabled":false,"rental_uris":{"android":"levelo://app?vid=93f3bbca-10f8-4fdf-8ca9-d7edbda02bc6","ios":"levelo://app?vid=93f3bbca-10f8-4fdf-8ca9-d7edbda02bc6"},"vehicle_type_id":"4","last_reported":1773217744,"current_range_meters":32800,"station_id":"ce4bhqh2rcd13ifvqhmg","pricing_plan_id":"cebpf4jnsgd1na2vs0mg"},{"bike_id":"7cd54066-eb78-4dce-b8dd-730bb15ff9ac","system_id":"levelo_inurba_marseille","lat":43.2594,"lon":5.40906,"is_reserved":false,"is_disabled":false,"rental_uris":{"android":"levelo://app?vid=7cd54066-eb78-4dce-b8dd-730bb15ff9ac","ios":"levelo://app?vid=7cd54066-eb78-4dce-b8dd-730bb15ff9ac"},"vehicle_type_id":"4","last_reported":1773217744,"current_range_meters":20000,"station_id":"ce4bhm92rcd13ifvqglg","pricing_plan_id":"cebpf4jnsgd1na2vs0mg"},{"bike_id":"606a3246-fcd6-444c-baa9-1f21befb1483","system_id":"levelo_inurba_marseille","lat":43.287161,"lon":5.379443,"is_reserved":false,"is_disabled":false,"rental_uris":{"android":"levelo://app?vid=606a3246-fcd6-444c-baa9-1f21befb1483","ios":"levelo://app?vid=606a3246-fcd6-444c-baa9-1f21befb1483"},"vehicle_type_id":"4","last_reported":1773217744,"current_range_meters":32400,"station_id":"","pricing_plan_id":"cebpf4jnsgd1na2vs0mg"},{"bike_id":"c79e0549-aeca-419c-b660-bfc7e91a43ac","system_id":"levelo_inurba_marseille","lat":43.31487,"lon":5.37313,"is_reserved":false,"is_disabled":false,"rental_uris":{"android":"levelo://app?vid=c79e0549-aeca-419c-b660-bfc7e91a43ac","ios":"levelo://app?vid=c79e0549-aeca-419c-b660-bfc7e91a43ac"},"vehicle_type_id":"4","last_reported":1773217744,"current_range_meters":39200,"station_id":"ce4bgt12rcd13ifvqcd0","pricing_plan_id":"cebpf4jnsgd1na2vs0mg"},{"bike_id":"25ee8f06-2f70-477f-b0c9-11049b05cb6a","system_id":"levelo_inurba_marseille","lat":43.27472,"lon":5.42469,"is_reserved":false,"is_disabled":false,"rental_uris":{"android":"levelo://app?vid=25ee8f06-2f70-477f-b0c9-11049b05cb6a","ios":"levelo://app?vid=25ee8f06-2f70-477f-b0c9-11049b05cb6a"},"vehicle_type_id":"4","last_reported":1773217744,"current_range_meters":22000,"station_id":"ce4bhn92rcd13ifvqgrg","pricing_plan_id":"cebpf4jnsgd1na2vs0mg"},{"bike_id":"66796482-b4de-4f94-b605-12681c60b721","system_id":"levelo_inurba_marseille","lat":43.32478,"lon":5.41508,"is_reserved":false,"is_disabled":true,"rental_uris":{"android":"levelo://app?vid=66796482-b4de-4f94-b605-12681c60b721","ios":"levelo://app?vid=66796482-b4de-4f94-b605-12681c60b721"},"vehicle_type_id":"4","last_reported":1773217744,"current_range_meters":2000,"station_id":"","pricing_plan_id":"cebpf4jnsgd1na2vs0mg"},{"bike_id":"2ae42dd6-1c2d-422f-b349-05cc8dc2420e","system_id":"levelo_inurba_marseille","lat":43.24998,"lon":5.38928,"is_reserved":false,"is_disabled":false,"rental_uris":{"android":"levelo://app?vid=2ae42dd6-1c2d-422f-b349-05cc8dc2420e","ios":"levelo://app?vid=2ae42dd6-1c2d-422f-b349-05cc8dc2420e"},"vehicle_type_id":"4","last_reported":1773217744,"current_range_meters":34000,"station_id":"ce4bhgp2rcd13ifvqfd0","pricing_plan_id":"cebpf4jnsgd1na2vs0mg"},{"bike_id":"a63517d9-4acf-454c-8ecb-261b0e42bb01","system_id":"levelo_inurba_marseille","lat":43.30311,"lon":5.36909,"is_reserved":false,"is_disabled":false,"rental_uris":{"android":"levelo://app?vid=a63517d9-4acf-454c-8ecb-261b0e42bb01","ios":"levelo://app?vid=a63517d9-4acf-454c-8ecb-261b0e42bb01"},"vehicle_type_id":"4","last_reported":1773217744,"current_range_meters":39200,"station_id":"ce4bgqh2rcd13ifvqc5g","pricing_plan_id":"cebpf4jnsgd1na2vs0mg"},{"bike_id":"d0e204b5-6dd1-4f52-88bc-3b2bdf1cb73b","system_id":"levelo_inurba_marseille","lat":43.28406,"lon":5.34989,"is_reserved":false,"is_disabled":false,"rental_uris":{"android":"levelo://app?vid=d0e204b5-6dd1-4f52-88bc-3b2bdf1cb73b","ios":"levelo://app?vid=d0e204b5-6dd1-4f52-88bc-3b2bdf1cb73b"},"vehicle_type_id":"4","last_reported":1773217744,"current_range_meters":38400,"station_id":"ce4bhbh2rcd13ifvqepg","pricing_plan_id":"cebpf4jnsgd1na2vs0mg"},{"bike_id":"4035076b-e1f7-4550-ba18-40b5d2e4f17a","system_id":"levelo_inurba_marseille","lat":43.25278,"lon":5.39458,"is_reserved":false,"is_disabled":false,"rental_uris":{"android":"levelo://app?vid=4035076b-e1f7-4550-ba18-40b5d2e4f17a","ios":"levelo://app?vid=4035076b-e1f7-4550-ba18-40b5d2e4f17a"},"vehicle_type_id":"4","last_reported":1773217744,"current_range_meters":9200,"station_id":"","pricing_plan_id":"cebpf4jnsgd1na2vs0mg"},{"bike_id":"182a33c2-192b-4c16-af77-c32682d4109b","system_id":"levelo_inurba_marseille","lat":43.24173,"lon":5.39725,"is_reserved":false,"is_disabled":false,"rental_uris":{"android":"levelo://app?vid=182a33c2-192b-4c16-af77-c32682d4109b","ios":"levelo://app?vid=182a33c2-192b-4c16-af77-c32682d4109b"},"vehicle_type_id":"4","last_reported":1773217744,"current_range_meters":36400,"station_id":"ce4bhn12rcd13ifvqgpg","pricing_plan_id":"cebpf4jnsgd1na2vs0mg"},{"bike_id":"eb02f236-05c3-467a-8a2a-614e8f02443f","system_id":"levelo_inurba_marseille","lat":43.29597,"lon":5.37494,"is_reserved":false,"is_disabled":false,"rental_uris":{"android":"levelo://app?vid=eb02f236-05c3-467a-8a2a-614e8f02443f","ios":"levelo://app?vid=eb02f236-05c3-467a-8a2a-614e8f02443f"},"vehicle_type_id":"4","last_reported":1773217744,"current_range_meters":37600,"station_id":"ce4bgh92rcd13ifvqb50","pricing_plan_id":"cebpf4jnsgd1na2vs0mg"},{"bike_id":"539fd7c5-5646-434a-9078-e9a8e1b4bd94","system_id":"levelo_inurba_marseille","lat":43.28471,"lon":5.38432,"is_reserved":false,"is_disabled":false,"rental_uris":{"android":"levelo://app?vid=539fd7c5-5646-434a-9078-e9a8e1b4bd94","ios":"levelo://app?vid=539fd7c5-5646-434a-9078-e9a8e1b4bd94"},"vehicle_type_id":"4","last_reported":1773217744,"current_range_meters":31200,"station_id":"ce4bh512rcd13ifvqe3g","pricing_plan_id":"cebpf4jnsgd1na2vs0mg"},{"bike_id":"94ecc346-3888-4801-96b7-afa97a11f6a0","system_id":"levelo_inurba_marseille","lat":43.24545,"lon":5.39577,"is_reserved":false,"is_disabled":false,"rental_uris":{"android":"levelo://app?vid=94ecc346-3888-4801-96b7-afa97a11f6a0","ios":"levelo://app?vid=94ecc346-3888-4801-96b7-afa97a11f6a0"},"vehicle_type_id":"4","last_reported":1773217744,"current_range_meters":8800,"station_id":"ce4bhlp2rcd13ifvqgjg","pricing_plan_id":"cebpf4jnsgd1na2vs0mg"},{"bike_id":"7658921c-6dd4-421f-9684-911a5c663bf7","system_id":"levelo_inurba_marseille","lat":43.26541,"lon":5.37292,"is_reserved":false,"is_disabled":true,"rental_uris":{"android":"levelo://app?vid=7658921c-6dd4-421f-9684-911a5c663bf7","ios":"levelo://app?vid=7658921c-6dd4-421f-9684-911a5c663bf7"},"vehicle_type_id":"4","last_reported":1773217744,"current_range_meters":34800,"station_id":"ce4bhg12rcd13ifvqf70","pricing_plan_id":"cebpf4jnsgd1na2vs0mg"},{"bike_id":"c80708f5-c9c0-4a3b-b544-7dd6a5a20df3","system_id":"levelo_inurba_marseille","lat":43.27351,"lon":5.39126,"is_reserved":false,"is_disabled":false,"rental_uris":{"android":"levelo://app?vid=c80708f5-c9c0-4a3b-b544-7dd6a5a20df3","ios":"levelo://app?vid=c80708f5-c9c0-4a3b-b544-7dd6a5a20df3"},"vehicle_type_id":"4","last_reported":1773217744,"current_range_meters":38800,"station_id":"","pricing_plan_id":"cebpf4jnsgd1na2vs0mg"},{"bike_id":"73377c2b-23da-4998-83f8-d7bc874700c8","system_id":"levelo_inurba_marseille","lat":43.29565,"lon":5.37541,"is_reserved":false,"is_disabled":false,"rental_uris":{"android":"levelo://app?vid=73377c2b-23da-4998-83f8-d7bc874700c8","ios":"levelo://app?vid=73377c2b-23da-4998-83f8-d7bc874700c8"},"vehicle_type_id":"4","last_reported":1773217744,"current_range_meters":39200,"station_id":"ce4bgh92rcd13ifvqb50","pricing_plan_id":"cebpf4jnsgd1na2vs0mg"},{"bike_id":"faa6004d-cd41-4008-8bcc-b182163123b5","system_id":"levelo_inurba_marseille","lat":43.24169,"lon":5.364,"is_reserved":false,"is_disabled":false,"rental_uris":{"android":"levelo://app?vid=faa6004d-cd41-4008-8bcc-b182163123b5","ios":"levelo://app?vid=faa6004d-cd41-4008-8bcc-b182163123b5"},"vehicle_type_id":"4","last_reported":1773217744,"current_range_meters":12000,"station_id":"cpo36qri1sfpv3e86is0","pricing_plan_id":"cebpf4jnsgd1na2vs0mg"},{"bike_id":"643a041d-3faf-4dc4-a3ad-d2cb17d6236c","system_id":"levelo_inurba_marseille","lat":43.29932,"lon":5.37463,"is_reserved":false,"is_disabled":false,"rental_uris":{"android":"levelo://app?vid=643a041d-3faf-4dc4-a3ad-d2cb17d6236c","ios":"levelo://app?vid=643a041d-3faf-4dc4-a3ad-d2cb17d6236c"},"vehicle_type_id":"4","last_reported":1773217744,"current_range_meters":37600,"station_id":"ce4bgjh2rcd13ifvqbg0","pricing_plan_id":"cebpf4jnsgd1na2vs0mg"},{"bike_id":"a98a2ffa-f3fb-4c8b-86b7-609f1d5345a7","system_id":"levelo_inurba_marseille","lat":43.30298,"lon":5.3689,"is_reserved":false,"is_disabled":false,"rental_uris":{"android":"levelo://app?vid=a98a2ffa-f3fb-4c8b-86b7-609f1d5345a7","ios":"levelo://app?vid=a98a2ffa-f3fb-4c8b-86b7-609f1d5345a7"},"vehicle_type_id":"4","last_reported":1773217744,"current_range_meters":29600,"station_id":"ce4bgqh2rcd13ifvqc5g","pricing_plan_id":"cebpf4jnsgd1na2vs0mg"},{"bike_id":"90c21d76-cccc-4252-975d-3a89242c8302","system_id":"levelo_inurba_marseille","lat":43.30588,"lon":5.37229,"is_reserved":false,"is_disabled":false,"rental_uris":{"android":"levelo://app?vid=90c21d76-cccc-4252-975d-3a89242c8302","ios":"levelo://app?vid=90c21d76-cccc-4252-975d-3a89242c8302"},"vehicle_type_id":"4","last_reported":1773217744,"current_range_meters":39200,"station_id":"ce4bgqh2rcd13ifvqc4g","pricing_plan_id":"cebpf4jnsgd1na2vs0mg"},{"bike_id":"17ce7070-d813-4eaf-a544-6259968aa271","system_id":"levelo_inurba_marseille","lat":43.31124,"lon":5.36891,"is_reserved":false,"is_disabled":false,"rental_uris":{"android":"levelo://app?vid=17ce7070-d813-4eaf-a544-6259968aa271","ios":"levelo://app?vid=17ce7070-d813-4eaf-a544-6259968aa271"},"vehicle_type_id":"4","last_reported":1773217744,"current_range_meters":8800,"station_id":"","pricing_plan_id":"cebpf4jnsgd1na2vs0mg"},{"bike_id":"bd397dac-97a0-4bb3-82c1-a84a04fd6c02","system_id":"levelo_inurba_marseille","lat":43.27213,"lon":5.39184,"is_reserved":false,"is_disabled":false,"rental_uris":{"android":"levelo://app?vid=bd397dac-97a0-4bb3-82c1-a84a04fd6c02","ios":"levelo://app?vid=bd397dac-97a0-4bb3-82c1-a84a04fd6c02"},"vehicle_type_id":"4","last_reported":1773217744,"current_range_meters":36800,"station_id":"ce4bhhp2rcd13ifvqfm0","pricing_plan_id":"cebpf4jnsgd1na2vs0mg"},{"bike_id":"84edac93-97f0-4f16-980c-7e1b057bc44a","system_id":"levelo_inurba_marseille","lat":43.25822,"lon":5.39445,"is_reserved":false,"is_disabled":false,"rental_uris":{"android":"levelo://app?vid=84edac93-97f0-4f16-980c-7e1b057bc44a","ios":"levelo://app?vid=84edac93-97f0-4f16-980c-7e1b057bc44a"},"vehicle_type_id":"4","last_reported":1773217744,"current_range_meters":27200,"station_id":"ce4bhip2rcd13ifvqft0","pricing_plan_id":"cebpf4jnsgd1na2vs0mg"},{"bike_id":"16ced00d-b75b-480f-bfe3-587817c52078","system_id":"levelo_inurba_marseille","lat":43.24652,"lon":5.3894,"is_reserved":false,"is_disabled":false,"rental_uris":{"android":"levelo://app?vid=16ced00d-b75b-480f-bfe3-587817c52078","ios":"levelo://app?vid=16ced00d-b75b-480f-bfe3-587817c52078"},"vehicle_type_id":"4","last_reported":1773217744,"current_range_meters":38400,"station_id":"ce4bhg12rcd13ifvqf60","pricing_plan_id":"cebpf4jnsgd1na2vs0mg"},{"bike_id":"095740f3-4e12-4adb-8a1a-03aa33c9cd08","system_id":"levelo_inurba_marseille","lat":43.26491,"lon":5.37331,"is_reserved":false,"is_disabled":false,"rental_uris":{"android":"levelo://app?vid=095740f3-4e12-4adb-8a1a-03aa33c9cd08","ios":"levelo://app?vid=095740f3-4e12-4adb-8a1a-03aa33c9cd08"},"vehicle_type_id":"4","last_reported":1773217744,"current_range_meters":14000,"station_id":"","pricing_plan_id":"cebpf4jnsgd1na2vs0mg"},{"bike_id":"07d667a1-20cd-44c6-a08f-d51c851309d8","system_id":"levelo_inurba_marseille","lat":43.29778,"lon":5.37099,"is_reserved":false,"is_disabled":false,"rental_uris":{"android":"levelo://app?vid=07d667a1-20cd-44c6-a08f-d51c851309d8","ios":"levelo://app?vid=07d667a1-20cd-44c6-a08f-d51c851309d8"},"vehicle_type_id":"4","last_reported":1773217744,"current_range_meters":26000,"station_id":"ce4bgop2rcd13ifvqc1g","pricing_plan_id":"cebpf4jnsgd1na2vs0mg"},{"bike_id":"566d1d1a-0852-4e0d-907b-e1334e0d6bf9","system_id":"levelo_inurba_marseille","lat":43.23779,"lon":5.36646,"is_reserved":false,"is_disabled":false,"rental_uris":{"android":"levelo://app?vid=566d1d1a-0852-4e0d-907b-e1334e0d6bf9","ios":"levelo://app?vid=566d1d1a-0852-4e0d-907b-e1334e0d6bf9"},"vehicle_type_id":"4","last_reported":1773217744,"current_range_meters":14800,"station_id":"st_d3nk18o9ro0c73en2l3g","pricing_plan_id":"cebpf4jnsgd1na2vs0mg"},{"bike_id":"ba4d6291-f191-48b7-a6a8-ceee01b66f96","system_id":"levelo_inurba_marseille","lat":43.28129,"lon":5.38214,"is_reserved":false,"is_disabled":false,"rental_uris":{"android":"levelo://app?vid=ba4d6291-f191-48b7-a6a8-ceee01b66f96","ios":"levelo://app?vid=ba4d6291-f191-48b7-a6a8-ceee01b66f96"},"vehicle_type_id":"4","last_reported":1773217744,"current_range_meters":22400,"station_id":"","pricing_plan_id":"cebpf4jnsgd1na2vs0mg"},{"bike_id":"dd6d12c4-c00c-4021-839a-f38c2ba6c7b9","system_id":"levelo_inurba_marseille","lat":43.27214,"lon":5.39202,"is_reserved":false,"is_disabled":false,"rental_uris":{"android":"levelo://app?vid=dd6d12c4-c00c-4021-839a-f38c2ba6c7b9","ios":"levelo://app?vid=dd6d12c4-c00c-4021-839a-f38c2ba6c7b9"},"vehicle_type_id":"4","last_reported":1773217744,"current_range_meters":39200,"station_id":"ce4bhhp2rcd13ifvqfm0","pricing_plan_id":"cebpf4jnsgd1na2vs0mg"},{"bike_id":"a909a764-e9d1-4c4c-8c59-f216fb53565d","system_id":"levelo_inurba_marseille","lat":43.292,"lon":5.39313,"is_reserved":false,"is_disabled":false,"rental_uris":{"android":"levelo://app?vid=a909a764-e9d1-4c4c-8c59-f216fb53565d","ios":"levelo://app?vid=a909a764-e9d1-4c4c-8c59-f216fb53565d"},"vehicle_type_id":"4","last_reported":1773217744,"current_range_meters":35600,"station_id":"ce4bh192rcd13ifvqdd0","pricing_plan_id":"cebpf4jnsgd1na2vs0mg"},{"bike_id":"13f5d6ee-b5b6-4f72-86db-f808654551b8","system_id":"levelo_inurba_marseille","lat":43.29906,"lon":5.43653,"is_reserved":false,"is_disabled":false,"rental_uris":{"android":"levelo://app?vid=13f5d6ee-b5b6-4f72-86db-f808654551b8","ios":"levelo://app?vid=13f5d6ee-b5b6-4f72-86db-f808654551b8"},"vehicle_type_id":"4","last_reported":1773217744,"current_range_meters":28800,"station_id":"ce4bhpp2rcd13ifvqhfg","pricing_plan_id":"cebpf4jnsgd1na2vs0mg"},{"bike_id":"1c573354-cf53-44d3-9111-eb37080df88e","system_id":"levelo_inurba_marseille","lat":43.31564,"lon":5.37333,"is_reserved":false,"is_disabled":false,"rental_uris":{"android":"levelo://app?vid=1c573354-cf53-44d3-9111-eb37080df88e","ios":"levelo://app?vid=1c573354-cf53-44d3-9111-eb37080df88e"},"vehicle_type_id":"4","last_reported":1773217744,"current_range_meters":18000,"station_id":"","pricing_plan_id":"cebpf4jnsgd1na2vs0mg"},{"bike_id":"4681a970-3332-4681-8ab0-503cc4b97467","system_id":"levelo_inurba_marseille","lat":43.27309,"lon":5.39076,"is_reserved":false,"is_disabled":false,"rental_uris":{"android":"levelo://app?vid=4681a970-3332-4681-8ab0-503cc4b97467","ios":"levelo://app?vid=4681a970-3332-4681-8ab0-503cc4b97467"},"vehicle_type_id":"4","last_reported":1773217744,"current_range_meters":39200,"station_id":"ce4bhgp2rcd13ifvqfe0","pricing_plan_id":"cebpf4jnsgd1na2vs0mg"},{"bike_id":"8b783c91-f0ea-46f4-943f-be57fd8cd390","system_id":"levelo_inurba_marseille","lat":43.25937,"lon":5.40901,"is_reserved":false,"is_disabled":false,"rental_uris":{"android":"levelo://app?vid=8b783c91-f0ea-46f4-943f-be57fd8cd390","ios":"levelo://app?vid=8b783c91-f0ea-46f4-943f-be57fd8cd390"},"vehicle_type_id":"4","last_reported":1773217744,"current_range_meters":14400,"station_id":"ce4bhm92rcd13ifvqglg","pricing_plan_id":"cebpf4jnsgd1na2vs0mg"},{"bike_id":"d9ae451b-394d-4600-bc8e-250781c8b682","system_id":"levelo_inurba_marseille","lat":43.26563,"lon":5.37286,"is_reserved":false,"is_disabled":false,"rental_uris":{"android":"levelo://app?vid=d9ae451b-394d-4600-bc8e-250781c8b682","ios":"levelo://app?vid=d9ae451b-394d-4600-bc8e-250781c8b682"},"vehicle_type_id":"4","last_reported":1773217744,"current_range_meters":16000,"station_id":"ce4bhg12rcd13ifvqf70","pricing_plan_id":"cebpf4jnsgd1na2vs0mg"},{"bike_id":"c33732c3-34b3-43cf-9550-258c10091c04","system_id":"levelo_inurba_marseille","lat":43.2991,"lon":5.42111,"is_reserved":false,"is_disabled":false,"rental_uris":{"android":"levelo://app?vid=c33732c3-34b3-43cf-9550-258c10091c04","ios":"levelo://app?vid=c33732c3-34b3-43cf-9550-258c10091c04"},"vehicle_type_id":"4","last_reported":1773217744,"current_range_meters":38400,"station_id":"","pricing_plan_id":"cebpf4jnsgd1na2vs0mg"},{"bike_id":"17b09d81-d149-4724-af91-a2adea08448a","system_id":"levelo_inurba_marseille","lat":43.29292,"lon":5.37158,"is_reserved":false,"is_disabled":false,"rental_uris":{"android":"levelo://app?vid=17b09d81-d149-4724-af91-a2adea08448a","ios":"levelo://app?vid=17b09d81-d149-4724-af91-a2adea08448a"},"vehicle_type_id":"4","last_reported":1773217744,"current_range_meters":28800,"station_id":"ce4bgh92rcd13ifvqb40","pricing_plan_id":"cebpf4jnsgd1na2vs0mg"},{"bike_id":"c0f5bd4a-cbc2-427a-92f0-0be45de4abfd","system_id":"levelo_inurba_marseille","lat":43.28537,"lon":5.44112,"is_reserved":false,"is_disabled":false,"rental_uris":{"android":"levelo://app?vid=c0f5bd4a-cbc2-427a-92f0-0be45de4abfd","ios":"levelo://app?vid=c0f5bd4a-cbc2-427a-92f0-0be45de4abfd"},"vehicle_type_id":"4","last_reported":1773217744,"current_range_meters":6800,"station_id":"st_d3j3df2ikq2c7380ej80","pricing_plan_id":"cebpf4jnsgd1na2vs0mg"},{"bike_id":"9acb9c36-c39f-4423-9d70-4561b4f2ce90","system_id":"levelo_inurba_marseille","lat":43.30354,"lon":5.42488,"is_reserved":false,"is_disabled":false,"rental_uris":{"android":"levelo://app?vid=9acb9c36-c39f-4423-9d70-4561b4f2ce90","ios":"levelo://app?vid=9acb9c36-c39f-4423-9d70-4561b4f2ce90"},"vehicle_type_id":"4","last_reported":1773217744,"current_range_meters":36800,"station_id":"","pricing_plan_id":"cebpf4jnsgd1na2vs0mg"},{"bike_id":"9361e921-3adb-44ab-82c7-577f09a13f38","system_id":"levelo_inurba_marseille","lat":43.24153,"lon":5.39738,"is_reserved":false,"is_disabled":false,"rental_uris":{"android":"levelo://app?vid=9361e921-3adb-44ab-82c7-577f09a13f38","ios":"levelo://app?vid=9361e921-3adb-44ab-82c7-577f09a13f38"},"vehicle_type_id":"4","last_reported":1773217744,"current_range_meters":39200,"station_id":"ce4bhn12rcd13ifvqgpg","pricing_plan_id":"cebpf4jnsgd1na2vs0mg"},{"bike_id":"6eaf328c-de35-4b3f-8c0e-4c90d9499b4b","system_id":"levelo_inurba_marseille","lat":43.32118,"lon":5.36773,"is_reserved":false,"is_disabled":false,"rental_uris":{"android":"levelo://app?vid=6eaf328c-de35-4b3f-8c0e-4c90d9499b4b","ios":"levelo://app?vid=6eaf328c-de35-4b3f-8c0e-4c90d9499b4b"},"vehicle_type_id":"4","last_reported":1773217744,"current_range_meters":38400,"station_id":"ce4bhrh2rcd13ifvqhug","pricing_plan_id":"cebpf4jnsgd1na2vs0mg"},{"bike_id":"a5eb7e2e-f45f-42c7-8ba3-bf76c2472338","system_id":"levelo_inurba_marseille","lat":43.30207,"lon":5.39438,"is_reserved":false,"is_disabled":false,"rental_uris":{"android":"levelo://app?vid=a5eb7e2e-f45f-42c7-8ba3-bf76c2472338","ios":"levelo://app?vid=a5eb7e2e-f45f-42c7-8ba3-bf76c2472338"},"vehicle_type_id":"4","last_reported":1773217744,"current_range_meters":25200,"station_id":"ce4bh0p2rcd13ifvqd70","pricing_plan_id":"cebpf4jnsgd1na2vs0mg"},{"bike_id":"bb4d2406-b5bc-49be-9f7c-f47fcdbe593b","system_id":"levelo_inurba_marseille","lat":43.30576,"lon":5.36734,"is_reserved":false,"is_disabled":false,"rental_uris":{"android":"levelo://app?vid=bb4d2406-b5bc-49be-9f7c-f47fcdbe593b","ios":"levelo://app?vid=bb4d2406-b5bc-49be-9f7c-f47fcdbe593b"},"vehicle_type_id":"4","last_reported":1773217744,"current_range_meters":38400,"station_id":"ce4bgrp2rcd13ifvqc9g","pricing_plan_id":"cebpf4jnsgd1na2vs0mg"},{"bike_id":"fda7a845-f92c-419b-81b8-71eaee9a407d","system_id":"levelo_inurba_marseille","lat":43.29534,"lon":5.37509,"is_reserved":false,"is_disabled":false,"rental_uris":{"android":"levelo://app?vid=fda7a845-f92c-419b-81b8-71eaee9a407d","ios":"levelo://app?vid=fda7a845-f92c-419b-81b8-71eaee9a407d"},"vehicle_type_id":"4","last_reported":1773217744,"current_range_meters":37600,"station_id":"ce4bgkp2rcd13ifvqbmg","pricing_plan_id":"cebpf4jnsgd1na2vs0mg"},{"bike_id":"5f72350b-2c43-4ae3-97f1-1beffc338161","system_id":"levelo_inurba_marseille","lat":43.2396,"lon":5.36649,"is_reserved":false,"is_disabled":false,"rental_uris":{"android":"levelo://app?vid=5f72350b-2c43-4ae3-97f1-1beffc338161","ios":"levelo://app?vid=5f72350b-2c43-4ae3-97f1-1beffc338161"},"vehicle_type_id":"4","last_reported":1773217744,"current_range_meters":39200,"station_id":"ce4bhi12rcd13ifvqfp0","pricing_plan_id":"cebpf4jnsgd1na2vs0mg"},{"bike_id":"00adc013-06bc-44f0-92b9-114da8a17fc8","system_id":"levelo_inurba_marseille","lat":43.29665,"lon":5.39368,"is_reserved":false,"is_disabled":false,"rental_uris":{"android":"levelo://app?vid=00adc013-06bc-44f0-92b9-114da8a17fc8","ios":"levelo://app?vid=00adc013-06bc-44f0-92b9-114da8a17fc8"},"vehicle_type_id":"4","last_reported":1773217744,"current_range_meters":9200,"station_id":"","pricing_plan_id":"cebpf4jnsgd1na2vs0mg"},{"bike_id":"a9f2a214-0b28-434f-a80c-334d78dcfe7c","system_id":"levelo_inurba_marseille","lat":43.29231,"lon":5.36073,"is_reserved":false,"is_disabled":false,"rental_uris":{"android":"levelo://app?vid=a9f2a214-0b28-434f-a80c-334d78dcfe7c","ios":"levelo://app?vid=a9f2a214-0b28-434f-a80c-334d78dcfe7c"},"vehicle_type_id":"4","last_reported":1773217744,"current_range_meters":39200,"station_id":"ce4bhbh2rcd13ifvqeqg","pricing_plan_id":"cebpf4jnsgd1na2vs0mg"},{"bike_id":"73355373-2d2c-4850-beb6-f530137cdd8e","system_id":"levelo_inurba_marseille","lat":43.33155,"lon":5.37686,"is_reserved":false,"is_disabled":false,"rental_uris":{"android":"levelo://app?vid=73355373-2d2c-4850-beb6-f530137cdd8e","ios":"levelo://app?vid=73355373-2d2c-4850-beb6-f530137cdd8e"},"vehicle_type_id":"4","last_reported":1773217744,"current_range_meters":17600,"station_id":"st_d46cu089ee8s73dldbu0","pricing_plan_id":"cebpf4jnsgd1na2vs0mg"},{"bike_id":"f27be3cb-d5fc-4498-8e52-861d9b4aac8e","system_id":"levelo_inurba_marseille","lat":43.24808,"lon":5.3746,"is_reserved":false,"is_disabled":false,"rental_uris":{"android":"levelo://app?vid=f27be3cb-d5fc-4498-8e52-861d9b4aac8e","ios":"levelo://app?vid=f27be3cb-d5fc-4498-8e52-861d9b4aac8e"},"vehicle_type_id":"4","last_reported":1773217744,"current_range_meters":37600,"station_id":"ce4bhgh2rcd13ifvqfb0","pricing_plan_id":"cebpf4jnsgd1na2vs0mg"},{"bike_id":"3d7b1bec-2a06-47da-a7d0-796cda99d14f","system_id":"levelo_inurba_marseille","lat":43.27062,"lon":5.38319,"is_reserved":false,"is_disabled":false,"rental_uris":{"android":"levelo://app?vid=3d7b1bec-2a06-47da-a7d0-796cda99d14f","ios":"levelo://app?vid=3d7b1bec-2a06-47da-a7d0-796cda99d14f"},"vehicle_type_id":"4","last_reported":1773217744,"current_range_meters":20400,"station_id":"st_d3n2fo6cfp8s73cte1j0","pricing_plan_id":"cebpf4jnsgd1na2vs0mg"},{"bike_id":"571cdadb-645f-4884-a710-d1e512ca8e71","system_id":"levelo_inurba_marseille","lat":43.31344,"lon":5.36715,"is_reserved":false,"is_disabled":false,"rental_uris":{"android":"levelo://app?vid=571cdadb-645f-4884-a710-d1e512ca8e71","ios":"levelo://app?vid=571cdadb-645f-4884-a710-d1e512ca8e71"},"vehicle_type_id":"4","last_reported":1773217744,"current_range_meters":38000,"station_id":"ce4bgr92rcd13ifvqc6g","pricing_plan_id":"cebpf4jnsgd1na2vs0mg"},{"bike_id":"29c48619-c09f-40a3-95ce-809e2adde678","system_id":"levelo_inurba_marseille","lat":43.28458,"lon":5.35894,"is_reserved":false,"is_disabled":false,"rental_uris":{"android":"levelo://app?vid=29c48619-c09f-40a3-95ce-809e2adde678","ios":"levelo://app?vid=29c48619-c09f-40a3-95ce-809e2adde678"},"vehicle_type_id":"4","last_reported":1773217744,"current_range_meters":6000,"station_id":"ce4bhah2rcd13ifvqei0","pricing_plan_id":"cebpf4jnsgd1na2vs0mg"},{"bike_id":"2386054f-29f0-4bbb-b4c5-1b35b953f1c0","system_id":"levelo_inurba_marseille","lat":43.25004,"lon":5.3893,"is_reserved":false,"is_disabled":false,"rental_uris":{"android":"levelo://app?vid=2386054f-29f0-4bbb-b4c5-1b35b953f1c0","ios":"levelo://app?vid=2386054f-29f0-4bbb-b4c5-1b35b953f1c0"},"vehicle_type_id":"4","last_reported":1773217744,"current_range_meters":40000,"station_id":"ce4bhgp2rcd13ifvqfd0","pricing_plan_id":"cebpf4jnsgd1na2vs0mg"},{"bike_id":"937372f5-5b7b-47bc-8f0c-ea6079dd82b4","system_id":"levelo_inurba_marseille","lat":43.25953,"lon":5.40921,"is_reserved":false,"is_disabled":false,"rental_uris":{"android":"levelo://app?vid=937372f5-5b7b-47bc-8f0c-ea6079dd82b4","ios":"levelo://app?vid=937372f5-5b7b-47bc-8f0c-ea6079dd82b4"},"vehicle_type_id":"4","last_reported":1773217744,"current_range_meters":9600,"station_id":"ce4bhm92rcd13ifvqglg","pricing_plan_id":"cebpf4jnsgd1na2vs0mg"},{"bike_id":"dd854777-f378-4132-94e6-63027cc18b82","system_id":"levelo_inurba_marseille","lat":43.29727,"lon":5.41059,"is_reserved":false,"is_disabled":false,"rental_uris":{"android":"levelo://app?vid=dd854777-f378-4132-94e6-63027cc18b82","ios":"levelo://app?vid=dd854777-f378-4132-94e6-63027cc18b82"},"vehicle_type_id":"4","last_reported":1773217744,"current_range_meters":30000,"station_id":"","pricing_plan_id":"cebpf4jnsgd1na2vs0mg"},{"bike_id":"6c20b355-ec5d-456e-89dc-7a2d7bee4927","system_id":"levelo_inurba_marseille","lat":43.29231,"lon":5.35811,"is_reserved":false,"is_disabled":false,"rental_uris":{"android":"levelo://app?vid=6c20b355-ec5d-456e-89dc-7a2d7bee4927","ios":"levelo://app?vid=6c20b355-ec5d-456e-89dc-7a2d7bee4927"},"vehicle_type_id":"4","last_reported":1773217744,"current_range_meters":27600,"station_id":"ce4bhb12rcd13ifvqel0","pricing_plan_id":"cebpf4jnsgd1na2vs0mg"},{"bike_id":"8bb61b0a-3b8c-41ed-b28b-1ae38f2e8b15","system_id":"levelo_inurba_marseille","lat":43.27062,"lon":5.40268,"is_reserved":false,"is_disabled":false,"rental_uris":{"android":"levelo://app?vid=8bb61b0a-3b8c-41ed-b28b-1ae38f2e8b15","ios":"levelo://app?vid=8bb61b0a-3b8c-41ed-b28b-1ae38f2e8b15"},"vehicle_type_id":"4","last_reported":1773217744,"current_range_meters":10000,"station_id":"ce4bhk92rcd13ifvqgc0","pricing_plan_id":"cebpf4jnsgd1na2vs0mg"},{"bike_id":"45adedb5-18f7-4dec-9f82-dd4399f0bfc4","system_id":"levelo_inurba_marseille","lat":43.28743,"lon":5.37934,"is_reserved":false,"is_disabled":false,"rental_uris":{"android":"levelo://app?vid=45adedb5-18f7-4dec-9f82-dd4399f0bfc4","ios":"levelo://app?vid=45adedb5-18f7-4dec-9f82-dd4399f0bfc4"},"vehicle_type_id":"4","last_reported":1773217744,"current_range_meters":28000,"station_id":"ce4bh9p2rcd13ifvqec0","pricing_plan_id":"cebpf4jnsgd1na2vs0mg"},{"bike_id":"003d1d08-fcf1-4e48-b79d-cd47497b0244","system_id":"levelo_inurba_marseille","lat":43.29575,"lon":5.37502,"is_reserved":false,"is_disabled":true,"rental_uris":{"android":"levelo://app?vid=003d1d08-fcf1-4e48-b79d-cd47497b0244","ios":"levelo://app?vid=003d1d08-fcf1-4e48-b79d-cd47497b0244"},"vehicle_type_id":"4","last_reported":1773217744,"current_range_meters":36000,"station_id":"ce4bgh92rcd13ifvqb50","pricing_plan_id":"cebpf4jnsgd1na2vs0mg"},{"bike_id":"532f1fe9-6384-4056-88f3-ddfdd084688a","system_id":"levelo_inurba_marseille","lat":43.29811,"lon":5.4188,"is_reserved":false,"is_disabled":false,"rental_uris":{"android":"levelo://app?vid=532f1fe9-6384-4056-88f3-ddfdd084688a","ios":"levelo://app?vid=532f1fe9-6384-4056-88f3-ddfdd084688a"},"vehicle_type_id":"4","last_reported":1773217744,"current_range_meters":30400,"station_id":"","pricing_plan_id":"cebpf4jnsgd1na2vs0mg"},{"bike_id":"7b13b3db-41b1-4922-a06b-13fea874a109","system_id":"levelo_inurba_marseille","lat":43.31202,"lon":5.36854,"is_reserved":false,"is_disabled":false,"rental_uris":{"android":"levelo://app?vid=7b13b3db-41b1-4922-a06b-13fea874a109","ios":"levelo://app?vid=7b13b3db-41b1-4922-a06b-13fea874a109"},"vehicle_type_id":"4","last_reported":1773217744,"current_range_meters":28800,"station_id":"ce4bgl92rcd13ifvqbq0","pricing_plan_id":"cebpf4jnsgd1na2vs0mg"},{"bike_id":"3c8d6bce-d9c4-4269-82c6-7e6f35ffe4b3","system_id":"levelo_inurba_marseille","lat":43.29594,"lon":5.3747,"is_reserved":false,"is_disabled":false,"rental_uris":{"android":"levelo://app?vid=3c8d6bce-d9c4-4269-82c6-7e6f35ffe4b3","ios":"levelo://app?vid=3c8d6bce-d9c4-4269-82c6-7e6f35ffe4b3"},"vehicle_type_id":"4","last_reported":1773217744,"current_range_meters":10800,"station_id":"ce4bgh92rcd13ifvqb50","pricing_plan_id":"cebpf4jnsgd1na2vs0mg"},{"bike_id":"af54dd39-b9bb-475e-a865-ef76c9332c4b","system_id":"levelo_inurba_marseille","lat":43.28421,"lon":5.38198,"is_reserved":false,"is_disabled":false,"rental_uris":{"android":"levelo://app?vid=af54dd39-b9bb-475e-a865-ef76c9332c4b","ios":"levelo://app?vid=af54dd39-b9bb-475e-a865-ef76c9332c4b"},"vehicle_type_id":"4","last_reported":1773217744,"current_range_meters":31200,"station_id":"","pricing_plan_id":"cebpf4jnsgd1na2vs0mg"},{"bike_id":"8bd56941-d06d-4b5d-9822-fb9dd92450c1","system_id":"levelo_inurba_marseille","lat":43.23147,"lon":5.43712,"is_reserved":false,"is_disabled":false,"rental_uris":{"android":"levelo://app?vid=8bd56941-d06d-4b5d-9822-fb9dd92450c1","ios":"levelo://app?vid=8bd56941-d06d-4b5d-9822-fb9dd92450c1"},"vehicle_type_id":"4","last_reported":1773217744,"current_range_meters":3600,"station_id":"ce4bhmp2rcd13ifvqgog","pricing_plan_id":"cebpf4jnsgd1na2vs0mg"},{"bike_id":"5ff4eed9-cc94-417e-b8b0-f370f495b41d","system_id":"levelo_inurba_marseille","lat":43.28164,"lon":5.42648,"is_reserved":false,"is_disabled":false,"rental_uris":{"android":"levelo://app?vid=5ff4eed9-cc94-417e-b8b0-f370f495b41d","ios":"levelo://app?vid=5ff4eed9-cc94-417e-b8b0-f370f495b41d"},"vehicle_type_id":"4","last_reported":1773217744,"current_range_meters":24000,"station_id":"ce4bhnh2rcd13ifvqgug","pricing_plan_id":"cebpf4jnsgd1na2vs0mg"},{"bike_id":"401e6a51-cb08-4a54-a3b3-32cced469dcd","system_id":"levelo_inurba_marseille","lat":43.3058,"lon":5.39364,"is_reserved":false,"is_disabled":false,"rental_uris":{"android":"levelo://app?vid=401e6a51-cb08-4a54-a3b3-32cced469dcd","ios":"levelo://app?vid=401e6a51-cb08-4a54-a3b3-32cced469dcd"},"vehicle_type_id":"4","last_reported":1773217744,"current_range_meters":35200,"station_id":"ce4bh0p2rcd13ifvqd80","pricing_plan_id":"cebpf4jnsgd1na2vs0mg"},{"bike_id":"9c43543f-fc19-4ea8-90b0-d1837be6e5d0","system_id":"levelo_inurba_marseille","lat":43.26559,"lon":5.37295,"is_reserved":false,"is_disabled":false,"rental_uris":{"android":"levelo://app?vid=9c43543f-fc19-4ea8-90b0-d1837be6e5d0","ios":"levelo://app?vid=9c43543f-fc19-4ea8-90b0-d1837be6e5d0"},"vehicle_type_id":"4","last_reported":1773217744,"current_range_meters":39200,"station_id":"ce4bhg12rcd13ifvqf70","pricing_plan_id":"cebpf4jnsgd1na2vs0mg"},{"bike_id":"b94c3b6d-7912-4bb7-bd16-b874ff101a3d","system_id":"levelo_inurba_marseille","lat":43.24797,"lon":5.37453,"is_reserved":false,"is_disabled":false,"rental_uris":{"android":"levelo://app?vid=b94c3b6d-7912-4bb7-bd16-b874ff101a3d","ios":"levelo://app?vid=b94c3b6d-7912-4bb7-bd16-b874ff101a3d"},"vehicle_type_id":"4","last_reported":1773217744,"current_range_meters":28800,"station_id":"ce4bhgh2rcd13ifvqfb0","pricing_plan_id":"cebpf4jnsgd1na2vs0mg"},{"bike_id":"4c16535f-45b7-4219-854d-c74170118360","system_id":"levelo_inurba_marseille","lat":43.24944,"lon":5.40504,"is_reserved":false,"is_disabled":false,"rental_uris":{"android":"levelo://app?vid=4c16535f-45b7-4219-854d-c74170118360","ios":"levelo://app?vid=4c16535f-45b7-4219-854d-c74170118360"},"vehicle_type_id":"4","last_reported":1773217744,"current_range_meters":8000,"station_id":"st_d2ngiaodas8pm72gd1h0","pricing_plan_id":"cebpf4jnsgd1na2vs0mg"},{"bike_id":"05f10376-920a-4e54-ab2d-37940827b657","system_id":"levelo_inurba_marseille","lat":43.32111,"lon":5.3677,"is_reserved":false,"is_disabled":false,"rental_uris":{"android":"levelo://app?vid=05f10376-920a-4e54-ab2d-37940827b657","ios":"levelo://app?vid=05f10376-920a-4e54-ab2d-37940827b657"},"vehicle_type_id":"4","last_reported":1773217744,"current_range_meters":30800,"station_id":"ce4bhrh2rcd13ifvqhug","pricing_plan_id":"cebpf4jnsgd1na2vs0mg"},{"bike_id":"7de6ca69-27cb-4f01-b0b4-5059a464752e","system_id":"levelo_inurba_marseille","lat":43.26698,"lon":5.38269,"is_reserved":false,"is_disabled":false,"rental_uris":{"android":"levelo://app?vid=7de6ca69-27cb-4f01-b0b4-5059a464752e","ios":"levelo://app?vid=7de6ca69-27cb-4f01-b0b4-5059a464752e"},"vehicle_type_id":"4","last_reported":1773217744,"current_range_meters":39200,"station_id":"ce4bhg92rcd13ifvqf90","pricing_plan_id":"cebpf4jnsgd1na2vs0mg"},{"bike_id":"1571cd23-3e05-4a34-a3fd-964238daee25","system_id":"levelo_inurba_marseille","lat":43.31198,"lon":5.36914,"is_reserved":false,"is_disabled":false,"rental_uris":{"android":"levelo://app?vid=1571cd23-3e05-4a34-a3fd-964238daee25","ios":"levelo://app?vid=1571cd23-3e05-4a34-a3fd-964238daee25"},"vehicle_type_id":"4","last_reported":1773217744,"current_range_meters":3200,"station_id":"ce4bgl92rcd13ifvqbq0","pricing_plan_id":"cebpf4jnsgd1na2vs0mg"},{"bike_id":"55bd5bac-e5e3-4912-aac3-69de96a3e316","system_id":"levelo_inurba_marseille","lat":43.3248,"lon":5.38281,"is_reserved":false,"is_disabled":false,"rental_uris":{"android":"levelo://app?vid=55bd5bac-e5e3-4912-aac3-69de96a3e316","ios":"levelo://app?vid=55bd5bac-e5e3-4912-aac3-69de96a3e316"},"vehicle_type_id":"4","last_reported":1773217744,"current_range_meters":19200,"station_id":"st_d4asgbiv49dc73anf9m0","pricing_plan_id":"cebpf4jnsgd1na2vs0mg"},{"bike_id":"ff7bc7f2-7e0b-4064-8199-044e49fbc425","system_id":"levelo_inurba_marseille","lat":43.29854,"lon":5.36286,"is_reserved":false,"is_disabled":false,"rental_uris":{"android":"levelo://app?vid=ff7bc7f2-7e0b-4064-8199-044e49fbc425","ios":"levelo://app?vid=ff7bc7f2-7e0b-4064-8199-044e49fbc425"},"vehicle_type_id":"4","last_reported":1773217744,"current_range_meters":39200,"station_id":"ce4bgpp2rcd13ifvqc3g","pricing_plan_id":"cebpf4jnsgd1na2vs0mg"},{"bike_id":"2301d092-fcd2-45f3-804a-bf87c6aa69a3","system_id":"levelo_inurba_marseille","lat":43.29571,"lon":5.37614,"is_reserved":false,"is_disabled":false,"rental_uris":{"android":"levelo://app?vid=2301d092-fcd2-45f3-804a-bf87c6aa69a3","ios":"levelo://app?vid=2301d092-fcd2-45f3-804a-bf87c6aa69a3"},"vehicle_type_id":"4","last_reported":1773217744,"current_range_meters":19600,"station_id":"","pricing_plan_id":"cebpf4jnsgd1na2vs0mg"},{"bike_id":"61a991f1-1c61-4cf7-8c66-0365b5426fe3","system_id":"levelo_inurba_marseille","lat":43.25588,"lon":5.38255,"is_reserved":false,"is_disabled":false,"rental_uris":{"android":"levelo://app?vid=61a991f1-1c61-4cf7-8c66-0365b5426fe3","ios":"levelo://app?vid=61a991f1-1c61-4cf7-8c66-0365b5426fe3"},"vehicle_type_id":"4","last_reported":1773217744,"current_range_meters":26000,"station_id":"ce4bhih2rcd13ifvqfs0","pricing_plan_id":"cebpf4jnsgd1na2vs0mg"},{"bike_id":"3cb4118e-249f-4f7f-8bd1-0ddb85d3d47f","system_id":"levelo_inurba_marseille","lat":43.29806,"lon":5.41423,"is_reserved":false,"is_disabled":false,"rental_uris":{"android":"levelo://app?vid=3cb4118e-249f-4f7f-8bd1-0ddb85d3d47f","ios":"levelo://app?vid=3cb4118e-249f-4f7f-8bd1-0ddb85d3d47f"},"vehicle_type_id":"4","last_reported":1773217744,"current_range_meters":38800,"station_id":"","pricing_plan_id":"cebpf4jnsgd1na2vs0mg"},{"bike_id":"251e7265-6da3-486f-9540-4813a6799da8","system_id":"levelo_inurba_marseille","lat":43.29115,"lon":5.35586,"is_reserved":false,"is_disabled":false,"rental_uris":{"android":"levelo://app?vid=251e7265-6da3-486f-9540-4813a6799da8","ios":"levelo://app?vid=251e7265-6da3-486f-9540-4813a6799da8"},"vehicle_type_id":"4","last_reported":1773217744,"current_range_meters":9200,"station_id":"","pricing_plan_id":"cebpf4jnsgd1na2vs0mg"},{"bike_id":"78ccdb19-13f7-409b-8044-f74ab6a3fb78","system_id":"levelo_inurba_marseille","lat":43.24651,"lon":5.3817,"is_reserved":false,"is_disabled":true,"rental_uris":{"android":"levelo://app?vid=78ccdb19-13f7-409b-8044-f74ab6a3fb78","ios":"levelo://app?vid=78ccdb19-13f7-409b-8044-f74ab6a3fb78"},"vehicle_type_id":"4","last_reported":1773217744,"current_range_meters":0,"station_id":"ce4bhih2rcd13ifvqfr0","pricing_plan_id":"cebpf4jnsgd1na2vs0mg"},{"bike_id":"d2f8800f-30c1-4c21-b8e2-ba5c5b2f20f8","system_id":"levelo_inurba_marseille","lat":43.27174,"lon":5.41001,"is_reserved":false,"is_disabled":false,"rental_uris":{"android":"levelo://app?vid=d2f8800f-30c1-4c21-b8e2-ba5c5b2f20f8","ios":"levelo://app?vid=d2f8800f-30c1-4c21-b8e2-ba5c5b2f20f8"},"vehicle_type_id":"4","last_reported":1773217744,"current_range_meters":36400,"station_id":"ce4bhl12rcd13ifvqgf0","pricing_plan_id":"cebpf4jnsgd1na2vs0mg"},{"bike_id":"896440e6-cef8-4268-bb86-ac2c6e2de747","system_id":"levelo_inurba_marseille","lat":43.2848,"lon":5.48399,"is_reserved":false,"is_disabled":false,"rental_uris":{"android":"levelo://app?vid=896440e6-cef8-4268-bb86-ac2c6e2de747","ios":"levelo://app?vid=896440e6-cef8-4268-bb86-ac2c6e2de747"},"vehicle_type_id":"4","last_reported":1773217744,"current_range_meters":30800,"station_id":"","pricing_plan_id":"cebpf4jnsgd1na2vs0mg"},{"bike_id":"144d0f12-8c50-4356-9304-ba9c305ea568","system_id":"levelo_inurba_marseille","lat":43.31211,"lon":5.36832,"is_reserved":false,"is_disabled":false,"rental_uris":{"android":"levelo://app?vid=144d0f12-8c50-4356-9304-ba9c305ea568","ios":"levelo://app?vid=144d0f12-8c50-4356-9304-ba9c305ea568"},"vehicle_type_id":"4","last_reported":1773217744,"current_range_meters":27200,"station_id":"ce4bgl92rcd13ifvqbq0","pricing_plan_id":"cebpf4jnsgd1na2vs0mg"},{"bike_id":"536e4253-28c1-4e4f-ba07-998ca885fbee","system_id":"levelo_inurba_marseille","lat":43.2931,"lon":5.37176,"is_reserved":false,"is_disabled":false,"rental_uris":{"android":"levelo://app?vid=536e4253-28c1-4e4f-ba07-998ca885fbee","ios":"levelo://app?vid=536e4253-28c1-4e4f-ba07-998ca885fbee"},"vehicle_type_id":"4","last_reported":1773217744,"current_range_meters":27200,"station_id":"ce4bgh92rcd13ifvqb40","pricing_plan_id":"cebpf4jnsgd1na2vs0mg"},{"bike_id":"2c1215f2-9624-4e50-bbbb-a53264cdd31e","system_id":"levelo_inurba_marseille","lat":43.28477,"lon":5.48392,"is_reserved":false,"is_disabled":false,"rental_uris":{"android":"levelo://app?vid=2c1215f2-9624-4e50-bbbb-a53264cdd31e","ios":"levelo://app?vid=2c1215f2-9624-4e50-bbbb-a53264cdd31e"},"vehicle_type_id":"4","last_reported":1773217744,"current_range_meters":28800,"station_id":"","pricing_plan_id":"cebpf4jnsgd1na2vs0mg"},{"bike_id":"31a93519-28f1-476c-ba55-d456fc31a5f1","system_id":"levelo_inurba_marseille","lat":43.27346,"lon":5.39103,"is_reserved":false,"is_disabled":false,"rental_uris":{"android":"levelo://app?vid=31a93519-28f1-476c-ba55-d456fc31a5f1","ios":"levelo://app?vid=31a93519-28f1-476c-ba55-d456fc31a5f1"},"vehicle_type_id":"4","last_reported":1773217744,"current_range_meters":30800,"station_id":"ce4bhgp2rcd13ifvqfe0","pricing_plan_id":"cebpf4jnsgd1na2vs0mg"},{"bike_id":"c1db54c2-038e-4f3d-a503-c0e3fc6c96ed","system_id":"levelo_inurba_marseille","lat":43.3353,"lon":5.37462,"is_reserved":false,"is_disabled":false,"rental_uris":{"android":"levelo://app?vid=c1db54c2-038e-4f3d-a503-c0e3fc6c96ed","ios":"levelo://app?vid=c1db54c2-038e-4f3d-a503-c0e3fc6c96ed"},"vehicle_type_id":"4","last_reported":1773217744,"current_range_meters":14800,"station_id":"st_d46tts09ee8s73dlu43g","pricing_plan_id":"cebpf4jnsgd1na2vs0mg"},{"bike_id":"a0ab89fd-d4e3-4039-8377-577b0acf001d","system_id":"levelo_inurba_marseille","lat":43.24377,"lon":5.44111,"is_reserved":false,"is_disabled":true,"rental_uris":{"android":"levelo://app?vid=a0ab89fd-d4e3-4039-8377-577b0acf001d","ios":"levelo://app?vid=a0ab89fd-d4e3-4039-8377-577b0acf001d"},"vehicle_type_id":"4","last_reported":1773217744,"current_range_meters":10800,"station_id":"","pricing_plan_id":"cebpf4jnsgd1na2vs0mg"},{"bike_id":"afeb14e3-42fe-4258-a560-6657dac6ced8","system_id":"levelo_inurba_marseille","lat":43.25723,"lon":5.41108,"is_reserved":false,"is_disabled":false,"rental_uris":{"android":"levelo://app?vid=afeb14e3-42fe-4258-a560-6657dac6ced8","ios":"levelo://app?vid=afeb14e3-42fe-4258-a560-6657dac6ced8"},"vehicle_type_id":"4","last_reported":1773217744,"current_range_meters":16400,"station_id":"ce4bhkp2rcd13ifvqgd0","pricing_plan_id":"cebpf4jnsgd1na2vs0mg"},{"bike_id":"3848849f-8b5c-4f22-abad-8aa3329f0d32","system_id":"levelo_inurba_marseille","lat":43.31355,"lon":5.36711,"is_reserved":false,"is_disabled":false,"rental_uris":{"android":"levelo://app?vid=3848849f-8b5c-4f22-abad-8aa3329f0d32","ios":"levelo://app?vid=3848849f-8b5c-4f22-abad-8aa3329f0d32"},"vehicle_type_id":"4","last_reported":1773217744,"current_range_meters":39200,"station_id":"ce4bgr92rcd13ifvqc6g","pricing_plan_id":"cebpf4jnsgd1na2vs0mg"},{"bike_id":"1a27ef89-b886-498e-a40e-1c8978edf0b6","system_id":"levelo_inurba_marseille","lat":43.24074,"lon":5.37753,"is_reserved":false,"is_disabled":false,"rental_uris":{"android":"levelo://app?vid=1a27ef89-b886-498e-a40e-1c8978edf0b6","ios":"levelo://app?vid=1a27ef89-b886-498e-a40e-1c8978edf0b6"},"vehicle_type_id":"4","last_reported":1773217744,"current_range_meters":12000,"station_id":"ce4bhnp2rcd13ifvqgvg","pricing_plan_id":"cebpf4jnsgd1na2vs0mg"},{"bike_id":"c9fdec63-7232-4c40-8487-75579466936b","system_id":"levelo_inurba_marseille","lat":43.26673,"lon":5.38263,"is_reserved":false,"is_disabled":false,"rental_uris":{"android":"levelo://app?vid=c9fdec63-7232-4c40-8487-75579466936b","ios":"levelo://app?vid=c9fdec63-7232-4c40-8487-75579466936b"},"vehicle_type_id":"4","last_reported":1773217744,"current_range_meters":29600,"station_id":"ce4bhg92rcd13ifvqf90","pricing_plan_id":"cebpf4jnsgd1na2vs0mg"},{"bike_id":"9e202996-0083-4bce-902f-5362269bb03f","system_id":"levelo_inurba_marseille","lat":43.26912,"lon":5.40258,"is_reserved":false,"is_disabled":false,"rental_uris":{"android":"levelo://app?vid=9e202996-0083-4bce-902f-5362269bb03f","ios":"levelo://app?vid=9e202996-0083-4bce-902f-5362269bb03f"},"vehicle_type_id":"4","last_reported":1773217744,"current_range_meters":39200,"station_id":"cjm6bp8fraef2m0cb0m0","pricing_plan_id":"cebpf4jnsgd1na2vs0mg"},{"bike_id":"e8b7d766-9ece-4870-a1b8-5b316a1b8e67","system_id":"levelo_inurba_marseille","lat":43.22556,"lon":5.41639,"is_reserved":false,"is_disabled":false,"rental_uris":{"android":"levelo://app?vid=e8b7d766-9ece-4870-a1b8-5b316a1b8e67","ios":"levelo://app?vid=e8b7d766-9ece-4870-a1b8-5b316a1b8e67"},"vehicle_type_id":"4","last_reported":1773217744,"current_range_meters":19600,"station_id":"st_d2o4gvlbi1j2169b742g","pricing_plan_id":"cebpf4jnsgd1na2vs0mg"},{"bike_id":"e5edc850-db75-496b-abe4-5e6230149276","system_id":"levelo_inurba_marseille","lat":43.27827,"lon":5.39208,"is_reserved":false,"is_disabled":false,"rental_uris":{"android":"levelo://app?vid=e5edc850-db75-496b-abe4-5e6230149276","ios":"levelo://app?vid=e5edc850-db75-496b-abe4-5e6230149276"},"vehicle_type_id":"4","last_reported":1773217744,"current_range_meters":40000,"station_id":"ce4bhjp2rcd13ifvqga0","pricing_plan_id":"cebpf4jnsgd1na2vs0mg"},{"bike_id":"7fec08d5-ee68-460a-ac18-925555054430","system_id":"levelo_inurba_marseille","lat":43.24157,"lon":5.36424,"is_reserved":false,"is_disabled":false,"rental_uris":{"android":"levelo://app?vid=7fec08d5-ee68-460a-ac18-925555054430","ios":"levelo://app?vid=7fec08d5-ee68-460a-ac18-925555054430"},"vehicle_type_id":"4","last_reported":1773217744,"current_range_meters":17200,"station_id":"cpo36qri1sfpv3e86is0","pricing_plan_id":"cebpf4jnsgd1na2vs0mg"},{"bike_id":"e7ede997-8031-4ef1-ae70-21cfb8a06e17","system_id":"levelo_inurba_marseille","lat":43.32492,"lon":5.38299,"is_reserved":false,"is_disabled":false,"rental_uris":{"android":"levelo://app?vid=e7ede997-8031-4ef1-ae70-21cfb8a06e17","ios":"levelo://app?vid=e7ede997-8031-4ef1-ae70-21cfb8a06e17"},"vehicle_type_id":"4","last_reported":1773217744,"current_range_meters":33600,"station_id":"st_d4asgbiv49dc73anf9m0","pricing_plan_id":"cebpf4jnsgd1na2vs0mg"},{"bike_id":"8649da40-2768-48b2-9c2c-b9c2c7d914e4","system_id":"levelo_inurba_marseille","lat":43.33615,"lon":5.41032,"is_reserved":false,"is_disabled":false,"rental_uris":{"android":"levelo://app?vid=8649da40-2768-48b2-9c2c-b9c2c7d914e4","ios":"levelo://app?vid=8649da40-2768-48b2-9c2c-b9c2c7d914e4"},"vehicle_type_id":"4","last_reported":1773217744,"current_range_meters":35200,"station_id":"ce4bhqh2rcd13ifvqhmg","pricing_plan_id":"cebpf4jnsgd1na2vs0mg"},{"bike_id":"fbacc4e2-20d2-440b-8334-f840b8c13084","system_id":"levelo_inurba_marseille","lat":43.23164,"lon":5.43674,"is_reserved":false,"is_disabled":false,"rental_uris":{"android":"levelo://app?vid=fbacc4e2-20d2-440b-8334-f840b8c13084","ios":"levelo://app?vid=fbacc4e2-20d2-440b-8334-f840b8c13084"},"vehicle_type_id":"4","last_reported":1773217744,"current_range_meters":24000,"station_id":"ce4bhmp2rcd13ifvqgog","pricing_plan_id":"cebpf4jnsgd1na2vs0mg"},{"bike_id":"3e5376d1-74e0-493d-8800-a1ee648fb8c9","system_id":"levelo_inurba_marseille","lat":43.30367,"lon":5.42485,"is_reserved":false,"is_disabled":false,"rental_uris":{"android":"levelo://app?vid=3e5376d1-74e0-493d-8800-a1ee648fb8c9","ios":"levelo://app?vid=3e5376d1-74e0-493d-8800-a1ee648fb8c9"},"vehicle_type_id":"4","last_reported":1773217744,"current_range_meters":34000,"station_id":"ce4bhoh2rcd13ifvqh6g","pricing_plan_id":"cebpf4jnsgd1na2vs0mg"},{"bike_id":"fcd751b7-adf6-474e-8866-b199d79372d6","system_id":"levelo_inurba_marseille","lat":43.30251,"lon":5.40056,"is_reserved":false,"is_disabled":false,"rental_uris":{"android":"levelo://app?vid=fcd751b7-adf6-474e-8866-b199d79372d6","ios":"levelo://app?vid=fcd751b7-adf6-474e-8866-b199d79372d6"},"vehicle_type_id":"4","last_reported":1773217744,"current_range_meters":38800,"station_id":"ce4bgvh2rcd13ifvqcs0","pricing_plan_id":"cebpf4jnsgd1na2vs0mg"},{"bike_id":"19c585cb-b516-45ee-aa09-cf34d5e1db9f","system_id":"levelo_inurba_marseille","lat":43.31196,"lon":5.37676,"is_reserved":false,"is_disabled":false,"rental_uris":{"android":"levelo://app?vid=19c585cb-b516-45ee-aa09-cf34d5e1db9f","ios":"levelo://app?vid=19c585cb-b516-45ee-aa09-cf34d5e1db9f"},"vehicle_type_id":"4","last_reported":1773217744,"current_range_meters":32800,"station_id":"","pricing_plan_id":"cebpf4jnsgd1na2vs0mg"},{"bike_id":"64db144a-07de-49ea-9432-4bcd2298dea1","system_id":"levelo_inurba_marseille","lat":43.26705,"lon":5.38278,"is_reserved":false,"is_disabled":false,"rental_uris":{"android":"levelo://app?vid=64db144a-07de-49ea-9432-4bcd2298dea1","ios":"levelo://app?vid=64db144a-07de-49ea-9432-4bcd2298dea1"},"vehicle_type_id":"4","last_reported":1773217744,"current_range_meters":18000,"station_id":"ce4bhg92rcd13ifvqf90","pricing_plan_id":"cebpf4jnsgd1na2vs0mg"},{"bike_id":"6c4cf459-9d91-4f06-98a0-e2caa263890b","system_id":"levelo_inurba_marseille","lat":43.29368,"lon":5.37859,"is_reserved":false,"is_disabled":true,"rental_uris":{"android":"levelo://app?vid=6c4cf459-9d91-4f06-98a0-e2caa263890b","ios":"levelo://app?vid=6c4cf459-9d91-4f06-98a0-e2caa263890b"},"vehicle_type_id":"4","last_reported":1773217744,"current_range_meters":26800,"station_id":"ce4bgjh2rcd13ifvqbf0","pricing_plan_id":"cebpf4jnsgd1na2vs0mg"},{"bike_id":"8818f14b-1671-4f8e-94c0-552bc8e74dd4","system_id":"levelo_inurba_marseille","lat":43.32552,"lon":5.41441,"is_reserved":false,"is_disabled":false,"rental_uris":{"android":"levelo://app?vid=8818f14b-1671-4f8e-94c0-552bc8e74dd4","ios":"levelo://app?vid=8818f14b-1671-4f8e-94c0-552bc8e74dd4"},"vehicle_type_id":"4","last_reported":1773217744,"current_range_meters":38000,"station_id":"ce4bhq12rcd13ifvqhhg","pricing_plan_id":"cebpf4jnsgd1na2vs0mg"},{"bike_id":"1c6d8a9c-5142-453f-83da-91ca8f641afa","system_id":"levelo_inurba_marseille","lat":43.30956,"lon":5.39049,"is_reserved":false,"is_disabled":false,"rental_uris":{"android":"levelo://app?vid=1c6d8a9c-5142-453f-83da-91ca8f641afa","ios":"levelo://app?vid=1c6d8a9c-5142-453f-83da-91ca8f641afa"},"vehicle_type_id":"4","last_reported":1773217744,"current_range_meters":20400,"station_id":"ce4bgup2rcd13ifvqco0","pricing_plan_id":"cebpf4jnsgd1na2vs0mg"},{"bike_id":"0f2c85aa-5e6e-4d7d-9d50-584fced52287","system_id":"levelo_inurba_marseille","lat":43.24639,"lon":5.38905,"is_reserved":false,"is_disabled":false,"rental_uris":{"android":"levelo://app?vid=0f2c85aa-5e6e-4d7d-9d50-584fced52287","ios":"levelo://app?vid=0f2c85aa-5e6e-4d7d-9d50-584fced52287"},"vehicle_type_id":"4","last_reported":1773217744,"current_range_meters":36400,"station_id":"ce4bhg12rcd13ifvqf60","pricing_plan_id":"cebpf4jnsgd1na2vs0mg"},{"bike_id":"794f959c-f1b8-45bf-aaff-93adbc53443c","system_id":"levelo_inurba_marseille","lat":43.30519,"lon":5.37921,"is_reserved":false,"is_disabled":false,"rental_uris":{"android":"levelo://app?vid=794f959c-f1b8-45bf-aaff-93adbc53443c","ios":"levelo://app?vid=794f959c-f1b8-45bf-aaff-93adbc53443c"},"vehicle_type_id":"4","last_reported":1773217744,"current_range_meters":10000,"station_id":"","pricing_plan_id":"cebpf4jnsgd1na2vs0mg"},{"bike_id":"f62cbee2-12e5-4cdd-bfbc-04088f9f32fa","system_id":"levelo_inurba_marseille","lat":43.28485,"lon":5.48394,"is_reserved":false,"is_disabled":false,"rental_uris":{"android":"levelo://app?vid=f62cbee2-12e5-4cdd-bfbc-04088f9f32fa","ios":"levelo://app?vid=f62cbee2-12e5-4cdd-bfbc-04088f9f32fa"},"vehicle_type_id":"4","last_reported":1773217744,"current_range_meters":22400,"station_id":"","pricing_plan_id":"cebpf4jnsgd1na2vs0mg"},{"bike_id":"7ac56760-0833-4a18-a6cf-5947e0e74876","system_id":"levelo_inurba_marseille","lat":43.26543,"lon":5.37302,"is_reserved":false,"is_disabled":false,"rental_uris":{"android":"levelo://app?vid=7ac56760-0833-4a18-a6cf-5947e0e74876","ios":"levelo://app?vid=7ac56760-0833-4a18-a6cf-5947e0e74876"},"vehicle_type_id":"4","last_reported":1773217744,"current_range_meters":39200,"station_id":"ce4bhg12rcd13ifvqf70","pricing_plan_id":"cebpf4jnsgd1na2vs0mg"},{"bike_id":"93664cea-8a8e-43de-8703-e7ab61aea72a","system_id":"levelo_inurba_marseille","lat":43.3015,"lon":5.38079,"is_reserved":false,"is_disabled":false,"rental_uris":{"android":"levelo://app?vid=93664cea-8a8e-43de-8703-e7ab61aea72a","ios":"levelo://app?vid=93664cea-8a8e-43de-8703-e7ab61aea72a"},"vehicle_type_id":"4","last_reported":1773217744,"current_range_meters":32800,"station_id":"ce4bgjp2rcd13ifvqbh0","pricing_plan_id":"cebpf4jnsgd1na2vs0mg"},{"bike_id":"681fca49-d7d0-4d64-ba5f-a1615360789c","system_id":"levelo_inurba_marseille","lat":43.25813,"lon":5.39456,"is_reserved":false,"is_disabled":false,"rental_uris":{"android":"levelo://app?vid=681fca49-d7d0-4d64-ba5f-a1615360789c","ios":"levelo://app?vid=681fca49-d7d0-4d64-ba5f-a1615360789c"},"vehicle_type_id":"4","last_reported":1773217744,"current_range_meters":30800,"station_id":"ce4bhip2rcd13ifvqft0","pricing_plan_id":"cebpf4jnsgd1na2vs0mg"},{"bike_id":"7598225d-71d0-4e34-b44c-6811ba09ab67","system_id":"levelo_inurba_marseille","lat":43.27679,"lon":5.38926,"is_reserved":false,"is_disabled":false,"rental_uris":{"android":"levelo://app?vid=7598225d-71d0-4e34-b44c-6811ba09ab67","ios":"levelo://app?vid=7598225d-71d0-4e34-b44c-6811ba09ab67"},"vehicle_type_id":"4","last_reported":1773217744,"current_range_meters":9200,"station_id":"ce4bhi12rcd13ifvqfo0","pricing_plan_id":"cebpf4jnsgd1na2vs0mg"},{"bike_id":"ba3a231f-10a0-4302-b0e7-08f11861cd04","system_id":"levelo_inurba_marseille","lat":43.2848,"lon":5.48394,"is_reserved":false,"is_disabled":false,"rental_uris":{"android":"levelo://app?vid=ba3a231f-10a0-4302-b0e7-08f11861cd04","ios":"levelo://app?vid=ba3a231f-10a0-4302-b0e7-08f11861cd04"},"vehicle_type_id":"4","last_reported":1773217744,"current_range_meters":38800,"station_id":"","pricing_plan_id":"cebpf4jnsgd1na2vs0mg"},{"bike_id":"0b3a6178-c659-4afa-a1c1-935435363474","system_id":"levelo_inurba_marseille","lat":43.2396,"lon":5.36672,"is_reserved":false,"is_disabled":false,"rental_uris":{"android":"levelo://app?vid=0b3a6178-c659-4afa-a1c1-935435363474","ios":"levelo://app?vid=0b3a6178-c659-4afa-a1c1-935435363474"},"vehicle_type_id":"4","last_reported":1773217744,"current_range_meters":40000,"station_id":"ce4bhi12rcd13ifvqfp0","pricing_plan_id":"cebpf4jnsgd1na2vs0mg"},{"bike_id":"c4127bf1-754a-4c52-a275-55f16ba90528","system_id":"levelo_inurba_marseille","lat":43.27947,"lon":5.41037,"is_reserved":false,"is_disabled":false,"rental_uris":{"android":"levelo://app?vid=c4127bf1-754a-4c52-a275-55f16ba90528","ios":"levelo://app?vid=c4127bf1-754a-4c52-a275-55f16ba90528"},"vehicle_type_id":"4","last_reported":1773217744,"current_range_meters":30400,"station_id":"ce4bhnp2rcd13ifvqh0g","pricing_plan_id":"cebpf4jnsgd1na2vs0mg"},{"bike_id":"352c9f7d-89b4-42e5-9e2e-76d972a274bd","system_id":"levelo_inurba_marseille","lat":43.29705,"lon":5.42549,"is_reserved":false,"is_disabled":false,"rental_uris":{"android":"levelo://app?vid=352c9f7d-89b4-42e5-9e2e-76d972a274bd","ios":"levelo://app?vid=352c9f7d-89b4-42e5-9e2e-76d972a274bd"},"vehicle_type_id":"4","last_reported":1773217744,"current_range_meters":11200,"station_id":"","pricing_plan_id":"cebpf4jnsgd1na2vs0mg"},{"bike_id":"04a17b6d-7ebf-4022-9d3a-a2dd2cbb9c97","system_id":"levelo_inurba_marseille","lat":43.30532,"lon":5.36694,"is_reserved":false,"is_disabled":false,"rental_uris":{"android":"levelo://app?vid=04a17b6d-7ebf-4022-9d3a-a2dd2cbb9c97","ios":"levelo://app?vid=04a17b6d-7ebf-4022-9d3a-a2dd2cbb9c97"},"vehicle_type_id":"4","last_reported":1773217744,"current_range_meters":39200,"station_id":"ce4bgrp2rcd13ifvqc9g","pricing_plan_id":"cebpf4jnsgd1na2vs0mg"},{"bike_id":"bfee60c3-8b74-4c9f-aef3-67f690ec877a","system_id":"levelo_inurba_marseille","lat":43.30307,"lon":5.36909,"is_reserved":false,"is_disabled":false,"rental_uris":{"android":"levelo://app?vid=bfee60c3-8b74-4c9f-aef3-67f690ec877a","ios":"levelo://app?vid=bfee60c3-8b74-4c9f-aef3-67f690ec877a"},"vehicle_type_id":"4","last_reported":1773217744,"current_range_meters":14800,"station_id":"ce4bgqh2rcd13ifvqc5g","pricing_plan_id":"cebpf4jnsgd1na2vs0mg"},{"bike_id":"c59a5209-1b70-42df-8250-859beecf23e1","system_id":"levelo_inurba_marseille","lat":43.23197,"lon":5.35554,"is_reserved":false,"is_disabled":false,"rental_uris":{"android":"levelo://app?vid=c59a5209-1b70-42df-8250-859beecf23e1","ios":"levelo://app?vid=c59a5209-1b70-42df-8250-859beecf23e1"},"vehicle_type_id":"4","last_reported":1773217744,"current_range_meters":37600,"station_id":"ce4bhu92rcd13ifvqi70","pricing_plan_id":"cebpf4jnsgd1na2vs0mg"},{"bike_id":"f336589f-866f-46c6-b212-a692ab2ba293","system_id":"levelo_inurba_marseille","lat":43.29628,"lon":5.37158,"is_reserved":false,"is_disabled":false,"rental_uris":{"android":"levelo://app?vid=f336589f-866f-46c6-b212-a692ab2ba293","ios":"levelo://app?vid=f336589f-866f-46c6-b212-a692ab2ba293"},"vehicle_type_id":"4","last_reported":1773217744,"current_range_meters":16400,"station_id":"ce4bgnh2rcd13ifvqc0g","pricing_plan_id":"cebpf4jnsgd1na2vs0mg"},{"bike_id":"62527594-9d4c-4f62-a7a2-3c3629acad16","system_id":"levelo_inurba_marseille","lat":43.29787,"lon":5.38112,"is_reserved":false,"is_disabled":false,"rental_uris":{"android":"levelo://app?vid=62527594-9d4c-4f62-a7a2-3c3629acad16","ios":"levelo://app?vid=62527594-9d4c-4f62-a7a2-3c3629acad16"},"vehicle_type_id":"4","last_reported":1773217744,"current_range_meters":39200,"station_id":"ce4bgip2rcd13ifvqbb0","pricing_plan_id":"cebpf4jnsgd1na2vs0mg"},{"bike_id":"fed428a6-a508-4132-94d7-783075e10fe3","system_id":"levelo_inurba_marseille","lat":43.32358,"lon":5.36732,"is_reserved":false,"is_disabled":false,"rental_uris":{"android":"levelo://app?vid=fed428a6-a508-4132-94d7-783075e10fe3","ios":"levelo://app?vid=fed428a6-a508-4132-94d7-783075e10fe3"},"vehicle_type_id":"4","last_reported":1773217744,"current_range_meters":36400,"station_id":"ce4bhsh2rcd13ifvqi2g","pricing_plan_id":"cebpf4jnsgd1na2vs0mg"},{"bike_id":"e4970605-8c1c-4ee3-9d63-9772b6298e2e","system_id":"levelo_inurba_marseille","lat":43.2827,"lon":5.35062,"is_reserved":false,"is_disabled":false,"rental_uris":{"android":"levelo://app?vid=e4970605-8c1c-4ee3-9d63-9772b6298e2e","ios":"levelo://app?vid=e4970605-8c1c-4ee3-9d63-9772b6298e2e"},"vehicle_type_id":"4","last_reported":1773217744,"current_range_meters":28400,"station_id":"ce4bhbp2rcd13ifvqerg","pricing_plan_id":"cebpf4jnsgd1na2vs0mg"},{"bike_id":"b77fb604-0801-47d9-99a2-3844aa44df9a","system_id":"levelo_inurba_marseille","lat":43.25329,"lon":5.42168,"is_reserved":false,"is_disabled":false,"rental_uris":{"android":"levelo://app?vid=b77fb604-0801-47d9-99a2-3844aa44df9a","ios":"levelo://app?vid=b77fb604-0801-47d9-99a2-3844aa44df9a"},"vehicle_type_id":"4","last_reported":1773217744,"current_range_meters":28800,"station_id":"st_d2m65c5bi1j21697t3ng","pricing_plan_id":"cebpf4jnsgd1na2vs0mg"},{"bike_id":"dcad9259-a4d3-4cc7-94fc-0c8a7321317d","system_id":"levelo_inurba_marseille","lat":43.2707,"lon":5.3831,"is_reserved":false,"is_disabled":false,"rental_uris":{"android":"levelo://app?vid=dcad9259-a4d3-4cc7-94fc-0c8a7321317d","ios":"levelo://app?vid=dcad9259-a4d3-4cc7-94fc-0c8a7321317d"},"vehicle_type_id":"4","last_reported":1773217744,"current_range_meters":30400,"station_id":"st_d3n2fo6cfp8s73cte1j0","pricing_plan_id":"cebpf4jnsgd1na2vs0mg"},{"bike_id":"54dedf02-9946-4658-9e75-e2e8b7cf4198","system_id":"levelo_inurba_marseille","lat":43.24165,"lon":5.36407,"is_reserved":false,"is_disabled":false,"rental_uris":{"android":"levelo://app?vid=54dedf02-9946-4658-9e75-e2e8b7cf4198","ios":"levelo://app?vid=54dedf02-9946-4658-9e75-e2e8b7cf4198"},"vehicle_type_id":"4","last_reported":1773217744,"current_range_meters":18800,"station_id":"cpo36qri1sfpv3e86is0","pricing_plan_id":"cebpf4jnsgd1na2vs0mg"},{"bike_id":"569e45f6-da6c-4aba-90c6-b03c651555cc","system_id":"levelo_inurba_marseille","lat":43.29597,"lon":5.38101,"is_reserved":false,"is_disabled":false,"rental_uris":{"android":"levelo://app?vid=569e45f6-da6c-4aba-90c6-b03c651555cc","ios":"levelo://app?vid=569e45f6-da6c-4aba-90c6-b03c651555cc"},"vehicle_type_id":"4","last_reported":1773217744,"current_range_meters":38800,"station_id":"ce4bgl12rcd13ifvqbo0","pricing_plan_id":"cebpf4jnsgd1na2vs0mg"},{"bike_id":"65fb7e73-27fb-4983-8d0d-7baefc4dbf16","system_id":"levelo_inurba_marseille","lat":43.24388,"lon":5.37053,"is_reserved":false,"is_disabled":false,"rental_uris":{"android":"levelo://app?vid=65fb7e73-27fb-4983-8d0d-7baefc4dbf16","ios":"levelo://app?vid=65fb7e73-27fb-4983-8d0d-7baefc4dbf16"},"vehicle_type_id":"4","last_reported":1773217744,"current_range_meters":9600,"station_id":"ce4bhhh2rcd13ifvqfk0","pricing_plan_id":"cebpf4jnsgd1na2vs0mg"},{"bike_id":"0bd65bd6-432d-4f03-9bc1-a502b4962690","system_id":"levelo_inurba_marseille","lat":43.29302,"lon":5.37436,"is_reserved":false,"is_disabled":false,"rental_uris":{"android":"levelo://app?vid=0bd65bd6-432d-4f03-9bc1-a502b4962690","ios":"levelo://app?vid=0bd65bd6-432d-4f03-9bc1-a502b4962690"},"vehicle_type_id":"4","last_reported":1773217744,"current_range_meters":29600,"station_id":"ce4bgi12rcd13ifvqb70","pricing_plan_id":"cebpf4jnsgd1na2vs0mg"},{"bike_id":"b6942993-6967-4f6c-b7e8-d4ca854e4d0e","system_id":"levelo_inurba_marseille","lat":43.25006,"lon":5.38929,"is_reserved":false,"is_disabled":false,"rental_uris":{"android":"levelo://app?vid=b6942993-6967-4f6c-b7e8-d4ca854e4d0e","ios":"levelo://app?vid=b6942993-6967-4f6c-b7e8-d4ca854e4d0e"},"vehicle_type_id":"4","last_reported":1773217744,"current_range_meters":40000,"station_id":"ce4bhgp2rcd13ifvqfd0","pricing_plan_id":"cebpf4jnsgd1na2vs0mg"},{"bike_id":"ab7ff63f-6e72-4cc3-bfe2-7bb52c7057bf","system_id":"levelo_inurba_marseille","lat":43.2902,"lon":5.39986,"is_reserved":false,"is_disabled":false,"rental_uris":{"android":"levelo://app?vid=ab7ff63f-6e72-4cc3-bfe2-7bb52c7057bf","ios":"levelo://app?vid=ab7ff63f-6e72-4cc3-bfe2-7bb52c7057bf"},"vehicle_type_id":"4","last_reported":1773217744,"current_range_meters":4400,"station_id":"ce4bh392rcd13ifvqdm0","pricing_plan_id":"cebpf4jnsgd1na2vs0mg"},{"bike_id":"a540b441-3928-4042-84dc-78cbd8de6fd0","system_id":"levelo_inurba_marseille","lat":43.24407,"lon":5.37072,"is_reserved":false,"is_disabled":false,"rental_uris":{"android":"levelo://app?vid=a540b441-3928-4042-84dc-78cbd8de6fd0","ios":"levelo://app?vid=a540b441-3928-4042-84dc-78cbd8de6fd0"},"vehicle_type_id":"4","last_reported":1773217744,"current_range_meters":35200,"station_id":"ce4bhhh2rcd13ifvqfk0","pricing_plan_id":"cebpf4jnsgd1na2vs0mg"},{"bike_id":"dab334e7-a2a6-4a95-aea0-00ba8c9b639d","system_id":"levelo_inurba_marseille","lat":43.28428,"lon":5.34974,"is_reserved":false,"is_disabled":true,"rental_uris":{"android":"levelo://app?vid=dab334e7-a2a6-4a95-aea0-00ba8c9b639d","ios":"levelo://app?vid=dab334e7-a2a6-4a95-aea0-00ba8c9b639d"},"vehicle_type_id":"4","last_reported":1773217744,"current_range_meters":8000,"station_id":"ce4bhbh2rcd13ifvqepg","pricing_plan_id":"cebpf4jnsgd1na2vs0mg"},{"bike_id":"2ac129ef-0500-4e15-8179-6818cd0eb7ac","system_id":"levelo_inurba_marseille","lat":43.2707,"lon":5.42287,"is_reserved":false,"is_disabled":false,"rental_uris":{"android":"levelo://app?vid=2ac129ef-0500-4e15-8179-6818cd0eb7ac","ios":"levelo://app?vid=2ac129ef-0500-4e15-8179-6818cd0eb7ac"},"vehicle_type_id":"4","last_reported":1773217744,"current_range_meters":8800,"station_id":"ce4bhk92rcd13ifvqgb0","pricing_plan_id":"cebpf4jnsgd1na2vs0mg"},{"bike_id":"09b51f1e-4608-4273-bc57-8753e2939ff2","system_id":"levelo_inurba_marseille","lat":43.29914,"lon":5.36533,"is_reserved":false,"is_disabled":false,"rental_uris":{"android":"levelo://app?vid=09b51f1e-4608-4273-bc57-8753e2939ff2","ios":"levelo://app?vid=09b51f1e-4608-4273-bc57-8753e2939ff2"},"vehicle_type_id":"4","last_reported":1773217744,"current_range_meters":34000,"station_id":"ce4bgm92rcd13ifvqbr0","pricing_plan_id":"cebpf4jnsgd1na2vs0mg"},{"bike_id":"1ccc8b03-9bb0-424f-acd2-c54623518ede","system_id":"levelo_inurba_marseille","lat":43.27961,"lon":5.38756,"is_reserved":false,"is_disabled":false,"rental_uris":{"android":"levelo://app?vid=1ccc8b03-9bb0-424f-acd2-c54623518ede","ios":"levelo://app?vid=1ccc8b03-9bb0-424f-acd2-c54623518ede"},"vehicle_type_id":"4","last_reported":1773217744,"current_range_meters":38000,"station_id":"ce4bhg12rcd13ifvqf80","pricing_plan_id":"cebpf4jnsgd1na2vs0mg"},{"bike_id":"412ebc32-5589-4f6e-8ac6-13ac9134d8c4","system_id":"levelo_inurba_marseille","lat":43.279694,"lon":5.387333,"is_reserved":false,"is_disabled":false,"rental_uris":{"android":"levelo://app?vid=412ebc32-5589-4f6e-8ac6-13ac9134d8c4","ios":"levelo://app?vid=412ebc32-5589-4f6e-8ac6-13ac9134d8c4"},"vehicle_type_id":"4","last_reported":1773217744,"current_range_meters":14800,"station_id":"ce4bhg12rcd13ifvqf80","pricing_plan_id":"cebpf4jnsgd1na2vs0mg"},{"bike_id":"99022726-f4b2-4eeb-b98c-cf572c629f3c","system_id":"levelo_inurba_marseille","lat":43.26681,"lon":5.38271,"is_reserved":false,"is_disabled":false,"rental_uris":{"android":"levelo://app?vid=99022726-f4b2-4eeb-b98c-cf572c629f3c","ios":"levelo://app?vid=99022726-f4b2-4eeb-b98c-cf572c629f3c"},"vehicle_type_id":"4","last_reported":1773217744,"current_range_meters":38000,"station_id":"ce4bhg92rcd13ifvqf90","pricing_plan_id":"cebpf4jnsgd1na2vs0mg"},{"bike_id":"5d35e186-9ea2-469b-87a9-367aebad843f","system_id":"levelo_inurba_marseille","lat":43.24193,"lon":5.39736,"is_reserved":false,"is_disabled":false,"rental_uris":{"android":"levelo://app?vid=5d35e186-9ea2-469b-87a9-367aebad843f","ios":"levelo://app?vid=5d35e186-9ea2-469b-87a9-367aebad843f"},"vehicle_type_id":"4","last_reported":1773217744,"current_range_meters":6800,"station_id":"ce4bhn12rcd13ifvqgpg","pricing_plan_id":"cebpf4jnsgd1na2vs0mg"},{"bike_id":"da8163bf-a494-4792-912b-7a9e8c51c23b","system_id":"levelo_inurba_marseille","lat":43.23964,"lon":5.3663,"is_reserved":false,"is_disabled":false,"rental_uris":{"android":"levelo://app?vid=da8163bf-a494-4792-912b-7a9e8c51c23b","ios":"levelo://app?vid=da8163bf-a494-4792-912b-7a9e8c51c23b"},"vehicle_type_id":"4","last_reported":1773217744,"current_range_meters":7200,"station_id":"ce4bhi12rcd13ifvqfp0","pricing_plan_id":"cebpf4jnsgd1na2vs0mg"},{"bike_id":"1075c92f-b28d-4d46-9e6c-490281aeb606","system_id":"levelo_inurba_marseille","lat":43.30951,"lon":5.39045,"is_reserved":false,"is_disabled":false,"rental_uris":{"android":"levelo://app?vid=1075c92f-b28d-4d46-9e6c-490281aeb606","ios":"levelo://app?vid=1075c92f-b28d-4d46-9e6c-490281aeb606"},"vehicle_type_id":"4","last_reported":1773217744,"current_range_meters":7200,"station_id":"ce4bgup2rcd13ifvqco0","pricing_plan_id":"cebpf4jnsgd1na2vs0mg"},{"bike_id":"0a2f9b28-6219-4106-b011-3026133a767c","system_id":"levelo_inurba_marseille","lat":43.29611,"lon":5.38101,"is_reserved":false,"is_disabled":true,"rental_uris":{"android":"levelo://app?vid=0a2f9b28-6219-4106-b011-3026133a767c","ios":"levelo://app?vid=0a2f9b28-6219-4106-b011-3026133a767c"},"vehicle_type_id":"4","last_reported":1773217744,"current_range_meters":22000,"station_id":"ce4bgl12rcd13ifvqbo0","pricing_plan_id":"cebpf4jnsgd1na2vs0mg"},{"bike_id":"45ec84cc-5786-45d2-be2a-57da53afae2c","system_id":"levelo_inurba_marseille","lat":43.29799,"lon":5.38077,"is_reserved":false,"is_disabled":false,"rental_uris":{"android":"levelo://app?vid=45ec84cc-5786-45d2-be2a-57da53afae2c","ios":"levelo://app?vid=45ec84cc-5786-45d2-be2a-57da53afae2c"},"vehicle_type_id":"4","last_reported":1773217744,"current_range_meters":19600,"station_id":"ce4bgip2rcd13ifvqbb0","pricing_plan_id":"cebpf4jnsgd1na2vs0mg"},{"bike_id":"333c1115-21ab-4cac-9273-ad709bdfe532","system_id":"levelo_inurba_marseille","lat":43.27494,"lon":5.42464,"is_reserved":false,"is_disabled":false,"rental_uris":{"android":"levelo://app?vid=333c1115-21ab-4cac-9273-ad709bdfe532","ios":"levelo://app?vid=333c1115-21ab-4cac-9273-ad709bdfe532"},"vehicle_type_id":"4","last_reported":1773217744,"current_range_meters":38000,"station_id":"ce4bhn92rcd13ifvqgrg","pricing_plan_id":"cebpf4jnsgd1na2vs0mg"},{"bike_id":"21a9c6d2-9b6a-4921-81ca-12c4669f1294","system_id":"levelo_inurba_marseille","lat":43.28158,"lon":5.42642,"is_reserved":false,"is_disabled":false,"rental_uris":{"android":"levelo://app?vid=21a9c6d2-9b6a-4921-81ca-12c4669f1294","ios":"levelo://app?vid=21a9c6d2-9b6a-4921-81ca-12c4669f1294"},"vehicle_type_id":"4","last_reported":1773217744,"current_range_meters":36400,"station_id":"ce4bhnh2rcd13ifvqgug","pricing_plan_id":"cebpf4jnsgd1na2vs0mg"},{"bike_id":"474db209-38e8-4330-b23e-0b51d90d5f0a","system_id":"levelo_inurba_marseille","lat":43.29543,"lon":5.42286,"is_reserved":false,"is_disabled":false,"rental_uris":{"android":"levelo://app?vid=474db209-38e8-4330-b23e-0b51d90d5f0a","ios":"levelo://app?vid=474db209-38e8-4330-b23e-0b51d90d5f0a"},"vehicle_type_id":"4","last_reported":1773217744,"current_range_meters":39200,"station_id":"ce4bhph2rcd13ifvqhdg","pricing_plan_id":"cebpf4jnsgd1na2vs0mg"},{"bike_id":"5bf11bfb-a876-4115-a176-8d8dfeb57944","system_id":"levelo_inurba_marseille","lat":43.25091,"lon":5.39504,"is_reserved":false,"is_disabled":false,"rental_uris":{"android":"levelo://app?vid=5bf11bfb-a876-4115-a176-8d8dfeb57944","ios":"levelo://app?vid=5bf11bfb-a876-4115-a176-8d8dfeb57944"},"vehicle_type_id":"4","last_reported":1773217744,"current_range_meters":38400,"station_id":"ce4bhm12rcd13ifvqgkg","pricing_plan_id":"cebpf4jnsgd1na2vs0mg"},{"bike_id":"4152b4e7-d020-4c86-9f0e-12ed61697a97","system_id":"levelo_inurba_marseille","lat":43.27204,"lon":5.39177,"is_reserved":false,"is_disabled":false,"rental_uris":{"android":"levelo://app?vid=4152b4e7-d020-4c86-9f0e-12ed61697a97","ios":"levelo://app?vid=4152b4e7-d020-4c86-9f0e-12ed61697a97"},"vehicle_type_id":"4","last_reported":1773217744,"current_range_meters":20400,"station_id":"ce4bhhp2rcd13ifvqfm0","pricing_plan_id":"cebpf4jnsgd1na2vs0mg"},{"bike_id":"0341b38f-2f71-4b00-9538-dab027deb25a","system_id":"levelo_inurba_marseille","lat":43.30413,"lon":5.41278,"is_reserved":false,"is_disabled":false,"rental_uris":{"android":"levelo://app?vid=0341b38f-2f71-4b00-9538-dab027deb25a","ios":"levelo://app?vid=0341b38f-2f71-4b00-9538-dab027deb25a"},"vehicle_type_id":"4","last_reported":1773217744,"current_range_meters":26000,"station_id":"ce4bhop2rcd13ifvqh8g","pricing_plan_id":"cebpf4jnsgd1na2vs0mg"},{"bike_id":"7567ece7-d0eb-41af-8836-79be3883e346","system_id":"levelo_inurba_marseille","lat":43.27253,"lon":5.39177,"is_reserved":false,"is_disabled":false,"rental_uris":{"android":"levelo://app?vid=7567ece7-d0eb-41af-8836-79be3883e346","ios":"levelo://app?vid=7567ece7-d0eb-41af-8836-79be3883e346"},"vehicle_type_id":"4","last_reported":1773217744,"current_range_meters":27200,"station_id":"ce4bhhp2rcd13ifvqfm0","pricing_plan_id":"cebpf4jnsgd1na2vs0mg"},{"bike_id":"ebd6088d-ab52-4b6d-b6be-62de3fd47906","system_id":"levelo_inurba_marseille","lat":43.30127,"lon":5.39869,"is_reserved":false,"is_disabled":true,"rental_uris":{"android":"levelo://app?vid=ebd6088d-ab52-4b6d-b6be-62de3fd47906","ios":"levelo://app?vid=ebd6088d-ab52-4b6d-b6be-62de3fd47906"},"vehicle_type_id":"4","last_reported":1773217744,"current_range_meters":18000,"station_id":"ce4bh0h2rcd13ifvqd40","pricing_plan_id":"cebpf4jnsgd1na2vs0mg"},{"bike_id":"a8cec461-37aa-4545-98e4-ad56cc5c20a4","system_id":"levelo_inurba_marseille","lat":43.3057,"lon":5.37226,"is_reserved":false,"is_disabled":false,"rental_uris":{"android":"levelo://app?vid=a8cec461-37aa-4545-98e4-ad56cc5c20a4","ios":"levelo://app?vid=a8cec461-37aa-4545-98e4-ad56cc5c20a4"},"vehicle_type_id":"4","last_reported":1773217744,"current_range_meters":29600,"station_id":"ce4bgqh2rcd13ifvqc4g","pricing_plan_id":"cebpf4jnsgd1na2vs0mg"},{"bike_id":"ceb85dfd-9fcd-4b77-9f66-3415af1cb0f5","system_id":"levelo_inurba_marseille","lat":43.30148,"lon":5.38098,"is_reserved":false,"is_disabled":false,"rental_uris":{"android":"levelo://app?vid=ceb85dfd-9fcd-4b77-9f66-3415af1cb0f5","ios":"levelo://app?vid=ceb85dfd-9fcd-4b77-9f66-3415af1cb0f5"},"vehicle_type_id":"4","last_reported":1773217744,"current_range_meters":28800,"station_id":"ce4bgjp2rcd13ifvqbh0","pricing_plan_id":"cebpf4jnsgd1na2vs0mg"},{"bike_id":"5bdbc14c-8a8e-4222-b808-7e7039628b00","system_id":"levelo_inurba_marseille","lat":43.24074,"lon":5.37765,"is_reserved":false,"is_disabled":false,"rental_uris":{"android":"levelo://app?vid=5bdbc14c-8a8e-4222-b808-7e7039628b00","ios":"levelo://app?vid=5bdbc14c-8a8e-4222-b808-7e7039628b00"},"vehicle_type_id":"4","last_reported":1773217744,"current_range_meters":30000,"station_id":"ce4bhnp2rcd13ifvqgvg","pricing_plan_id":"cebpf4jnsgd1na2vs0mg"},{"bike_id":"3bb30847-837b-4c44-9e3e-b9ace5e9b620","system_id":"levelo_inurba_marseille","lat":43.29542,"lon":5.37525,"is_reserved":false,"is_disabled":true,"rental_uris":{"android":"levelo://app?vid=3bb30847-837b-4c44-9e3e-b9ace5e9b620","ios":"levelo://app?vid=3bb30847-837b-4c44-9e3e-b9ace5e9b620"},"vehicle_type_id":"4","last_reported":1773217744,"current_range_meters":1200,"station_id":"ce4bgkp2rcd13ifvqbmg","pricing_plan_id":"cebpf4jnsgd1na2vs0mg"},{"bike_id":"03f6ef9d-860f-46ef-ab56-e6b683285949","system_id":"levelo_inurba_marseille","lat":43.29194,"lon":5.39306,"is_reserved":false,"is_disabled":false,"rental_uris":{"android":"levelo://app?vid=03f6ef9d-860f-46ef-ab56-e6b683285949","ios":"levelo://app?vid=03f6ef9d-860f-46ef-ab56-e6b683285949"},"vehicle_type_id":"4","last_reported":1773217744,"current_range_meters":30000,"station_id":"ce4bh192rcd13ifvqdd0","pricing_plan_id":"cebpf4jnsgd1na2vs0mg"},{"bike_id":"4eb01288-23f5-4e80-9a9a-837bb161c164","system_id":"levelo_inurba_marseille","lat":43.27057,"lon":5.38304,"is_reserved":false,"is_disabled":false,"rental_uris":{"android":"levelo://app?vid=4eb01288-23f5-4e80-9a9a-837bb161c164","ios":"levelo://app?vid=4eb01288-23f5-4e80-9a9a-837bb161c164"},"vehicle_type_id":"4","last_reported":1773217744,"current_range_meters":36800,"station_id":"st_d3n2fo6cfp8s73cte1j0","pricing_plan_id":"cebpf4jnsgd1na2vs0mg"},{"bike_id":"e50d48ed-53b5-42aa-8d06-2635f15d8cc9","system_id":"levelo_inurba_marseille","lat":43.28463,"lon":5.35903,"is_reserved":false,"is_disabled":true,"rental_uris":{"android":"levelo://app?vid=e50d48ed-53b5-42aa-8d06-2635f15d8cc9","ios":"levelo://app?vid=e50d48ed-53b5-42aa-8d06-2635f15d8cc9"},"vehicle_type_id":"4","last_reported":1773217744,"current_range_meters":2800,"station_id":"ce4bhah2rcd13ifvqei0","pricing_plan_id":"cebpf4jnsgd1na2vs0mg"},{"bike_id":"faec2436-d48c-4b11-8b30-20bb4a2e1087","system_id":"levelo_inurba_marseille","lat":43.27333,"lon":5.39154,"is_reserved":false,"is_disabled":false,"rental_uris":{"android":"levelo://app?vid=faec2436-d48c-4b11-8b30-20bb4a2e1087","ios":"levelo://app?vid=faec2436-d48c-4b11-8b30-20bb4a2e1087"},"vehicle_type_id":"4","last_reported":1773217744,"current_range_meters":34000,"station_id":"ce4bhgp2rcd13ifvqfe0","pricing_plan_id":"cebpf4jnsgd1na2vs0mg"},{"bike_id":"c96e1200-e668-4876-b095-554d0eccd42c","system_id":"levelo_inurba_marseille","lat":43.30526,"lon":5.36706,"is_reserved":false,"is_disabled":false,"rental_uris":{"android":"levelo://app?vid=c96e1200-e668-4876-b095-554d0eccd42c","ios":"levelo://app?vid=c96e1200-e668-4876-b095-554d0eccd42c"},"vehicle_type_id":"4","last_reported":1773217744,"current_range_meters":30000,"station_id":"ce4bgrp2rcd13ifvqc9g","pricing_plan_id":"cebpf4jnsgd1na2vs0mg"},{"bike_id":"a63d22a1-9803-47da-97c5-9eb5069b8019","system_id":"levelo_inurba_marseille","lat":43.25824,"lon":5.39413,"is_reserved":false,"is_disabled":false,"rental_uris":{"android":"levelo://app?vid=a63d22a1-9803-47da-97c5-9eb5069b8019","ios":"levelo://app?vid=a63d22a1-9803-47da-97c5-9eb5069b8019"},"vehicle_type_id":"4","last_reported":1773217744,"current_range_meters":39200,"station_id":"ce4bhip2rcd13ifvqft0","pricing_plan_id":"cebpf4jnsgd1na2vs0mg"},{"bike_id":"893e0a49-3615-4028-ba62-16f7e52631a3","system_id":"levelo_inurba_marseille","lat":43.3139,"lon":5.36689,"is_reserved":false,"is_disabled":false,"rental_uris":{"android":"levelo://app?vid=893e0a49-3615-4028-ba62-16f7e52631a3","ios":"levelo://app?vid=893e0a49-3615-4028-ba62-16f7e52631a3"},"vehicle_type_id":"4","last_reported":1773217744,"current_range_meters":21600,"station_id":"","pricing_plan_id":"cebpf4jnsgd1na2vs0mg"},{"bike_id":"e5c6fa89-d98b-49f7-887f-210cb4d3170f","system_id":"levelo_inurba_marseille","lat":43.305,"lon":5.37895,"is_reserved":false,"is_disabled":false,"rental_uris":{"android":"levelo://app?vid=e5c6fa89-d98b-49f7-887f-210cb4d3170f","ios":"levelo://app?vid=e5c6fa89-d98b-49f7-887f-210cb4d3170f"},"vehicle_type_id":"4","last_reported":1773217744,"current_range_meters":38000,"station_id":"ce4bgup2rcd13ifvqcn0","pricing_plan_id":"cebpf4jnsgd1na2vs0mg"},{"bike_id":"8b2e521b-1101-44fe-9d4a-0344f080c81c","system_id":"levelo_inurba_marseille","lat":43.28464,"lon":5.48413,"is_reserved":false,"is_disabled":false,"rental_uris":{"android":"levelo://app?vid=8b2e521b-1101-44fe-9d4a-0344f080c81c","ios":"levelo://app?vid=8b2e521b-1101-44fe-9d4a-0344f080c81c"},"vehicle_type_id":"4","last_reported":1773217744,"current_range_meters":37600,"station_id":"","pricing_plan_id":"cebpf4jnsgd1na2vs0mg"},{"bike_id":"47211649-8614-4b6a-9490-eec4357ab879","system_id":"levelo_inurba_marseille","lat":43.27664,"lon":5.38914,"is_reserved":false,"is_disabled":false,"rental_uris":{"android":"levelo://app?vid=47211649-8614-4b6a-9490-eec4357ab879","ios":"levelo://app?vid=47211649-8614-4b6a-9490-eec4357ab879"},"vehicle_type_id":"4","last_reported":1773217744,"current_range_meters":39200,"station_id":"ce4bhi12rcd13ifvqfo0","pricing_plan_id":"cebpf4jnsgd1na2vs0mg"},{"bike_id":"1697678c-c8a4-4c47-ade7-901915c540a8","system_id":"levelo_inurba_marseille","lat":43.29597,"lon":5.38095,"is_reserved":false,"is_disabled":true,"rental_uris":{"android":"levelo://app?vid=1697678c-c8a4-4c47-ade7-901915c540a8","ios":"levelo://app?vid=1697678c-c8a4-4c47-ade7-901915c540a8"},"vehicle_type_id":"4","last_reported":1773217744,"current_range_meters":7200,"station_id":"ce4bgl12rcd13ifvqbo0","pricing_plan_id":"cebpf4jnsgd1na2vs0mg"},{"bike_id":"c218a525-9f9c-4fa7-ade2-984f84feab52","system_id":"levelo_inurba_marseille","lat":43.30932,"lon":5.36857,"is_reserved":false,"is_disabled":false,"rental_uris":{"android":"levelo://app?vid=c218a525-9f9c-4fa7-ade2-984f84feab52","ios":"levelo://app?vid=c218a525-9f9c-4fa7-ade2-984f84feab52"},"vehicle_type_id":"4","last_reported":1773217744,"current_range_meters":38000,"station_id":"ce4bgn92rcd13ifvqbvg","pricing_plan_id":"cebpf4jnsgd1na2vs0mg"},{"bike_id":"25a2c351-9abb-465c-bb2f-4a1726dd6af2","system_id":"levelo_inurba_marseille","lat":43.26955,"lon":5.3864,"is_reserved":false,"is_disabled":false,"rental_uris":{"android":"levelo://app?vid=25a2c351-9abb-465c-bb2f-4a1726dd6af2","ios":"levelo://app?vid=25a2c351-9abb-465c-bb2f-4a1726dd6af2"},"vehicle_type_id":"4","last_reported":1773217744,"current_range_meters":26000,"station_id":"ce4bhh92rcd13ifvqfh0","pricing_plan_id":"cebpf4jnsgd1na2vs0mg"},{"bike_id":"9f771103-8db9-4e4d-8970-6580b0d7771b","system_id":"levelo_inurba_marseille","lat":43.30534,"lon":5.36693,"is_reserved":false,"is_disabled":false,"rental_uris":{"android":"levelo://app?vid=9f771103-8db9-4e4d-8970-6580b0d7771b","ios":"levelo://app?vid=9f771103-8db9-4e4d-8970-6580b0d7771b"},"vehicle_type_id":"4","last_reported":1773217744,"current_range_meters":24800,"station_id":"ce4bgrp2rcd13ifvqc9g","pricing_plan_id":"cebpf4jnsgd1na2vs0mg"},{"bike_id":"addd1164-66a3-4112-8c26-dc8b88fc1ea2","system_id":"levelo_inurba_marseille","lat":43.25705,"lon":5.41112,"is_reserved":false,"is_disabled":false,"rental_uris":{"android":"levelo://app?vid=addd1164-66a3-4112-8c26-dc8b88fc1ea2","ios":"levelo://app?vid=addd1164-66a3-4112-8c26-dc8b88fc1ea2"},"vehicle_type_id":"4","last_reported":1773217744,"current_range_meters":29600,"station_id":"ce4bhkp2rcd13ifvqgd0","pricing_plan_id":"cebpf4jnsgd1na2vs0mg"},{"bike_id":"765f5e16-d35c-470b-b744-77989723487c","system_id":"levelo_inurba_marseille","lat":43.3095,"lon":5.39035,"is_reserved":false,"is_disabled":false,"rental_uris":{"android":"levelo://app?vid=765f5e16-d35c-470b-b744-77989723487c","ios":"levelo://app?vid=765f5e16-d35c-470b-b744-77989723487c"},"vehicle_type_id":"4","last_reported":1773217744,"current_range_meters":25200,"station_id":"ce4bgup2rcd13ifvqco0","pricing_plan_id":"cebpf4jnsgd1na2vs0mg"},{"bike_id":"5055d132-7a0b-4e55-9b5f-a4ed0ef8f32c","system_id":"levelo_inurba_marseille","lat":43.24059,"lon":5.37751,"is_reserved":false,"is_disabled":false,"rental_uris":{"android":"levelo://app?vid=5055d132-7a0b-4e55-9b5f-a4ed0ef8f32c","ios":"levelo://app?vid=5055d132-7a0b-4e55-9b5f-a4ed0ef8f32c"},"vehicle_type_id":"4","last_reported":1773217744,"current_range_meters":16400,"station_id":"ce4bhnp2rcd13ifvqgvg","pricing_plan_id":"cebpf4jnsgd1na2vs0mg"},{"bike_id":"2436638b-fa42-4103-b807-af930e438fa3","system_id":"levelo_inurba_marseille","lat":43.24654,"lon":5.38887,"is_reserved":false,"is_disabled":false,"rental_uris":{"android":"levelo://app?vid=2436638b-fa42-4103-b807-af930e438fa3","ios":"levelo://app?vid=2436638b-fa42-4103-b807-af930e438fa3"},"vehicle_type_id":"4","last_reported":1773217744,"current_range_meters":14400,"station_id":"ce4bhg12rcd13ifvqf60","pricing_plan_id":"cebpf4jnsgd1na2vs0mg"},{"bike_id":"84f24c4f-c2e8-44eb-93b8-496d29da2656","system_id":"levelo_inurba_marseille","lat":43.30895,"lon":5.36849,"is_reserved":false,"is_disabled":false,"rental_uris":{"android":"levelo://app?vid=84f24c4f-c2e8-44eb-93b8-496d29da2656","ios":"levelo://app?vid=84f24c4f-c2e8-44eb-93b8-496d29da2656"},"vehicle_type_id":"4","last_reported":1773217744,"current_range_meters":34000,"station_id":"ce4bgn92rcd13ifvqbvg","pricing_plan_id":"cebpf4jnsgd1na2vs0mg"},{"bike_id":"ab222e49-6987-42c8-b03b-b552e82dfa8d","system_id":"levelo_inurba_marseille","lat":43.31535,"lon":5.3803,"is_reserved":false,"is_disabled":false,"rental_uris":{"android":"levelo://app?vid=ab222e49-6987-42c8-b03b-b552e82dfa8d","ios":"levelo://app?vid=ab222e49-6987-42c8-b03b-b552e82dfa8d"},"vehicle_type_id":"4","last_reported":1773217744,"current_range_meters":38000,"station_id":"ce4bhsp2rcd13ifvqi50","pricing_plan_id":"cebpf4jnsgd1na2vs0mg"},{"bike_id":"9683c60a-dfca-4bee-baf8-d62d4e08aa82","system_id":"levelo_inurba_marseille","lat":43.30897,"lon":5.37211,"is_reserved":false,"is_disabled":false,"rental_uris":{"android":"levelo://app?vid=9683c60a-dfca-4bee-baf8-d62d4e08aa82","ios":"levelo://app?vid=9683c60a-dfca-4bee-baf8-d62d4e08aa82"},"vehicle_type_id":"4","last_reported":1773217744,"current_range_meters":17200,"station_id":"ce4bguh2rcd13ifvqckg","pricing_plan_id":"cebpf4jnsgd1na2vs0mg"},{"bike_id":"629a5b04-9225-42cf-b2f9-d31afe3f11aa","system_id":"levelo_inurba_marseille","lat":43.2656,"lon":5.37304,"is_reserved":false,"is_disabled":false,"rental_uris":{"android":"levelo://app?vid=629a5b04-9225-42cf-b2f9-d31afe3f11aa","ios":"levelo://app?vid=629a5b04-9225-42cf-b2f9-d31afe3f11aa"},"vehicle_type_id":"4","last_reported":1773217744,"current_range_meters":39200,"station_id":"ce4bhg12rcd13ifvqf70","pricing_plan_id":"cebpf4jnsgd1na2vs0mg"},{"bike_id":"26a6b2e2-002a-4072-a1a2-b594f4e8b66c","system_id":"levelo_inurba_marseille","lat":43.295628,"lon":5.375213,"is_reserved":false,"is_disabled":false,"rental_uris":{"android":"levelo://app?vid=26a6b2e2-002a-4072-a1a2-b594f4e8b66c","ios":"levelo://app?vid=26a6b2e2-002a-4072-a1a2-b594f4e8b66c"},"vehicle_type_id":"4","last_reported":1773217744,"current_range_meters":30400,"station_id":"","pricing_plan_id":"cebpf4jnsgd1na2vs0mg"},{"bike_id":"c0f412de-40e6-4a94-a5dd-7c358ceb2433","system_id":"levelo_inurba_marseille","lat":43.23188,"lon":5.39989,"is_reserved":false,"is_disabled":false,"rental_uris":{"android":"levelo://app?vid=c0f412de-40e6-4a94-a5dd-7c358ceb2433","ios":"levelo://app?vid=c0f412de-40e6-4a94-a5dd-7c358ceb2433"},"vehicle_type_id":"4","last_reported":1773217744,"current_range_meters":38800,"station_id":"ce4bhn12rcd13ifvqgqg","pricing_plan_id":"cebpf4jnsgd1na2vs0mg"},{"bike_id":"34442958-43b2-4a68-9875-0a9f86e4ffcd","system_id":"levelo_inurba_marseille","lat":43.31071,"lon":5.37176,"is_reserved":false,"is_disabled":false,"rental_uris":{"android":"levelo://app?vid=34442958-43b2-4a68-9875-0a9f86e4ffcd","ios":"levelo://app?vid=34442958-43b2-4a68-9875-0a9f86e4ffcd"},"vehicle_type_id":"4","last_reported":1773217744,"current_range_meters":35600,"station_id":"st_d4kl2rp97mjs73e7tdfg","pricing_plan_id":"cebpf4jnsgd1na2vs0mg"},{"bike_id":"18e13506-47ec-472b-952c-0cda623df6f9","system_id":"levelo_inurba_marseille","lat":43.272075,"lon":5.391823,"is_reserved":false,"is_disabled":false,"rental_uris":{"android":"levelo://app?vid=18e13506-47ec-472b-952c-0cda623df6f9","ios":"levelo://app?vid=18e13506-47ec-472b-952c-0cda623df6f9"},"vehicle_type_id":"4","last_reported":1773217744,"current_range_meters":39200,"station_id":"ce4bhhp2rcd13ifvqfm0","pricing_plan_id":"cebpf4jnsgd1na2vs0mg"},{"bike_id":"fd7d5543-5a5d-41d6-9fce-f29d16997315","system_id":"levelo_inurba_marseille","lat":43.24944,"lon":5.40506,"is_reserved":false,"is_disabled":false,"rental_uris":{"android":"levelo://app?vid=fd7d5543-5a5d-41d6-9fce-f29d16997315","ios":"levelo://app?vid=fd7d5543-5a5d-41d6-9fce-f29d16997315"},"vehicle_type_id":"4","last_reported":1773217744,"current_range_meters":31200,"station_id":"st_d2ngiaodas8pm72gd1h0","pricing_plan_id":"cebpf4jnsgd1na2vs0mg"},{"bike_id":"231581b3-46e8-4052-85e7-dfb6a3c34fca","system_id":"levelo_inurba_marseille","lat":43.31905,"lon":5.40741,"is_reserved":false,"is_disabled":true,"rental_uris":{"android":"levelo://app?vid=231581b3-46e8-4052-85e7-dfb6a3c34fca","ios":"levelo://app?vid=231581b3-46e8-4052-85e7-dfb6a3c34fca"},"vehicle_type_id":"4","last_reported":1773217744,"current_range_meters":36000,"station_id":"ce4bhq12rcd13ifvqhig","pricing_plan_id":"cebpf4jnsgd1na2vs0mg"},{"bike_id":"3b115ee3-0f3c-4a49-8a38-cee8c9bed173","system_id":"levelo_inurba_marseille","lat":43.26779,"lon":5.39421,"is_reserved":false,"is_disabled":false,"rental_uris":{"android":"levelo://app?vid=3b115ee3-0f3c-4a49-8a38-cee8c9bed173","ios":"levelo://app?vid=3b115ee3-0f3c-4a49-8a38-cee8c9bed173"},"vehicle_type_id":"4","last_reported":1773217744,"current_range_meters":38000,"station_id":"ce4bhh12rcd13ifvqfg0","pricing_plan_id":"cebpf4jnsgd1na2vs0mg"},{"bike_id":"634c5174-2fd8-4a2f-9cd6-07b26ccaa62c","system_id":"levelo_inurba_marseille","lat":43.23192,"lon":5.39977,"is_reserved":false,"is_disabled":false,"rental_uris":{"android":"levelo://app?vid=634c5174-2fd8-4a2f-9cd6-07b26ccaa62c","ios":"levelo://app?vid=634c5174-2fd8-4a2f-9cd6-07b26ccaa62c"},"vehicle_type_id":"4","last_reported":1773217744,"current_range_meters":30400,"station_id":"ce4bhn12rcd13ifvqgqg","pricing_plan_id":"cebpf4jnsgd1na2vs0mg"},{"bike_id":"bf28d96c-e7e6-46f0-b28d-f3fb06957523","system_id":"levelo_inurba_marseille","lat":43.31371,"lon":5.38514,"is_reserved":false,"is_disabled":false,"rental_uris":{"android":"levelo://app?vid=bf28d96c-e7e6-46f0-b28d-f3fb06957523","ios":"levelo://app?vid=bf28d96c-e7e6-46f0-b28d-f3fb06957523"},"vehicle_type_id":"4","last_reported":1773217744,"current_range_meters":6800,"station_id":"ce4bgt92rcd13ifvqcf0","pricing_plan_id":"cebpf4jnsgd1na2vs0mg"},{"bike_id":"208e77d7-12ce-4d68-ad29-6d45eaf722f6","system_id":"levelo_inurba_marseille","lat":43.28487,"lon":5.48392,"is_reserved":false,"is_disabled":false,"rental_uris":{"android":"levelo://app?vid=208e77d7-12ce-4d68-ad29-6d45eaf722f6","ios":"levelo://app?vid=208e77d7-12ce-4d68-ad29-6d45eaf722f6"},"vehicle_type_id":"4","last_reported":1773217744,"current_range_meters":8800,"station_id":"st_d3svhcjqgbts73a3dn0g","pricing_plan_id":"cebpf4jnsgd1na2vs0mg"},{"bike_id":"354b5bda-3949-4498-85b6-eb76538c91b8","system_id":"levelo_inurba_marseille","lat":43.30884,"lon":5.37194,"is_reserved":false,"is_disabled":false,"rental_uris":{"android":"levelo://app?vid=354b5bda-3949-4498-85b6-eb76538c91b8","ios":"levelo://app?vid=354b5bda-3949-4498-85b6-eb76538c91b8"},"vehicle_type_id":"4","last_reported":1773217744,"current_range_meters":39200,"station_id":"ce4bguh2rcd13ifvqckg","pricing_plan_id":"cebpf4jnsgd1na2vs0mg"},{"bike_id":"31eab7aa-d2ff-4d19-8af0-c2c63f0c6b5f","system_id":"levelo_inurba_marseille","lat":43.23196,"lon":5.35574,"is_reserved":false,"is_disabled":false,"rental_uris":{"android":"levelo://app?vid=31eab7aa-d2ff-4d19-8af0-c2c63f0c6b5f","ios":"levelo://app?vid=31eab7aa-d2ff-4d19-8af0-c2c63f0c6b5f"},"vehicle_type_id":"4","last_reported":1773217744,"current_range_meters":25600,"station_id":"ce4bhu92rcd13ifvqi70","pricing_plan_id":"cebpf4jnsgd1na2vs0mg"},{"bike_id":"79ecbdb9-5889-49c2-82c8-d38b79c305e0","system_id":"levelo_inurba_marseille","lat":43.32064,"lon":5.36844,"is_reserved":false,"is_disabled":false,"rental_uris":{"android":"levelo://app?vid=79ecbdb9-5889-49c2-82c8-d38b79c305e0","ios":"levelo://app?vid=79ecbdb9-5889-49c2-82c8-d38b79c305e0"},"vehicle_type_id":"4","last_reported":1773217744,"current_range_meters":3200,"station_id":"ce4bhrh2rcd13ifvqhug","pricing_plan_id":"cebpf4jnsgd1na2vs0mg"},{"bike_id":"39213f40-76b1-4795-8bb1-d4971a70523a","system_id":"levelo_inurba_marseille","lat":43.27996,"lon":5.39999,"is_reserved":false,"is_disabled":false,"rental_uris":{"android":"levelo://app?vid=39213f40-76b1-4795-8bb1-d4971a70523a","ios":"levelo://app?vid=39213f40-76b1-4795-8bb1-d4971a70523a"},"vehicle_type_id":"4","last_reported":1773217744,"current_range_meters":32000,"station_id":"ce4bho92rcd13ifvqh4g","pricing_plan_id":"cebpf4jnsgd1na2vs0mg"},{"bike_id":"6ed2579b-f5de-4d3b-9ebf-1f39021367ee","system_id":"levelo_inurba_marseille","lat":43.27218,"lon":5.39174,"is_reserved":false,"is_disabled":false,"rental_uris":{"android":"levelo://app?vid=6ed2579b-f5de-4d3b-9ebf-1f39021367ee","ios":"levelo://app?vid=6ed2579b-f5de-4d3b-9ebf-1f39021367ee"},"vehicle_type_id":"4","last_reported":1773217744,"current_range_meters":38000,"station_id":"ce4bhhp2rcd13ifvqfm0","pricing_plan_id":"cebpf4jnsgd1na2vs0mg"},{"bike_id":"b4c716cd-68f1-44df-8d2b-b4a8e564f9e1","system_id":"levelo_inurba_marseille","lat":43.30867,"lon":5.37187,"is_reserved":false,"is_disabled":false,"rental_uris":{"android":"levelo://app?vid=b4c716cd-68f1-44df-8d2b-b4a8e564f9e1","ios":"levelo://app?vid=b4c716cd-68f1-44df-8d2b-b4a8e564f9e1"},"vehicle_type_id":"4","last_reported":1773217744,"current_range_meters":18800,"station_id":"ce4bguh2rcd13ifvqckg","pricing_plan_id":"cebpf4jnsgd1na2vs0mg"},{"bike_id":"531af1f4-c05d-44d3-b0db-af9c9ec2582b","system_id":"levelo_inurba_marseille","lat":43.29917,"lon":5.3652,"is_reserved":false,"is_disabled":false,"rental_uris":{"android":"levelo://app?vid=531af1f4-c05d-44d3-b0db-af9c9ec2582b","ios":"levelo://app?vid=531af1f4-c05d-44d3-b0db-af9c9ec2582b"},"vehicle_type_id":"4","last_reported":1773217744,"current_range_meters":30800,"station_id":"ce4bgm92rcd13ifvqbr0","pricing_plan_id":"cebpf4jnsgd1na2vs0mg"},{"bike_id":"358135ca-c3f5-4edc-b039-6456adc8657b","system_id":"levelo_inurba_marseille","lat":43.26676,"lon":5.38265,"is_reserved":false,"is_disabled":false,"rental_uris":{"android":"levelo://app?vid=358135ca-c3f5-4edc-b039-6456adc8657b","ios":"levelo://app?vid=358135ca-c3f5-4edc-b039-6456adc8657b"},"vehicle_type_id":"4","last_reported":1773217744,"current_range_meters":19600,"station_id":"ce4bhg92rcd13ifvqf90","pricing_plan_id":"cebpf4jnsgd1na2vs0mg"},{"bike_id":"fb62e30d-b855-4017-83e6-676a1627c5ae","system_id":"levelo_inurba_marseille","lat":43.29821,"lon":5.38098,"is_reserved":false,"is_disabled":false,"rental_uris":{"android":"levelo://app?vid=fb62e30d-b855-4017-83e6-676a1627c5ae","ios":"levelo://app?vid=fb62e30d-b855-4017-83e6-676a1627c5ae"},"vehicle_type_id":"4","last_reported":1773217744,"current_range_meters":12800,"station_id":"ce4bgip2rcd13ifvqbb0","pricing_plan_id":"cebpf4jnsgd1na2vs0mg"},{"bike_id":"a0aa8461-cd6a-4db7-9d35-4a39cc18dc6b","system_id":"levelo_inurba_marseille","lat":43.30513,"lon":5.36647,"is_reserved":false,"is_disabled":false,"rental_uris":{"android":"levelo://app?vid=a0aa8461-cd6a-4db7-9d35-4a39cc18dc6b","ios":"levelo://app?vid=a0aa8461-cd6a-4db7-9d35-4a39cc18dc6b"},"vehicle_type_id":"4","last_reported":1773217744,"current_range_meters":26800,"station_id":"","pricing_plan_id":"cebpf4jnsgd1na2vs0mg"},{"bike_id":"122daf15-e5de-4005-b987-3d5b56ed7244","system_id":"levelo_inurba_marseille","lat":43.29227,"lon":5.360599,"is_reserved":false,"is_disabled":false,"rental_uris":{"android":"levelo://app?vid=122daf15-e5de-4005-b987-3d5b56ed7244","ios":"levelo://app?vid=122daf15-e5de-4005-b987-3d5b56ed7244"},"vehicle_type_id":"4","last_reported":1773217744,"current_range_meters":37600,"station_id":"ce4bhbh2rcd13ifvqeqg","pricing_plan_id":"cebpf4jnsgd1na2vs0mg"},{"bike_id":"2577d371-c061-468a-9c16-f42c2764a051","system_id":"levelo_inurba_marseille","lat":43.27303,"lon":5.39096,"is_reserved":false,"is_disabled":false,"rental_uris":{"android":"levelo://app?vid=2577d371-c061-468a-9c16-f42c2764a051","ios":"levelo://app?vid=2577d371-c061-468a-9c16-f42c2764a051"},"vehicle_type_id":"4","last_reported":1773217744,"current_range_meters":24800,"station_id":"ce4bhgp2rcd13ifvqfe0","pricing_plan_id":"cebpf4jnsgd1na2vs0mg"},{"bike_id":"b181e2a2-1357-40f7-9e48-e6afda7ae707","system_id":"levelo_inurba_marseille","lat":43.28695,"lon":5.37908,"is_reserved":false,"is_disabled":false,"rental_uris":{"android":"levelo://app?vid=b181e2a2-1357-40f7-9e48-e6afda7ae707","ios":"levelo://app?vid=b181e2a2-1357-40f7-9e48-e6afda7ae707"},"vehicle_type_id":"4","last_reported":1773217744,"current_range_meters":30000,"station_id":"ce4bh9p2rcd13ifvqec0","pricing_plan_id":"cebpf4jnsgd1na2vs0mg"},{"bike_id":"6b41a219-32bf-4113-b301-48dc7a990838","system_id":"levelo_inurba_marseille","lat":43.29809,"lon":5.44065,"is_reserved":false,"is_disabled":false,"rental_uris":{"android":"levelo://app?vid=6b41a219-32bf-4113-b301-48dc7a990838","ios":"levelo://app?vid=6b41a219-32bf-4113-b301-48dc7a990838"},"vehicle_type_id":"4","last_reported":1773217744,"current_range_meters":9200,"station_id":"st_d3jp68qikq2c7381ktn0","pricing_plan_id":"cebpf4jnsgd1na2vs0mg"},