{"last_updated":1745994015,"ttl":60,"version":"2.2","data":{"bikes":[{"bike_id":"af4f0c69-e62d-4155-b1d1-a67b45271ae1","system_id":"levelo_inurba_marseille","lat":43.2473,"lon":5.41166,"is_reserved":false,"is_disabled":false,"rental_uris":{"android":"levelo://app?vid=af4f0c69-e62d-4155-b1d1-a67b45271ae1","ios":"levelo://app?vid=af4f0c69-e62d-4155-b1d1-a67b45271ae1"},"vehicle_type_id":"4","last_reported":1745994015,"current_range_meters":2800,"station_id":"","pricing_plan_id":"cebpf4jnsgd1na2vs0mg"},{"bike_id":"e288c1b9-de3d-40c0-ac27-e03c9556d880","system_id":"levelo_inurba_marseille","lat":43.29256,"lon":5.4091,"is_reserved":false,"is_disabled":true,"rental_uris":{"android":"levelo://app?vid=e288c1b9-de3d-40c0-ac27-e03c9556d880","ios":"levelo://app?vid=e288c1b9-de3d-40c0-ac27-e03c9556d880"},"vehicle_type_id":"4","last_reported":1745994015,"current_range_meters":2800,"station_id":"ce4bh192rcd13ifvqdc0","pricing_plan_id":"cebpf4jnsgd1na2vs0mg"},{"bike_id":"24e403c3-bef4-4fed-ab22-f27cbf6fcdd0","system_id":"levelo_inurba_marseille","lat":43.29036,"lon":5.39971,"is_reserved":false,"is_disabled":true,"rental_uris":{"android":"levelo://app?vid=24e403c3-bef4-4fed-ab22-f27cbf6fcdd0","ios":"levelo://app?vid=24e403c3-bef4-4fed-ab22-f27cbf6fcdd0"},"vehicle_type_id":"4","last_reported":1745994015,"current_range_meters":2800,"station_id":"ce4bh392rcd13ifvqdm0","pricing_plan_id":"cebpf4jnsgd1na2vs0mg"},{"bike_id":"9d010305-db17-4453-8752-e7a64080a1fa","system_id":"levelo_inurba_marseille","lat":43.28371,"lon":5.396157,"is_reserved":false,"is_disabled":false,"rental_uris":{"android":"levelo://app?vid=9d010305-db17-4453-8752-e7a64080a1fa","ios":"levelo://app?vid=9d010305-db17-4453-8752-e7a64080a1fa"},"vehicle_type_id":"4","last_reported":1745994015,"current_range_meters":3200,"station_id":"","pricing_plan_id":"cebpf4jnsgd1na2vs0mg"},{"bike_id":"7a975743-8109-42e8-b234-83e37dbe23f4","system_id":"levelo_inurba_marseille","lat":43.27221,"lon":5.391917,"is_reserved":false,"is_disabled":false,"rental_uris":{"android":"levelo://app?vid=7a975743-8109-42e8-b234-83e37dbe23f4","ios":"levelo://app?vid=7a975743-8109-42e8-b234-83e37dbe23f4"},"vehicle_type_id":"4","last_reported":1745994015,"current_range_meters":3200,"station_id":"ce4bhhp2rcd13ifvqfm0","pricing_plan_id":"cebpf4jnsgd1na2vs0mg"},{"bike_id":"a64fa11c-6c29-433a-897f-89d76ac11d7a","system_id":"levelo_inurba_marseille","lat":43.313496,"lon":5.366953,"is_reserved":false,"is_disabled":false,"rental_uris":{"android":"levelo://app?vid=a64fa11c-6c29-433a-897f-89d76ac11d7a","ios":"levelo://app?vid=a64fa11c-6c29-433a-897f-89d76ac11d7a"},"vehicle_type_id":"4","last_reported":1745994015,"current_range_meters":6800,"station_id":"ce4bgr92rcd13ifvqc6g","pricing_plan_id":"cebpf4jnsgd1na2vs0mg"},{"bike_id":"05016f26-7bc7-465c-93ee-2673371565e8","system_id":"levelo_inurba_marseille","lat":43.30149,"lon":5.38089,"is_reserved":false,"is_disabled":false,"rental_uris":{"android":"levelo://app?vid=05016f26-7bc7-465c-93ee-2673371565e8","ios":"levelo://app?vid=05016f26-7bc7-465c-93ee-2673371565e8"},"vehicle_type_id":"4","last_reported":1745994015,"current_range_meters":3200,"station_id":"ce4bgjp2rcd13ifvqbh0","pricing_plan_id":"cebpf4jnsgd1na2vs0mg"},{"bike_id":"c847c66a-5d4b-43a0-b8ce-3c816716271e","system_id":"levelo_inurba_marseille","lat":43.28997,"lon":5.356,"is_reserved":false,"is_disabled":true,"rental_uris":{"android":"levelo://app?vid=c847c66a-5d4b-43a0-b8ce-3c816716271e","ios":"levelo://app?vid=c847c66a-5d4b-43a0-b8ce-3c816716271e"},"vehicle_type_id":"4","last_reported":1745994015,"current_range_meters":3200,"station_id":"ce4bhb92rcd13ifvqen0","pricing_plan_id":"cebpf4jnsgd1na2vs0mg"},{"bike_id":"fb891af2-8f03-4ce6-8505-8ae556de64e0","system_id":"levelo_inurba_marseille","lat":43.27955,"lon":5.38711,"is_reserved":false,"is_disabled":false,"rental_uris":{"android":"levelo://app?vid=fb891af2-8f03-4ce6-8505-8ae556de64e0","ios":"levelo://app?vid=fb891af2-8f03-4ce6-8505-8ae556de64e0"},"vehicle_type_id":"4","last_reported":1745994015,"current_range_meters":3200,"station_id":"ce4bhg12rcd13ifvqf80","pricing_plan_id":"cebpf4jnsgd1na2vs0mg"},{"bike_id":"31844f1b-77d8-448b-bde6-673732187103","system_id":"levelo_inurba_marseille","lat":43.30148,"lon":5.3809,"is_reserved":false,"is_disabled":false,"rental_uris":{"android":"levelo://app?vid=31844f1b-77d8-448b-bde6-673732187103","ios":"levelo://app?vid=31844f1b-77d8-448b-bde6-673732187103"},"vehicle_type_id":"4","last_reported":1745994015,"current_range_meters":3200,"station_id":"ce4bgjp2rcd13ifvqbh0","pricing_plan_id":"cebpf4jnsgd1na2vs0mg"},{"bike_id":"775481df-05c4-4f0e-8a67-b66aedbeddcf","system_id":"levelo_inurba_marseille","lat":43.24177,"lon":5.39729,"is_reserved":false,"is_disabled":false,"rental_uris":{"android":"levelo://app?vid=775481df-05c4-4f0e-8a67-b66aedbeddcf","ios":"levelo://app?vid=775481df-05c4-4f0e-8a67-b66aedbeddcf"},"vehicle_type_id":"4","last_reported":1745994015,"current_range_meters":3600,"station_id":"ce4bhn12rcd13ifvqgpg","pricing_plan_id":"cebpf4jnsgd1na2vs0mg"},{"bike_id":"67913487-38f0-4b67-a7e6-fb5ea5151703","system_id":"levelo_inurba_marseille","lat":43.283577,"lon":5.381082,"is_reserved":false,"is_disabled":false,"rental_uris":{"android":"levelo://app?vid=67913487-38f0-4b67-a7e6-fb5ea5151703","ios":"levelo://app?vid=67913487-38f0-4b67-a7e6-fb5ea5151703"},"vehicle_type_id":"4","last_reported":1745994015,"current_range_meters":3600,"station_id":"ce4bh412rcd13ifvqdr0","pricing_plan_id":"cebpf4jnsgd1na2vs0mg"},{"bike_id":"260981a5-60d4-4b38-97de-5fb58feade6c","system_id":"levelo_inurba_marseille","lat":43.24076,"lon":5.37791,"is_reserved":false,"is_disabled":false,"rental_uris":{"android":"levelo://app?vid=260981a5-60d4-4b38-97de-5fb58feade6c","ios":"levelo://app?vid=260981a5-60d4-4b38-97de-5fb58feade6c"},"vehicle_type_id":"4","last_reported":1745994015,"current_range_meters":3600,"station_id":"ce4bhnp2rcd13ifvqgvg","pricing_plan_id":"cebpf4jnsgd1na2vs0mg"},{"bike_id":"38b0a9f0-c61d-4c7c-b673-e675344dea51","system_id":"levelo_inurba_marseille","lat":43.33602,"lon":5.41016,"is_reserved":false,"is_disabled":false,"rental_uris":{"android":"levelo://app?vid=38b0a9f0-c61d-4c7c-b673-e675344dea51","ios":"levelo://app?vid=38b0a9f0-c61d-4c7c-b673-e675344dea51"},"vehicle_type_id":"4","last_reported":1745994015,"current_range_meters":3600,"station_id":"ce4bhqh2rcd13ifvqhmg","pricing_plan_id":"cebpf4jnsgd1na2vs0mg"},{"bike_id":"b039c152-f87b-436a-9b54-3e5c0bb27b9c","system_id":"levelo_inurba_marseille","lat":43.289411,"lon":5.396318,"is_reserved":false,"is_disabled":false,"rental_uris":{"android":"levelo://app?vid=b039c152-f87b-436a-9b54-3e5c0bb27b9c","ios":"levelo://app?vid=b039c152-f87b-436a-9b54-3e5c0bb27b9c"},"vehicle_type_id":"4","last_reported":1745994015,"current_range_meters":3600,"station_id":"ce4bh3h2rcd13ifvqdn0","pricing_plan_id":"cebpf4jnsgd1na2vs0mg"},{"bike_id":"5ed4c337-f502-4f73-ade5-66992a4efa84","system_id":"levelo_inurba_marseille","lat":43.30146,"lon":5.38093,"is_reserved":false,"is_disabled":false,"rental_uris":{"android":"levelo://app?vid=5ed4c337-f502-4f73-ade5-66992a4efa84","ios":"levelo://app?vid=5ed4c337-f502-4f73-ade5-66992a4efa84"},"vehicle_type_id":"4","last_reported":1745994015,"current_range_meters":4000,"station_id":"ce4bgjp2rcd13ifvqbh0","pricing_plan_id":"cebpf4jnsgd1na2vs0mg"},{"bike_id":"4e921bd6-7318-4e59-bc63-645afd4ef569","system_id":"levelo_inurba_marseille","lat":43.24177,"lon":5.36413,"is_reserved":false,"is_disabled":false,"rental_uris":{"android":"levelo://app?vid=4e921bd6-7318-4e59-bc63-645afd4ef569","ios":"levelo://app?vid=4e921bd6-7318-4e59-bc63-645afd4ef569"},"vehicle_type_id":"4","last_reported":1745994015,"current_range_meters":4000,"station_id":"cpo36qri1sfpv3e86is0","pricing_plan_id":"cebpf4jnsgd1na2vs0mg"},{"bike_id":"83825a2b-3736-49ed-aeea-be993f789935","system_id":"levelo_inurba_marseille","lat":43.2749,"lon":5.4248,"is_reserved":false,"is_disabled":false,"rental_uris":{"android":"levelo://app?vid=83825a2b-3736-49ed-aeea-be993f789935","ios":"levelo://app?vid=83825a2b-3736-49ed-aeea-be993f789935"},"vehicle_type_id":"4","last_reported":1745994015,"current_range_meters":4400,"station_id":"ce4bhn92rcd13ifvqgrg","pricing_plan_id":"cebpf4jnsgd1na2vs0mg"},{"bike_id":"07fdd447-ff15-41d0-bf25-df01b459df06","system_id":"levelo_inurba_marseille","lat":43.28006,"lon":5.40018,"is_reserved":false,"is_disabled":false,"rental_uris":{"android":"levelo://app?vid=07fdd447-ff15-41d0-bf25-df01b459df06","ios":"levelo://app?vid=07fdd447-ff15-41d0-bf25-df01b459df06"},"vehicle_type_id":"4","last_reported":1745994015,"current_range_meters":0,"station_id":"ce4bho92rcd13ifvqh4g","pricing_plan_id":"cebpf4jnsgd1na2vs0mg"},{"bike_id":"17f79166-ebe9-436e-9ec5-00018224ee4b","system_id":"levelo_inurba_marseille","lat":43.324786,"lon":5.365593,"is_reserved":false,"is_disabled":false,"rental_uris":{"android":"levelo://app?vid=17f79166-ebe9-436e-9ec5-00018224ee4b","ios":"levelo://app?vid=17f79166-ebe9-436e-9ec5-00018224ee4b"},"vehicle_type_id":"4","last_reported":1745994015,"current_range_meters":4400,"station_id":"ce4bhs12rcd13ifvqhvg","pricing_plan_id":"cebpf4jnsgd1na2vs0mg"},{"bike_id":"41ae901a-a08c-4f0f-aee0-433ffd871aa7","system_id":"levelo_inurba_marseille","lat":43.28725,"lon":5.37948,"is_reserved":false,"is_disabled":false,"rental_uris":{"android":"levelo://app?vid=41ae901a-a08c-4f0f-aee0-433ffd871aa7","ios":"levelo://app?vid=41ae901a-a08c-4f0f-aee0-433ffd871aa7"},"vehicle_type_id":"4","last_reported":1745994015,"current_range_meters":4400,"station_id":"ce4bh9p2rcd13ifvqec0","pricing_plan_id":"cebpf4jnsgd1na2vs0mg"},{"bike_id":"180ef4a7-e933-48c6-b4d2-9b730087680c","system_id":"levelo_inurba_marseille","lat":43.30457,"lon":5.37916,"is_reserved":false,"is_disabled":false,"rental_uris":{"android":"levelo://app?vid=180ef4a7-e933-48c6-b4d2-9b730087680c","ios":"levelo://app?vid=180ef4a7-e933-48c6-b4d2-9b730087680c"},"vehicle_type_id":"4","last_reported":1745994015,"current_range_meters":4800,"station_id":"ce4bgup2rcd13ifvqcn0","pricing_plan_id":"cebpf4jnsgd1na2vs0mg"},{"bike_id":"bd144d6f-b971-4b9c-ac00-3ff747426117","system_id":"levelo_inurba_marseille","lat":43.32536,"lon":5.41444,"is_reserved":false,"is_disabled":false,"rental_uris":{"android":"levelo://app?vid=bd144d6f-b971-4b9c-ac00-3ff747426117","ios":"levelo://app?vid=bd144d6f-b971-4b9c-ac00-3ff747426117"},"vehicle_type_id":"4","last_reported":1745994015,"current_range_meters":4800,"station_id":"ce4bhq12rcd13ifvqhhg","pricing_plan_id":"cebpf4jnsgd1na2vs0mg"},{"bike_id":"2300a0e5-744c-49f2-a9ee-97f109c3a530","system_id":"levelo_inurba_marseille","lat":43.29598,"lon":5.38107,"is_reserved":false,"is_disabled":false,"rental_uris":{"android":"levelo://app?vid=2300a0e5-744c-49f2-a9ee-97f109c3a530","ios":"levelo://app?vid=2300a0e5-744c-49f2-a9ee-97f109c3a530"},"vehicle_type_id":"4","last_reported":1745994015,"current_range_meters":4800,"station_id":"ce4bgl12rcd13ifvqbo0","pricing_plan_id":"cebpf4jnsgd1na2vs0mg"},{"bike_id":"91c533d0-e52e-4d85-bf53-16e672a56984","system_id":"levelo_inurba_marseille","lat":43.30901,"lon":5.37195,"is_reserved":false,"is_disabled":true,"rental_uris":{"android":"levelo://app?vid=91c533d0-e52e-4d85-bf53-16e672a56984","ios":"levelo://app?vid=91c533d0-e52e-4d85-bf53-16e672a56984"},"vehicle_type_id":"4","last_reported":1745994015,"current_range_meters":5600,"station_id":"ce4bguh2rcd13ifvqckg","pricing_plan_id":"cebpf4jnsgd1na2vs0mg"},{"bike_id":"8014f242-9aa5-4c15-91ad-54c61cae88f1","system_id":"levelo_inurba_marseille","lat":43.29975,"lon":5.3849,"is_reserved":false,"is_disabled":false,"rental_uris":{"android":"levelo://app?vid=8014f242-9aa5-4c15-91ad-54c61cae88f1","ios":"levelo://app?vid=8014f242-9aa5-4c15-91ad-54c61cae88f1"},"vehicle_type_id":"4","last_reported":1745994015,"current_range_meters":5600,"station_id":"ce4bgj92rcd13ifvqbd0","pricing_plan_id":"cebpf4jnsgd1na2vs0mg"},{"bike_id":"e5b4b90d-e268-4de2-98f4-f6d0513f8801","system_id":"levelo_inurba_marseille","lat":43.26553,"lon":5.42208,"is_reserved":false,"is_disabled":false,"rental_uris":{"android":"levelo://app?vid=e5b4b90d-e268-4de2-98f4-f6d0513f8801","ios":"levelo://app?vid=e5b4b90d-e268-4de2-98f4-f6d0513f8801"},"vehicle_type_id":"4","last_reported":1745994015,"current_range_meters":5600,"station_id":"","pricing_plan_id":"cebpf4jnsgd1na2vs0mg"},{"bike_id":"fb40b080-9e6b-4d35-8510-d117e5d15ebf","system_id":"levelo_inurba_marseille","lat":43.31485,"lon":5.3731,"is_reserved":false,"is_disabled":true,"rental_uris":{"android":"levelo://app?vid=fb40b080-9e6b-4d35-8510-d117e5d15ebf","ios":"levelo://app?vid=fb40b080-9e6b-4d35-8510-d117e5d15ebf"},"vehicle_type_id":"4","last_reported":1745994015,"current_range_meters":5600,"station_id":"ce4bgt12rcd13ifvqcd0","pricing_plan_id":"cebpf4jnsgd1na2vs0mg"},{"bike_id":"4577a91f-e368-43c1-b24d-0d2a382b9199","system_id":"levelo_inurba_marseille","lat":43.2927,"lon":5.40123,"is_reserved":false,"is_disabled":false,"rental_uris":{"android":"levelo://app?vid=4577a91f-e368-43c1-b24d-0d2a382b9199","ios":"levelo://app?vid=4577a91f-e368-43c1-b24d-0d2a382b9199"},"vehicle_type_id":"4","last_reported":1745994015,"current_range_meters":5600,"station_id":"ce4bh312rcd13ifvqdk0","pricing_plan_id":"cebpf4jnsgd1na2vs0mg"},{"bike_id":"f1e3c12a-02a3-4893-b9e1-1aacd74f3f49","system_id":"levelo_inurba_marseille","lat":43.32107,"lon":5.3675,"is_reserved":false,"is_disabled":false,"rental_uris":{"android":"levelo://app?vid=f1e3c12a-02a3-4893-b9e1-1aacd74f3f49","ios":"levelo://app?vid=f1e3c12a-02a3-4893-b9e1-1aacd74f3f49"},"vehicle_type_id":"4","last_reported":1745994015,"current_range_meters":6000,"station_id":"ce4bhrh2rcd13ifvqhug","pricing_plan_id":"cebpf4jnsgd1na2vs0mg"},{"bike_id":"9ac7577f-732d-41d4-b57a-e09b6f9bcd68","system_id":"levelo_inurba_marseille","lat":43.24067,"lon":5.37766,"is_reserved":false,"is_disabled":false,"rental_uris":{"android":"levelo://app?vid=9ac7577f-732d-41d4-b57a-e09b6f9bcd68","ios":"levelo://app?vid=9ac7577f-732d-41d4-b57a-e09b6f9bcd68"},"vehicle_type_id":"4","last_reported":1745994015,"current_range_meters":6000,"station_id":"ce4bhnp2rcd13ifvqgvg","pricing_plan_id":"cebpf4jnsgd1na2vs0mg"},{"bike_id":"dbdacbe4-4534-4d90-9d33-96b20d3b7463","system_id":"levelo_inurba_marseille","lat":43.29215,"lon":5.40043,"is_reserved":false,"is_disabled":false,"rental_uris":{"android":"levelo://app?vid=dbdacbe4-4534-4d90-9d33-96b20d3b7463","ios":"levelo://app?vid=dbdacbe4-4534-4d90-9d33-96b20d3b7463"},"vehicle_type_id":"4","last_reported":1745994015,"current_range_meters":6000,"station_id":"","pricing_plan_id":"cebpf4jnsgd1na2vs0mg"},{"bike_id":"e626939a-90e4-4c75-8387-a10e985f211e","system_id":"levelo_inurba_marseille","lat":43.28935,"lon":5.39622,"is_reserved":false,"is_disabled":false,"rental_uris":{"android":"levelo://app?vid=e626939a-90e4-4c75-8387-a10e985f211e","ios":"levelo://app?vid=e626939a-90e4-4c75-8387-a10e985f211e"},"vehicle_type_id":"4","last_reported":1745994015,"current_range_meters":6000,"station_id":"ce4bh3h2rcd13ifvqdn0","pricing_plan_id":"cebpf4jnsgd1na2vs0mg"},{"bike_id":"738568dc-408d-4c2d-88de-35ad23a92b23","system_id":"levelo_inurba_marseille","lat":43.241607,"lon":5.363964,"is_reserved":false,"is_disabled":false,"rental_uris":{"android":"levelo://app?vid=738568dc-408d-4c2d-88de-35ad23a92b23","ios":"levelo://app?vid=738568dc-408d-4c2d-88de-35ad23a92b23"},"vehicle_type_id":"4","last_reported":1745994015,"current_range_meters":6000,"station_id":"cpo36qri1sfpv3e86is0","pricing_plan_id":"cebpf4jnsgd1na2vs0mg"},{"bike_id":"36e70963-796a-4894-b1db-372ce060bbaa","system_id":"levelo_inurba_marseille","lat":43.30141,"lon":5.37421,"is_reserved":false,"is_disabled":false,"rental_uris":{"android":"levelo://app?vid=36e70963-796a-4894-b1db-372ce060bbaa","ios":"levelo://app?vid=36e70963-796a-4894-b1db-372ce060bbaa"},"vehicle_type_id":"4","last_reported":1745994015,"current_range_meters":6400,"station_id":"ce4bgs92rcd13ifvqcc0","pricing_plan_id":"cebpf4jnsgd1na2vs0mg"},{"bike_id":"6f38b2ef-8c68-4c77-9fb6-fb95536bec70","system_id":"levelo_inurba_marseille","lat":43.26219,"lon":5.40436,"is_reserved":false,"is_disabled":false,"rental_uris":{"android":"levelo://app?vid=6f38b2ef-8c68-4c77-9fb6-fb95536bec70","ios":"levelo://app?vid=6f38b2ef-8c68-4c77-9fb6-fb95536bec70"},"vehicle_type_id":"4","last_reported":1745994015,"current_range_meters":6400,"station_id":"ce4bhmh2rcd13ifvqgmg","pricing_plan_id":"cebpf4jnsgd1na2vs0mg"},{"bike_id":"b91f9a69-4cb5-41b7-b305-31a14f27626b","system_id":"levelo_inurba_marseille","lat":43.28405,"lon":5.34989,"is_reserved":false,"is_disabled":false,"rental_uris":{"android":"levelo://app?vid=b91f9a69-4cb5-41b7-b305-31a14f27626b","ios":"levelo://app?vid=b91f9a69-4cb5-41b7-b305-31a14f27626b"},"vehicle_type_id":"4","last_reported":1745994015,"current_range_meters":6400,"station_id":"ce4bhbh2rcd13ifvqepg","pricing_plan_id":"cebpf4jnsgd1na2vs0mg"},{"bike_id":"9d274e29-60e4-43bc-8771-a5d1f44253d3","system_id":"levelo_inurba_marseille","lat":43.3381,"lon":5.37433,"is_reserved":false,"is_disabled":false,"rental_uris":{"android":"levelo://app?vid=9d274e29-60e4-43bc-8771-a5d1f44253d3","ios":"levelo://app?vid=9d274e29-60e4-43bc-8771-a5d1f44253d3"},"vehicle_type_id":"4","last_reported":1745994015,"current_range_meters":6400,"station_id":"","pricing_plan_id":"cebpf4jnsgd1na2vs0mg"},{"bike_id":"4495444d-abd9-4d15-ae65-abeb5470be26","system_id":"levelo_inurba_marseille","lat":43.30525,"lon":5.3845,"is_reserved":false,"is_disabled":false,"rental_uris":{"android":"levelo://app?vid=4495444d-abd9-4d15-ae65-abeb5470be26","ios":"levelo://app?vid=4495444d-abd9-4d15-ae65-abeb5470be26"},"vehicle_type_id":"4","last_reported":1745994015,"current_range_meters":6400,"station_id":"ce4bgg92rcd13ifvqb30","pricing_plan_id":"cebpf4jnsgd1na2vs0mg"},{"bike_id":"2c1b33dc-6037-49cc-a203-b73517cb14ac","system_id":"levelo_inurba_marseille","lat":43.28608,"lon":5.45477,"is_reserved":false,"is_disabled":false,"rental_uris":{"android":"levelo://app?vid=2c1b33dc-6037-49cc-a203-b73517cb14ac","ios":"levelo://app?vid=2c1b33dc-6037-49cc-a203-b73517cb14ac"},"vehicle_type_id":"4","last_reported":1745994015,"current_range_meters":6800,"station_id":"","pricing_plan_id":"cebpf4jnsgd1na2vs0mg"},{"bike_id":"87d8ee21-f698-4625-a704-b091139c556d","system_id":"levelo_inurba_marseille","lat":43.30319,"lon":5.40437,"is_reserved":false,"is_disabled":false,"rental_uris":{"android":"levelo://app?vid=87d8ee21-f698-4625-a704-b091139c556d","ios":"levelo://app?vid=87d8ee21-f698-4625-a704-b091139c556d"},"vehicle_type_id":"4","last_reported":1745994015,"current_range_meters":6800,"station_id":"ce4bh012rcd13ifvqd10","pricing_plan_id":"cebpf4jnsgd1na2vs0mg"},{"bike_id":"58d96813-51d9-4691-82e4-fd7df8625fb2","system_id":"levelo_inurba_marseille","lat":43.3038,"lon":5.42513,"is_reserved":false,"is_disabled":false,"rental_uris":{"android":"levelo://app?vid=58d96813-51d9-4691-82e4-fd7df8625fb2","ios":"levelo://app?vid=58d96813-51d9-4691-82e4-fd7df8625fb2"},"vehicle_type_id":"4","last_reported":1745994015,"current_range_meters":6800,"station_id":"ce4bhoh2rcd13ifvqh6g","pricing_plan_id":"cebpf4jnsgd1na2vs0mg"},{"bike_id":"5fea3ac1-1381-45c4-96c5-2584a58cc62c","system_id":"levelo_inurba_marseille","lat":43.27428,"lon":5.424,"is_reserved":false,"is_disabled":false,"rental_uris":{"android":"levelo://app?vid=5fea3ac1-1381-45c4-96c5-2584a58cc62c","ios":"levelo://app?vid=5fea3ac1-1381-45c4-96c5-2584a58cc62c"},"vehicle_type_id":"4","last_reported":1745994015,"current_range_meters":6800,"station_id":"","pricing_plan_id":"cebpf4jnsgd1na2vs0mg"},{"bike_id":"d6f0a544-841e-4148-879a-1142dc5842a4","system_id":"levelo_inurba_marseille","lat":43.26206,"lon":5.37444,"is_reserved":false,"is_disabled":false,"rental_uris":{"android":"levelo://app?vid=d6f0a544-841e-4148-879a-1142dc5842a4","ios":"levelo://app?vid=d6f0a544-841e-4148-879a-1142dc5842a4"},"vehicle_type_id":"4","last_reported":1745994015,"current_range_meters":6800,"station_id":"ce4bhgp2rcd13ifvqfc0","pricing_plan_id":"cebpf4jnsgd1na2vs0mg"},{"bike_id":"ffe208c6-b0de-4e96-9c96-b23f5602080a","system_id":"levelo_inurba_marseille","lat":43.29791,"lon":5.38094,"is_reserved":false,"is_disabled":false,"rental_uris":{"android":"levelo://app?vid=ffe208c6-b0de-4e96-9c96-b23f5602080a","ios":"levelo://app?vid=ffe208c6-b0de-4e96-9c96-b23f5602080a"},"vehicle_type_id":"4","last_reported":1745994015,"current_range_meters":6800,"station_id":"ce4bgip2rcd13ifvqbb0","pricing_plan_id":"cebpf4jnsgd1na2vs0mg"},{"bike_id":"7497e739-0c50-4aa1-9f39-dfb008e37b83","system_id":"levelo_inurba_marseille","lat":43.30975,"lon":5.37133,"is_reserved":false,"is_disabled":false,"rental_uris":{"android":"levelo://app?vid=7497e739-0c50-4aa1-9f39-dfb008e37b83","ios":"levelo://app?vid=7497e739-0c50-4aa1-9f39-dfb008e37b83"},"vehicle_type_id":"4","last_reported":1745994015,"current_range_meters":6800,"station_id":"","pricing_plan_id":"cebpf4jnsgd1na2vs0mg"},{"bike_id":"6b60bf79-15ce-44ac-ae2b-e41f2863a48b","system_id":"levelo_inurba_marseille","lat":43.30216,"lon":5.40055,"is_reserved":false,"is_disabled":true,"rental_uris":{"android":"levelo://app?vid=6b60bf79-15ce-44ac-ae2b-e41f2863a48b","ios":"levelo://app?vid=6b60bf79-15ce-44ac-ae2b-e41f2863a48b"},"vehicle_type_id":"4","last_reported":1745994015,"current_range_meters":8000,"station_id":"ce4bgvh2rcd13ifvqcs0","pricing_plan_id":"cebpf4jnsgd1na2vs0mg"},{"bike_id":"3c10f98c-2cb9-4204-927c-152300f9b3ce","system_id":"levelo_inurba_marseille","lat":43.34723,"lon":5.35193,"is_reserved":false,"is_disabled":false,"rental_uris":{"android":"levelo://app?vid=3c10f98c-2cb9-4204-927c-152300f9b3ce","ios":"levelo://app?vid=3c10f98c-2cb9-4204-927c-152300f9b3ce"},"vehicle_type_id":"4","last_reported":1745994015,"current_range_meters":8000,"station_id":"","pricing_plan_id":"cebpf4jnsgd1na2vs0mg"},{"bike_id":"4f85eabb-5f16-4556-9af2-a9bcde31893c","system_id":"levelo_inurba_marseille","lat":43.30143,"lon":5.38089,"is_reserved":false,"is_disabled":true,"rental_uris":{"android":"levelo://app?vid=4f85eabb-5f16-4556-9af2-a9bcde31893c","ios":"levelo://app?vid=4f85eabb-5f16-4556-9af2-a9bcde31893c"},"vehicle_type_id":"4","last_reported":1745994015,"current_range_meters":8000,"station_id":"ce4bgjp2rcd13ifvqbh0","pricing_plan_id":"cebpf4jnsgd1na2vs0mg"},{"bike_id":"a23b05e1-5bf8-4d14-94e6-77e2216b7751","system_id":"levelo_inurba_marseille","lat":43.30468,"lon":5.3792,"is_reserved":false,"is_disabled":false,"rental_uris":{"android":"levelo://app?vid=a23b05e1-5bf8-4d14-94e6-77e2216b7751","ios":"levelo://app?vid=a23b05e1-5bf8-4d14-94e6-77e2216b7751"},"vehicle_type_id":"4","last_reported":1745994015,"current_range_meters":7200,"station_id":"ce4bgup2rcd13ifvqcn0","pricing_plan_id":"cebpf4jnsgd1na2vs0mg"},{"bike_id":"9a17a8ae-2ab4-4695-9359-18bfdd2dd544","system_id":"levelo_inurba_marseille","lat":43.26211,"lon":5.37447,"is_reserved":false,"is_disabled":false,"rental_uris":{"android":"levelo://app?vid=9a17a8ae-2ab4-4695-9359-18bfdd2dd544","ios":"levelo://app?vid=9a17a8ae-2ab4-4695-9359-18bfdd2dd544"},"vehicle_type_id":"4","last_reported":1745994015,"current_range_meters":8000,"station_id":"ce4bhgp2rcd13ifvqfc0","pricing_plan_id":"cebpf4jnsgd1na2vs0mg"},{"bike_id":"c49fa8c3-2d1f-4ce5-ba8b-6a55a6e871dd","system_id":"levelo_inurba_marseille","lat":43.29056,"lon":5.35905,"is_reserved":false,"is_disabled":false,"rental_uris":{"android":"levelo://app?vid=c49fa8c3-2d1f-4ce5-ba8b-6a55a6e871dd","ios":"levelo://app?vid=c49fa8c3-2d1f-4ce5-ba8b-6a55a6e871dd"},"vehicle_type_id":"4","last_reported":1745994015,"current_range_meters":12400,"station_id":"ce4bha92rcd13ifvqeg0","pricing_plan_id":"cebpf4jnsgd1na2vs0mg"},{"bike_id":"1862fb6f-61c4-4c09-a828-864ab246ea11","system_id":"levelo_inurba_marseille","lat":43.235188,"lon":5.403414,"is_reserved":false,"is_disabled":false,"rental_uris":{"android":"levelo://app?vid=1862fb6f-61c4-4c09-a828-864ab246ea11","ios":"levelo://app?vid=1862fb6f-61c4-4c09-a828-864ab246ea11"},"vehicle_type_id":"4","last_reported":1745994015,"current_range_meters":8000,"station_id":"","pricing_plan_id":"cebpf4jnsgd1na2vs0mg"},{"bike_id":"7b6cb632-c8f7-4891-9128-adb5c5466400","system_id":"levelo_inurba_marseille","lat":43.29275,"lon":5.4013,"is_reserved":false,"is_disabled":false,"rental_uris":{"android":"levelo://app?vid=7b6cb632-c8f7-4891-9128-adb5c5466400","ios":"levelo://app?vid=7b6cb632-c8f7-4891-9128-adb5c5466400"},"vehicle_type_id":"4","last_reported":1745994015,"current_range_meters":8400,"station_id":"ce4bh312rcd13ifvqdk0","pricing_plan_id":"cebpf4jnsgd1na2vs0mg"},{"bike_id":"c7d4ca92-020f-4c6f-815a-ddc6fdf77b1f","system_id":"levelo_inurba_marseille","lat":43.23464,"lon":5.38055,"is_reserved":false,"is_disabled":false,"rental_uris":{"android":"levelo://app?vid=c7d4ca92-020f-4c6f-815a-ddc6fdf77b1f","ios":"levelo://app?vid=c7d4ca92-020f-4c6f-815a-ddc6fdf77b1f"},"vehicle_type_id":"4","last_reported":1745994015,"current_range_meters":8400,"station_id":"","pricing_plan_id":"cebpf4jnsgd1na2vs0mg"},{"bike_id":"950539c0-c2a7-4f10-9505-afe3371972fa","system_id":"levelo_inurba_marseille","lat":43.306341,"lon":5.400761,"is_reserved":false,"is_disabled":false,"rental_uris":{"android":"levelo://app?vid=950539c0-c2a7-4f10-9505-afe3371972fa","ios":"levelo://app?vid=950539c0-c2a7-4f10-9505-afe3371972fa"},"vehicle_type_id":"4","last_reported":1745994015,"current_range_meters":8800,"station_id":"ce4bh112rcd13ifvqda0","pricing_plan_id":"cebpf4jnsgd1na2vs0mg"},{"bike_id":"131ff8bc-4481-4fa3-9b86-ace5b02ecd60","system_id":"levelo_inurba_marseille","lat":43.2407,"lon":5.37766,"is_reserved":false,"is_disabled":false,"rental_uris":{"android":"levelo://app?vid=131ff8bc-4481-4fa3-9b86-ace5b02ecd60","ios":"levelo://app?vid=131ff8bc-4481-4fa3-9b86-ace5b02ecd60"},"vehicle_type_id":"4","last_reported":1745994015,"current_range_meters":8800,"station_id":"ce4bhnp2rcd13ifvqgvg","pricing_plan_id":"cebpf4jnsgd1na2vs0mg"},{"bike_id":"7744fc4a-a864-4a95-995b-a7a1e63cfe78","system_id":"levelo_inurba_marseille","lat":43.31717,"lon":5.4242,"is_reserved":false,"is_disabled":false,"rental_uris":{"android":"levelo://app?vid=7744fc4a-a864-4a95-995b-a7a1e63cfe78","ios":"levelo://app?vid=7744fc4a-a864-4a95-995b-a7a1e63cfe78"},"vehicle_type_id":"4","last_reported":1745994015,"current_range_meters":9200,"station_id":"ce4bhp92rcd13ifvqhbg","pricing_plan_id":"cebpf4jnsgd1na2vs0mg"},{"bike_id":"351a10a2-c0d7-448b-acc4-bc96e28dd10d","system_id":"levelo_inurba_marseille","lat":43.30909,"lon":5.36845,"is_reserved":false,"is_disabled":false,"rental_uris":{"android":"levelo://app?vid=351a10a2-c0d7-448b-acc4-bc96e28dd10d","ios":"levelo://app?vid=351a10a2-c0d7-448b-acc4-bc96e28dd10d"},"vehicle_type_id":"4","last_reported":1745994015,"current_range_meters":8800,"station_id":"ce4bgn92rcd13ifvqbvg","pricing_plan_id":"cebpf4jnsgd1na2vs0mg"},{"bike_id":"001cc922-c08b-48c6-b124-2829e7acef22","system_id":"levelo_inurba_marseille","lat":43.28531,"lon":5.39535,"is_reserved":false,"is_disabled":false,"rental_uris":{"android":"levelo://app?vid=001cc922-c08b-48c6-b124-2829e7acef22","ios":"levelo://app?vid=001cc922-c08b-48c6-b124-2829e7acef22"},"vehicle_type_id":"4","last_reported":1745994015,"current_range_meters":8800,"station_id":"ce4bh292rcd13ifvqdg0","pricing_plan_id":"cebpf4jnsgd1na2vs0mg"},{"bike_id":"1c784351-9820-4386-9392-82ce87397468","system_id":"levelo_inurba_marseille","lat":43.30643,"lon":5.40081,"is_reserved":false,"is_disabled":false,"rental_uris":{"android":"levelo://app?vid=1c784351-9820-4386-9392-82ce87397468","ios":"levelo://app?vid=1c784351-9820-4386-9392-82ce87397468"},"vehicle_type_id":"4","last_reported":1745994015,"current_range_meters":8800,"station_id":"ce4bh112rcd13ifvqda0","pricing_plan_id":"cebpf4jnsgd1na2vs0mg"},{"bike_id":"35da3075-3137-4b3e-a711-fd3461b33500","system_id":"levelo_inurba_marseille","lat":43.28032,"lon":5.36933,"is_reserved":false,"is_disabled":true,"rental_uris":{"android":"levelo://app?vid=35da3075-3137-4b3e-a711-fd3461b33500","ios":"levelo://app?vid=35da3075-3137-4b3e-a711-fd3461b33500"},"vehicle_type_id":"4","last_reported":1745994015,"current_range_meters":8800,"station_id":"ce4bha12rcd13ifvqef0","pricing_plan_id":"cebpf4jnsgd1na2vs0mg"},{"bike_id":"b3e08ecb-fffb-4edf-a60f-6b7b2157a13e","system_id":"levelo_inurba_marseille","lat":43.27492,"lon":5.42451,"is_reserved":false,"is_disabled":true,"rental_uris":{"android":"levelo://app?vid=b3e08ecb-fffb-4edf-a60f-6b7b2157a13e","ios":"levelo://app?vid=b3e08ecb-fffb-4edf-a60f-6b7b2157a13e"},"vehicle_type_id":"4","last_reported":1745994015,"current_range_meters":8800,"station_id":"","pricing_plan_id":"cebpf4jnsgd1na2vs0mg"},{"bike_id":"1be6b8de-5ed4-4d8a-9cd6-aeff3b5c0661","system_id":"levelo_inurba_marseille","lat":43.28967,"lon":5.37844,"is_reserved":false,"is_disabled":true,"rental_uris":{"android":"levelo://app?vid=1be6b8de-5ed4-4d8a-9cd6-aeff3b5c0661","ios":"levelo://app?vid=1be6b8de-5ed4-4d8a-9cd6-aeff3b5c0661"},"vehicle_type_id":"4","last_reported":1745994015,"current_range_meters":9200,"station_id":"ce4bh9p2rcd13ifvqed0","pricing_plan_id":"cebpf4jnsgd1na2vs0mg"},{"bike_id":"3afb182a-0e0c-4697-93de-dcc223754d44","system_id":"levelo_inurba_marseille","lat":43.30138,"lon":5.38089,"is_reserved":false,"is_disabled":false,"rental_uris":{"android":"levelo://app?vid=3afb182a-0e0c-4697-93de-dcc223754d44","ios":"levelo://app?vid=3afb182a-0e0c-4697-93de-dcc223754d44"},"vehicle_type_id":"4","last_reported":1745994015,"current_range_meters":9200,"station_id":"ce4bgjp2rcd13ifvqbh0","pricing_plan_id":"cebpf4jnsgd1na2vs0mg"},{"bike_id":"f6afadf8-e6ff-4c7a-8692-5caf68fd0b71","system_id":"levelo_inurba_marseille","lat":43.2294,"lon":5.35392,"is_reserved":false,"is_disabled":true,"rental_uris":{"android":"levelo://app?vid=f6afadf8-e6ff-4c7a-8692-5caf68fd0b71","ios":"levelo://app?vid=f6afadf8-e6ff-4c7a-8692-5caf68fd0b71"},"vehicle_type_id":"4","last_reported":1745994015,"current_range_meters":9200,"station_id":"cpo3532slgdg3j2ikp40","pricing_plan_id":"cebpf4jnsgd1na2vs0mg"},{"bike_id":"27e2acdd-2add-407a-a835-796f76c27c03","system_id":"levelo_inurba_marseille","lat":43.32095,"lon":5.36793,"is_reserved":false,"is_disabled":false,"rental_uris":{"android":"levelo://app?vid=27e2acdd-2add-407a-a835-796f76c27c03","ios":"levelo://app?vid=27e2acdd-2add-407a-a835-796f76c27c03"},"vehicle_type_id":"4","last_reported":1745994015,"current_range_meters":9200,"station_id":"ce4bhrh2rcd13ifvqhug","pricing_plan_id":"cebpf4jnsgd1na2vs0mg"},{"bike_id":"d730df4c-31a9-401c-b2da-a56a158942b2","system_id":"levelo_inurba_marseille","lat":43.29036,"lon":5.38133,"is_reserved":false,"is_disabled":false,"rental_uris":{"android":"levelo://app?vid=d730df4c-31a9-401c-b2da-a56a158942b2","ios":"levelo://app?vid=d730df4c-31a9-401c-b2da-a56a158942b2"},"vehicle_type_id":"4","last_reported":1745994015,"current_range_meters":9600,"station_id":"ce4bh4p2rcd13ifvqe1g","pricing_plan_id":"cebpf4jnsgd1na2vs0mg"},{"bike_id":"1b192eb3-e06a-401b-907a-14d4578a0d72","system_id":"levelo_inurba_marseille","lat":43.29696,"lon":5.37703,"is_reserved":false,"is_disabled":false,"rental_uris":{"android":"levelo://app?vid=1b192eb3-e06a-401b-907a-14d4578a0d72","ios":"levelo://app?vid=1b192eb3-e06a-401b-907a-14d4578a0d72"},"vehicle_type_id":"4","last_reported":1745994015,"current_range_meters":9200,"station_id":"ce4bgkh2rcd13ifvqbl0","pricing_plan_id":"cebpf4jnsgd1na2vs0mg"},{"bike_id":"ad58fe33-c531-4ba7-8040-7b7450caf3e5","system_id":"levelo_inurba_marseille","lat":43.2904,"lon":5.39965,"is_reserved":false,"is_disabled":false,"rental_uris":{"android":"levelo://app?vid=ad58fe33-c531-4ba7-8040-7b7450caf3e5","ios":"levelo://app?vid=ad58fe33-c531-4ba7-8040-7b7450caf3e5"},"vehicle_type_id":"4","last_reported":1745994015,"current_range_meters":9600,"station_id":"ce4bh392rcd13ifvqdm0","pricing_plan_id":"cebpf4jnsgd1na2vs0mg"},{"bike_id":"77c59250-8359-4942-8c07-a9c82964e824","system_id":"levelo_inurba_marseille","lat":43.28475,"lon":5.35899,"is_reserved":false,"is_disabled":false,"rental_uris":{"android":"levelo://app?vid=77c59250-8359-4942-8c07-a9c82964e824","ios":"levelo://app?vid=77c59250-8359-4942-8c07-a9c82964e824"},"vehicle_type_id":"4","last_reported":1745994015,"current_range_meters":9600,"station_id":"ce4bhah2rcd13ifvqei0","pricing_plan_id":"cebpf4jnsgd1na2vs0mg"},{"bike_id":"9dd528f1-7987-4620-9e16-782da8c3e457","system_id":"levelo_inurba_marseille","lat":43.26579,"lon":5.39047,"is_reserved":false,"is_disabled":false,"rental_uris":{"android":"levelo://app?vid=9dd528f1-7987-4620-9e16-782da8c3e457","ios":"levelo://app?vid=9dd528f1-7987-4620-9e16-782da8c3e457"},"vehicle_type_id":"4","last_reported":1745994015,"current_range_meters":9600,"station_id":"ce4bhe12rcd13ifvqf30","pricing_plan_id":"cebpf4jnsgd1na2vs0mg"},{"bike_id":"d922f650-9e4b-464c-a3a2-1e63c0ed7dd9","system_id":"levelo_inurba_marseille","lat":43.23149,"lon":5.43727,"is_reserved":false,"is_disabled":false,"rental_uris":{"android":"levelo://app?vid=d922f650-9e4b-464c-a3a2-1e63c0ed7dd9","ios":"levelo://app?vid=d922f650-9e4b-464c-a3a2-1e63c0ed7dd9"},"vehicle_type_id":"4","last_reported":1745994015,"current_range_meters":9600,"station_id":"ce4bhmp2rcd13ifvqgog","pricing_plan_id":"cebpf4jnsgd1na2vs0mg"},{"bike_id":"1c6e2801-d406-4688-a913-a775da6b0f13","system_id":"levelo_inurba_marseille","lat":43.22937,"lon":5.35394,"is_reserved":false,"is_disabled":false,"rental_uris":{"android":"levelo://app?vid=1c6e2801-d406-4688-a913-a775da6b0f13","ios":"levelo://app?vid=1c6e2801-d406-4688-a913-a775da6b0f13"},"vehicle_type_id":"4","last_reported":1745994015,"current_range_meters":9600,"station_id":"cpo3532slgdg3j2ikp40","pricing_plan_id":"cebpf4jnsgd1na2vs0mg"},{"bike_id":"489415b8-9254-45c1-b00c-e7554d56755c","system_id":"levelo_inurba_marseille","lat":43.245195,"lon":5.412205,"is_reserved":false,"is_disabled":false,"rental_uris":{"android":"levelo://app?vid=489415b8-9254-45c1-b00c-e7554d56755c","ios":"levelo://app?vid=489415b8-9254-45c1-b00c-e7554d56755c"},"vehicle_type_id":"4","last_reported":1745994015,"current_range_meters":10000,"station_id":"","pricing_plan_id":"cebpf4jnsgd1na2vs0mg"},{"bike_id":"2a3136e6-3b21-41f8-a2f0-9820ecf58f07","system_id":"levelo_inurba_marseille","lat":43.28934,"lon":5.39627,"is_reserved":false,"is_disabled":false,"rental_uris":{"android":"levelo://app?vid=2a3136e6-3b21-41f8-a2f0-9820ecf58f07","ios":"levelo://app?vid=2a3136e6-3b21-41f8-a2f0-9820ecf58f07"},"vehicle_type_id":"4","last_reported":1745994015,"current_range_meters":10000,"station_id":"ce4bh3h2rcd13ifvqdn0","pricing_plan_id":"cebpf4jnsgd1na2vs0mg"},{"bike_id":"06b23fcf-d155-46c0-acd2-5b59645454ea","system_id":"levelo_inurba_marseille","lat":43.28469,"lon":5.3845,"is_reserved":false,"is_disabled":true,"rental_uris":{"android":"levelo://app?vid=06b23fcf-d155-46c0-acd2-5b59645454ea","ios":"levelo://app?vid=06b23fcf-d155-46c0-acd2-5b59645454ea"},"vehicle_type_id":"4","last_reported":1745994015,"current_range_meters":10000,"station_id":"ce4bh512rcd13ifvqe3g","pricing_plan_id":"cebpf4jnsgd1na2vs0mg"},{"bike_id":"3ae641eb-772b-47f4-9c6f-a55115e8b3d3","system_id":"levelo_inurba_marseille","lat":43.292,"lon":5.35812,"is_reserved":false,"is_disabled":true,"rental_uris":{"android":"levelo://app?vid=3ae641eb-772b-47f4-9c6f-a55115e8b3d3","ios":"levelo://app?vid=3ae641eb-772b-47f4-9c6f-a55115e8b3d3"},"vehicle_type_id":"4","last_reported":1745994015,"current_range_meters":10000,"station_id":"ce4bhb12rcd13ifvqel0","pricing_plan_id":"cebpf4jnsgd1na2vs0mg"},{"bike_id":"312629db-7553-4f57-8655-a25196d01b88","system_id":"levelo_inurba_marseille","lat":43.303706,"lon":5.424828,"is_reserved":false,"is_disabled":false,"rental_uris":{"android":"levelo://app?vid=312629db-7553-4f57-8655-a25196d01b88","ios":"levelo://app?vid=312629db-7553-4f57-8655-a25196d01b88"},"vehicle_type_id":"4","last_reported":1745994015,"current_range_meters":10000,"station_id":"ce4bhoh2rcd13ifvqh6g","pricing_plan_id":"cebpf4jnsgd1na2vs0mg"},{"bike_id":"6ff32f17-7b9c-463f-a13f-79ee01c6a7e8","system_id":"levelo_inurba_marseille","lat":43.3024,"lon":5.39968,"is_reserved":false,"is_disabled":false,"rental_uris":{"android":"levelo://app?vid=6ff32f17-7b9c-463f-a13f-79ee01c6a7e8","ios":"levelo://app?vid=6ff32f17-7b9c-463f-a13f-79ee01c6a7e8"},"vehicle_type_id":"4","last_reported":1745994015,"current_range_meters":10000,"station_id":"","pricing_plan_id":"cebpf4jnsgd1na2vs0mg"},{"bike_id":"07edfd45-c3fa-4b57-b865-cf1bf9963264","system_id":"levelo_inurba_marseille","lat":43.23381,"lon":5.36422,"is_reserved":false,"is_disabled":false,"rental_uris":{"android":"levelo://app?vid=07edfd45-c3fa-4b57-b865-cf1bf9963264","ios":"levelo://app?vid=07edfd45-c3fa-4b57-b865-cf1bf9963264"},"vehicle_type_id":"4","last_reported":1745994015,"current_range_meters":10000,"station_id":"","pricing_plan_id":"cebpf4jnsgd1na2vs0mg"},{"bike_id":"64cb7a97-cca3-481c-8fa5-e80a48f6bb21","system_id":"levelo_inurba_marseille","lat":43.29788,"lon":5.38137,"is_reserved":false,"is_disabled":false,"rental_uris":{"android":"levelo://app?vid=64cb7a97-cca3-481c-8fa5-e80a48f6bb21","ios":"levelo://app?vid=64cb7a97-cca3-481c-8fa5-e80a48f6bb21"},"vehicle_type_id":"4","last_reported":1745994015,"current_range_meters":10000,"station_id":"ce4bgip2rcd13ifvqbb0","pricing_plan_id":"cebpf4jnsgd1na2vs0mg"},{"bike_id":"8677ec73-cb78-43f6-8771-8f65730b3bed","system_id":"levelo_inurba_marseille","lat":43.31039,"lon":5.38373,"is_reserved":false,"is_disabled":false,"rental_uris":{"android":"levelo://app?vid=8677ec73-cb78-43f6-8771-8f65730b3bed","ios":"levelo://app?vid=8677ec73-cb78-43f6-8771-8f65730b3bed"},"vehicle_type_id":"4","last_reported":1745994015,"current_range_meters":10800,"station_id":"ce4bgv92rcd13ifvqcr0","pricing_plan_id":"cebpf4jnsgd1na2vs0mg"},{"bike_id":"ddf42e2f-5ba3-456f-b6b9-71a4fb220f7c","system_id":"levelo_inurba_marseille","lat":43.217478,"lon":5.346004,"is_reserved":false,"is_disabled":false,"rental_uris":{"android":"levelo://app?vid=ddf42e2f-5ba3-456f-b6b9-71a4fb220f7c","ios":"levelo://app?vid=ddf42e2f-5ba3-456f-b6b9-71a4fb220f7c"},"vehicle_type_id":"4","last_reported":1745994015,"current_range_meters":10800,"station_id":"st_cvj6r9ubvosntc0bgbag","pricing_plan_id":"cebpf4jnsgd1na2vs0mg"},{"bike_id":"ba5eea2b-d161-4fc5-bc47-d65e909e5c65","system_id":"levelo_inurba_marseille","lat":43.26939,"lon":5.38661,"is_reserved":false,"is_disabled":false,"rental_uris":{"android":"levelo://app?vid=ba5eea2b-d161-4fc5-bc47-d65e909e5c65","ios":"levelo://app?vid=ba5eea2b-d161-4fc5-bc47-d65e909e5c65"},"vehicle_type_id":"4","last_reported":1745994015,"current_range_meters":10800,"station_id":"ce4bhh92rcd13ifvqfh0","pricing_plan_id":"cebpf4jnsgd1na2vs0mg"},{"bike_id":"f5f94b26-0003-4068-856d-ae9d2de39cda","system_id":"levelo_inurba_marseille","lat":43.29223,"lon":5.36073,"is_reserved":false,"is_disabled":false,"rental_uris":{"android":"levelo://app?vid=f5f94b26-0003-4068-856d-ae9d2de39cda","ios":"levelo://app?vid=f5f94b26-0003-4068-856d-ae9d2de39cda"},"vehicle_type_id":"4","last_reported":1745994015,"current_range_meters":10800,"station_id":"ce4bhbh2rcd13ifvqeqg","pricing_plan_id":"cebpf4jnsgd1na2vs0mg"},{"bike_id":"9f4a623e-f5da-4ce8-8a09-5e7161e7255f","system_id":"levelo_inurba_marseille","lat":43.27493,"lon":5.42451,"is_reserved":false,"is_disabled":true,"rental_uris":{"android":"levelo://app?vid=9f4a623e-f5da-4ce8-8a09-5e7161e7255f","ios":"levelo://app?vid=9f4a623e-f5da-4ce8-8a09-5e7161e7255f"},"vehicle_type_id":"4","last_reported":1745994015,"current_range_meters":10800,"station_id":"ce4bhn92rcd13ifvqgrg","pricing_plan_id":"cebpf4jnsgd1na2vs0mg"},{"bike_id":"3a9bd96a-1d84-454e-b55b-a4ef583e3749","system_id":"levelo_inurba_marseille","lat":43.26687,"lon":5.38273,"is_reserved":false,"is_disabled":false,"rental_uris":{"android":"levelo://app?vid=3a9bd96a-1d84-454e-b55b-a4ef583e3749","ios":"levelo://app?vid=3a9bd96a-1d84-454e-b55b-a4ef583e3749"},"vehicle_type_id":"4","last_reported":1745994015,"current_range_meters":10800,"station_id":"ce4bhg92rcd13ifvqf90","pricing_plan_id":"cebpf4jnsgd1na2vs0mg"},{"bike_id":"fd3ae624-8a3e-429e-85c9-52d8d3b48843","system_id":"levelo_inurba_marseille","lat":43.30463,"lon":5.37909,"is_reserved":false,"is_disabled":false,"rental_uris":{"android":"levelo://app?vid=fd3ae624-8a3e-429e-85c9-52d8d3b48843","ios":"levelo://app?vid=fd3ae624-8a3e-429e-85c9-52d8d3b48843"},"vehicle_type_id":"4","last_reported":1745994015,"current_range_meters":10800,"station_id":"ce4bgup2rcd13ifvqcn0","pricing_plan_id":"cebpf4jnsgd1na2vs0mg"},{"bike_id":"5b8df32b-6bd3-46c5-92f6-95932c59353e","system_id":"levelo_inurba_marseille","lat":43.32538,"lon":5.41441,"is_reserved":false,"is_disabled":false,"rental_uris":{"android":"levelo://app?vid=5b8df32b-6bd3-46c5-92f6-95932c59353e","ios":"levelo://app?vid=5b8df32b-6bd3-46c5-92f6-95932c59353e"},"vehicle_type_id":"4","last_reported":1745994015,"current_range_meters":11200,"station_id":"ce4bhq12rcd13ifvqhhg","pricing_plan_id":"cebpf4jnsgd1na2vs0mg"},{"bike_id":"7cd7e44c-2a92-480e-8ec6-df7433f4130d","system_id":"levelo_inurba_marseille","lat":43.25118,"lon":5.40315,"is_reserved":false,"is_disabled":false,"rental_uris":{"android":"levelo://app?vid=7cd7e44c-2a92-480e-8ec6-df7433f4130d","ios":"levelo://app?vid=7cd7e44c-2a92-480e-8ec6-df7433f4130d"},"vehicle_type_id":"4","last_reported":1745994015,"current_range_meters":10800,"station_id":"ce4bhlh2rcd13ifvqgig","pricing_plan_id":"cebpf4jnsgd1na2vs0mg"},{"bike_id":"eaea1b32-9da3-445e-819a-64ea4531980f","system_id":"levelo_inurba_marseille","lat":43.24074,"lon":5.37753,"is_reserved":false,"is_disabled":false,"rental_uris":{"android":"levelo://app?vid=eaea1b32-9da3-445e-819a-64ea4531980f","ios":"levelo://app?vid=eaea1b32-9da3-445e-819a-64ea4531980f"},"vehicle_type_id":"4","last_reported":1745994015,"current_range_meters":10800,"station_id":"ce4bhnp2rcd13ifvqgvg","pricing_plan_id":"cebpf4jnsgd1na2vs0mg"},{"bike_id":"197839f2-0234-459c-be6d-43045265e278","system_id":"levelo_inurba_marseille","lat":43.306329,"lon":5.400715,"is_reserved":false,"is_disabled":false,"rental_uris":{"android":"levelo://app?vid=197839f2-0234-459c-be6d-43045265e278","ios":"levelo://app?vid=197839f2-0234-459c-be6d-43045265e278"},"vehicle_type_id":"4","last_reported":1745994015,"current_range_meters":11600,"station_id":"ce4bh112rcd13ifvqda0","pricing_plan_id":"cebpf4jnsgd1na2vs0mg"},{"bike_id":"ac80e985-cfdf-4940-bf6d-bf2ebe2c2fd0","system_id":"levelo_inurba_marseille","lat":43.32106,"lon":5.36796,"is_reserved":false,"is_disabled":false,"rental_uris":{"android":"levelo://app?vid=ac80e985-cfdf-4940-bf6d-bf2ebe2c2fd0","ios":"levelo://app?vid=ac80e985-cfdf-4940-bf6d-bf2ebe2c2fd0"},"vehicle_type_id":"4","last_reported":1745994015,"current_range_meters":11600,"station_id":"ce4bhrh2rcd13ifvqhug","pricing_plan_id":"cebpf4jnsgd1na2vs0mg"},{"bike_id":"e2418363-9a88-483a-adcc-4695c2840aa1","system_id":"levelo_inurba_marseille","lat":43.29853,"lon":5.36275,"is_reserved":false,"is_disabled":false,"rental_uris":{"android":"levelo://app?vid=e2418363-9a88-483a-adcc-4695c2840aa1","ios":"levelo://app?vid=e2418363-9a88-483a-adcc-4695c2840aa1"},"vehicle_type_id":"4","last_reported":1745994015,"current_range_meters":11600,"station_id":"ce4bgpp2rcd13ifvqc3g","pricing_plan_id":"cebpf4jnsgd1na2vs0mg"},{"bike_id":"ef177e83-30cb-4f01-a7b8-e243e6d71b33","system_id":"levelo_inurba_marseille","lat":43.32543,"lon":5.41429,"is_reserved":false,"is_disabled":false,"rental_uris":{"android":"levelo://app?vid=ef177e83-30cb-4f01-a7b8-e243e6d71b33","ios":"levelo://app?vid=ef177e83-30cb-4f01-a7b8-e243e6d71b33"},"vehicle_type_id":"4","last_reported":1745994015,"current_range_meters":11600,"station_id":"ce4bhq12rcd13ifvqhhg","pricing_plan_id":"cebpf4jnsgd1na2vs0mg"},{"bike_id":"d50cb595-81a6-406b-90c1-e39a8ffa9f99","system_id":"levelo_inurba_marseille","lat":43.24175,"lon":5.39723,"is_reserved":false,"is_disabled":false,"rental_uris":{"android":"levelo://app?vid=d50cb595-81a6-406b-90c1-e39a8ffa9f99","ios":"levelo://app?vid=d50cb595-81a6-406b-90c1-e39a8ffa9f99"},"vehicle_type_id":"4","last_reported":1745994015,"current_range_meters":11600,"station_id":"ce4bhn12rcd13ifvqgpg","pricing_plan_id":"cebpf4jnsgd1na2vs0mg"},{"bike_id":"adb0ebbf-d3bc-43ce-802b-246250eea78c","system_id":"levelo_inurba_marseille","lat":43.29845,"lon":5.36269,"is_reserved":false,"is_disabled":false,"rental_uris":{"android":"levelo://app?vid=adb0ebbf-d3bc-43ce-802b-246250eea78c","ios":"levelo://app?vid=adb0ebbf-d3bc-43ce-802b-246250eea78c"},"vehicle_type_id":"4","last_reported":1745994015,"current_range_meters":11600,"station_id":"ce4bgpp2rcd13ifvqc3g","pricing_plan_id":"cebpf4jnsgd1na2vs0mg"},{"bike_id":"bbc6365f-600b-4095-acc9-1e9662f04d00","system_id":"levelo_inurba_marseille","lat":43.27496,"lon":5.42452,"is_reserved":false,"is_disabled":false,"rental_uris":{"android":"levelo://app?vid=bbc6365f-600b-4095-acc9-1e9662f04d00","ios":"levelo://app?vid=bbc6365f-600b-4095-acc9-1e9662f04d00"},"vehicle_type_id":"4","last_reported":1745994015,"current_range_meters":12000,"station_id":"ce4bhn92rcd13ifvqgrg","pricing_plan_id":"cebpf4jnsgd1na2vs0mg"},{"bike_id":"dcb0b990-89f9-495c-a9c1-10b17ae39667","system_id":"levelo_inurba_marseille","lat":43.234706,"lon":5.38049,"is_reserved":false,"is_disabled":false,"rental_uris":{"android":"levelo://app?vid=dcb0b990-89f9-495c-a9c1-10b17ae39667","ios":"levelo://app?vid=dcb0b990-89f9-495c-a9c1-10b17ae39667"},"vehicle_type_id":"4","last_reported":1745994015,"current_range_meters":12000,"station_id":"","pricing_plan_id":"cebpf4jnsgd1na2vs0mg"},{"bike_id":"b58385b2-d1b2-4ecc-af75-eb7cf4772905","system_id":"levelo_inurba_marseille","lat":43.242346,"lon":5.37589,"is_reserved":false,"is_disabled":false,"rental_uris":{"android":"levelo://app?vid=b58385b2-d1b2-4ecc-af75-eb7cf4772905","ios":"levelo://app?vid=b58385b2-d1b2-4ecc-af75-eb7cf4772905"},"vehicle_type_id":"4","last_reported":1745994015,"current_range_meters":12000,"station_id":"ce4bhnp2rcd13ifvqgvg","pricing_plan_id":"cebpf4jnsgd1na2vs0mg"},{"bike_id":"7f516705-5238-4532-9fd3-95c1f4141c81","system_id":"levelo_inurba_marseille","lat":43.279654,"lon":5.387535,"is_reserved":false,"is_disabled":false,"rental_uris":{"android":"levelo://app?vid=7f516705-5238-4532-9fd3-95c1f4141c81","ios":"levelo://app?vid=7f516705-5238-4532-9fd3-95c1f4141c81"},"vehicle_type_id":"4","last_reported":1745994015,"current_range_meters":12400,"station_id":"ce4bhg12rcd13ifvqf80","pricing_plan_id":"cebpf4jnsgd1na2vs0mg"},{"bike_id":"67946696-e1b4-48e1-9aea-70b477d4f50c","system_id":"levelo_inurba_marseille","lat":43.306587,"lon":5.400832,"is_reserved":false,"is_disabled":false,"rental_uris":{"android":"levelo://app?vid=67946696-e1b4-48e1-9aea-70b477d4f50c","ios":"levelo://app?vid=67946696-e1b4-48e1-9aea-70b477d4f50c"},"vehicle_type_id":"4","last_reported":1745994015,"current_range_meters":12400,"station_id":"ce4bh112rcd13ifvqda0","pricing_plan_id":"cebpf4jnsgd1na2vs0mg"},{"bike_id":"d49fd37e-3438-4661-92ea-3db4fafc2af2","system_id":"levelo_inurba_marseille","lat":43.31878,"lon":5.40747,"is_reserved":false,"is_disabled":false,"rental_uris":{"android":"levelo://app?vid=d49fd37e-3438-4661-92ea-3db4fafc2af2","ios":"levelo://app?vid=d49fd37e-3438-4661-92ea-3db4fafc2af2"},"vehicle_type_id":"4","last_reported":1745994015,"current_range_meters":12400,"station_id":"ce4bhq12rcd13ifvqhig","pricing_plan_id":"cebpf4jnsgd1na2vs0mg"},{"bike_id":"19bc52c3-74db-454f-9839-b056878a7608","system_id":"levelo_inurba_marseille","lat":43.266918,"lon":5.382693,"is_reserved":false,"is_disabled":false,"rental_uris":{"android":"levelo://app?vid=19bc52c3-74db-454f-9839-b056878a7608","ios":"levelo://app?vid=19bc52c3-74db-454f-9839-b056878a7608"},"vehicle_type_id":"4","last_reported":1745994015,"current_range_meters":12800,"station_id":"ce4bhg92rcd13ifvqf90","pricing_plan_id":"cebpf4jnsgd1na2vs0mg"},{"bike_id":"4828ebfb-7fea-443f-b2b7-15ba5d47bae5","system_id":"levelo_inurba_marseille","lat":43.24067,"lon":5.3776,"is_reserved":false,"is_disabled":false,"rental_uris":{"android":"levelo://app?vid=4828ebfb-7fea-443f-b2b7-15ba5d47bae5","ios":"levelo://app?vid=4828ebfb-7fea-443f-b2b7-15ba5d47bae5"},"vehicle_type_id":"4","last_reported":1745994015,"current_range_meters":12800,"station_id":"ce4bhnp2rcd13ifvqgvg","pricing_plan_id":"cebpf4jnsgd1na2vs0mg"},{"bike_id":"1db9ca2a-10b1-4b9e-aa56-164f2c2ac111","system_id":"levelo_inurba_marseille","lat":43.28377,"lon":5.41849,"is_reserved":false,"is_disabled":false,"rental_uris":{"android":"levelo://app?vid=1db9ca2a-10b1-4b9e-aa56-164f2c2ac111","ios":"levelo://app?vid=1db9ca2a-10b1-4b9e-aa56-164f2c2ac111"},"vehicle_type_id":"4","last_reported":1745994015,"current_range_meters":12800,"station_id":"","pricing_plan_id":"cebpf4jnsgd1na2vs0mg"},{"bike_id":"1022adec-b739-4aad-8467-c13dc00ecbe3","system_id":"levelo_inurba_marseille","lat":43.29601,"lon":5.37733,"is_reserved":false,"is_disabled":false,"rental_uris":{"android":"levelo://app?vid=1022adec-b739-4aad-8467-c13dc00ecbe3","ios":"levelo://app?vid=1022adec-b739-4aad-8467-c13dc00ecbe3"},"vehicle_type_id":"4","last_reported":1745994015,"current_range_meters":13600,"station_id":"ce4bgi92rcd13ifvqb90","pricing_plan_id":"cebpf4jnsgd1na2vs0mg"},{"bike_id":"8e5e2c19-ba36-4f14-9873-ad98967d7a5b","system_id":"levelo_inurba_marseille","lat":43.324866,"lon":5.365749,"is_reserved":false,"is_disabled":true,"rental_uris":{"android":"levelo://app?vid=8e5e2c19-ba36-4f14-9873-ad98967d7a5b","ios":"levelo://app?vid=8e5e2c19-ba36-4f14-9873-ad98967d7a5b"},"vehicle_type_id":"4","last_reported":1745994015,"current_range_meters":13600,"station_id":"ce4bhs12rcd13ifvqhvg","pricing_plan_id":"cebpf4jnsgd1na2vs0mg"},{"bike_id":"87cd6aa1-2ff4-4bb1-b4c6-b7ef382561eb","system_id":"levelo_inurba_marseille","lat":43.29891,"lon":5.3891,"is_reserved":false,"is_disabled":false,"rental_uris":{"android":"levelo://app?vid=87cd6aa1-2ff4-4bb1-b4c6-b7ef382561eb","ios":"levelo://app?vid=87cd6aa1-2ff4-4bb1-b4c6-b7ef382561eb"},"vehicle_type_id":"4","last_reported":1745994015,"current_range_meters":13600,"station_id":"ce4bh392rcd13ifvqdl0","pricing_plan_id":"cebpf4jnsgd1na2vs0mg"},{"bike_id":"a9d1eec8-9802-409e-9097-25bff9c95096","system_id":"levelo_inurba_marseille","lat":43.2407,"lon":5.37771,"is_reserved":false,"is_disabled":false,"rental_uris":{"android":"levelo://app?vid=a9d1eec8-9802-409e-9097-25bff9c95096","ios":"levelo://app?vid=a9d1eec8-9802-409e-9097-25bff9c95096"},"vehicle_type_id":"4","last_reported":1745994015,"current_range_meters":14000,"station_id":"ce4bhnp2rcd13ifvqgvg","pricing_plan_id":"cebpf4jnsgd1na2vs0mg"},{"bike_id":"c5e87370-62df-43c5-8087-3a818a99a447","system_id":"levelo_inurba_marseille","lat":43.23962,"lon":5.36634,"is_reserved":false,"is_disabled":false,"rental_uris":{"android":"levelo://app?vid=c5e87370-62df-43c5-8087-3a818a99a447","ios":"levelo://app?vid=c5e87370-62df-43c5-8087-3a818a99a447"},"vehicle_type_id":"4","last_reported":1745994015,"current_range_meters":14000,"station_id":"ce4bhi12rcd13ifvqfp0","pricing_plan_id":"cebpf4jnsgd1na2vs0mg"},{"bike_id":"e5e92a64-e709-4b1a-a9b1-cbffe85789ca","system_id":"levelo_inurba_marseille","lat":43.25532,"lon":5.38172,"is_reserved":false,"is_disabled":false,"rental_uris":{"android":"levelo://app?vid=e5e92a64-e709-4b1a-a9b1-cbffe85789ca","ios":"levelo://app?vid=e5e92a64-e709-4b1a-a9b1-cbffe85789ca"},"vehicle_type_id":"4","last_reported":1745994015,"current_range_meters":14000,"station_id":"","pricing_plan_id":"cebpf4jnsgd1na2vs0mg"},{"bike_id":"135aaf81-bd06-4102-96b4-e10b741fb58c","system_id":"levelo_inurba_marseille","lat":43.28933,"lon":5.3664,"is_reserved":false,"is_disabled":false,"rental_uris":{"android":"levelo://app?vid=135aaf81-bd06-4102-96b4-e10b741fb58c","ios":"levelo://app?vid=135aaf81-bd06-4102-96b4-e10b741fb58c"},"vehicle_type_id":"4","last_reported":1745994015,"current_range_meters":14400,"station_id":"ce4bhap2rcd13ifvqek0","pricing_plan_id":"cebpf4jnsgd1na2vs0mg"},{"bike_id":"fb0daf1a-cefa-40b9-a6f4-b2612f0cf23f","system_id":"levelo_inurba_marseille","lat":43.26219,"lon":5.40463,"is_reserved":false,"is_disabled":false,"rental_uris":{"android":"levelo://app?vid=fb0daf1a-cefa-40b9-a6f4-b2612f0cf23f","ios":"levelo://app?vid=fb0daf1a-cefa-40b9-a6f4-b2612f0cf23f"},"vehicle_type_id":"4","last_reported":1745994015,"current_range_meters":14400,"station_id":"ce4bhmh2rcd13ifvqgmg","pricing_plan_id":"cebpf4jnsgd1na2vs0mg"},{"bike_id":"c8c9cd53-8425-469c-bc59-5ba7c8494456","system_id":"levelo_inurba_marseille","lat":43.30138,"lon":5.38095,"is_reserved":false,"is_disabled":false,"rental_uris":{"android":"levelo://app?vid=c8c9cd53-8425-469c-bc59-5ba7c8494456","ios":"levelo://app?vid=c8c9cd53-8425-469c-bc59-5ba7c8494456"},"vehicle_type_id":"4","last_reported":1745994015,"current_range_meters":14800,"station_id":"ce4bgjp2rcd13ifvqbh0","pricing_plan_id":"cebpf4jnsgd1na2vs0mg"},{"bike_id":"79936ac1-cc4f-4405-9d47-5d60b38e92e6","system_id":"levelo_inurba_marseille","lat":43.30904,"lon":5.36844,"is_reserved":false,"is_disabled":false,"rental_uris":{"android":"levelo://app?vid=79936ac1-cc4f-4405-9d47-5d60b38e92e6","ios":"levelo://app?vid=79936ac1-cc4f-4405-9d47-5d60b38e92e6"},"vehicle_type_id":"4","last_reported":1745994015,"current_range_meters":14400,"station_id":"ce4bgn92rcd13ifvqbvg","pricing_plan_id":"cebpf4jnsgd1na2vs0mg"},{"bike_id":"fc37ea2f-e7ef-49c4-9fd9-32c1b5af5cc2","system_id":"levelo_inurba_marseille","lat":43.29026,"lon":5.39974,"is_reserved":false,"is_disabled":false,"rental_uris":{"android":"levelo://app?vid=fc37ea2f-e7ef-49c4-9fd9-32c1b5af5cc2","ios":"levelo://app?vid=fc37ea2f-e7ef-49c4-9fd9-32c1b5af5cc2"},"vehicle_type_id":"4","last_reported":1745994015,"current_range_meters":15200,"station_id":"ce4bh392rcd13ifvqdm0","pricing_plan_id":"cebpf4jnsgd1na2vs0mg"},{"bike_id":"4fda502e-8180-4eb2-97e5-6521d9824005","system_id":"levelo_inurba_marseille","lat":43.30518,"lon":5.38083,"is_reserved":false,"is_disabled":true,"rental_uris":{"android":"levelo://app?vid=4fda502e-8180-4eb2-97e5-6521d9824005","ios":"levelo://app?vid=4fda502e-8180-4eb2-97e5-6521d9824005"},"vehicle_type_id":"4","last_reported":1745994015,"current_range_meters":15200,"station_id":"","pricing_plan_id":"cebpf4jnsgd1na2vs0mg"},{"bike_id":"e5c9e410-09a2-4a8b-8618-7674c87d16f0","system_id":"levelo_inurba_marseille","lat":43.29297,"lon":5.37461,"is_reserved":false,"is_disabled":false,"rental_uris":{"android":"levelo://app?vid=e5c9e410-09a2-4a8b-8618-7674c87d16f0","ios":"levelo://app?vid=e5c9e410-09a2-4a8b-8618-7674c87d16f0"},"vehicle_type_id":"4","last_reported":1745994015,"current_range_meters":15200,"station_id":"ce4bgi12rcd13ifvqb70","pricing_plan_id":"cebpf4jnsgd1na2vs0mg"},{"bike_id":"142b21fe-e15a-4a65-b770-44381c311d71","system_id":"levelo_inurba_marseille","lat":43.31331,"lon":5.3974,"is_reserved":false,"is_disabled":false,"rental_uris":{"android":"levelo://app?vid=142b21fe-e15a-4a65-b770-44381c311d71","ios":"levelo://app?vid=142b21fe-e15a-4a65-b770-44381c311d71"},"vehicle_type_id":"4","last_reported":1745994015,"current_range_meters":15200,"station_id":"ce4bgvp2rcd13ifvqcu0","pricing_plan_id":"cebpf4jnsgd1na2vs0mg"},{"bike_id":"5a5187ce-5422-413f-8424-d1ad405e957f","system_id":"levelo_inurba_marseille","lat":43.30156,"lon":5.38094,"is_reserved":false,"is_disabled":false,"rental_uris":{"android":"levelo://app?vid=5a5187ce-5422-413f-8424-d1ad405e957f","ios":"levelo://app?vid=5a5187ce-5422-413f-8424-d1ad405e957f"},"vehicle_type_id":"4","last_reported":1745994015,"current_range_meters":15200,"station_id":"ce4bgjp2rcd13ifvqbh0","pricing_plan_id":"cebpf4jnsgd1na2vs0mg"},{"bike_id":"13838789-0d99-4ed1-9967-dfe518e240d5","system_id":"levelo_inurba_marseille","lat":43.24069,"lon":5.37767,"is_reserved":false,"is_disabled":false,"rental_uris":{"android":"levelo://app?vid=13838789-0d99-4ed1-9967-dfe518e240d5","ios":"levelo://app?vid=13838789-0d99-4ed1-9967-dfe518e240d5"},"vehicle_type_id":"4","last_reported":1745994015,"current_range_meters":16000,"station_id":"ce4bhnp2rcd13ifvqgvg","pricing_plan_id":"cebpf4jnsgd1na2vs0mg"},{"bike_id":"e94154fa-7fcb-4912-be23-9072dbf1673e","system_id":"levelo_inurba_marseille","lat":43.24069,"lon":5.37761,"is_reserved":false,"is_disabled":false,"rental_uris":{"android":"levelo://app?vid=e94154fa-7fcb-4912-be23-9072dbf1673e","ios":"levelo://app?vid=e94154fa-7fcb-4912-be23-9072dbf1673e"},"vehicle_type_id":"4","last_reported":1745994015,"current_range_meters":16000,"station_id":"ce4bhnp2rcd13ifvqgvg","pricing_plan_id":"cebpf4jnsgd1na2vs0mg"},{"bike_id":"705c21c6-3105-4544-b635-310fedfb25da","system_id":"levelo_inurba_marseille","lat":43.2668,"lon":5.38271,"is_reserved":false,"is_disabled":false,"rental_uris":{"android":"levelo://app?vid=705c21c6-3105-4544-b635-310fedfb25da","ios":"levelo://app?vid=705c21c6-3105-4544-b635-310fedfb25da"},"vehicle_type_id":"4","last_reported":1745994015,"current_range_meters":16000,"station_id":"ce4bhg92rcd13ifvqf90","pricing_plan_id":"cebpf4jnsgd1na2vs0mg"},{"bike_id":"70857dd2-f23a-44a9-9fcc-6d8a63652f2e","system_id":"levelo_inurba_marseille","lat":43.30229,"lon":5.40028,"is_reserved":false,"is_disabled":false,"rental_uris":{"android":"levelo://app?vid=70857dd2-f23a-44a9-9fcc-6d8a63652f2e","ios":"levelo://app?vid=70857dd2-f23a-44a9-9fcc-6d8a63652f2e"},"vehicle_type_id":"4","last_reported":1745994015,"current_range_meters":16400,"station_id":"","pricing_plan_id":"cebpf4jnsgd1na2vs0mg"},{"bike_id":"85ed9630-f5ea-445a-9f6f-4a2866addab8","system_id":"levelo_inurba_marseille","lat":43.25001,"lon":5.38926,"is_reserved":false,"is_disabled":false,"rental_uris":{"android":"levelo://app?vid=85ed9630-f5ea-445a-9f6f-4a2866addab8","ios":"levelo://app?vid=85ed9630-f5ea-445a-9f6f-4a2866addab8"},"vehicle_type_id":"4","last_reported":1745994015,"current_range_meters":16400,"station_id":"ce4bhgp2rcd13ifvqfd0","pricing_plan_id":"cebpf4jnsgd1na2vs0mg"},{"bike_id":"2c0cd1ba-66d8-474b-85b8-87cb48ccc6ec","system_id":"levelo_inurba_marseille","lat":43.3255,"lon":5.41473,"is_reserved":false,"is_disabled":false,"rental_uris":{"android":"levelo://app?vid=2c0cd1ba-66d8-474b-85b8-87cb48ccc6ec","ios":"levelo://app?vid=2c0cd1ba-66d8-474b-85b8-87cb48ccc6ec"},"vehicle_type_id":"4","last_reported":1745994015,"current_range_meters":16400,"station_id":"ce4bhq12rcd13ifvqhhg","pricing_plan_id":"cebpf4jnsgd1na2vs0mg"},{"bike_id":"c8ceb8e9-785b-4de9-9930-3fbc66d30b00","system_id":"levelo_inurba_marseille","lat":43.217533,"lon":5.346112,"is_reserved":false,"is_disabled":true,"rental_uris":{"android":"levelo://app?vid=c8ceb8e9-785b-4de9-9930-3fbc66d30b00","ios":"levelo://app?vid=c8ceb8e9-785b-4de9-9930-3fbc66d30b00"},"vehicle_type_id":"4","last_reported":1745994015,"current_range_meters":16400,"station_id":"st_cvj6r9ubvosntc0bgbag","pricing_plan_id":"cebpf4jnsgd1na2vs0mg"},{"bike_id":"5e298824-17d2-4f78-9984-90467713a65a","system_id":"levelo_inurba_marseille","lat":43.24396,"lon":5.37055,"is_reserved":false,"is_disabled":false,"rental_uris":{"android":"levelo://app?vid=5e298824-17d2-4f78-9984-90467713a65a","ios":"levelo://app?vid=5e298824-17d2-4f78-9984-90467713a65a"},"vehicle_type_id":"4","last_reported":1745994015,"current_range_meters":16000,"station_id":"ce4bhhh2rcd13ifvqfk0","pricing_plan_id":"cebpf4jnsgd1na2vs0mg"},{"bike_id":"c2e0f177-896b-4cb0-ad5e-988ce1f02e7a","system_id":"levelo_inurba_marseille","lat":43.24543,"lon":5.39522,"is_reserved":false,"is_disabled":true,"rental_uris":{"android":"levelo://app?vid=c2e0f177-896b-4cb0-ad5e-988ce1f02e7a","ios":"levelo://app?vid=c2e0f177-896b-4cb0-ad5e-988ce1f02e7a"},"vehicle_type_id":"4","last_reported":1745994015,"current_range_meters":16400,"station_id":"ce4bhlp2rcd13ifvqgjg","pricing_plan_id":"cebpf4jnsgd1na2vs0mg"},{"bike_id":"eca961b7-2b4d-4e0a-b8d2-8c98f8c7299f","system_id":"levelo_inurba_marseille","lat":43.29553,"lon":5.42297,"is_reserved":false,"is_disabled":false,"rental_uris":{"android":"levelo://app?vid=eca961b7-2b4d-4e0a-b8d2-8c98f8c7299f","ios":"levelo://app?vid=eca961b7-2b4d-4e0a-b8d2-8c98f8c7299f"},"vehicle_type_id":"4","last_reported":1745994015,"current_range_meters":16400,"station_id":"ce4bhph2rcd13ifvqhdg","pricing_plan_id":"cebpf4jnsgd1na2vs0mg"},{"bike_id":"fd959a51-5120-4a6b-b520-82f1d81791f5","system_id":"levelo_inurba_marseille","lat":43.27971,"lon":5.38747,"is_reserved":false,"is_disabled":false,"rental_uris":{"android":"levelo://app?vid=fd959a51-5120-4a6b-b520-82f1d81791f5","ios":"levelo://app?vid=fd959a51-5120-4a6b-b520-82f1d81791f5"},"vehicle_type_id":"4","last_reported":1745994015,"current_range_meters":16800,"station_id":"ce4bhg12rcd13ifvqf80","pricing_plan_id":"cebpf4jnsgd1na2vs0mg"},{"bike_id":"86c2979e-8cf6-48ed-bdb1-835ff11e3adc","system_id":"levelo_inurba_marseille","lat":43.253896,"lon":5.418428,"is_reserved":false,"is_disabled":false,"rental_uris":{"android":"levelo://app?vid=86c2979e-8cf6-48ed-bdb1-835ff11e3adc","ios":"levelo://app?vid=86c2979e-8cf6-48ed-bdb1-835ff11e3adc"},"vehicle_type_id":"4","last_reported":1745994015,"current_range_meters":16800,"station_id":"","pricing_plan_id":"cebpf4jnsgd1na2vs0mg"},{"bike_id":"60fe0716-f88e-47b3-99fd-a7e2f2db6c11","system_id":"levelo_inurba_marseille","lat":43.24064,"lon":5.37771,"is_reserved":false,"is_disabled":false,"rental_uris":{"android":"levelo://app?vid=60fe0716-f88e-47b3-99fd-a7e2f2db6c11","ios":"levelo://app?vid=60fe0716-f88e-47b3-99fd-a7e2f2db6c11"},"vehicle_type_id":"4","last_reported":1745994015,"current_range_meters":16800,"station_id":"ce4bhnp2rcd13ifvqgvg","pricing_plan_id":"cebpf4jnsgd1na2vs0mg"},{"bike_id":"28b7c9a4-f8bb-49dc-8705-014ce1d938de","system_id":"levelo_inurba_marseille","lat":43.286927,"lon":5.400007,"is_reserved":false,"is_disabled":false,"rental_uris":{"android":"levelo://app?vid=28b7c9a4-f8bb-49dc-8705-014ce1d938de","ios":"levelo://app?vid=28b7c9a4-f8bb-49dc-8705-014ce1d938de"},"vehicle_type_id":"4","last_reported":1745994015,"current_range_meters":16800,"station_id":"ce4bho92rcd13ifvqh3g","pricing_plan_id":"cebpf4jnsgd1na2vs0mg"},{"bike_id":"adea6d00-de42-46e2-a3d0-67911efe401a","system_id":"levelo_inurba_marseille","lat":43.30467,"lon":5.37902,"is_reserved":false,"is_disabled":false,"rental_uris":{"android":"levelo://app?vid=adea6d00-de42-46e2-a3d0-67911efe401a","ios":"levelo://app?vid=adea6d00-de42-46e2-a3d0-67911efe401a"},"vehicle_type_id":"4","last_reported":1745994015,"current_range_meters":17200,"station_id":"ce4bgup2rcd13ifvqcn0","pricing_plan_id":"cebpf4jnsgd1na2vs0mg"},{"bike_id":"201065a5-7739-457d-b6cb-8bceaff21c7b","system_id":"levelo_inurba_marseille","lat":43.28031,"lon":5.36939,"is_reserved":false,"is_disabled":false,"rental_uris":{"android":"levelo://app?vid=201065a5-7739-457d-b6cb-8bceaff21c7b","ios":"levelo://app?vid=201065a5-7739-457d-b6cb-8bceaff21c7b"},"vehicle_type_id":"4","last_reported":1745994015,"current_range_meters":17200,"station_id":"ce4bha12rcd13ifvqef0","pricing_plan_id":"cebpf4jnsgd1na2vs0mg"},{"bike_id":"537b20dc-6b7b-48f4-bbcc-f15bbf4be265","system_id":"levelo_inurba_marseille","lat":43.240866,"lon":5.378189,"is_reserved":false,"is_disabled":true,"rental_uris":{"android":"levelo://app?vid=537b20dc-6b7b-48f4-bbcc-f15bbf4be265","ios":"levelo://app?vid=537b20dc-6b7b-48f4-bbcc-f15bbf4be265"},"vehicle_type_id":"4","last_reported":1745994015,"current_range_meters":17200,"station_id":"ce4bhnh2rcd13ifvqgug","pricing_plan_id":"cebpf4jnsgd1na2vs0mg"},{"bike_id":"8f287b3e-e459-4fe1-a409-13acdd977d1a","system_id":"levelo_inurba_marseille","lat":43.32102,"lon":5.36778,"is_reserved":false,"is_disabled":false,"rental_uris":{"android":"levelo://app?vid=8f287b3e-e459-4fe1-a409-13acdd977d1a","ios":"levelo://app?vid=8f287b3e-e459-4fe1-a409-13acdd977d1a"},"vehicle_type_id":"4","last_reported":1745994015,"current_range_meters":17600,"station_id":"ce4bhrh2rcd13ifvqhug","pricing_plan_id":"cebpf4jnsgd1na2vs0mg"},{"bike_id":"8c1472e0-d6c5-49b2-afe2-3580e7963eb4","system_id":"levelo_inurba_marseille","lat":43.30151,"lon":5.38079,"is_reserved":false,"is_disabled":false,"rental_uris":{"android":"levelo://app?vid=8c1472e0-d6c5-49b2-afe2-3580e7963eb4","ios":"levelo://app?vid=8c1472e0-d6c5-49b2-afe2-3580e7963eb4"},"vehicle_type_id":"4","last_reported":1745994015,"current_range_meters":17600,"station_id":"ce4bgjp2rcd13ifvqbh0","pricing_plan_id":"cebpf4jnsgd1na2vs0mg"},{"bike_id":"18dc33f3-1416-445e-84ec-91d3f914e351","system_id":"levelo_inurba_marseille","lat":43.23149,"lon":5.43725,"is_reserved":false,"is_disabled":false,"rental_uris":{"android":"levelo://app?vid=18dc33f3-1416-445e-84ec-91d3f914e351","ios":"levelo://app?vid=18dc33f3-1416-445e-84ec-91d3f914e351"},"vehicle_type_id":"4","last_reported":1745994015,"current_range_meters":17600,"station_id":"ce4bhmp2rcd13ifvqgog","pricing_plan_id":"cebpf4jnsgd1na2vs0mg"},{"bike_id":"0c9e4d09-31d9-4325-8d9f-13a37129f6e4","system_id":"levelo_inurba_marseille","lat":43.30578,"lon":5.37242,"is_reserved":false,"is_disabled":true,"rental_uris":{"android":"levelo://app?vid=0c9e4d09-31d9-4325-8d9f-13a37129f6e4","ios":"levelo://app?vid=0c9e4d09-31d9-4325-8d9f-13a37129f6e4"},"vehicle_type_id":"4","last_reported":1745994015,"current_range_meters":17600,"station_id":"ce4bgqh2rcd13ifvqc4g","pricing_plan_id":"cebpf4jnsgd1na2vs0mg"},{"bike_id":"3d99e6e7-d9c1-41d5-9f53-9d51d6fa6284","system_id":"levelo_inurba_marseille","lat":43.28041,"lon":5.36951,"is_reserved":false,"is_disabled":false,"rental_uris":{"android":"levelo://app?vid=3d99e6e7-d9c1-41d5-9f53-9d51d6fa6284","ios":"levelo://app?vid=3d99e6e7-d9c1-41d5-9f53-9d51d6fa6284"},"vehicle_type_id":"4","last_reported":1745994015,"current_range_meters":22000,"station_id":"ce4bha12rcd13ifvqef0","pricing_plan_id":"cebpf4jnsgd1na2vs0mg"},{"bike_id":"7940bc1b-eaa7-4f49-a435-46dc9391f6a1","system_id":"levelo_inurba_marseille","lat":43.211934,"lon":5.35077,"is_reserved":false,"is_disabled":false,"rental_uris":{"android":"levelo://app?vid=7940bc1b-eaa7-4f49-a435-46dc9391f6a1","ios":"levelo://app?vid=7940bc1b-eaa7-4f49-a435-46dc9391f6a1"},"vehicle_type_id":"4","last_reported":1745994015,"current_range_meters":17600,"station_id":"st_cvj6sg6p6f1abm77japg","pricing_plan_id":"cebpf4jnsgd1na2vs0mg"},{"bike_id":"1d750c6c-bec1-4b3f-9930-a056073563f4","system_id":"levelo_inurba_marseille","lat":43.27981,"lon":5.41677,"is_reserved":false,"is_disabled":true,"rental_uris":{"android":"levelo://app?vid=1d750c6c-bec1-4b3f-9930-a056073563f4","ios":"levelo://app?vid=1d750c6c-bec1-4b3f-9930-a056073563f4"},"vehicle_type_id":"4","last_reported":1745994015,"current_range_meters":17600,"station_id":"ce4bho12rcd13ifvqh1g","pricing_plan_id":"cebpf4jnsgd1na2vs0mg"},{"bike_id":"dc1ed819-5907-4497-8368-8b16a59e64ca","system_id":"levelo_inurba_marseille","lat":43.31493,"lon":5.37281,"is_reserved":false,"is_disabled":false,"rental_uris":{"android":"levelo://app?vid=dc1ed819-5907-4497-8368-8b16a59e64ca","ios":"levelo://app?vid=dc1ed819-5907-4497-8368-8b16a59e64ca"},"vehicle_type_id":"4","last_reported":1745994015,"current_range_meters":17600,"station_id":"ce4bgt12rcd13ifvqcd0","pricing_plan_id":"cebpf4jnsgd1na2vs0mg"},{"bike_id":"35e6842a-a259-4059-924b-81959edb9697","system_id":"levelo_inurba_marseille","lat":43.24178,"lon":5.3973,"is_reserved":false,"is_disabled":false,"rental_uris":{"android":"levelo://app?vid=35e6842a-a259-4059-924b-81959edb9697","ios":"levelo://app?vid=35e6842a-a259-4059-924b-81959edb9697"},"vehicle_type_id":"4","last_reported":1745994015,"current_range_meters":17600,"station_id":"ce4bhn12rcd13ifvqgpg","pricing_plan_id":"cebpf4jnsgd1na2vs0mg"},{"bike_id":"1826c9ec-09e4-4cb1-9b1a-15c6a74462f9","system_id":"levelo_inurba_marseille","lat":43.24071,"lon":5.37765,"is_reserved":false,"is_disabled":false,"rental_uris":{"android":"levelo://app?vid=1826c9ec-09e4-4cb1-9b1a-15c6a74462f9","ios":"levelo://app?vid=1826c9ec-09e4-4cb1-9b1a-15c6a74462f9"},"vehicle_type_id":"4","last_reported":1745994015,"current_range_meters":18000,"station_id":"ce4bhnp2rcd13ifvqgvg","pricing_plan_id":"cebpf4jnsgd1na2vs0mg"},{"bike_id":"76ca2c9e-502a-476c-9c0c-6b551be4c7b1","system_id":"levelo_inurba_marseille","lat":43.30588,"lon":5.39378,"is_reserved":false,"is_disabled":false,"rental_uris":{"android":"levelo://app?vid=76ca2c9e-502a-476c-9c0c-6b551be4c7b1","ios":"levelo://app?vid=76ca2c9e-502a-476c-9c0c-6b551be4c7b1"},"vehicle_type_id":"4","last_reported":1745994015,"current_range_meters":18000,"station_id":"ce4bh0p2rcd13ifvqd80","pricing_plan_id":"cebpf4jnsgd1na2vs0mg"},{"bike_id":"dd1d5a3f-d140-4e61-a85f-9fd03b0cfd3a","system_id":"levelo_inurba_marseille","lat":43.3153,"lon":5.38045,"is_reserved":false,"is_disabled":false,"rental_uris":{"android":"levelo://app?vid=dd1d5a3f-d140-4e61-a85f-9fd03b0cfd3a","ios":"levelo://app?vid=dd1d5a3f-d140-4e61-a85f-9fd03b0cfd3a"},"vehicle_type_id":"4","last_reported":1745994015,"current_range_meters":18000,"station_id":"ce4bhsp2rcd13ifvqi50","pricing_plan_id":"cebpf4jnsgd1na2vs0mg"},{"bike_id":"d819eb38-84ad-4017-8782-84963502c537","system_id":"levelo_inurba_marseille","lat":43.27961,"lon":5.38699,"is_reserved":false,"is_disabled":false,"rental_uris":{"android":"levelo://app?vid=d819eb38-84ad-4017-8782-84963502c537","ios":"levelo://app?vid=d819eb38-84ad-4017-8782-84963502c537"},"vehicle_type_id":"4","last_reported":1745994015,"current_range_meters":18000,"station_id":"ce4bhg12rcd13ifvqf80","pricing_plan_id":"cebpf4jnsgd1na2vs0mg"},{"bike_id":"c0ca0345-5fa1-493f-b0e4-12f4bfb1c00f","system_id":"levelo_inurba_marseille","lat":43.3015,"lon":5.38101,"is_reserved":false,"is_disabled":false,"rental_uris":{"android":"levelo://app?vid=c0ca0345-5fa1-493f-b0e4-12f4bfb1c00f","ios":"levelo://app?vid=c0ca0345-5fa1-493f-b0e4-12f4bfb1c00f"},"vehicle_type_id":"4","last_reported":1745994015,"current_range_meters":18000,"station_id":"ce4bgjp2rcd13ifvqbh0","pricing_plan_id":"cebpf4jnsgd1na2vs0mg"},{"bike_id":"1197ea5e-c1b7-4a74-88b7-06654a658162","system_id":"levelo_inurba_marseille","lat":43.284076,"lon":5.37528,"is_reserved":false,"is_disabled":true,"rental_uris":{"android":"levelo://app?vid=1197ea5e-c1b7-4a74-88b7-06654a658162","ios":"levelo://app?vid=1197ea5e-c1b7-4a74-88b7-06654a658162"},"vehicle_type_id":"4","last_reported":1745994015,"current_range_meters":18800,"station_id":"ce4bh412rcd13ifvqds0","pricing_plan_id":"cebpf4jnsgd1na2vs0mg"},{"bike_id":"330ae0d8-2228-407b-80de-905ccac38fed","system_id":"levelo_inurba_marseille","lat":43.31482,"lon":5.37313,"is_reserved":false,"is_disabled":false,"rental_uris":{"android":"levelo://app?vid=330ae0d8-2228-407b-80de-905ccac38fed","ios":"levelo://app?vid=330ae0d8-2228-407b-80de-905ccac38fed"},"vehicle_type_id":"4","last_reported":1745994015,"current_range_meters":18800,"station_id":"ce4bgt12rcd13ifvqcd0","pricing_plan_id":"cebpf4jnsgd1na2vs0mg"},{"bike_id":"1229565d-9ccf-4d2f-acf7-aeaa61ae3645","system_id":"levelo_inurba_marseille","lat":43.23141,"lon":5.43714,"is_reserved":false,"is_disabled":false,"rental_uris":{"android":"levelo://app?vid=1229565d-9ccf-4d2f-acf7-aeaa61ae3645","ios":"levelo://app?vid=1229565d-9ccf-4d2f-acf7-aeaa61ae3645"},"vehicle_type_id":"4","last_reported":1745994015,"current_range_meters":18800,"station_id":"ce4bhmp2rcd13ifvqgog","pricing_plan_id":"cebpf4jnsgd1na2vs0mg"},{"bike_id":"8d949ebd-7a4c-457c-9cec-34706b46017e","system_id":"levelo_inurba_marseille","lat":43.30417,"lon":5.3975,"is_reserved":false,"is_disabled":false,"rental_uris":{"android":"levelo://app?vid=8d949ebd-7a4c-457c-9cec-34706b46017e","ios":"levelo://app?vid=8d949ebd-7a4c-457c-9cec-34706b46017e"},"vehicle_type_id":"4","last_reported":1745994015,"current_range_meters":18000,"station_id":"ce4bh092rcd13ifvqd20","pricing_plan_id":"cebpf4jnsgd1na2vs0mg"},{"bike_id":"b5c68a5c-e7ab-431f-928e-95fcc43be5c3","system_id":"levelo_inurba_marseille","lat":43.24072,"lon":5.3776,"is_reserved":false,"is_disabled":false,"rental_uris":{"android":"levelo://app?vid=b5c68a5c-e7ab-431f-928e-95fcc43be5c3","ios":"levelo://app?vid=b5c68a5c-e7ab-431f-928e-95fcc43be5c3"},"vehicle_type_id":"4","last_reported":1745994015,"current_range_meters":18800,"station_id":"ce4bhnp2rcd13ifvqgvg","pricing_plan_id":"cebpf4jnsgd1na2vs0mg"},{"bike_id":"eb57741f-414f-4d53-842d-385673ad4bf7","system_id":"levelo_inurba_marseille","lat":43.292917,"lon":5.40223,"is_reserved":false,"is_disabled":true,"rental_uris":{"android":"levelo://app?vid=eb57741f-414f-4d53-842d-385673ad4bf7","ios":"levelo://app?vid=eb57741f-414f-4d53-842d-385673ad4bf7"},"vehicle_type_id":"4","last_reported":1745994015,"current_range_meters":19200,"station_id":"","pricing_plan_id":"cebpf4jnsgd1na2vs0mg"},{"bike_id":"85a18947-6ea4-4ce3-9800-77bfbc145068","system_id":"levelo_inurba_marseille","lat":43.2407,"lon":5.37767,"is_reserved":false,"is_disabled":false,"rental_uris":{"android":"levelo://app?vid=85a18947-6ea4-4ce3-9800-77bfbc145068","ios":"levelo://app?vid=85a18947-6ea4-4ce3-9800-77bfbc145068"},"vehicle_type_id":"4","last_reported":1745994015,"current_range_meters":19200,"station_id":"ce4bhnp2rcd13ifvqgvg","pricing_plan_id":"cebpf4jnsgd1na2vs0mg"},{"bike_id":"567fc4ee-ef78-40ee-b324-1920202c067d","system_id":"levelo_inurba_marseille","lat":43.28327,"lon":5.38103,"is_reserved":false,"is_disabled":false,"rental_uris":{"android":"levelo://app?vid=567fc4ee-ef78-40ee-b324-1920202c067d","ios":"levelo://app?vid=567fc4ee-ef78-40ee-b324-1920202c067d"},"vehicle_type_id":"4","last_reported":1745994015,"current_range_meters":19200,"station_id":"ce4bh412rcd13ifvqdr0","pricing_plan_id":"cebpf4jnsgd1na2vs0mg"},{"bike_id":"200cccf6-55a6-4674-8d81-12dd53204004","system_id":"levelo_inurba_marseille","lat":43.30376,"lon":5.42485,"is_reserved":false,"is_disabled":false,"rental_uris":{"android":"levelo://app?vid=200cccf6-55a6-4674-8d81-12dd53204004","ios":"levelo://app?vid=200cccf6-55a6-4674-8d81-12dd53204004"},"vehicle_type_id":"4","last_reported":1745994015,"current_range_meters":19200,"station_id":"ce4bhoh2rcd13ifvqh6g","pricing_plan_id":"cebpf4jnsgd1na2vs0mg"},{"bike_id":"63a197fa-b406-4b7b-8df2-f464d54cd584","system_id":"levelo_inurba_marseille","lat":43.31476,"lon":5.37339,"is_reserved":false,"is_disabled":false,"rental_uris":{"android":"levelo://app?vid=63a197fa-b406-4b7b-8df2-f464d54cd584","ios":"levelo://app?vid=63a197fa-b406-4b7b-8df2-f464d54cd584"},"vehicle_type_id":"4","last_reported":1745994015,"current_range_meters":19200,"station_id":"ce4bgt12rcd13ifvqcd0","pricing_plan_id":"cebpf4jnsgd1na2vs0mg"},{"bike_id":"8711dcb0-b2b4-4a94-a7c4-5bd1ceca9917","system_id":"levelo_inurba_marseille","lat":43.27494,"lon":5.42464,"is_reserved":false,"is_disabled":false,"rental_uris":{"android":"levelo://app?vid=8711dcb0-b2b4-4a94-a7c4-5bd1ceca9917","ios":"levelo://app?vid=8711dcb0-b2b4-4a94-a7c4-5bd1ceca9917"},"vehicle_type_id":"4","last_reported":1745994015,"current_range_meters":19200,"station_id":"","pricing_plan_id":"cebpf4jnsgd1na2vs0mg"},{"bike_id":"dc78a567-f282-4def-b502-950b434bc479","system_id":"levelo_inurba_marseille","lat":43.31357,"lon":5.38495,"is_reserved":false,"is_disabled":false,"rental_uris":{"android":"levelo://app?vid=dc78a567-f282-4def-b502-950b434bc479","ios":"levelo://app?vid=dc78a567-f282-4def-b502-950b434bc479"},"vehicle_type_id":"4","last_reported":1745994015,"current_range_meters":19200,"station_id":"ce4bgt92rcd13ifvqcf0","pricing_plan_id":"cebpf4jnsgd1na2vs0mg"},{"bike_id":"d2087c98-282b-4e16-9597-9f0e8ee5b8ea","system_id":"levelo_inurba_marseille","lat":43.30535,"lon":5.36555,"is_reserved":false,"is_disabled":false,"rental_uris":{"android":"levelo://app?vid=d2087c98-282b-4e16-9597-9f0e8ee5b8ea","ios":"levelo://app?vid=d2087c98-282b-4e16-9597-9f0e8ee5b8ea"},"vehicle_type_id":"4","last_reported":1745994015,"current_range_meters":19200,"station_id":"ce4bgs12rcd13ifvqcag","pricing_plan_id":"cebpf4jnsgd1na2vs0mg"},{"bike_id":"88b0e47a-d43f-44bb-bd7e-80d8fc6d69de","system_id":"levelo_inurba_marseille","lat":43.28131,"lon":5.40164,"is_reserved":false,"is_disabled":false,"rental_uris":{"android":"levelo://app?vid=88b0e47a-d43f-44bb-bd7e-80d8fc6d69de","ios":"levelo://app?vid=88b0e47a-d43f-44bb-bd7e-80d8fc6d69de"},"vehicle_type_id":"4","last_reported":1745994015,"current_range_meters":19600,"station_id":"","pricing_plan_id":"cebpf4jnsgd1na2vs0mg"},{"bike_id":"a8ec3f88-a447-4e18-be95-615a83a69f2c","system_id":"levelo_inurba_marseille","lat":43.28943,"lon":5.39633,"is_reserved":false,"is_disabled":true,"rental_uris":{"android":"levelo://app?vid=a8ec3f88-a447-4e18-be95-615a83a69f2c","ios":"levelo://app?vid=a8ec3f88-a447-4e18-be95-615a83a69f2c"},"vehicle_type_id":"4","last_reported":1745994015,"current_range_meters":19600,"station_id":"ce4bh3h2rcd13ifvqdn0","pricing_plan_id":"cebpf4jnsgd1na2vs0mg"},{"bike_id":"b7beac0b-89c9-43ff-9f35-4645cf23d0c0","system_id":"levelo_inurba_marseille","lat":43.30141,"lon":5.38076,"is_reserved":false,"is_disabled":false,"rental_uris":{"android":"levelo://app?vid=b7beac0b-89c9-43ff-9f35-4645cf23d0c0","ios":"levelo://app?vid=b7beac0b-89c9-43ff-9f35-4645cf23d0c0"},"vehicle_type_id":"4","last_reported":1745994015,"current_range_meters":19600,"station_id":"","pricing_plan_id":"cebpf4jnsgd1na2vs0mg"},{"bike_id":"b6999e41-71e3-4b5e-a87c-1d08378d2f28","system_id":"levelo_inurba_marseille","lat":43.30534,"lon":5.38428,"is_reserved":false,"is_disabled":true,"rental_uris":{"android":"levelo://app?vid=b6999e41-71e3-4b5e-a87c-1d08378d2f28","ios":"levelo://app?vid=b6999e41-71e3-4b5e-a87c-1d08378d2f28"},"vehicle_type_id":"4","last_reported":1745994015,"current_range_meters":19200,"station_id":"ce4bgg92rcd13ifvqb30","pricing_plan_id":"cebpf4jnsgd1na2vs0mg"},{"bike_id":"ddde46b0-abb5-4db4-a967-116646d2b570","system_id":"levelo_inurba_marseille","lat":43.24166,"lon":5.36431,"is_reserved":false,"is_disabled":true,"rental_uris":{"android":"levelo://app?vid=ddde46b0-abb5-4db4-a967-116646d2b570","ios":"levelo://app?vid=ddde46b0-abb5-4db4-a967-116646d2b570"},"vehicle_type_id":"4","last_reported":1745994015,"current_range_meters":20000,"station_id":"cpo36qri1sfpv3e86is0","pricing_plan_id":"cebpf4jnsgd1na2vs0mg"},{"bike_id":"a203e224-1895-4695-9f2f-439c371a5453","system_id":"levelo_inurba_marseille","lat":43.30587,"lon":5.39354,"is_reserved":false,"is_disabled":false,"rental_uris":{"android":"levelo://app?vid=a203e224-1895-4695-9f2f-439c371a5453","ios":"levelo://app?vid=a203e224-1895-4695-9f2f-439c371a5453"},"vehicle_type_id":"4","last_reported":1745994015,"current_range_meters":20000,"station_id":"ce4bh0p2rcd13ifvqd80","pricing_plan_id":"cebpf4jnsgd1na2vs0mg"},{"bike_id":"dd761f0b-a343-4069-8ed4-8566f51a6c87","system_id":"levelo_inurba_marseille","lat":43.267792,"lon":5.383597,"is_reserved":false,"is_disabled":true,"rental_uris":{"android":"levelo://app?vid=dd761f0b-a343-4069-8ed4-8566f51a6c87","ios":"levelo://app?vid=dd761f0b-a343-4069-8ed4-8566f51a6c87"},"vehicle_type_id":"4","last_reported":1745994015,"current_range_meters":20400,"station_id":"","pricing_plan_id":"cebpf4jnsgd1na2vs0mg"},{"bike_id":"a6a8293d-092e-46a6-a192-8e6f3dee03d5","system_id":"levelo_inurba_marseille","lat":43.2836,"lon":5.38103,"is_reserved":false,"is_disabled":false,"rental_uris":{"android":"levelo://app?vid=a6a8293d-092e-46a6-a192-8e6f3dee03d5","ios":"levelo://app?vid=a6a8293d-092e-46a6-a192-8e6f3dee03d5"},"vehicle_type_id":"4","last_reported":1745994015,"current_range_meters":20400,"station_id":"ce4bh412rcd13ifvqdr0","pricing_plan_id":"cebpf4jnsgd1na2vs0mg"},{"bike_id":"ffdd7a08-3074-4a5e-a18c-f165af0cc8be","system_id":"levelo_inurba_marseille","lat":43.30531,"lon":5.36701,"is_reserved":false,"is_disabled":false,"rental_uris":{"android":"levelo://app?vid=ffdd7a08-3074-4a5e-a18c-f165af0cc8be","ios":"levelo://app?vid=ffdd7a08-3074-4a5e-a18c-f165af0cc8be"},"vehicle_type_id":"4","last_reported":1745994015,"current_range_meters":20000,"station_id":"ce4bgrp2rcd13ifvqc9g","pricing_plan_id":"cebpf4jnsgd1na2vs0mg"},{"bike_id":"2f97accb-c615-4e9a-8ff8-1d7447ea3380","system_id":"levelo_inurba_marseille","lat":43.27945,"lon":5.41052,"is_reserved":false,"is_disabled":false,"rental_uris":{"android":"levelo://app?vid=2f97accb-c615-4e9a-8ff8-1d7447ea3380","ios":"levelo://app?vid=2f97accb-c615-4e9a-8ff8-1d7447ea3380"},"vehicle_type_id":"4","last_reported":1745994015,"current_range_meters":20400,"station_id":"ce4bhnp2rcd13ifvqh0g","pricing_plan_id":"cebpf4jnsgd1na2vs0mg"},{"bike_id":"336d4cb0-32bf-4bc0-8b9f-e9f77c49e032","system_id":"levelo_inurba_marseille","lat":43.24176,"lon":5.39721,"is_reserved":false,"is_disabled":false,"rental_uris":{"android":"levelo://app?vid=336d4cb0-32bf-4bc0-8b9f-e9f77c49e032","ios":"levelo://app?vid=336d4cb0-32bf-4bc0-8b9f-e9f77c49e032"},"vehicle_type_id":"4","last_reported":1745994015,"current_range_meters":20400,"station_id":"ce4bhn12rcd13ifvqgpg","pricing_plan_id":"cebpf4jnsgd1na2vs0mg"},{"bike_id":"2e5f005c-20b9-4aa6-8311-de6457be83d8","system_id":"levelo_inurba_marseille","lat":43.30166,"lon":5.38095,"is_reserved":false,"is_disabled":false,"rental_uris":{"android":"levelo://app?vid=2e5f005c-20b9-4aa6-8311-de6457be83d8","ios":"levelo://app?vid=2e5f005c-20b9-4aa6-8311-de6457be83d8"},"vehicle_type_id":"4","last_reported":1745994015,"current_range_meters":20400,"station_id":"ce4bgjp2rcd13ifvqbh0","pricing_plan_id":"cebpf4jnsgd1na2vs0mg"},{"bike_id":"eeefc486-18c5-44e2-94f5-1fff6bb971e7","system_id":"levelo_inurba_marseille","lat":43.29268,"lon":5.37635,"is_reserved":false,"is_disabled":false,"rental_uris":{"android":"levelo://app?vid=eeefc486-18c5-44e2-94f5-1fff6bb971e7","ios":"levelo://app?vid=eeefc486-18c5-44e2-94f5-1fff6bb971e7"},"vehicle_type_id":"4","last_reported":1745994015,"current_range_meters":20400,"station_id":"ce4bgi12rcd13ifvqb80","pricing_plan_id":"cebpf4jnsgd1na2vs0mg"},{"bike_id":"ccf01767-0bd7-4b5d-b4b4-22583c098805","system_id":"levelo_inurba_marseille","lat":43.24079,"lon":5.37752,"is_reserved":false,"is_disabled":false,"rental_uris":{"android":"levelo://app?vid=ccf01767-0bd7-4b5d-b4b4-22583c098805","ios":"levelo://app?vid=ccf01767-0bd7-4b5d-b4b4-22583c098805"},"vehicle_type_id":"4","last_reported":1745994015,"current_range_meters":20000,"station_id":"ce4bhnp2rcd13ifvqgvg","pricing_plan_id":"cebpf4jnsgd1na2vs0mg"},{"bike_id":"c8195331-55a8-4d80-9719-45d9bca93365","system_id":"levelo_inurba_marseille","lat":43.30137,"lon":5.37409,"is_reserved":false,"is_disabled":false,"rental_uris":{"android":"levelo://app?vid=c8195331-55a8-4d80-9719-45d9bca93365","ios":"levelo://app?vid=c8195331-55a8-4d80-9719-45d9bca93365"},"vehicle_type_id":"4","last_reported":1745994015,"current_range_meters":20800,"station_id":"ce4bgs92rcd13ifvqcc0","pricing_plan_id":"cebpf4jnsgd1na2vs0mg"},{"bike_id":"dfda6650-cbd0-452d-aba0-b39189b1cc52","system_id":"levelo_inurba_marseille","lat":43.25935,"lon":5.40901,"is_reserved":false,"is_disabled":false,"rental_uris":{"android":"levelo://app?vid=dfda6650-cbd0-452d-aba0-b39189b1cc52","ios":"levelo://app?vid=dfda6650-cbd0-452d-aba0-b39189b1cc52"},"vehicle_type_id":"4","last_reported":1745994015,"current_range_meters":21600,"station_id":"ce4bhm92rcd13ifvqglg","pricing_plan_id":"cebpf4jnsgd1na2vs0mg"},{"bike_id":"5d355be3-113e-46d3-aa06-76865de79fae","system_id":"levelo_inurba_marseille","lat":43.29363,"lon":5.37858,"is_reserved":false,"is_disabled":true,"rental_uris":{"android":"levelo://app?vid=5d355be3-113e-46d3-aa06-76865de79fae","ios":"levelo://app?vid=5d355be3-113e-46d3-aa06-76865de79fae"},"vehicle_type_id":"4","last_reported":1745994015,"current_range_meters":20800,"station_id":"ce4bgjh2rcd13ifvqbf0","pricing_plan_id":"cebpf4jnsgd1na2vs0mg"},{"bike_id":"425a182a-f701-416b-8ab8-45e87a888438","system_id":"levelo_inurba_marseille","lat":43.312213,"lon":5.368617,"is_reserved":false,"is_disabled":false,"rental_uris":{"android":"levelo://app?vid=425a182a-f701-416b-8ab8-45e87a888438","ios":"levelo://app?vid=425a182a-f701-416b-8ab8-45e87a888438"},"vehicle_type_id":"4","last_reported":1745994015,"current_range_meters":20400,"station_id":"ce4bgl92rcd13ifvqbq0","pricing_plan_id":"cebpf4jnsgd1na2vs0mg"},{"bike_id":"f6885d42-eaf6-455a-8e92-c7aa2648edc9","system_id":"levelo_inurba_marseille","lat":43.292826,"lon":5.401072,"is_reserved":false,"is_disabled":false,"rental_uris":{"android":"levelo://app?vid=f6885d42-eaf6-455a-8e92-c7aa2648edc9","ios":"levelo://app?vid=f6885d42-eaf6-455a-8e92-c7aa2648edc9"},"vehicle_type_id":"4","last_reported":1745994015,"current_range_meters":20800,"station_id":"ce4bh312rcd13ifvqdk0","pricing_plan_id":"cebpf4jnsgd1na2vs0mg"},{"bike_id":"8a5ef15b-08e5-4866-9542-282ce1544826","system_id":"levelo_inurba_marseille","lat":43.2319,"lon":5.40008,"is_reserved":false,"is_disabled":false,"rental_uris":{"android":"levelo://app?vid=8a5ef15b-08e5-4866-9542-282ce1544826","ios":"levelo://app?vid=8a5ef15b-08e5-4866-9542-282ce1544826"},"vehicle_type_id":"4","last_reported":1745994015,"current_range_meters":20800,"station_id":"ce4bhn12rcd13ifvqgqg","pricing_plan_id":"cebpf4jnsgd1na2vs0mg"},{"bike_id":"48bf0338-a6af-4030-9cba-1ee25185c423","system_id":"levelo_inurba_marseille","lat":43.31495,"lon":5.37305,"is_reserved":false,"is_disabled":false,"rental_uris":{"android":"levelo://app?vid=48bf0338-a6af-4030-9cba-1ee25185c423","ios":"levelo://app?vid=48bf0338-a6af-4030-9cba-1ee25185c423"},"vehicle_type_id":"4","last_reported":1745994015,"current_range_meters":20800,"station_id":"ce4bgt12rcd13ifvqcd0","pricing_plan_id":"cebpf4jnsgd1na2vs0mg"},{"bike_id":"15a3c0a0-4048-4785-ac9e-09ebc26c7a25","system_id":"levelo_inurba_marseille","lat":43.24066,"lon":5.37766,"is_reserved":false,"is_disabled":false,"rental_uris":{"android":"levelo://app?vid=15a3c0a0-4048-4785-ac9e-09ebc26c7a25","ios":"levelo://app?vid=15a3c0a0-4048-4785-ac9e-09ebc26c7a25"},"vehicle_type_id":"4","last_reported":1745994015,"current_range_meters":21600,"station_id":"ce4bhnp2rcd13ifvqgvg","pricing_plan_id":"cebpf4jnsgd1na2vs0mg"},{"bike_id":"f1b49788-b4d0-446a-9e69-9808e3c637fa","system_id":"levelo_inurba_marseille","lat":43.30945,"lon":5.3903,"is_reserved":false,"is_disabled":false,"rental_uris":{"android":"levelo://app?vid=f1b49788-b4d0-446a-9e69-9808e3c637fa","ios":"levelo://app?vid=f1b49788-b4d0-446a-9e69-9808e3c637fa"},"vehicle_type_id":"4","last_reported":1745994015,"current_range_meters":21600,"station_id":"ce4bgup2rcd13ifvqco0","pricing_plan_id":"cebpf4jnsgd1na2vs0mg"},{"bike_id":"d45bb4c0-57b6-4baa-a3a4-86e1c61d52c5","system_id":"levelo_inurba_marseille","lat":43.23176,"lon":5.39995,"is_reserved":false,"is_disabled":false,"rental_uris":{"android":"levelo://app?vid=d45bb4c0-57b6-4baa-a3a4-86e1c61d52c5","ios":"levelo://app?vid=d45bb4c0-57b6-4baa-a3a4-86e1c61d52c5"},"vehicle_type_id":"4","last_reported":1745994015,"current_range_meters":20800,"station_id":"ce4bhn12rcd13ifvqgqg","pricing_plan_id":"cebpf4jnsgd1na2vs0mg"},{"bike_id":"2d90d92c-e010-4034-9c8a-92ec848e2a6f","system_id":"levelo_inurba_marseille","lat":43.30326,"lon":5.36912,"is_reserved":false,"is_disabled":false,"rental_uris":{"android":"levelo://app?vid=2d90d92c-e010-4034-9c8a-92ec848e2a6f","ios":"levelo://app?vid=2d90d92c-e010-4034-9c8a-92ec848e2a6f"},"vehicle_type_id":"4","last_reported":1745994015,"current_range_meters":21600,"station_id":"ce4bgqh2rcd13ifvqc5g","pricing_plan_id":"cebpf4jnsgd1na2vs0mg"},{"bike_id":"3a1c6b65-5f0e-4cf0-b640-52fefa98b0b8","system_id":"levelo_inurba_marseille","lat":43.3203,"lon":5.41583,"is_reserved":false,"is_disabled":false,"rental_uris":{"android":"levelo://app?vid=3a1c6b65-5f0e-4cf0-b640-52fefa98b0b8","ios":"levelo://app?vid=3a1c6b65-5f0e-4cf0-b640-52fefa98b0b8"},"vehicle_type_id":"4","last_reported":1745994015,"current_range_meters":21600,"station_id":"ce4bhq92rcd13ifvqhkg","pricing_plan_id":"cebpf4jnsgd1na2vs0mg"},{"bike_id":"714061e8-7416-4067-b274-58949cf80bd2","system_id":"levelo_inurba_marseille","lat":43.297674,"lon":5.381216,"is_reserved":false,"is_disabled":false,"rental_uris":{"android":"levelo://app?vid=714061e8-7416-4067-b274-58949cf80bd2","ios":"levelo://app?vid=714061e8-7416-4067-b274-58949cf80bd2"},"vehicle_type_id":"4","last_reported":1745994015,"current_range_meters":21600,"station_id":"ce4bgip2rcd13ifvqbb0","pricing_plan_id":"cebpf4jnsgd1na2vs0mg"},{"bike_id":"d5046189-0fb2-40d3-9ca2-25c5936499aa","system_id":"levelo_inurba_marseille","lat":43.28427,"lon":5.34992,"is_reserved":false,"is_disabled":true,"rental_uris":{"android":"levelo://app?vid=d5046189-0fb2-40d3-9ca2-25c5936499aa","ios":"levelo://app?vid=d5046189-0fb2-40d3-9ca2-25c5936499aa"},"vehicle_type_id":"4","last_reported":1745994015,"current_range_meters":21600,"station_id":"ce4bhbh2rcd13ifvqepg","pricing_plan_id":"cebpf4jnsgd1na2vs0mg"},{"bike_id":"804c672c-117d-4c6f-ae97-83c9869977f3","system_id":"levelo_inurba_marseille","lat":43.274926,"lon":5.42454,"is_reserved":false,"is_disabled":false,"rental_uris":{"android":"levelo://app?vid=804c672c-117d-4c6f-ae97-83c9869977f3","ios":"levelo://app?vid=804c672c-117d-4c6f-ae97-83c9869977f3"},"vehicle_type_id":"4","last_reported":1745994015,"current_range_meters":21600,"station_id":"","pricing_plan_id":"cebpf4jnsgd1na2vs0mg"},{"bike_id":"77594120-43cc-485b-8219-e3d1ceea0721","system_id":"levelo_inurba_marseille","lat":43.24651,"lon":5.38894,"is_reserved":false,"is_disabled":false,"rental_uris":{"android":"levelo://app?vid=77594120-43cc-485b-8219-e3d1ceea0721","ios":"levelo://app?vid=77594120-43cc-485b-8219-e3d1ceea0721"},"vehicle_type_id":"4","last_reported":1745994015,"current_range_meters":22000,"station_id":"ce4bhg12rcd13ifvqf60","pricing_plan_id":"cebpf4jnsgd1na2vs0mg"},{"bike_id":"5e66e431-8b9c-4fad-91d5-71057536383d","system_id":"levelo_inurba_marseille","lat":43.240683,"lon":5.377575,"is_reserved":false,"is_disabled":false,"rental_uris":{"android":"levelo://app?vid=5e66e431-8b9c-4fad-91d5-71057536383d","ios":"levelo://app?vid=5e66e431-8b9c-4fad-91d5-71057536383d"},"vehicle_type_id":"4","last_reported":1745994015,"current_range_meters":22000,"station_id":"ce4bhnp2rcd13ifvqgvg","pricing_plan_id":"cebpf4jnsgd1na2vs0mg"},{"bike_id":"80cf9668-e509-4565-9f19-54013b284ed3","system_id":"levelo_inurba_marseille","lat":43.24164,"lon":5.36392,"is_reserved":false,"is_disabled":true,"rental_uris":{"android":"levelo://app?vid=80cf9668-e509-4565-9f19-54013b284ed3","ios":"levelo://app?vid=80cf9668-e509-4565-9f19-54013b284ed3"},"vehicle_type_id":"4","last_reported":1745994015,"current_range_meters":22000,"station_id":"cpo36qri1sfpv3e86is0","pricing_plan_id":"cebpf4jnsgd1na2vs0mg"},{"bike_id":"9a6d1a0d-0520-4c44-b0a9-74ddbe754418","system_id":"levelo_inurba_marseille","lat":43.25806,"lon":5.41068,"is_reserved":false,"is_disabled":false,"rental_uris":{"android":"levelo://app?vid=9a6d1a0d-0520-4c44-b0a9-74ddbe754418","ios":"levelo://app?vid=9a6d1a0d-0520-4c44-b0a9-74ddbe754418"},"vehicle_type_id":"4","last_reported":1745994015,"current_range_meters":22400,"station_id":"","pricing_plan_id":"cebpf4jnsgd1na2vs0mg"},{"bike_id":"0b807663-b223-48ee-81c7-e03bbbe664be","system_id":"levelo_inurba_marseille","lat":43.287153,"lon":5.379414,"is_reserved":false,"is_disabled":false,"rental_uris":{"android":"levelo://app?vid=0b807663-b223-48ee-81c7-e03bbbe664be","ios":"levelo://app?vid=0b807663-b223-48ee-81c7-e03bbbe664be"},"vehicle_type_id":"4","last_reported":1745994015,"current_range_meters":22400,"station_id":"ce4bh9p2rcd13ifvqec0","pricing_plan_id":"cebpf4jnsgd1na2vs0mg"},{"bike_id":"4e230b3f-9985-4d42-a310-5c69a1ea00ed","system_id":"levelo_inurba_marseille","lat":43.27496,"lon":5.42459,"is_reserved":false,"is_disabled":false,"rental_uris":{"android":"levelo://app?vid=4e230b3f-9985-4d42-a310-5c69a1ea00ed","ios":"levelo://app?vid=4e230b3f-9985-4d42-a310-5c69a1ea00ed"},"vehicle_type_id":"4","last_reported":1745994015,"current_range_meters":22400,"station_id":"","pricing_plan_id":"cebpf4jnsgd1na2vs0mg"},{"bike_id":"e7f17435-db15-49db-bdec-a32f665bd7fc","system_id":"levelo_inurba_marseille","lat":43.32533,"lon":5.4143,"is_reserved":false,"is_disabled":false,"rental_uris":{"android":"levelo://app?vid=e7f17435-db15-49db-bdec-a32f665bd7fc","ios":"levelo://app?vid=e7f17435-db15-49db-bdec-a32f665bd7fc"},"vehicle_type_id":"4","last_reported":1745994015,"current_range_meters":22000,"station_id":"ce4bhq12rcd13ifvqhhg","pricing_plan_id":"cebpf4jnsgd1na2vs0mg"},{"bike_id":"f0ada80e-7b2a-4e00-b8c2-c872801ca85e","system_id":"levelo_inurba_marseille","lat":43.29012,"lon":5.38655,"is_reserved":false,"is_disabled":false,"rental_uris":{"android":"levelo://app?vid=f0ada80e-7b2a-4e00-b8c2-c872801ca85e","ios":"levelo://app?vid=f0ada80e-7b2a-4e00-b8c2-c872801ca85e"},"vehicle_type_id":"4","last_reported":1745994015,"current_range_meters":22400,"station_id":"ce4bh4p2rcd13ifvqe0g","pricing_plan_id":"cebpf4jnsgd1na2vs0mg"},{"bike_id":"3dfa8e4c-3d2a-46f8-a3e9-5f45c661aff3","system_id":"levelo_inurba_marseille","lat":43.29929,"lon":5.36538,"is_reserved":false,"is_disabled":false,"rental_uris":{"android":"levelo://app?vid=3dfa8e4c-3d2a-46f8-a3e9-5f45c661aff3","ios":"levelo://app?vid=3dfa8e4c-3d2a-46f8-a3e9-5f45c661aff3"},"vehicle_type_id":"4","last_reported":1745994015,"current_range_meters":22400,"station_id":"ce4bgm92rcd13ifvqbr0","pricing_plan_id":"cebpf4jnsgd1na2vs0mg"},{"bike_id":"fc8ecc00-1623-4a96-b439-59197bdd0618","system_id":"levelo_inurba_marseille","lat":43.27459,"lon":5.40929,"is_reserved":false,"is_disabled":false,"rental_uris":{"android":"levelo://app?vid=fc8ecc00-1623-4a96-b439-59197bdd0618","ios":"levelo://app?vid=fc8ecc00-1623-4a96-b439-59197bdd0618"},"vehicle_type_id":"4","last_reported":1745994015,"current_range_meters":22400,"station_id":"","pricing_plan_id":"cebpf4jnsgd1na2vs0mg"},{"bike_id":"ed6f4c6d-8a8b-47af-be43-45038f4d4654","system_id":"levelo_inurba_marseille","lat":43.25103,"lon":5.40327,"is_reserved":false,"is_disabled":false,"rental_uris":{"android":"levelo://app?vid=ed6f4c6d-8a8b-47af-be43-45038f4d4654","ios":"levelo://app?vid=ed6f4c6d-8a8b-47af-be43-45038f4d4654"},"vehicle_type_id":"4","last_reported":1745994015,"current_range_meters":22000,"station_id":"ce4bhlh2rcd13ifvqgig","pricing_plan_id":"cebpf4jnsgd1na2vs0mg"},{"bike_id":"d940bd3c-f233-4012-9fbb-30fe5fb14a40","system_id":"levelo_inurba_marseille","lat":43.274913,"lon":5.424559,"is_reserved":false,"is_disabled":false,"rental_uris":{"android":"levelo://app?vid=d940bd3c-f233-4012-9fbb-30fe5fb14a40","ios":"levelo://app?vid=d940bd3c-f233-4012-9fbb-30fe5fb14a40"},"vehicle_type_id":"4","last_reported":1745994015,"current_range_meters":22800,"station_id":"","pricing_plan_id":"cebpf4jnsgd1na2vs0mg"},{"bike_id":"cd5e7185-47df-42cc-af9f-e8165c2ab131","system_id":"levelo_inurba_marseille","lat":43.28936,"lon":5.39634,"is_reserved":false,"is_disabled":false,"rental_uris":{"android":"levelo://app?vid=cd5e7185-47df-42cc-af9f-e8165c2ab131","ios":"levelo://app?vid=cd5e7185-47df-42cc-af9f-e8165c2ab131"},"vehicle_type_id":"4","last_reported":1745994015,"current_range_meters":22400,"station_id":"ce4bh3h2rcd13ifvqdn0","pricing_plan_id":"cebpf4jnsgd1na2vs0mg"},{"bike_id":"48fe0a61-16d8-4c4d-8014-6583682528ed","system_id":"levelo_inurba_marseille","lat":43.217498,"lon":5.346209,"is_reserved":false,"is_disabled":true,"rental_uris":{"android":"levelo://app?vid=48fe0a61-16d8-4c4d-8014-6583682528ed","ios":"levelo://app?vid=48fe0a61-16d8-4c4d-8014-6583682528ed"},"vehicle_type_id":"4","last_reported":1745994015,"current_range_meters":22800,"station_id":"","pricing_plan_id":"cebpf4jnsgd1na2vs0mg"},{"bike_id":"3554449c-6baf-4c8d-9213-e6f8dbb0c51d","system_id":"levelo_inurba_marseille","lat":43.31359,"lon":5.384958,"is_reserved":false,"is_disabled":true,"rental_uris":{"android":"levelo://app?vid=3554449c-6baf-4c8d-9213-e6f8dbb0c51d","ios":"levelo://app?vid=3554449c-6baf-4c8d-9213-e6f8dbb0c51d"},"vehicle_type_id":"4","last_reported":1745994015,"current_range_meters":22800,"station_id":"ce4bgt92rcd13ifvqcf0","pricing_plan_id":"cebpf4jnsgd1na2vs0mg"},{"bike_id":"1b0748c1-49e3-4fb3-afa3-fcac4ded70f6","system_id":"levelo_inurba_marseille","lat":43.30465,"lon":5.37916,"is_reserved":false,"is_disabled":false,"rental_uris":{"android":"levelo://app?vid=1b0748c1-49e3-4fb3-afa3-fcac4ded70f6","ios":"levelo://app?vid=1b0748c1-49e3-4fb3-afa3-fcac4ded70f6"},"vehicle_type_id":"4","last_reported":1745994015,"current_range_meters":22800,"station_id":"ce4bgup2rcd13ifvqcn0","pricing_plan_id":"cebpf4jnsgd1na2vs0mg"},{"bike_id":"646bfbfe-6de1-4c02-a2dc-970d691ce145","system_id":"levelo_inurba_marseille","lat":43.29616,"lon":5.38095,"is_reserved":false,"is_disabled":false,"rental_uris":{"android":"levelo://app?vid=646bfbfe-6de1-4c02-a2dc-970d691ce145","ios":"levelo://app?vid=646bfbfe-6de1-4c02-a2dc-970d691ce145"},"vehicle_type_id":"4","last_reported":1745994015,"current_range_meters":22800,"station_id":"ce4bgl12rcd13ifvqbo0","pricing_plan_id":"cebpf4jnsgd1na2vs0mg"},{"bike_id":"a71c5ca1-1706-458c-89ad-9aee3075f310","system_id":"levelo_inurba_marseille","lat":43.262165,"lon":5.404546,"is_reserved":false,"is_disabled":false,"rental_uris":{"android":"levelo://app?vid=a71c5ca1-1706-458c-89ad-9aee3075f310","ios":"levelo://app?vid=a71c5ca1-1706-458c-89ad-9aee3075f310"},"vehicle_type_id":"4","last_reported":1745994015,"current_range_meters":22800,"station_id":"ce4bhmh2rcd13ifvqgmg","pricing_plan_id":"cebpf4jnsgd1na2vs0mg"},{"bike_id":"6abbf3ca-fde0-4922-8653-0b2393d58042","system_id":"levelo_inurba_marseille","lat":43.28835,"lon":5.39348,"is_reserved":false,"is_disabled":true,"rental_uris":{"android":"levelo://app?vid=6abbf3ca-fde0-4922-8653-0b2393d58042","ios":"levelo://app?vid=6abbf3ca-fde0-4922-8653-0b2393d58042"},"vehicle_type_id":"4","last_reported":1745994015,"current_range_meters":23200,"station_id":"ce4bh2p2rcd13ifvqdi0","pricing_plan_id":"cebpf4jnsgd1na2vs0mg"},{"bike_id":"e2f2d5c5-80d7-4f8e-8d4f-3a80af406843","system_id":"levelo_inurba_marseille","lat":43.289252,"lon":5.383943,"is_reserved":false,"is_disabled":true,"rental_uris":{"android":"levelo://app?vid=e2f2d5c5-80d7-4f8e-8d4f-3a80af406843","ios":"levelo://app?vid=e2f2d5c5-80d7-4f8e-8d4f-3a80af406843"},"vehicle_type_id":"4","last_reported":1745994015,"current_range_meters":23200,"station_id":"","pricing_plan_id":"cebpf4jnsgd1na2vs0mg"},{"bike_id":"11f6dcf8-aaa3-4e84-a502-5ceae1c81bbd","system_id":"levelo_inurba_marseille","lat":43.231455,"lon":5.437247,"is_reserved":false,"is_disabled":true,"rental_uris":{"android":"levelo://app?vid=11f6dcf8-aaa3-4e84-a502-5ceae1c81bbd","ios":"levelo://app?vid=11f6dcf8-aaa3-4e84-a502-5ceae1c81bbd"},"vehicle_type_id":"4","last_reported":1745994015,"current_range_meters":23200,"station_id":"ce4bhmp2rcd13ifvqgog","pricing_plan_id":"cebpf4jnsgd1na2vs0mg"},{"bike_id":"eed9ef34-2bee-4a3f-a84f-9c7b08b9d393","system_id":"levelo_inurba_marseille","lat":43.26207,"lon":5.37442,"is_reserved":false,"is_disabled":false,"rental_uris":{"android":"levelo://app?vid=eed9ef34-2bee-4a3f-a84f-9c7b08b9d393","ios":"levelo://app?vid=eed9ef34-2bee-4a3f-a84f-9c7b08b9d393"},"vehicle_type_id":"4","last_reported":1745994015,"current_range_meters":23200,"station_id":"ce4bhgp2rcd13ifvqfc0","pricing_plan_id":"cebpf4jnsgd1na2vs0mg"},{"bike_id":"042379d8-99aa-455e-91bf-b49d7234da22","system_id":"levelo_inurba_marseille","lat":43.25569,"lon":5.38243,"is_reserved":false,"is_disabled":true,"rental_uris":{"android":"levelo://app?vid=042379d8-99aa-455e-91bf-b49d7234da22","ios":"levelo://app?vid=042379d8-99aa-455e-91bf-b49d7234da22"},"vehicle_type_id":"4","last_reported":1745994015,"current_range_meters":23200,"station_id":"ce4bhih2rcd13ifvqfs0","pricing_plan_id":"cebpf4jnsgd1na2vs0mg"},{"bike_id":"bd6ebf9e-fa2f-443f-8aaa-f60651c57d1a","system_id":"levelo_inurba_marseille","lat":43.27491,"lon":5.42454,"is_reserved":false,"is_disabled":false,"rental_uris":{"android":"levelo://app?vid=bd6ebf9e-fa2f-443f-8aaa-f60651c57d1a","ios":"levelo://app?vid=bd6ebf9e-fa2f-443f-8aaa-f60651c57d1a"},"vehicle_type_id":"4","last_reported":1745994015,"current_range_meters":23200,"station_id":"ce4bhn92rcd13ifvqgrg","pricing_plan_id":"cebpf4jnsgd1na2vs0mg"},{"bike_id":"6090ecf1-d2f7-4436-a36f-d00d46245afa","system_id":"levelo_inurba_marseille","lat":43.30473,"lon":5.37912,"is_reserved":false,"is_disabled":false,"rental_uris":{"android":"levelo://app?vid=6090ecf1-d2f7-4436-a36f-d00d46245afa","ios":"levelo://app?vid=6090ecf1-d2f7-4436-a36f-d00d46245afa"},"vehicle_type_id":"4","last_reported":1745994015,"current_range_meters":23200,"station_id":"ce4bgup2rcd13ifvqcn0","pricing_plan_id":"cebpf4jnsgd1na2vs0mg"},