{"last_updated":1744391291,"ttl":60,"version":"2.2","data":{"bikes":[{"bike_id":"4844b22e-3f1f-43a9-b39e-9a8d6ad25310","system_id":"levelo_inurba_marseille","lat":43.27917,"lon":5.3958,"is_reserved":false,"is_disabled":false,"rental_uris":{"android":"levelo://app?vid=4844b22e-3f1f-43a9-b39e-9a8d6ad25310","ios":"levelo://app?vid=4844b22e-3f1f-43a9-b39e-9a8d6ad25310"},"vehicle_type_id":"4","last_reported":1744391291,"current_range_meters":2800,"station_id":"ce4bhf92rcd13ifvqf40","pricing_plan_id":"cebpf4jnsgd1na2vs0mg"},{"bike_id":"7a7dd723-c2c6-460a-a28e-4820ee4cbcb2","system_id":"levelo_inurba_marseille","lat":43.22926,"lon":5.35375,"is_reserved":false,"is_disabled":false,"rental_uris":{"android":"levelo://app?vid=7a7dd723-c2c6-460a-a28e-4820ee4cbcb2","ios":"levelo://app?vid=7a7dd723-c2c6-460a-a28e-4820ee4cbcb2"},"vehicle_type_id":"4","last_reported":1744391291,"current_range_meters":2800,"station_id":"cpo3532slgdg3j2ikp40","pricing_plan_id":"cebpf4jnsgd1na2vs0mg"},{"bike_id":"3f08cc69-711e-4264-b923-68891203ffa4","system_id":"levelo_inurba_marseille","lat":43.32291,"lon":5.38274,"is_reserved":false,"is_disabled":false,"rental_uris":{"android":"levelo://app?vid=3f08cc69-711e-4264-b923-68891203ffa4","ios":"levelo://app?vid=3f08cc69-711e-4264-b923-68891203ffa4"},"vehicle_type_id":"4","last_reported":1744391291,"current_range_meters":2800,"station_id":"ce4bhr12rcd13ifvqhqg","pricing_plan_id":"cebpf4jnsgd1na2vs0mg"},{"bike_id":"3e0b1b9b-9737-4c4c-96e1-5711b0c9fd95","system_id":"levelo_inurba_marseille","lat":43.25501,"lon":5.37646,"is_reserved":false,"is_disabled":false,"rental_uris":{"android":"levelo://app?vid=3e0b1b9b-9737-4c4c-96e1-5711b0c9fd95","ios":"levelo://app?vid=3e0b1b9b-9737-4c4c-96e1-5711b0c9fd95"},"vehicle_type_id":"4","last_reported":1744391291,"current_range_meters":2800,"station_id":"ce4bhh12rcd13ifvqff0","pricing_plan_id":"cebpf4jnsgd1na2vs0mg"},{"bike_id":"1cd9e41c-9253-4f58-b924-e6ae2355cb59","system_id":"levelo_inurba_marseille","lat":43.26945,"lon":5.40255,"is_reserved":false,"is_disabled":false,"rental_uris":{"android":"levelo://app?vid=1cd9e41c-9253-4f58-b924-e6ae2355cb59","ios":"levelo://app?vid=1cd9e41c-9253-4f58-b924-e6ae2355cb59"},"vehicle_type_id":"4","last_reported":1744391291,"current_range_meters":2800,"station_id":"cjm6bp8fraef2m0cb0m0","pricing_plan_id":"cebpf4jnsgd1na2vs0mg"},{"bike_id":"0cd5e0c8-561e-423e-96e9-a633275dfe84","system_id":"levelo_inurba_marseille","lat":43.24391,"lon":5.37054,"is_reserved":false,"is_disabled":false,"rental_uris":{"android":"levelo://app?vid=0cd5e0c8-561e-423e-96e9-a633275dfe84","ios":"levelo://app?vid=0cd5e0c8-561e-423e-96e9-a633275dfe84"},"vehicle_type_id":"4","last_reported":1744391291,"current_range_meters":2000,"station_id":"ce4bhhh2rcd13ifvqfk0","pricing_plan_id":"cebpf4jnsgd1na2vs0mg"},{"bike_id":"ee7af59a-3ac5-4464-8884-84222a0c2b2b","system_id":"levelo_inurba_marseille","lat":43.28485,"lon":5.38414,"is_reserved":false,"is_disabled":false,"rental_uris":{"android":"levelo://app?vid=ee7af59a-3ac5-4464-8884-84222a0c2b2b","ios":"levelo://app?vid=ee7af59a-3ac5-4464-8884-84222a0c2b2b"},"vehicle_type_id":"4","last_reported":1744391291,"current_range_meters":2000,"station_id":"ce4bh512rcd13ifvqe3g","pricing_plan_id":"cebpf4jnsgd1na2vs0mg"},{"bike_id":"640cde4b-8e0d-41f8-b956-9730a1693914","system_id":"levelo_inurba_marseille","lat":43.30934,"lon":5.40147,"is_reserved":false,"is_disabled":false,"rental_uris":{"android":"levelo://app?vid=640cde4b-8e0d-41f8-b956-9730a1693914","ios":"levelo://app?vid=640cde4b-8e0d-41f8-b956-9730a1693914"},"vehicle_type_id":"4","last_reported":1744391291,"current_range_meters":2800,"station_id":"ce4bgvp2rcd13ifvqct0","pricing_plan_id":"cebpf4jnsgd1na2vs0mg"},{"bike_id":"2473c15b-4b9a-49de-a7b1-b9bf75929d22","system_id":"levelo_inurba_marseille","lat":43.30797,"lon":5.37641,"is_reserved":false,"is_disabled":false,"rental_uris":{"android":"levelo://app?vid=2473c15b-4b9a-49de-a7b1-b9bf75929d22","ios":"levelo://app?vid=2473c15b-4b9a-49de-a7b1-b9bf75929d22"},"vehicle_type_id":"4","last_reported":1744391291,"current_range_meters":2800,"station_id":"ce4bgv92rcd13ifvqcq0","pricing_plan_id":"cebpf4jnsgd1na2vs0mg"},{"bike_id":"e9d780e7-9fa4-4b71-add7-ca3b6e91d181","system_id":"levelo_inurba_marseille","lat":43.2962,"lon":5.381,"is_reserved":false,"is_disabled":false,"rental_uris":{"android":"levelo://app?vid=e9d780e7-9fa4-4b71-add7-ca3b6e91d181","ios":"levelo://app?vid=e9d780e7-9fa4-4b71-add7-ca3b6e91d181"},"vehicle_type_id":"4","last_reported":1744391291,"current_range_meters":3200,"station_id":"ce4bgl12rcd13ifvqbo0","pricing_plan_id":"cebpf4jnsgd1na2vs0mg"},{"bike_id":"2a7270cf-edd9-4f78-8812-7e6ff58bf801","system_id":"levelo_inurba_marseille","lat":43.28725,"lon":5.37956,"is_reserved":false,"is_disabled":false,"rental_uris":{"android":"levelo://app?vid=2a7270cf-edd9-4f78-8812-7e6ff58bf801","ios":"levelo://app?vid=2a7270cf-edd9-4f78-8812-7e6ff58bf801"},"vehicle_type_id":"4","last_reported":1744391291,"current_range_meters":2800,"station_id":"ce4bh9p2rcd13ifvqec0","pricing_plan_id":"cebpf4jnsgd1na2vs0mg"},{"bike_id":"65e62ffb-e702-4276-8e84-495c3c02554e","system_id":"levelo_inurba_marseille","lat":43.30422,"lon":5.41283,"is_reserved":false,"is_disabled":false,"rental_uris":{"android":"levelo://app?vid=65e62ffb-e702-4276-8e84-495c3c02554e","ios":"levelo://app?vid=65e62ffb-e702-4276-8e84-495c3c02554e"},"vehicle_type_id":"4","last_reported":1744391291,"current_range_meters":3600,"station_id":"ce4bhop2rcd13ifvqh8g","pricing_plan_id":"cebpf4jnsgd1na2vs0mg"},{"bike_id":"4f911ee9-f788-430a-8693-3f9ae2624813","system_id":"levelo_inurba_marseille","lat":43.30121,"lon":5.39855,"is_reserved":false,"is_disabled":false,"rental_uris":{"android":"levelo://app?vid=4f911ee9-f788-430a-8693-3f9ae2624813","ios":"levelo://app?vid=4f911ee9-f788-430a-8693-3f9ae2624813"},"vehicle_type_id":"4","last_reported":1744391291,"current_range_meters":3600,"station_id":"ce4bh0h2rcd13ifvqd40","pricing_plan_id":"cebpf4jnsgd1na2vs0mg"},{"bike_id":"83c132b1-a954-4d5a-a32d-9f99af4faa3c","system_id":"levelo_inurba_marseille","lat":43.30962,"lon":5.41518,"is_reserved":false,"is_disabled":false,"rental_uris":{"android":"levelo://app?vid=83c132b1-a954-4d5a-a32d-9f99af4faa3c","ios":"levelo://app?vid=83c132b1-a954-4d5a-a32d-9f99af4faa3c"},"vehicle_type_id":"4","last_reported":1744391291,"current_range_meters":3600,"station_id":"","pricing_plan_id":"cebpf4jnsgd1na2vs0mg"},{"bike_id":"cfc16686-5a98-4d42-8716-993e859545a9","system_id":"levelo_inurba_marseille","lat":43.24997,"lon":5.38935,"is_reserved":false,"is_disabled":false,"rental_uris":{"android":"levelo://app?vid=cfc16686-5a98-4d42-8716-993e859545a9","ios":"levelo://app?vid=cfc16686-5a98-4d42-8716-993e859545a9"},"vehicle_type_id":"4","last_reported":1744391291,"current_range_meters":3600,"station_id":"ce4bhgp2rcd13ifvqfd0","pricing_plan_id":"cebpf4jnsgd1na2vs0mg"},{"bike_id":"22931b78-145e-47be-91ea-cdb66eefaaee","system_id":"levelo_inurba_marseille","lat":43.28478,"lon":5.35871,"is_reserved":false,"is_disabled":false,"rental_uris":{"android":"levelo://app?vid=22931b78-145e-47be-91ea-cdb66eefaaee","ios":"levelo://app?vid=22931b78-145e-47be-91ea-cdb66eefaaee"},"vehicle_type_id":"4","last_reported":1744391291,"current_range_meters":3600,"station_id":"ce4bhah2rcd13ifvqei0","pricing_plan_id":"cebpf4jnsgd1na2vs0mg"},{"bike_id":"78ddbf37-6112-4d6f-bb16-9a70c3df89b8","system_id":"levelo_inurba_marseille","lat":43.24647,"lon":5.38895,"is_reserved":false,"is_disabled":false,"rental_uris":{"android":"levelo://app?vid=78ddbf37-6112-4d6f-bb16-9a70c3df89b8","ios":"levelo://app?vid=78ddbf37-6112-4d6f-bb16-9a70c3df89b8"},"vehicle_type_id":"4","last_reported":1744391291,"current_range_meters":3600,"station_id":"ce4bhg12rcd13ifvqf60","pricing_plan_id":"cebpf4jnsgd1na2vs0mg"},{"bike_id":"33a7ae22-76e3-4de7-98a2-e49d9b16ff19","system_id":"levelo_inurba_marseille","lat":43.28704,"lon":5.37382,"is_reserved":false,"is_disabled":false,"rental_uris":{"android":"levelo://app?vid=33a7ae22-76e3-4de7-98a2-e49d9b16ff19","ios":"levelo://app?vid=33a7ae22-76e3-4de7-98a2-e49d9b16ff19"},"vehicle_type_id":"4","last_reported":1744391291,"current_range_meters":3600,"station_id":"ce4bh3p2rcd13ifvqdq0","pricing_plan_id":"cebpf4jnsgd1na2vs0mg"},{"bike_id":"8876bb6f-718b-4e2b-a641-425e19acc0fc","system_id":"levelo_inurba_marseille","lat":43.27368,"lon":5.421927,"is_reserved":false,"is_disabled":false,"rental_uris":{"android":"levelo://app?vid=8876bb6f-718b-4e2b-a641-425e19acc0fc","ios":"levelo://app?vid=8876bb6f-718b-4e2b-a641-425e19acc0fc"},"vehicle_type_id":"4","last_reported":1744391291,"current_range_meters":3600,"station_id":"","pricing_plan_id":"cebpf4jnsgd1na2vs0mg"},{"bike_id":"2c7fc5a3-43b7-4761-b4e7-5c7202bae636","system_id":"levelo_inurba_marseille","lat":43.234753,"lon":5.360104,"is_reserved":false,"is_disabled":false,"rental_uris":{"android":"levelo://app?vid=2c7fc5a3-43b7-4761-b4e7-5c7202bae636","ios":"levelo://app?vid=2c7fc5a3-43b7-4761-b4e7-5c7202bae636"},"vehicle_type_id":"4","last_reported":1744391291,"current_range_meters":4000,"station_id":"ce4bhi12rcd13ifvqfp0","pricing_plan_id":"cebpf4jnsgd1na2vs0mg"},{"bike_id":"33e96e1f-891d-4e72-8c55-4b25fcf60ced","system_id":"levelo_inurba_marseille","lat":43.28581,"lon":5.387803,"is_reserved":false,"is_disabled":false,"rental_uris":{"android":"levelo://app?vid=33e96e1f-891d-4e72-8c55-4b25fcf60ced","ios":"levelo://app?vid=33e96e1f-891d-4e72-8c55-4b25fcf60ced"},"vehicle_type_id":"4","last_reported":1744391291,"current_range_meters":4000,"station_id":"ce4bh492rcd13ifvqdug","pricing_plan_id":"cebpf4jnsgd1na2vs0mg"},{"bike_id":"45874848-fc0f-4309-8a75-5b1b4e6b1cd8","system_id":"levelo_inurba_marseille","lat":43.28702,"lon":5.37401,"is_reserved":false,"is_disabled":false,"rental_uris":{"android":"levelo://app?vid=45874848-fc0f-4309-8a75-5b1b4e6b1cd8","ios":"levelo://app?vid=45874848-fc0f-4309-8a75-5b1b4e6b1cd8"},"vehicle_type_id":"4","last_reported":1744391291,"current_range_meters":4000,"station_id":"ce4bh3p2rcd13ifvqdq0","pricing_plan_id":"cebpf4jnsgd1na2vs0mg"},{"bike_id":"366cd471-6749-43a8-a900-29237adf66af","system_id":"levelo_inurba_marseille","lat":43.30948,"lon":5.39036,"is_reserved":false,"is_disabled":false,"rental_uris":{"android":"levelo://app?vid=366cd471-6749-43a8-a900-29237adf66af","ios":"levelo://app?vid=366cd471-6749-43a8-a900-29237adf66af"},"vehicle_type_id":"4","last_reported":1744391291,"current_range_meters":4000,"station_id":"ce4bgup2rcd13ifvqco0","pricing_plan_id":"cebpf4jnsgd1na2vs0mg"},{"bike_id":"ba3480d0-59c4-46fe-942d-c684c56787ae","system_id":"levelo_inurba_marseille","lat":43.291,"lon":5.38125,"is_reserved":false,"is_disabled":false,"rental_uris":{"android":"levelo://app?vid=ba3480d0-59c4-46fe-942d-c684c56787ae","ios":"levelo://app?vid=ba3480d0-59c4-46fe-942d-c684c56787ae"},"vehicle_type_id":"4","last_reported":1744391291,"current_range_meters":3600,"station_id":"ce4bh512rcd13ifvqe2g","pricing_plan_id":"cebpf4jnsgd1na2vs0mg"},{"bike_id":"adfabbc8-a1be-4724-af85-acd281dccc54","system_id":"levelo_inurba_marseille","lat":43.28154,"lon":5.42656,"is_reserved":false,"is_disabled":false,"rental_uris":{"android":"levelo://app?vid=adfabbc8-a1be-4724-af85-acd281dccc54","ios":"levelo://app?vid=adfabbc8-a1be-4724-af85-acd281dccc54"},"vehicle_type_id":"4","last_reported":1744391291,"current_range_meters":4000,"station_id":"ce4bhnh2rcd13ifvqgug","pricing_plan_id":"cebpf4jnsgd1na2vs0mg"},{"bike_id":"5d8b94c1-d4e8-4143-91bf-3946f06e00a0","system_id":"levelo_inurba_marseille","lat":43.30217,"lon":5.39462,"is_reserved":false,"is_disabled":false,"rental_uris":{"android":"levelo://app?vid=5d8b94c1-d4e8-4143-91bf-3946f06e00a0","ios":"levelo://app?vid=5d8b94c1-d4e8-4143-91bf-3946f06e00a0"},"vehicle_type_id":"4","last_reported":1744391291,"current_range_meters":3600,"station_id":"ce4bh0p2rcd13ifvqd70","pricing_plan_id":"cebpf4jnsgd1na2vs0mg"},{"bike_id":"46238671-5733-445b-959e-4ea105e64738","system_id":"levelo_inurba_marseille","lat":43.287205,"lon":5.379384,"is_reserved":false,"is_disabled":false,"rental_uris":{"android":"levelo://app?vid=46238671-5733-445b-959e-4ea105e64738","ios":"levelo://app?vid=46238671-5733-445b-959e-4ea105e64738"},"vehicle_type_id":"4","last_reported":1744391291,"current_range_meters":4000,"station_id":"ce4bhi12rcd13ifvqfp0","pricing_plan_id":"cebpf4jnsgd1na2vs0mg"},{"bike_id":"cf266fca-fc25-4b68-a694-de008f64b2e8","system_id":"levelo_inurba_marseille","lat":43.29631,"lon":5.37735,"is_reserved":false,"is_disabled":false,"rental_uris":{"android":"levelo://app?vid=cf266fca-fc25-4b68-a694-de008f64b2e8","ios":"levelo://app?vid=cf266fca-fc25-4b68-a694-de008f64b2e8"},"vehicle_type_id":"4","last_reported":1744391291,"current_range_meters":3600,"station_id":"ce4bgi92rcd13ifvqb90","pricing_plan_id":"cebpf4jnsgd1na2vs0mg"},{"bike_id":"95a2b4ee-05ec-450c-bc10-ad107ae1dc38","system_id":"levelo_inurba_marseille","lat":43.28945,"lon":5.36391,"is_reserved":false,"is_disabled":false,"rental_uris":{"android":"levelo://app?vid=95a2b4ee-05ec-450c-bc10-ad107ae1dc38","ios":"levelo://app?vid=95a2b4ee-05ec-450c-bc10-ad107ae1dc38"},"vehicle_type_id":"4","last_reported":1744391291,"current_range_meters":4000,"station_id":"ce4bhc92rcd13ifvqetg","pricing_plan_id":"cebpf4jnsgd1na2vs0mg"},{"bike_id":"6504c716-7931-4e5d-9b6d-7dfe3b5a5622","system_id":"levelo_inurba_marseille","lat":43.29198,"lon":5.3581,"is_reserved":false,"is_disabled":false,"rental_uris":{"android":"levelo://app?vid=6504c716-7931-4e5d-9b6d-7dfe3b5a5622","ios":"levelo://app?vid=6504c716-7931-4e5d-9b6d-7dfe3b5a5622"},"vehicle_type_id":"4","last_reported":1744391291,"current_range_meters":4400,"station_id":"ce4bhb12rcd13ifvqel0","pricing_plan_id":"cebpf4jnsgd1na2vs0mg"},{"bike_id":"42545aef-a585-4649-9d9c-f379988f4431","system_id":"levelo_inurba_marseille","lat":43.30246,"lon":5.40062,"is_reserved":false,"is_disabled":false,"rental_uris":{"android":"levelo://app?vid=42545aef-a585-4649-9d9c-f379988f4431","ios":"levelo://app?vid=42545aef-a585-4649-9d9c-f379988f4431"},"vehicle_type_id":"4","last_reported":1744391291,"current_range_meters":4000,"station_id":"ce4bgvh2rcd13ifvqcs0","pricing_plan_id":"cebpf4jnsgd1na2vs0mg"},{"bike_id":"57dc5e53-3625-44d9-b285-1632a12e9c9a","system_id":"levelo_inurba_marseille","lat":43.3089,"lon":5.39646,"is_reserved":false,"is_disabled":false,"rental_uris":{"android":"levelo://app?vid=57dc5e53-3625-44d9-b285-1632a12e9c9a","ios":"levelo://app?vid=57dc5e53-3625-44d9-b285-1632a12e9c9a"},"vehicle_type_id":"4","last_reported":1744391291,"current_range_meters":4400,"station_id":"ce4bh012rcd13ifvqcv0","pricing_plan_id":"cebpf4jnsgd1na2vs0mg"},{"bike_id":"026f541e-a93c-4c9b-bd4c-3da1aa2e5075","system_id":"levelo_inurba_marseille","lat":43.30959,"lon":5.390405,"is_reserved":false,"is_disabled":false,"rental_uris":{"android":"levelo://app?vid=026f541e-a93c-4c9b-bd4c-3da1aa2e5075","ios":"levelo://app?vid=026f541e-a93c-4c9b-bd4c-3da1aa2e5075"},"vehicle_type_id":"4","last_reported":1744391291,"current_range_meters":4400,"station_id":"ce4bgup2rcd13ifvqco0","pricing_plan_id":"cebpf4jnsgd1na2vs0mg"},{"bike_id":"dd9e4b33-3724-4ca7-8c7b-0dde35ee4aee","system_id":"levelo_inurba_marseille","lat":43.28404,"lon":5.34986,"is_reserved":false,"is_disabled":false,"rental_uris":{"android":"levelo://app?vid=dd9e4b33-3724-4ca7-8c7b-0dde35ee4aee","ios":"levelo://app?vid=dd9e4b33-3724-4ca7-8c7b-0dde35ee4aee"},"vehicle_type_id":"4","last_reported":1744391291,"current_range_meters":4400,"station_id":"ce4bhbh2rcd13ifvqepg","pricing_plan_id":"cebpf4jnsgd1na2vs0mg"},{"bike_id":"3cc81d4e-a94e-4aaa-a74b-4e92eab78f8e","system_id":"levelo_inurba_marseille","lat":43.28138,"lon":5.42665,"is_reserved":false,"is_disabled":false,"rental_uris":{"android":"levelo://app?vid=3cc81d4e-a94e-4aaa-a74b-4e92eab78f8e","ios":"levelo://app?vid=3cc81d4e-a94e-4aaa-a74b-4e92eab78f8e"},"vehicle_type_id":"4","last_reported":1744391291,"current_range_meters":4800,"station_id":"ce4bhnh2rcd13ifvqgug","pricing_plan_id":"cebpf4jnsgd1na2vs0mg"},{"bike_id":"f70592b8-9ba0-4737-bd8a-d0c1e4f4ea30","system_id":"levelo_inurba_marseille","lat":43.29008,"lon":5.35606,"is_reserved":false,"is_disabled":false,"rental_uris":{"android":"levelo://app?vid=f70592b8-9ba0-4737-bd8a-d0c1e4f4ea30","ios":"levelo://app?vid=f70592b8-9ba0-4737-bd8a-d0c1e4f4ea30"},"vehicle_type_id":"4","last_reported":1744391291,"current_range_meters":4400,"station_id":"ce4bhb92rcd13ifvqen0","pricing_plan_id":"cebpf4jnsgd1na2vs0mg"},{"bike_id":"5a880db4-8914-4593-822f-d464ece82057","system_id":"levelo_inurba_marseille","lat":43.31087,"lon":5.38343,"is_reserved":false,"is_disabled":false,"rental_uris":{"android":"levelo://app?vid=5a880db4-8914-4593-822f-d464ece82057","ios":"levelo://app?vid=5a880db4-8914-4593-822f-d464ece82057"},"vehicle_type_id":"4","last_reported":1744391291,"current_range_meters":4800,"station_id":"ce4bgv92rcd13ifvqcr0","pricing_plan_id":"cebpf4jnsgd1na2vs0mg"},{"bike_id":"978195ec-f75e-4744-b823-64834b4995c8","system_id":"levelo_inurba_marseille","lat":43.2923,"lon":5.36072,"is_reserved":false,"is_disabled":false,"rental_uris":{"android":"levelo://app?vid=978195ec-f75e-4744-b823-64834b4995c8","ios":"levelo://app?vid=978195ec-f75e-4744-b823-64834b4995c8"},"vehicle_type_id":"4","last_reported":1744391291,"current_range_meters":4800,"station_id":"ce4bhbh2rcd13ifvqeqg","pricing_plan_id":"cebpf4jnsgd1na2vs0mg"},{"bike_id":"31cb811d-98fe-4b2c-ba15-28a3466589ed","system_id":"levelo_inurba_marseille","lat":43.24806,"lon":5.37461,"is_reserved":false,"is_disabled":false,"rental_uris":{"android":"levelo://app?vid=31cb811d-98fe-4b2c-ba15-28a3466589ed","ios":"levelo://app?vid=31cb811d-98fe-4b2c-ba15-28a3466589ed"},"vehicle_type_id":"4","last_reported":1744391291,"current_range_meters":4400,"station_id":"ce4bhgh2rcd13ifvqfb0","pricing_plan_id":"cebpf4jnsgd1na2vs0mg"},{"bike_id":"327dbbab-a5b4-4f4d-9548-650d61c0792a","system_id":"levelo_inurba_marseille","lat":43.25496,"lon":5.37642,"is_reserved":false,"is_disabled":false,"rental_uris":{"android":"levelo://app?vid=327dbbab-a5b4-4f4d-9548-650d61c0792a","ios":"levelo://app?vid=327dbbab-a5b4-4f4d-9548-650d61c0792a"},"vehicle_type_id":"4","last_reported":1744391291,"current_range_meters":4800,"station_id":"ce4bhh12rcd13ifvqff0","pricing_plan_id":"cebpf4jnsgd1na2vs0mg"},{"bike_id":"684eda09-d981-4549-b9bd-f757113ef132","system_id":"levelo_inurba_marseille","lat":43.28418,"lon":5.34992,"is_reserved":false,"is_disabled":false,"rental_uris":{"android":"levelo://app?vid=684eda09-d981-4549-b9bd-f757113ef132","ios":"levelo://app?vid=684eda09-d981-4549-b9bd-f757113ef132"},"vehicle_type_id":"4","last_reported":1744391291,"current_range_meters":0,"station_id":"ce4bhbh2rcd13ifvqepg","pricing_plan_id":"cebpf4jnsgd1na2vs0mg"},{"bike_id":"4a5f9e97-9f5d-4705-abfb-9468e8bd888d","system_id":"levelo_inurba_marseille","lat":43.29226,"lon":5.36062,"is_reserved":false,"is_disabled":false,"rental_uris":{"android":"levelo://app?vid=4a5f9e97-9f5d-4705-abfb-9468e8bd888d","ios":"levelo://app?vid=4a5f9e97-9f5d-4705-abfb-9468e8bd888d"},"vehicle_type_id":"4","last_reported":1744391291,"current_range_meters":4800,"station_id":"ce4bhbh2rcd13ifvqeqg","pricing_plan_id":"cebpf4jnsgd1na2vs0mg"},{"bike_id":"52971491-6343-4b2a-9641-f2de980d9420","system_id":"levelo_inurba_marseille","lat":43.30416,"lon":5.41293,"is_reserved":false,"is_disabled":false,"rental_uris":{"android":"levelo://app?vid=52971491-6343-4b2a-9641-f2de980d9420","ios":"levelo://app?vid=52971491-6343-4b2a-9641-f2de980d9420"},"vehicle_type_id":"4","last_reported":1744391291,"current_range_meters":4800,"station_id":"ce4bhop2rcd13ifvqh8g","pricing_plan_id":"cebpf4jnsgd1na2vs0mg"},{"bike_id":"9163081c-c1f1-40e9-ae34-9fc502a0fd8b","system_id":"levelo_inurba_marseille","lat":43.23964,"lon":5.36629,"is_reserved":false,"is_disabled":false,"rental_uris":{"android":"levelo://app?vid=9163081c-c1f1-40e9-ae34-9fc502a0fd8b","ios":"levelo://app?vid=9163081c-c1f1-40e9-ae34-9fc502a0fd8b"},"vehicle_type_id":"4","last_reported":1744391291,"current_range_meters":4800,"station_id":"ce4bhi12rcd13ifvqfp0","pricing_plan_id":"cebpf4jnsgd1na2vs0mg"},{"bike_id":"4a3e0919-27c2-445a-a961-2bd3243a227d","system_id":"levelo_inurba_marseille","lat":43.31629,"lon":5.37353,"is_reserved":false,"is_disabled":false,"rental_uris":{"android":"levelo://app?vid=4a3e0919-27c2-445a-a961-2bd3243a227d","ios":"levelo://app?vid=4a3e0919-27c2-445a-a961-2bd3243a227d"},"vehicle_type_id":"4","last_reported":1744391291,"current_range_meters":5600,"station_id":"","pricing_plan_id":"cebpf4jnsgd1na2vs0mg"},{"bike_id":"83ea06aa-e675-429d-9520-2cc013f63df2","system_id":"levelo_inurba_marseille","lat":43.25498,"lon":5.37631,"is_reserved":false,"is_disabled":false,"rental_uris":{"android":"levelo://app?vid=83ea06aa-e675-429d-9520-2cc013f63df2","ios":"levelo://app?vid=83ea06aa-e675-429d-9520-2cc013f63df2"},"vehicle_type_id":"4","last_reported":1744391291,"current_range_meters":5600,"station_id":"ce4bhh12rcd13ifvqff0","pricing_plan_id":"cebpf4jnsgd1na2vs0mg"},{"bike_id":"b2763042-594b-4928-bf44-982565cd6a34","system_id":"levelo_inurba_marseille","lat":43.28947,"lon":5.3638,"is_reserved":false,"is_disabled":false,"rental_uris":{"android":"levelo://app?vid=b2763042-594b-4928-bf44-982565cd6a34","ios":"levelo://app?vid=b2763042-594b-4928-bf44-982565cd6a34"},"vehicle_type_id":"4","last_reported":1744391291,"current_range_meters":5600,"station_id":"ce4bhc92rcd13ifvqetg","pricing_plan_id":"cebpf4jnsgd1na2vs0mg"},{"bike_id":"14e9d228-910c-41cb-96fc-eae22c7befb3","system_id":"levelo_inurba_marseille","lat":43.273743,"lon":5.36261,"is_reserved":false,"is_disabled":false,"rental_uris":{"android":"levelo://app?vid=14e9d228-910c-41cb-96fc-eae22c7befb3","ios":"levelo://app?vid=14e9d228-910c-41cb-96fc-eae22c7befb3"},"vehicle_type_id":"4","last_reported":1744391291,"current_range_meters":5600,"station_id":"ce4bhbh2rcd13ifvqeo0","pricing_plan_id":"cebpf4jnsgd1na2vs0mg"},{"bike_id":"43e7c19a-c036-499b-bed9-0d0e6218e914","system_id":"levelo_inurba_marseille","lat":43.27905,"lon":5.38024,"is_reserved":false,"is_disabled":false,"rental_uris":{"android":"levelo://app?vid=43e7c19a-c036-499b-bed9-0d0e6218e914","ios":"levelo://app?vid=43e7c19a-c036-499b-bed9-0d0e6218e914"},"vehicle_type_id":"4","last_reported":1744391291,"current_range_meters":4800,"station_id":"ce4bhf92rcd13ifvqf50","pricing_plan_id":"cebpf4jnsgd1na2vs0mg"},{"bike_id":"f787b396-ce61-49da-b414-d7cba9adaebf","system_id":"levelo_inurba_marseille","lat":43.279306,"lon":5.384118,"is_reserved":false,"is_disabled":false,"rental_uris":{"android":"levelo://app?vid=f787b396-ce61-49da-b414-d7cba9adaebf","ios":"levelo://app?vid=f787b396-ce61-49da-b414-d7cba9adaebf"},"vehicle_type_id":"4","last_reported":1744391291,"current_range_meters":5600,"station_id":"ce4bh692rcd13ifvqe90","pricing_plan_id":"cebpf4jnsgd1na2vs0mg"},{"bike_id":"7a6e8f0c-c596-4ad2-a2ea-d787e7d9cdd9","system_id":"levelo_inurba_marseille","lat":43.29521,"lon":5.37501,"is_reserved":false,"is_disabled":false,"rental_uris":{"android":"levelo://app?vid=7a6e8f0c-c596-4ad2-a2ea-d787e7d9cdd9","ios":"levelo://app?vid=7a6e8f0c-c596-4ad2-a2ea-d787e7d9cdd9"},"vehicle_type_id":"4","last_reported":1744391291,"current_range_meters":6000,"station_id":"ce4bgkp2rcd13ifvqbmg","pricing_plan_id":"cebpf4jnsgd1na2vs0mg"},{"bike_id":"b5e153f6-4908-4323-ab0c-601080989d8f","system_id":"levelo_inurba_marseille","lat":43.30241,"lon":5.40042,"is_reserved":false,"is_disabled":false,"rental_uris":{"android":"levelo://app?vid=b5e153f6-4908-4323-ab0c-601080989d8f","ios":"levelo://app?vid=b5e153f6-4908-4323-ab0c-601080989d8f"},"vehicle_type_id":"4","last_reported":1744391291,"current_range_meters":5600,"station_id":"ce4bgvh2rcd13ifvqcs0","pricing_plan_id":"cebpf4jnsgd1na2vs0mg"},{"bike_id":"b8327774-1433-41af-b506-7786ee1389b3","system_id":"levelo_inurba_marseille","lat":43.30927,"lon":5.4015,"is_reserved":false,"is_disabled":false,"rental_uris":{"android":"levelo://app?vid=b8327774-1433-41af-b506-7786ee1389b3","ios":"levelo://app?vid=b8327774-1433-41af-b506-7786ee1389b3"},"vehicle_type_id":"4","last_reported":1744391291,"current_range_meters":6000,"station_id":"ce4bgvp2rcd13ifvqct0","pricing_plan_id":"cebpf4jnsgd1na2vs0mg"},{"bike_id":"c181df98-98e8-4bba-99bf-88e677f6e8c6","system_id":"levelo_inurba_marseille","lat":43.29418,"lon":5.38621,"is_reserved":false,"is_disabled":false,"rental_uris":{"android":"levelo://app?vid=c181df98-98e8-4bba-99bf-88e677f6e8c6","ios":"levelo://app?vid=c181df98-98e8-4bba-99bf-88e677f6e8c6"},"vehicle_type_id":"4","last_reported":1744391291,"current_range_meters":6400,"station_id":"ce4bh2h2rcd13ifvqdh0","pricing_plan_id":"cebpf4jnsgd1na2vs0mg"},{"bike_id":"5a02b85a-27d0-4909-93e7-5d4fad7d964c","system_id":"levelo_inurba_marseille","lat":43.28279,"lon":5.35066,"is_reserved":false,"is_disabled":false,"rental_uris":{"android":"levelo://app?vid=5a02b85a-27d0-4909-93e7-5d4fad7d964c","ios":"levelo://app?vid=5a02b85a-27d0-4909-93e7-5d4fad7d964c"},"vehicle_type_id":"4","last_reported":1744391291,"current_range_meters":6000,"station_id":"ce4bhbp2rcd13ifvqerg","pricing_plan_id":"cebpf4jnsgd1na2vs0mg"},{"bike_id":"3b5d9882-2ca4-4507-b319-dd7527217dd6","system_id":"levelo_inurba_marseille","lat":43.28697,"lon":5.37399,"is_reserved":false,"is_disabled":false,"rental_uris":{"android":"levelo://app?vid=3b5d9882-2ca4-4507-b319-dd7527217dd6","ios":"levelo://app?vid=3b5d9882-2ca4-4507-b319-dd7527217dd6"},"vehicle_type_id":"4","last_reported":1744391291,"current_range_meters":6400,"station_id":"ce4bh3p2rcd13ifvqdq0","pricing_plan_id":"cebpf4jnsgd1na2vs0mg"},{"bike_id":"84e15558-aa1e-4e0c-bce2-c27365ee2cdf","system_id":"levelo_inurba_marseille","lat":43.28086,"lon":5.39644,"is_reserved":false,"is_disabled":false,"rental_uris":{"android":"levelo://app?vid=84e15558-aa1e-4e0c-bce2-c27365ee2cdf","ios":"levelo://app?vid=84e15558-aa1e-4e0c-bce2-c27365ee2cdf"},"vehicle_type_id":"4","last_reported":1744391291,"current_range_meters":6400,"station_id":"ce4bho12rcd13ifvqh2g","pricing_plan_id":"cebpf4jnsgd1na2vs0mg"},{"bike_id":"35d0af0b-25d5-4f7d-a8c2-43aee906699b","system_id":"levelo_inurba_marseille","lat":43.30331,"lon":5.4043,"is_reserved":false,"is_disabled":false,"rental_uris":{"android":"levelo://app?vid=35d0af0b-25d5-4f7d-a8c2-43aee906699b","ios":"levelo://app?vid=35d0af0b-25d5-4f7d-a8c2-43aee906699b"},"vehicle_type_id":"4","last_reported":1744391291,"current_range_meters":6400,"station_id":"ce4bh012rcd13ifvqd10","pricing_plan_id":"cebpf4jnsgd1na2vs0mg"},{"bike_id":"6ff477f7-13bb-49af-ab73-5ed26aedf5e1","system_id":"levelo_inurba_marseille","lat":43.290438,"lon":5.377932,"is_reserved":false,"is_disabled":false,"rental_uris":{"android":"levelo://app?vid=6ff477f7-13bb-49af-ab73-5ed26aedf5e1","ios":"levelo://app?vid=6ff477f7-13bb-49af-ab73-5ed26aedf5e1"},"vehicle_type_id":"4","last_reported":1744391291,"current_range_meters":6400,"station_id":"ce4bh5p2rcd13ifvqe4g","pricing_plan_id":"cebpf4jnsgd1na2vs0mg"},{"bike_id":"dcb90257-d89d-416d-adb9-809c2e5089dd","system_id":"levelo_inurba_marseille","lat":43.303081,"lon":5.404381,"is_reserved":false,"is_disabled":false,"rental_uris":{"android":"levelo://app?vid=dcb90257-d89d-416d-adb9-809c2e5089dd","ios":"levelo://app?vid=dcb90257-d89d-416d-adb9-809c2e5089dd"},"vehicle_type_id":"4","last_reported":1744391291,"current_range_meters":6800,"station_id":"ce4bh012rcd13ifvqd10","pricing_plan_id":"cebpf4jnsgd1na2vs0mg"},{"bike_id":"4ec80400-8ac7-45ec-8af6-68b5dd8f7934","system_id":"levelo_inurba_marseille","lat":43.26559,"lon":5.39009,"is_reserved":false,"is_disabled":false,"rental_uris":{"android":"levelo://app?vid=4ec80400-8ac7-45ec-8af6-68b5dd8f7934","ios":"levelo://app?vid=4ec80400-8ac7-45ec-8af6-68b5dd8f7934"},"vehicle_type_id":"4","last_reported":1744391291,"current_range_meters":6800,"station_id":"ce4bhe12rcd13ifvqf30","pricing_plan_id":"cebpf4jnsgd1na2vs0mg"},{"bike_id":"9c734470-1c91-4591-9a72-40e7b963a4d8","system_id":"levelo_inurba_marseille","lat":43.26688,"lon":5.38272,"is_reserved":false,"is_disabled":false,"rental_uris":{"android":"levelo://app?vid=9c734470-1c91-4591-9a72-40e7b963a4d8","ios":"levelo://app?vid=9c734470-1c91-4591-9a72-40e7b963a4d8"},"vehicle_type_id":"4","last_reported":1744391291,"current_range_meters":6800,"station_id":"ce4bhg92rcd13ifvqf90","pricing_plan_id":"cebpf4jnsgd1na2vs0mg"},{"bike_id":"c9517dfc-4ea7-4127-85c9-2046e9b4311d","system_id":"levelo_inurba_marseille","lat":43.29273,"lon":5.36835,"is_reserved":false,"is_disabled":false,"rental_uris":{"android":"levelo://app?vid=c9517dfc-4ea7-4127-85c9-2046e9b4311d","ios":"levelo://app?vid=c9517dfc-4ea7-4127-85c9-2046e9b4311d"},"vehicle_type_id":"4","last_reported":1744391291,"current_range_meters":7200,"station_id":"ce4bhbp2rcd13ifvqesg","pricing_plan_id":"cebpf4jnsgd1na2vs0mg"},{"bike_id":"32726013-757e-4d24-9225-04536f20d299","system_id":"levelo_inurba_marseille","lat":43.26198,"lon":5.37434,"is_reserved":false,"is_disabled":true,"rental_uris":{"android":"levelo://app?vid=32726013-757e-4d24-9225-04536f20d299","ios":"levelo://app?vid=32726013-757e-4d24-9225-04536f20d299"},"vehicle_type_id":"4","last_reported":1744391291,"current_range_meters":7200,"station_id":"ce4bhgp2rcd13ifvqfc0","pricing_plan_id":"cebpf4jnsgd1na2vs0mg"},{"bike_id":"ac286af7-c4a9-4705-89d0-666bb17c66b7","system_id":"levelo_inurba_marseille","lat":43.231881,"lon":5.355537,"is_reserved":false,"is_disabled":false,"rental_uris":{"android":"levelo://app?vid=ac286af7-c4a9-4705-89d0-666bb17c66b7","ios":"levelo://app?vid=ac286af7-c4a9-4705-89d0-666bb17c66b7"},"vehicle_type_id":"4","last_reported":1744391291,"current_range_meters":6800,"station_id":"ce4bhu92rcd13ifvqi70","pricing_plan_id":"cebpf4jnsgd1na2vs0mg"},{"bike_id":"9b124832-5aac-48fc-ab26-489a32057271","system_id":"levelo_inurba_marseille","lat":43.25504,"lon":5.37645,"is_reserved":false,"is_disabled":true,"rental_uris":{"android":"levelo://app?vid=9b124832-5aac-48fc-ab26-489a32057271","ios":"levelo://app?vid=9b124832-5aac-48fc-ab26-489a32057271"},"vehicle_type_id":"4","last_reported":1744391291,"current_range_meters":7200,"station_id":"ce4bhh12rcd13ifvqff0","pricing_plan_id":"cebpf4jnsgd1na2vs0mg"},{"bike_id":"a9f344a9-b5c4-4c6f-adc4-6177f6c8159a","system_id":"levelo_inurba_marseille","lat":43.32821,"lon":5.39753,"is_reserved":false,"is_disabled":false,"rental_uris":{"android":"levelo://app?vid=a9f344a9-b5c4-4c6f-adc4-6177f6c8159a","ios":"levelo://app?vid=a9f344a9-b5c4-4c6f-adc4-6177f6c8159a"},"vehicle_type_id":"4","last_reported":1744391291,"current_range_meters":7200,"station_id":"","pricing_plan_id":"cebpf4jnsgd1na2vs0mg"},{"bike_id":"6451953a-4110-40b8-84cc-8ad500d649b1","system_id":"levelo_inurba_marseille","lat":43.29524,"lon":5.37492,"is_reserved":false,"is_disabled":false,"rental_uris":{"android":"levelo://app?vid=6451953a-4110-40b8-84cc-8ad500d649b1","ios":"levelo://app?vid=6451953a-4110-40b8-84cc-8ad500d649b1"},"vehicle_type_id":"4","last_reported":1744391291,"current_range_meters":7200,"station_id":"ce4bgkp2rcd13ifvqbmg","pricing_plan_id":"cebpf4jnsgd1na2vs0mg"},{"bike_id":"029c77b5-f0cf-4e9c-9889-38f29b7faa73","system_id":"levelo_inurba_marseille","lat":43.30132,"lon":5.39854,"is_reserved":false,"is_disabled":false,"rental_uris":{"android":"levelo://app?vid=029c77b5-f0cf-4e9c-9889-38f29b7faa73","ios":"levelo://app?vid=029c77b5-f0cf-4e9c-9889-38f29b7faa73"},"vehicle_type_id":"4","last_reported":1744391291,"current_range_meters":8000,"station_id":"ce4bh0h2rcd13ifvqd40","pricing_plan_id":"cebpf4jnsgd1na2vs0mg"},{"bike_id":"abb47800-78da-4d35-92fe-b897d5ec73bb","system_id":"levelo_inurba_marseille","lat":43.29621,"lon":5.37716,"is_reserved":false,"is_disabled":false,"rental_uris":{"android":"levelo://app?vid=abb47800-78da-4d35-92fe-b897d5ec73bb","ios":"levelo://app?vid=abb47800-78da-4d35-92fe-b897d5ec73bb"},"vehicle_type_id":"4","last_reported":1744391291,"current_range_meters":8000,"station_id":"ce4bgi92rcd13ifvqb90","pricing_plan_id":"cebpf4jnsgd1na2vs0mg"},{"bike_id":"9962f82e-16ec-445d-b024-f7f6765bbc3f","system_id":"levelo_inurba_marseille","lat":43.29007,"lon":5.35617,"is_reserved":false,"is_disabled":false,"rental_uris":{"android":"levelo://app?vid=9962f82e-16ec-445d-b024-f7f6765bbc3f","ios":"levelo://app?vid=9962f82e-16ec-445d-b024-f7f6765bbc3f"},"vehicle_type_id":"4","last_reported":1744391291,"current_range_meters":8000,"station_id":"ce4bhb92rcd13ifvqen0","pricing_plan_id":"cebpf4jnsgd1na2vs0mg"},{"bike_id":"aad50321-33f1-427f-8bd2-09a345300797","system_id":"levelo_inurba_marseille","lat":43.29911,"lon":5.38141,"is_reserved":false,"is_disabled":false,"rental_uris":{"android":"levelo://app?vid=aad50321-33f1-427f-8bd2-09a345300797","ios":"levelo://app?vid=aad50321-33f1-427f-8bd2-09a345300797"},"vehicle_type_id":"4","last_reported":1744391291,"current_range_meters":8000,"station_id":"ce4bgj12rcd13ifvqbc0","pricing_plan_id":"cebpf4jnsgd1na2vs0mg"},{"bike_id":"6bb78569-3940-49f8-9cca-ccaf08ccfa87","system_id":"levelo_inurba_marseille","lat":43.27614,"lon":5.3612,"is_reserved":false,"is_disabled":false,"rental_uris":{"android":"levelo://app?vid=6bb78569-3940-49f8-9cca-ccaf08ccfa87","ios":"levelo://app?vid=6bb78569-3940-49f8-9cca-ccaf08ccfa87"},"vehicle_type_id":"4","last_reported":1744391291,"current_range_meters":8000,"station_id":"ce4bgj92rcd13ifvqbe0","pricing_plan_id":"cebpf4jnsgd1na2vs0mg"},{"bike_id":"9bff8c58-a1f7-43e8-ae72-7cedbce5e93a","system_id":"levelo_inurba_marseille","lat":43.29009,"lon":5.35608,"is_reserved":false,"is_disabled":false,"rental_uris":{"android":"levelo://app?vid=9bff8c58-a1f7-43e8-ae72-7cedbce5e93a","ios":"levelo://app?vid=9bff8c58-a1f7-43e8-ae72-7cedbce5e93a"},"vehicle_type_id":"4","last_reported":1744391291,"current_range_meters":8000,"station_id":"ce4bhb92rcd13ifvqen0","pricing_plan_id":"cebpf4jnsgd1na2vs0mg"},{"bike_id":"f3da0e65-4fc4-4ad5-a40b-457194eebf7a","system_id":"levelo_inurba_marseille","lat":43.27564,"lon":5.38428,"is_reserved":false,"is_disabled":false,"rental_uris":{"android":"levelo://app?vid=f3da0e65-4fc4-4ad5-a40b-457194eebf7a","ios":"levelo://app?vid=f3da0e65-4fc4-4ad5-a40b-457194eebf7a"},"vehicle_type_id":"4","last_reported":1744391291,"current_range_meters":8000,"station_id":"ce4bhh92rcd13ifvqfi0","pricing_plan_id":"cebpf4jnsgd1na2vs0mg"},{"bike_id":"1b9b6a79-dfca-4e75-8b04-38e5ef4504cd","system_id":"levelo_inurba_marseille","lat":43.24823,"lon":5.37438,"is_reserved":false,"is_disabled":false,"rental_uris":{"android":"levelo://app?vid=1b9b6a79-dfca-4e75-8b04-38e5ef4504cd","ios":"levelo://app?vid=1b9b6a79-dfca-4e75-8b04-38e5ef4504cd"},"vehicle_type_id":"4","last_reported":1744391291,"current_range_meters":8000,"station_id":"ce4bhgh2rcd13ifvqfb0","pricing_plan_id":"cebpf4jnsgd1na2vs0mg"},{"bike_id":"a8827283-5cb2-4c69-8f92-cabeabffb47c","system_id":"levelo_inurba_marseille","lat":43.24164,"lon":5.36394,"is_reserved":false,"is_disabled":false,"rental_uris":{"android":"levelo://app?vid=a8827283-5cb2-4c69-8f92-cabeabffb47c","ios":"levelo://app?vid=a8827283-5cb2-4c69-8f92-cabeabffb47c"},"vehicle_type_id":"4","last_reported":1744391291,"current_range_meters":8000,"station_id":"cpo36qri1sfpv3e86is0","pricing_plan_id":"cebpf4jnsgd1na2vs0mg"},{"bike_id":"3e728771-04c1-4c4a-9ada-a01eecb98549","system_id":"levelo_inurba_marseille","lat":43.28082,"lon":5.39642,"is_reserved":false,"is_disabled":false,"rental_uris":{"android":"levelo://app?vid=3e728771-04c1-4c4a-9ada-a01eecb98549","ios":"levelo://app?vid=3e728771-04c1-4c4a-9ada-a01eecb98549"},"vehicle_type_id":"4","last_reported":1744391291,"current_range_meters":8000,"station_id":"ce4bho12rcd13ifvqh2g","pricing_plan_id":"cebpf4jnsgd1na2vs0mg"},{"bike_id":"d1de0d02-cad5-473e-84fe-71385aa8dc4b","system_id":"levelo_inurba_marseille","lat":43.273798,"lon":5.362512,"is_reserved":false,"is_disabled":false,"rental_uris":{"android":"levelo://app?vid=d1de0d02-cad5-473e-84fe-71385aa8dc4b","ios":"levelo://app?vid=d1de0d02-cad5-473e-84fe-71385aa8dc4b"},"vehicle_type_id":"4","last_reported":1744391291,"current_range_meters":8400,"station_id":"ce4bhbh2rcd13ifvqeo0","pricing_plan_id":"cebpf4jnsgd1na2vs0mg"},{"bike_id":"fcca2c5c-b473-4878-aafe-d3eb08490fe1","system_id":"levelo_inurba_marseille","lat":43.29008,"lon":5.35598,"is_reserved":false,"is_disabled":false,"rental_uris":{"android":"levelo://app?vid=fcca2c5c-b473-4878-aafe-d3eb08490fe1","ios":"levelo://app?vid=fcca2c5c-b473-4878-aafe-d3eb08490fe1"},"vehicle_type_id":"4","last_reported":1744391291,"current_range_meters":8400,"station_id":"ce4bhb92rcd13ifvqen0","pricing_plan_id":"cebpf4jnsgd1na2vs0mg"},{"bike_id":"3bc42fce-0d78-4dfd-bab4-c8725271085b","system_id":"levelo_inurba_marseille","lat":43.276149,"lon":5.361167,"is_reserved":false,"is_disabled":false,"rental_uris":{"android":"levelo://app?vid=3bc42fce-0d78-4dfd-bab4-c8725271085b","ios":"levelo://app?vid=3bc42fce-0d78-4dfd-bab4-c8725271085b"},"vehicle_type_id":"4","last_reported":1744391291,"current_range_meters":8400,"station_id":"ce4bgj92rcd13ifvqbe0","pricing_plan_id":"cebpf4jnsgd1na2vs0mg"},{"bike_id":"f8e89c04-7870-42f0-b9d7-adeb7c5d5d20","system_id":"levelo_inurba_marseille","lat":43.29313,"lon":5.37461,"is_reserved":false,"is_disabled":false,"rental_uris":{"android":"levelo://app?vid=f8e89c04-7870-42f0-b9d7-adeb7c5d5d20","ios":"levelo://app?vid=f8e89c04-7870-42f0-b9d7-adeb7c5d5d20"},"vehicle_type_id":"4","last_reported":1744391291,"current_range_meters":8000,"station_id":"ce4bgi12rcd13ifvqb70","pricing_plan_id":"cebpf4jnsgd1na2vs0mg"},{"bike_id":"a6767b7a-7b60-43a3-a9f9-89d7c8ecb41f","system_id":"levelo_inurba_marseille","lat":43.27405,"lon":5.36242,"is_reserved":false,"is_disabled":false,"rental_uris":{"android":"levelo://app?vid=a6767b7a-7b60-43a3-a9f9-89d7c8ecb41f","ios":"levelo://app?vid=a6767b7a-7b60-43a3-a9f9-89d7c8ecb41f"},"vehicle_type_id":"4","last_reported":1744391291,"current_range_meters":8400,"station_id":"","pricing_plan_id":"cebpf4jnsgd1na2vs0mg"},{"bike_id":"6534ce38-b353-41b5-b2a3-241f97687723","system_id":"levelo_inurba_marseille","lat":43.29256,"lon":5.38441,"is_reserved":false,"is_disabled":false,"rental_uris":{"android":"levelo://app?vid=6534ce38-b353-41b5-b2a3-241f97687723","ios":"levelo://app?vid=6534ce38-b353-41b5-b2a3-241f97687723"},"vehicle_type_id":"4","last_reported":1744391291,"current_range_meters":8400,"station_id":"ce4bh692rcd13ifvqea0","pricing_plan_id":"cebpf4jnsgd1na2vs0mg"},{"bike_id":"a26f8da4-d8d0-4af2-85e8-558f8322e7d2","system_id":"levelo_inurba_marseille","lat":43.27817,"lon":5.40719,"is_reserved":false,"is_disabled":false,"rental_uris":{"android":"levelo://app?vid=a26f8da4-d8d0-4af2-85e8-558f8322e7d2","ios":"levelo://app?vid=a26f8da4-d8d0-4af2-85e8-558f8322e7d2"},"vehicle_type_id":"4","last_reported":1744391291,"current_range_meters":8400,"station_id":"ce4bhnh2rcd13ifvqgtg","pricing_plan_id":"cebpf4jnsgd1na2vs0mg"},{"bike_id":"9cad5758-6f01-4518-a29b-63a5f484508e","system_id":"levelo_inurba_marseille","lat":43.25511,"lon":5.37613,"is_reserved":false,"is_disabled":false,"rental_uris":{"android":"levelo://app?vid=9cad5758-6f01-4518-a29b-63a5f484508e","ios":"levelo://app?vid=9cad5758-6f01-4518-a29b-63a5f484508e"},"vehicle_type_id":"4","last_reported":1744391291,"current_range_meters":8400,"station_id":"ce4bhh12rcd13ifvqff0","pricing_plan_id":"cebpf4jnsgd1na2vs0mg"},{"bike_id":"e95173bf-5000-423b-8575-6fe8904045e9","system_id":"levelo_inurba_marseille","lat":43.29343,"lon":5.41147,"is_reserved":false,"is_disabled":false,"rental_uris":{"android":"levelo://app?vid=e95173bf-5000-423b-8575-6fe8904045e9","ios":"levelo://app?vid=e95173bf-5000-423b-8575-6fe8904045e9"},"vehicle_type_id":"4","last_reported":1744391291,"current_range_meters":8400,"station_id":"","pricing_plan_id":"cebpf4jnsgd1na2vs0mg"},{"bike_id":"635ff932-fee8-4a5b-87fa-0cab37de5daa","system_id":"levelo_inurba_marseille","lat":43.28441,"lon":5.392,"is_reserved":false,"is_disabled":false,"rental_uris":{"android":"levelo://app?vid=635ff932-fee8-4a5b-87fa-0cab37de5daa","ios":"levelo://app?vid=635ff932-fee8-4a5b-87fa-0cab37de5daa"},"vehicle_type_id":"4","last_reported":1744391291,"current_range_meters":8400,"station_id":"ce4bhoh2rcd13ifvqh5g","pricing_plan_id":"cebpf4jnsgd1na2vs0mg"},{"bike_id":"00056412-f7d0-40d2-8c70-ddd96f23efc7","system_id":"levelo_inurba_marseille","lat":43.28416,"lon":5.34985,"is_reserved":false,"is_disabled":false,"rental_uris":{"android":"levelo://app?vid=00056412-f7d0-40d2-8c70-ddd96f23efc7","ios":"levelo://app?vid=00056412-f7d0-40d2-8c70-ddd96f23efc7"},"vehicle_type_id":"4","last_reported":1744391291,"current_range_meters":8400,"station_id":"ce4bhbh2rcd13ifvqepg","pricing_plan_id":"cebpf4jnsgd1na2vs0mg"},{"bike_id":"4771047e-061a-4917-9143-15778b252b72","system_id":"levelo_inurba_marseille","lat":43.29896,"lon":5.43659,"is_reserved":false,"is_disabled":false,"rental_uris":{"android":"levelo://app?vid=4771047e-061a-4917-9143-15778b252b72","ios":"levelo://app?vid=4771047e-061a-4917-9143-15778b252b72"},"vehicle_type_id":"4","last_reported":1744391291,"current_range_meters":8400,"station_id":"ce4bhpp2rcd13ifvqhfg","pricing_plan_id":"cebpf4jnsgd1na2vs0mg"},{"bike_id":"373a7578-0578-43ac-bbde-2d4ae79c090b","system_id":"levelo_inurba_marseille","lat":43.29535,"lon":5.39032,"is_reserved":false,"is_disabled":false,"rental_uris":{"android":"levelo://app?vid=373a7578-0578-43ac-bbde-2d4ae79c090b","ios":"levelo://app?vid=373a7578-0578-43ac-bbde-2d4ae79c090b"},"vehicle_type_id":"4","last_reported":1744391291,"current_range_meters":8000,"station_id":"ce4bh3p2rcd13ifvqdp0","pricing_plan_id":"cebpf4jnsgd1na2vs0mg"},{"bike_id":"036c5657-0bbe-4aeb-a07b-d0f48cef38c7","system_id":"levelo_inurba_marseille","lat":43.28407,"lon":5.34989,"is_reserved":false,"is_disabled":false,"rental_uris":{"android":"levelo://app?vid=036c5657-0bbe-4aeb-a07b-d0f48cef38c7","ios":"levelo://app?vid=036c5657-0bbe-4aeb-a07b-d0f48cef38c7"},"vehicle_type_id":"4","last_reported":1744391291,"current_range_meters":8400,"station_id":"ce4bhbh2rcd13ifvqepg","pricing_plan_id":"cebpf4jnsgd1na2vs0mg"},{"bike_id":"44692748-126b-4385-a561-603025f4ef1c","system_id":"levelo_inurba_marseille","lat":43.27547,"lon":5.38438,"is_reserved":false,"is_disabled":false,"rental_uris":{"android":"levelo://app?vid=44692748-126b-4385-a561-603025f4ef1c","ios":"levelo://app?vid=44692748-126b-4385-a561-603025f4ef1c"},"vehicle_type_id":"4","last_reported":1744391291,"current_range_meters":8400,"station_id":"ce4bhh92rcd13ifvqfi0","pricing_plan_id":"cebpf4jnsgd1na2vs0mg"},{"bike_id":"f95bbaf2-eb1b-4705-b84a-c182754ca959","system_id":"levelo_inurba_marseille","lat":43.30895,"lon":5.3719,"is_reserved":false,"is_disabled":false,"rental_uris":{"android":"levelo://app?vid=f95bbaf2-eb1b-4705-b84a-c182754ca959","ios":"levelo://app?vid=f95bbaf2-eb1b-4705-b84a-c182754ca959"},"vehicle_type_id":"4","last_reported":1744391291,"current_range_meters":6800,"station_id":"ce4bguh2rcd13ifvqckg","pricing_plan_id":"cebpf4jnsgd1na2vs0mg"},{"bike_id":"629f5387-f4ea-4ff5-8edc-1026cd3b6fa9","system_id":"levelo_inurba_marseille","lat":43.27999,"lon":5.4167,"is_reserved":false,"is_disabled":false,"rental_uris":{"android":"levelo://app?vid=629f5387-f4ea-4ff5-8edc-1026cd3b6fa9","ios":"levelo://app?vid=629f5387-f4ea-4ff5-8edc-1026cd3b6fa9"},"vehicle_type_id":"4","last_reported":1744391291,"current_range_meters":8400,"station_id":"ce4bho12rcd13ifvqh1g","pricing_plan_id":"cebpf4jnsgd1na2vs0mg"},{"bike_id":"f336a813-fe90-43ee-ac18-a056613f4eba","system_id":"levelo_inurba_marseille","lat":43.29004,"lon":5.35607,"is_reserved":false,"is_disabled":false,"rental_uris":{"android":"levelo://app?vid=f336a813-fe90-43ee-ac18-a056613f4eba","ios":"levelo://app?vid=f336a813-fe90-43ee-ac18-a056613f4eba"},"vehicle_type_id":"4","last_reported":1744391291,"current_range_meters":8400,"station_id":"ce4bhb92rcd13ifvqen0","pricing_plan_id":"cebpf4jnsgd1na2vs0mg"},{"bike_id":"918b085c-cba3-40c0-90a0-0be6cdb98c90","system_id":"levelo_inurba_marseille","lat":43.30333,"lon":5.40429,"is_reserved":false,"is_disabled":false,"rental_uris":{"android":"levelo://app?vid=918b085c-cba3-40c0-90a0-0be6cdb98c90","ios":"levelo://app?vid=918b085c-cba3-40c0-90a0-0be6cdb98c90"},"vehicle_type_id":"4","last_reported":1744391291,"current_range_meters":8800,"station_id":"ce4bh012rcd13ifvqd10","pricing_plan_id":"cebpf4jnsgd1na2vs0mg"},{"bike_id":"71166a11-e6ed-4dff-ab83-a8ea6b737b49","system_id":"levelo_inurba_marseille","lat":43.32365,"lon":5.406,"is_reserved":false,"is_disabled":false,"rental_uris":{"android":"levelo://app?vid=71166a11-e6ed-4dff-ab83-a8ea6b737b49","ios":"levelo://app?vid=71166a11-e6ed-4dff-ab83-a8ea6b737b49"},"vehicle_type_id":"4","last_reported":1744391291,"current_range_meters":8800,"station_id":"ce4bhq92rcd13ifvqhjg","pricing_plan_id":"cebpf4jnsgd1na2vs0mg"},{"bike_id":"193367b8-e347-4702-a4b0-b5ec6d08aa99","system_id":"levelo_inurba_marseille","lat":43.31274,"lon":5.40172,"is_reserved":false,"is_disabled":false,"rental_uris":{"android":"levelo://app?vid=193367b8-e347-4702-a4b0-b5ec6d08aa99","ios":"levelo://app?vid=193367b8-e347-4702-a4b0-b5ec6d08aa99"},"vehicle_type_id":"4","last_reported":1744391291,"current_range_meters":8400,"station_id":"ce4bh092rcd13ifvqd30","pricing_plan_id":"cebpf4jnsgd1na2vs0mg"},{"bike_id":"eb4c813d-f8bd-41d6-abd8-b2b1dab6da62","system_id":"levelo_inurba_marseille","lat":43.28411,"lon":5.34981,"is_reserved":false,"is_disabled":false,"rental_uris":{"android":"levelo://app?vid=eb4c813d-f8bd-41d6-abd8-b2b1dab6da62","ios":"levelo://app?vid=eb4c813d-f8bd-41d6-abd8-b2b1dab6da62"},"vehicle_type_id":"4","last_reported":1744391291,"current_range_meters":8800,"station_id":"ce4bhbh2rcd13ifvqepg","pricing_plan_id":"cebpf4jnsgd1na2vs0mg"},{"bike_id":"eab6cbfa-cb8e-47d7-b0d6-226ab7facec7","system_id":"levelo_inurba_marseille","lat":43.31719,"lon":5.42421,"is_reserved":false,"is_disabled":true,"rental_uris":{"android":"levelo://app?vid=eab6cbfa-cb8e-47d7-b0d6-226ab7facec7","ios":"levelo://app?vid=eab6cbfa-cb8e-47d7-b0d6-226ab7facec7"},"vehicle_type_id":"4","last_reported":1744391291,"current_range_meters":8800,"station_id":"ce4bhp92rcd13ifvqhbg","pricing_plan_id":"cebpf4jnsgd1na2vs0mg"},{"bike_id":"dec9bfa2-fff7-4477-adf7-4b3bf50b0ad1","system_id":"levelo_inurba_marseille","lat":43.2873,"lon":5.36081,"is_reserved":false,"is_disabled":false,"rental_uris":{"android":"levelo://app?vid=dec9bfa2-fff7-4477-adf7-4b3bf50b0ad1","ios":"levelo://app?vid=dec9bfa2-fff7-4477-adf7-4b3bf50b0ad1"},"vehicle_type_id":"4","last_reported":1744391291,"current_range_meters":8400,"station_id":"cki0cbj6b192h4jlfktg","pricing_plan_id":"cebpf4jnsgd1na2vs0mg"},{"bike_id":"147eaf06-2213-4017-921a-a25bf64a4ea3","system_id":"levelo_inurba_marseille","lat":43.28041,"lon":5.3695,"is_reserved":false,"is_disabled":false,"rental_uris":{"android":"levelo://app?vid=147eaf06-2213-4017-921a-a25bf64a4ea3","ios":"levelo://app?vid=147eaf06-2213-4017-921a-a25bf64a4ea3"},"vehicle_type_id":"4","last_reported":1744391291,"current_range_meters":8800,"station_id":"ce4bha12rcd13ifvqef0","pricing_plan_id":"cebpf4jnsgd1na2vs0mg"},{"bike_id":"e6a9ee71-9aa9-40e0-9afe-897c88fa9571","system_id":"levelo_inurba_marseille","lat":43.24164,"lon":5.36392,"is_reserved":false,"is_disabled":false,"rental_uris":{"android":"levelo://app?vid=e6a9ee71-9aa9-40e0-9afe-897c88fa9571","ios":"levelo://app?vid=e6a9ee71-9aa9-40e0-9afe-897c88fa9571"},"vehicle_type_id":"4","last_reported":1744391291,"current_range_meters":9200,"station_id":"cpo36qri1sfpv3e86is0","pricing_plan_id":"cebpf4jnsgd1na2vs0mg"},{"bike_id":"4313803f-5d3f-44d9-afb8-3e6e002e0c2c","system_id":"levelo_inurba_marseille","lat":43.27074,"lon":5.42281,"is_reserved":false,"is_disabled":false,"rental_uris":{"android":"levelo://app?vid=4313803f-5d3f-44d9-afb8-3e6e002e0c2c","ios":"levelo://app?vid=4313803f-5d3f-44d9-afb8-3e6e002e0c2c"},"vehicle_type_id":"4","last_reported":1744391291,"current_range_meters":9200,"station_id":"ce4bhk92rcd13ifvqgb0","pricing_plan_id":"cebpf4jnsgd1na2vs0mg"},{"bike_id":"550b9326-8589-44ca-aeb4-9e8c7c387b32","system_id":"levelo_inurba_marseille","lat":43.29011,"lon":5.35607,"is_reserved":false,"is_disabled":false,"rental_uris":{"android":"levelo://app?vid=550b9326-8589-44ca-aeb4-9e8c7c387b32","ios":"levelo://app?vid=550b9326-8589-44ca-aeb4-9e8c7c387b32"},"vehicle_type_id":"4","last_reported":1744391291,"current_range_meters":9200,"station_id":"ce4bhb92rcd13ifvqen0","pricing_plan_id":"cebpf4jnsgd1na2vs0mg"},{"bike_id":"fe45fe7f-615c-415f-9386-7c1c924875ad","system_id":"levelo_inurba_marseille","lat":43.302535,"lon":5.400644,"is_reserved":false,"is_disabled":false,"rental_uris":{"android":"levelo://app?vid=fe45fe7f-615c-415f-9386-7c1c924875ad","ios":"levelo://app?vid=fe45fe7f-615c-415f-9386-7c1c924875ad"},"vehicle_type_id":"4","last_reported":1744391291,"current_range_meters":9200,"station_id":"ce4bh4p2rcd13ifvqe0g","pricing_plan_id":"cebpf4jnsgd1na2vs0mg"},{"bike_id":"08f1667e-107d-48b5-adb4-df7359761c84","system_id":"levelo_inurba_marseille","lat":43.27558,"lon":5.3843,"is_reserved":false,"is_disabled":false,"rental_uris":{"android":"levelo://app?vid=08f1667e-107d-48b5-adb4-df7359761c84","ios":"levelo://app?vid=08f1667e-107d-48b5-adb4-df7359761c84"},"vehicle_type_id":"4","last_reported":1744391291,"current_range_meters":9200,"station_id":"ce4bhh92rcd13ifvqfi0","pricing_plan_id":"cebpf4jnsgd1na2vs0mg"},{"bike_id":"d0dc1ae5-9480-4fc4-8f17-3776b05664c1","system_id":"levelo_inurba_marseille","lat":43.289368,"lon":5.363808,"is_reserved":false,"is_disabled":false,"rental_uris":{"android":"levelo://app?vid=d0dc1ae5-9480-4fc4-8f17-3776b05664c1","ios":"levelo://app?vid=d0dc1ae5-9480-4fc4-8f17-3776b05664c1"},"vehicle_type_id":"4","last_reported":1744391291,"current_range_meters":9600,"station_id":"ce4bhc92rcd13ifvqetg","pricing_plan_id":"cebpf4jnsgd1na2vs0mg"},{"bike_id":"6eedcc86-84d7-4a3a-84bc-07e71a31170c","system_id":"levelo_inurba_marseille","lat":43.31691,"lon":5.40469,"is_reserved":false,"is_disabled":false,"rental_uris":{"android":"levelo://app?vid=6eedcc86-84d7-4a3a-84bc-07e71a31170c","ios":"levelo://app?vid=6eedcc86-84d7-4a3a-84bc-07e71a31170c"},"vehicle_type_id":"4","last_reported":1744391291,"current_range_meters":9600,"station_id":"ce4bh012rcd13ifvqd00","pricing_plan_id":"cebpf4jnsgd1na2vs0mg"},{"bike_id":"bc70bcdf-5446-492a-96fe-623fbc775ae8","system_id":"levelo_inurba_marseille","lat":43.28614,"lon":5.35109,"is_reserved":false,"is_disabled":false,"rental_uris":{"android":"levelo://app?vid=bc70bcdf-5446-492a-96fe-623fbc775ae8","ios":"levelo://app?vid=bc70bcdf-5446-492a-96fe-623fbc775ae8"},"vehicle_type_id":"4","last_reported":1744391291,"current_range_meters":9600,"station_id":"ce4bhch2rcd13ifvqeug","pricing_plan_id":"cebpf4jnsgd1na2vs0mg"},{"bike_id":"267e6625-f5c9-4296-91c1-7c018438dda9","system_id":"levelo_inurba_marseille","lat":43.315329,"lon":5.380373,"is_reserved":false,"is_disabled":false,"rental_uris":{"android":"levelo://app?vid=267e6625-f5c9-4296-91c1-7c018438dda9","ios":"levelo://app?vid=267e6625-f5c9-4296-91c1-7c018438dda9"},"vehicle_type_id":"4","last_reported":1744391291,"current_range_meters":9600,"station_id":"ce4bhsp2rcd13ifvqi50","pricing_plan_id":"cebpf4jnsgd1na2vs0mg"},{"bike_id":"a2166ec5-ba3e-4572-b3c7-6fd9d5238858","system_id":"levelo_inurba_marseille","lat":43.28857,"lon":5.35856,"is_reserved":false,"is_disabled":false,"rental_uris":{"android":"levelo://app?vid=a2166ec5-ba3e-4572-b3c7-6fd9d5238858","ios":"levelo://app?vid=a2166ec5-ba3e-4572-b3c7-6fd9d5238858"},"vehicle_type_id":"4","last_reported":1744391291,"current_range_meters":8800,"station_id":"ce4bhb12rcd13ifvqem0","pricing_plan_id":"cebpf4jnsgd1na2vs0mg"},{"bike_id":"75e2b980-ba0d-4b2d-9f57-da63b751df22","system_id":"levelo_inurba_marseille","lat":43.29264,"lon":5.38443,"is_reserved":false,"is_disabled":false,"rental_uris":{"android":"levelo://app?vid=75e2b980-ba0d-4b2d-9f57-da63b751df22","ios":"levelo://app?vid=75e2b980-ba0d-4b2d-9f57-da63b751df22"},"vehicle_type_id":"4","last_reported":1744391291,"current_range_meters":9600,"station_id":"ce4bh692rcd13ifvqea0","pricing_plan_id":"cebpf4jnsgd1na2vs0mg"},{"bike_id":"b9ec42f3-a1ca-4228-85b1-a3655b16a248","system_id":"levelo_inurba_marseille","lat":43.27693,"lon":5.38943,"is_reserved":false,"is_disabled":false,"rental_uris":{"android":"levelo://app?vid=b9ec42f3-a1ca-4228-85b1-a3655b16a248","ios":"levelo://app?vid=b9ec42f3-a1ca-4228-85b1-a3655b16a248"},"vehicle_type_id":"4","last_reported":1744391291,"current_range_meters":9600,"station_id":"","pricing_plan_id":"cebpf4jnsgd1na2vs0mg"},{"bike_id":"82207adb-ff2b-469e-9ace-ef9cbf19496a","system_id":"levelo_inurba_marseille","lat":43.29889,"lon":5.38895,"is_reserved":false,"is_disabled":false,"rental_uris":{"android":"levelo://app?vid=82207adb-ff2b-469e-9ace-ef9cbf19496a","ios":"levelo://app?vid=82207adb-ff2b-469e-9ace-ef9cbf19496a"},"vehicle_type_id":"4","last_reported":1744391291,"current_range_meters":13600,"station_id":"ce4bh392rcd13ifvqdl0","pricing_plan_id":"cebpf4jnsgd1na2vs0mg"},{"bike_id":"52e0f718-e938-4435-8cd2-02a925563a63","system_id":"levelo_inurba_marseille","lat":43.28622,"lon":5.351,"is_reserved":false,"is_disabled":false,"rental_uris":{"android":"levelo://app?vid=52e0f718-e938-4435-8cd2-02a925563a63","ios":"levelo://app?vid=52e0f718-e938-4435-8cd2-02a925563a63"},"vehicle_type_id":"4","last_reported":1744391291,"current_range_meters":9600,"station_id":"ce4bhch2rcd13ifvqeug","pricing_plan_id":"cebpf4jnsgd1na2vs0mg"},{"bike_id":"0922821c-4e1d-4817-9469-860e55f8f0d1","system_id":"levelo_inurba_marseille","lat":43.22518,"lon":5.34776,"is_reserved":false,"is_disabled":false,"rental_uris":{"android":"levelo://app?vid=0922821c-4e1d-4817-9469-860e55f8f0d1","ios":"levelo://app?vid=0922821c-4e1d-4817-9469-860e55f8f0d1"},"vehicle_type_id":"4","last_reported":1744391291,"current_range_meters":9600,"station_id":"st_cvj5dfep6f1abm77gieg","pricing_plan_id":"cebpf4jnsgd1na2vs0mg"},{"bike_id":"959de643-a3e3-43ad-b639-2cb98bed0991","system_id":"levelo_inurba_marseille","lat":43.28474,"lon":5.3588,"is_reserved":false,"is_disabled":false,"rental_uris":{"android":"levelo://app?vid=959de643-a3e3-43ad-b639-2cb98bed0991","ios":"levelo://app?vid=959de643-a3e3-43ad-b639-2cb98bed0991"},"vehicle_type_id":"4","last_reported":1744391291,"current_range_meters":9600,"station_id":"ce4bhah2rcd13ifvqei0","pricing_plan_id":"cebpf4jnsgd1na2vs0mg"},{"bike_id":"b71c9b0d-fca1-4f64-8381-e00568a10027","system_id":"levelo_inurba_marseille","lat":43.28646,"lon":5.35108,"is_reserved":false,"is_disabled":false,"rental_uris":{"android":"levelo://app?vid=b71c9b0d-fca1-4f64-8381-e00568a10027","ios":"levelo://app?vid=b71c9b0d-fca1-4f64-8381-e00568a10027"},"vehicle_type_id":"4","last_reported":1744391291,"current_range_meters":10000,"station_id":"ce4bhch2rcd13ifvqeug","pricing_plan_id":"cebpf4jnsgd1na2vs0mg"},{"bike_id":"06b57f4d-0d2a-4ce0-97b8-f57f9b70f45e","system_id":"levelo_inurba_marseille","lat":43.2756,"lon":5.3845,"is_reserved":false,"is_disabled":false,"rental_uris":{"android":"levelo://app?vid=06b57f4d-0d2a-4ce0-97b8-f57f9b70f45e","ios":"levelo://app?vid=06b57f4d-0d2a-4ce0-97b8-f57f9b70f45e"},"vehicle_type_id":"4","last_reported":1744391291,"current_range_meters":10000,"station_id":"ce4bhh92rcd13ifvqfi0","pricing_plan_id":"cebpf4jnsgd1na2vs0mg"},{"bike_id":"f3c396c5-ca0d-49ac-9c4c-8cd63f8b8335","system_id":"levelo_inurba_marseille","lat":43.274343,"lon":5.394247,"is_reserved":false,"is_disabled":false,"rental_uris":{"android":"levelo://app?vid=f3c396c5-ca0d-49ac-9c4c-8cd63f8b8335","ios":"levelo://app?vid=f3c396c5-ca0d-49ac-9c4c-8cd63f8b8335"},"vehicle_type_id":"4","last_reported":1744391291,"current_range_meters":10800,"station_id":"ce4bhdp2rcd13ifvqf20","pricing_plan_id":"cebpf4jnsgd1na2vs0mg"},{"bike_id":"33a689e0-c0c8-4077-8498-8bbc793e0b01","system_id":"levelo_inurba_marseille","lat":43.27385,"lon":5.36268,"is_reserved":false,"is_disabled":false,"rental_uris":{"android":"levelo://app?vid=33a689e0-c0c8-4077-8498-8bbc793e0b01","ios":"levelo://app?vid=33a689e0-c0c8-4077-8498-8bbc793e0b01"},"vehicle_type_id":"4","last_reported":1744391291,"current_range_meters":10800,"station_id":"ce4bhbh2rcd13ifvqeo0","pricing_plan_id":"cebpf4jnsgd1na2vs0mg"},{"bike_id":"cc83a7aa-57a1-4769-9137-8531613b4691","system_id":"levelo_inurba_marseille","lat":43.31249,"lon":5.37305,"is_reserved":false,"is_disabled":false,"rental_uris":{"android":"levelo://app?vid=cc83a7aa-57a1-4769-9137-8531613b4691","ios":"levelo://app?vid=cc83a7aa-57a1-4769-9137-8531613b4691"},"vehicle_type_id":"4","last_reported":1744391291,"current_range_meters":10800,"station_id":"","pricing_plan_id":"cebpf4jnsgd1na2vs0mg"},{"bike_id":"e394844b-a806-4d09-b784-d063b853daf7","system_id":"levelo_inurba_marseille","lat":43.26957,"lon":5.38635,"is_reserved":false,"is_disabled":false,"rental_uris":{"android":"levelo://app?vid=e394844b-a806-4d09-b784-d063b853daf7","ios":"levelo://app?vid=e394844b-a806-4d09-b784-d063b853daf7"},"vehicle_type_id":"4","last_reported":1744391291,"current_range_meters":10800,"station_id":"ce4bhh92rcd13ifvqfh0","pricing_plan_id":"cebpf4jnsgd1na2vs0mg"},{"bike_id":"20eb53d5-dc7b-4fbe-a6da-7e0a348438c0","system_id":"levelo_inurba_marseille","lat":43.27915,"lon":5.39588,"is_reserved":false,"is_disabled":true,"rental_uris":{"android":"levelo://app?vid=20eb53d5-dc7b-4fbe-a6da-7e0a348438c0","ios":"levelo://app?vid=20eb53d5-dc7b-4fbe-a6da-7e0a348438c0"},"vehicle_type_id":"4","last_reported":1744391291,"current_range_meters":10800,"station_id":"ce4bhf92rcd13ifvqf40","pricing_plan_id":"cebpf4jnsgd1na2vs0mg"},{"bike_id":"94455896-0f19-4fae-bd72-9879f01fcd6e","system_id":"levelo_inurba_marseille","lat":43.29556,"lon":5.42279,"is_reserved":false,"is_disabled":true,"rental_uris":{"android":"levelo://app?vid=94455896-0f19-4fae-bd72-9879f01fcd6e","ios":"levelo://app?vid=94455896-0f19-4fae-bd72-9879f01fcd6e"},"vehicle_type_id":"4","last_reported":1744391291,"current_range_meters":10800,"station_id":"ce4bhph2rcd13ifvqhdg","pricing_plan_id":"cebpf4jnsgd1na2vs0mg"},{"bike_id":"5cbd6920-e86e-449a-9470-bc78d120719f","system_id":"levelo_inurba_marseille","lat":43.29264,"lon":5.38448,"is_reserved":false,"is_disabled":false,"rental_uris":{"android":"levelo://app?vid=5cbd6920-e86e-449a-9470-bc78d120719f","ios":"levelo://app?vid=5cbd6920-e86e-449a-9470-bc78d120719f"},"vehicle_type_id":"4","last_reported":1744391291,"current_range_meters":10800,"station_id":"ce4bh692rcd13ifvqea0","pricing_plan_id":"cebpf4jnsgd1na2vs0mg"},{"bike_id":"eb25be38-297f-4bfc-a203-762bfaad14f7","system_id":"levelo_inurba_marseille","lat":43.30451,"lon":5.38902,"is_reserved":false,"is_disabled":false,"rental_uris":{"android":"levelo://app?vid=eb25be38-297f-4bfc-a203-762bfaad14f7","ios":"levelo://app?vid=eb25be38-297f-4bfc-a203-762bfaad14f7"},"vehicle_type_id":"4","last_reported":1744391291,"current_range_meters":11200,"station_id":"ce4bgk12rcd13ifvqbi0","pricing_plan_id":"cebpf4jnsgd1na2vs0mg"},{"bike_id":"f511f188-8735-4e7d-bb7f-62aad007db0f","system_id":"levelo_inurba_marseille","lat":43.3229,"lon":5.38268,"is_reserved":false,"is_disabled":false,"rental_uris":{"android":"levelo://app?vid=f511f188-8735-4e7d-bb7f-62aad007db0f","ios":"levelo://app?vid=f511f188-8735-4e7d-bb7f-62aad007db0f"},"vehicle_type_id":"4","last_reported":1744391291,"current_range_meters":10800,"station_id":"ce4bhr12rcd13ifvqhqg","pricing_plan_id":"cebpf4jnsgd1na2vs0mg"},{"bike_id":"a52f9a69-c838-4675-8665-d59dea382a94","system_id":"levelo_inurba_marseille","lat":43.29296,"lon":5.37467,"is_reserved":false,"is_disabled":false,"rental_uris":{"android":"levelo://app?vid=a52f9a69-c838-4675-8665-d59dea382a94","ios":"levelo://app?vid=a52f9a69-c838-4675-8665-d59dea382a94"},"vehicle_type_id":"4","last_reported":1744391291,"current_range_meters":11200,"station_id":"ce4bgi12rcd13ifvqb70","pricing_plan_id":"cebpf4jnsgd1na2vs0mg"},{"bike_id":"79385af2-cdf8-4108-b1f7-48e7c3f0f877","system_id":"levelo_inurba_marseille","lat":43.29272,"lon":5.38443,"is_reserved":false,"is_disabled":false,"rental_uris":{"android":"levelo://app?vid=79385af2-cdf8-4108-b1f7-48e7c3f0f877","ios":"levelo://app?vid=79385af2-cdf8-4108-b1f7-48e7c3f0f877"},"vehicle_type_id":"4","last_reported":1744391291,"current_range_meters":11200,"station_id":"ce4bh692rcd13ifvqea0","pricing_plan_id":"cebpf4jnsgd1na2vs0mg"},{"bike_id":"59cbfc40-ccac-4bd4-a4cd-d4c6687b0f26","system_id":"levelo_inurba_marseille","lat":43.27178,"lon":5.40994,"is_reserved":false,"is_disabled":false,"rental_uris":{"android":"levelo://app?vid=59cbfc40-ccac-4bd4-a4cd-d4c6687b0f26","ios":"levelo://app?vid=59cbfc40-ccac-4bd4-a4cd-d4c6687b0f26"},"vehicle_type_id":"4","last_reported":1744391291,"current_range_meters":11600,"station_id":"ce4bhl12rcd13ifvqgf0","pricing_plan_id":"cebpf4jnsgd1na2vs0mg"},{"bike_id":"29eb227b-030e-4910-ad66-32c0d98b6140","system_id":"levelo_inurba_marseille","lat":43.28617,"lon":5.35103,"is_reserved":false,"is_disabled":false,"rental_uris":{"android":"levelo://app?vid=29eb227b-030e-4910-ad66-32c0d98b6140","ios":"levelo://app?vid=29eb227b-030e-4910-ad66-32c0d98b6140"},"vehicle_type_id":"4","last_reported":1744391291,"current_range_meters":11600,"station_id":"ce4bhch2rcd13ifvqeug","pricing_plan_id":"cebpf4jnsgd1na2vs0mg"},{"bike_id":"463b41fd-37bb-48c0-a6e4-12f737a3d7cf","system_id":"levelo_inurba_marseille","lat":43.26953,"lon":5.40332,"is_reserved":false,"is_disabled":true,"rental_uris":{"android":"levelo://app?vid=463b41fd-37bb-48c0-a6e4-12f737a3d7cf","ios":"levelo://app?vid=463b41fd-37bb-48c0-a6e4-12f737a3d7cf"},"vehicle_type_id":"4","last_reported":1744391291,"current_range_meters":11600,"station_id":"","pricing_plan_id":"cebpf4jnsgd1na2vs0mg"},{"bike_id":"faa44c05-7dcd-4242-a5a5-85ab0c3dbe77","system_id":"levelo_inurba_marseille","lat":43.26195,"lon":5.37914,"is_reserved":false,"is_disabled":false,"rental_uris":{"android":"levelo://app?vid=faa44c05-7dcd-4242-a5a5-85ab0c3dbe77","ios":"levelo://app?vid=faa44c05-7dcd-4242-a5a5-85ab0c3dbe77"},"vehicle_type_id":"4","last_reported":1744391291,"current_range_meters":11200,"station_id":"ce4bhjp2rcd13ifvqg90","pricing_plan_id":"cebpf4jnsgd1na2vs0mg"},{"bike_id":"e9f65ceb-ead0-40c5-81c9-5c4bf1ba6abd","system_id":"levelo_inurba_marseille","lat":43.31333,"lon":5.39696,"is_reserved":false,"is_disabled":false,"rental_uris":{"android":"levelo://app?vid=e9f65ceb-ead0-40c5-81c9-5c4bf1ba6abd","ios":"levelo://app?vid=e9f65ceb-ead0-40c5-81c9-5c4bf1ba6abd"},"vehicle_type_id":"4","last_reported":1744391291,"current_range_meters":11200,"station_id":"ce4bgvp2rcd13ifvqcu0","pricing_plan_id":"cebpf4jnsgd1na2vs0mg"},{"bike_id":"f90d0387-d4f6-4183-8cb4-66c73c898931","system_id":"levelo_inurba_marseille","lat":43.2895,"lon":5.36393,"is_reserved":false,"is_disabled":false,"rental_uris":{"android":"levelo://app?vid=f90d0387-d4f6-4183-8cb4-66c73c898931","ios":"levelo://app?vid=f90d0387-d4f6-4183-8cb4-66c73c898931"},"vehicle_type_id":"4","last_reported":1744391291,"current_range_meters":11200,"station_id":"ce4bhc92rcd13ifvqetg","pricing_plan_id":"cebpf4jnsgd1na2vs0mg"},{"bike_id":"3466381b-9700-457f-ae25-085862288f43","system_id":"levelo_inurba_marseille","lat":43.30145,"lon":5.37419,"is_reserved":false,"is_disabled":false,"rental_uris":{"android":"levelo://app?vid=3466381b-9700-457f-ae25-085862288f43","ios":"levelo://app?vid=3466381b-9700-457f-ae25-085862288f43"},"vehicle_type_id":"4","last_reported":1744391291,"current_range_meters":11200,"station_id":"ce4bgs92rcd13ifvqcc0","pricing_plan_id":"cebpf4jnsgd1na2vs0mg"},{"bike_id":"2d2e31a1-75bd-4ef3-8efc-056c6e4199ac","system_id":"levelo_inurba_marseille","lat":43.2862,"lon":5.35093,"is_reserved":false,"is_disabled":false,"rental_uris":{"android":"levelo://app?vid=2d2e31a1-75bd-4ef3-8efc-056c6e4199ac","ios":"levelo://app?vid=2d2e31a1-75bd-4ef3-8efc-056c6e4199ac"},"vehicle_type_id":"4","last_reported":1744391291,"current_range_meters":12000,"station_id":"ce4bhch2rcd13ifvqeug","pricing_plan_id":"cebpf4jnsgd1na2vs0mg"},{"bike_id":"b8230e81-2307-4a36-b35b-a19ad8a2340c","system_id":"levelo_inurba_marseille","lat":43.28407,"lon":5.3499,"is_reserved":false,"is_disabled":false,"rental_uris":{"android":"levelo://app?vid=b8230e81-2307-4a36-b35b-a19ad8a2340c","ios":"levelo://app?vid=b8230e81-2307-4a36-b35b-a19ad8a2340c"},"vehicle_type_id":"4","last_reported":1744391291,"current_range_meters":12000,"station_id":"ce4bhbh2rcd13ifvqepg","pricing_plan_id":"cebpf4jnsgd1na2vs0mg"},{"bike_id":"c5fc1518-1fc6-46c2-b3cd-737bfebeee8a","system_id":"levelo_inurba_marseille","lat":43.27383,"lon":5.36253,"is_reserved":false,"is_disabled":false,"rental_uris":{"android":"levelo://app?vid=c5fc1518-1fc6-46c2-b3cd-737bfebeee8a","ios":"levelo://app?vid=c5fc1518-1fc6-46c2-b3cd-737bfebeee8a"},"vehicle_type_id":"4","last_reported":1744391291,"current_range_meters":12000,"station_id":"ce4bhbh2rcd13ifvqeo0","pricing_plan_id":"cebpf4jnsgd1na2vs0mg"},{"bike_id":"feb04d1c-c2bd-4d38-91ca-a0075a753750","system_id":"levelo_inurba_marseille","lat":43.28418,"lon":5.34998,"is_reserved":false,"is_disabled":false,"rental_uris":{"android":"levelo://app?vid=feb04d1c-c2bd-4d38-91ca-a0075a753750","ios":"levelo://app?vid=feb04d1c-c2bd-4d38-91ca-a0075a753750"},"vehicle_type_id":"4","last_reported":1744391291,"current_range_meters":12000,"station_id":"ce4bhbh2rcd13ifvqepg","pricing_plan_id":"cebpf4jnsgd1na2vs0mg"},{"bike_id":"f7f1beb6-7f40-4700-8a9b-e366edf24ac4","system_id":"levelo_inurba_marseille","lat":43.27072,"lon":5.42278,"is_reserved":false,"is_disabled":false,"rental_uris":{"android":"levelo://app?vid=f7f1beb6-7f40-4700-8a9b-e366edf24ac4","ios":"levelo://app?vid=f7f1beb6-7f40-4700-8a9b-e366edf24ac4"},"vehicle_type_id":"4","last_reported":1744391291,"current_range_meters":12000,"station_id":"ce4bhk92rcd13ifvqgb0","pricing_plan_id":"cebpf4jnsgd1na2vs0mg"},{"bike_id":"6ae97ce4-0378-426c-b73f-8027e88f301b","system_id":"levelo_inurba_marseille","lat":43.29042,"lon":5.37562,"is_reserved":false,"is_disabled":false,"rental_uris":{"android":"levelo://app?vid=6ae97ce4-0378-426c-b73f-8027e88f301b","ios":"levelo://app?vid=6ae97ce4-0378-426c-b73f-8027e88f301b"},"vehicle_type_id":"4","last_reported":1744391291,"current_range_meters":12000,"station_id":"ce4bh692rcd13ifvqe90","pricing_plan_id":"cebpf4jnsgd1na2vs0mg"},{"bike_id":"bd7c4188-af71-4149-8dfd-48ac7d3d6772","system_id":"levelo_inurba_marseille","lat":43.24392,"lon":5.37067,"is_reserved":false,"is_disabled":false,"rental_uris":{"android":"levelo://app?vid=bd7c4188-af71-4149-8dfd-48ac7d3d6772","ios":"levelo://app?vid=bd7c4188-af71-4149-8dfd-48ac7d3d6772"},"vehicle_type_id":"4","last_reported":1744391291,"current_range_meters":12000,"station_id":"ce4bhhh2rcd13ifvqfk0","pricing_plan_id":"cebpf4jnsgd1na2vs0mg"},{"bike_id":"72adaa87-94dc-4774-aca0-5147bc57bd16","system_id":"levelo_inurba_marseille","lat":43.26022,"lon":5.41738,"is_reserved":false,"is_disabled":false,"rental_uris":{"android":"levelo://app?vid=72adaa87-94dc-4774-aca0-5147bc57bd16","ios":"levelo://app?vid=72adaa87-94dc-4774-aca0-5147bc57bd16"},"vehicle_type_id":"4","last_reported":1744391291,"current_range_meters":12000,"station_id":"","pricing_plan_id":"cebpf4jnsgd1na2vs0mg"},{"bike_id":"59c173e6-dbc0-4038-8fb7-36961296ef0e","system_id":"levelo_inurba_marseille","lat":43.28618,"lon":5.35085,"is_reserved":false,"is_disabled":false,"rental_uris":{"android":"levelo://app?vid=59c173e6-dbc0-4038-8fb7-36961296ef0e","ios":"levelo://app?vid=59c173e6-dbc0-4038-8fb7-36961296ef0e"},"vehicle_type_id":"4","last_reported":1744391291,"current_range_meters":12000,"station_id":"ce4bhch2rcd13ifvqeug","pricing_plan_id":"cebpf4jnsgd1na2vs0mg"},{"bike_id":"9b0093a9-79e0-4880-82c2-96b353b4de72","system_id":"levelo_inurba_marseille","lat":43.30322,"lon":5.40401,"is_reserved":false,"is_disabled":true,"rental_uris":{"android":"levelo://app?vid=9b0093a9-79e0-4880-82c2-96b353b4de72","ios":"levelo://app?vid=9b0093a9-79e0-4880-82c2-96b353b4de72"},"vehicle_type_id":"4","last_reported":1744391291,"current_range_meters":12000,"station_id":"ce4bh012rcd13ifvqd10","pricing_plan_id":"cebpf4jnsgd1na2vs0mg"},{"bike_id":"f021d2f3-d0b2-4841-86f0-e5d2be7a2683","system_id":"levelo_inurba_marseille","lat":43.32368,"lon":5.38886,"is_reserved":false,"is_disabled":false,"rental_uris":{"android":"levelo://app?vid=f021d2f3-d0b2-4841-86f0-e5d2be7a2683","ios":"levelo://app?vid=f021d2f3-d0b2-4841-86f0-e5d2be7a2683"},"vehicle_type_id":"4","last_reported":1744391291,"current_range_meters":12400,"station_id":"ce4bhqp2rcd13ifvqhog","pricing_plan_id":"cebpf4jnsgd1na2vs0mg"},{"bike_id":"1b554684-9fc8-4891-b3f8-980973c00b4b","system_id":"levelo_inurba_marseille","lat":43.25872,"lon":5.39892,"is_reserved":false,"is_disabled":false,"rental_uris":{"android":"levelo://app?vid=1b554684-9fc8-4891-b3f8-980973c00b4b","ios":"levelo://app?vid=1b554684-9fc8-4891-b3f8-980973c00b4b"},"vehicle_type_id":"4","last_reported":1744391291,"current_range_meters":12400,"station_id":"ce4bhl92rcd13ifvqghg","pricing_plan_id":"cebpf4jnsgd1na2vs0mg"},{"bike_id":"a6bf3814-f559-4988-b113-5aff052c63d1","system_id":"levelo_inurba_marseille","lat":43.30538,"lon":5.38435,"is_reserved":false,"is_disabled":false,"rental_uris":{"android":"levelo://app?vid=a6bf3814-f559-4988-b113-5aff052c63d1","ios":"levelo://app?vid=a6bf3814-f559-4988-b113-5aff052c63d1"},"vehicle_type_id":"4","last_reported":1744391291,"current_range_meters":12400,"station_id":"ce4bgg92rcd13ifvqb30","pricing_plan_id":"cebpf4jnsgd1na2vs0mg"},{"bike_id":"88f7b9ed-d5ad-41ef-9db1-d86200c3f07e","system_id":"levelo_inurba_marseille","lat":43.29619,"lon":5.37735,"is_reserved":false,"is_disabled":false,"rental_uris":{"android":"levelo://app?vid=88f7b9ed-d5ad-41ef-9db1-d86200c3f07e","ios":"levelo://app?vid=88f7b9ed-d5ad-41ef-9db1-d86200c3f07e"},"vehicle_type_id":"4","last_reported":1744391291,"current_range_meters":12400,"station_id":"ce4bgi92rcd13ifvqb90","pricing_plan_id":"cebpf4jnsgd1na2vs0mg"},{"bike_id":"41f8f1e8-7603-4845-b014-fe9ba51c8c39","system_id":"levelo_inurba_marseille","lat":43.28616,"lon":5.35097,"is_reserved":false,"is_disabled":false,"rental_uris":{"android":"levelo://app?vid=41f8f1e8-7603-4845-b014-fe9ba51c8c39","ios":"levelo://app?vid=41f8f1e8-7603-4845-b014-fe9ba51c8c39"},"vehicle_type_id":"4","last_reported":1744391291,"current_range_meters":12800,"station_id":"ce4bhch2rcd13ifvqeug","pricing_plan_id":"cebpf4jnsgd1na2vs0mg"},{"bike_id":"12f552fb-128b-4f39-a171-4a4db7cfeac8","system_id":"levelo_inurba_marseille","lat":43.28416,"lon":5.34975,"is_reserved":false,"is_disabled":false,"rental_uris":{"android":"levelo://app?vid=12f552fb-128b-4f39-a171-4a4db7cfeac8","ios":"levelo://app?vid=12f552fb-128b-4f39-a171-4a4db7cfeac8"},"vehicle_type_id":"4","last_reported":1744391291,"current_range_meters":12800,"station_id":"ce4bhbh2rcd13ifvqepg","pricing_plan_id":"cebpf4jnsgd1na2vs0mg"},{"bike_id":"ccd5f97a-7f7d-48e7-b45d-80fbcefdce42","system_id":"levelo_inurba_marseille","lat":43.28701,"lon":5.37381,"is_reserved":false,"is_disabled":false,"rental_uris":{"android":"levelo://app?vid=ccd5f97a-7f7d-48e7-b45d-80fbcefdce42","ios":"levelo://app?vid=ccd5f97a-7f7d-48e7-b45d-80fbcefdce42"},"vehicle_type_id":"4","last_reported":1744391291,"current_range_meters":12800,"station_id":"ce4bh3p2rcd13ifvqdq0","pricing_plan_id":"cebpf4jnsgd1na2vs0mg"},{"bike_id":"d21733e5-1564-4c3d-8657-463d1eaf61b3","system_id":"levelo_inurba_marseille","lat":43.28418,"lon":5.34987,"is_reserved":false,"is_disabled":false,"rental_uris":{"android":"levelo://app?vid=d21733e5-1564-4c3d-8657-463d1eaf61b3","ios":"levelo://app?vid=d21733e5-1564-4c3d-8657-463d1eaf61b3"},"vehicle_type_id":"4","last_reported":1744391291,"current_range_meters":12800,"station_id":"ce4bhbh2rcd13ifvqepg","pricing_plan_id":"cebpf4jnsgd1na2vs0mg"},{"bike_id":"456e5442-187c-48a9-bdcc-883613996fc8","system_id":"levelo_inurba_marseille","lat":43.29889,"lon":5.38889,"is_reserved":false,"is_disabled":false,"rental_uris":{"android":"levelo://app?vid=456e5442-187c-48a9-bdcc-883613996fc8","ios":"levelo://app?vid=456e5442-187c-48a9-bdcc-883613996fc8"},"vehicle_type_id":"4","last_reported":1744391291,"current_range_meters":12800,"station_id":"ce4bh392rcd13ifvqdl0","pricing_plan_id":"cebpf4jnsgd1na2vs0mg"},{"bike_id":"7c4098af-670b-4422-8f2d-53971a56100f","system_id":"levelo_inurba_marseille","lat":43.30387,"lon":5.38938,"is_reserved":false,"is_disabled":false,"rental_uris":{"android":"levelo://app?vid=7c4098af-670b-4422-8f2d-53971a56100f","ios":"levelo://app?vid=7c4098af-670b-4422-8f2d-53971a56100f"},"vehicle_type_id":"4","last_reported":1744391291,"current_range_meters":12800,"station_id":"","pricing_plan_id":"cebpf4jnsgd1na2vs0mg"},{"bike_id":"4bcdcc82-d58d-4172-b626-a8c82408681c","system_id":"levelo_inurba_marseille","lat":43.31241,"lon":5.36879,"is_reserved":false,"is_disabled":true,"rental_uris":{"android":"levelo://app?vid=4bcdcc82-d58d-4172-b626-a8c82408681c","ios":"levelo://app?vid=4bcdcc82-d58d-4172-b626-a8c82408681c"},"vehicle_type_id":"4","last_reported":1744391291,"current_range_meters":12800,"station_id":"ce4bgl92rcd13ifvqbq0","pricing_plan_id":"cebpf4jnsgd1na2vs0mg"},{"bike_id":"2bf592d4-617a-4236-9c63-8f13d6edcff1","system_id":"levelo_inurba_marseille","lat":43.246581,"lon":5.381628,"is_reserved":false,"is_disabled":false,"rental_uris":{"android":"levelo://app?vid=2bf592d4-617a-4236-9c63-8f13d6edcff1","ios":"levelo://app?vid=2bf592d4-617a-4236-9c63-8f13d6edcff1"},"vehicle_type_id":"4","last_reported":1744391291,"current_range_meters":12800,"station_id":"ce4bhih2rcd13ifvqfr0","pricing_plan_id":"cebpf4jnsgd1na2vs0mg"},{"bike_id":"b287bcd0-fe2b-4984-9f4f-c64aa4c69bc5","system_id":"levelo_inurba_marseille","lat":43.26202,"lon":5.37932,"is_reserved":false,"is_disabled":false,"rental_uris":{"android":"levelo://app?vid=b287bcd0-fe2b-4984-9f4f-c64aa4c69bc5","ios":"levelo://app?vid=b287bcd0-fe2b-4984-9f4f-c64aa4c69bc5"},"vehicle_type_id":"4","last_reported":1744391291,"current_range_meters":13600,"station_id":"ce4bhjp2rcd13ifvqg90","pricing_plan_id":"cebpf4jnsgd1na2vs0mg"},{"bike_id":"d86f5c76-3bc0-447b-a9d2-f57c213c0ee6","system_id":"levelo_inurba_marseille","lat":43.23193,"lon":5.35547,"is_reserved":false,"is_disabled":false,"rental_uris":{"android":"levelo://app?vid=d86f5c76-3bc0-447b-a9d2-f57c213c0ee6","ios":"levelo://app?vid=d86f5c76-3bc0-447b-a9d2-f57c213c0ee6"},"vehicle_type_id":"4","last_reported":1744391291,"current_range_meters":13600,"station_id":"ce4bhu92rcd13ifvqi70","pricing_plan_id":"cebpf4jnsgd1na2vs0mg"},{"bike_id":"f21cce43-7e86-42c4-8a4d-3c922080ab5c","system_id":"levelo_inurba_marseille","lat":43.28935,"lon":5.3663,"is_reserved":false,"is_disabled":true,"rental_uris":{"android":"levelo://app?vid=f21cce43-7e86-42c4-8a4d-3c922080ab5c","ios":"levelo://app?vid=f21cce43-7e86-42c4-8a4d-3c922080ab5c"},"vehicle_type_id":"4","last_reported":1744391291,"current_range_meters":13600,"station_id":"ce4bhap2rcd13ifvqek0","pricing_plan_id":"cebpf4jnsgd1na2vs0mg"},{"bike_id":"c2417d8b-9f4a-4a2e-9fb6-80979fd1326f","system_id":"levelo_inurba_marseille","lat":43.29268,"lon":5.37633,"is_reserved":false,"is_disabled":false,"rental_uris":{"android":"levelo://app?vid=c2417d8b-9f4a-4a2e-9fb6-80979fd1326f","ios":"levelo://app?vid=c2417d8b-9f4a-4a2e-9fb6-80979fd1326f"},"vehicle_type_id":"4","last_reported":1744391291,"current_range_meters":13600,"station_id":"ce4bgi12rcd13ifvqb80","pricing_plan_id":"cebpf4jnsgd1na2vs0mg"},{"bike_id":"411f282c-b696-41a4-888f-752e1134c529","system_id":"levelo_inurba_marseille","lat":43.26201,"lon":5.37445,"is_reserved":false,"is_disabled":true,"rental_uris":{"android":"levelo://app?vid=411f282c-b696-41a4-888f-752e1134c529","ios":"levelo://app?vid=411f282c-b696-41a4-888f-752e1134c529"},"vehicle_type_id":"4","last_reported":1744391291,"current_range_meters":13600,"station_id":"ce4bhgp2rcd13ifvqfc0","pricing_plan_id":"cebpf4jnsgd1na2vs0mg"},{"bike_id":"8dd4ce5b-f496-4884-a2f8-a03b2e2dfb27","system_id":"levelo_inurba_marseille","lat":43.28274,"lon":5.35062,"is_reserved":false,"is_disabled":false,"rental_uris":{"android":"levelo://app?vid=8dd4ce5b-f496-4884-a2f8-a03b2e2dfb27","ios":"levelo://app?vid=8dd4ce5b-f496-4884-a2f8-a03b2e2dfb27"},"vehicle_type_id":"4","last_reported":1744391291,"current_range_meters":13600,"station_id":"ce4bhbp2rcd13ifvqerg","pricing_plan_id":"cebpf4jnsgd1na2vs0mg"},{"bike_id":"5f75281b-213f-4a3b-b7f5-31f5a8a30e39","system_id":"levelo_inurba_marseille","lat":43.28408,"lon":5.34988,"is_reserved":false,"is_disabled":false,"rental_uris":{"android":"levelo://app?vid=5f75281b-213f-4a3b-b7f5-31f5a8a30e39","ios":"levelo://app?vid=5f75281b-213f-4a3b-b7f5-31f5a8a30e39"},"vehicle_type_id":"4","last_reported":1744391291,"current_range_meters":13600,"station_id":"ce4bhbh2rcd13ifvqepg","pricing_plan_id":"cebpf4jnsgd1na2vs0mg"},{"bike_id":"a71d6dbb-ec56-4b52-a91f-dd5e6965b77c","system_id":"levelo_inurba_marseille","lat":43.26946,"lon":5.40243,"is_reserved":false,"is_disabled":false,"rental_uris":{"android":"levelo://app?vid=a71d6dbb-ec56-4b52-a91f-dd5e6965b77c","ios":"levelo://app?vid=a71d6dbb-ec56-4b52-a91f-dd5e6965b77c"},"vehicle_type_id":"4","last_reported":1744391291,"current_range_meters":13600,"station_id":"cjm6bp8fraef2m0cb0m0","pricing_plan_id":"cebpf4jnsgd1na2vs0mg"},{"bike_id":"985dcc4b-b5fd-46fb-aa6a-d5c9c9d38e9c","system_id":"levelo_inurba_marseille","lat":43.29266,"lon":5.38445,"is_reserved":false,"is_disabled":false,"rental_uris":{"android":"levelo://app?vid=985dcc4b-b5fd-46fb-aa6a-d5c9c9d38e9c","ios":"levelo://app?vid=985dcc4b-b5fd-46fb-aa6a-d5c9c9d38e9c"},"vehicle_type_id":"4","last_reported":1744391291,"current_range_meters":13600,"station_id":"ce4bh692rcd13ifvqea0","pricing_plan_id":"cebpf4jnsgd1na2vs0mg"},{"bike_id":"d4ef6244-d8e3-444f-8db6-8d9b306432f3","system_id":"levelo_inurba_marseille","lat":43.28408,"lon":5.34988,"is_reserved":false,"is_disabled":false,"rental_uris":{"android":"levelo://app?vid=d4ef6244-d8e3-444f-8db6-8d9b306432f3","ios":"levelo://app?vid=d4ef6244-d8e3-444f-8db6-8d9b306432f3"},"vehicle_type_id":"4","last_reported":1744391291,"current_range_meters":14000,"station_id":"ce4bhbh2rcd13ifvqepg","pricing_plan_id":"cebpf4jnsgd1na2vs0mg"},{"bike_id":"8211ae02-909a-4d1d-9ef8-4e1811e2823c","system_id":"levelo_inurba_marseille","lat":43.26685,"lon":5.38264,"is_reserved":false,"is_disabled":false,"rental_uris":{"android":"levelo://app?vid=8211ae02-909a-4d1d-9ef8-4e1811e2823c","ios":"levelo://app?vid=8211ae02-909a-4d1d-9ef8-4e1811e2823c"},"vehicle_type_id":"4","last_reported":1744391291,"current_range_meters":14000,"station_id":"ce4bhg92rcd13ifvqf90","pricing_plan_id":"cebpf4jnsgd1na2vs0mg"},{"bike_id":"e15c4644-b6eb-453c-add5-d7a16e7e99f3","system_id":"levelo_inurba_marseille","lat":43.27176,"lon":5.40987,"is_reserved":false,"is_disabled":false,"rental_uris":{"android":"levelo://app?vid=e15c4644-b6eb-453c-add5-d7a16e7e99f3","ios":"levelo://app?vid=e15c4644-b6eb-453c-add5-d7a16e7e99f3"},"vehicle_type_id":"4","last_reported":1744391291,"current_range_meters":13600,"station_id":"ce4bhl12rcd13ifvqgf0","pricing_plan_id":"cebpf4jnsgd1na2vs0mg"},{"bike_id":"7b182508-7b4f-4dfc-80b7-e501c93ae24a","system_id":"levelo_inurba_marseille","lat":43.23065,"lon":5.35483,"is_reserved":false,"is_disabled":false,"rental_uris":{"android":"levelo://app?vid=7b182508-7b4f-4dfc-80b7-e501c93ae24a","ios":"levelo://app?vid=7b182508-7b4f-4dfc-80b7-e501c93ae24a"},"vehicle_type_id":"4","last_reported":1744391291,"current_range_meters":14000,"station_id":"cpo3342slgdg3j2ifvpg","pricing_plan_id":"cebpf4jnsgd1na2vs0mg"},{"bike_id":"4125b079-f3b8-4b57-ad43-53dd0379a0a5","system_id":"levelo_inurba_marseille","lat":43.28105,"lon":5.3787,"is_reserved":false,"is_disabled":false,"rental_uris":{"android":"levelo://app?vid=4125b079-f3b8-4b57-ad43-53dd0379a0a5","ios":"levelo://app?vid=4125b079-f3b8-4b57-ad43-53dd0379a0a5"},"vehicle_type_id":"4","last_reported":1744391291,"current_range_meters":14000,"station_id":"ce4bha12rcd13ifvqee0","pricing_plan_id":"cebpf4jnsgd1na2vs0mg"},{"bike_id":"4c893399-b4ed-40ed-a49f-713da320f269","system_id":"levelo_inurba_marseille","lat":43.29861,"lon":5.37841,"is_reserved":false,"is_disabled":false,"rental_uris":{"android":"levelo://app?vid=4c893399-b4ed-40ed-a49f-713da320f269","ios":"levelo://app?vid=4c893399-b4ed-40ed-a49f-713da320f269"},"vehicle_type_id":"4","last_reported":1744391291,"current_range_meters":14000,"station_id":"","pricing_plan_id":"cebpf4jnsgd1na2vs0mg"},{"bike_id":"b4463042-f862-4a1f-b92b-4ef1f19fbd29","system_id":"levelo_inurba_marseille","lat":43.29636,"lon":5.40591,"is_reserved":false,"is_disabled":false,"rental_uris":{"android":"levelo://app?vid=b4463042-f862-4a1f-b92b-4ef1f19fbd29","ios":"levelo://app?vid=b4463042-f862-4a1f-b92b-4ef1f19fbd29"},"vehicle_type_id":"4","last_reported":1744391291,"current_range_meters":14000,"station_id":"ce4bh0h2rcd13ifvqd60","pricing_plan_id":"cebpf4jnsgd1na2vs0mg"},{"bike_id":"8c58f2fa-99e1-41f8-bf90-9c1648b679b1","system_id":"levelo_inurba_marseille","lat":43.27316,"lon":5.41442,"is_reserved":false,"is_disabled":false,"rental_uris":{"android":"levelo://app?vid=8c58f2fa-99e1-41f8-bf90-9c1648b679b1","ios":"levelo://app?vid=8c58f2fa-99e1-41f8-bf90-9c1648b679b1"},"vehicle_type_id":"4","last_reported":1744391291,"current_range_meters":14000,"station_id":"","pricing_plan_id":"cebpf4jnsgd1na2vs0mg"},{"bike_id":"b3602cd4-03ec-4c65-bcf3-ce69a350ed98","system_id":"levelo_inurba_marseille","lat":43.240079,"lon":5.366414,"is_reserved":false,"is_disabled":false,"rental_uris":{"android":"levelo://app?vid=b3602cd4-03ec-4c65-bcf3-ce69a350ed98","ios":"levelo://app?vid=b3602cd4-03ec-4c65-bcf3-ce69a350ed98"},"vehicle_type_id":"4","last_reported":1744391291,"current_range_meters":14000,"station_id":"ce4bhi12rcd13ifvqfp0","pricing_plan_id":"cebpf4jnsgd1na2vs0mg"},{"bike_id":"8cc5485c-2f96-4cba-a2f1-562e4ae6b240","system_id":"levelo_inurba_marseille","lat":43.30963,"lon":5.39063,"is_reserved":false,"is_disabled":false,"rental_uris":{"android":"levelo://app?vid=8cc5485c-2f96-4cba-a2f1-562e4ae6b240","ios":"levelo://app?vid=8cc5485c-2f96-4cba-a2f1-562e4ae6b240"},"vehicle_type_id":"4","last_reported":1744391291,"current_range_meters":14000,"station_id":"ce4bgup2rcd13ifvqco0","pricing_plan_id":"cebpf4jnsgd1na2vs0mg"},{"bike_id":"f7d1eee0-1715-419d-beac-1b98ec9e62ed","system_id":"levelo_inurba_marseille","lat":43.30949,"lon":5.39014,"is_reserved":false,"is_disabled":true,"rental_uris":{"android":"levelo://app?vid=f7d1eee0-1715-419d-beac-1b98ec9e62ed","ios":"levelo://app?vid=f7d1eee0-1715-419d-beac-1b98ec9e62ed"},"vehicle_type_id":"4","last_reported":1744391291,"current_range_meters":14400,"station_id":"ce4bgup2rcd13ifvqco0","pricing_plan_id":"cebpf4jnsgd1na2vs0mg"},{"bike_id":"1db3f027-3907-4a6a-880b-45e50db5828b","system_id":"levelo_inurba_marseille","lat":43.25495,"lon":5.37645,"is_reserved":false,"is_disabled":false,"rental_uris":{"android":"levelo://app?vid=1db3f027-3907-4a6a-880b-45e50db5828b","ios":"levelo://app?vid=1db3f027-3907-4a6a-880b-45e50db5828b"},"vehicle_type_id":"4","last_reported":1744391291,"current_range_meters":14400,"station_id":"ce4bhh12rcd13ifvqff0","pricing_plan_id":"cebpf4jnsgd1na2vs0mg"},{"bike_id":"99af4c1d-78fb-4754-a08d-7e86c6464cbc","system_id":"levelo_inurba_marseille","lat":43.28702,"lon":5.3737,"is_reserved":false,"is_disabled":false,"rental_uris":{"android":"levelo://app?vid=99af4c1d-78fb-4754-a08d-7e86c6464cbc","ios":"levelo://app?vid=99af4c1d-78fb-4754-a08d-7e86c6464cbc"},"vehicle_type_id":"4","last_reported":1744391291,"current_range_meters":14400,"station_id":"ce4bh3p2rcd13ifvqdq0","pricing_plan_id":"cebpf4jnsgd1na2vs0mg"},{"bike_id":"7313c78b-78b9-4a95-ad80-f0d346e16a0e","system_id":"levelo_inurba_marseille","lat":43.25006,"lon":5.38943,"is_reserved":false,"is_disabled":false,"rental_uris":{"android":"levelo://app?vid=7313c78b-78b9-4a95-ad80-f0d346e16a0e","ios":"levelo://app?vid=7313c78b-78b9-4a95-ad80-f0d346e16a0e"},"vehicle_type_id":"4","last_reported":1744391291,"current_range_meters":14400,"station_id":"ce4bhgp2rcd13ifvqfd0","pricing_plan_id":"cebpf4jnsgd1na2vs0mg"},{"bike_id":"cc446ff5-eceb-46cc-8cad-f8148cbe7241","system_id":"levelo_inurba_marseille","lat":43.2901,"lon":5.35612,"is_reserved":false,"is_disabled":false,"rental_uris":{"android":"levelo://app?vid=cc446ff5-eceb-46cc-8cad-f8148cbe7241","ios":"levelo://app?vid=cc446ff5-eceb-46cc-8cad-f8148cbe7241"},"vehicle_type_id":"4","last_reported":1744391291,"current_range_meters":14800,"station_id":"ce4bhb92rcd13ifvqen0","pricing_plan_id":"cebpf4jnsgd1na2vs0mg"},{"bike_id":"ef291804-1477-432e-b153-82ea15725418","system_id":"levelo_inurba_marseille","lat":43.33742,"lon":5.37454,"is_reserved":false,"is_disabled":false,"rental_uris":{"android":"levelo://app?vid=ef291804-1477-432e-b153-82ea15725418","ios":"levelo://app?vid=ef291804-1477-432e-b153-82ea15725418"},"vehicle_type_id":"4","last_reported":1744391291,"current_range_meters":14800,"station_id":"","pricing_plan_id":"cebpf4jnsgd1na2vs0mg"},{"bike_id":"4651fc10-fe57-460e-89c6-9ba891098581","system_id":"levelo_inurba_marseille","lat":43.24163,"lon":5.36429,"is_reserved":false,"is_disabled":false,"rental_uris":{"android":"levelo://app?vid=4651fc10-fe57-460e-89c6-9ba891098581","ios":"levelo://app?vid=4651fc10-fe57-460e-89c6-9ba891098581"},"vehicle_type_id":"4","last_reported":1744391291,"current_range_meters":14800,"station_id":"cpo36qri1sfpv3e86is0","pricing_plan_id":"cebpf4jnsgd1na2vs0mg"},{"bike_id":"ea99ab3d-eb03-4cbd-acbf-d40c2ed8f0bb","system_id":"levelo_inurba_marseille","lat":43.24809,"lon":5.37455,"is_reserved":false,"is_disabled":false,"rental_uris":{"android":"levelo://app?vid=ea99ab3d-eb03-4cbd-acbf-d40c2ed8f0bb","ios":"levelo://app?vid=ea99ab3d-eb03-4cbd-acbf-d40c2ed8f0bb"},"vehicle_type_id":"4","last_reported":1744391291,"current_range_meters":14800,"station_id":"ce4bhgh2rcd13ifvqfb0","pricing_plan_id":"cebpf4jnsgd1na2vs0mg"},{"bike_id":"9d068730-d643-404a-9d2b-1730a83eb675","system_id":"levelo_inurba_marseille","lat":43.28867,"lon":5.35866,"is_reserved":false,"is_disabled":false,"rental_uris":{"android":"levelo://app?vid=9d068730-d643-404a-9d2b-1730a83eb675","ios":"levelo://app?vid=9d068730-d643-404a-9d2b-1730a83eb675"},"vehicle_type_id":"4","last_reported":1744391291,"current_range_meters":15200,"station_id":"ce4bhb12rcd13ifvqem0","pricing_plan_id":"cebpf4jnsgd1na2vs0mg"},{"bike_id":"c21ec910-dc2b-4135-9c27-07904a0b84d8","system_id":"levelo_inurba_marseille","lat":43.29049,"lon":5.35925,"is_reserved":false,"is_disabled":false,"rental_uris":{"android":"levelo://app?vid=c21ec910-dc2b-4135-9c27-07904a0b84d8","ios":"levelo://app?vid=c21ec910-dc2b-4135-9c27-07904a0b84d8"},"vehicle_type_id":"4","last_reported":1744391291,"current_range_meters":14800,"station_id":"ce4bha92rcd13ifvqeg0","pricing_plan_id":"cebpf4jnsgd1na2vs0mg"},{"bike_id":"65fe5c3d-529d-433f-9c69-217999b29338","system_id":"levelo_inurba_marseille","lat":43.27048,"lon":5.40298,"is_reserved":false,"is_disabled":false,"rental_uris":{"android":"levelo://app?vid=65fe5c3d-529d-433f-9c69-217999b29338","ios":"levelo://app?vid=65fe5c3d-529d-433f-9c69-217999b29338"},"vehicle_type_id":"4","last_reported":1744391291,"current_range_meters":15200,"station_id":"ce4bhk92rcd13ifvqgc0","pricing_plan_id":"cebpf4jnsgd1na2vs0mg"},{"bike_id":"12bcf4ce-6706-47c8-8c06-630e73be7e5a","system_id":"levelo_inurba_marseille","lat":43.27076,"lon":5.42279,"is_reserved":false,"is_disabled":false,"rental_uris":{"android":"levelo://app?vid=12bcf4ce-6706-47c8-8c06-630e73be7e5a","ios":"levelo://app?vid=12bcf4ce-6706-47c8-8c06-630e73be7e5a"},"vehicle_type_id":"4","last_reported":1744391291,"current_range_meters":16000,"station_id":"ce4bhk92rcd13ifvqgb0","pricing_plan_id":"cebpf4jnsgd1na2vs0mg"},{"bike_id":"9a1d272e-9753-4a94-9fe2-5ea1f40e4ac3","system_id":"levelo_inurba_marseille","lat":43.28618,"lon":5.35104,"is_reserved":false,"is_disabled":false,"rental_uris":{"android":"levelo://app?vid=9a1d272e-9753-4a94-9fe2-5ea1f40e4ac3","ios":"levelo://app?vid=9a1d272e-9753-4a94-9fe2-5ea1f40e4ac3"},"vehicle_type_id":"4","last_reported":1744391291,"current_range_meters":16000,"station_id":"ce4bhch2rcd13ifvqeug","pricing_plan_id":"cebpf4jnsgd1na2vs0mg"},{"bike_id":"7c873a50-0a5c-4ba6-bd01-c190f37d1a81","system_id":"levelo_inurba_marseille","lat":43.28427,"lon":5.35006,"is_reserved":false,"is_disabled":false,"rental_uris":{"android":"levelo://app?vid=7c873a50-0a5c-4ba6-bd01-c190f37d1a81","ios":"levelo://app?vid=7c873a50-0a5c-4ba6-bd01-c190f37d1a81"},"vehicle_type_id":"4","last_reported":1744391291,"current_range_meters":16000,"station_id":"ce4bhbh2rcd13ifvqepg","pricing_plan_id":"cebpf4jnsgd1na2vs0mg"},{"bike_id":"765e9135-e37f-4972-af69-11accdb00456","system_id":"levelo_inurba_marseille","lat":43.28412,"lon":5.34997,"is_reserved":false,"is_disabled":false,"rental_uris":{"android":"levelo://app?vid=765e9135-e37f-4972-af69-11accdb00456","ios":"levelo://app?vid=765e9135-e37f-4972-af69-11accdb00456"},"vehicle_type_id":"4","last_reported":1744391291,"current_range_meters":16000,"station_id":"ce4bhbh2rcd13ifvqepg","pricing_plan_id":"cebpf4jnsgd1na2vs0mg"},{"bike_id":"2473096a-dfc1-4573-87fc-a0162a53cb4c","system_id":"levelo_inurba_marseille","lat":43.28627,"lon":5.35106,"is_reserved":false,"is_disabled":false,"rental_uris":{"android":"levelo://app?vid=2473096a-dfc1-4573-87fc-a0162a53cb4c","ios":"levelo://app?vid=2473096a-dfc1-4573-87fc-a0162a53cb4c"},"vehicle_type_id":"4","last_reported":1744391291,"current_range_meters":16000,"station_id":"ce4bhch2rcd13ifvqeug","pricing_plan_id":"cebpf4jnsgd1na2vs0mg"},{"bike_id":"f2d51714-6acc-45b0-ad90-03def090f265","system_id":"levelo_inurba_marseille","lat":43.2842,"lon":5.34992,"is_reserved":false,"is_disabled":false,"rental_uris":{"android":"levelo://app?vid=f2d51714-6acc-45b0-ad90-03def090f265","ios":"levelo://app?vid=f2d51714-6acc-45b0-ad90-03def090f265"},"vehicle_type_id":"4","last_reported":1744391291,"current_range_meters":16000,"station_id":"ce4bhbh2rcd13ifvqepg","pricing_plan_id":"cebpf4jnsgd1na2vs0mg"},{"bike_id":"1f5d8fa0-f14a-40d1-9081-3b2c1a95f80a","system_id":"levelo_inurba_marseille","lat":43.29533,"lon":5.39025,"is_reserved":false,"is_disabled":false,"rental_uris":{"android":"levelo://app?vid=1f5d8fa0-f14a-40d1-9081-3b2c1a95f80a","ios":"levelo://app?vid=1f5d8fa0-f14a-40d1-9081-3b2c1a95f80a"},"vehicle_type_id":"4","last_reported":1744391291,"current_range_meters":16400,"station_id":"ce4bh3p2rcd13ifvqdp0","pricing_plan_id":"cebpf4jnsgd1na2vs0mg"},{"bike_id":"5b77a833-8185-45c2-9fe3-07eb40df54ca","system_id":"levelo_inurba_marseille","lat":43.33995,"lon":5.38057,"is_reserved":false,"is_disabled":false,"rental_uris":{"android":"levelo://app?vid=5b77a833-8185-45c2-9fe3-07eb40df54ca","ios":"levelo://app?vid=5b77a833-8185-45c2-9fe3-07eb40df54ca"},"vehicle_type_id":"4","last_reported":1744391291,"current_range_meters":16400,"station_id":"","pricing_plan_id":"cebpf4jnsgd1na2vs0mg"},{"bike_id":"cfa05593-02c0-4361-b7cb-d147d92b27a4","system_id":"levelo_inurba_marseille","lat":43.24168,"lon":5.36425,"is_reserved":false,"is_disabled":false,"rental_uris":{"android":"levelo://app?vid=cfa05593-02c0-4361-b7cb-d147d92b27a4","ios":"levelo://app?vid=cfa05593-02c0-4361-b7cb-d147d92b27a4"},"vehicle_type_id":"4","last_reported":1744391291,"current_range_meters":16400,"station_id":"cpo36qri1sfpv3e86is0","pricing_plan_id":"cebpf4jnsgd1na2vs0mg"},{"bike_id":"5e5b550f-1c7a-4084-8186-539fdbbd94f1","system_id":"levelo_inurba_marseille","lat":43.27617,"lon":5.36105,"is_reserved":false,"is_disabled":false,"rental_uris":{"android":"levelo://app?vid=5e5b550f-1c7a-4084-8186-539fdbbd94f1","ios":"levelo://app?vid=5e5b550f-1c7a-4084-8186-539fdbbd94f1"},"vehicle_type_id":"4","last_reported":1744391291,"current_range_meters":16400,"station_id":"ce4bgj92rcd13ifvqbe0","pricing_plan_id":"cebpf4jnsgd1na2vs0mg"},{"bike_id":"ed284e81-0fa4-414d-b8f9-bf8796d4a14f","system_id":"levelo_inurba_marseille","lat":43.28408,"lon":5.34982,"is_reserved":false,"is_disabled":false,"rental_uris":{"android":"levelo://app?vid=ed284e81-0fa4-414d-b8f9-bf8796d4a14f","ios":"levelo://app?vid=ed284e81-0fa4-414d-b8f9-bf8796d4a14f"},"vehicle_type_id":"4","last_reported":1744391291,"current_range_meters":16400,"station_id":"ce4bhbh2rcd13ifvqepg","pricing_plan_id":"cebpf4jnsgd1na2vs0mg"},{"bike_id":"87137d25-706e-45c9-a69d-fff285bb94b3","system_id":"levelo_inurba_marseille","lat":43.31072,"lon":5.38361,"is_reserved":false,"is_disabled":false,"rental_uris":{"android":"levelo://app?vid=87137d25-706e-45c9-a69d-fff285bb94b3","ios":"levelo://app?vid=87137d25-706e-45c9-a69d-fff285bb94b3"},"vehicle_type_id":"4","last_reported":1744391291,"current_range_meters":16400,"station_id":"ce4bgv92rcd13ifvqcr0","pricing_plan_id":"cebpf4jnsgd1na2vs0mg"},{"bike_id":"524ff13b-1f8e-4fd4-96c7-e4a4484f6c09","system_id":"levelo_inurba_marseille","lat":43.303195,"lon":5.403034,"is_reserved":false,"is_disabled":false,"rental_uris":{"android":"levelo://app?vid=524ff13b-1f8e-4fd4-96c7-e4a4484f6c09","ios":"levelo://app?vid=524ff13b-1f8e-4fd4-96c7-e4a4484f6c09"},"vehicle_type_id":"4","last_reported":1744391291,"current_range_meters":16400,"station_id":"ce4bhop2rcd13ifvqh7g","pricing_plan_id":"cebpf4jnsgd1na2vs0mg"},{"bike_id":"88841d14-4a93-449b-a692-b9ff35b7cdcf","system_id":"levelo_inurba_marseille","lat":43.30145,"lon":5.3741,"is_reserved":false,"is_disabled":false,"rental_uris":{"android":"levelo://app?vid=88841d14-4a93-449b-a692-b9ff35b7cdcf","ios":"levelo://app?vid=88841d14-4a93-449b-a692-b9ff35b7cdcf"},"vehicle_type_id":"4","last_reported":1744391291,"current_range_meters":16800,"station_id":"ce4bgs92rcd13ifvqcc0","pricing_plan_id":"cebpf4jnsgd1na2vs0mg"},{"bike_id":"fff362a5-1629-482e-911a-647bef890aa1","system_id":"levelo_inurba_marseille","lat":43.2997,"lon":5.38496,"is_reserved":false,"is_disabled":false,"rental_uris":{"android":"levelo://app?vid=fff362a5-1629-482e-911a-647bef890aa1","ios":"levelo://app?vid=fff362a5-1629-482e-911a-647bef890aa1"},"vehicle_type_id":"4","last_reported":1744391291,"current_range_meters":16400,"station_id":"ce4bgj92rcd13ifvqbd0","pricing_plan_id":"cebpf4jnsgd1na2vs0mg"},{"bike_id":"8fea7c0a-4e8e-4ef4-bd83-803553dcc149","system_id":"levelo_inurba_marseille","lat":43.29218,"lon":5.36056,"is_reserved":false,"is_disabled":false,"rental_uris":{"android":"levelo://app?vid=8fea7c0a-4e8e-4ef4-bd83-803553dcc149","ios":"levelo://app?vid=8fea7c0a-4e8e-4ef4-bd83-803553dcc149"},"vehicle_type_id":"4","last_reported":1744391291,"current_range_meters":16800,"station_id":"ce4bhbh2rcd13ifvqeqg","pricing_plan_id":"cebpf4jnsgd1na2vs0mg"},{"bike_id":"e467d5b3-eef5-48a9-a58f-8da38a92d95a","system_id":"levelo_inurba_marseille","lat":43.28006,"lon":5.40011,"is_reserved":false,"is_disabled":false,"rental_uris":{"android":"levelo://app?vid=e467d5b3-eef5-48a9-a58f-8da38a92d95a","ios":"levelo://app?vid=e467d5b3-eef5-48a9-a58f-8da38a92d95a"},"vehicle_type_id":"4","last_reported":1744391291,"current_range_meters":16800,"station_id":"ce4bho92rcd13ifvqh4g","pricing_plan_id":"cebpf4jnsgd1na2vs0mg"},{"bike_id":"0e7bf4ae-5aed-4055-a1f8-96debbb9847e","system_id":"levelo_inurba_marseille","lat":43.241697,"lon":5.364,"is_reserved":false,"is_disabled":false,"rental_uris":{"android":"levelo://app?vid=0e7bf4ae-5aed-4055-a1f8-96debbb9847e","ios":"levelo://app?vid=0e7bf4ae-5aed-4055-a1f8-96debbb9847e"},"vehicle_type_id":"4","last_reported":1744391291,"current_range_meters":16800,"station_id":"cpo36qri1sfpv3e86is0","pricing_plan_id":"cebpf4jnsgd1na2vs0mg"},{"bike_id":"e4cceaca-a83d-41a5-bb47-b0b36939bc0f","system_id":"levelo_inurba_marseille","lat":43.29606,"lon":5.37722,"is_reserved":false,"is_disabled":false,"rental_uris":{"android":"levelo://app?vid=e4cceaca-a83d-41a5-bb47-b0b36939bc0f","ios":"levelo://app?vid=e4cceaca-a83d-41a5-bb47-b0b36939bc0f"},"vehicle_type_id":"4","last_reported":1744391291,"current_range_meters":17200,"station_id":"ce4bgi92rcd13ifvqb90","pricing_plan_id":"cebpf4jnsgd1na2vs0mg"},{"bike_id":"84c952d9-b9b8-4993-8c34-cdc6142a1262","system_id":"levelo_inurba_marseille","lat":43.299835,"lon":5.371799,"is_reserved":false,"is_disabled":false,"rental_uris":{"android":"levelo://app?vid=84c952d9-b9b8-4993-8c34-cdc6142a1262","ios":"levelo://app?vid=84c952d9-b9b8-4993-8c34-cdc6142a1262"},"vehicle_type_id":"4","last_reported":1744391291,"current_range_meters":16800,"station_id":"ce4bhb92rcd13ifvqen0","pricing_plan_id":"cebpf4jnsgd1na2vs0mg"},{"bike_id":"cc9d8729-c7f8-4602-b3e3-37714ef36842","system_id":"levelo_inurba_marseille","lat":43.24808,"lon":5.37459,"is_reserved":false,"is_disabled":false,"rental_uris":{"android":"levelo://app?vid=cc9d8729-c7f8-4602-b3e3-37714ef36842","ios":"levelo://app?vid=cc9d8729-c7f8-4602-b3e3-37714ef36842"},"vehicle_type_id":"4","last_reported":1744391291,"current_range_meters":17200,"station_id":"ce4bhgh2rcd13ifvqfb0","pricing_plan_id":"cebpf4jnsgd1na2vs0mg"},{"bike_id":"7a5c9c76-4e30-46ad-a0c8-64088d059970","system_id":"levelo_inurba_marseille","lat":43.2409,"lon":5.37762,"is_reserved":false,"is_disabled":false,"rental_uris":{"android":"levelo://app?vid=7a5c9c76-4e30-46ad-a0c8-64088d059970","ios":"levelo://app?vid=7a5c9c76-4e30-46ad-a0c8-64088d059970"},"vehicle_type_id":"4","last_reported":1744391291,"current_range_meters":17200,"station_id":"ce4bhnp2rcd13ifvqgvg","pricing_plan_id":"cebpf4jnsgd1na2vs0mg"},{"bike_id":"896d3b5f-ab31-48c8-92dc-50e5bd5335ac","system_id":"levelo_inurba_marseille","lat":43.317547,"lon":5.390183,"is_reserved":false,"is_disabled":false,"rental_uris":{"android":"levelo://app?vid=896d3b5f-ab31-48c8-92dc-50e5bd5335ac","ios":"levelo://app?vid=896d3b5f-ab31-48c8-92dc-50e5bd5335ac"},"vehicle_type_id":"4","last_reported":1744391291,"current_range_meters":17200,"station_id":"ce4bhqp2rcd13ifvqhng","pricing_plan_id":"cebpf4jnsgd1na2vs0mg"},{"bike_id":"adab0148-372e-4fab-980e-7006f1bac408","system_id":"levelo_inurba_marseille","lat":43.27387,"lon":5.36222,"is_reserved":false,"is_disabled":false,"rental_uris":{"android":"levelo://app?vid=adab0148-372e-4fab-980e-7006f1bac408","ios":"levelo://app?vid=adab0148-372e-4fab-980e-7006f1bac408"},"vehicle_type_id":"4","last_reported":1744391291,"current_range_meters":17200,"station_id":"ce4bhbh2rcd13ifvqeo0","pricing_plan_id":"cebpf4jnsgd1na2vs0mg"},{"bike_id":"e011067e-6b64-4237-b7b1-192d0b3b6ea3","system_id":"levelo_inurba_marseille","lat":43.28881,"lon":5.36404,"is_reserved":false,"is_disabled":false,"rental_uris":{"android":"levelo://app?vid=e011067e-6b64-4237-b7b1-192d0b3b6ea3","ios":"levelo://app?vid=e011067e-6b64-4237-b7b1-192d0b3b6ea3"},"vehicle_type_id":"4","last_reported":1744391291,"current_range_meters":17200,"station_id":"","pricing_plan_id":"cebpf4jnsgd1na2vs0mg"},{"bike_id":"90cddebc-2506-42ee-9df1-36a6154dff75","system_id":"levelo_inurba_marseille","lat":43.24166,"lon":5.36402,"is_reserved":false,"is_disabled":false,"rental_uris":{"android":"levelo://app?vid=90cddebc-2506-42ee-9df1-36a6154dff75","ios":"levelo://app?vid=90cddebc-2506-42ee-9df1-36a6154dff75"},"vehicle_type_id":"4","last_reported":1744391291,"current_range_meters":17600,"station_id":"cpo36qri1sfpv3e86is0","pricing_plan_id":"cebpf4jnsgd1na2vs0mg"},{"bike_id":"07fa79c9-4262-4e95-a78c-3a95b4d11575","system_id":"levelo_inurba_marseille","lat":43.30218,"lon":5.3946,"is_reserved":false,"is_disabled":false,"rental_uris":{"android":"levelo://app?vid=07fa79c9-4262-4e95-a78c-3a95b4d11575","ios":"levelo://app?vid=07fa79c9-4262-4e95-a78c-3a95b4d11575"},"vehicle_type_id":"4","last_reported":1744391291,"current_range_meters":17600,"station_id":"ce4bh0p2rcd13ifvqd70","pricing_plan_id":"cebpf4jnsgd1na2vs0mg"},{"bike_id":"1518266c-bc0c-4dc5-92e2-32256cc663dd","system_id":"levelo_inurba_marseille","lat":43.28425,"lon":5.35001,"is_reserved":false,"is_disabled":false,"rental_uris":{"android":"levelo://app?vid=1518266c-bc0c-4dc5-92e2-32256cc663dd","ios":"levelo://app?vid=1518266c-bc0c-4dc5-92e2-32256cc663dd"},"vehicle_type_id":"4","last_reported":1744391291,"current_range_meters":17600,"station_id":"ce4bhbh2rcd13ifvqepg","pricing_plan_id":"cebpf4jnsgd1na2vs0mg"},