{"last_updated":1707847784,"ttl":30,"version":"2.2","data":{"bikes":[{"bike_id":"941e1a41-0ea2-4c41-840f-58a9f8026d49","system_id":"levelo_inurba_marseille","lat":43.312452,"lon":5.368456,"is_reserved":false,"is_disabled":false,"rental_uris":{"android":"levelo://app?vid=941e1a41-0ea2-4c41-840f-58a9f8026d49","ios":"levelo://app?vid=941e1a41-0ea2-4c41-840f-58a9f8026d49"},"vehicle_type_id":"4","last_reported":1707847784,"current_range_meters":14800,"station_id":"ce4bgl92rcd13ifvqbq0","pricing_plan_id":"cebpf4jnsgd1na2vs0mg"},{"bike_id":"d0124437-d3ce-42eb-87bc-dc6d5283c0b6","system_id":"levelo_inurba_marseille","lat":43.312239,"lon":5.368562,"is_reserved":false,"is_disabled":false,"rental_uris":{"android":"levelo://app?vid=d0124437-d3ce-42eb-87bc-dc6d5283c0b6","ios":"levelo://app?vid=d0124437-d3ce-42eb-87bc-dc6d5283c0b6"},"vehicle_type_id":"4","last_reported":1707847784,"current_range_meters":11600,"station_id":"ce4bgl92rcd13ifvqbq0","pricing_plan_id":"cebpf4jnsgd1na2vs0mg"},{"bike_id":"22608991-9746-4dde-b897-0654e07d6024","system_id":"levelo_inurba_marseille","lat":43.309076,"lon":5.368465,"is_reserved":false,"is_disabled":false,"rental_uris":{"android":"levelo://app?vid=22608991-9746-4dde-b897-0654e07d6024","ios":"levelo://app?vid=22608991-9746-4dde-b897-0654e07d6024"},"vehicle_type_id":"4","last_reported":1707847784,"current_range_meters":0,"station_id":"ce4bgn92rcd13ifvqbvg","pricing_plan_id":"cebpf4jnsgd1na2vs0mg"},{"bike_id":"be5022dd-1b3a-40b6-9891-0c43206a56b4","system_id":"levelo_inurba_marseille","lat":43.314811,"lon":5.373103,"is_reserved":false,"is_disabled":false,"rental_uris":{"android":"levelo://app?vid=be5022dd-1b3a-40b6-9891-0c43206a56b4","ios":"levelo://app?vid=be5022dd-1b3a-40b6-9891-0c43206a56b4"},"vehicle_type_id":"4","last_reported":1707847784,"current_range_meters":0,"station_id":"ce4bgt12rcd13ifvqcd0","pricing_plan_id":"cebpf4jnsgd1na2vs0mg"},{"bike_id":"98d540a4-e6ae-4b8a-8701-e164a13d4859","system_id":"levelo_inurba_marseille","lat":43.308815,"lon":5.371955,"is_reserved":false,"is_disabled":false,"rental_uris":{"android":"levelo://app?vid=98d540a4-e6ae-4b8a-8701-e164a13d4859","ios":"levelo://app?vid=98d540a4-e6ae-4b8a-8701-e164a13d4859"},"vehicle_type_id":"4","last_reported":1707847784,"current_range_meters":20800,"station_id":"ce4bguh2rcd13ifvqckg","pricing_plan_id":"cebpf4jnsgd1na2vs0mg"},{"bike_id":"e890c8b2-313e-46e9-b7d7-4584cb7fbf7a","system_id":"levelo_inurba_marseille","lat":43.305714,"lon":5.365633,"is_reserved":false,"is_disabled":false,"rental_uris":{"android":"levelo://app?vid=e890c8b2-313e-46e9-b7d7-4584cb7fbf7a","ios":"levelo://app?vid=e890c8b2-313e-46e9-b7d7-4584cb7fbf7a"},"vehicle_type_id":"4","last_reported":1707847784,"current_range_meters":8800,"station_id":"ce4bgs12rcd13ifvqcag","pricing_plan_id":"cebpf4jnsgd1na2vs0mg"},{"bike_id":"24141e23-0c7c-406f-a237-4918c06e395e","system_id":"levelo_inurba_marseille","lat":43.305368,"lon":5.367343,"is_reserved":false,"is_disabled":false,"rental_uris":{"android":"levelo://app?vid=24141e23-0c7c-406f-a237-4918c06e395e","ios":"levelo://app?vid=24141e23-0c7c-406f-a237-4918c06e395e"},"vehicle_type_id":"4","last_reported":1707847784,"current_range_meters":14000,"station_id":"ce4bgrp2rcd13ifvqc9g","pricing_plan_id":"cebpf4jnsgd1na2vs0mg"},{"bike_id":"2d43d505-e14c-40c2-95d3-b2400de9703b","system_id":"levelo_inurba_marseille","lat":43.305989,"lon":5.37225,"is_reserved":false,"is_disabled":false,"rental_uris":{"android":"levelo://app?vid=2d43d505-e14c-40c2-95d3-b2400de9703b","ios":"levelo://app?vid=2d43d505-e14c-40c2-95d3-b2400de9703b"},"vehicle_type_id":"4","last_reported":1707847784,"current_range_meters":25600,"station_id":"ce4bgqh2rcd13ifvqc4g","pricing_plan_id":"cebpf4jnsgd1na2vs0mg"},{"bike_id":"bdaa1503-6912-4967-b689-8d7b943af830","system_id":"levelo_inurba_marseille","lat":43.31114,"lon":5.37781,"is_reserved":false,"is_disabled":false,"rental_uris":{"android":"levelo://app?vid=bdaa1503-6912-4967-b689-8d7b943af830","ios":"levelo://app?vid=bdaa1503-6912-4967-b689-8d7b943af830"},"vehicle_type_id":"4","last_reported":1707847784,"current_range_meters":0,"station_id":"","pricing_plan_id":"cebpf4jnsgd1na2vs0mg"},{"bike_id":"d02dfff1-9a44-4e56-b42e-027b00c7fc02","system_id":"levelo_inurba_marseille","lat":43.307945,"lon":5.376487,"is_reserved":false,"is_disabled":false,"rental_uris":{"android":"levelo://app?vid=d02dfff1-9a44-4e56-b42e-027b00c7fc02","ios":"levelo://app?vid=d02dfff1-9a44-4e56-b42e-027b00c7fc02"},"vehicle_type_id":"4","last_reported":1707847784,"current_range_meters":13200,"station_id":"ce4bgv92rcd13ifvqcq0","pricing_plan_id":"cebpf4jnsgd1na2vs0mg"},{"bike_id":"a7798690-220e-4d5a-b142-1aeb447ef63e","system_id":"levelo_inurba_marseille","lat":43.317075,"lon":5.377367,"is_reserved":false,"is_disabled":false,"rental_uris":{"android":"levelo://app?vid=a7798690-220e-4d5a-b142-1aeb447ef63e","ios":"levelo://app?vid=a7798690-220e-4d5a-b142-1aeb447ef63e"},"vehicle_type_id":"4","last_reported":1707847784,"current_range_meters":7600,"station_id":"ce4bgth2rcd13ifvqch0","pricing_plan_id":"cebpf4jnsgd1na2vs0mg"},{"bike_id":"ea3a8a2f-e4df-4d97-b27b-3337c1f44d64","system_id":"levelo_inurba_marseille","lat":43.317075,"lon":5.377367,"is_reserved":false,"is_disabled":false,"rental_uris":{"android":"levelo://app?vid=ea3a8a2f-e4df-4d97-b27b-3337c1f44d64","ios":"levelo://app?vid=ea3a8a2f-e4df-4d97-b27b-3337c1f44d64"},"vehicle_type_id":"4","last_reported":1707847784,"current_range_meters":14000,"station_id":"ce4bgth2rcd13ifvqch0","pricing_plan_id":"cebpf4jnsgd1na2vs0mg"},{"bike_id":"92b98226-570e-4339-8336-f21914ed09d5","system_id":"levelo_inurba_marseille","lat":43.315293,"lon":5.380349,"is_reserved":false,"is_disabled":false,"rental_uris":{"android":"levelo://app?vid=92b98226-570e-4339-8336-f21914ed09d5","ios":"levelo://app?vid=92b98226-570e-4339-8336-f21914ed09d5"},"vehicle_type_id":"4","last_reported":1707847784,"current_range_meters":24400,"station_id":"ce4bhsp2rcd13ifvqi50","pricing_plan_id":"cebpf4jnsgd1na2vs0mg"},{"bike_id":"99b25015-5bc0-4096-9668-a27a161256eb","system_id":"levelo_inurba_marseille","lat":43.32273,"lon":5.36961,"is_reserved":false,"is_disabled":false,"rental_uris":{"android":"levelo://app?vid=99b25015-5bc0-4096-9668-a27a161256eb","ios":"levelo://app?vid=99b25015-5bc0-4096-9668-a27a161256eb"},"vehicle_type_id":"4","last_reported":1707847784,"current_range_meters":10000,"station_id":"","pricing_plan_id":"cebpf4jnsgd1na2vs0mg"},{"bike_id":"9837374c-3dde-4b97-8ea7-61be83a641cc","system_id":"levelo_inurba_marseille","lat":43.301939,"lon":5.366286,"is_reserved":false,"is_disabled":false,"rental_uris":{"android":"levelo://app?vid=9837374c-3dde-4b97-8ea7-61be83a641cc","ios":"levelo://app?vid=9837374c-3dde-4b97-8ea7-61be83a641cc"},"vehicle_type_id":"4","last_reported":1707847784,"current_range_meters":26800,"station_id":"ce4bgrh2rcd13ifvqc8g","pricing_plan_id":"cebpf4jnsgd1na2vs0mg"},{"bike_id":"ec0a2343-3a6a-4ef0-9d9b-9149471c3f76","system_id":"levelo_inurba_marseille","lat":43.301939,"lon":5.366286,"is_reserved":false,"is_disabled":false,"rental_uris":{"android":"levelo://app?vid=ec0a2343-3a6a-4ef0-9d9b-9149471c3f76","ios":"levelo://app?vid=ec0a2343-3a6a-4ef0-9d9b-9149471c3f76"},"vehicle_type_id":"4","last_reported":1707847784,"current_range_meters":0,"station_id":"ce4bgrh2rcd13ifvqc8g","pricing_plan_id":"cebpf4jnsgd1na2vs0mg"},{"bike_id":"0ab38bb7-a2b9-4d7c-8f29-ecee32cdc371","system_id":"levelo_inurba_marseille","lat":43.301939,"lon":5.366286,"is_reserved":false,"is_disabled":false,"rental_uris":{"android":"levelo://app?vid=0ab38bb7-a2b9-4d7c-8f29-ecee32cdc371","ios":"levelo://app?vid=0ab38bb7-a2b9-4d7c-8f29-ecee32cdc371"},"vehicle_type_id":"4","last_reported":1707847784,"current_range_meters":14400,"station_id":"ce4bgrh2rcd13ifvqc8g","pricing_plan_id":"cebpf4jnsgd1na2vs0mg"},{"bike_id":"34fc1f60-2015-49c0-9c5f-4b8a4ea20596","system_id":"levelo_inurba_marseille","lat":43.304606,"lon":5.379026,"is_reserved":false,"is_disabled":false,"rental_uris":{"android":"levelo://app?vid=34fc1f60-2015-49c0-9c5f-4b8a4ea20596","ios":"levelo://app?vid=34fc1f60-2015-49c0-9c5f-4b8a4ea20596"},"vehicle_type_id":"4","last_reported":1707847784,"current_range_meters":0,"station_id":"ce4bgup2rcd13ifvqcn0","pricing_plan_id":"cebpf4jnsgd1na2vs0mg"},{"bike_id":"a5150c7a-e2e5-4922-972d-4b2fc2e80862","system_id":"levelo_inurba_marseille","lat":43.324771,"lon":5.36557,"is_reserved":false,"is_disabled":false,"rental_uris":{"android":"levelo://app?vid=a5150c7a-e2e5-4922-972d-4b2fc2e80862","ios":"levelo://app?vid=a5150c7a-e2e5-4922-972d-4b2fc2e80862"},"vehicle_type_id":"4","last_reported":1707847784,"current_range_meters":16400,"station_id":"ce4bhs12rcd13ifvqhvg","pricing_plan_id":"cebpf4jnsgd1na2vs0mg"},{"bike_id":"237d60d5-e9da-4c8d-9843-6915d4445eeb","system_id":"levelo_inurba_marseille","lat":43.302784,"lon":5.377158,"is_reserved":false,"is_disabled":false,"rental_uris":{"android":"levelo://app?vid=237d60d5-e9da-4c8d-9843-6915d4445eeb","ios":"levelo://app?vid=237d60d5-e9da-4c8d-9843-6915d4445eeb"},"vehicle_type_id":"4","last_reported":1707847784,"current_range_meters":19600,"station_id":"ce4bguh2rcd13ifvqcj0","pricing_plan_id":"cebpf4jnsgd1na2vs0mg"},{"bike_id":"1ddcb4a9-2c2c-4499-8df2-9b141368eee9","system_id":"levelo_inurba_marseille","lat":43.319692,"lon":5.380863,"is_reserved":false,"is_disabled":false,"rental_uris":{"android":"levelo://app?vid=1ddcb4a9-2c2c-4499-8df2-9b141368eee9","ios":"levelo://app?vid=1ddcb4a9-2c2c-4499-8df2-9b141368eee9"},"vehicle_type_id":"4","last_reported":1707847784,"current_range_meters":27200,"station_id":"ce4bhr12rcd13ifvqhpg","pricing_plan_id":"cebpf4jnsgd1na2vs0mg"},{"bike_id":"904717e0-567f-402b-b8fb-82da03c63213","system_id":"levelo_inurba_marseille","lat":43.319935,"lon":5.381699,"is_reserved":false,"is_disabled":false,"rental_uris":{"android":"levelo://app?vid=904717e0-567f-402b-b8fb-82da03c63213","ios":"levelo://app?vid=904717e0-567f-402b-b8fb-82da03c63213"},"vehicle_type_id":"4","last_reported":1707847784,"current_range_meters":7200,"station_id":"ce4bhr12rcd13ifvqhpg","pricing_plan_id":"cebpf4jnsgd1na2vs0mg"},{"bike_id":"9fbc3664-6855-4721-960a-9f9f9da0da99","system_id":"levelo_inurba_marseille","lat":43.31994,"lon":5.38162,"is_reserved":false,"is_disabled":false,"rental_uris":{"android":"levelo://app?vid=9fbc3664-6855-4721-960a-9f9f9da0da99","ios":"levelo://app?vid=9fbc3664-6855-4721-960a-9f9f9da0da99"},"vehicle_type_id":"4","last_reported":1707847784,"current_range_meters":16400,"station_id":"ce4bhr12rcd13ifvqhpg","pricing_plan_id":"cebpf4jnsgd1na2vs0mg"},{"bike_id":"b25cccec-e675-4a98-97d6-a3de1290297b","system_id":"levelo_inurba_marseille","lat":43.313571,"lon":5.384829,"is_reserved":false,"is_disabled":false,"rental_uris":{"android":"levelo://app?vid=b25cccec-e675-4a98-97d6-a3de1290297b","ios":"levelo://app?vid=b25cccec-e675-4a98-97d6-a3de1290297b"},"vehicle_type_id":"4","last_reported":1707847784,"current_range_meters":6800,"station_id":"ce4bgt92rcd13ifvqcf0","pricing_plan_id":"cebpf4jnsgd1na2vs0mg"},{"bike_id":"32ab5c19-1225-4254-b071-d8925a93e7a1","system_id":"levelo_inurba_marseille","lat":43.299724,"lon":5.371829,"is_reserved":false,"is_disabled":false,"rental_uris":{"android":"levelo://app?vid=32ab5c19-1225-4254-b071-d8925a93e7a1","ios":"levelo://app?vid=32ab5c19-1225-4254-b071-d8925a93e7a1"},"vehicle_type_id":"4","last_reported":1707847784,"current_range_meters":0,"station_id":"ce4bgr92rcd13ifvqc7g","pricing_plan_id":"cebpf4jnsgd1na2vs0mg"},{"bike_id":"df75f092-ec0c-42e8-96c7-55a04503cc2d","system_id":"levelo_inurba_marseille","lat":43.29966,"lon":5.37178,"is_reserved":false,"is_disabled":false,"rental_uris":{"android":"levelo://app?vid=df75f092-ec0c-42e8-96c7-55a04503cc2d","ios":"levelo://app?vid=df75f092-ec0c-42e8-96c7-55a04503cc2d"},"vehicle_type_id":"4","last_reported":1707847784,"current_range_meters":0,"station_id":"ce4bgkp2rcd13ifvqbmg","pricing_plan_id":"cebpf4jnsgd1na2vs0mg"},{"bike_id":"ae7d6a0b-25f1-4a5c-a789-eca686216161","system_id":"levelo_inurba_marseille","lat":43.311722,"lon":5.387247,"is_reserved":false,"is_disabled":false,"rental_uris":{"android":"levelo://app?vid=ae7d6a0b-25f1-4a5c-a789-eca686216161","ios":"levelo://app?vid=ae7d6a0b-25f1-4a5c-a789-eca686216161"},"vehicle_type_id":"4","last_reported":1707847784,"current_range_meters":4400,"station_id":"ce4bgv12rcd13ifvqcp0","pricing_plan_id":"cebpf4jnsgd1na2vs0mg"},{"bike_id":"3b6fd47c-f860-4967-b147-3526322b443e","system_id":"levelo_inurba_marseille","lat":43.31151,"lon":5.3869,"is_reserved":false,"is_disabled":false,"rental_uris":{"android":"levelo://app?vid=3b6fd47c-f860-4967-b147-3526322b443e","ios":"levelo://app?vid=3b6fd47c-f860-4967-b147-3526322b443e"},"vehicle_type_id":"4","last_reported":1707847784,"current_range_meters":14800,"station_id":"ce4bgv12rcd13ifvqcp0","pricing_plan_id":"cebpf4jnsgd1na2vs0mg"},{"bike_id":"e6ffc254-7f2a-40f3-8234-fe942a5e6c04","system_id":"levelo_inurba_marseille","lat":43.299243,"lon":5.374807,"is_reserved":false,"is_disabled":false,"rental_uris":{"android":"levelo://app?vid=e6ffc254-7f2a-40f3-8234-fe942a5e6c04","ios":"levelo://app?vid=e6ffc254-7f2a-40f3-8234-fe942a5e6c04"},"vehicle_type_id":"4","last_reported":1707847784,"current_range_meters":16000,"station_id":"ce4bgjh2rcd13ifvqbg0","pricing_plan_id":"cebpf4jnsgd1na2vs0mg"},{"bike_id":"ed611130-3556-4c6e-93c9-3d1e7ca492a5","system_id":"levelo_inurba_marseille","lat":43.299243,"lon":5.37481,"is_reserved":false,"is_disabled":false,"rental_uris":{"android":"levelo://app?vid=ed611130-3556-4c6e-93c9-3d1e7ca492a5","ios":"levelo://app?vid=ed611130-3556-4c6e-93c9-3d1e7ca492a5"},"vehicle_type_id":"4","last_reported":1707847784,"current_range_meters":13600,"station_id":"ce4bgjh2rcd13ifvqbg0","pricing_plan_id":"cebpf4jnsgd1na2vs0mg"},{"bike_id":"65a98e38-96a7-4bc0-aaa0-357f720b87dc","system_id":"levelo_inurba_marseille","lat":43.305272,"lon":5.384255,"is_reserved":false,"is_disabled":false,"rental_uris":{"android":"levelo://app?vid=65a98e38-96a7-4bc0-aaa0-357f720b87dc","ios":"levelo://app?vid=65a98e38-96a7-4bc0-aaa0-357f720b87dc"},"vehicle_type_id":"4","last_reported":1707847784,"current_range_meters":400,"station_id":"ce4bgk12rcd13ifvqbi0","pricing_plan_id":"cebpf4jnsgd1na2vs0mg"},{"bike_id":"6ffa6b6a-7b82-49ba-ad56-80f6e9d7896f","system_id":"levelo_inurba_marseille","lat":43.299243,"lon":5.374807,"is_reserved":false,"is_disabled":false,"rental_uris":{"android":"levelo://app?vid=6ffa6b6a-7b82-49ba-ad56-80f6e9d7896f","ios":"levelo://app?vid=6ffa6b6a-7b82-49ba-ad56-80f6e9d7896f"},"vehicle_type_id":"4","last_reported":1707847784,"current_range_meters":2800,"station_id":"ce4bgjh2rcd13ifvqbg0","pricing_plan_id":"cebpf4jnsgd1na2vs0mg"},{"bike_id":"670ecfa0-760c-4f59-ab7d-453e16339e83","system_id":"levelo_inurba_marseille","lat":43.299243,"lon":5.37481,"is_reserved":false,"is_disabled":false,"rental_uris":{"android":"levelo://app?vid=670ecfa0-760c-4f59-ab7d-453e16339e83","ios":"levelo://app?vid=670ecfa0-760c-4f59-ab7d-453e16339e83"},"vehicle_type_id":"4","last_reported":1707847784,"current_range_meters":9200,"station_id":"ce4bgjh2rcd13ifvqbg0","pricing_plan_id":"cebpf4jnsgd1na2vs0mg"},{"bike_id":"a8b5180e-f39f-407d-b5d0-52b35fd20ac4","system_id":"levelo_inurba_marseille","lat":43.311722,"lon":5.387247,"is_reserved":false,"is_disabled":false,"rental_uris":{"android":"levelo://app?vid=a8b5180e-f39f-407d-b5d0-52b35fd20ac4","ios":"levelo://app?vid=a8b5180e-f39f-407d-b5d0-52b35fd20ac4"},"vehicle_type_id":"4","last_reported":1707847784,"current_range_meters":31200,"station_id":"ce4bgv12rcd13ifvqcp0","pricing_plan_id":"cebpf4jnsgd1na2vs0mg"},{"bike_id":"f9a328d6-c6dc-4cba-aea7-5d42634a1c6c","system_id":"levelo_inurba_marseille","lat":43.322872,"lon":5.382756,"is_reserved":false,"is_disabled":false,"rental_uris":{"android":"levelo://app?vid=f9a328d6-c6dc-4cba-aea7-5d42634a1c6c","ios":"levelo://app?vid=f9a328d6-c6dc-4cba-aea7-5d42634a1c6c"},"vehicle_type_id":"4","last_reported":1707847784,"current_range_meters":24800,"station_id":"ce4bhr12rcd13ifvqhqg","pricing_plan_id":"cebpf4jnsgd1na2vs0mg"},{"bike_id":"88c1afde-4863-4c74-a203-6c82ce46597f","system_id":"levelo_inurba_marseille","lat":43.322872,"lon":5.382756,"is_reserved":false,"is_disabled":false,"rental_uris":{"android":"levelo://app?vid=88c1afde-4863-4c74-a203-6c82ce46597f","ios":"levelo://app?vid=88c1afde-4863-4c74-a203-6c82ce46597f"},"vehicle_type_id":"4","last_reported":1707847784,"current_range_meters":28000,"station_id":"ce4bhr12rcd13ifvqhqg","pricing_plan_id":"cebpf4jnsgd1na2vs0mg"},{"bike_id":"ba86b31f-2633-4749-a52f-df87d05cac59","system_id":"levelo_inurba_marseille","lat":43.297774,"lon":5.370875,"is_reserved":false,"is_disabled":false,"rental_uris":{"android":"levelo://app?vid=ba86b31f-2633-4749-a52f-df87d05cac59","ios":"levelo://app?vid=ba86b31f-2633-4749-a52f-df87d05cac59"},"vehicle_type_id":"4","last_reported":1707847784,"current_range_meters":2000,"station_id":"ce4bgop2rcd13ifvqc1g","pricing_plan_id":"cebpf4jnsgd1na2vs0mg"},{"bike_id":"d74bd2a1-22ad-4021-869f-09a8873f8a42","system_id":"levelo_inurba_marseille","lat":43.322872,"lon":5.382756,"is_reserved":false,"is_disabled":false,"rental_uris":{"android":"levelo://app?vid=d74bd2a1-22ad-4021-869f-09a8873f8a42","ios":"levelo://app?vid=d74bd2a1-22ad-4021-869f-09a8873f8a42"},"vehicle_type_id":"4","last_reported":1707847784,"current_range_meters":20400,"station_id":"ce4bhr12rcd13ifvqhqg","pricing_plan_id":"cebpf4jnsgd1na2vs0mg"},{"bike_id":"aed9e4ad-9c1a-4a51-8095-58a12f0b44f4","system_id":"levelo_inurba_marseille","lat":43.322872,"lon":5.382756,"is_reserved":false,"is_disabled":false,"rental_uris":{"android":"levelo://app?vid=aed9e4ad-9c1a-4a51-8095-58a12f0b44f4","ios":"levelo://app?vid=aed9e4ad-9c1a-4a51-8095-58a12f0b44f4"},"vehicle_type_id":"4","last_reported":1707847784,"current_range_meters":30800,"station_id":"ce4bhr12rcd13ifvqhqg","pricing_plan_id":"cebpf4jnsgd1na2vs0mg"},{"bike_id":"24cbb04a-c763-4b6c-91c7-7ce4ce9a6969","system_id":"levelo_inurba_marseille","lat":43.32822,"lon":5.36686,"is_reserved":false,"is_disabled":false,"rental_uris":{"android":"levelo://app?vid=24cbb04a-c763-4b6c-91c7-7ce4ce9a6969","ios":"levelo://app?vid=24cbb04a-c763-4b6c-91c7-7ce4ce9a6969"},"vehicle_type_id":"4","last_reported":1707847784,"current_range_meters":21200,"station_id":"ce4bhs92rcd13ifvqi0g","pricing_plan_id":"cebpf4jnsgd1na2vs0mg"},{"bike_id":"ec21c626-faeb-41e5-9192-4d2bef3ee4d3","system_id":"levelo_inurba_marseille","lat":43.32822,"lon":5.36682,"is_reserved":false,"is_disabled":false,"rental_uris":{"android":"levelo://app?vid=ec21c626-faeb-41e5-9192-4d2bef3ee4d3","ios":"levelo://app?vid=ec21c626-faeb-41e5-9192-4d2bef3ee4d3"},"vehicle_type_id":"4","last_reported":1707847784,"current_range_meters":13600,"station_id":"ce4bhs92rcd13ifvqi0g","pricing_plan_id":"cebpf4jnsgd1na2vs0mg"},{"bike_id":"07a2b44b-47c4-46fe-b8d8-d7ad3b775366","system_id":"levelo_inurba_marseille","lat":43.32826,"lon":5.36681,"is_reserved":false,"is_disabled":false,"rental_uris":{"android":"levelo://app?vid=07a2b44b-47c4-46fe-b8d8-d7ad3b775366","ios":"levelo://app?vid=07a2b44b-47c4-46fe-b8d8-d7ad3b775366"},"vehicle_type_id":"4","last_reported":1707847784,"current_range_meters":30800,"station_id":"ce4bhs92rcd13ifvqi0g","pricing_plan_id":"cebpf4jnsgd1na2vs0mg"},{"bike_id":"b354d40e-f748-45df-b8a4-085ee0f39b31","system_id":"levelo_inurba_marseille","lat":43.32827,"lon":5.36682,"is_reserved":false,"is_disabled":false,"rental_uris":{"android":"levelo://app?vid=b354d40e-f748-45df-b8a4-085ee0f39b31","ios":"levelo://app?vid=b354d40e-f748-45df-b8a4-085ee0f39b31"},"vehicle_type_id":"4","last_reported":1707847784,"current_range_meters":28400,"station_id":"ce4bhs92rcd13ifvqi0g","pricing_plan_id":"cebpf4jnsgd1na2vs0mg"},{"bike_id":"b1ae39ac-e250-4a6a-9a12-58352f8b9818","system_id":"levelo_inurba_marseille","lat":43.32828,"lon":5.36696,"is_reserved":false,"is_disabled":false,"rental_uris":{"android":"levelo://app?vid=b1ae39ac-e250-4a6a-9a12-58352f8b9818","ios":"levelo://app?vid=b1ae39ac-e250-4a6a-9a12-58352f8b9818"},"vehicle_type_id":"4","last_reported":1707847784,"current_range_meters":10000,"station_id":"ce4bhs92rcd13ifvqi0g","pricing_plan_id":"cebpf4jnsgd1na2vs0mg"},{"bike_id":"eec18b1c-bcf1-4268-8859-b234d772b467","system_id":"levelo_inurba_marseille","lat":43.32828,"lon":5.3668,"is_reserved":false,"is_disabled":false,"rental_uris":{"android":"levelo://app?vid=eec18b1c-bcf1-4268-8859-b234d772b467","ios":"levelo://app?vid=eec18b1c-bcf1-4268-8859-b234d772b467"},"vehicle_type_id":"4","last_reported":1707847784,"current_range_meters":16400,"station_id":"ce4bhs92rcd13ifvqi0g","pricing_plan_id":"cebpf4jnsgd1na2vs0mg"},{"bike_id":"b69dafd6-5e51-4079-932c-30e4c80d8b2d","system_id":"levelo_inurba_marseille","lat":43.32829,"lon":5.36695,"is_reserved":false,"is_disabled":false,"rental_uris":{"android":"levelo://app?vid=b69dafd6-5e51-4079-932c-30e4c80d8b2d","ios":"levelo://app?vid=b69dafd6-5e51-4079-932c-30e4c80d8b2d"},"vehicle_type_id":"4","last_reported":1707847784,"current_range_meters":12000,"station_id":"ce4bhs92rcd13ifvqi0g","pricing_plan_id":"cebpf4jnsgd1na2vs0mg"},{"bike_id":"00c486e2-5b6f-4240-9c00-f34f4cd392e2","system_id":"levelo_inurba_marseille","lat":43.328291,"lon":5.366774,"is_reserved":false,"is_disabled":false,"rental_uris":{"android":"levelo://app?vid=00c486e2-5b6f-4240-9c00-f34f4cd392e2","ios":"levelo://app?vid=00c486e2-5b6f-4240-9c00-f34f4cd392e2"},"vehicle_type_id":"4","last_reported":1707847784,"current_range_meters":21200,"station_id":"ce4bhs92rcd13ifvqi0g","pricing_plan_id":"cebpf4jnsgd1na2vs0mg"},{"bike_id":"6df14f4e-5762-4688-823c-207c1d70636e","system_id":"levelo_inurba_marseille","lat":43.3283,"lon":5.3668,"is_reserved":false,"is_disabled":false,"rental_uris":{"android":"levelo://app?vid=6df14f4e-5762-4688-823c-207c1d70636e","ios":"levelo://app?vid=6df14f4e-5762-4688-823c-207c1d70636e"},"vehicle_type_id":"4","last_reported":1707847784,"current_range_meters":9200,"station_id":"ce4bhs92rcd13ifvqi0g","pricing_plan_id":"cebpf4jnsgd1na2vs0mg"},{"bike_id":"8d4d4aba-3495-4235-ada7-809a0bcb5c57","system_id":"levelo_inurba_marseille","lat":43.3283,"lon":5.36677,"is_reserved":false,"is_disabled":false,"rental_uris":{"android":"levelo://app?vid=8d4d4aba-3495-4235-ada7-809a0bcb5c57","ios":"levelo://app?vid=8d4d4aba-3495-4235-ada7-809a0bcb5c57"},"vehicle_type_id":"4","last_reported":1707847784,"current_range_meters":27600,"station_id":"ce4bhs92rcd13ifvqi0g","pricing_plan_id":"cebpf4jnsgd1na2vs0mg"},{"bike_id":"f41ceea4-9289-4d6b-990c-9f2656a72f3b","system_id":"levelo_inurba_marseille","lat":43.328303,"lon":5.36683,"is_reserved":false,"is_disabled":false,"rental_uris":{"android":"levelo://app?vid=f41ceea4-9289-4d6b-990c-9f2656a72f3b","ios":"levelo://app?vid=f41ceea4-9289-4d6b-990c-9f2656a72f3b"},"vehicle_type_id":"4","last_reported":1707847784,"current_range_meters":7600,"station_id":"ce4bhs92rcd13ifvqi0g","pricing_plan_id":"cebpf4jnsgd1na2vs0mg"},{"bike_id":"ca9eb2bd-76f0-467a-b34d-3f09418a4a5b","system_id":"levelo_inurba_marseille","lat":43.297163,"lon":5.365866,"is_reserved":false,"is_disabled":false,"rental_uris":{"android":"levelo://app?vid=ca9eb2bd-76f0-467a-b34d-3f09418a4a5b","ios":"levelo://app?vid=ca9eb2bd-76f0-467a-b34d-3f09418a4a5b"},"vehicle_type_id":"4","last_reported":1707847784,"current_range_meters":31200,"station_id":"ce4bgn12rcd13ifvqbt0","pricing_plan_id":"cebpf4jnsgd1na2vs0mg"},{"bike_id":"7c47e388-9433-4092-857a-2e1a28e7faaa","system_id":"levelo_inurba_marseille","lat":43.328316,"lon":5.366733,"is_reserved":false,"is_disabled":false,"rental_uris":{"android":"levelo://app?vid=7c47e388-9433-4092-857a-2e1a28e7faaa","ios":"levelo://app?vid=7c47e388-9433-4092-857a-2e1a28e7faaa"},"vehicle_type_id":"4","last_reported":1707847784,"current_range_meters":30800,"station_id":"ce4bhs92rcd13ifvqi0g","pricing_plan_id":"cebpf4jnsgd1na2vs0mg"},{"bike_id":"e53477e0-6f81-44d0-bf92-8c0c4ae8ef5b","system_id":"levelo_inurba_marseille","lat":43.32832,"lon":5.36686,"is_reserved":false,"is_disabled":false,"rental_uris":{"android":"levelo://app?vid=e53477e0-6f81-44d0-bf92-8c0c4ae8ef5b","ios":"levelo://app?vid=e53477e0-6f81-44d0-bf92-8c0c4ae8ef5b"},"vehicle_type_id":"4","last_reported":1707847784,"current_range_meters":24400,"station_id":"ce4bhs92rcd13ifvqi0g","pricing_plan_id":"cebpf4jnsgd1na2vs0mg"},{"bike_id":"9490975f-68e5-4701-bbb9-fae5c68c09dd","system_id":"levelo_inurba_marseille","lat":43.32833,"lon":5.36681,"is_reserved":false,"is_disabled":false,"rental_uris":{"android":"levelo://app?vid=9490975f-68e5-4701-bbb9-fae5c68c09dd","ios":"levelo://app?vid=9490975f-68e5-4701-bbb9-fae5c68c09dd"},"vehicle_type_id":"4","last_reported":1707847784,"current_range_meters":16800,"station_id":"ce4bhs92rcd13ifvqi0g","pricing_plan_id":"cebpf4jnsgd1na2vs0mg"},{"bike_id":"c9b88aad-86c2-4a51-9436-08e8586a0048","system_id":"levelo_inurba_marseille","lat":43.328337,"lon":5.366853,"is_reserved":false,"is_disabled":false,"rental_uris":{"android":"levelo://app?vid=c9b88aad-86c2-4a51-9436-08e8586a0048","ios":"levelo://app?vid=c9b88aad-86c2-4a51-9436-08e8586a0048"},"vehicle_type_id":"4","last_reported":1707847784,"current_range_meters":24000,"station_id":"ce4bhs92rcd13ifvqi0g","pricing_plan_id":"cebpf4jnsgd1na2vs0mg"},{"bike_id":"fb983a45-1f57-45bb-8244-ba1563617b59","system_id":"levelo_inurba_marseille","lat":43.297163,"lon":5.365866,"is_reserved":false,"is_disabled":false,"rental_uris":{"android":"levelo://app?vid=fb983a45-1f57-45bb-8244-ba1563617b59","ios":"levelo://app?vid=fb983a45-1f57-45bb-8244-ba1563617b59"},"vehicle_type_id":"4","last_reported":1707847784,"current_range_meters":5200,"station_id":"ce4bgn12rcd13ifvqbt0","pricing_plan_id":"cebpf4jnsgd1na2vs0mg"},{"bike_id":"f13968be-ff01-484e-90e7-f7595d28950b","system_id":"levelo_inurba_marseille","lat":43.29714,"lon":5.36604,"is_reserved":false,"is_disabled":false,"rental_uris":{"android":"levelo://app?vid=f13968be-ff01-484e-90e7-f7595d28950b","ios":"levelo://app?vid=f13968be-ff01-484e-90e7-f7595d28950b"},"vehicle_type_id":"4","last_reported":1707847784,"current_range_meters":0,"station_id":"ce4bgn12rcd13ifvqbt0","pricing_plan_id":"cebpf4jnsgd1na2vs0mg"},{"bike_id":"8b36ce43-3bc7-4f8a-bb1e-1f87c12ac26a","system_id":"levelo_inurba_marseille","lat":43.32836,"lon":5.36687,"is_reserved":false,"is_disabled":false,"rental_uris":{"android":"levelo://app?vid=8b36ce43-3bc7-4f8a-bb1e-1f87c12ac26a","ios":"levelo://app?vid=8b36ce43-3bc7-4f8a-bb1e-1f87c12ac26a"},"vehicle_type_id":"4","last_reported":1707847784,"current_range_meters":14000,"station_id":"ce4bhs92rcd13ifvqi0g","pricing_plan_id":"cebpf4jnsgd1na2vs0mg"},{"bike_id":"3325b1d2-585f-4cf2-9021-65f21551cc19","system_id":"levelo_inurba_marseille","lat":43.297163,"lon":5.365866,"is_reserved":false,"is_disabled":false,"rental_uris":{"android":"levelo://app?vid=3325b1d2-585f-4cf2-9021-65f21551cc19","ios":"levelo://app?vid=3325b1d2-585f-4cf2-9021-65f21551cc19"},"vehicle_type_id":"4","last_reported":1707847784,"current_range_meters":22800,"station_id":"ce4bgn12rcd13ifvqbt0","pricing_plan_id":"cebpf4jnsgd1na2vs0mg"},{"bike_id":"bebb1333-2837-440a-9c9b-d0f863982898","system_id":"levelo_inurba_marseille","lat":43.297163,"lon":5.365866,"is_reserved":false,"is_disabled":false,"rental_uris":{"android":"levelo://app?vid=bebb1333-2837-440a-9c9b-d0f863982898","ios":"levelo://app?vid=bebb1333-2837-440a-9c9b-d0f863982898"},"vehicle_type_id":"4","last_reported":1707847784,"current_range_meters":2400,"station_id":"ce4bgn12rcd13ifvqbt0","pricing_plan_id":"cebpf4jnsgd1na2vs0mg"},{"bike_id":"f4bc5f5b-9db1-4cc7-91ef-45246b43f923","system_id":"levelo_inurba_marseille","lat":43.297163,"lon":5.365866,"is_reserved":false,"is_disabled":false,"rental_uris":{"android":"levelo://app?vid=f4bc5f5b-9db1-4cc7-91ef-45246b43f923","ios":"levelo://app?vid=f4bc5f5b-9db1-4cc7-91ef-45246b43f923"},"vehicle_type_id":"4","last_reported":1707847784,"current_range_meters":3600,"station_id":"ce4bgn12rcd13ifvqbt0","pricing_plan_id":"cebpf4jnsgd1na2vs0mg"},{"bike_id":"525f849e-5f95-4f11-aba8-1e80da1a4ff1","system_id":"levelo_inurba_marseille","lat":43.297163,"lon":5.365866,"is_reserved":false,"is_disabled":false,"rental_uris":{"android":"levelo://app?vid=525f849e-5f95-4f11-aba8-1e80da1a4ff1","ios":"levelo://app?vid=525f849e-5f95-4f11-aba8-1e80da1a4ff1"},"vehicle_type_id":"4","last_reported":1707847784,"current_range_meters":20800,"station_id":"ce4bgn12rcd13ifvqbt0","pricing_plan_id":"cebpf4jnsgd1na2vs0mg"},{"bike_id":"0435d52c-b7e7-462c-acda-8d7fa0c88b94","system_id":"levelo_inurba_marseille","lat":43.297057,"lon":5.366063,"is_reserved":false,"is_disabled":false,"rental_uris":{"android":"levelo://app?vid=0435d52c-b7e7-462c-acda-8d7fa0c88b94","ios":"levelo://app?vid=0435d52c-b7e7-462c-acda-8d7fa0c88b94"},"vehicle_type_id":"4","last_reported":1707847784,"current_range_meters":18000,"station_id":"ce4bgn12rcd13ifvqbt0","pricing_plan_id":"cebpf4jnsgd1na2vs0mg"},{"bike_id":"a3524ef9-d01b-4d05-a388-49758547fe16","system_id":"levelo_inurba_marseille","lat":43.296131,"lon":5.370791,"is_reserved":false,"is_disabled":false,"rental_uris":{"android":"levelo://app?vid=a3524ef9-d01b-4d05-a388-49758547fe16","ios":"levelo://app?vid=a3524ef9-d01b-4d05-a388-49758547fe16"},"vehicle_type_id":"4","last_reported":1707847784,"current_range_meters":0,"station_id":"ce4bgnh2rcd13ifvqc0g","pricing_plan_id":"cebpf4jnsgd1na2vs0mg"},{"bike_id":"ee9c0197-1f9d-48da-b502-e0500afedb98","system_id":"levelo_inurba_marseille","lat":43.296131,"lon":5.370773,"is_reserved":false,"is_disabled":false,"rental_uris":{"android":"levelo://app?vid=ee9c0197-1f9d-48da-b502-e0500afedb98","ios":"levelo://app?vid=ee9c0197-1f9d-48da-b502-e0500afedb98"},"vehicle_type_id":"4","last_reported":1707847784,"current_range_meters":8000,"station_id":"ce4bgnh2rcd13ifvqc0g","pricing_plan_id":"cebpf4jnsgd1na2vs0mg"},{"bike_id":"4de3ce3d-2b74-48b9-a8f6-54c8a48202ac","system_id":"levelo_inurba_marseille","lat":43.299028,"lon":5.381509,"is_reserved":false,"is_disabled":false,"rental_uris":{"android":"levelo://app?vid=4de3ce3d-2b74-48b9-a8f6-54c8a48202ac","ios":"levelo://app?vid=4de3ce3d-2b74-48b9-a8f6-54c8a48202ac"},"vehicle_type_id":"4","last_reported":1707847784,"current_range_meters":8400,"station_id":"ce4bgj12rcd13ifvqbc0","pricing_plan_id":"cebpf4jnsgd1na2vs0mg"},{"bike_id":"36af8d0a-400f-4633-8696-11035ac99dc6","system_id":"levelo_inurba_marseille","lat":43.299028,"lon":5.381509,"is_reserved":false,"is_disabled":false,"rental_uris":{"android":"levelo://app?vid=36af8d0a-400f-4633-8696-11035ac99dc6","ios":"levelo://app?vid=36af8d0a-400f-4633-8696-11035ac99dc6"},"vehicle_type_id":"4","last_reported":1707847784,"current_range_meters":7200,"station_id":"ce4bgj12rcd13ifvqbc0","pricing_plan_id":"cebpf4jnsgd1na2vs0mg"},{"bike_id":"003782b9-4404-46a7-9629-3d7ab62b1f3b","system_id":"levelo_inurba_marseille","lat":43.296935,"lon":5.376544,"is_reserved":false,"is_disabled":false,"rental_uris":{"android":"levelo://app?vid=003782b9-4404-46a7-9629-3d7ab62b1f3b","ios":"levelo://app?vid=003782b9-4404-46a7-9629-3d7ab62b1f3b"},"vehicle_type_id":"4","last_reported":1707847784,"current_range_meters":21600,"station_id":"ce4bgkh2rcd13ifvqbl0","pricing_plan_id":"cebpf4jnsgd1na2vs0mg"},{"bike_id":"803c6265-be33-4628-b273-3d56b27301e1","system_id":"levelo_inurba_marseille","lat":43.299028,"lon":5.381509,"is_reserved":false,"is_disabled":false,"rental_uris":{"android":"levelo://app?vid=803c6265-be33-4628-b273-3d56b27301e1","ios":"levelo://app?vid=803c6265-be33-4628-b273-3d56b27301e1"},"vehicle_type_id":"4","last_reported":1707847784,"current_range_meters":6000,"station_id":"ce4bgj12rcd13ifvqbc0","pricing_plan_id":"cebpf4jnsgd1na2vs0mg"},{"bike_id":"c9a2c7b5-37a2-40ed-bdc7-323b926016dd","system_id":"levelo_inurba_marseille","lat":43.296921,"lon":5.376579,"is_reserved":false,"is_disabled":false,"rental_uris":{"android":"levelo://app?vid=c9a2c7b5-37a2-40ed-bdc7-323b926016dd","ios":"levelo://app?vid=c9a2c7b5-37a2-40ed-bdc7-323b926016dd"},"vehicle_type_id":"4","last_reported":1707847784,"current_range_meters":4800,"station_id":"ce4bgkh2rcd13ifvqbl0","pricing_plan_id":"cebpf4jnsgd1na2vs0mg"},{"bike_id":"095b561f-b67d-4dfc-8b7b-24904c0d74fe","system_id":"levelo_inurba_marseille","lat":43.317557,"lon":5.390173,"is_reserved":false,"is_disabled":false,"rental_uris":{"android":"levelo://app?vid=095b561f-b67d-4dfc-8b7b-24904c0d74fe","ios":"levelo://app?vid=095b561f-b67d-4dfc-8b7b-24904c0d74fe"},"vehicle_type_id":"4","last_reported":1707847784,"current_range_meters":20800,"station_id":"ce4bhqp2rcd13ifvqhng","pricing_plan_id":"cebpf4jnsgd1na2vs0mg"},{"bike_id":"723cf4ab-6f43-4c96-9011-7f05f145bd4e","system_id":"levelo_inurba_marseille","lat":43.296935,"lon":5.376544,"is_reserved":false,"is_disabled":false,"rental_uris":{"android":"levelo://app?vid=723cf4ab-6f43-4c96-9011-7f05f145bd4e","ios":"levelo://app?vid=723cf4ab-6f43-4c96-9011-7f05f145bd4e"},"vehicle_type_id":"4","last_reported":1707847784,"current_range_meters":3600,"station_id":"ce4bgkh2rcd13ifvqbl0","pricing_plan_id":"cebpf4jnsgd1na2vs0mg"},{"bike_id":"0d568f49-9e25-417a-91e9-babe78949eca","system_id":"levelo_inurba_marseille","lat":43.317557,"lon":5.390173,"is_reserved":false,"is_disabled":false,"rental_uris":{"android":"levelo://app?vid=0d568f49-9e25-417a-91e9-babe78949eca","ios":"levelo://app?vid=0d568f49-9e25-417a-91e9-babe78949eca"},"vehicle_type_id":"4","last_reported":1707847784,"current_range_meters":30400,"station_id":"ce4bhqp2rcd13ifvqhng","pricing_plan_id":"cebpf4jnsgd1na2vs0mg"},{"bike_id":"9310559c-22d3-4744-8b16-cacb48dba489","system_id":"levelo_inurba_marseille","lat":43.317557,"lon":5.390173,"is_reserved":false,"is_disabled":false,"rental_uris":{"android":"levelo://app?vid=9310559c-22d3-4744-8b16-cacb48dba489","ios":"levelo://app?vid=9310559c-22d3-4744-8b16-cacb48dba489"},"vehicle_type_id":"4","last_reported":1707847784,"current_range_meters":31200,"station_id":"ce4bhqp2rcd13ifvqhng","pricing_plan_id":"cebpf4jnsgd1na2vs0mg"},{"bike_id":"56248476-4f8c-46b8-bc3b-371e42bea68f","system_id":"levelo_inurba_marseille","lat":43.317557,"lon":5.390173,"is_reserved":false,"is_disabled":false,"rental_uris":{"android":"levelo://app?vid=56248476-4f8c-46b8-bc3b-371e42bea68f","ios":"levelo://app?vid=56248476-4f8c-46b8-bc3b-371e42bea68f"},"vehicle_type_id":"4","last_reported":1707847784,"current_range_meters":31200,"station_id":"ce4bhqp2rcd13ifvqhng","pricing_plan_id":"cebpf4jnsgd1na2vs0mg"},{"bike_id":"6bbdbcf9-8545-4c1a-866f-b1aacd2086cc","system_id":"levelo_inurba_marseille","lat":43.317557,"lon":5.390173,"is_reserved":false,"is_disabled":false,"rental_uris":{"android":"levelo://app?vid=6bbdbcf9-8545-4c1a-866f-b1aacd2086cc","ios":"levelo://app?vid=6bbdbcf9-8545-4c1a-866f-b1aacd2086cc"},"vehicle_type_id":"4","last_reported":1707847784,"current_range_meters":22000,"station_id":"ce4bhqp2rcd13ifvqhng","pricing_plan_id":"cebpf4jnsgd1na2vs0mg"},{"bike_id":"3a8256a7-5c98-4e7e-8621-8a921558ea8d","system_id":"levelo_inurba_marseille","lat":43.317557,"lon":5.390173,"is_reserved":false,"is_disabled":false,"rental_uris":{"android":"levelo://app?vid=3a8256a7-5c98-4e7e-8621-8a921558ea8d","ios":"levelo://app?vid=3a8256a7-5c98-4e7e-8621-8a921558ea8d"},"vehicle_type_id":"4","last_reported":1707847784,"current_range_meters":31200,"station_id":"ce4bhqp2rcd13ifvqhng","pricing_plan_id":"cebpf4jnsgd1na2vs0mg"},{"bike_id":"a66fec16-5c26-4073-bc2a-b4cafe2573db","system_id":"levelo_inurba_marseille","lat":43.2975,"lon":5.37929,"is_reserved":false,"is_disabled":false,"rental_uris":{"android":"levelo://app?vid=a66fec16-5c26-4073-bc2a-b4cafe2573db","ios":"levelo://app?vid=a66fec16-5c26-4073-bc2a-b4cafe2573db"},"vehicle_type_id":"4","last_reported":1707847784,"current_range_meters":4000,"station_id":"","pricing_plan_id":"cebpf4jnsgd1na2vs0mg"},{"bike_id":"87dca717-0ccb-4731-8b48-48db74325e38","system_id":"levelo_inurba_marseille","lat":43.298037,"lon":5.381066,"is_reserved":false,"is_disabled":false,"rental_uris":{"android":"levelo://app?vid=87dca717-0ccb-4731-8b48-48db74325e38","ios":"levelo://app?vid=87dca717-0ccb-4731-8b48-48db74325e38"},"vehicle_type_id":"4","last_reported":1707847784,"current_range_meters":31200,"station_id":"ce4bgip2rcd13ifvqbb0","pricing_plan_id":"cebpf4jnsgd1na2vs0mg"},{"bike_id":"cfbbf573-b4f8-4883-baf0-ceacbdeda221","system_id":"levelo_inurba_marseille","lat":43.297973,"lon":5.3809,"is_reserved":false,"is_disabled":false,"rental_uris":{"android":"levelo://app?vid=cfbbf573-b4f8-4883-baf0-ceacbdeda221","ios":"levelo://app?vid=cfbbf573-b4f8-4883-baf0-ceacbdeda221"},"vehicle_type_id":"4","last_reported":1707847784,"current_range_meters":14000,"station_id":"ce4bgip2rcd13ifvqbb0","pricing_plan_id":"cebpf4jnsgd1na2vs0mg"},{"bike_id":"cc2bb11c-bb89-4ea4-a7f4-c910bb6c911a","system_id":"levelo_inurba_marseille","lat":43.29701,"lon":5.37878,"is_reserved":false,"is_disabled":false,"rental_uris":{"android":"levelo://app?vid=cc2bb11c-bb89-4ea4-a7f4-c910bb6c911a","ios":"levelo://app?vid=cc2bb11c-bb89-4ea4-a7f4-c910bb6c911a"},"vehicle_type_id":"4","last_reported":1707847784,"current_range_meters":400,"station_id":"","pricing_plan_id":"cebpf4jnsgd1na2vs0mg"},{"bike_id":"29086e52-d608-46de-adcf-77d8c40e82e5","system_id":"levelo_inurba_marseille","lat":43.29736,"lon":5.38005,"is_reserved":false,"is_disabled":false,"rental_uris":{"android":"levelo://app?vid=29086e52-d608-46de-adcf-77d8c40e82e5","ios":"levelo://app?vid=29086e52-d608-46de-adcf-77d8c40e82e5"},"vehicle_type_id":"4","last_reported":1707847784,"current_range_meters":0,"station_id":"","pricing_plan_id":"cebpf4jnsgd1na2vs0mg"},{"bike_id":"705da99b-eb32-4593-9ce5-3afb7f6b914a","system_id":"levelo_inurba_marseille","lat":43.29613,"lon":5.37724,"is_reserved":false,"is_disabled":false,"rental_uris":{"android":"levelo://app?vid=705da99b-eb32-4593-9ce5-3afb7f6b914a","ios":"levelo://app?vid=705da99b-eb32-4593-9ce5-3afb7f6b914a"},"vehicle_type_id":"4","last_reported":1707847784,"current_range_meters":0,"station_id":"ce4bgi92rcd13ifvqb90","pricing_plan_id":"cebpf4jnsgd1na2vs0mg"},{"bike_id":"88dcc8fa-eda2-406e-8daa-4a86ad32696c","system_id":"levelo_inurba_marseille","lat":43.29609,"lon":5.37723,"is_reserved":false,"is_disabled":false,"rental_uris":{"android":"levelo://app?vid=88dcc8fa-eda2-406e-8daa-4a86ad32696c","ios":"levelo://app?vid=88dcc8fa-eda2-406e-8daa-4a86ad32696c"},"vehicle_type_id":"4","last_reported":1707847784,"current_range_meters":22800,"station_id":"ce4bgi92rcd13ifvqb90","pricing_plan_id":"cebpf4jnsgd1na2vs0mg"},{"bike_id":"567a38ac-36f5-4be0-b21d-a32db39615f8","system_id":"levelo_inurba_marseille","lat":43.299717,"lon":5.384845,"is_reserved":false,"is_disabled":false,"rental_uris":{"android":"levelo://app?vid=567a38ac-36f5-4be0-b21d-a32db39615f8","ios":"levelo://app?vid=567a38ac-36f5-4be0-b21d-a32db39615f8"},"vehicle_type_id":"4","last_reported":1707847784,"current_range_meters":14000,"station_id":"ce4bgj92rcd13ifvqbd0","pricing_plan_id":"cebpf4jnsgd1na2vs0mg"},{"bike_id":"1395f86a-03f7-4003-b15a-ee9a200b45d0","system_id":"levelo_inurba_marseille","lat":43.299717,"lon":5.384845,"is_reserved":false,"is_disabled":false,"rental_uris":{"android":"levelo://app?vid=1395f86a-03f7-4003-b15a-ee9a200b45d0","ios":"levelo://app?vid=1395f86a-03f7-4003-b15a-ee9a200b45d0"},"vehicle_type_id":"4","last_reported":1707847784,"current_range_meters":16400,"station_id":"ce4bgj92rcd13ifvqbd0","pricing_plan_id":"cebpf4jnsgd1na2vs0mg"},{"bike_id":"6bcaa1b7-3c66-4400-b0dc-ff1cf4da3875","system_id":"levelo_inurba_marseille","lat":43.299717,"lon":5.384845,"is_reserved":false,"is_disabled":false,"rental_uris":{"android":"levelo://app?vid=6bcaa1b7-3c66-4400-b0dc-ff1cf4da3875","ios":"levelo://app?vid=6bcaa1b7-3c66-4400-b0dc-ff1cf4da3875"},"vehicle_type_id":"4","last_reported":1707847784,"current_range_meters":800,"station_id":"ce4bgj92rcd13ifvqbd0","pricing_plan_id":"cebpf4jnsgd1na2vs0mg"},{"bike_id":"f013babf-e5ad-44b7-ba6e-47cbbe1ddcb1","system_id":"levelo_inurba_marseille","lat":43.29977,"lon":5.38502,"is_reserved":false,"is_disabled":false,"rental_uris":{"android":"levelo://app?vid=f013babf-e5ad-44b7-ba6e-47cbbe1ddcb1","ios":"levelo://app?vid=f013babf-e5ad-44b7-ba6e-47cbbe1ddcb1"},"vehicle_type_id":"4","last_reported":1707847784,"current_range_meters":14800,"station_id":"ce4bgj92rcd13ifvqbd0","pricing_plan_id":"cebpf4jnsgd1na2vs0mg"},{"bike_id":"5d719397-1978-4b87-a890-7d45c36242d1","system_id":"levelo_inurba_marseille","lat":43.299717,"lon":5.384845,"is_reserved":false,"is_disabled":false,"rental_uris":{"android":"levelo://app?vid=5d719397-1978-4b87-a890-7d45c36242d1","ios":"levelo://app?vid=5d719397-1978-4b87-a890-7d45c36242d1"},"vehicle_type_id":"4","last_reported":1707847784,"current_range_meters":28400,"station_id":"ce4bgj92rcd13ifvqbd0","pricing_plan_id":"cebpf4jnsgd1na2vs0mg"},{"bike_id":"28dcdaff-e2e1-4807-90c9-0dbeabb4ce2a","system_id":"levelo_inurba_marseille","lat":43.299711,"lon":5.384992,"is_reserved":false,"is_disabled":false,"rental_uris":{"android":"levelo://app?vid=28dcdaff-e2e1-4807-90c9-0dbeabb4ce2a","ios":"levelo://app?vid=28dcdaff-e2e1-4807-90c9-0dbeabb4ce2a"},"vehicle_type_id":"4","last_reported":1707847784,"current_range_meters":28400,"station_id":"ce4bgj92rcd13ifvqbd0","pricing_plan_id":"cebpf4jnsgd1na2vs0mg"},{"bike_id":"f59efc7f-a019-431c-94c7-22aaadd4a284","system_id":"levelo_inurba_marseille","lat":43.299681,"lon":5.384989,"is_reserved":false,"is_disabled":false,"rental_uris":{"android":"levelo://app?vid=f59efc7f-a019-431c-94c7-22aaadd4a284","ios":"levelo://app?vid=f59efc7f-a019-431c-94c7-22aaadd4a284"},"vehicle_type_id":"4","last_reported":1707847784,"current_range_meters":25200,"station_id":"ce4bgj92rcd13ifvqbd0","pricing_plan_id":"cebpf4jnsgd1na2vs0mg"},{"bike_id":"657f5275-fbd7-4e7d-a0bb-467fbb08aead","system_id":"levelo_inurba_marseille","lat":43.292749,"lon":5.368402,"is_reserved":false,"is_disabled":false,"rental_uris":{"android":"levelo://app?vid=657f5275-fbd7-4e7d-a0bb-467fbb08aead","ios":"levelo://app?vid=657f5275-fbd7-4e7d-a0bb-467fbb08aead"},"vehicle_type_id":"4","last_reported":1707847784,"current_range_meters":3200,"station_id":"ce4bhbp2rcd13ifvqesg","pricing_plan_id":"cebpf4jnsgd1na2vs0mg"},{"bike_id":"717fae1b-74a7-49b2-b4c9-1f50976a1b71","system_id":"levelo_inurba_marseille","lat":43.32367,"lon":5.388836,"is_reserved":false,"is_disabled":false,"rental_uris":{"android":"levelo://app?vid=717fae1b-74a7-49b2-b4c9-1f50976a1b71","ios":"levelo://app?vid=717fae1b-74a7-49b2-b4c9-1f50976a1b71"},"vehicle_type_id":"4","last_reported":1707847784,"current_range_meters":27200,"station_id":"ce4bhqp2rcd13ifvqhog","pricing_plan_id":"cebpf4jnsgd1na2vs0mg"},{"bike_id":"0e0699ad-67da-434d-ada2-b82f05322f52","system_id":"levelo_inurba_marseille","lat":43.32368,"lon":5.38887,"is_reserved":false,"is_disabled":false,"rental_uris":{"android":"levelo://app?vid=0e0699ad-67da-434d-ada2-b82f05322f52","ios":"levelo://app?vid=0e0699ad-67da-434d-ada2-b82f05322f52"},"vehicle_type_id":"4","last_reported":1707847784,"current_range_meters":11200,"station_id":"ce4bhqp2rcd13ifvqhog","pricing_plan_id":"cebpf4jnsgd1na2vs0mg"},{"bike_id":"c814b3c0-3206-4333-9010-f90f4bcf60b7","system_id":"levelo_inurba_marseille","lat":43.32367,"lon":5.38889,"is_reserved":false,"is_disabled":false,"rental_uris":{"android":"levelo://app?vid=c814b3c0-3206-4333-9010-f90f4bcf60b7","ios":"levelo://app?vid=c814b3c0-3206-4333-9010-f90f4bcf60b7"},"vehicle_type_id":"4","last_reported":1707847784,"current_range_meters":26000,"station_id":"ce4bhqp2rcd13ifvqhog","pricing_plan_id":"cebpf4jnsgd1na2vs0mg"},{"bike_id":"dda016c9-25a8-4e98-89c2-61cf41b68115","system_id":"levelo_inurba_marseille","lat":43.32368,"lon":5.38889,"is_reserved":false,"is_disabled":false,"rental_uris":{"android":"levelo://app?vid=dda016c9-25a8-4e98-89c2-61cf41b68115","ios":"levelo://app?vid=dda016c9-25a8-4e98-89c2-61cf41b68115"},"vehicle_type_id":"4","last_reported":1707847784,"current_range_meters":14800,"station_id":"ce4bhqp2rcd13ifvqhog","pricing_plan_id":"cebpf4jnsgd1na2vs0mg"},{"bike_id":"47e99d18-ac57-4700-9c22-811c7cfc36b9","system_id":"levelo_inurba_marseille","lat":43.29601,"lon":5.381084,"is_reserved":false,"is_disabled":false,"rental_uris":{"android":"levelo://app?vid=47e99d18-ac57-4700-9c22-811c7cfc36b9","ios":"levelo://app?vid=47e99d18-ac57-4700-9c22-811c7cfc36b9"},"vehicle_type_id":"4","last_reported":1707847784,"current_range_meters":5200,"station_id":"ce4bgl12rcd13ifvqbo0","pricing_plan_id":"cebpf4jnsgd1na2vs0mg"},{"bike_id":"671d730d-634a-4bf3-ad95-d681a709c0ab","system_id":"levelo_inurba_marseille","lat":43.296131,"lon":5.370791,"is_reserved":false,"is_disabled":false,"rental_uris":{"android":"levelo://app?vid=671d730d-634a-4bf3-ad95-d681a709c0ab","ios":"levelo://app?vid=671d730d-634a-4bf3-ad95-d681a709c0ab"},"vehicle_type_id":"4","last_reported":1707847784,"current_range_meters":0,"station_id":"ce4bgnh2rcd13ifvqc0g","pricing_plan_id":"cebpf4jnsgd1na2vs0mg"},{"bike_id":"962a2672-753a-4167-9ccf-0e439c02e452","system_id":"levelo_inurba_marseille","lat":43.29602,"lon":5.381084,"is_reserved":false,"is_disabled":false,"rental_uris":{"android":"levelo://app?vid=962a2672-753a-4167-9ccf-0e439c02e452","ios":"levelo://app?vid=962a2672-753a-4167-9ccf-0e439c02e452"},"vehicle_type_id":"4","last_reported":1707847784,"current_range_meters":0,"station_id":"ce4bgl12rcd13ifvqbo0","pricing_plan_id":"cebpf4jnsgd1na2vs0mg"},{"bike_id":"29313d1c-f114-4849-a5e6-8ef2b4854e4c","system_id":"levelo_inurba_marseille","lat":43.29601,"lon":5.381084,"is_reserved":false,"is_disabled":false,"rental_uris":{"android":"levelo://app?vid=29313d1c-f114-4849-a5e6-8ef2b4854e4c","ios":"levelo://app?vid=29313d1c-f114-4849-a5e6-8ef2b4854e4c"},"vehicle_type_id":"4","last_reported":1707847784,"current_range_meters":3200,"station_id":"ce4bgl12rcd13ifvqbo0","pricing_plan_id":"cebpf4jnsgd1na2vs0mg"},{"bike_id":"19cebf3f-e0bb-4af5-9603-11387331bf38","system_id":"levelo_inurba_marseille","lat":43.299724,"lon":5.384848,"is_reserved":false,"is_disabled":false,"rental_uris":{"android":"levelo://app?vid=19cebf3f-e0bb-4af5-9603-11387331bf38","ios":"levelo://app?vid=19cebf3f-e0bb-4af5-9603-11387331bf38"},"vehicle_type_id":"4","last_reported":1707847784,"current_range_meters":400,"station_id":"ce4bgj92rcd13ifvqbd0","pricing_plan_id":"cebpf4jnsgd1na2vs0mg"},{"bike_id":"5f390ac0-5901-4d7c-91d6-3fcb95f14d00","system_id":"levelo_inurba_marseille","lat":43.293259,"lon":5.371586,"is_reserved":false,"is_disabled":false,"rental_uris":{"android":"levelo://app?vid=5f390ac0-5901-4d7c-91d6-3fcb95f14d00","ios":"levelo://app?vid=5f390ac0-5901-4d7c-91d6-3fcb95f14d00"},"vehicle_type_id":"4","last_reported":1707847784,"current_range_meters":800,"station_id":"ce4bgh92rcd13ifvqb40","pricing_plan_id":"cebpf4jnsgd1na2vs0mg"},{"bike_id":"9b233d2e-e9e1-4503-9543-381c61b430ad","system_id":"levelo_inurba_marseille","lat":43.292749,"lon":5.368398,"is_reserved":false,"is_disabled":false,"rental_uris":{"android":"levelo://app?vid=9b233d2e-e9e1-4503-9543-381c61b430ad","ios":"levelo://app?vid=9b233d2e-e9e1-4503-9543-381c61b430ad"},"vehicle_type_id":"4","last_reported":1707847784,"current_range_meters":26000,"station_id":"ce4bhbp2rcd13ifvqesg","pricing_plan_id":"cebpf4jnsgd1na2vs0mg"},{"bike_id":"2f89af73-7d6c-4fc5-be27-3f8aef168f39","system_id":"levelo_inurba_marseille","lat":43.292749,"lon":5.368402,"is_reserved":false,"is_disabled":false,"rental_uris":{"android":"levelo://app?vid=2f89af73-7d6c-4fc5-be27-3f8aef168f39","ios":"levelo://app?vid=2f89af73-7d6c-4fc5-be27-3f8aef168f39"},"vehicle_type_id":"4","last_reported":1707847784,"current_range_meters":22400,"station_id":"ce4bhbp2rcd13ifvqesg","pricing_plan_id":"cebpf4jnsgd1na2vs0mg"},{"bike_id":"5d69e9e9-d25c-4057-bef3-b90319ca515d","system_id":"levelo_inurba_marseille","lat":43.292781,"lon":5.368416,"is_reserved":false,"is_disabled":false,"rental_uris":{"android":"levelo://app?vid=5d69e9e9-d25c-4057-bef3-b90319ca515d","ios":"levelo://app?vid=5d69e9e9-d25c-4057-bef3-b90319ca515d"},"vehicle_type_id":"4","last_reported":1707847784,"current_range_meters":25200,"station_id":"ce4bhbp2rcd13ifvqesg","pricing_plan_id":"cebpf4jnsgd1na2vs0mg"},{"bike_id":"567512e9-d321-491a-9572-f3ee2c497a76","system_id":"levelo_inurba_marseille","lat":43.29275,"lon":5.3684,"is_reserved":false,"is_disabled":false,"rental_uris":{"android":"levelo://app?vid=567512e9-d321-491a-9572-f3ee2c497a76","ios":"levelo://app?vid=567512e9-d321-491a-9572-f3ee2c497a76"},"vehicle_type_id":"4","last_reported":1707847784,"current_range_meters":25200,"station_id":"ce4bhbp2rcd13ifvqesg","pricing_plan_id":"cebpf4jnsgd1na2vs0mg"},{"bike_id":"05b6e15b-940b-4bbe-bce3-af532a15d6d8","system_id":"levelo_inurba_marseille","lat":43.292749,"lon":5.368402,"is_reserved":false,"is_disabled":false,"rental_uris":{"android":"levelo://app?vid=05b6e15b-940b-4bbe-bce3-af532a15d6d8","ios":"levelo://app?vid=05b6e15b-940b-4bbe-bce3-af532a15d6d8"},"vehicle_type_id":"4","last_reported":1707847784,"current_range_meters":8000,"station_id":"ce4bhbp2rcd13ifvqesg","pricing_plan_id":"cebpf4jnsgd1na2vs0mg"},{"bike_id":"b43e03cf-ff44-42a3-bec8-209299429c06","system_id":"levelo_inurba_marseille","lat":43.292749,"lon":5.368402,"is_reserved":false,"is_disabled":false,"rental_uris":{"android":"levelo://app?vid=b43e03cf-ff44-42a3-bec8-209299429c06","ios":"levelo://app?vid=b43e03cf-ff44-42a3-bec8-209299429c06"},"vehicle_type_id":"4","last_reported":1707847784,"current_range_meters":1200,"station_id":"ce4bhbp2rcd13ifvqesg","pricing_plan_id":"cebpf4jnsgd1na2vs0mg"},{"bike_id":"d9cfde08-72d0-4be2-bc71-80633255060a","system_id":"levelo_inurba_marseille","lat":43.292749,"lon":5.368402,"is_reserved":false,"is_disabled":false,"rental_uris":{"android":"levelo://app?vid=d9cfde08-72d0-4be2-bc71-80633255060a","ios":"levelo://app?vid=d9cfde08-72d0-4be2-bc71-80633255060a"},"vehicle_type_id":"4","last_reported":1707847784,"current_range_meters":21200,"station_id":"ce4bhbp2rcd13ifvqesg","pricing_plan_id":"cebpf4jnsgd1na2vs0mg"},{"bike_id":"f7a1df9f-ced7-4ea9-928c-685b012f2d52","system_id":"levelo_inurba_marseille","lat":43.292749,"lon":5.368402,"is_reserved":false,"is_disabled":false,"rental_uris":{"android":"levelo://app?vid=f7a1df9f-ced7-4ea9-928c-685b012f2d52","ios":"levelo://app?vid=f7a1df9f-ced7-4ea9-928c-685b012f2d52"},"vehicle_type_id":"4","last_reported":1707847784,"current_range_meters":12400,"station_id":"ce4bhbp2rcd13ifvqesg","pricing_plan_id":"cebpf4jnsgd1na2vs0mg"},{"bike_id":"c0473769-7da7-4024-84b8-805611e335d9","system_id":"levelo_inurba_marseille","lat":43.292749,"lon":5.368402,"is_reserved":false,"is_disabled":false,"rental_uris":{"android":"levelo://app?vid=c0473769-7da7-4024-84b8-805611e335d9","ios":"levelo://app?vid=c0473769-7da7-4024-84b8-805611e335d9"},"vehicle_type_id":"4","last_reported":1707847784,"current_range_meters":26800,"station_id":"ce4bhbp2rcd13ifvqesg","pricing_plan_id":"cebpf4jnsgd1na2vs0mg"},{"bike_id":"6dd66214-c896-402d-9b87-add061b95e25","system_id":"levelo_inurba_marseille","lat":43.293009,"lon":5.374584,"is_reserved":false,"is_disabled":false,"rental_uris":{"android":"levelo://app?vid=6dd66214-c896-402d-9b87-add061b95e25","ios":"levelo://app?vid=6dd66214-c896-402d-9b87-add061b95e25"},"vehicle_type_id":"4","last_reported":1707847784,"current_range_meters":22800,"station_id":"ce4bgi12rcd13ifvqb70","pricing_plan_id":"cebpf4jnsgd1na2vs0mg"},{"bike_id":"bc43317b-fada-4fec-af1c-c1b09fdb1975","system_id":"levelo_inurba_marseille","lat":43.305994,"lon":5.393687,"is_reserved":false,"is_disabled":false,"rental_uris":{"android":"levelo://app?vid=bc43317b-fada-4fec-af1c-c1b09fdb1975","ios":"levelo://app?vid=bc43317b-fada-4fec-af1c-c1b09fdb1975"},"vehicle_type_id":"4","last_reported":1707847784,"current_range_meters":2000,"station_id":"ce4bh0p2rcd13ifvqd80","pricing_plan_id":"cebpf4jnsgd1na2vs0mg"},{"bike_id":"9deb3054-ba8b-406d-a747-5cc322e6af5a","system_id":"levelo_inurba_marseille","lat":43.305994,"lon":5.393687,"is_reserved":false,"is_disabled":false,"rental_uris":{"android":"levelo://app?vid=9deb3054-ba8b-406d-a747-5cc322e6af5a","ios":"levelo://app?vid=9deb3054-ba8b-406d-a747-5cc322e6af5a"},"vehicle_type_id":"4","last_reported":1707847784,"current_range_meters":21200,"station_id":"ce4bh0p2rcd13ifvqd80","pricing_plan_id":"cebpf4jnsgd1na2vs0mg"},{"bike_id":"8aae5906-3802-4c69-84e0-8e8a915e9732","system_id":"levelo_inurba_marseille","lat":43.293009,"lon":5.374584,"is_reserved":false,"is_disabled":false,"rental_uris":{"android":"levelo://app?vid=8aae5906-3802-4c69-84e0-8e8a915e9732","ios":"levelo://app?vid=8aae5906-3802-4c69-84e0-8e8a915e9732"},"vehicle_type_id":"4","last_reported":1707847784,"current_range_meters":6800,"station_id":"ce4bgi12rcd13ifvqb70","pricing_plan_id":"cebpf4jnsgd1na2vs0mg"},{"bike_id":"3a7029da-4297-4ef3-aeda-6aa7712dd465","system_id":"levelo_inurba_marseille","lat":43.293009,"lon":5.374584,"is_reserved":false,"is_disabled":false,"rental_uris":{"android":"levelo://app?vid=3a7029da-4297-4ef3-aeda-6aa7712dd465","ios":"levelo://app?vid=3a7029da-4297-4ef3-aeda-6aa7712dd465"},"vehicle_type_id":"4","last_reported":1707847784,"current_range_meters":24400,"station_id":"ce4bgi12rcd13ifvqb70","pricing_plan_id":"cebpf4jnsgd1na2vs0mg"},{"bike_id":"6b1b40eb-7df6-4e5f-b6b9-8345877823d9","system_id":"levelo_inurba_marseille","lat":43.305986,"lon":5.393646,"is_reserved":false,"is_disabled":false,"rental_uris":{"android":"levelo://app?vid=6b1b40eb-7df6-4e5f-b6b9-8345877823d9","ios":"levelo://app?vid=6b1b40eb-7df6-4e5f-b6b9-8345877823d9"},"vehicle_type_id":"4","last_reported":1707847784,"current_range_meters":4400,"station_id":"","pricing_plan_id":"cebpf4jnsgd1na2vs0mg"},{"bike_id":"8bb7801e-1ad4-4ded-b992-8d515b3bff7b","system_id":"levelo_inurba_marseille","lat":43.293009,"lon":5.374584,"is_reserved":false,"is_disabled":false,"rental_uris":{"android":"levelo://app?vid=8bb7801e-1ad4-4ded-b992-8d515b3bff7b","ios":"levelo://app?vid=8bb7801e-1ad4-4ded-b992-8d515b3bff7b"},"vehicle_type_id":"4","last_reported":1707847784,"current_range_meters":0,"station_id":"ce4bgi12rcd13ifvqb70","pricing_plan_id":"cebpf4jnsgd1na2vs0mg"},{"bike_id":"b800a84c-e9d0-450c-beb4-92b6ab33f6e7","system_id":"levelo_inurba_marseille","lat":43.303002,"lon":5.392142,"is_reserved":false,"is_disabled":false,"rental_uris":{"android":"levelo://app?vid=b800a84c-e9d0-450c-beb4-92b6ab33f6e7","ios":"levelo://app?vid=b800a84c-e9d0-450c-beb4-92b6ab33f6e7"},"vehicle_type_id":"4","last_reported":1707847784,"current_range_meters":16400,"station_id":"ce4bgkh2rcd13ifvqbk0","pricing_plan_id":"cebpf4jnsgd1na2vs0mg"},{"bike_id":"fef28578-688d-46cf-a2b0-35a8d20d2c6c","system_id":"levelo_inurba_marseille","lat":43.302992,"lon":5.392136,"is_reserved":false,"is_disabled":false,"rental_uris":{"android":"levelo://app?vid=fef28578-688d-46cf-a2b0-35a8d20d2c6c","ios":"levelo://app?vid=fef28578-688d-46cf-a2b0-35a8d20d2c6c"},"vehicle_type_id":"4","last_reported":1707847784,"current_range_meters":10000,"station_id":"ce4bgkh2rcd13ifvqbk0","pricing_plan_id":"cebpf4jnsgd1na2vs0mg"},{"bike_id":"bc27a660-10e9-4dac-bce2-d0db4063d415","system_id":"levelo_inurba_marseille","lat":43.303002,"lon":5.392142,"is_reserved":false,"is_disabled":false,"rental_uris":{"android":"levelo://app?vid=bc27a660-10e9-4dac-bce2-d0db4063d415","ios":"levelo://app?vid=bc27a660-10e9-4dac-bce2-d0db4063d415"},"vehicle_type_id":"4","last_reported":1707847784,"current_range_meters":6800,"station_id":"ce4bgkh2rcd13ifvqbk0","pricing_plan_id":"cebpf4jnsgd1na2vs0mg"},{"bike_id":"83688e26-a0f9-43b4-9974-f4f7abd1920a","system_id":"levelo_inurba_marseille","lat":43.29225,"lon":5.36068,"is_reserved":false,"is_disabled":false,"rental_uris":{"android":"levelo://app?vid=83688e26-a0f9-43b4-9974-f4f7abd1920a","ios":"levelo://app?vid=83688e26-a0f9-43b4-9974-f4f7abd1920a"},"vehicle_type_id":"4","last_reported":1707847784,"current_range_meters":31200,"station_id":"ce4bhbh2rcd13ifvqeqg","pricing_plan_id":"cebpf4jnsgd1na2vs0mg"},{"bike_id":"8e384b08-dfbb-4f75-ba1b-80231c259169","system_id":"levelo_inurba_marseille","lat":43.300888,"lon":5.390815,"is_reserved":false,"is_disabled":false,"rental_uris":{"android":"levelo://app?vid=8e384b08-dfbb-4f75-ba1b-80231c259169","ios":"levelo://app?vid=8e384b08-dfbb-4f75-ba1b-80231c259169"},"vehicle_type_id":"4","last_reported":1707847784,"current_range_meters":14000,"station_id":"ce4bh192rcd13ifvqdb0","pricing_plan_id":"cebpf4jnsgd1na2vs0mg"},{"bike_id":"372d89c2-66e3-4e2a-896d-dba4e185d653","system_id":"levelo_inurba_marseille","lat":43.29222,"lon":5.36053,"is_reserved":false,"is_disabled":false,"rental_uris":{"android":"levelo://app?vid=372d89c2-66e3-4e2a-896d-dba4e185d653","ios":"levelo://app?vid=372d89c2-66e3-4e2a-896d-dba4e185d653"},"vehicle_type_id":"4","last_reported":1707847784,"current_range_meters":21200,"station_id":"ce4bhbh2rcd13ifvqeqg","pricing_plan_id":"cebpf4jnsgd1na2vs0mg"},{"bike_id":"64aaa745-e794-4a90-9dd1-b3265d89bf3c","system_id":"levelo_inurba_marseille","lat":43.30085,"lon":5.390856,"is_reserved":false,"is_disabled":false,"rental_uris":{"android":"levelo://app?vid=64aaa745-e794-4a90-9dd1-b3265d89bf3c","ios":"levelo://app?vid=64aaa745-e794-4a90-9dd1-b3265d89bf3c"},"vehicle_type_id":"4","last_reported":1707847784,"current_range_meters":800,"station_id":"ce4bh192rcd13ifvqdb0","pricing_plan_id":"cebpf4jnsgd1na2vs0mg"},{"bike_id":"ff760cc2-b458-4560-a902-ee8fb30f8443","system_id":"levelo_inurba_marseille","lat":43.292205,"lon":5.360502,"is_reserved":false,"is_disabled":false,"rental_uris":{"android":"levelo://app?vid=ff760cc2-b458-4560-a902-ee8fb30f8443","ios":"levelo://app?vid=ff760cc2-b458-4560-a902-ee8fb30f8443"},"vehicle_type_id":"4","last_reported":1707847784,"current_range_meters":22400,"station_id":"ce4bhbh2rcd13ifvqeqg","pricing_plan_id":"cebpf4jnsgd1na2vs0mg"},{"bike_id":"39e84b90-19be-4174-9b60-0d74c9fac8f9","system_id":"levelo_inurba_marseille","lat":43.300852,"lon":5.390859,"is_reserved":false,"is_disabled":false,"rental_uris":{"android":"levelo://app?vid=39e84b90-19be-4174-9b60-0d74c9fac8f9","ios":"levelo://app?vid=39e84b90-19be-4174-9b60-0d74c9fac8f9"},"vehicle_type_id":"4","last_reported":1707847784,"current_range_meters":1200,"station_id":"ce4bh192rcd13ifvqdb0","pricing_plan_id":"cebpf4jnsgd1na2vs0mg"},{"bike_id":"3cc3c3c3-ae06-46ef-8fe7-ea090a060128","system_id":"levelo_inurba_marseille","lat":43.298764,"lon":5.388973,"is_reserved":false,"is_disabled":false,"rental_uris":{"android":"levelo://app?vid=3cc3c3c3-ae06-46ef-8fe7-ea090a060128","ios":"levelo://app?vid=3cc3c3c3-ae06-46ef-8fe7-ea090a060128"},"vehicle_type_id":"4","last_reported":1707847784,"current_range_meters":6000,"station_id":"ce4bh392rcd13ifvqdl0","pricing_plan_id":"cebpf4jnsgd1na2vs0mg"},{"bike_id":"19f6bdc7-0bc7-491b-8b5b-6c53033e8cb5","system_id":"levelo_inurba_marseille","lat":43.29192,"lon":5.35806,"is_reserved":false,"is_disabled":false,"rental_uris":{"android":"levelo://app?vid=19f6bdc7-0bc7-491b-8b5b-6c53033e8cb5","ios":"levelo://app?vid=19f6bdc7-0bc7-491b-8b5b-6c53033e8cb5"},"vehicle_type_id":"4","last_reported":1707847784,"current_range_meters":0,"station_id":"ce4bhb12rcd13ifvqel0","pricing_plan_id":"cebpf4jnsgd1na2vs0mg"},{"bike_id":"d6cd38b4-678b-4b08-94a2-c080fcf3634e","system_id":"levelo_inurba_marseille","lat":43.29189,"lon":5.35814,"is_reserved":false,"is_disabled":false,"rental_uris":{"android":"levelo://app?vid=d6cd38b4-678b-4b08-94a2-c080fcf3634e","ios":"levelo://app?vid=d6cd38b4-678b-4b08-94a2-c080fcf3634e"},"vehicle_type_id":"4","last_reported":1707847784,"current_range_meters":30400,"station_id":"ce4bhb12rcd13ifvqel0","pricing_plan_id":"cebpf4jnsgd1na2vs0mg"},{"bike_id":"d4969ae7-c7f8-4965-8619-6417daf7cf15","system_id":"levelo_inurba_marseille","lat":43.313291,"lon":5.396838,"is_reserved":false,"is_disabled":false,"rental_uris":{"android":"levelo://app?vid=d4969ae7-c7f8-4965-8619-6417daf7cf15","ios":"levelo://app?vid=d4969ae7-c7f8-4965-8619-6417daf7cf15"},"vehicle_type_id":"4","last_reported":1707847784,"current_range_meters":5200,"station_id":"ce4bgvp2rcd13ifvqcu0","pricing_plan_id":"cebpf4jnsgd1na2vs0mg"},{"bike_id":"9c229404-84ad-4b13-a885-0acc2e42a3f0","system_id":"levelo_inurba_marseille","lat":43.313291,"lon":5.396838,"is_reserved":false,"is_disabled":false,"rental_uris":{"android":"levelo://app?vid=9c229404-84ad-4b13-a885-0acc2e42a3f0","ios":"levelo://app?vid=9c229404-84ad-4b13-a885-0acc2e42a3f0"},"vehicle_type_id":"4","last_reported":1707847784,"current_range_meters":30400,"station_id":"ce4bgvp2rcd13ifvqcu0","pricing_plan_id":"cebpf4jnsgd1na2vs0mg"},{"bike_id":"261fd362-8e49-49e9-b6d2-d0b95440969f","system_id":"levelo_inurba_marseille","lat":43.313291,"lon":5.396838,"is_reserved":false,"is_disabled":false,"rental_uris":{"android":"levelo://app?vid=261fd362-8e49-49e9-b6d2-d0b95440969f","ios":"levelo://app?vid=261fd362-8e49-49e9-b6d2-d0b95440969f"},"vehicle_type_id":"4","last_reported":1707847784,"current_range_meters":28400,"station_id":"ce4bgvp2rcd13ifvqcu0","pricing_plan_id":"cebpf4jnsgd1na2vs0mg"},{"bike_id":"6cfe5b9f-7c6f-40e9-80d3-bd07f48b28cf","system_id":"levelo_inurba_marseille","lat":43.313291,"lon":5.396838,"is_reserved":false,"is_disabled":false,"rental_uris":{"android":"levelo://app?vid=6cfe5b9f-7c6f-40e9-80d3-bd07f48b28cf","ios":"levelo://app?vid=6cfe5b9f-7c6f-40e9-80d3-bd07f48b28cf"},"vehicle_type_id":"4","last_reported":1707847784,"current_range_meters":3600,"station_id":"ce4bgvp2rcd13ifvqcu0","pricing_plan_id":"cebpf4jnsgd1na2vs0mg"},{"bike_id":"a6792690-b47e-4ee3-bd1d-a9c233b8e6c5","system_id":"levelo_inurba_marseille","lat":43.313291,"lon":5.396838,"is_reserved":false,"is_disabled":false,"rental_uris":{"android":"levelo://app?vid=a6792690-b47e-4ee3-bd1d-a9c233b8e6c5","ios":"levelo://app?vid=a6792690-b47e-4ee3-bd1d-a9c233b8e6c5"},"vehicle_type_id":"4","last_reported":1707847784,"current_range_meters":30400,"station_id":"ce4bgvp2rcd13ifvqcu0","pricing_plan_id":"cebpf4jnsgd1na2vs0mg"},{"bike_id":"e42e3a1d-939e-410e-9b1d-3ca719c746dd","system_id":"levelo_inurba_marseille","lat":43.313291,"lon":5.396838,"is_reserved":false,"is_disabled":false,"rental_uris":{"android":"levelo://app?vid=e42e3a1d-939e-410e-9b1d-3ca719c746dd","ios":"levelo://app?vid=e42e3a1d-939e-410e-9b1d-3ca719c746dd"},"vehicle_type_id":"4","last_reported":1707847784,"current_range_meters":9200,"station_id":"ce4bgvp2rcd13ifvqcu0","pricing_plan_id":"cebpf4jnsgd1na2vs0mg"},{"bike_id":"96d5d210-2897-4318-9246-8eb6af5975cc","system_id":"levelo_inurba_marseille","lat":43.313291,"lon":5.396838,"is_reserved":false,"is_disabled":false,"rental_uris":{"android":"levelo://app?vid=96d5d210-2897-4318-9246-8eb6af5975cc","ios":"levelo://app?vid=96d5d210-2897-4318-9246-8eb6af5975cc"},"vehicle_type_id":"4","last_reported":1707847784,"current_range_meters":31600,"station_id":"ce4bgvp2rcd13ifvqcu0","pricing_plan_id":"cebpf4jnsgd1na2vs0mg"},{"bike_id":"1ac10612-40ce-4c5a-a4a4-e21b3d0ea078","system_id":"levelo_inurba_marseille","lat":43.29529,"lon":5.385581,"is_reserved":false,"is_disabled":false,"rental_uris":{"android":"levelo://app?vid=1ac10612-40ce-4c5a-a4a4-e21b3d0ea078","ios":"levelo://app?vid=1ac10612-40ce-4c5a-a4a4-e21b3d0ea078"},"vehicle_type_id":"4","last_reported":1707847784,"current_range_meters":30400,"station_id":"ce4bgih2rcd13ifvqba0","pricing_plan_id":"cebpf4jnsgd1na2vs0mg"},{"bike_id":"10bd03dc-dfd9-4330-8f46-14dd5a10d503","system_id":"levelo_inurba_marseille","lat":43.29529,"lon":5.385581,"is_reserved":false,"is_disabled":false,"rental_uris":{"android":"levelo://app?vid=10bd03dc-dfd9-4330-8f46-14dd5a10d503","ios":"levelo://app?vid=10bd03dc-dfd9-4330-8f46-14dd5a10d503"},"vehicle_type_id":"4","last_reported":1707847784,"current_range_meters":18400,"station_id":"ce4bgih2rcd13ifvqba0","pricing_plan_id":"cebpf4jnsgd1na2vs0mg"},{"bike_id":"0511d0d7-aae7-4d28-98b1-5229d3b7d8c5","system_id":"levelo_inurba_marseille","lat":43.29529,"lon":5.385581,"is_reserved":false,"is_disabled":false,"rental_uris":{"android":"levelo://app?vid=0511d0d7-aae7-4d28-98b1-5229d3b7d8c5","ios":"levelo://app?vid=0511d0d7-aae7-4d28-98b1-5229d3b7d8c5"},"vehicle_type_id":"4","last_reported":1707847784,"current_range_meters":0,"station_id":"ce4bgih2rcd13ifvqba0","pricing_plan_id":"cebpf4jnsgd1na2vs0mg"},{"bike_id":"a025c951-6d66-4b5d-90a3-fb172e019953","system_id":"levelo_inurba_marseille","lat":43.290779,"lon":5.371482,"is_reserved":false,"is_disabled":false,"rental_uris":{"android":"levelo://app?vid=a025c951-6d66-4b5d-90a3-fb172e019953","ios":"levelo://app?vid=a025c951-6d66-4b5d-90a3-fb172e019953"},"vehicle_type_id":"4","last_reported":1707847784,"current_range_meters":8400,"station_id":"ce4bh5p2rcd13ifvqe4g","pricing_plan_id":"cebpf4jnsgd1na2vs0mg"},{"bike_id":"e52978b1-b5b5-4bee-b203-82282179c309","system_id":"levelo_inurba_marseille","lat":43.29529,"lon":5.385581,"is_reserved":false,"is_disabled":false,"rental_uris":{"android":"levelo://app?vid=e52978b1-b5b5-4bee-b203-82282179c309","ios":"levelo://app?vid=e52978b1-b5b5-4bee-b203-82282179c309"},"vehicle_type_id":"4","last_reported":1707847784,"current_range_meters":3200,"station_id":"ce4bgih2rcd13ifvqba0","pricing_plan_id":"cebpf4jnsgd1na2vs0mg"},{"bike_id":"37c4536d-bdd2-4f5c-8e0d-7dcc13723edd","system_id":"levelo_inurba_marseille","lat":43.302008,"lon":5.394694,"is_reserved":false,"is_disabled":false,"rental_uris":{"android":"levelo://app?vid=37c4536d-bdd2-4f5c-8e0d-7dcc13723edd","ios":"levelo://app?vid=37c4536d-bdd2-4f5c-8e0d-7dcc13723edd"},"vehicle_type_id":"4","last_reported":1707847784,"current_range_meters":20000,"station_id":"ce4bh0p2rcd13ifvqd70","pricing_plan_id":"cebpf4jnsgd1na2vs0mg"},{"bike_id":"e565b7ec-ccfa-4dad-9072-1432eadbda73","system_id":"levelo_inurba_marseille","lat":43.302008,"lon":5.394694,"is_reserved":false,"is_disabled":false,"rental_uris":{"android":"levelo://app?vid=e565b7ec-ccfa-4dad-9072-1432eadbda73","ios":"levelo://app?vid=e565b7ec-ccfa-4dad-9072-1432eadbda73"},"vehicle_type_id":"4","last_reported":1707847784,"current_range_meters":1200,"station_id":"ce4bh0p2rcd13ifvqd70","pricing_plan_id":"cebpf4jnsgd1na2vs0mg"},{"bike_id":"c454a67b-bf6e-438f-a587-47688bffee02","system_id":"levelo_inurba_marseille","lat":43.302008,"lon":5.394694,"is_reserved":false,"is_disabled":false,"rental_uris":{"android":"levelo://app?vid=c454a67b-bf6e-438f-a587-47688bffee02","ios":"levelo://app?vid=c454a67b-bf6e-438f-a587-47688bffee02"},"vehicle_type_id":"4","last_reported":1707847784,"current_range_meters":3200,"station_id":"ce4bh0p2rcd13ifvqd70","pricing_plan_id":"cebpf4jnsgd1na2vs0mg"},{"bike_id":"4850d752-72de-49c5-898d-9403631fc5b8","system_id":"levelo_inurba_marseille","lat":43.302008,"lon":5.394694,"is_reserved":false,"is_disabled":false,"rental_uris":{"android":"levelo://app?vid=4850d752-72de-49c5-898d-9403631fc5b8","ios":"levelo://app?vid=4850d752-72de-49c5-898d-9403631fc5b8"},"vehicle_type_id":"4","last_reported":1707847784,"current_range_meters":12800,"station_id":"ce4bh0p2rcd13ifvqd70","pricing_plan_id":"cebpf4jnsgd1na2vs0mg"},{"bike_id":"18bd592a-c942-4d0e-b4da-950369ab2aef","system_id":"levelo_inurba_marseille","lat":43.290631,"lon":5.359244,"is_reserved":false,"is_disabled":false,"rental_uris":{"android":"levelo://app?vid=18bd592a-c942-4d0e-b4da-950369ab2aef","ios":"levelo://app?vid=18bd592a-c942-4d0e-b4da-950369ab2aef"},"vehicle_type_id":"4","last_reported":1707847784,"current_range_meters":30800,"station_id":"ce4bha92rcd13ifvqeg0","pricing_plan_id":"cebpf4jnsgd1na2vs0mg"},{"bike_id":"2a098d99-f447-4c0b-8c5e-1de8d9a79fb8","system_id":"levelo_inurba_marseille","lat":43.294295,"lon":5.385835,"is_reserved":false,"is_disabled":false,"rental_uris":{"android":"levelo://app?vid=2a098d99-f447-4c0b-8c5e-1de8d9a79fb8","ios":"levelo://app?vid=2a098d99-f447-4c0b-8c5e-1de8d9a79fb8"},"vehicle_type_id":"4","last_reported":1707847784,"current_range_meters":21600,"station_id":"ce4bh2h2rcd13ifvqdh0","pricing_plan_id":"cebpf4jnsgd1na2vs0mg"},{"bike_id":"46e3d354-edef-462a-819f-7f8a063aeaf4","system_id":"levelo_inurba_marseille","lat":43.290624,"lon":5.359245,"is_reserved":false,"is_disabled":false,"rental_uris":{"android":"levelo://app?vid=46e3d354-edef-462a-819f-7f8a063aeaf4","ios":"levelo://app?vid=46e3d354-edef-462a-819f-7f8a063aeaf4"},"vehicle_type_id":"4","last_reported":1707847784,"current_range_meters":17600,"station_id":"ce4bha92rcd13ifvqeg0","pricing_plan_id":"cebpf4jnsgd1na2vs0mg"},{"bike_id":"bb5b13e7-136a-4177-a497-54b122b46511","system_id":"levelo_inurba_marseille","lat":43.29033,"lon":5.35912,"is_reserved":false,"is_disabled":false,"rental_uris":{"android":"levelo://app?vid=bb5b13e7-136a-4177-a497-54b122b46511","ios":"levelo://app?vid=bb5b13e7-136a-4177-a497-54b122b46511"},"vehicle_type_id":"4","last_reported":1707847784,"current_range_meters":0,"station_id":"ce4bha92rcd13ifvqeg0","pricing_plan_id":"cebpf4jnsgd1na2vs0mg"},{"bike_id":"02b0d1b1-a224-44d0-b036-e4ee7d24b264","system_id":"levelo_inurba_marseille","lat":43.289468,"lon":5.363719,"is_reserved":false,"is_disabled":false,"rental_uris":{"android":"levelo://app?vid=02b0d1b1-a224-44d0-b036-e4ee7d24b264","ios":"levelo://app?vid=02b0d1b1-a224-44d0-b036-e4ee7d24b264"},"vehicle_type_id":"4","last_reported":1707847784,"current_range_meters":7200,"station_id":"ce4bhc92rcd13ifvqetg","pricing_plan_id":"cebpf4jnsgd1na2vs0mg"},{"bike_id":"3a5826f4-538f-404d-8b5f-d3827baeda30","system_id":"levelo_inurba_marseille","lat":43.294153,"lon":5.386305,"is_reserved":false,"is_disabled":false,"rental_uris":{"android":"levelo://app?vid=3a5826f4-538f-404d-8b5f-d3827baeda30","ios":"levelo://app?vid=3a5826f4-538f-404d-8b5f-d3827baeda30"},"vehicle_type_id":"4","last_reported":1707847784,"current_range_meters":19600,"station_id":"ce4bh2h2rcd13ifvqdh0","pricing_plan_id":"cebpf4jnsgd1na2vs0mg"},{"bike_id":"508a6d5c-c369-404e-8999-b97fea44d260","system_id":"levelo_inurba_marseille","lat":43.29424,"lon":5.38626,"is_reserved":false,"is_disabled":false,"rental_uris":{"android":"levelo://app?vid=508a6d5c-c369-404e-8999-b97fea44d260","ios":"levelo://app?vid=508a6d5c-c369-404e-8999-b97fea44d260"},"vehicle_type_id":"4","last_reported":1707847784,"current_range_meters":800,"station_id":"ce4bh2h2rcd13ifvqdh0","pricing_plan_id":"cebpf4jnsgd1na2vs0mg"},{"bike_id":"b1dd5cab-1cdb-4364-b08b-6c1c40e248e0","system_id":"levelo_inurba_marseille","lat":43.289184,"lon":5.366408,"is_reserved":false,"is_disabled":false,"rental_uris":{"android":"levelo://app?vid=b1dd5cab-1cdb-4364-b08b-6c1c40e248e0","ios":"levelo://app?vid=b1dd5cab-1cdb-4364-b08b-6c1c40e248e0"},"vehicle_type_id":"4","last_reported":1707847784,"current_range_meters":8000,"station_id":"ce4bhap2rcd13ifvqek0","pricing_plan_id":"cebpf4jnsgd1na2vs0mg"},{"bike_id":"610bba5d-73f3-49b7-be36-b7ffa0915ad2","system_id":"levelo_inurba_marseille","lat":43.29423,"lon":5.3863,"is_reserved":false,"is_disabled":false,"rental_uris":{"android":"levelo://app?vid=610bba5d-73f3-49b7-be36-b7ffa0915ad2","ios":"levelo://app?vid=610bba5d-73f3-49b7-be36-b7ffa0915ad2"},"vehicle_type_id":"4","last_reported":1707847784,"current_range_meters":22400,"station_id":"ce4bh2h2rcd13ifvqdh0","pricing_plan_id":"cebpf4jnsgd1na2vs0mg"},{"bike_id":"0a8a66d2-8f74-4d1d-97e2-de9764d34a06","system_id":"levelo_inurba_marseille","lat":43.294153,"lon":5.386305,"is_reserved":false,"is_disabled":false,"rental_uris":{"android":"levelo://app?vid=0a8a66d2-8f74-4d1d-97e2-de9764d34a06","ios":"levelo://app?vid=0a8a66d2-8f74-4d1d-97e2-de9764d34a06"},"vehicle_type_id":"4","last_reported":1707847784,"current_range_meters":8800,"station_id":"ce4bh2h2rcd13ifvqdh0","pricing_plan_id":"cebpf4jnsgd1na2vs0mg"},{"bike_id":"4493b867-ac6f-4c78-8518-ac28c73c96c6","system_id":"levelo_inurba_marseille","lat":43.294153,"lon":5.386305,"is_reserved":false,"is_disabled":false,"rental_uris":{"android":"levelo://app?vid=4493b867-ac6f-4c78-8518-ac28c73c96c6","ios":"levelo://app?vid=4493b867-ac6f-4c78-8518-ac28c73c96c6"},"vehicle_type_id":"4","last_reported":1707847784,"current_range_meters":400,"station_id":"ce4bh2h2rcd13ifvqdh0","pricing_plan_id":"cebpf4jnsgd1na2vs0mg"},{"bike_id":"e9ee4a0c-f5d4-4a0a-96c7-6a6e1c4d075b","system_id":"levelo_inurba_marseille","lat":43.2942,"lon":5.3863,"is_reserved":false,"is_disabled":false,"rental_uris":{"android":"levelo://app?vid=e9ee4a0c-f5d4-4a0a-96c7-6a6e1c4d075b","ios":"levelo://app?vid=e9ee4a0c-f5d4-4a0a-96c7-6a6e1c4d075b"},"vehicle_type_id":"4","last_reported":1707847784,"current_range_meters":0,"station_id":"ce4bh2h2rcd13ifvqdh0","pricing_plan_id":"cebpf4jnsgd1na2vs0mg"},{"bike_id":"bcd36c31-3d05-4c86-ae56-1c25f23893ea","system_id":"levelo_inurba_marseille","lat":43.29421,"lon":5.38632,"is_reserved":false,"is_disabled":false,"rental_uris":{"android":"levelo://app?vid=bcd36c31-3d05-4c86-ae56-1c25f23893ea","ios":"levelo://app?vid=bcd36c31-3d05-4c86-ae56-1c25f23893ea"},"vehicle_type_id":"4","last_reported":1707847784,"current_range_meters":19600,"station_id":"ce4bh2h2rcd13ifvqdh0","pricing_plan_id":"cebpf4jnsgd1na2vs0mg"},{"bike_id":"1545af12-6829-44fb-ac0b-6c9dd2c1ee62","system_id":"levelo_inurba_marseille","lat":43.294153,"lon":5.386305,"is_reserved":false,"is_disabled":false,"rental_uris":{"android":"levelo://app?vid=1545af12-6829-44fb-ac0b-6c9dd2c1ee62","ios":"levelo://app?vid=1545af12-6829-44fb-ac0b-6c9dd2c1ee62"},"vehicle_type_id":"4","last_reported":1707847784,"current_range_meters":6800,"station_id":"ce4bh2h2rcd13ifvqdh0","pricing_plan_id":"cebpf4jnsgd1na2vs0mg"},{"bike_id":"7ff925b9-c22f-4c30-b800-fd80a5d03bb1","system_id":"levelo_inurba_marseille","lat":43.2942,"lon":5.38632,"is_reserved":false,"is_disabled":false,"rental_uris":{"android":"levelo://app?vid=7ff925b9-c22f-4c30-b800-fd80a5d03bb1","ios":"levelo://app?vid=7ff925b9-c22f-4c30-b800-fd80a5d03bb1"},"vehicle_type_id":"4","last_reported":1707847784,"current_range_meters":18400,"station_id":"ce4bh2h2rcd13ifvqdh0","pricing_plan_id":"cebpf4jnsgd1na2vs0mg"},{"bike_id":"0b555d84-ada0-4fae-a097-bb5ffe4ae6a2","system_id":"levelo_inurba_marseille","lat":43.29418,"lon":5.38633,"is_reserved":false,"is_disabled":false,"rental_uris":{"android":"levelo://app?vid=0b555d84-ada0-4fae-a097-bb5ffe4ae6a2","ios":"levelo://app?vid=0b555d84-ada0-4fae-a097-bb5ffe4ae6a2"},"vehicle_type_id":"4","last_reported":1707847784,"current_range_meters":0,"station_id":"ce4bh2h2rcd13ifvqdh0","pricing_plan_id":"cebpf4jnsgd1na2vs0mg"},{"bike_id":"555bb9a8-6837-4be2-802b-001bc9bc2a0e","system_id":"levelo_inurba_marseille","lat":43.294153,"lon":5.386305,"is_reserved":false,"is_disabled":false,"rental_uris":{"android":"levelo://app?vid=555bb9a8-6837-4be2-802b-001bc9bc2a0e","ios":"levelo://app?vid=555bb9a8-6837-4be2-802b-001bc9bc2a0e"},"vehicle_type_id":"4","last_reported":1707847784,"current_range_meters":22800,"station_id":"ce4bh2h2rcd13ifvqdh0","pricing_plan_id":"cebpf4jnsgd1na2vs0mg"},{"bike_id":"fba8ea91-4ecc-4f93-a974-476b87311b90","system_id":"levelo_inurba_marseille","lat":43.294153,"lon":5.386305,"is_reserved":false,"is_disabled":false,"rental_uris":{"android":"levelo://app?vid=fba8ea91-4ecc-4f93-a974-476b87311b90","ios":"levelo://app?vid=fba8ea91-4ecc-4f93-a974-476b87311b90"},"vehicle_type_id":"4","last_reported":1707847784,"current_range_meters":8800,"station_id":"ce4bh2h2rcd13ifvqdh0","pricing_plan_id":"cebpf4jnsgd1na2vs0mg"},{"bike_id":"90ffa4ca-6109-4942-afc7-d5a2411225e3","system_id":"levelo_inurba_marseille","lat":43.289468,"lon":5.363719,"is_reserved":false,"is_disabled":false,"rental_uris":{"android":"levelo://app?vid=90ffa4ca-6109-4942-afc7-d5a2411225e3","ios":"levelo://app?vid=90ffa4ca-6109-4942-afc7-d5a2411225e3"},"vehicle_type_id":"4","last_reported":1707847784,"current_range_meters":24800,"station_id":"ce4bhc92rcd13ifvqetg","pricing_plan_id":"cebpf4jnsgd1na2vs0mg"},{"bike_id":"a5434ef5-1558-4100-b59a-989f74f629ef","system_id":"levelo_inurba_marseille","lat":43.289184,"lon":5.366408,"is_reserved":false,"is_disabled":false,"rental_uris":{"android":"levelo://app?vid=a5434ef5-1558-4100-b59a-989f74f629ef","ios":"levelo://app?vid=a5434ef5-1558-4100-b59a-989f74f629ef"},"vehicle_type_id":"4","last_reported":1707847784,"current_range_meters":6800,"station_id":"ce4bhap2rcd13ifvqek0","pricing_plan_id":"cebpf4jnsgd1na2vs0mg"},{"bike_id":"91a91e43-0434-41bb-be6e-fd93aa0e7f1a","system_id":"levelo_inurba_marseille","lat":43.289184,"lon":5.366408,"is_reserved":false,"is_disabled":false,"rental_uris":{"android":"levelo://app?vid=91a91e43-0434-41bb-be6e-fd93aa0e7f1a","ios":"levelo://app?vid=91a91e43-0434-41bb-be6e-fd93aa0e7f1a"},"vehicle_type_id":"4","last_reported":1707847784,"current_range_meters":10000,"station_id":"ce4bhap2rcd13ifvqek0","pricing_plan_id":"cebpf4jnsgd1na2vs0mg"},{"bike_id":"462cd33d-20a7-4953-84a1-e24988761b12","system_id":"levelo_inurba_marseille","lat":43.289184,"lon":5.366408,"is_reserved":false,"is_disabled":false,"rental_uris":{"android":"levelo://app?vid=462cd33d-20a7-4953-84a1-e24988761b12","ios":"levelo://app?vid=462cd33d-20a7-4953-84a1-e24988761b12"},"vehicle_type_id":"4","last_reported":1707847784,"current_range_meters":18800,"station_id":"ce4bhap2rcd13ifvqek0","pricing_plan_id":"cebpf4jnsgd1na2vs0mg"},{"bike_id":"8a0960c4-2dc4-4e6d-b86a-280a45d40387","system_id":"levelo_inurba_marseille","lat":43.29408,"lon":5.38625,"is_reserved":false,"is_disabled":false,"rental_uris":{"android":"levelo://app?vid=8a0960c4-2dc4-4e6d-b86a-280a45d40387","ios":"levelo://app?vid=8a0960c4-2dc4-4e6d-b86a-280a45d40387"},"vehicle_type_id":"4","last_reported":1707847784,"current_range_meters":22800,"station_id":"ce4bh2h2rcd13ifvqdh0","pricing_plan_id":"cebpf4jnsgd1na2vs0mg"},{"bike_id":"1affff20-befd-4be3-9834-ca28c05e941f","system_id":"levelo_inurba_marseille","lat":43.29415,"lon":5.38639,"is_reserved":false,"is_disabled":false,"rental_uris":{"android":"levelo://app?vid=1affff20-befd-4be3-9834-ca28c05e941f","ios":"levelo://app?vid=1affff20-befd-4be3-9834-ca28c05e941f"},"vehicle_type_id":"4","last_reported":1707847784,"current_range_meters":3200,"station_id":"ce4bh2h2rcd13ifvqdh0","pricing_plan_id":"cebpf4jnsgd1na2vs0mg"},{"bike_id":"fe381046-549d-46c1-996f-71a41ed97e6f","system_id":"levelo_inurba_marseille","lat":43.289184,"lon":5.366408,"is_reserved":false,"is_disabled":false,"rental_uris":{"android":"levelo://app?vid=fe381046-549d-46c1-996f-71a41ed97e6f","ios":"levelo://app?vid=fe381046-549d-46c1-996f-71a41ed97e6f"},"vehicle_type_id":"4","last_reported":1707847784,"current_range_meters":8400,"station_id":"ce4bhap2rcd13ifvqek0","pricing_plan_id":"cebpf4jnsgd1na2vs0mg"},{"bike_id":"bacceb55-b56a-4d07-ba4e-96718b181ec2","system_id":"levelo_inurba_marseille","lat":43.289468,"lon":5.363719,"is_reserved":false,"is_disabled":false,"rental_uris":{"android":"levelo://app?vid=bacceb55-b56a-4d07-ba4e-96718b181ec2","ios":"levelo://app?vid=bacceb55-b56a-4d07-ba4e-96718b181ec2"},"vehicle_type_id":"4","last_reported":1707847784,"current_range_meters":2400,"station_id":"ce4bhc92rcd13ifvqetg","pricing_plan_id":"cebpf4jnsgd1na2vs0mg"},{"bike_id":"6e7f0d17-6d7f-476f-905a-66158a069e9b","system_id":"levelo_inurba_marseille","lat":43.29405,"lon":5.38628,"is_reserved":false,"is_disabled":false,"rental_uris":{"android":"levelo://app?vid=6e7f0d17-6d7f-476f-905a-66158a069e9b","ios":"levelo://app?vid=6e7f0d17-6d7f-476f-905a-66158a069e9b"},"vehicle_type_id":"4","last_reported":1707847784,"current_range_meters":2800,"station_id":"ce4bh2h2rcd13ifvqdh0","pricing_plan_id":"cebpf4jnsgd1na2vs0mg"},{"bike_id":"568fff12-a03c-4b8a-9d62-313b31e526dc","system_id":"levelo_inurba_marseille","lat":43.28933,"lon":5.36637,"is_reserved":false,"is_disabled":false,"rental_uris":{"android":"levelo://app?vid=568fff12-a03c-4b8a-9d62-313b31e526dc","ios":"levelo://app?vid=568fff12-a03c-4b8a-9d62-313b31e526dc"},"vehicle_type_id":"4","last_reported":1707847784,"current_range_meters":0,"station_id":"ce4bhap2rcd13ifvqek0","pricing_plan_id":"cebpf4jnsgd1na2vs0mg"},{"bike_id":"a76aa733-2c2c-4cb4-b969-c99ddd7d4f61","system_id":"levelo_inurba_marseille","lat":43.292642,"lon":5.384254,"is_reserved":false,"is_disabled":false,"rental_uris":{"android":"levelo://app?vid=a76aa733-2c2c-4cb4-b969-c99ddd7d4f61","ios":"levelo://app?vid=a76aa733-2c2c-4cb4-b969-c99ddd7d4f61"},"vehicle_type_id":"4","last_reported":1707847784,"current_range_meters":26800,"station_id":"ce4bh692rcd13ifvqea0","pricing_plan_id":"cebpf4jnsgd1na2vs0mg"},{"bike_id":"ed955276-c3a3-4e06-8210-33a696876823","system_id":"levelo_inurba_marseille","lat":43.292644,"lon":5.384257,"is_reserved":false,"is_disabled":false,"rental_uris":{"android":"levelo://app?vid=ed955276-c3a3-4e06-8210-33a696876823","ios":"levelo://app?vid=ed955276-c3a3-4e06-8210-33a696876823"},"vehicle_type_id":"4","last_reported":1707847784,"current_range_meters":0,"station_id":"ce4bh692rcd13ifvqea0","pricing_plan_id":"cebpf4jnsgd1na2vs0mg"},{"bike_id":"fb13c5cc-c6a4-469e-b864-5d509e5d1e5d","system_id":"levelo_inurba_marseille","lat":43.292555,"lon":5.384464,"is_reserved":false,"is_disabled":false,"rental_uris":{"android":"levelo://app?vid=fb13c5cc-c6a4-469e-b864-5d509e5d1e5d","ios":"levelo://app?vid=fb13c5cc-c6a4-469e-b864-5d509e5d1e5d"},"vehicle_type_id":"4","last_reported":1707847784,"current_range_meters":24400,"station_id":"ce4bhi12rcd13ifvqfo0","pricing_plan_id":"cebpf4jnsgd1na2vs0mg"},{"bike_id":"eacacb60-9f30-44dd-8670-cec5b3641874","system_id":"levelo_inurba_marseille","lat":43.292644,"lon":5.384257,"is_reserved":false,"is_disabled":false,"rental_uris":{"android":"levelo://app?vid=eacacb60-9f30-44dd-8670-cec5b3641874","ios":"levelo://app?vid=eacacb60-9f30-44dd-8670-cec5b3641874"},"vehicle_type_id":"4","last_reported":1707847784,"current_range_meters":12400,"station_id":"ce4bh692rcd13ifvqea0","pricing_plan_id":"cebpf4jnsgd1na2vs0mg"},{"bike_id":"00d7fcc9-5e55-42ff-b165-252818f02c4e","system_id":"levelo_inurba_marseille","lat":43.29255,"lon":5.3845,"is_reserved":false,"is_disabled":false,"rental_uris":{"android":"levelo://app?vid=00d7fcc9-5e55-42ff-b165-252818f02c4e","ios":"levelo://app?vid=00d7fcc9-5e55-42ff-b165-252818f02c4e"},"vehicle_type_id":"4","last_reported":1707847784,"current_range_meters":0,"station_id":"ce4bh692rcd13ifvqea0","pricing_plan_id":"cebpf4jnsgd1na2vs0mg"},{"bike_id":"d44c693b-1c76-4dff-8842-1f3bc03d7302","system_id":"levelo_inurba_marseille","lat":43.29008,"lon":5.35615,"is_reserved":false,"is_disabled":false,"rental_uris":{"android":"levelo://app?vid=d44c693b-1c76-4dff-8842-1f3bc03d7302","ios":"levelo://app?vid=d44c693b-1c76-4dff-8842-1f3bc03d7302"},"vehicle_type_id":"4","last_reported":1707847784,"current_range_meters":19200,"station_id":"ce4bhb92rcd13ifvqen0","pricing_plan_id":"cebpf4jnsgd1na2vs0mg"},{"bike_id":"5626413b-2d61-47ee-b6be-18f7923273b1","system_id":"levelo_inurba_marseille","lat":43.29006,"lon":5.35616,"is_reserved":false,"is_disabled":false,"rental_uris":{"android":"levelo://app?vid=5626413b-2d61-47ee-b6be-18f7923273b1","ios":"levelo://app?vid=5626413b-2d61-47ee-b6be-18f7923273b1"},"vehicle_type_id":"4","last_reported":1707847784,"current_range_meters":0,"station_id":"ce4bhb92rcd13ifvqen0","pricing_plan_id":"cebpf4jnsgd1na2vs0mg"},{"bike_id":"a9102ef3-54bc-40f3-805f-10186a9f6eeb","system_id":"levelo_inurba_marseille","lat":43.29005,"lon":5.35613,"is_reserved":false,"is_disabled":false,"rental_uris":{"android":"levelo://app?vid=a9102ef3-54bc-40f3-805f-10186a9f6eeb","ios":"levelo://app?vid=a9102ef3-54bc-40f3-805f-10186a9f6eeb"},"vehicle_type_id":"4","last_reported":1707847784,"current_range_meters":400,"station_id":"ce4bhb92rcd13ifvqen0","pricing_plan_id":"cebpf4jnsgd1na2vs0mg"},{"bike_id":"c7350db9-c48e-493e-ae54-f8ff7e122c0b","system_id":"levelo_inurba_marseille","lat":43.290104,"lon":5.356111,"is_reserved":false,"is_disabled":false,"rental_uris":{"android":"levelo://app?vid=c7350db9-c48e-493e-ae54-f8ff7e122c0b","ios":"levelo://app?vid=c7350db9-c48e-493e-ae54-f8ff7e122c0b"},"vehicle_type_id":"4","last_reported":1707847784,"current_range_meters":4000,"station_id":"ce4bhb92rcd13ifvqen0","pricing_plan_id":"cebpf4jnsgd1na2vs0mg"},{"bike_id":"4d68c731-b88a-4271-973b-e32115f40acc","system_id":"levelo_inurba_marseille","lat":43.290104,"lon":5.356111,"is_reserved":false,"is_disabled":false,"rental_uris":{"android":"levelo://app?vid=4d68c731-b88a-4271-973b-e32115f40acc","ios":"levelo://app?vid=4d68c731-b88a-4271-973b-e32115f40acc"},"vehicle_type_id":"4","last_reported":1707847784,"current_range_meters":11600,"station_id":"ce4bhb92rcd13ifvqen0","pricing_plan_id":"cebpf4jnsgd1na2vs0mg"},{"bike_id":"ab3e09c5-9bdd-4ae0-86de-0ca384530a10","system_id":"levelo_inurba_marseille","lat":43.29002,"lon":5.35612,"is_reserved":false,"is_disabled":false,"rental_uris":{"android":"levelo://app?vid=ab3e09c5-9bdd-4ae0-86de-0ca384530a10","ios":"levelo://app?vid=ab3e09c5-9bdd-4ae0-86de-0ca384530a10"},"vehicle_type_id":"4","last_reported":1707847784,"current_range_meters":20400,"station_id":"ce4bhb92rcd13ifvqen0","pricing_plan_id":"cebpf4jnsgd1na2vs0mg"},{"bike_id":"4ff221ef-131b-4ab5-bc4f-9dafeb81b319","system_id":"levelo_inurba_marseille","lat":43.290104,"lon":5.356111,"is_reserved":false,"is_disabled":false,"rental_uris":{"android":"levelo://app?vid=4ff221ef-131b-4ab5-bc4f-9dafeb81b319","ios":"levelo://app?vid=4ff221ef-131b-4ab5-bc4f-9dafeb81b319"},"vehicle_type_id":"4","last_reported":1707847784,"current_range_meters":9600,"station_id":"ce4bhb92rcd13ifvqen0","pricing_plan_id":"cebpf4jnsgd1na2vs0mg"},{"bike_id":"1a6305f6-3bdf-4be5-bb32-436449a35f7f","system_id":"levelo_inurba_marseille","lat":43.290995,"lon":5.381361,"is_reserved":false,"is_disabled":false,"rental_uris":{"android":"levelo://app?vid=1a6305f6-3bdf-4be5-bb32-436449a35f7f","ios":"levelo://app?vid=1a6305f6-3bdf-4be5-bb32-436449a35f7f"},"vehicle_type_id":"4","last_reported":1707847784,"current_range_meters":6800,"station_id":"ce4bh512rcd13ifvqe2g","pricing_plan_id":"cebpf4jnsgd1na2vs0mg"},{"bike_id":"263d3497-5c32-4114-b036-66690162076c","system_id":"levelo_inurba_marseille","lat":43.290995,"lon":5.381361,"is_reserved":false,"is_disabled":false,"rental_uris":{"android":"levelo://app?vid=263d3497-5c32-4114-b036-66690162076c","ios":"levelo://app?vid=263d3497-5c32-4114-b036-66690162076c"},"vehicle_type_id":"4","last_reported":1707847784,"current_range_meters":22000,"station_id":"ce4bh512rcd13ifvqe2g","pricing_plan_id":"cebpf4jnsgd1na2vs0mg"},{"bike_id":"c524b4f4-548c-4384-a8b1-b16910b92691","system_id":"levelo_inurba_marseille","lat":43.330442,"lon":5.389148,"is_reserved":false,"is_disabled":false,"rental_uris":{"android":"levelo://app?vid=c524b4f4-548c-4384-a8b1-b16910b92691","ios":"levelo://app?vid=c524b4f4-548c-4384-a8b1-b16910b92691"},"vehicle_type_id":"4","last_reported":1707847784,"current_range_meters":1600,"station_id":"ce4bhr92rcd13ifvqhrg","pricing_plan_id":"cebpf4jnsgd1na2vs0mg"},{"bike_id":"3fb14b2c-e0f4-4baa-97ae-9b05749a6dea","system_id":"levelo_inurba_marseille","lat":43.29788,"lon":5.39342,"is_reserved":false,"is_disabled":false,"rental_uris":{"android":"levelo://app?vid=3fb14b2c-e0f4-4baa-97ae-9b05749a6dea","ios":"levelo://app?vid=3fb14b2c-e0f4-4baa-97ae-9b05749a6dea"},"vehicle_type_id":"4","last_reported":1707847784,"current_range_meters":10000,"station_id":"chh1huq6cuj3fo74tm60","pricing_plan_id":"cebpf4jnsgd1na2vs0mg"},{"bike_id":"c1350449-14c1-4ebb-96d8-8b15cc38a8bc","system_id":"levelo_inurba_marseille","lat":43.297818,"lon":5.393367,"is_reserved":false,"is_disabled":false,"rental_uris":{"android":"levelo://app?vid=c1350449-14c1-4ebb-96d8-8b15cc38a8bc","ios":"levelo://app?vid=c1350449-14c1-4ebb-96d8-8b15cc38a8bc"},"vehicle_type_id":"4","last_reported":1707847784,"current_range_meters":7600,"station_id":"chh1huq6cuj3fo74tm60","pricing_plan_id":"cebpf4jnsgd1na2vs0mg"},{"bike_id":"d552e8f8-0fc6-4c50-9a75-e674fcee9cee","system_id":"levelo_inurba_marseille","lat":43.33019,"lon":5.39032,"is_reserved":false,"is_disabled":false,"rental_uris":{"android":"levelo://app?vid=d552e8f8-0fc6-4c50-9a75-e674fcee9cee","ios":"levelo://app?vid=d552e8f8-0fc6-4c50-9a75-e674fcee9cee"},"vehicle_type_id":"4","last_reported":1707847784,"current_range_meters":7600,"station_id":"ce4bhr92rcd13ifvqhrg","pricing_plan_id":"cebpf4jnsgd1na2vs0mg"},{"bike_id":"fc2622b3-45bc-4fc9-8456-700a959654ed","system_id":"levelo_inurba_marseille","lat":43.330442,"lon":5.389148,"is_reserved":false,"is_disabled":false,"rental_uris":{"android":"levelo://app?vid=fc2622b3-45bc-4fc9-8456-700a959654ed","ios":"levelo://app?vid=fc2622b3-45bc-4fc9-8456-700a959654ed"},"vehicle_type_id":"4","last_reported":1707847784,"current_range_meters":14000,"station_id":"ce4bhr92rcd13ifvqhrg","pricing_plan_id":"cebpf4jnsgd1na2vs0mg"},{"bike_id":"562e5074-03f2-47fb-ad8b-ef855c7c9b72","system_id":"levelo_inurba_marseille","lat":43.29782,"lon":5.39346,"is_reserved":false,"is_disabled":false,"rental_uris":{"android":"levelo://app?vid=562e5074-03f2-47fb-ad8b-ef855c7c9b72","ios":"levelo://app?vid=562e5074-03f2-47fb-ad8b-ef855c7c9b72"},"vehicle_type_id":"4","last_reported":1707847784,"current_range_meters":16000,"station_id":"chh1huq6cuj3fo74tm60","pricing_plan_id":"cebpf4jnsgd1na2vs0mg"},{"bike_id":"f139b206-454b-4989-9fb5-f0e80f3e90ee","system_id":"levelo_inurba_marseille","lat":43.330442,"lon":5.389148,"is_reserved":false,"is_disabled":false,"rental_uris":{"android":"levelo://app?vid=f139b206-454b-4989-9fb5-f0e80f3e90ee","ios":"levelo://app?vid=f139b206-454b-4989-9fb5-f0e80f3e90ee"},"vehicle_type_id":"4","last_reported":1707847784,"current_range_meters":25600,"station_id":"ce4bhr92rcd13ifvqhrg","pricing_plan_id":"cebpf4jnsgd1na2vs0mg"},{"bike_id":"6036b99e-5c4f-44e9-991b-bde51a15669d","system_id":"levelo_inurba_marseille","lat":43.33023,"lon":5.390341,"is_reserved":false,"is_disabled":false,"rental_uris":{"android":"levelo://app?vid=6036b99e-5c4f-44e9-991b-bde51a15669d","ios":"levelo://app?vid=6036b99e-5c4f-44e9-991b-bde51a15669d"},"vehicle_type_id":"4","last_reported":1707847784,"current_range_meters":11600,"station_id":"ce4bhr92rcd13ifvqhrg","pricing_plan_id":"cebpf4jnsgd1na2vs0mg"},{"bike_id":"b0e03183-fcb2-4d8d-a79a-8c4255276339","system_id":"levelo_inurba_marseille","lat":43.330442,"lon":5.389148,"is_reserved":false,"is_disabled":false,"rental_uris":{"android":"levelo://app?vid=b0e03183-fcb2-4d8d-a79a-8c4255276339","ios":"levelo://app?vid=b0e03183-fcb2-4d8d-a79a-8c4255276339"},"vehicle_type_id":"4","last_reported":1707847784,"current_range_meters":14400,"station_id":"ce4bhr92rcd13ifvqhrg","pricing_plan_id":"cebpf4jnsgd1na2vs0mg"},{"bike_id":"b90a1344-1092-4387-b973-aad006687a32","system_id":"levelo_inurba_marseille","lat":43.330442,"lon":5.389148,"is_reserved":false,"is_disabled":false,"rental_uris":{"android":"levelo://app?vid=b90a1344-1092-4387-b973-aad006687a32","ios":"levelo://app?vid=b90a1344-1092-4387-b973-aad006687a32"},"vehicle_type_id":"4","last_reported":1707847784,"current_range_meters":27600,"station_id":"ce4bhr92rcd13ifvqhrg","pricing_plan_id":"cebpf4jnsgd1na2vs0mg"},{"bike_id":"2e2234d6-d4e0-4a4d-9b6d-42e90cbdd0a4","system_id":"levelo_inurba_marseille","lat":43.330442,"lon":5.389148,"is_reserved":false,"is_disabled":false,"rental_uris":{"android":"levelo://app?vid=2e2234d6-d4e0-4a4d-9b6d-42e90cbdd0a4","ios":"levelo://app?vid=2e2234d6-d4e0-4a4d-9b6d-42e90cbdd0a4"},"vehicle_type_id":"4","last_reported":1707847784,"current_range_meters":16000,"station_id":"ce4bhr92rcd13ifvqhrg","pricing_plan_id":"cebpf4jnsgd1na2vs0mg"},{"bike_id":"fef36107-3087-4ff5-9314-613467840bbf","system_id":"levelo_inurba_marseille","lat":43.330442,"lon":5.389148,"is_reserved":false,"is_disabled":false,"rental_uris":{"android":"levelo://app?vid=fef36107-3087-4ff5-9314-613467840bbf","ios":"levelo://app?vid=fef36107-3087-4ff5-9314-613467840bbf"},"vehicle_type_id":"4","last_reported":1707847784,"current_range_meters":18000,"station_id":"ce4bhr92rcd13ifvqhrg","pricing_plan_id":"cebpf4jnsgd1na2vs0mg"},{"bike_id":"6104bab7-af27-440e-8035-75801a490b80","system_id":"levelo_inurba_marseille","lat":43.330229,"lon":5.390373,"is_reserved":false,"is_disabled":false,"rental_uris":{"android":"levelo://app?vid=6104bab7-af27-440e-8035-75801a490b80","ios":"levelo://app?vid=6104bab7-af27-440e-8035-75801a490b80"},"vehicle_type_id":"4","last_reported":1707847784,"current_range_meters":5600,"station_id":"ce4bhr92rcd13ifvqhrg","pricing_plan_id":"cebpf4jnsgd1na2vs0mg"},{"bike_id":"131478ab-04e5-4003-8ac8-ff81498e27be","system_id":"levelo_inurba_marseille","lat":43.330442,"lon":5.389148,"is_reserved":false,"is_disabled":false,"rental_uris":{"android":"levelo://app?vid=131478ab-04e5-4003-8ac8-ff81498e27be","ios":"levelo://app?vid=131478ab-04e5-4003-8ac8-ff81498e27be"},"vehicle_type_id":"4","last_reported":1707847784,"current_range_meters":6800,"station_id":"ce4bhr92rcd13ifvqhrg","pricing_plan_id":"cebpf4jnsgd1na2vs0mg"},{"bike_id":"ac04e2b9-92ab-4578-9fe3-e4eb6a71cdcb","system_id":"levelo_inurba_marseille","lat":43.330442,"lon":5.389148,"is_reserved":false,"is_disabled":false,"rental_uris":{"android":"levelo://app?vid=ac04e2b9-92ab-4578-9fe3-e4eb6a71cdcb","ios":"levelo://app?vid=ac04e2b9-92ab-4578-9fe3-e4eb6a71cdcb"},"vehicle_type_id":"4","last_reported":1707847784,"current_range_meters":27600,"station_id":"ce4bhr92rcd13ifvqhrg","pricing_plan_id":"cebpf4jnsgd1na2vs0mg"},{"bike_id":"2483c22b-82ce-4456-8a02-2515e534c27f","system_id":"levelo_inurba_marseille","lat":43.330442,"lon":5.389148,"is_reserved":false,"is_disabled":false,"rental_uris":{"android":"levelo://app?vid=2483c22b-82ce-4456-8a02-2515e534c27f","ios":"levelo://app?vid=2483c22b-82ce-4456-8a02-2515e534c27f"},"vehicle_type_id":"4","last_reported":1707847784,"current_range_meters":7200,"station_id":"ce4bhr92rcd13ifvqhrg","pricing_plan_id":"cebpf4jnsgd1na2vs0mg"},{"bike_id":"42d7580c-62c1-4553-a229-ac9128f76bdd","system_id":"levelo_inurba_marseille","lat":43.33022,"lon":5.39042,"is_reserved":false,"is_disabled":false,"rental_uris":{"android":"levelo://app?vid=42d7580c-62c1-4553-a229-ac9128f76bdd","ios":"levelo://app?vid=42d7580c-62c1-4553-a229-ac9128f76bdd"},"vehicle_type_id":"4","last_reported":1707847784,"current_range_meters":6800,"station_id":"ce4bhr92rcd13ifvqhrg","pricing_plan_id":"cebpf4jnsgd1na2vs0mg"},{"bike_id":"283349e3-340e-4476-9c5f-9b83c9b5087b","system_id":"levelo_inurba_marseille","lat":43.330442,"lon":5.389148,"is_reserved":false,"is_disabled":false,"rental_uris":{"android":"levelo://app?vid=283349e3-340e-4476-9c5f-9b83c9b5087b","ios":"levelo://app?vid=283349e3-340e-4476-9c5f-9b83c9b5087b"},"vehicle_type_id":"4","last_reported":1707847784,"current_range_meters":19600,"station_id":"ce4bhr92rcd13ifvqhrg","pricing_plan_id":"cebpf4jnsgd1na2vs0mg"},{"bike_id":"7d95fa41-d6a6-4401-86e4-1439c3e554f8","system_id":"levelo_inurba_marseille","lat":43.330442,"lon":5.389148,"is_reserved":false,"is_disabled":false,"rental_uris":{"android":"levelo://app?vid=7d95fa41-d6a6-4401-86e4-1439c3e554f8","ios":"levelo://app?vid=7d95fa41-d6a6-4401-86e4-1439c3e554f8"},"vehicle_type_id":"4","last_reported":1707847784,"current_range_meters":18800,"station_id":"ce4bhr92rcd13ifvqhrg","pricing_plan_id":"cebpf4jnsgd1na2vs0mg"},{"bike_id":"2549dc4e-dcd1-4f6a-a98b-eac40ef3884e","system_id":"levelo_inurba_marseille","lat":43.295169,"lon":5.390426,"is_reserved":false,"is_disabled":false,"rental_uris":{"android":"levelo://app?vid=2549dc4e-dcd1-4f6a-a98b-eac40ef3884e","ios":"levelo://app?vid=2549dc4e-dcd1-4f6a-a98b-eac40ef3884e"},"vehicle_type_id":"4","last_reported":1707847784,"current_range_meters":0,"station_id":"ce4bh3p2rcd13ifvqdp0","pricing_plan_id":"cebpf4jnsgd1na2vs0mg"},{"bike_id":"be7bd036-562c-4406-a8cb-cf594da771a2","system_id":"levelo_inurba_marseille","lat":43.330442,"lon":5.389148,"is_reserved":false,"is_disabled":false,"rental_uris":{"android":"levelo://app?vid=be7bd036-562c-4406-a8cb-cf594da771a2","ios":"levelo://app?vid=be7bd036-562c-4406-a8cb-cf594da771a2"},"vehicle_type_id":"4","last_reported":1707847784,"current_range_meters":21600,"station_id":"ce4bhr92rcd13ifvqhrg","pricing_plan_id":"cebpf4jnsgd1na2vs0mg"},{"bike_id":"ce97429e-9170-4fe7-a17e-1bb3fc19b7cb","system_id":"levelo_inurba_marseille","lat":43.295169,"lon":5.390426,"is_reserved":false,"is_disabled":false,"rental_uris":{"android":"levelo://app?vid=ce97429e-9170-4fe7-a17e-1bb3fc19b7cb","ios":"levelo://app?vid=ce97429e-9170-4fe7-a17e-1bb3fc19b7cb"},"vehicle_type_id":"4","last_reported":1707847784,"current_range_meters":5600,"station_id":"ce4bh3p2rcd13ifvqdp0","pricing_plan_id":"cebpf4jnsgd1na2vs0mg"},{"bike_id":"311551d2-12d7-44da-9f3c-c20f65c3546f","system_id":"levelo_inurba_marseille","lat":43.330442,"lon":5.389148,"is_reserved":false,"is_disabled":false,"rental_uris":{"android":"levelo://app?vid=311551d2-12d7-44da-9f3c-c20f65c3546f","ios":"levelo://app?vid=311551d2-12d7-44da-9f3c-c20f65c3546f"},"vehicle_type_id":"4","last_reported":1707847784,"current_range_meters":26400,"station_id":"ce4bhr92rcd13ifvqhrg","pricing_plan_id":"cebpf4jnsgd1na2vs0mg"},{"bike_id":"b193fe8e-1700-44c6-b8bb-8496361ddea4","system_id":"levelo_inurba_marseille","lat":43.33025,"lon":5.39043,"is_reserved":false,"is_disabled":false,"rental_uris":{"android":"levelo://app?vid=b193fe8e-1700-44c6-b8bb-8496361ddea4","ios":"levelo://app?vid=b193fe8e-1700-44c6-b8bb-8496361ddea4"},"vehicle_type_id":"4","last_reported":1707847784,"current_range_meters":12800,"station_id":"ce4bhr92rcd13ifvqhrg","pricing_plan_id":"cebpf4jnsgd1na2vs0mg"},{"bike_id":"201ebcfc-a95a-484a-8468-0e523bbae6e2","system_id":"levelo_inurba_marseille","lat":43.289741,"lon":5.378306,"is_reserved":false,"is_disabled":false,"rental_uris":{"android":"levelo://app?vid=201ebcfc-a95a-484a-8468-0e523bbae6e2","ios":"levelo://app?vid=201ebcfc-a95a-484a-8468-0e523bbae6e2"},"vehicle_type_id":"4","last_reported":1707847784,"current_range_meters":21600,"station_id":"ce4bh9p2rcd13ifvqed0","pricing_plan_id":"cebpf4jnsgd1na2vs0mg"},{"bike_id":"fb07dd74-8157-40f9-b239-89831dc89f87","system_id":"levelo_inurba_marseille","lat":43.2895,"lon":5.3775,"is_reserved":false,"is_disabled":false,"rental_uris":{"android":"levelo://app?vid=fb07dd74-8157-40f9-b239-89831dc89f87","ios":"levelo://app?vid=fb07dd74-8157-40f9-b239-89831dc89f87"},"vehicle_type_id":"4","last_reported":1707847784,"current_range_meters":0,"station_id":"","pricing_plan_id":"cebpf4jnsgd1na2vs0mg"},{"bike_id":"92b2d154-fd36-4b0f-af80-29010a2fc42a","system_id":"levelo_inurba_marseille","lat":43.295169,"lon":5.390426,"is_reserved":false,"is_disabled":false,"rental_uris":{"android":"levelo://app?vid=92b2d154-fd36-4b0f-af80-29010a2fc42a","ios":"levelo://app?vid=92b2d154-fd36-4b0f-af80-29010a2fc42a"},"vehicle_type_id":"4","last_reported":1707847784,"current_range_meters":5200,"station_id":"ce4bh3p2rcd13ifvqdp0","pricing_plan_id":"cebpf4jnsgd1na2vs0mg"},{"bike_id":"a7b4fa92-4058-4abb-920e-d6e53b178ef9","system_id":"levelo_inurba_marseille","lat":43.3303,"lon":5.39038,"is_reserved":false,"is_disabled":false,"rental_uris":{"android":"levelo://app?vid=a7b4fa92-4058-4abb-920e-d6e53b178ef9","ios":"levelo://app?vid=a7b4fa92-4058-4abb-920e-d6e53b178ef9"},"vehicle_type_id":"4","last_reported":1707847784,"current_range_meters":17200,"station_id":"ce4bhr92rcd13ifvqhrg","pricing_plan_id":"cebpf4jnsgd1na2vs0mg"},{"bike_id":"21cc9f48-2d8a-4eb4-b24a-233c83bcd2b0","system_id":"levelo_inurba_marseille","lat":43.295169,"lon":5.390426,"is_reserved":false,"is_disabled":false,"rental_uris":{"android":"levelo://app?vid=21cc9f48-2d8a-4eb4-b24a-233c83bcd2b0","ios":"levelo://app?vid=21cc9f48-2d8a-4eb4-b24a-233c83bcd2b0"},"vehicle_type_id":"4","last_reported":1707847784,"current_range_meters":28400,"station_id":"ce4bh3p2rcd13ifvqdp0","pricing_plan_id":"cebpf4jnsgd1na2vs0mg"},{"bike_id":"6561cc6d-8459-4d83-90de-d924a09edba3","system_id":"levelo_inurba_marseille","lat":43.330442,"lon":5.389148,"is_reserved":false,"is_disabled":false,"rental_uris":{"android":"levelo://app?vid=6561cc6d-8459-4d83-90de-d924a09edba3","ios":"levelo://app?vid=6561cc6d-8459-4d83-90de-d924a09edba3"},"vehicle_type_id":"4","last_reported":1707847784,"current_range_meters":24800,"station_id":"ce4bhr92rcd13ifvqhrg","pricing_plan_id":"cebpf4jnsgd1na2vs0mg"},{"bike_id":"a8952609-9bed-40a9-bd34-c0eae5413bc3","system_id":"levelo_inurba_marseille","lat":43.306488,"lon":5.399548,"is_reserved":false,"is_disabled":false,"rental_uris":{"android":"levelo://app?vid=a8952609-9bed-40a9-bd34-c0eae5413bc3","ios":"levelo://app?vid=a8952609-9bed-40a9-bd34-c0eae5413bc3"},