{"last_updated":1728893610,"ttl":60,"version":"2.2","data":{"bikes":[{"bike_id":"79d6d2a6-01c8-46e7-8618-793d521dfaaf","system_id":"levelo_inurba_marseille","lat":43.23152,"lon":5.43715,"is_reserved":false,"is_disabled":false,"rental_uris":{"android":"levelo://app?vid=79d6d2a6-01c8-46e7-8618-793d521dfaaf","ios":"levelo://app?vid=79d6d2a6-01c8-46e7-8618-793d521dfaaf"},"vehicle_type_id":"4","last_reported":1728893610,"current_range_meters":9600,"station_id":"ce4bhmp2rcd13ifvqgog","pricing_plan_id":"cebpf4jnsgd1na2vs0mg"},{"bike_id":"d9a92d49-75fa-47ec-be2d-525eb43beb0f","system_id":"levelo_inurba_marseille","lat":43.31232,"lon":5.36876,"is_reserved":false,"is_disabled":false,"rental_uris":{"android":"levelo://app?vid=d9a92d49-75fa-47ec-be2d-525eb43beb0f","ios":"levelo://app?vid=d9a92d49-75fa-47ec-be2d-525eb43beb0f"},"vehicle_type_id":"4","last_reported":1728893610,"current_range_meters":6000,"station_id":"ce4bgl92rcd13ifvqbq0","pricing_plan_id":"cebpf4jnsgd1na2vs0mg"},{"bike_id":"0b046677-604c-4274-acba-e1029fc3f54f","system_id":"levelo_inurba_marseille","lat":43.30544,"lon":5.367,"is_reserved":false,"is_disabled":false,"rental_uris":{"android":"levelo://app?vid=0b046677-604c-4274-acba-e1029fc3f54f","ios":"levelo://app?vid=0b046677-604c-4274-acba-e1029fc3f54f"},"vehicle_type_id":"4","last_reported":1728893610,"current_range_meters":8400,"station_id":"ce4bgrp2rcd13ifvqc9g","pricing_plan_id":"cebpf4jnsgd1na2vs0mg"},{"bike_id":"5000f225-e468-4f5f-aaf3-6a4b5f001ae8","system_id":"levelo_inurba_marseille","lat":43.30469,"lon":5.37899,"is_reserved":false,"is_disabled":false,"rental_uris":{"android":"levelo://app?vid=5000f225-e468-4f5f-aaf3-6a4b5f001ae8","ios":"levelo://app?vid=5000f225-e468-4f5f-aaf3-6a4b5f001ae8"},"vehicle_type_id":"4","last_reported":1728893610,"current_range_meters":38800,"station_id":"ce4bgup2rcd13ifvqcn0","pricing_plan_id":"cebpf4jnsgd1na2vs0mg"},{"bike_id":"ffb52904-1673-4c6d-83cd-8e71408d4f3e","system_id":"levelo_inurba_marseille","lat":43.27671,"lon":5.3888,"is_reserved":false,"is_disabled":false,"rental_uris":{"android":"levelo://app?vid=ffb52904-1673-4c6d-83cd-8e71408d4f3e","ios":"levelo://app?vid=ffb52904-1673-4c6d-83cd-8e71408d4f3e"},"vehicle_type_id":"4","last_reported":1728893610,"current_range_meters":37600,"station_id":"ce4bhi12rcd13ifvqfo0","pricing_plan_id":"cebpf4jnsgd1na2vs0mg"},{"bike_id":"599c09fe-085f-4c4d-bcb2-98da69515aba","system_id":"levelo_inurba_marseille","lat":43.23064,"lon":5.35491,"is_reserved":false,"is_disabled":false,"rental_uris":{"android":"levelo://app?vid=599c09fe-085f-4c4d-bcb2-98da69515aba","ios":"levelo://app?vid=599c09fe-085f-4c4d-bcb2-98da69515aba"},"vehicle_type_id":"4","last_reported":1728893610,"current_range_meters":38000,"station_id":"cpo3342slgdg3j2ifvpg","pricing_plan_id":"cebpf4jnsgd1na2vs0mg"},{"bike_id":"e8e091d0-9b80-479e-8948-a535f6cc1f9a","system_id":"levelo_inurba_marseille","lat":43.26981,"lon":5.38684,"is_reserved":false,"is_disabled":false,"rental_uris":{"android":"levelo://app?vid=e8e091d0-9b80-479e-8948-a535f6cc1f9a","ios":"levelo://app?vid=e8e091d0-9b80-479e-8948-a535f6cc1f9a"},"vehicle_type_id":"4","last_reported":1728893610,"current_range_meters":19200,"station_id":"ce4bhh92rcd13ifvqfh0","pricing_plan_id":"cebpf4jnsgd1na2vs0mg"},{"bike_id":"b900237a-fa16-4992-a7c5-89af2780709a","system_id":"levelo_inurba_marseille","lat":43.29586,"lon":5.38105,"is_reserved":false,"is_disabled":false,"rental_uris":{"android":"levelo://app?vid=b900237a-fa16-4992-a7c5-89af2780709a","ios":"levelo://app?vid=b900237a-fa16-4992-a7c5-89af2780709a"},"vehicle_type_id":"4","last_reported":1728893610,"current_range_meters":10000,"station_id":"ce4bgl12rcd13ifvqbo0","pricing_plan_id":"cebpf4jnsgd1na2vs0mg"},{"bike_id":"b3cb1ebe-adff-4053-9fe9-5e84838ab48c","system_id":"levelo_inurba_marseille","lat":43.2931,"lon":5.37177,"is_reserved":false,"is_disabled":false,"rental_uris":{"android":"levelo://app?vid=b3cb1ebe-adff-4053-9fe9-5e84838ab48c","ios":"levelo://app?vid=b3cb1ebe-adff-4053-9fe9-5e84838ab48c"},"vehicle_type_id":"4","last_reported":1728893610,"current_range_meters":30000,"station_id":"ce4bgh92rcd13ifvqb40","pricing_plan_id":"cebpf4jnsgd1na2vs0mg"},{"bike_id":"3867fe27-d7ec-468c-8c9c-524bfdc795b7","system_id":"levelo_inurba_marseille","lat":43.262,"lon":5.3793,"is_reserved":false,"is_disabled":false,"rental_uris":{"android":"levelo://app?vid=3867fe27-d7ec-468c-8c9c-524bfdc795b7","ios":"levelo://app?vid=3867fe27-d7ec-468c-8c9c-524bfdc795b7"},"vehicle_type_id":"4","last_reported":1728893610,"current_range_meters":22000,"station_id":"ce4bhjp2rcd13ifvqg90","pricing_plan_id":"cebpf4jnsgd1na2vs0mg"},{"bike_id":"1d6e7aba-8711-44ea-ac19-c6c1c874f9a6","system_id":"levelo_inurba_marseille","lat":43.30465,"lon":5.37894,"is_reserved":false,"is_disabled":false,"rental_uris":{"android":"levelo://app?vid=1d6e7aba-8711-44ea-ac19-c6c1c874f9a6","ios":"levelo://app?vid=1d6e7aba-8711-44ea-ac19-c6c1c874f9a6"},"vehicle_type_id":"4","last_reported":1728893610,"current_range_meters":38400,"station_id":"ce4bgup2rcd13ifvqcn0","pricing_plan_id":"cebpf4jnsgd1na2vs0mg"},{"bike_id":"3b4396ad-5646-4bc6-bcb2-54cac225a4be","system_id":"levelo_inurba_marseille","lat":43.26968,"lon":5.38622,"is_reserved":false,"is_disabled":false,"rental_uris":{"android":"levelo://app?vid=3b4396ad-5646-4bc6-bcb2-54cac225a4be","ios":"levelo://app?vid=3b4396ad-5646-4bc6-bcb2-54cac225a4be"},"vehicle_type_id":"4","last_reported":1728893610,"current_range_meters":37600,"station_id":"ce4bhh92rcd13ifvqfh0","pricing_plan_id":"cebpf4jnsgd1na2vs0mg"},{"bike_id":"6b0f4a35-c6ae-4bae-b986-bcdae458746d","system_id":"levelo_inurba_marseille","lat":43.30283,"lon":5.37706,"is_reserved":false,"is_disabled":false,"rental_uris":{"android":"levelo://app?vid=6b0f4a35-c6ae-4bae-b986-bcdae458746d","ios":"levelo://app?vid=6b0f4a35-c6ae-4bae-b986-bcdae458746d"},"vehicle_type_id":"4","last_reported":1728893610,"current_range_meters":36400,"station_id":"ce4bguh2rcd13ifvqcj0","pricing_plan_id":"cebpf4jnsgd1na2vs0mg"},{"bike_id":"7522c83a-4088-49aa-a021-ecbce70654c2","system_id":"levelo_inurba_marseille","lat":43.28611,"lon":5.35106,"is_reserved":false,"is_disabled":false,"rental_uris":{"android":"levelo://app?vid=7522c83a-4088-49aa-a021-ecbce70654c2","ios":"levelo://app?vid=7522c83a-4088-49aa-a021-ecbce70654c2"},"vehicle_type_id":"4","last_reported":1728893610,"current_range_meters":38000,"station_id":"","pricing_plan_id":"cebpf4jnsgd1na2vs0mg"},{"bike_id":"3157b5d6-44fa-497a-85fb-fc0c62c4d8ba","system_id":"levelo_inurba_marseille","lat":43.27172,"lon":5.40994,"is_reserved":false,"is_disabled":false,"rental_uris":{"android":"levelo://app?vid=3157b5d6-44fa-497a-85fb-fc0c62c4d8ba","ios":"levelo://app?vid=3157b5d6-44fa-497a-85fb-fc0c62c4d8ba"},"vehicle_type_id":"4","last_reported":1728893610,"current_range_meters":28400,"station_id":"ce4bhl12rcd13ifvqgf0","pricing_plan_id":"cebpf4jnsgd1na2vs0mg"},{"bike_id":"435a8be4-75c5-4de0-b85a-732afab637da","system_id":"levelo_inurba_marseille","lat":43.2815,"lon":5.42645,"is_reserved":false,"is_disabled":false,"rental_uris":{"android":"levelo://app?vid=435a8be4-75c5-4de0-b85a-732afab637da","ios":"levelo://app?vid=435a8be4-75c5-4de0-b85a-732afab637da"},"vehicle_type_id":"4","last_reported":1728893610,"current_range_meters":14000,"station_id":"ce4bhnh2rcd13ifvqgug","pricing_plan_id":"cebpf4jnsgd1na2vs0mg"},{"bike_id":"1577fecb-cfb2-4506-83a8-2cd8ebbde5be","system_id":"levelo_inurba_marseille","lat":43.29213,"lon":5.37299,"is_reserved":false,"is_disabled":false,"rental_uris":{"android":"levelo://app?vid=1577fecb-cfb2-4506-83a8-2cd8ebbde5be","ios":"levelo://app?vid=1577fecb-cfb2-4506-83a8-2cd8ebbde5be"},"vehicle_type_id":"4","last_reported":1728893610,"current_range_meters":2800,"station_id":"","pricing_plan_id":"cebpf4jnsgd1na2vs0mg"},{"bike_id":"3f2b451e-f2b4-44ee-9535-6d5af6e7cc59","system_id":"levelo_inurba_marseille","lat":43.28651,"lon":5.36349,"is_reserved":false,"is_disabled":false,"rental_uris":{"android":"levelo://app?vid=3f2b451e-f2b4-44ee-9535-6d5af6e7cc59","ios":"levelo://app?vid=3f2b451e-f2b4-44ee-9535-6d5af6e7cc59"},"vehicle_type_id":"4","last_reported":1728893610,"current_range_meters":39200,"station_id":"ce4bhah2rcd13ifvqej0","pricing_plan_id":"cebpf4jnsgd1na2vs0mg"},{"bike_id":"ebcb7d14-ae1e-4ddc-982a-4aadf7782bfe","system_id":"levelo_inurba_marseille","lat":43.302818,"lon":5.376954,"is_reserved":false,"is_disabled":false,"rental_uris":{"android":"levelo://app?vid=ebcb7d14-ae1e-4ddc-982a-4aadf7782bfe","ios":"levelo://app?vid=ebcb7d14-ae1e-4ddc-982a-4aadf7782bfe"},"vehicle_type_id":"4","last_reported":1728893610,"current_range_meters":14400,"station_id":"ce4bguh2rcd13ifvqcj0","pricing_plan_id":"cebpf4jnsgd1na2vs0mg"},{"bike_id":"5e701530-1c43-402c-ab22-9d5060b96b88","system_id":"levelo_inurba_marseille","lat":43.30257,"lon":5.40053,"is_reserved":false,"is_disabled":false,"rental_uris":{"android":"levelo://app?vid=5e701530-1c43-402c-ab22-9d5060b96b88","ios":"levelo://app?vid=5e701530-1c43-402c-ab22-9d5060b96b88"},"vehicle_type_id":"4","last_reported":1728893610,"current_range_meters":27600,"station_id":"ce4bgvh2rcd13ifvqcs0","pricing_plan_id":"cebpf4jnsgd1na2vs0mg"},{"bike_id":"6990280d-6551-46e4-ae2e-3e3a1101fdeb","system_id":"levelo_inurba_marseille","lat":43.2694,"lon":5.4028,"is_reserved":false,"is_disabled":false,"rental_uris":{"android":"levelo://app?vid=6990280d-6551-46e4-ae2e-3e3a1101fdeb","ios":"levelo://app?vid=6990280d-6551-46e4-ae2e-3e3a1101fdeb"},"vehicle_type_id":"4","last_reported":1728893610,"current_range_meters":7200,"station_id":"cjm6bp8fraef2m0cb0m0","pricing_plan_id":"cebpf4jnsgd1na2vs0mg"},{"bike_id":"6241cb41-1661-4596-8c6d-d1ceb7df3af9","system_id":"levelo_inurba_marseille","lat":43.34146,"lon":5.40909,"is_reserved":false,"is_disabled":false,"rental_uris":{"android":"levelo://app?vid=6241cb41-1661-4596-8c6d-d1ceb7df3af9","ios":"levelo://app?vid=6241cb41-1661-4596-8c6d-d1ceb7df3af9"},"vehicle_type_id":"4","last_reported":1728893610,"current_range_meters":38400,"station_id":"ce4bhqh2rcd13ifvqhlg","pricing_plan_id":"cebpf4jnsgd1na2vs0mg"},{"bike_id":"946828d4-9413-458e-b463-104de2aa7933","system_id":"levelo_inurba_marseille","lat":43.29021,"lon":5.37551,"is_reserved":false,"is_disabled":false,"rental_uris":{"android":"levelo://app?vid=946828d4-9413-458e-b463-104de2aa7933","ios":"levelo://app?vid=946828d4-9413-458e-b463-104de2aa7933"},"vehicle_type_id":"4","last_reported":1728893610,"current_range_meters":20000,"station_id":"ce4bh692rcd13ifvqe90","pricing_plan_id":"cebpf4jnsgd1na2vs0mg"},{"bike_id":"4f6e4a91-b52b-42b4-80d1-f0fad6dac531","system_id":"levelo_inurba_marseille","lat":43.24073,"lon":5.37757,"is_reserved":false,"is_disabled":false,"rental_uris":{"android":"levelo://app?vid=4f6e4a91-b52b-42b4-80d1-f0fad6dac531","ios":"levelo://app?vid=4f6e4a91-b52b-42b4-80d1-f0fad6dac531"},"vehicle_type_id":"4","last_reported":1728893610,"current_range_meters":36000,"station_id":"ce4bhnp2rcd13ifvqgvg","pricing_plan_id":"cebpf4jnsgd1na2vs0mg"},{"bike_id":"6b2daff3-9851-4dff-9081-e0ec010599e4","system_id":"levelo_inurba_marseille","lat":43.314515,"lon":5.37384,"is_reserved":false,"is_disabled":false,"rental_uris":{"android":"levelo://app?vid=6b2daff3-9851-4dff-9081-e0ec010599e4","ios":"levelo://app?vid=6b2daff3-9851-4dff-9081-e0ec010599e4"},"vehicle_type_id":"4","last_reported":1728893610,"current_range_meters":28800,"station_id":"","pricing_plan_id":"cebpf4jnsgd1na2vs0mg"},{"bike_id":"ab8f4e18-5a2a-462d-a7cc-21a2c0aea143","system_id":"levelo_inurba_marseille","lat":43.29522,"lon":5.39048,"is_reserved":false,"is_disabled":false,"rental_uris":{"android":"levelo://app?vid=ab8f4e18-5a2a-462d-a7cc-21a2c0aea143","ios":"levelo://app?vid=ab8f4e18-5a2a-462d-a7cc-21a2c0aea143"},"vehicle_type_id":"4","last_reported":1728893610,"current_range_meters":10800,"station_id":"ce4bh3p2rcd13ifvqdp0","pricing_plan_id":"cebpf4jnsgd1na2vs0mg"},{"bike_id":"610f1ba5-1af1-4052-8331-ade5cfc94332","system_id":"levelo_inurba_marseille","lat":43.279985,"lon":5.416673,"is_reserved":false,"is_disabled":false,"rental_uris":{"android":"levelo://app?vid=610f1ba5-1af1-4052-8331-ade5cfc94332","ios":"levelo://app?vid=610f1ba5-1af1-4052-8331-ade5cfc94332"},"vehicle_type_id":"4","last_reported":1728893610,"current_range_meters":4400,"station_id":"ce4bho12rcd13ifvqh1g","pricing_plan_id":"cebpf4jnsgd1na2vs0mg"},{"bike_id":"0adf7b79-3ef2-43b0-8ffd-128a35c8a508","system_id":"levelo_inurba_marseille","lat":43.2749,"lon":5.42452,"is_reserved":false,"is_disabled":false,"rental_uris":{"android":"levelo://app?vid=0adf7b79-3ef2-43b0-8ffd-128a35c8a508","ios":"levelo://app?vid=0adf7b79-3ef2-43b0-8ffd-128a35c8a508"},"vehicle_type_id":"4","last_reported":1728893610,"current_range_meters":28400,"station_id":"ce4bhn92rcd13ifvqgrg","pricing_plan_id":"cebpf4jnsgd1na2vs0mg"},{"bike_id":"8613c145-39a0-41b0-adad-9ccfa1be764e","system_id":"levelo_inurba_marseille","lat":43.30952,"lon":5.39038,"is_reserved":false,"is_disabled":false,"rental_uris":{"android":"levelo://app?vid=8613c145-39a0-41b0-adad-9ccfa1be764e","ios":"levelo://app?vid=8613c145-39a0-41b0-adad-9ccfa1be764e"},"vehicle_type_id":"4","last_reported":1728893610,"current_range_meters":21600,"station_id":"ce4bgup2rcd13ifvqco0","pricing_plan_id":"cebpf4jnsgd1na2vs0mg"},{"bike_id":"5ba8d952-f4f0-4705-94d2-bdc18ff02186","system_id":"levelo_inurba_marseille","lat":43.25485,"lon":5.37642,"is_reserved":false,"is_disabled":false,"rental_uris":{"android":"levelo://app?vid=5ba8d952-f4f0-4705-94d2-bdc18ff02186","ios":"levelo://app?vid=5ba8d952-f4f0-4705-94d2-bdc18ff02186"},"vehicle_type_id":"4","last_reported":1728893610,"current_range_meters":33600,"station_id":"ce4bhh12rcd13ifvqff0","pricing_plan_id":"cebpf4jnsgd1na2vs0mg"},{"bike_id":"a1aeeebe-11af-4a18-8e40-3d48bba0a98f","system_id":"levelo_inurba_marseille","lat":43.31352,"lon":5.36696,"is_reserved":false,"is_disabled":false,"rental_uris":{"android":"levelo://app?vid=a1aeeebe-11af-4a18-8e40-3d48bba0a98f","ios":"levelo://app?vid=a1aeeebe-11af-4a18-8e40-3d48bba0a98f"},"vehicle_type_id":"4","last_reported":1728893610,"current_range_meters":36000,"station_id":"ce4bgr92rcd13ifvqc6g","pricing_plan_id":"cebpf4jnsgd1na2vs0mg"},{"bike_id":"54e596b8-2b6c-4e4f-abd8-04c297875d15","system_id":"levelo_inurba_marseille","lat":43.304626,"lon":5.389865,"is_reserved":false,"is_disabled":false,"rental_uris":{"android":"levelo://app?vid=54e596b8-2b6c-4e4f-abd8-04c297875d15","ios":"levelo://app?vid=54e596b8-2b6c-4e4f-abd8-04c297875d15"},"vehicle_type_id":"4","last_reported":1728893610,"current_range_meters":18800,"station_id":"ce4bgk12rcd13ifvqbi0","pricing_plan_id":"cebpf4jnsgd1na2vs0mg"},{"bike_id":"2651f8e5-e279-4329-be5c-b2437cbbb1f0","system_id":"levelo_inurba_marseille","lat":43.28612,"lon":5.37063,"is_reserved":false,"is_disabled":false,"rental_uris":{"android":"levelo://app?vid=2651f8e5-e279-4329-be5c-b2437cbbb1f0","ios":"levelo://app?vid=2651f8e5-e279-4329-be5c-b2437cbbb1f0"},"vehicle_type_id":"4","last_reported":1728893610,"current_range_meters":38800,"station_id":"ce4bht12rcd13ifvqi60","pricing_plan_id":"cebpf4jnsgd1na2vs0mg"},{"bike_id":"104edecc-ce4c-4c72-9123-80dde259b9e7","system_id":"levelo_inurba_marseille","lat":43.29038,"lon":5.37563,"is_reserved":false,"is_disabled":false,"rental_uris":{"android":"levelo://app?vid=104edecc-ce4c-4c72-9123-80dde259b9e7","ios":"levelo://app?vid=104edecc-ce4c-4c72-9123-80dde259b9e7"},"vehicle_type_id":"4","last_reported":1728893610,"current_range_meters":27600,"station_id":"ce4bh692rcd13ifvqe90","pricing_plan_id":"cebpf4jnsgd1na2vs0mg"},{"bike_id":"fcf4ea03-f696-4c1e-a354-330ec590df38","system_id":"levelo_inurba_marseille","lat":43.29011,"lon":5.39915,"is_reserved":false,"is_disabled":false,"rental_uris":{"android":"levelo://app?vid=fcf4ea03-f696-4c1e-a354-330ec590df38","ios":"levelo://app?vid=fcf4ea03-f696-4c1e-a354-330ec590df38"},"vehicle_type_id":"4","last_reported":1728893610,"current_range_meters":25600,"station_id":"ce4bhh92rcd13ifvqfi0","pricing_plan_id":"cebpf4jnsgd1na2vs0mg"},{"bike_id":"71e65e8c-2132-4eb8-af49-1f6e24c32d53","system_id":"levelo_inurba_marseille","lat":43.31692,"lon":5.4047,"is_reserved":false,"is_disabled":false,"rental_uris":{"android":"levelo://app?vid=71e65e8c-2132-4eb8-af49-1f6e24c32d53","ios":"levelo://app?vid=71e65e8c-2132-4eb8-af49-1f6e24c32d53"},"vehicle_type_id":"4","last_reported":1728893610,"current_range_meters":24800,"station_id":"ce4bh012rcd13ifvqd00","pricing_plan_id":"cebpf4jnsgd1na2vs0mg"},{"bike_id":"c8784b34-b33f-4dd1-b0cf-204c2a506eb7","system_id":"levelo_inurba_marseille","lat":43.27807,"lon":5.4071,"is_reserved":false,"is_disabled":false,"rental_uris":{"android":"levelo://app?vid=c8784b34-b33f-4dd1-b0cf-204c2a506eb7","ios":"levelo://app?vid=c8784b34-b33f-4dd1-b0cf-204c2a506eb7"},"vehicle_type_id":"4","last_reported":1728893610,"current_range_meters":24800,"station_id":"ce4bhnh2rcd13ifvqgtg","pricing_plan_id":"cebpf4jnsgd1na2vs0mg"},{"bike_id":"57326c50-88af-4209-96b5-22dd09504b92","system_id":"levelo_inurba_marseille","lat":43.29583,"lon":5.38095,"is_reserved":false,"is_disabled":false,"rental_uris":{"android":"levelo://app?vid=57326c50-88af-4209-96b5-22dd09504b92","ios":"levelo://app?vid=57326c50-88af-4209-96b5-22dd09504b92"},"vehicle_type_id":"4","last_reported":1728893610,"current_range_meters":36800,"station_id":"ce4bgl12rcd13ifvqbo0","pricing_plan_id":"cebpf4jnsgd1na2vs0mg"},{"bike_id":"f501b8a4-3cf6-44c2-882e-960d67b61d66","system_id":"levelo_inurba_marseille","lat":43.26681,"lon":5.38261,"is_reserved":false,"is_disabled":false,"rental_uris":{"android":"levelo://app?vid=f501b8a4-3cf6-44c2-882e-960d67b61d66","ios":"levelo://app?vid=f501b8a4-3cf6-44c2-882e-960d67b61d66"},"vehicle_type_id":"4","last_reported":1728893610,"current_range_meters":8000,"station_id":"ce4bhg92rcd13ifvqf90","pricing_plan_id":"cebpf4jnsgd1na2vs0mg"},{"bike_id":"f475ae68-9159-46af-a59b-b833b4655776","system_id":"levelo_inurba_marseille","lat":43.30542,"lon":5.36717,"is_reserved":false,"is_disabled":false,"rental_uris":{"android":"levelo://app?vid=f475ae68-9159-46af-a59b-b833b4655776","ios":"levelo://app?vid=f475ae68-9159-46af-a59b-b833b4655776"},"vehicle_type_id":"4","last_reported":1728893610,"current_range_meters":17200,"station_id":"ce4bgrp2rcd13ifvqc9g","pricing_plan_id":"cebpf4jnsgd1na2vs0mg"},{"bike_id":"5efdce75-8062-4612-8bf1-5fa4eef36a50","system_id":"levelo_inurba_marseille","lat":43.28477,"lon":5.38538,"is_reserved":false,"is_disabled":false,"rental_uris":{"android":"levelo://app?vid=5efdce75-8062-4612-8bf1-5fa4eef36a50","ios":"levelo://app?vid=5efdce75-8062-4612-8bf1-5fa4eef36a50"},"vehicle_type_id":"4","last_reported":1728893610,"current_range_meters":24800,"station_id":"ce4bh8p2rcd13ifvqeb0","pricing_plan_id":"cebpf4jnsgd1na2vs0mg"},{"bike_id":"87e2071f-e4ff-48d2-acf9-a1b6820399c3","system_id":"levelo_inurba_marseille","lat":43.23066,"lon":5.35487,"is_reserved":false,"is_disabled":false,"rental_uris":{"android":"levelo://app?vid=87e2071f-e4ff-48d2-acf9-a1b6820399c3","ios":"levelo://app?vid=87e2071f-e4ff-48d2-acf9-a1b6820399c3"},"vehicle_type_id":"4","last_reported":1728893610,"current_range_meters":38000,"station_id":"cpo3342slgdg3j2ifvpg","pricing_plan_id":"cebpf4jnsgd1na2vs0mg"},{"bike_id":"844bf2ea-d3f6-47e6-bdf5-1e1909814a7d","system_id":"levelo_inurba_marseille","lat":43.30555,"lon":5.36547,"is_reserved":false,"is_disabled":false,"rental_uris":{"android":"levelo://app?vid=844bf2ea-d3f6-47e6-bdf5-1e1909814a7d","ios":"levelo://app?vid=844bf2ea-d3f6-47e6-bdf5-1e1909814a7d"},"vehicle_type_id":"4","last_reported":1728893610,"current_range_meters":38800,"station_id":"ce4bgs12rcd13ifvqcag","pricing_plan_id":"cebpf4jnsgd1na2vs0mg"},{"bike_id":"124bcadb-0047-4081-821e-eec9c7c733b7","system_id":"levelo_inurba_marseille","lat":43.33607,"lon":5.41027,"is_reserved":false,"is_disabled":false,"rental_uris":{"android":"levelo://app?vid=124bcadb-0047-4081-821e-eec9c7c733b7","ios":"levelo://app?vid=124bcadb-0047-4081-821e-eec9c7c733b7"},"vehicle_type_id":"4","last_reported":1728893610,"current_range_meters":10000,"station_id":"ce4bhqh2rcd13ifvqhmg","pricing_plan_id":"cebpf4jnsgd1na2vs0mg"},{"bike_id":"1843a9a1-6898-40ba-a9ee-63f9ba453ecd","system_id":"levelo_inurba_marseille","lat":43.24076,"lon":5.3776,"is_reserved":false,"is_disabled":false,"rental_uris":{"android":"levelo://app?vid=1843a9a1-6898-40ba-a9ee-63f9ba453ecd","ios":"levelo://app?vid=1843a9a1-6898-40ba-a9ee-63f9ba453ecd"},"vehicle_type_id":"4","last_reported":1728893610,"current_range_meters":30000,"station_id":"ce4bhnp2rcd13ifvqgvg","pricing_plan_id":"cebpf4jnsgd1na2vs0mg"},{"bike_id":"bdaebf3e-fe0d-4ab2-8709-c5467cdfa65b","system_id":"levelo_inurba_marseille","lat":43.28473,"lon":5.38408,"is_reserved":false,"is_disabled":false,"rental_uris":{"android":"levelo://app?vid=bdaebf3e-fe0d-4ab2-8709-c5467cdfa65b","ios":"levelo://app?vid=bdaebf3e-fe0d-4ab2-8709-c5467cdfa65b"},"vehicle_type_id":"4","last_reported":1728893610,"current_range_meters":16800,"station_id":"ce4bh512rcd13ifvqe3g","pricing_plan_id":"cebpf4jnsgd1na2vs0mg"},{"bike_id":"e91a309e-c8b6-417e-b8c2-38f330b63722","system_id":"levelo_inurba_marseille","lat":43.29911,"lon":5.37472,"is_reserved":false,"is_disabled":false,"rental_uris":{"android":"levelo://app?vid=e91a309e-c8b6-417e-b8c2-38f330b63722","ios":"levelo://app?vid=e91a309e-c8b6-417e-b8c2-38f330b63722"},"vehicle_type_id":"4","last_reported":1728893610,"current_range_meters":38400,"station_id":"ce4bgjh2rcd13ifvqbg0","pricing_plan_id":"cebpf4jnsgd1na2vs0mg"},{"bike_id":"9d6deb24-a969-4165-a330-7ad1ff61d9b6","system_id":"levelo_inurba_marseille","lat":43.31355,"lon":5.36707,"is_reserved":false,"is_disabled":false,"rental_uris":{"android":"levelo://app?vid=9d6deb24-a969-4165-a330-7ad1ff61d9b6","ios":"levelo://app?vid=9d6deb24-a969-4165-a330-7ad1ff61d9b6"},"vehicle_type_id":"4","last_reported":1728893610,"current_range_meters":27600,"station_id":"ce4bgr92rcd13ifvqc6g","pricing_plan_id":"cebpf4jnsgd1na2vs0mg"},{"bike_id":"decd1d94-f77a-4388-abc4-b0197b25c7ee","system_id":"levelo_inurba_marseille","lat":43.27492,"lon":5.42454,"is_reserved":false,"is_disabled":false,"rental_uris":{"android":"levelo://app?vid=decd1d94-f77a-4388-abc4-b0197b25c7ee","ios":"levelo://app?vid=decd1d94-f77a-4388-abc4-b0197b25c7ee"},"vehicle_type_id":"4","last_reported":1728893610,"current_range_meters":39200,"station_id":"ce4bhn92rcd13ifvqgrg","pricing_plan_id":"cebpf4jnsgd1na2vs0mg"},{"bike_id":"4355f064-bf24-4192-98d3-02d0a1a75f4f","system_id":"levelo_inurba_marseille","lat":43.29579,"lon":5.36745,"is_reserved":false,"is_disabled":false,"rental_uris":{"android":"levelo://app?vid=4355f064-bf24-4192-98d3-02d0a1a75f4f","ios":"levelo://app?vid=4355f064-bf24-4192-98d3-02d0a1a75f4f"},"vehicle_type_id":"4","last_reported":1728893610,"current_range_meters":38800,"station_id":"ce4bgph2rcd13ifvqc2g","pricing_plan_id":"cebpf4jnsgd1na2vs0mg"},{"bike_id":"d1e052bf-cdfb-4f82-b281-0f48c9088695","system_id":"levelo_inurba_marseille","lat":43.29165,"lon":5.37164,"is_reserved":false,"is_disabled":false,"rental_uris":{"android":"levelo://app?vid=d1e052bf-cdfb-4f82-b281-0f48c9088695","ios":"levelo://app?vid=d1e052bf-cdfb-4f82-b281-0f48c9088695"},"vehicle_type_id":"4","last_reported":1728893610,"current_range_meters":27600,"station_id":"ce4bha92rcd13ifvqeh0","pricing_plan_id":"cebpf4jnsgd1na2vs0mg"},{"bike_id":"7c92b24c-e29c-494a-b4d8-3aa88992eca4","system_id":"levelo_inurba_marseille","lat":43.28712,"lon":5.3794,"is_reserved":false,"is_disabled":false,"rental_uris":{"android":"levelo://app?vid=7c92b24c-e29c-494a-b4d8-3aa88992eca4","ios":"levelo://app?vid=7c92b24c-e29c-494a-b4d8-3aa88992eca4"},"vehicle_type_id":"4","last_reported":1728893610,"current_range_meters":24000,"station_id":"ce4bh9p2rcd13ifvqec0","pricing_plan_id":"cebpf4jnsgd1na2vs0mg"},{"bike_id":"823d91a2-2731-4ec0-9db7-a98ebc346119","system_id":"levelo_inurba_marseille","lat":43.30595,"lon":5.39365,"is_reserved":false,"is_disabled":false,"rental_uris":{"android":"levelo://app?vid=823d91a2-2731-4ec0-9db7-a98ebc346119","ios":"levelo://app?vid=823d91a2-2731-4ec0-9db7-a98ebc346119"},"vehicle_type_id":"4","last_reported":1728893610,"current_range_meters":11200,"station_id":"ce4bh0p2rcd13ifvqd80","pricing_plan_id":"cebpf4jnsgd1na2vs0mg"},{"bike_id":"e4ac3dd2-d882-40bb-b0d4-31a7e70e5960","system_id":"levelo_inurba_marseille","lat":43.288818,"lon":5.399997,"is_reserved":false,"is_disabled":false,"rental_uris":{"android":"levelo://app?vid=e4ac3dd2-d882-40bb-b0d4-31a7e70e5960","ios":"levelo://app?vid=e4ac3dd2-d882-40bb-b0d4-31a7e70e5960"},"vehicle_type_id":"4","last_reported":1728893610,"current_range_meters":25200,"station_id":"ce4bho92rcd13ifvqh3g","pricing_plan_id":"cebpf4jnsgd1na2vs0mg"},{"bike_id":"e9548929-3116-4076-aa8f-1e7080bf5296","system_id":"levelo_inurba_marseille","lat":43.30906,"lon":5.36849,"is_reserved":false,"is_disabled":false,"rental_uris":{"android":"levelo://app?vid=e9548929-3116-4076-aa8f-1e7080bf5296","ios":"levelo://app?vid=e9548929-3116-4076-aa8f-1e7080bf5296"},"vehicle_type_id":"4","last_reported":1728893610,"current_range_meters":32400,"station_id":"ce4bgn92rcd13ifvqbvg","pricing_plan_id":"cebpf4jnsgd1na2vs0mg"},{"bike_id":"79b56f75-98c1-485b-b9f1-0c03f3ebac42","system_id":"levelo_inurba_marseille","lat":43.30315,"lon":5.36901,"is_reserved":false,"is_disabled":false,"rental_uris":{"android":"levelo://app?vid=79b56f75-98c1-485b-b9f1-0c03f3ebac42","ios":"levelo://app?vid=79b56f75-98c1-485b-b9f1-0c03f3ebac42"},"vehicle_type_id":"4","last_reported":1728893610,"current_range_meters":33200,"station_id":"ce4bgqh2rcd13ifvqc5g","pricing_plan_id":"cebpf4jnsgd1na2vs0mg"},{"bike_id":"956241b9-b54a-439d-953c-51689f47b53e","system_id":"levelo_inurba_marseille","lat":43.29425,"lon":5.38612,"is_reserved":false,"is_disabled":false,"rental_uris":{"android":"levelo://app?vid=956241b9-b54a-439d-953c-51689f47b53e","ios":"levelo://app?vid=956241b9-b54a-439d-953c-51689f47b53e"},"vehicle_type_id":"4","last_reported":1728893610,"current_range_meters":38400,"station_id":"ce4bh2h2rcd13ifvqdh0","pricing_plan_id":"cebpf4jnsgd1na2vs0mg"},{"bike_id":"ff198842-7b48-420f-8708-6b3f6239678a","system_id":"levelo_inurba_marseille","lat":43.32545,"lon":5.41452,"is_reserved":false,"is_disabled":false,"rental_uris":{"android":"levelo://app?vid=ff198842-7b48-420f-8708-6b3f6239678a","ios":"levelo://app?vid=ff198842-7b48-420f-8708-6b3f6239678a"},"vehicle_type_id":"4","last_reported":1728893610,"current_range_meters":22400,"station_id":"ce4bhq12rcd13ifvqhhg","pricing_plan_id":"cebpf4jnsgd1na2vs0mg"},{"bike_id":"d1040a93-4047-4290-833e-067b826f7c83","system_id":"levelo_inurba_marseille","lat":43.30306,"lon":5.36889,"is_reserved":false,"is_disabled":false,"rental_uris":{"android":"levelo://app?vid=d1040a93-4047-4290-833e-067b826f7c83","ios":"levelo://app?vid=d1040a93-4047-4290-833e-067b826f7c83"},"vehicle_type_id":"4","last_reported":1728893610,"current_range_meters":17600,"station_id":"ce4bgqh2rcd13ifvqc5g","pricing_plan_id":"cebpf4jnsgd1na2vs0mg"},{"bike_id":"f628470c-65a5-4616-a6ae-d18af5dd64ce","system_id":"levelo_inurba_marseille","lat":43.30141,"lon":5.37411,"is_reserved":false,"is_disabled":false,"rental_uris":{"android":"levelo://app?vid=f628470c-65a5-4616-a6ae-d18af5dd64ce","ios":"levelo://app?vid=f628470c-65a5-4616-a6ae-d18af5dd64ce"},"vehicle_type_id":"4","last_reported":1728893610,"current_range_meters":36800,"station_id":"ce4bgs92rcd13ifvqcc0","pricing_plan_id":"cebpf4jnsgd1na2vs0mg"},{"bike_id":"afb9c6c6-fe06-4f36-80d1-cb9563b6058e","system_id":"levelo_inurba_marseille","lat":43.23967,"lon":5.36646,"is_reserved":false,"is_disabled":false,"rental_uris":{"android":"levelo://app?vid=afb9c6c6-fe06-4f36-80d1-cb9563b6058e","ios":"levelo://app?vid=afb9c6c6-fe06-4f36-80d1-cb9563b6058e"},"vehicle_type_id":"4","last_reported":1728893610,"current_range_meters":36400,"station_id":"ce4bhi12rcd13ifvqfp0","pricing_plan_id":"cebpf4jnsgd1na2vs0mg"},{"bike_id":"5cd42fb3-4fb4-418c-8511-0df6181fdc62","system_id":"levelo_inurba_marseille","lat":43.320682,"lon":5.415308,"is_reserved":false,"is_disabled":false,"rental_uris":{"android":"levelo://app?vid=5cd42fb3-4fb4-418c-8511-0df6181fdc62","ios":"levelo://app?vid=5cd42fb3-4fb4-418c-8511-0df6181fdc62"},"vehicle_type_id":"4","last_reported":1728893610,"current_range_meters":36000,"station_id":"ce4bhq92rcd13ifvqhkg","pricing_plan_id":"cebpf4jnsgd1na2vs0mg"},{"bike_id":"26ef0f82-778d-44d7-ad89-5daefc08a1a4","system_id":"levelo_inurba_marseille","lat":43.314579,"lon":5.373757,"is_reserved":false,"is_disabled":false,"rental_uris":{"android":"levelo://app?vid=26ef0f82-778d-44d7-ad89-5daefc08a1a4","ios":"levelo://app?vid=26ef0f82-778d-44d7-ad89-5daefc08a1a4"},"vehicle_type_id":"4","last_reported":1728893610,"current_range_meters":16800,"station_id":"","pricing_plan_id":"cebpf4jnsgd1na2vs0mg"},{"bike_id":"ded01493-c253-4e1a-bc49-668a4447abf6","system_id":"levelo_inurba_marseille","lat":43.28974,"lon":5.37839,"is_reserved":false,"is_disabled":false,"rental_uris":{"android":"levelo://app?vid=ded01493-c253-4e1a-bc49-668a4447abf6","ios":"levelo://app?vid=ded01493-c253-4e1a-bc49-668a4447abf6"},"vehicle_type_id":"4","last_reported":1728893610,"current_range_meters":27600,"station_id":"ce4bh9p2rcd13ifvqed0","pricing_plan_id":"cebpf4jnsgd1na2vs0mg"},{"bike_id":"f2f878ad-8c13-4dba-a9d1-4d433b0c1069","system_id":"levelo_inurba_marseille","lat":43.298,"lon":5.38087,"is_reserved":false,"is_disabled":false,"rental_uris":{"android":"levelo://app?vid=f2f878ad-8c13-4dba-a9d1-4d433b0c1069","ios":"levelo://app?vid=f2f878ad-8c13-4dba-a9d1-4d433b0c1069"},"vehicle_type_id":"4","last_reported":1728893610,"current_range_meters":34000,"station_id":"ce4bgip2rcd13ifvqbb0","pricing_plan_id":"cebpf4jnsgd1na2vs0mg"},{"bike_id":"c62591d3-4e8c-4fd9-b1b5-d2198951eced","system_id":"levelo_inurba_marseille","lat":43.30459,"lon":5.37914,"is_reserved":false,"is_disabled":false,"rental_uris":{"android":"levelo://app?vid=c62591d3-4e8c-4fd9-b1b5-d2198951eced","ios":"levelo://app?vid=c62591d3-4e8c-4fd9-b1b5-d2198951eced"},"vehicle_type_id":"4","last_reported":1728893610,"current_range_meters":6800,"station_id":"ce4bgup2rcd13ifvqcn0","pricing_plan_id":"cebpf4jnsgd1na2vs0mg"},{"bike_id":"dd56f152-3d24-4964-8294-96aaf213e366","system_id":"levelo_inurba_marseille","lat":43.292851,"lon":5.368404,"is_reserved":false,"is_disabled":false,"rental_uris":{"android":"levelo://app?vid=dd56f152-3d24-4964-8294-96aaf213e366","ios":"levelo://app?vid=dd56f152-3d24-4964-8294-96aaf213e366"},"vehicle_type_id":"4","last_reported":1728893610,"current_range_meters":15200,"station_id":"","pricing_plan_id":"cebpf4jnsgd1na2vs0mg"},{"bike_id":"6775debe-3572-4de6-be18-c3de80cd7673","system_id":"levelo_inurba_marseille","lat":43.2408,"lon":5.37756,"is_reserved":false,"is_disabled":false,"rental_uris":{"android":"levelo://app?vid=6775debe-3572-4de6-be18-c3de80cd7673","ios":"levelo://app?vid=6775debe-3572-4de6-be18-c3de80cd7673"},"vehicle_type_id":"4","last_reported":1728893610,"current_range_meters":36000,"station_id":"ce4bhnp2rcd13ifvqgvg","pricing_plan_id":"cebpf4jnsgd1na2vs0mg"},{"bike_id":"0976b54c-7c62-4236-8103-d0b3e0fcc8e1","system_id":"levelo_inurba_marseille","lat":43.27995,"lon":5.40012,"is_reserved":false,"is_disabled":false,"rental_uris":{"android":"levelo://app?vid=0976b54c-7c62-4236-8103-d0b3e0fcc8e1","ios":"levelo://app?vid=0976b54c-7c62-4236-8103-d0b3e0fcc8e1"},"vehicle_type_id":"4","last_reported":1728893610,"current_range_meters":36800,"station_id":"ce4bho92rcd13ifvqh4g","pricing_plan_id":"cebpf4jnsgd1na2vs0mg"},{"bike_id":"25ed2710-8c35-44e6-81fd-8fc7cf6b54a8","system_id":"levelo_inurba_marseille","lat":43.274948,"lon":5.424466,"is_reserved":false,"is_disabled":false,"rental_uris":{"android":"levelo://app?vid=25ed2710-8c35-44e6-81fd-8fc7cf6b54a8","ios":"levelo://app?vid=25ed2710-8c35-44e6-81fd-8fc7cf6b54a8"},"vehicle_type_id":"4","last_reported":1728893610,"current_range_meters":17600,"station_id":"ce4bhn92rcd13ifvqgrg","pricing_plan_id":"cebpf4jnsgd1na2vs0mg"},{"bike_id":"71d3f488-c925-46a2-93e5-07e6faaba818","system_id":"levelo_inurba_marseille","lat":43.3055,"lon":5.36541,"is_reserved":false,"is_disabled":false,"rental_uris":{"android":"levelo://app?vid=71d3f488-c925-46a2-93e5-07e6faaba818","ios":"levelo://app?vid=71d3f488-c925-46a2-93e5-07e6faaba818"},"vehicle_type_id":"4","last_reported":1728893610,"current_range_meters":38800,"station_id":"ce4bgs12rcd13ifvqcag","pricing_plan_id":"cebpf4jnsgd1na2vs0mg"},{"bike_id":"b9b18d1e-08b0-4d2d-ae4b-c6ff6e5bb0fe","system_id":"levelo_inurba_marseille","lat":43.296461,"lon":5.372604,"is_reserved":false,"is_disabled":false,"rental_uris":{"android":"levelo://app?vid=b9b18d1e-08b0-4d2d-ae4b-c6ff6e5bb0fe","ios":"levelo://app?vid=b9b18d1e-08b0-4d2d-ae4b-c6ff6e5bb0fe"},"vehicle_type_id":"4","last_reported":1728893610,"current_range_meters":11600,"station_id":"ce4bgk12rcd13ifvqbj0","pricing_plan_id":"cebpf4jnsgd1na2vs0mg"},{"bike_id":"aea1d7d9-ad77-4f63-b2e5-d880d881127f","system_id":"levelo_inurba_marseille","lat":43.3425,"lon":5.44571,"is_reserved":false,"is_disabled":false,"rental_uris":{"android":"levelo://app?vid=aea1d7d9-ad77-4f63-b2e5-d880d881127f","ios":"levelo://app?vid=aea1d7d9-ad77-4f63-b2e5-d880d881127f"},"vehicle_type_id":"4","last_reported":1728893610,"current_range_meters":28800,"station_id":"","pricing_plan_id":"cebpf4jnsgd1na2vs0mg"},{"bike_id":"969f2d8d-3cdd-4b0c-81e3-d68bb6a68b3c","system_id":"levelo_inurba_marseille","lat":43.31495,"lon":5.37303,"is_reserved":false,"is_disabled":false,"rental_uris":{"android":"levelo://app?vid=969f2d8d-3cdd-4b0c-81e3-d68bb6a68b3c","ios":"levelo://app?vid=969f2d8d-3cdd-4b0c-81e3-d68bb6a68b3c"},"vehicle_type_id":"4","last_reported":1728893610,"current_range_meters":16800,"station_id":"ce4bgt12rcd13ifvqcd0","pricing_plan_id":"cebpf4jnsgd1na2vs0mg"},{"bike_id":"1967c2cd-0a52-4bae-a040-a23f7d771766","system_id":"levelo_inurba_marseille","lat":43.27381,"lon":5.3625,"is_reserved":false,"is_disabled":false,"rental_uris":{"android":"levelo://app?vid=1967c2cd-0a52-4bae-a040-a23f7d771766","ios":"levelo://app?vid=1967c2cd-0a52-4bae-a040-a23f7d771766"},"vehicle_type_id":"4","last_reported":1728893610,"current_range_meters":37600,"station_id":"ce4bhbh2rcd13ifvqeo0","pricing_plan_id":"cebpf4jnsgd1na2vs0mg"},{"bike_id":"7791363c-3ac5-42ea-8cb5-8da9edf897c3","system_id":"levelo_inurba_marseille","lat":43.29859,"lon":5.37423,"is_reserved":false,"is_disabled":false,"rental_uris":{"android":"levelo://app?vid=7791363c-3ac5-42ea-8cb5-8da9edf897c3","ios":"levelo://app?vid=7791363c-3ac5-42ea-8cb5-8da9edf897c3"},"vehicle_type_id":"4","last_reported":1728893610,"current_range_meters":22000,"station_id":"ce4bgjh2rcd13ifvqbf0","pricing_plan_id":"cebpf4jnsgd1na2vs0mg"},{"bike_id":"64d319f2-164b-4ef6-a30c-055db2ee446a","system_id":"levelo_inurba_marseille","lat":43.24068,"lon":5.37757,"is_reserved":false,"is_disabled":false,"rental_uris":{"android":"levelo://app?vid=64d319f2-164b-4ef6-a30c-055db2ee446a","ios":"levelo://app?vid=64d319f2-164b-4ef6-a30c-055db2ee446a"},"vehicle_type_id":"4","last_reported":1728893610,"current_range_meters":12800,"station_id":"ce4bhnp2rcd13ifvqgvg","pricing_plan_id":"cebpf4jnsgd1na2vs0mg"},{"bike_id":"5305c128-26e8-4602-8fb9-9cf7f4c25370","system_id":"levelo_inurba_marseille","lat":43.32535,"lon":5.41443,"is_reserved":false,"is_disabled":false,"rental_uris":{"android":"levelo://app?vid=5305c128-26e8-4602-8fb9-9cf7f4c25370","ios":"levelo://app?vid=5305c128-26e8-4602-8fb9-9cf7f4c25370"},"vehicle_type_id":"4","last_reported":1728893610,"current_range_meters":18800,"station_id":"ce4bhq12rcd13ifvqhhg","pricing_plan_id":"cebpf4jnsgd1na2vs0mg"},{"bike_id":"b42b57a2-8088-4fdd-a817-cdc570948cca","system_id":"levelo_inurba_marseille","lat":43.31354,"lon":5.36704,"is_reserved":false,"is_disabled":false,"rental_uris":{"android":"levelo://app?vid=b42b57a2-8088-4fdd-a817-cdc570948cca","ios":"levelo://app?vid=b42b57a2-8088-4fdd-a817-cdc570948cca"},"vehicle_type_id":"4","last_reported":1728893610,"current_range_meters":36800,"station_id":"ce4bgr92rcd13ifvqc6g","pricing_plan_id":"cebpf4jnsgd1na2vs0mg"},{"bike_id":"b1edb0c0-c72d-422f-981c-4a88bde5fc13","system_id":"levelo_inurba_marseille","lat":43.23152,"lon":5.43718,"is_reserved":false,"is_disabled":false,"rental_uris":{"android":"levelo://app?vid=b1edb0c0-c72d-422f-981c-4a88bde5fc13","ios":"levelo://app?vid=b1edb0c0-c72d-422f-981c-4a88bde5fc13"},"vehicle_type_id":"4","last_reported":1728893610,"current_range_meters":12000,"station_id":"","pricing_plan_id":"cebpf4jnsgd1na2vs0mg"},{"bike_id":"8a8f8834-af69-4cef-becd-b20226175aba","system_id":"levelo_inurba_marseille","lat":43.27372,"lon":5.36262,"is_reserved":false,"is_disabled":false,"rental_uris":{"android":"levelo://app?vid=8a8f8834-af69-4cef-becd-b20226175aba","ios":"levelo://app?vid=8a8f8834-af69-4cef-becd-b20226175aba"},"vehicle_type_id":"4","last_reported":1728893610,"current_range_meters":38000,"station_id":"ce4bhbh2rcd13ifvqeo0","pricing_plan_id":"cebpf4jnsgd1na2vs0mg"},{"bike_id":"7c5bea84-61e7-4c07-b279-37bb63b59939","system_id":"levelo_inurba_marseille","lat":43.2841,"lon":5.34991,"is_reserved":false,"is_disabled":false,"rental_uris":{"android":"levelo://app?vid=7c5bea84-61e7-4c07-b279-37bb63b59939","ios":"levelo://app?vid=7c5bea84-61e7-4c07-b279-37bb63b59939"},"vehicle_type_id":"4","last_reported":1728893610,"current_range_meters":13600,"station_id":"ce4bhbh2rcd13ifvqepg","pricing_plan_id":"cebpf4jnsgd1na2vs0mg"},{"bike_id":"744d7d46-a030-452d-827a-600610e2a098","system_id":"levelo_inurba_marseille","lat":43.23185,"lon":5.3999,"is_reserved":false,"is_disabled":false,"rental_uris":{"android":"levelo://app?vid=744d7d46-a030-452d-827a-600610e2a098","ios":"levelo://app?vid=744d7d46-a030-452d-827a-600610e2a098"},"vehicle_type_id":"4","last_reported":1728893610,"current_range_meters":29600,"station_id":"ce4bhn12rcd13ifvqgqg","pricing_plan_id":"cebpf4jnsgd1na2vs0mg"},{"bike_id":"4ad9c84c-685e-4f1a-b238-9f190cafcbe4","system_id":"levelo_inurba_marseille","lat":43.30132,"lon":5.37421,"is_reserved":false,"is_disabled":false,"rental_uris":{"android":"levelo://app?vid=4ad9c84c-685e-4f1a-b238-9f190cafcbe4","ios":"levelo://app?vid=4ad9c84c-685e-4f1a-b238-9f190cafcbe4"},"vehicle_type_id":"4","last_reported":1728893610,"current_range_meters":20400,"station_id":"ce4bgs92rcd13ifvqcc0","pricing_plan_id":"cebpf4jnsgd1na2vs0mg"},{"bike_id":"621b7c4e-8aa0-41dd-814b-66770078b276","system_id":"levelo_inurba_marseille","lat":43.33723,"lon":5.39172,"is_reserved":false,"is_disabled":false,"rental_uris":{"android":"levelo://app?vid=621b7c4e-8aa0-41dd-814b-66770078b276","ios":"levelo://app?vid=621b7c4e-8aa0-41dd-814b-66770078b276"},"vehicle_type_id":"4","last_reported":1728893610,"current_range_meters":38000,"station_id":"ce4bhr92rcd13ifvqhsg","pricing_plan_id":"cebpf4jnsgd1na2vs0mg"},{"bike_id":"28d0dbcf-469a-4c73-8487-d2ab938a969d","system_id":"levelo_inurba_marseille","lat":43.30463,"lon":5.37907,"is_reserved":false,"is_disabled":false,"rental_uris":{"android":"levelo://app?vid=28d0dbcf-469a-4c73-8487-d2ab938a969d","ios":"levelo://app?vid=28d0dbcf-469a-4c73-8487-d2ab938a969d"},"vehicle_type_id":"4","last_reported":1728893610,"current_range_meters":29600,"station_id":"ce4bgup2rcd13ifvqcn0","pricing_plan_id":"cebpf4jnsgd1na2vs0mg"},{"bike_id":"23bf9733-efbb-4dde-884c-5370e7a9200c","system_id":"levelo_inurba_marseille","lat":43.28612,"lon":5.35107,"is_reserved":false,"is_disabled":false,"rental_uris":{"android":"levelo://app?vid=23bf9733-efbb-4dde-884c-5370e7a9200c","ios":"levelo://app?vid=23bf9733-efbb-4dde-884c-5370e7a9200c"},"vehicle_type_id":"4","last_reported":1728893610,"current_range_meters":24400,"station_id":"ce4bhch2rcd13ifvqeug","pricing_plan_id":"cebpf4jnsgd1na2vs0mg"},{"bike_id":"845804fa-aebf-466f-ae57-df292c2b342f","system_id":"levelo_inurba_marseille","lat":43.3136,"lon":5.36713,"is_reserved":false,"is_disabled":false,"rental_uris":{"android":"levelo://app?vid=845804fa-aebf-466f-ae57-df292c2b342f","ios":"levelo://app?vid=845804fa-aebf-466f-ae57-df292c2b342f"},"vehicle_type_id":"4","last_reported":1728893610,"current_range_meters":24800,"station_id":"ce4bgr92rcd13ifvqc6g","pricing_plan_id":"cebpf4jnsgd1na2vs0mg"},{"bike_id":"d64c76a9-b37d-4857-b09f-918a8d971621","system_id":"levelo_inurba_marseille","lat":43.25929,"lon":5.40901,"is_reserved":false,"is_disabled":false,"rental_uris":{"android":"levelo://app?vid=d64c76a9-b37d-4857-b09f-918a8d971621","ios":"levelo://app?vid=d64c76a9-b37d-4857-b09f-918a8d971621"},"vehicle_type_id":"4","last_reported":1728893610,"current_range_meters":30400,"station_id":"ce4bhm92rcd13ifvqglg","pricing_plan_id":"cebpf4jnsgd1na2vs0mg"},{"bike_id":"ef426c6b-ec60-486f-ab53-17beaa54bb57","system_id":"levelo_inurba_marseille","lat":43.30312,"lon":5.36888,"is_reserved":false,"is_disabled":false,"rental_uris":{"android":"levelo://app?vid=ef426c6b-ec60-486f-ab53-17beaa54bb57","ios":"levelo://app?vid=ef426c6b-ec60-486f-ab53-17beaa54bb57"},"vehicle_type_id":"4","last_reported":1728893610,"current_range_meters":38800,"station_id":"ce4bgqh2rcd13ifvqc5g","pricing_plan_id":"cebpf4jnsgd1na2vs0mg"},{"bike_id":"e084f833-022f-4cea-bf4e-fc335d17dd46","system_id":"levelo_inurba_marseille","lat":43.30539,"lon":5.36547,"is_reserved":false,"is_disabled":false,"rental_uris":{"android":"levelo://app?vid=e084f833-022f-4cea-bf4e-fc335d17dd46","ios":"levelo://app?vid=e084f833-022f-4cea-bf4e-fc335d17dd46"},"vehicle_type_id":"4","last_reported":1728893610,"current_range_meters":35600,"station_id":"ce4bgs12rcd13ifvqcag","pricing_plan_id":"cebpf4jnsgd1na2vs0mg"},{"bike_id":"15443e78-7d53-4ced-802f-7979c08f04f3","system_id":"levelo_inurba_marseille","lat":43.30947,"lon":5.39033,"is_reserved":false,"is_disabled":false,"rental_uris":{"android":"levelo://app?vid=15443e78-7d53-4ced-802f-7979c08f04f3","ios":"levelo://app?vid=15443e78-7d53-4ced-802f-7979c08f04f3"},"vehicle_type_id":"4","last_reported":1728893610,"current_range_meters":10800,"station_id":"ce4bgup2rcd13ifvqco0","pricing_plan_id":"cebpf4jnsgd1na2vs0mg"},{"bike_id":"1a2ec858-3dcd-44e3-8d14-dee416504e23","system_id":"levelo_inurba_marseille","lat":43.29026,"lon":5.37568,"is_reserved":false,"is_disabled":false,"rental_uris":{"android":"levelo://app?vid=1a2ec858-3dcd-44e3-8d14-dee416504e23","ios":"levelo://app?vid=1a2ec858-3dcd-44e3-8d14-dee416504e23"},"vehicle_type_id":"4","last_reported":1728893610,"current_range_meters":33600,"station_id":"ce4bh692rcd13ifvqe90","pricing_plan_id":"cebpf4jnsgd1na2vs0mg"},{"bike_id":"b607a881-1656-4ea2-9f9a-59482023e9a5","system_id":"levelo_inurba_marseille","lat":43.31338,"lon":5.367,"is_reserved":false,"is_disabled":false,"rental_uris":{"android":"levelo://app?vid=b607a881-1656-4ea2-9f9a-59482023e9a5","ios":"levelo://app?vid=b607a881-1656-4ea2-9f9a-59482023e9a5"},"vehicle_type_id":"4","last_reported":1728893610,"current_range_meters":39200,"station_id":"ce4bgr92rcd13ifvqc6g","pricing_plan_id":"cebpf4jnsgd1na2vs0mg"},{"bike_id":"ae8dcabf-2e28-401c-b160-713455afc0a3","system_id":"levelo_inurba_marseille","lat":43.28266,"lon":5.35079,"is_reserved":false,"is_disabled":false,"rental_uris":{"android":"levelo://app?vid=ae8dcabf-2e28-401c-b160-713455afc0a3","ios":"levelo://app?vid=ae8dcabf-2e28-401c-b160-713455afc0a3"},"vehicle_type_id":"4","last_reported":1728893610,"current_range_meters":28400,"station_id":"ce4bhbp2rcd13ifvqerg","pricing_plan_id":"cebpf4jnsgd1na2vs0mg"},{"bike_id":"dfaf032e-4a53-4b47-a8b7-aef4208e9aa5","system_id":"levelo_inurba_marseille","lat":43.30184,"lon":5.36625,"is_reserved":false,"is_disabled":false,"rental_uris":{"android":"levelo://app?vid=dfaf032e-4a53-4b47-a8b7-aef4208e9aa5","ios":"levelo://app?vid=dfaf032e-4a53-4b47-a8b7-aef4208e9aa5"},"vehicle_type_id":"4","last_reported":1728893610,"current_range_meters":28400,"station_id":"ce4bgrh2rcd13ifvqc8g","pricing_plan_id":"cebpf4jnsgd1na2vs0mg"},{"bike_id":"6d45e2e1-f520-4d39-b919-7453d5eb68a9","system_id":"levelo_inurba_marseille","lat":43.3014,"lon":5.37406,"is_reserved":false,"is_disabled":false,"rental_uris":{"android":"levelo://app?vid=6d45e2e1-f520-4d39-b919-7453d5eb68a9","ios":"levelo://app?vid=6d45e2e1-f520-4d39-b919-7453d5eb68a9"},"vehicle_type_id":"4","last_reported":1728893610,"current_range_meters":23200,"station_id":"ce4bgs92rcd13ifvqcc0","pricing_plan_id":"cebpf4jnsgd1na2vs0mg"},{"bike_id":"d371deaa-f0ab-4ebb-bfd8-3059e6d57f4d","system_id":"levelo_inurba_marseille","lat":43.30087,"lon":5.39086,"is_reserved":false,"is_disabled":false,"rental_uris":{"android":"levelo://app?vid=d371deaa-f0ab-4ebb-bfd8-3059e6d57f4d","ios":"levelo://app?vid=d371deaa-f0ab-4ebb-bfd8-3059e6d57f4d"},"vehicle_type_id":"4","last_reported":1728893610,"current_range_meters":37600,"station_id":"ce4bh192rcd13ifvqdb0","pricing_plan_id":"cebpf4jnsgd1na2vs0mg"},{"bike_id":"4e0df961-8424-4df2-976b-76e8c2a464c9","system_id":"levelo_inurba_marseille","lat":43.25863,"lon":5.39896,"is_reserved":false,"is_disabled":false,"rental_uris":{"android":"levelo://app?vid=4e0df961-8424-4df2-976b-76e8c2a464c9","ios":"levelo://app?vid=4e0df961-8424-4df2-976b-76e8c2a464c9"},"vehicle_type_id":"4","last_reported":1728893610,"current_range_meters":36400,"station_id":"ce4bhl92rcd13ifvqghg","pricing_plan_id":"cebpf4jnsgd1na2vs0mg"},{"bike_id":"ad9c5125-2869-46bb-aaef-342aebc9bc00","system_id":"levelo_inurba_marseille","lat":43.31109,"lon":5.38064,"is_reserved":false,"is_disabled":false,"rental_uris":{"android":"levelo://app?vid=ad9c5125-2869-46bb-aaef-342aebc9bc00","ios":"levelo://app?vid=ad9c5125-2869-46bb-aaef-342aebc9bc00"},"vehicle_type_id":"4","last_reported":1728893610,"current_range_meters":20400,"station_id":"ce4bgt92rcd13ifvqcf0","pricing_plan_id":"cebpf4jnsgd1na2vs0mg"},{"bike_id":"69563718-4bc2-40ef-855e-a5d3318b6758","system_id":"levelo_inurba_marseille","lat":43.28157,"lon":5.42638,"is_reserved":false,"is_disabled":false,"rental_uris":{"android":"levelo://app?vid=69563718-4bc2-40ef-855e-a5d3318b6758","ios":"levelo://app?vid=69563718-4bc2-40ef-855e-a5d3318b6758"},"vehicle_type_id":"4","last_reported":1728893610,"current_range_meters":38800,"station_id":"ce4bhnh2rcd13ifvqgug","pricing_plan_id":"cebpf4jnsgd1na2vs0mg"},{"bike_id":"b2de3804-c2ca-477b-be34-6bc3a4aecd19","system_id":"levelo_inurba_marseille","lat":43.32532,"lon":5.41428,"is_reserved":false,"is_disabled":false,"rental_uris":{"android":"levelo://app?vid=b2de3804-c2ca-477b-be34-6bc3a4aecd19","ios":"levelo://app?vid=b2de3804-c2ca-477b-be34-6bc3a4aecd19"},"vehicle_type_id":"4","last_reported":1728893610,"current_range_meters":27200,"station_id":"ce4bhq12rcd13ifvqhhg","pricing_plan_id":"cebpf4jnsgd1na2vs0mg"},{"bike_id":"91bf7418-d30b-4703-8999-0f5cc334e406","system_id":"levelo_inurba_marseille","lat":43.2619,"lon":5.40448,"is_reserved":false,"is_disabled":false,"rental_uris":{"android":"levelo://app?vid=91bf7418-d30b-4703-8999-0f5cc334e406","ios":"levelo://app?vid=91bf7418-d30b-4703-8999-0f5cc334e406"},"vehicle_type_id":"4","last_reported":1728893610,"current_range_meters":6400,"station_id":"","pricing_plan_id":"cebpf4jnsgd1na2vs0mg"},{"bike_id":"bc4fad8c-9618-4470-8df4-98cd5ecfa994","system_id":"levelo_inurba_marseille","lat":43.313432,"lon":5.367188,"is_reserved":false,"is_disabled":false,"rental_uris":{"android":"levelo://app?vid=bc4fad8c-9618-4470-8df4-98cd5ecfa994","ios":"levelo://app?vid=bc4fad8c-9618-4470-8df4-98cd5ecfa994"},"vehicle_type_id":"4","last_reported":1728893610,"current_range_meters":17200,"station_id":"ce4bgr92rcd13ifvqc6g","pricing_plan_id":"cebpf4jnsgd1na2vs0mg"},{"bike_id":"7d77f729-90ca-4a5e-9ca6-88301f21e21e","system_id":"levelo_inurba_marseille","lat":43.30542,"lon":5.3655,"is_reserved":false,"is_disabled":false,"rental_uris":{"android":"levelo://app?vid=7d77f729-90ca-4a5e-9ca6-88301f21e21e","ios":"levelo://app?vid=7d77f729-90ca-4a5e-9ca6-88301f21e21e"},"vehicle_type_id":"4","last_reported":1728893610,"current_range_meters":36000,"station_id":"ce4bgs12rcd13ifvqcag","pricing_plan_id":"cebpf4jnsgd1na2vs0mg"},{"bike_id":"1bd954b5-82cc-4ed8-81c9-6fee4b9e034c","system_id":"levelo_inurba_marseille","lat":43.30149,"lon":5.38104,"is_reserved":false,"is_disabled":false,"rental_uris":{"android":"levelo://app?vid=1bd954b5-82cc-4ed8-81c9-6fee4b9e034c","ios":"levelo://app?vid=1bd954b5-82cc-4ed8-81c9-6fee4b9e034c"},"vehicle_type_id":"4","last_reported":1728893610,"current_range_meters":37600,"station_id":"ce4bgjp2rcd13ifvqbh0","pricing_plan_id":"cebpf4jnsgd1na2vs0mg"},{"bike_id":"d8aaaa96-128b-48d6-a7b1-5598eba04874","system_id":"levelo_inurba_marseille","lat":43.25498,"lon":5.37653,"is_reserved":false,"is_disabled":false,"rental_uris":{"android":"levelo://app?vid=d8aaaa96-128b-48d6-a7b1-5598eba04874","ios":"levelo://app?vid=d8aaaa96-128b-48d6-a7b1-5598eba04874"},"vehicle_type_id":"4","last_reported":1728893610,"current_range_meters":38000,"station_id":"ce4bhh12rcd13ifvqff0","pricing_plan_id":"cebpf4jnsgd1na2vs0mg"},{"bike_id":"77807a8d-0379-4d07-b56c-d0871dfb1820","system_id":"levelo_inurba_marseille","lat":43.30913,"lon":5.36852,"is_reserved":false,"is_disabled":false,"rental_uris":{"android":"levelo://app?vid=77807a8d-0379-4d07-b56c-d0871dfb1820","ios":"levelo://app?vid=77807a8d-0379-4d07-b56c-d0871dfb1820"},"vehicle_type_id":"4","last_reported":1728893610,"current_range_meters":22800,"station_id":"ce4bgn92rcd13ifvqbvg","pricing_plan_id":"cebpf4jnsgd1na2vs0mg"},{"bike_id":"11702197-bd9c-4164-8c2e-badf381d0ff3","system_id":"levelo_inurba_marseille","lat":43.33764,"lon":5.37456,"is_reserved":false,"is_disabled":false,"rental_uris":{"android":"levelo://app?vid=11702197-bd9c-4164-8c2e-badf381d0ff3","ios":"levelo://app?vid=11702197-bd9c-4164-8c2e-badf381d0ff3"},"vehicle_type_id":"4","last_reported":1728893610,"current_range_meters":38800,"station_id":"","pricing_plan_id":"cebpf4jnsgd1na2vs0mg"},{"bike_id":"7c722ccf-af4f-4ddf-a648-b67890f609c9","system_id":"levelo_inurba_marseille","lat":43.24081,"lon":5.37762,"is_reserved":false,"is_disabled":false,"rental_uris":{"android":"levelo://app?vid=7c722ccf-af4f-4ddf-a648-b67890f609c9","ios":"levelo://app?vid=7c722ccf-af4f-4ddf-a648-b67890f609c9"},"vehicle_type_id":"4","last_reported":1728893610,"current_range_meters":33200,"station_id":"ce4bhnp2rcd13ifvqgvg","pricing_plan_id":"cebpf4jnsgd1na2vs0mg"},{"bike_id":"dee3f50f-c93b-45b4-8e4a-dbdb45f55e9d","system_id":"levelo_inurba_marseille","lat":43.29554,"lon":5.42291,"is_reserved":false,"is_disabled":false,"rental_uris":{"android":"levelo://app?vid=dee3f50f-c93b-45b4-8e4a-dbdb45f55e9d","ios":"levelo://app?vid=dee3f50f-c93b-45b4-8e4a-dbdb45f55e9d"},"vehicle_type_id":"4","last_reported":1728893610,"current_range_meters":9600,"station_id":"ce4bhph2rcd13ifvqhdg","pricing_plan_id":"cebpf4jnsgd1na2vs0mg"},{"bike_id":"4028ca6a-8032-412a-b69c-cb37e429838c","system_id":"levelo_inurba_marseille","lat":43.30138,"lon":5.37405,"is_reserved":false,"is_disabled":false,"rental_uris":{"android":"levelo://app?vid=4028ca6a-8032-412a-b69c-cb37e429838c","ios":"levelo://app?vid=4028ca6a-8032-412a-b69c-cb37e429838c"},"vehicle_type_id":"4","last_reported":1728893610,"current_range_meters":14800,"station_id":"ce4bgs92rcd13ifvqcc0","pricing_plan_id":"cebpf4jnsgd1na2vs0mg"},{"bike_id":"e21dbbcf-0332-4f58-bb66-4410a2c106ff","system_id":"levelo_inurba_marseille","lat":43.28856,"lon":5.39309,"is_reserved":false,"is_disabled":false,"rental_uris":{"android":"levelo://app?vid=e21dbbcf-0332-4f58-bb66-4410a2c106ff","ios":"levelo://app?vid=e21dbbcf-0332-4f58-bb66-4410a2c106ff"},"vehicle_type_id":"4","last_reported":1728893610,"current_range_meters":26800,"station_id":"ce4bh2p2rcd13ifvqdi0","pricing_plan_id":"cebpf4jnsgd1na2vs0mg"},{"bike_id":"5f3049d1-b4e0-4ec9-8b6a-5146f5ffe6b6","system_id":"levelo_inurba_marseille","lat":43.27498,"lon":5.42446,"is_reserved":false,"is_disabled":false,"rental_uris":{"android":"levelo://app?vid=5f3049d1-b4e0-4ec9-8b6a-5146f5ffe6b6","ios":"levelo://app?vid=5f3049d1-b4e0-4ec9-8b6a-5146f5ffe6b6"},"vehicle_type_id":"4","last_reported":1728893610,"current_range_meters":25200,"station_id":"ce4bhn92rcd13ifvqgrg","pricing_plan_id":"cebpf4jnsgd1na2vs0mg"},{"bike_id":"402e2b18-2493-4b09-a5dd-0f549fefaf7a","system_id":"levelo_inurba_marseille","lat":43.24162,"lon":5.364,"is_reserved":false,"is_disabled":false,"rental_uris":{"android":"levelo://app?vid=402e2b18-2493-4b09-a5dd-0f549fefaf7a","ios":"levelo://app?vid=402e2b18-2493-4b09-a5dd-0f549fefaf7a"},"vehicle_type_id":"4","last_reported":1728893610,"current_range_meters":38000,"station_id":"cpo36qri1sfpv3e86is0","pricing_plan_id":"cebpf4jnsgd1na2vs0mg"},{"bike_id":"54ebf3b7-7fb8-4989-b704-201ba53748d0","system_id":"levelo_inurba_marseille","lat":43.28721,"lon":5.37933,"is_reserved":false,"is_disabled":false,"rental_uris":{"android":"levelo://app?vid=54ebf3b7-7fb8-4989-b704-201ba53748d0","ios":"levelo://app?vid=54ebf3b7-7fb8-4989-b704-201ba53748d0"},"vehicle_type_id":"4","last_reported":1728893610,"current_range_meters":35200,"station_id":"ce4bh9p2rcd13ifvqec0","pricing_plan_id":"cebpf4jnsgd1na2vs0mg"},{"bike_id":"b7e84f83-7f07-4548-a52d-d37446dda807","system_id":"levelo_inurba_marseille","lat":43.27956,"lon":5.41053,"is_reserved":false,"is_disabled":false,"rental_uris":{"android":"levelo://app?vid=b7e84f83-7f07-4548-a52d-d37446dda807","ios":"levelo://app?vid=b7e84f83-7f07-4548-a52d-d37446dda807"},"vehicle_type_id":"4","last_reported":1728893610,"current_range_meters":27600,"station_id":"ce4bhnp2rcd13ifvqh0g","pricing_plan_id":"cebpf4jnsgd1na2vs0mg"},{"bike_id":"d8a5ada8-5849-431a-a869-d042f252d905","system_id":"levelo_inurba_marseille","lat":43.23192,"lon":5.35554,"is_reserved":false,"is_disabled":false,"rental_uris":{"android":"levelo://app?vid=d8a5ada8-5849-431a-a869-d042f252d905","ios":"levelo://app?vid=d8a5ada8-5849-431a-a869-d042f252d905"},"vehicle_type_id":"4","last_reported":1728893610,"current_range_meters":22000,"station_id":"ce4bhu92rcd13ifvqi70","pricing_plan_id":"cebpf4jnsgd1na2vs0mg"},{"bike_id":"eb3c29da-6ce9-4c84-a38b-4950e535cb7b","system_id":"levelo_inurba_marseille","lat":43.30431,"lon":5.38892,"is_reserved":false,"is_disabled":false,"rental_uris":{"android":"levelo://app?vid=eb3c29da-6ce9-4c84-a38b-4950e535cb7b","ios":"levelo://app?vid=eb3c29da-6ce9-4c84-a38b-4950e535cb7b"},"vehicle_type_id":"4","last_reported":1728893610,"current_range_meters":24400,"station_id":"ce4bgk12rcd13ifvqbi0","pricing_plan_id":"cebpf4jnsgd1na2vs0mg"},{"bike_id":"5bc9b78b-9615-45c0-a888-79c429dfa74a","system_id":"levelo_inurba_marseille","lat":43.33724,"lon":5.39177,"is_reserved":false,"is_disabled":false,"rental_uris":{"android":"levelo://app?vid=5bc9b78b-9615-45c0-a888-79c429dfa74a","ios":"levelo://app?vid=5bc9b78b-9615-45c0-a888-79c429dfa74a"},"vehicle_type_id":"4","last_reported":1728893610,"current_range_meters":11600,"station_id":"ce4bhr92rcd13ifvqhsg","pricing_plan_id":"cebpf4jnsgd1na2vs0mg"},{"bike_id":"d78c27bf-97c1-420b-82fb-48ca2bea5d28","system_id":"levelo_inurba_marseille","lat":43.26195,"lon":5.37931,"is_reserved":false,"is_disabled":false,"rental_uris":{"android":"levelo://app?vid=d78c27bf-97c1-420b-82fb-48ca2bea5d28","ios":"levelo://app?vid=d78c27bf-97c1-420b-82fb-48ca2bea5d28"},"vehicle_type_id":"4","last_reported":1728893610,"current_range_meters":39200,"station_id":"ce4bhjp2rcd13ifvqg90","pricing_plan_id":"cebpf4jnsgd1na2vs0mg"},{"bike_id":"e9cd6079-1c3a-43ef-9587-d665dd997e8d","system_id":"levelo_inurba_marseille","lat":43.337444,"lon":5.374475,"is_reserved":false,"is_disabled":false,"rental_uris":{"android":"levelo://app?vid=e9cd6079-1c3a-43ef-9587-d665dd997e8d","ios":"levelo://app?vid=e9cd6079-1c3a-43ef-9587-d665dd997e8d"},"vehicle_type_id":"4","last_reported":1728893610,"current_range_meters":25600,"station_id":"ce4bhl12rcd13ifvqgf0","pricing_plan_id":"cebpf4jnsgd1na2vs0mg"},{"bike_id":"ab7f5af8-cb0c-45d6-b50a-c0534953c58a","system_id":"levelo_inurba_marseille","lat":43.26494,"lon":5.39547,"is_reserved":false,"is_disabled":false,"rental_uris":{"android":"levelo://app?vid=ab7f5af8-cb0c-45d6-b50a-c0534953c58a","ios":"levelo://app?vid=ab7f5af8-cb0c-45d6-b50a-c0534953c58a"},"vehicle_type_id":"4","last_reported":1728893610,"current_range_meters":38800,"station_id":"ce4bhi12rcd13ifvqfq0","pricing_plan_id":"cebpf4jnsgd1na2vs0mg"},{"bike_id":"25072dda-d1e9-4bf9-be16-aba821cf4d45","system_id":"levelo_inurba_marseille","lat":43.29803,"lon":5.38106,"is_reserved":false,"is_disabled":false,"rental_uris":{"android":"levelo://app?vid=25072dda-d1e9-4bf9-be16-aba821cf4d45","ios":"levelo://app?vid=25072dda-d1e9-4bf9-be16-aba821cf4d45"},"vehicle_type_id":"4","last_reported":1728893610,"current_range_meters":20800,"station_id":"ce4bgip2rcd13ifvqbb0","pricing_plan_id":"cebpf4jnsgd1na2vs0mg"},{"bike_id":"33c8cb8f-4d93-4ca1-b394-19ac08e7af57","system_id":"levelo_inurba_marseille","lat":43.26208,"lon":5.37445,"is_reserved":false,"is_disabled":false,"rental_uris":{"android":"levelo://app?vid=33c8cb8f-4d93-4ca1-b394-19ac08e7af57","ios":"levelo://app?vid=33c8cb8f-4d93-4ca1-b394-19ac08e7af57"},"vehicle_type_id":"4","last_reported":1728893610,"current_range_meters":35200,"station_id":"ce4bhgp2rcd13ifvqfc0","pricing_plan_id":"cebpf4jnsgd1na2vs0mg"},{"bike_id":"8e79ae3e-178d-4e39-bcf5-6669ebf576d6","system_id":"levelo_inurba_marseille","lat":43.29584,"lon":5.37516,"is_reserved":false,"is_disabled":false,"rental_uris":{"android":"levelo://app?vid=8e79ae3e-178d-4e39-bcf5-6669ebf576d6","ios":"levelo://app?vid=8e79ae3e-178d-4e39-bcf5-6669ebf576d6"},"vehicle_type_id":"4","last_reported":1728893610,"current_range_meters":11600,"station_id":"ce4bgh92rcd13ifvqb50","pricing_plan_id":"cebpf4jnsgd1na2vs0mg"},{"bike_id":"b886bb1b-f358-4f22-a28d-ebbc4ebb43f8","system_id":"levelo_inurba_marseille","lat":43.26488,"lon":5.39547,"is_reserved":false,"is_disabled":false,"rental_uris":{"android":"levelo://app?vid=b886bb1b-f358-4f22-a28d-ebbc4ebb43f8","ios":"levelo://app?vid=b886bb1b-f358-4f22-a28d-ebbc4ebb43f8"},"vehicle_type_id":"4","last_reported":1728893610,"current_range_meters":7200,"station_id":"ce4bhi12rcd13ifvqfq0","pricing_plan_id":"cebpf4jnsgd1na2vs0mg"},{"bike_id":"dc5f317f-b2d0-4a32-9392-ed507e0764b4","system_id":"levelo_inurba_marseille","lat":43.28611,"lon":5.3707,"is_reserved":false,"is_disabled":false,"rental_uris":{"android":"levelo://app?vid=dc5f317f-b2d0-4a32-9392-ed507e0764b4","ios":"levelo://app?vid=dc5f317f-b2d0-4a32-9392-ed507e0764b4"},"vehicle_type_id":"4","last_reported":1728893610,"current_range_meters":32400,"station_id":"ce4bht12rcd13ifvqi60","pricing_plan_id":"cebpf4jnsgd1na2vs0mg"},{"bike_id":"d79b8e32-1629-4e68-b9e1-a2658a2be07f","system_id":"levelo_inurba_marseille","lat":43.26059,"lon":5.39396,"is_reserved":false,"is_disabled":false,"rental_uris":{"android":"levelo://app?vid=d79b8e32-1629-4e68-b9e1-a2658a2be07f","ios":"levelo://app?vid=d79b8e32-1629-4e68-b9e1-a2658a2be07f"},"vehicle_type_id":"4","last_reported":1728893610,"current_range_meters":28400,"station_id":"ce4bhh92rcd13ifvqfj0","pricing_plan_id":"cebpf4jnsgd1na2vs0mg"},{"bike_id":"c3bab586-99ec-41f5-8acb-6e3c3dcab38f","system_id":"levelo_inurba_marseille","lat":43.26553,"lon":5.37289,"is_reserved":false,"is_disabled":false,"rental_uris":{"android":"levelo://app?vid=c3bab586-99ec-41f5-8acb-6e3c3dcab38f","ios":"levelo://app?vid=c3bab586-99ec-41f5-8acb-6e3c3dcab38f"},"vehicle_type_id":"4","last_reported":1728893610,"current_range_meters":38400,"station_id":"ce4bhg12rcd13ifvqf70","pricing_plan_id":"cebpf4jnsgd1na2vs0mg"},{"bike_id":"4a45a353-79a4-41a8-bac9-e9223aef720d","system_id":"levelo_inurba_marseille","lat":43.3019,"lon":5.36633,"is_reserved":false,"is_disabled":false,"rental_uris":{"android":"levelo://app?vid=4a45a353-79a4-41a8-bac9-e9223aef720d","ios":"levelo://app?vid=4a45a353-79a4-41a8-bac9-e9223aef720d"},"vehicle_type_id":"4","last_reported":1728893610,"current_range_meters":22400,"station_id":"ce4bgrh2rcd13ifvqc8g","pricing_plan_id":"cebpf4jnsgd1na2vs0mg"},{"bike_id":"729b5747-2745-44f4-8e45-767e543cac8a","system_id":"levelo_inurba_marseille","lat":43.33034,"lon":5.38936,"is_reserved":false,"is_disabled":false,"rental_uris":{"android":"levelo://app?vid=729b5747-2745-44f4-8e45-767e543cac8a","ios":"levelo://app?vid=729b5747-2745-44f4-8e45-767e543cac8a"},"vehicle_type_id":"4","last_reported":1728893610,"current_range_meters":34800,"station_id":"","pricing_plan_id":"cebpf4jnsgd1na2vs0mg"},{"bike_id":"09348952-ebbd-496d-877f-54bd3e43b367","system_id":"levelo_inurba_marseille","lat":43.30555,"lon":5.36532,"is_reserved":false,"is_disabled":false,"rental_uris":{"android":"levelo://app?vid=09348952-ebbd-496d-877f-54bd3e43b367","ios":"levelo://app?vid=09348952-ebbd-496d-877f-54bd3e43b367"},"vehicle_type_id":"4","last_reported":1728893610,"current_range_meters":37600,"station_id":"ce4bgs12rcd13ifvqcag","pricing_plan_id":"cebpf4jnsgd1na2vs0mg"},{"bike_id":"c9dd9d66-5eb5-4711-8607-dc63c23673e6","system_id":"levelo_inurba_marseille","lat":43.30544,"lon":5.36714,"is_reserved":false,"is_disabled":false,"rental_uris":{"android":"levelo://app?vid=c9dd9d66-5eb5-4711-8607-dc63c23673e6","ios":"levelo://app?vid=c9dd9d66-5eb5-4711-8607-dc63c23673e6"},"vehicle_type_id":"4","last_reported":1728893610,"current_range_meters":26800,"station_id":"ce4bgrp2rcd13ifvqc9g","pricing_plan_id":"cebpf4jnsgd1na2vs0mg"},{"bike_id":"2ed88e71-adfd-4530-9249-99bced17a4f8","system_id":"levelo_inurba_marseille","lat":43.29416,"lon":5.38625,"is_reserved":false,"is_disabled":false,"rental_uris":{"android":"levelo://app?vid=2ed88e71-adfd-4530-9249-99bced17a4f8","ios":"levelo://app?vid=2ed88e71-adfd-4530-9249-99bced17a4f8"},"vehicle_type_id":"4","last_reported":1728893610,"current_range_meters":32000,"station_id":"ce4bh2h2rcd13ifvqdh0","pricing_plan_id":"cebpf4jnsgd1na2vs0mg"},{"bike_id":"09c68a5f-0d71-4297-b983-b41453a9b1ae","system_id":"levelo_inurba_marseille","lat":43.34145,"lon":5.40906,"is_reserved":false,"is_disabled":false,"rental_uris":{"android":"levelo://app?vid=09c68a5f-0d71-4297-b983-b41453a9b1ae","ios":"levelo://app?vid=09c68a5f-0d71-4297-b983-b41453a9b1ae"},"vehicle_type_id":"4","last_reported":1728893610,"current_range_meters":38800,"station_id":"ce4bhqh2rcd13ifvqhlg","pricing_plan_id":"cebpf4jnsgd1na2vs0mg"},{"bike_id":"14995dfe-209b-4590-9be0-850c18c5a8af","system_id":"levelo_inurba_marseille","lat":43.2408,"lon":5.37745,"is_reserved":false,"is_disabled":false,"rental_uris":{"android":"levelo://app?vid=14995dfe-209b-4590-9be0-850c18c5a8af","ios":"levelo://app?vid=14995dfe-209b-4590-9be0-850c18c5a8af"},"vehicle_type_id":"4","last_reported":1728893610,"current_range_meters":30800,"station_id":"ce4bhnp2rcd13ifvqgvg","pricing_plan_id":"cebpf4jnsgd1na2vs0mg"},{"bike_id":"7be10a93-c75f-4cdf-a585-ba0b51da6a85","system_id":"levelo_inurba_marseille","lat":43.29066,"lon":5.37159,"is_reserved":false,"is_disabled":false,"rental_uris":{"android":"levelo://app?vid=7be10a93-c75f-4cdf-a585-ba0b51da6a85","ios":"levelo://app?vid=7be10a93-c75f-4cdf-a585-ba0b51da6a85"},"vehicle_type_id":"4","last_reported":1728893610,"current_range_meters":26800,"station_id":"ce4bh5p2rcd13ifvqe4g","pricing_plan_id":"cebpf4jnsgd1na2vs0mg"},{"bike_id":"55bd731b-b3aa-4c83-a9ea-60c964e5d56a","system_id":"levelo_inurba_marseille","lat":43.27487,"lon":5.42462,"is_reserved":false,"is_disabled":false,"rental_uris":{"android":"levelo://app?vid=55bd731b-b3aa-4c83-a9ea-60c964e5d56a","ios":"levelo://app?vid=55bd731b-b3aa-4c83-a9ea-60c964e5d56a"},"vehicle_type_id":"4","last_reported":1728893610,"current_range_meters":6400,"station_id":"ce4bhn92rcd13ifvqgrg","pricing_plan_id":"cebpf4jnsgd1na2vs0mg"},{"bike_id":"e2b39862-ca82-4d11-85a4-4006bed200fb","system_id":"levelo_inurba_marseille","lat":43.24078,"lon":5.37744,"is_reserved":false,"is_disabled":false,"rental_uris":{"android":"levelo://app?vid=e2b39862-ca82-4d11-85a4-4006bed200fb","ios":"levelo://app?vid=e2b39862-ca82-4d11-85a4-4006bed200fb"},"vehicle_type_id":"4","last_reported":1728893610,"current_range_meters":37600,"station_id":"ce4bhnp2rcd13ifvqgvg","pricing_plan_id":"cebpf4jnsgd1na2vs0mg"},{"bike_id":"9c51286d-9bc1-4462-bb96-fd77d911114d","system_id":"levelo_inurba_marseille","lat":43.23152,"lon":5.43724,"is_reserved":false,"is_disabled":false,"rental_uris":{"android":"levelo://app?vid=9c51286d-9bc1-4462-bb96-fd77d911114d","ios":"levelo://app?vid=9c51286d-9bc1-4462-bb96-fd77d911114d"},"vehicle_type_id":"4","last_reported":1728893610,"current_range_meters":28800,"station_id":"ce4bhmp2rcd13ifvqgog","pricing_plan_id":"cebpf4jnsgd1na2vs0mg"},{"bike_id":"22adc55d-bc60-4d81-acf6-fec2edb6748b","system_id":"levelo_inurba_marseille","lat":43.29164,"lon":5.37166,"is_reserved":false,"is_disabled":false,"rental_uris":{"android":"levelo://app?vid=22adc55d-bc60-4d81-acf6-fec2edb6748b","ios":"levelo://app?vid=22adc55d-bc60-4d81-acf6-fec2edb6748b"},"vehicle_type_id":"4","last_reported":1728893610,"current_range_meters":32000,"station_id":"ce4bha92rcd13ifvqeh0","pricing_plan_id":"cebpf4jnsgd1na2vs0mg"},{"bike_id":"95abc3db-257e-43e0-b89c-14c03075b7a0","system_id":"levelo_inurba_marseille","lat":43.28154,"lon":5.4265,"is_reserved":false,"is_disabled":false,"rental_uris":{"android":"levelo://app?vid=95abc3db-257e-43e0-b89c-14c03075b7a0","ios":"levelo://app?vid=95abc3db-257e-43e0-b89c-14c03075b7a0"},"vehicle_type_id":"4","last_reported":1728893610,"current_range_meters":38000,"station_id":"ce4bhnh2rcd13ifvqgug","pricing_plan_id":"cebpf4jnsgd1na2vs0mg"},{"bike_id":"e7b9e99f-6e0b-4a1f-a07f-e0c5908f8770","system_id":"levelo_inurba_marseille","lat":43.29258,"lon":5.40895,"is_reserved":false,"is_disabled":false,"rental_uris":{"android":"levelo://app?vid=e7b9e99f-6e0b-4a1f-a07f-e0c5908f8770","ios":"levelo://app?vid=e7b9e99f-6e0b-4a1f-a07f-e0c5908f8770"},"vehicle_type_id":"4","last_reported":1728893610,"current_range_meters":19600,"station_id":"ce4bh192rcd13ifvqdc0","pricing_plan_id":"cebpf4jnsgd1na2vs0mg"},{"bike_id":"c9b8e085-97a6-486d-94d9-f245cd1b0e02","system_id":"levelo_inurba_marseille","lat":43.28337,"lon":5.38114,"is_reserved":false,"is_disabled":false,"rental_uris":{"android":"levelo://app?vid=c9b8e085-97a6-486d-94d9-f245cd1b0e02","ios":"levelo://app?vid=c9b8e085-97a6-486d-94d9-f245cd1b0e02"},"vehicle_type_id":"4","last_reported":1728893610,"current_range_meters":33200,"station_id":"ce4bh412rcd13ifvqdr0","pricing_plan_id":"cebpf4jnsgd1na2vs0mg"},{"bike_id":"58821253-536d-48f0-9016-f878c99d9361","system_id":"levelo_inurba_marseille","lat":43.23064,"lon":5.35496,"is_reserved":false,"is_disabled":false,"rental_uris":{"android":"levelo://app?vid=58821253-536d-48f0-9016-f878c99d9361","ios":"levelo://app?vid=58821253-536d-48f0-9016-f878c99d9361"},"vehicle_type_id":"4","last_reported":1728893610,"current_range_meters":38400,"station_id":"cpo3342slgdg3j2ifvpg","pricing_plan_id":"cebpf4jnsgd1na2vs0mg"},{"bike_id":"a6e767d2-849c-406c-a6bc-50a70a906e59","system_id":"levelo_inurba_marseille","lat":43.25938,"lon":5.40905,"is_reserved":false,"is_disabled":false,"rental_uris":{"android":"levelo://app?vid=a6e767d2-849c-406c-a6bc-50a70a906e59","ios":"levelo://app?vid=a6e767d2-849c-406c-a6bc-50a70a906e59"},"vehicle_type_id":"4","last_reported":1728893610,"current_range_meters":24400,"station_id":"ce4bhm92rcd13ifvqglg","pricing_plan_id":"cebpf4jnsgd1na2vs0mg"},{"bike_id":"6079e7aa-0ee6-4d31-aa0e-861f57578c9f","system_id":"levelo_inurba_marseille","lat":43.28935,"lon":5.364,"is_reserved":false,"is_disabled":false,"rental_uris":{"android":"levelo://app?vid=6079e7aa-0ee6-4d31-aa0e-861f57578c9f","ios":"levelo://app?vid=6079e7aa-0ee6-4d31-aa0e-861f57578c9f"},"vehicle_type_id":"4","last_reported":1728893610,"current_range_meters":38000,"station_id":"ce4bhc92rcd13ifvqetg","pricing_plan_id":"cebpf4jnsgd1na2vs0mg"},{"bike_id":"800ef956-6cd2-43b0-b3de-ca573714f625","system_id":"levelo_inurba_marseille","lat":43.30283,"lon":5.37702,"is_reserved":false,"is_disabled":false,"rental_uris":{"android":"levelo://app?vid=800ef956-6cd2-43b0-b3de-ca573714f625","ios":"levelo://app?vid=800ef956-6cd2-43b0-b3de-ca573714f625"},"vehicle_type_id":"4","last_reported":1728893610,"current_range_meters":20800,"station_id":"ce4bguh2rcd13ifvqcj0","pricing_plan_id":"cebpf4jnsgd1na2vs0mg"},{"bike_id":"06ed47e3-f254-48ec-9ac6-6c53eb0ac057","system_id":"levelo_inurba_marseille","lat":43.31344,"lon":5.36703,"is_reserved":false,"is_disabled":false,"rental_uris":{"android":"levelo://app?vid=06ed47e3-f254-48ec-9ac6-6c53eb0ac057","ios":"levelo://app?vid=06ed47e3-f254-48ec-9ac6-6c53eb0ac057"},"vehicle_type_id":"4","last_reported":1728893610,"current_range_meters":36800,"station_id":"ce4bgr92rcd13ifvqc6g","pricing_plan_id":"cebpf4jnsgd1na2vs0mg"},{"bike_id":"ccc9b220-3948-44da-a9cb-e803316f3904","system_id":"levelo_inurba_marseille","lat":43.2847,"lon":5.38424,"is_reserved":false,"is_disabled":false,"rental_uris":{"android":"levelo://app?vid=ccc9b220-3948-44da-a9cb-e803316f3904","ios":"levelo://app?vid=ccc9b220-3948-44da-a9cb-e803316f3904"},"vehicle_type_id":"4","last_reported":1728893610,"current_range_meters":22000,"station_id":"ce4bh512rcd13ifvqe3g","pricing_plan_id":"cebpf4jnsgd1na2vs0mg"},{"bike_id":"3e50785b-f2c6-46fc-a083-53a367036c56","system_id":"levelo_inurba_marseille","lat":43.2594,"lon":5.40905,"is_reserved":false,"is_disabled":false,"rental_uris":{"android":"levelo://app?vid=3e50785b-f2c6-46fc-a083-53a367036c56","ios":"levelo://app?vid=3e50785b-f2c6-46fc-a083-53a367036c56"},"vehicle_type_id":"4","last_reported":1728893610,"current_range_meters":11600,"station_id":"ce4bhm92rcd13ifvqglg","pricing_plan_id":"cebpf4jnsgd1na2vs0mg"},{"bike_id":"898f5baf-cc4b-4f96-a7ce-ba0018ba1e0b","system_id":"levelo_inurba_marseille","lat":43.30462,"lon":5.37896,"is_reserved":false,"is_disabled":false,"rental_uris":{"android":"levelo://app?vid=898f5baf-cc4b-4f96-a7ce-ba0018ba1e0b","ios":"levelo://app?vid=898f5baf-cc4b-4f96-a7ce-ba0018ba1e0b"},"vehicle_type_id":"4","last_reported":1728893610,"current_range_meters":35600,"station_id":"ce4bgup2rcd13ifvqcn0","pricing_plan_id":"cebpf4jnsgd1na2vs0mg"},{"bike_id":"7c095d3c-604a-4602-b927-64e3a8b70e01","system_id":"levelo_inurba_marseille","lat":43.29032,"lon":5.37567,"is_reserved":false,"is_disabled":false,"rental_uris":{"android":"levelo://app?vid=7c095d3c-604a-4602-b927-64e3a8b70e01","ios":"levelo://app?vid=7c095d3c-604a-4602-b927-64e3a8b70e01"},"vehicle_type_id":"4","last_reported":1728893610,"current_range_meters":32000,"station_id":"ce4bh692rcd13ifvqe90","pricing_plan_id":"cebpf4jnsgd1na2vs0mg"},{"bike_id":"cdde71fa-933f-47ef-8a23-39142a076aea","system_id":"levelo_inurba_marseille","lat":43.29545,"lon":5.42292,"is_reserved":false,"is_disabled":false,"rental_uris":{"android":"levelo://app?vid=cdde71fa-933f-47ef-8a23-39142a076aea","ios":"levelo://app?vid=cdde71fa-933f-47ef-8a23-39142a076aea"},"vehicle_type_id":"4","last_reported":1728893610,"current_range_meters":37600,"station_id":"ce4bhph2rcd13ifvqhdg","pricing_plan_id":"cebpf4jnsgd1na2vs0mg"},{"bike_id":"aae33064-4853-4bd5-9ae9-1d2a4ee45368","system_id":"levelo_inurba_marseille","lat":43.24166,"lon":5.36402,"is_reserved":false,"is_disabled":false,"rental_uris":{"android":"levelo://app?vid=aae33064-4853-4bd5-9ae9-1d2a4ee45368","ios":"levelo://app?vid=aae33064-4853-4bd5-9ae9-1d2a4ee45368"},"vehicle_type_id":"4","last_reported":1728893610,"current_range_meters":31200,"station_id":"cpo36qri1sfpv3e86is0","pricing_plan_id":"cebpf4jnsgd1na2vs0mg"},{"bike_id":"d99eeaa0-d546-45b5-8fad-00c9b30b62e5","system_id":"levelo_inurba_marseille","lat":43.26955,"lon":5.38626,"is_reserved":false,"is_disabled":false,"rental_uris":{"android":"levelo://app?vid=d99eeaa0-d546-45b5-8fad-00c9b30b62e5","ios":"levelo://app?vid=d99eeaa0-d546-45b5-8fad-00c9b30b62e5"},"vehicle_type_id":"4","last_reported":1728893610,"current_range_meters":15200,"station_id":"ce4bhh92rcd13ifvqfh0","pricing_plan_id":"cebpf4jnsgd1na2vs0mg"},{"bike_id":"9d478290-d007-4292-bc2e-170e50b123b0","system_id":"levelo_inurba_marseille","lat":43.28701,"lon":5.37946,"is_reserved":false,"is_disabled":false,"rental_uris":{"android":"levelo://app?vid=9d478290-d007-4292-bc2e-170e50b123b0","ios":"levelo://app?vid=9d478290-d007-4292-bc2e-170e50b123b0"},"vehicle_type_id":"4","last_reported":1728893610,"current_range_meters":37600,"station_id":"ce4bh9p2rcd13ifvqec0","pricing_plan_id":"cebpf4jnsgd1na2vs0mg"},{"bike_id":"ad7809e2-24d8-4340-82ec-624870f35306","system_id":"levelo_inurba_marseille","lat":43.28466,"lon":5.38416,"is_reserved":false,"is_disabled":false,"rental_uris":{"android":"levelo://app?vid=ad7809e2-24d8-4340-82ec-624870f35306","ios":"levelo://app?vid=ad7809e2-24d8-4340-82ec-624870f35306"},"vehicle_type_id":"4","last_reported":1728893610,"current_range_meters":39200,"station_id":"ce4bh512rcd13ifvqe3g","pricing_plan_id":"cebpf4jnsgd1na2vs0mg"},{"bike_id":"ac05dece-7d7d-4c6c-a912-ad93b9210051","system_id":"levelo_inurba_marseille","lat":43.29021,"lon":5.38147,"is_reserved":false,"is_disabled":false,"rental_uris":{"android":"levelo://app?vid=ac05dece-7d7d-4c6c-a912-ad93b9210051","ios":"levelo://app?vid=ac05dece-7d7d-4c6c-a912-ad93b9210051"},"vehicle_type_id":"4","last_reported":1728893610,"current_range_meters":38400,"station_id":"ce4bh4p2rcd13ifvqe1g","pricing_plan_id":"cebpf4jnsgd1na2vs0mg"},{"bike_id":"1fae1de5-72b8-4ed4-a7db-f37b6e62933a","system_id":"levelo_inurba_marseille","lat":43.30156,"lon":5.38076,"is_reserved":false,"is_disabled":false,"rental_uris":{"android":"levelo://app?vid=1fae1de5-72b8-4ed4-a7db-f37b6e62933a","ios":"levelo://app?vid=1fae1de5-72b8-4ed4-a7db-f37b6e62933a"},"vehicle_type_id":"4","last_reported":1728893610,"current_range_meters":25600,"station_id":"ce4bgjp2rcd13ifvqbh0","pricing_plan_id":"cebpf4jnsgd1na2vs0mg"},{"bike_id":"3ebc8614-7122-4477-a27c-b50ee26fcca2","system_id":"levelo_inurba_marseille","lat":43.23195,"lon":5.35542,"is_reserved":false,"is_disabled":false,"rental_uris":{"android":"levelo://app?vid=3ebc8614-7122-4477-a27c-b50ee26fcca2","ios":"levelo://app?vid=3ebc8614-7122-4477-a27c-b50ee26fcca2"},"vehicle_type_id":"4","last_reported":1728893610,"current_range_meters":4000,"station_id":"ce4bhu92rcd13ifvqi70","pricing_plan_id":"cebpf4jnsgd1na2vs0mg"},{"bike_id":"9ce54f0f-36ec-41d6-ae7b-340cf8637579","system_id":"levelo_inurba_marseille","lat":43.24074,"lon":5.37757,"is_reserved":false,"is_disabled":false,"rental_uris":{"android":"levelo://app?vid=9ce54f0f-36ec-41d6-ae7b-340cf8637579","ios":"levelo://app?vid=9ce54f0f-36ec-41d6-ae7b-340cf8637579"},"vehicle_type_id":"4","last_reported":1728893610,"current_range_meters":37600,"station_id":"ce4bhnp2rcd13ifvqgvg","pricing_plan_id":"cebpf4jnsgd1na2vs0mg"},{"bike_id":"aad69708-28ac-43e6-945e-619f5a7c6bfd","system_id":"levelo_inurba_marseille","lat":43.33781,"lon":5.37443,"is_reserved":false,"is_disabled":false,"rental_uris":{"android":"levelo://app?vid=aad69708-28ac-43e6-945e-619f5a7c6bfd","ios":"levelo://app?vid=aad69708-28ac-43e6-945e-619f5a7c6bfd"},"vehicle_type_id":"4","last_reported":1728893610,"current_range_meters":30000,"station_id":"","pricing_plan_id":"cebpf4jnsgd1na2vs0mg"},{"bike_id":"fdd134d9-cb0c-4b9e-9621-faa0284f21aa","system_id":"levelo_inurba_marseille","lat":43.29885,"lon":5.43669,"is_reserved":false,"is_disabled":false,"rental_uris":{"android":"levelo://app?vid=fdd134d9-cb0c-4b9e-9621-faa0284f21aa","ios":"levelo://app?vid=fdd134d9-cb0c-4b9e-9621-faa0284f21aa"},"vehicle_type_id":"4","last_reported":1728893610,"current_range_meters":19200,"station_id":"ce4bhpp2rcd13ifvqhfg","pricing_plan_id":"cebpf4jnsgd1na2vs0mg"},{"bike_id":"67b30335-56ba-4658-9a0b-7ab78dc3c5aa","system_id":"levelo_inurba_marseille","lat":43.28344,"lon":5.38109,"is_reserved":false,"is_disabled":false,"rental_uris":{"android":"levelo://app?vid=67b30335-56ba-4658-9a0b-7ab78dc3c5aa","ios":"levelo://app?vid=67b30335-56ba-4658-9a0b-7ab78dc3c5aa"},"vehicle_type_id":"4","last_reported":1728893610,"current_range_meters":29600,"station_id":"ce4bh412rcd13ifvqdr0","pricing_plan_id":"cebpf4jnsgd1na2vs0mg"},{"bike_id":"907ae5c4-f8bb-4b81-97b9-61c59e4f9646","system_id":"levelo_inurba_marseille","lat":43.30137,"lon":5.37419,"is_reserved":false,"is_disabled":false,"rental_uris":{"android":"levelo://app?vid=907ae5c4-f8bb-4b81-97b9-61c59e4f9646","ios":"levelo://app?vid=907ae5c4-f8bb-4b81-97b9-61c59e4f9646"},"vehicle_type_id":"4","last_reported":1728893610,"current_range_meters":32000,"station_id":"ce4bgs92rcd13ifvqcc0","pricing_plan_id":"cebpf4jnsgd1na2vs0mg"},{"bike_id":"97d9b1ee-016f-45a3-b10f-34f67712cf20","system_id":"levelo_inurba_marseille","lat":43.28473,"lon":5.38418,"is_reserved":false,"is_disabled":false,"rental_uris":{"android":"levelo://app?vid=97d9b1ee-016f-45a3-b10f-34f67712cf20","ios":"levelo://app?vid=97d9b1ee-016f-45a3-b10f-34f67712cf20"},"vehicle_type_id":"4","last_reported":1728893610,"current_range_meters":3200,"station_id":"ce4bh512rcd13ifvqe3g","pricing_plan_id":"cebpf4jnsgd1na2vs0mg"},{"bike_id":"35983d65-e7a5-415a-b102-7f0aac4b39f7","system_id":"levelo_inurba_marseille","lat":43.23191,"lon":5.35554,"is_reserved":false,"is_disabled":false,"rental_uris":{"android":"levelo://app?vid=35983d65-e7a5-415a-b102-7f0aac4b39f7","ios":"levelo://app?vid=35983d65-e7a5-415a-b102-7f0aac4b39f7"},"vehicle_type_id":"4","last_reported":1728893610,"current_range_meters":38000,"station_id":"ce4bhu92rcd13ifvqi70","pricing_plan_id":"cebpf4jnsgd1na2vs0mg"},{"bike_id":"fbf8f96e-37e8-4cc8-8c5a-7774cae603e1","system_id":"levelo_inurba_marseille","lat":43.24996,"lon":5.38939,"is_reserved":false,"is_disabled":false,"rental_uris":{"android":"levelo://app?vid=fbf8f96e-37e8-4cc8-8c5a-7774cae603e1","ios":"levelo://app?vid=fbf8f96e-37e8-4cc8-8c5a-7774cae603e1"},"vehicle_type_id":"4","last_reported":1728893610,"current_range_meters":26000,"station_id":"ce4bhgp2rcd13ifvqfd0","pricing_plan_id":"cebpf4jnsgd1na2vs0mg"},{"bike_id":"85811681-5063-4b00-ac7e-34bf992e363d","system_id":"levelo_inurba_marseille","lat":43.31223,"lon":5.36853,"is_reserved":false,"is_disabled":false,"rental_uris":{"android":"levelo://app?vid=85811681-5063-4b00-ac7e-34bf992e363d","ios":"levelo://app?vid=85811681-5063-4b00-ac7e-34bf992e363d"},"vehicle_type_id":"4","last_reported":1728893610,"current_range_meters":21600,"station_id":"ce4bgl92rcd13ifvqbq0","pricing_plan_id":"cebpf4jnsgd1na2vs0mg"},{"bike_id":"f6d92f87-4f4a-4b60-9286-0e1a98763458","system_id":"levelo_inurba_marseille","lat":43.26926,"lon":5.38927,"is_reserved":false,"is_disabled":false,"rental_uris":{"android":"levelo://app?vid=f6d92f87-4f4a-4b60-9286-0e1a98763458","ios":"levelo://app?vid=f6d92f87-4f4a-4b60-9286-0e1a98763458"},"vehicle_type_id":"4","last_reported":1728893610,"current_range_meters":31200,"station_id":"ce4bhhh2rcd13ifvqfl0","pricing_plan_id":"cebpf4jnsgd1na2vs0mg"},{"bike_id":"81b3b8c9-fa1b-49bf-8d7b-5c4711bbdedb","system_id":"levelo_inurba_marseille","lat":43.30189,"lon":5.36627,"is_reserved":false,"is_disabled":false,"rental_uris":{"android":"levelo://app?vid=81b3b8c9-fa1b-49bf-8d7b-5c4711bbdedb","ios":"levelo://app?vid=81b3b8c9-fa1b-49bf-8d7b-5c4711bbdedb"},"vehicle_type_id":"4","last_reported":1728893610,"current_range_meters":38800,"station_id":"ce4bgrh2rcd13ifvqc8g","pricing_plan_id":"cebpf4jnsgd1na2vs0mg"},{"bike_id":"96ca8c9d-9fd7-4c44-a7b9-2b71a35fc9ee","system_id":"levelo_inurba_marseille","lat":43.24082,"lon":5.37749,"is_reserved":false,"is_disabled":false,"rental_uris":{"android":"levelo://app?vid=96ca8c9d-9fd7-4c44-a7b9-2b71a35fc9ee","ios":"levelo://app?vid=96ca8c9d-9fd7-4c44-a7b9-2b71a35fc9ee"},"vehicle_type_id":"4","last_reported":1728893610,"current_range_meters":25200,"station_id":"ce4bhnp2rcd13ifvqgvg","pricing_plan_id":"cebpf4jnsgd1na2vs0mg"},{"bike_id":"0dc3add9-fe26-40c9-b54e-20a910626574","system_id":"levelo_inurba_marseille","lat":43.29904,"lon":5.38142,"is_reserved":false,"is_disabled":false,"rental_uris":{"android":"levelo://app?vid=0dc3add9-fe26-40c9-b54e-20a910626574","ios":"levelo://app?vid=0dc3add9-fe26-40c9-b54e-20a910626574"},"vehicle_type_id":"4","last_reported":1728893610,"current_range_meters":30400,"station_id":"ce4bgj12rcd13ifvqbc0","pricing_plan_id":"cebpf4jnsgd1na2vs0mg"},{"bike_id":"27311a75-ebb6-43d6-9fb5-f3ba72a10e0e","system_id":"levelo_inurba_marseille","lat":43.29907,"lon":5.43666,"is_reserved":false,"is_disabled":false,"rental_uris":{"android":"levelo://app?vid=27311a75-ebb6-43d6-9fb5-f3ba72a10e0e","ios":"levelo://app?vid=27311a75-ebb6-43d6-9fb5-f3ba72a10e0e"},"vehicle_type_id":"4","last_reported":1728893610,"current_range_meters":16400,"station_id":"ce4bhpp2rcd13ifvqhfg","pricing_plan_id":"cebpf4jnsgd1na2vs0mg"},{"bike_id":"b6d47b23-68c4-4884-8c06-b81847241fb4","system_id":"levelo_inurba_marseille","lat":43.30457,"lon":5.3791,"is_reserved":false,"is_disabled":false,"rental_uris":{"android":"levelo://app?vid=b6d47b23-68c4-4884-8c06-b81847241fb4","ios":"levelo://app?vid=b6d47b23-68c4-4884-8c06-b81847241fb4"},"vehicle_type_id":"4","last_reported":1728893610,"current_range_meters":19600,"station_id":"ce4bgup2rcd13ifvqcn0","pricing_plan_id":"cebpf4jnsgd1na2vs0mg"},{"bike_id":"af9bfe3d-4e6f-4aa2-b0e8-1662d2b85532","system_id":"levelo_inurba_marseille","lat":43.28615,"lon":5.351,"is_reserved":false,"is_disabled":false,"rental_uris":{"android":"levelo://app?vid=af9bfe3d-4e6f-4aa2-b0e8-1662d2b85532","ios":"levelo://app?vid=af9bfe3d-4e6f-4aa2-b0e8-1662d2b85532"},"vehicle_type_id":"4","last_reported":1728893610,"current_range_meters":30000,"station_id":"ce4bhch2rcd13ifvqeug","pricing_plan_id":"cebpf4jnsgd1na2vs0mg"},{"bike_id":"6f55c53c-3800-44ae-a1cf-bc5df1af9b39","system_id":"levelo_inurba_marseille","lat":43.30542,"lon":5.36704,"is_reserved":false,"is_disabled":false,"rental_uris":{"android":"levelo://app?vid=6f55c53c-3800-44ae-a1cf-bc5df1af9b39","ios":"levelo://app?vid=6f55c53c-3800-44ae-a1cf-bc5df1af9b39"},"vehicle_type_id":"4","last_reported":1728893610,"current_range_meters":30000,"station_id":"ce4bgrp2rcd13ifvqc9g","pricing_plan_id":"cebpf4jnsgd1na2vs0mg"},{"bike_id":"674a2a28-cf85-4d95-a619-930b81cfd421","system_id":"levelo_inurba_marseille","lat":43.23155,"lon":5.43696,"is_reserved":false,"is_disabled":false,"rental_uris":{"android":"levelo://app?vid=674a2a28-cf85-4d95-a619-930b81cfd421","ios":"levelo://app?vid=674a2a28-cf85-4d95-a619-930b81cfd421"},"vehicle_type_id":"4","last_reported":1728893610,"current_range_meters":25600,"station_id":"ce4bhmp2rcd13ifvqgog","pricing_plan_id":"cebpf4jnsgd1na2vs0mg"},{"bike_id":"10ee5302-5829-4c30-bc56-d6d7c823b3f5","system_id":"levelo_inurba_marseille","lat":43.29802,"lon":5.381,"is_reserved":false,"is_disabled":false,"rental_uris":{"android":"levelo://app?vid=10ee5302-5829-4c30-bc56-d6d7c823b3f5","ios":"levelo://app?vid=10ee5302-5829-4c30-bc56-d6d7c823b3f5"},"vehicle_type_id":"4","last_reported":1728893610,"current_range_meters":33200,"station_id":"ce4bgpp2rcd13ifvqc3g","pricing_plan_id":"cebpf4jnsgd1na2vs0mg"},{"bike_id":"ff87e7d1-4644-494b-b06a-b0d48b4857c4","system_id":"levelo_inurba_marseille","lat":43.26193,"lon":5.37449,"is_reserved":false,"is_disabled":false,"rental_uris":{"android":"levelo://app?vid=ff87e7d1-4644-494b-b06a-b0d48b4857c4","ios":"levelo://app?vid=ff87e7d1-4644-494b-b06a-b0d48b4857c4"},"vehicle_type_id":"4","last_reported":1728893610,"current_range_meters":22400,"station_id":"ce4bhgp2rcd13ifvqfc0","pricing_plan_id":"cebpf4jnsgd1na2vs0mg"},{"bike_id":"551a20ed-cb9d-4a60-adf6-4348d5c063e9","system_id":"levelo_inurba_marseille","lat":43.23153,"lon":5.43707,"is_reserved":false,"is_disabled":false,"rental_uris":{"android":"levelo://app?vid=551a20ed-cb9d-4a60-adf6-4348d5c063e9","ios":"levelo://app?vid=551a20ed-cb9d-4a60-adf6-4348d5c063e9"},"vehicle_type_id":"4","last_reported":1728893610,"current_range_meters":16800,"station_id":"ce4bhmp2rcd13ifvqgog","pricing_plan_id":"cebpf4jnsgd1na2vs0mg"},{"bike_id":"87e5b82b-1978-49bf-92bf-413ec779c074","system_id":"levelo_inurba_marseille","lat":43.30187,"lon":5.36621,"is_reserved":false,"is_disabled":false,"rental_uris":{"android":"levelo://app?vid=87e5b82b-1978-49bf-92bf-413ec779c074","ios":"levelo://app?vid=87e5b82b-1978-49bf-92bf-413ec779c074"},"vehicle_type_id":"4","last_reported":1728893610,"current_range_meters":27600,"station_id":"ce4bgrh2rcd13ifvqc8g","pricing_plan_id":"cebpf4jnsgd1na2vs0mg"},{"bike_id":"f73ab343-f51f-46df-a597-833fbff9f106","system_id":"levelo_inurba_marseille","lat":43.297113,"lon":5.376548,"is_reserved":false,"is_disabled":false,"rental_uris":{"android":"levelo://app?vid=f73ab343-f51f-46df-a597-833fbff9f106","ios":"levelo://app?vid=f73ab343-f51f-46df-a597-833fbff9f106"},"vehicle_type_id":"4","last_reported":1728893610,"current_range_meters":28800,"station_id":"ce4bgkh2rcd13ifvqbl0","pricing_plan_id":"cebpf4jnsgd1na2vs0mg"},{"bike_id":"adb8b798-366e-4229-a12c-f4dea4d23dc5","system_id":"levelo_inurba_marseille","lat":43.2408,"lon":5.37751,"is_reserved":false,"is_disabled":false,"rental_uris":{"android":"levelo://app?vid=adb8b798-366e-4229-a12c-f4dea4d23dc5","ios":"levelo://app?vid=adb8b798-366e-4229-a12c-f4dea4d23dc5"},"vehicle_type_id":"4","last_reported":1728893610,"current_range_meters":30000,"station_id":"ce4bhnp2rcd13ifvqgvg","pricing_plan_id":"cebpf4jnsgd1na2vs0mg"},{"bike_id":"03412e9f-e5af-44a8-940e-a098b1ec2875","system_id":"levelo_inurba_marseille","lat":43.22936,"lon":5.35378,"is_reserved":false,"is_disabled":false,"rental_uris":{"android":"levelo://app?vid=03412e9f-e5af-44a8-940e-a098b1ec2875","ios":"levelo://app?vid=03412e9f-e5af-44a8-940e-a098b1ec2875"},"vehicle_type_id":"4","last_reported":1728893610,"current_range_meters":36800,"station_id":"cpo3532slgdg3j2ikp40","pricing_plan_id":"cebpf4jnsgd1na2vs0mg"},{"bike_id":"2514c3e8-0adf-47af-b777-02db04bae87e","system_id":"levelo_inurba_marseille","lat":43.28608,"lon":5.37063,"is_reserved":false,"is_disabled":false,"rental_uris":{"android":"levelo://app?vid=2514c3e8-0adf-47af-b777-02db04bae87e","ios":"levelo://app?vid=2514c3e8-0adf-47af-b777-02db04bae87e"},"vehicle_type_id":"4","last_reported":1728893610,"current_range_meters":38800,"station_id":"ce4bht12rcd13ifvqi60","pricing_plan_id":"cebpf4jnsgd1na2vs0mg"},{"bike_id":"7c16713e-cd49-4e41-bd0c-15d05c99867a","system_id":"levelo_inurba_marseille","lat":43.29424,"lon":5.38605,"is_reserved":false,"is_disabled":false,"rental_uris":{"android":"levelo://app?vid=7c16713e-cd49-4e41-bd0c-15d05c99867a","ios":"levelo://app?vid=7c16713e-cd49-4e41-bd0c-15d05c99867a"},"vehicle_type_id":"4","last_reported":1728893610,"current_range_meters":24000,"station_id":"ce4bh2h2rcd13ifvqdh0","pricing_plan_id":"cebpf4jnsgd1na2vs0mg"},{"bike_id":"c41c8497-36db-4779-a2b0-2199784e604c","system_id":"levelo_inurba_marseille","lat":43.27811,"lon":5.40716,"is_reserved":false,"is_disabled":false,"rental_uris":{"android":"levelo://app?vid=c41c8497-36db-4779-a2b0-2199784e604c","ios":"levelo://app?vid=c41c8497-36db-4779-a2b0-2199784e604c"},"vehicle_type_id":"4","last_reported":1728893610,"current_range_meters":38000,"station_id":"ce4bhnh2rcd13ifvqgtg","pricing_plan_id":"cebpf4jnsgd1na2vs0mg"},{"bike_id":"5d76c7d2-8dda-4754-ad37-53cce9e36808","system_id":"levelo_inurba_marseille","lat":43.23193,"lon":5.35554,"is_reserved":false,"is_disabled":false,"rental_uris":{"android":"levelo://app?vid=5d76c7d2-8dda-4754-ad37-53cce9e36808","ios":"levelo://app?vid=5d76c7d2-8dda-4754-ad37-53cce9e36808"},"vehicle_type_id":"4","last_reported":1728893610,"current_range_meters":30400,"station_id":"ce4bhu92rcd13ifvqi70","pricing_plan_id":"cebpf4jnsgd1na2vs0mg"},{"bike_id":"ee54d476-e3f6-4adb-aa2b-c798fa48a59c","system_id":"levelo_inurba_marseille","lat":43.301239,"lon":5.387815,"is_reserved":false,"is_disabled":false,"rental_uris":{"android":"levelo://app?vid=ee54d476-e3f6-4adb-aa2b-c798fa48a59c","ios":"levelo://app?vid=ee54d476-e3f6-4adb-aa2b-c798fa48a59c"},"vehicle_type_id":"4","last_reported":1728893610,"current_range_meters":6800,"station_id":"ce4bgn92rcd13ifvqbvg","pricing_plan_id":"cebpf4jnsgd1na2vs0mg"},{"bike_id":"fe150026-f4f6-4abf-984c-49418ef22c3e","system_id":"levelo_inurba_marseille","lat":43.310899,"lon":5.369001,"is_reserved":false,"is_disabled":false,"rental_uris":{"android":"levelo://app?vid=fe150026-f4f6-4abf-984c-49418ef22c3e","ios":"levelo://app?vid=fe150026-f4f6-4abf-984c-49418ef22c3e"},"vehicle_type_id":"4","last_reported":1728893610,"current_range_meters":35600,"station_id":"ce4bgl92rcd13ifvqbq0","pricing_plan_id":"cebpf4jnsgd1na2vs0mg"},{"bike_id":"cba59919-95e6-42ff-83c9-6bcf45674d60","system_id":"levelo_inurba_marseille","lat":43.32336,"lon":5.38328,"is_reserved":false,"is_disabled":false,"rental_uris":{"android":"levelo://app?vid=cba59919-95e6-42ff-83c9-6bcf45674d60","ios":"levelo://app?vid=cba59919-95e6-42ff-83c9-6bcf45674d60"},"vehicle_type_id":"4","last_reported":1728893610,"current_range_meters":36000,"station_id":"","pricing_plan_id":"cebpf4jnsgd1na2vs0mg"},{"bike_id":"5a7c14cf-d9e8-4438-9d95-0ed41aab5b10","system_id":"levelo_inurba_marseille","lat":43.284697,"lon":5.384131,"is_reserved":false,"is_disabled":false,"rental_uris":{"android":"levelo://app?vid=5a7c14cf-d9e8-4438-9d95-0ed41aab5b10","ios":"levelo://app?vid=5a7c14cf-d9e8-4438-9d95-0ed41aab5b10"},"vehicle_type_id":"4","last_reported":1728893610,"current_range_meters":30000,"station_id":"ce4bh512rcd13ifvqe3g","pricing_plan_id":"cebpf4jnsgd1na2vs0mg"},{"bike_id":"85562e0c-6e65-40ec-82d1-2f4aa69e9a86","system_id":"levelo_inurba_marseille","lat":43.23156,"lon":5.43699,"is_reserved":false,"is_disabled":false,"rental_uris":{"android":"levelo://app?vid=85562e0c-6e65-40ec-82d1-2f4aa69e9a86","ios":"levelo://app?vid=85562e0c-6e65-40ec-82d1-2f4aa69e9a86"},"vehicle_type_id":"4","last_reported":1728893610,"current_range_meters":14800,"station_id":"ce4bhmp2rcd13ifvqgog","pricing_plan_id":"cebpf4jnsgd1na2vs0mg"},{"bike_id":"92a29d71-48b4-4930-9f60-84bf16af29a6","system_id":"levelo_inurba_marseille","lat":43.26027,"lon":5.37548,"is_reserved":false,"is_disabled":false,"rental_uris":{"android":"levelo://app?vid=92a29d71-48b4-4930-9f60-84bf16af29a6","ios":"levelo://app?vid=92a29d71-48b4-4930-9f60-84bf16af29a6"},"vehicle_type_id":"4","last_reported":1728893610,"current_range_meters":33200,"station_id":"ce4bhgh2rcd13ifvqfa0","pricing_plan_id":"cebpf4jnsgd1na2vs0mg"},{"bike_id":"7100a5fa-27f9-4182-bc1d-c52b2fb27ec9","system_id":"levelo_inurba_marseille","lat":43.313464,"lon":5.367306,"is_reserved":false,"is_disabled":false,"rental_uris":{"android":"levelo://app?vid=7100a5fa-27f9-4182-bc1d-c52b2fb27ec9","ios":"levelo://app?vid=7100a5fa-27f9-4182-bc1d-c52b2fb27ec9"},"vehicle_type_id":"4","last_reported":1728893610,"current_range_meters":6400,"station_id":"ce4bgr92rcd13ifvqc6g","pricing_plan_id":"cebpf4jnsgd1na2vs0mg"},{"bike_id":"2d39ff36-ddbb-4f9b-a33e-25f5444d14c0","system_id":"levelo_inurba_marseille","lat":43.28342,"lon":5.38109,"is_reserved":false,"is_disabled":false,"rental_uris":{"android":"levelo://app?vid=2d39ff36-ddbb-4f9b-a33e-25f5444d14c0","ios":"levelo://app?vid=2d39ff36-ddbb-4f9b-a33e-25f5444d14c0"},"vehicle_type_id":"4","last_reported":1728893610,"current_range_meters":32400,"station_id":"ce4bh412rcd13ifvqdr0","pricing_plan_id":"cebpf4jnsgd1na2vs0mg"},{"bike_id":"fff1b94f-1529-479d-84a1-1c0c949b8b28","system_id":"levelo_inurba_marseille","lat":43.30561,"lon":5.36555,"is_reserved":false,"is_disabled":false,"rental_uris":{"android":"levelo://app?vid=fff1b94f-1529-479d-84a1-1c0c949b8b28","ios":"levelo://app?vid=fff1b94f-1529-479d-84a1-1c0c949b8b28"},"vehicle_type_id":"4","last_reported":1728893610,"current_range_meters":37600,"station_id":"ce4bgs12rcd13ifvqcag","pricing_plan_id":"cebpf4jnsgd1na2vs0mg"},{"bike_id":"a467464a-3cf2-4a0d-b34d-eb155a9ba689","system_id":"levelo_inurba_marseille","lat":43.30549,"lon":5.36547,"is_reserved":false,"is_disabled":false,"rental_uris":{"android":"levelo://app?vid=a467464a-3cf2-4a0d-b34d-eb155a9ba689","ios":"levelo://app?vid=a467464a-3cf2-4a0d-b34d-eb155a9ba689"},"vehicle_type_id":"4","last_reported":1728893610,"current_range_meters":30400,"station_id":"ce4bgs12rcd13ifvqcag","pricing_plan_id":"cebpf4jnsgd1na2vs0mg"},{"bike_id":"620cbee8-c89a-4c1c-96e3-c5d8933cdf50","system_id":"levelo_inurba_marseille","lat":43.33737,"lon":5.37462,"is_reserved":false,"is_disabled":false,"rental_uris":{"android":"levelo://app?vid=620cbee8-c89a-4c1c-96e3-c5d8933cdf50","ios":"levelo://app?vid=620cbee8-c89a-4c1c-96e3-c5d8933cdf50"},"vehicle_type_id":"4","last_reported":1728893610,"current_range_meters":38000,"station_id":"","pricing_plan_id":"cebpf4jnsgd1na2vs0mg"},{"bike_id":"f2753e99-1f0b-4156-8a86-90fa48a48929","system_id":"levelo_inurba_marseille","lat":43.25931,"lon":5.40915,"is_reserved":false,"is_disabled":false,"rental_uris":{"android":"levelo://app?vid=f2753e99-1f0b-4156-8a86-90fa48a48929","ios":"levelo://app?vid=f2753e99-1f0b-4156-8a86-90fa48a48929"},"vehicle_type_id":"4","last_reported":1728893610,"current_range_meters":30800,"station_id":"ce4bhm92rcd13ifvqglg","pricing_plan_id":"cebpf4jnsgd1na2vs0mg"},{"bike_id":"42b72ef4-c523-460e-9e62-7d015f7163e6","system_id":"levelo_inurba_marseille","lat":43.30077,"lon":5.39085,"is_reserved":false,"is_disabled":false,"rental_uris":{"android":"levelo://app?vid=42b72ef4-c523-460e-9e62-7d015f7163e6","ios":"levelo://app?vid=42b72ef4-c523-460e-9e62-7d015f7163e6"},"vehicle_type_id":"4","last_reported":1728893610,"current_range_meters":32400,"station_id":"ce4bh192rcd13ifvqdb0","pricing_plan_id":"cebpf4jnsgd1na2vs0mg"},{"bike_id":"863511eb-36e4-4567-89d1-e1f3149b3364","system_id":"levelo_inurba_marseille","lat":43.2655,"lon":5.37287,"is_reserved":false,"is_disabled":false,"rental_uris":{"android":"levelo://app?vid=863511eb-36e4-4567-89d1-e1f3149b3364","ios":"levelo://app?vid=863511eb-36e4-4567-89d1-e1f3149b3364"},"vehicle_type_id":"4","last_reported":1728893610,"current_range_meters":38400,"station_id":"ce4bhg12rcd13ifvqf70","pricing_plan_id":"cebpf4jnsgd1na2vs0mg"},{"bike_id":"0c756728-6de6-4eda-b81c-6a462a672ef1","system_id":"levelo_inurba_marseille","lat":43.30531,"lon":5.36713,"is_reserved":false,"is_disabled":false,"rental_uris":{"android":"levelo://app?vid=0c756728-6de6-4eda-b81c-6a462a672ef1","ios":"levelo://app?vid=0c756728-6de6-4eda-b81c-6a462a672ef1"},"vehicle_type_id":"4","last_reported":1728893610,"current_range_meters":24400,"station_id":"ce4bgrp2rcd13ifvqc9g","pricing_plan_id":"cebpf4jnsgd1na2vs0mg"},{"bike_id":"564d1a79-c340-4476-a96a-6e84e6e7123c","system_id":"levelo_inurba_marseille","lat":43.27054,"lon":5.40257,"is_reserved":false,"is_disabled":false,"rental_uris":{"android":"levelo://app?vid=564d1a79-c340-4476-a96a-6e84e6e7123c","ios":"levelo://app?vid=564d1a79-c340-4476-a96a-6e84e6e7123c"},"vehicle_type_id":"4","last_reported":1728893610,"current_range_meters":25600,"station_id":"ce4bhk92rcd13ifvqgc0","pricing_plan_id":"cebpf4jnsgd1na2vs0mg"},{"bike_id":"7bcfe036-de34-4f14-b49c-b46baa36e325","system_id":"levelo_inurba_marseille","lat":43.3028,"lon":5.37698,"is_reserved":false,"is_disabled":false,"rental_uris":{"android":"levelo://app?vid=7bcfe036-de34-4f14-b49c-b46baa36e325","ios":"levelo://app?vid=7bcfe036-de34-4f14-b49c-b46baa36e325"},"vehicle_type_id":"4","last_reported":1728893610,"current_range_meters":27600,"station_id":"ce4bguh2rcd13ifvqcj0","pricing_plan_id":"cebpf4jnsgd1na2vs0mg"},{"bike_id":"dae4a4c6-add2-4a8e-a168-e570d01c84f8","system_id":"levelo_inurba_marseille","lat":43.24074,"lon":5.37761,"is_reserved":false,"is_disabled":false,"rental_uris":{"android":"levelo://app?vid=dae4a4c6-add2-4a8e-a168-e570d01c84f8","ios":"levelo://app?vid=dae4a4c6-add2-4a8e-a168-e570d01c84f8"},"vehicle_type_id":"4","last_reported":1728893610,"current_range_meters":26000,"station_id":"ce4bhnp2rcd13ifvqgvg","pricing_plan_id":"cebpf4jnsgd1na2vs0mg"},{"bike_id":"b56fb0a5-c977-4f98-a273-ee65be9e2a09","system_id":"levelo_inurba_marseille","lat":43.29592,"lon":5.38102,"is_reserved":false,"is_disabled":false,"rental_uris":{"android":"levelo://app?vid=b56fb0a5-c977-4f98-a273-ee65be9e2a09","ios":"levelo://app?vid=b56fb0a5-c977-4f98-a273-ee65be9e2a09"},"vehicle_type_id":"4","last_reported":1728893610,"current_range_meters":32400,"station_id":"ce4bgl12rcd13ifvqbo0","pricing_plan_id":"cebpf4jnsgd1na2vs0mg"},{"bike_id":"efaa7c01-d8b1-4de3-80ff-71204e6b89c4","system_id":"levelo_inurba_marseille","lat":43.2407,"lon":5.3776,"is_reserved":false,"is_disabled":false,"rental_uris":{"android":"levelo://app?vid=efaa7c01-d8b1-4de3-80ff-71204e6b89c4","ios":"levelo://app?vid=efaa7c01-d8b1-4de3-80ff-71204e6b89c4"},"vehicle_type_id":"4","last_reported":1728893610,"current_range_meters":39200,"station_id":"ce4bhnp2rcd13ifvqgvg","pricing_plan_id":"cebpf4jnsgd1na2vs0mg"},{"bike_id":"6f8f1038-5a5d-4e33-9151-c35f55708cbb","system_id":"levelo_inurba_marseille","lat":43.33604,"lon":5.41027,"is_reserved":false,"is_disabled":false,"rental_uris":{"android":"levelo://app?vid=6f8f1038-5a5d-4e33-9151-c35f55708cbb","ios":"levelo://app?vid=6f8f1038-5a5d-4e33-9151-c35f55708cbb"},"vehicle_type_id":"4","last_reported":1728893610,"current_range_meters":39200,"station_id":"ce4bhqh2rcd13ifvqhmg","pricing_plan_id":"cebpf4jnsgd1na2vs0mg"},{"bike_id":"d278b9a8-d97d-46c0-8751-d84974379b18","system_id":"levelo_inurba_marseille","lat":43.28866,"lon":5.35835,"is_reserved":false,"is_disabled":false,"rental_uris":{"android":"levelo://app?vid=d278b9a8-d97d-46c0-8751-d84974379b18","ios":"levelo://app?vid=d278b9a8-d97d-46c0-8751-d84974379b18"},"vehicle_type_id":"4","last_reported":1728893610,"current_range_meters":2000,"station_id":"ce4bhb12rcd13ifvqem0","pricing_plan_id":"cebpf4jnsgd1na2vs0mg"},{"bike_id":"9b476f38-ea7b-4a13-aff1-cbfc07d46bea","system_id":"levelo_inurba_marseille","lat":43.24073,"lon":5.37764,"is_reserved":false,"is_disabled":false,"rental_uris":{"android":"levelo://app?vid=9b476f38-ea7b-4a13-aff1-cbfc07d46bea","ios":"levelo://app?vid=9b476f38-ea7b-4a13-aff1-cbfc07d46bea"},"vehicle_type_id":"4","last_reported":1728893610,"current_range_meters":28400,"station_id":"ce4bhnp2rcd13ifvqgvg","pricing_plan_id":"cebpf4jnsgd1na2vs0mg"},{"bike_id":"310c580c-81aa-47f8-affb-af34652cd9f9","system_id":"levelo_inurba_marseille","lat":43.261987,"lon":5.379273,"is_reserved":false,"is_disabled":false,"rental_uris":{"android":"levelo://app?vid=310c580c-81aa-47f8-affb-af34652cd9f9","ios":"levelo://app?vid=310c580c-81aa-47f8-affb-af34652cd9f9"},"vehicle_type_id":"4","last_reported":1728893610,"current_range_meters":39200,"station_id":"ce4bhjp2rcd13ifvqg90","pricing_plan_id":"cebpf4jnsgd1na2vs0mg"},{"bike_id":"5f6b7b31-0958-42fc-9a31-083314cc7b77","system_id":"levelo_inurba_marseille","lat":43.31225,"lon":5.36865,"is_reserved":false,"is_disabled":false,"rental_uris":{"android":"levelo://app?vid=5f6b7b31-0958-42fc-9a31-083314cc7b77","ios":"levelo://app?vid=5f6b7b31-0958-42fc-9a31-083314cc7b77"},"vehicle_type_id":"4","last_reported":1728893610,"current_range_meters":39200,"station_id":"ce4bgl92rcd13ifvqbq0","pricing_plan_id":"cebpf4jnsgd1na2vs0mg"},{"bike_id":"776f638b-1317-430e-ab85-eb9911079d1c","system_id":"levelo_inurba_marseille","lat":43.26688,"lon":5.38276,"is_reserved":false,"is_disabled":false,"rental_uris":{"android":"levelo://app?vid=776f638b-1317-430e-ab85-eb9911079d1c","ios":"levelo://app?vid=776f638b-1317-430e-ab85-eb9911079d1c"},"vehicle_type_id":"4","last_reported":1728893610,"current_range_meters":10800,"station_id":"ce4bhg92rcd13ifvqf90","pricing_plan_id":"cebpf4jnsgd1na2vs0mg"},{"bike_id":"5ad6421c-ea76-4db8-b59c-5833e24039d4","system_id":"levelo_inurba_marseille","lat":43.2707,"lon":5.42275,"is_reserved":false,"is_disabled":false,"rental_uris":{"android":"levelo://app?vid=5ad6421c-ea76-4db8-b59c-5833e24039d4","ios":"levelo://app?vid=5ad6421c-ea76-4db8-b59c-5833e24039d4"},"vehicle_type_id":"4","last_reported":1728893610,"current_range_meters":37600,"station_id":"ce4bhk92rcd13ifvqgb0","pricing_plan_id":"cebpf4jnsgd1na2vs0mg"},{"bike_id":"1f96e6d9-8ac5-4b58-8505-ccb19b132f74","system_id":"levelo_inurba_marseille","lat":43.34145,"lon":5.40898,"is_reserved":false,"is_disabled":false,"rental_uris":{"android":"levelo://app?vid=1f96e6d9-8ac5-4b58-8505-ccb19b132f74","ios":"levelo://app?vid=1f96e6d9-8ac5-4b58-8505-ccb19b132f74"},"vehicle_type_id":"4","last_reported":1728893610,"current_range_meters":38000,"station_id":"ce4bhqh2rcd13ifvqhlg","pricing_plan_id":"cebpf4jnsgd1na2vs0mg"},