{"last_updated":1716145543,"ttl":30,"version":"2.2","data":{"bikes":[{"bike_id":"5f7de0fb-94bd-4a66-8a32-648b386096f7","system_id":"levelo_inurba_marseille","lat":43.31341,"lon":5.367098,"is_reserved":false,"is_disabled":false,"rental_uris":{"android":"levelo://app?vid=5f7de0fb-94bd-4a66-8a32-648b386096f7","ios":"levelo://app?vid=5f7de0fb-94bd-4a66-8a32-648b386096f7"},"vehicle_type_id":"4","last_reported":1716145543,"current_range_meters":15600,"station_id":"ce4bgr92rcd13ifvqc6g","pricing_plan_id":"cebpf4jnsgd1na2vs0mg"},{"bike_id":"49e76ac1-81c7-4b96-9c87-9b19c91efacb","system_id":"levelo_inurba_marseille","lat":43.313531,"lon":5.366984,"is_reserved":false,"is_disabled":false,"rental_uris":{"android":"levelo://app?vid=49e76ac1-81c7-4b96-9c87-9b19c91efacb","ios":"levelo://app?vid=49e76ac1-81c7-4b96-9c87-9b19c91efacb"},"vehicle_type_id":"4","last_reported":1716145543,"current_range_meters":15200,"station_id":"ce4bgr92rcd13ifvqc6g","pricing_plan_id":"cebpf4jnsgd1na2vs0mg"},{"bike_id":"1d7b9a73-dee5-4d9d-8096-0e216f39018f","system_id":"levelo_inurba_marseille","lat":43.3136,"lon":5.36693,"is_reserved":false,"is_disabled":false,"rental_uris":{"android":"levelo://app?vid=1d7b9a73-dee5-4d9d-8096-0e216f39018f","ios":"levelo://app?vid=1d7b9a73-dee5-4d9d-8096-0e216f39018f"},"vehicle_type_id":"4","last_reported":1716145543,"current_range_meters":0,"station_id":"ce4bgr92rcd13ifvqc6g","pricing_plan_id":"cebpf4jnsgd1na2vs0mg"},{"bike_id":"b3609052-8c0e-4046-9331-758a59473286","system_id":"levelo_inurba_marseille","lat":43.30899,"lon":5.36848,"is_reserved":false,"is_disabled":false,"rental_uris":{"android":"levelo://app?vid=b3609052-8c0e-4046-9331-758a59473286","ios":"levelo://app?vid=b3609052-8c0e-4046-9331-758a59473286"},"vehicle_type_id":"4","last_reported":1716145543,"current_range_meters":30000,"station_id":"ce4bgn92rcd13ifvqbvg","pricing_plan_id":"cebpf4jnsgd1na2vs0mg"},{"bike_id":"afab2cc5-130e-4bbc-976b-ed8f91749591","system_id":"levelo_inurba_marseille","lat":43.30943,"lon":5.37094,"is_reserved":false,"is_disabled":false,"rental_uris":{"android":"levelo://app?vid=afab2cc5-130e-4bbc-976b-ed8f91749591","ios":"levelo://app?vid=afab2cc5-130e-4bbc-976b-ed8f91749591"},"vehicle_type_id":"4","last_reported":1716145543,"current_range_meters":13600,"station_id":"","pricing_plan_id":"cebpf4jnsgd1na2vs0mg"},{"bike_id":"a6ae78ff-4cf0-44c1-9a8a-5cb54f30c998","system_id":"levelo_inurba_marseille","lat":43.314811,"lon":5.373103,"is_reserved":false,"is_disabled":false,"rental_uris":{"android":"levelo://app?vid=a6ae78ff-4cf0-44c1-9a8a-5cb54f30c998","ios":"levelo://app?vid=a6ae78ff-4cf0-44c1-9a8a-5cb54f30c998"},"vehicle_type_id":"4","last_reported":1716145543,"current_range_meters":0,"station_id":"ce4bgt12rcd13ifvqcd0","pricing_plan_id":"cebpf4jnsgd1na2vs0mg"},{"bike_id":"98e36ba4-00d3-4c72-8733-a15373ee59ea","system_id":"levelo_inurba_marseille","lat":43.314811,"lon":5.373103,"is_reserved":false,"is_disabled":false,"rental_uris":{"android":"levelo://app?vid=98e36ba4-00d3-4c72-8733-a15373ee59ea","ios":"levelo://app?vid=98e36ba4-00d3-4c72-8733-a15373ee59ea"},"vehicle_type_id":"4","last_reported":1716145543,"current_range_meters":0,"station_id":"ce4bgt12rcd13ifvqcd0","pricing_plan_id":"cebpf4jnsgd1na2vs0mg"},{"bike_id":"1749bb33-f143-47ff-9d0a-33e2c8310302","system_id":"levelo_inurba_marseille","lat":43.309039,"lon":5.371797,"is_reserved":false,"is_disabled":false,"rental_uris":{"android":"levelo://app?vid=1749bb33-f143-47ff-9d0a-33e2c8310302","ios":"levelo://app?vid=1749bb33-f143-47ff-9d0a-33e2c8310302"},"vehicle_type_id":"4","last_reported":1716145543,"current_range_meters":3600,"station_id":"ce4bguh2rcd13ifvqckg","pricing_plan_id":"cebpf4jnsgd1na2vs0mg"},{"bike_id":"0d07a7db-df74-4d60-8aba-efd349216e5d","system_id":"levelo_inurba_marseille","lat":43.309039,"lon":5.371797,"is_reserved":false,"is_disabled":false,"rental_uris":{"android":"levelo://app?vid=0d07a7db-df74-4d60-8aba-efd349216e5d","ios":"levelo://app?vid=0d07a7db-df74-4d60-8aba-efd349216e5d"},"vehicle_type_id":"4","last_reported":1716145543,"current_range_meters":4400,"station_id":"ce4bguh2rcd13ifvqckg","pricing_plan_id":"cebpf4jnsgd1na2vs0mg"},{"bike_id":"d29ffb4e-5bcd-4d33-9e56-8c03178711b8","system_id":"levelo_inurba_marseille","lat":43.309039,"lon":5.371797,"is_reserved":false,"is_disabled":false,"rental_uris":{"android":"levelo://app?vid=d29ffb4e-5bcd-4d33-9e56-8c03178711b8","ios":"levelo://app?vid=d29ffb4e-5bcd-4d33-9e56-8c03178711b8"},"vehicle_type_id":"4","last_reported":1716145543,"current_range_meters":0,"station_id":"ce4bguh2rcd13ifvqckg","pricing_plan_id":"cebpf4jnsgd1na2vs0mg"},{"bike_id":"7898ba7b-996e-4168-b795-5ac9b4ed10d0","system_id":"levelo_inurba_marseille","lat":43.309034,"lon":5.371783,"is_reserved":false,"is_disabled":false,"rental_uris":{"android":"levelo://app?vid=7898ba7b-996e-4168-b795-5ac9b4ed10d0","ios":"levelo://app?vid=7898ba7b-996e-4168-b795-5ac9b4ed10d0"},"vehicle_type_id":"4","last_reported":1716145543,"current_range_meters":0,"station_id":"ce4bguh2rcd13ifvqckg","pricing_plan_id":"cebpf4jnsgd1na2vs0mg"},{"bike_id":"d170ba0d-45e7-40fa-8c28-104d467b82d3","system_id":"levelo_inurba_marseille","lat":43.31672,"lon":5.3722,"is_reserved":false,"is_disabled":false,"rental_uris":{"android":"levelo://app?vid=d170ba0d-45e7-40fa-8c28-104d467b82d3","ios":"levelo://app?vid=d170ba0d-45e7-40fa-8c28-104d467b82d3"},"vehicle_type_id":"4","last_reported":1716145543,"current_range_meters":21600,"station_id":"","pricing_plan_id":"cebpf4jnsgd1na2vs0mg"},{"bike_id":"7bf47a6a-eee2-44c3-8d18-dc9de2662c8a","system_id":"levelo_inurba_marseille","lat":43.3054,"lon":5.36554,"is_reserved":false,"is_disabled":false,"rental_uris":{"android":"levelo://app?vid=7bf47a6a-eee2-44c3-8d18-dc9de2662c8a","ios":"levelo://app?vid=7bf47a6a-eee2-44c3-8d18-dc9de2662c8a"},"vehicle_type_id":"4","last_reported":1716145543,"current_range_meters":0,"station_id":"ce4bgs12rcd13ifvqcag","pricing_plan_id":"cebpf4jnsgd1na2vs0mg"},{"bike_id":"720623b1-e172-483c-abd9-d97ec5f64c73","system_id":"levelo_inurba_marseille","lat":43.305989,"lon":5.37225,"is_reserved":false,"is_disabled":false,"rental_uris":{"android":"levelo://app?vid=720623b1-e172-483c-abd9-d97ec5f64c73","ios":"levelo://app?vid=720623b1-e172-483c-abd9-d97ec5f64c73"},"vehicle_type_id":"4","last_reported":1716145543,"current_range_meters":9600,"station_id":"ce4bgqh2rcd13ifvqc4g","pricing_plan_id":"cebpf4jnsgd1na2vs0mg"},{"bike_id":"d9d6126e-bfce-4f5e-9a45-091355c4bf90","system_id":"levelo_inurba_marseille","lat":43.305989,"lon":5.37225,"is_reserved":false,"is_disabled":false,"rental_uris":{"android":"levelo://app?vid=d9d6126e-bfce-4f5e-9a45-091355c4bf90","ios":"levelo://app?vid=d9d6126e-bfce-4f5e-9a45-091355c4bf90"},"vehicle_type_id":"4","last_reported":1716145543,"current_range_meters":30000,"station_id":"ce4bgqh2rcd13ifvqc4g","pricing_plan_id":"cebpf4jnsgd1na2vs0mg"},{"bike_id":"a11df500-c655-41da-93be-93efbb071481","system_id":"levelo_inurba_marseille","lat":43.311131,"lon":5.377651,"is_reserved":false,"is_disabled":false,"rental_uris":{"android":"levelo://app?vid=a11df500-c655-41da-93be-93efbb071481","ios":"levelo://app?vid=a11df500-c655-41da-93be-93efbb071481"},"vehicle_type_id":"4","last_reported":1716145543,"current_range_meters":6400,"station_id":"ce4bgt92rcd13ifvqcg0","pricing_plan_id":"cebpf4jnsgd1na2vs0mg"},{"bike_id":"305d71be-1bf5-4e52-866a-8c8afd5d45e9","system_id":"levelo_inurba_marseille","lat":43.307994,"lon":5.3764,"is_reserved":false,"is_disabled":false,"rental_uris":{"android":"levelo://app?vid=305d71be-1bf5-4e52-866a-8c8afd5d45e9","ios":"levelo://app?vid=305d71be-1bf5-4e52-866a-8c8afd5d45e9"},"vehicle_type_id":"4","last_reported":1716145543,"current_range_meters":7200,"station_id":"ce4bgv92rcd13ifvqcq0","pricing_plan_id":"cebpf4jnsgd1na2vs0mg"},{"bike_id":"642c0dec-1116-4a1b-b9fb-8342de204347","system_id":"levelo_inurba_marseille","lat":43.307945,"lon":5.376487,"is_reserved":false,"is_disabled":false,"rental_uris":{"android":"levelo://app?vid=642c0dec-1116-4a1b-b9fb-8342de204347","ios":"levelo://app?vid=642c0dec-1116-4a1b-b9fb-8342de204347"},"vehicle_type_id":"4","last_reported":1716145543,"current_range_meters":800,"station_id":"ce4bgv92rcd13ifvqcq0","pricing_plan_id":"cebpf4jnsgd1na2vs0mg"},{"bike_id":"e5b2cf7a-9dba-4fd1-9098-a0cee5e67de4","system_id":"levelo_inurba_marseille","lat":43.307945,"lon":5.376487,"is_reserved":false,"is_disabled":false,"rental_uris":{"android":"levelo://app?vid=e5b2cf7a-9dba-4fd1-9098-a0cee5e67de4","ios":"levelo://app?vid=e5b2cf7a-9dba-4fd1-9098-a0cee5e67de4"},"vehicle_type_id":"4","last_reported":1716145543,"current_range_meters":2800,"station_id":"ce4bgv92rcd13ifvqcq0","pricing_plan_id":"cebpf4jnsgd1na2vs0mg"},{"bike_id":"3214257e-dc3c-4e4e-9dd2-325e888e2676","system_id":"levelo_inurba_marseille","lat":43.307945,"lon":5.376487,"is_reserved":false,"is_disabled":false,"rental_uris":{"android":"levelo://app?vid=3214257e-dc3c-4e4e-9dd2-325e888e2676","ios":"levelo://app?vid=3214257e-dc3c-4e4e-9dd2-325e888e2676"},"vehicle_type_id":"4","last_reported":1716145543,"current_range_meters":14800,"station_id":"ce4bgv92rcd13ifvqcq0","pricing_plan_id":"cebpf4jnsgd1na2vs0mg"},{"bike_id":"3a11d2fb-1fab-4806-8ded-951ee94ee749","system_id":"levelo_inurba_marseille","lat":43.311125,"lon":5.377624,"is_reserved":false,"is_disabled":false,"rental_uris":{"android":"levelo://app?vid=3a11d2fb-1fab-4806-8ded-951ee94ee749","ios":"levelo://app?vid=3a11d2fb-1fab-4806-8ded-951ee94ee749"},"vehicle_type_id":"4","last_reported":1716145543,"current_range_meters":8000,"station_id":"ce4bgt92rcd13ifvqcg0","pricing_plan_id":"cebpf4jnsgd1na2vs0mg"},{"bike_id":"146c6c05-cd32-4ad4-964d-a785f47382b3","system_id":"levelo_inurba_marseille","lat":43.30309,"lon":5.36898,"is_reserved":false,"is_disabled":false,"rental_uris":{"android":"levelo://app?vid=146c6c05-cd32-4ad4-964d-a785f47382b3","ios":"levelo://app?vid=146c6c05-cd32-4ad4-964d-a785f47382b3"},"vehicle_type_id":"4","last_reported":1716145543,"current_range_meters":2000,"station_id":"ce4bgqh2rcd13ifvqc5g","pricing_plan_id":"cebpf4jnsgd1na2vs0mg"},{"bike_id":"773b1932-dbbb-4f1b-b6f5-e8e082421b87","system_id":"levelo_inurba_marseille","lat":43.315293,"lon":5.380349,"is_reserved":false,"is_disabled":false,"rental_uris":{"android":"levelo://app?vid=773b1932-dbbb-4f1b-b6f5-e8e082421b87","ios":"levelo://app?vid=773b1932-dbbb-4f1b-b6f5-e8e082421b87"},"vehicle_type_id":"4","last_reported":1716145543,"current_range_meters":8400,"station_id":"ce4bhsp2rcd13ifvqi50","pricing_plan_id":"cebpf4jnsgd1na2vs0mg"},{"bike_id":"68b2d918-d364-4893-bb65-8beabd29ac4b","system_id":"levelo_inurba_marseille","lat":43.301939,"lon":5.366286,"is_reserved":false,"is_disabled":false,"rental_uris":{"android":"levelo://app?vid=68b2d918-d364-4893-bb65-8beabd29ac4b","ios":"levelo://app?vid=68b2d918-d364-4893-bb65-8beabd29ac4b"},"vehicle_type_id":"4","last_reported":1716145543,"current_range_meters":11600,"station_id":"ce4bgrh2rcd13ifvqc8g","pricing_plan_id":"cebpf4jnsgd1na2vs0mg"},{"bike_id":"451dcdd6-b471-4b1f-97ee-7f1857aa513f","system_id":"levelo_inurba_marseille","lat":43.301939,"lon":5.366286,"is_reserved":false,"is_disabled":false,"rental_uris":{"android":"levelo://app?vid=451dcdd6-b471-4b1f-97ee-7f1857aa513f","ios":"levelo://app?vid=451dcdd6-b471-4b1f-97ee-7f1857aa513f"},"vehicle_type_id":"4","last_reported":1716145543,"current_range_meters":1200,"station_id":"ce4bgrh2rcd13ifvqc8g","pricing_plan_id":"cebpf4jnsgd1na2vs0mg"},{"bike_id":"2e400335-bc28-4693-b255-05d0d1a8bd25","system_id":"levelo_inurba_marseille","lat":43.308012,"lon":5.381511,"is_reserved":false,"is_disabled":false,"rental_uris":{"android":"levelo://app?vid=2e400335-bc28-4693-b255-05d0d1a8bd25","ios":"levelo://app?vid=2e400335-bc28-4693-b255-05d0d1a8bd25"},"vehicle_type_id":"4","last_reported":1716145543,"current_range_meters":17600,"station_id":"ce4bgt12rcd13ifvqce0","pricing_plan_id":"cebpf4jnsgd1na2vs0mg"},{"bike_id":"9d07f860-3ab0-4fca-8a40-06359e475342","system_id":"levelo_inurba_marseille","lat":43.308012,"lon":5.381511,"is_reserved":false,"is_disabled":false,"rental_uris":{"android":"levelo://app?vid=9d07f860-3ab0-4fca-8a40-06359e475342","ios":"levelo://app?vid=9d07f860-3ab0-4fca-8a40-06359e475342"},"vehicle_type_id":"4","last_reported":1716145543,"current_range_meters":0,"station_id":"ce4bgt12rcd13ifvqce0","pricing_plan_id":"cebpf4jnsgd1na2vs0mg"},{"bike_id":"e7522fb1-252c-48f3-bc9f-cc01e1e11035","system_id":"levelo_inurba_marseille","lat":43.308012,"lon":5.381511,"is_reserved":false,"is_disabled":false,"rental_uris":{"android":"levelo://app?vid=e7522fb1-252c-48f3-bc9f-cc01e1e11035","ios":"levelo://app?vid=e7522fb1-252c-48f3-bc9f-cc01e1e11035"},"vehicle_type_id":"4","last_reported":1716145543,"current_range_meters":31600,"station_id":"ce4bgt12rcd13ifvqce0","pricing_plan_id":"cebpf4jnsgd1na2vs0mg"},{"bike_id":"ba6f4760-5541-44b0-9c5a-1f7f0f57f431","system_id":"levelo_inurba_marseille","lat":43.308012,"lon":5.381511,"is_reserved":false,"is_disabled":false,"rental_uris":{"android":"levelo://app?vid=ba6f4760-5541-44b0-9c5a-1f7f0f57f431","ios":"levelo://app?vid=ba6f4760-5541-44b0-9c5a-1f7f0f57f431"},"vehicle_type_id":"4","last_reported":1716145543,"current_range_meters":1600,"station_id":"ce4bgt12rcd13ifvqce0","pricing_plan_id":"cebpf4jnsgd1na2vs0mg"},{"bike_id":"a9f21efc-0dce-4763-8b88-44d5f1875e51","system_id":"levelo_inurba_marseille","lat":43.308,"lon":5.38162,"is_reserved":false,"is_disabled":false,"rental_uris":{"android":"levelo://app?vid=a9f21efc-0dce-4763-8b88-44d5f1875e51","ios":"levelo://app?vid=a9f21efc-0dce-4763-8b88-44d5f1875e51"},"vehicle_type_id":"4","last_reported":1716145543,"current_range_meters":0,"station_id":"ce4bgt12rcd13ifvqce0","pricing_plan_id":"cebpf4jnsgd1na2vs0mg"},{"bike_id":"79e6c412-20dc-44cc-b0f1-2fc2d5196502","system_id":"levelo_inurba_marseille","lat":43.308012,"lon":5.381511,"is_reserved":false,"is_disabled":false,"rental_uris":{"android":"levelo://app?vid=79e6c412-20dc-44cc-b0f1-2fc2d5196502","ios":"levelo://app?vid=79e6c412-20dc-44cc-b0f1-2fc2d5196502"},"vehicle_type_id":"4","last_reported":1716145543,"current_range_meters":6400,"station_id":"ce4bgt12rcd13ifvqce0","pricing_plan_id":"cebpf4jnsgd1na2vs0mg"},{"bike_id":"e93e2ef5-cb4f-4f0d-99a6-9aaa472b835a","system_id":"levelo_inurba_marseille","lat":43.308012,"lon":5.381511,"is_reserved":false,"is_disabled":false,"rental_uris":{"android":"levelo://app?vid=e93e2ef5-cb4f-4f0d-99a6-9aaa472b835a","ios":"levelo://app?vid=e93e2ef5-cb4f-4f0d-99a6-9aaa472b835a"},"vehicle_type_id":"4","last_reported":1716145543,"current_range_meters":24800,"station_id":"ce4bgt12rcd13ifvqce0","pricing_plan_id":"cebpf4jnsgd1na2vs0mg"},{"bike_id":"4dc1aead-402a-4c93-bbff-a3334b79253b","system_id":"levelo_inurba_marseille","lat":43.313571,"lon":5.384829,"is_reserved":false,"is_disabled":false,"rental_uris":{"android":"levelo://app?vid=4dc1aead-402a-4c93-bbff-a3334b79253b","ios":"levelo://app?vid=4dc1aead-402a-4c93-bbff-a3334b79253b"},"vehicle_type_id":"4","last_reported":1716145543,"current_range_meters":16000,"station_id":"ce4bgt92rcd13ifvqcf0","pricing_plan_id":"cebpf4jnsgd1na2vs0mg"},{"bike_id":"fba121e1-d37f-4641-9fa7-86b3a1efac51","system_id":"levelo_inurba_marseille","lat":43.310706,"lon":5.383081,"is_reserved":false,"is_disabled":false,"rental_uris":{"android":"levelo://app?vid=fba121e1-d37f-4641-9fa7-86b3a1efac51","ios":"levelo://app?vid=fba121e1-d37f-4641-9fa7-86b3a1efac51"},"vehicle_type_id":"4","last_reported":1716145543,"current_range_meters":0,"station_id":"ce4bgv92rcd13ifvqcr0","pricing_plan_id":"cebpf4jnsgd1na2vs0mg"},{"bike_id":"3ec9d0aa-b036-45f8-b01c-6674acebce73","system_id":"levelo_inurba_marseille","lat":43.304606,"lon":5.379026,"is_reserved":false,"is_disabled":false,"rental_uris":{"android":"levelo://app?vid=3ec9d0aa-b036-45f8-b01c-6674acebce73","ios":"levelo://app?vid=3ec9d0aa-b036-45f8-b01c-6674acebce73"},"vehicle_type_id":"4","last_reported":1716145543,"current_range_meters":0,"station_id":"ce4bgup2rcd13ifvqcn0","pricing_plan_id":"cebpf4jnsgd1na2vs0mg"},{"bike_id":"4809c88a-26d0-4c53-a93e-2cd81988fda3","system_id":"levelo_inurba_marseille","lat":43.32477,"lon":5.36581,"is_reserved":false,"is_disabled":false,"rental_uris":{"android":"levelo://app?vid=4809c88a-26d0-4c53-a93e-2cd81988fda3","ios":"levelo://app?vid=4809c88a-26d0-4c53-a93e-2cd81988fda3"},"vehicle_type_id":"4","last_reported":1716145543,"current_range_meters":0,"station_id":"ce4bhs12rcd13ifvqhvg","pricing_plan_id":"cebpf4jnsgd1na2vs0mg"},{"bike_id":"cad654da-3b70-4e51-a777-d347d4ad19e4","system_id":"levelo_inurba_marseille","lat":43.324771,"lon":5.36557,"is_reserved":false,"is_disabled":false,"rental_uris":{"android":"levelo://app?vid=cad654da-3b70-4e51-a777-d347d4ad19e4","ios":"levelo://app?vid=cad654da-3b70-4e51-a777-d347d4ad19e4"},"vehicle_type_id":"4","last_reported":1716145543,"current_range_meters":0,"station_id":"ce4bhs12rcd13ifvqhvg","pricing_plan_id":"cebpf4jnsgd1na2vs0mg"},{"bike_id":"58d6a1f1-8241-4702-9afd-d09bceadb108","system_id":"levelo_inurba_marseille","lat":43.324771,"lon":5.36557,"is_reserved":false,"is_disabled":false,"rental_uris":{"android":"levelo://app?vid=58d6a1f1-8241-4702-9afd-d09bceadb108","ios":"levelo://app?vid=58d6a1f1-8241-4702-9afd-d09bceadb108"},"vehicle_type_id":"4","last_reported":1716145543,"current_range_meters":0,"station_id":"ce4bhs12rcd13ifvqhvg","pricing_plan_id":"cebpf4jnsgd1na2vs0mg"},{"bike_id":"269be891-c0b8-4c0c-98d4-d131ea16ddce","system_id":"levelo_inurba_marseille","lat":43.310804,"lon":5.38359,"is_reserved":false,"is_disabled":false,"rental_uris":{"android":"levelo://app?vid=269be891-c0b8-4c0c-98d4-d131ea16ddce","ios":"levelo://app?vid=269be891-c0b8-4c0c-98d4-d131ea16ddce"},"vehicle_type_id":"4","last_reported":1716145543,"current_range_meters":4800,"station_id":"ce4bgv92rcd13ifvqcr0","pricing_plan_id":"cebpf4jnsgd1na2vs0mg"},{"bike_id":"cdfd61bf-332c-4463-a702-bd7cdae4a128","system_id":"levelo_inurba_marseille","lat":43.310804,"lon":5.38359,"is_reserved":false,"is_disabled":false,"rental_uris":{"android":"levelo://app?vid=cdfd61bf-332c-4463-a702-bd7cdae4a128","ios":"levelo://app?vid=cdfd61bf-332c-4463-a702-bd7cdae4a128"},"vehicle_type_id":"4","last_reported":1716145543,"current_range_meters":10800,"station_id":"ce4bgv92rcd13ifvqcr0","pricing_plan_id":"cebpf4jnsgd1na2vs0mg"},{"bike_id":"113a6559-3070-4269-a160-312c57346e52","system_id":"levelo_inurba_marseille","lat":43.302784,"lon":5.377158,"is_reserved":false,"is_disabled":false,"rental_uris":{"android":"levelo://app?vid=113a6559-3070-4269-a160-312c57346e52","ios":"levelo://app?vid=113a6559-3070-4269-a160-312c57346e52"},"vehicle_type_id":"4","last_reported":1716145543,"current_range_meters":800,"station_id":"ce4bguh2rcd13ifvqcj0","pricing_plan_id":"cebpf4jnsgd1na2vs0mg"},{"bike_id":"8ac41d7c-bb56-4987-86e8-6a6557bd2848","system_id":"levelo_inurba_marseille","lat":43.302784,"lon":5.377158,"is_reserved":false,"is_disabled":false,"rental_uris":{"android":"levelo://app?vid=8ac41d7c-bb56-4987-86e8-6a6557bd2848","ios":"levelo://app?vid=8ac41d7c-bb56-4987-86e8-6a6557bd2848"},"vehicle_type_id":"4","last_reported":1716145543,"current_range_meters":2800,"station_id":"ce4bguh2rcd13ifvqcj0","pricing_plan_id":"cebpf4jnsgd1na2vs0mg"},{"bike_id":"0ff5db8b-8c11-473c-872f-65442b26450d","system_id":"levelo_inurba_marseille","lat":43.302784,"lon":5.377158,"is_reserved":false,"is_disabled":false,"rental_uris":{"android":"levelo://app?vid=0ff5db8b-8c11-473c-872f-65442b26450d","ios":"levelo://app?vid=0ff5db8b-8c11-473c-872f-65442b26450d"},"vehicle_type_id":"4","last_reported":1716145543,"current_range_meters":0,"station_id":"ce4bguh2rcd13ifvqcj0","pricing_plan_id":"cebpf4jnsgd1na2vs0mg"},{"bike_id":"a252352d-2618-47a4-87ef-427ae068f2d7","system_id":"levelo_inurba_marseille","lat":43.319935,"lon":5.381699,"is_reserved":false,"is_disabled":false,"rental_uris":{"android":"levelo://app?vid=a252352d-2618-47a4-87ef-427ae068f2d7","ios":"levelo://app?vid=a252352d-2618-47a4-87ef-427ae068f2d7"},"vehicle_type_id":"4","last_reported":1716145543,"current_range_meters":5600,"station_id":"ce4bhr12rcd13ifvqhpg","pricing_plan_id":"cebpf4jnsgd1na2vs0mg"},{"bike_id":"c8c68f75-ffca-4717-b511-4a45ae6c1a90","system_id":"levelo_inurba_marseille","lat":43.313571,"lon":5.384829,"is_reserved":false,"is_disabled":false,"rental_uris":{"android":"levelo://app?vid=c8c68f75-ffca-4717-b511-4a45ae6c1a90","ios":"levelo://app?vid=c8c68f75-ffca-4717-b511-4a45ae6c1a90"},"vehicle_type_id":"4","last_reported":1716145543,"current_range_meters":2000,"station_id":"ce4bgt92rcd13ifvqcf0","pricing_plan_id":"cebpf4jnsgd1na2vs0mg"},{"bike_id":"e452ab0b-805b-4b9d-81f5-812de36df69b","system_id":"levelo_inurba_marseille","lat":43.313571,"lon":5.384829,"is_reserved":false,"is_disabled":false,"rental_uris":{"android":"levelo://app?vid=e452ab0b-805b-4b9d-81f5-812de36df69b","ios":"levelo://app?vid=e452ab0b-805b-4b9d-81f5-812de36df69b"},"vehicle_type_id":"4","last_reported":1716145543,"current_range_meters":6400,"station_id":"ce4bgt92rcd13ifvqcf0","pricing_plan_id":"cebpf4jnsgd1na2vs0mg"},{"bike_id":"694dae3a-91db-4656-a645-fa8df9546aa3","system_id":"levelo_inurba_marseille","lat":43.313571,"lon":5.384829,"is_reserved":false,"is_disabled":false,"rental_uris":{"android":"levelo://app?vid=694dae3a-91db-4656-a645-fa8df9546aa3","ios":"levelo://app?vid=694dae3a-91db-4656-a645-fa8df9546aa3"},"vehicle_type_id":"4","last_reported":1716145543,"current_range_meters":5200,"station_id":"ce4bgt92rcd13ifvqcf0","pricing_plan_id":"cebpf4jnsgd1na2vs0mg"},{"bike_id":"06f0c04e-395d-449e-b155-5a491a218bf6","system_id":"levelo_inurba_marseille","lat":43.30298,"lon":5.37911,"is_reserved":false,"is_disabled":false,"rental_uris":{"android":"levelo://app?vid=06f0c04e-395d-449e-b155-5a491a218bf6","ios":"levelo://app?vid=06f0c04e-395d-449e-b155-5a491a218bf6"},"vehicle_type_id":"4","last_reported":1716145543,"current_range_meters":14800,"station_id":"","pricing_plan_id":"cebpf4jnsgd1na2vs0mg"},{"bike_id":"a2ca7f90-ed06-4f90-9f53-c56962a35c66","system_id":"levelo_inurba_marseille","lat":43.31359,"lon":5.385025,"is_reserved":false,"is_disabled":false,"rental_uris":{"android":"levelo://app?vid=a2ca7f90-ed06-4f90-9f53-c56962a35c66","ios":"levelo://app?vid=a2ca7f90-ed06-4f90-9f53-c56962a35c66"},"vehicle_type_id":"4","last_reported":1716145543,"current_range_meters":9600,"station_id":"ce4bgt92rcd13ifvqcf0","pricing_plan_id":"cebpf4jnsgd1na2vs0mg"},{"bike_id":"2f99c107-5692-4255-a45d-bf0e8d402eb5","system_id":"levelo_inurba_marseille","lat":43.301429,"lon":5.37413,"is_reserved":false,"is_disabled":false,"rental_uris":{"android":"levelo://app?vid=2f99c107-5692-4255-a45d-bf0e8d402eb5","ios":"levelo://app?vid=2f99c107-5692-4255-a45d-bf0e8d402eb5"},"vehicle_type_id":"4","last_reported":1716145543,"current_range_meters":20000,"station_id":"ce4bgs92rcd13ifvqcc0","pricing_plan_id":"cebpf4jnsgd1na2vs0mg"},{"bike_id":"b707b47b-8a57-45a2-8c64-088be160b68f","system_id":"levelo_inurba_marseille","lat":43.29982,"lon":5.371762,"is_reserved":false,"is_disabled":false,"rental_uris":{"android":"levelo://app?vid=b707b47b-8a57-45a2-8c64-088be160b68f","ios":"levelo://app?vid=b707b47b-8a57-45a2-8c64-088be160b68f"},"vehicle_type_id":"4","last_reported":1716145543,"current_range_meters":0,"station_id":"ce4bgr92rcd13ifvqc7g","pricing_plan_id":"cebpf4jnsgd1na2vs0mg"},{"bike_id":"16e52269-f76a-4a14-b68c-4869c3265c19","system_id":"levelo_inurba_marseille","lat":43.299222,"lon":5.365554,"is_reserved":false,"is_disabled":false,"rental_uris":{"android":"levelo://app?vid=16e52269-f76a-4a14-b68c-4869c3265c19","ios":"levelo://app?vid=16e52269-f76a-4a14-b68c-4869c3265c19"},"vehicle_type_id":"4","last_reported":1716145543,"current_range_meters":10800,"station_id":"ce4bgm92rcd13ifvqbr0","pricing_plan_id":"cebpf4jnsgd1na2vs0mg"},{"bike_id":"5d9e1e81-4940-47c5-ac0b-dc2854086d34","system_id":"levelo_inurba_marseille","lat":43.299725,"lon":5.371768,"is_reserved":false,"is_disabled":false,"rental_uris":{"android":"levelo://app?vid=5d9e1e81-4940-47c5-ac0b-dc2854086d34","ios":"levelo://app?vid=5d9e1e81-4940-47c5-ac0b-dc2854086d34"},"vehicle_type_id":"4","last_reported":1716145543,"current_range_meters":4400,"station_id":"ce4bgop2rcd13ifvqc1g","pricing_plan_id":"cebpf4jnsgd1na2vs0mg"},{"bike_id":"704c379d-91e6-47a6-9991-cedb77423603","system_id":"levelo_inurba_marseille","lat":43.29973,"lon":5.37181,"is_reserved":false,"is_disabled":false,"rental_uris":{"android":"levelo://app?vid=704c379d-91e6-47a6-9991-cedb77423603","ios":"levelo://app?vid=704c379d-91e6-47a6-9991-cedb77423603"},"vehicle_type_id":"4","last_reported":1716145543,"current_range_meters":0,"station_id":"ce4bgr92rcd13ifvqc7g","pricing_plan_id":"cebpf4jnsgd1na2vs0mg"},{"bike_id":"9ebbae35-3b48-4f2e-a355-40e73957ade7","system_id":"levelo_inurba_marseille","lat":43.298676,"lon":5.362986,"is_reserved":false,"is_disabled":false,"rental_uris":{"android":"levelo://app?vid=9ebbae35-3b48-4f2e-a355-40e73957ade7","ios":"levelo://app?vid=9ebbae35-3b48-4f2e-a355-40e73957ade7"},"vehicle_type_id":"4","last_reported":1716145543,"current_range_meters":9600,"station_id":"ce4bgpp2rcd13ifvqc3g","pricing_plan_id":"cebpf4jnsgd1na2vs0mg"},{"bike_id":"9b461e62-dae7-4cd3-b466-7f66b0d87fed","system_id":"levelo_inurba_marseille","lat":43.297163,"lon":5.365866,"is_reserved":false,"is_disabled":false,"rental_uris":{"android":"levelo://app?vid=9b461e62-dae7-4cd3-b466-7f66b0d87fed","ios":"levelo://app?vid=9b461e62-dae7-4cd3-b466-7f66b0d87fed"},"vehicle_type_id":"4","last_reported":1716145543,"current_range_meters":0,"station_id":"ce4bgn12rcd13ifvqbt0","pricing_plan_id":"cebpf4jnsgd1na2vs0mg"},{"bike_id":"ce62795d-867a-4e77-bc99-ef048f5c1c8b","system_id":"levelo_inurba_marseille","lat":43.305383,"lon":5.384257,"is_reserved":false,"is_disabled":false,"rental_uris":{"android":"levelo://app?vid=ce62795d-867a-4e77-bc99-ef048f5c1c8b","ios":"levelo://app?vid=ce62795d-867a-4e77-bc99-ef048f5c1c8b"},"vehicle_type_id":"4","last_reported":1716145543,"current_range_meters":0,"station_id":"ce4bgg92rcd13ifvqb30","pricing_plan_id":"cebpf4jnsgd1na2vs0mg"},{"bike_id":"eccc1a10-634d-44cc-a2de-142aa2cf08d6","system_id":"levelo_inurba_marseille","lat":43.299243,"lon":5.37481,"is_reserved":false,"is_disabled":false,"rental_uris":{"android":"levelo://app?vid=eccc1a10-634d-44cc-a2de-142aa2cf08d6","ios":"levelo://app?vid=eccc1a10-634d-44cc-a2de-142aa2cf08d6"},"vehicle_type_id":"4","last_reported":1716145543,"current_range_meters":13600,"station_id":"ce4bgjh2rcd13ifvqbg0","pricing_plan_id":"cebpf4jnsgd1na2vs0mg"},{"bike_id":"65035f84-2892-483c-9b00-ee3d54052873","system_id":"levelo_inurba_marseille","lat":43.311722,"lon":5.387247,"is_reserved":false,"is_disabled":false,"rental_uris":{"android":"levelo://app?vid=65035f84-2892-483c-9b00-ee3d54052873","ios":"levelo://app?vid=65035f84-2892-483c-9b00-ee3d54052873"},"vehicle_type_id":"4","last_reported":1716145543,"current_range_meters":13600,"station_id":"ce4bgv12rcd13ifvqcp0","pricing_plan_id":"cebpf4jnsgd1na2vs0mg"},{"bike_id":"94aa942f-3367-48c7-8813-c3d8a9e394d7","system_id":"levelo_inurba_marseille","lat":43.311833,"lon":5.387126,"is_reserved":false,"is_disabled":false,"rental_uris":{"android":"levelo://app?vid=94aa942f-3367-48c7-8813-c3d8a9e394d7","ios":"levelo://app?vid=94aa942f-3367-48c7-8813-c3d8a9e394d7"},"vehicle_type_id":"4","last_reported":1716145543,"current_range_meters":0,"station_id":"ce4bgv12rcd13ifvqcp0","pricing_plan_id":"cebpf4jnsgd1na2vs0mg"},{"bike_id":"4a94bc3c-ac0c-47bc-8982-addbf8c50adc","system_id":"levelo_inurba_marseille","lat":43.299243,"lon":5.374807,"is_reserved":false,"is_disabled":false,"rental_uris":{"android":"levelo://app?vid=4a94bc3c-ac0c-47bc-8982-addbf8c50adc","ios":"levelo://app?vid=4a94bc3c-ac0c-47bc-8982-addbf8c50adc"},"vehicle_type_id":"4","last_reported":1716145543,"current_range_meters":4800,"station_id":"ce4bgjh2rcd13ifvqbg0","pricing_plan_id":"cebpf4jnsgd1na2vs0mg"},{"bike_id":"49871906-c80f-46bf-bf2a-e11876226dc8","system_id":"levelo_inurba_marseille","lat":43.311722,"lon":5.387247,"is_reserved":false,"is_disabled":false,"rental_uris":{"android":"levelo://app?vid=49871906-c80f-46bf-bf2a-e11876226dc8","ios":"levelo://app?vid=49871906-c80f-46bf-bf2a-e11876226dc8"},"vehicle_type_id":"4","last_reported":1716145543,"current_range_meters":17200,"station_id":"ce4bgv12rcd13ifvqcp0","pricing_plan_id":"cebpf4jnsgd1na2vs0mg"},{"bike_id":"84ff95da-ac97-4b8b-9914-efad6fb3807e","system_id":"levelo_inurba_marseille","lat":43.3117,"lon":5.38722,"is_reserved":false,"is_disabled":false,"rental_uris":{"android":"levelo://app?vid=84ff95da-ac97-4b8b-9914-efad6fb3807e","ios":"levelo://app?vid=84ff95da-ac97-4b8b-9914-efad6fb3807e"},"vehicle_type_id":"4","last_reported":1716145543,"current_range_meters":27200,"station_id":"","pricing_plan_id":"cebpf4jnsgd1na2vs0mg"},{"bike_id":"6de2a2ed-9122-45bc-86ba-3d32ebd75a07","system_id":"levelo_inurba_marseille","lat":43.31166,"lon":5.38725,"is_reserved":false,"is_disabled":false,"rental_uris":{"android":"levelo://app?vid=6de2a2ed-9122-45bc-86ba-3d32ebd75a07","ios":"levelo://app?vid=6de2a2ed-9122-45bc-86ba-3d32ebd75a07"},"vehicle_type_id":"4","last_reported":1716145543,"current_range_meters":1200,"station_id":"ce4bgv12rcd13ifvqcp0","pricing_plan_id":"cebpf4jnsgd1na2vs0mg"},{"bike_id":"a78c0371-18a7-4609-8a16-1a99a180568a","system_id":"levelo_inurba_marseille","lat":43.297774,"lon":5.370875,"is_reserved":false,"is_disabled":false,"rental_uris":{"android":"levelo://app?vid=a78c0371-18a7-4609-8a16-1a99a180568a","ios":"levelo://app?vid=a78c0371-18a7-4609-8a16-1a99a180568a"},"vehicle_type_id":"4","last_reported":1716145543,"current_range_meters":30000,"station_id":"ce4bgop2rcd13ifvqc1g","pricing_plan_id":"cebpf4jnsgd1na2vs0mg"},{"bike_id":"b22379ec-8777-4dcd-8c0e-9642bdad8cfd","system_id":"levelo_inurba_marseille","lat":43.297774,"lon":5.370875,"is_reserved":false,"is_disabled":false,"rental_uris":{"android":"levelo://app?vid=b22379ec-8777-4dcd-8c0e-9642bdad8cfd","ios":"levelo://app?vid=b22379ec-8777-4dcd-8c0e-9642bdad8cfd"},"vehicle_type_id":"4","last_reported":1716145543,"current_range_meters":31200,"station_id":"ce4bgop2rcd13ifvqc1g","pricing_plan_id":"cebpf4jnsgd1na2vs0mg"},{"bike_id":"49bcf57f-cc4c-43f2-ba0f-303de55d40dc","system_id":"levelo_inurba_marseille","lat":43.32289,"lon":5.382604,"is_reserved":false,"is_disabled":false,"rental_uris":{"android":"levelo://app?vid=49bcf57f-cc4c-43f2-ba0f-303de55d40dc","ios":"levelo://app?vid=49bcf57f-cc4c-43f2-ba0f-303de55d40dc"},"vehicle_type_id":"4","last_reported":1716145543,"current_range_meters":10400,"station_id":"ce4bhr12rcd13ifvqhqg","pricing_plan_id":"cebpf4jnsgd1na2vs0mg"},{"bike_id":"f9b21518-354d-493a-b0c6-3b22079d4f52","system_id":"levelo_inurba_marseille","lat":43.32289,"lon":5.38267,"is_reserved":false,"is_disabled":false,"rental_uris":{"android":"levelo://app?vid=f9b21518-354d-493a-b0c6-3b22079d4f52","ios":"levelo://app?vid=f9b21518-354d-493a-b0c6-3b22079d4f52"},"vehicle_type_id":"4","last_reported":1716145543,"current_range_meters":11600,"station_id":"ce4bhr12rcd13ifvqhqg","pricing_plan_id":"cebpf4jnsgd1na2vs0mg"},{"bike_id":"2469f4de-36d3-4b37-8bde-78f3a6e15634","system_id":"levelo_inurba_marseille","lat":43.32288,"lon":5.382698,"is_reserved":false,"is_disabled":false,"rental_uris":{"android":"levelo://app?vid=2469f4de-36d3-4b37-8bde-78f3a6e15634","ios":"levelo://app?vid=2469f4de-36d3-4b37-8bde-78f3a6e15634"},"vehicle_type_id":"4","last_reported":1716145543,"current_range_meters":0,"station_id":"ce4bhr12rcd13ifvqhqg","pricing_plan_id":"cebpf4jnsgd1na2vs0mg"},{"bike_id":"8ede8ca5-a484-4271-a07a-3025978b6965","system_id":"levelo_inurba_marseille","lat":43.322872,"lon":5.382756,"is_reserved":false,"is_disabled":false,"rental_uris":{"android":"levelo://app?vid=8ede8ca5-a484-4271-a07a-3025978b6965","ios":"levelo://app?vid=8ede8ca5-a484-4271-a07a-3025978b6965"},"vehicle_type_id":"4","last_reported":1716145543,"current_range_meters":17200,"station_id":"ce4bhr12rcd13ifvqhqg","pricing_plan_id":"cebpf4jnsgd1na2vs0mg"},{"bike_id":"a0832526-408d-4d81-b3fd-c55242f8a03a","system_id":"levelo_inurba_marseille","lat":43.322872,"lon":5.382756,"is_reserved":false,"is_disabled":false,"rental_uris":{"android":"levelo://app?vid=a0832526-408d-4d81-b3fd-c55242f8a03a","ios":"levelo://app?vid=a0832526-408d-4d81-b3fd-c55242f8a03a"},"vehicle_type_id":"4","last_reported":1716145543,"current_range_meters":25600,"station_id":"ce4bhr12rcd13ifvqhqg","pricing_plan_id":"cebpf4jnsgd1na2vs0mg"},{"bike_id":"0831c94a-073d-487c-bbdd-ce3a35bb373c","system_id":"levelo_inurba_marseille","lat":43.32293,"lon":5.38268,"is_reserved":false,"is_disabled":false,"rental_uris":{"android":"levelo://app?vid=0831c94a-073d-487c-bbdd-ce3a35bb373c","ios":"levelo://app?vid=0831c94a-073d-487c-bbdd-ce3a35bb373c"},"vehicle_type_id":"4","last_reported":1716145543,"current_range_meters":400,"station_id":"ce4bhr12rcd13ifvqhqg","pricing_plan_id":"cebpf4jnsgd1na2vs0mg"},{"bike_id":"9385d173-06b2-4fde-8d3d-ba7b1bec39da","system_id":"levelo_inurba_marseille","lat":43.322872,"lon":5.382756,"is_reserved":false,"is_disabled":false,"rental_uris":{"android":"levelo://app?vid=9385d173-06b2-4fde-8d3d-ba7b1bec39da","ios":"levelo://app?vid=9385d173-06b2-4fde-8d3d-ba7b1bec39da"},"vehicle_type_id":"4","last_reported":1716145543,"current_range_meters":14400,"station_id":"ce4bhr12rcd13ifvqhqg","pricing_plan_id":"cebpf4jnsgd1na2vs0mg"},{"bike_id":"6b837e63-e852-4924-9dc8-2bdb4a04902b","system_id":"levelo_inurba_marseille","lat":43.322872,"lon":5.382756,"is_reserved":false,"is_disabled":false,"rental_uris":{"android":"levelo://app?vid=6b837e63-e852-4924-9dc8-2bdb4a04902b","ios":"levelo://app?vid=6b837e63-e852-4924-9dc8-2bdb4a04902b"},"vehicle_type_id":"4","last_reported":1716145543,"current_range_meters":15600,"station_id":"ce4bhr12rcd13ifvqhqg","pricing_plan_id":"cebpf4jnsgd1na2vs0mg"},{"bike_id":"80e3b554-a62f-4f3d-afff-968cd7931f03","system_id":"levelo_inurba_marseille","lat":43.297163,"lon":5.365866,"is_reserved":false,"is_disabled":false,"rental_uris":{"android":"levelo://app?vid=80e3b554-a62f-4f3d-afff-968cd7931f03","ios":"levelo://app?vid=80e3b554-a62f-4f3d-afff-968cd7931f03"},"vehicle_type_id":"4","last_reported":1716145543,"current_range_meters":4000,"station_id":"ce4bgn12rcd13ifvqbt0","pricing_plan_id":"cebpf4jnsgd1na2vs0mg"},{"bike_id":"d3cb6d0b-dd6a-4924-a0f1-49b48295b5d7","system_id":"levelo_inurba_marseille","lat":43.297163,"lon":5.365866,"is_reserved":false,"is_disabled":false,"rental_uris":{"android":"levelo://app?vid=d3cb6d0b-dd6a-4924-a0f1-49b48295b5d7","ios":"levelo://app?vid=d3cb6d0b-dd6a-4924-a0f1-49b48295b5d7"},"vehicle_type_id":"4","last_reported":1716145543,"current_range_meters":13200,"station_id":"ce4bgn12rcd13ifvqbt0","pricing_plan_id":"cebpf4jnsgd1na2vs0mg"},{"bike_id":"be0e14b8-d51c-4c8c-9f12-17c9ad5e6e74","system_id":"levelo_inurba_marseille","lat":43.32355,"lon":5.383392,"is_reserved":false,"is_disabled":false,"rental_uris":{"android":"levelo://app?vid=be0e14b8-d51c-4c8c-9f12-17c9ad5e6e74","ios":"levelo://app?vid=be0e14b8-d51c-4c8c-9f12-17c9ad5e6e74"},"vehicle_type_id":"4","last_reported":1716145543,"current_range_meters":0,"station_id":"ce4bhr12rcd13ifvqhqg","pricing_plan_id":"cebpf4jnsgd1na2vs0mg"},{"bike_id":"7f17962d-cc28-4a30-98d2-76b1a45627d7","system_id":"levelo_inurba_marseille","lat":43.296224,"lon":5.371582,"is_reserved":false,"is_disabled":false,"rental_uris":{"android":"levelo://app?vid=7f17962d-cc28-4a30-98d2-76b1a45627d7","ios":"levelo://app?vid=7f17962d-cc28-4a30-98d2-76b1a45627d7"},"vehicle_type_id":"4","last_reported":1716145543,"current_range_meters":2000,"station_id":"","pricing_plan_id":"cebpf4jnsgd1na2vs0mg"},{"bike_id":"432cdcab-89b9-4147-86fd-c95e77383756","system_id":"levelo_inurba_marseille","lat":43.296131,"lon":5.370791,"is_reserved":false,"is_disabled":false,"rental_uris":{"android":"levelo://app?vid=432cdcab-89b9-4147-86fd-c95e77383756","ios":"levelo://app?vid=432cdcab-89b9-4147-86fd-c95e77383756"},"vehicle_type_id":"4","last_reported":1716145543,"current_range_meters":10000,"station_id":"ce4bgnh2rcd13ifvqc0g","pricing_plan_id":"cebpf4jnsgd1na2vs0mg"},{"bike_id":"75271c5e-0ea2-4583-bbfc-762d182ef7dd","system_id":"levelo_inurba_marseille","lat":43.29573,"lon":5.367355,"is_reserved":false,"is_disabled":false,"rental_uris":{"android":"levelo://app?vid=75271c5e-0ea2-4583-bbfc-762d182ef7dd","ios":"levelo://app?vid=75271c5e-0ea2-4583-bbfc-762d182ef7dd"},"vehicle_type_id":"4","last_reported":1716145543,"current_range_meters":0,"station_id":"ce4bgph2rcd13ifvqc2g","pricing_plan_id":"cebpf4jnsgd1na2vs0mg"},{"bike_id":"1626981a-5359-4900-9f89-861f1c8a112b","system_id":"levelo_inurba_marseille","lat":43.29573,"lon":5.367355,"is_reserved":false,"is_disabled":false,"rental_uris":{"android":"levelo://app?vid=1626981a-5359-4900-9f89-861f1c8a112b","ios":"levelo://app?vid=1626981a-5359-4900-9f89-861f1c8a112b"},"vehicle_type_id":"4","last_reported":1716145543,"current_range_meters":8400,"station_id":"ce4bgph2rcd13ifvqc2g","pricing_plan_id":"cebpf4jnsgd1na2vs0mg"},{"bike_id":"4b4c8fca-f7e0-4694-9d89-690900449dd2","system_id":"levelo_inurba_marseille","lat":43.29573,"lon":5.367355,"is_reserved":false,"is_disabled":false,"rental_uris":{"android":"levelo://app?vid=4b4c8fca-f7e0-4694-9d89-690900449dd2","ios":"levelo://app?vid=4b4c8fca-f7e0-4694-9d89-690900449dd2"},"vehicle_type_id":"4","last_reported":1716145543,"current_range_meters":2000,"station_id":"ce4bgph2rcd13ifvqc2g","pricing_plan_id":"cebpf4jnsgd1na2vs0mg"},{"bike_id":"2364041d-6838-40c3-a9f0-4588d93369b2","system_id":"levelo_inurba_marseille","lat":43.29573,"lon":5.367355,"is_reserved":false,"is_disabled":false,"rental_uris":{"android":"levelo://app?vid=2364041d-6838-40c3-a9f0-4588d93369b2","ios":"levelo://app?vid=2364041d-6838-40c3-a9f0-4588d93369b2"},"vehicle_type_id":"4","last_reported":1716145543,"current_range_meters":0,"station_id":"ce4bgph2rcd13ifvqc2g","pricing_plan_id":"cebpf4jnsgd1na2vs0mg"},{"bike_id":"6dec1739-bc5e-4ed2-b524-4a8f77643869","system_id":"levelo_inurba_marseille","lat":43.2968,"lon":5.37291,"is_reserved":false,"is_disabled":false,"rental_uris":{"android":"levelo://app?vid=6dec1739-bc5e-4ed2-b524-4a8f77643869","ios":"levelo://app?vid=6dec1739-bc5e-4ed2-b524-4a8f77643869"},"vehicle_type_id":"4","last_reported":1716145543,"current_range_meters":7200,"station_id":"ce4bgk12rcd13ifvqbj0","pricing_plan_id":"cebpf4jnsgd1na2vs0mg"},{"bike_id":"4e14f64f-6b6c-412a-99ca-304f6c7d7e50","system_id":"levelo_inurba_marseille","lat":43.296921,"lon":5.376579,"is_reserved":false,"is_disabled":false,"rental_uris":{"android":"levelo://app?vid=4e14f64f-6b6c-412a-99ca-304f6c7d7e50","ios":"levelo://app?vid=4e14f64f-6b6c-412a-99ca-304f6c7d7e50"},"vehicle_type_id":"4","last_reported":1716145543,"current_range_meters":800,"station_id":"ce4bgkh2rcd13ifvqbl0","pricing_plan_id":"cebpf4jnsgd1na2vs0mg"},{"bike_id":"ce44d903-a427-4953-85a5-5eeccb43b48d","system_id":"levelo_inurba_marseille","lat":43.309555,"lon":5.390211,"is_reserved":false,"is_disabled":false,"rental_uris":{"android":"levelo://app?vid=ce44d903-a427-4953-85a5-5eeccb43b48d","ios":"levelo://app?vid=ce44d903-a427-4953-85a5-5eeccb43b48d"},"vehicle_type_id":"4","last_reported":1716145543,"current_range_meters":0,"station_id":"ce4bgup2rcd13ifvqco0","pricing_plan_id":"cebpf4jnsgd1na2vs0mg"},{"bike_id":"38cad53a-c504-4896-8464-95dafbfff6b3","system_id":"levelo_inurba_marseille","lat":43.30954,"lon":5.39028,"is_reserved":false,"is_disabled":false,"rental_uris":{"android":"levelo://app?vid=38cad53a-c504-4896-8464-95dafbfff6b3","ios":"levelo://app?vid=38cad53a-c504-4896-8464-95dafbfff6b3"},"vehicle_type_id":"4","last_reported":1716145543,"current_range_meters":14400,"station_id":"ce4bgup2rcd13ifvqco0","pricing_plan_id":"cebpf4jnsgd1na2vs0mg"},{"bike_id":"1c0584f9-2436-4427-a588-b7cee5cba5f9","system_id":"levelo_inurba_marseille","lat":43.30955,"lon":5.3903,"is_reserved":false,"is_disabled":false,"rental_uris":{"android":"levelo://app?vid=1c0584f9-2436-4427-a588-b7cee5cba5f9","ios":"levelo://app?vid=1c0584f9-2436-4427-a588-b7cee5cba5f9"},"vehicle_type_id":"4","last_reported":1716145543,"current_range_meters":31200,"station_id":"ce4bgup2rcd13ifvqco0","pricing_plan_id":"cebpf4jnsgd1na2vs0mg"},{"bike_id":"649525a2-2636-4bcd-8353-1a5c070a458c","system_id":"levelo_inurba_marseille","lat":43.30953,"lon":5.39032,"is_reserved":false,"is_disabled":false,"rental_uris":{"android":"levelo://app?vid=649525a2-2636-4bcd-8353-1a5c070a458c","ios":"levelo://app?vid=649525a2-2636-4bcd-8353-1a5c070a458c"},"vehicle_type_id":"4","last_reported":1716145543,"current_range_meters":20400,"station_id":"ce4bgup2rcd13ifvqco0","pricing_plan_id":"cebpf4jnsgd1na2vs0mg"},{"bike_id":"6ecbb1e2-4f47-463e-8899-4c00d02b5f9e","system_id":"levelo_inurba_marseille","lat":43.309538,"lon":5.390323,"is_reserved":false,"is_disabled":false,"rental_uris":{"android":"levelo://app?vid=6ecbb1e2-4f47-463e-8899-4c00d02b5f9e","ios":"levelo://app?vid=6ecbb1e2-4f47-463e-8899-4c00d02b5f9e"},"vehicle_type_id":"4","last_reported":1716145543,"current_range_meters":31200,"station_id":"ce4bgup2rcd13ifvqco0","pricing_plan_id":"cebpf4jnsgd1na2vs0mg"},{"bike_id":"5b1e39e4-092a-41e3-b5d8-3fd615c5a3c6","system_id":"levelo_inurba_marseille","lat":43.30959,"lon":5.39034,"is_reserved":false,"is_disabled":false,"rental_uris":{"android":"levelo://app?vid=5b1e39e4-092a-41e3-b5d8-3fd615c5a3c6","ios":"levelo://app?vid=5b1e39e4-092a-41e3-b5d8-3fd615c5a3c6"},"vehicle_type_id":"4","last_reported":1716145543,"current_range_meters":5600,"station_id":"ce4bgup2rcd13ifvqco0","pricing_plan_id":"cebpf4jnsgd1na2vs0mg"},{"bike_id":"ab2441cd-05b5-4245-98eb-b0fc29e1988f","system_id":"levelo_inurba_marseille","lat":43.30955,"lon":5.39034,"is_reserved":false,"is_disabled":false,"rental_uris":{"android":"levelo://app?vid=ab2441cd-05b5-4245-98eb-b0fc29e1988f","ios":"levelo://app?vid=ab2441cd-05b5-4245-98eb-b0fc29e1988f"},"vehicle_type_id":"4","last_reported":1716145543,"current_range_meters":18000,"station_id":"ce4bgup2rcd13ifvqco0","pricing_plan_id":"cebpf4jnsgd1na2vs0mg"},{"bike_id":"03cf664c-4f74-4038-a6ee-067d2ae4e3c2","system_id":"levelo_inurba_marseille","lat":43.30956,"lon":5.390345,"is_reserved":false,"is_disabled":false,"rental_uris":{"android":"levelo://app?vid=03cf664c-4f74-4038-a6ee-067d2ae4e3c2","ios":"levelo://app?vid=03cf664c-4f74-4038-a6ee-067d2ae4e3c2"},"vehicle_type_id":"4","last_reported":1716145543,"current_range_meters":4800,"station_id":"ce4bgup2rcd13ifvqco0","pricing_plan_id":"cebpf4jnsgd1na2vs0mg"},{"bike_id":"4ec650ec-4ff5-42ee-957c-645839f17ce0","system_id":"levelo_inurba_marseille","lat":43.30953,"lon":5.39034,"is_reserved":false,"is_disabled":false,"rental_uris":{"android":"levelo://app?vid=4ec650ec-4ff5-42ee-957c-645839f17ce0","ios":"levelo://app?vid=4ec650ec-4ff5-42ee-957c-645839f17ce0"},"vehicle_type_id":"4","last_reported":1716145543,"current_range_meters":4400,"station_id":"ce4bgup2rcd13ifvqco0","pricing_plan_id":"cebpf4jnsgd1na2vs0mg"},{"bike_id":"0b54e17c-db73-4dd9-8960-57c6a1b3a79c","system_id":"levelo_inurba_marseille","lat":43.309498,"lon":5.39035,"is_reserved":false,"is_disabled":false,"rental_uris":{"android":"levelo://app?vid=0b54e17c-db73-4dd9-8960-57c6a1b3a79c","ios":"levelo://app?vid=0b54e17c-db73-4dd9-8960-57c6a1b3a79c"},"vehicle_type_id":"4","last_reported":1716145543,"current_range_meters":30000,"station_id":"ce4bgup2rcd13ifvqco0","pricing_plan_id":"cebpf4jnsgd1na2vs0mg"},{"bike_id":"189701cc-24b9-4757-8e8b-18b6a50931e4","system_id":"levelo_inurba_marseille","lat":43.30949,"lon":5.390365,"is_reserved":false,"is_disabled":false,"rental_uris":{"android":"levelo://app?vid=189701cc-24b9-4757-8e8b-18b6a50931e4","ios":"levelo://app?vid=189701cc-24b9-4757-8e8b-18b6a50931e4"},"vehicle_type_id":"4","last_reported":1716145543,"current_range_meters":16000,"station_id":"ce4bgup2rcd13ifvqco0","pricing_plan_id":"cebpf4jnsgd1na2vs0mg"},{"bike_id":"bdf840a5-760c-47b6-8cee-b75f06b8c922","system_id":"levelo_inurba_marseille","lat":43.309589,"lon":5.390258,"is_reserved":false,"is_disabled":false,"rental_uris":{"android":"levelo://app?vid=bdf840a5-760c-47b6-8cee-b75f06b8c922","ios":"levelo://app?vid=bdf840a5-760c-47b6-8cee-b75f06b8c922"},"vehicle_type_id":"4","last_reported":1716145543,"current_range_meters":31200,"station_id":"ce4bgup2rcd13ifvqco0","pricing_plan_id":"cebpf4jnsgd1na2vs0mg"},{"bike_id":"8cf4bee6-5bd9-42f2-9ee5-de5219a67ec5","system_id":"levelo_inurba_marseille","lat":43.309604,"lon":5.390399,"is_reserved":false,"is_disabled":false,"rental_uris":{"android":"levelo://app?vid=8cf4bee6-5bd9-42f2-9ee5-de5219a67ec5","ios":"levelo://app?vid=8cf4bee6-5bd9-42f2-9ee5-de5219a67ec5"},"vehicle_type_id":"4","last_reported":1716145543,"current_range_meters":14400,"station_id":"ce4bgup2rcd13ifvqco0","pricing_plan_id":"cebpf4jnsgd1na2vs0mg"},{"bike_id":"156f5ed3-29fa-4069-a2bb-1ca03c49b1ef","system_id":"levelo_inurba_marseille","lat":43.299028,"lon":5.381509,"is_reserved":false,"is_disabled":false,"rental_uris":{"android":"levelo://app?vid=156f5ed3-29fa-4069-a2bb-1ca03c49b1ef","ios":"levelo://app?vid=156f5ed3-29fa-4069-a2bb-1ca03c49b1ef"},"vehicle_type_id":"4","last_reported":1716145543,"current_range_meters":6000,"station_id":"ce4bgj12rcd13ifvqbc0","pricing_plan_id":"cebpf4jnsgd1na2vs0mg"},{"bike_id":"035dac16-6b72-4c12-8e5f-7cba9776e40e","system_id":"levelo_inurba_marseille","lat":43.30954,"lon":5.39039,"is_reserved":false,"is_disabled":false,"rental_uris":{"android":"levelo://app?vid=035dac16-6b72-4c12-8e5f-7cba9776e40e","ios":"levelo://app?vid=035dac16-6b72-4c12-8e5f-7cba9776e40e"},"vehicle_type_id":"4","last_reported":1716145543,"current_range_meters":3200,"station_id":"ce4bgup2rcd13ifvqco0","pricing_plan_id":"cebpf4jnsgd1na2vs0mg"},{"bike_id":"3569d4af-481f-41e1-8a01-223f6106d255","system_id":"levelo_inurba_marseille","lat":43.3095,"lon":5.39038,"is_reserved":false,"is_disabled":false,"rental_uris":{"android":"levelo://app?vid=3569d4af-481f-41e1-8a01-223f6106d255","ios":"levelo://app?vid=3569d4af-481f-41e1-8a01-223f6106d255"},"vehicle_type_id":"4","last_reported":1716145543,"current_range_meters":18400,"station_id":"ce4bgup2rcd13ifvqco0","pricing_plan_id":"cebpf4jnsgd1na2vs0mg"},{"bike_id":"eb7a8463-98cd-4efe-8a84-e78c8520693f","system_id":"levelo_inurba_marseille","lat":43.309541,"lon":5.390411,"is_reserved":false,"is_disabled":false,"rental_uris":{"android":"levelo://app?vid=eb7a8463-98cd-4efe-8a84-e78c8520693f","ios":"levelo://app?vid=eb7a8463-98cd-4efe-8a84-e78c8520693f"},"vehicle_type_id":"4","last_reported":1716145543,"current_range_meters":1600,"station_id":"ce4bgup2rcd13ifvqco0","pricing_plan_id":"cebpf4jnsgd1na2vs0mg"},{"bike_id":"c7a0daf9-1aad-4c3a-83e0-c5404fa14e0d","system_id":"levelo_inurba_marseille","lat":43.309589,"lon":5.390258,"is_reserved":false,"is_disabled":false,"rental_uris":{"android":"levelo://app?vid=c7a0daf9-1aad-4c3a-83e0-c5404fa14e0d","ios":"levelo://app?vid=c7a0daf9-1aad-4c3a-83e0-c5404fa14e0d"},"vehicle_type_id":"4","last_reported":1716145543,"current_range_meters":24000,"station_id":"ce4bgup2rcd13ifvqco0","pricing_plan_id":"cebpf4jnsgd1na2vs0mg"},{"bike_id":"12876f07-63c2-4b43-ace4-e7fd34b19c4b","system_id":"levelo_inurba_marseille","lat":43.309589,"lon":5.390258,"is_reserved":false,"is_disabled":false,"rental_uris":{"android":"levelo://app?vid=12876f07-63c2-4b43-ace4-e7fd34b19c4b","ios":"levelo://app?vid=12876f07-63c2-4b43-ace4-e7fd34b19c4b"},"vehicle_type_id":"4","last_reported":1716145543,"current_range_meters":19200,"station_id":"ce4bgup2rcd13ifvqco0","pricing_plan_id":"cebpf4jnsgd1na2vs0mg"},{"bike_id":"5d2174d9-3095-4497-9cee-282e5d87cf65","system_id":"levelo_inurba_marseille","lat":43.309589,"lon":5.390258,"is_reserved":false,"is_disabled":false,"rental_uris":{"android":"levelo://app?vid=5d2174d9-3095-4497-9cee-282e5d87cf65","ios":"levelo://app?vid=5d2174d9-3095-4497-9cee-282e5d87cf65"},"vehicle_type_id":"4","last_reported":1716145543,"current_range_meters":12400,"station_id":"ce4bgup2rcd13ifvqco0","pricing_plan_id":"cebpf4jnsgd1na2vs0mg"},{"bike_id":"4b9e8f3d-278f-49c5-a800-15fb973d6907","system_id":"levelo_inurba_marseille","lat":43.309454,"lon":5.390448,"is_reserved":false,"is_disabled":false,"rental_uris":{"android":"levelo://app?vid=4b9e8f3d-278f-49c5-a800-15fb973d6907","ios":"levelo://app?vid=4b9e8f3d-278f-49c5-a800-15fb973d6907"},"vehicle_type_id":"4","last_reported":1716145543,"current_range_meters":31200,"station_id":"","pricing_plan_id":"cebpf4jnsgd1na2vs0mg"},{"bike_id":"0497dfee-4228-484b-bb6c-ba12168f543c","system_id":"levelo_inurba_marseille","lat":43.309589,"lon":5.390258,"is_reserved":false,"is_disabled":false,"rental_uris":{"android":"levelo://app?vid=0497dfee-4228-484b-bb6c-ba12168f543c","ios":"levelo://app?vid=0497dfee-4228-484b-bb6c-ba12168f543c"},"vehicle_type_id":"4","last_reported":1716145543,"current_range_meters":15200,"station_id":"ce4bgup2rcd13ifvqco0","pricing_plan_id":"cebpf4jnsgd1na2vs0mg"},{"bike_id":"1a458ed1-fbae-4504-9de6-19b02153f22f","system_id":"levelo_inurba_marseille","lat":43.309589,"lon":5.390258,"is_reserved":false,"is_disabled":false,"rental_uris":{"android":"levelo://app?vid=1a458ed1-fbae-4504-9de6-19b02153f22f","ios":"levelo://app?vid=1a458ed1-fbae-4504-9de6-19b02153f22f"},"vehicle_type_id":"4","last_reported":1716145543,"current_range_meters":31200,"station_id":"ce4bgup2rcd13ifvqco0","pricing_plan_id":"cebpf4jnsgd1na2vs0mg"},{"bike_id":"bfa4b131-7c5d-421d-a594-1272140bd217","system_id":"levelo_inurba_marseille","lat":43.309468,"lon":5.3905,"is_reserved":false,"is_disabled":false,"rental_uris":{"android":"levelo://app?vid=bfa4b131-7c5d-421d-a594-1272140bd217","ios":"levelo://app?vid=bfa4b131-7c5d-421d-a594-1272140bd217"},"vehicle_type_id":"4","last_reported":1716145543,"current_range_meters":0,"station_id":"ce4bgup2rcd13ifvqco0","pricing_plan_id":"cebpf4jnsgd1na2vs0mg"},{"bike_id":"c7d4b29b-55c7-425e-827c-a0eb353c20b7","system_id":"levelo_inurba_marseille","lat":43.309589,"lon":5.390258,"is_reserved":false,"is_disabled":false,"rental_uris":{"android":"levelo://app?vid=c7d4b29b-55c7-425e-827c-a0eb353c20b7","ios":"levelo://app?vid=c7d4b29b-55c7-425e-827c-a0eb353c20b7"},"vehicle_type_id":"4","last_reported":1716145543,"current_range_meters":22000,"station_id":"ce4bgup2rcd13ifvqco0","pricing_plan_id":"cebpf4jnsgd1na2vs0mg"},{"bike_id":"104f6def-62e4-42c9-936b-4cc39294bd16","system_id":"levelo_inurba_marseille","lat":43.317563,"lon":5.39025,"is_reserved":false,"is_disabled":false,"rental_uris":{"android":"levelo://app?vid=104f6def-62e4-42c9-936b-4cc39294bd16","ios":"levelo://app?vid=104f6def-62e4-42c9-936b-4cc39294bd16"},"vehicle_type_id":"4","last_reported":1716145543,"current_range_meters":0,"station_id":"ce4bhqp2rcd13ifvqhng","pricing_plan_id":"cebpf4jnsgd1na2vs0mg"},{"bike_id":"0ea4580a-c8d7-417a-b01a-3cba3184b7b9","system_id":"levelo_inurba_marseille","lat":43.298037,"lon":5.381066,"is_reserved":false,"is_disabled":false,"rental_uris":{"android":"levelo://app?vid=0ea4580a-c8d7-417a-b01a-3cba3184b7b9","ios":"levelo://app?vid=0ea4580a-c8d7-417a-b01a-3cba3184b7b9"},"vehicle_type_id":"4","last_reported":1716145543,"current_range_meters":15200,"station_id":"ce4bgip2rcd13ifvqbb0","pricing_plan_id":"cebpf4jnsgd1na2vs0mg"},{"bike_id":"7cd55e4f-9f5c-47ca-ad5d-fdd3d200579a","system_id":"levelo_inurba_marseille","lat":43.304274,"lon":5.388873,"is_reserved":false,"is_disabled":false,"rental_uris":{"android":"levelo://app?vid=7cd55e4f-9f5c-47ca-ad5d-fdd3d200579a","ios":"levelo://app?vid=7cd55e4f-9f5c-47ca-ad5d-fdd3d200579a"},"vehicle_type_id":"4","last_reported":1716145543,"current_range_meters":23200,"station_id":"ce4bgk12rcd13ifvqbi0","pricing_plan_id":"cebpf4jnsgd1na2vs0mg"},{"bike_id":"01403138-cf26-4636-a1c4-56268ef4d96f","system_id":"levelo_inurba_marseille","lat":43.2979,"lon":5.38107,"is_reserved":false,"is_disabled":false,"rental_uris":{"android":"levelo://app?vid=01403138-cf26-4636-a1c4-56268ef4d96f","ios":"levelo://app?vid=01403138-cf26-4636-a1c4-56268ef4d96f"},"vehicle_type_id":"4","last_reported":1716145543,"current_range_meters":2800,"station_id":"ce4bgip2rcd13ifvqbb0","pricing_plan_id":"cebpf4jnsgd1na2vs0mg"},{"bike_id":"812b9636-4431-419b-b8b1-11c1754bbef6","system_id":"levelo_inurba_marseille","lat":43.304278,"lon":5.388868,"is_reserved":false,"is_disabled":false,"rental_uris":{"android":"levelo://app?vid=812b9636-4431-419b-b8b1-11c1754bbef6","ios":"levelo://app?vid=812b9636-4431-419b-b8b1-11c1754bbef6"},"vehicle_type_id":"4","last_reported":1716145543,"current_range_meters":4000,"station_id":"ce4bgk12rcd13ifvqbi0","pricing_plan_id":"cebpf4jnsgd1na2vs0mg"},{"bike_id":"0142233e-de9d-446c-b408-d1e6e38b60b3","system_id":"levelo_inurba_marseille","lat":43.29616,"lon":5.37715,"is_reserved":false,"is_disabled":false,"rental_uris":{"android":"levelo://app?vid=0142233e-de9d-446c-b408-d1e6e38b60b3","ios":"levelo://app?vid=0142233e-de9d-446c-b408-d1e6e38b60b3"},"vehicle_type_id":"4","last_reported":1716145543,"current_range_meters":0,"station_id":"ce4bgi92rcd13ifvqb90","pricing_plan_id":"cebpf4jnsgd1na2vs0mg"},{"bike_id":"f259b056-5b05-4fd2-b90f-972fe8aafe63","system_id":"levelo_inurba_marseille","lat":43.296078,"lon":5.376906,"is_reserved":false,"is_disabled":false,"rental_uris":{"android":"levelo://app?vid=f259b056-5b05-4fd2-b90f-972fe8aafe63","ios":"levelo://app?vid=f259b056-5b05-4fd2-b90f-972fe8aafe63"},"vehicle_type_id":"4","last_reported":1716145543,"current_range_meters":0,"station_id":"ce4bgi92rcd13ifvqb90","pricing_plan_id":"cebpf4jnsgd1na2vs0mg"},{"bike_id":"a80a2d59-5b0a-4d24-bd27-cbff6b8c79a1","system_id":"levelo_inurba_marseille","lat":43.296277,"lon":5.377108,"is_reserved":false,"is_disabled":false,"rental_uris":{"android":"levelo://app?vid=a80a2d59-5b0a-4d24-bd27-cbff6b8c79a1","ios":"levelo://app?vid=a80a2d59-5b0a-4d24-bd27-cbff6b8c79a1"},"vehicle_type_id":"4","last_reported":1716145543,"current_range_meters":23600,"station_id":"ce4bgi92rcd13ifvqb90","pricing_plan_id":"cebpf4jnsgd1na2vs0mg"},{"bike_id":"c70b4acd-cb69-43f6-a57c-100a5b424818","system_id":"levelo_inurba_marseille","lat":43.299717,"lon":5.384845,"is_reserved":false,"is_disabled":false,"rental_uris":{"android":"levelo://app?vid=c70b4acd-cb69-43f6-a57c-100a5b424818","ios":"levelo://app?vid=c70b4acd-cb69-43f6-a57c-100a5b424818"},"vehicle_type_id":"4","last_reported":1716145543,"current_range_meters":16000,"station_id":"ce4bgj92rcd13ifvqbd0","pricing_plan_id":"cebpf4jnsgd1na2vs0mg"},{"bike_id":"ae02b4a1-1ad6-4a90-a505-01f9246afbef","system_id":"levelo_inurba_marseille","lat":43.299707,"lon":5.384859,"is_reserved":false,"is_disabled":false,"rental_uris":{"android":"levelo://app?vid=ae02b4a1-1ad6-4a90-a505-01f9246afbef","ios":"levelo://app?vid=ae02b4a1-1ad6-4a90-a505-01f9246afbef"},"vehicle_type_id":"4","last_reported":1716145543,"current_range_meters":0,"station_id":"ce4bgj92rcd13ifvqbd0","pricing_plan_id":"cebpf4jnsgd1na2vs0mg"},{"bike_id":"3d47f9af-223a-4942-8f2c-f6af7f018c56","system_id":"levelo_inurba_marseille","lat":43.299717,"lon":5.384845,"is_reserved":false,"is_disabled":false,"rental_uris":{"android":"levelo://app?vid=3d47f9af-223a-4942-8f2c-f6af7f018c56","ios":"levelo://app?vid=3d47f9af-223a-4942-8f2c-f6af7f018c56"},"vehicle_type_id":"4","last_reported":1716145543,"current_range_meters":0,"station_id":"ce4bgj92rcd13ifvqbd0","pricing_plan_id":"cebpf4jnsgd1na2vs0mg"},{"bike_id":"79d6e84e-e72c-4083-a686-b6e531075e12","system_id":"levelo_inurba_marseille","lat":43.299717,"lon":5.384845,"is_reserved":false,"is_disabled":false,"rental_uris":{"android":"levelo://app?vid=79d6e84e-e72c-4083-a686-b6e531075e12","ios":"levelo://app?vid=79d6e84e-e72c-4083-a686-b6e531075e12"},"vehicle_type_id":"4","last_reported":1716145543,"current_range_meters":0,"station_id":"ce4bgj92rcd13ifvqbd0","pricing_plan_id":"cebpf4jnsgd1na2vs0mg"},{"bike_id":"d88dd191-be08-4859-a642-627939d405ed","system_id":"levelo_inurba_marseille","lat":43.29655,"lon":5.3796,"is_reserved":false,"is_disabled":false,"rental_uris":{"android":"levelo://app?vid=d88dd191-be08-4859-a642-627939d405ed","ios":"levelo://app?vid=d88dd191-be08-4859-a642-627939d405ed"},"vehicle_type_id":"4","last_reported":1716145543,"current_range_meters":10800,"station_id":"","pricing_plan_id":"cebpf4jnsgd1na2vs0mg"},{"bike_id":"139c5c91-dd8e-46c3-b26c-7e2207bda2bb","system_id":"levelo_inurba_marseille","lat":43.30089,"lon":5.38729,"is_reserved":false,"is_disabled":false,"rental_uris":{"android":"levelo://app?vid=139c5c91-dd8e-46c3-b26c-7e2207bda2bb","ios":"levelo://app?vid=139c5c91-dd8e-46c3-b26c-7e2207bda2bb"},"vehicle_type_id":"4","last_reported":1716145543,"current_range_meters":22800,"station_id":"","pricing_plan_id":"cebpf4jnsgd1na2vs0mg"},{"bike_id":"a301be14-403f-4d20-83a5-f89d9466d501","system_id":"levelo_inurba_marseille","lat":43.29487,"lon":5.37609,"is_reserved":false,"is_disabled":false,"rental_uris":{"android":"levelo://app?vid=a301be14-403f-4d20-83a5-f89d9466d501","ios":"levelo://app?vid=a301be14-403f-4d20-83a5-f89d9466d501"},"vehicle_type_id":"4","last_reported":1716145543,"current_range_meters":18800,"station_id":"ce4bhgp2rcd13ifvqfd0","pricing_plan_id":"cebpf4jnsgd1na2vs0mg"},{"bike_id":"d5d2eea5-1adb-4a93-8baa-386795011fc2","system_id":"levelo_inurba_marseille","lat":43.325594,"lon":5.386439,"is_reserved":false,"is_disabled":false,"rental_uris":{"android":"levelo://app?vid=d5d2eea5-1adb-4a93-8baa-386795011fc2","ios":"levelo://app?vid=d5d2eea5-1adb-4a93-8baa-386795011fc2"},"vehicle_type_id":"4","last_reported":1716145543,"current_range_meters":0,"station_id":"","pricing_plan_id":"cebpf4jnsgd1na2vs0mg"},{"bike_id":"0943445a-eeff-4693-94d2-b11a999da5b9","system_id":"levelo_inurba_marseille","lat":43.32367,"lon":5.388836,"is_reserved":false,"is_disabled":false,"rental_uris":{"android":"levelo://app?vid=0943445a-eeff-4693-94d2-b11a999da5b9","ios":"levelo://app?vid=0943445a-eeff-4693-94d2-b11a999da5b9"},"vehicle_type_id":"4","last_reported":1716145543,"current_range_meters":0,"station_id":"ce4bhqp2rcd13ifvqhog","pricing_plan_id":"cebpf4jnsgd1na2vs0mg"},{"bike_id":"12604bb7-fcbb-4962-8fdc-fee3bde7e254","system_id":"levelo_inurba_marseille","lat":43.29602,"lon":5.381084,"is_reserved":false,"is_disabled":false,"rental_uris":{"android":"levelo://app?vid=12604bb7-fcbb-4962-8fdc-fee3bde7e254","ios":"levelo://app?vid=12604bb7-fcbb-4962-8fdc-fee3bde7e254"},"vehicle_type_id":"4","last_reported":1716145543,"current_range_meters":18400,"station_id":"ce4bgl12rcd13ifvqbo0","pricing_plan_id":"cebpf4jnsgd1na2vs0mg"},{"bike_id":"6674a00e-0f27-49f9-b070-2244f22314f6","system_id":"levelo_inurba_marseille","lat":43.29602,"lon":5.381084,"is_reserved":false,"is_disabled":false,"rental_uris":{"android":"levelo://app?vid=6674a00e-0f27-49f9-b070-2244f22314f6","ios":"levelo://app?vid=6674a00e-0f27-49f9-b070-2244f22314f6"},"vehicle_type_id":"4","last_reported":1716145543,"current_range_meters":0,"station_id":"ce4bgl12rcd13ifvqbo0","pricing_plan_id":"cebpf4jnsgd1na2vs0mg"},{"bike_id":"ef41ec58-80b0-4435-acfc-337ec7c528d2","system_id":"levelo_inurba_marseille","lat":43.29602,"lon":5.381084,"is_reserved":false,"is_disabled":false,"rental_uris":{"android":"levelo://app?vid=ef41ec58-80b0-4435-acfc-337ec7c528d2","ios":"levelo://app?vid=ef41ec58-80b0-4435-acfc-337ec7c528d2"},"vehicle_type_id":"4","last_reported":1716145543,"current_range_meters":21200,"station_id":"ce4bgl12rcd13ifvqbo0","pricing_plan_id":"cebpf4jnsgd1na2vs0mg"},{"bike_id":"7a66f850-e15f-498e-b6ff-efbfa9c1229a","system_id":"levelo_inurba_marseille","lat":43.29602,"lon":5.38114,"is_reserved":false,"is_disabled":false,"rental_uris":{"android":"levelo://app?vid=7a66f850-e15f-498e-b6ff-efbfa9c1229a","ios":"levelo://app?vid=7a66f850-e15f-498e-b6ff-efbfa9c1229a"},"vehicle_type_id":"4","last_reported":1716145543,"current_range_meters":0,"station_id":"ce4bgl12rcd13ifvqbo0","pricing_plan_id":"cebpf4jnsgd1na2vs0mg"},{"bike_id":"fec38909-a4bb-43f3-8aa7-a767fc302ee8","system_id":"levelo_inurba_marseille","lat":43.29602,"lon":5.381084,"is_reserved":false,"is_disabled":false,"rental_uris":{"android":"levelo://app?vid=fec38909-a4bb-43f3-8aa7-a767fc302ee8","ios":"levelo://app?vid=fec38909-a4bb-43f3-8aa7-a767fc302ee8"},"vehicle_type_id":"4","last_reported":1716145543,"current_range_meters":11200,"station_id":"ce4bgl12rcd13ifvqbo0","pricing_plan_id":"cebpf4jnsgd1na2vs0mg"},{"bike_id":"f2b2d3b3-47cf-463c-951d-f1e238517189","system_id":"levelo_inurba_marseille","lat":43.29602,"lon":5.381084,"is_reserved":false,"is_disabled":false,"rental_uris":{"android":"levelo://app?vid=f2b2d3b3-47cf-463c-951d-f1e238517189","ios":"levelo://app?vid=f2b2d3b3-47cf-463c-951d-f1e238517189"},"vehicle_type_id":"4","last_reported":1716145543,"current_range_meters":5600,"station_id":"ce4bgl12rcd13ifvqbo0","pricing_plan_id":"cebpf4jnsgd1na2vs0mg"},{"bike_id":"f424808e-7372-437c-b921-5b50cf282c33","system_id":"levelo_inurba_marseille","lat":43.29601,"lon":5.381084,"is_reserved":false,"is_disabled":false,"rental_uris":{"android":"levelo://app?vid=f424808e-7372-437c-b921-5b50cf282c33","ios":"levelo://app?vid=f424808e-7372-437c-b921-5b50cf282c33"},"vehicle_type_id":"4","last_reported":1716145543,"current_range_meters":0,"station_id":"ce4bgl12rcd13ifvqbo0","pricing_plan_id":"cebpf4jnsgd1na2vs0mg"},{"bike_id":"26d73094-9c5e-4cdc-a377-bb1b17486145","system_id":"levelo_inurba_marseille","lat":43.293259,"lon":5.371586,"is_reserved":false,"is_disabled":false,"rental_uris":{"android":"levelo://app?vid=26d73094-9c5e-4cdc-a377-bb1b17486145","ios":"levelo://app?vid=26d73094-9c5e-4cdc-a377-bb1b17486145"},"vehicle_type_id":"4","last_reported":1716145543,"current_range_meters":7200,"station_id":"ce4bgh92rcd13ifvqb40","pricing_plan_id":"cebpf4jnsgd1na2vs0mg"},{"bike_id":"e7ec8515-6ca1-46da-bad2-489486f01d84","system_id":"levelo_inurba_marseille","lat":43.293069,"lon":5.371783,"is_reserved":false,"is_disabled":false,"rental_uris":{"android":"levelo://app?vid=e7ec8515-6ca1-46da-bad2-489486f01d84","ios":"levelo://app?vid=e7ec8515-6ca1-46da-bad2-489486f01d84"},"vehicle_type_id":"4","last_reported":1716145543,"current_range_meters":0,"station_id":"ce4bgh92rcd13ifvqb40","pricing_plan_id":"cebpf4jnsgd1na2vs0mg"},{"bike_id":"7a985710-672b-4882-9bdb-df0a4f5ceff8","system_id":"levelo_inurba_marseille","lat":43.293259,"lon":5.371586,"is_reserved":false,"is_disabled":false,"rental_uris":{"android":"levelo://app?vid=7a985710-672b-4882-9bdb-df0a4f5ceff8","ios":"levelo://app?vid=7a985710-672b-4882-9bdb-df0a4f5ceff8"},"vehicle_type_id":"4","last_reported":1716145543,"current_range_meters":2800,"station_id":"ce4bgh92rcd13ifvqb40","pricing_plan_id":"cebpf4jnsgd1na2vs0mg"},{"bike_id":"3f698924-c1bf-4f68-873f-34d217d73a35","system_id":"levelo_inurba_marseille","lat":43.29305,"lon":5.37171,"is_reserved":false,"is_disabled":false,"rental_uris":{"android":"levelo://app?vid=3f698924-c1bf-4f68-873f-34d217d73a35","ios":"levelo://app?vid=3f698924-c1bf-4f68-873f-34d217d73a35"},"vehicle_type_id":"4","last_reported":1716145543,"current_range_meters":800,"station_id":"ce4bgh92rcd13ifvqb40","pricing_plan_id":"cebpf4jnsgd1na2vs0mg"},{"bike_id":"a75a3851-5db0-4de6-b34e-933a794622f1","system_id":"levelo_inurba_marseille","lat":43.292749,"lon":5.368402,"is_reserved":false,"is_disabled":false,"rental_uris":{"android":"levelo://app?vid=a75a3851-5db0-4de6-b34e-933a794622f1","ios":"levelo://app?vid=a75a3851-5db0-4de6-b34e-933a794622f1"},"vehicle_type_id":"4","last_reported":1716145543,"current_range_meters":10800,"station_id":"ce4bhbp2rcd13ifvqesg","pricing_plan_id":"cebpf4jnsgd1na2vs0mg"},{"bike_id":"aa15c50e-71d0-40a5-8e51-6be0e048aed5","system_id":"levelo_inurba_marseille","lat":43.293259,"lon":5.371586,"is_reserved":false,"is_disabled":false,"rental_uris":{"android":"levelo://app?vid=aa15c50e-71d0-40a5-8e51-6be0e048aed5","ios":"levelo://app?vid=aa15c50e-71d0-40a5-8e51-6be0e048aed5"},"vehicle_type_id":"4","last_reported":1716145543,"current_range_meters":2800,"station_id":"ce4bgh92rcd13ifvqb40","pricing_plan_id":"cebpf4jnsgd1na2vs0mg"},{"bike_id":"678977e2-cfb5-4c37-b668-f0f367e834e2","system_id":"levelo_inurba_marseille","lat":43.292733,"lon":5.368272,"is_reserved":false,"is_disabled":false,"rental_uris":{"android":"levelo://app?vid=678977e2-cfb5-4c37-b668-f0f367e834e2","ios":"levelo://app?vid=678977e2-cfb5-4c37-b668-f0f367e834e2"},"vehicle_type_id":"4","last_reported":1716145543,"current_range_meters":0,"station_id":"ce4bhbp2rcd13ifvqesg","pricing_plan_id":"cebpf4jnsgd1na2vs0mg"},{"bike_id":"bdb4a34a-dfbd-4840-8144-adc201327cbd","system_id":"levelo_inurba_marseille","lat":43.29302,"lon":5.37176,"is_reserved":false,"is_disabled":false,"rental_uris":{"android":"levelo://app?vid=bdb4a34a-dfbd-4840-8144-adc201327cbd","ios":"levelo://app?vid=bdb4a34a-dfbd-4840-8144-adc201327cbd"},"vehicle_type_id":"4","last_reported":1716145543,"current_range_meters":16400,"station_id":"ce4bgh92rcd13ifvqb40","pricing_plan_id":"cebpf4jnsgd1na2vs0mg"},{"bike_id":"144690e6-1fca-4496-bd12-1fa9ba6e6097","system_id":"levelo_inurba_marseille","lat":43.292749,"lon":5.368398,"is_reserved":false,"is_disabled":false,"rental_uris":{"android":"levelo://app?vid=144690e6-1fca-4496-bd12-1fa9ba6e6097","ios":"levelo://app?vid=144690e6-1fca-4496-bd12-1fa9ba6e6097"},"vehicle_type_id":"4","last_reported":1716145543,"current_range_meters":4800,"station_id":"ce4bhbp2rcd13ifvqesg","pricing_plan_id":"cebpf4jnsgd1na2vs0mg"},{"bike_id":"173fb7dd-430c-4942-97e5-9758ce21cf4c","system_id":"levelo_inurba_marseille","lat":43.292749,"lon":5.368402,"is_reserved":false,"is_disabled":false,"rental_uris":{"android":"levelo://app?vid=173fb7dd-430c-4942-97e5-9758ce21cf4c","ios":"levelo://app?vid=173fb7dd-430c-4942-97e5-9758ce21cf4c"},"vehicle_type_id":"4","last_reported":1716145543,"current_range_meters":400,"station_id":"ce4bhbp2rcd13ifvqesg","pricing_plan_id":"cebpf4jnsgd1na2vs0mg"},{"bike_id":"0d842157-ad3c-4a23-8036-c05f3e062de5","system_id":"levelo_inurba_marseille","lat":43.292749,"lon":5.368398,"is_reserved":false,"is_disabled":false,"rental_uris":{"android":"levelo://app?vid=0d842157-ad3c-4a23-8036-c05f3e062de5","ios":"levelo://app?vid=0d842157-ad3c-4a23-8036-c05f3e062de5"},"vehicle_type_id":"4","last_reported":1716145543,"current_range_meters":29600,"station_id":"ce4bhbp2rcd13ifvqesg","pricing_plan_id":"cebpf4jnsgd1na2vs0mg"},{"bike_id":"c06926c3-ebd0-4bdb-93d9-252db3f7b06f","system_id":"levelo_inurba_marseille","lat":43.30587,"lon":5.39341,"is_reserved":false,"is_disabled":false,"rental_uris":{"android":"levelo://app?vid=c06926c3-ebd0-4bdb-93d9-252db3f7b06f","ios":"levelo://app?vid=c06926c3-ebd0-4bdb-93d9-252db3f7b06f"},"vehicle_type_id":"4","last_reported":1716145543,"current_range_meters":0,"station_id":"ce4bh0p2rcd13ifvqd80","pricing_plan_id":"cebpf4jnsgd1na2vs0mg"},{"bike_id":"2da254fe-b9e1-47fc-82fe-8ca1ea1882ec","system_id":"levelo_inurba_marseille","lat":43.293,"lon":5.37454,"is_reserved":false,"is_disabled":false,"rental_uris":{"android":"levelo://app?vid=2da254fe-b9e1-47fc-82fe-8ca1ea1882ec","ios":"levelo://app?vid=2da254fe-b9e1-47fc-82fe-8ca1ea1882ec"},"vehicle_type_id":"4","last_reported":1716145543,"current_range_meters":0,"station_id":"ce4bgi12rcd13ifvqb70","pricing_plan_id":"cebpf4jnsgd1na2vs0mg"},{"bike_id":"33fa0dfa-986f-4db2-8f8f-430f08667f82","system_id":"levelo_inurba_marseille","lat":43.293009,"lon":5.374584,"is_reserved":false,"is_disabled":false,"rental_uris":{"android":"levelo://app?vid=33fa0dfa-986f-4db2-8f8f-430f08667f82","ios":"levelo://app?vid=33fa0dfa-986f-4db2-8f8f-430f08667f82"},"vehicle_type_id":"4","last_reported":1716145543,"current_range_meters":17200,"station_id":"ce4bgi12rcd13ifvqb70","pricing_plan_id":"cebpf4jnsgd1na2vs0mg"},{"bike_id":"e06ebfcb-a85d-46dd-8623-9e23be455799","system_id":"levelo_inurba_marseille","lat":43.29298,"lon":5.37458,"is_reserved":false,"is_disabled":false,"rental_uris":{"android":"levelo://app?vid=e06ebfcb-a85d-46dd-8623-9e23be455799","ios":"levelo://app?vid=e06ebfcb-a85d-46dd-8623-9e23be455799"},"vehicle_type_id":"4","last_reported":1716145543,"current_range_meters":6800,"station_id":"ce4bgi12rcd13ifvqb70","pricing_plan_id":"cebpf4jnsgd1na2vs0mg"},{"bike_id":"7efe8ab6-9ca2-41d8-912b-cfb749e64027","system_id":"levelo_inurba_marseille","lat":43.292989,"lon":5.374629,"is_reserved":false,"is_disabled":false,"rental_uris":{"android":"levelo://app?vid=7efe8ab6-9ca2-41d8-912b-cfb749e64027","ios":"levelo://app?vid=7efe8ab6-9ca2-41d8-912b-cfb749e64027"},"vehicle_type_id":"4","last_reported":1716145543,"current_range_meters":10400,"station_id":"ce4bgi12rcd13ifvqb70","pricing_plan_id":"cebpf4jnsgd1na2vs0mg"},{"bike_id":"39e7bf66-7cd9-4141-a801-20ce5f4fb55d","system_id":"levelo_inurba_marseille","lat":43.305994,"lon":5.393687,"is_reserved":false,"is_disabled":false,"rental_uris":{"android":"levelo://app?vid=39e7bf66-7cd9-4141-a801-20ce5f4fb55d","ios":"levelo://app?vid=39e7bf66-7cd9-4141-a801-20ce5f4fb55d"},"vehicle_type_id":"4","last_reported":1716145543,"current_range_meters":20800,"station_id":"ce4bh0p2rcd13ifvqd80","pricing_plan_id":"cebpf4jnsgd1na2vs0mg"},{"bike_id":"be67837c-c9f1-43ef-9040-523658b5b4a8","system_id":"levelo_inurba_marseille","lat":43.29295,"lon":5.37462,"is_reserved":false,"is_disabled":false,"rental_uris":{"android":"levelo://app?vid=be67837c-c9f1-43ef-9040-523658b5b4a8","ios":"levelo://app?vid=be67837c-c9f1-43ef-9040-523658b5b4a8"},"vehicle_type_id":"4","last_reported":1716145543,"current_range_meters":0,"station_id":"ce4bgi12rcd13ifvqb70","pricing_plan_id":"cebpf4jnsgd1na2vs0mg"},{"bike_id":"a1991248-3bbb-4d18-b986-16dddff679d1","system_id":"levelo_inurba_marseille","lat":43.305994,"lon":5.393687,"is_reserved":false,"is_disabled":false,"rental_uris":{"android":"levelo://app?vid=a1991248-3bbb-4d18-b986-16dddff679d1","ios":"levelo://app?vid=a1991248-3bbb-4d18-b986-16dddff679d1"},"vehicle_type_id":"4","last_reported":1716145543,"current_range_meters":12400,"station_id":"ce4bh0p2rcd13ifvqd80","pricing_plan_id":"cebpf4jnsgd1na2vs0mg"},{"bike_id":"720eb048-a2f0-48d8-a88b-0ef98c21d133","system_id":"levelo_inurba_marseille","lat":43.292927,"lon":5.374629,"is_reserved":false,"is_disabled":false,"rental_uris":{"android":"levelo://app?vid=720eb048-a2f0-48d8-a88b-0ef98c21d133","ios":"levelo://app?vid=720eb048-a2f0-48d8-a88b-0ef98c21d133"},"vehicle_type_id":"4","last_reported":1716145543,"current_range_meters":21200,"station_id":"ce4bgi12rcd13ifvqb70","pricing_plan_id":"cebpf4jnsgd1na2vs0mg"},{"bike_id":"c2c8abe6-3437-425a-b1e2-c97e5ae8afa3","system_id":"levelo_inurba_marseille","lat":43.29288,"lon":5.37461,"is_reserved":false,"is_disabled":false,"rental_uris":{"android":"levelo://app?vid=c2c8abe6-3437-425a-b1e2-c97e5ae8afa3","ios":"levelo://app?vid=c2c8abe6-3437-425a-b1e2-c97e5ae8afa3"},"vehicle_type_id":"4","last_reported":1716145543,"current_range_meters":14800,"station_id":"ce4bgi12rcd13ifvqb70","pricing_plan_id":"cebpf4jnsgd1na2vs0mg"},{"bike_id":"f36e7d97-dc87-476e-b5ee-9d17d22bf723","system_id":"levelo_inurba_marseille","lat":43.30307,"lon":5.39208,"is_reserved":false,"is_disabled":false,"rental_uris":{"android":"levelo://app?vid=f36e7d97-dc87-476e-b5ee-9d17d22bf723","ios":"levelo://app?vid=f36e7d97-dc87-476e-b5ee-9d17d22bf723"},"vehicle_type_id":"4","last_reported":1716145543,"current_range_meters":17200,"station_id":"ce4bgkh2rcd13ifvqbk0","pricing_plan_id":"cebpf4jnsgd1na2vs0mg"},{"bike_id":"f7c0f9b0-7eea-440e-922b-bf992f1b4f16","system_id":"levelo_inurba_marseille","lat":43.30313,"lon":5.39214,"is_reserved":false,"is_disabled":false,"rental_uris":{"android":"levelo://app?vid=f7c0f9b0-7eea-440e-922b-bf992f1b4f16","ios":"levelo://app?vid=f7c0f9b0-7eea-440e-922b-bf992f1b4f16"},"vehicle_type_id":"4","last_reported":1716145543,"current_range_meters":0,"station_id":"ce4bgkh2rcd13ifvqbk0","pricing_plan_id":"cebpf4jnsgd1na2vs0mg"},{"bike_id":"d4cab04d-b765-4dd4-9cdf-161a2a90c957","system_id":"levelo_inurba_marseille","lat":43.30301,"lon":5.39207,"is_reserved":false,"is_disabled":false,"rental_uris":{"android":"levelo://app?vid=d4cab04d-b765-4dd4-9cdf-161a2a90c957","ios":"levelo://app?vid=d4cab04d-b765-4dd4-9cdf-161a2a90c957"},"vehicle_type_id":"4","last_reported":1716145543,"current_range_meters":31200,"station_id":"ce4bgkh2rcd13ifvqbk0","pricing_plan_id":"cebpf4jnsgd1na2vs0mg"},{"bike_id":"7e4a3fe9-af21-4c5f-8e91-6d1c58d28415","system_id":"levelo_inurba_marseille","lat":43.302992,"lon":5.392136,"is_reserved":false,"is_disabled":false,"rental_uris":{"android":"levelo://app?vid=7e4a3fe9-af21-4c5f-8e91-6d1c58d28415","ios":"levelo://app?vid=7e4a3fe9-af21-4c5f-8e91-6d1c58d28415"},"vehicle_type_id":"4","last_reported":1716145543,"current_range_meters":0,"station_id":"ce4bgkh2rcd13ifvqbk0","pricing_plan_id":"cebpf4jnsgd1na2vs0mg"},{"bike_id":"75595578-be7b-4c7a-b964-4108d1bd339e","system_id":"levelo_inurba_marseille","lat":43.293604,"lon":5.378441,"is_reserved":false,"is_disabled":false,"rental_uris":{"android":"levelo://app?vid=75595578-be7b-4c7a-b964-4108d1bd339e","ios":"levelo://app?vid=75595578-be7b-4c7a-b964-4108d1bd339e"},"vehicle_type_id":"4","last_reported":1716145543,"current_range_meters":0,"station_id":"ce4bgjh2rcd13ifvqbf0","pricing_plan_id":"cebpf4jnsgd1na2vs0mg"},{"bike_id":"c2953f85-5112-46f1-9758-fdb1a22e27da","system_id":"levelo_inurba_marseille","lat":43.292311,"lon":5.360731,"is_reserved":false,"is_disabled":false,"rental_uris":{"android":"levelo://app?vid=c2953f85-5112-46f1-9758-fdb1a22e27da","ios":"levelo://app?vid=c2953f85-5112-46f1-9758-fdb1a22e27da"},"vehicle_type_id":"4","last_reported":1716145543,"current_range_meters":0,"station_id":"ce4bhbh2rcd13ifvqeqg","pricing_plan_id":"cebpf4jnsgd1na2vs0mg"},{"bike_id":"8cf2ea89-9aab-4fb0-90d4-721989611f94","system_id":"levelo_inurba_marseille","lat":43.292311,"lon":5.360731,"is_reserved":false,"is_disabled":false,"rental_uris":{"android":"levelo://app?vid=8cf2ea89-9aab-4fb0-90d4-721989611f94","ios":"levelo://app?vid=8cf2ea89-9aab-4fb0-90d4-721989611f94"},"vehicle_type_id":"4","last_reported":1716145543,"current_range_meters":800,"station_id":"ce4bhbh2rcd13ifvqeqg","pricing_plan_id":"cebpf4jnsgd1na2vs0mg"},{"bike_id":"9192dc59-d59e-4520-b557-d4eda18cf620","system_id":"levelo_inurba_marseille","lat":43.30085,"lon":5.390856,"is_reserved":false,"is_disabled":false,"rental_uris":{"android":"levelo://app?vid=9192dc59-d59e-4520-b557-d4eda18cf620","ios":"levelo://app?vid=9192dc59-d59e-4520-b557-d4eda18cf620"},"vehicle_type_id":"4","last_reported":1716145543,"current_range_meters":6000,"station_id":"ce4bh192rcd13ifvqdb0","pricing_plan_id":"cebpf4jnsgd1na2vs0mg"},{"bike_id":"6f057022-dbe6-4ed1-8555-b09113944267","system_id":"levelo_inurba_marseille","lat":43.298764,"lon":5.388973,"is_reserved":false,"is_disabled":false,"rental_uris":{"android":"levelo://app?vid=6f057022-dbe6-4ed1-8555-b09113944267","ios":"levelo://app?vid=6f057022-dbe6-4ed1-8555-b09113944267"},"vehicle_type_id":"4","last_reported":1716145543,"current_range_meters":11600,"station_id":"ce4bh392rcd13ifvqdl0","pricing_plan_id":"cebpf4jnsgd1na2vs0mg"},{"bike_id":"fe9f1875-6a3e-423c-aa89-c4aab96f160d","system_id":"levelo_inurba_marseille","lat":43.30085,"lon":5.390856,"is_reserved":false,"is_disabled":false,"rental_uris":{"android":"levelo://app?vid=fe9f1875-6a3e-423c-aa89-c4aab96f160d","ios":"levelo://app?vid=fe9f1875-6a3e-423c-aa89-c4aab96f160d"},"vehicle_type_id":"4","last_reported":1716145543,"current_range_meters":4000,"station_id":"ce4bh192rcd13ifvqdb0","pricing_plan_id":"cebpf4jnsgd1na2vs0mg"},{"bike_id":"f9f271a1-8135-4d59-97fe-fc56a793bc20","system_id":"levelo_inurba_marseille","lat":43.300852,"lon":5.390859,"is_reserved":false,"is_disabled":false,"rental_uris":{"android":"levelo://app?vid=f9f271a1-8135-4d59-97fe-fc56a793bc20","ios":"levelo://app?vid=f9f271a1-8135-4d59-97fe-fc56a793bc20"},"vehicle_type_id":"4","last_reported":1716145543,"current_range_meters":8800,"station_id":"ce4bh192rcd13ifvqdb0","pricing_plan_id":"cebpf4jnsgd1na2vs0mg"},{"bike_id":"1350014f-2b19-4cb6-a06a-a5c4d2057984","system_id":"levelo_inurba_marseille","lat":43.298764,"lon":5.388973,"is_reserved":false,"is_disabled":false,"rental_uris":{"android":"levelo://app?vid=1350014f-2b19-4cb6-a06a-a5c4d2057984","ios":"levelo://app?vid=1350014f-2b19-4cb6-a06a-a5c4d2057984"},"vehicle_type_id":"4","last_reported":1716145543,"current_range_meters":0,"station_id":"ce4bh392rcd13ifvqdl0","pricing_plan_id":"cebpf4jnsgd1na2vs0mg"},{"bike_id":"1f3e7094-272b-4556-8d17-ae3505035d12","system_id":"levelo_inurba_marseille","lat":43.293009,"lon":5.374584,"is_reserved":false,"is_disabled":false,"rental_uris":{"android":"levelo://app?vid=1f3e7094-272b-4556-8d17-ae3505035d12","ios":"levelo://app?vid=1f3e7094-272b-4556-8d17-ae3505035d12"},"vehicle_type_id":"4","last_reported":1716145543,"current_range_meters":0,"station_id":"ce4bgi12rcd13ifvqb70","pricing_plan_id":"cebpf4jnsgd1na2vs0mg"},{"bike_id":"7bd2e6de-8a79-4275-8c55-3ac0d154e481","system_id":"levelo_inurba_marseille","lat":43.33222,"lon":5.378551,"is_reserved":false,"is_disabled":false,"rental_uris":{"android":"levelo://app?vid=7bd2e6de-8a79-4275-8c55-3ac0d154e481","ios":"levelo://app?vid=7bd2e6de-8a79-4275-8c55-3ac0d154e481"},"vehicle_type_id":"4","last_reported":1716145543,"current_range_meters":0,"station_id":"","pricing_plan_id":"cebpf4jnsgd1na2vs0mg"},{"bike_id":"3325c8e5-e0e9-4a03-9853-9823b52226be","system_id":"levelo_inurba_marseille","lat":43.298764,"lon":5.388973,"is_reserved":false,"is_disabled":false,"rental_uris":{"android":"levelo://app?vid=3325c8e5-e0e9-4a03-9853-9823b52226be","ios":"levelo://app?vid=3325c8e5-e0e9-4a03-9853-9823b52226be"},"vehicle_type_id":"4","last_reported":1716145543,"current_range_meters":0,"station_id":"ce4bh392rcd13ifvqdl0","pricing_plan_id":"cebpf4jnsgd1na2vs0mg"},{"bike_id":"a040f3ce-e8cd-4098-9ee7-102a70595afc","system_id":"levelo_inurba_marseille","lat":43.29167,"lon":5.37147,"is_reserved":false,"is_disabled":false,"rental_uris":{"android":"levelo://app?vid=a040f3ce-e8cd-4098-9ee7-102a70595afc","ios":"levelo://app?vid=a040f3ce-e8cd-4098-9ee7-102a70595afc"},"vehicle_type_id":"4","last_reported":1716145543,"current_range_meters":0,"station_id":"ce4bha92rcd13ifvqeh0","pricing_plan_id":"cebpf4jnsgd1na2vs0mg"},{"bike_id":"3ede4753-033a-4b3c-afe8-8d48b9903ad3","system_id":"levelo_inurba_marseille","lat":43.291675,"lon":5.371583,"is_reserved":false,"is_disabled":false,"rental_uris":{"android":"levelo://app?vid=3ede4753-033a-4b3c-afe8-8d48b9903ad3","ios":"levelo://app?vid=3ede4753-033a-4b3c-afe8-8d48b9903ad3"},"vehicle_type_id":"4","last_reported":1716145543,"current_range_meters":1200,"station_id":"ce4bha92rcd13ifvqeh0","pricing_plan_id":"cebpf4jnsgd1na2vs0mg"},{"bike_id":"41bc6e8b-7210-4862-85f8-e605c9e2b7b0","system_id":"levelo_inurba_marseille","lat":43.298764,"lon":5.388973,"is_reserved":false,"is_disabled":false,"rental_uris":{"android":"levelo://app?vid=41bc6e8b-7210-4862-85f8-e605c9e2b7b0","ios":"levelo://app?vid=41bc6e8b-7210-4862-85f8-e605c9e2b7b0"},"vehicle_type_id":"4","last_reported":1716145543,"current_range_meters":12000,"station_id":"ce4bh392rcd13ifvqdl0","pricing_plan_id":"cebpf4jnsgd1na2vs0mg"},{"bike_id":"b8162212-a048-4895-99cb-8a1428306775","system_id":"levelo_inurba_marseille","lat":43.29865,"lon":5.38904,"is_reserved":false,"is_disabled":false,"rental_uris":{"android":"levelo://app?vid=b8162212-a048-4895-99cb-8a1428306775","ios":"levelo://app?vid=b8162212-a048-4895-99cb-8a1428306775"},"vehicle_type_id":"4","last_reported":1716145543,"current_range_meters":16800,"station_id":"ce4bh392rcd13ifvqdl0","pricing_plan_id":"cebpf4jnsgd1na2vs0mg"},{"bike_id":"4c1940df-8410-485c-a22f-ca31be830404","system_id":"levelo_inurba_marseille","lat":43.29869,"lon":5.38921,"is_reserved":false,"is_disabled":false,"rental_uris":{"android":"levelo://app?vid=4c1940df-8410-485c-a22f-ca31be830404","ios":"levelo://app?vid=4c1940df-8410-485c-a22f-ca31be830404"},"vehicle_type_id":"4","last_reported":1716145543,"current_range_meters":0,"station_id":"ce4bh392rcd13ifvqdl0","pricing_plan_id":"cebpf4jnsgd1na2vs0mg"},{"bike_id":"2884f98f-4986-4d30-b8bd-5765897e6b69","system_id":"levelo_inurba_marseille","lat":43.313291,"lon":5.396838,"is_reserved":false,"is_disabled":false,"rental_uris":{"android":"levelo://app?vid=2884f98f-4986-4d30-b8bd-5765897e6b69","ios":"levelo://app?vid=2884f98f-4986-4d30-b8bd-5765897e6b69"},"vehicle_type_id":"4","last_reported":1716145543,"current_range_meters":7600,"station_id":"ce4bgvp2rcd13ifvqcu0","pricing_plan_id":"cebpf4jnsgd1na2vs0mg"},{"bike_id":"28661a8b-62ff-4c5d-87f8-e5c36021692a","system_id":"levelo_inurba_marseille","lat":43.298764,"lon":5.388973,"is_reserved":false,"is_disabled":false,"rental_uris":{"android":"levelo://app?vid=28661a8b-62ff-4c5d-87f8-e5c36021692a","ios":"levelo://app?vid=28661a8b-62ff-4c5d-87f8-e5c36021692a"},"vehicle_type_id":"4","last_reported":1716145543,"current_range_meters":5200,"station_id":"ce4bh392rcd13ifvqdl0","pricing_plan_id":"cebpf4jnsgd1na2vs0mg"},{"bike_id":"a6c66080-531f-4790-b034-bcb5a54612a8","system_id":"levelo_inurba_marseille","lat":43.298897,"lon":5.390031,"is_reserved":false,"is_disabled":false,"rental_uris":{"android":"levelo://app?vid=a6c66080-531f-4790-b034-bcb5a54612a8","ios":"levelo://app?vid=a6c66080-531f-4790-b034-bcb5a54612a8"},"vehicle_type_id":"4","last_reported":1716145543,"current_range_meters":0,"station_id":"ce4bh392rcd13ifvqdl0","pricing_plan_id":"cebpf4jnsgd1na2vs0mg"},{"bike_id":"30c2bd49-7f0d-4f06-940e-b5c7d6b23714","system_id":"levelo_inurba_marseille","lat":43.31328,"lon":5.39696,"is_reserved":false,"is_disabled":false,"rental_uris":{"android":"levelo://app?vid=30c2bd49-7f0d-4f06-940e-b5c7d6b23714","ios":"levelo://app?vid=30c2bd49-7f0d-4f06-940e-b5c7d6b23714"},"vehicle_type_id":"4","last_reported":1716145543,"current_range_meters":0,"station_id":"ce4bgvp2rcd13ifvqcu0","pricing_plan_id":"cebpf4jnsgd1na2vs0mg"},{"bike_id":"7cd7c2a0-9268-469c-a9a8-1492a5a4117c","system_id":"levelo_inurba_marseille","lat":43.30959,"lon":5.39671,"is_reserved":false,"is_disabled":false,"rental_uris":{"android":"levelo://app?vid=7cd7c2a0-9268-469c-a9a8-1492a5a4117c","ios":"levelo://app?vid=7cd7c2a0-9268-469c-a9a8-1492a5a4117c"},"vehicle_type_id":"4","last_reported":1716145543,"current_range_meters":29200,"station_id":"","pricing_plan_id":"cebpf4jnsgd1na2vs0mg"},{"bike_id":"ddad2b64-a363-4afc-ba64-1c22c21d3dea","system_id":"levelo_inurba_marseille","lat":43.308633,"lon":5.396524,"is_reserved":false,"is_disabled":false,"rental_uris":{"android":"levelo://app?vid=ddad2b64-a363-4afc-ba64-1c22c21d3dea","ios":"levelo://app?vid=ddad2b64-a363-4afc-ba64-1c22c21d3dea"},"vehicle_type_id":"4","last_reported":1716145543,"current_range_meters":0,"station_id":"ce4bh012rcd13ifvqcv0","pricing_plan_id":"cebpf4jnsgd1na2vs0mg"},{"bike_id":"d210b56f-101a-4284-803c-3cfc702dbe1c","system_id":"levelo_inurba_marseille","lat":43.29529,"lon":5.385581,"is_reserved":false,"is_disabled":false,"rental_uris":{"android":"levelo://app?vid=d210b56f-101a-4284-803c-3cfc702dbe1c","ios":"levelo://app?vid=d210b56f-101a-4284-803c-3cfc702dbe1c"},"vehicle_type_id":"4","last_reported":1716145543,"current_range_meters":19600,"station_id":"ce4bgih2rcd13ifvqba0","pricing_plan_id":"cebpf4jnsgd1na2vs0mg"},{"bike_id":"8252e6b1-b05a-4b55-8059-85e22f1d69b2","system_id":"levelo_inurba_marseille","lat":43.29529,"lon":5.385581,"is_reserved":false,"is_disabled":false,"rental_uris":{"android":"levelo://app?vid=8252e6b1-b05a-4b55-8059-85e22f1d69b2","ios":"levelo://app?vid=8252e6b1-b05a-4b55-8059-85e22f1d69b2"},"vehicle_type_id":"4","last_reported":1716145543,"current_range_meters":3200,"station_id":"ce4bgih2rcd13ifvqba0","pricing_plan_id":"cebpf4jnsgd1na2vs0mg"},{"bike_id":"d51b6324-bab0-4d78-9d6a-3ebb9bdc0bfc","system_id":"levelo_inurba_marseille","lat":43.29529,"lon":5.385581,"is_reserved":false,"is_disabled":false,"rental_uris":{"android":"levelo://app?vid=d51b6324-bab0-4d78-9d6a-3ebb9bdc0bfc","ios":"levelo://app?vid=d51b6324-bab0-4d78-9d6a-3ebb9bdc0bfc"},"vehicle_type_id":"4","last_reported":1716145543,"current_range_meters":17200,"station_id":"ce4bgih2rcd13ifvqba0","pricing_plan_id":"cebpf4jnsgd1na2vs0mg"},{"bike_id":"03884c33-6927-4873-b8a1-865272bf0edb","system_id":"levelo_inurba_marseille","lat":43.29529,"lon":5.385581,"is_reserved":false,"is_disabled":false,"rental_uris":{"android":"levelo://app?vid=03884c33-6927-4873-b8a1-865272bf0edb","ios":"levelo://app?vid=03884c33-6927-4873-b8a1-865272bf0edb"},"vehicle_type_id":"4","last_reported":1716145543,"current_range_meters":18000,"station_id":"ce4bgih2rcd13ifvqba0","pricing_plan_id":"cebpf4jnsgd1na2vs0mg"},{"bike_id":"6549d600-dd30-4256-ade5-a592e614ea6b","system_id":"levelo_inurba_marseille","lat":43.29959,"lon":5.39189,"is_reserved":false,"is_disabled":false,"rental_uris":{"android":"levelo://app?vid=6549d600-dd30-4256-ade5-a592e614ea6b","ios":"levelo://app?vid=6549d600-dd30-4256-ade5-a592e614ea6b"},"vehicle_type_id":"4","last_reported":1716145543,"current_range_meters":0,"station_id":"","pricing_plan_id":"cebpf4jnsgd1na2vs0mg"},{"bike_id":"b17a2da3-a412-4ab9-80db-018af5ec765e","system_id":"levelo_inurba_marseille","lat":43.299483,"lon":5.391808,"is_reserved":false,"is_disabled":false,"rental_uris":{"android":"levelo://app?vid=b17a2da3-a412-4ab9-80db-018af5ec765e","ios":"levelo://app?vid=b17a2da3-a412-4ab9-80db-018af5ec765e"},"vehicle_type_id":"4","last_reported":1716145543,"current_range_meters":14400,"station_id":"","pricing_plan_id":"cebpf4jnsgd1na2vs0mg"},{"bike_id":"ef6a30a5-f0eb-4eb9-bac2-6aa8dcc9e7aa","system_id":"levelo_inurba_marseille","lat":43.30221,"lon":5.39457,"is_reserved":false,"is_disabled":false,"rental_uris":{"android":"levelo://app?vid=ef6a30a5-f0eb-4eb9-bac2-6aa8dcc9e7aa","ios":"levelo://app?vid=ef6a30a5-f0eb-4eb9-bac2-6aa8dcc9e7aa"},"vehicle_type_id":"4","last_reported":1716145543,"current_range_meters":0,"station_id":"ce4bh0p2rcd13ifvqd70","pricing_plan_id":"cebpf4jnsgd1na2vs0mg"},{"bike_id":"54edc43c-519c-4759-bc98-0efa15876b68","system_id":"levelo_inurba_marseille","lat":43.302008,"lon":5.394694,"is_reserved":false,"is_disabled":false,"rental_uris":{"android":"levelo://app?vid=54edc43c-519c-4759-bc98-0efa15876b68","ios":"levelo://app?vid=54edc43c-519c-4759-bc98-0efa15876b68"},"vehicle_type_id":"4","last_reported":1716145543,"current_range_meters":16400,"station_id":"ce4bh0p2rcd13ifvqd70","pricing_plan_id":"cebpf4jnsgd1na2vs0mg"},{"bike_id":"fad134b8-ac61-4189-a222-0f3ddff76b30","system_id":"levelo_inurba_marseille","lat":43.302068,"lon":5.394646,"is_reserved":false,"is_disabled":false,"rental_uris":{"android":"levelo://app?vid=fad134b8-ac61-4189-a222-0f3ddff76b30","ios":"levelo://app?vid=fad134b8-ac61-4189-a222-0f3ddff76b30"},"vehicle_type_id":"4","last_reported":1716145543,"current_range_meters":0,"station_id":"ce4bh0p2rcd13ifvqd70","pricing_plan_id":"cebpf4jnsgd1na2vs0mg"},{"bike_id":"15537a10-5700-40bf-80c1-f91cc84d404e","system_id":"levelo_inurba_marseille","lat":43.29176,"lon":5.3794,"is_reserved":false,"is_disabled":false,"rental_uris":{"android":"levelo://app?vid=15537a10-5700-40bf-80c1-f91cc84d404e","ios":"levelo://app?vid=15537a10-5700-40bf-80c1-f91cc84d404e"},"vehicle_type_id":"4","last_reported":1716145543,"current_range_meters":800,"station_id":"","pricing_plan_id":"cebpf4jnsgd1na2vs0mg"},{"bike_id":"036852fb-ddbc-41f6-a782-82c3d7553546","system_id":"levelo_inurba_marseille","lat":43.290624,"lon":5.359245,"is_reserved":false,"is_disabled":false,"rental_uris":{"android":"levelo://app?vid=036852fb-ddbc-41f6-a782-82c3d7553546","ios":"levelo://app?vid=036852fb-ddbc-41f6-a782-82c3d7553546"},"vehicle_type_id":"4","last_reported":1716145543,"current_range_meters":0,"station_id":"ce4bha92rcd13ifvqeg0","pricing_plan_id":"cebpf4jnsgd1na2vs0mg"},{"bike_id":"e9730dbc-12de-4657-a99c-fbf190534091","system_id":"levelo_inurba_marseille","lat":43.290327,"lon":5.375711,"is_reserved":false,"is_disabled":false,"rental_uris":{"android":"levelo://app?vid=e9730dbc-12de-4657-a99c-fbf190534091","ios":"levelo://app?vid=e9730dbc-12de-4657-a99c-fbf190534091"},"vehicle_type_id":"4","last_reported":1716145543,"current_range_meters":0,"station_id":"ce4bh692rcd13ifvqe90","pricing_plan_id":"cebpf4jnsgd1na2vs0mg"},{"bike_id":"d268ee01-ff0a-457a-93eb-36e0af51c52a","system_id":"levelo_inurba_marseille","lat":43.290911,"lon":5.356069,"is_reserved":false,"is_disabled":false,"rental_uris":{"android":"levelo://app?vid=d268ee01-ff0a-457a-93eb-36e0af51c52a","ios":"levelo://app?vid=d268ee01-ff0a-457a-93eb-36e0af51c52a"},"vehicle_type_id":"4","last_reported":1716145543,"current_range_meters":1200,"station_id":"ce4bgi12rcd13ifvqb70","pricing_plan_id":"cebpf4jnsgd1na2vs0mg"},{"bike_id":"b79b91cc-9d9e-4c4d-98ce-2e9aa90f4b64","system_id":"levelo_inurba_marseille","lat":43.29038,"lon":5.37564,"is_reserved":false,"is_disabled":false,"rental_uris":{"android":"levelo://app?vid=b79b91cc-9d9e-4c4d-98ce-2e9aa90f4b64","ios":"levelo://app?vid=b79b91cc-9d9e-4c4d-98ce-2e9aa90f4b64"},"vehicle_type_id":"4","last_reported":1716145543,"current_range_meters":0,"station_id":"ce4bh692rcd13ifvqe90","pricing_plan_id":"cebpf4jnsgd1na2vs0mg"},{"bike_id":"0b487157-c436-4ab0-9506-9f7476bfd275","system_id":"levelo_inurba_marseille","lat":43.290367,"lon":5.375601,"is_reserved":false,"is_disabled":false,"rental_uris":{"android":"levelo://app?vid=0b487157-c436-4ab0-9506-9f7476bfd275","ios":"levelo://app?vid=0b487157-c436-4ab0-9506-9f7476bfd275"},"vehicle_type_id":"4","last_reported":1716145543,"current_range_meters":6800,"station_id":"ce4bh692rcd13ifvqe90","pricing_plan_id":"cebpf4jnsgd1na2vs0mg"},{"bike_id":"ecb9d032-7526-4109-8767-107a26629484","system_id":"levelo_inurba_marseille","lat":43.294153,"lon":5.386305,"is_reserved":false,"is_disabled":false,"rental_uris":{"android":"levelo://app?vid=ecb9d032-7526-4109-8767-107a26629484","ios":"levelo://app?vid=ecb9d032-7526-4109-8767-107a26629484"},"vehicle_type_id":"4","last_reported":1716145543,"current_range_meters":5600,"station_id":"ce4bh2h2rcd13ifvqdh0","pricing_plan_id":"cebpf4jnsgd1na2vs0mg"},{"bike_id":"a7ca1d8b-56ee-4476-acf4-4c6435f363e7","system_id":"levelo_inurba_marseille","lat":43.290327,"lon":5.375711,"is_reserved":false,"is_disabled":false,"rental_uris":{"android":"levelo://app?vid=a7ca1d8b-56ee-4476-acf4-4c6435f363e7","ios":"levelo://app?vid=a7ca1d8b-56ee-4476-acf4-4c6435f363e7"},"vehicle_type_id":"4","last_reported":1716145543,"current_range_meters":10800,"station_id":"ce4bh692rcd13ifvqe90","pricing_plan_id":"cebpf4jnsgd1na2vs0mg"},{"bike_id":"ff811001-bc9d-4c7a-8cbb-95fba52c3b5d","system_id":"levelo_inurba_marseille","lat":43.297815,"lon":5.393548,"is_reserved":false,"is_disabled":false,"rental_uris":{"android":"levelo://app?vid=ff811001-bc9d-4c7a-8cbb-95fba52c3b5d","ios":"levelo://app?vid=ff811001-bc9d-4c7a-8cbb-95fba52c3b5d"},"vehicle_type_id":"4","last_reported":1716145543,"current_range_meters":1600,"station_id":"chh1huq6cuj3fo74tm60","pricing_plan_id":"cebpf4jnsgd1na2vs0mg"},{"bike_id":"b0d84bc0-7f4b-45ed-b80a-3ac79aaa6089","system_id":"levelo_inurba_marseille","lat":43.292644,"lon":5.384257,"is_reserved":false,"is_disabled":false,"rental_uris":{"android":"levelo://app?vid=b0d84bc0-7f4b-45ed-b80a-3ac79aaa6089","ios":"levelo://app?vid=b0d84bc0-7f4b-45ed-b80a-3ac79aaa6089"},"vehicle_type_id":"4","last_reported":1716145543,"current_range_meters":26000,"station_id":"ce4bh692rcd13ifvqea0","pricing_plan_id":"cebpf4jnsgd1na2vs0mg"},{"bike_id":"7a4c9f9a-cd8e-453b-928f-92c5213c58da","system_id":"levelo_inurba_marseille","lat":43.304296,"lon":5.397513,"is_reserved":false,"is_disabled":false,"rental_uris":{"android":"levelo://app?vid=7a4c9f9a-cd8e-453b-928f-92c5213c58da","ios":"levelo://app?vid=7a4c9f9a-cd8e-453b-928f-92c5213c58da"},"vehicle_type_id":"4","last_reported":1716145543,"current_range_meters":5200,"station_id":"ce4bh092rcd13ifvqd20","pricing_plan_id":"cebpf4jnsgd1na2vs0mg"},{"bike_id":"c7b0658f-01ed-4c7a-9e6a-3eefc8efa4f8","system_id":"levelo_inurba_marseille","lat":43.304274,"lon":5.397513,"is_reserved":false,"is_disabled":false,"rental_uris":{"android":"levelo://app?vid=c7b0658f-01ed-4c7a-9e6a-3eefc8efa4f8","ios":"levelo://app?vid=c7b0658f-01ed-4c7a-9e6a-3eefc8efa4f8"},"vehicle_type_id":"4","last_reported":1716145543,"current_range_meters":6000,"station_id":"ce4bh092rcd13ifvqd20","pricing_plan_id":"cebpf4jnsgd1na2vs0mg"},{"bike_id":"cea2d9cc-8d10-47b4-ad05-37c20c4600d3","system_id":"levelo_inurba_marseille","lat":43.292642,"lon":5.384254,"is_reserved":false,"is_disabled":false,"rental_uris":{"android":"levelo://app?vid=cea2d9cc-8d10-47b4-ad05-37c20c4600d3","ios":"levelo://app?vid=cea2d9cc-8d10-47b4-ad05-37c20c4600d3"},"vehicle_type_id":"4","last_reported":1716145543,"current_range_meters":0,"station_id":"ce4bh692rcd13ifvqea0","pricing_plan_id":"cebpf4jnsgd1na2vs0mg"},{"bike_id":"e9de9c91-edb8-4b1c-8164-cba6b8a26014","system_id":"levelo_inurba_marseille","lat":43.30427,"lon":5.39746,"is_reserved":false,"is_disabled":false,"rental_uris":{"android":"levelo://app?vid=e9de9c91-edb8-4b1c-8164-cba6b8a26014","ios":"levelo://app?vid=e9de9c91-edb8-4b1c-8164-cba6b8a26014"},"vehicle_type_id":"4","last_reported":1716145543,"current_range_meters":0,"station_id":"ce4bh092rcd13ifvqd20","pricing_plan_id":"cebpf4jnsgd1na2vs0mg"},{"bike_id":"1567da05-d36e-42dd-94fe-050b55f4ad9d","system_id":"levelo_inurba_marseille","lat":43.304262,"lon":5.397472,"is_reserved":false,"is_disabled":false,"rental_uris":{"android":"levelo://app?vid=1567da05-d36e-42dd-94fe-050b55f4ad9d","ios":"levelo://app?vid=1567da05-d36e-42dd-94fe-050b55f4ad9d"},"vehicle_type_id":"4","last_reported":1716145543,"current_range_meters":2800,"station_id":"ce4bh092rcd13ifvqd20","pricing_plan_id":"cebpf4jnsgd1na2vs0mg"},{"bike_id":"bea9ed49-4632-4900-a8a7-43d36e178229","system_id":"levelo_inurba_marseille","lat":43.292642,"lon":5.384254,"is_reserved":false,"is_disabled":false,"rental_uris":{"android":"levelo://app?vid=bea9ed49-4632-4900-a8a7-43d36e178229","ios":"levelo://app?vid=bea9ed49-4632-4900-a8a7-43d36e178229"},"vehicle_type_id":"4","last_reported":1716145543,"current_range_meters":1200,"station_id":"ce4bh692rcd13ifvqea0","pricing_plan_id":"cebpf4jnsgd1na2vs0mg"},{"bike_id":"2deda2d7-b432-41fc-8faa-108e6f537c8c","system_id":"levelo_inurba_marseille","lat":43.3042,"lon":5.39747,"is_reserved":false,"is_disabled":false,"rental_uris":{"android":"levelo://app?vid=2deda2d7-b432-41fc-8faa-108e6f537c8c","ios":"levelo://app?vid=2deda2d7-b432-41fc-8faa-108e6f537c8c"},"vehicle_type_id":"4","last_reported":1716145543,"current_range_meters":0,"station_id":"ce4bh092rcd13ifvqd20","pricing_plan_id":"cebpf4jnsgd1na2vs0mg"},{"bike_id":"e6c6ceaf-fef1-4f94-812a-97614ceb5215","system_id":"levelo_inurba_marseille","lat":43.30417,"lon":5.39746,"is_reserved":false,"is_disabled":false,"rental_uris":{"android":"levelo://app?vid=e6c6ceaf-fef1-4f94-812a-97614ceb5215","ios":"levelo://app?vid=e6c6ceaf-fef1-4f94-812a-97614ceb5215"},"vehicle_type_id":"4","last_reported":1716145543,"current_range_meters":17600,"station_id":"ce4bh092rcd13ifvqd20","pricing_plan_id":"cebpf4jnsgd1na2vs0mg"},{"bike_id":"49db70a3-3f3e-49b8-b6da-33d8623aa047","system_id":"levelo_inurba_marseille","lat":43.292642,"lon":5.384254,"is_reserved":false,"is_disabled":false,"rental_uris":{"android":"levelo://app?vid=49db70a3-3f3e-49b8-b6da-33d8623aa047","ios":"levelo://app?vid=49db70a3-3f3e-49b8-b6da-33d8623aa047"},"vehicle_type_id":"4","last_reported":1716145543,"current_range_meters":27600,"station_id":"ce4bh692rcd13ifvqea0","pricing_plan_id":"cebpf4jnsgd1na2vs0mg"},{"bike_id":"26a61c61-86c1-4689-a6f2-d7dc78e570da","system_id":"levelo_inurba_marseille","lat":43.292642,"lon":5.384254,"is_reserved":false,"is_disabled":false,"rental_uris":{"android":"levelo://app?vid=26a61c61-86c1-4689-a6f2-d7dc78e570da","ios":"levelo://app?vid=26a61c61-86c1-4689-a6f2-d7dc78e570da"},"vehicle_type_id":"4","last_reported":1716145543,"current_range_meters":9600,"station_id":"ce4bh692rcd13ifvqea0","pricing_plan_id":"cebpf4jnsgd1na2vs0mg"},{"bike_id":"170d9518-4514-48ce-b320-4b9528c7a2c2","system_id":"levelo_inurba_marseille","lat":43.29259,"lon":5.38445,"is_reserved":false,"is_disabled":false,"rental_uris":{"android":"levelo://app?vid=170d9518-4514-48ce-b320-4b9528c7a2c2","ios":"levelo://app?vid=170d9518-4514-48ce-b320-4b9528c7a2c2"},"vehicle_type_id":"4","last_reported":1716145543,"current_range_meters":24400,"station_id":"ce4bh692rcd13ifvqea0","pricing_plan_id":"cebpf4jnsgd1na2vs0mg"},{"bike_id":"89eb521f-468c-422b-90f0-5e6922b1355f","system_id":"levelo_inurba_marseille","lat":43.292644,"lon":5.384257,"is_reserved":false,"is_disabled":false,"rental_uris":{"android":"levelo://app?vid=89eb521f-468c-422b-90f0-5e6922b1355f","ios":"levelo://app?vid=89eb521f-468c-422b-90f0-5e6922b1355f"},"vehicle_type_id":"4","last_reported":1716145543,"current_range_meters":28400,"station_id":"ce4bh692rcd13ifvqea0","pricing_plan_id":"cebpf4jnsgd1na2vs0mg"},{"bike_id":"3a0c3a4f-27d9-4b67-bef5-ff7e2e4700f6","system_id":"levelo_inurba_marseille","lat":43.290995,"lon":5.381361,"is_reserved":false,"is_disabled":false,"rental_uris":{"android":"levelo://app?vid=3a0c3a4f-27d9-4b67-bef5-ff7e2e4700f6","ios":"levelo://app?vid=3a0c3a4f-27d9-4b67-bef5-ff7e2e4700f6"},"vehicle_type_id":"4","last_reported":1716145543,"current_range_meters":2400,"station_id":"ce4bh512rcd13ifvqe2g","pricing_plan_id":"cebpf4jnsgd1na2vs0mg"},{"bike_id":"9e33c426-beec-4151-8914-4b4da6ea97a0","system_id":"levelo_inurba_marseille","lat":43.290996,"lon":5.38111,"is_reserved":false,"is_disabled":false,"rental_uris":{"android":"levelo://app?vid=9e33c426-beec-4151-8914-4b4da6ea97a0","ios":"levelo://app?vid=9e33c426-beec-4151-8914-4b4da6ea97a0"},"vehicle_type_id":"4","last_reported":1716145543,"current_range_meters":3600,"station_id":"ce4bh512rcd13ifvqe2g","pricing_plan_id":"cebpf4jnsgd1na2vs0mg"},{"bike_id":"aa7428a8-773d-4086-9486-7773931f57cb","system_id":"levelo_inurba_marseille","lat":43.290995,"lon":5.381361,"is_reserved":false,"is_disabled":false,"rental_uris":{"android":"levelo://app?vid=aa7428a8-773d-4086-9486-7773931f57cb","ios":"levelo://app?vid=aa7428a8-773d-4086-9486-7773931f57cb"},"vehicle_type_id":"4","last_reported":1716145543,"current_range_meters":8400,"station_id":"ce4bh512rcd13ifvqe2g","pricing_plan_id":"cebpf4jnsgd1na2vs0mg"},{"bike_id":"87bde875-6f5a-42db-a3ab-3ca678a217ec","system_id":"levelo_inurba_marseille","lat":43.290995,"lon":5.381361,"is_reserved":false,"is_disabled":false,"rental_uris":{"android":"levelo://app?vid=87bde875-6f5a-42db-a3ab-3ca678a217ec","ios":"levelo://app?vid=87bde875-6f5a-42db-a3ab-3ca678a217ec"},"vehicle_type_id":"4","last_reported":1716145543,"current_range_meters":11200,"station_id":"ce4bh512rcd13ifvqe2g","pricing_plan_id":"cebpf4jnsgd1na2vs0mg"},{"bike_id":"851e577a-633d-4d1b-851b-e8be701975ec","system_id":"levelo_inurba_marseille","lat":43.290995,"lon":5.381361,"is_reserved":false,"is_disabled":false,"rental_uris":{"android":"levelo://app?vid=851e577a-633d-4d1b-851b-e8be701975ec","ios":"levelo://app?vid=851e577a-633d-4d1b-851b-e8be701975ec"},"vehicle_type_id":"4","last_reported":1716145543,"current_range_meters":0,"station_id":"ce4bh512rcd13ifvqe2g","pricing_plan_id":"cebpf4jnsgd1na2vs0mg"},{"bike_id":"accc26cf-50e5-47ca-b8f9-e325ab4adba1","system_id":"levelo_inurba_marseille","lat":43.290995,"lon":5.381361,"is_reserved":false,"is_disabled":false,"rental_uris":{"android":"levelo://app?vid=accc26cf-50e5-47ca-b8f9-e325ab4adba1","ios":"levelo://app?vid=accc26cf-50e5-47ca-b8f9-e325ab4adba1"},"vehicle_type_id":"4","last_reported":1716145543,"current_range_meters":15600,"station_id":"ce4bh512rcd13ifvqe2g","pricing_plan_id":"cebpf4jnsgd1na2vs0mg"},{"bike_id":"635463f7-574f-4aba-85fb-12de094ebd5a","system_id":"levelo_inurba_marseille","lat":43.290995,"lon":5.381361,"is_reserved":false,"is_disabled":false,"rental_uris":{"android":"levelo://app?vid=635463f7-574f-4aba-85fb-12de094ebd5a","ios":"levelo://app?vid=635463f7-574f-4aba-85fb-12de094ebd5a"},"vehicle_type_id":"4","last_reported":1716145543,"current_range_meters":0,"station_id":"ce4bh512rcd13ifvqe2g","pricing_plan_id":"cebpf4jnsgd1na2vs0mg"},