{"last_updated":1737277687,"ttl":60,"version":"2.2","data":{"bikes":[{"bike_id":"ab673ef1-7e40-4594-9d0e-7f7e3f6eef5a","system_id":"levelo_inurba_marseille","lat":43.29039,"lon":5.40092,"is_reserved":false,"is_disabled":false,"rental_uris":{"android":"levelo://app?vid=ab673ef1-7e40-4594-9d0e-7f7e3f6eef5a","ios":"levelo://app?vid=ab673ef1-7e40-4594-9d0e-7f7e3f6eef5a"},"vehicle_type_id":"4","last_reported":1737277687,"current_range_meters":38800,"station_id":"ce4bh392rcd13ifvqdm0","pricing_plan_id":"cebpf4jnsgd1na2vs0mg"},{"bike_id":"1a436c62-f447-44e4-a31d-30a6397fe66d","system_id":"levelo_inurba_marseille","lat":43.30469,"lon":5.37922,"is_reserved":false,"is_disabled":false,"rental_uris":{"android":"levelo://app?vid=1a436c62-f447-44e4-a31d-30a6397fe66d","ios":"levelo://app?vid=1a436c62-f447-44e4-a31d-30a6397fe66d"},"vehicle_type_id":"4","last_reported":1737277687,"current_range_meters":31200,"station_id":"ce4bgup2rcd13ifvqcn0","pricing_plan_id":"cebpf4jnsgd1na2vs0mg"},{"bike_id":"a8952787-a77f-475a-b83d-e8b332145710","system_id":"levelo_inurba_marseille","lat":43.28108,"lon":5.37848,"is_reserved":false,"is_disabled":false,"rental_uris":{"android":"levelo://app?vid=a8952787-a77f-475a-b83d-e8b332145710","ios":"levelo://app?vid=a8952787-a77f-475a-b83d-e8b332145710"},"vehicle_type_id":"4","last_reported":1737277687,"current_range_meters":30400,"station_id":"ce4bha12rcd13ifvqee0","pricing_plan_id":"cebpf4jnsgd1na2vs0mg"},{"bike_id":"49142cff-fb21-4c2a-b7b6-d170fa289b55","system_id":"levelo_inurba_marseille","lat":43.31891,"lon":5.40722,"is_reserved":false,"is_disabled":false,"rental_uris":{"android":"levelo://app?vid=49142cff-fb21-4c2a-b7b6-d170fa289b55","ios":"levelo://app?vid=49142cff-fb21-4c2a-b7b6-d170fa289b55"},"vehicle_type_id":"4","last_reported":1737277687,"current_range_meters":30000,"station_id":"ce4bhq12rcd13ifvqhig","pricing_plan_id":"cebpf4jnsgd1na2vs0mg"},{"bike_id":"d383b76c-b1c5-4112-bf95-e420a42ff72e","system_id":"levelo_inurba_marseille","lat":43.24804,"lon":5.37459,"is_reserved":false,"is_disabled":false,"rental_uris":{"android":"levelo://app?vid=d383b76c-b1c5-4112-bf95-e420a42ff72e","ios":"levelo://app?vid=d383b76c-b1c5-4112-bf95-e420a42ff72e"},"vehicle_type_id":"4","last_reported":1737277687,"current_range_meters":37600,"station_id":"ce4bhgh2rcd13ifvqfb0","pricing_plan_id":"cebpf4jnsgd1na2vs0mg"},{"bike_id":"eb6a7ef2-9572-4999-b0d9-89ac6512f20e","system_id":"levelo_inurba_marseille","lat":43.24829,"lon":5.38907,"is_reserved":false,"is_disabled":false,"rental_uris":{"android":"levelo://app?vid=eb6a7ef2-9572-4999-b0d9-89ac6512f20e","ios":"levelo://app?vid=eb6a7ef2-9572-4999-b0d9-89ac6512f20e"},"vehicle_type_id":"4","last_reported":1737277687,"current_range_meters":39200,"station_id":"ce4bhgp2rcd13ifvqfd0","pricing_plan_id":"cebpf4jnsgd1na2vs0mg"},{"bike_id":"32983ca2-b16e-4020-8699-0f3928b6b30e","system_id":"levelo_inurba_marseille","lat":43.29571,"lon":5.39978,"is_reserved":false,"is_disabled":false,"rental_uris":{"android":"levelo://app?vid=32983ca2-b16e-4020-8699-0f3928b6b30e","ios":"levelo://app?vid=32983ca2-b16e-4020-8699-0f3928b6b30e"},"vehicle_type_id":"4","last_reported":1737277687,"current_range_meters":38800,"station_id":"ce4bh312rcd13ifvqdj0","pricing_plan_id":"cebpf4jnsgd1na2vs0mg"},{"bike_id":"c692e1f1-0ed0-4496-86f6-c9e3cbb6e911","system_id":"levelo_inurba_marseille","lat":43.28158,"lon":5.42648,"is_reserved":false,"is_disabled":false,"rental_uris":{"android":"levelo://app?vid=c692e1f1-0ed0-4496-86f6-c9e3cbb6e911","ios":"levelo://app?vid=c692e1f1-0ed0-4496-86f6-c9e3cbb6e911"},"vehicle_type_id":"4","last_reported":1737277687,"current_range_meters":25600,"station_id":"ce4bhnh2rcd13ifvqgug","pricing_plan_id":"cebpf4jnsgd1na2vs0mg"},{"bike_id":"a5cfd84d-4cae-4412-b199-dcb982d64799","system_id":"levelo_inurba_marseille","lat":43.284443,"lon":5.391794,"is_reserved":false,"is_disabled":true,"rental_uris":{"android":"levelo://app?vid=a5cfd84d-4cae-4412-b199-dcb982d64799","ios":"levelo://app?vid=a5cfd84d-4cae-4412-b199-dcb982d64799"},"vehicle_type_id":"4","last_reported":1737277687,"current_range_meters":0,"station_id":"ce4bhoh2rcd13ifvqh5g","pricing_plan_id":"cebpf4jnsgd1na2vs0mg"},{"bike_id":"d4b68915-2e1c-4a93-ac84-959364ed50a9","system_id":"levelo_inurba_marseille","lat":43.29254,"lon":5.40917,"is_reserved":false,"is_disabled":false,"rental_uris":{"android":"levelo://app?vid=d4b68915-2e1c-4a93-ac84-959364ed50a9","ios":"levelo://app?vid=d4b68915-2e1c-4a93-ac84-959364ed50a9"},"vehicle_type_id":"4","last_reported":1737277687,"current_range_meters":24400,"station_id":"ce4bh192rcd13ifvqdc0","pricing_plan_id":"cebpf4jnsgd1na2vs0mg"},{"bike_id":"31a281f0-03e7-40e6-9192-a07a3730f17e","system_id":"levelo_inurba_marseille","lat":43.295677,"lon":5.399817,"is_reserved":false,"is_disabled":false,"rental_uris":{"android":"levelo://app?vid=31a281f0-03e7-40e6-9192-a07a3730f17e","ios":"levelo://app?vid=31a281f0-03e7-40e6-9192-a07a3730f17e"},"vehicle_type_id":"4","last_reported":1737277687,"current_range_meters":38800,"station_id":"ce4bh312rcd13ifvqdj0","pricing_plan_id":"cebpf4jnsgd1na2vs0mg"},{"bike_id":"2e458cba-09ed-4b28-bcfa-56c339e37ef1","system_id":"levelo_inurba_marseille","lat":43.2749,"lon":5.42462,"is_reserved":false,"is_disabled":false,"rental_uris":{"android":"levelo://app?vid=2e458cba-09ed-4b28-bcfa-56c339e37ef1","ios":"levelo://app?vid=2e458cba-09ed-4b28-bcfa-56c339e37ef1"},"vehicle_type_id":"4","last_reported":1737277687,"current_range_meters":31200,"station_id":"ce4bhn92rcd13ifvqgrg","pricing_plan_id":"cebpf4jnsgd1na2vs0mg"},{"bike_id":"86a3b121-8ff6-40ec-a83f-7d9e9260914f","system_id":"levelo_inurba_marseille","lat":43.30124,"lon":5.39873,"is_reserved":false,"is_disabled":false,"rental_uris":{"android":"levelo://app?vid=86a3b121-8ff6-40ec-a83f-7d9e9260914f","ios":"levelo://app?vid=86a3b121-8ff6-40ec-a83f-7d9e9260914f"},"vehicle_type_id":"4","last_reported":1737277687,"current_range_meters":4400,"station_id":"ce4bh0h2rcd13ifvqd40","pricing_plan_id":"cebpf4jnsgd1na2vs0mg"},{"bike_id":"3a994724-45a4-4bd8-b8de-79a0ca017493","system_id":"levelo_inurba_marseille","lat":43.26791,"lon":5.394155,"is_reserved":false,"is_disabled":false,"rental_uris":{"android":"levelo://app?vid=3a994724-45a4-4bd8-b8de-79a0ca017493","ios":"levelo://app?vid=3a994724-45a4-4bd8-b8de-79a0ca017493"},"vehicle_type_id":"4","last_reported":1737277687,"current_range_meters":38800,"station_id":"ce4bhh12rcd13ifvqfg0","pricing_plan_id":"cebpf4jnsgd1na2vs0mg"},{"bike_id":"90c165c3-eff9-4a4a-8f28-cfa68619e419","system_id":"levelo_inurba_marseille","lat":43.28715,"lon":5.40011,"is_reserved":false,"is_disabled":true,"rental_uris":{"android":"levelo://app?vid=90c165c3-eff9-4a4a-8f28-cfa68619e419","ios":"levelo://app?vid=90c165c3-eff9-4a4a-8f28-cfa68619e419"},"vehicle_type_id":"4","last_reported":1737277687,"current_range_meters":28800,"station_id":"ce4bho92rcd13ifvqh3g","pricing_plan_id":"cebpf4jnsgd1na2vs0mg"},{"bike_id":"f3885d15-b73b-47a5-a9dc-0d82fe0173e3","system_id":"levelo_inurba_marseille","lat":43.29225,"lon":5.36073,"is_reserved":false,"is_disabled":false,"rental_uris":{"android":"levelo://app?vid=f3885d15-b73b-47a5-a9dc-0d82fe0173e3","ios":"levelo://app?vid=f3885d15-b73b-47a5-a9dc-0d82fe0173e3"},"vehicle_type_id":"4","last_reported":1737277687,"current_range_meters":36800,"station_id":"ce4bhbh2rcd13ifvqeqg","pricing_plan_id":"cebpf4jnsgd1na2vs0mg"},{"bike_id":"4975d3c5-1381-4300-914e-0a110da6ae0f","system_id":"levelo_inurba_marseille","lat":43.24062,"lon":5.37774,"is_reserved":false,"is_disabled":false,"rental_uris":{"android":"levelo://app?vid=4975d3c5-1381-4300-914e-0a110da6ae0f","ios":"levelo://app?vid=4975d3c5-1381-4300-914e-0a110da6ae0f"},"vehicle_type_id":"4","last_reported":1737277687,"current_range_meters":39200,"station_id":"ce4bhnp2rcd13ifvqgvg","pricing_plan_id":"cebpf4jnsgd1na2vs0mg"},{"bike_id":"a415cf4f-ff4c-4204-8f2b-7f27d59692e5","system_id":"levelo_inurba_marseille","lat":43.309,"lon":5.39687,"is_reserved":false,"is_disabled":false,"rental_uris":{"android":"levelo://app?vid=a415cf4f-ff4c-4204-8f2b-7f27d59692e5","ios":"levelo://app?vid=a415cf4f-ff4c-4204-8f2b-7f27d59692e5"},"vehicle_type_id":"4","last_reported":1737277687,"current_range_meters":39200,"station_id":"ce4bh012rcd13ifvqcv0","pricing_plan_id":"cebpf4jnsgd1na2vs0mg"},{"bike_id":"ca9db58d-947c-4860-8654-70c594dc1043","system_id":"levelo_inurba_marseille","lat":43.28463,"lon":5.35872,"is_reserved":false,"is_disabled":false,"rental_uris":{"android":"levelo://app?vid=ca9db58d-947c-4860-8654-70c594dc1043","ios":"levelo://app?vid=ca9db58d-947c-4860-8654-70c594dc1043"},"vehicle_type_id":"4","last_reported":1737277687,"current_range_meters":38800,"station_id":"ce4bhah2rcd13ifvqei0","pricing_plan_id":"cebpf4jnsgd1na2vs0mg"},{"bike_id":"2fe88d16-af55-4de4-84b3-2988d3ee891a","system_id":"levelo_inurba_marseille","lat":43.30367,"lon":5.41878,"is_reserved":false,"is_disabled":false,"rental_uris":{"android":"levelo://app?vid=2fe88d16-af55-4de4-84b3-2988d3ee891a","ios":"levelo://app?vid=2fe88d16-af55-4de4-84b3-2988d3ee891a"},"vehicle_type_id":"4","last_reported":1737277687,"current_range_meters":38400,"station_id":"ce4bhop2rcd13ifvqh7g","pricing_plan_id":"cebpf4jnsgd1na2vs0mg"},{"bike_id":"46efa326-c02d-4314-a6fe-f05976f22b94","system_id":"levelo_inurba_marseille","lat":43.28044,"lon":5.36958,"is_reserved":false,"is_disabled":false,"rental_uris":{"android":"levelo://app?vid=46efa326-c02d-4314-a6fe-f05976f22b94","ios":"levelo://app?vid=46efa326-c02d-4314-a6fe-f05976f22b94"},"vehicle_type_id":"4","last_reported":1737277687,"current_range_meters":14400,"station_id":"ce4bha12rcd13ifvqef0","pricing_plan_id":"cebpf4jnsgd1na2vs0mg"},{"bike_id":"b9be44ef-7bb0-4ba3-a4f5-2e356db06bba","system_id":"levelo_inurba_marseille","lat":43.29571,"lon":5.39996,"is_reserved":false,"is_disabled":false,"rental_uris":{"android":"levelo://app?vid=b9be44ef-7bb0-4ba3-a4f5-2e356db06bba","ios":"levelo://app?vid=b9be44ef-7bb0-4ba3-a4f5-2e356db06bba"},"vehicle_type_id":"4","last_reported":1737277687,"current_range_meters":37600,"station_id":"ce4bh312rcd13ifvqdj0","pricing_plan_id":"cebpf4jnsgd1na2vs0mg"},{"bike_id":"763ed4fc-16fd-47a0-aedf-62c028daa66f","system_id":"levelo_inurba_marseille","lat":43.36392,"lon":5.35565,"is_reserved":false,"is_disabled":false,"rental_uris":{"android":"levelo://app?vid=763ed4fc-16fd-47a0-aedf-62c028daa66f","ios":"levelo://app?vid=763ed4fc-16fd-47a0-aedf-62c028daa66f"},"vehicle_type_id":"4","last_reported":1737277687,"current_range_meters":14400,"station_id":"","pricing_plan_id":"cebpf4jnsgd1na2vs0mg"},{"bike_id":"1022f24d-239e-49a1-a4b8-988e34719576","system_id":"levelo_inurba_marseille","lat":43.24547,"lon":5.39535,"is_reserved":false,"is_disabled":false,"rental_uris":{"android":"levelo://app?vid=1022f24d-239e-49a1-a4b8-988e34719576","ios":"levelo://app?vid=1022f24d-239e-49a1-a4b8-988e34719576"},"vehicle_type_id":"4","last_reported":1737277687,"current_range_meters":14400,"station_id":"ce4bhlp2rcd13ifvqgjg","pricing_plan_id":"cebpf4jnsgd1na2vs0mg"},{"bike_id":"d359f35f-3ca3-405b-82ef-cb0e77381ed0","system_id":"levelo_inurba_marseille","lat":43.29583,"lon":5.40005,"is_reserved":false,"is_disabled":false,"rental_uris":{"android":"levelo://app?vid=d359f35f-3ca3-405b-82ef-cb0e77381ed0","ios":"levelo://app?vid=d359f35f-3ca3-405b-82ef-cb0e77381ed0"},"vehicle_type_id":"4","last_reported":1737277687,"current_range_meters":27600,"station_id":"ce4bh312rcd13ifvqdj0","pricing_plan_id":"cebpf4jnsgd1na2vs0mg"},{"bike_id":"f3c94274-f861-4c89-8bb1-1ebe1a531935","system_id":"levelo_inurba_marseille","lat":43.25014,"lon":5.3893,"is_reserved":false,"is_disabled":false,"rental_uris":{"android":"levelo://app?vid=f3c94274-f861-4c89-8bb1-1ebe1a531935","ios":"levelo://app?vid=f3c94274-f861-4c89-8bb1-1ebe1a531935"},"vehicle_type_id":"4","last_reported":1737277687,"current_range_meters":38000,"station_id":"ce4bhgp2rcd13ifvqfd0","pricing_plan_id":"cebpf4jnsgd1na2vs0mg"},{"bike_id":"7a917cbd-452c-4913-9828-9593f5317d3c","system_id":"levelo_inurba_marseille","lat":43.27837,"lon":5.39223,"is_reserved":false,"is_disabled":false,"rental_uris":{"android":"levelo://app?vid=7a917cbd-452c-4913-9828-9593f5317d3c","ios":"levelo://app?vid=7a917cbd-452c-4913-9828-9593f5317d3c"},"vehicle_type_id":"4","last_reported":1737277687,"current_range_meters":28000,"station_id":"ce4bhjp2rcd13ifvqga0","pricing_plan_id":"cebpf4jnsgd1na2vs0mg"},{"bike_id":"ea820ade-d81d-428e-82b9-7f165f7e8e75","system_id":"levelo_inurba_marseille","lat":43.32366,"lon":5.36774,"is_reserved":false,"is_disabled":false,"rental_uris":{"android":"levelo://app?vid=ea820ade-d81d-428e-82b9-7f165f7e8e75","ios":"levelo://app?vid=ea820ade-d81d-428e-82b9-7f165f7e8e75"},"vehicle_type_id":"4","last_reported":1737277687,"current_range_meters":17200,"station_id":"ce4bhsh2rcd13ifvqi2g","pricing_plan_id":"cebpf4jnsgd1na2vs0mg"},{"bike_id":"c29020e0-83ef-4b06-ac4f-c4422257f84a","system_id":"levelo_inurba_marseille","lat":43.36381,"lon":5.35618,"is_reserved":false,"is_disabled":false,"rental_uris":{"android":"levelo://app?vid=c29020e0-83ef-4b06-ac4f-c4422257f84a","ios":"levelo://app?vid=c29020e0-83ef-4b06-ac4f-c4422257f84a"},"vehicle_type_id":"4","last_reported":1737277687,"current_range_meters":19600,"station_id":"","pricing_plan_id":"cebpf4jnsgd1na2vs0mg"},{"bike_id":"2a8e6794-3001-4785-a1fa-2c1da9117a55","system_id":"levelo_inurba_marseille","lat":43.275585,"lon":5.384134,"is_reserved":false,"is_disabled":false,"rental_uris":{"android":"levelo://app?vid=2a8e6794-3001-4785-a1fa-2c1da9117a55","ios":"levelo://app?vid=2a8e6794-3001-4785-a1fa-2c1da9117a55"},"vehicle_type_id":"4","last_reported":1737277687,"current_range_meters":38800,"station_id":"ce4bhh92rcd13ifvqfi0","pricing_plan_id":"cebpf4jnsgd1na2vs0mg"},{"bike_id":"a857a7ae-548e-49d1-9a1f-df8c75795140","system_id":"levelo_inurba_marseille","lat":43.28946,"lon":5.39666,"is_reserved":false,"is_disabled":false,"rental_uris":{"android":"levelo://app?vid=a857a7ae-548e-49d1-9a1f-df8c75795140","ios":"levelo://app?vid=a857a7ae-548e-49d1-9a1f-df8c75795140"},"vehicle_type_id":"4","last_reported":1737277687,"current_range_meters":38800,"station_id":"ce4bh3h2rcd13ifvqdn0","pricing_plan_id":"cebpf4jnsgd1na2vs0mg"},{"bike_id":"03130477-5de0-4f40-b2f5-8e95486c51e6","system_id":"levelo_inurba_marseille","lat":43.26805,"lon":5.40263,"is_reserved":false,"is_disabled":false,"rental_uris":{"android":"levelo://app?vid=03130477-5de0-4f40-b2f5-8e95486c51e6","ios":"levelo://app?vid=03130477-5de0-4f40-b2f5-8e95486c51e6"},"vehicle_type_id":"4","last_reported":1737277687,"current_range_meters":38800,"station_id":"ce501612rcd8frsf0b60","pricing_plan_id":"cebpf4jnsgd1na2vs0mg"},{"bike_id":"3d6cbf35-ddd3-4981-be6c-4ad261080cbf","system_id":"levelo_inurba_marseille","lat":43.28456,"lon":5.35881,"is_reserved":false,"is_disabled":false,"rental_uris":{"android":"levelo://app?vid=3d6cbf35-ddd3-4981-be6c-4ad261080cbf","ios":"levelo://app?vid=3d6cbf35-ddd3-4981-be6c-4ad261080cbf"},"vehicle_type_id":"4","last_reported":1737277687,"current_range_meters":17600,"station_id":"ce4bhah2rcd13ifvqei0","pricing_plan_id":"cebpf4jnsgd1na2vs0mg"},{"bike_id":"4d4ec566-516b-4793-a5be-68a8e0188dc4","system_id":"levelo_inurba_marseille","lat":43.33016,"lon":5.39062,"is_reserved":false,"is_disabled":false,"rental_uris":{"android":"levelo://app?vid=4d4ec566-516b-4793-a5be-68a8e0188dc4","ios":"levelo://app?vid=4d4ec566-516b-4793-a5be-68a8e0188dc4"},"vehicle_type_id":"4","last_reported":1737277687,"current_range_meters":39200,"station_id":"ce4bhr92rcd13ifvqhrg","pricing_plan_id":"cebpf4jnsgd1na2vs0mg"},{"bike_id":"b672b566-ae6e-4181-a2cb-0155be334a04","system_id":"levelo_inurba_marseille","lat":43.28941,"lon":5.36645,"is_reserved":false,"is_disabled":true,"rental_uris":{"android":"levelo://app?vid=b672b566-ae6e-4181-a2cb-0155be334a04","ios":"levelo://app?vid=b672b566-ae6e-4181-a2cb-0155be334a04"},"vehicle_type_id":"4","last_reported":1737277687,"current_range_meters":34000,"station_id":"ce4bhap2rcd13ifvqek0","pricing_plan_id":"cebpf4jnsgd1na2vs0mg"},{"bike_id":"4e6b99e8-4f79-4be3-9d66-8f1f57f9c26c","system_id":"levelo_inurba_marseille","lat":43.29973,"lon":5.37181,"is_reserved":false,"is_disabled":false,"rental_uris":{"android":"levelo://app?vid=4e6b99e8-4f79-4be3-9d66-8f1f57f9c26c","ios":"levelo://app?vid=4e6b99e8-4f79-4be3-9d66-8f1f57f9c26c"},"vehicle_type_id":"4","last_reported":1737277687,"current_range_meters":38800,"station_id":"ce4bgr92rcd13ifvqc7g","pricing_plan_id":"cebpf4jnsgd1na2vs0mg"},{"bike_id":"e9b26cca-a227-4762-933b-a7510f012b99","system_id":"levelo_inurba_marseille","lat":43.295625,"lon":5.399705,"is_reserved":false,"is_disabled":false,"rental_uris":{"android":"levelo://app?vid=e9b26cca-a227-4762-933b-a7510f012b99","ios":"levelo://app?vid=e9b26cca-a227-4762-933b-a7510f012b99"},"vehicle_type_id":"4","last_reported":1737277687,"current_range_meters":38000,"station_id":"ce4bh312rcd13ifvqdj0","pricing_plan_id":"cebpf4jnsgd1na2vs0mg"},{"bike_id":"04e7f6b2-1170-476d-8eb7-54bc6ab7d23c","system_id":"levelo_inurba_marseille","lat":43.24389,"lon":5.37062,"is_reserved":false,"is_disabled":false,"rental_uris":{"android":"levelo://app?vid=04e7f6b2-1170-476d-8eb7-54bc6ab7d23c","ios":"levelo://app?vid=04e7f6b2-1170-476d-8eb7-54bc6ab7d23c"},"vehicle_type_id":"4","last_reported":1737277687,"current_range_meters":38000,"station_id":"ce4bhhh2rcd13ifvqfk0","pricing_plan_id":"cebpf4jnsgd1na2vs0mg"},{"bike_id":"4395dfba-4e3d-4b8b-aa73-f3e693689e94","system_id":"levelo_inurba_marseille","lat":43.24667,"lon":5.38154,"is_reserved":false,"is_disabled":false,"rental_uris":{"android":"levelo://app?vid=4395dfba-4e3d-4b8b-aa73-f3e693689e94","ios":"levelo://app?vid=4395dfba-4e3d-4b8b-aa73-f3e693689e94"},"vehicle_type_id":"4","last_reported":1737277687,"current_range_meters":24400,"station_id":"ce4bhih2rcd13ifvqfr0","pricing_plan_id":"cebpf4jnsgd1na2vs0mg"},{"bike_id":"02a616e7-132c-44d5-838b-aff3c9623560","system_id":"levelo_inurba_marseille","lat":43.29019,"lon":5.39993,"is_reserved":false,"is_disabled":false,"rental_uris":{"android":"levelo://app?vid=02a616e7-132c-44d5-838b-aff3c9623560","ios":"levelo://app?vid=02a616e7-132c-44d5-838b-aff3c9623560"},"vehicle_type_id":"4","last_reported":1737277687,"current_range_meters":38800,"station_id":"ce4bh392rcd13ifvqdm0","pricing_plan_id":"cebpf4jnsgd1na2vs0mg"},{"bike_id":"df581145-fd95-4a77-a27c-2465bbb559bf","system_id":"levelo_inurba_marseille","lat":43.24661,"lon":5.38197,"is_reserved":false,"is_disabled":false,"rental_uris":{"android":"levelo://app?vid=df581145-fd95-4a77-a27c-2465bbb559bf","ios":"levelo://app?vid=df581145-fd95-4a77-a27c-2465bbb559bf"},"vehicle_type_id":"4","last_reported":1737277687,"current_range_meters":28400,"station_id":"ce4bhih2rcd13ifvqfr0","pricing_plan_id":"cebpf4jnsgd1na2vs0mg"},{"bike_id":"a1268425-e1b2-45b1-8fbc-9391b8140126","system_id":"levelo_inurba_marseille","lat":43.24381,"lon":5.37054,"is_reserved":false,"is_disabled":false,"rental_uris":{"android":"levelo://app?vid=a1268425-e1b2-45b1-8fbc-9391b8140126","ios":"levelo://app?vid=a1268425-e1b2-45b1-8fbc-9391b8140126"},"vehicle_type_id":"4","last_reported":1737277687,"current_range_meters":29600,"station_id":"ce4bhhh2rcd13ifvqfk0","pricing_plan_id":"cebpf4jnsgd1na2vs0mg"},{"bike_id":"501ab4fd-c09d-4978-b056-79da026409be","system_id":"levelo_inurba_marseille","lat":43.26227,"lon":5.404602,"is_reserved":false,"is_disabled":false,"rental_uris":{"android":"levelo://app?vid=501ab4fd-c09d-4978-b056-79da026409be","ios":"levelo://app?vid=501ab4fd-c09d-4978-b056-79da026409be"},"vehicle_type_id":"4","last_reported":1737277687,"current_range_meters":36400,"station_id":"","pricing_plan_id":"cebpf4jnsgd1na2vs0mg"},{"bike_id":"c997c11d-c5fb-4097-94f9-0199648ff695","system_id":"levelo_inurba_marseille","lat":43.28072,"lon":5.39667,"is_reserved":false,"is_disabled":false,"rental_uris":{"android":"levelo://app?vid=c997c11d-c5fb-4097-94f9-0199648ff695","ios":"levelo://app?vid=c997c11d-c5fb-4097-94f9-0199648ff695"},"vehicle_type_id":"4","last_reported":1737277687,"current_range_meters":38800,"station_id":"ce4bho12rcd13ifvqh2g","pricing_plan_id":"cebpf4jnsgd1na2vs0mg"},{"bike_id":"38c185d8-e4c7-4dac-b304-b4571124284e","system_id":"levelo_inurba_marseille","lat":43.29588,"lon":5.36748,"is_reserved":false,"is_disabled":false,"rental_uris":{"android":"levelo://app?vid=38c185d8-e4c7-4dac-b304-b4571124284e","ios":"levelo://app?vid=38c185d8-e4c7-4dac-b304-b4571124284e"},"vehicle_type_id":"4","last_reported":1737277687,"current_range_meters":38400,"station_id":"ce4bgph2rcd13ifvqc2g","pricing_plan_id":"cebpf4jnsgd1na2vs0mg"},{"bike_id":"11a07483-ac44-4656-9163-136ce72ccf2e","system_id":"levelo_inurba_marseille","lat":43.30558,"lon":5.36543,"is_reserved":false,"is_disabled":false,"rental_uris":{"android":"levelo://app?vid=11a07483-ac44-4656-9163-136ce72ccf2e","ios":"levelo://app?vid=11a07483-ac44-4656-9163-136ce72ccf2e"},"vehicle_type_id":"4","last_reported":1737277687,"current_range_meters":36800,"station_id":"ce4bgs12rcd13ifvqcag","pricing_plan_id":"cebpf4jnsgd1na2vs0mg"},{"bike_id":"3a731730-e771-49da-936d-6c5bde95e753","system_id":"levelo_inurba_marseille","lat":43.24392,"lon":5.37058,"is_reserved":false,"is_disabled":false,"rental_uris":{"android":"levelo://app?vid=3a731730-e771-49da-936d-6c5bde95e753","ios":"levelo://app?vid=3a731730-e771-49da-936d-6c5bde95e753"},"vehicle_type_id":"4","last_reported":1737277687,"current_range_meters":11600,"station_id":"ce4bhhh2rcd13ifvqfk0","pricing_plan_id":"cebpf4jnsgd1na2vs0mg"},{"bike_id":"cd25f333-fd4e-4c60-8178-f47ff2a33434","system_id":"levelo_inurba_marseille","lat":43.24389,"lon":5.37058,"is_reserved":false,"is_disabled":false,"rental_uris":{"android":"levelo://app?vid=cd25f333-fd4e-4c60-8178-f47ff2a33434","ios":"levelo://app?vid=cd25f333-fd4e-4c60-8178-f47ff2a33434"},"vehicle_type_id":"4","last_reported":1737277687,"current_range_meters":25200,"station_id":"ce4bhhh2rcd13ifvqfk0","pricing_plan_id":"cebpf4jnsgd1na2vs0mg"},{"bike_id":"7b5cc4cc-e608-454c-95d4-00c7b5c48c31","system_id":"levelo_inurba_marseille","lat":43.25932,"lon":5.40906,"is_reserved":false,"is_disabled":false,"rental_uris":{"android":"levelo://app?vid=7b5cc4cc-e608-454c-95d4-00c7b5c48c31","ios":"levelo://app?vid=7b5cc4cc-e608-454c-95d4-00c7b5c48c31"},"vehicle_type_id":"4","last_reported":1737277687,"current_range_meters":7200,"station_id":"ce4bhm92rcd13ifvqglg","pricing_plan_id":"cebpf4jnsgd1na2vs0mg"},{"bike_id":"834a429b-6ea7-4c2f-975c-20561020c5e3","system_id":"levelo_inurba_marseille","lat":43.25583,"lon":5.38227,"is_reserved":false,"is_disabled":false,"rental_uris":{"android":"levelo://app?vid=834a429b-6ea7-4c2f-975c-20561020c5e3","ios":"levelo://app?vid=834a429b-6ea7-4c2f-975c-20561020c5e3"},"vehicle_type_id":"4","last_reported":1737277687,"current_range_meters":31200,"station_id":"ce4bhih2rcd13ifvqfs0","pricing_plan_id":"cebpf4jnsgd1na2vs0mg"},{"bike_id":"644b6a66-e713-4aa9-bb95-30a64653cec0","system_id":"levelo_inurba_marseille","lat":43.27494,"lon":5.42456,"is_reserved":false,"is_disabled":false,"rental_uris":{"android":"levelo://app?vid=644b6a66-e713-4aa9-bb95-30a64653cec0","ios":"levelo://app?vid=644b6a66-e713-4aa9-bb95-30a64653cec0"},"vehicle_type_id":"4","last_reported":1737277687,"current_range_meters":16800,"station_id":"ce4bhn92rcd13ifvqgrg","pricing_plan_id":"cebpf4jnsgd1na2vs0mg"},{"bike_id":"db15da2e-41c6-4bd9-b308-2f26cb3b8799","system_id":"levelo_inurba_marseille","lat":43.31703,"lon":5.43688,"is_reserved":false,"is_disabled":false,"rental_uris":{"android":"levelo://app?vid=db15da2e-41c6-4bd9-b308-2f26cb3b8799","ios":"levelo://app?vid=db15da2e-41c6-4bd9-b308-2f26cb3b8799"},"vehicle_type_id":"4","last_reported":1737277687,"current_range_meters":8800,"station_id":"ce4bhp92rcd13ifvqhcg","pricing_plan_id":"cebpf4jnsgd1na2vs0mg"},{"bike_id":"cc58c983-a9b7-4101-8f9c-21e5c3efe2bb","system_id":"levelo_inurba_marseille","lat":43.28561,"lon":5.39493,"is_reserved":false,"is_disabled":false,"rental_uris":{"android":"levelo://app?vid=cc58c983-a9b7-4101-8f9c-21e5c3efe2bb","ios":"levelo://app?vid=cc58c983-a9b7-4101-8f9c-21e5c3efe2bb"},"vehicle_type_id":"4","last_reported":1737277687,"current_range_meters":28400,"station_id":"ce4bh292rcd13ifvqdg0","pricing_plan_id":"cebpf4jnsgd1na2vs0mg"},{"bike_id":"af5b8175-7607-4e8b-bd8b-498775e7b79a","system_id":"levelo_inurba_marseille","lat":43.28158,"lon":5.42672,"is_reserved":false,"is_disabled":false,"rental_uris":{"android":"levelo://app?vid=af5b8175-7607-4e8b-bd8b-498775e7b79a","ios":"levelo://app?vid=af5b8175-7607-4e8b-bd8b-498775e7b79a"},"vehicle_type_id":"4","last_reported":1737277687,"current_range_meters":27600,"station_id":"ce4bhnh2rcd13ifvqgug","pricing_plan_id":"cebpf4jnsgd1na2vs0mg"},{"bike_id":"366b3361-9a74-4f75-aa58-5cacc4d8afe8","system_id":"levelo_inurba_marseille","lat":43.29559,"lon":5.42288,"is_reserved":false,"is_disabled":false,"rental_uris":{"android":"levelo://app?vid=366b3361-9a74-4f75-aa58-5cacc4d8afe8","ios":"levelo://app?vid=366b3361-9a74-4f75-aa58-5cacc4d8afe8"},"vehicle_type_id":"4","last_reported":1737277687,"current_range_meters":38800,"station_id":"ce4bhph2rcd13ifvqhdg","pricing_plan_id":"cebpf4jnsgd1na2vs0mg"},{"bike_id":"ff37e61b-aadf-44c3-9e29-dd44e28427e2","system_id":"levelo_inurba_marseille","lat":43.28369,"lon":5.38648,"is_reserved":false,"is_disabled":false,"rental_uris":{"android":"levelo://app?vid=ff37e61b-aadf-44c3-9e29-dd44e28427e2","ios":"levelo://app?vid=ff37e61b-aadf-44c3-9e29-dd44e28427e2"},"vehicle_type_id":"4","last_reported":1737277687,"current_range_meters":38400,"station_id":"ce4bh492rcd13ifvqdvg","pricing_plan_id":"cebpf4jnsgd1na2vs0mg"},{"bike_id":"10b8da58-1f12-44b0-8c4c-eff01d48a146","system_id":"levelo_inurba_marseille","lat":43.3067,"lon":5.40112,"is_reserved":false,"is_disabled":true,"rental_uris":{"android":"levelo://app?vid=10b8da58-1f12-44b0-8c4c-eff01d48a146","ios":"levelo://app?vid=10b8da58-1f12-44b0-8c4c-eff01d48a146"},"vehicle_type_id":"4","last_reported":1737277687,"current_range_meters":28400,"station_id":"ce4bh112rcd13ifvqda0","pricing_plan_id":"cebpf4jnsgd1na2vs0mg"},{"bike_id":"d1a77a42-019d-427b-8631-0001e41c6be5","system_id":"levelo_inurba_marseille","lat":43.30884,"lon":5.37198,"is_reserved":false,"is_disabled":false,"rental_uris":{"android":"levelo://app?vid=d1a77a42-019d-427b-8631-0001e41c6be5","ios":"levelo://app?vid=d1a77a42-019d-427b-8631-0001e41c6be5"},"vehicle_type_id":"4","last_reported":1737277687,"current_range_meters":28800,"station_id":"ce4bguh2rcd13ifvqckg","pricing_plan_id":"cebpf4jnsgd1na2vs0mg"},{"bike_id":"ca8aa51d-4833-4c77-8009-59b7c07323a3","system_id":"levelo_inurba_marseille","lat":43.32359,"lon":5.36744,"is_reserved":false,"is_disabled":false,"rental_uris":{"android":"levelo://app?vid=ca8aa51d-4833-4c77-8009-59b7c07323a3","ios":"levelo://app?vid=ca8aa51d-4833-4c77-8009-59b7c07323a3"},"vehicle_type_id":"4","last_reported":1737277687,"current_range_meters":36800,"station_id":"ce4bhsh2rcd13ifvqi2g","pricing_plan_id":"cebpf4jnsgd1na2vs0mg"},{"bike_id":"cd21465a-99d4-4df2-80bc-53a53cf0eafe","system_id":"levelo_inurba_marseille","lat":43.28618,"lon":5.35099,"is_reserved":false,"is_disabled":false,"rental_uris":{"android":"levelo://app?vid=cd21465a-99d4-4df2-80bc-53a53cf0eafe","ios":"levelo://app?vid=cd21465a-99d4-4df2-80bc-53a53cf0eafe"},"vehicle_type_id":"4","last_reported":1737277687,"current_range_meters":8000,"station_id":"ce4bhch2rcd13ifvqeug","pricing_plan_id":"cebpf4jnsgd1na2vs0mg"},{"bike_id":"ee54217a-eecb-475e-80f1-fb3329485e41","system_id":"levelo_inurba_marseille","lat":43.27304,"lon":5.39089,"is_reserved":false,"is_disabled":false,"rental_uris":{"android":"levelo://app?vid=ee54217a-eecb-475e-80f1-fb3329485e41","ios":"levelo://app?vid=ee54217a-eecb-475e-80f1-fb3329485e41"},"vehicle_type_id":"4","last_reported":1737277687,"current_range_meters":31200,"station_id":"ce4bhgp2rcd13ifvqfe0","pricing_plan_id":"cebpf4jnsgd1na2vs0mg"},{"bike_id":"9dc49063-283d-43eb-bbfe-31fee7e70777","system_id":"levelo_inurba_marseille","lat":43.31214,"lon":5.36871,"is_reserved":false,"is_disabled":false,"rental_uris":{"android":"levelo://app?vid=9dc49063-283d-43eb-bbfe-31fee7e70777","ios":"levelo://app?vid=9dc49063-283d-43eb-bbfe-31fee7e70777"},"vehicle_type_id":"4","last_reported":1737277687,"current_range_meters":9200,"station_id":"ce4bgl92rcd13ifvqbq0","pricing_plan_id":"cebpf4jnsgd1na2vs0mg"},{"bike_id":"4b73b77a-9a3b-4f18-a046-cb900f7887f8","system_id":"levelo_inurba_marseille","lat":43.31718,"lon":5.42395,"is_reserved":false,"is_disabled":false,"rental_uris":{"android":"levelo://app?vid=4b73b77a-9a3b-4f18-a046-cb900f7887f8","ios":"levelo://app?vid=4b73b77a-9a3b-4f18-a046-cb900f7887f8"},"vehicle_type_id":"4","last_reported":1737277687,"current_range_meters":38800,"station_id":"ce4bhp92rcd13ifvqhbg","pricing_plan_id":"cebpf4jnsgd1na2vs0mg"},{"bike_id":"74bf9fa6-b490-4985-84f6-376c7e8f74e0","system_id":"levelo_inurba_marseille","lat":43.2396,"lon":5.36637,"is_reserved":false,"is_disabled":false,"rental_uris":{"android":"levelo://app?vid=74bf9fa6-b490-4985-84f6-376c7e8f74e0","ios":"levelo://app?vid=74bf9fa6-b490-4985-84f6-376c7e8f74e0"},"vehicle_type_id":"4","last_reported":1737277687,"current_range_meters":24800,"station_id":"ce4bhi12rcd13ifvqfp0","pricing_plan_id":"cebpf4jnsgd1na2vs0mg"},{"bike_id":"57d9fa47-e597-4ea4-913f-9b45079bd718","system_id":"levelo_inurba_marseille","lat":43.33019,"lon":5.39045,"is_reserved":false,"is_disabled":false,"rental_uris":{"android":"levelo://app?vid=57d9fa47-e597-4ea4-913f-9b45079bd718","ios":"levelo://app?vid=57d9fa47-e597-4ea4-913f-9b45079bd718"},"vehicle_type_id":"4","last_reported":1737277687,"current_range_meters":8400,"station_id":"ce4bhr92rcd13ifvqhrg","pricing_plan_id":"cebpf4jnsgd1na2vs0mg"},{"bike_id":"8425f527-93d3-4514-a4ff-69db683ce640","system_id":"levelo_inurba_marseille","lat":43.305895,"lon":5.39351,"is_reserved":false,"is_disabled":false,"rental_uris":{"android":"levelo://app?vid=8425f527-93d3-4514-a4ff-69db683ce640","ios":"levelo://app?vid=8425f527-93d3-4514-a4ff-69db683ce640"},"vehicle_type_id":"4","last_reported":1737277687,"current_range_meters":38800,"station_id":"ce4bh0p2rcd13ifvqd80","pricing_plan_id":"cebpf4jnsgd1na2vs0mg"},{"bike_id":"4ec76aa8-1e80-4051-b2ea-1baaf50a61e8","system_id":"levelo_inurba_marseille","lat":43.24133,"lon":5.38098,"is_reserved":false,"is_disabled":false,"rental_uris":{"android":"levelo://app?vid=4ec76aa8-1e80-4051-b2ea-1baaf50a61e8","ios":"levelo://app?vid=4ec76aa8-1e80-4051-b2ea-1baaf50a61e8"},"vehicle_type_id":"4","last_reported":1737277687,"current_range_meters":18000,"station_id":"","pricing_plan_id":"cebpf4jnsgd1na2vs0mg"},{"bike_id":"d12eba50-2182-4588-b3f0-fe61d48bd37b","system_id":"levelo_inurba_marseille","lat":43.26194,"lon":5.37444,"is_reserved":false,"is_disabled":false,"rental_uris":{"android":"levelo://app?vid=d12eba50-2182-4588-b3f0-fe61d48bd37b","ios":"levelo://app?vid=d12eba50-2182-4588-b3f0-fe61d48bd37b"},"vehicle_type_id":"4","last_reported":1737277687,"current_range_meters":31200,"station_id":"ce4bhgp2rcd13ifvqfc0","pricing_plan_id":"cebpf4jnsgd1na2vs0mg"},{"bike_id":"bd00f222-ce0c-4f81-a68c-0edabc3e5f6b","system_id":"levelo_inurba_marseille","lat":43.25091,"lon":5.39509,"is_reserved":false,"is_disabled":false,"rental_uris":{"android":"levelo://app?vid=bd00f222-ce0c-4f81-a68c-0edabc3e5f6b","ios":"levelo://app?vid=bd00f222-ce0c-4f81-a68c-0edabc3e5f6b"},"vehicle_type_id":"4","last_reported":1737277687,"current_range_meters":37600,"station_id":"ce4bhm12rcd13ifvqgkg","pricing_plan_id":"cebpf4jnsgd1na2vs0mg"},{"bike_id":"2c114e21-3f5a-457e-b6ff-3dda5266ff12","system_id":"levelo_inurba_marseille","lat":43.30407,"lon":5.3975,"is_reserved":false,"is_disabled":false,"rental_uris":{"android":"levelo://app?vid=2c114e21-3f5a-457e-b6ff-3dda5266ff12","ios":"levelo://app?vid=2c114e21-3f5a-457e-b6ff-3dda5266ff12"},"vehicle_type_id":"4","last_reported":1737277687,"current_range_meters":38800,"station_id":"ce4bh092rcd13ifvqd20","pricing_plan_id":"cebpf4jnsgd1na2vs0mg"},{"bike_id":"d400821d-12fc-4b92-a929-07e330bc24b2","system_id":"levelo_inurba_marseille","lat":43.22931,"lon":5.35379,"is_reserved":false,"is_disabled":false,"rental_uris":{"android":"levelo://app?vid=d400821d-12fc-4b92-a929-07e330bc24b2","ios":"levelo://app?vid=d400821d-12fc-4b92-a929-07e330bc24b2"},"vehicle_type_id":"4","last_reported":1737277687,"current_range_meters":38800,"station_id":"cpo3532slgdg3j2ikp40","pricing_plan_id":"cebpf4jnsgd1na2vs0mg"},{"bike_id":"4104cbba-088f-4383-b2a0-261d17699731","system_id":"levelo_inurba_marseille","lat":43.239634,"lon":5.366359,"is_reserved":false,"is_disabled":false,"rental_uris":{"android":"levelo://app?vid=4104cbba-088f-4383-b2a0-261d17699731","ios":"levelo://app?vid=4104cbba-088f-4383-b2a0-261d17699731"},"vehicle_type_id":"4","last_reported":1737277687,"current_range_meters":36800,"station_id":"ce4bhi12rcd13ifvqfp0","pricing_plan_id":"cebpf4jnsgd1na2vs0mg"},{"bike_id":"7671f6ca-f839-45d5-8f7e-97fa0d127297","system_id":"levelo_inurba_marseille","lat":43.26813,"lon":5.39438,"is_reserved":false,"is_disabled":false,"rental_uris":{"android":"levelo://app?vid=7671f6ca-f839-45d5-8f7e-97fa0d127297","ios":"levelo://app?vid=7671f6ca-f839-45d5-8f7e-97fa0d127297"},"vehicle_type_id":"4","last_reported":1737277687,"current_range_meters":38800,"station_id":"ce4bhh12rcd13ifvqfg0","pricing_plan_id":"cebpf4jnsgd1na2vs0mg"},{"bike_id":"8fa75fd3-2cb2-443e-ab5a-efbecdcec383","system_id":"levelo_inurba_marseille","lat":43.26572,"lon":5.39007,"is_reserved":false,"is_disabled":false,"rental_uris":{"android":"levelo://app?vid=8fa75fd3-2cb2-443e-ab5a-efbecdcec383","ios":"levelo://app?vid=8fa75fd3-2cb2-443e-ab5a-efbecdcec383"},"vehicle_type_id":"4","last_reported":1737277687,"current_range_meters":3600,"station_id":"ce4bhe12rcd13ifvqf30","pricing_plan_id":"cebpf4jnsgd1na2vs0mg"},{"bike_id":"1a802ebb-632a-4b20-97b3-4e18850c45bf","system_id":"levelo_inurba_marseille","lat":43.29259,"lon":5.40913,"is_reserved":false,"is_disabled":false,"rental_uris":{"android":"levelo://app?vid=1a802ebb-632a-4b20-97b3-4e18850c45bf","ios":"levelo://app?vid=1a802ebb-632a-4b20-97b3-4e18850c45bf"},"vehicle_type_id":"4","last_reported":1737277687,"current_range_meters":36800,"station_id":"ce4bh192rcd13ifvqdc0","pricing_plan_id":"cebpf4jnsgd1na2vs0mg"},{"bike_id":"881f5a56-0072-422c-a05d-eee833d8c733","system_id":"levelo_inurba_marseille","lat":43.33122,"lon":5.3802,"is_reserved":false,"is_disabled":false,"rental_uris":{"android":"levelo://app?vid=881f5a56-0072-422c-a05d-eee833d8c733","ios":"levelo://app?vid=881f5a56-0072-422c-a05d-eee833d8c733"},"vehicle_type_id":"4","last_reported":1737277687,"current_range_meters":37600,"station_id":"","pricing_plan_id":"cebpf4jnsgd1na2vs0mg"},{"bike_id":"28ef1c1e-dd89-43e8-817b-9b489831397b","system_id":"levelo_inurba_marseille","lat":43.27097,"lon":5.39637,"is_reserved":false,"is_disabled":true,"rental_uris":{"android":"levelo://app?vid=28ef1c1e-dd89-43e8-817b-9b489831397b","ios":"levelo://app?vid=28ef1c1e-dd89-43e8-817b-9b489831397b"},"vehicle_type_id":"4","last_reported":1737277687,"current_range_meters":0,"station_id":"","pricing_plan_id":"cebpf4jnsgd1na2vs0mg"},{"bike_id":"63f5da95-45c1-4439-88f3-ff94f7d248dd","system_id":"levelo_inurba_marseille","lat":43.23191,"lon":5.4,"is_reserved":false,"is_disabled":false,"rental_uris":{"android":"levelo://app?vid=63f5da95-45c1-4439-88f3-ff94f7d248dd","ios":"levelo://app?vid=63f5da95-45c1-4439-88f3-ff94f7d248dd"},"vehicle_type_id":"4","last_reported":1737277687,"current_range_meters":33200,"station_id":"ce4bhn12rcd13ifvqgqg","pricing_plan_id":"cebpf4jnsgd1na2vs0mg"},{"bike_id":"f083c262-9d3a-4ca9-864b-20b28a95222b","system_id":"levelo_inurba_marseille","lat":43.26784,"lon":5.3942,"is_reserved":false,"is_disabled":false,"rental_uris":{"android":"levelo://app?vid=f083c262-9d3a-4ca9-864b-20b28a95222b","ios":"levelo://app?vid=f083c262-9d3a-4ca9-864b-20b28a95222b"},"vehicle_type_id":"4","last_reported":1737277687,"current_range_meters":38800,"station_id":"ce4bhh12rcd13ifvqfg0","pricing_plan_id":"cebpf4jnsgd1na2vs0mg"},{"bike_id":"c77de84a-305d-47e5-b81a-44313d3b8aa9","system_id":"levelo_inurba_marseille","lat":43.25873,"lon":5.3989,"is_reserved":false,"is_disabled":false,"rental_uris":{"android":"levelo://app?vid=c77de84a-305d-47e5-b81a-44313d3b8aa9","ios":"levelo://app?vid=c77de84a-305d-47e5-b81a-44313d3b8aa9"},"vehicle_type_id":"4","last_reported":1737277687,"current_range_meters":31200,"station_id":"ce4bhl92rcd13ifvqghg","pricing_plan_id":"cebpf4jnsgd1na2vs0mg"},{"bike_id":"357eaeda-fef2-41f2-9ad0-621ae2cc5c09","system_id":"levelo_inurba_marseille","lat":43.33753,"lon":5.37518,"is_reserved":false,"is_disabled":false,"rental_uris":{"android":"levelo://app?vid=357eaeda-fef2-41f2-9ad0-621ae2cc5c09","ios":"levelo://app?vid=357eaeda-fef2-41f2-9ad0-621ae2cc5c09"},"vehicle_type_id":"4","last_reported":1737277687,"current_range_meters":33200,"station_id":"","pricing_plan_id":"cebpf4jnsgd1na2vs0mg"},{"bike_id":"b8f16136-2d63-4dca-bf3f-ca3612af30eb","system_id":"levelo_inurba_marseille","lat":43.2467,"lon":5.3815,"is_reserved":false,"is_disabled":false,"rental_uris":{"android":"levelo://app?vid=b8f16136-2d63-4dca-bf3f-ca3612af30eb","ios":"levelo://app?vid=b8f16136-2d63-4dca-bf3f-ca3612af30eb"},"vehicle_type_id":"4","last_reported":1737277687,"current_range_meters":30000,"station_id":"ce4bhih2rcd13ifvqfr0","pricing_plan_id":"cebpf4jnsgd1na2vs0mg"},{"bike_id":"35fde096-5140-4df8-b37b-39272cff65d4","system_id":"levelo_inurba_marseille","lat":43.292172,"lon":5.36072,"is_reserved":false,"is_disabled":false,"rental_uris":{"android":"levelo://app?vid=35fde096-5140-4df8-b37b-39272cff65d4","ios":"levelo://app?vid=35fde096-5140-4df8-b37b-39272cff65d4"},"vehicle_type_id":"4","last_reported":1737277687,"current_range_meters":37600,"station_id":"ce4bhbh2rcd13ifvqeqg","pricing_plan_id":"cebpf4jnsgd1na2vs0mg"},{"bike_id":"ad37be90-cd16-435d-9ccb-35b175ce6ca4","system_id":"levelo_inurba_marseille","lat":43.284557,"lon":5.358923,"is_reserved":false,"is_disabled":false,"rental_uris":{"android":"levelo://app?vid=ad37be90-cd16-435d-9ccb-35b175ce6ca4","ios":"levelo://app?vid=ad37be90-cd16-435d-9ccb-35b175ce6ca4"},"vehicle_type_id":"4","last_reported":1737277687,"current_range_meters":24800,"station_id":"ce4bhah2rcd13ifvqei0","pricing_plan_id":"cebpf4jnsgd1na2vs0mg"},{"bike_id":"5ebc0e23-f2f4-4cc0-bd89-a31a0285ee53","system_id":"levelo_inurba_marseille","lat":43.31726,"lon":5.43719,"is_reserved":false,"is_disabled":false,"rental_uris":{"android":"levelo://app?vid=5ebc0e23-f2f4-4cc0-bd89-a31a0285ee53","ios":"levelo://app?vid=5ebc0e23-f2f4-4cc0-bd89-a31a0285ee53"},"vehicle_type_id":"4","last_reported":1737277687,"current_range_meters":38800,"station_id":"ce4bhp92rcd13ifvqhcg","pricing_plan_id":"cebpf4jnsgd1na2vs0mg"},{"bike_id":"e240e2c9-7bbb-4f0a-b70e-66e583abb282","system_id":"levelo_inurba_marseille","lat":43.30647,"lon":5.40099,"is_reserved":false,"is_disabled":false,"rental_uris":{"android":"levelo://app?vid=e240e2c9-7bbb-4f0a-b70e-66e583abb282","ios":"levelo://app?vid=e240e2c9-7bbb-4f0a-b70e-66e583abb282"},"vehicle_type_id":"4","last_reported":1737277687,"current_range_meters":28800,"station_id":"ce4bh112rcd13ifvqda0","pricing_plan_id":"cebpf4jnsgd1na2vs0mg"},{"bike_id":"e2481d2d-ec3c-436f-9eeb-094327789afd","system_id":"levelo_inurba_marseille","lat":43.29709,"lon":5.42366,"is_reserved":false,"is_disabled":false,"rental_uris":{"android":"levelo://app?vid=e2481d2d-ec3c-436f-9eeb-094327789afd","ios":"levelo://app?vid=e2481d2d-ec3c-436f-9eeb-094327789afd"},"vehicle_type_id":"4","last_reported":1737277687,"current_range_meters":9200,"station_id":"","pricing_plan_id":"cebpf4jnsgd1na2vs0mg"},{"bike_id":"4d4b0e98-71c8-4e53-9659-55113dc5e691","system_id":"levelo_inurba_marseille","lat":43.288484,"lon":5.358634,"is_reserved":false,"is_disabled":false,"rental_uris":{"android":"levelo://app?vid=4d4b0e98-71c8-4e53-9659-55113dc5e691","ios":"levelo://app?vid=4d4b0e98-71c8-4e53-9659-55113dc5e691"},"vehicle_type_id":"4","last_reported":1737277687,"current_range_meters":38800,"station_id":"ce4bhb12rcd13ifvqem0","pricing_plan_id":"cebpf4jnsgd1na2vs0mg"},{"bike_id":"406cf7e1-dd3a-472a-896f-d09b14680f3c","system_id":"levelo_inurba_marseille","lat":43.260608,"lon":5.393959,"is_reserved":false,"is_disabled":false,"rental_uris":{"android":"levelo://app?vid=406cf7e1-dd3a-472a-896f-d09b14680f3c","ios":"levelo://app?vid=406cf7e1-dd3a-472a-896f-d09b14680f3c"},"vehicle_type_id":"4","last_reported":1737277687,"current_range_meters":27200,"station_id":"ce4bhh92rcd13ifvqfj0","pricing_plan_id":"cebpf4jnsgd1na2vs0mg"},{"bike_id":"8d8b3bc9-82a6-4fe0-9b6a-0a0d7ab0af18","system_id":"levelo_inurba_marseille","lat":43.27676,"lon":5.38936,"is_reserved":false,"is_disabled":false,"rental_uris":{"android":"levelo://app?vid=8d8b3bc9-82a6-4fe0-9b6a-0a0d7ab0af18","ios":"levelo://app?vid=8d8b3bc9-82a6-4fe0-9b6a-0a0d7ab0af18"},"vehicle_type_id":"4","last_reported":1737277687,"current_range_meters":35200,"station_id":"ce4bhi12rcd13ifvqfo0","pricing_plan_id":"cebpf4jnsgd1na2vs0mg"},{"bike_id":"01a07bd9-36a1-4c19-a88b-7c9e3a6ee490","system_id":"levelo_inurba_marseille","lat":43.25095,"lon":5.39543,"is_reserved":false,"is_disabled":false,"rental_uris":{"android":"levelo://app?vid=01a07bd9-36a1-4c19-a88b-7c9e3a6ee490","ios":"levelo://app?vid=01a07bd9-36a1-4c19-a88b-7c9e3a6ee490"},"vehicle_type_id":"4","last_reported":1737277687,"current_range_meters":33600,"station_id":"ce4bhm12rcd13ifvqgkg","pricing_plan_id":"cebpf4jnsgd1na2vs0mg"},{"bike_id":"850c2333-a382-4245-9262-9d1484761558","system_id":"levelo_inurba_marseille","lat":43.29244,"lon":5.36073,"is_reserved":false,"is_disabled":false,"rental_uris":{"android":"levelo://app?vid=850c2333-a382-4245-9262-9d1484761558","ios":"levelo://app?vid=850c2333-a382-4245-9262-9d1484761558"},"vehicle_type_id":"4","last_reported":1737277687,"current_range_meters":7200,"station_id":"ce4bhbh2rcd13ifvqeqg","pricing_plan_id":"cebpf4jnsgd1na2vs0mg"},{"bike_id":"d1eb5201-1dd9-47ee-9474-6a0ba858937c","system_id":"levelo_inurba_marseille","lat":43.30591,"lon":5.39361,"is_reserved":false,"is_disabled":false,"rental_uris":{"android":"levelo://app?vid=d1eb5201-1dd9-47ee-9474-6a0ba858937c","ios":"levelo://app?vid=d1eb5201-1dd9-47ee-9474-6a0ba858937c"},"vehicle_type_id":"4","last_reported":1737277687,"current_range_meters":38400,"station_id":"ce4bh0p2rcd13ifvqd80","pricing_plan_id":"cebpf4jnsgd1na2vs0mg"},{"bike_id":"24d3b331-52fa-4564-a98e-732c1dea4a32","system_id":"levelo_inurba_marseille","lat":43.27487,"lon":5.42456,"is_reserved":false,"is_disabled":true,"rental_uris":{"android":"levelo://app?vid=24d3b331-52fa-4564-a98e-732c1dea4a32","ios":"levelo://app?vid=24d3b331-52fa-4564-a98e-732c1dea4a32"},"vehicle_type_id":"4","last_reported":1737277687,"current_range_meters":0,"station_id":"ce4bhn92rcd13ifvqgrg","pricing_plan_id":"cebpf4jnsgd1na2vs0mg"},{"bike_id":"61e04b06-6407-46c1-8d9c-8b0589f70b62","system_id":"levelo_inurba_marseille","lat":43.30419,"lon":5.4129,"is_reserved":false,"is_disabled":false,"rental_uris":{"android":"levelo://app?vid=61e04b06-6407-46c1-8d9c-8b0589f70b62","ios":"levelo://app?vid=61e04b06-6407-46c1-8d9c-8b0589f70b62"},"vehicle_type_id":"4","last_reported":1737277687,"current_range_meters":12800,"station_id":"ce4bhop2rcd13ifvqh8g","pricing_plan_id":"cebpf4jnsgd1na2vs0mg"},{"bike_id":"830df493-d61b-4af0-9067-68cf38f60ac0","system_id":"levelo_inurba_marseille","lat":43.28463,"lon":5.35896,"is_reserved":false,"is_disabled":false,"rental_uris":{"android":"levelo://app?vid=830df493-d61b-4af0-9067-68cf38f60ac0","ios":"levelo://app?vid=830df493-d61b-4af0-9067-68cf38f60ac0"},"vehicle_type_id":"4","last_reported":1737277687,"current_range_meters":28400,"station_id":"ce4bhah2rcd13ifvqei0","pricing_plan_id":"cebpf4jnsgd1na2vs0mg"},{"bike_id":"524072f1-ace1-43cc-8007-f91dc732b1f7","system_id":"levelo_inurba_marseille","lat":43.25084,"lon":5.39513,"is_reserved":false,"is_disabled":false,"rental_uris":{"android":"levelo://app?vid=524072f1-ace1-43cc-8007-f91dc732b1f7","ios":"levelo://app?vid=524072f1-ace1-43cc-8007-f91dc732b1f7"},"vehicle_type_id":"4","last_reported":1737277687,"current_range_meters":32400,"station_id":"ce4bhm12rcd13ifvqgkg","pricing_plan_id":"cebpf4jnsgd1na2vs0mg"},{"bike_id":"4176cd66-1893-4442-bd75-0360ec9d6e01","system_id":"levelo_inurba_marseille","lat":43.28935,"lon":5.364,"is_reserved":false,"is_disabled":false,"rental_uris":{"android":"levelo://app?vid=4176cd66-1893-4442-bd75-0360ec9d6e01","ios":"levelo://app?vid=4176cd66-1893-4442-bd75-0360ec9d6e01"},"vehicle_type_id":"4","last_reported":1737277687,"current_range_meters":34000,"station_id":"ce4bhc92rcd13ifvqetg","pricing_plan_id":"cebpf4jnsgd1na2vs0mg"},{"bike_id":"cd195908-7692-40ef-8f14-bc81abd6e292","system_id":"levelo_inurba_marseille","lat":43.30319,"lon":5.40451,"is_reserved":false,"is_disabled":false,"rental_uris":{"android":"levelo://app?vid=cd195908-7692-40ef-8f14-bc81abd6e292","ios":"levelo://app?vid=cd195908-7692-40ef-8f14-bc81abd6e292"},"vehicle_type_id":"4","last_reported":1737277687,"current_range_meters":39200,"station_id":"ce4bh012rcd13ifvqd10","pricing_plan_id":"cebpf4jnsgd1na2vs0mg"},{"bike_id":"59829282-52a1-4f2c-9ab6-c535355001fb","system_id":"levelo_inurba_marseille","lat":43.30443,"lon":5.388997,"is_reserved":false,"is_disabled":false,"rental_uris":{"android":"levelo://app?vid=59829282-52a1-4f2c-9ab6-c535355001fb","ios":"levelo://app?vid=59829282-52a1-4f2c-9ab6-c535355001fb"},"vehicle_type_id":"4","last_reported":1737277687,"current_range_meters":34000,"station_id":"ce4bgk12rcd13ifvqbi0","pricing_plan_id":"cebpf4jnsgd1na2vs0mg"},{"bike_id":"52944324-56c0-4eb2-bed2-f2a48346d11b","system_id":"levelo_inurba_marseille","lat":43.28343,"lon":5.38104,"is_reserved":false,"is_disabled":false,"rental_uris":{"android":"levelo://app?vid=52944324-56c0-4eb2-bed2-f2a48346d11b","ios":"levelo://app?vid=52944324-56c0-4eb2-bed2-f2a48346d11b"},"vehicle_type_id":"4","last_reported":1737277687,"current_range_meters":37600,"station_id":"ce4bh412rcd13ifvqdr0","pricing_plan_id":"cebpf4jnsgd1na2vs0mg"},{"bike_id":"73a6534b-c6b0-43a8-8b0c-85b43be35f07","system_id":"levelo_inurba_marseille","lat":43.29572,"lon":5.37524,"is_reserved":false,"is_disabled":false,"rental_uris":{"android":"levelo://app?vid=73a6534b-c6b0-43a8-8b0c-85b43be35f07","ios":"levelo://app?vid=73a6534b-c6b0-43a8-8b0c-85b43be35f07"},"vehicle_type_id":"4","last_reported":1737277687,"current_range_meters":28800,"station_id":"ce4bgh92rcd13ifvqb50","pricing_plan_id":"cebpf4jnsgd1na2vs0mg"},{"bike_id":"4291632b-b89c-4c47-8e03-1ac2c74e4815","system_id":"levelo_inurba_marseille","lat":43.24173,"lon":5.39728,"is_reserved":false,"is_disabled":false,"rental_uris":{"android":"levelo://app?vid=4291632b-b89c-4c47-8e03-1ac2c74e4815","ios":"levelo://app?vid=4291632b-b89c-4c47-8e03-1ac2c74e4815"},"vehicle_type_id":"4","last_reported":1737277687,"current_range_meters":38000,"station_id":"ce4bhn12rcd13ifvqgpg","pricing_plan_id":"cebpf4jnsgd1na2vs0mg"},{"bike_id":"804b3b4e-2b7b-432d-bee9-ad793eff9ddf","system_id":"levelo_inurba_marseille","lat":43.25712,"lon":5.41126,"is_reserved":false,"is_disabled":false,"rental_uris":{"android":"levelo://app?vid=804b3b4e-2b7b-432d-bee9-ad793eff9ddf","ios":"levelo://app?vid=804b3b4e-2b7b-432d-bee9-ad793eff9ddf"},"vehicle_type_id":"4","last_reported":1737277687,"current_range_meters":8400,"station_id":"ce4bhkp2rcd13ifvqgd0","pricing_plan_id":"cebpf4jnsgd1na2vs0mg"},{"bike_id":"fef4e376-c67d-459e-a834-bcbe6ddc903c","system_id":"levelo_inurba_marseille","lat":43.25,"lon":5.38941,"is_reserved":false,"is_disabled":false,"rental_uris":{"android":"levelo://app?vid=fef4e376-c67d-459e-a834-bcbe6ddc903c","ios":"levelo://app?vid=fef4e376-c67d-459e-a834-bcbe6ddc903c"},"vehicle_type_id":"4","last_reported":1737277687,"current_range_meters":36800,"station_id":"ce4bhgp2rcd13ifvqfd0","pricing_plan_id":"cebpf4jnsgd1na2vs0mg"},{"bike_id":"dfd96ebd-2cae-4ab5-8d13-f6e62258957e","system_id":"levelo_inurba_marseille","lat":43.3173,"lon":5.42417,"is_reserved":false,"is_disabled":false,"rental_uris":{"android":"levelo://app?vid=dfd96ebd-2cae-4ab5-8d13-f6e62258957e","ios":"levelo://app?vid=dfd96ebd-2cae-4ab5-8d13-f6e62258957e"},"vehicle_type_id":"4","last_reported":1737277687,"current_range_meters":38000,"station_id":"ce4bhp92rcd13ifvqhbg","pricing_plan_id":"cebpf4jnsgd1na2vs0mg"},{"bike_id":"7c10799d-57f0-49eb-a0e5-0554b310d79c","system_id":"levelo_inurba_marseille","lat":43.28463,"lon":5.38454,"is_reserved":false,"is_disabled":false,"rental_uris":{"android":"levelo://app?vid=7c10799d-57f0-49eb-a0e5-0554b310d79c","ios":"levelo://app?vid=7c10799d-57f0-49eb-a0e5-0554b310d79c"},"vehicle_type_id":"4","last_reported":1737277687,"current_range_meters":30800,"station_id":"ce4bh512rcd13ifvqe3g","pricing_plan_id":"cebpf4jnsgd1na2vs0mg"},{"bike_id":"13d3fd97-e21c-4164-8b58-6e6c0cfe1ec1","system_id":"levelo_inurba_marseille","lat":43.28046,"lon":5.36963,"is_reserved":false,"is_disabled":false,"rental_uris":{"android":"levelo://app?vid=13d3fd97-e21c-4164-8b58-6e6c0cfe1ec1","ios":"levelo://app?vid=13d3fd97-e21c-4164-8b58-6e6c0cfe1ec1"},"vehicle_type_id":"4","last_reported":1737277687,"current_range_meters":38800,"station_id":"ce4bha12rcd13ifvqef0","pricing_plan_id":"cebpf4jnsgd1na2vs0mg"},{"bike_id":"fae143cc-e0b7-42e0-ac41-6327643321d0","system_id":"levelo_inurba_marseille","lat":43.25829,"lon":5.39426,"is_reserved":false,"is_disabled":false,"rental_uris":{"android":"levelo://app?vid=fae143cc-e0b7-42e0-ac41-6327643321d0","ios":"levelo://app?vid=fae143cc-e0b7-42e0-ac41-6327643321d0"},"vehicle_type_id":"4","last_reported":1737277687,"current_range_meters":28800,"station_id":"ce4bhip2rcd13ifvqft0","pricing_plan_id":"cebpf4jnsgd1na2vs0mg"},{"bike_id":"bcd96ff4-f53b-4513-aba6-d7a0a8f8f0c1","system_id":"levelo_inurba_marseille","lat":43.2583,"lon":5.39424,"is_reserved":false,"is_disabled":false,"rental_uris":{"android":"levelo://app?vid=bcd96ff4-f53b-4513-aba6-d7a0a8f8f0c1","ios":"levelo://app?vid=bcd96ff4-f53b-4513-aba6-d7a0a8f8f0c1"},"vehicle_type_id":"4","last_reported":1737277687,"current_range_meters":38000,"station_id":"ce4bhip2rcd13ifvqft0","pricing_plan_id":"cebpf4jnsgd1na2vs0mg"},{"bike_id":"8600d936-bbb2-4761-9f8e-aa4c1032bd26","system_id":"levelo_inurba_marseille","lat":43.30429,"lon":5.39749,"is_reserved":false,"is_disabled":false,"rental_uris":{"android":"levelo://app?vid=8600d936-bbb2-4761-9f8e-aa4c1032bd26","ios":"levelo://app?vid=8600d936-bbb2-4761-9f8e-aa4c1032bd26"},"vehicle_type_id":"4","last_reported":1737277687,"current_range_meters":38800,"station_id":"ce4bh092rcd13ifvqd20","pricing_plan_id":"cebpf4jnsgd1na2vs0mg"},{"bike_id":"f4a4a406-b0a5-42fc-9236-32e93ac6f6b2","system_id":"levelo_inurba_marseille","lat":43.23157,"lon":5.43708,"is_reserved":false,"is_disabled":true,"rental_uris":{"android":"levelo://app?vid=f4a4a406-b0a5-42fc-9236-32e93ac6f6b2","ios":"levelo://app?vid=f4a4a406-b0a5-42fc-9236-32e93ac6f6b2"},"vehicle_type_id":"4","last_reported":1737277687,"current_range_meters":26800,"station_id":"ce4bhmp2rcd13ifvqgog","pricing_plan_id":"cebpf4jnsgd1na2vs0mg"},{"bike_id":"210ffe2d-27bf-471a-a897-ba0eb55d9e2b","system_id":"levelo_inurba_marseille","lat":43.27054,"lon":5.42277,"is_reserved":false,"is_disabled":false,"rental_uris":{"android":"levelo://app?vid=210ffe2d-27bf-471a-a897-ba0eb55d9e2b","ios":"levelo://app?vid=210ffe2d-27bf-471a-a897-ba0eb55d9e2b"},"vehicle_type_id":"4","last_reported":1737277687,"current_range_meters":36000,"station_id":"ce4bhk92rcd13ifvqgb0","pricing_plan_id":"cebpf4jnsgd1na2vs0mg"},{"bike_id":"59079b38-5ea1-41b5-af5f-459f3bf2785e","system_id":"levelo_inurba_marseille","lat":43.30246,"lon":5.40063,"is_reserved":false,"is_disabled":false,"rental_uris":{"android":"levelo://app?vid=59079b38-5ea1-41b5-af5f-459f3bf2785e","ios":"levelo://app?vid=59079b38-5ea1-41b5-af5f-459f3bf2785e"},"vehicle_type_id":"4","last_reported":1737277687,"current_range_meters":36400,"station_id":"ce4bgvh2rcd13ifvqcs0","pricing_plan_id":"cebpf4jnsgd1na2vs0mg"},{"bike_id":"16aedfac-a904-4a8b-8d88-582ddafaabef","system_id":"levelo_inurba_marseille","lat":43.28943,"lon":5.36645,"is_reserved":false,"is_disabled":false,"rental_uris":{"android":"levelo://app?vid=16aedfac-a904-4a8b-8d88-582ddafaabef","ios":"levelo://app?vid=16aedfac-a904-4a8b-8d88-582ddafaabef"},"vehicle_type_id":"4","last_reported":1737277687,"current_range_meters":35600,"station_id":"ce4bhap2rcd13ifvqek0","pricing_plan_id":"cebpf4jnsgd1na2vs0mg"},{"bike_id":"1fbee72f-4022-4967-952a-f436800964f4","system_id":"levelo_inurba_marseille","lat":43.25003,"lon":5.38949,"is_reserved":false,"is_disabled":false,"rental_uris":{"android":"levelo://app?vid=1fbee72f-4022-4967-952a-f436800964f4","ios":"levelo://app?vid=1fbee72f-4022-4967-952a-f436800964f4"},"vehicle_type_id":"4","last_reported":1737277687,"current_range_meters":30800,"station_id":"ce4bhgp2rcd13ifvqfd0","pricing_plan_id":"cebpf4jnsgd1na2vs0mg"},{"bike_id":"1d9dadc3-a9f2-4a37-b16f-dc002d79f83c","system_id":"levelo_inurba_marseille","lat":43.24079,"lon":5.37746,"is_reserved":false,"is_disabled":false,"rental_uris":{"android":"levelo://app?vid=1d9dadc3-a9f2-4a37-b16f-dc002d79f83c","ios":"levelo://app?vid=1d9dadc3-a9f2-4a37-b16f-dc002d79f83c"},"vehicle_type_id":"4","last_reported":1737277687,"current_range_meters":25200,"station_id":"ce4bhnp2rcd13ifvqgvg","pricing_plan_id":"cebpf4jnsgd1na2vs0mg"},{"bike_id":"4bd96a6e-5b62-4b7e-a075-ead23fa5c459","system_id":"levelo_inurba_marseille","lat":43.29903,"lon":5.37453,"is_reserved":false,"is_disabled":false,"rental_uris":{"android":"levelo://app?vid=4bd96a6e-5b62-4b7e-a075-ead23fa5c459","ios":"levelo://app?vid=4bd96a6e-5b62-4b7e-a075-ead23fa5c459"},"vehicle_type_id":"4","last_reported":1737277687,"current_range_meters":38400,"station_id":"ce4bgjh2rcd13ifvqbg0","pricing_plan_id":"cebpf4jnsgd1na2vs0mg"},{"bike_id":"74bd9320-6568-47aa-bc9d-f58f23afb672","system_id":"levelo_inurba_marseille","lat":43.28157,"lon":5.42647,"is_reserved":false,"is_disabled":false,"rental_uris":{"android":"levelo://app?vid=74bd9320-6568-47aa-bc9d-f58f23afb672","ios":"levelo://app?vid=74bd9320-6568-47aa-bc9d-f58f23afb672"},"vehicle_type_id":"4","last_reported":1737277687,"current_range_meters":27200,"station_id":"ce4bhnh2rcd13ifvqgug","pricing_plan_id":"cebpf4jnsgd1na2vs0mg"},{"bike_id":"5c2b48c5-c07c-4e33-a776-013e6e6e6b46","system_id":"levelo_inurba_marseille","lat":43.33602,"lon":5.41013,"is_reserved":false,"is_disabled":false,"rental_uris":{"android":"levelo://app?vid=5c2b48c5-c07c-4e33-a776-013e6e6e6b46","ios":"levelo://app?vid=5c2b48c5-c07c-4e33-a776-013e6e6e6b46"},"vehicle_type_id":"4","last_reported":1737277687,"current_range_meters":16800,"station_id":"ce4bhqh2rcd13ifvqhmg","pricing_plan_id":"cebpf4jnsgd1na2vs0mg"},{"bike_id":"7224572b-f221-4a91-833d-f18a2fa18d57","system_id":"levelo_inurba_marseille","lat":43.27833,"lon":5.39205,"is_reserved":false,"is_disabled":false,"rental_uris":{"android":"levelo://app?vid=7224572b-f221-4a91-833d-f18a2fa18d57","ios":"levelo://app?vid=7224572b-f221-4a91-833d-f18a2fa18d57"},"vehicle_type_id":"4","last_reported":1737277687,"current_range_meters":38800,"station_id":"ce4bhjp2rcd13ifvqga0","pricing_plan_id":"cebpf4jnsgd1na2vs0mg"},{"bike_id":"0b347ee2-2808-4cbd-aafe-e2b2194ac787","system_id":"levelo_inurba_marseille","lat":43.25928,"lon":5.409,"is_reserved":false,"is_disabled":false,"rental_uris":{"android":"levelo://app?vid=0b347ee2-2808-4cbd-aafe-e2b2194ac787","ios":"levelo://app?vid=0b347ee2-2808-4cbd-aafe-e2b2194ac787"},"vehicle_type_id":"4","last_reported":1737277687,"current_range_meters":2800,"station_id":"ce4bhm92rcd13ifvqglg","pricing_plan_id":"cebpf4jnsgd1na2vs0mg"},{"bike_id":"56bc8aaf-0f94-4e50-98d4-bba0e99201f1","system_id":"levelo_inurba_marseille","lat":43.257148,"lon":5.411088,"is_reserved":false,"is_disabled":false,"rental_uris":{"android":"levelo://app?vid=56bc8aaf-0f94-4e50-98d4-bba0e99201f1","ios":"levelo://app?vid=56bc8aaf-0f94-4e50-98d4-bba0e99201f1"},"vehicle_type_id":"4","last_reported":1737277687,"current_range_meters":22800,"station_id":"ce4bhkp2rcd13ifvqgd0","pricing_plan_id":"cebpf4jnsgd1na2vs0mg"},{"bike_id":"7b855d51-4b0d-4d46-b791-c89a66723c4e","system_id":"levelo_inurba_marseille","lat":43.30248,"lon":5.40076,"is_reserved":false,"is_disabled":false,"rental_uris":{"android":"levelo://app?vid=7b855d51-4b0d-4d46-b791-c89a66723c4e","ios":"levelo://app?vid=7b855d51-4b0d-4d46-b791-c89a66723c4e"},"vehicle_type_id":"4","last_reported":1737277687,"current_range_meters":28400,"station_id":"ce4bgvh2rcd13ifvqcs0","pricing_plan_id":"cebpf4jnsgd1na2vs0mg"},{"bike_id":"234d1550-b7dd-465b-9578-32049a642f2b","system_id":"levelo_inurba_marseille","lat":43.29963,"lon":5.41334,"is_reserved":false,"is_disabled":false,"rental_uris":{"android":"levelo://app?vid=234d1550-b7dd-465b-9578-32049a642f2b","ios":"levelo://app?vid=234d1550-b7dd-465b-9578-32049a642f2b"},"vehicle_type_id":"4","last_reported":1737277687,"current_range_meters":36000,"station_id":"ce4bhp12rcd13ifvqh9g","pricing_plan_id":"cebpf4jnsgd1na2vs0mg"},{"bike_id":"ba62d1ca-5adf-48c1-b4e7-705a806c2530","system_id":"levelo_inurba_marseille","lat":43.24161,"lon":5.39702,"is_reserved":false,"is_disabled":false,"rental_uris":{"android":"levelo://app?vid=ba62d1ca-5adf-48c1-b4e7-705a806c2530","ios":"levelo://app?vid=ba62d1ca-5adf-48c1-b4e7-705a806c2530"},"vehicle_type_id":"4","last_reported":1737277687,"current_range_meters":4000,"station_id":"ce4bhn12rcd13ifvqgpg","pricing_plan_id":"cebpf4jnsgd1na2vs0mg"},{"bike_id":"f67c5c26-72f1-437c-9ef5-261cb0b78c87","system_id":"levelo_inurba_marseille","lat":43.30952,"lon":5.39042,"is_reserved":false,"is_disabled":false,"rental_uris":{"android":"levelo://app?vid=f67c5c26-72f1-437c-9ef5-261cb0b78c87","ios":"levelo://app?vid=f67c5c26-72f1-437c-9ef5-261cb0b78c87"},"vehicle_type_id":"4","last_reported":1737277687,"current_range_meters":38800,"station_id":"ce4bgup2rcd13ifvqco0","pricing_plan_id":"cebpf4jnsgd1na2vs0mg"},{"bike_id":"c5c1e2c1-9b51-4cb1-879c-c0156dbad799","system_id":"levelo_inurba_marseille","lat":43.31718,"lon":5.42397,"is_reserved":false,"is_disabled":false,"rental_uris":{"android":"levelo://app?vid=c5c1e2c1-9b51-4cb1-879c-c0156dbad799","ios":"levelo://app?vid=c5c1e2c1-9b51-4cb1-879c-c0156dbad799"},"vehicle_type_id":"4","last_reported":1737277687,"current_range_meters":26800,"station_id":"ce4bhp92rcd13ifvqhbg","pricing_plan_id":"cebpf4jnsgd1na2vs0mg"},{"bike_id":"57d0217a-9f4d-4a5f-be75-d910388ab45d","system_id":"levelo_inurba_marseille","lat":43.27934,"lon":5.41051,"is_reserved":false,"is_disabled":false,"rental_uris":{"android":"levelo://app?vid=57d0217a-9f4d-4a5f-be75-d910388ab45d","ios":"levelo://app?vid=57d0217a-9f4d-4a5f-be75-d910388ab45d"},"vehicle_type_id":"4","last_reported":1737277687,"current_range_meters":16000,"station_id":"ce4bhnp2rcd13ifvqh0g","pricing_plan_id":"cebpf4jnsgd1na2vs0mg"},{"bike_id":"654db7a9-66d5-42d6-bd65-8fa1d2aa6695","system_id":"levelo_inurba_marseille","lat":43.26804,"lon":5.40274,"is_reserved":false,"is_disabled":false,"rental_uris":{"android":"levelo://app?vid=654db7a9-66d5-42d6-bd65-8fa1d2aa6695","ios":"levelo://app?vid=654db7a9-66d5-42d6-bd65-8fa1d2aa6695"},"vehicle_type_id":"4","last_reported":1737277687,"current_range_meters":38400,"station_id":"ce501612rcd8frsf0b60","pricing_plan_id":"cebpf4jnsgd1na2vs0mg"},{"bike_id":"0505ce1f-f3a4-40dc-b7cb-e38492068cb0","system_id":"levelo_inurba_marseille","lat":43.30294,"lon":5.39208,"is_reserved":false,"is_disabled":false,"rental_uris":{"android":"levelo://app?vid=0505ce1f-f3a4-40dc-b7cb-e38492068cb0","ios":"levelo://app?vid=0505ce1f-f3a4-40dc-b7cb-e38492068cb0"},"vehicle_type_id":"4","last_reported":1737277687,"current_range_meters":32800,"station_id":"ce4bgkh2rcd13ifvqbk0","pricing_plan_id":"cebpf4jnsgd1na2vs0mg"},{"bike_id":"529dc2a7-7a3f-459d-9839-46273633cc3a","system_id":"levelo_inurba_marseille","lat":43.27497,"lon":5.42455,"is_reserved":false,"is_disabled":false,"rental_uris":{"android":"levelo://app?vid=529dc2a7-7a3f-459d-9839-46273633cc3a","ios":"levelo://app?vid=529dc2a7-7a3f-459d-9839-46273633cc3a"},"vehicle_type_id":"4","last_reported":1737277687,"current_range_meters":24800,"station_id":"ce4bhn92rcd13ifvqgrg","pricing_plan_id":"cebpf4jnsgd1na2vs0mg"},{"bike_id":"df480a99-67be-4c67-9d50-73210233c122","system_id":"levelo_inurba_marseille","lat":43.2549,"lon":5.37646,"is_reserved":false,"is_disabled":false,"rental_uris":{"android":"levelo://app?vid=df480a99-67be-4c67-9d50-73210233c122","ios":"levelo://app?vid=df480a99-67be-4c67-9d50-73210233c122"},"vehicle_type_id":"4","last_reported":1737277687,"current_range_meters":24400,"station_id":"ce4bhh12rcd13ifvqff0","pricing_plan_id":"cebpf4jnsgd1na2vs0mg"},{"bike_id":"56b8e9bc-f750-4815-bc98-9098414d16db","system_id":"levelo_inurba_marseille","lat":43.23199,"lon":5.35546,"is_reserved":false,"is_disabled":true,"rental_uris":{"android":"levelo://app?vid=56b8e9bc-f750-4815-bc98-9098414d16db","ios":"levelo://app?vid=56b8e9bc-f750-4815-bc98-9098414d16db"},"vehicle_type_id":"4","last_reported":1737277687,"current_range_meters":0,"station_id":"ce4bhu92rcd13ifvqi70","pricing_plan_id":"cebpf4jnsgd1na2vs0mg"},{"bike_id":"0e91b70c-1e42-4d65-a90a-72cbd40954b0","system_id":"levelo_inurba_marseille","lat":43.32377,"lon":5.36792,"is_reserved":false,"is_disabled":false,"rental_uris":{"android":"levelo://app?vid=0e91b70c-1e42-4d65-a90a-72cbd40954b0","ios":"levelo://app?vid=0e91b70c-1e42-4d65-a90a-72cbd40954b0"},"vehicle_type_id":"4","last_reported":1737277687,"current_range_meters":8400,"station_id":"ce4bhsh2rcd13ifvqi2g","pricing_plan_id":"cebpf4jnsgd1na2vs0mg"},{"bike_id":"9c6e0b03-f404-4bd8-adab-87c9e0e38335","system_id":"levelo_inurba_marseille","lat":43.29303,"lon":5.37175,"is_reserved":false,"is_disabled":false,"rental_uris":{"android":"levelo://app?vid=9c6e0b03-f404-4bd8-adab-87c9e0e38335","ios":"levelo://app?vid=9c6e0b03-f404-4bd8-adab-87c9e0e38335"},"vehicle_type_id":"4","last_reported":1737277687,"current_range_meters":27200,"station_id":"ce4bgh92rcd13ifvqb40","pricing_plan_id":"cebpf4jnsgd1na2vs0mg"},{"bike_id":"fcff8b6e-6484-4e4c-8d98-9ab325ed2e27","system_id":"levelo_inurba_marseille","lat":43.324787,"lon":5.365757,"is_reserved":false,"is_disabled":false,"rental_uris":{"android":"levelo://app?vid=fcff8b6e-6484-4e4c-8d98-9ab325ed2e27","ios":"levelo://app?vid=fcff8b6e-6484-4e4c-8d98-9ab325ed2e27"},"vehicle_type_id":"4","last_reported":1737277687,"current_range_meters":38800,"station_id":"ce4bhs12rcd13ifvqhvg","pricing_plan_id":"cebpf4jnsgd1na2vs0mg"},{"bike_id":"362f2ba6-952e-4a62-8e77-110149e6c012","system_id":"levelo_inurba_marseille","lat":43.33615,"lon":5.41045,"is_reserved":false,"is_disabled":false,"rental_uris":{"android":"levelo://app?vid=362f2ba6-952e-4a62-8e77-110149e6c012","ios":"levelo://app?vid=362f2ba6-952e-4a62-8e77-110149e6c012"},"vehicle_type_id":"4","last_reported":1737277687,"current_range_meters":5600,"station_id":"ce4bhqh2rcd13ifvqhmg","pricing_plan_id":"cebpf4jnsgd1na2vs0mg"},{"bike_id":"ee5e46e2-1b7f-4f41-b9a7-702e7757e533","system_id":"levelo_inurba_marseille","lat":43.30237,"lon":5.40015,"is_reserved":false,"is_disabled":false,"rental_uris":{"android":"levelo://app?vid=ee5e46e2-1b7f-4f41-b9a7-702e7757e533","ios":"levelo://app?vid=ee5e46e2-1b7f-4f41-b9a7-702e7757e533"},"vehicle_type_id":"4","last_reported":1737277687,"current_range_meters":32000,"station_id":"","pricing_plan_id":"cebpf4jnsgd1na2vs0mg"},{"bike_id":"2d51ed35-cd4a-4798-ae66-82a7306e8efd","system_id":"levelo_inurba_marseille","lat":43.31889,"lon":5.40738,"is_reserved":false,"is_disabled":false,"rental_uris":{"android":"levelo://app?vid=2d51ed35-cd4a-4798-ae66-82a7306e8efd","ios":"levelo://app?vid=2d51ed35-cd4a-4798-ae66-82a7306e8efd"},"vehicle_type_id":"4","last_reported":1737277687,"current_range_meters":14000,"station_id":"ce4bhq12rcd13ifvqhig","pricing_plan_id":"cebpf4jnsgd1na2vs0mg"},{"bike_id":"3fc83956-a2cd-441f-93bc-4508418b1783","system_id":"levelo_inurba_marseille","lat":43.299109,"lon":5.374748,"is_reserved":false,"is_disabled":false,"rental_uris":{"android":"levelo://app?vid=3fc83956-a2cd-441f-93bc-4508418b1783","ios":"levelo://app?vid=3fc83956-a2cd-441f-93bc-4508418b1783"},"vehicle_type_id":"4","last_reported":1737277687,"current_range_meters":8800,"station_id":"ce4bgjh2rcd13ifvqbg0","pricing_plan_id":"cebpf4jnsgd1na2vs0mg"},{"bike_id":"63fbd067-cca0-4aa8-b2c7-8a34f0f019b4","system_id":"levelo_inurba_marseille","lat":43.2958,"lon":5.37519,"is_reserved":false,"is_disabled":false,"rental_uris":{"android":"levelo://app?vid=63fbd067-cca0-4aa8-b2c7-8a34f0f019b4","ios":"levelo://app?vid=63fbd067-cca0-4aa8-b2c7-8a34f0f019b4"},"vehicle_type_id":"4","last_reported":1737277687,"current_range_meters":30800,"station_id":"ce4bgh92rcd13ifvqb50","pricing_plan_id":"cebpf4jnsgd1na2vs0mg"},{"bike_id":"0966a8a8-2d5b-449d-8d62-52bfeeb2bcde","system_id":"levelo_inurba_marseille","lat":43.29734,"lon":5.37698,"is_reserved":false,"is_disabled":true,"rental_uris":{"android":"levelo://app?vid=0966a8a8-2d5b-449d-8d62-52bfeeb2bcde","ios":"levelo://app?vid=0966a8a8-2d5b-449d-8d62-52bfeeb2bcde"},"vehicle_type_id":"4","last_reported":1737277687,"current_range_meters":38000,"station_id":"ce4bgkh2rcd13ifvqbl0","pricing_plan_id":"cebpf4jnsgd1na2vs0mg"},{"bike_id":"22465212-93af-4e0b-b803-6ee82bba56d5","system_id":"levelo_inurba_marseille","lat":43.33759,"lon":5.3748,"is_reserved":false,"is_disabled":false,"rental_uris":{"android":"levelo://app?vid=22465212-93af-4e0b-b803-6ee82bba56d5","ios":"levelo://app?vid=22465212-93af-4e0b-b803-6ee82bba56d5"},"vehicle_type_id":"4","last_reported":1737277687,"current_range_meters":28800,"station_id":"","pricing_plan_id":"cebpf4jnsgd1na2vs0mg"},{"bike_id":"2bba4a8f-966f-4b79-ad41-59d17bf0a02e","system_id":"levelo_inurba_marseille","lat":43.287338,"lon":5.360852,"is_reserved":false,"is_disabled":false,"rental_uris":{"android":"levelo://app?vid=2bba4a8f-966f-4b79-ad41-59d17bf0a02e","ios":"levelo://app?vid=2bba4a8f-966f-4b79-ad41-59d17bf0a02e"},"vehicle_type_id":"4","last_reported":1737277687,"current_range_meters":38000,"station_id":"cki0cbj6b192h4jlfktg","pricing_plan_id":"cebpf4jnsgd1na2vs0mg"},{"bike_id":"3e8275bc-2c83-49a8-84b7-c9092eea83a5","system_id":"levelo_inurba_marseille","lat":43.31698,"lon":5.4042,"is_reserved":false,"is_disabled":false,"rental_uris":{"android":"levelo://app?vid=3e8275bc-2c83-49a8-84b7-c9092eea83a5","ios":"levelo://app?vid=3e8275bc-2c83-49a8-84b7-c9092eea83a5"},"vehicle_type_id":"4","last_reported":1737277687,"current_range_meters":9200,"station_id":"ce4bh012rcd13ifvqd00","pricing_plan_id":"cebpf4jnsgd1na2vs0mg"},{"bike_id":"27c10a5c-e5d3-4044-9edf-4f58b096712f","system_id":"levelo_inurba_marseille","lat":43.30309,"lon":5.40457,"is_reserved":false,"is_disabled":true,"rental_uris":{"android":"levelo://app?vid=27c10a5c-e5d3-4044-9edf-4f58b096712f","ios":"levelo://app?vid=27c10a5c-e5d3-4044-9edf-4f58b096712f"},"vehicle_type_id":"4","last_reported":1737277687,"current_range_meters":0,"station_id":"ce4bh012rcd13ifvqd10","pricing_plan_id":"cebpf4jnsgd1na2vs0mg"},{"bike_id":"01f1ff31-689b-418c-8855-79c26daa62ec","system_id":"levelo_inurba_marseille","lat":43.27362,"lon":5.36246,"is_reserved":false,"is_disabled":false,"rental_uris":{"android":"levelo://app?vid=01f1ff31-689b-418c-8855-79c26daa62ec","ios":"levelo://app?vid=01f1ff31-689b-418c-8855-79c26daa62ec"},"vehicle_type_id":"4","last_reported":1737277687,"current_range_meters":32400,"station_id":"ce4bhbh2rcd13ifvqeo0","pricing_plan_id":"cebpf4jnsgd1na2vs0mg"},{"bike_id":"19fb1931-f075-402c-a076-088e72accb76","system_id":"levelo_inurba_marseille","lat":43.248071,"lon":5.374651,"is_reserved":false,"is_disabled":false,"rental_uris":{"android":"levelo://app?vid=19fb1931-f075-402c-a076-088e72accb76","ios":"levelo://app?vid=19fb1931-f075-402c-a076-088e72accb76"},"vehicle_type_id":"4","last_reported":1737277687,"current_range_meters":11200,"station_id":"ce4bhgh2rcd13ifvqfb0","pricing_plan_id":"cebpf4jnsgd1na2vs0mg"},{"bike_id":"4db215ea-7e11-4af4-bc7b-8a123f1eb789","system_id":"levelo_inurba_marseille","lat":43.31757,"lon":5.39012,"is_reserved":false,"is_disabled":false,"rental_uris":{"android":"levelo://app?vid=4db215ea-7e11-4af4-bc7b-8a123f1eb789","ios":"levelo://app?vid=4db215ea-7e11-4af4-bc7b-8a123f1eb789"},"vehicle_type_id":"4","last_reported":1737277687,"current_range_meters":38800,"station_id":"ce4bhqp2rcd13ifvqhng","pricing_plan_id":"cebpf4jnsgd1na2vs0mg"},{"bike_id":"86b1129b-34c7-4cb1-acb7-46aa8942c62c","system_id":"levelo_inurba_marseille","lat":43.23277,"lon":5.43942,"is_reserved":false,"is_disabled":false,"rental_uris":{"android":"levelo://app?vid=86b1129b-34c7-4cb1-acb7-46aa8942c62c","ios":"levelo://app?vid=86b1129b-34c7-4cb1-acb7-46aa8942c62c"},"vehicle_type_id":"4","last_reported":1737277687,"current_range_meters":38000,"station_id":"ce4bhmp2rcd13ifvqgog","pricing_plan_id":"cebpf4jnsgd1na2vs0mg"},{"bike_id":"93b019a8-d37c-4848-8e8d-cf900af142a9","system_id":"levelo_inurba_marseille","lat":43.29631,"lon":5.37177,"is_reserved":false,"is_disabled":false,"rental_uris":{"android":"levelo://app?vid=93b019a8-d37c-4848-8e8d-cf900af142a9","ios":"levelo://app?vid=93b019a8-d37c-4848-8e8d-cf900af142a9"},"vehicle_type_id":"4","last_reported":1737277687,"current_range_meters":38800,"station_id":"ce4bgnh2rcd13ifvqc0g","pricing_plan_id":"cebpf4jnsgd1na2vs0mg"},{"bike_id":"fad73bdb-6dc6-4c07-95d2-7cbcf7b07690","system_id":"levelo_inurba_marseille","lat":43.30873,"lon":5.39701,"is_reserved":false,"is_disabled":false,"rental_uris":{"android":"levelo://app?vid=fad73bdb-6dc6-4c07-95d2-7cbcf7b07690","ios":"levelo://app?vid=fad73bdb-6dc6-4c07-95d2-7cbcf7b07690"},"vehicle_type_id":"4","last_reported":1737277687,"current_range_meters":26800,"station_id":"ce4bh012rcd13ifvqcv0","pricing_plan_id":"cebpf4jnsgd1na2vs0mg"},{"bike_id":"359264b6-cc9c-4d77-996c-c5218ed5c647","system_id":"levelo_inurba_marseille","lat":43.31896,"lon":5.40734,"is_reserved":false,"is_disabled":false,"rental_uris":{"android":"levelo://app?vid=359264b6-cc9c-4d77-996c-c5218ed5c647","ios":"levelo://app?vid=359264b6-cc9c-4d77-996c-c5218ed5c647"},"vehicle_type_id":"4","last_reported":1737277687,"current_range_meters":9600,"station_id":"ce4bhq12rcd13ifvqhig","pricing_plan_id":"cebpf4jnsgd1na2vs0mg"},{"bike_id":"ad918d02-2287-4eac-99fb-4c4d0533782b","system_id":"levelo_inurba_marseille","lat":43.25108,"lon":5.40331,"is_reserved":false,"is_disabled":false,"rental_uris":{"android":"levelo://app?vid=ad918d02-2287-4eac-99fb-4c4d0533782b","ios":"levelo://app?vid=ad918d02-2287-4eac-99fb-4c4d0533782b"},"vehicle_type_id":"4","last_reported":1737277687,"current_range_meters":11200,"station_id":"ce4bhlh2rcd13ifvqgig","pricing_plan_id":"cebpf4jnsgd1na2vs0mg"},{"bike_id":"c6f874ed-7baa-4ffa-b8dc-93b47368c64c","system_id":"levelo_inurba_marseille","lat":43.27386,"lon":5.3626,"is_reserved":false,"is_disabled":false,"rental_uris":{"android":"levelo://app?vid=c6f874ed-7baa-4ffa-b8dc-93b47368c64c","ios":"levelo://app?vid=c6f874ed-7baa-4ffa-b8dc-93b47368c64c"},"vehicle_type_id":"4","last_reported":1737277687,"current_range_meters":30400,"station_id":"ce4bhbh2rcd13ifvqeo0","pricing_plan_id":"cebpf4jnsgd1na2vs0mg"},{"bike_id":"82eafdac-bd81-479d-a7b0-05db8ca76c26","system_id":"levelo_inurba_marseille","lat":43.25823,"lon":5.39434,"is_reserved":false,"is_disabled":true,"rental_uris":{"android":"levelo://app?vid=82eafdac-bd81-479d-a7b0-05db8ca76c26","ios":"levelo://app?vid=82eafdac-bd81-479d-a7b0-05db8ca76c26"},"vehicle_type_id":"4","last_reported":1737277687,"current_range_meters":0,"station_id":"ce4bhip2rcd13ifvqft0","pricing_plan_id":"cebpf4jnsgd1na2vs0mg"},{"bike_id":"88b2d2e1-f031-4080-9cac-720a82058612","system_id":"levelo_inurba_marseille","lat":43.31283,"lon":5.40161,"is_reserved":false,"is_disabled":false,"rental_uris":{"android":"levelo://app?vid=88b2d2e1-f031-4080-9cac-720a82058612","ios":"levelo://app?vid=88b2d2e1-f031-4080-9cac-720a82058612"},"vehicle_type_id":"4","last_reported":1737277687,"current_range_meters":38800,"station_id":"ce4bh092rcd13ifvqd30","pricing_plan_id":"cebpf4jnsgd1na2vs0mg"},{"bike_id":"7fefe014-5ff5-4472-a513-faec3bd0f1ab","system_id":"levelo_inurba_marseille","lat":43.26045,"lon":5.39397,"is_reserved":false,"is_disabled":false,"rental_uris":{"android":"levelo://app?vid=7fefe014-5ff5-4472-a513-faec3bd0f1ab","ios":"levelo://app?vid=7fefe014-5ff5-4472-a513-faec3bd0f1ab"},"vehicle_type_id":"4","last_reported":1737277687,"current_range_meters":38800,"station_id":"ce4bhh92rcd13ifvqfj0","pricing_plan_id":"cebpf4jnsgd1na2vs0mg"},{"bike_id":"41ff4665-df5a-496b-aa53-38a1d8195dac","system_id":"levelo_inurba_marseille","lat":43.301642,"lon":5.380825,"is_reserved":false,"is_disabled":false,"rental_uris":{"android":"levelo://app?vid=41ff4665-df5a-496b-aa53-38a1d8195dac","ios":"levelo://app?vid=41ff4665-df5a-496b-aa53-38a1d8195dac"},"vehicle_type_id":"4","last_reported":1737277687,"current_range_meters":37600,"station_id":"ce4bgjp2rcd13ifvqbh0","pricing_plan_id":"cebpf4jnsgd1na2vs0mg"},{"bike_id":"3c9d1ee7-51d5-4897-860a-26d949f3dbe0","system_id":"levelo_inurba_marseille","lat":43.26554,"lon":5.37282,"is_reserved":false,"is_disabled":false,"rental_uris":{"android":"levelo://app?vid=3c9d1ee7-51d5-4897-860a-26d949f3dbe0","ios":"levelo://app?vid=3c9d1ee7-51d5-4897-860a-26d949f3dbe0"},"vehicle_type_id":"4","last_reported":1737277687,"current_range_meters":25600,"station_id":"ce4bhg12rcd13ifvqf70","pricing_plan_id":"cebpf4jnsgd1na2vs0mg"},{"bike_id":"e76e9268-95b0-4c39-8e08-32cbf56c489e","system_id":"levelo_inurba_marseille","lat":43.28575,"lon":5.39506,"is_reserved":false,"is_disabled":false,"rental_uris":{"android":"levelo://app?vid=e76e9268-95b0-4c39-8e08-32cbf56c489e","ios":"levelo://app?vid=e76e9268-95b0-4c39-8e08-32cbf56c489e"},"vehicle_type_id":"4","last_reported":1737277687,"current_range_meters":35200,"station_id":"ce4bh292rcd13ifvqdg0","pricing_plan_id":"cebpf4jnsgd1na2vs0mg"},{"bike_id":"e1803d3a-2390-4e8d-82bc-144811a24811","system_id":"levelo_inurba_marseille","lat":43.24668,"lon":5.38895,"is_reserved":false,"is_disabled":false,"rental_uris":{"android":"levelo://app?vid=e1803d3a-2390-4e8d-82bc-144811a24811","ios":"levelo://app?vid=e1803d3a-2390-4e8d-82bc-144811a24811"},"vehicle_type_id":"4","last_reported":1737277687,"current_range_meters":39200,"station_id":"ce4bhg12rcd13ifvqf60","pricing_plan_id":"cebpf4jnsgd1na2vs0mg"},{"bike_id":"2f229b84-0dd9-4150-b226-a007f85e4aa6","system_id":"levelo_inurba_marseille","lat":43.30145,"lon":5.37424,"is_reserved":false,"is_disabled":false,"rental_uris":{"android":"levelo://app?vid=2f229b84-0dd9-4150-b226-a007f85e4aa6","ios":"levelo://app?vid=2f229b84-0dd9-4150-b226-a007f85e4aa6"},"vehicle_type_id":"4","last_reported":1737277687,"current_range_meters":38800,"station_id":"ce4bgs92rcd13ifvqcc0","pricing_plan_id":"cebpf4jnsgd1na2vs0mg"},{"bike_id":"f2390374-e060-4fe1-bcfa-cb2711193e58","system_id":"levelo_inurba_marseille","lat":43.25084,"lon":5.39521,"is_reserved":false,"is_disabled":false,"rental_uris":{"android":"levelo://app?vid=f2390374-e060-4fe1-bcfa-cb2711193e58","ios":"levelo://app?vid=f2390374-e060-4fe1-bcfa-cb2711193e58"},"vehicle_type_id":"4","last_reported":1737277687,"current_range_meters":38800,"station_id":"ce4bhm12rcd13ifvqgkg","pricing_plan_id":"cebpf4jnsgd1na2vs0mg"},{"bike_id":"e013395f-6e2e-43e3-aa9b-9dc8ff0c226b","system_id":"levelo_inurba_marseille","lat":43.30788,"lon":5.43527,"is_reserved":false,"is_disabled":false,"rental_uris":{"android":"levelo://app?vid=e013395f-6e2e-43e3-aa9b-9dc8ff0c226b","ios":"levelo://app?vid=e013395f-6e2e-43e3-aa9b-9dc8ff0c226b"},"vehicle_type_id":"4","last_reported":1737277687,"current_range_meters":26800,"station_id":"ce4bhph2rcd13ifvqheg","pricing_plan_id":"cebpf4jnsgd1na2vs0mg"},{"bike_id":"d922a541-8d59-49fe-8950-daca6d5f04c0","system_id":"levelo_inurba_marseille","lat":43.2924,"lon":5.40909,"is_reserved":false,"is_disabled":false,"rental_uris":{"android":"levelo://app?vid=d922a541-8d59-49fe-8950-daca6d5f04c0","ios":"levelo://app?vid=d922a541-8d59-49fe-8950-daca6d5f04c0"},"vehicle_type_id":"4","last_reported":1737277687,"current_range_meters":38800,"station_id":"ce4bh192rcd13ifvqdc0","pricing_plan_id":"cebpf4jnsgd1na2vs0mg"},{"bike_id":"591b3bd2-5685-4ec2-843e-e45d69c9aabd","system_id":"levelo_inurba_marseille","lat":43.26065,"lon":5.39393,"is_reserved":false,"is_disabled":false,"rental_uris":{"android":"levelo://app?vid=591b3bd2-5685-4ec2-843e-e45d69c9aabd","ios":"levelo://app?vid=591b3bd2-5685-4ec2-843e-e45d69c9aabd"},"vehicle_type_id":"4","last_reported":1737277687,"current_range_meters":38800,"station_id":"ce4bhh92rcd13ifvqfj0","pricing_plan_id":"cebpf4jnsgd1na2vs0mg"},{"bike_id":"0a0eeb10-60cd-41fa-a42f-c32d95169720","system_id":"levelo_inurba_marseille","lat":43.28414,"lon":5.37519,"is_reserved":false,"is_disabled":false,"rental_uris":{"android":"levelo://app?vid=0a0eeb10-60cd-41fa-a42f-c32d95169720","ios":"levelo://app?vid=0a0eeb10-60cd-41fa-a42f-c32d95169720"},"vehicle_type_id":"4","last_reported":1737277687,"current_range_meters":22400,"station_id":"ce4bh412rcd13ifvqds0","pricing_plan_id":"cebpf4jnsgd1na2vs0mg"},{"bike_id":"a3dd20f0-27d2-43cd-8b06-2b1035532be4","system_id":"levelo_inurba_marseille","lat":43.280839,"lon":5.396541,"is_reserved":false,"is_disabled":false,"rental_uris":{"android":"levelo://app?vid=a3dd20f0-27d2-43cd-8b06-2b1035532be4","ios":"levelo://app?vid=a3dd20f0-27d2-43cd-8b06-2b1035532be4"},"vehicle_type_id":"4","last_reported":1737277687,"current_range_meters":38800,"station_id":"ce4bho12rcd13ifvqh2g","pricing_plan_id":"cebpf4jnsgd1na2vs0mg"},{"bike_id":"bf70db87-2a2b-4482-b4d3-36804aa969f3","system_id":"levelo_inurba_marseille","lat":43.30148,"lon":5.38091,"is_reserved":false,"is_disabled":false,"rental_uris":{"android":"levelo://app?vid=bf70db87-2a2b-4482-b4d3-36804aa969f3","ios":"levelo://app?vid=bf70db87-2a2b-4482-b4d3-36804aa969f3"},"vehicle_type_id":"4","last_reported":1737277687,"current_range_meters":36400,"station_id":"ce4bgjp2rcd13ifvqbh0","pricing_plan_id":"cebpf4jnsgd1na2vs0mg"},{"bike_id":"65bc6e4b-80b6-41da-bb7d-25f938e2741d","system_id":"levelo_inurba_marseille","lat":43.28704,"lon":5.39993,"is_reserved":false,"is_disabled":false,"rental_uris":{"android":"levelo://app?vid=65bc6e4b-80b6-41da-bb7d-25f938e2741d","ios":"levelo://app?vid=65bc6e4b-80b6-41da-bb7d-25f938e2741d"},"vehicle_type_id":"4","last_reported":1737277687,"current_range_meters":32800,"station_id":"ce4bho92rcd13ifvqh3g","pricing_plan_id":"cebpf4jnsgd1na2vs0mg"},{"bike_id":"d468c43b-79f9-4a69-9334-f2e452c76c01","system_id":"levelo_inurba_marseille","lat":43.31251,"lon":5.36836,"is_reserved":false,"is_disabled":false,"rental_uris":{"android":"levelo://app?vid=d468c43b-79f9-4a69-9334-f2e452c76c01","ios":"levelo://app?vid=d468c43b-79f9-4a69-9334-f2e452c76c01"},"vehicle_type_id":"4","last_reported":1737277687,"current_range_meters":34800,"station_id":"ce4bgl92rcd13ifvqbq0","pricing_plan_id":"cebpf4jnsgd1na2vs0mg"},{"bike_id":"0f6ac4af-0772-4e9d-8e8e-ecf1f5c1f7e9","system_id":"levelo_inurba_marseille","lat":43.30592,"lon":5.3934,"is_reserved":false,"is_disabled":false,"rental_uris":{"android":"levelo://app?vid=0f6ac4af-0772-4e9d-8e8e-ecf1f5c1f7e9","ios":"levelo://app?vid=0f6ac4af-0772-4e9d-8e8e-ecf1f5c1f7e9"},"vehicle_type_id":"4","last_reported":1737277687,"current_range_meters":38800,"station_id":"ce4bh0p2rcd13ifvqd80","pricing_plan_id":"cebpf4jnsgd1na2vs0mg"},{"bike_id":"5a3716de-7d12-4757-b7a0-e5e283057e63","system_id":"levelo_inurba_marseille","lat":43.24074,"lon":5.37771,"is_reserved":false,"is_disabled":false,"rental_uris":{"android":"levelo://app?vid=5a3716de-7d12-4757-b7a0-e5e283057e63","ios":"levelo://app?vid=5a3716de-7d12-4757-b7a0-e5e283057e63"},"vehicle_type_id":"4","last_reported":1737277687,"current_range_meters":38400,"station_id":"ce4bhnp2rcd13ifvqgvg","pricing_plan_id":"cebpf4jnsgd1na2vs0mg"},{"bike_id":"a95248e8-7ba2-479e-9b5c-9fb4d8e98c2b","system_id":"levelo_inurba_marseille","lat":43.280922,"lon":5.421854,"is_reserved":false,"is_disabled":true,"rental_uris":{"android":"levelo://app?vid=a95248e8-7ba2-479e-9b5c-9fb4d8e98c2b","ios":"levelo://app?vid=a95248e8-7ba2-479e-9b5c-9fb4d8e98c2b"},"vehicle_type_id":"4","last_reported":1737277687,"current_range_meters":0,"station_id":"","pricing_plan_id":"cebpf4jnsgd1na2vs0mg"},{"bike_id":"246f2aa1-d855-40ee-b8e2-0e541013d632","system_id":"levelo_inurba_marseille","lat":43.2781,"lon":5.40718,"is_reserved":false,"is_disabled":true,"rental_uris":{"android":"levelo://app?vid=246f2aa1-d855-40ee-b8e2-0e541013d632","ios":"levelo://app?vid=246f2aa1-d855-40ee-b8e2-0e541013d632"},"vehicle_type_id":"4","last_reported":1737277687,"current_range_meters":0,"station_id":"ce4bhnh2rcd13ifvqgtg","pricing_plan_id":"cebpf4jnsgd1na2vs0mg"},{"bike_id":"87cefc3a-e36a-4030-9c3f-9fc87455f3e3","system_id":"levelo_inurba_marseille","lat":43.273796,"lon":5.362501,"is_reserved":false,"is_disabled":false,"rental_uris":{"android":"levelo://app?vid=87cefc3a-e36a-4030-9c3f-9fc87455f3e3","ios":"levelo://app?vid=87cefc3a-e36a-4030-9c3f-9fc87455f3e3"},"vehicle_type_id":"4","last_reported":1737277687,"current_range_meters":38000,"station_id":"ce4bhbh2rcd13ifvqeo0","pricing_plan_id":"cebpf4jnsgd1na2vs0mg"},{"bike_id":"072a32aa-1410-4c96-9be8-3fc14752dc70","system_id":"levelo_inurba_marseille","lat":43.29731,"lon":5.37677,"is_reserved":false,"is_disabled":false,"rental_uris":{"android":"levelo://app?vid=072a32aa-1410-4c96-9be8-3fc14752dc70","ios":"levelo://app?vid=072a32aa-1410-4c96-9be8-3fc14752dc70"},"vehicle_type_id":"4","last_reported":1737277687,"current_range_meters":36400,"station_id":"ce4bgkh2rcd13ifvqbl0","pricing_plan_id":"cebpf4jnsgd1na2vs0mg"},{"bike_id":"c5fd4115-ef9b-417b-9a07-50ba619cdb53","system_id":"levelo_inurba_marseille","lat":43.30221,"lon":5.39485,"is_reserved":false,"is_disabled":false,"rental_uris":{"android":"levelo://app?vid=c5fd4115-ef9b-417b-9a07-50ba619cdb53","ios":"levelo://app?vid=c5fd4115-ef9b-417b-9a07-50ba619cdb53"},"vehicle_type_id":"4","last_reported":1737277687,"current_range_meters":33200,"station_id":"ce4bh0p2rcd13ifvqd70","pricing_plan_id":"cebpf4jnsgd1na2vs0mg"},{"bike_id":"a8404ae2-4b03-4e79-b2fb-443e381045c4","system_id":"levelo_inurba_marseille","lat":43.27575,"lon":5.38442,"is_reserved":false,"is_disabled":false,"rental_uris":{"android":"levelo://app?vid=a8404ae2-4b03-4e79-b2fb-443e381045c4","ios":"levelo://app?vid=a8404ae2-4b03-4e79-b2fb-443e381045c4"},"vehicle_type_id":"4","last_reported":1737277687,"current_range_meters":38800,"station_id":"ce4bhh92rcd13ifvqfi0","pricing_plan_id":"cebpf4jnsgd1na2vs0mg"},{"bike_id":"dd310bee-2e8a-4a2f-91bc-662e51f1f228","system_id":"levelo_inurba_marseille","lat":43.240679,"lon":5.377593,"is_reserved":false,"is_disabled":false,"rental_uris":{"android":"levelo://app?vid=dd310bee-2e8a-4a2f-91bc-662e51f1f228","ios":"levelo://app?vid=dd310bee-2e8a-4a2f-91bc-662e51f1f228"},"vehicle_type_id":"4","last_reported":1737277687,"current_range_meters":24800,"station_id":"ce4bhnp2rcd13ifvqgvg","pricing_plan_id":"cebpf4jnsgd1na2vs0mg"},{"bike_id":"927159ff-ab29-4a04-84bb-c2b8f5dcea44","system_id":"levelo_inurba_marseille","lat":43.26554,"lon":5.37285,"is_reserved":false,"is_disabled":false,"rental_uris":{"android":"levelo://app?vid=927159ff-ab29-4a04-84bb-c2b8f5dcea44","ios":"levelo://app?vid=927159ff-ab29-4a04-84bb-c2b8f5dcea44"},"vehicle_type_id":"4","last_reported":1737277687,"current_range_meters":24800,"station_id":"ce4bhg12rcd13ifvqf70","pricing_plan_id":"cebpf4jnsgd1na2vs0mg"},{"bike_id":"2189f33e-4cfd-4f76-9d91-913095d551c4","system_id":"levelo_inurba_marseille","lat":43.30346,"lon":5.39098,"is_reserved":false,"is_disabled":true,"rental_uris":{"android":"levelo://app?vid=2189f33e-4cfd-4f76-9d91-913095d551c4","ios":"levelo://app?vid=2189f33e-4cfd-4f76-9d91-913095d551c4"},"vehicle_type_id":"4","last_reported":1737277687,"current_range_meters":0,"station_id":"","pricing_plan_id":"cebpf4jnsgd1na2vs0mg"},{"bike_id":"d3d09a19-44d5-45b9-8a4d-51061f2a6f15","system_id":"levelo_inurba_marseille","lat":43.279998,"lon":5.400171,"is_reserved":false,"is_disabled":false,"rental_uris":{"android":"levelo://app?vid=d3d09a19-44d5-45b9-8a4d-51061f2a6f15","ios":"levelo://app?vid=d3d09a19-44d5-45b9-8a4d-51061f2a6f15"},"vehicle_type_id":"4","last_reported":1737277687,"current_range_meters":8000,"station_id":"ce4bho92rcd13ifvqh4g","pricing_plan_id":"cebpf4jnsgd1na2vs0mg"},{"bike_id":"5f710268-073d-4db3-8e21-1ae7b4b5a30d","system_id":"levelo_inurba_marseille","lat":43.3361,"lon":5.41037,"is_reserved":false,"is_disabled":false,"rental_uris":{"android":"levelo://app?vid=5f710268-073d-4db3-8e21-1ae7b4b5a30d","ios":"levelo://app?vid=5f710268-073d-4db3-8e21-1ae7b4b5a30d"},"vehicle_type_id":"4","last_reported":1737277687,"current_range_meters":9600,"station_id":"ce4bhqh2rcd13ifvqhmg","pricing_plan_id":"cebpf4jnsgd1na2vs0mg"},{"bike_id":"668f9767-c78d-438a-96bb-c0760f782967","system_id":"levelo_inurba_marseille","lat":43.262052,"lon":5.37927,"is_reserved":false,"is_disabled":false,"rental_uris":{"android":"levelo://app?vid=668f9767-c78d-438a-96bb-c0760f782967","ios":"levelo://app?vid=668f9767-c78d-438a-96bb-c0760f782967"},"vehicle_type_id":"4","last_reported":1737277687,"current_range_meters":37600,"station_id":"ce4bhjp2rcd13ifvqg90","pricing_plan_id":"cebpf4jnsgd1na2vs0mg"},{"bike_id":"541b7769-8083-411e-ad4d-d20a4dfa7b91","system_id":"levelo_inurba_marseille","lat":43.3128,"lon":5.40177,"is_reserved":false,"is_disabled":false,"rental_uris":{"android":"levelo://app?vid=541b7769-8083-411e-ad4d-d20a4dfa7b91","ios":"levelo://app?vid=541b7769-8083-411e-ad4d-d20a4dfa7b91"},"vehicle_type_id":"4","last_reported":1737277687,"current_range_meters":38800,"station_id":"ce4bh092rcd13ifvqd30","pricing_plan_id":"cebpf4jnsgd1na2vs0mg"},{"bike_id":"298d2613-8659-4565-ade6-d6e216e8e84d","system_id":"levelo_inurba_marseille","lat":43.25824,"lon":5.39428,"is_reserved":false,"is_disabled":false,"rental_uris":{"android":"levelo://app?vid=298d2613-8659-4565-ade6-d6e216e8e84d","ios":"levelo://app?vid=298d2613-8659-4565-ade6-d6e216e8e84d"},"vehicle_type_id":"4","last_reported":1737277687,"current_range_meters":38000,"station_id":"ce4bhip2rcd13ifvqft0","pricing_plan_id":"cebpf4jnsgd1na2vs0mg"},{"bike_id":"e1e8d90f-509c-46a4-8ddc-3889acf8d5c3","system_id":"levelo_inurba_marseille","lat":43.30791,"lon":5.38163,"is_reserved":false,"is_disabled":false,"rental_uris":{"android":"levelo://app?vid=e1e8d90f-509c-46a4-8ddc-3889acf8d5c3","ios":"levelo://app?vid=e1e8d90f-509c-46a4-8ddc-3889acf8d5c3"},"vehicle_type_id":"4","last_reported":1737277687,"current_range_meters":18000,"station_id":"ce4bgt12rcd13ifvqce0","pricing_plan_id":"cebpf4jnsgd1na2vs0mg"},{"bike_id":"fd9eeb05-2c0b-416c-b352-319fef6c1dd3","system_id":"levelo_inurba_marseille","lat":43.29624,"lon":5.40605,"is_reserved":false,"is_disabled":false,"rental_uris":{"android":"levelo://app?vid=fd9eeb05-2c0b-416c-b352-319fef6c1dd3","ios":"levelo://app?vid=fd9eeb05-2c0b-416c-b352-319fef6c1dd3"},"vehicle_type_id":"4","last_reported":1737277687,"current_range_meters":32800,"station_id":"ce4bh0h2rcd13ifvqd60","pricing_plan_id":"cebpf4jnsgd1na2vs0mg"},{"bike_id":"0d5bf58b-8962-4322-87c4-754920ec04ac","system_id":"levelo_inurba_marseille","lat":43.31181,"lon":5.38722,"is_reserved":false,"is_disabled":true,"rental_uris":{"android":"levelo://app?vid=0d5bf58b-8962-4322-87c4-754920ec04ac","ios":"levelo://app?vid=0d5bf58b-8962-4322-87c4-754920ec04ac"},"vehicle_type_id":"4","last_reported":1737277687,"current_range_meters":32400,"station_id":"ce4bgv12rcd13ifvqcp0","pricing_plan_id":"cebpf4jnsgd1na2vs0mg"},{"bike_id":"c92cbb9f-5a8c-4f30-b00a-221ba31b944d","system_id":"levelo_inurba_marseille","lat":43.284253,"lon":5.34988,"is_reserved":false,"is_disabled":true,"rental_uris":{"android":"levelo://app?vid=c92cbb9f-5a8c-4f30-b00a-221ba31b944d","ios":"levelo://app?vid=c92cbb9f-5a8c-4f30-b00a-221ba31b944d"},"vehicle_type_id":"4","last_reported":1737277687,"current_range_meters":32000,"station_id":"ce4bhbh2rcd13ifvqepg","pricing_plan_id":"cebpf4jnsgd1na2vs0mg"},{"bike_id":"41902fd9-fa18-46a4-b43c-51a2cb10a6db","system_id":"levelo_inurba_marseille","lat":43.30352,"lon":5.41885,"is_reserved":false,"is_disabled":false,"rental_uris":{"android":"levelo://app?vid=41902fd9-fa18-46a4-b43c-51a2cb10a6db","ios":"levelo://app?vid=41902fd9-fa18-46a4-b43c-51a2cb10a6db"},"vehicle_type_id":"4","last_reported":1737277687,"current_range_meters":38400,"station_id":"ce4bhop2rcd13ifvqh7g","pricing_plan_id":"cebpf4jnsgd1na2vs0mg"},{"bike_id":"4e35d48b-8446-4e2a-a4c2-e2ce4476ec82","system_id":"levelo_inurba_marseille","lat":43.284196,"lon":5.349934,"is_reserved":false,"is_disabled":false,"rental_uris":{"android":"levelo://app?vid=4e35d48b-8446-4e2a-a4c2-e2ce4476ec82","ios":"levelo://app?vid=4e35d48b-8446-4e2a-a4c2-e2ce4476ec82"},"vehicle_type_id":"4","last_reported":1737277687,"current_range_meters":30400,"station_id":"ce4bhbh2rcd13ifvqepg","pricing_plan_id":"cebpf4jnsgd1na2vs0mg"},{"bike_id":"d7c0872a-e6bf-430f-af66-52a0c0c846ba","system_id":"levelo_inurba_marseille","lat":43.29037,"lon":5.359244,"is_reserved":false,"is_disabled":false,"rental_uris":{"android":"levelo://app?vid=d7c0872a-e6bf-430f-af66-52a0c0c846ba","ios":"levelo://app?vid=d7c0872a-e6bf-430f-af66-52a0c0c846ba"},"vehicle_type_id":"4","last_reported":1737277687,"current_range_meters":16400,"station_id":"ce4bha92rcd13ifvqeg0","pricing_plan_id":"cebpf4jnsgd1na2vs0mg"},{"bike_id":"fe90f7a6-3920-456a-9451-50d213b7000f","system_id":"levelo_inurba_marseille","lat":43.28477,"lon":5.38462,"is_reserved":false,"is_disabled":true,"rental_uris":{"android":"levelo://app?vid=fe90f7a6-3920-456a-9451-50d213b7000f","ios":"levelo://app?vid=fe90f7a6-3920-456a-9451-50d213b7000f"},"vehicle_type_id":"4","last_reported":1737277687,"current_range_meters":32800,"station_id":"ce4bh512rcd13ifvqe3g","pricing_plan_id":"cebpf4jnsgd1na2vs0mg"},{"bike_id":"701eaa77-7a53-45d9-810d-85ea1065f324","system_id":"levelo_inurba_marseille","lat":43.31273,"lon":5.40163,"is_reserved":false,"is_disabled":false,"rental_uris":{"android":"levelo://app?vid=701eaa77-7a53-45d9-810d-85ea1065f324","ios":"levelo://app?vid=701eaa77-7a53-45d9-810d-85ea1065f324"},"vehicle_type_id":"4","last_reported":1737277687,"current_range_meters":38800,"station_id":"ce4bh092rcd13ifvqd30","pricing_plan_id":"cebpf4jnsgd1na2vs0mg"},{"bike_id":"919e93a6-0791-4d8a-9838-d57cbdc5d937","system_id":"levelo_inurba_marseille","lat":43.25112,"lon":5.40342,"is_reserved":false,"is_disabled":false,"rental_uris":{"android":"levelo://app?vid=919e93a6-0791-4d8a-9838-d57cbdc5d937","ios":"levelo://app?vid=919e93a6-0791-4d8a-9838-d57cbdc5d937"},"vehicle_type_id":"4","last_reported":1737277687,"current_range_meters":32000,"station_id":"ce4bhlh2rcd13ifvqgig","pricing_plan_id":"cebpf4jnsgd1na2vs0mg"},{"bike_id":"b2e5f39f-369e-4eff-87e9-360a19b541cc","system_id":"levelo_inurba_marseille","lat":43.29043,"lon":5.40002,"is_reserved":false,"is_disabled":false,"rental_uris":{"android":"levelo://app?vid=b2e5f39f-369e-4eff-87e9-360a19b541cc","ios":"levelo://app?vid=b2e5f39f-369e-4eff-87e9-360a19b541cc"},"vehicle_type_id":"4","last_reported":1737277687,"current_range_meters":28000,"station_id":"ce4bh392rcd13ifvqdm0","pricing_plan_id":"cebpf4jnsgd1na2vs0mg"},{"bike_id":"aeeb7245-8a7c-4b79-b9ac-efca69f7818a","system_id":"levelo_inurba_marseille","lat":43.32131,"lon":5.36779,"is_reserved":false,"is_disabled":false,"rental_uris":{"android":"levelo://app?vid=aeeb7245-8a7c-4b79-b9ac-efca69f7818a","ios":"levelo://app?vid=aeeb7245-8a7c-4b79-b9ac-efca69f7818a"},"vehicle_type_id":"4","last_reported":1737277687,"current_range_meters":22000,"station_id":"ce4bhrh2rcd13ifvqhug","pricing_plan_id":"cebpf4jnsgd1na2vs0mg"},{"bike_id":"0870bbda-c16c-498d-bd59-1063e9453e67","system_id":"levelo_inurba_marseille","lat":43.28704,"lon":5.39988,"is_reserved":false,"is_disabled":false,"rental_uris":{"android":"levelo://app?vid=0870bbda-c16c-498d-bd59-1063e9453e67","ios":"levelo://app?vid=0870bbda-c16c-498d-bd59-1063e9453e67"},"vehicle_type_id":"4","last_reported":1737277687,"current_range_meters":38400,"station_id":"ce4bho92rcd13ifvqh3g","pricing_plan_id":"cebpf4jnsgd1na2vs0mg"},{"bike_id":"953421cc-aaf4-441a-86a4-1bede8f27dac","system_id":"levelo_inurba_marseille","lat":43.30305,"lon":5.36879,"is_reserved":false,"is_disabled":false,"rental_uris":{"android":"levelo://app?vid=953421cc-aaf4-441a-86a4-1bede8f27dac","ios":"levelo://app?vid=953421cc-aaf4-441a-86a4-1bede8f27dac"},"vehicle_type_id":"4","last_reported":1737277687,"current_range_meters":13600,"station_id":"ce4bgqh2rcd13ifvqc5g","pricing_plan_id":"cebpf4jnsgd1na2vs0mg"},{"bike_id":"7b52e969-7498-42fb-aafb-034e09ca2f2a","system_id":"levelo_inurba_marseille","lat":43.30822,"lon":5.43541,"is_reserved":false,"is_disabled":false,"rental_uris":{"android":"levelo://app?vid=7b52e969-7498-42fb-aafb-034e09ca2f2a","ios":"levelo://app?vid=7b52e969-7498-42fb-aafb-034e09ca2f2a"},"vehicle_type_id":"4","last_reported":1737277687,"current_range_meters":30400,"station_id":"ce4bhph2rcd13ifvqheg","pricing_plan_id":"cebpf4jnsgd1na2vs0mg"},{"bike_id":"a9a0e60f-8e94-490a-988c-5a9cfc45d626","system_id":"levelo_inurba_marseille","lat":43.24166,"lon":5.36399,"is_reserved":false,"is_disabled":false,"rental_uris":{"android":"levelo://app?vid=a9a0e60f-8e94-490a-988c-5a9cfc45d626","ios":"levelo://app?vid=a9a0e60f-8e94-490a-988c-5a9cfc45d626"},"vehicle_type_id":"4","last_reported":1737277687,"current_range_meters":8400,"station_id":"cpo36qri1sfpv3e86is0","pricing_plan_id":"cebpf4jnsgd1na2vs0mg"},{"bike_id":"3397474f-1c59-4a78-b74a-7b1c282f7d63","system_id":"levelo_inurba_marseille","lat":43.26569,"lon":5.39012,"is_reserved":false,"is_disabled":false,"rental_uris":{"android":"levelo://app?vid=3397474f-1c59-4a78-b74a-7b1c282f7d63","ios":"levelo://app?vid=3397474f-1c59-4a78-b74a-7b1c282f7d63"},"vehicle_type_id":"4","last_reported":1737277687,"current_range_meters":20000,"station_id":"ce4bhe12rcd13ifvqf30","pricing_plan_id":"cebpf4jnsgd1na2vs0mg"},{"bike_id":"89c1a652-9641-46a8-bf6a-f3b28b86db4b","system_id":"levelo_inurba_marseille","lat":43.24076,"lon":5.37775,"is_reserved":false,"is_disabled":false,"rental_uris":{"android":"levelo://app?vid=89c1a652-9641-46a8-bf6a-f3b28b86db4b","ios":"levelo://app?vid=89c1a652-9641-46a8-bf6a-f3b28b86db4b"},"vehicle_type_id":"4","last_reported":1737277687,"current_range_meters":9600,"station_id":"ce4bhnp2rcd13ifvqgvg","pricing_plan_id":"cebpf4jnsgd1na2vs0mg"},{"bike_id":"5136cca2-dc79-42d5-a096-5120a2626c68","system_id":"levelo_inurba_marseille","lat":43.30932,"lon":5.40129,"is_reserved":false,"is_disabled":false,"rental_uris":{"android":"levelo://app?vid=5136cca2-dc79-42d5-a096-5120a2626c68","ios":"levelo://app?vid=5136cca2-dc79-42d5-a096-5120a2626c68"},"vehicle_type_id":"4","last_reported":1737277687,"current_range_meters":38400,"station_id":"ce4bgvp2rcd13ifvqct0","pricing_plan_id":"cebpf4jnsgd1na2vs0mg"},{"bike_id":"76dbf6ef-b4a8-4cef-8918-462b67116819","system_id":"levelo_inurba_marseille","lat":43.32278,"lon":5.38278,"is_reserved":false,"is_disabled":false,"rental_uris":{"android":"levelo://app?vid=76dbf6ef-b4a8-4cef-8918-462b67116819","ios":"levelo://app?vid=76dbf6ef-b4a8-4cef-8918-462b67116819"},"vehicle_type_id":"4","last_reported":1737277687,"current_range_meters":38000,"station_id":"ce4bhr12rcd13ifvqhqg","pricing_plan_id":"cebpf4jnsgd1na2vs0mg"},{"bike_id":"84f31a10-b903-47cb-b395-2fbad1297bd2","system_id":"levelo_inurba_marseille","lat":43.25492,"lon":5.37648,"is_reserved":false,"is_disabled":false,"rental_uris":{"android":"levelo://app?vid=84f31a10-b903-47cb-b395-2fbad1297bd2","ios":"levelo://app?vid=84f31a10-b903-47cb-b395-2fbad1297bd2"},"vehicle_type_id":"4","last_reported":1737277687,"current_range_meters":24800,"station_id":"ce4bhh12rcd13ifvqff0","pricing_plan_id":"cebpf4jnsgd1na2vs0mg"},{"bike_id":"d5a4b84a-471f-4edb-a016-4dd0af7e2137","system_id":"levelo_inurba_marseille","lat":43.25873,"lon":5.39913,"is_reserved":false,"is_disabled":false,"rental_uris":{"android":"levelo://app?vid=d5a4b84a-471f-4edb-a016-4dd0af7e2137","ios":"levelo://app?vid=d5a4b84a-471f-4edb-a016-4dd0af7e2137"},"vehicle_type_id":"4","last_reported":1737277687,"current_range_meters":39200,"station_id":"ce4bhl92rcd13ifvqghg","pricing_plan_id":"cebpf4jnsgd1na2vs0mg"},{"bike_id":"8c79a501-1f9a-49ec-b787-7aa7d6b56a53","system_id":"levelo_inurba_marseille","lat":43.30404,"lon":5.41285,"is_reserved":false,"is_disabled":false,"rental_uris":{"android":"levelo://app?vid=8c79a501-1f9a-49ec-b787-7aa7d6b56a53","ios":"levelo://app?vid=8c79a501-1f9a-49ec-b787-7aa7d6b56a53"},"vehicle_type_id":"4","last_reported":1737277687,"current_range_meters":38800,"station_id":"ce4bhop2rcd13ifvqh8g","pricing_plan_id":"cebpf4jnsgd1na2vs0mg"},{"bike_id":"4cb68426-8da2-4c31-9cb8-0779a8fd0d03","system_id":"levelo_inurba_marseille","lat":43.27884,"lon":5.38,"is_reserved":false,"is_disabled":false,"rental_uris":{"android":"levelo://app?vid=4cb68426-8da2-4c31-9cb8-0779a8fd0d03","ios":"levelo://app?vid=4cb68426-8da2-4c31-9cb8-0779a8fd0d03"},"vehicle_type_id":"4","last_reported":1737277687,"current_range_meters":39200,"station_id":"ce4bhf92rcd13ifvqf50","pricing_plan_id":"cebpf4jnsgd1na2vs0mg"},{"bike_id":"b9f939dc-82b2-48de-beb3-4849afb2663a","system_id":"levelo_inurba_marseille","lat":43.26501,"lon":5.39562,"is_reserved":false,"is_disabled":false,"rental_uris":{"android":"levelo://app?vid=b9f939dc-82b2-48de-beb3-4849afb2663a","ios":"levelo://app?vid=b9f939dc-82b2-48de-beb3-4849afb2663a"},"vehicle_type_id":"4","last_reported":1737277687,"current_range_meters":27200,"station_id":"ce4bhi12rcd13ifvqfq0","pricing_plan_id":"cebpf4jnsgd1na2vs0mg"},{"bike_id":"50267a36-8428-4ee1-ac27-ac6a771a71af","system_id":"levelo_inurba_marseille","lat":43.33711,"lon":5.35587,"is_reserved":false,"is_disabled":false,"rental_uris":{"android":"levelo://app?vid=50267a36-8428-4ee1-ac27-ac6a771a71af","ios":"levelo://app?vid=50267a36-8428-4ee1-ac27-ac6a771a71af"},"vehicle_type_id":"4","last_reported":1737277687,"current_range_meters":6800,"station_id":"","pricing_plan_id":"cebpf4jnsgd1na2vs0mg"},{"bike_id":"cff199a9-1e1e-4c91-b1b4-37153100417c","system_id":"levelo_inurba_marseille","lat":43.28103,"lon":5.37873,"is_reserved":false,"is_disabled":false,"rental_uris":{"android":"levelo://app?vid=cff199a9-1e1e-4c91-b1b4-37153100417c","ios":"levelo://app?vid=cff199a9-1e1e-4c91-b1b4-37153100417c"},"vehicle_type_id":"4","last_reported":1737277687,"current_range_meters":28000,"station_id":"ce4bha12rcd13ifvqee0","pricing_plan_id":"cebpf4jnsgd1na2vs0mg"},{"bike_id":"f5863b18-13a1-4c6e-92de-5668ea912ad3","system_id":"levelo_inurba_marseille","lat":43.262185,"lon":5.40442,"is_reserved":false,"is_disabled":true,"rental_uris":{"android":"levelo://app?vid=f5863b18-13a1-4c6e-92de-5668ea912ad3","ios":"levelo://app?vid=f5863b18-13a1-4c6e-92de-5668ea912ad3"},"vehicle_type_id":"4","last_reported":1737277687,"current_range_meters":0,"station_id":"","pricing_plan_id":"cebpf4jnsgd1na2vs0mg"},{"bike_id":"e8c8576f-6521-4b94-a0fa-80d4bef0a563","system_id":"levelo_inurba_marseille","lat":43.29527,"lon":5.37499,"is_reserved":false,"is_disabled":false,"rental_uris":{"android":"levelo://app?vid=e8c8576f-6521-4b94-a0fa-80d4bef0a563","ios":"levelo://app?vid=e8c8576f-6521-4b94-a0fa-80d4bef0a563"},"vehicle_type_id":"4","last_reported":1737277687,"current_range_meters":34800,"station_id":"ce4bgkp2rcd13ifvqbmg","pricing_plan_id":"cebpf4jnsgd1na2vs0mg"},{"bike_id":"47b935dd-f1c3-4468-9bb1-4f34f7095ca1","system_id":"levelo_inurba_marseille","lat":43.27375,"lon":5.36244,"is_reserved":false,"is_disabled":false,"rental_uris":{"android":"levelo://app?vid=47b935dd-f1c3-4468-9bb1-4f34f7095ca1","ios":"levelo://app?vid=47b935dd-f1c3-4468-9bb1-4f34f7095ca1"},"vehicle_type_id":"4","last_reported":1737277687,"current_range_meters":38000,"station_id":"ce4bhbh2rcd13ifvqeo0","pricing_plan_id":"cebpf4jnsgd1na2vs0mg"},