{"last_updated":1729167441,"ttl":60,"version":"2.2","data":{"bikes":[{"bike_id":"69455e79-20b1-41f3-94d3-5c3d88dde09b","system_id":"levelo_inurba_marseille","lat":43.26575,"lon":5.39002,"is_reserved":false,"is_disabled":false,"rental_uris":{"android":"levelo://app?vid=69455e79-20b1-41f3-94d3-5c3d88dde09b","ios":"levelo://app?vid=69455e79-20b1-41f3-94d3-5c3d88dde09b"},"vehicle_type_id":"4","last_reported":1729167441,"current_range_meters":30800,"station_id":"ce4bhe12rcd13ifvqf30","pricing_plan_id":"cebpf4jnsgd1na2vs0mg"},{"bike_id":"8b3fb78b-f638-4f9f-bb18-0564d04a4b82","system_id":"levelo_inurba_marseille","lat":43.29742,"lon":5.37685,"is_reserved":false,"is_disabled":false,"rental_uris":{"android":"levelo://app?vid=8b3fb78b-f638-4f9f-bb18-0564d04a4b82","ios":"levelo://app?vid=8b3fb78b-f638-4f9f-bb18-0564d04a4b82"},"vehicle_type_id":"4","last_reported":1729167441,"current_range_meters":38000,"station_id":"ce4bgkh2rcd13ifvqbl0","pricing_plan_id":"cebpf4jnsgd1na2vs0mg"},{"bike_id":"07916009-96ca-407b-aeab-7d7c374148f1","system_id":"levelo_inurba_marseille","lat":43.30467,"lon":5.37909,"is_reserved":false,"is_disabled":false,"rental_uris":{"android":"levelo://app?vid=07916009-96ca-407b-aeab-7d7c374148f1","ios":"levelo://app?vid=07916009-96ca-407b-aeab-7d7c374148f1"},"vehicle_type_id":"4","last_reported":1729167441,"current_range_meters":29600,"station_id":"ce4bgup2rcd13ifvqcn0","pricing_plan_id":"cebpf4jnsgd1na2vs0mg"},{"bike_id":"676ec6c4-6b42-43e0-81fe-327782965da5","system_id":"levelo_inurba_marseille","lat":43.337444,"lon":5.374475,"is_reserved":false,"is_disabled":false,"rental_uris":{"android":"levelo://app?vid=676ec6c4-6b42-43e0-81fe-327782965da5","ios":"levelo://app?vid=676ec6c4-6b42-43e0-81fe-327782965da5"},"vehicle_type_id":"4","last_reported":1729167441,"current_range_meters":16800,"station_id":"","pricing_plan_id":"cebpf4jnsgd1na2vs0mg"},{"bike_id":"9d14cfb8-7a20-4ee5-8f0a-15d082c27676","system_id":"levelo_inurba_marseille","lat":43.28621,"lon":5.35103,"is_reserved":false,"is_disabled":false,"rental_uris":{"android":"levelo://app?vid=9d14cfb8-7a20-4ee5-8f0a-15d082c27676","ios":"levelo://app?vid=9d14cfb8-7a20-4ee5-8f0a-15d082c27676"},"vehicle_type_id":"4","last_reported":1729167441,"current_range_meters":38800,"station_id":"ce4bhch2rcd13ifvqeug","pricing_plan_id":"cebpf4jnsgd1na2vs0mg"},{"bike_id":"53ec7628-b100-4dfa-8d4c-c67d9b22a949","system_id":"levelo_inurba_marseille","lat":43.29965,"lon":5.3717,"is_reserved":false,"is_disabled":false,"rental_uris":{"android":"levelo://app?vid=53ec7628-b100-4dfa-8d4c-c67d9b22a949","ios":"levelo://app?vid=53ec7628-b100-4dfa-8d4c-c67d9b22a949"},"vehicle_type_id":"4","last_reported":1729167441,"current_range_meters":38000,"station_id":"ce4bgr92rcd13ifvqc7g","pricing_plan_id":"cebpf4jnsgd1na2vs0mg"},{"bike_id":"b6c2caa4-5771-40db-892d-6586da34acb9","system_id":"levelo_inurba_marseille","lat":43.30087,"lon":5.39071,"is_reserved":false,"is_disabled":false,"rental_uris":{"android":"levelo://app?vid=b6c2caa4-5771-40db-892d-6586da34acb9","ios":"levelo://app?vid=b6c2caa4-5771-40db-892d-6586da34acb9"},"vehicle_type_id":"4","last_reported":1729167441,"current_range_meters":28000,"station_id":"ce4bh192rcd13ifvqdb0","pricing_plan_id":"cebpf4jnsgd1na2vs0mg"},{"bike_id":"2f775abc-fff9-4a0c-87c5-59605f0cce77","system_id":"levelo_inurba_marseille","lat":43.29005,"lon":5.35608,"is_reserved":false,"is_disabled":false,"rental_uris":{"android":"levelo://app?vid=2f775abc-fff9-4a0c-87c5-59605f0cce77","ios":"levelo://app?vid=2f775abc-fff9-4a0c-87c5-59605f0cce77"},"vehicle_type_id":"4","last_reported":1729167441,"current_range_meters":8000,"station_id":"ce4bhb92rcd13ifvqen0","pricing_plan_id":"cebpf4jnsgd1na2vs0mg"},{"bike_id":"557f4ba1-c7b5-44eb-9f93-1e0d0139435e","system_id":"levelo_inurba_marseille","lat":43.29637,"lon":5.40589,"is_reserved":false,"is_disabled":false,"rental_uris":{"android":"levelo://app?vid=557f4ba1-c7b5-44eb-9f93-1e0d0139435e","ios":"levelo://app?vid=557f4ba1-c7b5-44eb-9f93-1e0d0139435e"},"vehicle_type_id":"4","last_reported":1729167441,"current_range_meters":23200,"station_id":"ce4bh0h2rcd13ifvqd60","pricing_plan_id":"cebpf4jnsgd1na2vs0mg"},{"bike_id":"e9a90204-792f-4857-b159-8ad177d361e3","system_id":"levelo_inurba_marseille","lat":43.309379,"lon":5.401391,"is_reserved":false,"is_disabled":false,"rental_uris":{"android":"levelo://app?vid=e9a90204-792f-4857-b159-8ad177d361e3","ios":"levelo://app?vid=e9a90204-792f-4857-b159-8ad177d361e3"},"vehicle_type_id":"4","last_reported":1729167441,"current_range_meters":19600,"station_id":"ce4bhjp2rcd13ifvqg90","pricing_plan_id":"cebpf4jnsgd1na2vs0mg"},{"bike_id":"09b834d1-2303-45f6-a9e6-50021bda6cd2","system_id":"levelo_inurba_marseille","lat":43.3047,"lon":5.37908,"is_reserved":false,"is_disabled":false,"rental_uris":{"android":"levelo://app?vid=09b834d1-2303-45f6-a9e6-50021bda6cd2","ios":"levelo://app?vid=09b834d1-2303-45f6-a9e6-50021bda6cd2"},"vehicle_type_id":"4","last_reported":1729167441,"current_range_meters":20000,"station_id":"ce4bgup2rcd13ifvqcn0","pricing_plan_id":"cebpf4jnsgd1na2vs0mg"},{"bike_id":"f007d8fd-5fb4-4dc0-b2f7-a68b1d39079e","system_id":"levelo_inurba_marseille","lat":43.299713,"lon":5.384736,"is_reserved":false,"is_disabled":false,"rental_uris":{"android":"levelo://app?vid=f007d8fd-5fb4-4dc0-b2f7-a68b1d39079e","ios":"levelo://app?vid=f007d8fd-5fb4-4dc0-b2f7-a68b1d39079e"},"vehicle_type_id":"4","last_reported":1729167441,"current_range_meters":24800,"station_id":"ce4bhbh2rcd13ifvqeo0","pricing_plan_id":"cebpf4jnsgd1na2vs0mg"},{"bike_id":"5141d305-5e23-4381-8698-16fe1c0fd3cd","system_id":"levelo_inurba_marseille","lat":43.31178,"lon":5.38721,"is_reserved":false,"is_disabled":false,"rental_uris":{"android":"levelo://app?vid=5141d305-5e23-4381-8698-16fe1c0fd3cd","ios":"levelo://app?vid=5141d305-5e23-4381-8698-16fe1c0fd3cd"},"vehicle_type_id":"4","last_reported":1729167441,"current_range_meters":27600,"station_id":"ce4bgv12rcd13ifvqcp0","pricing_plan_id":"cebpf4jnsgd1na2vs0mg"},{"bike_id":"2cd8e8e5-a380-4199-a5f6-5b4ec22b465b","system_id":"levelo_inurba_marseille","lat":43.26609,"lon":5.39032,"is_reserved":false,"is_disabled":false,"rental_uris":{"android":"levelo://app?vid=2cd8e8e5-a380-4199-a5f6-5b4ec22b465b","ios":"levelo://app?vid=2cd8e8e5-a380-4199-a5f6-5b4ec22b465b"},"vehicle_type_id":"4","last_reported":1729167441,"current_range_meters":4800,"station_id":"","pricing_plan_id":"cebpf4jnsgd1na2vs0mg"},{"bike_id":"cb87ea6a-e073-49a0-aa82-88941cf3e2c8","system_id":"levelo_inurba_marseille","lat":43.30908,"lon":5.36835,"is_reserved":false,"is_disabled":false,"rental_uris":{"android":"levelo://app?vid=cb87ea6a-e073-49a0-aa82-88941cf3e2c8","ios":"levelo://app?vid=cb87ea6a-e073-49a0-aa82-88941cf3e2c8"},"vehicle_type_id":"4","last_reported":1729167441,"current_range_meters":25600,"station_id":"ce4bgn92rcd13ifvqbvg","pricing_plan_id":"cebpf4jnsgd1na2vs0mg"},{"bike_id":"bbd6b51a-649b-4ef8-be13-06fc58397637","system_id":"levelo_inurba_marseille","lat":43.33612,"lon":5.4103,"is_reserved":false,"is_disabled":false,"rental_uris":{"android":"levelo://app?vid=bbd6b51a-649b-4ef8-be13-06fc58397637","ios":"levelo://app?vid=bbd6b51a-649b-4ef8-be13-06fc58397637"},"vehicle_type_id":"4","last_reported":1729167441,"current_range_meters":39200,"station_id":"ce4bhqh2rcd13ifvqhmg","pricing_plan_id":"cebpf4jnsgd1na2vs0mg"},{"bike_id":"c5c6514c-cf47-481b-a7cd-34972ff0afad","system_id":"levelo_inurba_marseille","lat":43.23153,"lon":5.43705,"is_reserved":false,"is_disabled":false,"rental_uris":{"android":"levelo://app?vid=c5c6514c-cf47-481b-a7cd-34972ff0afad","ios":"levelo://app?vid=c5c6514c-cf47-481b-a7cd-34972ff0afad"},"vehicle_type_id":"4","last_reported":1729167441,"current_range_meters":15200,"station_id":"ce4bhmp2rcd13ifvqgog","pricing_plan_id":"cebpf4jnsgd1na2vs0mg"},{"bike_id":"4ae2c184-8c50-452d-87fb-8f7bf4f540f3","system_id":"levelo_inurba_marseille","lat":43.24656,"lon":5.38897,"is_reserved":false,"is_disabled":false,"rental_uris":{"android":"levelo://app?vid=4ae2c184-8c50-452d-87fb-8f7bf4f540f3","ios":"levelo://app?vid=4ae2c184-8c50-452d-87fb-8f7bf4f540f3"},"vehicle_type_id":"4","last_reported":1729167441,"current_range_meters":39200,"station_id":"ce4bhg12rcd13ifvqf60","pricing_plan_id":"cebpf4jnsgd1na2vs0mg"},{"bike_id":"69641d30-f779-4b50-8b70-0592a6ee5886","system_id":"levelo_inurba_marseille","lat":43.30546,"lon":5.36718,"is_reserved":false,"is_disabled":false,"rental_uris":{"android":"levelo://app?vid=69641d30-f779-4b50-8b70-0592a6ee5886","ios":"levelo://app?vid=69641d30-f779-4b50-8b70-0592a6ee5886"},"vehicle_type_id":"4","last_reported":1729167441,"current_range_meters":25200,"station_id":"ce4bgrp2rcd13ifvqc9g","pricing_plan_id":"cebpf4jnsgd1na2vs0mg"},{"bike_id":"6c90fa34-98d3-42d8-bce3-59ac5e2bd2aa","system_id":"levelo_inurba_marseille","lat":43.30435,"lon":5.39743,"is_reserved":false,"is_disabled":false,"rental_uris":{"android":"levelo://app?vid=6c90fa34-98d3-42d8-bce3-59ac5e2bd2aa","ios":"levelo://app?vid=6c90fa34-98d3-42d8-bce3-59ac5e2bd2aa"},"vehicle_type_id":"4","last_reported":1729167441,"current_range_meters":34000,"station_id":"ce4bh092rcd13ifvqd20","pricing_plan_id":"cebpf4jnsgd1na2vs0mg"},{"bike_id":"85af93df-764a-4268-aa0c-af697020f403","system_id":"levelo_inurba_marseille","lat":43.25007,"lon":5.38929,"is_reserved":false,"is_disabled":false,"rental_uris":{"android":"levelo://app?vid=85af93df-764a-4268-aa0c-af697020f403","ios":"levelo://app?vid=85af93df-764a-4268-aa0c-af697020f403"},"vehicle_type_id":"4","last_reported":1729167441,"current_range_meters":8000,"station_id":"ce4bhgp2rcd13ifvqfd0","pricing_plan_id":"cebpf4jnsgd1na2vs0mg"},{"bike_id":"0bb71bd6-2bec-4a12-8960-3ea5b7f823ea","system_id":"levelo_inurba_marseille","lat":43.29527,"lon":5.39047,"is_reserved":false,"is_disabled":false,"rental_uris":{"android":"levelo://app?vid=0bb71bd6-2bec-4a12-8960-3ea5b7f823ea","ios":"levelo://app?vid=0bb71bd6-2bec-4a12-8960-3ea5b7f823ea"},"vehicle_type_id":"4","last_reported":1729167441,"current_range_meters":36800,"station_id":"ce4bh3p2rcd13ifvqdp0","pricing_plan_id":"cebpf4jnsgd1na2vs0mg"},{"bike_id":"e0bcc500-aaf9-4801-b348-85991c089f3c","system_id":"levelo_inurba_marseille","lat":43.29048,"lon":5.35912,"is_reserved":false,"is_disabled":false,"rental_uris":{"android":"levelo://app?vid=e0bcc500-aaf9-4801-b348-85991c089f3c","ios":"levelo://app?vid=e0bcc500-aaf9-4801-b348-85991c089f3c"},"vehicle_type_id":"4","last_reported":1729167441,"current_range_meters":39200,"station_id":"ce4bha92rcd13ifvqeg0","pricing_plan_id":"cebpf4jnsgd1na2vs0mg"},{"bike_id":"56da5a5d-e301-4452-8c07-d6a5a0f92928","system_id":"levelo_inurba_marseille","lat":43.30542,"lon":5.36691,"is_reserved":false,"is_disabled":false,"rental_uris":{"android":"levelo://app?vid=56da5a5d-e301-4452-8c07-d6a5a0f92928","ios":"levelo://app?vid=56da5a5d-e301-4452-8c07-d6a5a0f92928"},"vehicle_type_id":"4","last_reported":1729167441,"current_range_meters":40000,"station_id":"ce4bgrp2rcd13ifvqc9g","pricing_plan_id":"cebpf4jnsgd1na2vs0mg"},{"bike_id":"300feca8-3475-4845-8941-c9bf062197b8","system_id":"levelo_inurba_marseille","lat":43.28462,"lon":5.35884,"is_reserved":false,"is_disabled":false,"rental_uris":{"android":"levelo://app?vid=300feca8-3475-4845-8941-c9bf062197b8","ios":"levelo://app?vid=300feca8-3475-4845-8941-c9bf062197b8"},"vehicle_type_id":"4","last_reported":1729167441,"current_range_meters":17600,"station_id":"ce4bhah2rcd13ifvqei0","pricing_plan_id":"cebpf4jnsgd1na2vs0mg"},{"bike_id":"5f1a50b7-e02e-4b7e-8feb-26be83832742","system_id":"levelo_inurba_marseille","lat":43.30428,"lon":5.39738,"is_reserved":false,"is_disabled":false,"rental_uris":{"android":"levelo://app?vid=5f1a50b7-e02e-4b7e-8feb-26be83832742","ios":"levelo://app?vid=5f1a50b7-e02e-4b7e-8feb-26be83832742"},"vehicle_type_id":"4","last_reported":1729167441,"current_range_meters":38400,"station_id":"ce4bh092rcd13ifvqd20","pricing_plan_id":"cebpf4jnsgd1na2vs0mg"},{"bike_id":"052b3563-392a-4857-8174-027696f961ab","system_id":"levelo_inurba_marseille","lat":43.24651,"lon":5.38913,"is_reserved":false,"is_disabled":false,"rental_uris":{"android":"levelo://app?vid=052b3563-392a-4857-8174-027696f961ab","ios":"levelo://app?vid=052b3563-392a-4857-8174-027696f961ab"},"vehicle_type_id":"4","last_reported":1729167441,"current_range_meters":24400,"station_id":"ce4bhg12rcd13ifvqf60","pricing_plan_id":"cebpf4jnsgd1na2vs0mg"},{"bike_id":"ed78df0f-b608-4cb5-908e-5090dc75b124","system_id":"levelo_inurba_marseille","lat":43.27498,"lon":5.42447,"is_reserved":false,"is_disabled":false,"rental_uris":{"android":"levelo://app?vid=ed78df0f-b608-4cb5-908e-5090dc75b124","ios":"levelo://app?vid=ed78df0f-b608-4cb5-908e-5090dc75b124"},"vehicle_type_id":"4","last_reported":1729167441,"current_range_meters":7200,"station_id":"ce4bhn92rcd13ifvqgrg","pricing_plan_id":"cebpf4jnsgd1na2vs0mg"},{"bike_id":"9dd2f686-0a5c-45ae-9133-ef16259c7c44","system_id":"levelo_inurba_marseille","lat":43.30202,"lon":5.37986,"is_reserved":false,"is_disabled":false,"rental_uris":{"android":"levelo://app?vid=9dd2f686-0a5c-45ae-9133-ef16259c7c44","ios":"levelo://app?vid=9dd2f686-0a5c-45ae-9133-ef16259c7c44"},"vehicle_type_id":"4","last_reported":1729167441,"current_range_meters":38800,"station_id":"ce4bh512rcd13ifvqe3g","pricing_plan_id":"cebpf4jnsgd1na2vs0mg"},{"bike_id":"1c19b709-4b2c-41c2-a05e-20ba53344a40","system_id":"levelo_inurba_marseille","lat":43.27507,"lon":5.42457,"is_reserved":false,"is_disabled":false,"rental_uris":{"android":"levelo://app?vid=1c19b709-4b2c-41c2-a05e-20ba53344a40","ios":"levelo://app?vid=1c19b709-4b2c-41c2-a05e-20ba53344a40"},"vehicle_type_id":"4","last_reported":1729167441,"current_range_meters":34000,"station_id":"ce4bhn92rcd13ifvqgrg","pricing_plan_id":"cebpf4jnsgd1na2vs0mg"},{"bike_id":"61e062bc-75a6-4a18-aa93-657a98c67858","system_id":"levelo_inurba_marseille","lat":43.306,"lon":5.37215,"is_reserved":false,"is_disabled":false,"rental_uris":{"android":"levelo://app?vid=61e062bc-75a6-4a18-aa93-657a98c67858","ios":"levelo://app?vid=61e062bc-75a6-4a18-aa93-657a98c67858"},"vehicle_type_id":"4","last_reported":1729167441,"current_range_meters":37600,"station_id":"ce4bgqh2rcd13ifvqc4g","pricing_plan_id":"cebpf4jnsgd1na2vs0mg"},{"bike_id":"94647bec-1e3a-4324-aa3c-e061248e2556","system_id":"levelo_inurba_marseille","lat":43.23802,"lon":5.43045,"is_reserved":false,"is_disabled":false,"rental_uris":{"android":"levelo://app?vid=94647bec-1e3a-4324-aa3c-e061248e2556","ios":"levelo://app?vid=94647bec-1e3a-4324-aa3c-e061248e2556"},"vehicle_type_id":"4","last_reported":1729167441,"current_range_meters":16800,"station_id":"","pricing_plan_id":"cebpf4jnsgd1na2vs0mg"},{"bike_id":"9b8984e7-2630-4a89-ac3c-5c41309dd860","system_id":"levelo_inurba_marseille","lat":43.28966,"lon":5.37824,"is_reserved":false,"is_disabled":false,"rental_uris":{"android":"levelo://app?vid=9b8984e7-2630-4a89-ac3c-5c41309dd860","ios":"levelo://app?vid=9b8984e7-2630-4a89-ac3c-5c41309dd860"},"vehicle_type_id":"4","last_reported":1729167441,"current_range_meters":27600,"station_id":"ce4bh9p2rcd13ifvqed0","pricing_plan_id":"cebpf4jnsgd1na2vs0mg"},{"bike_id":"86b18091-b909-4f1b-886b-9d9625948362","system_id":"levelo_inurba_marseille","lat":43.2559,"lon":5.38238,"is_reserved":false,"is_disabled":false,"rental_uris":{"android":"levelo://app?vid=86b18091-b909-4f1b-886b-9d9625948362","ios":"levelo://app?vid=86b18091-b909-4f1b-886b-9d9625948362"},"vehicle_type_id":"4","last_reported":1729167441,"current_range_meters":22000,"station_id":"ce4bhih2rcd13ifvqfs0","pricing_plan_id":"cebpf4jnsgd1na2vs0mg"},{"bike_id":"661cda6e-c4c9-41fb-b430-a5aa1e20db3d","system_id":"levelo_inurba_marseille","lat":43.26954,"lon":5.38628,"is_reserved":false,"is_disabled":false,"rental_uris":{"android":"levelo://app?vid=661cda6e-c4c9-41fb-b430-a5aa1e20db3d","ios":"levelo://app?vid=661cda6e-c4c9-41fb-b430-a5aa1e20db3d"},"vehicle_type_id":"4","last_reported":1729167441,"current_range_meters":10000,"station_id":"ce4bhh92rcd13ifvqfh0","pricing_plan_id":"cebpf4jnsgd1na2vs0mg"},{"bike_id":"7ab582a2-ca98-4166-8562-63ea0135bc43","system_id":"levelo_inurba_marseille","lat":43.301,"lon":5.39075,"is_reserved":false,"is_disabled":false,"rental_uris":{"android":"levelo://app?vid=7ab582a2-ca98-4166-8562-63ea0135bc43","ios":"levelo://app?vid=7ab582a2-ca98-4166-8562-63ea0135bc43"},"vehicle_type_id":"4","last_reported":1729167441,"current_range_meters":39200,"station_id":"ce4bh192rcd13ifvqdb0","pricing_plan_id":"cebpf4jnsgd1na2vs0mg"},{"bike_id":"4eb5bb7d-d404-4aac-869c-ebfcb8d384c1","system_id":"levelo_inurba_marseille","lat":43.23145,"lon":5.43718,"is_reserved":false,"is_disabled":false,"rental_uris":{"android":"levelo://app?vid=4eb5bb7d-d404-4aac-869c-ebfcb8d384c1","ios":"levelo://app?vid=4eb5bb7d-d404-4aac-869c-ebfcb8d384c1"},"vehicle_type_id":"4","last_reported":1729167441,"current_range_meters":24000,"station_id":"ce4bhmp2rcd13ifvqgog","pricing_plan_id":"cebpf4jnsgd1na2vs0mg"},{"bike_id":"0aab90f6-a579-4be6-812d-9ccb94b5f13f","system_id":"levelo_inurba_marseille","lat":43.30423,"lon":5.39745,"is_reserved":false,"is_disabled":false,"rental_uris":{"android":"levelo://app?vid=0aab90f6-a579-4be6-812d-9ccb94b5f13f","ios":"levelo://app?vid=0aab90f6-a579-4be6-812d-9ccb94b5f13f"},"vehicle_type_id":"4","last_reported":1729167441,"current_range_meters":38400,"station_id":"ce4bh092rcd13ifvqd20","pricing_plan_id":"cebpf4jnsgd1na2vs0mg"},{"bike_id":"a2d615f4-0be8-452f-8d59-00a4a0a94b86","system_id":"levelo_inurba_marseille","lat":43.30213,"lon":5.39456,"is_reserved":false,"is_disabled":false,"rental_uris":{"android":"levelo://app?vid=a2d615f4-0be8-452f-8d59-00a4a0a94b86","ios":"levelo://app?vid=a2d615f4-0be8-452f-8d59-00a4a0a94b86"},"vehicle_type_id":"4","last_reported":1729167441,"current_range_meters":22800,"station_id":"ce4bh0p2rcd13ifvqd70","pricing_plan_id":"cebpf4jnsgd1na2vs0mg"},{"bike_id":"21f5f7e3-376f-4761-9569-e741a8e28c1a","system_id":"levelo_inurba_marseille","lat":43.29553,"lon":5.42285,"is_reserved":false,"is_disabled":false,"rental_uris":{"android":"levelo://app?vid=21f5f7e3-376f-4761-9569-e741a8e28c1a","ios":"levelo://app?vid=21f5f7e3-376f-4761-9569-e741a8e28c1a"},"vehicle_type_id":"4","last_reported":1729167441,"current_range_meters":12000,"station_id":"ce4bhph2rcd13ifvqhdg","pricing_plan_id":"cebpf4jnsgd1na2vs0mg"},{"bike_id":"2fa100d4-7645-41b8-8fc4-64d2fc317362","system_id":"levelo_inurba_marseille","lat":43.24665,"lon":5.38158,"is_reserved":false,"is_disabled":false,"rental_uris":{"android":"levelo://app?vid=2fa100d4-7645-41b8-8fc4-64d2fc317362","ios":"levelo://app?vid=2fa100d4-7645-41b8-8fc4-64d2fc317362"},"vehicle_type_id":"4","last_reported":1729167441,"current_range_meters":17200,"station_id":"ce4bhih2rcd13ifvqfr0","pricing_plan_id":"cebpf4jnsgd1na2vs0mg"},{"bike_id":"bcc14196-92e2-45bf-94ce-275fb07e03dd","system_id":"levelo_inurba_marseille","lat":43.29073,"lon":5.37176,"is_reserved":false,"is_disabled":false,"rental_uris":{"android":"levelo://app?vid=bcc14196-92e2-45bf-94ce-275fb07e03dd","ios":"levelo://app?vid=bcc14196-92e2-45bf-94ce-275fb07e03dd"},"vehicle_type_id":"4","last_reported":1729167441,"current_range_meters":34000,"station_id":"ce4bh5p2rcd13ifvqe4g","pricing_plan_id":"cebpf4jnsgd1na2vs0mg"},{"bike_id":"e371bd4b-4485-4c8b-8e23-26c25e523a51","system_id":"levelo_inurba_marseille","lat":43.25927,"lon":5.40898,"is_reserved":false,"is_disabled":false,"rental_uris":{"android":"levelo://app?vid=e371bd4b-4485-4c8b-8e23-26c25e523a51","ios":"levelo://app?vid=e371bd4b-4485-4c8b-8e23-26c25e523a51"},"vehicle_type_id":"4","last_reported":1729167441,"current_range_meters":17200,"station_id":"ce4bhm92rcd13ifvqglg","pricing_plan_id":"cebpf4jnsgd1na2vs0mg"},{"bike_id":"c4c1b3ce-fcb6-4e22-b21a-b3d2e81c0307","system_id":"levelo_inurba_marseille","lat":43.25502,"lon":5.37647,"is_reserved":false,"is_disabled":false,"rental_uris":{"android":"levelo://app?vid=c4c1b3ce-fcb6-4e22-b21a-b3d2e81c0307","ios":"levelo://app?vid=c4c1b3ce-fcb6-4e22-b21a-b3d2e81c0307"},"vehicle_type_id":"4","last_reported":1729167441,"current_range_meters":38000,"station_id":"ce4bhh12rcd13ifvqff0","pricing_plan_id":"cebpf4jnsgd1na2vs0mg"},{"bike_id":"2f2a9233-ff46-4304-9a36-3a963c15f61e","system_id":"levelo_inurba_marseille","lat":43.26684,"lon":5.38267,"is_reserved":false,"is_disabled":false,"rental_uris":{"android":"levelo://app?vid=2f2a9233-ff46-4304-9a36-3a963c15f61e","ios":"levelo://app?vid=2f2a9233-ff46-4304-9a36-3a963c15f61e"},"vehicle_type_id":"4","last_reported":1729167441,"current_range_meters":38000,"station_id":"ce4bhg92rcd13ifvqf90","pricing_plan_id":"cebpf4jnsgd1na2vs0mg"},{"bike_id":"55c5585e-e16e-435a-8f48-ce57c692cd0e","system_id":"levelo_inurba_marseille","lat":43.30551,"lon":5.3652,"is_reserved":false,"is_disabled":false,"rental_uris":{"android":"levelo://app?vid=55c5585e-e16e-435a-8f48-ce57c692cd0e","ios":"levelo://app?vid=55c5585e-e16e-435a-8f48-ce57c692cd0e"},"vehicle_type_id":"4","last_reported":1729167441,"current_range_meters":36800,"station_id":"ce4bgs12rcd13ifvqcag","pricing_plan_id":"cebpf4jnsgd1na2vs0mg"},{"bike_id":"b3b8591c-5379-4a69-90ab-ae3253c0799a","system_id":"levelo_inurba_marseille","lat":43.23155,"lon":5.43696,"is_reserved":false,"is_disabled":false,"rental_uris":{"android":"levelo://app?vid=b3b8591c-5379-4a69-90ab-ae3253c0799a","ios":"levelo://app?vid=b3b8591c-5379-4a69-90ab-ae3253c0799a"},"vehicle_type_id":"4","last_reported":1729167441,"current_range_meters":8000,"station_id":"ce4bhmp2rcd13ifvqgog","pricing_plan_id":"cebpf4jnsgd1na2vs0mg"},{"bike_id":"1ebf380f-a957-4c9a-8983-436f6f0e432a","system_id":"levelo_inurba_marseille","lat":43.29926,"lon":5.37473,"is_reserved":false,"is_disabled":false,"rental_uris":{"android":"levelo://app?vid=1ebf380f-a957-4c9a-8983-436f6f0e432a","ios":"levelo://app?vid=1ebf380f-a957-4c9a-8983-436f6f0e432a"},"vehicle_type_id":"4","last_reported":1729167441,"current_range_meters":22000,"station_id":"ce4bgjh2rcd13ifvqbg0","pricing_plan_id":"cebpf4jnsgd1na2vs0mg"},{"bike_id":"14095499-92ec-45db-a3db-96ebbf074787","system_id":"levelo_inurba_marseille","lat":43.295816,"lon":5.367427,"is_reserved":false,"is_disabled":false,"rental_uris":{"android":"levelo://app?vid=14095499-92ec-45db-a3db-96ebbf074787","ios":"levelo://app?vid=14095499-92ec-45db-a3db-96ebbf074787"},"vehicle_type_id":"4","last_reported":1729167441,"current_range_meters":23200,"station_id":"ce4bgi12rcd13ifvqb70","pricing_plan_id":"cebpf4jnsgd1na2vs0mg"},{"bike_id":"c0aea6bf-9822-4eef-a7c6-ea0b29185a8d","system_id":"levelo_inurba_marseille","lat":43.27942,"lon":5.41043,"is_reserved":false,"is_disabled":false,"rental_uris":{"android":"levelo://app?vid=c0aea6bf-9822-4eef-a7c6-ea0b29185a8d","ios":"levelo://app?vid=c0aea6bf-9822-4eef-a7c6-ea0b29185a8d"},"vehicle_type_id":"4","last_reported":1729167441,"current_range_meters":28000,"station_id":"ce4bhnp2rcd13ifvqh0g","pricing_plan_id":"cebpf4jnsgd1na2vs0mg"},{"bike_id":"90263e99-d5aa-44b8-a4c8-0353aa3b308c","system_id":"levelo_inurba_marseille","lat":43.2307,"lon":5.35496,"is_reserved":false,"is_disabled":false,"rental_uris":{"android":"levelo://app?vid=90263e99-d5aa-44b8-a4c8-0353aa3b308c","ios":"levelo://app?vid=90263e99-d5aa-44b8-a4c8-0353aa3b308c"},"vehicle_type_id":"4","last_reported":1729167441,"current_range_meters":9200,"station_id":"cpo3342slgdg3j2ifvpg","pricing_plan_id":"cebpf4jnsgd1na2vs0mg"},{"bike_id":"2871640c-a4f3-4f61-a342-156b39b491e5","system_id":"levelo_inurba_marseille","lat":43.23149,"lon":5.43714,"is_reserved":false,"is_disabled":false,"rental_uris":{"android":"levelo://app?vid=2871640c-a4f3-4f61-a342-156b39b491e5","ios":"levelo://app?vid=2871640c-a4f3-4f61-a342-156b39b491e5"},"vehicle_type_id":"4","last_reported":1729167441,"current_range_meters":12800,"station_id":"ce4bhmp2rcd13ifvqgog","pricing_plan_id":"cebpf4jnsgd1na2vs0mg"},{"bike_id":"c3fff5d8-cab2-4f28-ba74-c63121352df9","system_id":"levelo_inurba_marseille","lat":43.24077,"lon":5.37747,"is_reserved":false,"is_disabled":false,"rental_uris":{"android":"levelo://app?vid=c3fff5d8-cab2-4f28-ba74-c63121352df9","ios":"levelo://app?vid=c3fff5d8-cab2-4f28-ba74-c63121352df9"},"vehicle_type_id":"4","last_reported":1729167441,"current_range_meters":14000,"station_id":"ce4bhnp2rcd13ifvqgvg","pricing_plan_id":"cebpf4jnsgd1na2vs0mg"},{"bike_id":"dc5e232c-43bc-4622-9ea1-e1a67f622418","system_id":"levelo_inurba_marseille","lat":43.25582,"lon":5.38228,"is_reserved":false,"is_disabled":false,"rental_uris":{"android":"levelo://app?vid=dc5e232c-43bc-4622-9ea1-e1a67f622418","ios":"levelo://app?vid=dc5e232c-43bc-4622-9ea1-e1a67f622418"},"vehicle_type_id":"4","last_reported":1729167441,"current_range_meters":8800,"station_id":"ce4bhih2rcd13ifvqfs0","pricing_plan_id":"cebpf4jnsgd1na2vs0mg"},{"bike_id":"1cd343c8-245e-4510-bed9-dcc94a7ab19d","system_id":"levelo_inurba_marseille","lat":43.25932,"lon":5.40904,"is_reserved":false,"is_disabled":false,"rental_uris":{"android":"levelo://app?vid=1cd343c8-245e-4510-bed9-dcc94a7ab19d","ios":"levelo://app?vid=1cd343c8-245e-4510-bed9-dcc94a7ab19d"},"vehicle_type_id":"4","last_reported":1729167441,"current_range_meters":8400,"station_id":"ce4bhm92rcd13ifvqglg","pricing_plan_id":"cebpf4jnsgd1na2vs0mg"},{"bike_id":"259adaf4-2099-4724-93a6-9b4c595d6c04","system_id":"levelo_inurba_marseille","lat":43.24667,"lon":5.38158,"is_reserved":false,"is_disabled":false,"rental_uris":{"android":"levelo://app?vid=259adaf4-2099-4724-93a6-9b4c595d6c04","ios":"levelo://app?vid=259adaf4-2099-4724-93a6-9b4c595d6c04"},"vehicle_type_id":"4","last_reported":1729167441,"current_range_meters":30000,"station_id":"ce4bhih2rcd13ifvqfr0","pricing_plan_id":"cebpf4jnsgd1na2vs0mg"},{"bike_id":"a3f00c38-4e38-41e9-8364-04ab546e9ae3","system_id":"levelo_inurba_marseille","lat":43.26957,"lon":5.38632,"is_reserved":false,"is_disabled":false,"rental_uris":{"android":"levelo://app?vid=a3f00c38-4e38-41e9-8364-04ab546e9ae3","ios":"levelo://app?vid=a3f00c38-4e38-41e9-8364-04ab546e9ae3"},"vehicle_type_id":"4","last_reported":1729167441,"current_range_meters":3200,"station_id":"ce4bhh92rcd13ifvqfh0","pricing_plan_id":"cebpf4jnsgd1na2vs0mg"},{"bike_id":"16e8e01a-53a6-4628-8e35-e4556f36052c","system_id":"levelo_inurba_marseille","lat":43.31226,"lon":5.36857,"is_reserved":false,"is_disabled":false,"rental_uris":{"android":"levelo://app?vid=16e8e01a-53a6-4628-8e35-e4556f36052c","ios":"levelo://app?vid=16e8e01a-53a6-4628-8e35-e4556f36052c"},"vehicle_type_id":"4","last_reported":1729167441,"current_range_meters":32400,"station_id":"ce4bgl92rcd13ifvqbq0","pricing_plan_id":"cebpf4jnsgd1na2vs0mg"},{"bike_id":"32ce68a3-3fc7-4257-974f-ab657619c295","system_id":"levelo_inurba_marseille","lat":43.33771,"lon":5.37479,"is_reserved":false,"is_disabled":false,"rental_uris":{"android":"levelo://app?vid=32ce68a3-3fc7-4257-974f-ab657619c295","ios":"levelo://app?vid=32ce68a3-3fc7-4257-974f-ab657619c295"},"vehicle_type_id":"4","last_reported":1729167441,"current_range_meters":3200,"station_id":"","pricing_plan_id":"cebpf4jnsgd1na2vs0mg"},{"bike_id":"7cc35c78-b635-40b6-bb5f-4783565275f8","system_id":"levelo_inurba_marseille","lat":43.24178,"lon":5.39729,"is_reserved":false,"is_disabled":false,"rental_uris":{"android":"levelo://app?vid=7cc35c78-b635-40b6-bb5f-4783565275f8","ios":"levelo://app?vid=7cc35c78-b635-40b6-bb5f-4783565275f8"},"vehicle_type_id":"4","last_reported":1729167441,"current_range_meters":8400,"station_id":"ce4bhn12rcd13ifvqgpg","pricing_plan_id":"cebpf4jnsgd1na2vs0mg"},{"bike_id":"cbd4537f-1a79-4600-8b86-77cb4c9a948d","system_id":"levelo_inurba_marseille","lat":43.28105,"lon":5.37828,"is_reserved":false,"is_disabled":false,"rental_uris":{"android":"levelo://app?vid=cbd4537f-1a79-4600-8b86-77cb4c9a948d","ios":"levelo://app?vid=cbd4537f-1a79-4600-8b86-77cb4c9a948d"},"vehicle_type_id":"4","last_reported":1729167441,"current_range_meters":3200,"station_id":"ce4bha12rcd13ifvqee0","pricing_plan_id":"cebpf4jnsgd1na2vs0mg"},{"bike_id":"c8d56133-9d5b-45ba-83e5-6e68a64ee67c","system_id":"levelo_inurba_marseille","lat":43.24074,"lon":5.37753,"is_reserved":false,"is_disabled":false,"rental_uris":{"android":"levelo://app?vid=c8d56133-9d5b-45ba-83e5-6e68a64ee67c","ios":"levelo://app?vid=c8d56133-9d5b-45ba-83e5-6e68a64ee67c"},"vehicle_type_id":"4","last_reported":1729167441,"current_range_meters":26800,"station_id":"ce4bhnp2rcd13ifvqgvg","pricing_plan_id":"cebpf4jnsgd1na2vs0mg"},{"bike_id":"fa7bbdc9-afbe-404d-8676-647037cc76a9","system_id":"levelo_inurba_marseille","lat":43.23193,"lon":5.35546,"is_reserved":false,"is_disabled":false,"rental_uris":{"android":"levelo://app?vid=fa7bbdc9-afbe-404d-8676-647037cc76a9","ios":"levelo://app?vid=fa7bbdc9-afbe-404d-8676-647037cc76a9"},"vehicle_type_id":"4","last_reported":1729167441,"current_range_meters":34800,"station_id":"ce4bhu92rcd13ifvqi70","pricing_plan_id":"cebpf4jnsgd1na2vs0mg"},{"bike_id":"01f22b7d-ba3a-4760-b351-a930cd5c382e","system_id":"levelo_inurba_marseille","lat":43.31133,"lon":5.40102,"is_reserved":false,"is_disabled":false,"rental_uris":{"android":"levelo://app?vid=01f22b7d-ba3a-4760-b351-a930cd5c382e","ios":"levelo://app?vid=01f22b7d-ba3a-4760-b351-a930cd5c382e"},"vehicle_type_id":"4","last_reported":1729167441,"current_range_meters":22000,"station_id":"ce4bh092rcd13ifvqd30","pricing_plan_id":"cebpf4jnsgd1na2vs0mg"},{"bike_id":"931ad2f4-35ea-42b5-bc1a-1fdec477398a","system_id":"levelo_inurba_marseille","lat":43.33746,"lon":5.37448,"is_reserved":false,"is_disabled":false,"rental_uris":{"android":"levelo://app?vid=931ad2f4-35ea-42b5-bc1a-1fdec477398a","ios":"levelo://app?vid=931ad2f4-35ea-42b5-bc1a-1fdec477398a"},"vehicle_type_id":"4","last_reported":1729167441,"current_range_meters":28800,"station_id":"","pricing_plan_id":"cebpf4jnsgd1na2vs0mg"},{"bike_id":"a74de21c-b9fb-46e8-b1a4-51feff2807fa","system_id":"levelo_inurba_marseille","lat":43.3109,"lon":5.42418,"is_reserved":false,"is_disabled":false,"rental_uris":{"android":"levelo://app?vid=a74de21c-b9fb-46e8-b1a4-51feff2807fa","ios":"levelo://app?vid=a74de21c-b9fb-46e8-b1a4-51feff2807fa"},"vehicle_type_id":"4","last_reported":1729167441,"current_range_meters":25200,"station_id":"ce4bhp92rcd13ifvqhag","pricing_plan_id":"cebpf4jnsgd1na2vs0mg"},{"bike_id":"f29c05ec-836f-4d02-84e0-061fa3529c4b","system_id":"levelo_inurba_marseille","lat":43.26209,"lon":5.37445,"is_reserved":false,"is_disabled":false,"rental_uris":{"android":"levelo://app?vid=f29c05ec-836f-4d02-84e0-061fa3529c4b","ios":"levelo://app?vid=f29c05ec-836f-4d02-84e0-061fa3529c4b"},"vehicle_type_id":"4","last_reported":1729167441,"current_range_meters":36400,"station_id":"ce4bhgp2rcd13ifvqfc0","pricing_plan_id":"cebpf4jnsgd1na2vs0mg"},{"bike_id":"c7671745-53fc-4e7c-8000-63dbb88ab13f","system_id":"levelo_inurba_marseille","lat":43.27619,"lon":5.36107,"is_reserved":false,"is_disabled":false,"rental_uris":{"android":"levelo://app?vid=c7671745-53fc-4e7c-8000-63dbb88ab13f","ios":"levelo://app?vid=c7671745-53fc-4e7c-8000-63dbb88ab13f"},"vehicle_type_id":"4","last_reported":1729167441,"current_range_meters":39200,"station_id":"ce4bgj92rcd13ifvqbe0","pricing_plan_id":"cebpf4jnsgd1na2vs0mg"},{"bike_id":"d026634e-45e3-4a59-a81d-76b6e03fb3f1","system_id":"levelo_inurba_marseille","lat":43.29435,"lon":5.39753,"is_reserved":false,"is_disabled":false,"rental_uris":{"android":"levelo://app?vid=d026634e-45e3-4a59-a81d-76b6e03fb3f1","ios":"levelo://app?vid=d026634e-45e3-4a59-a81d-76b6e03fb3f1"},"vehicle_type_id":"4","last_reported":1729167441,"current_range_meters":8000,"station_id":"ce4bh3h2rcd13ifvqdo0","pricing_plan_id":"cebpf4jnsgd1na2vs0mg"},{"bike_id":"4e82a983-4406-4fc1-9c7d-45090c1e4862","system_id":"levelo_inurba_marseille","lat":43.24545,"lon":5.39522,"is_reserved":false,"is_disabled":false,"rental_uris":{"android":"levelo://app?vid=4e82a983-4406-4fc1-9c7d-45090c1e4862","ios":"levelo://app?vid=4e82a983-4406-4fc1-9c7d-45090c1e4862"},"vehicle_type_id":"4","last_reported":1729167441,"current_range_meters":6400,"station_id":"ce4bhlp2rcd13ifvqgjg","pricing_plan_id":"cebpf4jnsgd1na2vs0mg"},{"bike_id":"8c1ec6cb-2291-4814-837b-be8625c706f3","system_id":"levelo_inurba_marseille","lat":43.23197,"lon":5.35542,"is_reserved":false,"is_disabled":false,"rental_uris":{"android":"levelo://app?vid=8c1ec6cb-2291-4814-837b-be8625c706f3","ios":"levelo://app?vid=8c1ec6cb-2291-4814-837b-be8625c706f3"},"vehicle_type_id":"4","last_reported":1729167441,"current_range_meters":37600,"station_id":"ce4bhu92rcd13ifvqi70","pricing_plan_id":"cebpf4jnsgd1na2vs0mg"},{"bike_id":"a4524dbb-fc70-480f-b3f3-107b9687ad18","system_id":"levelo_inurba_marseille","lat":43.25105,"lon":5.40324,"is_reserved":false,"is_disabled":false,"rental_uris":{"android":"levelo://app?vid=a4524dbb-fc70-480f-b3f3-107b9687ad18","ios":"levelo://app?vid=a4524dbb-fc70-480f-b3f3-107b9687ad18"},"vehicle_type_id":"4","last_reported":1729167441,"current_range_meters":20800,"station_id":"ce4bhlh2rcd13ifvqgig","pricing_plan_id":"cebpf4jnsgd1na2vs0mg"},{"bike_id":"089ee20a-1d6a-4c14-8b2f-b65cc3fe7c6f","system_id":"levelo_inurba_marseille","lat":43.26569,"lon":5.39003,"is_reserved":false,"is_disabled":false,"rental_uris":{"android":"levelo://app?vid=089ee20a-1d6a-4c14-8b2f-b65cc3fe7c6f","ios":"levelo://app?vid=089ee20a-1d6a-4c14-8b2f-b65cc3fe7c6f"},"vehicle_type_id":"4","last_reported":1729167441,"current_range_meters":6000,"station_id":"ce4bhe12rcd13ifvqf30","pricing_plan_id":"cebpf4jnsgd1na2vs0mg"},{"bike_id":"6aad7b35-09a3-4656-912f-91689d5fb051","system_id":"levelo_inurba_marseille","lat":43.26209,"lon":5.37919,"is_reserved":false,"is_disabled":false,"rental_uris":{"android":"levelo://app?vid=6aad7b35-09a3-4656-912f-91689d5fb051","ios":"levelo://app?vid=6aad7b35-09a3-4656-912f-91689d5fb051"},"vehicle_type_id":"4","last_reported":1729167441,"current_range_meters":22000,"station_id":"ce4bhjp2rcd13ifvqg90","pricing_plan_id":"cebpf4jnsgd1na2vs0mg"},{"bike_id":"1a9c173c-b98f-490b-80ad-b6e10c59b5f1","system_id":"levelo_inurba_marseille","lat":43.29714,"lon":5.36599,"is_reserved":false,"is_disabled":false,"rental_uris":{"android":"levelo://app?vid=1a9c173c-b98f-490b-80ad-b6e10c59b5f1","ios":"levelo://app?vid=1a9c173c-b98f-490b-80ad-b6e10c59b5f1"},"vehicle_type_id":"4","last_reported":1729167441,"current_range_meters":39200,"station_id":"ce4bgn12rcd13ifvqbt0","pricing_plan_id":"cebpf4jnsgd1na2vs0mg"},{"bike_id":"08a2976e-8e51-458c-bc88-e41abdcdebe5","system_id":"levelo_inurba_marseille","lat":43.29194,"lon":5.35798,"is_reserved":false,"is_disabled":false,"rental_uris":{"android":"levelo://app?vid=08a2976e-8e51-458c-bc88-e41abdcdebe5","ios":"levelo://app?vid=08a2976e-8e51-458c-bc88-e41abdcdebe5"},"vehicle_type_id":"4","last_reported":1729167441,"current_range_meters":17200,"station_id":"ce4bhb12rcd13ifvqel0","pricing_plan_id":"cebpf4jnsgd1na2vs0mg"},{"bike_id":"c1b4d58c-7d67-4800-b5de-bf664ea422e8","system_id":"levelo_inurba_marseille","lat":43.24653,"lon":5.38881,"is_reserved":false,"is_disabled":false,"rental_uris":{"android":"levelo://app?vid=c1b4d58c-7d67-4800-b5de-bf664ea422e8","ios":"levelo://app?vid=c1b4d58c-7d67-4800-b5de-bf664ea422e8"},"vehicle_type_id":"4","last_reported":1729167441,"current_range_meters":12000,"station_id":"ce4bhg12rcd13ifvqf60","pricing_plan_id":"cebpf4jnsgd1na2vs0mg"},{"bike_id":"4dff3f2d-8f80-481e-a769-c8fed23ab2fa","system_id":"levelo_inurba_marseille","lat":43.26195,"lon":5.37918,"is_reserved":false,"is_disabled":false,"rental_uris":{"android":"levelo://app?vid=4dff3f2d-8f80-481e-a769-c8fed23ab2fa","ios":"levelo://app?vid=4dff3f2d-8f80-481e-a769-c8fed23ab2fa"},"vehicle_type_id":"4","last_reported":1729167441,"current_range_meters":19600,"station_id":"ce4bhjp2rcd13ifvqg90","pricing_plan_id":"cebpf4jnsgd1na2vs0mg"},{"bike_id":"178063b7-9356-4ff3-918a-2f213f326e6d","system_id":"levelo_inurba_marseille","lat":43.29804,"lon":5.40397,"is_reserved":false,"is_disabled":false,"rental_uris":{"android":"levelo://app?vid=178063b7-9356-4ff3-918a-2f213f326e6d","ios":"levelo://app?vid=178063b7-9356-4ff3-918a-2f213f326e6d"},"vehicle_type_id":"4","last_reported":1729167441,"current_range_meters":17200,"station_id":"ce4bh112rcd13ifvqd90","pricing_plan_id":"cebpf4jnsgd1na2vs0mg"},{"bike_id":"3196bf4a-f0d3-425c-a469-1dcf1c4ff84d","system_id":"levelo_inurba_marseille","lat":43.298157,"lon":5.372567,"is_reserved":false,"is_disabled":false,"rental_uris":{"android":"levelo://app?vid=3196bf4a-f0d3-425c-a469-1dcf1c4ff84d","ios":"levelo://app?vid=3196bf4a-f0d3-425c-a469-1dcf1c4ff84d"},"vehicle_type_id":"4","last_reported":1729167441,"current_range_meters":24000,"station_id":"ce4bgqh2rcd13ifvqc5g","pricing_plan_id":"cebpf4jnsgd1na2vs0mg"},{"bike_id":"87e3dc3e-8e58-4d05-ba7e-89cf800c163a","system_id":"levelo_inurba_marseille","lat":43.27183,"lon":5.40992,"is_reserved":false,"is_disabled":false,"rental_uris":{"android":"levelo://app?vid=87e3dc3e-8e58-4d05-ba7e-89cf800c163a","ios":"levelo://app?vid=87e3dc3e-8e58-4d05-ba7e-89cf800c163a"},"vehicle_type_id":"4","last_reported":1729167441,"current_range_meters":8800,"station_id":"ce4bhl12rcd13ifvqgf0","pricing_plan_id":"cebpf4jnsgd1na2vs0mg"},{"bike_id":"22b535b9-e408-47e8-8864-5fdba51acb33","system_id":"levelo_inurba_marseille","lat":43.30146,"lon":5.37412,"is_reserved":false,"is_disabled":false,"rental_uris":{"android":"levelo://app?vid=22b535b9-e408-47e8-8864-5fdba51acb33","ios":"levelo://app?vid=22b535b9-e408-47e8-8864-5fdba51acb33"},"vehicle_type_id":"4","last_reported":1729167441,"current_range_meters":22800,"station_id":"ce4bgs92rcd13ifvqcc0","pricing_plan_id":"cebpf4jnsgd1na2vs0mg"},{"bike_id":"af27322a-bab3-4409-90e4-f62255c9852e","system_id":"levelo_inurba_marseille","lat":43.28614,"lon":5.37058,"is_reserved":false,"is_disabled":false,"rental_uris":{"android":"levelo://app?vid=af27322a-bab3-4409-90e4-f62255c9852e","ios":"levelo://app?vid=af27322a-bab3-4409-90e4-f62255c9852e"},"vehicle_type_id":"4","last_reported":1729167441,"current_range_meters":32400,"station_id":"ce4bht12rcd13ifvqi60","pricing_plan_id":"cebpf4jnsgd1na2vs0mg"},{"bike_id":"874494de-7452-4f47-9fec-c5ec79478035","system_id":"levelo_inurba_marseille","lat":43.23977,"lon":5.36619,"is_reserved":false,"is_disabled":false,"rental_uris":{"android":"levelo://app?vid=874494de-7452-4f47-9fec-c5ec79478035","ios":"levelo://app?vid=874494de-7452-4f47-9fec-c5ec79478035"},"vehicle_type_id":"4","last_reported":1729167441,"current_range_meters":28400,"station_id":"ce4bhi12rcd13ifvqfp0","pricing_plan_id":"cebpf4jnsgd1na2vs0mg"},{"bike_id":"8850e579-a247-496a-80c5-8409298c8310","system_id":"levelo_inurba_marseille","lat":43.324829,"lon":5.365765,"is_reserved":false,"is_disabled":false,"rental_uris":{"android":"levelo://app?vid=8850e579-a247-496a-80c5-8409298c8310","ios":"levelo://app?vid=8850e579-a247-496a-80c5-8409298c8310"},"vehicle_type_id":"4","last_reported":1729167441,"current_range_meters":30400,"station_id":"ce4bhs12rcd13ifvqhvg","pricing_plan_id":"cebpf4jnsgd1na2vs0mg"},{"bike_id":"9cab4e9f-1e69-4842-82e4-ee6684a3dc1f","system_id":"levelo_inurba_marseille","lat":43.25934,"lon":5.40904,"is_reserved":false,"is_disabled":false,"rental_uris":{"android":"levelo://app?vid=9cab4e9f-1e69-4842-82e4-ee6684a3dc1f","ios":"levelo://app?vid=9cab4e9f-1e69-4842-82e4-ee6684a3dc1f"},"vehicle_type_id":"4","last_reported":1729167441,"current_range_meters":30800,"station_id":"ce4bhm92rcd13ifvqglg","pricing_plan_id":"cebpf4jnsgd1na2vs0mg"},{"bike_id":"08ae83cb-f31d-469e-8b8d-1172d9f867d3","system_id":"levelo_inurba_marseille","lat":43.23962,"lon":5.36641,"is_reserved":false,"is_disabled":false,"rental_uris":{"android":"levelo://app?vid=08ae83cb-f31d-469e-8b8d-1172d9f867d3","ios":"levelo://app?vid=08ae83cb-f31d-469e-8b8d-1172d9f867d3"},"vehicle_type_id":"4","last_reported":1729167441,"current_range_meters":17200,"station_id":"ce4bhi12rcd13ifvqfp0","pricing_plan_id":"cebpf4jnsgd1na2vs0mg"},{"bike_id":"0994d7f0-fa2e-480f-b967-2b1e1b476b78","system_id":"levelo_inurba_marseille","lat":43.23194,"lon":5.35548,"is_reserved":false,"is_disabled":false,"rental_uris":{"android":"levelo://app?vid=0994d7f0-fa2e-480f-b967-2b1e1b476b78","ios":"levelo://app?vid=0994d7f0-fa2e-480f-b967-2b1e1b476b78"},"vehicle_type_id":"4","last_reported":1729167441,"current_range_meters":15200,"station_id":"ce4bhu92rcd13ifvqi70","pricing_plan_id":"cebpf4jnsgd1na2vs0mg"},{"bike_id":"cafacf31-3dc4-4662-b543-8a143108fe4d","system_id":"levelo_inurba_marseille","lat":43.23187,"lon":5.39984,"is_reserved":false,"is_disabled":false,"rental_uris":{"android":"levelo://app?vid=cafacf31-3dc4-4662-b543-8a143108fe4d","ios":"levelo://app?vid=cafacf31-3dc4-4662-b543-8a143108fe4d"},"vehicle_type_id":"4","last_reported":1729167441,"current_range_meters":25200,"station_id":"ce4bhn12rcd13ifvqgqg","pricing_plan_id":"cebpf4jnsgd1na2vs0mg"},{"bike_id":"8128ea8d-8c83-4bfb-bc48-4bf983f38a79","system_id":"levelo_inurba_marseille","lat":43.2991,"lon":5.37477,"is_reserved":false,"is_disabled":false,"rental_uris":{"android":"levelo://app?vid=8128ea8d-8c83-4bfb-bc48-4bf983f38a79","ios":"levelo://app?vid=8128ea8d-8c83-4bfb-bc48-4bf983f38a79"},"vehicle_type_id":"4","last_reported":1729167441,"current_range_meters":16800,"station_id":"ce4bgjh2rcd13ifvqbg0","pricing_plan_id":"cebpf4jnsgd1na2vs0mg"},{"bike_id":"66ccc46d-618e-4760-b09c-27382152bdab","system_id":"levelo_inurba_marseille","lat":43.23192,"lon":5.3554,"is_reserved":false,"is_disabled":false,"rental_uris":{"android":"levelo://app?vid=66ccc46d-618e-4760-b09c-27382152bdab","ios":"levelo://app?vid=66ccc46d-618e-4760-b09c-27382152bdab"},"vehicle_type_id":"4","last_reported":1729167441,"current_range_meters":33200,"station_id":"ce4bhu92rcd13ifvqi70","pricing_plan_id":"cebpf4jnsgd1na2vs0mg"},{"bike_id":"08f3188d-6472-4bdd-b1e9-851cf5108452","system_id":"levelo_inurba_marseille","lat":43.29793,"lon":5.38108,"is_reserved":false,"is_disabled":false,"rental_uris":{"android":"levelo://app?vid=08f3188d-6472-4bdd-b1e9-851cf5108452","ios":"levelo://app?vid=08f3188d-6472-4bdd-b1e9-851cf5108452"},"vehicle_type_id":"4","last_reported":1729167441,"current_range_meters":38400,"station_id":"ce4bgip2rcd13ifvqbb0","pricing_plan_id":"cebpf4jnsgd1na2vs0mg"},{"bike_id":"ee95d81e-46f4-429c-9bbd-cde76bb3b712","system_id":"levelo_inurba_marseille","lat":43.28344,"lon":5.381,"is_reserved":false,"is_disabled":false,"rental_uris":{"android":"levelo://app?vid=ee95d81e-46f4-429c-9bbd-cde76bb3b712","ios":"levelo://app?vid=ee95d81e-46f4-429c-9bbd-cde76bb3b712"},"vehicle_type_id":"4","last_reported":1729167441,"current_range_meters":22400,"station_id":"ce4bh412rcd13ifvqdr0","pricing_plan_id":"cebpf4jnsgd1na2vs0mg"},{"bike_id":"fa1cccfe-fba8-45fc-a9c3-92c1523ced97","system_id":"levelo_inurba_marseille","lat":43.29982,"lon":5.37172,"is_reserved":false,"is_disabled":false,"rental_uris":{"android":"levelo://app?vid=fa1cccfe-fba8-45fc-a9c3-92c1523ced97","ios":"levelo://app?vid=fa1cccfe-fba8-45fc-a9c3-92c1523ced97"},"vehicle_type_id":"4","last_reported":1729167441,"current_range_meters":9600,"station_id":"ce4bgr92rcd13ifvqc7g","pricing_plan_id":"cebpf4jnsgd1na2vs0mg"},{"bike_id":"d5c6ff43-d473-4cc2-918f-fcd768b9c355","system_id":"levelo_inurba_marseille","lat":43.31355,"lon":5.36706,"is_reserved":false,"is_disabled":false,"rental_uris":{"android":"levelo://app?vid=d5c6ff43-d473-4cc2-918f-fcd768b9c355","ios":"levelo://app?vid=d5c6ff43-d473-4cc2-918f-fcd768b9c355"},"vehicle_type_id":"4","last_reported":1729167441,"current_range_meters":12800,"station_id":"ce4bgr92rcd13ifvqc6g","pricing_plan_id":"cebpf4jnsgd1na2vs0mg"},{"bike_id":"648a24bc-f754-4ac0-89cc-57c2783b5cee","system_id":"levelo_inurba_marseille","lat":43.30887,"lon":5.37183,"is_reserved":false,"is_disabled":false,"rental_uris":{"android":"levelo://app?vid=648a24bc-f754-4ac0-89cc-57c2783b5cee","ios":"levelo://app?vid=648a24bc-f754-4ac0-89cc-57c2783b5cee"},"vehicle_type_id":"4","last_reported":1729167441,"current_range_meters":7200,"station_id":"ce4bguh2rcd13ifvqckg","pricing_plan_id":"cebpf4jnsgd1na2vs0mg"},{"bike_id":"30404aca-08a3-4264-987a-aa6acb1f5cf1","system_id":"levelo_inurba_marseille","lat":43.25939,"lon":5.40902,"is_reserved":false,"is_disabled":false,"rental_uris":{"android":"levelo://app?vid=30404aca-08a3-4264-987a-aa6acb1f5cf1","ios":"levelo://app?vid=30404aca-08a3-4264-987a-aa6acb1f5cf1"},"vehicle_type_id":"4","last_reported":1729167441,"current_range_meters":19600,"station_id":"ce4bhm92rcd13ifvqglg","pricing_plan_id":"cebpf4jnsgd1na2vs0mg"},{"bike_id":"ab340945-e50c-4bba-9525-2eea79801fcb","system_id":"levelo_inurba_marseille","lat":43.27176,"lon":5.40991,"is_reserved":false,"is_disabled":false,"rental_uris":{"android":"levelo://app?vid=ab340945-e50c-4bba-9525-2eea79801fcb","ios":"levelo://app?vid=ab340945-e50c-4bba-9525-2eea79801fcb"},"vehicle_type_id":"4","last_reported":1729167441,"current_range_meters":30800,"station_id":"ce4bhl12rcd13ifvqgf0","pricing_plan_id":"cebpf4jnsgd1na2vs0mg"},{"bike_id":"6300df2c-b9fe-4275-916d-dd75e59140c9","system_id":"levelo_inurba_marseille","lat":43.2319,"lon":5.35539,"is_reserved":false,"is_disabled":false,"rental_uris":{"android":"levelo://app?vid=6300df2c-b9fe-4275-916d-dd75e59140c9","ios":"levelo://app?vid=6300df2c-b9fe-4275-916d-dd75e59140c9"},"vehicle_type_id":"4","last_reported":1729167441,"current_range_meters":34000,"station_id":"ce4bhu92rcd13ifvqi70","pricing_plan_id":"cebpf4jnsgd1na2vs0mg"},{"bike_id":"9639a337-6ab9-4f66-9e6e-d0bf5dde7ef3","system_id":"levelo_inurba_marseille","lat":43.28615,"lon":5.35108,"is_reserved":false,"is_disabled":false,"rental_uris":{"android":"levelo://app?vid=9639a337-6ab9-4f66-9e6e-d0bf5dde7ef3","ios":"levelo://app?vid=9639a337-6ab9-4f66-9e6e-d0bf5dde7ef3"},"vehicle_type_id":"4","last_reported":1729167441,"current_range_meters":38800,"station_id":"ce4bhch2rcd13ifvqeug","pricing_plan_id":"cebpf4jnsgd1na2vs0mg"},{"bike_id":"59238a0c-de64-46a6-a64a-5a5563ed932a","system_id":"levelo_inurba_marseille","lat":43.22933,"lon":5.35373,"is_reserved":false,"is_disabled":false,"rental_uris":{"android":"levelo://app?vid=59238a0c-de64-46a6-a64a-5a5563ed932a","ios":"levelo://app?vid=59238a0c-de64-46a6-a64a-5a5563ed932a"},"vehicle_type_id":"4","last_reported":1729167441,"current_range_meters":30400,"station_id":"cpo3532slgdg3j2ikp40","pricing_plan_id":"cebpf4jnsgd1na2vs0mg"},{"bike_id":"6f6e1348-aad6-49e3-a4a2-845b6d6540b4","system_id":"levelo_inurba_marseille","lat":43.25869,"lon":5.39899,"is_reserved":false,"is_disabled":false,"rental_uris":{"android":"levelo://app?vid=6f6e1348-aad6-49e3-a4a2-845b6d6540b4","ios":"levelo://app?vid=6f6e1348-aad6-49e3-a4a2-845b6d6540b4"},"vehicle_type_id":"4","last_reported":1729167441,"current_range_meters":35600,"station_id":"ce4bhl92rcd13ifvqghg","pricing_plan_id":"cebpf4jnsgd1na2vs0mg"},{"bike_id":"0ded67b2-5cd4-424d-b23b-9d75b4827b44","system_id":"levelo_inurba_marseille","lat":43.31353,"lon":5.36724,"is_reserved":false,"is_disabled":false,"rental_uris":{"android":"levelo://app?vid=0ded67b2-5cd4-424d-b23b-9d75b4827b44","ios":"levelo://app?vid=0ded67b2-5cd4-424d-b23b-9d75b4827b44"},"vehicle_type_id":"4","last_reported":1729167441,"current_range_meters":29600,"station_id":"ce4bgr92rcd13ifvqc6g","pricing_plan_id":"cebpf4jnsgd1na2vs0mg"},{"bike_id":"20c29f99-0e3c-45bb-837b-976b5cc98468","system_id":"levelo_inurba_marseille","lat":43.23151,"lon":5.4371,"is_reserved":false,"is_disabled":false,"rental_uris":{"android":"levelo://app?vid=20c29f99-0e3c-45bb-837b-976b5cc98468","ios":"levelo://app?vid=20c29f99-0e3c-45bb-837b-976b5cc98468"},"vehicle_type_id":"4","last_reported":1729167441,"current_range_meters":38400,"station_id":"ce4bhmp2rcd13ifvqgog","pricing_plan_id":"cebpf4jnsgd1na2vs0mg"},{"bike_id":"a6e9f1dc-2010-4660-bf75-39a77799f4f9","system_id":"levelo_inurba_marseille","lat":43.3092,"lon":5.36843,"is_reserved":false,"is_disabled":false,"rental_uris":{"android":"levelo://app?vid=a6e9f1dc-2010-4660-bf75-39a77799f4f9","ios":"levelo://app?vid=a6e9f1dc-2010-4660-bf75-39a77799f4f9"},"vehicle_type_id":"4","last_reported":1729167441,"current_range_meters":30800,"station_id":"ce4bgn92rcd13ifvqbvg","pricing_plan_id":"cebpf4jnsgd1na2vs0mg"},{"bike_id":"541ab483-2017-4c58-a65f-e1d17f6a7d34","system_id":"levelo_inurba_marseille","lat":43.24074,"lon":5.37755,"is_reserved":false,"is_disabled":false,"rental_uris":{"android":"levelo://app?vid=541ab483-2017-4c58-a65f-e1d17f6a7d34","ios":"levelo://app?vid=541ab483-2017-4c58-a65f-e1d17f6a7d34"},"vehicle_type_id":"4","last_reported":1729167441,"current_range_meters":8000,"station_id":"ce4bhnp2rcd13ifvqgvg","pricing_plan_id":"cebpf4jnsgd1na2vs0mg"},{"bike_id":"a2b2864f-6afb-46e5-a502-9789958951c7","system_id":"levelo_inurba_marseille","lat":43.25924,"lon":5.40888,"is_reserved":false,"is_disabled":false,"rental_uris":{"android":"levelo://app?vid=a2b2864f-6afb-46e5-a502-9789958951c7","ios":"levelo://app?vid=a2b2864f-6afb-46e5-a502-9789958951c7"},"vehicle_type_id":"4","last_reported":1729167441,"current_range_meters":38000,"station_id":"ce4bhm92rcd13ifvqglg","pricing_plan_id":"cebpf4jnsgd1na2vs0mg"},{"bike_id":"4562e9bb-7c1e-4e0e-95e1-858d0f8d86d1","system_id":"levelo_inurba_marseille","lat":43.23196,"lon":5.35553,"is_reserved":false,"is_disabled":false,"rental_uris":{"android":"levelo://app?vid=4562e9bb-7c1e-4e0e-95e1-858d0f8d86d1","ios":"levelo://app?vid=4562e9bb-7c1e-4e0e-95e1-858d0f8d86d1"},"vehicle_type_id":"4","last_reported":1729167441,"current_range_meters":8000,"station_id":"ce4bhu92rcd13ifvqi70","pricing_plan_id":"cebpf4jnsgd1na2vs0mg"},{"bike_id":"ee37f21b-77eb-4cd2-9d5b-4630830afccd","system_id":"levelo_inurba_marseille","lat":43.26571,"lon":5.39009,"is_reserved":false,"is_disabled":false,"rental_uris":{"android":"levelo://app?vid=ee37f21b-77eb-4cd2-9d5b-4630830afccd","ios":"levelo://app?vid=ee37f21b-77eb-4cd2-9d5b-4630830afccd"},"vehicle_type_id":"4","last_reported":1729167441,"current_range_meters":35600,"station_id":"ce4bhe12rcd13ifvqf30","pricing_plan_id":"cebpf4jnsgd1na2vs0mg"},{"bike_id":"c60ae59c-5f3f-493b-82be-9fdc769a1273","system_id":"levelo_inurba_marseille","lat":43.24087,"lon":5.37753,"is_reserved":false,"is_disabled":false,"rental_uris":{"android":"levelo://app?vid=c60ae59c-5f3f-493b-82be-9fdc769a1273","ios":"levelo://app?vid=c60ae59c-5f3f-493b-82be-9fdc769a1273"},"vehicle_type_id":"4","last_reported":1729167441,"current_range_meters":7200,"station_id":"ce4bhnp2rcd13ifvqgvg","pricing_plan_id":"cebpf4jnsgd1na2vs0mg"},{"bike_id":"2140b6a3-5118-4150-823e-9225aeb56201","system_id":"levelo_inurba_marseille","lat":43.23189,"lon":5.35546,"is_reserved":false,"is_disabled":false,"rental_uris":{"android":"levelo://app?vid=2140b6a3-5118-4150-823e-9225aeb56201","ios":"levelo://app?vid=2140b6a3-5118-4150-823e-9225aeb56201"},"vehicle_type_id":"4","last_reported":1729167441,"current_range_meters":36800,"station_id":"ce4bhu92rcd13ifvqi70","pricing_plan_id":"cebpf4jnsgd1na2vs0mg"},{"bike_id":"c4354820-3f15-47be-b43d-29fa4495b530","system_id":"levelo_inurba_marseille","lat":43.30462,"lon":5.37898,"is_reserved":false,"is_disabled":false,"rental_uris":{"android":"levelo://app?vid=c4354820-3f15-47be-b43d-29fa4495b530","ios":"levelo://app?vid=c4354820-3f15-47be-b43d-29fa4495b530"},"vehicle_type_id":"4","last_reported":1729167441,"current_range_meters":39200,"station_id":"ce4bgup2rcd13ifvqcn0","pricing_plan_id":"cebpf4jnsgd1na2vs0mg"},{"bike_id":"49ce3a7c-3632-4aae-ac81-1bbca98919e8","system_id":"levelo_inurba_marseille","lat":43.26928,"lon":5.3891,"is_reserved":false,"is_disabled":false,"rental_uris":{"android":"levelo://app?vid=49ce3a7c-3632-4aae-ac81-1bbca98919e8","ios":"levelo://app?vid=49ce3a7c-3632-4aae-ac81-1bbca98919e8"},"vehicle_type_id":"4","last_reported":1729167441,"current_range_meters":36800,"station_id":"ce4bhhh2rcd13ifvqfl0","pricing_plan_id":"cebpf4jnsgd1na2vs0mg"},{"bike_id":"e48f9663-dcd8-494f-a03d-fe20dbf1a28f","system_id":"levelo_inurba_marseille","lat":43.30589,"lon":5.39352,"is_reserved":false,"is_disabled":false,"rental_uris":{"android":"levelo://app?vid=e48f9663-dcd8-494f-a03d-fe20dbf1a28f","ios":"levelo://app?vid=e48f9663-dcd8-494f-a03d-fe20dbf1a28f"},"vehicle_type_id":"4","last_reported":1729167441,"current_range_meters":37600,"station_id":"ce4bh0p2rcd13ifvqd80","pricing_plan_id":"cebpf4jnsgd1na2vs0mg"},{"bike_id":"b3832c97-d362-4616-975f-d40917d3f4e3","system_id":"levelo_inurba_marseille","lat":43.28112,"lon":5.37836,"is_reserved":false,"is_disabled":false,"rental_uris":{"android":"levelo://app?vid=b3832c97-d362-4616-975f-d40917d3f4e3","ios":"levelo://app?vid=b3832c97-d362-4616-975f-d40917d3f4e3"},"vehicle_type_id":"4","last_reported":1729167441,"current_range_meters":39200,"station_id":"ce4bha12rcd13ifvqee0","pricing_plan_id":"cebpf4jnsgd1na2vs0mg"},{"bike_id":"c7c2759f-6756-4905-a201-8ac04e9864d0","system_id":"levelo_inurba_marseille","lat":43.26684,"lon":5.38269,"is_reserved":false,"is_disabled":false,"rental_uris":{"android":"levelo://app?vid=c7c2759f-6756-4905-a201-8ac04e9864d0","ios":"levelo://app?vid=c7c2759f-6756-4905-a201-8ac04e9864d0"},"vehicle_type_id":"4","last_reported":1729167441,"current_range_meters":40000,"station_id":"ce4bhg92rcd13ifvqf90","pricing_plan_id":"cebpf4jnsgd1na2vs0mg"},{"bike_id":"70ec0e77-1894-426b-b4d4-419c7f5f5655","system_id":"levelo_inurba_marseille","lat":43.30599,"lon":5.39346,"is_reserved":false,"is_disabled":false,"rental_uris":{"android":"levelo://app?vid=70ec0e77-1894-426b-b4d4-419c7f5f5655","ios":"levelo://app?vid=70ec0e77-1894-426b-b4d4-419c7f5f5655"},"vehicle_type_id":"4","last_reported":1729167441,"current_range_meters":4800,"station_id":"ce4bh0p2rcd13ifvqd80","pricing_plan_id":"cebpf4jnsgd1na2vs0mg"},{"bike_id":"530c14a9-76d7-472d-9cd7-c830d3988d07","system_id":"levelo_inurba_marseille","lat":43.2319,"lon":5.39983,"is_reserved":false,"is_disabled":false,"rental_uris":{"android":"levelo://app?vid=530c14a9-76d7-472d-9cd7-c830d3988d07","ios":"levelo://app?vid=530c14a9-76d7-472d-9cd7-c830d3988d07"},"vehicle_type_id":"4","last_reported":1729167441,"current_range_meters":33600,"station_id":"ce4bhn12rcd13ifvqgqg","pricing_plan_id":"cebpf4jnsgd1na2vs0mg"},{"bike_id":"f26e0818-679d-49dd-88c4-15f9ba4a8566","system_id":"levelo_inurba_marseille","lat":43.28347,"lon":5.38095,"is_reserved":false,"is_disabled":false,"rental_uris":{"android":"levelo://app?vid=f26e0818-679d-49dd-88c4-15f9ba4a8566","ios":"levelo://app?vid=f26e0818-679d-49dd-88c4-15f9ba4a8566"},"vehicle_type_id":"4","last_reported":1729167441,"current_range_meters":30800,"station_id":"ce4bh412rcd13ifvqdr0","pricing_plan_id":"cebpf4jnsgd1na2vs0mg"},{"bike_id":"21bb0b99-45c2-4f72-9036-ecc8564215e2","system_id":"levelo_inurba_marseille","lat":43.3237,"lon":5.38877,"is_reserved":false,"is_disabled":false,"rental_uris":{"android":"levelo://app?vid=21bb0b99-45c2-4f72-9036-ecc8564215e2","ios":"levelo://app?vid=21bb0b99-45c2-4f72-9036-ecc8564215e2"},"vehicle_type_id":"4","last_reported":1729167441,"current_range_meters":28000,"station_id":"ce4bhqp2rcd13ifvqhog","pricing_plan_id":"cebpf4jnsgd1na2vs0mg"},{"bike_id":"fc214f2f-eafc-4a72-a7ff-c73af698b926","system_id":"levelo_inurba_marseille","lat":43.27957,"lon":5.41084,"is_reserved":false,"is_disabled":false,"rental_uris":{"android":"levelo://app?vid=fc214f2f-eafc-4a72-a7ff-c73af698b926","ios":"levelo://app?vid=fc214f2f-eafc-4a72-a7ff-c73af698b926"},"vehicle_type_id":"4","last_reported":1729167441,"current_range_meters":27200,"station_id":"ce4bhnh2rcd13ifvqgtg","pricing_plan_id":"cebpf4jnsgd1na2vs0mg"},{"bike_id":"83bcafb6-7740-4133-8b56-4bf302222f17","system_id":"levelo_inurba_marseille","lat":43.23965,"lon":5.36638,"is_reserved":false,"is_disabled":false,"rental_uris":{"android":"levelo://app?vid=83bcafb6-7740-4133-8b56-4bf302222f17","ios":"levelo://app?vid=83bcafb6-7740-4133-8b56-4bf302222f17"},"vehicle_type_id":"4","last_reported":1729167441,"current_range_meters":4400,"station_id":"ce4bhi12rcd13ifvqfp0","pricing_plan_id":"cebpf4jnsgd1na2vs0mg"},{"bike_id":"7772d39f-5e28-445c-af91-069b0cf63793","system_id":"levelo_inurba_marseille","lat":43.33747,"lon":5.37433,"is_reserved":false,"is_disabled":false,"rental_uris":{"android":"levelo://app?vid=7772d39f-5e28-445c-af91-069b0cf63793","ios":"levelo://app?vid=7772d39f-5e28-445c-af91-069b0cf63793"},"vehicle_type_id":"4","last_reported":1729167441,"current_range_meters":16800,"station_id":"","pricing_plan_id":"cebpf4jnsgd1na2vs0mg"},{"bike_id":"17459e33-3f71-45ec-80f3-b09c9b17a438","system_id":"levelo_inurba_marseille","lat":43.25824,"lon":5.39435,"is_reserved":false,"is_disabled":false,"rental_uris":{"android":"levelo://app?vid=17459e33-3f71-45ec-80f3-b09c9b17a438","ios":"levelo://app?vid=17459e33-3f71-45ec-80f3-b09c9b17a438"},"vehicle_type_id":"4","last_reported":1729167441,"current_range_meters":16800,"station_id":"ce4bhip2rcd13ifvqft0","pricing_plan_id":"cebpf4jnsgd1na2vs0mg"},{"bike_id":"306d207a-e0b2-4571-813d-f41b5e3cc051","system_id":"levelo_inurba_marseille","lat":43.30323,"lon":5.36906,"is_reserved":false,"is_disabled":false,"rental_uris":{"android":"levelo://app?vid=306d207a-e0b2-4571-813d-f41b5e3cc051","ios":"levelo://app?vid=306d207a-e0b2-4571-813d-f41b5e3cc051"},"vehicle_type_id":"4","last_reported":1729167441,"current_range_meters":27600,"station_id":"ce4bgqh2rcd13ifvqc5g","pricing_plan_id":"cebpf4jnsgd1na2vs0mg"},{"bike_id":"44cd738f-8fae-45e6-a131-775848a6df88","system_id":"levelo_inurba_marseille","lat":43.29792,"lon":5.38119,"is_reserved":false,"is_disabled":false,"rental_uris":{"android":"levelo://app?vid=44cd738f-8fae-45e6-a131-775848a6df88","ios":"levelo://app?vid=44cd738f-8fae-45e6-a131-775848a6df88"},"vehicle_type_id":"4","last_reported":1729167441,"current_range_meters":27600,"station_id":"ce4bgip2rcd13ifvqbb0","pricing_plan_id":"cebpf4jnsgd1na2vs0mg"},{"bike_id":"3213665e-989c-4d22-9f5a-31c8522597dd","system_id":"levelo_inurba_marseille","lat":43.296,"lon":5.36142,"is_reserved":false,"is_disabled":false,"rental_uris":{"android":"levelo://app?vid=3213665e-989c-4d22-9f5a-31c8522597dd","ios":"levelo://app?vid=3213665e-989c-4d22-9f5a-31c8522597dd"},"vehicle_type_id":"4","last_reported":1729167441,"current_range_meters":28400,"station_id":"","pricing_plan_id":"cebpf4jnsgd1na2vs0mg"},{"bike_id":"cc7041e8-1056-4081-a1bb-039a10df59d2","system_id":"levelo_inurba_marseille","lat":43.28622,"lon":5.35099,"is_reserved":false,"is_disabled":false,"rental_uris":{"android":"levelo://app?vid=cc7041e8-1056-4081-a1bb-039a10df59d2","ios":"levelo://app?vid=cc7041e8-1056-4081-a1bb-039a10df59d2"},"vehicle_type_id":"4","last_reported":1729167441,"current_range_meters":29600,"station_id":"ce4bhch2rcd13ifvqeug","pricing_plan_id":"cebpf4jnsgd1na2vs0mg"},{"bike_id":"f3ff532f-bf34-44fd-ab2a-11de7aa441aa","system_id":"levelo_inurba_marseille","lat":43.24805,"lon":5.37458,"is_reserved":false,"is_disabled":false,"rental_uris":{"android":"levelo://app?vid=f3ff532f-bf34-44fd-ab2a-11de7aa441aa","ios":"levelo://app?vid=f3ff532f-bf34-44fd-ab2a-11de7aa441aa"},"vehicle_type_id":"4","last_reported":1729167441,"current_range_meters":38000,"station_id":"ce4bhgh2rcd13ifvqfb0","pricing_plan_id":"cebpf4jnsgd1na2vs0mg"},{"bike_id":"bf50d71c-390d-43f9-933f-7d7bfd69bb07","system_id":"levelo_inurba_marseille","lat":43.30554,"lon":5.36556,"is_reserved":false,"is_disabled":false,"rental_uris":{"android":"levelo://app?vid=bf50d71c-390d-43f9-933f-7d7bfd69bb07","ios":"levelo://app?vid=bf50d71c-390d-43f9-933f-7d7bfd69bb07"},"vehicle_type_id":"4","last_reported":1729167441,"current_range_meters":37600,"station_id":"ce4bgs12rcd13ifvqcag","pricing_plan_id":"cebpf4jnsgd1na2vs0mg"},{"bike_id":"1641b826-604a-4181-8231-dca386f637a6","system_id":"levelo_inurba_marseille","lat":43.2319,"lon":5.35555,"is_reserved":false,"is_disabled":false,"rental_uris":{"android":"levelo://app?vid=1641b826-604a-4181-8231-dca386f637a6","ios":"levelo://app?vid=1641b826-604a-4181-8231-dca386f637a6"},"vehicle_type_id":"4","last_reported":1729167441,"current_range_meters":34000,"station_id":"ce4bhu92rcd13ifvqi70","pricing_plan_id":"cebpf4jnsgd1na2vs0mg"},{"bike_id":"89211ee2-076f-4df3-92bd-cd8885f2e76d","system_id":"levelo_inurba_marseille","lat":43.23195,"lon":5.35551,"is_reserved":false,"is_disabled":false,"rental_uris":{"android":"levelo://app?vid=89211ee2-076f-4df3-92bd-cd8885f2e76d","ios":"levelo://app?vid=89211ee2-076f-4df3-92bd-cd8885f2e76d"},"vehicle_type_id":"4","last_reported":1729167441,"current_range_meters":33600,"station_id":"ce4bhu92rcd13ifvqi70","pricing_plan_id":"cebpf4jnsgd1na2vs0mg"},{"bike_id":"3de45cf7-2837-48d1-ab95-454dbe5d9b72","system_id":"levelo_inurba_marseille","lat":43.28709,"lon":5.37928,"is_reserved":false,"is_disabled":false,"rental_uris":{"android":"levelo://app?vid=3de45cf7-2837-48d1-ab95-454dbe5d9b72","ios":"levelo://app?vid=3de45cf7-2837-48d1-ab95-454dbe5d9b72"},"vehicle_type_id":"4","last_reported":1729167441,"current_range_meters":30000,"station_id":"ce4bh9p2rcd13ifvqec0","pricing_plan_id":"cebpf4jnsgd1na2vs0mg"},{"bike_id":"e03d930c-76ff-4f79-b182-ee9299293acb","system_id":"levelo_inurba_marseille","lat":43.29282,"lon":5.36848,"is_reserved":false,"is_disabled":false,"rental_uris":{"android":"levelo://app?vid=e03d930c-76ff-4f79-b182-ee9299293acb","ios":"levelo://app?vid=e03d930c-76ff-4f79-b182-ee9299293acb"},"vehicle_type_id":"4","last_reported":1729167441,"current_range_meters":35600,"station_id":"ce4bhbp2rcd13ifvqesg","pricing_plan_id":"cebpf4jnsgd1na2vs0mg"},{"bike_id":"32a49fe8-5752-4e25-9677-224e653ef32f","system_id":"levelo_inurba_marseille","lat":43.24083,"lon":5.37737,"is_reserved":false,"is_disabled":false,"rental_uris":{"android":"levelo://app?vid=32a49fe8-5752-4e25-9677-224e653ef32f","ios":"levelo://app?vid=32a49fe8-5752-4e25-9677-224e653ef32f"},"vehicle_type_id":"4","last_reported":1729167441,"current_range_meters":19200,"station_id":"ce4bhnp2rcd13ifvqgvg","pricing_plan_id":"cebpf4jnsgd1na2vs0mg"},{"bike_id":"08c4a7f9-8b8c-4505-9fb5-1b3b12fcd5d8","system_id":"levelo_inurba_marseille","lat":43.297791,"lon":5.380916,"is_reserved":false,"is_disabled":false,"rental_uris":{"android":"levelo://app?vid=08c4a7f9-8b8c-4505-9fb5-1b3b12fcd5d8","ios":"levelo://app?vid=08c4a7f9-8b8c-4505-9fb5-1b3b12fcd5d8"},"vehicle_type_id":"4","last_reported":1729167441,"current_range_meters":36000,"station_id":"ce4bgip2rcd13ifvqbb0","pricing_plan_id":"cebpf4jnsgd1na2vs0mg"},{"bike_id":"d39a5687-1116-472f-a8fb-62c0d09c90d0","system_id":"levelo_inurba_marseille","lat":43.23152,"lon":5.43711,"is_reserved":false,"is_disabled":false,"rental_uris":{"android":"levelo://app?vid=d39a5687-1116-472f-a8fb-62c0d09c90d0","ios":"levelo://app?vid=d39a5687-1116-472f-a8fb-62c0d09c90d0"},"vehicle_type_id":"4","last_reported":1729167441,"current_range_meters":39200,"station_id":"ce4bhmp2rcd13ifvqgog","pricing_plan_id":"cebpf4jnsgd1na2vs0mg"},{"bike_id":"f88c7e01-bc8c-4735-8a37-e29425c30c87","system_id":"levelo_inurba_marseille","lat":43.23184,"lon":5.39996,"is_reserved":false,"is_disabled":false,"rental_uris":{"android":"levelo://app?vid=f88c7e01-bc8c-4735-8a37-e29425c30c87","ios":"levelo://app?vid=f88c7e01-bc8c-4735-8a37-e29425c30c87"},"vehicle_type_id":"4","last_reported":1729167441,"current_range_meters":12400,"station_id":"ce4bhn12rcd13ifvqgqg","pricing_plan_id":"cebpf4jnsgd1na2vs0mg"},{"bike_id":"ecb34647-7182-4824-bb3f-dc0c6b523c79","system_id":"levelo_inurba_marseille","lat":43.337657,"lon":5.37444,"is_reserved":false,"is_disabled":false,"rental_uris":{"android":"levelo://app?vid=ecb34647-7182-4824-bb3f-dc0c6b523c79","ios":"levelo://app?vid=ecb34647-7182-4824-bb3f-dc0c6b523c79"},"vehicle_type_id":"4","last_reported":1729167441,"current_range_meters":28800,"station_id":"","pricing_plan_id":"cebpf4jnsgd1na2vs0mg"},{"bike_id":"c8687817-23e8-4d53-870b-25e31ac622ca","system_id":"levelo_inurba_marseille","lat":43.28619,"lon":5.35101,"is_reserved":false,"is_disabled":false,"rental_uris":{"android":"levelo://app?vid=c8687817-23e8-4d53-870b-25e31ac622ca","ios":"levelo://app?vid=c8687817-23e8-4d53-870b-25e31ac622ca"},"vehicle_type_id":"4","last_reported":1729167441,"current_range_meters":20800,"station_id":"ce4bhch2rcd13ifvqeug","pricing_plan_id":"cebpf4jnsgd1na2vs0mg"},{"bike_id":"013aee33-85c0-4004-910f-f8c5e7881afb","system_id":"levelo_inurba_marseille","lat":43.26804,"lon":5.40267,"is_reserved":false,"is_disabled":false,"rental_uris":{"android":"levelo://app?vid=013aee33-85c0-4004-910f-f8c5e7881afb","ios":"levelo://app?vid=013aee33-85c0-4004-910f-f8c5e7881afb"},"vehicle_type_id":"4","last_reported":1729167441,"current_range_meters":36800,"station_id":"ce501612rcd8frsf0b60","pricing_plan_id":"cebpf4jnsgd1na2vs0mg"},{"bike_id":"1953a829-fa3f-47c2-b868-063962bbd86a","system_id":"levelo_inurba_marseille","lat":43.33598,"lon":5.41022,"is_reserved":false,"is_disabled":false,"rental_uris":{"android":"levelo://app?vid=1953a829-fa3f-47c2-b868-063962bbd86a","ios":"levelo://app?vid=1953a829-fa3f-47c2-b868-063962bbd86a"},"vehicle_type_id":"4","last_reported":1729167441,"current_range_meters":39200,"station_id":"ce4bhqh2rcd13ifvqhmg","pricing_plan_id":"cebpf4jnsgd1na2vs0mg"},{"bike_id":"87440bd7-4730-412f-b52f-03b263c3d6ba","system_id":"levelo_inurba_marseille","lat":43.231938,"lon":5.355544,"is_reserved":false,"is_disabled":false,"rental_uris":{"android":"levelo://app?vid=87440bd7-4730-412f-b52f-03b263c3d6ba","ios":"levelo://app?vid=87440bd7-4730-412f-b52f-03b263c3d6ba"},"vehicle_type_id":"4","last_reported":1729167441,"current_range_meters":19200,"station_id":"ce4bhu92rcd13ifvqi70","pricing_plan_id":"cebpf4jnsgd1na2vs0mg"},{"bike_id":"8937c157-fc3b-4704-af92-e339d8163a54","system_id":"levelo_inurba_marseille","lat":43.29587,"lon":5.36735,"is_reserved":false,"is_disabled":false,"rental_uris":{"android":"levelo://app?vid=8937c157-fc3b-4704-af92-e339d8163a54","ios":"levelo://app?vid=8937c157-fc3b-4704-af92-e339d8163a54"},"vehicle_type_id":"4","last_reported":1729167441,"current_range_meters":24000,"station_id":"ce4bgph2rcd13ifvqc2g","pricing_plan_id":"cebpf4jnsgd1na2vs0mg"},{"bike_id":"92adc917-dd9f-4f41-ad26-a204313fae44","system_id":"levelo_inurba_marseille","lat":43.29228,"lon":5.36064,"is_reserved":false,"is_disabled":false,"rental_uris":{"android":"levelo://app?vid=92adc917-dd9f-4f41-ad26-a204313fae44","ios":"levelo://app?vid=92adc917-dd9f-4f41-ad26-a204313fae44"},"vehicle_type_id":"4","last_reported":1729167441,"current_range_meters":37600,"station_id":"ce4bhbh2rcd13ifvqeqg","pricing_plan_id":"cebpf4jnsgd1na2vs0mg"},{"bike_id":"a57e051e-cba3-4629-93a7-086ce79b55c2","system_id":"levelo_inurba_marseille","lat":43.26196,"lon":5.37449,"is_reserved":false,"is_disabled":false,"rental_uris":{"android":"levelo://app?vid=a57e051e-cba3-4629-93a7-086ce79b55c2","ios":"levelo://app?vid=a57e051e-cba3-4629-93a7-086ce79b55c2"},"vehicle_type_id":"4","last_reported":1729167441,"current_range_meters":32400,"station_id":"ce4bhgp2rcd13ifvqfc0","pricing_plan_id":"cebpf4jnsgd1na2vs0mg"},{"bike_id":"cbc2af20-9c93-46b9-908f-3f3d19ddc9a6","system_id":"levelo_inurba_marseille","lat":43.309473,"lon":5.390287,"is_reserved":false,"is_disabled":false,"rental_uris":{"android":"levelo://app?vid=cbc2af20-9c93-46b9-908f-3f3d19ddc9a6","ios":"levelo://app?vid=cbc2af20-9c93-46b9-908f-3f3d19ddc9a6"},"vehicle_type_id":"4","last_reported":1729167441,"current_range_meters":24400,"station_id":"ce4bgup2rcd13ifvqco0","pricing_plan_id":"cebpf4jnsgd1na2vs0mg"},{"bike_id":"e7f36768-34b8-4eaa-91a6-5ea8a6bfc3c7","system_id":"levelo_inurba_marseille","lat":43.24078,"lon":5.37743,"is_reserved":false,"is_disabled":false,"rental_uris":{"android":"levelo://app?vid=e7f36768-34b8-4eaa-91a6-5ea8a6bfc3c7","ios":"levelo://app?vid=e7f36768-34b8-4eaa-91a6-5ea8a6bfc3c7"},"vehicle_type_id":"4","last_reported":1729167441,"current_range_meters":8400,"station_id":"ce4bhnp2rcd13ifvqgvg","pricing_plan_id":"cebpf4jnsgd1na2vs0mg"},{"bike_id":"23d3a54d-0a4f-4241-8871-f6842c949a0e","system_id":"levelo_inurba_marseille","lat":43.30603,"lon":5.37227,"is_reserved":false,"is_disabled":false,"rental_uris":{"android":"levelo://app?vid=23d3a54d-0a4f-4241-8871-f6842c949a0e","ios":"levelo://app?vid=23d3a54d-0a4f-4241-8871-f6842c949a0e"},"vehicle_type_id":"4","last_reported":1729167441,"current_range_meters":24000,"station_id":"ce4bgqh2rcd13ifvqc4g","pricing_plan_id":"cebpf4jnsgd1na2vs0mg"},{"bike_id":"db65d913-a142-43a7-b1c3-54dc85aadcca","system_id":"levelo_inurba_marseille","lat":43.24795,"lon":5.37447,"is_reserved":false,"is_disabled":false,"rental_uris":{"android":"levelo://app?vid=db65d913-a142-43a7-b1c3-54dc85aadcca","ios":"levelo://app?vid=db65d913-a142-43a7-b1c3-54dc85aadcca"},"vehicle_type_id":"4","last_reported":1729167441,"current_range_meters":24400,"station_id":"ce4bhgh2rcd13ifvqfb0","pricing_plan_id":"cebpf4jnsgd1na2vs0mg"},{"bike_id":"bf2089b0-26e1-414a-a423-b4e5749ee546","system_id":"levelo_inurba_marseille","lat":43.284178,"lon":5.349924,"is_reserved":false,"is_disabled":false,"rental_uris":{"android":"levelo://app?vid=bf2089b0-26e1-414a-a423-b4e5749ee546","ios":"levelo://app?vid=bf2089b0-26e1-414a-a423-b4e5749ee546"},"vehicle_type_id":"4","last_reported":1729167441,"current_range_meters":39200,"station_id":"ce4bhbh2rcd13ifvqepg","pricing_plan_id":"cebpf4jnsgd1na2vs0mg"},{"bike_id":"c14ef5f2-0e25-4897-bdf5-11a8cb47f4b9","system_id":"levelo_inurba_marseille","lat":43.28422,"lon":5.3499,"is_reserved":false,"is_disabled":false,"rental_uris":{"android":"levelo://app?vid=c14ef5f2-0e25-4897-bdf5-11a8cb47f4b9","ios":"levelo://app?vid=c14ef5f2-0e25-4897-bdf5-11a8cb47f4b9"},"vehicle_type_id":"4","last_reported":1729167441,"current_range_meters":36000,"station_id":"ce4bhbh2rcd13ifvqepg","pricing_plan_id":"cebpf4jnsgd1na2vs0mg"},{"bike_id":"49c3db25-f66c-4541-ad54-af787a8b9e0e","system_id":"levelo_inurba_marseille","lat":43.27176,"lon":5.40992,"is_reserved":false,"is_disabled":false,"rental_uris":{"android":"levelo://app?vid=49c3db25-f66c-4541-ad54-af787a8b9e0e","ios":"levelo://app?vid=49c3db25-f66c-4541-ad54-af787a8b9e0e"},"vehicle_type_id":"4","last_reported":1729167441,"current_range_meters":39200,"station_id":"ce4bhl12rcd13ifvqgf0","pricing_plan_id":"cebpf4jnsgd1na2vs0mg"},{"bike_id":"f089d4a1-7823-433a-a1c5-4fe27519edd0","system_id":"levelo_inurba_marseille","lat":43.23964,"lon":5.3663,"is_reserved":false,"is_disabled":false,"rental_uris":{"android":"levelo://app?vid=f089d4a1-7823-433a-a1c5-4fe27519edd0","ios":"levelo://app?vid=f089d4a1-7823-433a-a1c5-4fe27519edd0"},"vehicle_type_id":"4","last_reported":1729167441,"current_range_meters":35200,"station_id":"ce4bhi12rcd13ifvqfp0","pricing_plan_id":"cebpf4jnsgd1na2vs0mg"},{"bike_id":"4b29bd67-8589-424a-9bf1-ab40ad503cd9","system_id":"levelo_inurba_marseille","lat":43.25827,"lon":5.39435,"is_reserved":false,"is_disabled":false,"rental_uris":{"android":"levelo://app?vid=4b29bd67-8589-424a-9bf1-ab40ad503cd9","ios":"levelo://app?vid=4b29bd67-8589-424a-9bf1-ab40ad503cd9"},"vehicle_type_id":"4","last_reported":1729167441,"current_range_meters":38400,"station_id":"ce4bhip2rcd13ifvqft0","pricing_plan_id":"cebpf4jnsgd1na2vs0mg"},{"bike_id":"53f11546-ee0f-4227-921a-a57d93ed79b4","system_id":"levelo_inurba_marseille","lat":43.23149,"lon":5.43716,"is_reserved":false,"is_disabled":false,"rental_uris":{"android":"levelo://app?vid=53f11546-ee0f-4227-921a-a57d93ed79b4","ios":"levelo://app?vid=53f11546-ee0f-4227-921a-a57d93ed79b4"},"vehicle_type_id":"4","last_reported":1729167441,"current_range_meters":23200,"station_id":"ce4bhmp2rcd13ifvqgog","pricing_plan_id":"cebpf4jnsgd1na2vs0mg"},{"bike_id":"25f491e5-d0ff-4e5e-94b3-5535a7d3231b","system_id":"levelo_inurba_marseille","lat":43.24551,"lon":5.39522,"is_reserved":false,"is_disabled":false,"rental_uris":{"android":"levelo://app?vid=25f491e5-d0ff-4e5e-94b3-5535a7d3231b","ios":"levelo://app?vid=25f491e5-d0ff-4e5e-94b3-5535a7d3231b"},"vehicle_type_id":"4","last_reported":1729167441,"current_range_meters":39200,"station_id":"ce4bhlp2rcd13ifvqgjg","pricing_plan_id":"cebpf4jnsgd1na2vs0mg"},{"bike_id":"f5975b0a-70fb-4fa4-b844-2543247ddda0","system_id":"levelo_inurba_marseille","lat":43.24556,"lon":5.39526,"is_reserved":false,"is_disabled":false,"rental_uris":{"android":"levelo://app?vid=f5975b0a-70fb-4fa4-b844-2543247ddda0","ios":"levelo://app?vid=f5975b0a-70fb-4fa4-b844-2543247ddda0"},"vehicle_type_id":"4","last_reported":1729167441,"current_range_meters":39200,"station_id":"ce4bhlp2rcd13ifvqgjg","pricing_plan_id":"cebpf4jnsgd1na2vs0mg"},{"bike_id":"06bb7500-aaac-4ac4-af5f-b0d62ba39584","system_id":"levelo_inurba_marseille","lat":43.30915,"lon":5.36849,"is_reserved":false,"is_disabled":false,"rental_uris":{"android":"levelo://app?vid=06bb7500-aaac-4ac4-af5f-b0d62ba39584","ios":"levelo://app?vid=06bb7500-aaac-4ac4-af5f-b0d62ba39584"},"vehicle_type_id":"4","last_reported":1729167441,"current_range_meters":39200,"station_id":"ce4bgn92rcd13ifvqbvg","pricing_plan_id":"cebpf4jnsgd1na2vs0mg"},{"bike_id":"5b7d217b-b6a3-48b2-a7c0-1e484eaaea02","system_id":"levelo_inurba_marseille","lat":43.25936,"lon":5.40897,"is_reserved":false,"is_disabled":false,"rental_uris":{"android":"levelo://app?vid=5b7d217b-b6a3-48b2-a7c0-1e484eaaea02","ios":"levelo://app?vid=5b7d217b-b6a3-48b2-a7c0-1e484eaaea02"},"vehicle_type_id":"4","last_reported":1729167441,"current_range_meters":38400,"station_id":"ce4bhm92rcd13ifvqglg","pricing_plan_id":"cebpf4jnsgd1na2vs0mg"},{"bike_id":"292b9425-1372-40d4-bf0a-fe57aa779a41","system_id":"levelo_inurba_marseille","lat":43.23065,"lon":5.35492,"is_reserved":false,"is_disabled":false,"rental_uris":{"android":"levelo://app?vid=292b9425-1372-40d4-bf0a-fe57aa779a41","ios":"levelo://app?vid=292b9425-1372-40d4-bf0a-fe57aa779a41"},"vehicle_type_id":"4","last_reported":1729167441,"current_range_meters":24400,"station_id":"cpo3342slgdg3j2ifvpg","pricing_plan_id":"cebpf4jnsgd1na2vs0mg"},{"bike_id":"efeaea61-8512-4b75-bae8-c43941554118","system_id":"levelo_inurba_marseille","lat":43.29587,"lon":5.36739,"is_reserved":false,"is_disabled":false,"rental_uris":{"android":"levelo://app?vid=efeaea61-8512-4b75-bae8-c43941554118","ios":"levelo://app?vid=efeaea61-8512-4b75-bae8-c43941554118"},"vehicle_type_id":"4","last_reported":1729167441,"current_range_meters":28000,"station_id":"ce4bgph2rcd13ifvqc2g","pricing_plan_id":"cebpf4jnsgd1na2vs0mg"},{"bike_id":"cdbdc306-2882-40a2-a047-8389dcca1e39","system_id":"levelo_inurba_marseille","lat":43.27816,"lon":5.40713,"is_reserved":false,"is_disabled":false,"rental_uris":{"android":"levelo://app?vid=cdbdc306-2882-40a2-a047-8389dcca1e39","ios":"levelo://app?vid=cdbdc306-2882-40a2-a047-8389dcca1e39"},"vehicle_type_id":"4","last_reported":1729167441,"current_range_meters":14400,"station_id":"ce4bhnh2rcd13ifvqgtg","pricing_plan_id":"cebpf4jnsgd1na2vs0mg"},{"bike_id":"512de681-c1b2-4832-a97d-6c09c612c68d","system_id":"levelo_inurba_marseille","lat":43.29051,"lon":5.35903,"is_reserved":false,"is_disabled":false,"rental_uris":{"android":"levelo://app?vid=512de681-c1b2-4832-a97d-6c09c612c68d","ios":"levelo://app?vid=512de681-c1b2-4832-a97d-6c09c612c68d"},"vehicle_type_id":"4","last_reported":1729167441,"current_range_meters":37600,"station_id":"ce4bha92rcd13ifvqeg0","pricing_plan_id":"cebpf4jnsgd1na2vs0mg"},{"bike_id":"d4000f0c-6972-4458-a6ae-1140f816bc15","system_id":"levelo_inurba_marseille","lat":43.28349,"lon":5.38108,"is_reserved":false,"is_disabled":false,"rental_uris":{"android":"levelo://app?vid=d4000f0c-6972-4458-a6ae-1140f816bc15","ios":"levelo://app?vid=d4000f0c-6972-4458-a6ae-1140f816bc15"},"vehicle_type_id":"4","last_reported":1729167441,"current_range_meters":8400,"station_id":"ce4bh412rcd13ifvqdr0","pricing_plan_id":"cebpf4jnsgd1na2vs0mg"},{"bike_id":"73040c20-1227-4cec-95b9-8af8a3df40dc","system_id":"levelo_inurba_marseille","lat":43.26958,"lon":5.38633,"is_reserved":false,"is_disabled":false,"rental_uris":{"android":"levelo://app?vid=73040c20-1227-4cec-95b9-8af8a3df40dc","ios":"levelo://app?vid=73040c20-1227-4cec-95b9-8af8a3df40dc"},"vehicle_type_id":"4","last_reported":1729167441,"current_range_meters":10800,"station_id":"ce4bhh92rcd13ifvqfh0","pricing_plan_id":"cebpf4jnsgd1na2vs0mg"},{"bike_id":"5ab66e45-0165-4216-847f-4e1dfb4defc5","system_id":"levelo_inurba_marseille","lat":43.23155,"lon":5.437,"is_reserved":false,"is_disabled":false,"rental_uris":{"android":"levelo://app?vid=5ab66e45-0165-4216-847f-4e1dfb4defc5","ios":"levelo://app?vid=5ab66e45-0165-4216-847f-4e1dfb4defc5"},"vehicle_type_id":"4","last_reported":1729167441,"current_range_meters":37600,"station_id":"ce4bhmp2rcd13ifvqgog","pricing_plan_id":"cebpf4jnsgd1na2vs0mg"},{"bike_id":"36311b76-ce17-4245-9c97-348b8877ecbb","system_id":"levelo_inurba_marseille","lat":43.32555,"lon":5.41443,"is_reserved":false,"is_disabled":false,"rental_uris":{"android":"levelo://app?vid=36311b76-ce17-4245-9c97-348b8877ecbb","ios":"levelo://app?vid=36311b76-ce17-4245-9c97-348b8877ecbb"},"vehicle_type_id":"4","last_reported":1729167441,"current_range_meters":38800,"station_id":"ce4bhq12rcd13ifvqhhg","pricing_plan_id":"cebpf4jnsgd1na2vs0mg"},{"bike_id":"1f37b7e6-9139-4ccd-a095-e8bad37eaf87","system_id":"levelo_inurba_marseille","lat":43.25935,"lon":5.40904,"is_reserved":false,"is_disabled":false,"rental_uris":{"android":"levelo://app?vid=1f37b7e6-9139-4ccd-a095-e8bad37eaf87","ios":"levelo://app?vid=1f37b7e6-9139-4ccd-a095-e8bad37eaf87"},"vehicle_type_id":"4","last_reported":1729167441,"current_range_meters":14400,"station_id":"ce4bhm92rcd13ifvqglg","pricing_plan_id":"cebpf4jnsgd1na2vs0mg"},{"bike_id":"2a428259-c5b4-4c54-809d-d47d6ce7b4f0","system_id":"levelo_inurba_marseille","lat":43.29257,"lon":5.40913,"is_reserved":false,"is_disabled":false,"rental_uris":{"android":"levelo://app?vid=2a428259-c5b4-4c54-809d-d47d6ce7b4f0","ios":"levelo://app?vid=2a428259-c5b4-4c54-809d-d47d6ce7b4f0"},"vehicle_type_id":"4","last_reported":1729167441,"current_range_meters":31200,"station_id":"ce4bh192rcd13ifvqdc0","pricing_plan_id":"cebpf4jnsgd1na2vs0mg"},{"bike_id":"9cc0687b-2177-460f-b0d8-830f36bb2c39","system_id":"levelo_inurba_marseille","lat":43.326569,"lon":5.40989,"is_reserved":false,"is_disabled":false,"rental_uris":{"android":"levelo://app?vid=9cc0687b-2177-460f-b0d8-830f36bb2c39","ios":"levelo://app?vid=9cc0687b-2177-460f-b0d8-830f36bb2c39"},"vehicle_type_id":"4","last_reported":1729167441,"current_range_meters":4000,"station_id":"ce4bhpp2rcd13ifvqhgg","pricing_plan_id":"cebpf4jnsgd1na2vs0mg"},{"bike_id":"005117c0-90a3-4ee2-af58-362346745aa6","system_id":"levelo_inurba_marseille","lat":43.27379,"lon":5.36246,"is_reserved":false,"is_disabled":false,"rental_uris":{"android":"levelo://app?vid=005117c0-90a3-4ee2-af58-362346745aa6","ios":"levelo://app?vid=005117c0-90a3-4ee2-af58-362346745aa6"},"vehicle_type_id":"4","last_reported":1729167441,"current_range_meters":2800,"station_id":"ce4bhbh2rcd13ifvqeo0","pricing_plan_id":"cebpf4jnsgd1na2vs0mg"},{"bike_id":"a0facf9d-6388-4e73-8781-b776c11f59ac","system_id":"levelo_inurba_marseille","lat":43.24393,"lon":5.37066,"is_reserved":false,"is_disabled":false,"rental_uris":{"android":"levelo://app?vid=a0facf9d-6388-4e73-8781-b776c11f59ac","ios":"levelo://app?vid=a0facf9d-6388-4e73-8781-b776c11f59ac"},"vehicle_type_id":"4","last_reported":1729167441,"current_range_meters":14400,"station_id":"ce4bhhh2rcd13ifvqfk0","pricing_plan_id":"cebpf4jnsgd1na2vs0mg"},{"bike_id":"5b00b803-9fca-4e4f-b292-c98a358550d6","system_id":"levelo_inurba_marseille","lat":43.29083,"lon":5.37165,"is_reserved":false,"is_disabled":false,"rental_uris":{"android":"levelo://app?vid=5b00b803-9fca-4e4f-b292-c98a358550d6","ios":"levelo://app?vid=5b00b803-9fca-4e4f-b292-c98a358550d6"},"vehicle_type_id":"4","last_reported":1729167441,"current_range_meters":3600,"station_id":"ce4bh5p2rcd13ifvqe4g","pricing_plan_id":"cebpf4jnsgd1na2vs0mg"},{"bike_id":"6d942d43-2f0d-466e-89d7-2d8199d234bb","system_id":"levelo_inurba_marseille","lat":43.27674,"lon":5.38867,"is_reserved":false,"is_disabled":false,"rental_uris":{"android":"levelo://app?vid=6d942d43-2f0d-466e-89d7-2d8199d234bb","ios":"levelo://app?vid=6d942d43-2f0d-466e-89d7-2d8199d234bb"},"vehicle_type_id":"4","last_reported":1729167441,"current_range_meters":8800,"station_id":"ce4bhi12rcd13ifvqfo0","pricing_plan_id":"cebpf4jnsgd1na2vs0mg"},{"bike_id":"5a673800-fe7e-445f-bd0e-ba4725b8a4e8","system_id":"levelo_inurba_marseille","lat":43.2955,"lon":5.4228,"is_reserved":false,"is_disabled":false,"rental_uris":{"android":"levelo://app?vid=5a673800-fe7e-445f-bd0e-ba4725b8a4e8","ios":"levelo://app?vid=5a673800-fe7e-445f-bd0e-ba4725b8a4e8"},"vehicle_type_id":"4","last_reported":1729167441,"current_range_meters":36400,"station_id":"ce4bhph2rcd13ifvqhdg","pricing_plan_id":"cebpf4jnsgd1na2vs0mg"},{"bike_id":"41781d3d-941e-4140-a86a-14bc69c69dfd","system_id":"levelo_inurba_marseille","lat":43.24079,"lon":5.37725,"is_reserved":false,"is_disabled":false,"rental_uris":{"android":"levelo://app?vid=41781d3d-941e-4140-a86a-14bc69c69dfd","ios":"levelo://app?vid=41781d3d-941e-4140-a86a-14bc69c69dfd"},"vehicle_type_id":"4","last_reported":1729167441,"current_range_meters":13600,"station_id":"ce4bhnp2rcd13ifvqgvg","pricing_plan_id":"cebpf4jnsgd1na2vs0mg"},{"bike_id":"9017ebab-2a4e-43ae-8463-1ca88d5b4ec6","system_id":"levelo_inurba_marseille","lat":43.30181,"lon":5.3661,"is_reserved":false,"is_disabled":false,"rental_uris":{"android":"levelo://app?vid=9017ebab-2a4e-43ae-8463-1ca88d5b4ec6","ios":"levelo://app?vid=9017ebab-2a4e-43ae-8463-1ca88d5b4ec6"},"vehicle_type_id":"4","last_reported":1729167441,"current_range_meters":22800,"station_id":"ce4bgrh2rcd13ifvqc8g","pricing_plan_id":"cebpf4jnsgd1na2vs0mg"},{"bike_id":"9620fd44-1a5e-4cd0-b47f-1054b4c38ea0","system_id":"levelo_inurba_marseille","lat":43.30186,"lon":5.36608,"is_reserved":false,"is_disabled":false,"rental_uris":{"android":"levelo://app?vid=9620fd44-1a5e-4cd0-b47f-1054b4c38ea0","ios":"levelo://app?vid=9620fd44-1a5e-4cd0-b47f-1054b4c38ea0"},"vehicle_type_id":"4","last_reported":1729167441,"current_range_meters":33200,"station_id":"ce4bgrh2rcd13ifvqc8g","pricing_plan_id":"cebpf4jnsgd1na2vs0mg"},{"bike_id":"3664398f-378f-46f2-bd12-30042ad8db9d","system_id":"levelo_inurba_marseille","lat":43.23189,"lon":5.39969,"is_reserved":false,"is_disabled":false,"rental_uris":{"android":"levelo://app?vid=3664398f-378f-46f2-bd12-30042ad8db9d","ios":"levelo://app?vid=3664398f-378f-46f2-bd12-30042ad8db9d"},"vehicle_type_id":"4","last_reported":1729167441,"current_range_meters":34800,"station_id":"ce4bhn12rcd13ifvqgqg","pricing_plan_id":"cebpf4jnsgd1na2vs0mg"},{"bike_id":"507f454f-ca5c-4ce1-8d3e-3581fd751fa1","system_id":"levelo_inurba_marseille","lat":43.2781,"lon":5.40712,"is_reserved":false,"is_disabled":false,"rental_uris":{"android":"levelo://app?vid=507f454f-ca5c-4ce1-8d3e-3581fd751fa1","ios":"levelo://app?vid=507f454f-ca5c-4ce1-8d3e-3581fd751fa1"},"vehicle_type_id":"4","last_reported":1729167441,"current_range_meters":18000,"station_id":"ce4bhnh2rcd13ifvqgtg","pricing_plan_id":"cebpf4jnsgd1na2vs0mg"},{"bike_id":"99183a40-a703-4842-823a-b783ef0459f5","system_id":"levelo_inurba_marseille","lat":43.27832,"lon":5.39208,"is_reserved":false,"is_disabled":false,"rental_uris":{"android":"levelo://app?vid=99183a40-a703-4842-823a-b783ef0459f5","ios":"levelo://app?vid=99183a40-a703-4842-823a-b783ef0459f5"},"vehicle_type_id":"4","last_reported":1729167441,"current_range_meters":36400,"station_id":"ce4bhjp2rcd13ifvqga0","pricing_plan_id":"cebpf4jnsgd1na2vs0mg"},{"bike_id":"a9d80141-cb04-4f88-bcc5-9763572e3517","system_id":"levelo_inurba_marseille","lat":43.23194,"lon":5.35544,"is_reserved":false,"is_disabled":false,"rental_uris":{"android":"levelo://app?vid=a9d80141-cb04-4f88-bcc5-9763572e3517","ios":"levelo://app?vid=a9d80141-cb04-4f88-bcc5-9763572e3517"},"vehicle_type_id":"4","last_reported":1729167441,"current_range_meters":33600,"station_id":"ce4bhu92rcd13ifvqi70","pricing_plan_id":"cebpf4jnsgd1na2vs0mg"},{"bike_id":"e0db5bd3-d427-4f9e-b1f3-02dd007c7e39","system_id":"levelo_inurba_marseille","lat":43.24394,"lon":5.37055,"is_reserved":false,"is_disabled":false,"rental_uris":{"android":"levelo://app?vid=e0db5bd3-d427-4f9e-b1f3-02dd007c7e39","ios":"levelo://app?vid=e0db5bd3-d427-4f9e-b1f3-02dd007c7e39"},"vehicle_type_id":"4","last_reported":1729167441,"current_range_meters":20400,"station_id":"ce4bhhh2rcd13ifvqfk0","pricing_plan_id":"cebpf4jnsgd1na2vs0mg"},{"bike_id":"35a22db4-7e9d-4709-be91-f373b0a75e57","system_id":"levelo_inurba_marseille","lat":43.33756,"lon":5.37446,"is_reserved":false,"is_disabled":false,"rental_uris":{"android":"levelo://app?vid=35a22db4-7e9d-4709-be91-f373b0a75e57","ios":"levelo://app?vid=35a22db4-7e9d-4709-be91-f373b0a75e57"},"vehicle_type_id":"4","last_reported":1729167441,"current_range_meters":32800,"station_id":"","pricing_plan_id":"cebpf4jnsgd1na2vs0mg"},{"bike_id":"f22c1908-69f5-45db-8f97-f2327a5f4577","system_id":"levelo_inurba_marseille","lat":43.26943,"lon":5.40244,"is_reserved":false,"is_disabled":false,"rental_uris":{"android":"levelo://app?vid=f22c1908-69f5-45db-8f97-f2327a5f4577","ios":"levelo://app?vid=f22c1908-69f5-45db-8f97-f2327a5f4577"},"vehicle_type_id":"4","last_reported":1729167441,"current_range_meters":10000,"station_id":"cjm6bp8fraef2m0cb0m0","pricing_plan_id":"cebpf4jnsgd1na2vs0mg"},{"bike_id":"9dd72363-c653-418f-b515-6fa6401cd721","system_id":"levelo_inurba_marseille","lat":43.26957,"lon":5.38632,"is_reserved":false,"is_disabled":false,"rental_uris":{"android":"levelo://app?vid=9dd72363-c653-418f-b515-6fa6401cd721","ios":"levelo://app?vid=9dd72363-c653-418f-b515-6fa6401cd721"},"vehicle_type_id":"4","last_reported":1729167441,"current_range_meters":8000,"station_id":"ce4bhh92rcd13ifvqfh0","pricing_plan_id":"cebpf4jnsgd1na2vs0mg"},{"bike_id":"8cd1ee5d-4ed4-4e51-80b7-5217c7193adc","system_id":"levelo_inurba_marseille","lat":43.28713,"lon":5.37927,"is_reserved":false,"is_disabled":false,"rental_uris":{"android":"levelo://app?vid=8cd1ee5d-4ed4-4e51-80b7-5217c7193adc","ios":"levelo://app?vid=8cd1ee5d-4ed4-4e51-80b7-5217c7193adc"},"vehicle_type_id":"4","last_reported":1729167441,"current_range_meters":8400,"station_id":"ce4bh9p2rcd13ifvqec0","pricing_plan_id":"cebpf4jnsgd1na2vs0mg"},{"bike_id":"3ccc4e7b-dee9-4897-81c9-16461f19ee2b","system_id":"levelo_inurba_marseille","lat":43.2872,"lon":5.37928,"is_reserved":false,"is_disabled":false,"rental_uris":{"android":"levelo://app?vid=3ccc4e7b-dee9-4897-81c9-16461f19ee2b","ios":"levelo://app?vid=3ccc4e7b-dee9-4897-81c9-16461f19ee2b"},"vehicle_type_id":"4","last_reported":1729167441,"current_range_meters":40000,"station_id":"ce4bh9p2rcd13ifvqec0","pricing_plan_id":"cebpf4jnsgd1na2vs0mg"},{"bike_id":"716acd60-0f86-41bc-8e8d-9098a52a4d45","system_id":"levelo_inurba_marseille","lat":43.33025,"lon":5.39044,"is_reserved":false,"is_disabled":false,"rental_uris":{"android":"levelo://app?vid=716acd60-0f86-41bc-8e8d-9098a52a4d45","ios":"levelo://app?vid=716acd60-0f86-41bc-8e8d-9098a52a4d45"},"vehicle_type_id":"4","last_reported":1729167441,"current_range_meters":18800,"station_id":"ce4bhr92rcd13ifvqhrg","pricing_plan_id":"cebpf4jnsgd1na2vs0mg"},{"bike_id":"4ce6a8a4-f543-406e-9b3b-bf69a485e2ff","system_id":"levelo_inurba_marseille","lat":43.24652,"lon":5.38894,"is_reserved":false,"is_disabled":false,"rental_uris":{"android":"levelo://app?vid=4ce6a8a4-f543-406e-9b3b-bf69a485e2ff","ios":"levelo://app?vid=4ce6a8a4-f543-406e-9b3b-bf69a485e2ff"},"vehicle_type_id":"4","last_reported":1729167441,"current_range_meters":32000,"station_id":"ce4bhg12rcd13ifvqf60","pricing_plan_id":"cebpf4jnsgd1na2vs0mg"},{"bike_id":"0b3e7fd6-2511-4337-b5d2-b8304124bef5","system_id":"levelo_inurba_marseille","lat":43.25925,"lon":5.40911,"is_reserved":false,"is_disabled":false,"rental_uris":{"android":"levelo://app?vid=0b3e7fd6-2511-4337-b5d2-b8304124bef5","ios":"levelo://app?vid=0b3e7fd6-2511-4337-b5d2-b8304124bef5"},"vehicle_type_id":"4","last_reported":1729167441,"current_range_meters":24800,"station_id":"ce4bhm92rcd13ifvqglg","pricing_plan_id":"cebpf4jnsgd1na2vs0mg"},{"bike_id":"e31979d7-6766-477e-a53b-2e3ee3d85656","system_id":"levelo_inurba_marseille","lat":43.31336,"lon":5.39689,"is_reserved":false,"is_disabled":false,"rental_uris":{"android":"levelo://app?vid=e31979d7-6766-477e-a53b-2e3ee3d85656","ios":"levelo://app?vid=e31979d7-6766-477e-a53b-2e3ee3d85656"},"vehicle_type_id":"4","last_reported":1729167441,"current_range_meters":11600,"station_id":"ce4bgvp2rcd13ifvqcu0","pricing_plan_id":"cebpf4jnsgd1na2vs0mg"},{"bike_id":"baf70069-8411-4af8-8e51-a77ed351827d","system_id":"levelo_inurba_marseille","lat":43.25589,"lon":5.382359,"is_reserved":false,"is_disabled":false,"rental_uris":{"android":"levelo://app?vid=baf70069-8411-4af8-8e51-a77ed351827d","ios":"levelo://app?vid=baf70069-8411-4af8-8e51-a77ed351827d"},"vehicle_type_id":"4","last_reported":1729167441,"current_range_meters":2800,"station_id":"ce4bhh92rcd13ifvqfi0","pricing_plan_id":"cebpf4jnsgd1na2vs0mg"},{"bike_id":"d41309ab-1a1f-4395-acaa-455483c3f8e1","system_id":"levelo_inurba_marseille","lat":43.23194,"lon":5.35559,"is_reserved":false,"is_disabled":false,"rental_uris":{"android":"levelo://app?vid=d41309ab-1a1f-4395-acaa-455483c3f8e1","ios":"levelo://app?vid=d41309ab-1a1f-4395-acaa-455483c3f8e1"},"vehicle_type_id":"4","last_reported":1729167441,"current_range_meters":36800,"station_id":"ce4bhu92rcd13ifvqi70","pricing_plan_id":"cebpf4jnsgd1na2vs0mg"},{"bike_id":"fc9cc624-b42b-48e4-8103-4b39b2ecb0b7","system_id":"levelo_inurba_marseille","lat":43.27817,"lon":5.40712,"is_reserved":false,"is_disabled":false,"rental_uris":{"android":"levelo://app?vid=fc9cc624-b42b-48e4-8103-4b39b2ecb0b7","ios":"levelo://app?vid=fc9cc624-b42b-48e4-8103-4b39b2ecb0b7"},"vehicle_type_id":"4","last_reported":1729167441,"current_range_meters":38800,"station_id":"ce4bhnh2rcd13ifvqgtg","pricing_plan_id":"cebpf4jnsgd1na2vs0mg"},{"bike_id":"3125f22b-abc1-4b84-8bf2-d6cfbe688a4a","system_id":"levelo_inurba_marseille","lat":43.33774,"lon":5.37411,"is_reserved":false,"is_disabled":false,"rental_uris":{"android":"levelo://app?vid=3125f22b-abc1-4b84-8bf2-d6cfbe688a4a","ios":"levelo://app?vid=3125f22b-abc1-4b84-8bf2-d6cfbe688a4a"},"vehicle_type_id":"4","last_reported":1729167441,"current_range_meters":38800,"station_id":"","pricing_plan_id":"cebpf4jnsgd1na2vs0mg"},{"bike_id":"b300face-31f3-43f7-93aa-140c9145e841","system_id":"levelo_inurba_marseille","lat":43.3092,"lon":5.36846,"is_reserved":false,"is_disabled":false,"rental_uris":{"android":"levelo://app?vid=b300face-31f3-43f7-93aa-140c9145e841","ios":"levelo://app?vid=b300face-31f3-43f7-93aa-140c9145e841"},"vehicle_type_id":"4","last_reported":1729167441,"current_range_meters":28400,"station_id":"ce4bgn92rcd13ifvqbvg","pricing_plan_id":"cebpf4jnsgd1na2vs0mg"},{"bike_id":"2dd21b36-b488-441a-a25c-f8c2af01cc94","system_id":"levelo_inurba_marseille","lat":43.30543,"lon":5.36533,"is_reserved":false,"is_disabled":false,"rental_uris":{"android":"levelo://app?vid=2dd21b36-b488-441a-a25c-f8c2af01cc94","ios":"levelo://app?vid=2dd21b36-b488-441a-a25c-f8c2af01cc94"},"vehicle_type_id":"4","last_reported":1729167441,"current_range_meters":26800,"station_id":"ce4bgs12rcd13ifvqcag","pricing_plan_id":"cebpf4jnsgd1na2vs0mg"},{"bike_id":"d7549997-4341-483a-8fd9-86b42a4b9e0d","system_id":"levelo_inurba_marseille","lat":43.31714,"lon":5.43707,"is_reserved":false,"is_disabled":false,"rental_uris":{"android":"levelo://app?vid=d7549997-4341-483a-8fd9-86b42a4b9e0d","ios":"levelo://app?vid=d7549997-4341-483a-8fd9-86b42a4b9e0d"},"vehicle_type_id":"4","last_reported":1729167441,"current_range_meters":36000,"station_id":"ce4bhp92rcd13ifvqhcg","pricing_plan_id":"cebpf4jnsgd1na2vs0mg"},{"bike_id":"4735c182-fae7-4da8-b138-a729e25afc13","system_id":"levelo_inurba_marseille","lat":43.29714,"lon":5.36602,"is_reserved":false,"is_disabled":false,"rental_uris":{"android":"levelo://app?vid=4735c182-fae7-4da8-b138-a729e25afc13","ios":"levelo://app?vid=4735c182-fae7-4da8-b138-a729e25afc13"},"vehicle_type_id":"4","last_reported":1729167441,"current_range_meters":28000,"station_id":"ce4bgn12rcd13ifvqbt0","pricing_plan_id":"cebpf4jnsgd1na2vs0mg"},{"bike_id":"a0c122e3-af93-4618-bbe9-09704639de9c","system_id":"levelo_inurba_marseille","lat":43.25929,"lon":5.40905,"is_reserved":false,"is_disabled":false,"rental_uris":{"android":"levelo://app?vid=a0c122e3-af93-4618-bbe9-09704639de9c","ios":"levelo://app?vid=a0c122e3-af93-4618-bbe9-09704639de9c"},"vehicle_type_id":"4","last_reported":1729167441,"current_range_meters":16400,"station_id":"ce4bhm92rcd13ifvqglg","pricing_plan_id":"cebpf4jnsgd1na2vs0mg"},{"bike_id":"6417d612-57e0-4d8f-9c33-e2f5630bbfc3","system_id":"levelo_inurba_marseille","lat":43.29452,"lon":5.39742,"is_reserved":false,"is_disabled":false,"rental_uris":{"android":"levelo://app?vid=6417d612-57e0-4d8f-9c33-e2f5630bbfc3","ios":"levelo://app?vid=6417d612-57e0-4d8f-9c33-e2f5630bbfc3"},"vehicle_type_id":"4","last_reported":1729167441,"current_range_meters":38400,"station_id":"ce4bh3h2rcd13ifvqdo0","pricing_plan_id":"cebpf4jnsgd1na2vs0mg"},{"bike_id":"a8daef43-5a21-4776-8b76-60c76a8caefc","system_id":"levelo_inurba_marseille","lat":43.2781,"lon":5.4071,"is_reserved":false,"is_disabled":false,"rental_uris":{"android":"levelo://app?vid=a8daef43-5a21-4776-8b76-60c76a8caefc","ios":"levelo://app?vid=a8daef43-5a21-4776-8b76-60c76a8caefc"},"vehicle_type_id":"4","last_reported":1729167441,"current_range_meters":6400,"station_id":"ce4bhnh2rcd13ifvqgtg","pricing_plan_id":"cebpf4jnsgd1na2vs0mg"},{"bike_id":"c034bb6e-bc71-4d55-bc8f-ba63cd332fe3","system_id":"levelo_inurba_marseille","lat":43.23148,"lon":5.43716,"is_reserved":false,"is_disabled":false,"rental_uris":{"android":"levelo://app?vid=c034bb6e-bc71-4d55-bc8f-ba63cd332fe3","ios":"levelo://app?vid=c034bb6e-bc71-4d55-bc8f-ba63cd332fe3"},"vehicle_type_id":"4","last_reported":1729167441,"current_range_meters":24000,"station_id":"ce4bhmp2rcd13ifvqgog","pricing_plan_id":"cebpf4jnsgd1na2vs0mg"},{"bike_id":"033a7f68-f273-426e-84a9-8a3b2c56f6f5","system_id":"levelo_inurba_marseille","lat":43.34466,"lon":5.39038,"is_reserved":false,"is_disabled":false,"rental_uris":{"android":"levelo://app?vid=033a7f68-f273-426e-84a9-8a3b2c56f6f5","ios":"levelo://app?vid=033a7f68-f273-426e-84a9-8a3b2c56f6f5"},"vehicle_type_id":"4","last_reported":1729167441,"current_range_meters":10000,"station_id":"","pricing_plan_id":"cebpf4jnsgd1na2vs0mg"},{"bike_id":"3bf13e05-4503-43f3-a6a2-f38b743ff2ee","system_id":"levelo_inurba_marseille","lat":43.30918,"lon":5.3685,"is_reserved":false,"is_disabled":false,"rental_uris":{"android":"levelo://app?vid=3bf13e05-4503-43f3-a6a2-f38b743ff2ee","ios":"levelo://app?vid=3bf13e05-4503-43f3-a6a2-f38b743ff2ee"},"vehicle_type_id":"4","last_reported":1729167441,"current_range_meters":22400,"station_id":"ce4bgn92rcd13ifvqbvg","pricing_plan_id":"cebpf4jnsgd1na2vs0mg"},{"bike_id":"1af2813b-98a0-4b62-aaf8-89652b30f639","system_id":"levelo_inurba_marseille","lat":43.22934,"lon":5.35385,"is_reserved":false,"is_disabled":false,"rental_uris":{"android":"levelo://app?vid=1af2813b-98a0-4b62-aaf8-89652b30f639","ios":"levelo://app?vid=1af2813b-98a0-4b62-aaf8-89652b30f639"},"vehicle_type_id":"4","last_reported":1729167441,"current_range_meters":18800,"station_id":"cpo3532slgdg3j2ikp40","pricing_plan_id":"cebpf4jnsgd1na2vs0mg"},{"bike_id":"e9c7f9fc-b1e5-43b0-8828-fe7f420651b6","system_id":"levelo_inurba_marseille","lat":43.29553,"lon":5.42281,"is_reserved":false,"is_disabled":false,"rental_uris":{"android":"levelo://app?vid=e9c7f9fc-b1e5-43b0-8828-fe7f420651b6","ios":"levelo://app?vid=e9c7f9fc-b1e5-43b0-8828-fe7f420651b6"},"vehicle_type_id":"4","last_reported":1729167441,"current_range_meters":38000,"station_id":"ce4bhph2rcd13ifvqhdg","pricing_plan_id":"cebpf4jnsgd1na2vs0mg"},{"bike_id":"602e5e58-509e-4cc1-b870-b600598e3b10","system_id":"levelo_inurba_marseille","lat":43.2957,"lon":5.42292,"is_reserved":false,"is_disabled":false,"rental_uris":{"android":"levelo://app?vid=602e5e58-509e-4cc1-b870-b600598e3b10","ios":"levelo://app?vid=602e5e58-509e-4cc1-b870-b600598e3b10"},"vehicle_type_id":"4","last_reported":1729167441,"current_range_meters":17600,"station_id":"ce4bhph2rcd13ifvqhdg","pricing_plan_id":"cebpf4jnsgd1na2vs0mg"},{"bike_id":"3f036ca2-87fd-4e7f-b1b9-ffc2f33ba3d5","system_id":"levelo_inurba_marseille","lat":43.31712,"lon":5.43704,"is_reserved":false,"is_disabled":false,"rental_uris":{"android":"levelo://app?vid=3f036ca2-87fd-4e7f-b1b9-ffc2f33ba3d5","ios":"levelo://app?vid=3f036ca2-87fd-4e7f-b1b9-ffc2f33ba3d5"},"vehicle_type_id":"4","last_reported":1729167441,"current_range_meters":9200,"station_id":"ce4bhp92rcd13ifvqhcg","pricing_plan_id":"cebpf4jnsgd1na2vs0mg"},{"bike_id":"f93454e1-a669-4c63-a4ca-b572042c7971","system_id":"levelo_inurba_marseille","lat":43.231962,"lon":5.355504,"is_reserved":false,"is_disabled":false,"rental_uris":{"android":"levelo://app?vid=f93454e1-a669-4c63-a4ca-b572042c7971","ios":"levelo://app?vid=f93454e1-a669-4c63-a4ca-b572042c7971"},"vehicle_type_id":"4","last_reported":1729167441,"current_range_meters":14400,"station_id":"ce4bhu92rcd13ifvqi70","pricing_plan_id":"cebpf4jnsgd1na2vs0mg"},{"bike_id":"d5e0820e-3581-4bc9-b49c-186aa92cf5c8","system_id":"levelo_inurba_marseille","lat":43.30456,"lon":5.37891,"is_reserved":false,"is_disabled":false,"rental_uris":{"android":"levelo://app?vid=d5e0820e-3581-4bc9-b49c-186aa92cf5c8","ios":"levelo://app?vid=d5e0820e-3581-4bc9-b49c-186aa92cf5c8"},"vehicle_type_id":"4","last_reported":1729167441,"current_range_meters":26800,"station_id":"ce4bgup2rcd13ifvqcn0","pricing_plan_id":"cebpf4jnsgd1na2vs0mg"},{"bike_id":"df4708b0-837f-45c8-b7af-b567d0539970","system_id":"levelo_inurba_marseille","lat":43.24073,"lon":5.37756,"is_reserved":false,"is_disabled":false,"rental_uris":{"android":"levelo://app?vid=df4708b0-837f-45c8-b7af-b567d0539970","ios":"levelo://app?vid=df4708b0-837f-45c8-b7af-b567d0539970"},"vehicle_type_id":"4","last_reported":1729167441,"current_range_meters":36800,"station_id":"ce4bhnp2rcd13ifvqgvg","pricing_plan_id":"cebpf4jnsgd1na2vs0mg"},{"bike_id":"401d617b-728a-48eb-a46c-64c291dfb0af","system_id":"levelo_inurba_marseille","lat":43.29529,"lon":5.39035,"is_reserved":false,"is_disabled":false,"rental_uris":{"android":"levelo://app?vid=401d617b-728a-48eb-a46c-64c291dfb0af","ios":"levelo://app?vid=401d617b-728a-48eb-a46c-64c291dfb0af"},"vehicle_type_id":"4","last_reported":1729167441,"current_range_meters":38800,"station_id":"ce4bh3p2rcd13ifvqdp0","pricing_plan_id":"cebpf4jnsgd1na2vs0mg"},{"bike_id":"e5443f6e-cf86-41b8-b509-b4b3b9d31612","system_id":"levelo_inurba_marseille","lat":43.31338,"lon":5.36717,"is_reserved":false,"is_disabled":false,"rental_uris":{"android":"levelo://app?vid=e5443f6e-cf86-41b8-b509-b4b3b9d31612","ios":"levelo://app?vid=e5443f6e-cf86-41b8-b509-b4b3b9d31612"},"vehicle_type_id":"4","last_reported":1729167441,"current_range_meters":32400,"station_id":"ce4bgr92rcd13ifvqc6g","pricing_plan_id":"cebpf4jnsgd1na2vs0mg"},{"bike_id":"0c0a4b97-6821-4f94-83a2-94bdb7d90891","system_id":"levelo_inurba_marseille","lat":43.33746,"lon":5.37435,"is_reserved":false,"is_disabled":false,"rental_uris":{"android":"levelo://app?vid=0c0a4b97-6821-4f94-83a2-94bdb7d90891","ios":"levelo://app?vid=0c0a4b97-6821-4f94-83a2-94bdb7d90891"},"vehicle_type_id":"4","last_reported":1729167441,"current_range_meters":4400,"station_id":"","pricing_plan_id":"cebpf4jnsgd1na2vs0mg"},{"bike_id":"c591cf4d-78d0-444f-9b4d-87b883a6d35a","system_id":"levelo_inurba_marseille","lat":43.24671,"lon":5.38163,"is_reserved":false,"is_disabled":false,"rental_uris":{"android":"levelo://app?vid=c591cf4d-78d0-444f-9b4d-87b883a6d35a","ios":"levelo://app?vid=c591cf4d-78d0-444f-9b4d-87b883a6d35a"},"vehicle_type_id":"4","last_reported":1729167441,"current_range_meters":8000,"station_id":"ce4bhih2rcd13ifvqfr0","pricing_plan_id":"cebpf4jnsgd1na2vs0mg"},{"bike_id":"bece30ce-b146-4a01-aaf0-293fb590bedc","system_id":"levelo_inurba_marseille","lat":43.26684,"lon":5.38267,"is_reserved":false,"is_disabled":false,"rental_uris":{"android":"levelo://app?vid=bece30ce-b146-4a01-aaf0-293fb590bedc","ios":"levelo://app?vid=bece30ce-b146-4a01-aaf0-293fb590bedc"},"vehicle_type_id":"4","last_reported":1729167441,"current_range_meters":26000,"station_id":"ce4bhg92rcd13ifvqf90","pricing_plan_id":"cebpf4jnsgd1na2vs0mg"},