{"last_updated":1726430929,"ttl":30,"version":"2.2","data":{"bikes":[{"bike_id":"21f0f158-5ee2-490d-9587-1c1786b6b1ee","system_id":"levelo_inurba_marseille","lat":43.29901,"lon":5.39758,"is_reserved":false,"is_disabled":false,"rental_uris":{"android":"levelo://app?vid=21f0f158-5ee2-490d-9587-1c1786b6b1ee","ios":"levelo://app?vid=21f0f158-5ee2-490d-9587-1c1786b6b1ee"},"vehicle_type_id":"4","last_reported":1726430930,"current_range_meters":13600,"station_id":"ce4bh0h2rcd13ifvqd50","pricing_plan_id":"cebpf4jnsgd1na2vs0mg"},{"bike_id":"6dd4463d-1213-451d-a6c0-a74ae3952cc9","system_id":"levelo_inurba_marseille","lat":43.29893,"lon":5.43664,"is_reserved":false,"is_disabled":false,"rental_uris":{"android":"levelo://app?vid=6dd4463d-1213-451d-a6c0-a74ae3952cc9","ios":"levelo://app?vid=6dd4463d-1213-451d-a6c0-a74ae3952cc9"},"vehicle_type_id":"4","last_reported":1726430930,"current_range_meters":35600,"station_id":"ce4bhpp2rcd13ifvqhfg","pricing_plan_id":"cebpf4jnsgd1na2vs0mg"},{"bike_id":"5440ae72-f8d2-4dc7-b6cd-9b12f1ca8829","system_id":"levelo_inurba_marseille","lat":43.29877,"lon":5.39762,"is_reserved":false,"is_disabled":false,"rental_uris":{"android":"levelo://app?vid=5440ae72-f8d2-4dc7-b6cd-9b12f1ca8829","ios":"levelo://app?vid=5440ae72-f8d2-4dc7-b6cd-9b12f1ca8829"},"vehicle_type_id":"4","last_reported":1726430930,"current_range_meters":39200,"station_id":"ce4bh0h2rcd13ifvqd50","pricing_plan_id":"cebpf4jnsgd1na2vs0mg"},{"bike_id":"48a82de2-7872-40cb-b1bf-43e70b76834b","system_id":"levelo_inurba_marseille","lat":43.31294,"lon":5.37812,"is_reserved":false,"is_disabled":false,"rental_uris":{"android":"levelo://app?vid=48a82de2-7872-40cb-b1bf-43e70b76834b","ios":"levelo://app?vid=48a82de2-7872-40cb-b1bf-43e70b76834b"},"vehicle_type_id":"4","last_reported":1726430930,"current_range_meters":32400,"station_id":"","pricing_plan_id":"cebpf4jnsgd1na2vs0mg"},{"bike_id":"0570d0ab-400c-4841-ae7d-6dc8ddc13032","system_id":"levelo_inurba_marseille","lat":43.29535,"lon":5.39044,"is_reserved":false,"is_disabled":false,"rental_uris":{"android":"levelo://app?vid=0570d0ab-400c-4841-ae7d-6dc8ddc13032","ios":"levelo://app?vid=0570d0ab-400c-4841-ae7d-6dc8ddc13032"},"vehicle_type_id":"4","last_reported":1726430930,"current_range_meters":16400,"station_id":"ce4bh3p2rcd13ifvqdp0","pricing_plan_id":"cebpf4jnsgd1na2vs0mg"},{"bike_id":"cbcb9251-3d0e-4d7c-9000-b759b8955053","system_id":"levelo_inurba_marseille","lat":43.31124,"lon":5.37748,"is_reserved":false,"is_disabled":false,"rental_uris":{"android":"levelo://app?vid=cbcb9251-3d0e-4d7c-9000-b759b8955053","ios":"levelo://app?vid=cbcb9251-3d0e-4d7c-9000-b759b8955053"},"vehicle_type_id":"4","last_reported":1726430930,"current_range_meters":38800,"station_id":"ce4bgt92rcd13ifvqcg0","pricing_plan_id":"cebpf4jnsgd1na2vs0mg"},{"bike_id":"35d737be-72e2-4a47-b9f4-508f6d1ff612","system_id":"levelo_inurba_marseille","lat":43.25118,"lon":5.40318,"is_reserved":false,"is_disabled":false,"rental_uris":{"android":"levelo://app?vid=35d737be-72e2-4a47-b9f4-508f6d1ff612","ios":"levelo://app?vid=35d737be-72e2-4a47-b9f4-508f6d1ff612"},"vehicle_type_id":"4","last_reported":1726430930,"current_range_meters":12800,"station_id":"ce4bhlh2rcd13ifvqgig","pricing_plan_id":"cebpf4jnsgd1na2vs0mg"},{"bike_id":"491f625c-672a-429b-adf2-44db696ce223","system_id":"levelo_inurba_marseille","lat":43.24811,"lon":5.37454,"is_reserved":false,"is_disabled":false,"rental_uris":{"android":"levelo://app?vid=491f625c-672a-429b-adf2-44db696ce223","ios":"levelo://app?vid=491f625c-672a-429b-adf2-44db696ce223"},"vehicle_type_id":"4","last_reported":1726430930,"current_range_meters":8800,"station_id":"ce4bhgh2rcd13ifvqfb0","pricing_plan_id":"cebpf4jnsgd1na2vs0mg"},{"bike_id":"13238c57-c721-4854-9827-b08b1c3919ac","system_id":"levelo_inurba_marseille","lat":43.29557,"lon":5.42294,"is_reserved":false,"is_disabled":false,"rental_uris":{"android":"levelo://app?vid=13238c57-c721-4854-9827-b08b1c3919ac","ios":"levelo://app?vid=13238c57-c721-4854-9827-b08b1c3919ac"},"vehicle_type_id":"4","last_reported":1726430930,"current_range_meters":28800,"station_id":"ce4bhph2rcd13ifvqhdg","pricing_plan_id":"cebpf4jnsgd1na2vs0mg"},{"bike_id":"a289131a-2c06-4e8e-bb01-7b7acbb9d180","system_id":"levelo_inurba_marseille","lat":43.30207,"lon":5.39466,"is_reserved":false,"is_disabled":false,"rental_uris":{"android":"levelo://app?vid=a289131a-2c06-4e8e-bb01-7b7acbb9d180","ios":"levelo://app?vid=a289131a-2c06-4e8e-bb01-7b7acbb9d180"},"vehicle_type_id":"4","last_reported":1726430930,"current_range_meters":2800,"station_id":"ce4bh0p2rcd13ifvqd70","pricing_plan_id":"cebpf4jnsgd1na2vs0mg"},{"bike_id":"892d6ba7-ec27-48aa-a06b-9fcc2866af0b","system_id":"levelo_inurba_marseille","lat":43.25928,"lon":5.40919,"is_reserved":false,"is_disabled":false,"rental_uris":{"android":"levelo://app?vid=892d6ba7-ec27-48aa-a06b-9fcc2866af0b","ios":"levelo://app?vid=892d6ba7-ec27-48aa-a06b-9fcc2866af0b"},"vehicle_type_id":"4","last_reported":1726430930,"current_range_meters":38800,"station_id":"ce4bhm92rcd13ifvqglg","pricing_plan_id":"cebpf4jnsgd1na2vs0mg"},{"bike_id":"634ac1d5-d66e-4401-b1dd-c3df0f2bd02a","system_id":"levelo_inurba_marseille","lat":43.27818,"lon":5.40715,"is_reserved":false,"is_disabled":false,"rental_uris":{"android":"levelo://app?vid=634ac1d5-d66e-4401-b1dd-c3df0f2bd02a","ios":"levelo://app?vid=634ac1d5-d66e-4401-b1dd-c3df0f2bd02a"},"vehicle_type_id":"4","last_reported":1726430930,"current_range_meters":33200,"station_id":"ce4bhnh2rcd13ifvqgtg","pricing_plan_id":"cebpf4jnsgd1na2vs0mg"},{"bike_id":"7c475990-5c91-40de-8e97-2ed5070be005","system_id":"levelo_inurba_marseille","lat":43.23032,"lon":5.401,"is_reserved":false,"is_disabled":false,"rental_uris":{"android":"levelo://app?vid=7c475990-5c91-40de-8e97-2ed5070be005","ios":"levelo://app?vid=7c475990-5c91-40de-8e97-2ed5070be005"},"vehicle_type_id":"4","last_reported":1726430930,"current_range_meters":36800,"station_id":"","pricing_plan_id":"cebpf4jnsgd1na2vs0mg"},{"bike_id":"b800a564-7762-460c-87d6-bed54efa7f97","system_id":"levelo_inurba_marseille","lat":43.30892,"lon":5.39639,"is_reserved":false,"is_disabled":false,"rental_uris":{"android":"levelo://app?vid=b800a564-7762-460c-87d6-bed54efa7f97","ios":"levelo://app?vid=b800a564-7762-460c-87d6-bed54efa7f97"},"vehicle_type_id":"4","last_reported":1726430930,"current_range_meters":38000,"station_id":"ce4bh012rcd13ifvqcv0","pricing_plan_id":"cebpf4jnsgd1na2vs0mg"},{"bike_id":"13ec4916-f0ea-4897-8afc-596425b42c42","system_id":"levelo_inurba_marseille","lat":43.23191,"lon":5.35555,"is_reserved":false,"is_disabled":false,"rental_uris":{"android":"levelo://app?vid=13ec4916-f0ea-4897-8afc-596425b42c42","ios":"levelo://app?vid=13ec4916-f0ea-4897-8afc-596425b42c42"},"vehicle_type_id":"4","last_reported":1726430930,"current_range_meters":20000,"station_id":"ce4bhu92rcd13ifvqi70","pricing_plan_id":"cebpf4jnsgd1na2vs0mg"},{"bike_id":"e8549387-9deb-4f66-b733-a7cdaa0db866","system_id":"levelo_inurba_marseille","lat":43.33021,"lon":5.3904,"is_reserved":false,"is_disabled":false,"rental_uris":{"android":"levelo://app?vid=e8549387-9deb-4f66-b733-a7cdaa0db866","ios":"levelo://app?vid=e8549387-9deb-4f66-b733-a7cdaa0db866"},"vehicle_type_id":"4","last_reported":1726430930,"current_range_meters":14400,"station_id":"ce4bhr92rcd13ifvqhrg","pricing_plan_id":"cebpf4jnsgd1na2vs0mg"},{"bike_id":"3a57dd91-1a95-424b-a54b-4da239084d75","system_id":"levelo_inurba_marseille","lat":43.28702,"lon":5.37948,"is_reserved":false,"is_disabled":false,"rental_uris":{"android":"levelo://app?vid=3a57dd91-1a95-424b-a54b-4da239084d75","ios":"levelo://app?vid=3a57dd91-1a95-424b-a54b-4da239084d75"},"vehicle_type_id":"4","last_reported":1726430930,"current_range_meters":38800,"station_id":"ce4bh9p2rcd13ifvqec0","pricing_plan_id":"cebpf4jnsgd1na2vs0mg"},{"bike_id":"2c47c24e-96d3-4e99-910a-98524d55c13a","system_id":"levelo_inurba_marseille","lat":43.28481,"lon":5.38533,"is_reserved":false,"is_disabled":false,"rental_uris":{"android":"levelo://app?vid=2c47c24e-96d3-4e99-910a-98524d55c13a","ios":"levelo://app?vid=2c47c24e-96d3-4e99-910a-98524d55c13a"},"vehicle_type_id":"4","last_reported":1726430930,"current_range_meters":36400,"station_id":"ce4bh8p2rcd13ifvqeb0","pricing_plan_id":"cebpf4jnsgd1na2vs0mg"},{"bike_id":"d9f05485-5ea4-48e7-907c-ec174e4eaff2","system_id":"levelo_inurba_marseille","lat":43.26941,"lon":5.40246,"is_reserved":false,"is_disabled":false,"rental_uris":{"android":"levelo://app?vid=d9f05485-5ea4-48e7-907c-ec174e4eaff2","ios":"levelo://app?vid=d9f05485-5ea4-48e7-907c-ec174e4eaff2"},"vehicle_type_id":"4","last_reported":1726430930,"current_range_meters":38800,"station_id":"cjm6bp8fraef2m0cb0m0","pricing_plan_id":"cebpf4jnsgd1na2vs0mg"},{"bike_id":"74c67d55-8a5f-40c9-8066-d68354718f8c","system_id":"levelo_inurba_marseille","lat":43.23189,"lon":5.35554,"is_reserved":false,"is_disabled":false,"rental_uris":{"android":"levelo://app?vid=74c67d55-8a5f-40c9-8066-d68354718f8c","ios":"levelo://app?vid=74c67d55-8a5f-40c9-8066-d68354718f8c"},"vehicle_type_id":"4","last_reported":1726430930,"current_range_meters":17600,"station_id":"ce4bhu92rcd13ifvqi70","pricing_plan_id":"cebpf4jnsgd1na2vs0mg"},{"bike_id":"6180efdf-3198-430d-bc12-feef85e7274e","system_id":"levelo_inurba_marseille","lat":43.25823,"lon":5.39438,"is_reserved":false,"is_disabled":false,"rental_uris":{"android":"levelo://app?vid=6180efdf-3198-430d-bc12-feef85e7274e","ios":"levelo://app?vid=6180efdf-3198-430d-bc12-feef85e7274e"},"vehicle_type_id":"4","last_reported":1726430930,"current_range_meters":37600,"station_id":"ce4bhip2rcd13ifvqft0","pricing_plan_id":"cebpf4jnsgd1na2vs0mg"},{"bike_id":"dfe82a79-9dcb-4e9d-98c8-0333bebdfc7a","system_id":"levelo_inurba_marseille","lat":43.31996,"lon":5.38164,"is_reserved":false,"is_disabled":false,"rental_uris":{"android":"levelo://app?vid=dfe82a79-9dcb-4e9d-98c8-0333bebdfc7a","ios":"levelo://app?vid=dfe82a79-9dcb-4e9d-98c8-0333bebdfc7a"},"vehicle_type_id":"4","last_reported":1726430930,"current_range_meters":4000,"station_id":"ce4bhr12rcd13ifvqhpg","pricing_plan_id":"cebpf4jnsgd1na2vs0mg"},{"bike_id":"212c501b-a753-4c1a-ba0c-b560582af171","system_id":"levelo_inurba_marseille","lat":43.29552,"lon":5.42289,"is_reserved":false,"is_disabled":false,"rental_uris":{"android":"levelo://app?vid=212c501b-a753-4c1a-ba0c-b560582af171","ios":"levelo://app?vid=212c501b-a753-4c1a-ba0c-b560582af171"},"vehicle_type_id":"4","last_reported":1726430930,"current_range_meters":17600,"station_id":"ce4bhph2rcd13ifvqhdg","pricing_plan_id":"cebpf4jnsgd1na2vs0mg"},{"bike_id":"2148c5a5-c93b-49c6-aa99-c95b5eeb2e84","system_id":"levelo_inurba_marseille","lat":43.28999,"lon":5.35618,"is_reserved":false,"is_disabled":false,"rental_uris":{"android":"levelo://app?vid=2148c5a5-c93b-49c6-aa99-c95b5eeb2e84","ios":"levelo://app?vid=2148c5a5-c93b-49c6-aa99-c95b5eeb2e84"},"vehicle_type_id":"4","last_reported":1726430930,"current_range_meters":38800,"station_id":"ce4bhb92rcd13ifvqen0","pricing_plan_id":"cebpf4jnsgd1na2vs0mg"},{"bike_id":"3e3246e1-ae74-4bc6-a702-31f453856170","system_id":"levelo_inurba_marseille","lat":43.31499,"lon":5.3731,"is_reserved":false,"is_disabled":false,"rental_uris":{"android":"levelo://app?vid=3e3246e1-ae74-4bc6-a702-31f453856170","ios":"levelo://app?vid=3e3246e1-ae74-4bc6-a702-31f453856170"},"vehicle_type_id":"4","last_reported":1726430930,"current_range_meters":36400,"station_id":"ce4bgt12rcd13ifvqcd0","pricing_plan_id":"cebpf4jnsgd1na2vs0mg"},{"bike_id":"9df403c3-53c3-47d4-91b9-94e0e8946522","system_id":"levelo_inurba_marseille","lat":43.28099,"lon":5.37839,"is_reserved":false,"is_disabled":false,"rental_uris":{"android":"levelo://app?vid=9df403c3-53c3-47d4-91b9-94e0e8946522","ios":"levelo://app?vid=9df403c3-53c3-47d4-91b9-94e0e8946522"},"vehicle_type_id":"4","last_reported":1726430930,"current_range_meters":27200,"station_id":"ce4bha12rcd13ifvqee0","pricing_plan_id":"cebpf4jnsgd1na2vs0mg"},{"bike_id":"cf705a6d-8fa3-4170-8d46-076c59b67666","system_id":"levelo_inurba_marseille","lat":43.2407,"lon":5.37763,"is_reserved":false,"is_disabled":false,"rental_uris":{"android":"levelo://app?vid=cf705a6d-8fa3-4170-8d46-076c59b67666","ios":"levelo://app?vid=cf705a6d-8fa3-4170-8d46-076c59b67666"},"vehicle_type_id":"4","last_reported":1726430930,"current_range_meters":20000,"station_id":"ce4bhnp2rcd13ifvqgvg","pricing_plan_id":"cebpf4jnsgd1na2vs0mg"},{"bike_id":"85e5e299-8873-43fe-8bad-d01447ee09ef","system_id":"levelo_inurba_marseille","lat":43.29513,"lon":5.3903,"is_reserved":false,"is_disabled":false,"rental_uris":{"android":"levelo://app?vid=85e5e299-8873-43fe-8bad-d01447ee09ef","ios":"levelo://app?vid=85e5e299-8873-43fe-8bad-d01447ee09ef"},"vehicle_type_id":"4","last_reported":1726430930,"current_range_meters":6800,"station_id":"ce4bh3p2rcd13ifvqdp0","pricing_plan_id":"cebpf4jnsgd1na2vs0mg"},{"bike_id":"40869c76-4f82-404f-9cdf-639196b728f9","system_id":"levelo_inurba_marseille","lat":43.28566,"lon":5.39507,"is_reserved":false,"is_disabled":false,"rental_uris":{"android":"levelo://app?vid=40869c76-4f82-404f-9cdf-639196b728f9","ios":"levelo://app?vid=40869c76-4f82-404f-9cdf-639196b728f9"},"vehicle_type_id":"4","last_reported":1726430930,"current_range_meters":22000,"station_id":"ce4bh292rcd13ifvqdg0","pricing_plan_id":"cebpf4jnsgd1na2vs0mg"},{"bike_id":"33e3b5af-e6bf-4a19-9a11-ee1b8b29314e","system_id":"levelo_inurba_marseille","lat":43.32337,"lon":5.40619,"is_reserved":false,"is_disabled":false,"rental_uris":{"android":"levelo://app?vid=33e3b5af-e6bf-4a19-9a11-ee1b8b29314e","ios":"levelo://app?vid=33e3b5af-e6bf-4a19-9a11-ee1b8b29314e"},"vehicle_type_id":"4","last_reported":1726430930,"current_range_meters":3200,"station_id":"ce4bhq92rcd13ifvqhjg","pricing_plan_id":"cebpf4jnsgd1na2vs0mg"},{"bike_id":"958689e9-93d3-4caa-ad47-66f185a26470","system_id":"levelo_inurba_marseille","lat":43.3179,"lon":5.37232,"is_reserved":false,"is_disabled":false,"rental_uris":{"android":"levelo://app?vid=958689e9-93d3-4caa-ad47-66f185a26470","ios":"levelo://app?vid=958689e9-93d3-4caa-ad47-66f185a26470"},"vehicle_type_id":"4","last_reported":1726430930,"current_range_meters":6000,"station_id":"","pricing_plan_id":"cebpf4jnsgd1na2vs0mg"},{"bike_id":"f3a216cf-054e-455e-bf11-ef4cc34cb623","system_id":"levelo_inurba_marseille","lat":43.29247,"lon":5.40899,"is_reserved":false,"is_disabled":false,"rental_uris":{"android":"levelo://app?vid=f3a216cf-054e-455e-bf11-ef4cc34cb623","ios":"levelo://app?vid=f3a216cf-054e-455e-bf11-ef4cc34cb623"},"vehicle_type_id":"4","last_reported":1726430930,"current_range_meters":38800,"station_id":"ce4bh192rcd13ifvqdc0","pricing_plan_id":"cebpf4jnsgd1na2vs0mg"},{"bike_id":"83c995e2-c90d-4126-8799-3247855d0482","system_id":"levelo_inurba_marseille","lat":43.2844,"lon":5.39187,"is_reserved":false,"is_disabled":false,"rental_uris":{"android":"levelo://app?vid=83c995e2-c90d-4126-8799-3247855d0482","ios":"levelo://app?vid=83c995e2-c90d-4126-8799-3247855d0482"},"vehicle_type_id":"4","last_reported":1726430930,"current_range_meters":22400,"station_id":"ce4bhoh2rcd13ifvqh5g","pricing_plan_id":"cebpf4jnsgd1na2vs0mg"},{"bike_id":"dc4b5412-3a9b-4e03-b646-bd7a7d4aaa0c","system_id":"levelo_inurba_marseille","lat":43.30252,"lon":5.40047,"is_reserved":false,"is_disabled":false,"rental_uris":{"android":"levelo://app?vid=dc4b5412-3a9b-4e03-b646-bd7a7d4aaa0c","ios":"levelo://app?vid=dc4b5412-3a9b-4e03-b646-bd7a7d4aaa0c"},"vehicle_type_id":"4","last_reported":1726430930,"current_range_meters":33200,"station_id":"ce4bgvh2rcd13ifvqcs0","pricing_plan_id":"cebpf4jnsgd1na2vs0mg"},{"bike_id":"08aeee95-fd1e-4362-8ad9-97d06ae834ce","system_id":"levelo_inurba_marseille","lat":43.31275,"lon":5.4017,"is_reserved":false,"is_disabled":false,"rental_uris":{"android":"levelo://app?vid=08aeee95-fd1e-4362-8ad9-97d06ae834ce","ios":"levelo://app?vid=08aeee95-fd1e-4362-8ad9-97d06ae834ce"},"vehicle_type_id":"4","last_reported":1726430930,"current_range_meters":19600,"station_id":"ce4bh092rcd13ifvqd30","pricing_plan_id":"cebpf4jnsgd1na2vs0mg"},{"bike_id":"1a01e9be-b5ec-4708-9a6a-d302a65a4a05","system_id":"levelo_inurba_marseille","lat":43.32287,"lon":5.38274,"is_reserved":false,"is_disabled":false,"rental_uris":{"android":"levelo://app?vid=1a01e9be-b5ec-4708-9a6a-d302a65a4a05","ios":"levelo://app?vid=1a01e9be-b5ec-4708-9a6a-d302a65a4a05"},"vehicle_type_id":"4","last_reported":1726430930,"current_range_meters":11600,"station_id":"ce4bhr12rcd13ifvqhqg","pricing_plan_id":"cebpf4jnsgd1na2vs0mg"},{"bike_id":"65c39d47-35a8-4ce9-a4a4-3bd4a7b85f73","system_id":"levelo_inurba_marseille","lat":43.30644,"lon":5.40081,"is_reserved":false,"is_disabled":false,"rental_uris":{"android":"levelo://app?vid=65c39d47-35a8-4ce9-a4a4-3bd4a7b85f73","ios":"levelo://app?vid=65c39d47-35a8-4ce9-a4a4-3bd4a7b85f73"},"vehicle_type_id":"4","last_reported":1726430930,"current_range_meters":5600,"station_id":"ce4bh112rcd13ifvqda0","pricing_plan_id":"cebpf4jnsgd1na2vs0mg"},{"bike_id":"b9297fd7-17b1-4121-9159-bffefe62afaa","system_id":"levelo_inurba_marseille","lat":43.28658,"lon":5.36363,"is_reserved":false,"is_disabled":false,"rental_uris":{"android":"levelo://app?vid=b9297fd7-17b1-4121-9159-bffefe62afaa","ios":"levelo://app?vid=b9297fd7-17b1-4121-9159-bffefe62afaa"},"vehicle_type_id":"4","last_reported":1726430930,"current_range_meters":9600,"station_id":"ce4bhah2rcd13ifvqej0","pricing_plan_id":"cebpf4jnsgd1na2vs0mg"},{"bike_id":"8052f64d-5e41-4baf-987f-b0ed1b94f6e6","system_id":"levelo_inurba_marseille","lat":43.28076,"lon":5.3966,"is_reserved":false,"is_disabled":false,"rental_uris":{"android":"levelo://app?vid=8052f64d-5e41-4baf-987f-b0ed1b94f6e6","ios":"levelo://app?vid=8052f64d-5e41-4baf-987f-b0ed1b94f6e6"},"vehicle_type_id":"4","last_reported":1726430930,"current_range_meters":19200,"station_id":"ce4bho12rcd13ifvqh2g","pricing_plan_id":"cebpf4jnsgd1na2vs0mg"},{"bike_id":"d5cc67fc-c2e1-4143-8dff-dcff0fdc41e0","system_id":"levelo_inurba_marseille","lat":43.29799,"lon":5.40397,"is_reserved":false,"is_disabled":false,"rental_uris":{"android":"levelo://app?vid=d5cc67fc-c2e1-4143-8dff-dcff0fdc41e0","ios":"levelo://app?vid=d5cc67fc-c2e1-4143-8dff-dcff0fdc41e0"},"vehicle_type_id":"4","last_reported":1726430930,"current_range_meters":1600,"station_id":"ce4bh112rcd13ifvqd90","pricing_plan_id":"cebpf4jnsgd1na2vs0mg"},{"bike_id":"f79ff168-7c1f-43a6-9a48-819ae1e3b151","system_id":"levelo_inurba_marseille","lat":43.24071,"lon":5.37756,"is_reserved":false,"is_disabled":false,"rental_uris":{"android":"levelo://app?vid=f79ff168-7c1f-43a6-9a48-819ae1e3b151","ios":"levelo://app?vid=f79ff168-7c1f-43a6-9a48-819ae1e3b151"},"vehicle_type_id":"4","last_reported":1726430930,"current_range_meters":10800,"station_id":"ce4bhnp2rcd13ifvqgvg","pricing_plan_id":"cebpf4jnsgd1na2vs0mg"},{"bike_id":"3a0f783c-a38b-42d4-9fa6-620a863153fe","system_id":"levelo_inurba_marseille","lat":43.25719,"lon":5.41112,"is_reserved":false,"is_disabled":false,"rental_uris":{"android":"levelo://app?vid=3a0f783c-a38b-42d4-9fa6-620a863153fe","ios":"levelo://app?vid=3a0f783c-a38b-42d4-9fa6-620a863153fe"},"vehicle_type_id":"4","last_reported":1726430930,"current_range_meters":38800,"station_id":"ce4bhkp2rcd13ifvqgd0","pricing_plan_id":"cebpf4jnsgd1na2vs0mg"},{"bike_id":"a71d4a2a-8d65-47b4-875c-adc220c62749","system_id":"levelo_inurba_marseille","lat":43.279144,"lon":5.353379,"is_reserved":false,"is_disabled":false,"rental_uris":{"android":"levelo://app?vid=a71d4a2a-8d65-47b4-875c-adc220c62749","ios":"levelo://app?vid=a71d4a2a-8d65-47b4-875c-adc220c62749"},"vehicle_type_id":"4","last_reported":1726430930,"current_range_meters":30400,"station_id":"","pricing_plan_id":"cebpf4jnsgd1na2vs0mg"},{"bike_id":"33d7f647-3c77-4900-85cd-f62125c908a0","system_id":"levelo_inurba_marseille","lat":43.25081,"lon":5.39514,"is_reserved":false,"is_disabled":false,"rental_uris":{"android":"levelo://app?vid=33d7f647-3c77-4900-85cd-f62125c908a0","ios":"levelo://app?vid=33d7f647-3c77-4900-85cd-f62125c908a0"},"vehicle_type_id":"4","last_reported":1726430930,"current_range_meters":28000,"station_id":"ce4bhm12rcd13ifvqgkg","pricing_plan_id":"cebpf4jnsgd1na2vs0mg"},{"bike_id":"029f0ea1-5077-4b01-9417-dd5c03c6e280","system_id":"levelo_inurba_marseille","lat":43.25712,"lon":5.41113,"is_reserved":false,"is_disabled":false,"rental_uris":{"android":"levelo://app?vid=029f0ea1-5077-4b01-9417-dd5c03c6e280","ios":"levelo://app?vid=029f0ea1-5077-4b01-9417-dd5c03c6e280"},"vehicle_type_id":"4","last_reported":1726430930,"current_range_meters":38800,"station_id":"ce4bhkp2rcd13ifvqgd0","pricing_plan_id":"cebpf4jnsgd1na2vs0mg"},{"bike_id":"9877ae33-6c0d-4b5d-be3b-3fee58b6d326","system_id":"levelo_inurba_marseille","lat":43.307907,"lon":5.376442,"is_reserved":false,"is_disabled":false,"rental_uris":{"android":"levelo://app?vid=9877ae33-6c0d-4b5d-be3b-3fee58b6d326","ios":"levelo://app?vid=9877ae33-6c0d-4b5d-be3b-3fee58b6d326"},"vehicle_type_id":"4","last_reported":1726430930,"current_range_meters":6400,"station_id":"ce4bguh2rcd13ifvqckg","pricing_plan_id":"cebpf4jnsgd1na2vs0mg"},{"bike_id":"6dcfe498-2d19-4a64-b3bd-bf6302471a64","system_id":"levelo_inurba_marseille","lat":43.31072,"lon":5.38362,"is_reserved":false,"is_disabled":false,"rental_uris":{"android":"levelo://app?vid=6dcfe498-2d19-4a64-b3bd-bf6302471a64","ios":"levelo://app?vid=6dcfe498-2d19-4a64-b3bd-bf6302471a64"},"vehicle_type_id":"4","last_reported":1726430930,"current_range_meters":38800,"station_id":"ce4bgv92rcd13ifvqcr0","pricing_plan_id":"cebpf4jnsgd1na2vs0mg"},{"bike_id":"b0fed14a-8ca6-41c1-a7a1-3028dcb47f60","system_id":"levelo_inurba_marseille","lat":43.31165,"lon":5.3872,"is_reserved":false,"is_disabled":false,"rental_uris":{"android":"levelo://app?vid=b0fed14a-8ca6-41c1-a7a1-3028dcb47f60","ios":"levelo://app?vid=b0fed14a-8ca6-41c1-a7a1-3028dcb47f60"},"vehicle_type_id":"4","last_reported":1726430930,"current_range_meters":38000,"station_id":"ce4bgv12rcd13ifvqcp0","pricing_plan_id":"cebpf4jnsgd1na2vs0mg"},{"bike_id":"f0c80138-35a8-4472-9afb-e4c6f8153af2","system_id":"levelo_inurba_marseille","lat":43.31358,"lon":5.38495,"is_reserved":false,"is_disabled":false,"rental_uris":{"android":"levelo://app?vid=f0c80138-35a8-4472-9afb-e4c6f8153af2","ios":"levelo://app?vid=f0c80138-35a8-4472-9afb-e4c6f8153af2"},"vehicle_type_id":"4","last_reported":1726430930,"current_range_meters":22800,"station_id":"ce4bgt92rcd13ifvqcf0","pricing_plan_id":"cebpf4jnsgd1na2vs0mg"},{"bike_id":"4b850bb4-e07b-4864-a8eb-064b46aaa20d","system_id":"levelo_inurba_marseille","lat":43.31168,"lon":5.38722,"is_reserved":false,"is_disabled":false,"rental_uris":{"android":"levelo://app?vid=4b850bb4-e07b-4864-a8eb-064b46aaa20d","ios":"levelo://app?vid=4b850bb4-e07b-4864-a8eb-064b46aaa20d"},"vehicle_type_id":"4","last_reported":1726430930,"current_range_meters":39200,"station_id":"ce4bgv12rcd13ifvqcp0","pricing_plan_id":"cebpf4jnsgd1na2vs0mg"},{"bike_id":"ecab2b07-b455-4c0a-a787-affa632df0b6","system_id":"levelo_inurba_marseille","lat":43.29552,"lon":5.42285,"is_reserved":false,"is_disabled":false,"rental_uris":{"android":"levelo://app?vid=ecab2b07-b455-4c0a-a787-affa632df0b6","ios":"levelo://app?vid=ecab2b07-b455-4c0a-a787-affa632df0b6"},"vehicle_type_id":"4","last_reported":1726430930,"current_range_meters":20000,"station_id":"ce4bhph2rcd13ifvqhdg","pricing_plan_id":"cebpf4jnsgd1na2vs0mg"},{"bike_id":"e0578bd3-1a0e-429a-8b90-c50cda685c19","system_id":"levelo_inurba_marseille","lat":43.25821,"lon":5.3943,"is_reserved":false,"is_disabled":false,"rental_uris":{"android":"levelo://app?vid=e0578bd3-1a0e-429a-8b90-c50cda685c19","ios":"levelo://app?vid=e0578bd3-1a0e-429a-8b90-c50cda685c19"},"vehicle_type_id":"4","last_reported":1726430930,"current_range_meters":30000,"station_id":"ce4bhip2rcd13ifvqft0","pricing_plan_id":"cebpf4jnsgd1na2vs0mg"},{"bike_id":"26db0265-0a91-4c66-8aa8-67a94f7eef0d","system_id":"levelo_inurba_marseille","lat":43.26939,"lon":5.40051,"is_reserved":false,"is_disabled":false,"rental_uris":{"android":"levelo://app?vid=26db0265-0a91-4c66-8aa8-67a94f7eef0d","ios":"levelo://app?vid=26db0265-0a91-4c66-8aa8-67a94f7eef0d"},"vehicle_type_id":"4","last_reported":1726430930,"current_range_meters":8400,"station_id":"","pricing_plan_id":"cebpf4jnsgd1na2vs0mg"},{"bike_id":"f8a51900-9430-4882-b0ec-fab5477158b9","system_id":"levelo_inurba_marseille","lat":43.32336,"lon":5.40621,"is_reserved":false,"is_disabled":false,"rental_uris":{"android":"levelo://app?vid=f8a51900-9430-4882-b0ec-fab5477158b9","ios":"levelo://app?vid=f8a51900-9430-4882-b0ec-fab5477158b9"},"vehicle_type_id":"4","last_reported":1726430930,"current_range_meters":8000,"station_id":"ce4bhq92rcd13ifvqhjg","pricing_plan_id":"cebpf4jnsgd1na2vs0mg"},{"bike_id":"18088fee-85b6-4d86-a40d-ff5d141d8d5e","system_id":"levelo_inurba_marseille","lat":43.31759,"lon":5.39012,"is_reserved":false,"is_disabled":false,"rental_uris":{"android":"levelo://app?vid=18088fee-85b6-4d86-a40d-ff5d141d8d5e","ios":"levelo://app?vid=18088fee-85b6-4d86-a40d-ff5d141d8d5e"},"vehicle_type_id":"4","last_reported":1726430930,"current_range_meters":28800,"station_id":"ce4bhqp2rcd13ifvqhng","pricing_plan_id":"cebpf4jnsgd1na2vs0mg"},{"bike_id":"98146a55-0bb8-4140-892c-d49fa1ded5aa","system_id":"levelo_inurba_marseille","lat":43.28568,"lon":5.39517,"is_reserved":false,"is_disabled":false,"rental_uris":{"android":"levelo://app?vid=98146a55-0bb8-4140-892c-d49fa1ded5aa","ios":"levelo://app?vid=98146a55-0bb8-4140-892c-d49fa1ded5aa"},"vehicle_type_id":"4","last_reported":1726430930,"current_range_meters":33200,"station_id":"ce4bh292rcd13ifvqdg0","pricing_plan_id":"cebpf4jnsgd1na2vs0mg"},{"bike_id":"189b6bc1-c1a3-4f5b-a4cc-c0f641262031","system_id":"levelo_inurba_marseille","lat":43.28404,"lon":5.37515,"is_reserved":false,"is_disabled":false,"rental_uris":{"android":"levelo://app?vid=189b6bc1-c1a3-4f5b-a4cc-c0f641262031","ios":"levelo://app?vid=189b6bc1-c1a3-4f5b-a4cc-c0f641262031"},"vehicle_type_id":"4","last_reported":1726430930,"current_range_meters":33600,"station_id":"ce4bh412rcd13ifvqds0","pricing_plan_id":"cebpf4jnsgd1na2vs0mg"},{"bike_id":"0d4e8fb9-2f00-4bf1-813f-083deb41c99b","system_id":"levelo_inurba_marseille","lat":43.29802,"lon":5.40396,"is_reserved":false,"is_disabled":false,"rental_uris":{"android":"levelo://app?vid=0d4e8fb9-2f00-4bf1-813f-083deb41c99b","ios":"levelo://app?vid=0d4e8fb9-2f00-4bf1-813f-083deb41c99b"},"vehicle_type_id":"4","last_reported":1726430930,"current_range_meters":10800,"station_id":"ce4bh112rcd13ifvqd90","pricing_plan_id":"cebpf4jnsgd1na2vs0mg"},{"bike_id":"fa0bba81-ae28-438c-aaa0-a2a0c9d69ac5","system_id":"levelo_inurba_marseille","lat":43.29548,"lon":5.42285,"is_reserved":false,"is_disabled":false,"rental_uris":{"android":"levelo://app?vid=fa0bba81-ae28-438c-aaa0-a2a0c9d69ac5","ios":"levelo://app?vid=fa0bba81-ae28-438c-aaa0-a2a0c9d69ac5"},"vehicle_type_id":"4","last_reported":1726430930,"current_range_meters":32800,"station_id":"ce4bhph2rcd13ifvqhdg","pricing_plan_id":"cebpf4jnsgd1na2vs0mg"},{"bike_id":"22abc786-11de-49ba-8901-022e94127ff5","system_id":"levelo_inurba_marseille","lat":43.28459,"lon":5.35887,"is_reserved":false,"is_disabled":false,"rental_uris":{"android":"levelo://app?vid=22abc786-11de-49ba-8901-022e94127ff5","ios":"levelo://app?vid=22abc786-11de-49ba-8901-022e94127ff5"},"vehicle_type_id":"4","last_reported":1726430930,"current_range_meters":38800,"station_id":"ce4bhah2rcd13ifvqei0","pricing_plan_id":"cebpf4jnsgd1na2vs0mg"},{"bike_id":"415b13fd-de58-480c-861b-9f42d1eebf31","system_id":"levelo_inurba_marseille","lat":43.30413,"lon":5.41288,"is_reserved":false,"is_disabled":false,"rental_uris":{"android":"levelo://app?vid=415b13fd-de58-480c-861b-9f42d1eebf31","ios":"levelo://app?vid=415b13fd-de58-480c-861b-9f42d1eebf31"},"vehicle_type_id":"4","last_reported":1726430930,"current_range_meters":36000,"station_id":"ce4bhop2rcd13ifvqh8g","pricing_plan_id":"cebpf4jnsgd1na2vs0mg"},{"bike_id":"e2abad20-a158-4e79-b33f-15cae26117b1","system_id":"levelo_inurba_marseille","lat":43.29793,"lon":5.37103,"is_reserved":false,"is_disabled":false,"rental_uris":{"android":"levelo://app?vid=e2abad20-a158-4e79-b33f-15cae26117b1","ios":"levelo://app?vid=e2abad20-a158-4e79-b33f-15cae26117b1"},"vehicle_type_id":"4","last_reported":1726430930,"current_range_meters":27600,"station_id":"ce4bgop2rcd13ifvqc1g","pricing_plan_id":"cebpf4jnsgd1na2vs0mg"},{"bike_id":"28b8fbda-c1f7-4eae-be46-3a30dde0a23c","system_id":"levelo_inurba_marseille","lat":43.29,"lon":5.35619,"is_reserved":false,"is_disabled":false,"rental_uris":{"android":"levelo://app?vid=28b8fbda-c1f7-4eae-be46-3a30dde0a23c","ios":"levelo://app?vid=28b8fbda-c1f7-4eae-be46-3a30dde0a23c"},"vehicle_type_id":"4","last_reported":1726430930,"current_range_meters":38800,"station_id":"ce4bhb92rcd13ifvqen0","pricing_plan_id":"cebpf4jnsgd1na2vs0mg"},{"bike_id":"d4b02359-c049-48de-848f-d03357838a78","system_id":"levelo_inurba_marseille","lat":43.28405,"lon":5.37523,"is_reserved":false,"is_disabled":false,"rental_uris":{"android":"levelo://app?vid=d4b02359-c049-48de-848f-d03357838a78","ios":"levelo://app?vid=d4b02359-c049-48de-848f-d03357838a78"},"vehicle_type_id":"4","last_reported":1726430930,"current_range_meters":38800,"station_id":"ce4bh412rcd13ifvqds0","pricing_plan_id":"cebpf4jnsgd1na2vs0mg"},{"bike_id":"d76f064f-6ccf-45a5-bf04-5297ac9deb29","system_id":"levelo_inurba_marseille","lat":43.296875,"lon":5.359666,"is_reserved":false,"is_disabled":false,"rental_uris":{"android":"levelo://app?vid=d76f064f-6ccf-45a5-bf04-5297ac9deb29","ios":"levelo://app?vid=d76f064f-6ccf-45a5-bf04-5297ac9deb29"},"vehicle_type_id":"4","last_reported":1726430930,"current_range_meters":36000,"station_id":"","pricing_plan_id":"cebpf4jnsgd1na2vs0mg"},{"bike_id":"734240c6-29e1-4ec6-9380-37be44386dff","system_id":"levelo_inurba_marseille","lat":43.31689,"lon":5.40478,"is_reserved":false,"is_disabled":false,"rental_uris":{"android":"levelo://app?vid=734240c6-29e1-4ec6-9380-37be44386dff","ios":"levelo://app?vid=734240c6-29e1-4ec6-9380-37be44386dff"},"vehicle_type_id":"4","last_reported":1726430930,"current_range_meters":38800,"station_id":"ce4bh012rcd13ifvqd00","pricing_plan_id":"cebpf4jnsgd1na2vs0mg"},{"bike_id":"1134581e-f810-461e-b37e-c93b04fe2c0f","system_id":"levelo_inurba_marseille","lat":43.30268,"lon":5.40071,"is_reserved":false,"is_disabled":false,"rental_uris":{"android":"levelo://app?vid=1134581e-f810-461e-b37e-c93b04fe2c0f","ios":"levelo://app?vid=1134581e-f810-461e-b37e-c93b04fe2c0f"},"vehicle_type_id":"4","last_reported":1726430930,"current_range_meters":26000,"station_id":"ce4bgvh2rcd13ifvqcs0","pricing_plan_id":"cebpf4jnsgd1na2vs0mg"},{"bike_id":"28606dd2-d697-43cc-8a7b-3d972d1bfad5","system_id":"levelo_inurba_marseille","lat":43.28464,"lon":5.35896,"is_reserved":false,"is_disabled":false,"rental_uris":{"android":"levelo://app?vid=28606dd2-d697-43cc-8a7b-3d972d1bfad5","ios":"levelo://app?vid=28606dd2-d697-43cc-8a7b-3d972d1bfad5"},"vehicle_type_id":"4","last_reported":1726430930,"current_range_meters":11200,"station_id":"ce4bhah2rcd13ifvqei0","pricing_plan_id":"cebpf4jnsgd1na2vs0mg"},{"bike_id":"09d52f7f-1090-478a-bc0d-b57ff69e68b7","system_id":"levelo_inurba_marseille","lat":43.28706,"lon":5.37941,"is_reserved":false,"is_disabled":false,"rental_uris":{"android":"levelo://app?vid=09d52f7f-1090-478a-bc0d-b57ff69e68b7","ios":"levelo://app?vid=09d52f7f-1090-478a-bc0d-b57ff69e68b7"},"vehicle_type_id":"4","last_reported":1726430930,"current_range_meters":38800,"station_id":"ce4bh9p2rcd13ifvqec0","pricing_plan_id":"cebpf4jnsgd1na2vs0mg"},{"bike_id":"b54ba2f9-b92a-4c11-bba5-26b2b53e29fc","system_id":"levelo_inurba_marseille","lat":43.32035,"lon":5.41571,"is_reserved":false,"is_disabled":false,"rental_uris":{"android":"levelo://app?vid=b54ba2f9-b92a-4c11-bba5-26b2b53e29fc","ios":"levelo://app?vid=b54ba2f9-b92a-4c11-bba5-26b2b53e29fc"},"vehicle_type_id":"4","last_reported":1726430930,"current_range_meters":38800,"station_id":"ce4bhq92rcd13ifvqhkg","pricing_plan_id":"cebpf4jnsgd1na2vs0mg"},{"bike_id":"8f979555-d0d6-4c8f-9fce-0747a350b182","system_id":"levelo_inurba_marseille","lat":43.28709,"lon":5.37936,"is_reserved":false,"is_disabled":false,"rental_uris":{"android":"levelo://app?vid=8f979555-d0d6-4c8f-9fce-0747a350b182","ios":"levelo://app?vid=8f979555-d0d6-4c8f-9fce-0747a350b182"},"vehicle_type_id":"4","last_reported":1726430930,"current_range_meters":38800,"station_id":"ce4bh9p2rcd13ifvqec0","pricing_plan_id":"cebpf4jnsgd1na2vs0mg"},{"bike_id":"9c3bf990-8acd-4800-a6d9-71cafde3cc1d","system_id":"levelo_inurba_marseille","lat":43.28726,"lon":5.37943,"is_reserved":false,"is_disabled":false,"rental_uris":{"android":"levelo://app?vid=9c3bf990-8acd-4800-a6d9-71cafde3cc1d","ios":"levelo://app?vid=9c3bf990-8acd-4800-a6d9-71cafde3cc1d"},"vehicle_type_id":"4","last_reported":1726430930,"current_range_meters":31200,"station_id":"ce4bh9p2rcd13ifvqec0","pricing_plan_id":"cebpf4jnsgd1na2vs0mg"},{"bike_id":"b1db6496-7d7b-4acc-a88c-e5406d38e100","system_id":"levelo_inurba_marseille","lat":43.23196,"lon":5.35545,"is_reserved":false,"is_disabled":false,"rental_uris":{"android":"levelo://app?vid=b1db6496-7d7b-4acc-a88c-e5406d38e100","ios":"levelo://app?vid=b1db6496-7d7b-4acc-a88c-e5406d38e100"},"vehicle_type_id":"4","last_reported":1726430930,"current_range_meters":36000,"station_id":"ce4bhu92rcd13ifvqi70","pricing_plan_id":"cebpf4jnsgd1na2vs0mg"},{"bike_id":"9eaebfc1-0d08-4a18-9b89-943b94b505f3","system_id":"levelo_inurba_marseille","lat":43.29268,"lon":5.36841,"is_reserved":false,"is_disabled":false,"rental_uris":{"android":"levelo://app?vid=9eaebfc1-0d08-4a18-9b89-943b94b505f3","ios":"levelo://app?vid=9eaebfc1-0d08-4a18-9b89-943b94b505f3"},"vehicle_type_id":"4","last_reported":1726430930,"current_range_meters":38800,"station_id":"ce4bhbp2rcd13ifvqesg","pricing_plan_id":"cebpf4jnsgd1na2vs0mg"},{"bike_id":"ee721f16-71d0-49c8-9da4-858f78b55bcb","system_id":"levelo_inurba_marseille","lat":43.25938,"lon":5.40902,"is_reserved":false,"is_disabled":false,"rental_uris":{"android":"levelo://app?vid=ee721f16-71d0-49c8-9da4-858f78b55bcb","ios":"levelo://app?vid=ee721f16-71d0-49c8-9da4-858f78b55bcb"},"vehicle_type_id":"4","last_reported":1726430930,"current_range_meters":24400,"station_id":"ce4bhm92rcd13ifvqglg","pricing_plan_id":"cebpf4jnsgd1na2vs0mg"},{"bike_id":"826f4136-a005-4203-8c5f-7808e18dcf00","system_id":"levelo_inurba_marseille","lat":43.29551,"lon":5.4229,"is_reserved":false,"is_disabled":false,"rental_uris":{"android":"levelo://app?vid=826f4136-a005-4203-8c5f-7808e18dcf00","ios":"levelo://app?vid=826f4136-a005-4203-8c5f-7808e18dcf00"},"vehicle_type_id":"4","last_reported":1726430930,"current_range_meters":6800,"station_id":"ce4bhph2rcd13ifvqhdg","pricing_plan_id":"cebpf4jnsgd1na2vs0mg"},{"bike_id":"4aa8fffc-3009-4aac-a523-81d25af77ad2","system_id":"levelo_inurba_marseille","lat":43.284,"lon":5.37507,"is_reserved":false,"is_disabled":false,"rental_uris":{"android":"levelo://app?vid=4aa8fffc-3009-4aac-a523-81d25af77ad2","ios":"levelo://app?vid=4aa8fffc-3009-4aac-a523-81d25af77ad2"},"vehicle_type_id":"4","last_reported":1726430930,"current_range_meters":30800,"station_id":"ce4bh412rcd13ifvqds0","pricing_plan_id":"cebpf4jnsgd1na2vs0mg"},{"bike_id":"78751587-fda6-4bdb-a948-e68c3239c0bc","system_id":"levelo_inurba_marseille","lat":43.292208,"lon":5.360573,"is_reserved":false,"is_disabled":false,"rental_uris":{"android":"levelo://app?vid=78751587-fda6-4bdb-a948-e68c3239c0bc","ios":"levelo://app?vid=78751587-fda6-4bdb-a948-e68c3239c0bc"},"vehicle_type_id":"4","last_reported":1726430930,"current_range_meters":22000,"station_id":"ce4bgop2rcd13ifvqc1g","pricing_plan_id":"cebpf4jnsgd1na2vs0mg"},{"bike_id":"5cf4c2f1-f092-4550-b8cf-369099ebc3bc","system_id":"levelo_inurba_marseille","lat":43.24568,"lon":5.41551,"is_reserved":false,"is_disabled":false,"rental_uris":{"android":"levelo://app?vid=5cf4c2f1-f092-4550-b8cf-369099ebc3bc","ios":"levelo://app?vid=5cf4c2f1-f092-4550-b8cf-369099ebc3bc"},"vehicle_type_id":"4","last_reported":1726430930,"current_range_meters":12000,"station_id":"ce4bhlh2rcd13ifvqgig","pricing_plan_id":"cebpf4jnsgd1na2vs0mg"},{"bike_id":"4721e0a5-8c0a-4c61-91fb-10c3ba183135","system_id":"levelo_inurba_marseille","lat":43.24074,"lon":5.37764,"is_reserved":false,"is_disabled":false,"rental_uris":{"android":"levelo://app?vid=4721e0a5-8c0a-4c61-91fb-10c3ba183135","ios":"levelo://app?vid=4721e0a5-8c0a-4c61-91fb-10c3ba183135"},"vehicle_type_id":"4","last_reported":1726430930,"current_range_meters":12000,"station_id":"ce4bhnp2rcd13ifvqgvg","pricing_plan_id":"cebpf4jnsgd1na2vs0mg"},{"bike_id":"577152f2-f0b6-4a34-a48f-093e049c2180","system_id":"levelo_inurba_marseille","lat":43.31313,"lon":5.36862,"is_reserved":false,"is_disabled":false,"rental_uris":{"android":"levelo://app?vid=577152f2-f0b6-4a34-a48f-093e049c2180","ios":"levelo://app?vid=577152f2-f0b6-4a34-a48f-093e049c2180"},"vehicle_type_id":"4","last_reported":1726430930,"current_range_meters":38800,"station_id":"ce4bgl92rcd13ifvqbq0","pricing_plan_id":"cebpf4jnsgd1na2vs0mg"},{"bike_id":"af14ea28-99c8-4f02-9e97-70bdea229624","system_id":"levelo_inurba_marseille","lat":43.31334,"lon":5.39693,"is_reserved":false,"is_disabled":false,"rental_uris":{"android":"levelo://app?vid=af14ea28-99c8-4f02-9e97-70bdea229624","ios":"levelo://app?vid=af14ea28-99c8-4f02-9e97-70bdea229624"},"vehicle_type_id":"4","last_reported":1726430930,"current_range_meters":39200,"station_id":"ce4bgvp2rcd13ifvqcu0","pricing_plan_id":"cebpf4jnsgd1na2vs0mg"},{"bike_id":"510e0e93-8fb5-4cb2-b6b7-e4faef809683","system_id":"levelo_inurba_marseille","lat":43.288424,"lon":5.392952,"is_reserved":false,"is_disabled":false,"rental_uris":{"android":"levelo://app?vid=510e0e93-8fb5-4cb2-b6b7-e4faef809683","ios":"levelo://app?vid=510e0e93-8fb5-4cb2-b6b7-e4faef809683"},"vehicle_type_id":"4","last_reported":1726430930,"current_range_meters":11200,"station_id":"ce4bh2p2rcd13ifvqdi0","pricing_plan_id":"cebpf4jnsgd1na2vs0mg"},{"bike_id":"39631300-b771-4e23-bbdb-b2a1db467ce1","system_id":"levelo_inurba_marseille","lat":43.32367,"lon":5.38888,"is_reserved":false,"is_disabled":false,"rental_uris":{"android":"levelo://app?vid=39631300-b771-4e23-bbdb-b2a1db467ce1","ios":"levelo://app?vid=39631300-b771-4e23-bbdb-b2a1db467ce1"},"vehicle_type_id":"4","last_reported":1726430930,"current_range_meters":32000,"station_id":"ce4bhqp2rcd13ifvqhog","pricing_plan_id":"cebpf4jnsgd1na2vs0mg"},{"bike_id":"b3296071-3ee4-4cd4-a9c0-ea1b11b66293","system_id":"levelo_inurba_marseille","lat":43.32128,"lon":5.38743,"is_reserved":false,"is_disabled":false,"rental_uris":{"android":"levelo://app?vid=b3296071-3ee4-4cd4-a9c0-ea1b11b66293","ios":"levelo://app?vid=b3296071-3ee4-4cd4-a9c0-ea1b11b66293"},"vehicle_type_id":"4","last_reported":1726430930,"current_range_meters":8800,"station_id":"","pricing_plan_id":"cebpf4jnsgd1na2vs0mg"},{"bike_id":"b645ac77-0d58-4fa9-8ad3-947af8bdb1d9","system_id":"levelo_inurba_marseille","lat":43.299,"lon":5.43665,"is_reserved":false,"is_disabled":false,"rental_uris":{"android":"levelo://app?vid=b645ac77-0d58-4fa9-8ad3-947af8bdb1d9","ios":"levelo://app?vid=b645ac77-0d58-4fa9-8ad3-947af8bdb1d9"},"vehicle_type_id":"4","last_reported":1726430930,"current_range_meters":32400,"station_id":"ce4bhpp2rcd13ifvqhfg","pricing_plan_id":"cebpf4jnsgd1na2vs0mg"},{"bike_id":"03515e55-0de8-4f6d-953a-abbf71a9cce4","system_id":"levelo_inurba_marseille","lat":43.24071,"lon":5.37759,"is_reserved":false,"is_disabled":false,"rental_uris":{"android":"levelo://app?vid=03515e55-0de8-4f6d-953a-abbf71a9cce4","ios":"levelo://app?vid=03515e55-0de8-4f6d-953a-abbf71a9cce4"},"vehicle_type_id":"4","last_reported":1726430930,"current_range_meters":16000,"station_id":"ce4bhnp2rcd13ifvqgvg","pricing_plan_id":"cebpf4jnsgd1na2vs0mg"},{"bike_id":"eaf80fae-4a2b-497e-8801-e7f36cd6b653","system_id":"levelo_inurba_marseille","lat":43.28451,"lon":5.35887,"is_reserved":false,"is_disabled":false,"rental_uris":{"android":"levelo://app?vid=eaf80fae-4a2b-497e-8801-e7f36cd6b653","ios":"levelo://app?vid=eaf80fae-4a2b-497e-8801-e7f36cd6b653"},"vehicle_type_id":"4","last_reported":1726430930,"current_range_meters":21600,"station_id":"ce4bhah2rcd13ifvqei0","pricing_plan_id":"cebpf4jnsgd1na2vs0mg"},{"bike_id":"f3a4c635-a98f-45bd-b002-63157850079a","system_id":"levelo_inurba_marseille","lat":43.29978,"lon":5.37182,"is_reserved":false,"is_disabled":false,"rental_uris":{"android":"levelo://app?vid=f3a4c635-a98f-45bd-b002-63157850079a","ios":"levelo://app?vid=f3a4c635-a98f-45bd-b002-63157850079a"},"vehicle_type_id":"4","last_reported":1726430930,"current_range_meters":33600,"station_id":"ce4bgr92rcd13ifvqc7g","pricing_plan_id":"cebpf4jnsgd1na2vs0mg"},{"bike_id":"a1677750-0045-4e8c-8121-c4d5e251ff3e","system_id":"levelo_inurba_marseille","lat":43.31065,"lon":5.38367,"is_reserved":false,"is_disabled":false,"rental_uris":{"android":"levelo://app?vid=a1677750-0045-4e8c-8121-c4d5e251ff3e","ios":"levelo://app?vid=a1677750-0045-4e8c-8121-c4d5e251ff3e"},"vehicle_type_id":"4","last_reported":1726430930,"current_range_meters":38400,"station_id":"ce4bgv92rcd13ifvqcr0","pricing_plan_id":"cebpf4jnsgd1na2vs0mg"},{"bike_id":"a4c0cf7c-3841-4e16-9fa4-fcc011f72b5b","system_id":"levelo_inurba_marseille","lat":43.30126,"lon":5.39863,"is_reserved":false,"is_disabled":false,"rental_uris":{"android":"levelo://app?vid=a4c0cf7c-3841-4e16-9fa4-fcc011f72b5b","ios":"levelo://app?vid=a4c0cf7c-3841-4e16-9fa4-fcc011f72b5b"},"vehicle_type_id":"4","last_reported":1726430930,"current_range_meters":6400,"station_id":"ce4bh0h2rcd13ifvqd40","pricing_plan_id":"cebpf4jnsgd1na2vs0mg"},{"bike_id":"7abc2a25-404a-4f70-a7c0-c89315b5c4bc","system_id":"levelo_inurba_marseille","lat":43.29058,"lon":5.40556,"is_reserved":false,"is_disabled":false,"rental_uris":{"android":"levelo://app?vid=7abc2a25-404a-4f70-a7c0-c89315b5c4bc","ios":"levelo://app?vid=7abc2a25-404a-4f70-a7c0-c89315b5c4bc"},"vehicle_type_id":"4","last_reported":1726430930,"current_range_meters":27600,"station_id":"","pricing_plan_id":"cebpf4jnsgd1na2vs0mg"},{"bike_id":"7646c591-ba02-4a98-a2f6-74af65491dc1","system_id":"levelo_inurba_marseille","lat":43.28002,"lon":5.40009,"is_reserved":false,"is_disabled":false,"rental_uris":{"android":"levelo://app?vid=7646c591-ba02-4a98-a2f6-74af65491dc1","ios":"levelo://app?vid=7646c591-ba02-4a98-a2f6-74af65491dc1"},"vehicle_type_id":"4","last_reported":1726430930,"current_range_meters":38800,"station_id":"ce4bho92rcd13ifvqh4g","pricing_plan_id":"cebpf4jnsgd1na2vs0mg"},{"bike_id":"677498c9-746b-4650-9a8e-2c7479635944","system_id":"levelo_inurba_marseille","lat":43.33023,"lon":5.39044,"is_reserved":false,"is_disabled":false,"rental_uris":{"android":"levelo://app?vid=677498c9-746b-4650-9a8e-2c7479635944","ios":"levelo://app?vid=677498c9-746b-4650-9a8e-2c7479635944"},"vehicle_type_id":"4","last_reported":1726430930,"current_range_meters":30800,"station_id":"ce4bhr92rcd13ifvqhrg","pricing_plan_id":"cebpf4jnsgd1na2vs0mg"},{"bike_id":"c0042362-d76e-412e-8000-c06d63ef023d","system_id":"levelo_inurba_marseille","lat":43.29052,"lon":5.35915,"is_reserved":false,"is_disabled":false,"rental_uris":{"android":"levelo://app?vid=c0042362-d76e-412e-8000-c06d63ef023d","ios":"levelo://app?vid=c0042362-d76e-412e-8000-c06d63ef023d"},"vehicle_type_id":"4","last_reported":1726430930,"current_range_meters":38400,"station_id":"ce4bha92rcd13ifvqeg0","pricing_plan_id":"cebpf4jnsgd1na2vs0mg"},{"bike_id":"ed0bfe09-1fce-45b5-a71d-0556b40f6548","system_id":"levelo_inurba_marseille","lat":43.31113,"lon":5.37765,"is_reserved":false,"is_disabled":false,"rental_uris":{"android":"levelo://app?vid=ed0bfe09-1fce-45b5-a71d-0556b40f6548","ios":"levelo://app?vid=ed0bfe09-1fce-45b5-a71d-0556b40f6548"},"vehicle_type_id":"4","last_reported":1726430930,"current_range_meters":16000,"station_id":"ce4bgt92rcd13ifvqcg0","pricing_plan_id":"cebpf4jnsgd1na2vs0mg"},{"bike_id":"6b4895a7-8f71-447f-86e5-5a72d609d24d","system_id":"levelo_inurba_marseille","lat":43.31161,"lon":5.38725,"is_reserved":false,"is_disabled":false,"rental_uris":{"android":"levelo://app?vid=6b4895a7-8f71-447f-86e5-5a72d609d24d","ios":"levelo://app?vid=6b4895a7-8f71-447f-86e5-5a72d609d24d"},"vehicle_type_id":"4","last_reported":1726430930,"current_range_meters":35600,"station_id":"ce4bgv12rcd13ifvqcp0","pricing_plan_id":"cebpf4jnsgd1na2vs0mg"},{"bike_id":"b4d2dbe6-7814-4b38-b314-f22564e29de4","system_id":"levelo_inurba_marseille","lat":43.25821,"lon":5.39426,"is_reserved":false,"is_disabled":false,"rental_uris":{"android":"levelo://app?vid=b4d2dbe6-7814-4b38-b314-f22564e29de4","ios":"levelo://app?vid=b4d2dbe6-7814-4b38-b314-f22564e29de4"},"vehicle_type_id":"4","last_reported":1726430930,"current_range_meters":7200,"station_id":"ce4bhip2rcd13ifvqft0","pricing_plan_id":"cebpf4jnsgd1na2vs0mg"},{"bike_id":"a1fd93be-9189-4d8f-bc5f-8b82d66d4441","system_id":"levelo_inurba_marseille","lat":43.24665,"lon":5.38163,"is_reserved":false,"is_disabled":false,"rental_uris":{"android":"levelo://app?vid=a1fd93be-9189-4d8f-bc5f-8b82d66d4441","ios":"levelo://app?vid=a1fd93be-9189-4d8f-bc5f-8b82d66d4441"},"vehicle_type_id":"4","last_reported":1726430930,"current_range_meters":39200,"station_id":"ce4bhih2rcd13ifvqfr0","pricing_plan_id":"cebpf4jnsgd1na2vs0mg"},{"bike_id":"59c2c49a-1762-42b4-9559-0e22c089f63b","system_id":"levelo_inurba_marseille","lat":43.25114,"lon":5.40319,"is_reserved":false,"is_disabled":false,"rental_uris":{"android":"levelo://app?vid=59c2c49a-1762-42b4-9559-0e22c089f63b","ios":"levelo://app?vid=59c2c49a-1762-42b4-9559-0e22c089f63b"},"vehicle_type_id":"4","last_reported":1726430930,"current_range_meters":30400,"station_id":"ce4bhlh2rcd13ifvqgig","pricing_plan_id":"cebpf4jnsgd1na2vs0mg"},{"bike_id":"76d60cb1-256d-42fd-943e-1cfa3162a2c6","system_id":"levelo_inurba_marseille","lat":43.28073,"lon":5.39662,"is_reserved":false,"is_disabled":false,"rental_uris":{"android":"levelo://app?vid=76d60cb1-256d-42fd-943e-1cfa3162a2c6","ios":"levelo://app?vid=76d60cb1-256d-42fd-943e-1cfa3162a2c6"},"vehicle_type_id":"4","last_reported":1726430930,"current_range_meters":25200,"station_id":"ce4bho12rcd13ifvqh2g","pricing_plan_id":"cebpf4jnsgd1na2vs0mg"},{"bike_id":"e26cdc24-c624-4d47-b139-36e9c5ec5975","system_id":"levelo_inurba_marseille","lat":43.28574,"lon":5.39506,"is_reserved":false,"is_disabled":false,"rental_uris":{"android":"levelo://app?vid=e26cdc24-c624-4d47-b139-36e9c5ec5975","ios":"levelo://app?vid=e26cdc24-c624-4d47-b139-36e9c5ec5975"},"vehicle_type_id":"4","last_reported":1726430930,"current_range_meters":28800,"station_id":"ce4bh292rcd13ifvqdg0","pricing_plan_id":"cebpf4jnsgd1na2vs0mg"},{"bike_id":"99684f50-b398-427b-a4e9-7ca0a0382c79","system_id":"levelo_inurba_marseille","lat":43.24813,"lon":5.37461,"is_reserved":false,"is_disabled":false,"rental_uris":{"android":"levelo://app?vid=99684f50-b398-427b-a4e9-7ca0a0382c79","ios":"levelo://app?vid=99684f50-b398-427b-a4e9-7ca0a0382c79"},"vehicle_type_id":"4","last_reported":1726430930,"current_range_meters":32400,"station_id":"ce4bhu92rcd13ifvqi70","pricing_plan_id":"cebpf4jnsgd1na2vs0mg"},{"bike_id":"2b51f057-3d88-46eb-8d2b-f57e8e47a46b","system_id":"levelo_inurba_marseille","lat":43.28705,"lon":5.37397,"is_reserved":false,"is_disabled":false,"rental_uris":{"android":"levelo://app?vid=2b51f057-3d88-46eb-8d2b-f57e8e47a46b","ios":"levelo://app?vid=2b51f057-3d88-46eb-8d2b-f57e8e47a46b"},"vehicle_type_id":"4","last_reported":1726430930,"current_range_meters":38800,"station_id":"ce4bh3p2rcd13ifvqdq0","pricing_plan_id":"cebpf4jnsgd1na2vs0mg"},{"bike_id":"58286d15-9785-4010-942d-ccd63c6b2535","system_id":"levelo_inurba_marseille","lat":43.27985,"lon":5.41651,"is_reserved":false,"is_disabled":false,"rental_uris":{"android":"levelo://app?vid=58286d15-9785-4010-942d-ccd63c6b2535","ios":"levelo://app?vid=58286d15-9785-4010-942d-ccd63c6b2535"},"vehicle_type_id":"4","last_reported":1726430930,"current_range_meters":26800,"station_id":"ce4bho12rcd13ifvqh1g","pricing_plan_id":"cebpf4jnsgd1na2vs0mg"},{"bike_id":"86fd4eaf-98ab-4a83-8dee-4f2e9b486e89","system_id":"levelo_inurba_marseille","lat":43.26943,"lon":5.38639,"is_reserved":false,"is_disabled":false,"rental_uris":{"android":"levelo://app?vid=86fd4eaf-98ab-4a83-8dee-4f2e9b486e89","ios":"levelo://app?vid=86fd4eaf-98ab-4a83-8dee-4f2e9b486e89"},"vehicle_type_id":"4","last_reported":1726430930,"current_range_meters":20400,"station_id":"ce4bhh92rcd13ifvqfh0","pricing_plan_id":"cebpf4jnsgd1na2vs0mg"},{"bike_id":"23d7e93e-4d91-456b-9662-18ad55fc5712","system_id":"levelo_inurba_marseille","lat":43.28346,"lon":5.3812,"is_reserved":false,"is_disabled":false,"rental_uris":{"android":"levelo://app?vid=23d7e93e-4d91-456b-9662-18ad55fc5712","ios":"levelo://app?vid=23d7e93e-4d91-456b-9662-18ad55fc5712"},"vehicle_type_id":"4","last_reported":1726430930,"current_range_meters":22800,"station_id":"ce4bh412rcd13ifvqdr0","pricing_plan_id":"cebpf4jnsgd1na2vs0mg"},{"bike_id":"3709e871-70a4-471a-a01b-eee384645ff0","system_id":"levelo_inurba_marseille","lat":43.31722,"lon":5.42404,"is_reserved":false,"is_disabled":false,"rental_uris":{"android":"levelo://app?vid=3709e871-70a4-471a-a01b-eee384645ff0","ios":"levelo://app?vid=3709e871-70a4-471a-a01b-eee384645ff0"},"vehicle_type_id":"4","last_reported":1726430930,"current_range_meters":38800,"station_id":"ce4bhp92rcd13ifvqhbg","pricing_plan_id":"cebpf4jnsgd1na2vs0mg"},{"bike_id":"74dd37f6-a9df-4978-b317-a558cd0bb713","system_id":"levelo_inurba_marseille","lat":43.31492,"lon":5.37308,"is_reserved":false,"is_disabled":false,"rental_uris":{"android":"levelo://app?vid=74dd37f6-a9df-4978-b317-a558cd0bb713","ios":"levelo://app?vid=74dd37f6-a9df-4978-b317-a558cd0bb713"},"vehicle_type_id":"4","last_reported":1726430930,"current_range_meters":38800,"station_id":"ce4bgt12rcd13ifvqcd0","pricing_plan_id":"cebpf4jnsgd1na2vs0mg"},{"bike_id":"12b76948-bd92-42ee-b359-c6fef93aba38","system_id":"levelo_inurba_marseille","lat":43.25722,"lon":5.41114,"is_reserved":false,"is_disabled":false,"rental_uris":{"android":"levelo://app?vid=12b76948-bd92-42ee-b359-c6fef93aba38","ios":"levelo://app?vid=12b76948-bd92-42ee-b359-c6fef93aba38"},"vehicle_type_id":"4","last_reported":1726430930,"current_range_meters":8000,"station_id":"ce4bhkp2rcd13ifvqgd0","pricing_plan_id":"cebpf4jnsgd1na2vs0mg"},{"bike_id":"dde9add0-5c35-4eef-ba65-19df115b9389","system_id":"levelo_inurba_marseille","lat":43.28698,"lon":5.37392,"is_reserved":false,"is_disabled":false,"rental_uris":{"android":"levelo://app?vid=dde9add0-5c35-4eef-ba65-19df115b9389","ios":"levelo://app?vid=dde9add0-5c35-4eef-ba65-19df115b9389"},"vehicle_type_id":"4","last_reported":1726430930,"current_range_meters":28800,"station_id":"ce4bh3p2rcd13ifvqdq0","pricing_plan_id":"cebpf4jnsgd1na2vs0mg"},{"bike_id":"76045a57-4323-410a-a71a-1156c697df27","system_id":"levelo_inurba_marseille","lat":43.29244,"lon":5.38459,"is_reserved":false,"is_disabled":false,"rental_uris":{"android":"levelo://app?vid=76045a57-4323-410a-a71a-1156c697df27","ios":"levelo://app?vid=76045a57-4323-410a-a71a-1156c697df27"},"vehicle_type_id":"4","last_reported":1726430930,"current_range_meters":12000,"station_id":"ce4bh112rcd13ifvqda0","pricing_plan_id":"cebpf4jnsgd1na2vs0mg"},{"bike_id":"68bc764f-b42a-4124-a878-40c92c27c47d","system_id":"levelo_inurba_marseille","lat":43.31759,"lon":5.39017,"is_reserved":false,"is_disabled":false,"rental_uris":{"android":"levelo://app?vid=68bc764f-b42a-4124-a878-40c92c27c47d","ios":"levelo://app?vid=68bc764f-b42a-4124-a878-40c92c27c47d"},"vehicle_type_id":"4","last_reported":1726430930,"current_range_meters":35200,"station_id":"ce4bhqp2rcd13ifvqhng","pricing_plan_id":"cebpf4jnsgd1na2vs0mg"},{"bike_id":"2006a966-db2a-436e-b686-99e9a1eebc80","system_id":"levelo_inurba_marseille","lat":43.29782,"lon":5.39346,"is_reserved":false,"is_disabled":false,"rental_uris":{"android":"levelo://app?vid=2006a966-db2a-436e-b686-99e9a1eebc80","ios":"levelo://app?vid=2006a966-db2a-436e-b686-99e9a1eebc80"},"vehicle_type_id":"4","last_reported":1726430930,"current_range_meters":18800,"station_id":"chh1huq6cuj3fo74tm60","pricing_plan_id":"cebpf4jnsgd1na2vs0mg"},{"bike_id":"1c1d69bc-adf8-410b-aa83-177594ec4d87","system_id":"levelo_inurba_marseille","lat":43.29306,"lon":5.37452,"is_reserved":false,"is_disabled":false,"rental_uris":{"android":"levelo://app?vid=1c1d69bc-adf8-410b-aa83-177594ec4d87","ios":"levelo://app?vid=1c1d69bc-adf8-410b-aa83-177594ec4d87"},"vehicle_type_id":"4","last_reported":1726430930,"current_range_meters":35600,"station_id":"ce4bgi12rcd13ifvqb70","pricing_plan_id":"cebpf4jnsgd1na2vs0mg"},{"bike_id":"26bc9892-a255-4972-90a8-d236b887e456","system_id":"levelo_inurba_marseille","lat":43.28924,"lon":5.3841,"is_reserved":false,"is_disabled":false,"rental_uris":{"android":"levelo://app?vid=26bc9892-a255-4972-90a8-d236b887e456","ios":"levelo://app?vid=26bc9892-a255-4972-90a8-d236b887e456"},"vehicle_type_id":"4","last_reported":1726430930,"current_range_meters":37600,"station_id":"ce4bh612rcd13ifvqe6g","pricing_plan_id":"cebpf4jnsgd1na2vs0mg"},{"bike_id":"5cc3b4c6-8e3f-4d20-a577-d2f5ce9f95fd","system_id":"levelo_inurba_marseille","lat":43.29899,"lon":5.43666,"is_reserved":false,"is_disabled":false,"rental_uris":{"android":"levelo://app?vid=5cc3b4c6-8e3f-4d20-a577-d2f5ce9f95fd","ios":"levelo://app?vid=5cc3b4c6-8e3f-4d20-a577-d2f5ce9f95fd"},"vehicle_type_id":"4","last_reported":1726430930,"current_range_meters":17200,"station_id":"ce4bhpp2rcd13ifvqhfg","pricing_plan_id":"cebpf4jnsgd1na2vs0mg"},{"bike_id":"be6a7145-0791-40f8-a3e4-321fb362448d","system_id":"levelo_inurba_marseille","lat":43.27492,"lon":5.42452,"is_reserved":false,"is_disabled":false,"rental_uris":{"android":"levelo://app?vid=be6a7145-0791-40f8-a3e4-321fb362448d","ios":"levelo://app?vid=be6a7145-0791-40f8-a3e4-321fb362448d"},"vehicle_type_id":"4","last_reported":1726430930,"current_range_meters":7200,"station_id":"ce4bhn92rcd13ifvqgrg","pricing_plan_id":"cebpf4jnsgd1na2vs0mg"},{"bike_id":"cbfb2c21-43bc-45c1-8027-96ca986f0d8c","system_id":"levelo_inurba_marseille","lat":43.32042,"lon":5.41562,"is_reserved":false,"is_disabled":false,"rental_uris":{"android":"levelo://app?vid=cbfb2c21-43bc-45c1-8027-96ca986f0d8c","ios":"levelo://app?vid=cbfb2c21-43bc-45c1-8027-96ca986f0d8c"},"vehicle_type_id":"4","last_reported":1726430930,"current_range_meters":32800,"station_id":"ce4bhq92rcd13ifvqhkg","pricing_plan_id":"cebpf4jnsgd1na2vs0mg"},{"bike_id":"a265eb93-a8ff-4ed4-a578-edcaf57acfe8","system_id":"levelo_inurba_marseille","lat":43.30138,"lon":5.3987,"is_reserved":false,"is_disabled":false,"rental_uris":{"android":"levelo://app?vid=a265eb93-a8ff-4ed4-a578-edcaf57acfe8","ios":"levelo://app?vid=a265eb93-a8ff-4ed4-a578-edcaf57acfe8"},"vehicle_type_id":"4","last_reported":1726430930,"current_range_meters":10800,"station_id":"ce4bh0h2rcd13ifvqd40","pricing_plan_id":"cebpf4jnsgd1na2vs0mg"},{"bike_id":"82a74b23-439b-4a17-87a6-d78d37c471f3","system_id":"levelo_inurba_marseille","lat":43.3021,"lon":5.39462,"is_reserved":false,"is_disabled":false,"rental_uris":{"android":"levelo://app?vid=82a74b23-439b-4a17-87a6-d78d37c471f3","ios":"levelo://app?vid=82a74b23-439b-4a17-87a6-d78d37c471f3"},"vehicle_type_id":"4","last_reported":1726430930,"current_range_meters":29600,"station_id":"ce4bh0p2rcd13ifvqd70","pricing_plan_id":"cebpf4jnsgd1na2vs0mg"},{"bike_id":"6ad2fe94-195b-4d58-9ac6-d3a9675a4c80","system_id":"levelo_inurba_marseille","lat":43.23066,"lon":5.35492,"is_reserved":false,"is_disabled":false,"rental_uris":{"android":"levelo://app?vid=6ad2fe94-195b-4d58-9ac6-d3a9675a4c80","ios":"levelo://app?vid=6ad2fe94-195b-4d58-9ac6-d3a9675a4c80"},"vehicle_type_id":"4","last_reported":1726430930,"current_range_meters":20400,"station_id":"cpo3342slgdg3j2ifvpg","pricing_plan_id":"cebpf4jnsgd1na2vs0mg"},{"bike_id":"ed395158-49bb-4ed0-a30f-caaeb4a15a1c","system_id":"levelo_inurba_marseille","lat":43.24077,"lon":5.37753,"is_reserved":false,"is_disabled":false,"rental_uris":{"android":"levelo://app?vid=ed395158-49bb-4ed0-a30f-caaeb4a15a1c","ios":"levelo://app?vid=ed395158-49bb-4ed0-a30f-caaeb4a15a1c"},"vehicle_type_id":"4","last_reported":1726430930,"current_range_meters":11600,"station_id":"ce4bhnp2rcd13ifvqgvg","pricing_plan_id":"cebpf4jnsgd1na2vs0mg"},{"bike_id":"be70b63a-c764-4fe4-944c-ea7e338d1412","system_id":"levelo_inurba_marseille","lat":43.26209,"lon":5.37928,"is_reserved":false,"is_disabled":false,"rental_uris":{"android":"levelo://app?vid=be70b63a-c764-4fe4-944c-ea7e338d1412","ios":"levelo://app?vid=be70b63a-c764-4fe4-944c-ea7e338d1412"},"vehicle_type_id":"4","last_reported":1726430930,"current_range_meters":0,"station_id":"ce4bhjp2rcd13ifvqg90","pricing_plan_id":"cebpf4jnsgd1na2vs0mg"},{"bike_id":"84b3bc53-6af5-4595-b5f2-e610af4f19b8","system_id":"levelo_inurba_marseille","lat":43.29868,"lon":5.39742,"is_reserved":false,"is_disabled":false,"rental_uris":{"android":"levelo://app?vid=84b3bc53-6af5-4595-b5f2-e610af4f19b8","ios":"levelo://app?vid=84b3bc53-6af5-4595-b5f2-e610af4f19b8"},"vehicle_type_id":"4","last_reported":1726430930,"current_range_meters":27600,"station_id":"ce4bh0h2rcd13ifvqd50","pricing_plan_id":"cebpf4jnsgd1na2vs0mg"},{"bike_id":"8fd7b1c5-b548-48b1-9a55-be35dd3453c1","system_id":"levelo_inurba_marseille","lat":43.31757,"lon":5.39015,"is_reserved":false,"is_disabled":false,"rental_uris":{"android":"levelo://app?vid=8fd7b1c5-b548-48b1-9a55-be35dd3453c1","ios":"levelo://app?vid=8fd7b1c5-b548-48b1-9a55-be35dd3453c1"},"vehicle_type_id":"4","last_reported":1726430930,"current_range_meters":19200,"station_id":"ce4bhqp2rcd13ifvqhng","pricing_plan_id":"cebpf4jnsgd1na2vs0mg"},{"bike_id":"23722360-8e3d-4498-9011-a9c0082dd807","system_id":"levelo_inurba_marseille","lat":43.29255,"lon":5.40906,"is_reserved":false,"is_disabled":false,"rental_uris":{"android":"levelo://app?vid=23722360-8e3d-4498-9011-a9c0082dd807","ios":"levelo://app?vid=23722360-8e3d-4498-9011-a9c0082dd807"},"vehicle_type_id":"4","last_reported":1726430930,"current_range_meters":8800,"station_id":"ce4bh192rcd13ifvqdc0","pricing_plan_id":"cebpf4jnsgd1na2vs0mg"},{"bike_id":"5f1512a8-e595-485d-96ef-dde2702a230f","system_id":"levelo_inurba_marseille","lat":43.29267,"lon":5.36849,"is_reserved":false,"is_disabled":false,"rental_uris":{"android":"levelo://app?vid=5f1512a8-e595-485d-96ef-dde2702a230f","ios":"levelo://app?vid=5f1512a8-e595-485d-96ef-dde2702a230f"},"vehicle_type_id":"4","last_reported":1726430930,"current_range_meters":38800,"station_id":"ce4bhbp2rcd13ifvqesg","pricing_plan_id":"cebpf4jnsgd1na2vs0mg"},{"bike_id":"2a29b635-860d-4fcf-b9ef-7b9429843b40","system_id":"levelo_inurba_marseille","lat":43.31717,"lon":5.42402,"is_reserved":false,"is_disabled":false,"rental_uris":{"android":"levelo://app?vid=2a29b635-860d-4fcf-b9ef-7b9429843b40","ios":"levelo://app?vid=2a29b635-860d-4fcf-b9ef-7b9429843b40"},"vehicle_type_id":"4","last_reported":1726430930,"current_range_meters":36400,"station_id":"ce4bhp92rcd13ifvqhbg","pricing_plan_id":"cebpf4jnsgd1na2vs0mg"},{"bike_id":"3c589fcf-8664-4ef6-a007-88d74cf42479","system_id":"levelo_inurba_marseille","lat":43.31365,"lon":5.38498,"is_reserved":false,"is_disabled":false,"rental_uris":{"android":"levelo://app?vid=3c589fcf-8664-4ef6-a007-88d74cf42479","ios":"levelo://app?vid=3c589fcf-8664-4ef6-a007-88d74cf42479"},"vehicle_type_id":"4","last_reported":1726430930,"current_range_meters":38800,"station_id":"ce4bgt92rcd13ifvqcf0","pricing_plan_id":"cebpf4jnsgd1na2vs0mg"},{"bike_id":"cd81b8a8-d0d0-4041-9d7e-ab48ba847518","system_id":"levelo_inurba_marseille","lat":43.30262,"lon":5.40083,"is_reserved":false,"is_disabled":false,"rental_uris":{"android":"levelo://app?vid=cd81b8a8-d0d0-4041-9d7e-ab48ba847518","ios":"levelo://app?vid=cd81b8a8-d0d0-4041-9d7e-ab48ba847518"},"vehicle_type_id":"4","last_reported":1726430930,"current_range_meters":10000,"station_id":"ce4bgvh2rcd13ifvqcs0","pricing_plan_id":"cebpf4jnsgd1na2vs0mg"},{"bike_id":"65eecb51-7024-4f30-af20-d65f809bce2b","system_id":"levelo_inurba_marseille","lat":43.31326,"lon":5.39692,"is_reserved":false,"is_disabled":false,"rental_uris":{"android":"levelo://app?vid=65eecb51-7024-4f30-af20-d65f809bce2b","ios":"levelo://app?vid=65eecb51-7024-4f30-af20-d65f809bce2b"},"vehicle_type_id":"4","last_reported":1726430930,"current_range_meters":18000,"station_id":"ce4bgvp2rcd13ifvqcu0","pricing_plan_id":"cebpf4jnsgd1na2vs0mg"},{"bike_id":"017941ed-ad7f-4ea2-a91e-ce257d532005","system_id":"levelo_inurba_marseille","lat":43.29527,"lon":5.39403,"is_reserved":false,"is_disabled":false,"rental_uris":{"android":"levelo://app?vid=017941ed-ad7f-4ea2-a91e-ce257d532005","ios":"levelo://app?vid=017941ed-ad7f-4ea2-a91e-ce257d532005"},"vehicle_type_id":"4","last_reported":1726430930,"current_range_meters":38800,"station_id":"ce4bh292rcd13ifvqdf0","pricing_plan_id":"cebpf4jnsgd1na2vs0mg"},{"bike_id":"4330a1ff-ccfa-486d-96a3-d5df87faed1e","system_id":"levelo_inurba_marseille","lat":43.24811,"lon":5.37459,"is_reserved":false,"is_disabled":false,"rental_uris":{"android":"levelo://app?vid=4330a1ff-ccfa-486d-96a3-d5df87faed1e","ios":"levelo://app?vid=4330a1ff-ccfa-486d-96a3-d5df87faed1e"},"vehicle_type_id":"4","last_reported":1726430930,"current_range_meters":19200,"station_id":"ce4bhgh2rcd13ifvqfb0","pricing_plan_id":"cebpf4jnsgd1na2vs0mg"},{"bike_id":"66e26542-f4bb-48a9-8dfb-6d67778213d9","system_id":"levelo_inurba_marseille","lat":43.31111,"lon":5.37773,"is_reserved":false,"is_disabled":false,"rental_uris":{"android":"levelo://app?vid=66e26542-f4bb-48a9-8dfb-6d67778213d9","ios":"levelo://app?vid=66e26542-f4bb-48a9-8dfb-6d67778213d9"},"vehicle_type_id":"4","last_reported":1726430930,"current_range_meters":22400,"station_id":"ce4bgt92rcd13ifvqcg0","pricing_plan_id":"cebpf4jnsgd1na2vs0mg"},{"bike_id":"d1f38fcd-be46-4877-a9ac-34b365272c30","system_id":"levelo_inurba_marseille","lat":43.27102,"lon":5.43322,"is_reserved":false,"is_disabled":false,"rental_uris":{"android":"levelo://app?vid=d1f38fcd-be46-4877-a9ac-34b365272c30","ios":"levelo://app?vid=d1f38fcd-be46-4877-a9ac-34b365272c30"},"vehicle_type_id":"4","last_reported":1726430930,"current_range_meters":12800,"station_id":"","pricing_plan_id":"cebpf4jnsgd1na2vs0mg"},{"bike_id":"26739c8b-35f4-4c75-8b23-6661e5814a1f","system_id":"levelo_inurba_marseille","lat":43.27613,"lon":5.3612,"is_reserved":false,"is_disabled":false,"rental_uris":{"android":"levelo://app?vid=26739c8b-35f4-4c75-8b23-6661e5814a1f","ios":"levelo://app?vid=26739c8b-35f4-4c75-8b23-6661e5814a1f"},"vehicle_type_id":"4","last_reported":1726430930,"current_range_meters":16400,"station_id":"ce4bgj92rcd13ifvqbe0","pricing_plan_id":"cebpf4jnsgd1na2vs0mg"},{"bike_id":"a389cf42-1f51-4452-94d5-8089c4131191","system_id":"levelo_inurba_marseille","lat":43.29626,"lon":5.40602,"is_reserved":false,"is_disabled":false,"rental_uris":{"android":"levelo://app?vid=a389cf42-1f51-4452-94d5-8089c4131191","ios":"levelo://app?vid=a389cf42-1f51-4452-94d5-8089c4131191"},"vehicle_type_id":"4","last_reported":1726430930,"current_range_meters":15200,"station_id":"ce4bh0h2rcd13ifvqd60","pricing_plan_id":"cebpf4jnsgd1na2vs0mg"},{"bike_id":"e35c233f-e699-4e2f-a3ba-2a6e3af16240","system_id":"levelo_inurba_marseille","lat":43.29275,"lon":5.40125,"is_reserved":false,"is_disabled":false,"rental_uris":{"android":"levelo://app?vid=e35c233f-e699-4e2f-a3ba-2a6e3af16240","ios":"levelo://app?vid=e35c233f-e699-4e2f-a3ba-2a6e3af16240"},"vehicle_type_id":"4","last_reported":1726430930,"current_range_meters":17200,"station_id":"ce4bh312rcd13ifvqdk0","pricing_plan_id":"cebpf4jnsgd1na2vs0mg"},{"bike_id":"0e167bdc-6688-40e7-b1a3-e2cbe45e35f3","system_id":"levelo_inurba_marseille","lat":43.304114,"lon":5.36797,"is_reserved":false,"is_disabled":false,"rental_uris":{"android":"levelo://app?vid=0e167bdc-6688-40e7-b1a3-e2cbe45e35f3","ios":"levelo://app?vid=0e167bdc-6688-40e7-b1a3-e2cbe45e35f3"},"vehicle_type_id":"4","last_reported":1726430930,"current_range_meters":15200,"station_id":"ce4bgrp2rcd13ifvqc9g","pricing_plan_id":"cebpf4jnsgd1na2vs0mg"},{"bike_id":"e3dfab87-bbc8-4d87-9cfa-83a45062eefc","system_id":"levelo_inurba_marseille","lat":43.31217,"lon":5.36865,"is_reserved":false,"is_disabled":false,"rental_uris":{"android":"levelo://app?vid=e3dfab87-bbc8-4d87-9cfa-83a45062eefc","ios":"levelo://app?vid=e3dfab87-bbc8-4d87-9cfa-83a45062eefc"},"vehicle_type_id":"4","last_reported":1726430930,"current_range_meters":31200,"station_id":"ce4bgl92rcd13ifvqbq0","pricing_plan_id":"cebpf4jnsgd1na2vs0mg"},{"bike_id":"91f7e9e5-076e-4e3a-8acf-289dc20e3d9f","system_id":"levelo_inurba_marseille","lat":43.31721,"lon":5.42411,"is_reserved":false,"is_disabled":false,"rental_uris":{"android":"levelo://app?vid=91f7e9e5-076e-4e3a-8acf-289dc20e3d9f","ios":"levelo://app?vid=91f7e9e5-076e-4e3a-8acf-289dc20e3d9f"},"vehicle_type_id":"4","last_reported":1726430930,"current_range_meters":36000,"station_id":"ce4bhp92rcd13ifvqhbg","pricing_plan_id":"cebpf4jnsgd1na2vs0mg"},{"bike_id":"d4dcec5a-b0b6-4319-8584-aaf3103d153c","system_id":"levelo_inurba_marseille","lat":43.29562,"lon":5.42276,"is_reserved":false,"is_disabled":false,"rental_uris":{"android":"levelo://app?vid=d4dcec5a-b0b6-4319-8584-aaf3103d153c","ios":"levelo://app?vid=d4dcec5a-b0b6-4319-8584-aaf3103d153c"},"vehicle_type_id":"4","last_reported":1726430930,"current_range_meters":34800,"station_id":"ce4bhph2rcd13ifvqhdg","pricing_plan_id":"cebpf4jnsgd1na2vs0mg"},{"bike_id":"67b5b757-e0f3-43f5-9024-da319fb1d16e","system_id":"levelo_inurba_marseille","lat":43.23184,"lon":5.39987,"is_reserved":false,"is_disabled":false,"rental_uris":{"android":"levelo://app?vid=67b5b757-e0f3-43f5-9024-da319fb1d16e","ios":"levelo://app?vid=67b5b757-e0f3-43f5-9024-da319fb1d16e"},"vehicle_type_id":"4","last_reported":1726430930,"current_range_meters":21600,"station_id":"ce4bhn12rcd13ifvqgqg","pricing_plan_id":"cebpf4jnsgd1na2vs0mg"},{"bike_id":"1ad34421-a24f-4bc0-a824-1422d0b39cb0","system_id":"levelo_inurba_marseille","lat":43.28153,"lon":5.42645,"is_reserved":false,"is_disabled":false,"rental_uris":{"android":"levelo://app?vid=1ad34421-a24f-4bc0-a824-1422d0b39cb0","ios":"levelo://app?vid=1ad34421-a24f-4bc0-a824-1422d0b39cb0"},"vehicle_type_id":"4","last_reported":1726430930,"current_range_meters":35600,"station_id":"ce4bhnh2rcd13ifvqgug","pricing_plan_id":"cebpf4jnsgd1na2vs0mg"},{"bike_id":"5263c75a-b0ca-4e1c-9976-2df708ba914c","system_id":"levelo_inurba_marseille","lat":43.29555,"lon":5.42297,"is_reserved":false,"is_disabled":false,"rental_uris":{"android":"levelo://app?vid=5263c75a-b0ca-4e1c-9976-2df708ba914c","ios":"levelo://app?vid=5263c75a-b0ca-4e1c-9976-2df708ba914c"},"vehicle_type_id":"4","last_reported":1726430930,"current_range_meters":9600,"station_id":"ce4bhph2rcd13ifvqhdg","pricing_plan_id":"cebpf4jnsgd1na2vs0mg"},{"bike_id":"b3bc4569-a631-4c35-900f-ca74463abedf","system_id":"levelo_inurba_marseille","lat":43.29959,"lon":5.41321,"is_reserved":false,"is_disabled":false,"rental_uris":{"android":"levelo://app?vid=b3bc4569-a631-4c35-900f-ca74463abedf","ios":"levelo://app?vid=b3bc4569-a631-4c35-900f-ca74463abedf"},"vehicle_type_id":"4","last_reported":1726430930,"current_range_meters":38400,"station_id":"ce4bhp12rcd13ifvqh9g","pricing_plan_id":"cebpf4jnsgd1na2vs0mg"},{"bike_id":"b5696421-77cc-40aa-80de-15fc230716f3","system_id":"levelo_inurba_marseille","lat":43.28943,"lon":5.36638,"is_reserved":false,"is_disabled":false,"rental_uris":{"android":"levelo://app?vid=b5696421-77cc-40aa-80de-15fc230716f3","ios":"levelo://app?vid=b5696421-77cc-40aa-80de-15fc230716f3"},"vehicle_type_id":"4","last_reported":1726430930,"current_range_meters":28400,"station_id":"ce4bhap2rcd13ifvqek0","pricing_plan_id":"cebpf4jnsgd1na2vs0mg"},{"bike_id":"743ea870-d207-4df9-afd4-755f91ca54b0","system_id":"levelo_inurba_marseille","lat":43.29596,"lon":5.39986,"is_reserved":false,"is_disabled":false,"rental_uris":{"android":"levelo://app?vid=743ea870-d207-4df9-afd4-755f91ca54b0","ios":"levelo://app?vid=743ea870-d207-4df9-afd4-755f91ca54b0"},"vehicle_type_id":"4","last_reported":1726430930,"current_range_meters":38800,"station_id":"ce4bh312rcd13ifvqdj0","pricing_plan_id":"cebpf4jnsgd1na2vs0mg"},{"bike_id":"2b3fca79-0f3e-45d7-be74-0e0f0d63ff36","system_id":"levelo_inurba_marseille","lat":43.30634,"lon":5.40083,"is_reserved":false,"is_disabled":false,"rental_uris":{"android":"levelo://app?vid=2b3fca79-0f3e-45d7-be74-0e0f0d63ff36","ios":"levelo://app?vid=2b3fca79-0f3e-45d7-be74-0e0f0d63ff36"},"vehicle_type_id":"4","last_reported":1726430930,"current_range_meters":35200,"station_id":"ce4bh112rcd13ifvqda0","pricing_plan_id":"cebpf4jnsgd1na2vs0mg"},{"bike_id":"7d24dfc9-9aa3-4d48-85aa-529448418cd9","system_id":"levelo_inurba_marseille","lat":43.31163,"lon":5.38725,"is_reserved":false,"is_disabled":false,"rental_uris":{"android":"levelo://app?vid=7d24dfc9-9aa3-4d48-85aa-529448418cd9","ios":"levelo://app?vid=7d24dfc9-9aa3-4d48-85aa-529448418cd9"},"vehicle_type_id":"4","last_reported":1726430930,"current_range_meters":15200,"station_id":"ce4bgv12rcd13ifvqcp0","pricing_plan_id":"cebpf4jnsgd1na2vs0mg"},{"bike_id":"3c02c4fd-3a18-4ab2-8e77-fb1540b9eda5","system_id":"levelo_inurba_marseille","lat":43.23183,"lon":5.3999,"is_reserved":false,"is_disabled":false,"rental_uris":{"android":"levelo://app?vid=3c02c4fd-3a18-4ab2-8e77-fb1540b9eda5","ios":"levelo://app?vid=3c02c4fd-3a18-4ab2-8e77-fb1540b9eda5"},"vehicle_type_id":"4","last_reported":1726430930,"current_range_meters":27600,"station_id":"ce4bhn12rcd13ifvqgqg","pricing_plan_id":"cebpf4jnsgd1na2vs0mg"},{"bike_id":"0696e589-433a-4e9c-9e8b-1869252a8f5e","system_id":"levelo_inurba_marseille","lat":43.287,"lon":5.37383,"is_reserved":false,"is_disabled":false,"rental_uris":{"android":"levelo://app?vid=0696e589-433a-4e9c-9e8b-1869252a8f5e","ios":"levelo://app?vid=0696e589-433a-4e9c-9e8b-1869252a8f5e"},"vehicle_type_id":"4","last_reported":1726430930,"current_range_meters":38000,"station_id":"ce4bh3p2rcd13ifvqdq0","pricing_plan_id":"cebpf4jnsgd1na2vs0mg"},{"bike_id":"e3f4df9c-3e96-4308-8f66-0bb701a5c870","system_id":"levelo_inurba_marseille","lat":43.28705,"lon":5.37939,"is_reserved":false,"is_disabled":false,"rental_uris":{"android":"levelo://app?vid=e3f4df9c-3e96-4308-8f66-0bb701a5c870","ios":"levelo://app?vid=e3f4df9c-3e96-4308-8f66-0bb701a5c870"},"vehicle_type_id":"4","last_reported":1726430930,"current_range_meters":38800,"station_id":"ce4bh9p2rcd13ifvqec0","pricing_plan_id":"cebpf4jnsgd1na2vs0mg"},{"bike_id":"be700df8-4555-417d-b3de-6fa298551d25","system_id":"levelo_inurba_marseille","lat":43.28709,"lon":5.39987,"is_reserved":false,"is_disabled":false,"rental_uris":{"android":"levelo://app?vid=be700df8-4555-417d-b3de-6fa298551d25","ios":"levelo://app?vid=be700df8-4555-417d-b3de-6fa298551d25"},"vehicle_type_id":"4","last_reported":1726430930,"current_range_meters":38000,"station_id":"ce4bho92rcd13ifvqh3g","pricing_plan_id":"cebpf4jnsgd1na2vs0mg"},{"bike_id":"103368f7-6cf9-4f61-a9f7-0e638a4ed99a","system_id":"levelo_inurba_marseille","lat":43.24073,"lon":5.37759,"is_reserved":false,"is_disabled":false,"rental_uris":{"android":"levelo://app?vid=103368f7-6cf9-4f61-a9f7-0e638a4ed99a","ios":"levelo://app?vid=103368f7-6cf9-4f61-a9f7-0e638a4ed99a"},"vehicle_type_id":"4","last_reported":1726430930,"current_range_meters":10800,"station_id":"ce4bhnp2rcd13ifvqgvg","pricing_plan_id":"cebpf4jnsgd1na2vs0mg"},{"bike_id":"d777a0b3-3f17-475c-b403-efafc48e02e0","system_id":"levelo_inurba_marseille","lat":43.28419,"lon":5.37524,"is_reserved":false,"is_disabled":false,"rental_uris":{"android":"levelo://app?vid=d777a0b3-3f17-475c-b403-efafc48e02e0","ios":"levelo://app?vid=d777a0b3-3f17-475c-b403-efafc48e02e0"},"vehicle_type_id":"4","last_reported":1726430930,"current_range_meters":14400,"station_id":"ce4bh412rcd13ifvqds0","pricing_plan_id":"cebpf4jnsgd1na2vs0mg"},{"bike_id":"c0e72436-804e-423e-b312-046b779f2d3a","system_id":"levelo_inurba_marseille","lat":43.30886,"lon":5.37194,"is_reserved":false,"is_disabled":false,"rental_uris":{"android":"levelo://app?vid=c0e72436-804e-423e-b312-046b779f2d3a","ios":"levelo://app?vid=c0e72436-804e-423e-b312-046b779f2d3a"},"vehicle_type_id":"4","last_reported":1726430930,"current_range_meters":18000,"station_id":"ce4bguh2rcd13ifvqckg","pricing_plan_id":"cebpf4jnsgd1na2vs0mg"},{"bike_id":"c38db8a9-cb99-4f97-a76a-70fbe8246e66","system_id":"levelo_inurba_marseille","lat":43.28663,"lon":5.3636,"is_reserved":false,"is_disabled":false,"rental_uris":{"android":"levelo://app?vid=c38db8a9-cb99-4f97-a76a-70fbe8246e66","ios":"levelo://app?vid=c38db8a9-cb99-4f97-a76a-70fbe8246e66"},"vehicle_type_id":"4","last_reported":1726430930,"current_range_meters":38800,"station_id":"ce4bhah2rcd13ifvqej0","pricing_plan_id":"cebpf4jnsgd1na2vs0mg"},{"bike_id":"7c82eff3-455c-4ac5-a0d4-aa6e30fca420","system_id":"levelo_inurba_marseille","lat":43.24805,"lon":5.37461,"is_reserved":false,"is_disabled":false,"rental_uris":{"android":"levelo://app?vid=7c82eff3-455c-4ac5-a0d4-aa6e30fca420","ios":"levelo://app?vid=7c82eff3-455c-4ac5-a0d4-aa6e30fca420"},"vehicle_type_id":"4","last_reported":1726430930,"current_range_meters":19600,"station_id":"ce4bhgh2rcd13ifvqfb0","pricing_plan_id":"cebpf4jnsgd1na2vs0mg"},{"bike_id":"2de6abdc-9fce-4d7c-8677-5bc6e76e1f41","system_id":"levelo_inurba_marseille","lat":43.308258,"lon":5.396183,"is_reserved":false,"is_disabled":false,"rental_uris":{"android":"levelo://app?vid=2de6abdc-9fce-4d7c-8677-5bc6e76e1f41","ios":"levelo://app?vid=2de6abdc-9fce-4d7c-8677-5bc6e76e1f41"},"vehicle_type_id":"4","last_reported":1726430930,"current_range_meters":6400,"station_id":"","pricing_plan_id":"cebpf4jnsgd1na2vs0mg"},{"bike_id":"d84c9603-1128-4077-bbb1-73a1eb60d6e1","system_id":"levelo_inurba_marseille","lat":43.25578,"lon":5.38232,"is_reserved":false,"is_disabled":false,"rental_uris":{"android":"levelo://app?vid=d84c9603-1128-4077-bbb1-73a1eb60d6e1","ios":"levelo://app?vid=d84c9603-1128-4077-bbb1-73a1eb60d6e1"},"vehicle_type_id":"4","last_reported":1726430930,"current_range_meters":35200,"station_id":"ce4bhih2rcd13ifvqfs0","pricing_plan_id":"cebpf4jnsgd1na2vs0mg"},{"bike_id":"eddc9a4c-0dbc-453c-9d94-34f27e1c0445","system_id":"levelo_inurba_marseille","lat":43.25719,"lon":5.41113,"is_reserved":false,"is_disabled":false,"rental_uris":{"android":"levelo://app?vid=eddc9a4c-0dbc-453c-9d94-34f27e1c0445","ios":"levelo://app?vid=eddc9a4c-0dbc-453c-9d94-34f27e1c0445"},"vehicle_type_id":"4","last_reported":1726430930,"current_range_meters":38800,"station_id":"ce4bhkp2rcd13ifvqgd0","pricing_plan_id":"cebpf4jnsgd1na2vs0mg"},{"bike_id":"328d45f9-980e-4811-97c0-47d761861509","system_id":"levelo_inurba_marseille","lat":43.29847,"lon":5.37836,"is_reserved":false,"is_disabled":false,"rental_uris":{"android":"levelo://app?vid=328d45f9-980e-4811-97c0-47d761861509","ios":"levelo://app?vid=328d45f9-980e-4811-97c0-47d761861509"},"vehicle_type_id":"4","last_reported":1726430930,"current_range_meters":26800,"station_id":"ce4bgkh2rcd13ifvqbl0","pricing_plan_id":"cebpf4jnsgd1na2vs0mg"},{"bike_id":"ed894eb8-418b-420e-8b0a-60c234bd212d","system_id":"levelo_inurba_marseille","lat":43.25092,"lon":5.39528,"is_reserved":false,"is_disabled":false,"rental_uris":{"android":"levelo://app?vid=ed894eb8-418b-420e-8b0a-60c234bd212d","ios":"levelo://app?vid=ed894eb8-418b-420e-8b0a-60c234bd212d"},"vehicle_type_id":"4","last_reported":1726430930,"current_range_meters":7200,"station_id":"ce4bhm12rcd13ifvqgkg","pricing_plan_id":"cebpf4jnsgd1na2vs0mg"},{"bike_id":"faf816e6-4e87-4e93-88d4-5861eae33b5c","system_id":"levelo_inurba_marseille","lat":43.24078,"lon":5.3775,"is_reserved":false,"is_disabled":false,"rental_uris":{"android":"levelo://app?vid=faf816e6-4e87-4e93-88d4-5861eae33b5c","ios":"levelo://app?vid=faf816e6-4e87-4e93-88d4-5861eae33b5c"},"vehicle_type_id":"4","last_reported":1726430930,"current_range_meters":24800,"station_id":"ce4bhnp2rcd13ifvqgvg","pricing_plan_id":"cebpf4jnsgd1na2vs0mg"},{"bike_id":"67222901-a7b6-42c0-8ea8-34d1c17444c6","system_id":"levelo_inurba_marseille","lat":43.29875,"lon":5.38916,"is_reserved":false,"is_disabled":false,"rental_uris":{"android":"levelo://app?vid=67222901-a7b6-42c0-8ea8-34d1c17444c6","ios":"levelo://app?vid=67222901-a7b6-42c0-8ea8-34d1c17444c6"},"vehicle_type_id":"4","last_reported":1726430930,"current_range_meters":24400,"station_id":"ce4bh392rcd13ifvqdl0","pricing_plan_id":"cebpf4jnsgd1na2vs0mg"},{"bike_id":"c264ec44-e2d7-4307-8c45-7a567c428ef9","system_id":"levelo_inurba_marseille","lat":43.24646,"lon":5.38902,"is_reserved":false,"is_disabled":false,"rental_uris":{"android":"levelo://app?vid=c264ec44-e2d7-4307-8c45-7a567c428ef9","ios":"levelo://app?vid=c264ec44-e2d7-4307-8c45-7a567c428ef9"},"vehicle_type_id":"4","last_reported":1726430930,"current_range_meters":38800,"station_id":"ce4bhg12rcd13ifvqf60","pricing_plan_id":"cebpf4jnsgd1na2vs0mg"},{"bike_id":"564f400b-9296-4a76-8da4-1956e45162d7","system_id":"levelo_inurba_marseille","lat":43.28692,"lon":5.37393,"is_reserved":false,"is_disabled":false,"rental_uris":{"android":"levelo://app?vid=564f400b-9296-4a76-8da4-1956e45162d7","ios":"levelo://app?vid=564f400b-9296-4a76-8da4-1956e45162d7"},"vehicle_type_id":"4","last_reported":1726430930,"current_range_meters":38800,"station_id":"ce4bh3p2rcd13ifvqdq0","pricing_plan_id":"cebpf4jnsgd1na2vs0mg"},{"bike_id":"9a3eac03-f625-4acd-81c2-b5b243e2e77f","system_id":"levelo_inurba_marseille","lat":43.30885,"lon":5.39646,"is_reserved":false,"is_disabled":false,"rental_uris":{"android":"levelo://app?vid=9a3eac03-f625-4acd-81c2-b5b243e2e77f","ios":"levelo://app?vid=9a3eac03-f625-4acd-81c2-b5b243e2e77f"},"vehicle_type_id":"4","last_reported":1726430930,"current_range_meters":3200,"station_id":"ce4bh012rcd13ifvqcv0","pricing_plan_id":"cebpf4jnsgd1na2vs0mg"},{"bike_id":"e1edda8f-74dc-4ce7-9d4d-9da26d9fad43","system_id":"levelo_inurba_marseille","lat":43.31484,"lon":5.37308,"is_reserved":false,"is_disabled":false,"rental_uris":{"android":"levelo://app?vid=e1edda8f-74dc-4ce7-9d4d-9da26d9fad43","ios":"levelo://app?vid=e1edda8f-74dc-4ce7-9d4d-9da26d9fad43"},"vehicle_type_id":"4","last_reported":1726430930,"current_range_meters":7200,"station_id":"ce4bgt12rcd13ifvqcd0","pricing_plan_id":"cebpf4jnsgd1na2vs0mg"},{"bike_id":"8b608b96-fedf-4511-8d4b-09bad2606e1a","system_id":"levelo_inurba_marseille","lat":43.27712,"lon":5.41138,"is_reserved":false,"is_disabled":false,"rental_uris":{"android":"levelo://app?vid=8b608b96-fedf-4511-8d4b-09bad2606e1a","ios":"levelo://app?vid=8b608b96-fedf-4511-8d4b-09bad2606e1a"},"vehicle_type_id":"4","last_reported":1726430930,"current_range_meters":19600,"station_id":"","pricing_plan_id":"cebpf4jnsgd1na2vs0mg"},{"bike_id":"a4b37153-d039-4617-9b32-8a0da7d70de0","system_id":"levelo_inurba_marseille","lat":43.30934,"lon":5.40142,"is_reserved":false,"is_disabled":false,"rental_uris":{"android":"levelo://app?vid=a4b37153-d039-4617-9b32-8a0da7d70de0","ios":"levelo://app?vid=a4b37153-d039-4617-9b32-8a0da7d70de0"},"vehicle_type_id":"4","last_reported":1726430930,"current_range_meters":30800,"station_id":"ce4bgvp2rcd13ifvqct0","pricing_plan_id":"cebpf4jnsgd1na2vs0mg"},{"bike_id":"069e9745-8f8c-4dbc-9b0b-aa49bd4648cb","system_id":"levelo_inurba_marseille","lat":43.31752,"lon":5.39022,"is_reserved":false,"is_disabled":false,"rental_uris":{"android":"levelo://app?vid=069e9745-8f8c-4dbc-9b0b-aa49bd4648cb","ios":"levelo://app?vid=069e9745-8f8c-4dbc-9b0b-aa49bd4648cb"},"vehicle_type_id":"4","last_reported":1726430930,"current_range_meters":39200,"station_id":"ce4bhqp2rcd13ifvqhng","pricing_plan_id":"cebpf4jnsgd1na2vs0mg"},{"bike_id":"033f8a09-3d86-4af9-a20e-f66149a8ac76","system_id":"levelo_inurba_marseille","lat":43.28843,"lon":5.3931,"is_reserved":false,"is_disabled":false,"rental_uris":{"android":"levelo://app?vid=033f8a09-3d86-4af9-a20e-f66149a8ac76","ios":"levelo://app?vid=033f8a09-3d86-4af9-a20e-f66149a8ac76"},"vehicle_type_id":"4","last_reported":1726430930,"current_range_meters":38800,"station_id":"ce4bh2p2rcd13ifvqdi0","pricing_plan_id":"cebpf4jnsgd1na2vs0mg"},{"bike_id":"6f4f7321-2be7-4c36-bb04-a516f10e06a9","system_id":"levelo_inurba_marseille","lat":43.23174,"lon":5.39992,"is_reserved":false,"is_disabled":false,"rental_uris":{"android":"levelo://app?vid=6f4f7321-2be7-4c36-bb04-a516f10e06a9","ios":"levelo://app?vid=6f4f7321-2be7-4c36-bb04-a516f10e06a9"},"vehicle_type_id":"4","last_reported":1726430930,"current_range_meters":30000,"station_id":"ce4bhn12rcd13ifvqgqg","pricing_plan_id":"cebpf4jnsgd1na2vs0mg"},{"bike_id":"fa2b0a9f-66ad-4cd1-b7bb-93b9cffdc904","system_id":"levelo_inurba_marseille","lat":43.25927,"lon":5.40918,"is_reserved":false,"is_disabled":false,"rental_uris":{"android":"levelo://app?vid=fa2b0a9f-66ad-4cd1-b7bb-93b9cffdc904","ios":"levelo://app?vid=fa2b0a9f-66ad-4cd1-b7bb-93b9cffdc904"},"vehicle_type_id":"4","last_reported":1726430930,"current_range_meters":30800,"station_id":"ce4bhm92rcd13ifvqglg","pricing_plan_id":"cebpf4jnsgd1na2vs0mg"},{"bike_id":"a0c7d516-b8e5-400b-b2ed-07115cb25245","system_id":"levelo_inurba_marseille","lat":43.2861,"lon":5.37069,"is_reserved":false,"is_disabled":false,"rental_uris":{"android":"levelo://app?vid=a0c7d516-b8e5-400b-b2ed-07115cb25245","ios":"levelo://app?vid=a0c7d516-b8e5-400b-b2ed-07115cb25245"},"vehicle_type_id":"4","last_reported":1726430930,"current_range_meters":38800,"station_id":"ce4bht12rcd13ifvqi60","pricing_plan_id":"cebpf4jnsgd1na2vs0mg"},{"bike_id":"d8fcb5b6-2eb5-4812-ac24-b68cff4eac2b","system_id":"levelo_inurba_marseille","lat":43.30125,"lon":5.39859,"is_reserved":false,"is_disabled":false,"rental_uris":{"android":"levelo://app?vid=d8fcb5b6-2eb5-4812-ac24-b68cff4eac2b","ios":"levelo://app?vid=d8fcb5b6-2eb5-4812-ac24-b68cff4eac2b"},"vehicle_type_id":"4","last_reported":1726430930,"current_range_meters":20000,"station_id":"ce4bh0h2rcd13ifvqd40","pricing_plan_id":"cebpf4jnsgd1na2vs0mg"},{"bike_id":"f3c4b0c8-dc65-49d9-a5c4-b1fb5822defe","system_id":"levelo_inurba_marseille","lat":43.28096,"lon":5.37847,"is_reserved":false,"is_disabled":false,"rental_uris":{"android":"levelo://app?vid=f3c4b0c8-dc65-49d9-a5c4-b1fb5822defe","ios":"levelo://app?vid=f3c4b0c8-dc65-49d9-a5c4-b1fb5822defe"},"vehicle_type_id":"4","last_reported":1726430930,"current_range_meters":38800,"station_id":"ce4bha12rcd13ifvqee0","pricing_plan_id":"cebpf4jnsgd1na2vs0mg"},{"bike_id":"d2ca61ed-07b0-4f91-990e-b98a38e76d1b","system_id":"levelo_inurba_marseille","lat":43.24068,"lon":5.37758,"is_reserved":false,"is_disabled":false,"rental_uris":{"android":"levelo://app?vid=d2ca61ed-07b0-4f91-990e-b98a38e76d1b","ios":"levelo://app?vid=d2ca61ed-07b0-4f91-990e-b98a38e76d1b"},"vehicle_type_id":"4","last_reported":1726430930,"current_range_meters":10000,"station_id":"ce4bhnp2rcd13ifvqgvg","pricing_plan_id":"cebpf4jnsgd1na2vs0mg"},{"bike_id":"6565f255-ce1a-414b-a8e6-1aaff8a8c8df","system_id":"levelo_inurba_marseille","lat":43.2694,"lon":5.4025,"is_reserved":false,"is_disabled":false,"rental_uris":{"android":"levelo://app?vid=6565f255-ce1a-414b-a8e6-1aaff8a8c8df","ios":"levelo://app?vid=6565f255-ce1a-414b-a8e6-1aaff8a8c8df"},"vehicle_type_id":"4","last_reported":1726430930,"current_range_meters":38800,"station_id":"cjm6bp8fraef2m0cb0m0","pricing_plan_id":"cebpf4jnsgd1na2vs0mg"},{"bike_id":"1a75ef1e-cc10-4c5c-8827-81f04c5e043a","system_id":"levelo_inurba_marseille","lat":43.29526,"lon":5.39029,"is_reserved":false,"is_disabled":false,"rental_uris":{"android":"levelo://app?vid=1a75ef1e-cc10-4c5c-8827-81f04c5e043a","ios":"levelo://app?vid=1a75ef1e-cc10-4c5c-8827-81f04c5e043a"},"vehicle_type_id":"4","last_reported":1726430930,"current_range_meters":38000,"station_id":"ce4bh3p2rcd13ifvqdp0","pricing_plan_id":"cebpf4jnsgd1na2vs0mg"},{"bike_id":"a1b069b8-c026-4c9f-8e34-d5bd0fe15995","system_id":"levelo_inurba_marseille","lat":43.30134,"lon":5.39859,"is_reserved":false,"is_disabled":false,"rental_uris":{"android":"levelo://app?vid=a1b069b8-c026-4c9f-8e34-d5bd0fe15995","ios":"levelo://app?vid=a1b069b8-c026-4c9f-8e34-d5bd0fe15995"},"vehicle_type_id":"4","last_reported":1726430930,"current_range_meters":14400,"station_id":"ce4bh0h2rcd13ifvqd40","pricing_plan_id":"cebpf4jnsgd1na2vs0mg"},{"bike_id":"d9a83456-ebaf-4d26-8b3b-dd52d0b660a5","system_id":"levelo_inurba_marseille","lat":43.293477,"lon":5.370284,"is_reserved":false,"is_disabled":false,"rental_uris":{"android":"levelo://app?vid=d9a83456-ebaf-4d26-8b3b-dd52d0b660a5","ios":"levelo://app?vid=d9a83456-ebaf-4d26-8b3b-dd52d0b660a5"},"vehicle_type_id":"4","last_reported":1726430930,"current_range_meters":32400,"station_id":"ce4bh192rcd13ifvqdd0","pricing_plan_id":"cebpf4jnsgd1na2vs0mg"},{"bike_id":"f522a6fd-81f7-486f-aa4c-c48f972960df","system_id":"levelo_inurba_marseille","lat":43.28708,"lon":5.37397,"is_reserved":false,"is_disabled":false,"rental_uris":{"android":"levelo://app?vid=f522a6fd-81f7-486f-aa4c-c48f972960df","ios":"levelo://app?vid=f522a6fd-81f7-486f-aa4c-c48f972960df"},"vehicle_type_id":"4","last_reported":1726430930,"current_range_meters":38000,"station_id":"ce4bh3p2rcd13ifvqdq0","pricing_plan_id":"cebpf4jnsgd1na2vs0mg"},{"bike_id":"998460b9-5e8f-453c-b355-2194979b4112","system_id":"levelo_inurba_marseille","lat":43.31113,"lon":5.3777,"is_reserved":false,"is_disabled":false,"rental_uris":{"android":"levelo://app?vid=998460b9-5e8f-453c-b355-2194979b4112","ios":"levelo://app?vid=998460b9-5e8f-453c-b355-2194979b4112"},"vehicle_type_id":"4","last_reported":1726430930,"current_range_meters":36000,"station_id":"ce4bgt92rcd13ifvqcg0","pricing_plan_id":"cebpf4jnsgd1na2vs0mg"},{"bike_id":"452e1e49-15ff-498b-a09c-be78556bb005","system_id":"levelo_inurba_marseille","lat":43.27807,"lon":5.40717,"is_reserved":false,"is_disabled":false,"rental_uris":{"android":"levelo://app?vid=452e1e49-15ff-498b-a09c-be78556bb005","ios":"levelo://app?vid=452e1e49-15ff-498b-a09c-be78556bb005"},"vehicle_type_id":"4","last_reported":1726430930,"current_range_meters":27200,"station_id":"ce4bhnh2rcd13ifvqgtg","pricing_plan_id":"cebpf4jnsgd1na2vs0mg"},{"bike_id":"1c956d28-b66e-427b-9681-b110484fbd57","system_id":"levelo_inurba_marseille","lat":43.27989,"lon":5.41662,"is_reserved":false,"is_disabled":false,"rental_uris":{"android":"levelo://app?vid=1c956d28-b66e-427b-9681-b110484fbd57","ios":"levelo://app?vid=1c956d28-b66e-427b-9681-b110484fbd57"},"vehicle_type_id":"4","last_reported":1726430930,"current_range_meters":38800,"station_id":"ce4bho12rcd13ifvqh1g","pricing_plan_id":"cebpf4jnsgd1na2vs0mg"},{"bike_id":"f1e8ceee-9573-4b77-ab79-482d0d3b70cc","system_id":"levelo_inurba_marseille","lat":43.24172,"lon":5.36403,"is_reserved":false,"is_disabled":false,"rental_uris":{"android":"levelo://app?vid=f1e8ceee-9573-4b77-ab79-482d0d3b70cc","ios":"levelo://app?vid=f1e8ceee-9573-4b77-ab79-482d0d3b70cc"},"vehicle_type_id":"4","last_reported":1726430930,"current_range_meters":34000,"station_id":"cpo36qri1sfpv3e86is0","pricing_plan_id":"cebpf4jnsgd1na2vs0mg"},{"bike_id":"e1109701-6d35-43bb-a58b-e4a0ed786c73","system_id":"levelo_inurba_marseille","lat":43.32285,"lon":5.38277,"is_reserved":false,"is_disabled":false,"rental_uris":{"android":"levelo://app?vid=e1109701-6d35-43bb-a58b-e4a0ed786c73","ios":"levelo://app?vid=e1109701-6d35-43bb-a58b-e4a0ed786c73"},"vehicle_type_id":"4","last_reported":1726430930,"current_range_meters":8000,"station_id":"ce4bhr12rcd13ifvqhqg","pricing_plan_id":"cebpf4jnsgd1na2vs0mg"},{"bike_id":"1e945b7e-fbbd-4e30-b682-5bef62ffa3ef","system_id":"levelo_inurba_marseille","lat":43.30399,"lon":5.37821,"is_reserved":false,"is_disabled":false,"rental_uris":{"android":"levelo://app?vid=1e945b7e-fbbd-4e30-b682-5bef62ffa3ef","ios":"levelo://app?vid=1e945b7e-fbbd-4e30-b682-5bef62ffa3ef"},"vehicle_type_id":"4","last_reported":1726430930,"current_range_meters":33600,"station_id":"ce4bgup2rcd13ifvqcn0","pricing_plan_id":"cebpf4jnsgd1na2vs0mg"},{"bike_id":"94920cbb-ca3d-46c3-ac71-68b630e7d818","system_id":"levelo_inurba_marseille","lat":43.24554,"lon":5.39528,"is_reserved":false,"is_disabled":false,"rental_uris":{"android":"levelo://app?vid=94920cbb-ca3d-46c3-ac71-68b630e7d818","ios":"levelo://app?vid=94920cbb-ca3d-46c3-ac71-68b630e7d818"},"vehicle_type_id":"4","last_reported":1726430930,"current_range_meters":38800,"station_id":"ce4bhlp2rcd13ifvqgjg","pricing_plan_id":"cebpf4jnsgd1na2vs0mg"},{"bike_id":"2d853d36-88af-4cb5-ae22-5345d1b169f3","system_id":"levelo_inurba_marseille","lat":43.32284,"lon":5.38267,"is_reserved":false,"is_disabled":false,"rental_uris":{"android":"levelo://app?vid=2d853d36-88af-4cb5-ae22-5345d1b169f3","ios":"levelo://app?vid=2d853d36-88af-4cb5-ae22-5345d1b169f3"},"vehicle_type_id":"4","last_reported":1726430930,"current_range_meters":23200,"station_id":"ce4bhr12rcd13ifvqhqg","pricing_plan_id":"cebpf4jnsgd1na2vs0mg"},{"bike_id":"643d9041-9c09-46c8-9602-e284ef781af7","system_id":"levelo_inurba_marseille","lat":43.30247,"lon":5.40052,"is_reserved":false,"is_disabled":false,"rental_uris":{"android":"levelo://app?vid=643d9041-9c09-46c8-9602-e284ef781af7","ios":"levelo://app?vid=643d9041-9c09-46c8-9602-e284ef781af7"},"vehicle_type_id":"4","last_reported":1726430930,"current_range_meters":8000,"station_id":"ce4bgvh2rcd13ifvqcs0","pricing_plan_id":"cebpf4jnsgd1na2vs0mg"},{"bike_id":"0e5a3bf8-e7be-4e70-aca4-d97d6e03c7dd","system_id":"levelo_inurba_marseille","lat":43.33022,"lon":5.39048,"is_reserved":false,"is_disabled":false,"rental_uris":{"android":"levelo://app?vid=0e5a3bf8-e7be-4e70-aca4-d97d6e03c7dd","ios":"levelo://app?vid=0e5a3bf8-e7be-4e70-aca4-d97d6e03c7dd"},"vehicle_type_id":"4","last_reported":1726430930,"current_range_meters":23200,"station_id":"ce4bhr92rcd13ifvqhrg","pricing_plan_id":"cebpf4jnsgd1na2vs0mg"},{"bike_id":"6d714d34-4fe4-486e-9b06-dedd41a03271","system_id":"levelo_inurba_marseille","lat":43.2979,"lon":5.39348,"is_reserved":false,"is_disabled":false,"rental_uris":{"android":"levelo://app?vid=6d714d34-4fe4-486e-9b06-dedd41a03271","ios":"levelo://app?vid=6d714d34-4fe4-486e-9b06-dedd41a03271"},"vehicle_type_id":"4","last_reported":1726430930,"current_range_meters":17200,"station_id":"chh1huq6cuj3fo74tm60","pricing_plan_id":"cebpf4jnsgd1na2vs0mg"},{"bike_id":"a2c994cb-7c75-4b87-8ac4-63c38448bb5d","system_id":"levelo_inurba_marseille","lat":43.29268,"lon":5.36839,"is_reserved":false,"is_disabled":false,"rental_uris":{"android":"levelo://app?vid=a2c994cb-7c75-4b87-8ac4-63c38448bb5d","ios":"levelo://app?vid=a2c994cb-7c75-4b87-8ac4-63c38448bb5d"},"vehicle_type_id":"4","last_reported":1726430930,"current_range_meters":38800,"station_id":"ce4bhbp2rcd13ifvqesg","pricing_plan_id":"cebpf4jnsgd1na2vs0mg"},{"bike_id":"18f36b51-838b-46f8-9ad8-33cf10e0c950","system_id":"levelo_inurba_marseille","lat":43.32482,"lon":5.36553,"is_reserved":false,"is_disabled":false,"rental_uris":{"android":"levelo://app?vid=18f36b51-838b-46f8-9ad8-33cf10e0c950","ios":"levelo://app?vid=18f36b51-838b-46f8-9ad8-33cf10e0c950"},"vehicle_type_id":"4","last_reported":1726430930,"current_range_meters":6800,"station_id":"ce4bhs12rcd13ifvqhvg","pricing_plan_id":"cebpf4jnsgd1na2vs0mg"},{"bike_id":"423da0a9-2734-43da-b4ba-ddda35cb16d9","system_id":"levelo_inurba_marseille","lat":43.28708,"lon":5.3738,"is_reserved":false,"is_disabled":false,"rental_uris":{"android":"levelo://app?vid=423da0a9-2734-43da-b4ba-ddda35cb16d9","ios":"levelo://app?vid=423da0a9-2734-43da-b4ba-ddda35cb16d9"},"vehicle_type_id":"4","last_reported":1726430930,"current_range_meters":38800,"station_id":"ce4bh3p2rcd13ifvqdq0","pricing_plan_id":"cebpf4jnsgd1na2vs0mg"},{"bike_id":"9a6ef395-110e-43a6-8480-96c57727c97b","system_id":"levelo_inurba_marseille","lat":43.29896,"lon":5.3974,"is_reserved":false,"is_disabled":false,"rental_uris":{"android":"levelo://app?vid=9a6ef395-110e-43a6-8480-96c57727c97b","ios":"levelo://app?vid=9a6ef395-110e-43a6-8480-96c57727c97b"},"vehicle_type_id":"4","last_reported":1726430930,"current_range_meters":38800,"station_id":"ce4bh0h2rcd13ifvqd50","pricing_plan_id":"cebpf4jnsgd1na2vs0mg"},{"bike_id":"012525c8-d863-400b-a802-0ef1a483fc5c","system_id":"levelo_inurba_marseille","lat":43.29548,"lon":5.42285,"is_reserved":false,"is_disabled":false,"rental_uris":{"android":"levelo://app?vid=012525c8-d863-400b-a802-0ef1a483fc5c","ios":"levelo://app?vid=012525c8-d863-400b-a802-0ef1a483fc5c"},"vehicle_type_id":"4","last_reported":1726430930,"current_range_meters":10000,"station_id":"ce4bhph2rcd13ifvqhdg","pricing_plan_id":"cebpf4jnsgd1na2vs0mg"},{"bike_id":"6f387a41-1a28-4619-ac86-26875678b81b","system_id":"levelo_inurba_marseille","lat":43.29894,"lon":5.43672,"is_reserved":false,"is_disabled":false,"rental_uris":{"android":"levelo://app?vid=6f387a41-1a28-4619-ac86-26875678b81b","ios":"levelo://app?vid=6f387a41-1a28-4619-ac86-26875678b81b"},"vehicle_type_id":"4","last_reported":1726430930,"current_range_meters":30000,"station_id":"ce4bhpp2rcd13ifvqhfg","pricing_plan_id":"cebpf4jnsgd1na2vs0mg"},{"bike_id":"9b77519c-cdee-4d8d-80fd-6bda80539b52","system_id":"levelo_inurba_marseille","lat":43.3025,"lon":5.40077,"is_reserved":false,"is_disabled":false,"rental_uris":{"android":"levelo://app?vid=9b77519c-cdee-4d8d-80fd-6bda80539b52","ios":"levelo://app?vid=9b77519c-cdee-4d8d-80fd-6bda80539b52"},"vehicle_type_id":"4","last_reported":1726430930,"current_range_meters":39200,"station_id":"ce4bgvh2rcd13ifvqcs0","pricing_plan_id":"cebpf4jnsgd1na2vs0mg"},{"bike_id":"00d82621-85e7-4654-9130-86fddb576637","system_id":"levelo_inurba_marseille","lat":43.28932,"lon":5.39632,"is_reserved":false,"is_disabled":false,"rental_uris":{"android":"levelo://app?vid=00d82621-85e7-4654-9130-86fddb576637","ios":"levelo://app?vid=00d82621-85e7-4654-9130-86fddb576637"},"vehicle_type_id":"4","last_reported":1726430930,"current_range_meters":27600,"station_id":"ce4bh3h2rcd13ifvqdn0","pricing_plan_id":"cebpf4jnsgd1na2vs0mg"},{"bike_id":"c4b85335-92c2-4c49-a2f4-5818ea12860e","system_id":"levelo_inurba_marseille","lat":43.32653,"lon":5.41003,"is_reserved":false,"is_disabled":false,"rental_uris":{"android":"levelo://app?vid=c4b85335-92c2-4c49-a2f4-5818ea12860e","ios":"levelo://app?vid=c4b85335-92c2-4c49-a2f4-5818ea12860e"},"vehicle_type_id":"4","last_reported":1726430930,"current_range_meters":24800,"station_id":"ce4bhpp2rcd13ifvqhgg","pricing_plan_id":"cebpf4jnsgd1na2vs0mg"},{"bike_id":"cc0ae1c2-236a-4fdc-a408-1ff342914958","system_id":"levelo_inurba_marseille","lat":43.30253,"lon":5.40102,"is_reserved":false,"is_disabled":false,"rental_uris":{"android":"levelo://app?vid=cc0ae1c2-236a-4fdc-a408-1ff342914958","ios":"levelo://app?vid=cc0ae1c2-236a-4fdc-a408-1ff342914958"},"vehicle_type_id":"4","last_reported":1726430930,"current_range_meters":24000,"station_id":"ce4bgvh2rcd13ifvqcs0","pricing_plan_id":"cebpf4jnsgd1na2vs0mg"},{"bike_id":"2b5b691d-84d2-4aaf-b9c0-753c2081d646","system_id":"levelo_inurba_marseille","lat":43.33613,"lon":5.41023,"is_reserved":false,"is_disabled":false,"rental_uris":{"android":"levelo://app?vid=2b5b691d-84d2-4aaf-b9c0-753c2081d646","ios":"levelo://app?vid=2b5b691d-84d2-4aaf-b9c0-753c2081d646"},"vehicle_type_id":"4","last_reported":1726430930,"current_range_meters":28400,"station_id":"ce4bhqh2rcd13ifvqhmg","pricing_plan_id":"cebpf4jnsgd1na2vs0mg"},{"bike_id":"d52c9a04-edec-456f-a1f5-22dfca7712bc","system_id":"levelo_inurba_marseille","lat":43.29878,"lon":5.39736,"is_reserved":false,"is_disabled":false,"rental_uris":{"android":"levelo://app?vid=d52c9a04-edec-456f-a1f5-22dfca7712bc","ios":"levelo://app?vid=d52c9a04-edec-456f-a1f5-22dfca7712bc"},"vehicle_type_id":"4","last_reported":1726430930,"current_range_meters":38800,"station_id":"ce4bh0h2rcd13ifvqd50","pricing_plan_id":"cebpf4jnsgd1na2vs0mg"},{"bike_id":"bf3dcb38-a5dc-488b-a360-2536b0441cf7","system_id":"levelo_inurba_marseille","lat":43.28002,"lon":5.40014,"is_reserved":false,"is_disabled":false,"rental_uris":{"android":"levelo://app?vid=bf3dcb38-a5dc-488b-a360-2536b0441cf7","ios":"levelo://app?vid=bf3dcb38-a5dc-488b-a360-2536b0441cf7"},"vehicle_type_id":"4","last_reported":1726430930,"current_range_meters":38800,"station_id":"ce4bho92rcd13ifvqh4g","pricing_plan_id":"cebpf4jnsgd1na2vs0mg"},{"bike_id":"3912930e-cc3b-4458-a920-5ce57f9156d7","system_id":"levelo_inurba_marseille","lat":43.25861,"lon":5.3991,"is_reserved":false,"is_disabled":false,"rental_uris":{"android":"levelo://app?vid=3912930e-cc3b-4458-a920-5ce57f9156d7","ios":"levelo://app?vid=3912930e-cc3b-4458-a920-5ce57f9156d7"},"vehicle_type_id":"4","last_reported":1726430930,"current_range_meters":37600,"station_id":"ce4bhl92rcd13ifvqghg","pricing_plan_id":"cebpf4jnsgd1na2vs0mg"},{"bike_id":"e038962b-8841-4e27-aa6d-4bae96aae4a0","system_id":"levelo_inurba_marseille","lat":43.29893,"lon":5.43662,"is_reserved":false,"is_disabled":false,"rental_uris":{"android":"levelo://app?vid=e038962b-8841-4e27-aa6d-4bae96aae4a0","ios":"levelo://app?vid=e038962b-8841-4e27-aa6d-4bae96aae4a0"},"vehicle_type_id":"4","last_reported":1726430930,"current_range_meters":20400,"station_id":"ce4bhpp2rcd13ifvqhfg","pricing_plan_id":"cebpf4jnsgd1na2vs0mg"},{"bike_id":"3e5656d6-6165-44bb-ae05-5352d0dd7a46","system_id":"levelo_inurba_marseille","lat":43.2955,"lon":5.42289,"is_reserved":false,"is_disabled":false,"rental_uris":{"android":"levelo://app?vid=3e5656d6-6165-44bb-ae05-5352d0dd7a46","ios":"levelo://app?vid=3e5656d6-6165-44bb-ae05-5352d0dd7a46"},"vehicle_type_id":"4","last_reported":1726430930,"current_range_meters":12400,"station_id":"ce4bhph2rcd13ifvqhdg","pricing_plan_id":"cebpf4jnsgd1na2vs0mg"},{"bike_id":"8eff8dae-8ace-4ad3-94c0-cc111eb6cb05","system_id":"levelo_inurba_marseille","lat":43.26946,"lon":5.4025,"is_reserved":false,"is_disabled":false,"rental_uris":{"android":"levelo://app?vid=8eff8dae-8ace-4ad3-94c0-cc111eb6cb05","ios":"levelo://app?vid=8eff8dae-8ace-4ad3-94c0-cc111eb6cb05"},"vehicle_type_id":"4","last_reported":1726430930,"current_range_meters":38800,"station_id":"cjm6bp8fraef2m0cb0m0","pricing_plan_id":"cebpf4jnsgd1na2vs0mg"},{"bike_id":"4d6f1b8b-07a5-4f94-9b59-fab1b577da9c","system_id":"levelo_inurba_marseille","lat":43.30537,"lon":5.367,"is_reserved":false,"is_disabled":false,"rental_uris":{"android":"levelo://app?vid=4d6f1b8b-07a5-4f94-9b59-fab1b577da9c","ios":"levelo://app?vid=4d6f1b8b-07a5-4f94-9b59-fab1b577da9c"},"vehicle_type_id":"4","last_reported":1726430930,"current_range_meters":32800,"station_id":"ce4bgrp2rcd13ifvqc9g","pricing_plan_id":"cebpf4jnsgd1na2vs0mg"},{"bike_id":"4fe3b2fb-2627-4fdf-bc74-6ec78b2aa653","system_id":"levelo_inurba_marseille","lat":43.24642,"lon":5.38903,"is_reserved":false,"is_disabled":false,"rental_uris":{"android":"levelo://app?vid=4fe3b2fb-2627-4fdf-bc74-6ec78b2aa653","ios":"levelo://app?vid=4fe3b2fb-2627-4fdf-bc74-6ec78b2aa653"},"vehicle_type_id":"4","last_reported":1726430930,"current_range_meters":36800,"station_id":"ce4bhg12rcd13ifvqf60","pricing_plan_id":"cebpf4jnsgd1na2vs0mg"},{"bike_id":"227f33f7-8417-4c1b-bc1d-35884f04e18d","system_id":"levelo_inurba_marseille","lat":43.28397,"lon":5.37527,"is_reserved":false,"is_disabled":false,"rental_uris":{"android":"levelo://app?vid=227f33f7-8417-4c1b-bc1d-35884f04e18d","ios":"levelo://app?vid=227f33f7-8417-4c1b-bc1d-35884f04e18d"},"vehicle_type_id":"4","last_reported":1726430930,"current_range_meters":38800,"station_id":"ce4bh412rcd13ifvqds0","pricing_plan_id":"cebpf4jnsgd1na2vs0mg"},{"bike_id":"829cf2b1-bf98-46e6-a9ee-9faa72b7a663","system_id":"levelo_inurba_marseille","lat":43.27066,"lon":5.4228,"is_reserved":false,"is_disabled":false,"rental_uris":{"android":"levelo://app?vid=829cf2b1-bf98-46e6-a9ee-9faa72b7a663","ios":"levelo://app?vid=829cf2b1-bf98-46e6-a9ee-9faa72b7a663"},"vehicle_type_id":"4","last_reported":1726430930,"current_range_meters":33200,"station_id":"ce4bhk92rcd13ifvqgb0","pricing_plan_id":"cebpf4jnsgd1na2vs0mg"},{"bike_id":"bd0f6b78-4a1b-4f18-a907-f3d34c9219c9","system_id":"levelo_inurba_marseille","lat":43.30136,"lon":5.39864,"is_reserved":false,"is_disabled":false,"rental_uris":{"android":"levelo://app?vid=bd0f6b78-4a1b-4f18-a907-f3d34c9219c9","ios":"levelo://app?vid=bd0f6b78-4a1b-4f18-a907-f3d34c9219c9"},"vehicle_type_id":"4","last_reported":1726430930,"current_range_meters":38800,"station_id":"ce4bh0h2rcd13ifvqd40","pricing_plan_id":"cebpf4jnsgd1na2vs0mg"},