{"last_updated":1705356393,"ttl":30,"version":"2.2","data":{"bikes":[{"bike_id":"b84ccc19-7dd9-4a68-8a3d-4054e527304a","system_id":"levelo_inurba_marseille","lat":43.314811,"lon":5.373104,"is_reserved":false,"is_disabled":false,"rental_uris":{"android":"levelo://app?vid=b84ccc19-7dd9-4a68-8a3d-4054e527304a","ios":"levelo://app?vid=b84ccc19-7dd9-4a68-8a3d-4054e527304a"},"vehicle_type_id":"4","last_reported":1705356393,"current_range_meters":14400,"station_id":"ce4bgt12rcd13ifvqcd0","pricing_plan_id":"free"},{"bike_id":"509d0e24-28de-41fd-8651-1d4238cfaee3","system_id":"levelo_inurba_marseille","lat":43.314811,"lon":5.373103,"is_reserved":false,"is_disabled":false,"rental_uris":{"android":"levelo://app?vid=509d0e24-28de-41fd-8651-1d4238cfaee3","ios":"levelo://app?vid=509d0e24-28de-41fd-8651-1d4238cfaee3"},"vehicle_type_id":"4","last_reported":1705356393,"current_range_meters":24800,"station_id":"ce4bgt12rcd13ifvqcd0","pricing_plan_id":"free"},{"bike_id":"2751fe63-7b8e-4a23-aa70-8680c00ee2b6","system_id":"levelo_inurba_marseille","lat":43.31039,"lon":5.3731,"is_reserved":false,"is_disabled":false,"rental_uris":{"android":"levelo://app?vid=2751fe63-7b8e-4a23-aa70-8680c00ee2b6","ios":"levelo://app?vid=2751fe63-7b8e-4a23-aa70-8680c00ee2b6"},"vehicle_type_id":"4","last_reported":1705356393,"current_range_meters":6000,"station_id":"","pricing_plan_id":"free"},{"bike_id":"50413d48-520f-454c-8227-fd38b4d9a7cc","system_id":"levelo_inurba_marseille","lat":43.309034,"lon":5.371783,"is_reserved":false,"is_disabled":false,"rental_uris":{"android":"levelo://app?vid=50413d48-520f-454c-8227-fd38b4d9a7cc","ios":"levelo://app?vid=50413d48-520f-454c-8227-fd38b4d9a7cc"},"vehicle_type_id":"4","last_reported":1705356393,"current_range_meters":17600,"station_id":"ce4bguh2rcd13ifvqckg","pricing_plan_id":"free"},{"bike_id":"ed8d5e5a-f187-4ccd-8dcf-57f34fd6843d","system_id":"levelo_inurba_marseille","lat":43.308012,"lon":5.372041,"is_reserved":false,"is_disabled":false,"rental_uris":{"android":"levelo://app?vid=ed8d5e5a-f187-4ccd-8dcf-57f34fd6843d","ios":"levelo://app?vid=ed8d5e5a-f187-4ccd-8dcf-57f34fd6843d"},"vehicle_type_id":"4","last_reported":1705356393,"current_range_meters":7600,"station_id":"","pricing_plan_id":"free"},{"bike_id":"5f259a1c-ff8e-45db-84da-acfdcb3f67e2","system_id":"levelo_inurba_marseille","lat":43.305437,"lon":5.365373,"is_reserved":false,"is_disabled":false,"rental_uris":{"android":"levelo://app?vid=5f259a1c-ff8e-45db-84da-acfdcb3f67e2","ios":"levelo://app?vid=5f259a1c-ff8e-45db-84da-acfdcb3f67e2"},"vehicle_type_id":"4","last_reported":1705356393,"current_range_meters":0,"station_id":"ce4bgs12rcd13ifvqcag","pricing_plan_id":"free"},{"bike_id":"d78f4eb5-728f-41d3-84ad-48258279890f","system_id":"levelo_inurba_marseille","lat":43.311125,"lon":5.377624,"is_reserved":false,"is_disabled":false,"rental_uris":{"android":"levelo://app?vid=d78f4eb5-728f-41d3-84ad-48258279890f","ios":"levelo://app?vid=d78f4eb5-728f-41d3-84ad-48258279890f"},"vehicle_type_id":"4","last_reported":1705356393,"current_range_meters":4000,"station_id":"ce4bgt92rcd13ifvqcg0","pricing_plan_id":"free"},{"bike_id":"87966692-69a6-4272-ac4f-b452d52db04f","system_id":"levelo_inurba_marseille","lat":43.307945,"lon":5.376487,"is_reserved":false,"is_disabled":false,"rental_uris":{"android":"levelo://app?vid=87966692-69a6-4272-ac4f-b452d52db04f","ios":"levelo://app?vid=87966692-69a6-4272-ac4f-b452d52db04f"},"vehicle_type_id":"4","last_reported":1705356393,"current_range_meters":19200,"station_id":"ce4bgv92rcd13ifvqcq0","pricing_plan_id":"free"},{"bike_id":"7b5e9480-9594-47b5-afcd-532afd14dab0","system_id":"levelo_inurba_marseille","lat":43.317075,"lon":5.377367,"is_reserved":false,"is_disabled":false,"rental_uris":{"android":"levelo://app?vid=7b5e9480-9594-47b5-afcd-532afd14dab0","ios":"levelo://app?vid=7b5e9480-9594-47b5-afcd-532afd14dab0"},"vehicle_type_id":"4","last_reported":1705356393,"current_range_meters":15600,"station_id":"ce4bgth2rcd13ifvqch0","pricing_plan_id":"free"},{"bike_id":"34edddfe-4c51-4041-87ca-fe808506a407","system_id":"levelo_inurba_marseille","lat":43.317075,"lon":5.377367,"is_reserved":false,"is_disabled":false,"rental_uris":{"android":"levelo://app?vid=34edddfe-4c51-4041-87ca-fe808506a407","ios":"levelo://app?vid=34edddfe-4c51-4041-87ca-fe808506a407"},"vehicle_type_id":"4","last_reported":1705356393,"current_range_meters":18800,"station_id":"ce4bgth2rcd13ifvqch0","pricing_plan_id":"free"},{"bike_id":"0ec4ad67-6df0-4359-afa7-9ffecaec4e5d","system_id":"levelo_inurba_marseille","lat":43.317075,"lon":5.377367,"is_reserved":false,"is_disabled":false,"rental_uris":{"android":"levelo://app?vid=0ec4ad67-6df0-4359-afa7-9ffecaec4e5d","ios":"levelo://app?vid=0ec4ad67-6df0-4359-afa7-9ffecaec4e5d"},"vehicle_type_id":"4","last_reported":1705356393,"current_range_meters":27200,"station_id":"ce4bgth2rcd13ifvqch0","pricing_plan_id":"free"},{"bike_id":"45f57cba-c8ec-4057-bd6f-9b34c61fe242","system_id":"levelo_inurba_marseille","lat":43.32159,"lon":5.37463,"is_reserved":false,"is_disabled":false,"rental_uris":{"android":"levelo://app?vid=45f57cba-c8ec-4057-bd6f-9b34c61fe242","ios":"levelo://app?vid=45f57cba-c8ec-4057-bd6f-9b34c61fe242"},"vehicle_type_id":"4","last_reported":1705356393,"current_range_meters":20400,"station_id":"","pricing_plan_id":"free"},{"bike_id":"bcc41a85-edaf-460a-8a92-9244dd85052c","system_id":"levelo_inurba_marseille","lat":43.308035,"lon":5.381519,"is_reserved":false,"is_disabled":false,"rental_uris":{"android":"levelo://app?vid=bcc41a85-edaf-460a-8a92-9244dd85052c","ios":"levelo://app?vid=bcc41a85-edaf-460a-8a92-9244dd85052c"},"vehicle_type_id":"4","last_reported":1705356393,"current_range_meters":3200,"station_id":"ce4bgt12rcd13ifvqce0","pricing_plan_id":"free"},{"bike_id":"d284d91e-36dd-4900-8212-93ad674c648b","system_id":"levelo_inurba_marseille","lat":43.308012,"lon":5.381511,"is_reserved":false,"is_disabled":false,"rental_uris":{"android":"levelo://app?vid=d284d91e-36dd-4900-8212-93ad674c648b","ios":"levelo://app?vid=d284d91e-36dd-4900-8212-93ad674c648b"},"vehicle_type_id":"4","last_reported":1705356393,"current_range_meters":30000,"station_id":"ce4bgt12rcd13ifvqce0","pricing_plan_id":"free"},{"bike_id":"767bcd06-abdd-4c72-bcc6-a61600780f14","system_id":"levelo_inurba_marseille","lat":43.308012,"lon":5.381511,"is_reserved":false,"is_disabled":false,"rental_uris":{"android":"levelo://app?vid=767bcd06-abdd-4c72-bcc6-a61600780f14","ios":"levelo://app?vid=767bcd06-abdd-4c72-bcc6-a61600780f14"},"vehicle_type_id":"4","last_reported":1705356393,"current_range_meters":13600,"station_id":"ce4bgt12rcd13ifvqce0","pricing_plan_id":"free"},{"bike_id":"e9ded37b-ce73-4066-924c-ae33cc91566a","system_id":"levelo_inurba_marseille","lat":43.30467,"lon":5.37899,"is_reserved":false,"is_disabled":false,"rental_uris":{"android":"levelo://app?vid=e9ded37b-ce73-4066-924c-ae33cc91566a","ios":"levelo://app?vid=e9ded37b-ce73-4066-924c-ae33cc91566a"},"vehicle_type_id":"4","last_reported":1705356393,"current_range_meters":29600,"station_id":"ce4bgup2rcd13ifvqcn0","pricing_plan_id":"free"},{"bike_id":"abc4596e-6f29-430a-afbe-1666c0e08697","system_id":"levelo_inurba_marseille","lat":43.30469,"lon":5.37906,"is_reserved":false,"is_disabled":false,"rental_uris":{"android":"levelo://app?vid=abc4596e-6f29-430a-afbe-1666c0e08697","ios":"levelo://app?vid=abc4596e-6f29-430a-afbe-1666c0e08697"},"vehicle_type_id":"4","last_reported":1705356393,"current_range_meters":12800,"station_id":"ce4bgup2rcd13ifvqcn0","pricing_plan_id":"free"},{"bike_id":"d6744d23-e10b-4b1b-8865-e7f6411e7fdf","system_id":"levelo_inurba_marseille","lat":43.304606,"lon":5.379026,"is_reserved":false,"is_disabled":false,"rental_uris":{"android":"levelo://app?vid=d6744d23-e10b-4b1b-8865-e7f6411e7fdf","ios":"levelo://app?vid=d6744d23-e10b-4b1b-8865-e7f6411e7fdf"},"vehicle_type_id":"4","last_reported":1705356393,"current_range_meters":29600,"station_id":"ce4bgup2rcd13ifvqcn0","pricing_plan_id":"free"},{"bike_id":"d025cde4-a6a9-4624-bf8c-525492a77e27","system_id":"levelo_inurba_marseille","lat":43.304606,"lon":5.379026,"is_reserved":false,"is_disabled":false,"rental_uris":{"android":"levelo://app?vid=d025cde4-a6a9-4624-bf8c-525492a77e27","ios":"levelo://app?vid=d025cde4-a6a9-4624-bf8c-525492a77e27"},"vehicle_type_id":"4","last_reported":1705356393,"current_range_meters":17200,"station_id":"ce4bgup2rcd13ifvqcn0","pricing_plan_id":"free"},{"bike_id":"ce66d5b9-d5f7-4be5-9a36-afcdb3053f26","system_id":"levelo_inurba_marseille","lat":43.30458,"lon":5.37904,"is_reserved":false,"is_disabled":false,"rental_uris":{"android":"levelo://app?vid=ce66d5b9-d5f7-4be5-9a36-afcdb3053f26","ios":"levelo://app?vid=ce66d5b9-d5f7-4be5-9a36-afcdb3053f26"},"vehicle_type_id":"4","last_reported":1705356393,"current_range_meters":0,"station_id":"ce4bgup2rcd13ifvqcn0","pricing_plan_id":"free"},{"bike_id":"69ac59fa-fe12-4105-95d4-346f14bec7a3","system_id":"levelo_inurba_marseille","lat":43.304606,"lon":5.379026,"is_reserved":false,"is_disabled":false,"rental_uris":{"android":"levelo://app?vid=69ac59fa-fe12-4105-95d4-346f14bec7a3","ios":"levelo://app?vid=69ac59fa-fe12-4105-95d4-346f14bec7a3"},"vehicle_type_id":"4","last_reported":1705356393,"current_range_meters":25600,"station_id":"ce4bgup2rcd13ifvqcn0","pricing_plan_id":"free"},{"bike_id":"b0e8f576-3976-4636-987e-cea799b93a59","system_id":"levelo_inurba_marseille","lat":43.304606,"lon":5.379026,"is_reserved":false,"is_disabled":false,"rental_uris":{"android":"levelo://app?vid=b0e8f576-3976-4636-987e-cea799b93a59","ios":"levelo://app?vid=b0e8f576-3976-4636-987e-cea799b93a59"},"vehicle_type_id":"4","last_reported":1705356393,"current_range_meters":3600,"station_id":"ce4bgup2rcd13ifvqcn0","pricing_plan_id":"free"},{"bike_id":"54322528-b2ca-45e8-9df1-97ce14317416","system_id":"levelo_inurba_marseille","lat":43.304606,"lon":5.379026,"is_reserved":false,"is_disabled":false,"rental_uris":{"android":"levelo://app?vid=54322528-b2ca-45e8-9df1-97ce14317416","ios":"levelo://app?vid=54322528-b2ca-45e8-9df1-97ce14317416"},"vehicle_type_id":"4","last_reported":1705356393,"current_range_meters":30800,"station_id":"ce4bgup2rcd13ifvqcn0","pricing_plan_id":"free"},{"bike_id":"f84f59aa-9755-4cff-b94f-3aaeb709a4a2","system_id":"levelo_inurba_marseille","lat":43.324771,"lon":5.36557,"is_reserved":false,"is_disabled":false,"rental_uris":{"android":"levelo://app?vid=f84f59aa-9755-4cff-b94f-3aaeb709a4a2","ios":"levelo://app?vid=f84f59aa-9755-4cff-b94f-3aaeb709a4a2"},"vehicle_type_id":"4","last_reported":1705356393,"current_range_meters":13600,"station_id":"ce4bhs12rcd13ifvqhvg","pricing_plan_id":"free"},{"bike_id":"fa3ab309-d9a3-4112-a5ab-4b51c48d0b83","system_id":"levelo_inurba_marseille","lat":43.324771,"lon":5.36557,"is_reserved":false,"is_disabled":false,"rental_uris":{"android":"levelo://app?vid=fa3ab309-d9a3-4112-a5ab-4b51c48d0b83","ios":"levelo://app?vid=fa3ab309-d9a3-4112-a5ab-4b51c48d0b83"},"vehicle_type_id":"4","last_reported":1705356393,"current_range_meters":0,"station_id":"ce4bhs12rcd13ifvqhvg","pricing_plan_id":"free"},{"bike_id":"af63ebf0-376c-4b10-ad75-e535dada07f5","system_id":"levelo_inurba_marseille","lat":43.324771,"lon":5.36557,"is_reserved":false,"is_disabled":false,"rental_uris":{"android":"levelo://app?vid=af63ebf0-376c-4b10-ad75-e535dada07f5","ios":"levelo://app?vid=af63ebf0-376c-4b10-ad75-e535dada07f5"},"vehicle_type_id":"4","last_reported":1705356393,"current_range_meters":12400,"station_id":"ce4bhs12rcd13ifvqhvg","pricing_plan_id":"free"},{"bike_id":"46c6befd-1978-4025-b46c-362d658f43fa","system_id":"levelo_inurba_marseille","lat":43.324771,"lon":5.36557,"is_reserved":false,"is_disabled":false,"rental_uris":{"android":"levelo://app?vid=46c6befd-1978-4025-b46c-362d658f43fa","ios":"levelo://app?vid=46c6befd-1978-4025-b46c-362d658f43fa"},"vehicle_type_id":"4","last_reported":1705356393,"current_range_meters":2400,"station_id":"ce4bhs12rcd13ifvqhvg","pricing_plan_id":"free"},{"bike_id":"173bc767-4fa9-4076-a558-efde0cc60f7c","system_id":"levelo_inurba_marseille","lat":43.319935,"lon":5.381699,"is_reserved":false,"is_disabled":false,"rental_uris":{"android":"levelo://app?vid=173bc767-4fa9-4076-a558-efde0cc60f7c","ios":"levelo://app?vid=173bc767-4fa9-4076-a558-efde0cc60f7c"},"vehicle_type_id":"4","last_reported":1705356393,"current_range_meters":15200,"station_id":"ce4bhr12rcd13ifvqhpg","pricing_plan_id":"free"},{"bike_id":"8a69b4bb-38b7-4beb-aa2f-45028b2eee05","system_id":"levelo_inurba_marseille","lat":43.31997,"lon":5.381675,"is_reserved":false,"is_disabled":false,"rental_uris":{"android":"levelo://app?vid=8a69b4bb-38b7-4beb-aa2f-45028b2eee05","ios":"levelo://app?vid=8a69b4bb-38b7-4beb-aa2f-45028b2eee05"},"vehicle_type_id":"4","last_reported":1705356393,"current_range_meters":6400,"station_id":"ce4bhr12rcd13ifvqhpg","pricing_plan_id":"free"},{"bike_id":"8d553a05-ebf4-4d2e-b444-ee2a72321657","system_id":"levelo_inurba_marseille","lat":43.313571,"lon":5.384829,"is_reserved":false,"is_disabled":false,"rental_uris":{"android":"levelo://app?vid=8d553a05-ebf4-4d2e-b444-ee2a72321657","ios":"levelo://app?vid=8d553a05-ebf4-4d2e-b444-ee2a72321657"},"vehicle_type_id":"4","last_reported":1705356393,"current_range_meters":27200,"station_id":"ce4bgt92rcd13ifvqcf0","pricing_plan_id":"free"},{"bike_id":"ab6dccb9-41ec-43b8-a846-672f27c378a1","system_id":"levelo_inurba_marseille","lat":43.299222,"lon":5.365554,"is_reserved":false,"is_disabled":false,"rental_uris":{"android":"levelo://app?vid=ab6dccb9-41ec-43b8-a846-672f27c378a1","ios":"levelo://app?vid=ab6dccb9-41ec-43b8-a846-672f27c378a1"},"vehicle_type_id":"4","last_reported":1705356393,"current_range_meters":4000,"station_id":"ce4bgm92rcd13ifvqbr0","pricing_plan_id":"free"},{"bike_id":"a7dd8f7c-40e4-4be5-ad36-4c21c324b4e6","system_id":"levelo_inurba_marseille","lat":43.298681,"lon":5.397225,"is_reserved":false,"is_disabled":false,"rental_uris":{"android":"levelo://app?vid=a7dd8f7c-40e4-4be5-ad36-4c21c324b4e6","ios":"levelo://app?vid=a7dd8f7c-40e4-4be5-ad36-4c21c324b4e6"},"vehicle_type_id":"4","last_reported":1705356393,"current_range_meters":24800,"station_id":"ce4bh0h2rcd13ifvqd50","pricing_plan_id":"free"},{"bike_id":"06fa7560-dff6-4647-b647-e231c1c28fb0","system_id":"levelo_inurba_marseille","lat":43.299222,"lon":5.365554,"is_reserved":false,"is_disabled":false,"rental_uris":{"android":"levelo://app?vid=06fa7560-dff6-4647-b647-e231c1c28fb0","ios":"levelo://app?vid=06fa7560-dff6-4647-b647-e231c1c28fb0"},"vehicle_type_id":"4","last_reported":1705356393,"current_range_meters":14800,"station_id":"ce4bgm92rcd13ifvqbr0","pricing_plan_id":"free"},{"bike_id":"ca011f9c-53bf-461b-8426-612eda38d4f0","system_id":"levelo_inurba_marseille","lat":43.325032,"lon":5.37393,"is_reserved":false,"is_disabled":false,"rental_uris":{"android":"levelo://app?vid=ca011f9c-53bf-461b-8426-612eda38d4f0","ios":"levelo://app?vid=ca011f9c-53bf-461b-8426-612eda38d4f0"},"vehicle_type_id":"4","last_reported":1705356393,"current_range_meters":7200,"station_id":"","pricing_plan_id":"free"},{"bike_id":"d13653cc-e32b-4f28-891d-21aa2df2a08f","system_id":"levelo_inurba_marseille","lat":43.299222,"lon":5.365554,"is_reserved":false,"is_disabled":false,"rental_uris":{"android":"levelo://app?vid=d13653cc-e32b-4f28-891d-21aa2df2a08f","ios":"levelo://app?vid=d13653cc-e32b-4f28-891d-21aa2df2a08f"},"vehicle_type_id":"4","last_reported":1705356393,"current_range_meters":23600,"station_id":"ce4bgm92rcd13ifvqbr0","pricing_plan_id":"free"},{"bike_id":"454f2bed-6e42-48c5-9fd3-07c2b1d9e934","system_id":"levelo_inurba_marseille","lat":43.299222,"lon":5.365554,"is_reserved":false,"is_disabled":false,"rental_uris":{"android":"levelo://app?vid=454f2bed-6e42-48c5-9fd3-07c2b1d9e934","ios":"levelo://app?vid=454f2bed-6e42-48c5-9fd3-07c2b1d9e934"},"vehicle_type_id":"4","last_reported":1705356393,"current_range_meters":28400,"station_id":"ce4bgm92rcd13ifvqbr0","pricing_plan_id":"free"},{"bike_id":"8f9c6202-6f83-4d76-baea-68c7c5dd71fa","system_id":"levelo_inurba_marseille","lat":43.29961,"lon":5.37172,"is_reserved":false,"is_disabled":false,"rental_uris":{"android":"levelo://app?vid=8f9c6202-6f83-4d76-baea-68c7c5dd71fa","ios":"levelo://app?vid=8f9c6202-6f83-4d76-baea-68c7c5dd71fa"},"vehicle_type_id":"4","last_reported":1705356393,"current_range_meters":16400,"station_id":"ce4bgr92rcd13ifvqc7g","pricing_plan_id":"free"},{"bike_id":"b757c900-e777-4f5d-96ab-0993bbad7ff1","system_id":"levelo_inurba_marseille","lat":43.299724,"lon":5.371829,"is_reserved":false,"is_disabled":false,"rental_uris":{"android":"levelo://app?vid=b757c900-e777-4f5d-96ab-0993bbad7ff1","ios":"levelo://app?vid=b757c900-e777-4f5d-96ab-0993bbad7ff1"},"vehicle_type_id":"4","last_reported":1705356393,"current_range_meters":8000,"station_id":"ce4bgr92rcd13ifvqc7g","pricing_plan_id":"free"},{"bike_id":"7568b06e-55ca-45b4-b8ac-c39d771126dd","system_id":"levelo_inurba_marseille","lat":43.30005,"lon":5.37446,"is_reserved":false,"is_disabled":false,"rental_uris":{"android":"levelo://app?vid=7568b06e-55ca-45b4-b8ac-c39d771126dd","ios":"levelo://app?vid=7568b06e-55ca-45b4-b8ac-c39d771126dd"},"vehicle_type_id":"4","last_reported":1705356393,"current_range_meters":5600,"station_id":"","pricing_plan_id":"free"},{"bike_id":"dee7af6b-978a-40e0-9e97-456e602b119b","system_id":"levelo_inurba_marseille","lat":43.305364,"lon":5.384119,"is_reserved":false,"is_disabled":false,"rental_uris":{"android":"levelo://app?vid=dee7af6b-978a-40e0-9e97-456e602b119b","ios":"levelo://app?vid=dee7af6b-978a-40e0-9e97-456e602b119b"},"vehicle_type_id":"4","last_reported":1705356393,"current_range_meters":26400,"station_id":"ce4bgg92rcd13ifvqb30","pricing_plan_id":"free"},{"bike_id":"ce3ad7e1-2e60-4d80-9aa8-f5453115a7e4","system_id":"levelo_inurba_marseille","lat":43.298433,"lon":5.362774,"is_reserved":false,"is_disabled":false,"rental_uris":{"android":"levelo://app?vid=ce3ad7e1-2e60-4d80-9aa8-f5453115a7e4","ios":"levelo://app?vid=ce3ad7e1-2e60-4d80-9aa8-f5453115a7e4"},"vehicle_type_id":"4","last_reported":1705356393,"current_range_meters":14400,"station_id":"ce4bgpp2rcd13ifvqc3g","pricing_plan_id":"free"},{"bike_id":"05c66562-588a-4384-8a6d-15fdb0d41ead","system_id":"levelo_inurba_marseille","lat":43.311722,"lon":5.387247,"is_reserved":false,"is_disabled":false,"rental_uris":{"android":"levelo://app?vid=05c66562-588a-4384-8a6d-15fdb0d41ead","ios":"levelo://app?vid=05c66562-588a-4384-8a6d-15fdb0d41ead"},"vehicle_type_id":"4","last_reported":1705356393,"current_range_meters":31200,"station_id":"ce4bgv12rcd13ifvqcp0","pricing_plan_id":"free"},{"bike_id":"4ffc938a-4ceb-40f4-a531-707a7397a4e6","system_id":"levelo_inurba_marseille","lat":43.31187,"lon":5.387083,"is_reserved":false,"is_disabled":false,"rental_uris":{"android":"levelo://app?vid=4ffc938a-4ceb-40f4-a531-707a7397a4e6","ios":"levelo://app?vid=4ffc938a-4ceb-40f4-a531-707a7397a4e6"},"vehicle_type_id":"4","last_reported":1705356393,"current_range_meters":28800,"station_id":"ce4bgv12rcd13ifvqcp0","pricing_plan_id":"free"},{"bike_id":"95d36460-3183-42c8-aa1c-97d67bf789d7","system_id":"levelo_inurba_marseille","lat":43.311722,"lon":5.387247,"is_reserved":false,"is_disabled":false,"rental_uris":{"android":"levelo://app?vid=95d36460-3183-42c8-aa1c-97d67bf789d7","ios":"levelo://app?vid=95d36460-3183-42c8-aa1c-97d67bf789d7"},"vehicle_type_id":"4","last_reported":1705356393,"current_range_meters":14000,"station_id":"ce4bgv12rcd13ifvqcp0","pricing_plan_id":"free"},{"bike_id":"2843a3af-8dd7-4f08-bcf2-adc2d722828b","system_id":"levelo_inurba_marseille","lat":43.311722,"lon":5.387247,"is_reserved":false,"is_disabled":false,"rental_uris":{"android":"levelo://app?vid=2843a3af-8dd7-4f08-bcf2-adc2d722828b","ios":"levelo://app?vid=2843a3af-8dd7-4f08-bcf2-adc2d722828b"},"vehicle_type_id":"4","last_reported":1705356393,"current_range_meters":19200,"station_id":"ce4bgv12rcd13ifvqcp0","pricing_plan_id":"free"},{"bike_id":"5d76cf56-6b92-435f-97c2-32670aae1617","system_id":"levelo_inurba_marseille","lat":43.311722,"lon":5.387247,"is_reserved":false,"is_disabled":false,"rental_uris":{"android":"levelo://app?vid=5d76cf56-6b92-435f-97c2-32670aae1617","ios":"levelo://app?vid=5d76cf56-6b92-435f-97c2-32670aae1617"},"vehicle_type_id":"4","last_reported":1705356393,"current_range_meters":24400,"station_id":"ce4bgv12rcd13ifvqcp0","pricing_plan_id":"free"},{"bike_id":"5fe3256b-f49c-4a69-b94d-87fd8340f161","system_id":"levelo_inurba_marseille","lat":43.299243,"lon":5.374807,"is_reserved":false,"is_disabled":false,"rental_uris":{"android":"levelo://app?vid=5fe3256b-f49c-4a69-b94d-87fd8340f161","ios":"levelo://app?vid=5fe3256b-f49c-4a69-b94d-87fd8340f161"},"vehicle_type_id":"4","last_reported":1705356393,"current_range_meters":28400,"station_id":"ce4bgjh2rcd13ifvqbg0","pricing_plan_id":"free"},{"bike_id":"e42d0ecf-ae18-4025-ab15-79f66d113387","system_id":"levelo_inurba_marseille","lat":43.311722,"lon":5.387247,"is_reserved":false,"is_disabled":false,"rental_uris":{"android":"levelo://app?vid=e42d0ecf-ae18-4025-ab15-79f66d113387","ios":"levelo://app?vid=e42d0ecf-ae18-4025-ab15-79f66d113387"},"vehicle_type_id":"4","last_reported":1705356393,"current_range_meters":4800,"station_id":"ce4bgv12rcd13ifvqcp0","pricing_plan_id":"free"},{"bike_id":"6bb0263c-c803-426a-ace5-ccea58745299","system_id":"levelo_inurba_marseille","lat":43.311722,"lon":5.387247,"is_reserved":false,"is_disabled":false,"rental_uris":{"android":"levelo://app?vid=6bb0263c-c803-426a-ace5-ccea58745299","ios":"levelo://app?vid=6bb0263c-c803-426a-ace5-ccea58745299"},"vehicle_type_id":"4","last_reported":1705356393,"current_range_meters":14000,"station_id":"ce4bgv12rcd13ifvqcp0","pricing_plan_id":"free"},{"bike_id":"2fa2427c-0d87-496a-bb77-6323d038ff80","system_id":"levelo_inurba_marseille","lat":43.311722,"lon":5.387247,"is_reserved":false,"is_disabled":false,"rental_uris":{"android":"levelo://app?vid=2fa2427c-0d87-496a-bb77-6323d038ff80","ios":"levelo://app?vid=2fa2427c-0d87-496a-bb77-6323d038ff80"},"vehicle_type_id":"4","last_reported":1705356393,"current_range_meters":28000,"station_id":"ce4bgv12rcd13ifvqcp0","pricing_plan_id":"free"},{"bike_id":"c609f8f2-38ce-41f0-afd5-9bb3767e71bf","system_id":"levelo_inurba_marseille","lat":43.311722,"lon":5.387247,"is_reserved":false,"is_disabled":false,"rental_uris":{"android":"levelo://app?vid=c609f8f2-38ce-41f0-afd5-9bb3767e71bf","ios":"levelo://app?vid=c609f8f2-38ce-41f0-afd5-9bb3767e71bf"},"vehicle_type_id":"4","last_reported":1705356393,"current_range_meters":6400,"station_id":"ce4bgv12rcd13ifvqcp0","pricing_plan_id":"free"},{"bike_id":"a5fe3d65-4caa-40da-936e-f0cbb02204a0","system_id":"levelo_inurba_marseille","lat":43.306412,"lon":5.401035,"is_reserved":false,"is_disabled":false,"rental_uris":{"android":"levelo://app?vid=a5fe3d65-4caa-40da-936e-f0cbb02204a0","ios":"levelo://app?vid=a5fe3d65-4caa-40da-936e-f0cbb02204a0"},"vehicle_type_id":"4","last_reported":1705356393,"current_range_meters":16400,"station_id":"ce4bh112rcd13ifvqda0","pricing_plan_id":"free"},{"bike_id":"13c25996-5290-4a20-a7bf-284d12f73fb3","system_id":"levelo_inurba_marseille","lat":43.305364,"lon":5.384119,"is_reserved":false,"is_disabled":false,"rental_uris":{"android":"levelo://app?vid=13c25996-5290-4a20-a7bf-284d12f73fb3","ios":"levelo://app?vid=13c25996-5290-4a20-a7bf-284d12f73fb3"},"vehicle_type_id":"4","last_reported":1705356393,"current_range_meters":25600,"station_id":"ce4bgg92rcd13ifvqb30","pricing_plan_id":"free"},{"bike_id":"15e6584f-1757-4c13-9ba5-72e54b062419","system_id":"levelo_inurba_marseille","lat":43.297794,"lon":5.370888,"is_reserved":false,"is_disabled":false,"rental_uris":{"android":"levelo://app?vid=15e6584f-1757-4c13-9ba5-72e54b062419","ios":"levelo://app?vid=15e6584f-1757-4c13-9ba5-72e54b062419"},"vehicle_type_id":"4","last_reported":1705356393,"current_range_meters":12800,"station_id":"ce4bgop2rcd13ifvqc1g","pricing_plan_id":"free"},{"bike_id":"8d48de35-2dbc-4021-aa4a-57d51b66dd96","system_id":"levelo_inurba_marseille","lat":43.32283,"lon":5.38267,"is_reserved":false,"is_disabled":false,"rental_uris":{"android":"levelo://app?vid=8d48de35-2dbc-4021-aa4a-57d51b66dd96","ios":"levelo://app?vid=8d48de35-2dbc-4021-aa4a-57d51b66dd96"},"vehicle_type_id":"4","last_reported":1705356393,"current_range_meters":4800,"station_id":"ce4bhr12rcd13ifvqhqg","pricing_plan_id":"free"},{"bike_id":"34c8b400-5074-46e3-aa02-f5d274dfaa4f","system_id":"levelo_inurba_marseille","lat":43.322872,"lon":5.382756,"is_reserved":false,"is_disabled":false,"rental_uris":{"android":"levelo://app?vid=34c8b400-5074-46e3-aa02-f5d274dfaa4f","ios":"levelo://app?vid=34c8b400-5074-46e3-aa02-f5d274dfaa4f"},"vehicle_type_id":"4","last_reported":1705356393,"current_range_meters":22800,"station_id":"ce4bhr12rcd13ifvqhqg","pricing_plan_id":"free"},{"bike_id":"5ea0f3f4-1cdd-4b40-9938-02323e64f0b0","system_id":"levelo_inurba_marseille","lat":43.322872,"lon":5.382756,"is_reserved":false,"is_disabled":false,"rental_uris":{"android":"levelo://app?vid=5ea0f3f4-1cdd-4b40-9938-02323e64f0b0","ios":"levelo://app?vid=5ea0f3f4-1cdd-4b40-9938-02323e64f0b0"},"vehicle_type_id":"4","last_reported":1705356393,"current_range_meters":20400,"station_id":"ce4bhr12rcd13ifvqhqg","pricing_plan_id":"free"},{"bike_id":"0d666429-792d-477e-b03b-8d07152545bb","system_id":"levelo_inurba_marseille","lat":43.322872,"lon":5.382756,"is_reserved":false,"is_disabled":false,"rental_uris":{"android":"levelo://app?vid=0d666429-792d-477e-b03b-8d07152545bb","ios":"levelo://app?vid=0d666429-792d-477e-b03b-8d07152545bb"},"vehicle_type_id":"4","last_reported":1705356393,"current_range_meters":11600,"station_id":"ce4bhr12rcd13ifvqhqg","pricing_plan_id":"free"},{"bike_id":"360d8370-a6d5-4eeb-9fdc-87624eb21c71","system_id":"levelo_inurba_marseille","lat":43.322872,"lon":5.382756,"is_reserved":false,"is_disabled":false,"rental_uris":{"android":"levelo://app?vid=360d8370-a6d5-4eeb-9fdc-87624eb21c71","ios":"levelo://app?vid=360d8370-a6d5-4eeb-9fdc-87624eb21c71"},"vehicle_type_id":"4","last_reported":1705356393,"current_range_meters":8000,"station_id":"ce4bhr12rcd13ifvqhqg","pricing_plan_id":"free"},{"bike_id":"3a46592c-9142-46ce-8556-a80e672a6412","system_id":"levelo_inurba_marseille","lat":43.3229,"lon":5.38266,"is_reserved":false,"is_disabled":false,"rental_uris":{"android":"levelo://app?vid=3a46592c-9142-46ce-8556-a80e672a6412","ios":"levelo://app?vid=3a46592c-9142-46ce-8556-a80e672a6412"},"vehicle_type_id":"4","last_reported":1705356393,"current_range_meters":3600,"station_id":"ce4bhr12rcd13ifvqhqg","pricing_plan_id":"free"},{"bike_id":"717847e4-a784-40f8-a1bf-5a94b6cabac5","system_id":"levelo_inurba_marseille","lat":43.322872,"lon":5.382756,"is_reserved":false,"is_disabled":false,"rental_uris":{"android":"levelo://app?vid=717847e4-a784-40f8-a1bf-5a94b6cabac5","ios":"levelo://app?vid=717847e4-a784-40f8-a1bf-5a94b6cabac5"},"vehicle_type_id":"4","last_reported":1705356393,"current_range_meters":15600,"station_id":"ce4bhr12rcd13ifvqhqg","pricing_plan_id":"free"},{"bike_id":"e4cad359-bf16-42a6-b7ad-19b9dba9592b","system_id":"levelo_inurba_marseille","lat":43.32293,"lon":5.38266,"is_reserved":false,"is_disabled":false,"rental_uris":{"android":"levelo://app?vid=e4cad359-bf16-42a6-b7ad-19b9dba9592b","ios":"levelo://app?vid=e4cad359-bf16-42a6-b7ad-19b9dba9592b"},"vehicle_type_id":"4","last_reported":1705356393,"current_range_meters":14400,"station_id":"ce4bhr12rcd13ifvqhqg","pricing_plan_id":"free"},{"bike_id":"9c1b8a19-45ab-4b8b-ad67-e93f349439a6","system_id":"levelo_inurba_marseille","lat":43.322872,"lon":5.382756,"is_reserved":false,"is_disabled":false,"rental_uris":{"android":"levelo://app?vid=9c1b8a19-45ab-4b8b-ad67-e93f349439a6","ios":"levelo://app?vid=9c1b8a19-45ab-4b8b-ad67-e93f349439a6"},"vehicle_type_id":"4","last_reported":1705356393,"current_range_meters":27600,"station_id":"ce4bhr12rcd13ifvqhqg","pricing_plan_id":"free"},{"bike_id":"394e09ab-bff8-467a-bfb2-d5785877769b","system_id":"levelo_inurba_marseille","lat":43.3229,"lon":5.3827,"is_reserved":false,"is_disabled":false,"rental_uris":{"android":"levelo://app?vid=394e09ab-bff8-467a-bfb2-d5785877769b","ios":"levelo://app?vid=394e09ab-bff8-467a-bfb2-d5785877769b"},"vehicle_type_id":"4","last_reported":1705356393,"current_range_meters":0,"station_id":"ce4bhr12rcd13ifvqhqg","pricing_plan_id":"free"},{"bike_id":"be5c14c2-d069-4824-b2b4-323fba6ab1b5","system_id":"levelo_inurba_marseille","lat":43.32822,"lon":5.3668,"is_reserved":false,"is_disabled":false,"rental_uris":{"android":"levelo://app?vid=be5c14c2-d069-4824-b2b4-323fba6ab1b5","ios":"levelo://app?vid=be5c14c2-d069-4824-b2b4-323fba6ab1b5"},"vehicle_type_id":"4","last_reported":1705356393,"current_range_meters":12800,"station_id":"ce4bhs92rcd13ifvqi0g","pricing_plan_id":"free"},{"bike_id":"ea0178f3-2c6b-4af6-b062-91b0b8dde1df","system_id":"levelo_inurba_marseille","lat":43.32824,"lon":5.366863,"is_reserved":false,"is_disabled":false,"rental_uris":{"android":"levelo://app?vid=ea0178f3-2c6b-4af6-b062-91b0b8dde1df","ios":"levelo://app?vid=ea0178f3-2c6b-4af6-b062-91b0b8dde1df"},"vehicle_type_id":"4","last_reported":1705356393,"current_range_meters":15200,"station_id":"ce4bhs92rcd13ifvqi0g","pricing_plan_id":"free"},{"bike_id":"ee39d909-d441-40f5-bb66-dbc0cf434d89","system_id":"levelo_inurba_marseille","lat":43.32824,"lon":5.36683,"is_reserved":false,"is_disabled":false,"rental_uris":{"android":"levelo://app?vid=ee39d909-d441-40f5-bb66-dbc0cf434d89","ios":"levelo://app?vid=ee39d909-d441-40f5-bb66-dbc0cf434d89"},"vehicle_type_id":"4","last_reported":1705356393,"current_range_meters":14400,"station_id":"ce4bhs92rcd13ifvqi0g","pricing_plan_id":"free"},{"bike_id":"9e10fca8-afff-413a-a971-97b89741c75b","system_id":"levelo_inurba_marseille","lat":43.32826,"lon":5.3668,"is_reserved":false,"is_disabled":false,"rental_uris":{"android":"levelo://app?vid=9e10fca8-afff-413a-a971-97b89741c75b","ios":"levelo://app?vid=9e10fca8-afff-413a-a971-97b89741c75b"},"vehicle_type_id":"4","last_reported":1705356393,"current_range_meters":17200,"station_id":"ce4bhs92rcd13ifvqi0g","pricing_plan_id":"free"},{"bike_id":"6b4ea496-3016-42db-af64-ba8beb6e73fc","system_id":"levelo_inurba_marseille","lat":43.328371,"lon":5.366909,"is_reserved":false,"is_disabled":false,"rental_uris":{"android":"levelo://app?vid=6b4ea496-3016-42db-af64-ba8beb6e73fc","ios":"levelo://app?vid=6b4ea496-3016-42db-af64-ba8beb6e73fc"},"vehicle_type_id":"4","last_reported":1705356393,"current_range_meters":30400,"station_id":"ce4bhs92rcd13ifvqi0g","pricing_plan_id":"free"},{"bike_id":"707a3518-52e7-412d-8d22-bd5e6a5f6523","system_id":"levelo_inurba_marseille","lat":43.32827,"lon":5.36677,"is_reserved":false,"is_disabled":false,"rental_uris":{"android":"levelo://app?vid=707a3518-52e7-412d-8d22-bd5e6a5f6523","ios":"levelo://app?vid=707a3518-52e7-412d-8d22-bd5e6a5f6523"},"vehicle_type_id":"4","last_reported":1705356393,"current_range_meters":17600,"station_id":"ce4bhs92rcd13ifvqi0g","pricing_plan_id":"free"},{"bike_id":"d6e71fc0-c662-46a4-9ce2-a4da97cef68b","system_id":"levelo_inurba_marseille","lat":43.32827,"lon":5.36676,"is_reserved":false,"is_disabled":false,"rental_uris":{"android":"levelo://app?vid=d6e71fc0-c662-46a4-9ce2-a4da97cef68b","ios":"levelo://app?vid=d6e71fc0-c662-46a4-9ce2-a4da97cef68b"},"vehicle_type_id":"4","last_reported":1705356393,"current_range_meters":23200,"station_id":"ce4bhs92rcd13ifvqi0g","pricing_plan_id":"free"},{"bike_id":"947a5c0b-0299-4cd2-aecd-5f351114aaf8","system_id":"levelo_inurba_marseille","lat":43.328273,"lon":5.366803,"is_reserved":false,"is_disabled":false,"rental_uris":{"android":"levelo://app?vid=947a5c0b-0299-4cd2-aecd-5f351114aaf8","ios":"levelo://app?vid=947a5c0b-0299-4cd2-aecd-5f351114aaf8"},"vehicle_type_id":"4","last_reported":1705356393,"current_range_meters":29200,"station_id":"ce4bhs92rcd13ifvqi0g","pricing_plan_id":"free"},{"bike_id":"b47ac642-666b-4fa3-9c1d-748c98ce0511","system_id":"levelo_inurba_marseille","lat":43.32828,"lon":5.36685,"is_reserved":false,"is_disabled":false,"rental_uris":{"android":"levelo://app?vid=b47ac642-666b-4fa3-9c1d-748c98ce0511","ios":"levelo://app?vid=b47ac642-666b-4fa3-9c1d-748c98ce0511"},"vehicle_type_id":"4","last_reported":1705356393,"current_range_meters":18800,"station_id":"ce4bhs92rcd13ifvqi0g","pricing_plan_id":"free"},{"bike_id":"85cedcff-9e9a-415d-8415-195178ea3cb7","system_id":"levelo_inurba_marseille","lat":43.328284,"lon":5.366804,"is_reserved":false,"is_disabled":false,"rental_uris":{"android":"levelo://app?vid=85cedcff-9e9a-415d-8415-195178ea3cb7","ios":"levelo://app?vid=85cedcff-9e9a-415d-8415-195178ea3cb7"},"vehicle_type_id":"4","last_reported":1705356393,"current_range_meters":28000,"station_id":"ce4bhs92rcd13ifvqi0g","pricing_plan_id":"free"},{"bike_id":"09621f87-561a-4138-9bcf-5568c59432a9","system_id":"levelo_inurba_marseille","lat":43.32829,"lon":5.36679,"is_reserved":false,"is_disabled":false,"rental_uris":{"android":"levelo://app?vid=09621f87-561a-4138-9bcf-5568c59432a9","ios":"levelo://app?vid=09621f87-561a-4138-9bcf-5568c59432a9"},"vehicle_type_id":"4","last_reported":1705356393,"current_range_meters":8000,"station_id":"ce4bhs92rcd13ifvqi0g","pricing_plan_id":"free"},{"bike_id":"9949c318-cd33-4e7f-93e5-9b978c57ddec","system_id":"levelo_inurba_marseille","lat":43.32829,"lon":5.36675,"is_reserved":false,"is_disabled":false,"rental_uris":{"android":"levelo://app?vid=9949c318-cd33-4e7f-93e5-9b978c57ddec","ios":"levelo://app?vid=9949c318-cd33-4e7f-93e5-9b978c57ddec"},"vehicle_type_id":"4","last_reported":1705356393,"current_range_meters":28400,"station_id":"ce4bhs92rcd13ifvqi0g","pricing_plan_id":"free"},{"bike_id":"1782ad4d-7cbc-4ac0-af82-b65688e9d34c","system_id":"levelo_inurba_marseille","lat":43.328293,"lon":5.366849,"is_reserved":false,"is_disabled":false,"rental_uris":{"android":"levelo://app?vid=1782ad4d-7cbc-4ac0-af82-b65688e9d34c","ios":"levelo://app?vid=1782ad4d-7cbc-4ac0-af82-b65688e9d34c"},"vehicle_type_id":"4","last_reported":1705356393,"current_range_meters":30800,"station_id":"ce4bhs92rcd13ifvqi0g","pricing_plan_id":"free"},{"bike_id":"eb82efee-7e46-4cef-a643-d731882b95f4","system_id":"levelo_inurba_marseille","lat":43.328294,"lon":5.366756,"is_reserved":false,"is_disabled":false,"rental_uris":{"android":"levelo://app?vid=eb82efee-7e46-4cef-a643-d731882b95f4","ios":"levelo://app?vid=eb82efee-7e46-4cef-a643-d731882b95f4"},"vehicle_type_id":"4","last_reported":1705356393,"current_range_meters":17600,"station_id":"ce4bhs92rcd13ifvqi0g","pricing_plan_id":"free"},{"bike_id":"641739e6-19de-47df-9491-35da26c3c9da","system_id":"levelo_inurba_marseille","lat":43.328371,"lon":5.366909,"is_reserved":false,"is_disabled":false,"rental_uris":{"android":"levelo://app?vid=641739e6-19de-47df-9491-35da26c3c9da","ios":"levelo://app?vid=641739e6-19de-47df-9491-35da26c3c9da"},"vehicle_type_id":"4","last_reported":1705356393,"current_range_meters":10000,"station_id":"ce4bhs92rcd13ifvqi0g","pricing_plan_id":"free"},{"bike_id":"88638e12-da12-4596-b7e2-600ab2f62219","system_id":"levelo_inurba_marseille","lat":43.328311,"lon":5.366809,"is_reserved":false,"is_disabled":false,"rental_uris":{"android":"levelo://app?vid=88638e12-da12-4596-b7e2-600ab2f62219","ios":"levelo://app?vid=88638e12-da12-4596-b7e2-600ab2f62219"},"vehicle_type_id":"4","last_reported":1705356393,"current_range_meters":18000,"station_id":"ce4bhs92rcd13ifvqi0g","pricing_plan_id":"free"},{"bike_id":"8463d0da-e03a-4a02-8a84-4dd7b137838e","system_id":"levelo_inurba_marseille","lat":43.328311,"lon":5.366746,"is_reserved":false,"is_disabled":false,"rental_uris":{"android":"levelo://app?vid=8463d0da-e03a-4a02-8a84-4dd7b137838e","ios":"levelo://app?vid=8463d0da-e03a-4a02-8a84-4dd7b137838e"},"vehicle_type_id":"4","last_reported":1705356393,"current_range_meters":28800,"station_id":"ce4bhs92rcd13ifvqi0g","pricing_plan_id":"free"},{"bike_id":"02f97db8-1e1e-4f38-89f3-11868234f7c3","system_id":"levelo_inurba_marseille","lat":43.32832,"lon":5.36672,"is_reserved":false,"is_disabled":false,"rental_uris":{"android":"levelo://app?vid=02f97db8-1e1e-4f38-89f3-11868234f7c3","ios":"levelo://app?vid=02f97db8-1e1e-4f38-89f3-11868234f7c3"},"vehicle_type_id":"4","last_reported":1705356393,"current_range_meters":400,"station_id":"ce4bhs92rcd13ifvqi0g","pricing_plan_id":"free"},{"bike_id":"317be026-d265-4964-8b9f-14b31317b61c","system_id":"levelo_inurba_marseille","lat":43.32833,"lon":5.36681,"is_reserved":false,"is_disabled":false,"rental_uris":{"android":"levelo://app?vid=317be026-d265-4964-8b9f-14b31317b61c","ios":"levelo://app?vid=317be026-d265-4964-8b9f-14b31317b61c"},"vehicle_type_id":"4","last_reported":1705356393,"current_range_meters":12400,"station_id":"ce4bhs92rcd13ifvqi0g","pricing_plan_id":"free"},{"bike_id":"54ecc17b-7683-4623-a502-4bc336d1ef8a","system_id":"levelo_inurba_marseille","lat":43.297163,"lon":5.365866,"is_reserved":false,"is_disabled":false,"rental_uris":{"android":"levelo://app?vid=54ecc17b-7683-4623-a502-4bc336d1ef8a","ios":"levelo://app?vid=54ecc17b-7683-4623-a502-4bc336d1ef8a"},"vehicle_type_id":"4","last_reported":1705356393,"current_range_meters":14000,"station_id":"ce4bgn12rcd13ifvqbt0","pricing_plan_id":"free"},{"bike_id":"a07aca90-d738-4a9c-9c07-8b0897ad99ba","system_id":"levelo_inurba_marseille","lat":43.297163,"lon":5.365866,"is_reserved":false,"is_disabled":false,"rental_uris":{"android":"levelo://app?vid=a07aca90-d738-4a9c-9c07-8b0897ad99ba","ios":"levelo://app?vid=a07aca90-d738-4a9c-9c07-8b0897ad99ba"},"vehicle_type_id":"4","last_reported":1705356393,"current_range_meters":4800,"station_id":"ce4bgn12rcd13ifvqbt0","pricing_plan_id":"free"},{"bike_id":"d6ffc100-b75a-4ec5-bd31-f537672cea7e","system_id":"levelo_inurba_marseille","lat":43.297163,"lon":5.365866,"is_reserved":false,"is_disabled":false,"rental_uris":{"android":"levelo://app?vid=d6ffc100-b75a-4ec5-bd31-f537672cea7e","ios":"levelo://app?vid=d6ffc100-b75a-4ec5-bd31-f537672cea7e"},"vehicle_type_id":"4","last_reported":1705356393,"current_range_meters":10400,"station_id":"ce4bgn12rcd13ifvqbt0","pricing_plan_id":"free"},{"bike_id":"64c3f387-35e4-4aaf-8a00-356e575aa7ae","system_id":"levelo_inurba_marseille","lat":43.297163,"lon":5.365866,"is_reserved":false,"is_disabled":false,"rental_uris":{"android":"levelo://app?vid=64c3f387-35e4-4aaf-8a00-356e575aa7ae","ios":"levelo://app?vid=64c3f387-35e4-4aaf-8a00-356e575aa7ae"},"vehicle_type_id":"4","last_reported":1705356393,"current_range_meters":20800,"station_id":"ce4bgn12rcd13ifvqbt0","pricing_plan_id":"free"},{"bike_id":"38082c03-fac1-44d3-a79f-5142b4a113a9","system_id":"levelo_inurba_marseille","lat":43.328373,"lon":5.366902,"is_reserved":false,"is_disabled":false,"rental_uris":{"android":"levelo://app?vid=38082c03-fac1-44d3-a79f-5142b4a113a9","ios":"levelo://app?vid=38082c03-fac1-44d3-a79f-5142b4a113a9"},"vehicle_type_id":"4","last_reported":1705356393,"current_range_meters":30000,"station_id":"ce4bhs92rcd13ifvqi0g","pricing_plan_id":"free"},{"bike_id":"0bc9666f-407a-45ee-a647-9e7db5d81a5c","system_id":"levelo_inurba_marseille","lat":43.297163,"lon":5.365866,"is_reserved":false,"is_disabled":false,"rental_uris":{"android":"levelo://app?vid=0bc9666f-407a-45ee-a647-9e7db5d81a5c","ios":"levelo://app?vid=0bc9666f-407a-45ee-a647-9e7db5d81a5c"},"vehicle_type_id":"4","last_reported":1705356393,"current_range_meters":13600,"station_id":"ce4bgn12rcd13ifvqbt0","pricing_plan_id":"free"},{"bike_id":"d7853949-ae2f-4022-b304-b24f911f3140","system_id":"levelo_inurba_marseille","lat":43.297163,"lon":5.365866,"is_reserved":false,"is_disabled":false,"rental_uris":{"android":"levelo://app?vid=d7853949-ae2f-4022-b304-b24f911f3140","ios":"levelo://app?vid=d7853949-ae2f-4022-b304-b24f911f3140"},"vehicle_type_id":"4","last_reported":1705356393,"current_range_meters":18000,"station_id":"ce4bgn12rcd13ifvqbt0","pricing_plan_id":"free"},{"bike_id":"42f5b626-5e71-456b-8041-5da45f31b04b","system_id":"levelo_inurba_marseille","lat":43.297163,"lon":5.365866,"is_reserved":false,"is_disabled":false,"rental_uris":{"android":"levelo://app?vid=42f5b626-5e71-456b-8041-5da45f31b04b","ios":"levelo://app?vid=42f5b626-5e71-456b-8041-5da45f31b04b"},"vehicle_type_id":"4","last_reported":1705356393,"current_range_meters":28800,"station_id":"ce4bgn12rcd13ifvqbt0","pricing_plan_id":"free"},{"bike_id":"3bf0cd0d-54d2-407b-809a-766378451449","system_id":"levelo_inurba_marseille","lat":43.297163,"lon":5.365866,"is_reserved":false,"is_disabled":false,"rental_uris":{"android":"levelo://app?vid=3bf0cd0d-54d2-407b-809a-766378451449","ios":"levelo://app?vid=3bf0cd0d-54d2-407b-809a-766378451449"},"vehicle_type_id":"4","last_reported":1705356393,"current_range_meters":28400,"station_id":"ce4bgn12rcd13ifvqbt0","pricing_plan_id":"free"},{"bike_id":"0b2274a5-5bbe-4b6c-917c-31a9425daec4","system_id":"levelo_inurba_marseille","lat":43.297163,"lon":5.365866,"is_reserved":false,"is_disabled":false,"rental_uris":{"android":"levelo://app?vid=0b2274a5-5bbe-4b6c-917c-31a9425daec4","ios":"levelo://app?vid=0b2274a5-5bbe-4b6c-917c-31a9425daec4"},"vehicle_type_id":"4","last_reported":1705356393,"current_range_meters":4000,"station_id":"ce4bgn12rcd13ifvqbt0","pricing_plan_id":"free"},{"bike_id":"5b531715-f859-4ce7-b4d9-97b3cbbc54d4","system_id":"levelo_inurba_marseille","lat":43.29708,"lon":5.366008,"is_reserved":false,"is_disabled":false,"rental_uris":{"android":"levelo://app?vid=5b531715-f859-4ce7-b4d9-97b3cbbc54d4","ios":"levelo://app?vid=5b531715-f859-4ce7-b4d9-97b3cbbc54d4"},"vehicle_type_id":"4","last_reported":1705356393,"current_range_meters":21600,"station_id":"ce4bgn12rcd13ifvqbt0","pricing_plan_id":"free"},{"bike_id":"da093ae5-1f9b-4c78-aaf1-9f0fe1705d47","system_id":"levelo_inurba_marseille","lat":43.297071,"lon":5.3661,"is_reserved":false,"is_disabled":false,"rental_uris":{"android":"levelo://app?vid=da093ae5-1f9b-4c78-aaf1-9f0fe1705d47","ios":"levelo://app?vid=da093ae5-1f9b-4c78-aaf1-9f0fe1705d47"},"vehicle_type_id":"4","last_reported":1705356393,"current_range_meters":10400,"station_id":"ce4bgn12rcd13ifvqbt0","pricing_plan_id":"free"},{"bike_id":"cc249608-6a43-41d8-a019-2a9e52c7e346","system_id":"levelo_inurba_marseille","lat":43.297163,"lon":5.365866,"is_reserved":false,"is_disabled":false,"rental_uris":{"android":"levelo://app?vid=cc249608-6a43-41d8-a019-2a9e52c7e346","ios":"levelo://app?vid=cc249608-6a43-41d8-a019-2a9e52c7e346"},"vehicle_type_id":"4","last_reported":1705356393,"current_range_meters":4400,"station_id":"ce4bgn12rcd13ifvqbt0","pricing_plan_id":"free"},{"bike_id":"9dada86c-99bf-4a70-b80b-baafa28eaf7a","system_id":"levelo_inurba_marseille","lat":43.297163,"lon":5.365866,"is_reserved":false,"is_disabled":false,"rental_uris":{"android":"levelo://app?vid=9dada86c-99bf-4a70-b80b-baafa28eaf7a","ios":"levelo://app?vid=9dada86c-99bf-4a70-b80b-baafa28eaf7a"},"vehicle_type_id":"4","last_reported":1705356393,"current_range_meters":21600,"station_id":"ce4bgn12rcd13ifvqbt0","pricing_plan_id":"free"},{"bike_id":"87da80db-8dad-40a6-9f1e-9dd5106777c2","system_id":"levelo_inurba_marseille","lat":43.2968,"lon":5.37291,"is_reserved":false,"is_disabled":false,"rental_uris":{"android":"levelo://app?vid=87da80db-8dad-40a6-9f1e-9dd5106777c2","ios":"levelo://app?vid=87da80db-8dad-40a6-9f1e-9dd5106777c2"},"vehicle_type_id":"4","last_reported":1705356393,"current_range_meters":28400,"station_id":"ce4bgk12rcd13ifvqbj0","pricing_plan_id":"free"},{"bike_id":"500d9a30-be43-47dc-92e0-ef276180c838","system_id":"levelo_inurba_marseille","lat":43.296,"lon":5.367867,"is_reserved":false,"is_disabled":false,"rental_uris":{"android":"levelo://app?vid=500d9a30-be43-47dc-92e0-ef276180c838","ios":"levelo://app?vid=500d9a30-be43-47dc-92e0-ef276180c838"},"vehicle_type_id":"4","last_reported":1705356393,"current_range_meters":30000,"station_id":"","pricing_plan_id":"free"},{"bike_id":"a9a91145-8576-4095-96f0-f91382b0cf5d","system_id":"levelo_inurba_marseille","lat":43.29585,"lon":5.36739,"is_reserved":false,"is_disabled":false,"rental_uris":{"android":"levelo://app?vid=a9a91145-8576-4095-96f0-f91382b0cf5d","ios":"levelo://app?vid=a9a91145-8576-4095-96f0-f91382b0cf5d"},"vehicle_type_id":"4","last_reported":1705356393,"current_range_meters":0,"station_id":"ce4bgph2rcd13ifvqc2g","pricing_plan_id":"free"},{"bike_id":"c8b0f5de-653e-4f6f-b1c9-cb8868329ce6","system_id":"levelo_inurba_marseille","lat":43.29873,"lon":5.38003,"is_reserved":false,"is_disabled":false,"rental_uris":{"android":"levelo://app?vid=c8b0f5de-653e-4f6f-b1c9-cb8868329ce6","ios":"levelo://app?vid=c8b0f5de-653e-4f6f-b1c9-cb8868329ce6"},"vehicle_type_id":"4","last_reported":1705356393,"current_range_meters":0,"station_id":"","pricing_plan_id":"free"},{"bike_id":"2ccb9689-c2cd-40c8-878c-0d07ba516939","system_id":"levelo_inurba_marseille","lat":43.297232,"lon":5.376869,"is_reserved":false,"is_disabled":false,"rental_uris":{"android":"levelo://app?vid=2ccb9689-c2cd-40c8-878c-0d07ba516939","ios":"levelo://app?vid=2ccb9689-c2cd-40c8-878c-0d07ba516939"},"vehicle_type_id":"4","last_reported":1705356393,"current_range_meters":16800,"station_id":"ce4bgkh2rcd13ifvqbl0","pricing_plan_id":"free"},{"bike_id":"ca837b07-86d7-42f7-a045-e3da06473611","system_id":"levelo_inurba_marseille","lat":43.317485,"lon":5.390087,"is_reserved":false,"is_disabled":false,"rental_uris":{"android":"levelo://app?vid=ca837b07-86d7-42f7-a045-e3da06473611","ios":"levelo://app?vid=ca837b07-86d7-42f7-a045-e3da06473611"},"vehicle_type_id":"4","last_reported":1705356393,"current_range_meters":2800,"station_id":"ce4bhqp2rcd13ifvqhng","pricing_plan_id":"free"},{"bike_id":"749909e1-9649-4ed2-b52f-af1b97b0a99f","system_id":"levelo_inurba_marseille","lat":43.317557,"lon":5.390173,"is_reserved":false,"is_disabled":false,"rental_uris":{"android":"levelo://app?vid=749909e1-9649-4ed2-b52f-af1b97b0a99f","ios":"levelo://app?vid=749909e1-9649-4ed2-b52f-af1b97b0a99f"},"vehicle_type_id":"4","last_reported":1705356393,"current_range_meters":0,"station_id":"ce4bhqp2rcd13ifvqhng","pricing_plan_id":"free"},{"bike_id":"9ae88a6f-21eb-463b-a17b-afdff613a090","system_id":"levelo_inurba_marseille","lat":43.30446,"lon":5.38882,"is_reserved":false,"is_disabled":false,"rental_uris":{"android":"levelo://app?vid=9ae88a6f-21eb-463b-a17b-afdff613a090","ios":"levelo://app?vid=9ae88a6f-21eb-463b-a17b-afdff613a090"},"vehicle_type_id":"4","last_reported":1705356393,"current_range_meters":12400,"station_id":"ce4bgk12rcd13ifvqbi0","pricing_plan_id":"free"},{"bike_id":"3607ae44-e379-45f4-9651-f65e738d7986","system_id":"levelo_inurba_marseille","lat":43.30427,"lon":5.38878,"is_reserved":false,"is_disabled":false,"rental_uris":{"android":"levelo://app?vid=3607ae44-e379-45f4-9651-f65e738d7986","ios":"levelo://app?vid=3607ae44-e379-45f4-9651-f65e738d7986"},"vehicle_type_id":"4","last_reported":1705356393,"current_range_meters":24800,"station_id":"ce4bgk12rcd13ifvqbi0","pricing_plan_id":"free"},{"bike_id":"5e83a9bd-feb4-4612-926d-62481bf765e4","system_id":"levelo_inurba_marseille","lat":43.304353,"lon":5.388891,"is_reserved":false,"is_disabled":false,"rental_uris":{"android":"levelo://app?vid=5e83a9bd-feb4-4612-926d-62481bf765e4","ios":"levelo://app?vid=5e83a9bd-feb4-4612-926d-62481bf765e4"},"vehicle_type_id":"4","last_reported":1705356393,"current_range_meters":0,"station_id":"ce4bgk12rcd13ifvqbi0","pricing_plan_id":"free"},{"bike_id":"49fd9d61-7165-4503-b022-d52a173f58bb","system_id":"levelo_inurba_marseille","lat":43.304278,"lon":5.388868,"is_reserved":false,"is_disabled":false,"rental_uris":{"android":"levelo://app?vid=49fd9d61-7165-4503-b022-d52a173f58bb","ios":"levelo://app?vid=49fd9d61-7165-4503-b022-d52a173f58bb"},"vehicle_type_id":"4","last_reported":1705356393,"current_range_meters":14800,"station_id":"ce4bgk12rcd13ifvqbi0","pricing_plan_id":"free"},{"bike_id":"bb5f2467-a5f4-493f-b978-ed541faea4d2","system_id":"levelo_inurba_marseille","lat":43.295748,"lon":5.37522,"is_reserved":false,"is_disabled":false,"rental_uris":{"android":"levelo://app?vid=bb5f2467-a5f4-493f-b978-ed541faea4d2","ios":"levelo://app?vid=bb5f2467-a5f4-493f-b978-ed541faea4d2"},"vehicle_type_id":"4","last_reported":1705356393,"current_range_meters":26800,"station_id":"ce4bgh92rcd13ifvqb50","pricing_plan_id":"free"},{"bike_id":"277ccecb-9ad5-49a4-b69f-9733ab476321","system_id":"levelo_inurba_marseille","lat":43.29981,"lon":5.38488,"is_reserved":false,"is_disabled":false,"rental_uris":{"android":"levelo://app?vid=277ccecb-9ad5-49a4-b69f-9733ab476321","ios":"levelo://app?vid=277ccecb-9ad5-49a4-b69f-9733ab476321"},"vehicle_type_id":"4","last_reported":1705356393,"current_range_meters":2000,"station_id":"ce4bgj92rcd13ifvqbd0","pricing_plan_id":"free"},{"bike_id":"034b0b1a-7e67-4d74-97f5-da5350cfc7bf","system_id":"levelo_inurba_marseille","lat":43.295279,"lon":5.375048,"is_reserved":false,"is_disabled":false,"rental_uris":{"android":"levelo://app?vid=034b0b1a-7e67-4d74-97f5-da5350cfc7bf","ios":"levelo://app?vid=034b0b1a-7e67-4d74-97f5-da5350cfc7bf"},"vehicle_type_id":"4","last_reported":1705356393,"current_range_meters":23600,"station_id":"ce4bgkp2rcd13ifvqbmg","pricing_plan_id":"free"},{"bike_id":"5f7c3929-fa14-458b-b1ed-63088cbb0588","system_id":"levelo_inurba_marseille","lat":43.304278,"lon":5.388868,"is_reserved":false,"is_disabled":false,"rental_uris":{"android":"levelo://app?vid=5f7c3929-fa14-458b-b1ed-63088cbb0588","ios":"levelo://app?vid=5f7c3929-fa14-458b-b1ed-63088cbb0588"},"vehicle_type_id":"4","last_reported":1705356393,"current_range_meters":10800,"station_id":"ce4bgk12rcd13ifvqbi0","pricing_plan_id":"free"},{"bike_id":"e90d9cd5-21eb-4b64-9135-e4bf100b58dd","system_id":"levelo_inurba_marseille","lat":43.32367,"lon":5.388836,"is_reserved":false,"is_disabled":false,"rental_uris":{"android":"levelo://app?vid=e90d9cd5-21eb-4b64-9135-e4bf100b58dd","ios":"levelo://app?vid=e90d9cd5-21eb-4b64-9135-e4bf100b58dd"},"vehicle_type_id":"4","last_reported":1705356393,"current_range_meters":16000,"station_id":"ce4bhqp2rcd13ifvqhog","pricing_plan_id":"free"},{"bike_id":"93a7541d-594c-4713-9c37-84d0b76dd655","system_id":"levelo_inurba_marseille","lat":43.32367,"lon":5.38881,"is_reserved":false,"is_disabled":false,"rental_uris":{"android":"levelo://app?vid=93a7541d-594c-4713-9c37-84d0b76dd655","ios":"levelo://app?vid=93a7541d-594c-4713-9c37-84d0b76dd655"},"vehicle_type_id":"4","last_reported":1705356393,"current_range_meters":2400,"station_id":"ce4bhqp2rcd13ifvqhog","pricing_plan_id":"free"},{"bike_id":"65200528-92c8-43dc-a28c-65f22643d5f6","system_id":"levelo_inurba_marseille","lat":43.32369,"lon":5.38884,"is_reserved":false,"is_disabled":false,"rental_uris":{"android":"levelo://app?vid=65200528-92c8-43dc-a28c-65f22643d5f6","ios":"levelo://app?vid=65200528-92c8-43dc-a28c-65f22643d5f6"},"vehicle_type_id":"4","last_reported":1705356393,"current_range_meters":18800,"station_id":"ce4bhqp2rcd13ifvqhog","pricing_plan_id":"free"},{"bike_id":"710c5896-5fdc-4ce7-b55e-ae58d5a422d3","system_id":"levelo_inurba_marseille","lat":43.305994,"lon":5.393687,"is_reserved":false,"is_disabled":false,"rental_uris":{"android":"levelo://app?vid=710c5896-5fdc-4ce7-b55e-ae58d5a422d3","ios":"levelo://app?vid=710c5896-5fdc-4ce7-b55e-ae58d5a422d3"},"vehicle_type_id":"4","last_reported":1705356393,"current_range_meters":18000,"station_id":"ce4bh0p2rcd13ifvqd80","pricing_plan_id":"free"},{"bike_id":"b8f4eb6e-1aa8-482b-ac1d-510854d30020","system_id":"levelo_inurba_marseille","lat":43.305994,"lon":5.393687,"is_reserved":false,"is_disabled":false,"rental_uris":{"android":"levelo://app?vid=b8f4eb6e-1aa8-482b-ac1d-510854d30020","ios":"levelo://app?vid=b8f4eb6e-1aa8-482b-ac1d-510854d30020"},"vehicle_type_id":"4","last_reported":1705356393,"current_range_meters":22000,"station_id":"ce4bh0p2rcd13ifvqd80","pricing_plan_id":"free"},{"bike_id":"b85aad47-af81-4ff5-8585-a52a9ff1cff4","system_id":"levelo_inurba_marseille","lat":43.303002,"lon":5.392142,"is_reserved":false,"is_disabled":false,"rental_uris":{"android":"levelo://app?vid=b85aad47-af81-4ff5-8585-a52a9ff1cff4","ios":"levelo://app?vid=b85aad47-af81-4ff5-8585-a52a9ff1cff4"},"vehicle_type_id":"4","last_reported":1705356393,"current_range_meters":15200,"station_id":"ce4bgkh2rcd13ifvqbk0","pricing_plan_id":"free"},{"bike_id":"057b1649-b67d-4e4c-b0ca-bdc1cb688c65","system_id":"levelo_inurba_marseille","lat":43.30104,"lon":5.3907,"is_reserved":false,"is_disabled":false,"rental_uris":{"android":"levelo://app?vid=057b1649-b67d-4e4c-b0ca-bdc1cb688c65","ios":"levelo://app?vid=057b1649-b67d-4e4c-b0ca-bdc1cb688c65"},"vehicle_type_id":"4","last_reported":1705356393,"current_range_meters":30400,"station_id":"ce4bh192rcd13ifvqdb0","pricing_plan_id":"free"},{"bike_id":"80b53e42-a659-47c9-b2f9-f1d7067f54fb","system_id":"levelo_inurba_marseille","lat":43.301,"lon":5.39067,"is_reserved":false,"is_disabled":false,"rental_uris":{"android":"levelo://app?vid=80b53e42-a659-47c9-b2f9-f1d7067f54fb","ios":"levelo://app?vid=80b53e42-a659-47c9-b2f9-f1d7067f54fb"},"vehicle_type_id":"4","last_reported":1705356393,"current_range_meters":21600,"station_id":"ce4bh192rcd13ifvqdb0","pricing_plan_id":"free"},{"bike_id":"b1d6e2da-2a99-4503-8665-3cbdfb02fc0d","system_id":"levelo_inurba_marseille","lat":43.30099,"lon":5.39072,"is_reserved":false,"is_disabled":false,"rental_uris":{"android":"levelo://app?vid=b1d6e2da-2a99-4503-8665-3cbdfb02fc0d","ios":"levelo://app?vid=b1d6e2da-2a99-4503-8665-3cbdfb02fc0d"},"vehicle_type_id":"4","last_reported":1705356393,"current_range_meters":5200,"station_id":"ce4bh192rcd13ifvqdb0","pricing_plan_id":"free"},{"bike_id":"1e311af8-e6fd-40b1-907d-f379afb504f2","system_id":"levelo_inurba_marseille","lat":43.292311,"lon":5.360731,"is_reserved":false,"is_disabled":false,"rental_uris":{"android":"levelo://app?vid=1e311af8-e6fd-40b1-907d-f379afb504f2","ios":"levelo://app?vid=1e311af8-e6fd-40b1-907d-f379afb504f2"},"vehicle_type_id":"4","last_reported":1705356393,"current_range_meters":12400,"station_id":"ce4bhbh2rcd13ifvqeqg","pricing_plan_id":"free"},{"bike_id":"f7af55ed-57c7-4108-a75b-06b307aeb981","system_id":"levelo_inurba_marseille","lat":43.300952,"lon":5.39075,"is_reserved":false,"is_disabled":false,"rental_uris":{"android":"levelo://app?vid=f7af55ed-57c7-4108-a75b-06b307aeb981","ios":"levelo://app?vid=f7af55ed-57c7-4108-a75b-06b307aeb981"},"vehicle_type_id":"4","last_reported":1705356393,"current_range_meters":30800,"station_id":"ce4bh192rcd13ifvqdb0","pricing_plan_id":"free"},{"bike_id":"d8d5e8e2-e8fc-4586-9016-d2a02094ed4e","system_id":"levelo_inurba_marseille","lat":43.291675,"lon":5.371583,"is_reserved":false,"is_disabled":false,"rental_uris":{"android":"levelo://app?vid=d8d5e8e2-e8fc-4586-9016-d2a02094ed4e","ios":"levelo://app?vid=d8d5e8e2-e8fc-4586-9016-d2a02094ed4e"},"vehicle_type_id":"4","last_reported":1705356393,"current_range_meters":26400,"station_id":"ce4bha92rcd13ifvqeh0","pricing_plan_id":"free"},{"bike_id":"7ac2c073-ceb7-42b3-bd8e-71853ee69678","system_id":"levelo_inurba_marseille","lat":43.29865,"lon":5.389093,"is_reserved":false,"is_disabled":false,"rental_uris":{"android":"levelo://app?vid=7ac2c073-ceb7-42b3-bd8e-71853ee69678","ios":"levelo://app?vid=7ac2c073-ceb7-42b3-bd8e-71853ee69678"},"vehicle_type_id":"4","last_reported":1705356393,"current_range_meters":7200,"station_id":"","pricing_plan_id":"free"},{"bike_id":"34d56912-5535-4fb4-92b3-bbf0f03658f4","system_id":"levelo_inurba_marseille","lat":43.31401,"lon":5.39639,"is_reserved":false,"is_disabled":false,"rental_uris":{"android":"levelo://app?vid=34d56912-5535-4fb4-92b3-bbf0f03658f4","ios":"levelo://app?vid=34d56912-5535-4fb4-92b3-bbf0f03658f4"},"vehicle_type_id":"4","last_reported":1705356393,"current_range_meters":5600,"station_id":"","pricing_plan_id":"free"},{"bike_id":"f646d61b-b638-4623-8c11-f4f496dbe821","system_id":"levelo_inurba_marseille","lat":43.291994,"lon":5.357886,"is_reserved":false,"is_disabled":false,"rental_uris":{"android":"levelo://app?vid=f646d61b-b638-4623-8c11-f4f496dbe821","ios":"levelo://app?vid=f646d61b-b638-4623-8c11-f4f496dbe821"},"vehicle_type_id":"4","last_reported":1705356393,"current_range_meters":25600,"station_id":"ce4bhb12rcd13ifvqel0","pricing_plan_id":"free"},{"bike_id":"0f79370a-acf0-4f29-b64d-7d2e6b2c05bf","system_id":"levelo_inurba_marseille","lat":43.291994,"lon":5.357886,"is_reserved":false,"is_disabled":false,"rental_uris":{"android":"levelo://app?vid=0f79370a-acf0-4f29-b64d-7d2e6b2c05bf","ios":"levelo://app?vid=0f79370a-acf0-4f29-b64d-7d2e6b2c05bf"},"vehicle_type_id":"4","last_reported":1705356393,"current_range_meters":25200,"station_id":"ce4bhb12rcd13ifvqel0","pricing_plan_id":"free"},{"bike_id":"5d613254-b166-4242-a63f-f57f32c5121d","system_id":"levelo_inurba_marseille","lat":43.291994,"lon":5.357886,"is_reserved":false,"is_disabled":false,"rental_uris":{"android":"levelo://app?vid=5d613254-b166-4242-a63f-f57f32c5121d","ios":"levelo://app?vid=5d613254-b166-4242-a63f-f57f32c5121d"},"vehicle_type_id":"4","last_reported":1705356393,"current_range_meters":0,"station_id":"ce4bhb12rcd13ifvqel0","pricing_plan_id":"free"},{"bike_id":"2136494a-63e9-48e2-b09d-20a9b552a9c0","system_id":"levelo_inurba_marseille","lat":43.313291,"lon":5.396838,"is_reserved":false,"is_disabled":false,"rental_uris":{"android":"levelo://app?vid=2136494a-63e9-48e2-b09d-20a9b552a9c0","ios":"levelo://app?vid=2136494a-63e9-48e2-b09d-20a9b552a9c0"},"vehicle_type_id":"4","last_reported":1705356393,"current_range_meters":400,"station_id":"ce4bgvp2rcd13ifvqcu0","pricing_plan_id":"free"},{"bike_id":"32d91121-d766-4137-9df2-1977d98c812e","system_id":"levelo_inurba_marseille","lat":43.309047,"lon":5.396551,"is_reserved":false,"is_disabled":false,"rental_uris":{"android":"levelo://app?vid=32d91121-d766-4137-9df2-1977d98c812e","ios":"levelo://app?vid=32d91121-d766-4137-9df2-1977d98c812e"},"vehicle_type_id":"4","last_reported":1705356393,"current_range_meters":31200,"station_id":"ce4bh012rcd13ifvqcv0","pricing_plan_id":"free"},{"bike_id":"51464891-7099-4d77-a4fa-502482b7396e","system_id":"levelo_inurba_marseille","lat":43.309038,"lon":5.396546,"is_reserved":false,"is_disabled":false,"rental_uris":{"android":"levelo://app?vid=51464891-7099-4d77-a4fa-502482b7396e","ios":"levelo://app?vid=51464891-7099-4d77-a4fa-502482b7396e"},"vehicle_type_id":"4","last_reported":1705356393,"current_range_meters":13200,"station_id":"ce4bh012rcd13ifvqcv0","pricing_plan_id":"free"},{"bike_id":"05f3e013-f23f-4e19-b210-e978d2056fba","system_id":"levelo_inurba_marseille","lat":43.313291,"lon":5.396838,"is_reserved":false,"is_disabled":false,"rental_uris":{"android":"levelo://app?vid=05f3e013-f23f-4e19-b210-e978d2056fba","ios":"levelo://app?vid=05f3e013-f23f-4e19-b210-e978d2056fba"},"vehicle_type_id":"4","last_reported":1705356393,"current_range_meters":14800,"station_id":"ce4bgvp2rcd13ifvqcu0","pricing_plan_id":"free"},{"bike_id":"b7470b05-6a21-47b8-a353-6aa535052877","system_id":"levelo_inurba_marseille","lat":43.309038,"lon":5.396546,"is_reserved":false,"is_disabled":false,"rental_uris":{"android":"levelo://app?vid=b7470b05-6a21-47b8-a353-6aa535052877","ios":"levelo://app?vid=b7470b05-6a21-47b8-a353-6aa535052877"},"vehicle_type_id":"4","last_reported":1705356393,"current_range_meters":7200,"station_id":"ce4bh012rcd13ifvqcv0","pricing_plan_id":"free"},{"bike_id":"6ce6ff1f-7574-4c07-ae29-26be6cab494f","system_id":"levelo_inurba_marseille","lat":43.309038,"lon":5.396546,"is_reserved":false,"is_disabled":false,"rental_uris":{"android":"levelo://app?vid=6ce6ff1f-7574-4c07-ae29-26be6cab494f","ios":"levelo://app?vid=6ce6ff1f-7574-4c07-ae29-26be6cab494f"},"vehicle_type_id":"4","last_reported":1705356393,"current_range_meters":30000,"station_id":"ce4bh012rcd13ifvqcv0","pricing_plan_id":"free"},{"bike_id":"c0f02293-aa3d-4dce-b4c6-0ccc51373fd8","system_id":"levelo_inurba_marseille","lat":43.313291,"lon":5.396838,"is_reserved":false,"is_disabled":false,"rental_uris":{"android":"levelo://app?vid=c0f02293-aa3d-4dce-b4c6-0ccc51373fd8","ios":"levelo://app?vid=c0f02293-aa3d-4dce-b4c6-0ccc51373fd8"},"vehicle_type_id":"4","last_reported":1705356393,"current_range_meters":30400,"station_id":"ce4bgvp2rcd13ifvqcu0","pricing_plan_id":"free"},{"bike_id":"57b665f4-f319-4b8d-942e-6575db1ce933","system_id":"levelo_inurba_marseille","lat":43.309038,"lon":5.396546,"is_reserved":false,"is_disabled":false,"rental_uris":{"android":"levelo://app?vid=57b665f4-f319-4b8d-942e-6575db1ce933","ios":"levelo://app?vid=57b665f4-f319-4b8d-942e-6575db1ce933"},"vehicle_type_id":"4","last_reported":1705356393,"current_range_meters":22000,"station_id":"ce4bh012rcd13ifvqcv0","pricing_plan_id":"free"},{"bike_id":"a0a3e436-f134-47e5-ac13-980dabf9329c","system_id":"levelo_inurba_marseille","lat":43.313291,"lon":5.396838,"is_reserved":false,"is_disabled":false,"rental_uris":{"android":"levelo://app?vid=a0a3e436-f134-47e5-ac13-980dabf9329c","ios":"levelo://app?vid=a0a3e436-f134-47e5-ac13-980dabf9329c"},"vehicle_type_id":"4","last_reported":1705356393,"current_range_meters":23200,"station_id":"ce4bgvp2rcd13ifvqcu0","pricing_plan_id":"free"},{"bike_id":"dc7fc9eb-be7e-48ed-b16e-98f66dd11501","system_id":"levelo_inurba_marseille","lat":43.313291,"lon":5.396838,"is_reserved":false,"is_disabled":false,"rental_uris":{"android":"levelo://app?vid=dc7fc9eb-be7e-48ed-b16e-98f66dd11501","ios":"levelo://app?vid=dc7fc9eb-be7e-48ed-b16e-98f66dd11501"},"vehicle_type_id":"4","last_reported":1705356393,"current_range_meters":16000,"station_id":"ce4bgvp2rcd13ifvqcu0","pricing_plan_id":"free"},{"bike_id":"6559cdb6-2faf-49f7-801e-39131101e175","system_id":"levelo_inurba_marseille","lat":43.313291,"lon":5.396838,"is_reserved":false,"is_disabled":false,"rental_uris":{"android":"levelo://app?vid=6559cdb6-2faf-49f7-801e-39131101e175","ios":"levelo://app?vid=6559cdb6-2faf-49f7-801e-39131101e175"},"vehicle_type_id":"4","last_reported":1705356393,"current_range_meters":21600,"station_id":"ce4bgvp2rcd13ifvqcu0","pricing_plan_id":"free"},{"bike_id":"f633d584-c7ae-4af1-8cf8-7c8c7d38dde4","system_id":"levelo_inurba_marseille","lat":43.313291,"lon":5.396838,"is_reserved":false,"is_disabled":false,"rental_uris":{"android":"levelo://app?vid=f633d584-c7ae-4af1-8cf8-7c8c7d38dde4","ios":"levelo://app?vid=f633d584-c7ae-4af1-8cf8-7c8c7d38dde4"},"vehicle_type_id":"4","last_reported":1705356393,"current_range_meters":31200,"station_id":"ce4bgvp2rcd13ifvqcu0","pricing_plan_id":"free"},{"bike_id":"d745d548-4b45-4abc-8a5c-fac4a834e3a5","system_id":"levelo_inurba_marseille","lat":43.313291,"lon":5.396838,"is_reserved":false,"is_disabled":false,"rental_uris":{"android":"levelo://app?vid=d745d548-4b45-4abc-8a5c-fac4a834e3a5","ios":"levelo://app?vid=d745d548-4b45-4abc-8a5c-fac4a834e3a5"},"vehicle_type_id":"4","last_reported":1705356393,"current_range_meters":31200,"station_id":"ce4bgvp2rcd13ifvqcu0","pricing_plan_id":"free"},{"bike_id":"8b757b99-17ea-4abc-a5a5-1b5325a5ddae","system_id":"levelo_inurba_marseille","lat":43.309038,"lon":5.396546,"is_reserved":false,"is_disabled":false,"rental_uris":{"android":"levelo://app?vid=8b757b99-17ea-4abc-a5a5-1b5325a5ddae","ios":"levelo://app?vid=8b757b99-17ea-4abc-a5a5-1b5325a5ddae"},"vehicle_type_id":"4","last_reported":1705356393,"current_range_meters":1600,"station_id":"ce4bh012rcd13ifvqcv0","pricing_plan_id":"free"},{"bike_id":"5c15005e-ad9d-42e6-ba2b-12d96bf4c4d8","system_id":"levelo_inurba_marseille","lat":43.313291,"lon":5.396838,"is_reserved":false,"is_disabled":false,"rental_uris":{"android":"levelo://app?vid=5c15005e-ad9d-42e6-ba2b-12d96bf4c4d8","ios":"levelo://app?vid=5c15005e-ad9d-42e6-ba2b-12d96bf4c4d8"},"vehicle_type_id":"4","last_reported":1705356393,"current_range_meters":0,"station_id":"ce4bgvp2rcd13ifvqcu0","pricing_plan_id":"free"},{"bike_id":"34481da4-989f-464f-a0c0-9cfb5ecfb22f","system_id":"levelo_inurba_marseille","lat":43.313291,"lon":5.396838,"is_reserved":false,"is_disabled":false,"rental_uris":{"android":"levelo://app?vid=34481da4-989f-464f-a0c0-9cfb5ecfb22f","ios":"levelo://app?vid=34481da4-989f-464f-a0c0-9cfb5ecfb22f"},"vehicle_type_id":"4","last_reported":1705356393,"current_range_meters":10400,"station_id":"ce4bgvp2rcd13ifvqcu0","pricing_plan_id":"free"},{"bike_id":"c2c1e83d-4d0b-4a2e-a0a4-07527661b2dd","system_id":"levelo_inurba_marseille","lat":43.29533,"lon":5.38548,"is_reserved":false,"is_disabled":false,"rental_uris":{"android":"levelo://app?vid=c2c1e83d-4d0b-4a2e-a0a4-07527661b2dd","ios":"levelo://app?vid=c2c1e83d-4d0b-4a2e-a0a4-07527661b2dd"},"vehicle_type_id":"4","last_reported":1705356393,"current_range_meters":0,"station_id":"ce4bgih2rcd13ifvqba0","pricing_plan_id":"free"},{"bike_id":"3b7541c7-2a12-495b-b1d9-5d92a8fa9536","system_id":"levelo_inurba_marseille","lat":43.290624,"lon":5.359245,"is_reserved":false,"is_disabled":false,"rental_uris":{"android":"levelo://app?vid=3b7541c7-2a12-495b-b1d9-5d92a8fa9536","ios":"levelo://app?vid=3b7541c7-2a12-495b-b1d9-5d92a8fa9536"},"vehicle_type_id":"4","last_reported":1705356393,"current_range_meters":7200,"station_id":"ce4bha92rcd13ifvqeg0","pricing_plan_id":"free"},{"bike_id":"31817f5b-09be-4d0c-8892-ddecfbb82780","system_id":"levelo_inurba_marseille","lat":43.313291,"lon":5.396838,"is_reserved":false,"is_disabled":false,"rental_uris":{"android":"levelo://app?vid=31817f5b-09be-4d0c-8892-ddecfbb82780","ios":"levelo://app?vid=31817f5b-09be-4d0c-8892-ddecfbb82780"},"vehicle_type_id":"4","last_reported":1705356393,"current_range_meters":12000,"station_id":"ce4bgvp2rcd13ifvqcu0","pricing_plan_id":"free"},{"bike_id":"996c8dbf-39f7-4581-a093-e31ea9921b42","system_id":"levelo_inurba_marseille","lat":43.290624,"lon":5.359245,"is_reserved":false,"is_disabled":false,"rental_uris":{"android":"levelo://app?vid=996c8dbf-39f7-4581-a093-e31ea9921b42","ios":"levelo://app?vid=996c8dbf-39f7-4581-a093-e31ea9921b42"},"vehicle_type_id":"4","last_reported":1705356393,"current_range_meters":28800,"station_id":"ce4bha92rcd13ifvqeg0","pricing_plan_id":"free"},{"bike_id":"93fadcb4-9874-4cde-a684-56e91964d84d","system_id":"levelo_inurba_marseille","lat":43.290624,"lon":5.359245,"is_reserved":false,"is_disabled":false,"rental_uris":{"android":"levelo://app?vid=93fadcb4-9874-4cde-a684-56e91964d84d","ios":"levelo://app?vid=93fadcb4-9874-4cde-a684-56e91964d84d"},"vehicle_type_id":"4","last_reported":1705356393,"current_range_meters":21600,"station_id":"ce4bha92rcd13ifvqeg0","pricing_plan_id":"free"},{"bike_id":"769ec05c-1bb7-4188-a72e-886494a21753","system_id":"levelo_inurba_marseille","lat":43.29033,"lon":5.37559,"is_reserved":false,"is_disabled":false,"rental_uris":{"android":"levelo://app?vid=769ec05c-1bb7-4188-a72e-886494a21753","ios":"levelo://app?vid=769ec05c-1bb7-4188-a72e-886494a21753"},"vehicle_type_id":"4","last_reported":1705356393,"current_range_meters":0,"station_id":"ce4bh692rcd13ifvqe90","pricing_plan_id":"free"},{"bike_id":"ecc3e864-5928-4207-a402-12da606149f5","system_id":"levelo_inurba_marseille","lat":43.289184,"lon":5.366408,"is_reserved":false,"is_disabled":false,"rental_uris":{"android":"levelo://app?vid=ecc3e864-5928-4207-a402-12da606149f5","ios":"levelo://app?vid=ecc3e864-5928-4207-a402-12da606149f5"},"vehicle_type_id":"4","last_reported":1705356393,"current_range_meters":5200,"station_id":"ce4bhap2rcd13ifvqek0","pricing_plan_id":"free"},{"bike_id":"6be50228-7d8a-4482-9243-e68a95846eac","system_id":"levelo_inurba_marseille","lat":43.294163,"lon":5.386255,"is_reserved":false,"is_disabled":false,"rental_uris":{"android":"levelo://app?vid=6be50228-7d8a-4482-9243-e68a95846eac","ios":"levelo://app?vid=6be50228-7d8a-4482-9243-e68a95846eac"},"vehicle_type_id":"4","last_reported":1705356393,"current_range_meters":0,"station_id":"ce4bh2h2rcd13ifvqdh0","pricing_plan_id":"free"},{"bike_id":"994b995e-335f-4b6d-8c8d-0a55c0e4bdbe","system_id":"levelo_inurba_marseille","lat":43.289184,"lon":5.366408,"is_reserved":false,"is_disabled":false,"rental_uris":{"android":"levelo://app?vid=994b995e-335f-4b6d-8c8d-0a55c0e4bdbe","ios":"levelo://app?vid=994b995e-335f-4b6d-8c8d-0a55c0e4bdbe"},"vehicle_type_id":"4","last_reported":1705356393,"current_range_meters":14800,"station_id":"ce4bhap2rcd13ifvqek0","pricing_plan_id":"free"},{"bike_id":"4e449e45-25aa-4fa3-879c-82e7d363ab63","system_id":"levelo_inurba_marseille","lat":43.289184,"lon":5.366408,"is_reserved":false,"is_disabled":false,"rental_uris":{"android":"levelo://app?vid=4e449e45-25aa-4fa3-879c-82e7d363ab63","ios":"levelo://app?vid=4e449e45-25aa-4fa3-879c-82e7d363ab63"},"vehicle_type_id":"4","last_reported":1705356393,"current_range_meters":4000,"station_id":"ce4bhap2rcd13ifvqek0","pricing_plan_id":"free"},{"bike_id":"7ef2a730-3d80-4c04-8570-5f86023823f8","system_id":"levelo_inurba_marseille","lat":43.290104,"lon":5.356111,"is_reserved":false,"is_disabled":false,"rental_uris":{"android":"levelo://app?vid=7ef2a730-3d80-4c04-8570-5f86023823f8","ios":"levelo://app?vid=7ef2a730-3d80-4c04-8570-5f86023823f8"},"vehicle_type_id":"4","last_reported":1705356393,"current_range_meters":17200,"station_id":"ce4bhb92rcd13ifvqen0","pricing_plan_id":"free"},{"bike_id":"3fc2f427-77c5-4794-a2d6-7d7ce948db31","system_id":"levelo_inurba_marseille","lat":43.289468,"lon":5.363719,"is_reserved":false,"is_disabled":false,"rental_uris":{"android":"levelo://app?vid=3fc2f427-77c5-4794-a2d6-7d7ce948db31","ios":"levelo://app?vid=3fc2f427-77c5-4794-a2d6-7d7ce948db31"},"vehicle_type_id":"4","last_reported":1705356393,"current_range_meters":0,"station_id":"ce4bhc92rcd13ifvqetg","pricing_plan_id":"free"},{"bike_id":"3b0080fe-78ca-4da5-b7d4-cefd877f24cb","system_id":"levelo_inurba_marseille","lat":43.289741,"lon":5.378306,"is_reserved":false,"is_disabled":false,"rental_uris":{"android":"levelo://app?vid=3b0080fe-78ca-4da5-b7d4-cefd877f24cb","ios":"levelo://app?vid=3b0080fe-78ca-4da5-b7d4-cefd877f24cb"},"vehicle_type_id":"4","last_reported":1705356393,"current_range_meters":24800,"station_id":"ce4bh9p2rcd13ifvqed0","pricing_plan_id":"free"},{"bike_id":"1f4262e1-b051-4265-8ab0-2ce2ee4cafb2","system_id":"levelo_inurba_marseille","lat":43.291408,"lon":5.380618,"is_reserved":false,"is_disabled":false,"rental_uris":{"android":"levelo://app?vid=1f4262e1-b051-4265-8ab0-2ce2ee4cafb2","ios":"levelo://app?vid=1f4262e1-b051-4265-8ab0-2ce2ee4cafb2"},"vehicle_type_id":"4","last_reported":1705356393,"current_range_meters":1600,"station_id":"","pricing_plan_id":"free"},{"bike_id":"b05caf28-2def-4c28-a4a5-e63726486434","system_id":"levelo_inurba_marseille","lat":43.304296,"lon":5.397513,"is_reserved":false,"is_disabled":false,"rental_uris":{"android":"levelo://app?vid=b05caf28-2def-4c28-a4a5-e63726486434","ios":"levelo://app?vid=b05caf28-2def-4c28-a4a5-e63726486434"},"vehicle_type_id":"4","last_reported":1705356393,"current_range_meters":14800,"station_id":"ce4bh092rcd13ifvqd20","pricing_plan_id":"free"},{"bike_id":"c605072d-789b-4796-90ec-2de00fee48c2","system_id":"levelo_inurba_marseille","lat":43.313291,"lon":5.396838,"is_reserved":false,"is_disabled":false,"rental_uris":{"android":"levelo://app?vid=c605072d-789b-4796-90ec-2de00fee48c2","ios":"levelo://app?vid=c605072d-789b-4796-90ec-2de00fee48c2"},"vehicle_type_id":"4","last_reported":1705356393,"current_range_meters":8400,"station_id":"ce4bgvp2rcd13ifvqcu0","pricing_plan_id":"free"},{"bike_id":"0a3201a3-4047-4186-800a-b447107b652c","system_id":"levelo_inurba_marseille","lat":43.290103,"lon":5.356114,"is_reserved":false,"is_disabled":false,"rental_uris":{"android":"levelo://app?vid=0a3201a3-4047-4186-800a-b447107b652c","ios":"levelo://app?vid=0a3201a3-4047-4186-800a-b447107b652c"},"vehicle_type_id":"4","last_reported":1705356393,"current_range_meters":25600,"station_id":"ce4bhb92rcd13ifvqen0","pricing_plan_id":"free"},{"bike_id":"16ad8c51-21d7-4ab0-a6cc-a6ccf3f48c9b","system_id":"levelo_inurba_marseille","lat":43.267959,"lon":5.402685,"is_reserved":false,"is_disabled":false,"rental_uris":{"android":"levelo://app?vid=16ad8c51-21d7-4ab0-a6cc-a6ccf3f48c9b","ios":"levelo://app?vid=16ad8c51-21d7-4ab0-a6cc-a6ccf3f48c9b"},"vehicle_type_id":"4","last_reported":1705356393,"current_range_meters":6000,"station_id":"ce501612rcd8frsf0b60","pricing_plan_id":"free"},{"bike_id":"691c2141-a864-4aa4-9604-5cf07723f379","system_id":"levelo_inurba_marseille","lat":43.289743,"lon":5.378304,"is_reserved":false,"is_disabled":false,"rental_uris":{"android":"levelo://app?vid=691c2141-a864-4aa4-9604-5cf07723f379","ios":"levelo://app?vid=691c2141-a864-4aa4-9604-5cf07723f379"},"vehicle_type_id":"4","last_reported":1705356393,"current_range_meters":28000,"station_id":"ce4bh9p2rcd13ifvqed0","pricing_plan_id":"free"},{"bike_id":"73307c33-b5fa-42bb-8d6c-b07930692292","system_id":"levelo_inurba_marseille","lat":43.2979,"lon":5.39347,"is_reserved":false,"is_disabled":false,"rental_uris":{"android":"levelo://app?vid=73307c33-b5fa-42bb-8d6c-b07930692292","ios":"levelo://app?vid=73307c33-b5fa-42bb-8d6c-b07930692292"},"vehicle_type_id":"4","last_reported":1705356393,"current_range_meters":8000,"station_id":"chh1huq6cuj3fo74tm60","pricing_plan_id":"free"},{"bike_id":"42fde5db-d54c-4b1d-8b46-33603db2d2d1","system_id":"levelo_inurba_marseille","lat":43.33019,"lon":5.39038,"is_reserved":false,"is_disabled":false,"rental_uris":{"android":"levelo://app?vid=42fde5db-d54c-4b1d-8b46-33603db2d2d1","ios":"levelo://app?vid=42fde5db-d54c-4b1d-8b46-33603db2d2d1"},"vehicle_type_id":"4","last_reported":1705356393,"current_range_meters":13200,"station_id":"ce4bhr92rcd13ifvqhrg","pricing_plan_id":"free"},{"bike_id":"226bb269-1d10-4f64-bdf3-296d273ae135","system_id":"levelo_inurba_marseille","lat":43.330442,"lon":5.389148,"is_reserved":false,"is_disabled":false,"rental_uris":{"android":"levelo://app?vid=226bb269-1d10-4f64-bdf3-296d273ae135","ios":"levelo://app?vid=226bb269-1d10-4f64-bdf3-296d273ae135"},"vehicle_type_id":"4","last_reported":1705356393,"current_range_meters":3200,"station_id":"ce4bhr92rcd13ifvqhrg","pricing_plan_id":"free"},{"bike_id":"7f9bdf32-f004-4bb1-9024-ef0ef6de1fae","system_id":"levelo_inurba_marseille","lat":43.29529,"lon":5.39038,"is_reserved":false,"is_disabled":false,"rental_uris":{"android":"levelo://app?vid=7f9bdf32-f004-4bb1-9024-ef0ef6de1fae","ios":"levelo://app?vid=7f9bdf32-f004-4bb1-9024-ef0ef6de1fae"},"vehicle_type_id":"4","last_reported":1705356393,"current_range_meters":2800,"station_id":"ce4bh3p2rcd13ifvqdp0","pricing_plan_id":"free"},{"bike_id":"579688db-9c6c-4ce4-adf5-776613d0a153","system_id":"levelo_inurba_marseille","lat":43.309038,"lon":5.396546,"is_reserved":false,"is_disabled":false,"rental_uris":{"android":"levelo://app?vid=579688db-9c6c-4ce4-adf5-776613d0a153","ios":"levelo://app?vid=579688db-9c6c-4ce4-adf5-776613d0a153"},"vehicle_type_id":"4","last_reported":1705356393,"current_range_meters":19600,"station_id":"ce4bh012rcd13ifvqcv0","pricing_plan_id":"free"},{"bike_id":"1c911b6d-8c17-4da7-ab47-9a84f6bf8381","system_id":"levelo_inurba_marseille","lat":43.295169,"lon":5.390426,"is_reserved":false,"is_disabled":false,"rental_uris":{"android":"levelo://app?vid=1c911b6d-8c17-4da7-ab47-9a84f6bf8381","ios":"levelo://app?vid=1c911b6d-8c17-4da7-ab47-9a84f6bf8381"},"vehicle_type_id":"4","last_reported":1705356393,"current_range_meters":28800,"station_id":"ce4bh3p2rcd13ifvqdp0","pricing_plan_id":"free"},{"bike_id":"5e21ea74-79fb-445f-a1fd-0d2b8da69ae3","system_id":"levelo_inurba_marseille","lat":43.33026,"lon":5.39037,"is_reserved":false,"is_disabled":false,"rental_uris":{"android":"levelo://app?vid=5e21ea74-79fb-445f-a1fd-0d2b8da69ae3","ios":"levelo://app?vid=5e21ea74-79fb-445f-a1fd-0d2b8da69ae3"},"vehicle_type_id":"4","last_reported":1705356393,"current_range_meters":22400,"station_id":"ce4bhr92rcd13ifvqhrg","pricing_plan_id":"free"},{"bike_id":"59bdac10-b5e9-4f03-b04f-68439b974a96","system_id":"levelo_inurba_marseille","lat":43.33025,"lon":5.39039,"is_reserved":false,"is_disabled":false,"rental_uris":{"android":"levelo://app?vid=59bdac10-b5e9-4f03-b04f-68439b974a96","ios":"levelo://app?vid=59bdac10-b5e9-4f03-b04f-68439b974a96"},"vehicle_type_id":"4","last_reported":1705356393,"current_range_meters":17600,"station_id":"ce4bhr92rcd13ifvqhrg","pricing_plan_id":"free"},{"bike_id":"cf2a8e79-1286-47b7-b507-ef7bebc2955c","system_id":"levelo_inurba_marseille","lat":43.330442,"lon":5.389148,"is_reserved":false,"is_disabled":false,"rental_uris":{"android":"levelo://app?vid=cf2a8e79-1286-47b7-b507-ef7bebc2955c","ios":"levelo://app?vid=cf2a8e79-1286-47b7-b507-ef7bebc2955c"},"vehicle_type_id":"4","last_reported":1705356393,"current_range_meters":6800,"station_id":"ce4bhr92rcd13ifvqhrg","pricing_plan_id":"free"},{"bike_id":"7c64a78d-cf44-415c-a807-707bdbdb0e66","system_id":"levelo_inurba_marseille","lat":43.330261,"lon":5.390384,"is_reserved":false,"is_disabled":false,"rental_uris":{"android":"levelo://app?vid=7c64a78d-cf44-415c-a807-707bdbdb0e66","ios":"levelo://app?vid=7c64a78d-cf44-415c-a807-707bdbdb0e66"},"vehicle_type_id":"4","last_reported":1705356393,"current_range_meters":5200,"station_id":"ce4bhr92rcd13ifvqhrg","pricing_plan_id":"free"},{"bike_id":"12cf2268-0c09-4f12-b5d8-7ee86d88a231","system_id":"levelo_inurba_marseille","lat":43.330442,"lon":5.389148,"is_reserved":false,"is_disabled":false,"rental_uris":{"android":"levelo://app?vid=12cf2268-0c09-4f12-b5d8-7ee86d88a231","ios":"levelo://app?vid=12cf2268-0c09-4f12-b5d8-7ee86d88a231"},"vehicle_type_id":"4","last_reported":1705356393,"current_range_meters":24400,"station_id":"ce4bhr92rcd13ifvqhrg","pricing_plan_id":"free"},{"bike_id":"517b0d0b-d608-45bf-9461-35b6ce418c5d","system_id":"levelo_inurba_marseille","lat":43.330442,"lon":5.389148,"is_reserved":false,"is_disabled":false,"rental_uris":{"android":"levelo://app?vid=517b0d0b-d608-45bf-9461-35b6ce418c5d","ios":"levelo://app?vid=517b0d0b-d608-45bf-9461-35b6ce418c5d"},"vehicle_type_id":"4","last_reported":1705356393,"current_range_meters":400,"station_id":"ce4bhr92rcd13ifvqhrg","pricing_plan_id":"free"},{"bike_id":"95d7b378-6f0f-43ff-a8e6-7582e575c578","system_id":"levelo_inurba_marseille","lat":43.330442,"lon":5.389148,"is_reserved":false,"is_disabled":false,"rental_uris":{"android":"levelo://app?vid=95d7b378-6f0f-43ff-a8e6-7582e575c578","ios":"levelo://app?vid=95d7b378-6f0f-43ff-a8e6-7582e575c578"},"vehicle_type_id":"4","last_reported":1705356393,"current_range_meters":19600,"station_id":"ce4bhr92rcd13ifvqhrg","pricing_plan_id":"free"},{"bike_id":"371c9102-10ae-492a-86a3-1422da8af1d0","system_id":"levelo_inurba_marseille","lat":43.295169,"lon":5.390426,"is_reserved":false,"is_disabled":false,"rental_uris":{"android":"levelo://app?vid=371c9102-10ae-492a-86a3-1422da8af1d0","ios":"levelo://app?vid=371c9102-10ae-492a-86a3-1422da8af1d0"},"vehicle_type_id":"4","last_reported":1705356393,"current_range_meters":26800,"station_id":"ce4bh3p2rcd13ifvqdp0","pricing_plan_id":"free"},{"bike_id":"baa5511c-aeba-4ad8-bed3-34c5636f458f","system_id":"levelo_inurba_marseille","lat":43.28856,"lon":5.358371,"is_reserved":false,"is_disabled":false,"rental_uris":{"android":"levelo://app?vid=baa5511c-aeba-4ad8-bed3-34c5636f458f","ios":"levelo://app?vid=baa5511c-aeba-4ad8-bed3-34c5636f458f"},"vehicle_type_id":"4","last_reported":1705356393,"current_range_meters":5200,"station_id":"ce4bhb12rcd13ifvqem0","pricing_plan_id":"free"},{"bike_id":"f9b7ee8e-2445-4c91-bb03-462ae3707aa8","system_id":"levelo_inurba_marseille","lat":43.28856,"lon":5.358371,"is_reserved":false,"is_disabled":false,"rental_uris":{"android":"levelo://app?vid=f9b7ee8e-2445-4c91-bb03-462ae3707aa8","ios":"levelo://app?vid=f9b7ee8e-2445-4c91-bb03-462ae3707aa8"},"vehicle_type_id":"4","last_reported":1705356393,"current_range_meters":9200,"station_id":"ce4bhb12rcd13ifvqem0","pricing_plan_id":"free"},{"bike_id":"4653e896-3f04-4ff7-b200-eefbfc87f7fa","system_id":"levelo_inurba_marseille","lat":43.28856,"lon":5.358371,"is_reserved":false,"is_disabled":false,"rental_uris":{"android":"levelo://app?vid=4653e896-3f04-4ff7-b200-eefbfc87f7fa","ios":"levelo://app?vid=4653e896-3f04-4ff7-b200-eefbfc87f7fa"},"vehicle_type_id":"4","last_reported":1705356393,"current_range_meters":20400,"station_id":"ce4bhb12rcd13ifvqem0","pricing_plan_id":"free"},{"bike_id":"9d11eb23-83dc-421f-bd46-da2d9e86e957","system_id":"levelo_inurba_marseille","lat":43.28856,"lon":5.358371,"is_reserved":false,"is_disabled":false,"rental_uris":{"android":"levelo://app?vid=9d11eb23-83dc-421f-bd46-da2d9e86e957","ios":"levelo://app?vid=9d11eb23-83dc-421f-bd46-da2d9e86e957"},"vehicle_type_id":"4","last_reported":1705356393,"current_range_meters":15200,"station_id":"ce4bhb12rcd13ifvqem0","pricing_plan_id":"free"},{"bike_id":"01c8fe3b-8929-45c4-8ddd-cf2f64cb3102","system_id":"levelo_inurba_marseille","lat":43.28856,"lon":5.358371,"is_reserved":false,"is_disabled":false,"rental_uris":{"android":"levelo://app?vid=01c8fe3b-8929-45c4-8ddd-cf2f64cb3102","ios":"levelo://app?vid=01c8fe3b-8929-45c4-8ddd-cf2f64cb3102"},"vehicle_type_id":"4","last_reported":1705356393,"current_range_meters":31200,"station_id":"ce4bhb12rcd13ifvqem0","pricing_plan_id":"free"},{"bike_id":"95949495-e9e8-4a0c-abb5-0ff00b8920dc","system_id":"levelo_inurba_marseille","lat":43.28856,"lon":5.358371,"is_reserved":false,"is_disabled":false,"rental_uris":{"android":"levelo://app?vid=95949495-e9e8-4a0c-abb5-0ff00b8920dc","ios":"levelo://app?vid=95949495-e9e8-4a0c-abb5-0ff00b8920dc"},"vehicle_type_id":"4","last_reported":1705356393,"current_range_meters":5200,"station_id":"ce4bhb12rcd13ifvqem0","pricing_plan_id":"free"},{"bike_id":"c391eac3-7e2f-40f3-bc09-ab8fba2744c8","system_id":"levelo_inurba_marseille","lat":43.28856,"lon":5.358371,"is_reserved":false,"is_disabled":false,"rental_uris":{"android":"levelo://app?vid=c391eac3-7e2f-40f3-bc09-ab8fba2744c8","ios":"levelo://app?vid=c391eac3-7e2f-40f3-bc09-ab8fba2744c8"},"vehicle_type_id":"4","last_reported":1705356393,"current_range_meters":17200,"station_id":"ce4bhb12rcd13ifvqem0","pricing_plan_id":"free"},{"bike_id":"59d8c2f5-e469-4c63-8260-12b2c9040799","system_id":"levelo_inurba_marseille","lat":43.28856,"lon":5.358371,"is_reserved":false,"is_disabled":false,"rental_uris":{"android":"levelo://app?vid=59d8c2f5-e469-4c63-8260-12b2c9040799","ios":"levelo://app?vid=59d8c2f5-e469-4c63-8260-12b2c9040799"},"vehicle_type_id":"4","last_reported":1705356393,"current_range_meters":8800,"station_id":"ce4bhb12rcd13ifvqem0","pricing_plan_id":"free"},{"bike_id":"c980ac14-baa5-4674-b800-34d3caeaa6b2","system_id":"levelo_inurba_marseille","lat":43.28856,"lon":5.358371,"is_reserved":false,"is_disabled":false,"rental_uris":{"android":"levelo://app?vid=c980ac14-baa5-4674-b800-34d3caeaa6b2","ios":"levelo://app?vid=c980ac14-baa5-4674-b800-34d3caeaa6b2"},"vehicle_type_id":"4","last_reported":1705356393,"current_range_meters":5600,"station_id":"ce4bhb12rcd13ifvqem0","pricing_plan_id":"free"},{"bike_id":"c98d5edb-bbcf-45dd-a8de-80048f4bf5a5","system_id":"levelo_inurba_marseille","lat":43.28856,"lon":5.358371,"is_reserved":false,"is_disabled":false,"rental_uris":{"android":"levelo://app?vid=c98d5edb-bbcf-45dd-a8de-80048f4bf5a5","ios":"levelo://app?vid=c98d5edb-bbcf-45dd-a8de-80048f4bf5a5"},"vehicle_type_id":"4","last_reported":1705356393,"current_range_meters":4400,"station_id":"ce4bhb12rcd13ifvqem0","pricing_plan_id":"free"},{"bike_id":"09eb47b1-ddbd-4e09-88fa-70115c1b472e","system_id":"levelo_inurba_marseille","lat":43.28856,"lon":5.358371,"is_reserved":false,"is_disabled":false,"rental_uris":{"android":"levelo://app?vid=09eb47b1-ddbd-4e09-88fa-70115c1b472e","ios":"levelo://app?vid=09eb47b1-ddbd-4e09-88fa-70115c1b472e"},"vehicle_type_id":"4","last_reported":1705356393,"current_range_meters":2800,"station_id":"ce4bhb12rcd13ifvqem0","pricing_plan_id":"free"},{"bike_id":"60f5f127-2206-4404-874f-8fb8a59b7aad","system_id":"levelo_inurba_marseille","lat":43.28856,"lon":5.358371,"is_reserved":false,"is_disabled":false,"rental_uris":{"android":"levelo://app?vid=60f5f127-2206-4404-874f-8fb8a59b7aad","ios":"levelo://app?vid=60f5f127-2206-4404-874f-8fb8a59b7aad"},"vehicle_type_id":"4","last_reported":1705356393,"current_range_meters":6800,"station_id":"ce4bhb12rcd13ifvqem0","pricing_plan_id":"free"},{"bike_id":"151fe49a-05ca-4c1d-91c4-c37e963fad3d","system_id":"levelo_inurba_marseille","lat":43.28856,"lon":5.358371,"is_reserved":false,"is_disabled":false,"rental_uris":{"android":"levelo://app?vid=151fe49a-05ca-4c1d-91c4-c37e963fad3d","ios":"levelo://app?vid=151fe49a-05ca-4c1d-91c4-c37e963fad3d"},"vehicle_type_id":"4","last_reported":1705356393,"current_range_meters":10400,"station_id":"ce4bhb12rcd13ifvqem0","pricing_plan_id":"free"},{"bike_id":"551db725-474b-4028-8329-15c78af83ca0","system_id":"levelo_inurba_marseille","lat":43.312609,"lon":5.401662,"is_reserved":false,"is_disabled":false,"rental_uris":{"android":"levelo://app?vid=551db725-474b-4028-8329-15c78af83ca0","ios":"levelo://app?vid=551db725-474b-4028-8329-15c78af83ca0"},"vehicle_type_id":"4","last_reported":1705356393,"current_range_meters":4000,"station_id":"ce4bh092rcd13ifvqd30","pricing_plan_id":"free"},{"bike_id":"b7f19553-caf3-42e9-85f2-de3629dabc8e","system_id":"levelo_inurba_marseille","lat":43.337245,"lon":5.374675,"is_reserved":false,"is_disabled":false,"rental_uris":{"android":"levelo://app?vid=b7f19553-caf3-42e9-85f2-de3629dabc8e","ios":"levelo://app?vid=b7f19553-caf3-42e9-85f2-de3629dabc8e"},"vehicle_type_id":"4","last_reported":1705356393,"current_range_meters":26800,"station_id":"","pricing_plan_id":"free"},{"bike_id":"253794ee-610a-4a21-8676-35e94361791c","system_id":"levelo_inurba_marseille","lat":43.312609,"lon":5.401662,"is_reserved":false,"is_disabled":false,"rental_uris":{"android":"levelo://app?vid=253794ee-610a-4a21-8676-35e94361791c","ios":"levelo://app?vid=253794ee-610a-4a21-8676-35e94361791c"},"vehicle_type_id":"4","last_reported":1705356393,"current_range_meters":6000,"station_id":"ce4bh092rcd13ifvqd30","pricing_plan_id":"free"},{"bike_id":"5d46e930-1759-4613-8232-da3645a67696","system_id":"levelo_inurba_marseille","lat":43.312609,"lon":5.401662,"is_reserved":false,"is_disabled":false,"rental_uris":{"android":"levelo://app?vid=5d46e930-1759-4613-8232-da3645a67696","ios":"levelo://app?vid=5d46e930-1759-4613-8232-da3645a67696"},"vehicle_type_id":"4","last_reported":1705356393,"current_range_meters":1600,"station_id":"ce4bh092rcd13ifvqd30","pricing_plan_id":"free"},{"bike_id":"a118d3e6-3647-45a3-abdf-2f4459048f31","system_id":"levelo_inurba_marseille","lat":43.309371,"lon":5.401449,"is_reserved":false,"is_disabled":false,"rental_uris":{"android":"levelo://app?vid=a118d3e6-3647-45a3-abdf-2f4459048f31","ios":"levelo://app?vid=a118d3e6-3647-45a3-abdf-2f4459048f31"},"vehicle_type_id":"4","last_reported":1705356393,"current_range_meters":20000,"station_id":"ce4bgvp2rcd13ifvqct0","pricing_plan_id":"free"},{"bike_id":"321af6f7-1944-4537-9c38-d653ca38fce3","system_id":"levelo_inurba_marseille","lat":43.312609,"lon":5.401662,"is_reserved":false,"is_disabled":false,"rental_uris":{"android":"levelo://app?vid=321af6f7-1944-4537-9c38-d653ca38fce3","ios":"levelo://app?vid=321af6f7-1944-4537-9c38-d653ca38fce3"},"vehicle_type_id":"4","last_reported":1705356393,"current_range_meters":13600,"station_id":"ce4bh092rcd13ifvqd30","pricing_plan_id":"free"},{"bike_id":"aa79cf53-08cc-46e6-8b00-c407fa11d0b7","system_id":"levelo_inurba_marseille","lat":43.309371,"lon":5.401449,"is_reserved":false,"is_disabled":false,"rental_uris":{"android":"levelo://app?vid=aa79cf53-08cc-46e6-8b00-c407fa11d0b7","ios":"levelo://app?vid=aa79cf53-08cc-46e6-8b00-c407fa11d0b7"},"vehicle_type_id":"4","last_reported":1705356393,"current_range_meters":1200,"station_id":"ce4bgvp2rcd13ifvqct0","pricing_plan_id":"free"},{"bike_id":"6b91f4e5-1f85-4175-a674-d86ffcc66320","system_id":"levelo_inurba_marseille","lat":43.306412,"lon":5.401035,"is_reserved":false,"is_disabled":false,"rental_uris":{"android":"levelo://app?vid=6b91f4e5-1f85-4175-a674-d86ffcc66320","ios":"levelo://app?vid=6b91f4e5-1f85-4175-a674-d86ffcc66320"},"vehicle_type_id":"4","last_reported":1705356393,"current_range_meters":16400,"station_id":"ce4bh112rcd13ifvqda0","pricing_plan_id":"free"},{"bike_id":"284defcd-49c2-47b8-a4b4-9d25da0bf8f5","system_id":"levelo_inurba_marseille","lat":43.30642,"lon":5.401031,"is_reserved":false,"is_disabled":false,"rental_uris":{"android":"levelo://app?vid=284defcd-49c2-47b8-a4b4-9d25da0bf8f5","ios":"levelo://app?vid=284defcd-49c2-47b8-a4b4-9d25da0bf8f5"},"vehicle_type_id":"4","last_reported":1705356393,"current_range_meters":30800,"station_id":"ce4bh112rcd13ifvqda0","pricing_plan_id":"free"},{"bike_id":"628c9160-a90c-46c4-a4ce-b8a9c498db92","system_id":"levelo_inurba_marseille","lat":43.33751,"lon":5.37454,"is_reserved":false,"is_disabled":false,"rental_uris":{"android":"levelo://app?vid=628c9160-a90c-46c4-a4ce-b8a9c498db92","ios":"levelo://app?vid=628c9160-a90c-46c4-a4ce-b8a9c498db92"},"vehicle_type_id":"4","last_reported":1705356393,"current_range_meters":24400,"station_id":"","pricing_plan_id":"free"},{"bike_id":"9d3f483f-6a69-4e78-95c5-f3c8d04a4c60","system_id":"levelo_inurba_marseille","lat":43.30648,"lon":5.40073,"is_reserved":false,"is_disabled":false,"rental_uris":{"android":"levelo://app?vid=9d3f483f-6a69-4e78-95c5-f3c8d04a4c60","ios":"levelo://app?vid=9d3f483f-6a69-4e78-95c5-f3c8d04a4c60"},"vehicle_type_id":"4","last_reported":1705356393,"current_range_meters":27200,"station_id":"ce4bh112rcd13ifvqda0","pricing_plan_id":"free"},{"bike_id":"9e2935e8-d2b9-45f9-bd32-65d27fd3693d","system_id":"levelo_inurba_marseille","lat":43.3093,"lon":5.4015,"is_reserved":false,"is_disabled":false,"rental_uris":{"android":"levelo://app?vid=9e2935e8-d2b9-45f9-bd32-65d27fd3693d","ios":"levelo://app?vid=9e2935e8-d2b9-45f9-bd32-65d27fd3693d"},"vehicle_type_id":"4","last_reported":1705356393,"current_range_meters":800,"station_id":"ce4bgvp2rcd13ifvqct0","pricing_plan_id":"free"},{"bike_id":"fde7464d-a968-4163-9ac1-fe04efe1d57b","system_id":"levelo_inurba_marseille","lat":43.306412,"lon":5.401035,"is_reserved":false,"is_disabled":false,"rental_uris":{"android":"levelo://app?vid=fde7464d-a968-4163-9ac1-fe04efe1d57b","ios":"levelo://app?vid=fde7464d-a968-4163-9ac1-fe04efe1d57b"},"vehicle_type_id":"4","last_reported":1705356393,"current_range_meters":15200,"station_id":"ce4bh112rcd13ifvqda0","pricing_plan_id":"free"},{"bike_id":"38956c97-205c-4e05-b980-7d98899de977","system_id":"levelo_inurba_marseille","lat":43.306412,"lon":5.401035,"is_reserved":false,"is_disabled":false,"rental_uris":{"android":"levelo://app?vid=38956c97-205c-4e05-b980-7d98899de977","ios":"levelo://app?vid=38956c97-205c-4e05-b980-7d98899de977"},"vehicle_type_id":"4","last_reported":1705356393,"current_range_meters":9200,"station_id":"ce4bh112rcd13ifvqda0","pricing_plan_id":"free"},{"bike_id":"800e4cc5-f7ae-48c9-9ab3-ac8f9347d5fa","system_id":"levelo_inurba_marseille","lat":43.306412,"lon":5.401035,"is_reserved":false,"is_disabled":false,"rental_uris":{"android":"levelo://app?vid=800e4cc5-f7ae-48c9-9ab3-ac8f9347d5fa","ios":"levelo://app?vid=800e4cc5-f7ae-48c9-9ab3-ac8f9347d5fa"},"vehicle_type_id":"4","last_reported":1705356393,"current_range_meters":8000,"station_id":"ce4bh112rcd13ifvqda0","pricing_plan_id":"free"},{"bike_id":"5f89c4cf-68ee-4a66-97e4-ca3ebb31d8c6","system_id":"levelo_inurba_marseille","lat":43.306412,"lon":5.401035,"is_reserved":false,"is_disabled":false,"rental_uris":{"android":"levelo://app?vid=5f89c4cf-68ee-4a66-97e4-ca3ebb31d8c6","ios":"levelo://app?vid=5f89c4cf-68ee-4a66-97e4-ca3ebb31d8c6"},"vehicle_type_id":"4","last_reported":1705356393,"current_range_meters":22000,"station_id":"ce4bh112rcd13ifvqda0","pricing_plan_id":"free"},{"bike_id":"ec8e9b71-18c6-46ca-ba91-1a45a9134bd7","system_id":"levelo_inurba_marseille","lat":43.306412,"lon":5.401035,"is_reserved":false,"is_disabled":false,"rental_uris":{"android":"levelo://app?vid=ec8e9b71-18c6-46ca-ba91-1a45a9134bd7","ios":"levelo://app?vid=ec8e9b71-18c6-46ca-ba91-1a45a9134bd7"},"vehicle_type_id":"4","last_reported":1705356393,"current_range_meters":12000,"station_id":"ce4bh112rcd13ifvqda0","pricing_plan_id":"free"},{"bike_id":"de8453f6-af4c-4f9d-91f4-6c1cc39bd96e","system_id":"levelo_inurba_marseille","lat":43.33767,"lon":5.37476,"is_reserved":false,"is_disabled":false,"rental_uris":{"android":"levelo://app?vid=de8453f6-af4c-4f9d-91f4-6c1cc39bd96e","ios":"levelo://app?vid=de8453f6-af4c-4f9d-91f4-6c1cc39bd96e"},"vehicle_type_id":"4","last_reported":1705356393,"current_range_meters":24800,"station_id":"","pricing_plan_id":"free"},{"bike_id":"00240506-f51a-4e5e-8e4b-da47fbef48ec","system_id":"levelo_inurba_marseille","lat":43.33769,"lon":5.37484,"is_reserved":false,"is_disabled":false,"rental_uris":{"android":"levelo://app?vid=00240506-f51a-4e5e-8e4b-da47fbef48ec","ios":"levelo://app?vid=00240506-f51a-4e5e-8e4b-da47fbef48ec"},"vehicle_type_id":"4","last_reported":1705356393,"current_range_meters":30800,"station_id":"","pricing_plan_id":"free"},{"bike_id":"c17c074b-d152-4390-be91-e6a6ee3d80d7","system_id":"levelo_inurba_marseille","lat":43.33775,"lon":5.374748,"is_reserved":false,"is_disabled":false,"rental_uris":{"android":"levelo://app?vid=c17c074b-d152-4390-be91-e6a6ee3d80d7","ios":"levelo://app?vid=c17c074b-d152-4390-be91-e6a6ee3d80d7"},"vehicle_type_id":"4","last_reported":1705356393,"current_range_meters":24000,"station_id":"","pricing_plan_id":"free"},{"bike_id":"6d01ea72-a9d0-45c0-8e9b-90fd78100ad6","system_id":"levelo_inurba_marseille","lat":43.301117,"lon":5.398795,"is_reserved":false,"is_disabled":false,"rental_uris":{"android":"levelo://app?vid=6d01ea72-a9d0-45c0-8e9b-90fd78100ad6","ios":"levelo://app?vid=6d01ea72-a9d0-45c0-8e9b-90fd78100ad6"},"vehicle_type_id":"4","last_reported":1705356393,"current_range_meters":14400,"station_id":"ce4bh0h2rcd13ifvqd40","pricing_plan_id":"free"},{"bike_id":"f2e1213f-c3a0-4aab-8558-f5a2bdb7ad23","system_id":"levelo_inurba_marseille","lat":43.301117,"lon":5.398795,"is_reserved":false,"is_disabled":false,"rental_uris":{"android":"levelo://app?vid=f2e1213f-c3a0-4aab-8558-f5a2bdb7ad23","ios":"levelo://app?vid=f2e1213f-c3a0-4aab-8558-f5a2bdb7ad23"},"vehicle_type_id":"4","last_reported":1705356393,"current_range_meters":5200,"station_id":"ce4bh0h2rcd13ifvqd40","pricing_plan_id":"free"},{"bike_id":"9b168046-dc3e-43b0-ba22-6bf115652fce","system_id":"levelo_inurba_marseille","lat":43.28734,"lon":5.36075,"is_reserved":false,"is_disabled":false,"rental_uris":{"android":"levelo://app?vid=9b168046-dc3e-43b0-ba22-6bf115652fce","ios":"levelo://app?vid=9b168046-dc3e-43b0-ba22-6bf115652fce"},"vehicle_type_id":"4","last_reported":1705356393,"current_range_meters":16400,"station_id":"cki0cbj6b192h4jlfktg","pricing_plan_id":"free"},{"bike_id":"d907a7ed-c95c-4403-9c63-ce65b86da356","system_id":"levelo_inurba_marseille","lat":43.28727,"lon":5.36078,"is_reserved":false,"is_disabled":false,"rental_uris":{"android":"levelo://app?vid=d907a7ed-c95c-4403-9c63-ce65b86da356","ios":"levelo://app?vid=d907a7ed-c95c-4403-9c63-ce65b86da356"},"vehicle_type_id":"4","last_reported":1705356393,"current_range_meters":28800,"station_id":"cki0cbj6b192h4jlfktg","pricing_plan_id":"free"},{"bike_id":"f3974f0b-a2c0-478d-b898-12eefe0edee1","system_id":"levelo_inurba_marseille","lat":43.301117,"lon":5.398795,"is_reserved":false,"is_disabled":false,"rental_uris":{"android":"levelo://app?vid=f3974f0b-a2c0-478d-b898-12eefe0edee1","ios":"levelo://app?vid=f3974f0b-a2c0-478d-b898-12eefe0edee1"},"vehicle_type_id":"4","last_reported":1705356393,"current_range_meters":12400,"station_id":"ce4bh0h2rcd13ifvqd40","pricing_plan_id":"free"},{"bike_id":"1aaffa86-b625-4f9c-b980-8a87909b01d5","system_id":"levelo_inurba_marseille","lat":43.301117,"lon":5.398795,"is_reserved":false,"is_disabled":false,"rental_uris":{"android":"levelo://app?vid=1aaffa86-b625-4f9c-b980-8a87909b01d5","ios":"levelo://app?vid=1aaffa86-b625-4f9c-b980-8a87909b01d5"},"vehicle_type_id":"4","last_reported":1705356393,"current_range_meters":7600,"station_id":"ce4bh0h2rcd13ifvqd40","pricing_plan_id":"free"},{"bike_id":"9908a734-cb79-466f-9273-74ae60fe27fe","system_id":"levelo_inurba_marseille","lat":43.28727,"lon":5.36078,"is_reserved":false,"is_disabled":false,"rental_uris":{"android":"levelo://app?vid=9908a734-cb79-466f-9273-74ae60fe27fe","ios":"levelo://app?vid=9908a734-cb79-466f-9273-74ae60fe27fe"},"vehicle_type_id":"4","last_reported":1705356393,"current_range_meters":0,"station_id":"cki0cbj6b192h4jlfktg","pricing_plan_id":"free"},{"bike_id":"8b7e3591-131c-4187-9b90-af9c93dbe730","system_id":"levelo_inurba_marseille","lat":43.28727,"lon":5.36078,"is_reserved":false,"is_disabled":false,"rental_uris":{"android":"levelo://app?vid=8b7e3591-131c-4187-9b90-af9c93dbe730","ios":"levelo://app?vid=8b7e3591-131c-4187-9b90-af9c93dbe730"},"vehicle_type_id":"4","last_reported":1705356393,"current_range_meters":26000,"station_id":"cki0cbj6b192h4jlfktg","pricing_plan_id":"free"},{"bike_id":"38a61d73-fe15-467a-919f-66257500e048","system_id":"levelo_inurba_marseille","lat":43.28727,"lon":5.36078,"is_reserved":false,"is_disabled":false,"rental_uris":{"android":"levelo://app?vid=38a61d73-fe15-467a-919f-66257500e048","ios":"levelo://app?vid=38a61d73-fe15-467a-919f-66257500e048"},"vehicle_type_id":"4","last_reported":1705356393,"current_range_meters":27200,"station_id":"cki0cbj6b192h4jlfktg","pricing_plan_id":"free"},{"bike_id":"2934b4ea-671d-43f7-bcfc-bb28cfeb1722","system_id":"levelo_inurba_marseille","lat":43.30125,"lon":5.39878,"is_reserved":false,"is_disabled":false,"rental_uris":{"android":"levelo://app?vid=2934b4ea-671d-43f7-bcfc-bb28cfeb1722","ios":"levelo://app?vid=2934b4ea-671d-43f7-bcfc-bb28cfeb1722"},"vehicle_type_id":"4","last_reported":1705356393,"current_range_meters":400,"station_id":"ce4bh0h2rcd13ifvqd40","pricing_plan_id":"free"},{"bike_id":"506a734a-472f-437c-a91f-e751715e8f36","system_id":"levelo_inurba_marseille","lat":43.28727,"lon":5.36078,"is_reserved":false,"is_disabled":false,"rental_uris":{"android":"levelo://app?vid=506a734a-472f-437c-a91f-e751715e8f36","ios":"levelo://app?vid=506a734a-472f-437c-a91f-e751715e8f36"},"vehicle_type_id":"4","last_reported":1705356393,"current_range_meters":29200,"station_id":"cki0cbj6b192h4jlfktg","pricing_plan_id":"free"},{"bike_id":"099be6f4-2b47-4b75-9d56-4d7386e3701b","system_id":"levelo_inurba_marseille","lat":43.28727,"lon":5.36078,"is_reserved":false,"is_disabled":false,"rental_uris":{"android":"levelo://app?vid=099be6f4-2b47-4b75-9d56-4d7386e3701b","ios":"levelo://app?vid=099be6f4-2b47-4b75-9d56-4d7386e3701b"},"vehicle_type_id":"4","last_reported":1705356393,"current_range_meters":31600,"station_id":"cki0cbj6b192h4jlfktg","pricing_plan_id":"free"},{"bike_id":"48987a01-4900-44e2-8f2a-a86958ad4a7e","system_id":"levelo_inurba_marseille","lat":43.286591,"lon":5.363346,"is_reserved":false,"is_disabled":false,"rental_uris":{"android":"levelo://app?vid=48987a01-4900-44e2-8f2a-a86958ad4a7e","ios":"levelo://app?vid=48987a01-4900-44e2-8f2a-a86958ad4a7e"},"vehicle_type_id":"4","last_reported":1705356393,"current_range_meters":19200,"station_id":"ce4bhah2rcd13ifvqej0","pricing_plan_id":"free"},{"bike_id":"5b123d73-7b8e-4351-9773-bad7f6b389b6","system_id":"levelo_inurba_marseille","lat":43.298681,"lon":5.397225,"is_reserved":false,"is_disabled":false,"rental_uris":{"android":"levelo://app?vid=5b123d73-7b8e-4351-9773-bad7f6b389b6","ios":"levelo://app?vid=5b123d73-7b8e-4351-9773-bad7f6b389b6"},"vehicle_type_id":"4","last_reported":1705356393,"current_range_meters":17600,"station_id":"ce4bh0h2rcd13ifvqd50","pricing_plan_id":"free"},{"bike_id":"72c74ca3-fb41-42a9-b338-d6424717f289","system_id":"levelo_inurba_marseille","lat":43.286961,"lon":5.373785,"is_reserved":false,"is_disabled":false,"rental_uris":{"android":"levelo://app?vid=72c74ca3-fb41-42a9-b338-d6424717f289","ios":"levelo://app?vid=72c74ca3-fb41-42a9-b338-d6424717f289"},"vehicle_type_id":"4","last_reported":1705356393,"current_range_meters":11600,"station_id":"ce4bh3p2rcd13ifvqdq0","pricing_plan_id":"free"},{"bike_id":"41f6889f-7f90-49e2-84f3-00191be89d1f","system_id":"levelo_inurba_marseille","lat":43.286591,"lon":5.363346,"is_reserved":false,"is_disabled":false,"rental_uris":{"android":"levelo://app?vid=41f6889f-7f90-49e2-84f3-00191be89d1f","ios":"levelo://app?vid=41f6889f-7f90-49e2-84f3-00191be89d1f"},