{"last_updated":1779283736,"ttl":60,"version":"2.2","data":{"bikes":[{"bike_id":"7d641315-6110-49cb-a9dd-d637ff032de1","system_id":"levelo_inurba_marseille","lat":43.337444,"lon":5.374475,"is_reserved":false,"is_disabled":false,"rental_uris":{"android":"levelo://app?vid=7d641315-6110-49cb-a9dd-d637ff032de1","ios":"levelo://app?vid=7d641315-6110-49cb-a9dd-d637ff032de1"},"vehicle_type_id":"4","last_reported":1779283737,"current_range_meters":0,"station_id":"","pricing_plan_id":"cebpf4jnsgd1na2vs0mg"},{"bike_id":"604c8d35-0292-4781-b66d-7833a0f007ea","system_id":"levelo_inurba_marseille","lat":43.33553,"lon":5.37477,"is_reserved":false,"is_disabled":false,"rental_uris":{"android":"levelo://app?vid=604c8d35-0292-4781-b66d-7833a0f007ea","ios":"levelo://app?vid=604c8d35-0292-4781-b66d-7833a0f007ea"},"vehicle_type_id":"4","last_reported":1779283737,"current_range_meters":2800,"station_id":"st_d46tts09ee8s73dlu43g","pricing_plan_id":"cebpf4jnsgd1na2vs0mg"},{"bike_id":"9d45a253-1d3a-41f8-95ed-2518452886d5","system_id":"levelo_inurba_marseille","lat":43.25518,"lon":5.37646,"is_reserved":false,"is_disabled":false,"rental_uris":{"android":"levelo://app?vid=9d45a253-1d3a-41f8-95ed-2518452886d5","ios":"levelo://app?vid=9d45a253-1d3a-41f8-95ed-2518452886d5"},"vehicle_type_id":"4","last_reported":1779283737,"current_range_meters":2800,"station_id":"ce4bhh12rcd13ifvqff0","pricing_plan_id":"cebpf4jnsgd1na2vs0mg"},{"bike_id":"a61cb062-2b0b-4ad2-a81b-1c62e6437a2d","system_id":"levelo_inurba_marseille","lat":43.29314,"lon":5.37459,"is_reserved":false,"is_disabled":false,"rental_uris":{"android":"levelo://app?vid=a61cb062-2b0b-4ad2-a81b-1c62e6437a2d","ios":"levelo://app?vid=a61cb062-2b0b-4ad2-a81b-1c62e6437a2d"},"vehicle_type_id":"4","last_reported":1779283737,"current_range_meters":2800,"station_id":"ce4bgi12rcd13ifvqb70","pricing_plan_id":"cebpf4jnsgd1na2vs0mg"},{"bike_id":"da2db37a-8aa2-4f16-9e8b-75363c987e91","system_id":"levelo_inurba_marseille","lat":43.29024,"lon":5.35618,"is_reserved":false,"is_disabled":false,"rental_uris":{"android":"levelo://app?vid=da2db37a-8aa2-4f16-9e8b-75363c987e91","ios":"levelo://app?vid=da2db37a-8aa2-4f16-9e8b-75363c987e91"},"vehicle_type_id":"4","last_reported":1779283737,"current_range_meters":2800,"station_id":"ce4bhb92rcd13ifvqen0","pricing_plan_id":"cebpf4jnsgd1na2vs0mg"},{"bike_id":"0b26ba4e-c846-41a0-958a-3b9baf746a49","system_id":"levelo_inurba_marseille","lat":43.23429,"lon":5.36582,"is_reserved":false,"is_disabled":false,"rental_uris":{"android":"levelo://app?vid=0b26ba4e-c846-41a0-958a-3b9baf746a49","ios":"levelo://app?vid=0b26ba4e-c846-41a0-958a-3b9baf746a49"},"vehicle_type_id":"4","last_reported":1779283737,"current_range_meters":2800,"station_id":"","pricing_plan_id":"cebpf4jnsgd1na2vs0mg"},{"bike_id":"b0f701be-92b9-4bcc-8993-ceaafa52f710","system_id":"levelo_inurba_marseille","lat":43.29726,"lon":5.37265,"is_reserved":false,"is_disabled":false,"rental_uris":{"android":"levelo://app?vid=b0f701be-92b9-4bcc-8993-ceaafa52f710","ios":"levelo://app?vid=b0f701be-92b9-4bcc-8993-ceaafa52f710"},"vehicle_type_id":"4","last_reported":1779283737,"current_range_meters":2800,"station_id":"","pricing_plan_id":"cebpf4jnsgd1na2vs0mg"},{"bike_id":"a57b6d8c-426e-41f2-88fd-ed699a7b5fab","system_id":"levelo_inurba_marseille","lat":43.32103,"lon":5.36783,"is_reserved":false,"is_disabled":false,"rental_uris":{"android":"levelo://app?vid=a57b6d8c-426e-41f2-88fd-ed699a7b5fab","ios":"levelo://app?vid=a57b6d8c-426e-41f2-88fd-ed699a7b5fab"},"vehicle_type_id":"4","last_reported":1779283737,"current_range_meters":2800,"station_id":"ce4bhrh2rcd13ifvqhug","pricing_plan_id":"cebpf4jnsgd1na2vs0mg"},{"bike_id":"b6c77ec5-659d-4a91-9207-bf8ba601b172","system_id":"levelo_inurba_marseille","lat":43.29858,"lon":5.38275,"is_reserved":false,"is_disabled":false,"rental_uris":{"android":"levelo://app?vid=b6c77ec5-659d-4a91-9207-bf8ba601b172","ios":"levelo://app?vid=b6c77ec5-659d-4a91-9207-bf8ba601b172"},"vehicle_type_id":"4","last_reported":1779283737,"current_range_meters":2800,"station_id":"","pricing_plan_id":"cebpf4jnsgd1na2vs0mg"},{"bike_id":"d37f5055-aab7-43a5-a09f-53d1cbdec2df","system_id":"levelo_inurba_marseille","lat":43.27495,"lon":5.42447,"is_reserved":false,"is_disabled":false,"rental_uris":{"android":"levelo://app?vid=d37f5055-aab7-43a5-a09f-53d1cbdec2df","ios":"levelo://app?vid=d37f5055-aab7-43a5-a09f-53d1cbdec2df"},"vehicle_type_id":"4","last_reported":1779283737,"current_range_meters":2800,"station_id":"ce4bhn92rcd13ifvqgrg","pricing_plan_id":"cebpf4jnsgd1na2vs0mg"},{"bike_id":"1f95e293-a5ee-402a-970b-56acb463528c","system_id":"levelo_inurba_marseille","lat":43.297047,"lon":5.376975,"is_reserved":false,"is_disabled":false,"rental_uris":{"android":"levelo://app?vid=1f95e293-a5ee-402a-970b-56acb463528c","ios":"levelo://app?vid=1f95e293-a5ee-402a-970b-56acb463528c"},"vehicle_type_id":"4","last_reported":1779283737,"current_range_meters":2800,"station_id":"ce4bgkh2rcd13ifvqbl0","pricing_plan_id":"cebpf4jnsgd1na2vs0mg"},{"bike_id":"01a535c2-2aa8-486c-b4e8-7a7aace55e7e","system_id":"levelo_inurba_marseille","lat":43.21765,"lon":5.3462,"is_reserved":false,"is_disabled":false,"rental_uris":{"android":"levelo://app?vid=01a535c2-2aa8-486c-b4e8-7a7aace55e7e","ios":"levelo://app?vid=01a535c2-2aa8-486c-b4e8-7a7aace55e7e"},"vehicle_type_id":"4","last_reported":1779283737,"current_range_meters":2800,"station_id":"st_cvj6r9ubvosntc0bgbag","pricing_plan_id":"cebpf4jnsgd1na2vs0mg"},{"bike_id":"d5507518-cb58-4fc3-a22b-de5ad3c6e51d","system_id":"levelo_inurba_marseille","lat":43.2983,"lon":5.44067,"is_reserved":false,"is_disabled":false,"rental_uris":{"android":"levelo://app?vid=d5507518-cb58-4fc3-a22b-de5ad3c6e51d","ios":"levelo://app?vid=d5507518-cb58-4fc3-a22b-de5ad3c6e51d"},"vehicle_type_id":"4","last_reported":1779283737,"current_range_meters":2800,"station_id":"st_d3jp68qikq2c7381ktn0","pricing_plan_id":"cebpf4jnsgd1na2vs0mg"},{"bike_id":"cfbfdf60-d81e-4d76-86b0-d916d82fdeb8","system_id":"levelo_inurba_marseille","lat":43.21766,"lon":5.34589,"is_reserved":false,"is_disabled":false,"rental_uris":{"android":"levelo://app?vid=cfbfdf60-d81e-4d76-86b0-d916d82fdeb8","ios":"levelo://app?vid=cfbfdf60-d81e-4d76-86b0-d916d82fdeb8"},"vehicle_type_id":"4","last_reported":1779283737,"current_range_meters":2800,"station_id":"st_cvj6r9ubvosntc0bgbag","pricing_plan_id":"cebpf4jnsgd1na2vs0mg"},{"bike_id":"b4be9459-9569-46ee-b62e-0d22047d8ee3","system_id":"levelo_inurba_marseille","lat":43.21772,"lon":5.34618,"is_reserved":false,"is_disabled":false,"rental_uris":{"android":"levelo://app?vid=b4be9459-9569-46ee-b62e-0d22047d8ee3","ios":"levelo://app?vid=b4be9459-9569-46ee-b62e-0d22047d8ee3"},"vehicle_type_id":"4","last_reported":1779283737,"current_range_meters":2800,"station_id":"st_cvj6r9ubvosntc0bgbag","pricing_plan_id":"cebpf4jnsgd1na2vs0mg"},{"bike_id":"c9f28163-176e-4a9c-8480-8654df4ccc53","system_id":"levelo_inurba_marseille","lat":43.307666,"lon":5.392297,"is_reserved":false,"is_disabled":false,"rental_uris":{"android":"levelo://app?vid=c9f28163-176e-4a9c-8480-8654df4ccc53","ios":"levelo://app?vid=c9f28163-176e-4a9c-8480-8654df4ccc53"},"vehicle_type_id":"4","last_reported":1779283737,"current_range_meters":2800,"station_id":"ce4bgup2rcd13ifvqco0","pricing_plan_id":"cebpf4jnsgd1na2vs0mg"},{"bike_id":"ed8972b6-551c-4612-9891-8699e7d3a000","system_id":"levelo_inurba_marseille","lat":43.23166,"lon":5.43707,"is_reserved":false,"is_disabled":false,"rental_uris":{"android":"levelo://app?vid=ed8972b6-551c-4612-9891-8699e7d3a000","ios":"levelo://app?vid=ed8972b6-551c-4612-9891-8699e7d3a000"},"vehicle_type_id":"4","last_reported":1779283737,"current_range_meters":2800,"station_id":"ce4bhmp2rcd13ifvqgog","pricing_plan_id":"cebpf4jnsgd1na2vs0mg"},{"bike_id":"d4ff141d-2c84-46e9-b231-971a360ea9dd","system_id":"levelo_inurba_marseille","lat":43.28703,"lon":5.37379,"is_reserved":false,"is_disabled":false,"rental_uris":{"android":"levelo://app?vid=d4ff141d-2c84-46e9-b231-971a360ea9dd","ios":"levelo://app?vid=d4ff141d-2c84-46e9-b231-971a360ea9dd"},"vehicle_type_id":"4","last_reported":1779283737,"current_range_meters":3200,"station_id":"ce4bh3p2rcd13ifvqdq0","pricing_plan_id":"cebpf4jnsgd1na2vs0mg"},{"bike_id":"e8703d1e-38d7-4a37-8b34-74e110535cc7","system_id":"levelo_inurba_marseille","lat":43.25101,"lon":5.39487,"is_reserved":false,"is_disabled":false,"rental_uris":{"android":"levelo://app?vid=e8703d1e-38d7-4a37-8b34-74e110535cc7","ios":"levelo://app?vid=e8703d1e-38d7-4a37-8b34-74e110535cc7"},"vehicle_type_id":"4","last_reported":1779283737,"current_range_meters":3200,"station_id":"ce4bhm12rcd13ifvqgkg","pricing_plan_id":"cebpf4jnsgd1na2vs0mg"},{"bike_id":"737311a9-79a4-4351-81da-64246a978e30","system_id":"levelo_inurba_marseille","lat":43.29608,"lon":5.38095,"is_reserved":false,"is_disabled":false,"rental_uris":{"android":"levelo://app?vid=737311a9-79a4-4351-81da-64246a978e30","ios":"levelo://app?vid=737311a9-79a4-4351-81da-64246a978e30"},"vehicle_type_id":"4","last_reported":1779283737,"current_range_meters":3200,"station_id":"ce4bgl12rcd13ifvqbo0","pricing_plan_id":"cebpf4jnsgd1na2vs0mg"},{"bike_id":"af0511a3-1e4c-44be-892f-817801583ee2","system_id":"levelo_inurba_marseille","lat":43.28537,"lon":5.44098,"is_reserved":false,"is_disabled":false,"rental_uris":{"android":"levelo://app?vid=af0511a3-1e4c-44be-892f-817801583ee2","ios":"levelo://app?vid=af0511a3-1e4c-44be-892f-817801583ee2"},"vehicle_type_id":"4","last_reported":1779283737,"current_range_meters":3200,"station_id":"st_d3j3df2ikq2c7380ej80","pricing_plan_id":"cebpf4jnsgd1na2vs0mg"},{"bike_id":"40e11415-186d-4a53-ac50-ac693db6945a","system_id":"levelo_inurba_marseille","lat":43.33546,"lon":5.37459,"is_reserved":false,"is_disabled":false,"rental_uris":{"android":"levelo://app?vid=40e11415-186d-4a53-ac50-ac693db6945a","ios":"levelo://app?vid=40e11415-186d-4a53-ac50-ac693db6945a"},"vehicle_type_id":"4","last_reported":1779283737,"current_range_meters":3200,"station_id":"st_d46tts09ee8s73dlu43g","pricing_plan_id":"cebpf4jnsgd1na2vs0mg"},{"bike_id":"33f1022a-86ed-42b2-a2fa-b6b00d8323f5","system_id":"levelo_inurba_marseille","lat":43.31129,"lon":5.37784,"is_reserved":false,"is_disabled":false,"rental_uris":{"android":"levelo://app?vid=33f1022a-86ed-42b2-a2fa-b6b00d8323f5","ios":"levelo://app?vid=33f1022a-86ed-42b2-a2fa-b6b00d8323f5"},"vehicle_type_id":"4","last_reported":1779283737,"current_range_meters":3200,"station_id":"ce4bgt92rcd13ifvqcg0","pricing_plan_id":"cebpf4jnsgd1na2vs0mg"},{"bike_id":"51213c28-981b-4d1e-a08f-01be4d391a4f","system_id":"levelo_inurba_marseille","lat":43.276186,"lon":5.361004,"is_reserved":false,"is_disabled":true,"rental_uris":{"android":"levelo://app?vid=51213c28-981b-4d1e-a08f-01be4d391a4f","ios":"levelo://app?vid=51213c28-981b-4d1e-a08f-01be4d391a4f"},"vehicle_type_id":"4","last_reported":1779283737,"current_range_meters":3200,"station_id":"ce4bgj92rcd13ifvqbe0","pricing_plan_id":"cebpf4jnsgd1na2vs0mg"},{"bike_id":"89dcf81e-d685-4eb4-82aa-fe68a85d332a","system_id":"levelo_inurba_marseille","lat":43.32108,"lon":5.36796,"is_reserved":false,"is_disabled":false,"rental_uris":{"android":"levelo://app?vid=89dcf81e-d685-4eb4-82aa-fe68a85d332a","ios":"levelo://app?vid=89dcf81e-d685-4eb4-82aa-fe68a85d332a"},"vehicle_type_id":"4","last_reported":1779283737,"current_range_meters":3200,"station_id":"ce4bhrh2rcd13ifvqhug","pricing_plan_id":"cebpf4jnsgd1na2vs0mg"},{"bike_id":"54d36013-dd8d-4303-9f4b-874cbc5ed69d","system_id":"levelo_inurba_marseille","lat":43.26784,"lon":5.39424,"is_reserved":false,"is_disabled":true,"rental_uris":{"android":"levelo://app?vid=54d36013-dd8d-4303-9f4b-874cbc5ed69d","ios":"levelo://app?vid=54d36013-dd8d-4303-9f4b-874cbc5ed69d"},"vehicle_type_id":"4","last_reported":1779283737,"current_range_meters":3200,"station_id":"ce4bhh12rcd13ifvqfg0","pricing_plan_id":"cebpf4jnsgd1na2vs0mg"},{"bike_id":"dd2811a6-a7c2-4368-bb5e-f01d70f866b7","system_id":"levelo_inurba_marseille","lat":43.29921,"lon":5.374707,"is_reserved":false,"is_disabled":false,"rental_uris":{"android":"levelo://app?vid=dd2811a6-a7c2-4368-bb5e-f01d70f866b7","ios":"levelo://app?vid=dd2811a6-a7c2-4368-bb5e-f01d70f866b7"},"vehicle_type_id":"4","last_reported":1779283737,"current_range_meters":3200,"station_id":"ce4bgjh2rcd13ifvqbg0","pricing_plan_id":"cebpf4jnsgd1na2vs0mg"},{"bike_id":"408701cc-3f2d-4c32-b20d-587f50ccde82","system_id":"levelo_inurba_marseille","lat":43.305578,"lon":5.367156,"is_reserved":false,"is_disabled":false,"rental_uris":{"android":"levelo://app?vid=408701cc-3f2d-4c32-b20d-587f50ccde82","ios":"levelo://app?vid=408701cc-3f2d-4c32-b20d-587f50ccde82"},"vehicle_type_id":"4","last_reported":1779283737,"current_range_meters":3200,"station_id":"","pricing_plan_id":"cebpf4jnsgd1na2vs0mg"},{"bike_id":"bae857a1-b512-462f-8a8c-e3483728b246","system_id":"levelo_inurba_marseille","lat":43.24451,"lon":5.42541,"is_reserved":false,"is_disabled":false,"rental_uris":{"android":"levelo://app?vid=bae857a1-b512-462f-8a8c-e3483728b246","ios":"levelo://app?vid=bae857a1-b512-462f-8a8c-e3483728b246"},"vehicle_type_id":"4","last_reported":1779283737,"current_range_meters":3200,"station_id":"st_d4a3vfp97mjs738cd8kg","pricing_plan_id":"cebpf4jnsgd1na2vs0mg"},{"bike_id":"445c2b82-f564-4133-b1f6-58bbd6156529","system_id":"levelo_inurba_marseille","lat":43.28848,"lon":5.39324,"is_reserved":false,"is_disabled":false,"rental_uris":{"android":"levelo://app?vid=445c2b82-f564-4133-b1f6-58bbd6156529","ios":"levelo://app?vid=445c2b82-f564-4133-b1f6-58bbd6156529"},"vehicle_type_id":"4","last_reported":1779283737,"current_range_meters":3600,"station_id":"ce4bh2p2rcd13ifvqdi0","pricing_plan_id":"cebpf4jnsgd1na2vs0mg"},{"bike_id":"0b123524-d009-4b70-b9c5-10f6f055ba12","system_id":"levelo_inurba_marseille","lat":43.29255,"lon":5.40914,"is_reserved":false,"is_disabled":false,"rental_uris":{"android":"levelo://app?vid=0b123524-d009-4b70-b9c5-10f6f055ba12","ios":"levelo://app?vid=0b123524-d009-4b70-b9c5-10f6f055ba12"},"vehicle_type_id":"4","last_reported":1779283737,"current_range_meters":3600,"station_id":"ce4bh192rcd13ifvqdc0","pricing_plan_id":"cebpf4jnsgd1na2vs0mg"},{"bike_id":"b31e758e-95d1-4382-89fe-8e8645a6959e","system_id":"levelo_inurba_marseille","lat":43.23183,"lon":5.39984,"is_reserved":false,"is_disabled":false,"rental_uris":{"android":"levelo://app?vid=b31e758e-95d1-4382-89fe-8e8645a6959e","ios":"levelo://app?vid=b31e758e-95d1-4382-89fe-8e8645a6959e"},"vehicle_type_id":"4","last_reported":1779283737,"current_range_meters":3600,"station_id":"ce4bhn12rcd13ifvqgqg","pricing_plan_id":"cebpf4jnsgd1na2vs0mg"},{"bike_id":"7d598e7d-cc9f-4d62-8939-525cafc83dfc","system_id":"levelo_inurba_marseille","lat":43.30531,"lon":5.36545,"is_reserved":false,"is_disabled":false,"rental_uris":{"android":"levelo://app?vid=7d598e7d-cc9f-4d62-8939-525cafc83dfc","ios":"levelo://app?vid=7d598e7d-cc9f-4d62-8939-525cafc83dfc"},"vehicle_type_id":"4","last_reported":1779283737,"current_range_meters":3600,"station_id":"ce4bgs12rcd13ifvqcag","pricing_plan_id":"cebpf4jnsgd1na2vs0mg"},{"bike_id":"53e1a6ea-d784-4f7d-a440-309fc5e00a10","system_id":"levelo_inurba_marseille","lat":43.24173,"lon":5.39717,"is_reserved":false,"is_disabled":false,"rental_uris":{"android":"levelo://app?vid=53e1a6ea-d784-4f7d-a440-309fc5e00a10","ios":"levelo://app?vid=53e1a6ea-d784-4f7d-a440-309fc5e00a10"},"vehicle_type_id":"4","last_reported":1779283737,"current_range_meters":3600,"station_id":"ce4bhn12rcd13ifvqgpg","pricing_plan_id":"cebpf4jnsgd1na2vs0mg"},{"bike_id":"79834aba-9631-49e8-87c4-b2bde0f0dcff","system_id":"levelo_inurba_marseille","lat":43.26483,"lon":5.39569,"is_reserved":false,"is_disabled":false,"rental_uris":{"android":"levelo://app?vid=79834aba-9631-49e8-87c4-b2bde0f0dcff","ios":"levelo://app?vid=79834aba-9631-49e8-87c4-b2bde0f0dcff"},"vehicle_type_id":"4","last_reported":1779283737,"current_range_meters":3600,"station_id":"ce4bhi12rcd13ifvqfq0","pricing_plan_id":"cebpf4jnsgd1na2vs0mg"},{"bike_id":"af97f5b8-3d08-4e9a-8662-98fbb9f24de3","system_id":"levelo_inurba_marseille","lat":43.26234,"lon":5.38764,"is_reserved":false,"is_disabled":false,"rental_uris":{"android":"levelo://app?vid=af97f5b8-3d08-4e9a-8662-98fbb9f24de3","ios":"levelo://app?vid=af97f5b8-3d08-4e9a-8662-98fbb9f24de3"},"vehicle_type_id":"4","last_reported":1779283737,"current_range_meters":3600,"station_id":"","pricing_plan_id":"cebpf4jnsgd1na2vs0mg"},{"bike_id":"63260e13-d1e7-46fb-8ab8-550de02f48ca","system_id":"levelo_inurba_marseille","lat":43.31121,"lon":5.37767,"is_reserved":false,"is_disabled":false,"rental_uris":{"android":"levelo://app?vid=63260e13-d1e7-46fb-8ab8-550de02f48ca","ios":"levelo://app?vid=63260e13-d1e7-46fb-8ab8-550de02f48ca"},"vehicle_type_id":"4","last_reported":1779283737,"current_range_meters":3600,"station_id":"ce4bgt92rcd13ifvqcg0","pricing_plan_id":"cebpf4jnsgd1na2vs0mg"},{"bike_id":"fa0d56b0-0d61-491c-a4c1-e706f4bb6e82","system_id":"levelo_inurba_marseille","lat":43.30564,"lon":5.36693,"is_reserved":false,"is_disabled":false,"rental_uris":{"android":"levelo://app?vid=fa0d56b0-0d61-491c-a4c1-e706f4bb6e82","ios":"levelo://app?vid=fa0d56b0-0d61-491c-a4c1-e706f4bb6e82"},"vehicle_type_id":"4","last_reported":1779283737,"current_range_meters":3600,"station_id":"ce4bgrp2rcd13ifvqc9g","pricing_plan_id":"cebpf4jnsgd1na2vs0mg"},{"bike_id":"b17c983e-bb8b-4fda-a2e3-80481ea31379","system_id":"levelo_inurba_marseille","lat":43.28462,"lon":5.3813,"is_reserved":false,"is_disabled":false,"rental_uris":{"android":"levelo://app?vid=b17c983e-bb8b-4fda-a2e3-80481ea31379","ios":"levelo://app?vid=b17c983e-bb8b-4fda-a2e3-80481ea31379"},"vehicle_type_id":"4","last_reported":1779283737,"current_range_meters":3600,"station_id":"","pricing_plan_id":"cebpf4jnsgd1na2vs0mg"},{"bike_id":"ee01a591-caa9-438a-bf14-bd89df243c47","system_id":"levelo_inurba_marseille","lat":43.2828,"lon":5.35125,"is_reserved":false,"is_disabled":false,"rental_uris":{"android":"levelo://app?vid=ee01a591-caa9-438a-bf14-bd89df243c47","ios":"levelo://app?vid=ee01a591-caa9-438a-bf14-bd89df243c47"},"vehicle_type_id":"4","last_reported":1779283737,"current_range_meters":3600,"station_id":"","pricing_plan_id":"cebpf4jnsgd1na2vs0mg"},{"bike_id":"a46430cf-f47d-4206-b6bd-f327f74a29c3","system_id":"levelo_inurba_marseille","lat":43.2738,"lon":5.36258,"is_reserved":false,"is_disabled":false,"rental_uris":{"android":"levelo://app?vid=a46430cf-f47d-4206-b6bd-f327f74a29c3","ios":"levelo://app?vid=a46430cf-f47d-4206-b6bd-f327f74a29c3"},"vehicle_type_id":"4","last_reported":1779283737,"current_range_meters":3600,"station_id":"ce4bhbh2rcd13ifvqeo0","pricing_plan_id":"cebpf4jnsgd1na2vs0mg"},{"bike_id":"37b6954f-bbe1-440e-9a63-182310fba4be","system_id":"levelo_inurba_marseille","lat":43.244,"lon":5.37067,"is_reserved":false,"is_disabled":false,"rental_uris":{"android":"levelo://app?vid=37b6954f-bbe1-440e-9a63-182310fba4be","ios":"levelo://app?vid=37b6954f-bbe1-440e-9a63-182310fba4be"},"vehicle_type_id":"4","last_reported":1779283737,"current_range_meters":3600,"station_id":"ce4bhhh2rcd13ifvqfk0","pricing_plan_id":"cebpf4jnsgd1na2vs0mg"},{"bike_id":"22e2c4d2-4d05-4d09-ad0e-bef5c3f6674e","system_id":"levelo_inurba_marseille","lat":43.28259,"lon":5.35075,"is_reserved":false,"is_disabled":false,"rental_uris":{"android":"levelo://app?vid=22e2c4d2-4d05-4d09-ad0e-bef5c3f6674e","ios":"levelo://app?vid=22e2c4d2-4d05-4d09-ad0e-bef5c3f6674e"},"vehicle_type_id":"4","last_reported":1779283737,"current_range_meters":3600,"station_id":"ce4bhbp2rcd13ifvqerg","pricing_plan_id":"cebpf4jnsgd1na2vs0mg"},{"bike_id":"6816ad20-e267-4121-b319-c804c7fe4cde","system_id":"levelo_inurba_marseille","lat":43.27996,"lon":5.40017,"is_reserved":false,"is_disabled":false,"rental_uris":{"android":"levelo://app?vid=6816ad20-e267-4121-b319-c804c7fe4cde","ios":"levelo://app?vid=6816ad20-e267-4121-b319-c804c7fe4cde"},"vehicle_type_id":"4","last_reported":1779283737,"current_range_meters":4000,"station_id":"ce4bho92rcd13ifvqh4g","pricing_plan_id":"cebpf4jnsgd1na2vs0mg"},{"bike_id":"b1a6e6b5-5ba4-46e0-90da-12ee580df0dd","system_id":"levelo_inurba_marseille","lat":43.26822,"lon":5.40277,"is_reserved":false,"is_disabled":false,"rental_uris":{"android":"levelo://app?vid=b1a6e6b5-5ba4-46e0-90da-12ee580df0dd","ios":"levelo://app?vid=b1a6e6b5-5ba4-46e0-90da-12ee580df0dd"},"vehicle_type_id":"4","last_reported":1779283737,"current_range_meters":4000,"station_id":"ce501612rcd8frsf0b60","pricing_plan_id":"cebpf4jnsgd1na2vs0mg"},{"bike_id":"8265558a-ae1e-4985-bc5e-a8790ffcbb39","system_id":"levelo_inurba_marseille","lat":43.30448,"lon":5.38877,"is_reserved":false,"is_disabled":false,"rental_uris":{"android":"levelo://app?vid=8265558a-ae1e-4985-bc5e-a8790ffcbb39","ios":"levelo://app?vid=8265558a-ae1e-4985-bc5e-a8790ffcbb39"},"vehicle_type_id":"4","last_reported":1779283737,"current_range_meters":4000,"station_id":"ce4bgk12rcd13ifvqbi0","pricing_plan_id":"cebpf4jnsgd1na2vs0mg"},{"bike_id":"cec0a113-ed5a-4c98-b8e5-8d3b6ead5489","system_id":"levelo_inurba_marseille","lat":43.29711,"lon":5.37704,"is_reserved":false,"is_disabled":false,"rental_uris":{"android":"levelo://app?vid=cec0a113-ed5a-4c98-b8e5-8d3b6ead5489","ios":"levelo://app?vid=cec0a113-ed5a-4c98-b8e5-8d3b6ead5489"},"vehicle_type_id":"4","last_reported":1779283737,"current_range_meters":4000,"station_id":"ce4bgkh2rcd13ifvqbl0","pricing_plan_id":"cebpf4jnsgd1na2vs0mg"},{"bike_id":"a8ea8d83-c9cd-4629-a246-ef8bdb83bc4d","system_id":"levelo_inurba_marseille","lat":43.31032,"lon":5.37545,"is_reserved":false,"is_disabled":false,"rental_uris":{"android":"levelo://app?vid=a8ea8d83-c9cd-4629-a246-ef8bdb83bc4d","ios":"levelo://app?vid=a8ea8d83-c9cd-4629-a246-ef8bdb83bc4d"},"vehicle_type_id":"4","last_reported":1779283737,"current_range_meters":4000,"station_id":"","pricing_plan_id":"cebpf4jnsgd1na2vs0mg"},{"bike_id":"c16bdf38-82db-498e-bdad-5b264882e7bf","system_id":"levelo_inurba_marseille","lat":43.28936,"lon":5.38765,"is_reserved":false,"is_disabled":false,"rental_uris":{"android":"levelo://app?vid=c16bdf38-82db-498e-bdad-5b264882e7bf","ios":"levelo://app?vid=c16bdf38-82db-498e-bdad-5b264882e7bf"},"vehicle_type_id":"4","last_reported":1779283737,"current_range_meters":4000,"station_id":"","pricing_plan_id":"cebpf4jnsgd1na2vs0mg"},{"bike_id":"1a30d11c-965a-45f3-a9e7-a8ba01dc1bc1","system_id":"levelo_inurba_marseille","lat":43.29037,"lon":5.38641,"is_reserved":false,"is_disabled":false,"rental_uris":{"android":"levelo://app?vid=1a30d11c-965a-45f3-a9e7-a8ba01dc1bc1","ios":"levelo://app?vid=1a30d11c-965a-45f3-a9e7-a8ba01dc1bc1"},"vehicle_type_id":"4","last_reported":1779283737,"current_range_meters":4000,"station_id":"ce4bh4p2rcd13ifvqe0g","pricing_plan_id":"cebpf4jnsgd1na2vs0mg"},{"bike_id":"61476ee4-54b2-4a07-8551-80b2bdfa5708","system_id":"levelo_inurba_marseille","lat":43.26961,"lon":5.39322,"is_reserved":false,"is_disabled":false,"rental_uris":{"android":"levelo://app?vid=61476ee4-54b2-4a07-8551-80b2bdfa5708","ios":"levelo://app?vid=61476ee4-54b2-4a07-8551-80b2bdfa5708"},"vehicle_type_id":"4","last_reported":1779283737,"current_range_meters":4000,"station_id":"","pricing_plan_id":"cebpf4jnsgd1na2vs0mg"},{"bike_id":"854da997-21ff-48c4-ae70-cc3a0937e1c9","system_id":"levelo_inurba_marseille","lat":43.33545,"lon":5.37481,"is_reserved":false,"is_disabled":false,"rental_uris":{"android":"levelo://app?vid=854da997-21ff-48c4-ae70-cc3a0937e1c9","ios":"levelo://app?vid=854da997-21ff-48c4-ae70-cc3a0937e1c9"},"vehicle_type_id":"4","last_reported":1779283737,"current_range_meters":4000,"station_id":"st_d46tts09ee8s73dlu43g","pricing_plan_id":"cebpf4jnsgd1na2vs0mg"},{"bike_id":"291bce7d-95a9-4f5c-a2d8-de5b55889c52","system_id":"levelo_inurba_marseille","lat":43.29461,"lon":5.40108,"is_reserved":false,"is_disabled":false,"rental_uris":{"android":"levelo://app?vid=291bce7d-95a9-4f5c-a2d8-de5b55889c52","ios":"levelo://app?vid=291bce7d-95a9-4f5c-a2d8-de5b55889c52"},"vehicle_type_id":"4","last_reported":1779283737,"current_range_meters":4000,"station_id":"","pricing_plan_id":"cebpf4jnsgd1na2vs0mg"},{"bike_id":"880aa9c2-1077-4203-b9db-a3ab63f940db","system_id":"levelo_inurba_marseille","lat":43.2901,"lon":5.35604,"is_reserved":false,"is_disabled":false,"rental_uris":{"android":"levelo://app?vid=880aa9c2-1077-4203-b9db-a3ab63f940db","ios":"levelo://app?vid=880aa9c2-1077-4203-b9db-a3ab63f940db"},"vehicle_type_id":"4","last_reported":1779283737,"current_range_meters":4000,"station_id":"ce4bhb92rcd13ifvqen0","pricing_plan_id":"cebpf4jnsgd1na2vs0mg"},{"bike_id":"cbe4671c-ffcd-472b-ab37-0567940fcc3e","system_id":"levelo_inurba_marseille","lat":43.30142,"lon":5.38786,"is_reserved":false,"is_disabled":false,"rental_uris":{"android":"levelo://app?vid=cbe4671c-ffcd-472b-ab37-0567940fcc3e","ios":"levelo://app?vid=cbe4671c-ffcd-472b-ab37-0567940fcc3e"},"vehicle_type_id":"4","last_reported":1779283737,"current_range_meters":4000,"station_id":"ce4bghh2rcd13ifvqb60","pricing_plan_id":"cebpf4jnsgd1na2vs0mg"},{"bike_id":"8b7aaf89-632e-4836-8f43-604e37972a56","system_id":"levelo_inurba_marseille","lat":43.23187,"lon":5.39986,"is_reserved":false,"is_disabled":false,"rental_uris":{"android":"levelo://app?vid=8b7aaf89-632e-4836-8f43-604e37972a56","ios":"levelo://app?vid=8b7aaf89-632e-4836-8f43-604e37972a56"},"vehicle_type_id":"4","last_reported":1779283737,"current_range_meters":4000,"station_id":"ce4bhn12rcd13ifvqgqg","pricing_plan_id":"cebpf4jnsgd1na2vs0mg"},{"bike_id":"0ce7267d-7c9a-4d06-8727-3f774b0baa41","system_id":"levelo_inurba_marseille","lat":43.24076,"lon":5.3776,"is_reserved":false,"is_disabled":false,"rental_uris":{"android":"levelo://app?vid=0ce7267d-7c9a-4d06-8727-3f774b0baa41","ios":"levelo://app?vid=0ce7267d-7c9a-4d06-8727-3f774b0baa41"},"vehicle_type_id":"4","last_reported":1779283737,"current_range_meters":4000,"station_id":"ce4bhnp2rcd13ifvqgvg","pricing_plan_id":"cebpf4jnsgd1na2vs0mg"},{"bike_id":"c1fbfa5c-b0b8-4517-9ebb-bf962e29f85b","system_id":"levelo_inurba_marseille","lat":43.28425,"lon":5.34985,"is_reserved":false,"is_disabled":false,"rental_uris":{"android":"levelo://app?vid=c1fbfa5c-b0b8-4517-9ebb-bf962e29f85b","ios":"levelo://app?vid=c1fbfa5c-b0b8-4517-9ebb-bf962e29f85b"},"vehicle_type_id":"4","last_reported":1779283737,"current_range_meters":4000,"station_id":"ce4bhbh2rcd13ifvqepg","pricing_plan_id":"cebpf4jnsgd1na2vs0mg"},{"bike_id":"0fc99c7d-9e2c-4bbd-bc76-80fa934c4921","system_id":"levelo_inurba_marseille","lat":43.29698,"lon":5.37279,"is_reserved":false,"is_disabled":false,"rental_uris":{"android":"levelo://app?vid=0fc99c7d-9e2c-4bbd-bc76-80fa934c4921","ios":"levelo://app?vid=0fc99c7d-9e2c-4bbd-bc76-80fa934c4921"},"vehicle_type_id":"4","last_reported":1779283737,"current_range_meters":4000,"station_id":"ce4bgk12rcd13ifvqbj0","pricing_plan_id":"cebpf4jnsgd1na2vs0mg"},{"bike_id":"8193eeb3-7b3c-4f0c-a744-aa1aa4ea42fa","system_id":"levelo_inurba_marseille","lat":43.28405,"lon":5.34967,"is_reserved":false,"is_disabled":false,"rental_uris":{"android":"levelo://app?vid=8193eeb3-7b3c-4f0c-a744-aa1aa4ea42fa","ios":"levelo://app?vid=8193eeb3-7b3c-4f0c-a744-aa1aa4ea42fa"},"vehicle_type_id":"4","last_reported":1779283737,"current_range_meters":4400,"station_id":"ce4bhbh2rcd13ifvqepg","pricing_plan_id":"cebpf4jnsgd1na2vs0mg"},{"bike_id":"fdb21c0a-88ca-429d-a3b4-bbb8df888db3","system_id":"levelo_inurba_marseille","lat":43.24661,"lon":5.38889,"is_reserved":false,"is_disabled":false,"rental_uris":{"android":"levelo://app?vid=fdb21c0a-88ca-429d-a3b4-bbb8df888db3","ios":"levelo://app?vid=fdb21c0a-88ca-429d-a3b4-bbb8df888db3"},"vehicle_type_id":"4","last_reported":1779283737,"current_range_meters":4400,"station_id":"ce4bhg12rcd13ifvqf60","pricing_plan_id":"cebpf4jnsgd1na2vs0mg"},{"bike_id":"04e67cbe-7692-42c9-a57b-d194e9419f17","system_id":"levelo_inurba_marseille","lat":43.3211,"lon":5.36793,"is_reserved":false,"is_disabled":false,"rental_uris":{"android":"levelo://app?vid=04e67cbe-7692-42c9-a57b-d194e9419f17","ios":"levelo://app?vid=04e67cbe-7692-42c9-a57b-d194e9419f17"},"vehicle_type_id":"4","last_reported":1779283737,"current_range_meters":4400,"station_id":"ce4bhrh2rcd13ifvqhug","pricing_plan_id":"cebpf4jnsgd1na2vs0mg"},{"bike_id":"430f6173-5908-4788-92fc-7a70afb37ecc","system_id":"levelo_inurba_marseille","lat":43.28422,"lon":5.34986,"is_reserved":false,"is_disabled":false,"rental_uris":{"android":"levelo://app?vid=430f6173-5908-4788-92fc-7a70afb37ecc","ios":"levelo://app?vid=430f6173-5908-4788-92fc-7a70afb37ecc"},"vehicle_type_id":"4","last_reported":1779283737,"current_range_meters":4400,"station_id":"ce4bhbh2rcd13ifvqepg","pricing_plan_id":"cebpf4jnsgd1na2vs0mg"},{"bike_id":"75e22e70-8d8e-4900-a3c7-f0fc484219ed","system_id":"levelo_inurba_marseille","lat":43.25134,"lon":5.40311,"is_reserved":false,"is_disabled":false,"rental_uris":{"android":"levelo://app?vid=75e22e70-8d8e-4900-a3c7-f0fc484219ed","ios":"levelo://app?vid=75e22e70-8d8e-4900-a3c7-f0fc484219ed"},"vehicle_type_id":"4","last_reported":1779283737,"current_range_meters":4400,"station_id":"ce4bhlh2rcd13ifvqgig","pricing_plan_id":"cebpf4jnsgd1na2vs0mg"},{"bike_id":"a708c854-cc76-4237-9e79-0e54aabe779a","system_id":"levelo_inurba_marseille","lat":43.33025,"lon":5.3904,"is_reserved":false,"is_disabled":false,"rental_uris":{"android":"levelo://app?vid=a708c854-cc76-4237-9e79-0e54aabe779a","ios":"levelo://app?vid=a708c854-cc76-4237-9e79-0e54aabe779a"},"vehicle_type_id":"4","last_reported":1779283737,"current_range_meters":4400,"station_id":"ce4bhr92rcd13ifvqhrg","pricing_plan_id":"cebpf4jnsgd1na2vs0mg"},{"bike_id":"6218c5ab-e371-41c7-9f3a-c2c1e97665c1","system_id":"levelo_inurba_marseille","lat":43.264,"lon":5.41089,"is_reserved":false,"is_disabled":false,"rental_uris":{"android":"levelo://app?vid=6218c5ab-e371-41c7-9f3a-c2c1e97665c1","ios":"levelo://app?vid=6218c5ab-e371-41c7-9f3a-c2c1e97665c1"},"vehicle_type_id":"4","last_reported":1779283737,"current_range_meters":4400,"station_id":"st_d4e5ca6na9uc73bfl5fg","pricing_plan_id":"cebpf4jnsgd1na2vs0mg"},{"bike_id":"6384a48c-7ea4-4f26-a2ff-b9ad05657d37","system_id":"levelo_inurba_marseille","lat":43.31386,"lon":5.36713,"is_reserved":false,"is_disabled":false,"rental_uris":{"android":"levelo://app?vid=6384a48c-7ea4-4f26-a2ff-b9ad05657d37","ios":"levelo://app?vid=6384a48c-7ea4-4f26-a2ff-b9ad05657d37"},"vehicle_type_id":"4","last_reported":1779283737,"current_range_meters":4400,"station_id":"ce4bgr92rcd13ifvqc6g","pricing_plan_id":"cebpf4jnsgd1na2vs0mg"},{"bike_id":"d0e19c68-9793-467e-8891-2d7d11c753fe","system_id":"levelo_inurba_marseille","lat":43.28724,"lon":5.37926,"is_reserved":false,"is_disabled":false,"rental_uris":{"android":"levelo://app?vid=d0e19c68-9793-467e-8891-2d7d11c753fe","ios":"levelo://app?vid=d0e19c68-9793-467e-8891-2d7d11c753fe"},"vehicle_type_id":"4","last_reported":1779283737,"current_range_meters":4800,"station_id":"ce4bh9p2rcd13ifvqec0","pricing_plan_id":"cebpf4jnsgd1na2vs0mg"},{"bike_id":"6002fe69-2372-4e23-bb46-7885b0c69d94","system_id":"levelo_inurba_marseille","lat":43.305879,"lon":5.372646,"is_reserved":false,"is_disabled":false,"rental_uris":{"android":"levelo://app?vid=6002fe69-2372-4e23-bb46-7885b0c69d94","ios":"levelo://app?vid=6002fe69-2372-4e23-bb46-7885b0c69d94"},"vehicle_type_id":"4","last_reported":1779283737,"current_range_meters":4800,"station_id":"ce4bgqh2rcd13ifvqc4g","pricing_plan_id":"cebpf4jnsgd1na2vs0mg"},{"bike_id":"e6c062b5-789a-4a15-8c44-e68052f6cfcb","system_id":"levelo_inurba_marseille","lat":43.288585,"lon":5.358463,"is_reserved":false,"is_disabled":false,"rental_uris":{"android":"levelo://app?vid=e6c062b5-789a-4a15-8c44-e68052f6cfcb","ios":"levelo://app?vid=e6c062b5-789a-4a15-8c44-e68052f6cfcb"},"vehicle_type_id":"4","last_reported":1779283737,"current_range_meters":4800,"station_id":"ce4bhb12rcd13ifvqem0","pricing_plan_id":"cebpf4jnsgd1na2vs0mg"},{"bike_id":"462fdf37-00b4-4bc3-b91a-3ee317bd142e","system_id":"levelo_inurba_marseille","lat":43.26215,"lon":5.37451,"is_reserved":false,"is_disabled":false,"rental_uris":{"android":"levelo://app?vid=462fdf37-00b4-4bc3-b91a-3ee317bd142e","ios":"levelo://app?vid=462fdf37-00b4-4bc3-b91a-3ee317bd142e"},"vehicle_type_id":"4","last_reported":1779283737,"current_range_meters":4800,"station_id":"ce4bhgp2rcd13ifvqfc0","pricing_plan_id":"cebpf4jnsgd1na2vs0mg"},{"bike_id":"1a5f6a03-71be-4290-a9dd-f7bd150f7332","system_id":"levelo_inurba_marseille","lat":43.28946,"lon":5.36627,"is_reserved":false,"is_disabled":false,"rental_uris":{"android":"levelo://app?vid=1a5f6a03-71be-4290-a9dd-f7bd150f7332","ios":"levelo://app?vid=1a5f6a03-71be-4290-a9dd-f7bd150f7332"},"vehicle_type_id":"4","last_reported":1779283737,"current_range_meters":4800,"station_id":"ce4bhap2rcd13ifvqek0","pricing_plan_id":"cebpf4jnsgd1na2vs0mg"},{"bike_id":"9fbae477-97a5-460c-b2da-0618c4b54827","system_id":"levelo_inurba_marseille","lat":43.28439,"lon":5.39183,"is_reserved":false,"is_disabled":false,"rental_uris":{"android":"levelo://app?vid=9fbae477-97a5-460c-b2da-0618c4b54827","ios":"levelo://app?vid=9fbae477-97a5-460c-b2da-0618c4b54827"},"vehicle_type_id":"4","last_reported":1779283737,"current_range_meters":4800,"station_id":"ce4bhoh2rcd13ifvqh5g","pricing_plan_id":"cebpf4jnsgd1na2vs0mg"},{"bike_id":"d0ea70c7-9e55-482b-822d-1f903c7938de","system_id":"levelo_inurba_marseille","lat":43.25094,"lon":5.39512,"is_reserved":false,"is_disabled":false,"rental_uris":{"android":"levelo://app?vid=d0ea70c7-9e55-482b-822d-1f903c7938de","ios":"levelo://app?vid=d0ea70c7-9e55-482b-822d-1f903c7938de"},"vehicle_type_id":"4","last_reported":1779283737,"current_range_meters":4800,"station_id":"ce4bhm12rcd13ifvqgkg","pricing_plan_id":"cebpf4jnsgd1na2vs0mg"},{"bike_id":"4f5f94e0-0123-44f0-ab7f-f21f617f76b4","system_id":"levelo_inurba_marseille","lat":43.317241,"lon":5.423964,"is_reserved":false,"is_disabled":false,"rental_uris":{"android":"levelo://app?vid=4f5f94e0-0123-44f0-ab7f-f21f617f76b4","ios":"levelo://app?vid=4f5f94e0-0123-44f0-ab7f-f21f617f76b4"},"vehicle_type_id":"4","last_reported":1779283737,"current_range_meters":4800,"station_id":"ce4bhp92rcd13ifvqhbg","pricing_plan_id":"cebpf4jnsgd1na2vs0mg"},{"bike_id":"a5c71542-f1db-4344-a3a3-7139ba88f0fc","system_id":"levelo_inurba_marseille","lat":43.28269,"lon":5.35071,"is_reserved":false,"is_disabled":false,"rental_uris":{"android":"levelo://app?vid=a5c71542-f1db-4344-a3a3-7139ba88f0fc","ios":"levelo://app?vid=a5c71542-f1db-4344-a3a3-7139ba88f0fc"},"vehicle_type_id":"4","last_reported":1779283737,"current_range_meters":4800,"station_id":"ce4bhbp2rcd13ifvqerg","pricing_plan_id":"cebpf4jnsgd1na2vs0mg"},{"bike_id":"62c3993b-2c59-4832-9792-84815eb47652","system_id":"levelo_inurba_marseille","lat":43.2551,"lon":5.37656,"is_reserved":false,"is_disabled":false,"rental_uris":{"android":"levelo://app?vid=62c3993b-2c59-4832-9792-84815eb47652","ios":"levelo://app?vid=62c3993b-2c59-4832-9792-84815eb47652"},"vehicle_type_id":"4","last_reported":1779283737,"current_range_meters":4800,"station_id":"ce4bhh12rcd13ifvqff0","pricing_plan_id":"cebpf4jnsgd1na2vs0mg"},{"bike_id":"62444a22-1ca5-4026-ba93-c9e8227f39c2","system_id":"levelo_inurba_marseille","lat":43.28621,"lon":5.35087,"is_reserved":false,"is_disabled":false,"rental_uris":{"android":"levelo://app?vid=62444a22-1ca5-4026-ba93-c9e8227f39c2","ios":"levelo://app?vid=62444a22-1ca5-4026-ba93-c9e8227f39c2"},"vehicle_type_id":"4","last_reported":1779283737,"current_range_meters":4800,"station_id":"ce4bhch2rcd13ifvqeug","pricing_plan_id":"cebpf4jnsgd1na2vs0mg"},{"bike_id":"1537ff86-4c07-4043-a319-565b4fb3369d","system_id":"levelo_inurba_marseille","lat":43.2861,"lon":5.38128,"is_reserved":false,"is_disabled":false,"rental_uris":{"android":"levelo://app?vid=1537ff86-4c07-4043-a319-565b4fb3369d","ios":"levelo://app?vid=1537ff86-4c07-4043-a319-565b4fb3369d"},"vehicle_type_id":"4","last_reported":1779283737,"current_range_meters":5600,"station_id":"","pricing_plan_id":"cebpf4jnsgd1na2vs0mg"},{"bike_id":"1d8a0de7-dee9-4c46-b0dc-9cb1beff9b47","system_id":"levelo_inurba_marseille","lat":43.28424,"lon":5.34989,"is_reserved":false,"is_disabled":false,"rental_uris":{"android":"levelo://app?vid=1d8a0de7-dee9-4c46-b0dc-9cb1beff9b47","ios":"levelo://app?vid=1d8a0de7-dee9-4c46-b0dc-9cb1beff9b47"},"vehicle_type_id":"4","last_reported":1779283737,"current_range_meters":5600,"station_id":"ce4bhbh2rcd13ifvqepg","pricing_plan_id":"cebpf4jnsgd1na2vs0mg"},{"bike_id":"dcd3c247-169a-4516-a7ff-942de871594a","system_id":"levelo_inurba_marseille","lat":43.32368,"lon":5.3671,"is_reserved":false,"is_disabled":false,"rental_uris":{"android":"levelo://app?vid=dcd3c247-169a-4516-a7ff-942de871594a","ios":"levelo://app?vid=dcd3c247-169a-4516-a7ff-942de871594a"},"vehicle_type_id":"4","last_reported":1779283737,"current_range_meters":5600,"station_id":"","pricing_plan_id":"cebpf4jnsgd1na2vs0mg"},{"bike_id":"05e96898-a928-4a3a-918b-fe95a4e06ca8","system_id":"levelo_inurba_marseille","lat":43.273191,"lon":5.390724,"is_reserved":false,"is_disabled":true,"rental_uris":{"android":"levelo://app?vid=05e96898-a928-4a3a-918b-fe95a4e06ca8","ios":"levelo://app?vid=05e96898-a928-4a3a-918b-fe95a4e06ca8"},"vehicle_type_id":"4","last_reported":1779283737,"current_range_meters":5600,"station_id":"","pricing_plan_id":"cebpf4jnsgd1na2vs0mg"},{"bike_id":"b7d4ade3-e85f-4f7e-94a5-38cdc2fff6da","system_id":"levelo_inurba_marseille","lat":43.30523,"lon":5.3656,"is_reserved":false,"is_disabled":false,"rental_uris":{"android":"levelo://app?vid=b7d4ade3-e85f-4f7e-94a5-38cdc2fff6da","ios":"levelo://app?vid=b7d4ade3-e85f-4f7e-94a5-38cdc2fff6da"},"vehicle_type_id":"4","last_reported":1779283737,"current_range_meters":5600,"station_id":"ce4bgs12rcd13ifvqcag","pricing_plan_id":"cebpf4jnsgd1na2vs0mg"},{"bike_id":"425b94e0-d5bd-4d72-a306-8b6eeb1f1138","system_id":"levelo_inurba_marseille","lat":43.31388,"lon":5.36774,"is_reserved":false,"is_disabled":false,"rental_uris":{"android":"levelo://app?vid=425b94e0-d5bd-4d72-a306-8b6eeb1f1138","ios":"levelo://app?vid=425b94e0-d5bd-4d72-a306-8b6eeb1f1138"},"vehicle_type_id":"4","last_reported":1779283737,"current_range_meters":5600,"station_id":"","pricing_plan_id":"cebpf4jnsgd1na2vs0mg"},{"bike_id":"ec17e644-1d7d-402e-b369-f62e304f81d9","system_id":"levelo_inurba_marseille","lat":43.28279,"lon":5.35078,"is_reserved":false,"is_disabled":false,"rental_uris":{"android":"levelo://app?vid=ec17e644-1d7d-402e-b369-f62e304f81d9","ios":"levelo://app?vid=ec17e644-1d7d-402e-b369-f62e304f81d9"},"vehicle_type_id":"4","last_reported":1779283737,"current_range_meters":5600,"station_id":"ce4bhbp2rcd13ifvqerg","pricing_plan_id":"cebpf4jnsgd1na2vs0mg"},{"bike_id":"668bb7ea-e890-4867-b444-969d9384fab7","system_id":"levelo_inurba_marseille","lat":43.25301,"lon":5.39442,"is_reserved":false,"is_disabled":false,"rental_uris":{"android":"levelo://app?vid=668bb7ea-e890-4867-b444-969d9384fab7","ios":"levelo://app?vid=668bb7ea-e890-4867-b444-969d9384fab7"},"vehicle_type_id":"4","last_reported":1779283737,"current_range_meters":5600,"station_id":"","pricing_plan_id":"cebpf4jnsgd1na2vs0mg"},{"bike_id":"670b0f73-47a9-4cbb-a159-b85821ebf7ec","system_id":"levelo_inurba_marseille","lat":43.24182,"lon":5.39734,"is_reserved":false,"is_disabled":false,"rental_uris":{"android":"levelo://app?vid=670b0f73-47a9-4cbb-a159-b85821ebf7ec","ios":"levelo://app?vid=670b0f73-47a9-4cbb-a159-b85821ebf7ec"},"vehicle_type_id":"4","last_reported":1779283737,"current_range_meters":5600,"station_id":"ce4bhn12rcd13ifvqgpg","pricing_plan_id":"cebpf4jnsgd1na2vs0mg"},{"bike_id":"7c7fb249-fc8e-4d79-a1ce-dd5b0f183060","system_id":"levelo_inurba_marseille","lat":43.29828,"lon":5.44064,"is_reserved":false,"is_disabled":false,"rental_uris":{"android":"levelo://app?vid=7c7fb249-fc8e-4d79-a1ce-dd5b0f183060","ios":"levelo://app?vid=7c7fb249-fc8e-4d79-a1ce-dd5b0f183060"},"vehicle_type_id":"4","last_reported":1779283737,"current_range_meters":6000,"station_id":"st_d3jp68qikq2c7381ktn0","pricing_plan_id":"cebpf4jnsgd1na2vs0mg"},{"bike_id":"e7b2834d-0414-4c8b-95bb-dbeba87a5cba","system_id":"levelo_inurba_marseille","lat":43.3296,"lon":5.38915,"is_reserved":false,"is_disabled":false,"rental_uris":{"android":"levelo://app?vid=e7b2834d-0414-4c8b-95bb-dbeba87a5cba","ios":"levelo://app?vid=e7b2834d-0414-4c8b-95bb-dbeba87a5cba"},"vehicle_type_id":"4","last_reported":1779283737,"current_range_meters":6000,"station_id":"","pricing_plan_id":"cebpf4jnsgd1na2vs0mg"},{"bike_id":"3f42a6d9-721c-4045-81f8-56e377ee5c6e","system_id":"levelo_inurba_marseille","lat":43.26493,"lon":5.39539,"is_reserved":false,"is_disabled":true,"rental_uris":{"android":"levelo://app?vid=3f42a6d9-721c-4045-81f8-56e377ee5c6e","ios":"levelo://app?vid=3f42a6d9-721c-4045-81f8-56e377ee5c6e"},"vehicle_type_id":"4","last_reported":1779283737,"current_range_meters":6000,"station_id":"ce4bhi12rcd13ifvqfq0","pricing_plan_id":"cebpf4jnsgd1na2vs0mg"},{"bike_id":"0dde639a-ee11-456c-8e72-3078f433aada","system_id":"levelo_inurba_marseille","lat":43.2842,"lon":5.3498,"is_reserved":false,"is_disabled":false,"rental_uris":{"android":"levelo://app?vid=0dde639a-ee11-456c-8e72-3078f433aada","ios":"levelo://app?vid=0dde639a-ee11-456c-8e72-3078f433aada"},"vehicle_type_id":"4","last_reported":1779283737,"current_range_meters":6000,"station_id":"ce4bhbh2rcd13ifvqepg","pricing_plan_id":"cebpf4jnsgd1na2vs0mg"},{"bike_id":"7ff7868a-2992-4ed0-8b89-9cb9d41a9769","system_id":"levelo_inurba_marseille","lat":43.25007,"lon":5.38918,"is_reserved":false,"is_disabled":false,"rental_uris":{"android":"levelo://app?vid=7ff7868a-2992-4ed0-8b89-9cb9d41a9769","ios":"levelo://app?vid=7ff7868a-2992-4ed0-8b89-9cb9d41a9769"},"vehicle_type_id":"4","last_reported":1779283737,"current_range_meters":6000,"station_id":"ce4bhgp2rcd13ifvqfd0","pricing_plan_id":"cebpf4jnsgd1na2vs0mg"},{"bike_id":"94133b29-971d-48eb-9475-ae0b64fbd116","system_id":"levelo_inurba_marseille","lat":43.28199,"lon":5.38154,"is_reserved":false,"is_disabled":false,"rental_uris":{"android":"levelo://app?vid=94133b29-971d-48eb-9475-ae0b64fbd116","ios":"levelo://app?vid=94133b29-971d-48eb-9475-ae0b64fbd116"},"vehicle_type_id":"4","last_reported":1779283737,"current_range_meters":6000,"station_id":"","pricing_plan_id":"cebpf4jnsgd1na2vs0mg"},{"bike_id":"720adf8e-005d-4756-9772-afe023d27e51","system_id":"levelo_inurba_marseille","lat":43.295765,"lon":5.37519,"is_reserved":false,"is_disabled":false,"rental_uris":{"android":"levelo://app?vid=720adf8e-005d-4756-9772-afe023d27e51","ios":"levelo://app?vid=720adf8e-005d-4756-9772-afe023d27e51"},"vehicle_type_id":"4","last_reported":1779283737,"current_range_meters":6000,"station_id":"ce4bgh92rcd13ifvqb50","pricing_plan_id":"cebpf4jnsgd1na2vs0mg"},{"bike_id":"f372c135-7e31-4e9d-b893-fbb04d34656e","system_id":"levelo_inurba_marseille","lat":43.29605,"lon":5.37726,"is_reserved":false,"is_disabled":false,"rental_uris":{"android":"levelo://app?vid=f372c135-7e31-4e9d-b893-fbb04d34656e","ios":"levelo://app?vid=f372c135-7e31-4e9d-b893-fbb04d34656e"},"vehicle_type_id":"4","last_reported":1779283737,"current_range_meters":6000,"station_id":"ce4bgi92rcd13ifvqb90","pricing_plan_id":"cebpf4jnsgd1na2vs0mg"},{"bike_id":"b905ca94-3071-4f16-9ce5-d80026149c93","system_id":"levelo_inurba_marseille","lat":43.31706,"lon":5.43709,"is_reserved":false,"is_disabled":false,"rental_uris":{"android":"levelo://app?vid=b905ca94-3071-4f16-9ce5-d80026149c93","ios":"levelo://app?vid=b905ca94-3071-4f16-9ce5-d80026149c93"},"vehicle_type_id":"4","last_reported":1779283737,"current_range_meters":6000,"station_id":"ce4bhp92rcd13ifvqhcg","pricing_plan_id":"cebpf4jnsgd1na2vs0mg"},{"bike_id":"ff26a0ce-1300-4a14-824b-0d8ecc854269","system_id":"levelo_inurba_marseille","lat":43.24474,"lon":5.42531,"is_reserved":false,"is_disabled":false,"rental_uris":{"android":"levelo://app?vid=ff26a0ce-1300-4a14-824b-0d8ecc854269","ios":"levelo://app?vid=ff26a0ce-1300-4a14-824b-0d8ecc854269"},"vehicle_type_id":"4","last_reported":1779283737,"current_range_meters":6000,"station_id":"st_d4a3vfp97mjs738cd8kg","pricing_plan_id":"cebpf4jnsgd1na2vs0mg"},{"bike_id":"450f87ac-53d7-4c40-87a1-3c2d090af3e9","system_id":"levelo_inurba_marseille","lat":43.2826,"lon":5.35085,"is_reserved":false,"is_disabled":false,"rental_uris":{"android":"levelo://app?vid=450f87ac-53d7-4c40-87a1-3c2d090af3e9","ios":"levelo://app?vid=450f87ac-53d7-4c40-87a1-3c2d090af3e9"},"vehicle_type_id":"4","last_reported":1779283737,"current_range_meters":6000,"station_id":"ce4bhbp2rcd13ifvqerg","pricing_plan_id":"cebpf4jnsgd1na2vs0mg"},{"bike_id":"d5dc6020-f624-40aa-9538-f02f651491af","system_id":"levelo_inurba_marseille","lat":43.24953,"lon":5.40504,"is_reserved":false,"is_disabled":false,"rental_uris":{"android":"levelo://app?vid=d5dc6020-f624-40aa-9538-f02f651491af","ios":"levelo://app?vid=d5dc6020-f624-40aa-9538-f02f651491af"},"vehicle_type_id":"4","last_reported":1779283737,"current_range_meters":6400,"station_id":"st_d2ngiaodas8pm72gd1h0","pricing_plan_id":"cebpf4jnsgd1na2vs0mg"},{"bike_id":"00617469-a8ee-4e26-a2b5-2d5ead55b9e8","system_id":"levelo_inurba_marseille","lat":43.24654,"lon":5.38888,"is_reserved":false,"is_disabled":true,"rental_uris":{"android":"levelo://app?vid=00617469-a8ee-4e26-a2b5-2d5ead55b9e8","ios":"levelo://app?vid=00617469-a8ee-4e26-a2b5-2d5ead55b9e8"},"vehicle_type_id":"4","last_reported":1779283737,"current_range_meters":6400,"station_id":"","pricing_plan_id":"cebpf4jnsgd1na2vs0mg"},{"bike_id":"d83738f7-7288-4df5-8860-664f8739b2e8","system_id":"levelo_inurba_marseille","lat":43.27963,"lon":5.41031,"is_reserved":false,"is_disabled":true,"rental_uris":{"android":"levelo://app?vid=d83738f7-7288-4df5-8860-664f8739b2e8","ios":"levelo://app?vid=d83738f7-7288-4df5-8860-664f8739b2e8"},"vehicle_type_id":"4","last_reported":1779283737,"current_range_meters":6400,"station_id":"ce4bhnp2rcd13ifvqh0g","pricing_plan_id":"cebpf4jnsgd1na2vs0mg"},{"bike_id":"30e58c4d-4b63-4fe2-854a-1e203b4615e4","system_id":"levelo_inurba_marseille","lat":43.30798,"lon":5.38148,"is_reserved":false,"is_disabled":false,"rental_uris":{"android":"levelo://app?vid=30e58c4d-4b63-4fe2-854a-1e203b4615e4","ios":"levelo://app?vid=30e58c4d-4b63-4fe2-854a-1e203b4615e4"},"vehicle_type_id":"4","last_reported":1779283737,"current_range_meters":6400,"station_id":"ce4bgt12rcd13ifvqce0","pricing_plan_id":"cebpf4jnsgd1na2vs0mg"},{"bike_id":"1de71714-b9ff-4767-a828-04068ba3bf84","system_id":"levelo_inurba_marseille","lat":43.32481,"lon":5.36556,"is_reserved":false,"is_disabled":false,"rental_uris":{"android":"levelo://app?vid=1de71714-b9ff-4767-a828-04068ba3bf84","ios":"levelo://app?vid=1de71714-b9ff-4767-a828-04068ba3bf84"},"vehicle_type_id":"4","last_reported":1779283737,"current_range_meters":6400,"station_id":"ce4bhs12rcd13ifvqhvg","pricing_plan_id":"cebpf4jnsgd1na2vs0mg"},{"bike_id":"0155a2f3-d350-460e-a788-1963d719be2c","system_id":"levelo_inurba_marseille","lat":43.24815,"lon":5.37473,"is_reserved":false,"is_disabled":false,"rental_uris":{"android":"levelo://app?vid=0155a2f3-d350-460e-a788-1963d719be2c","ios":"levelo://app?vid=0155a2f3-d350-460e-a788-1963d719be2c"},"vehicle_type_id":"4","last_reported":1779283737,"current_range_meters":6400,"station_id":"ce4bhgh2rcd13ifvqfb0","pricing_plan_id":"cebpf4jnsgd1na2vs0mg"},{"bike_id":"4059e952-5ec1-4190-b22d-572ab5672ca8","system_id":"levelo_inurba_marseille","lat":43.29201,"lon":5.3582,"is_reserved":false,"is_disabled":false,"rental_uris":{"android":"levelo://app?vid=4059e952-5ec1-4190-b22d-572ab5672ca8","ios":"levelo://app?vid=4059e952-5ec1-4190-b22d-572ab5672ca8"},"vehicle_type_id":"4","last_reported":1779283737,"current_range_meters":6400,"station_id":"ce4bhb12rcd13ifvqel0","pricing_plan_id":"cebpf4jnsgd1na2vs0mg"},{"bike_id":"59b610e9-ff8d-4859-b088-17f86cf50579","system_id":"levelo_inurba_marseille","lat":43.21191,"lon":5.35089,"is_reserved":false,"is_disabled":false,"rental_uris":{"android":"levelo://app?vid=59b610e9-ff8d-4859-b088-17f86cf50579","ios":"levelo://app?vid=59b610e9-ff8d-4859-b088-17f86cf50579"},"vehicle_type_id":"4","last_reported":1779283737,"current_range_meters":6400,"station_id":"st_cvj6sg6p6f1abm77japg","pricing_plan_id":"cebpf4jnsgd1na2vs0mg"},{"bike_id":"46be8dd3-948b-467e-ad94-fd338307b9c7","system_id":"levelo_inurba_marseille","lat":43.29966,"lon":5.36746,"is_reserved":false,"is_disabled":false,"rental_uris":{"android":"levelo://app?vid=46be8dd3-948b-467e-ad94-fd338307b9c7","ios":"levelo://app?vid=46be8dd3-948b-467e-ad94-fd338307b9c7"},"vehicle_type_id":"4","last_reported":1779283737,"current_range_meters":6400,"station_id":"","pricing_plan_id":"cebpf4jnsgd1na2vs0mg"},{"bike_id":"b9335267-a731-4696-b29b-c4c535b5f29f","system_id":"levelo_inurba_marseille","lat":43.26061,"lon":5.39387,"is_reserved":false,"is_disabled":false,"rental_uris":{"android":"levelo://app?vid=b9335267-a731-4696-b29b-c4c535b5f29f","ios":"levelo://app?vid=b9335267-a731-4696-b29b-c4c535b5f29f"},"vehicle_type_id":"4","last_reported":1779283737,"current_range_meters":6400,"station_id":"ce4bhh92rcd13ifvqfj0","pricing_plan_id":"cebpf4jnsgd1na2vs0mg"},{"bike_id":"8b4fc509-3dfd-4c45-bf80-55515ed28219","system_id":"levelo_inurba_marseille","lat":43.28268,"lon":5.35084,"is_reserved":false,"is_disabled":false,"rental_uris":{"android":"levelo://app?vid=8b4fc509-3dfd-4c45-bf80-55515ed28219","ios":"levelo://app?vid=8b4fc509-3dfd-4c45-bf80-55515ed28219"},"vehicle_type_id":"4","last_reported":1779283737,"current_range_meters":6400,"station_id":"ce4bhbp2rcd13ifvqerg","pricing_plan_id":"cebpf4jnsgd1na2vs0mg"},{"bike_id":"65dfb13f-4570-4435-9163-5a7dd58b9c97","system_id":"levelo_inurba_marseille","lat":43.22535,"lon":5.34835,"is_reserved":false,"is_disabled":false,"rental_uris":{"android":"levelo://app?vid=65dfb13f-4570-4435-9163-5a7dd58b9c97","ios":"levelo://app?vid=65dfb13f-4570-4435-9163-5a7dd58b9c97"},"vehicle_type_id":"4","last_reported":1779283737,"current_range_meters":6400,"station_id":"st_cvj5dfep6f1abm77gieg","pricing_plan_id":"cebpf4jnsgd1na2vs0mg"},{"bike_id":"ca1c46ac-a51b-4100-a080-e8b002e382ed","system_id":"levelo_inurba_marseille","lat":43.24992,"lon":5.38954,"is_reserved":false,"is_disabled":false,"rental_uris":{"android":"levelo://app?vid=ca1c46ac-a51b-4100-a080-e8b002e382ed","ios":"levelo://app?vid=ca1c46ac-a51b-4100-a080-e8b002e382ed"},"vehicle_type_id":"4","last_reported":1779283737,"current_range_meters":6800,"station_id":"ce4bhgp2rcd13ifvqfd0","pricing_plan_id":"cebpf4jnsgd1na2vs0mg"},{"bike_id":"e781c19a-ef5a-4532-a919-3acfcf3c38ec","system_id":"levelo_inurba_marseille","lat":43.31344,"lon":5.3675,"is_reserved":false,"is_disabled":false,"rental_uris":{"android":"levelo://app?vid=e781c19a-ef5a-4532-a919-3acfcf3c38ec","ios":"levelo://app?vid=e781c19a-ef5a-4532-a919-3acfcf3c38ec"},"vehicle_type_id":"4","last_reported":1779283737,"current_range_meters":6800,"station_id":"ce4bgr92rcd13ifvqc6g","pricing_plan_id":"cebpf4jnsgd1na2vs0mg"},{"bike_id":"3a50c5a4-deb8-4283-a331-71ea6e0504a8","system_id":"levelo_inurba_marseille","lat":43.28536,"lon":5.44088,"is_reserved":false,"is_disabled":false,"rental_uris":{"android":"levelo://app?vid=3a50c5a4-deb8-4283-a331-71ea6e0504a8","ios":"levelo://app?vid=3a50c5a4-deb8-4283-a331-71ea6e0504a8"},"vehicle_type_id":"4","last_reported":1779283737,"current_range_meters":6800,"station_id":"st_d3j3df2ikq2c7380ej80","pricing_plan_id":"cebpf4jnsgd1na2vs0mg"},{"bike_id":"6448c6c8-8045-4dab-8370-7f5d397b098d","system_id":"levelo_inurba_marseille","lat":43.25563,"lon":5.38272,"is_reserved":false,"is_disabled":false,"rental_uris":{"android":"levelo://app?vid=6448c6c8-8045-4dab-8370-7f5d397b098d","ios":"levelo://app?vid=6448c6c8-8045-4dab-8370-7f5d397b098d"},"vehicle_type_id":"4","last_reported":1779283737,"current_range_meters":6800,"station_id":"ce4bhih2rcd13ifvqfs0","pricing_plan_id":"cebpf4jnsgd1na2vs0mg"},{"bike_id":"249db901-f6f3-4a31-8ed0-8a61d649f3d2","system_id":"levelo_inurba_marseille","lat":43.30526,"lon":5.36537,"is_reserved":false,"is_disabled":false,"rental_uris":{"android":"levelo://app?vid=249db901-f6f3-4a31-8ed0-8a61d649f3d2","ios":"levelo://app?vid=249db901-f6f3-4a31-8ed0-8a61d649f3d2"},"vehicle_type_id":"4","last_reported":1779283737,"current_range_meters":6800,"station_id":"ce4bgs12rcd13ifvqcag","pricing_plan_id":"cebpf4jnsgd1na2vs0mg"},{"bike_id":"df9a8e29-b2b3-47c5-8270-dd94d1c5bf49","system_id":"levelo_inurba_marseille","lat":43.25548,"lon":5.37659,"is_reserved":false,"is_disabled":false,"rental_uris":{"android":"levelo://app?vid=df9a8e29-b2b3-47c5-8270-dd94d1c5bf49","ios":"levelo://app?vid=df9a8e29-b2b3-47c5-8270-dd94d1c5bf49"},"vehicle_type_id":"4","last_reported":1779283737,"current_range_meters":6800,"station_id":"","pricing_plan_id":"cebpf4jnsgd1na2vs0mg"},{"bike_id":"4bcaa86d-b674-4086-a73c-62e1b30eeb80","system_id":"levelo_inurba_marseille","lat":43.28868,"lon":5.42517,"is_reserved":false,"is_disabled":false,"rental_uris":{"android":"levelo://app?vid=4bcaa86d-b674-4086-a73c-62e1b30eeb80","ios":"levelo://app?vid=4bcaa86d-b674-4086-a73c-62e1b30eeb80"},"vehicle_type_id":"4","last_reported":1779283737,"current_range_meters":6800,"station_id":"st_d3b462108ojc7389ooeg","pricing_plan_id":"cebpf4jnsgd1na2vs0mg"},{"bike_id":"f9cae4fb-60a5-4f4a-b8d2-d4cf66160fc2","system_id":"levelo_inurba_marseille","lat":43.28268,"lon":5.35063,"is_reserved":false,"is_disabled":false,"rental_uris":{"android":"levelo://app?vid=f9cae4fb-60a5-4f4a-b8d2-d4cf66160fc2","ios":"levelo://app?vid=f9cae4fb-60a5-4f4a-b8d2-d4cf66160fc2"},"vehicle_type_id":"4","last_reported":1779283737,"current_range_meters":6800,"station_id":"ce4bhbp2rcd13ifvqerg","pricing_plan_id":"cebpf4jnsgd1na2vs0mg"},{"bike_id":"dd7a67db-43a7-4ffc-9f68-818efb38bc9d","system_id":"levelo_inurba_marseille","lat":43.273135,"lon":5.390661,"is_reserved":false,"is_disabled":false,"rental_uris":{"android":"levelo://app?vid=dd7a67db-43a7-4ffc-9f68-818efb38bc9d","ios":"levelo://app?vid=dd7a67db-43a7-4ffc-9f68-818efb38bc9d"},"vehicle_type_id":"4","last_reported":1779283737,"current_range_meters":6800,"station_id":"ce4bhgp2rcd13ifvqfe0","pricing_plan_id":"cebpf4jnsgd1na2vs0mg"},{"bike_id":"4cf5899f-760e-4c98-a83a-74f687ec566d","system_id":"levelo_inurba_marseille","lat":43.30306,"lon":5.39193,"is_reserved":false,"is_disabled":true,"rental_uris":{"android":"levelo://app?vid=4cf5899f-760e-4c98-a83a-74f687ec566d","ios":"levelo://app?vid=4cf5899f-760e-4c98-a83a-74f687ec566d"},"vehicle_type_id":"4","last_reported":1779283737,"current_range_meters":6800,"station_id":"ce4bgkh2rcd13ifvqbk0","pricing_plan_id":"cebpf4jnsgd1na2vs0mg"},{"bike_id":"0fca4d51-8dbf-4861-891b-6d2c11e7beb3","system_id":"levelo_inurba_marseille","lat":43.28034,"lon":5.36959,"is_reserved":false,"is_disabled":false,"rental_uris":{"android":"levelo://app?vid=0fca4d51-8dbf-4861-891b-6d2c11e7beb3","ios":"levelo://app?vid=0fca4d51-8dbf-4861-891b-6d2c11e7beb3"},"vehicle_type_id":"4","last_reported":1779283737,"current_range_meters":6800,"station_id":"ce4bha12rcd13ifvqef0","pricing_plan_id":"cebpf4jnsgd1na2vs0mg"},{"bike_id":"c2e162fe-25f0-49da-ae9f-6fa8527e0782","system_id":"levelo_inurba_marseille","lat":43.27921,"lon":5.39583,"is_reserved":false,"is_disabled":false,"rental_uris":{"android":"levelo://app?vid=c2e162fe-25f0-49da-ae9f-6fa8527e0782","ios":"levelo://app?vid=c2e162fe-25f0-49da-ae9f-6fa8527e0782"},"vehicle_type_id":"4","last_reported":1779283737,"current_range_meters":6800,"station_id":"ce4bhf92rcd13ifvqf40","pricing_plan_id":"cebpf4jnsgd1na2vs0mg"},{"bike_id":"b0f1837a-ba23-48f3-a7c9-fe91ecd3237b","system_id":"levelo_inurba_marseille","lat":43.26067,"lon":5.39381,"is_reserved":false,"is_disabled":false,"rental_uris":{"android":"levelo://app?vid=b0f1837a-ba23-48f3-a7c9-fe91ecd3237b","ios":"levelo://app?vid=b0f1837a-ba23-48f3-a7c9-fe91ecd3237b"},"vehicle_type_id":"4","last_reported":1779283737,"current_range_meters":6800,"station_id":"ce4bhh92rcd13ifvqfj0","pricing_plan_id":"cebpf4jnsgd1na2vs0mg"},{"bike_id":"6160ae8e-a0ef-40fb-a824-ac8b6555538f","system_id":"levelo_inurba_marseille","lat":43.26668,"lon":5.39014,"is_reserved":false,"is_disabled":false,"rental_uris":{"android":"levelo://app?vid=6160ae8e-a0ef-40fb-a824-ac8b6555538f","ios":"levelo://app?vid=6160ae8e-a0ef-40fb-a824-ac8b6555538f"},"vehicle_type_id":"4","last_reported":1779283737,"current_range_meters":6800,"station_id":"","pricing_plan_id":"cebpf4jnsgd1na2vs0mg"},{"bike_id":"7629742e-94d1-47e8-b728-ea26142f4674","system_id":"levelo_inurba_marseille","lat":43.26206,"lon":5.37913,"is_reserved":false,"is_disabled":false,"rental_uris":{"android":"levelo://app?vid=7629742e-94d1-47e8-b728-ea26142f4674","ios":"levelo://app?vid=7629742e-94d1-47e8-b728-ea26142f4674"},"vehicle_type_id":"4","last_reported":1779283737,"current_range_meters":6800,"station_id":"ce4bhjp2rcd13ifvqg90","pricing_plan_id":"cebpf4jnsgd1na2vs0mg"},{"bike_id":"bc3fe07f-ae95-42d2-91f0-d34745765c9e","system_id":"levelo_inurba_marseille","lat":43.24461,"lon":5.42535,"is_reserved":false,"is_disabled":false,"rental_uris":{"android":"levelo://app?vid=bc3fe07f-ae95-42d2-91f0-d34745765c9e","ios":"levelo://app?vid=bc3fe07f-ae95-42d2-91f0-d34745765c9e"},"vehicle_type_id":"4","last_reported":1779283737,"current_range_meters":6800,"station_id":"st_d4a3vfp97mjs738cd8kg","pricing_plan_id":"cebpf4jnsgd1na2vs0mg"},{"bike_id":"08fea6a4-fc40-4850-bf3c-53cbc5b29846","system_id":"levelo_inurba_marseille","lat":43.28254,"lon":5.35054,"is_reserved":false,"is_disabled":false,"rental_uris":{"android":"levelo://app?vid=08fea6a4-fc40-4850-bf3c-53cbc5b29846","ios":"levelo://app?vid=08fea6a4-fc40-4850-bf3c-53cbc5b29846"},"vehicle_type_id":"4","last_reported":1779283737,"current_range_meters":6800,"station_id":"ce4bhbp2rcd13ifvqerg","pricing_plan_id":"cebpf4jnsgd1na2vs0mg"},{"bike_id":"e4a97c67-3c6e-41a7-8153-ad860260be2d","system_id":"levelo_inurba_marseille","lat":43.26053,"lon":5.39419,"is_reserved":false,"is_disabled":false,"rental_uris":{"android":"levelo://app?vid=e4a97c67-3c6e-41a7-8153-ad860260be2d","ios":"levelo://app?vid=e4a97c67-3c6e-41a7-8153-ad860260be2d"},"vehicle_type_id":"4","last_reported":1779283737,"current_range_meters":6800,"station_id":"ce4bhh92rcd13ifvqfj0","pricing_plan_id":"cebpf4jnsgd1na2vs0mg"},{"bike_id":"8e90afa1-2925-462a-8f46-fb51b2608abb","system_id":"levelo_inurba_marseille","lat":43.260312,"lon":5.375458,"is_reserved":false,"is_disabled":false,"rental_uris":{"android":"levelo://app?vid=8e90afa1-2925-462a-8f46-fb51b2608abb","ios":"levelo://app?vid=8e90afa1-2925-462a-8f46-fb51b2608abb"},"vehicle_type_id":"4","last_reported":1779283737,"current_range_meters":6800,"station_id":"ce4bhgh2rcd13ifvqfa0","pricing_plan_id":"cebpf4jnsgd1na2vs0mg"},{"bike_id":"5c2a6021-98c8-4b7c-b6d8-99640e168e61","system_id":"levelo_inurba_marseille","lat":43.27678,"lon":5.38907,"is_reserved":false,"is_disabled":false,"rental_uris":{"android":"levelo://app?vid=5c2a6021-98c8-4b7c-b6d8-99640e168e61","ios":"levelo://app?vid=5c2a6021-98c8-4b7c-b6d8-99640e168e61"},"vehicle_type_id":"4","last_reported":1779283737,"current_range_meters":6800,"station_id":"ce4bhi12rcd13ifvqfo0","pricing_plan_id":"cebpf4jnsgd1na2vs0mg"},{"bike_id":"4ac606e3-9fdb-4729-8e6b-cf1d9bc2543f","system_id":"levelo_inurba_marseille","lat":43.24792,"lon":5.37461,"is_reserved":false,"is_disabled":false,"rental_uris":{"android":"levelo://app?vid=4ac606e3-9fdb-4729-8e6b-cf1d9bc2543f","ios":"levelo://app?vid=4ac606e3-9fdb-4729-8e6b-cf1d9bc2543f"},"vehicle_type_id":"4","last_reported":1779283737,"current_range_meters":6800,"station_id":"ce4bhgh2rcd13ifvqfb0","pricing_plan_id":"cebpf4jnsgd1na2vs0mg"},{"bike_id":"4ca6aea5-940b-4e91-bdb4-7e58e704f7b4","system_id":"levelo_inurba_marseille","lat":43.28259,"lon":5.35068,"is_reserved":false,"is_disabled":false,"rental_uris":{"android":"levelo://app?vid=4ca6aea5-940b-4e91-bdb4-7e58e704f7b4","ios":"levelo://app?vid=4ca6aea5-940b-4e91-bdb4-7e58e704f7b4"},"vehicle_type_id":"4","last_reported":1779283737,"current_range_meters":6800,"station_id":"ce4bhbp2rcd13ifvqerg","pricing_plan_id":"cebpf4jnsgd1na2vs0mg"},{"bike_id":"e5f21e43-5d32-4047-8237-8cf74b2ebfd3","system_id":"levelo_inurba_marseille","lat":43.31426,"lon":5.36749,"is_reserved":false,"is_disabled":false,"rental_uris":{"android":"levelo://app?vid=e5f21e43-5d32-4047-8237-8cf74b2ebfd3","ios":"levelo://app?vid=e5f21e43-5d32-4047-8237-8cf74b2ebfd3"},"vehicle_type_id":"4","last_reported":1779283737,"current_range_meters":6800,"station_id":"ce4bgr92rcd13ifvqc6g","pricing_plan_id":"cebpf4jnsgd1na2vs0mg"},{"bike_id":"ab3d0653-ceb0-447c-b6ee-1608aa7ac29d","system_id":"levelo_inurba_marseille","lat":43.29179,"lon":5.45996,"is_reserved":false,"is_disabled":false,"rental_uris":{"android":"levelo://app?vid=ab3d0653-ceb0-447c-b6ee-1608aa7ac29d","ios":"levelo://app?vid=ab3d0653-ceb0-447c-b6ee-1608aa7ac29d"},"vehicle_type_id":"4","last_reported":1779283737,"current_range_meters":6800,"station_id":"","pricing_plan_id":"cebpf4jnsgd1na2vs0mg"},{"bike_id":"c29ddbaa-a31f-499c-b761-8b84169246f3","system_id":"levelo_inurba_marseille","lat":43.29911,"lon":5.38138,"is_reserved":false,"is_disabled":false,"rental_uris":{"android":"levelo://app?vid=c29ddbaa-a31f-499c-b761-8b84169246f3","ios":"levelo://app?vid=c29ddbaa-a31f-499c-b761-8b84169246f3"},"vehicle_type_id":"4","last_reported":1779283737,"current_range_meters":6800,"station_id":"ce4bgj12rcd13ifvqbc0","pricing_plan_id":"cebpf4jnsgd1na2vs0mg"},{"bike_id":"1945c429-a6b3-4afe-8b4e-c989148ef8b4","system_id":"levelo_inurba_marseille","lat":43.28639,"lon":5.37825,"is_reserved":false,"is_disabled":false,"rental_uris":{"android":"levelo://app?vid=1945c429-a6b3-4afe-8b4e-c989148ef8b4","ios":"levelo://app?vid=1945c429-a6b3-4afe-8b4e-c989148ef8b4"},"vehicle_type_id":"4","last_reported":1779283737,"current_range_meters":6800,"station_id":"","pricing_plan_id":"cebpf4jnsgd1na2vs0mg"},{"bike_id":"8622e36f-022f-438d-b068-69ba5bcad8f4","system_id":"levelo_inurba_marseille","lat":43.24171,"lon":5.39747,"is_reserved":false,"is_disabled":false,"rental_uris":{"android":"levelo://app?vid=8622e36f-022f-438d-b068-69ba5bcad8f4","ios":"levelo://app?vid=8622e36f-022f-438d-b068-69ba5bcad8f4"},"vehicle_type_id":"4","last_reported":1779283737,"current_range_meters":7200,"station_id":"ce4bhn12rcd13ifvqgpg","pricing_plan_id":"cebpf4jnsgd1na2vs0mg"},{"bike_id":"3defc929-f33f-4739-8b1f-14e0e403504c","system_id":"levelo_inurba_marseille","lat":43.23199,"lon":5.39978,"is_reserved":false,"is_disabled":false,"rental_uris":{"android":"levelo://app?vid=3defc929-f33f-4739-8b1f-14e0e403504c","ios":"levelo://app?vid=3defc929-f33f-4739-8b1f-14e0e403504c"},"vehicle_type_id":"4","last_reported":1779283737,"current_range_meters":7200,"station_id":"ce4bhn12rcd13ifvqgqg","pricing_plan_id":"cebpf4jnsgd1na2vs0mg"},{"bike_id":"c202bc15-6fd2-4b5b-b9f8-fe2a7981a9a0","system_id":"levelo_inurba_marseille","lat":43.23324,"lon":5.35906,"is_reserved":false,"is_disabled":false,"rental_uris":{"android":"levelo://app?vid=c202bc15-6fd2-4b5b-b9f8-fe2a7981a9a0","ios":"levelo://app?vid=c202bc15-6fd2-4b5b-b9f8-fe2a7981a9a0"},"vehicle_type_id":"4","last_reported":1779283737,"current_range_meters":7200,"station_id":"","pricing_plan_id":"cebpf4jnsgd1na2vs0mg"},{"bike_id":"358e9c2a-da83-44dd-afd2-276e520a9c32","system_id":"levelo_inurba_marseille","lat":43.28253,"lon":5.35066,"is_reserved":false,"is_disabled":false,"rental_uris":{"android":"levelo://app?vid=358e9c2a-da83-44dd-afd2-276e520a9c32","ios":"levelo://app?vid=358e9c2a-da83-44dd-afd2-276e520a9c32"},"vehicle_type_id":"4","last_reported":1779283737,"current_range_meters":7200,"station_id":"ce4bhbp2rcd13ifvqerg","pricing_plan_id":"cebpf4jnsgd1na2vs0mg"},{"bike_id":"eb8564d3-80fc-4217-82f1-a7d32de7d789","system_id":"levelo_inurba_marseille","lat":43.31217,"lon":5.36831,"is_reserved":false,"is_disabled":false,"rental_uris":{"android":"levelo://app?vid=eb8564d3-80fc-4217-82f1-a7d32de7d789","ios":"levelo://app?vid=eb8564d3-80fc-4217-82f1-a7d32de7d789"},"vehicle_type_id":"4","last_reported":1779283737,"current_range_meters":7200,"station_id":"ce4bgl92rcd13ifvqbq0","pricing_plan_id":"cebpf4jnsgd1na2vs0mg"},{"bike_id":"2b2213c8-d78c-4b17-bdf7-9519be7365c8","system_id":"levelo_inurba_marseille","lat":43.28621,"lon":5.35112,"is_reserved":false,"is_disabled":false,"rental_uris":{"android":"levelo://app?vid=2b2213c8-d78c-4b17-bdf7-9519be7365c8","ios":"levelo://app?vid=2b2213c8-d78c-4b17-bdf7-9519be7365c8"},"vehicle_type_id":"4","last_reported":1779283737,"current_range_meters":7200,"station_id":"ce4bhch2rcd13ifvqeug","pricing_plan_id":"cebpf4jnsgd1na2vs0mg"},{"bike_id":"98fa86d7-a3d1-4a2f-8b40-e1f75681c33a","system_id":"levelo_inurba_marseille","lat":43.27379,"lon":5.36265,"is_reserved":false,"is_disabled":false,"rental_uris":{"android":"levelo://app?vid=98fa86d7-a3d1-4a2f-8b40-e1f75681c33a","ios":"levelo://app?vid=98fa86d7-a3d1-4a2f-8b40-e1f75681c33a"},"vehicle_type_id":"4","last_reported":1779283737,"current_range_meters":7200,"station_id":"ce4bhbh2rcd13ifvqeo0","pricing_plan_id":"cebpf4jnsgd1na2vs0mg"},{"bike_id":"1e76825c-1b49-48b7-ab19-33695876e1b8","system_id":"levelo_inurba_marseille","lat":43.24799,"lon":5.37429,"is_reserved":false,"is_disabled":false,"rental_uris":{"android":"levelo://app?vid=1e76825c-1b49-48b7-ab19-33695876e1b8","ios":"levelo://app?vid=1e76825c-1b49-48b7-ab19-33695876e1b8"},"vehicle_type_id":"4","last_reported":1779283737,"current_range_meters":7200,"station_id":"ce4bhgh2rcd13ifvqfb0","pricing_plan_id":"cebpf4jnsgd1na2vs0mg"},{"bike_id":"ed0a2e31-3f52-4952-819a-710fa6677d96","system_id":"levelo_inurba_marseille","lat":43.28695,"lon":5.46656,"is_reserved":false,"is_disabled":false,"rental_uris":{"android":"levelo://app?vid=ed0a2e31-3f52-4952-819a-710fa6677d96","ios":"levelo://app?vid=ed0a2e31-3f52-4952-819a-710fa6677d96"},"vehicle_type_id":"4","last_reported":1779283737,"current_range_meters":7200,"station_id":"st_d6tc3vkotcvc738tfjhg","pricing_plan_id":"cebpf4jnsgd1na2vs0mg"},{"bike_id":"ff5898fd-1c56-4200-90a5-534f7ef6cad0","system_id":"levelo_inurba_marseille","lat":43.31228,"lon":5.36869,"is_reserved":false,"is_disabled":false,"rental_uris":{"android":"levelo://app?vid=ff5898fd-1c56-4200-90a5-534f7ef6cad0","ios":"levelo://app?vid=ff5898fd-1c56-4200-90a5-534f7ef6cad0"},"vehicle_type_id":"4","last_reported":1779283737,"current_range_meters":7200,"station_id":"ce4bgl92rcd13ifvqbq0","pricing_plan_id":"cebpf4jnsgd1na2vs0mg"},{"bike_id":"ca5d0b98-e2b4-457a-8554-743d13fecc2f","system_id":"levelo_inurba_marseille","lat":43.26374,"lon":5.41083,"is_reserved":false,"is_disabled":false,"rental_uris":{"android":"levelo://app?vid=ca5d0b98-e2b4-457a-8554-743d13fecc2f","ios":"levelo://app?vid=ca5d0b98-e2b4-457a-8554-743d13fecc2f"},"vehicle_type_id":"4","last_reported":1779283737,"current_range_meters":7200,"station_id":"st_d4e5ca6na9uc73bfl5fg","pricing_plan_id":"cebpf4jnsgd1na2vs0mg"},{"bike_id":"f19c3347-fcb4-4b6d-a6b7-a24972c48a18","system_id":"levelo_inurba_marseille","lat":43.30546,"lon":5.36558,"is_reserved":false,"is_disabled":false,"rental_uris":{"android":"levelo://app?vid=f19c3347-fcb4-4b6d-a6b7-a24972c48a18","ios":"levelo://app?vid=f19c3347-fcb4-4b6d-a6b7-a24972c48a18"},"vehicle_type_id":"4","last_reported":1779283737,"current_range_meters":7200,"station_id":"ce4bgs12rcd13ifvqcag","pricing_plan_id":"cebpf4jnsgd1na2vs0mg"},{"bike_id":"a6a34c40-e83f-4157-90a2-0201993264f1","system_id":"levelo_inurba_marseille","lat":43.26228,"lon":5.4045,"is_reserved":false,"is_disabled":false,"rental_uris":{"android":"levelo://app?vid=a6a34c40-e83f-4157-90a2-0201993264f1","ios":"levelo://app?vid=a6a34c40-e83f-4157-90a2-0201993264f1"},"vehicle_type_id":"4","last_reported":1779283737,"current_range_meters":7200,"station_id":"ce4bhmh2rcd13ifvqgmg","pricing_plan_id":"cebpf4jnsgd1na2vs0mg"},{"bike_id":"49fc871c-df1e-4b4e-a73c-0ebb40def32c","system_id":"levelo_inurba_marseille","lat":43.26211,"lon":5.37452,"is_reserved":false,"is_disabled":false,"rental_uris":{"android":"levelo://app?vid=49fc871c-df1e-4b4e-a73c-0ebb40def32c","ios":"levelo://app?vid=49fc871c-df1e-4b4e-a73c-0ebb40def32c"},"vehicle_type_id":"4","last_reported":1779283737,"current_range_meters":7200,"station_id":"ce4bhgp2rcd13ifvqfc0","pricing_plan_id":"cebpf4jnsgd1na2vs0mg"},{"bike_id":"bd35740e-3d3a-4a35-a08e-2efbd15858b4","system_id":"levelo_inurba_marseille","lat":43.2885,"lon":5.35848,"is_reserved":false,"is_disabled":false,"rental_uris":{"android":"levelo://app?vid=bd35740e-3d3a-4a35-a08e-2efbd15858b4","ios":"levelo://app?vid=bd35740e-3d3a-4a35-a08e-2efbd15858b4"},"vehicle_type_id":"4","last_reported":1779283737,"current_range_meters":7200,"station_id":"ce4bhb12rcd13ifvqem0","pricing_plan_id":"cebpf4jnsgd1na2vs0mg"},{"bike_id":"09c2f0be-452a-4228-a811-c684744e709e","system_id":"levelo_inurba_marseille","lat":43.2828,"lon":5.35073,"is_reserved":false,"is_disabled":false,"rental_uris":{"android":"levelo://app?vid=09c2f0be-452a-4228-a811-c684744e709e","ios":"levelo://app?vid=09c2f0be-452a-4228-a811-c684744e709e"},"vehicle_type_id":"4","last_reported":1779283737,"current_range_meters":7200,"station_id":"ce4bhbp2rcd13ifvqerg","pricing_plan_id":"cebpf4jnsgd1na2vs0mg"},{"bike_id":"eaf724ab-5439-4aa9-927e-00abbd6f75be","system_id":"levelo_inurba_marseille","lat":43.29589,"lon":5.36722,"is_reserved":false,"is_disabled":false,"rental_uris":{"android":"levelo://app?vid=eaf724ab-5439-4aa9-927e-00abbd6f75be","ios":"levelo://app?vid=eaf724ab-5439-4aa9-927e-00abbd6f75be"},"vehicle_type_id":"4","last_reported":1779283737,"current_range_meters":7200,"station_id":"ce4bgph2rcd13ifvqc2g","pricing_plan_id":"cebpf4jnsgd1na2vs0mg"},{"bike_id":"c32c6a23-0d47-4d06-82f5-2acbe1a035ef","system_id":"levelo_inurba_marseille","lat":43.28264,"lon":5.35067,"is_reserved":false,"is_disabled":false,"rental_uris":{"android":"levelo://app?vid=c32c6a23-0d47-4d06-82f5-2acbe1a035ef","ios":"levelo://app?vid=c32c6a23-0d47-4d06-82f5-2acbe1a035ef"},"vehicle_type_id":"4","last_reported":1779283737,"current_range_meters":7200,"station_id":"ce4bhbp2rcd13ifvqerg","pricing_plan_id":"cebpf4jnsgd1na2vs0mg"},{"bike_id":"05a0e094-9968-4236-ba2c-6b3d7bee47a8","system_id":"levelo_inurba_marseille","lat":43.28417,"lon":5.34981,"is_reserved":false,"is_disabled":false,"rental_uris":{"android":"levelo://app?vid=05a0e094-9968-4236-ba2c-6b3d7bee47a8","ios":"levelo://app?vid=05a0e094-9968-4236-ba2c-6b3d7bee47a8"},"vehicle_type_id":"4","last_reported":1779283737,"current_range_meters":7200,"station_id":"ce4bhbh2rcd13ifvqepg","pricing_plan_id":"cebpf4jnsgd1na2vs0mg"},{"bike_id":"88791c01-6cb0-47b5-ba10-6ef0ba9b522c","system_id":"levelo_inurba_marseille","lat":43.23204,"lon":5.35548,"is_reserved":false,"is_disabled":false,"rental_uris":{"android":"levelo://app?vid=88791c01-6cb0-47b5-ba10-6ef0ba9b522c","ios":"levelo://app?vid=88791c01-6cb0-47b5-ba10-6ef0ba9b522c"},"vehicle_type_id":"4","last_reported":1779283737,"current_range_meters":7200,"station_id":"ce4bhu92rcd13ifvqi70","pricing_plan_id":"cebpf4jnsgd1na2vs0mg"},{"bike_id":"5e1c053e-e0de-4c49-8e7b-bc445f47fba0","system_id":"levelo_inurba_marseille","lat":43.27076,"lon":5.38293,"is_reserved":false,"is_disabled":false,"rental_uris":{"android":"levelo://app?vid=5e1c053e-e0de-4c49-8e7b-bc445f47fba0","ios":"levelo://app?vid=5e1c053e-e0de-4c49-8e7b-bc445f47fba0"},"vehicle_type_id":"4","last_reported":1779283737,"current_range_meters":7200,"station_id":"st_d3n2fo6cfp8s73cte1j0","pricing_plan_id":"cebpf4jnsgd1na2vs0mg"},{"bike_id":"87535207-089b-48a8-8e5d-f5d730dacf07","system_id":"levelo_inurba_marseille","lat":43.30803,"lon":5.38141,"is_reserved":false,"is_disabled":false,"rental_uris":{"android":"levelo://app?vid=87535207-089b-48a8-8e5d-f5d730dacf07","ios":"levelo://app?vid=87535207-089b-48a8-8e5d-f5d730dacf07"},"vehicle_type_id":"4","last_reported":1779283737,"current_range_meters":7200,"station_id":"ce4bgt12rcd13ifvqce0","pricing_plan_id":"cebpf4jnsgd1na2vs0mg"},{"bike_id":"2039e995-6af6-4702-9cf1-7930cc5e6850","system_id":"levelo_inurba_marseille","lat":43.29701,"lon":5.36606,"is_reserved":false,"is_disabled":false,"rental_uris":{"android":"levelo://app?vid=2039e995-6af6-4702-9cf1-7930cc5e6850","ios":"levelo://app?vid=2039e995-6af6-4702-9cf1-7930cc5e6850"},"vehicle_type_id":"4","last_reported":1779283737,"current_range_meters":7200,"station_id":"ce4bgn12rcd13ifvqbt0","pricing_plan_id":"cebpf4jnsgd1na2vs0mg"},{"bike_id":"bd6d9b39-f623-40da-ae18-e3cb28052c8b","system_id":"levelo_inurba_marseille","lat":43.28845,"lon":5.39308,"is_reserved":false,"is_disabled":false,"rental_uris":{"android":"levelo://app?vid=bd6d9b39-f623-40da-ae18-e3cb28052c8b","ios":"levelo://app?vid=bd6d9b39-f623-40da-ae18-e3cb28052c8b"},"vehicle_type_id":"4","last_reported":1779283737,"current_range_meters":7200,"station_id":"ce4bh2p2rcd13ifvqdi0","pricing_plan_id":"cebpf4jnsgd1na2vs0mg"},{"bike_id":"0cc8d3b6-f414-4200-8b91-1e4429ea12f8","system_id":"levelo_inurba_marseille","lat":43.22551,"lon":5.3484,"is_reserved":false,"is_disabled":false,"rental_uris":{"android":"levelo://app?vid=0cc8d3b6-f414-4200-8b91-1e4429ea12f8","ios":"levelo://app?vid=0cc8d3b6-f414-4200-8b91-1e4429ea12f8"},"vehicle_type_id":"4","last_reported":1779283737,"current_range_meters":7200,"station_id":"st_cvj5dfep6f1abm77gieg","pricing_plan_id":"cebpf4jnsgd1na2vs0mg"},{"bike_id":"68013db8-ed41-4f18-95d4-c68e04a9ddc7","system_id":"levelo_inurba_marseille","lat":43.269639,"lon":5.386274,"is_reserved":false,"is_disabled":false,"rental_uris":{"android":"levelo://app?vid=68013db8-ed41-4f18-95d4-c68e04a9ddc7","ios":"levelo://app?vid=68013db8-ed41-4f18-95d4-c68e04a9ddc7"},"vehicle_type_id":"4","last_reported":1779283737,"current_range_meters":7200,"station_id":"ce4bhh92rcd13ifvqfh0","pricing_plan_id":"cebpf4jnsgd1na2vs0mg"},{"bike_id":"44071279-4430-4f7a-af45-76fc57a1c2b0","system_id":"levelo_inurba_marseille","lat":43.29209,"lon":5.35822,"is_reserved":false,"is_disabled":false,"rental_uris":{"android":"levelo://app?vid=44071279-4430-4f7a-af45-76fc57a1c2b0","ios":"levelo://app?vid=44071279-4430-4f7a-af45-76fc57a1c2b0"},"vehicle_type_id":"4","last_reported":1779283737,"current_range_meters":7200,"station_id":"ce4bhb12rcd13ifvqel0","pricing_plan_id":"cebpf4jnsgd1na2vs0mg"},{"bike_id":"d9b80d38-82cf-4683-949d-a638fc945846","system_id":"levelo_inurba_marseille","lat":43.28276,"lon":5.35072,"is_reserved":false,"is_disabled":false,"rental_uris":{"android":"levelo://app?vid=d9b80d38-82cf-4683-949d-a638fc945846","ios":"levelo://app?vid=d9b80d38-82cf-4683-949d-a638fc945846"},"vehicle_type_id":"4","last_reported":1779283737,"current_range_meters":7200,"station_id":"ce4bhbp2rcd13ifvqerg","pricing_plan_id":"cebpf4jnsgd1na2vs0mg"},{"bike_id":"be72f57c-d2c7-491f-a622-e6e79ddcae7e","system_id":"levelo_inurba_marseille","lat":43.30559,"lon":5.36553,"is_reserved":false,"is_disabled":false,"rental_uris":{"android":"levelo://app?vid=be72f57c-d2c7-491f-a622-e6e79ddcae7e","ios":"levelo://app?vid=be72f57c-d2c7-491f-a622-e6e79ddcae7e"},"vehicle_type_id":"4","last_reported":1779283737,"current_range_meters":8000,"station_id":"ce4bgs12rcd13ifvqcag","pricing_plan_id":"cebpf4jnsgd1na2vs0mg"},{"bike_id":"4f3c1eb1-ebd5-4959-8e01-9dd0978e6215","system_id":"levelo_inurba_marseille","lat":43.28214,"lon":5.39048,"is_reserved":false,"is_disabled":false,"rental_uris":{"android":"levelo://app?vid=4f3c1eb1-ebd5-4959-8e01-9dd0978e6215","ios":"levelo://app?vid=4f3c1eb1-ebd5-4959-8e01-9dd0978e6215"},"vehicle_type_id":"4","last_reported":1779283737,"current_range_meters":8000,"station_id":"ce4bhn92rcd13ifvqgsg","pricing_plan_id":"cebpf4jnsgd1na2vs0mg"},{"bike_id":"261a432b-4347-409e-9d8b-c450e6d86fcd","system_id":"levelo_inurba_marseille","lat":43.30912,"lon":5.36859,"is_reserved":false,"is_disabled":false,"rental_uris":{"android":"levelo://app?vid=261a432b-4347-409e-9d8b-c450e6d86fcd","ios":"levelo://app?vid=261a432b-4347-409e-9d8b-c450e6d86fcd"},"vehicle_type_id":"4","last_reported":1779283737,"current_range_meters":8000,"station_id":"ce4bgn92rcd13ifvqbvg","pricing_plan_id":"cebpf4jnsgd1na2vs0mg"},{"bike_id":"74d1455e-9bc4-40c5-99b7-e6bd3175c2db","system_id":"levelo_inurba_marseille","lat":43.27332,"lon":5.39091,"is_reserved":false,"is_disabled":false,"rental_uris":{"android":"levelo://app?vid=74d1455e-9bc4-40c5-99b7-e6bd3175c2db","ios":"levelo://app?vid=74d1455e-9bc4-40c5-99b7-e6bd3175c2db"},"vehicle_type_id":"4","last_reported":1779283737,"current_range_meters":8000,"station_id":"ce4bhgp2rcd13ifvqfe0","pricing_plan_id":"cebpf4jnsgd1na2vs0mg"},{"bike_id":"0150ff37-0132-47c9-af81-e22fb77321a4","system_id":"levelo_inurba_marseille","lat":43.30154,"lon":5.3742,"is_reserved":false,"is_disabled":false,"rental_uris":{"android":"levelo://app?vid=0150ff37-0132-47c9-af81-e22fb77321a4","ios":"levelo://app?vid=0150ff37-0132-47c9-af81-e22fb77321a4"},"vehicle_type_id":"4","last_reported":1779283737,"current_range_meters":8000,"station_id":"ce4bgs92rcd13ifvqcc0","pricing_plan_id":"cebpf4jnsgd1na2vs0mg"},{"bike_id":"0990f8de-dbf5-4c82-9b72-eba3f8de7b09","system_id":"levelo_inurba_marseille","lat":43.29006,"lon":5.35607,"is_reserved":false,"is_disabled":false,"rental_uris":{"android":"levelo://app?vid=0990f8de-dbf5-4c82-9b72-eba3f8de7b09","ios":"levelo://app?vid=0990f8de-dbf5-4c82-9b72-eba3f8de7b09"},"vehicle_type_id":"4","last_reported":1779283737,"current_range_meters":8000,"station_id":"ce4bhb92rcd13ifvqen0","pricing_plan_id":"cebpf4jnsgd1na2vs0mg"},{"bike_id":"1b855366-4576-4a13-94af-dcb3db59a0f7","system_id":"levelo_inurba_marseille","lat":43.26561,"lon":5.3729,"is_reserved":false,"is_disabled":false,"rental_uris":{"android":"levelo://app?vid=1b855366-4576-4a13-94af-dcb3db59a0f7","ios":"levelo://app?vid=1b855366-4576-4a13-94af-dcb3db59a0f7"},"vehicle_type_id":"4","last_reported":1779283737,"current_range_meters":8000,"station_id":"ce4bhg12rcd13ifvqf70","pricing_plan_id":"cebpf4jnsgd1na2vs0mg"},{"bike_id":"47c9cb97-371d-4e9f-9c20-83aba40029f7","system_id":"levelo_inurba_marseille","lat":43.225321,"lon":5.348338,"is_reserved":false,"is_disabled":false,"rental_uris":{"android":"levelo://app?vid=47c9cb97-371d-4e9f-9c20-83aba40029f7","ios":"levelo://app?vid=47c9cb97-371d-4e9f-9c20-83aba40029f7"},"vehicle_type_id":"4","last_reported":1779283737,"current_range_meters":8000,"station_id":"st_cvj5dfep6f1abm77gieg","pricing_plan_id":"cebpf4jnsgd1na2vs0mg"},{"bike_id":"51498d75-9af5-4013-969a-723de0aa6489","system_id":"levelo_inurba_marseille","lat":43.27175,"lon":5.40996,"is_reserved":false,"is_disabled":false,"rental_uris":{"android":"levelo://app?vid=51498d75-9af5-4013-969a-723de0aa6489","ios":"levelo://app?vid=51498d75-9af5-4013-969a-723de0aa6489"},"vehicle_type_id":"4","last_reported":1779283737,"current_range_meters":8000,"station_id":"ce4bhl12rcd13ifvqgf0","pricing_plan_id":"cebpf4jnsgd1na2vs0mg"},{"bike_id":"e00e03e8-b2b4-41d0-ac50-050fa56e2c50","system_id":"levelo_inurba_marseille","lat":43.32501,"lon":5.38306,"is_reserved":false,"is_disabled":false,"rental_uris":{"android":"levelo://app?vid=e00e03e8-b2b4-41d0-ac50-050fa56e2c50","ios":"levelo://app?vid=e00e03e8-b2b4-41d0-ac50-050fa56e2c50"},"vehicle_type_id":"4","last_reported":1779283737,"current_range_meters":8000,"station_id":"st_d4asgbiv49dc73anf9m0","pricing_plan_id":"cebpf4jnsgd1na2vs0mg"},{"bike_id":"0ede69d6-07ba-4fe5-a2a6-623f3168bfc6","system_id":"levelo_inurba_marseille","lat":43.286222,"lon":5.39895,"is_reserved":false,"is_disabled":false,"rental_uris":{"android":"levelo://app?vid=0ede69d6-07ba-4fe5-a2a6-623f3168bfc6","ios":"levelo://app?vid=0ede69d6-07ba-4fe5-a2a6-623f3168bfc6"},"vehicle_type_id":"4","last_reported":1779283737,"current_range_meters":8000,"station_id":"st_d4a7ka997mjs738ck50g","pricing_plan_id":"cebpf4jnsgd1na2vs0mg"},{"bike_id":"bbd9a3c3-8c16-4b76-8c40-960bb85485af","system_id":"levelo_inurba_marseille","lat":43.27984,"lon":5.38688,"is_reserved":false,"is_disabled":false,"rental_uris":{"android":"levelo://app?vid=bbd9a3c3-8c16-4b76-8c40-960bb85485af","ios":"levelo://app?vid=bbd9a3c3-8c16-4b76-8c40-960bb85485af"},"vehicle_type_id":"4","last_reported":1779283737,"current_range_meters":8000,"station_id":"ce4bhg12rcd13ifvqf80","pricing_plan_id":"cebpf4jnsgd1na2vs0mg"},{"bike_id":"035ccb97-c8b0-4ad3-bdb3-552e5dc2056b","system_id":"levelo_inurba_marseille","lat":43.2826,"lon":5.35052,"is_reserved":false,"is_disabled":false,"rental_uris":{"android":"levelo://app?vid=035ccb97-c8b0-4ad3-bdb3-552e5dc2056b","ios":"levelo://app?vid=035ccb97-c8b0-4ad3-bdb3-552e5dc2056b"},"vehicle_type_id":"4","last_reported":1779283737,"current_range_meters":8000,"station_id":"ce4bhbp2rcd13ifvqerg","pricing_plan_id":"cebpf4jnsgd1na2vs0mg"},{"bike_id":"2e78de2d-d8e3-4391-988b-4d1154738233","system_id":"levelo_inurba_marseille","lat":43.26207,"lon":5.37916,"is_reserved":false,"is_disabled":false,"rental_uris":{"android":"levelo://app?vid=2e78de2d-d8e3-4391-988b-4d1154738233","ios":"levelo://app?vid=2e78de2d-d8e3-4391-988b-4d1154738233"},"vehicle_type_id":"4","last_reported":1779283737,"current_range_meters":8000,"station_id":"ce4bhjp2rcd13ifvqg90","pricing_plan_id":"cebpf4jnsgd1na2vs0mg"},{"bike_id":"a9ecdf3d-d058-4d96-8a15-53a583bb9732","system_id":"levelo_inurba_marseille","lat":43.27423,"lon":5.39416,"is_reserved":false,"is_disabled":false,"rental_uris":{"android":"levelo://app?vid=a9ecdf3d-d058-4d96-8a15-53a583bb9732","ios":"levelo://app?vid=a9ecdf3d-d058-4d96-8a15-53a583bb9732"},"vehicle_type_id":"4","last_reported":1779283737,"current_range_meters":8000,"station_id":"ce4bhdp2rcd13ifvqf20","pricing_plan_id":"cebpf4jnsgd1na2vs0mg"},{"bike_id":"5a297e80-d2f0-4fb4-9886-093528a3567a","system_id":"levelo_inurba_marseille","lat":43.31456,"lon":5.37381,"is_reserved":false,"is_disabled":true,"rental_uris":{"android":"levelo://app?vid=5a297e80-d2f0-4fb4-9886-093528a3567a","ios":"levelo://app?vid=5a297e80-d2f0-4fb4-9886-093528a3567a"},"vehicle_type_id":"4","last_reported":1779283737,"current_range_meters":8400,"station_id":"","pricing_plan_id":"cebpf4jnsgd1na2vs0mg"},{"bike_id":"5214e1d3-d210-4eae-a727-b2a3c137588c","system_id":"levelo_inurba_marseille","lat":43.2315,"lon":5.43727,"is_reserved":false,"is_disabled":false,"rental_uris":{"android":"levelo://app?vid=5214e1d3-d210-4eae-a727-b2a3c137588c","ios":"levelo://app?vid=5214e1d3-d210-4eae-a727-b2a3c137588c"},"vehicle_type_id":"4","last_reported":1779283737,"current_range_meters":8400,"station_id":"ce4bhmp2rcd13ifvqgog","pricing_plan_id":"cebpf4jnsgd1na2vs0mg"},{"bike_id":"dd5bca8d-4a0a-4bc1-8cec-b991e57c6089","system_id":"levelo_inurba_marseille","lat":43.24168,"lon":5.36392,"is_reserved":false,"is_disabled":false,"rental_uris":{"android":"levelo://app?vid=dd5bca8d-4a0a-4bc1-8cec-b991e57c6089","ios":"levelo://app?vid=dd5bca8d-4a0a-4bc1-8cec-b991e57c6089"},"vehicle_type_id":"4","last_reported":1779283737,"current_range_meters":8400,"station_id":"cpo36qri1sfpv3e86is0","pricing_plan_id":"cebpf4jnsgd1na2vs0mg"},{"bike_id":"bd0bedbe-259a-4277-822d-3eccc54a2488","system_id":"levelo_inurba_marseille","lat":43.28078,"lon":5.39657,"is_reserved":false,"is_disabled":false,"rental_uris":{"android":"levelo://app?vid=bd0bedbe-259a-4277-822d-3eccc54a2488","ios":"levelo://app?vid=bd0bedbe-259a-4277-822d-3eccc54a2488"},"vehicle_type_id":"4","last_reported":1779283737,"current_range_meters":8400,"station_id":"ce4bho12rcd13ifvqh2g","pricing_plan_id":"cebpf4jnsgd1na2vs0mg"},{"bike_id":"d10debcb-9ce6-4b3e-9c02-9b6043eb338a","system_id":"levelo_inurba_marseille","lat":43.25511,"lon":5.37634,"is_reserved":false,"is_disabled":false,"rental_uris":{"android":"levelo://app?vid=d10debcb-9ce6-4b3e-9c02-9b6043eb338a","ios":"levelo://app?vid=d10debcb-9ce6-4b3e-9c02-9b6043eb338a"},"vehicle_type_id":"4","last_reported":1779283737,"current_range_meters":8400,"station_id":"ce4bhh12rcd13ifvqff0","pricing_plan_id":"cebpf4jnsgd1na2vs0mg"},{"bike_id":"a963acee-95a9-4934-b715-f4028d37215f","system_id":"levelo_inurba_marseille","lat":43.27373,"lon":5.36245,"is_reserved":false,"is_disabled":false,"rental_uris":{"android":"levelo://app?vid=a963acee-95a9-4934-b715-f4028d37215f","ios":"levelo://app?vid=a963acee-95a9-4934-b715-f4028d37215f"},"vehicle_type_id":"4","last_reported":1779283737,"current_range_meters":8400,"station_id":"ce4bhbh2rcd13ifvqeo0","pricing_plan_id":"cebpf4jnsgd1na2vs0mg"},{"bike_id":"e38caa21-a14a-4197-88a1-db68aad57c56","system_id":"levelo_inurba_marseille","lat":43.28709,"lon":5.4669,"is_reserved":false,"is_disabled":false,"rental_uris":{"android":"levelo://app?vid=e38caa21-a14a-4197-88a1-db68aad57c56","ios":"levelo://app?vid=e38caa21-a14a-4197-88a1-db68aad57c56"},"vehicle_type_id":"4","last_reported":1779283737,"current_range_meters":8400,"station_id":"st_d6tc3vkotcvc738tfjhg","pricing_plan_id":"cebpf4jnsgd1na2vs0mg"},{"bike_id":"a3071a58-220a-49d7-933f-639eaa20dffd","system_id":"levelo_inurba_marseille","lat":43.28739,"lon":5.42706,"is_reserved":false,"is_disabled":false,"rental_uris":{"android":"levelo://app?vid=a3071a58-220a-49d7-933f-639eaa20dffd","ios":"levelo://app?vid=a3071a58-220a-49d7-933f-639eaa20dffd"},"vehicle_type_id":"4","last_reported":1779283737,"current_range_meters":8400,"station_id":"","pricing_plan_id":"cebpf4jnsgd1na2vs0mg"},{"bike_id":"2355eeee-6634-4fdc-90cf-f0d24c90476e","system_id":"levelo_inurba_marseille","lat":43.26546,"lon":5.37294,"is_reserved":false,"is_disabled":false,"rental_uris":{"android":"levelo://app?vid=2355eeee-6634-4fdc-90cf-f0d24c90476e","ios":"levelo://app?vid=2355eeee-6634-4fdc-90cf-f0d24c90476e"},"vehicle_type_id":"4","last_reported":1779283737,"current_range_meters":8400,"station_id":"ce4bhg12rcd13ifvqf70","pricing_plan_id":"cebpf4jnsgd1na2vs0mg"},{"bike_id":"c5dbd572-a1ea-4408-adca-27d12fd6afcc","system_id":"levelo_inurba_marseille","lat":43.28416,"lon":5.34989,"is_reserved":false,"is_disabled":false,"rental_uris":{"android":"levelo://app?vid=c5dbd572-a1ea-4408-adca-27d12fd6afcc","ios":"levelo://app?vid=c5dbd572-a1ea-4408-adca-27d12fd6afcc"},"vehicle_type_id":"4","last_reported":1779283737,"current_range_meters":8400,"station_id":"ce4bhbh2rcd13ifvqepg","pricing_plan_id":"cebpf4jnsgd1na2vs0mg"},{"bike_id":"381a1687-3b4c-4e43-ada7-0b296f458493","system_id":"levelo_inurba_marseille","lat":43.28755,"lon":5.46706,"is_reserved":false,"is_disabled":false,"rental_uris":{"android":"levelo://app?vid=381a1687-3b4c-4e43-ada7-0b296f458493","ios":"levelo://app?vid=381a1687-3b4c-4e43-ada7-0b296f458493"},"vehicle_type_id":"4","last_reported":1779283737,"current_range_meters":8400,"station_id":"","pricing_plan_id":"cebpf4jnsgd1na2vs0mg"},{"bike_id":"76153d32-39e1-4665-80cb-970d802dbdd0","system_id":"levelo_inurba_marseille","lat":43.28266,"lon":5.35064,"is_reserved":false,"is_disabled":false,"rental_uris":{"android":"levelo://app?vid=76153d32-39e1-4665-80cb-970d802dbdd0","ios":"levelo://app?vid=76153d32-39e1-4665-80cb-970d802dbdd0"},"vehicle_type_id":"4","last_reported":1779283737,"current_range_meters":8400,"station_id":"ce4bhbp2rcd13ifvqerg","pricing_plan_id":"cebpf4jnsgd1na2vs0mg"},{"bike_id":"3ccff618-cd50-49b7-a779-3d61e03b2e32","system_id":"levelo_inurba_marseille","lat":43.2847,"lon":5.35884,"is_reserved":false,"is_disabled":false,"rental_uris":{"android":"levelo://app?vid=3ccff618-cd50-49b7-a779-3d61e03b2e32","ios":"levelo://app?vid=3ccff618-cd50-49b7-a779-3d61e03b2e32"},"vehicle_type_id":"4","last_reported":1779283737,"current_range_meters":8400,"station_id":"ce4bhah2rcd13ifvqei0","pricing_plan_id":"cebpf4jnsgd1na2vs0mg"},{"bike_id":"171ae9b6-f7f7-4285-9bc8-e7afb4e37a51","system_id":"levelo_inurba_marseille","lat":43.260317,"lon":5.375481,"is_reserved":false,"is_disabled":false,"rental_uris":{"android":"levelo://app?vid=171ae9b6-f7f7-4285-9bc8-e7afb4e37a51","ios":"levelo://app?vid=171ae9b6-f7f7-4285-9bc8-e7afb4e37a51"},"vehicle_type_id":"4","last_reported":1779283737,"current_range_meters":8400,"station_id":"ce4bhgh2rcd13ifvqfa0","pricing_plan_id":"cebpf4jnsgd1na2vs0mg"},{"bike_id":"ac4198bf-4eb6-463b-aed8-ff71db05cbd6","system_id":"levelo_inurba_marseille","lat":43.31211,"lon":5.36854,"is_reserved":false,"is_disabled":false,"rental_uris":{"android":"levelo://app?vid=ac4198bf-4eb6-463b-aed8-ff71db05cbd6","ios":"levelo://app?vid=ac4198bf-4eb6-463b-aed8-ff71db05cbd6"},"vehicle_type_id":"4","last_reported":1779283737,"current_range_meters":8400,"station_id":"ce4bgl92rcd13ifvqbq0","pricing_plan_id":"cebpf4jnsgd1na2vs0mg"},{"bike_id":"36a836a9-c4b7-48ee-a4fb-e988674aec43","system_id":"levelo_inurba_marseille","lat":43.30237,"lon":5.40036,"is_reserved":false,"is_disabled":false,"rental_uris":{"android":"levelo://app?vid=36a836a9-c4b7-48ee-a4fb-e988674aec43","ios":"levelo://app?vid=36a836a9-c4b7-48ee-a4fb-e988674aec43"},"vehicle_type_id":"4","last_reported":1779283737,"current_range_meters":8800,"station_id":"","pricing_plan_id":"cebpf4jnsgd1na2vs0mg"},{"bike_id":"1540992e-62cf-49dc-a3b9-64384049a37a","system_id":"levelo_inurba_marseille","lat":43.251113,"lon":5.403218,"is_reserved":false,"is_disabled":false,"rental_uris":{"android":"levelo://app?vid=1540992e-62cf-49dc-a3b9-64384049a37a","ios":"levelo://app?vid=1540992e-62cf-49dc-a3b9-64384049a37a"},"vehicle_type_id":"4","last_reported":1779283737,"current_range_meters":8800,"station_id":"ce4bhlh2rcd13ifvqgig","pricing_plan_id":"cebpf4jnsgd1na2vs0mg"},{"bike_id":"6a04d603-908d-4e4c-8271-c55fcfd1f699","system_id":"levelo_inurba_marseille","lat":43.3079,"lon":5.38169,"is_reserved":false,"is_disabled":false,"rental_uris":{"android":"levelo://app?vid=6a04d603-908d-4e4c-8271-c55fcfd1f699","ios":"levelo://app?vid=6a04d603-908d-4e4c-8271-c55fcfd1f699"},"vehicle_type_id":"4","last_reported":1779283737,"current_range_meters":8800,"station_id":"ce4bgt12rcd13ifvqce0","pricing_plan_id":"cebpf4jnsgd1na2vs0mg"},{"bike_id":"5240a5f6-9271-48c6-b2b8-4861fa100d4d","system_id":"levelo_inurba_marseille","lat":43.25572,"lon":5.38228,"is_reserved":false,"is_disabled":false,"rental_uris":{"android":"levelo://app?vid=5240a5f6-9271-48c6-b2b8-4861fa100d4d","ios":"levelo://app?vid=5240a5f6-9271-48c6-b2b8-4861fa100d4d"},"vehicle_type_id":"4","last_reported":1779283737,"current_range_meters":8800,"station_id":"ce4bhih2rcd13ifvqfs0","pricing_plan_id":"cebpf4jnsgd1na2vs0mg"},{"bike_id":"bf41431b-8f3d-4745-b433-8ed06f42d77d","system_id":"levelo_inurba_marseille","lat":43.21199,"lon":5.35066,"is_reserved":false,"is_disabled":false,"rental_uris":{"android":"levelo://app?vid=bf41431b-8f3d-4745-b433-8ed06f42d77d","ios":"levelo://app?vid=bf41431b-8f3d-4745-b433-8ed06f42d77d"},"vehicle_type_id":"4","last_reported":1779283737,"current_range_meters":8800,"station_id":"st_cvj6sg6p6f1abm77japg","pricing_plan_id":"cebpf4jnsgd1na2vs0mg"},{"bike_id":"19fd6b6d-649c-43e6-a018-fc9eac54a953","system_id":"levelo_inurba_marseille","lat":43.30481,"lon":5.3791,"is_reserved":false,"is_disabled":false,"rental_uris":{"android":"levelo://app?vid=19fd6b6d-649c-43e6-a018-fc9eac54a953","ios":"levelo://app?vid=19fd6b6d-649c-43e6-a018-fc9eac54a953"},"vehicle_type_id":"4","last_reported":1779283737,"current_range_meters":8800,"station_id":"ce4bgup2rcd13ifvqcn0","pricing_plan_id":"cebpf4jnsgd1na2vs0mg"},{"bike_id":"b57c1422-19e0-4eaa-b0e5-61e58ac4c49e","system_id":"levelo_inurba_marseille","lat":43.244,"lon":5.37073,"is_reserved":false,"is_disabled":false,"rental_uris":{"android":"levelo://app?vid=b57c1422-19e0-4eaa-b0e5-61e58ac4c49e","ios":"levelo://app?vid=b57c1422-19e0-4eaa-b0e5-61e58ac4c49e"},"vehicle_type_id":"4","last_reported":1779283737,"current_range_meters":8800,"station_id":"ce4bhhh2rcd13ifvqfk0","pricing_plan_id":"cebpf4jnsgd1na2vs0mg"},{"bike_id":"c5e693a5-5aee-4f2f-b3d3-ad6fe1a5da64","system_id":"levelo_inurba_marseille","lat":43.3246,"lon":5.36574,"is_reserved":false,"is_disabled":false,"rental_uris":{"android":"levelo://app?vid=c5e693a5-5aee-4f2f-b3d3-ad6fe1a5da64","ios":"levelo://app?vid=c5e693a5-5aee-4f2f-b3d3-ad6fe1a5da64"},"vehicle_type_id":"4","last_reported":1779283737,"current_range_meters":8800,"station_id":"ce4bhs12rcd13ifvqhvg","pricing_plan_id":"cebpf4jnsgd1na2vs0mg"},{"bike_id":"2ca33c20-316a-492c-8f94-693dc1e5047a","system_id":"levelo_inurba_marseille","lat":43.28617,"lon":5.35108,"is_reserved":false,"is_disabled":false,"rental_uris":{"android":"levelo://app?vid=2ca33c20-316a-492c-8f94-693dc1e5047a","ios":"levelo://app?vid=2ca33c20-316a-492c-8f94-693dc1e5047a"},"vehicle_type_id":"4","last_reported":1779283737,"current_range_meters":8800,"station_id":"ce4bhch2rcd13ifvqeug","pricing_plan_id":"cebpf4jnsgd1na2vs0mg"},{"bike_id":"ad8d675e-a161-4ee7-8c6f-d76ddc454031","system_id":"levelo_inurba_marseille","lat":43.26088,"lon":5.41542,"is_reserved":false,"is_disabled":false,"rental_uris":{"android":"levelo://app?vid=ad8d675e-a161-4ee7-8c6f-d76ddc454031","ios":"levelo://app?vid=ad8d675e-a161-4ee7-8c6f-d76ddc454031"},"vehicle_type_id":"4","last_reported":1779283737,"current_range_meters":8800,"station_id":"","pricing_plan_id":"cebpf4jnsgd1na2vs0mg"},{"bike_id":"86a0fb52-613b-4a6c-942d-1abbde400b19","system_id":"levelo_inurba_marseille","lat":43.28436,"lon":5.34971,"is_reserved":false,"is_disabled":true,"rental_uris":{"android":"levelo://app?vid=86a0fb52-613b-4a6c-942d-1abbde400b19","ios":"levelo://app?vid=86a0fb52-613b-4a6c-942d-1abbde400b19"},"vehicle_type_id":"4","last_reported":1779283737,"current_range_meters":8800,"station_id":"ce4bhbh2rcd13ifvqepg","pricing_plan_id":"cebpf4jnsgd1na2vs0mg"},{"bike_id":"0fcd54e6-8eec-4b91-b372-3576a17dee23","system_id":"levelo_inurba_marseille","lat":43.28218,"lon":5.39055,"is_reserved":false,"is_disabled":false,"rental_uris":{"android":"levelo://app?vid=0fcd54e6-8eec-4b91-b372-3576a17dee23","ios":"levelo://app?vid=0fcd54e6-8eec-4b91-b372-3576a17dee23"},"vehicle_type_id":"4","last_reported":1779283737,"current_range_meters":8800,"station_id":"ce4bhn92rcd13ifvqgsg","pricing_plan_id":"cebpf4jnsgd1na2vs0mg"},{"bike_id":"fcab34a2-2e38-4e08-9924-a9cfef68c63b","system_id":"levelo_inurba_marseille","lat":43.27091,"lon":5.38336,"is_reserved":false,"is_disabled":false,"rental_uris":{"android":"levelo://app?vid=fcab34a2-2e38-4e08-9924-a9cfef68c63b","ios":"levelo://app?vid=fcab34a2-2e38-4e08-9924-a9cfef68c63b"},"vehicle_type_id":"4","last_reported":1779283737,"current_range_meters":8800,"station_id":"st_d3n2fo6cfp8s73cte1j0","pricing_plan_id":"cebpf4jnsgd1na2vs0mg"},{"bike_id":"aad75fce-f297-4a66-8546-74ab6bfcd851","system_id":"levelo_inurba_marseille","lat":43.24175,"lon":5.36396,"is_reserved":false,"is_disabled":false,"rental_uris":{"android":"levelo://app?vid=aad75fce-f297-4a66-8546-74ab6bfcd851","ios":"levelo://app?vid=aad75fce-f297-4a66-8546-74ab6bfcd851"},"vehicle_type_id":"4","last_reported":1779283737,"current_range_meters":8800,"station_id":"cpo36qri1sfpv3e86is0","pricing_plan_id":"cebpf4jnsgd1na2vs0mg"},{"bike_id":"bde72329-39a4-47e8-8cdc-1be46ec770b8","system_id":"levelo_inurba_marseille","lat":43.30904,"lon":5.38187,"is_reserved":false,"is_disabled":false,"rental_uris":{"android":"levelo://app?vid=bde72329-39a4-47e8-8cdc-1be46ec770b8","ios":"levelo://app?vid=bde72329-39a4-47e8-8cdc-1be46ec770b8"},"vehicle_type_id":"4","last_reported":1779283737,"current_range_meters":8800,"station_id":"","pricing_plan_id":"cebpf4jnsgd1na2vs0mg"},{"bike_id":"821b0212-9f85-453c-a97e-31f40b9aebf2","system_id":"levelo_inurba_marseille","lat":43.28873,"lon":5.35858,"is_reserved":false,"is_disabled":false,"rental_uris":{"android":"levelo://app?vid=821b0212-9f85-453c-a97e-31f40b9aebf2","ios":"levelo://app?vid=821b0212-9f85-453c-a97e-31f40b9aebf2"},"vehicle_type_id":"4","last_reported":1779283737,"current_range_meters":8800,"station_id":"ce4bhb12rcd13ifvqem0","pricing_plan_id":"cebpf4jnsgd1na2vs0mg"},{"bike_id":"6c613aff-1104-418c-a7b7-b7de35cf7563","system_id":"levelo_inurba_marseille","lat":43.2841,"lon":5.34987,"is_reserved":false,"is_disabled":false,"rental_uris":{"android":"levelo://app?vid=6c613aff-1104-418c-a7b7-b7de35cf7563","ios":"levelo://app?vid=6c613aff-1104-418c-a7b7-b7de35cf7563"},"vehicle_type_id":"4","last_reported":1779283737,"current_range_meters":8800,"station_id":"ce4bhbh2rcd13ifvqepg","pricing_plan_id":"cebpf4jnsgd1na2vs0mg"},{"bike_id":"9acdbd0c-0514-418a-ad18-bdadbfd7bd7e","system_id":"levelo_inurba_marseille","lat":43.26569,"lon":5.37288,"is_reserved":false,"is_disabled":false,"rental_uris":{"android":"levelo://app?vid=9acdbd0c-0514-418a-ad18-bdadbfd7bd7e","ios":"levelo://app?vid=9acdbd0c-0514-418a-ad18-bdadbfd7bd7e"},"vehicle_type_id":"4","last_reported":1779283737,"current_range_meters":8800,"station_id":"ce4bhg12rcd13ifvqf70","pricing_plan_id":"cebpf4jnsgd1na2vs0mg"},{"bike_id":"76d9f01a-7981-4ce9-bf0b-7ca3e26a009c","system_id":"levelo_inurba_marseille","lat":43.29007,"lon":5.3781,"is_reserved":false,"is_disabled":true,"rental_uris":{"android":"levelo://app?vid=76d9f01a-7981-4ce9-bf0b-7ca3e26a009c","ios":"levelo://app?vid=76d9f01a-7981-4ce9-bf0b-7ca3e26a009c"},"vehicle_type_id":"4","last_reported":1779283737,"current_range_meters":8800,"station_id":"ce4bh9p2rcd13ifvqed0","pricing_plan_id":"cebpf4jnsgd1na2vs0mg"},{"bike_id":"0aa6b170-d3f6-4643-8b2a-afbccf106a36","system_id":"levelo_inurba_marseille","lat":43.31231,"lon":5.36872,"is_reserved":false,"is_disabled":false,"rental_uris":{"android":"levelo://app?vid=0aa6b170-d3f6-4643-8b2a-afbccf106a36","ios":"levelo://app?vid=0aa6b170-d3f6-4643-8b2a-afbccf106a36"},"vehicle_type_id":"4","last_reported":1779283737,"current_range_meters":8800,"station_id":"ce4bgl92rcd13ifvqbq0","pricing_plan_id":"cebpf4jnsgd1na2vs0mg"},{"bike_id":"feaf3150-5dcd-4833-90bd-79d92481dea3","system_id":"levelo_inurba_marseille","lat":43.23168,"lon":5.43775,"is_reserved":false,"is_disabled":false,"rental_uris":{"android":"levelo://app?vid=feaf3150-5dcd-4833-90bd-79d92481dea3","ios":"levelo://app?vid=feaf3150-5dcd-4833-90bd-79d92481dea3"},"vehicle_type_id":"4","last_reported":1779283737,"current_range_meters":8800,"station_id":"","pricing_plan_id":"cebpf4jnsgd1na2vs0mg"},{"bike_id":"56c71323-3935-4883-ac44-380e2c63ce2c","system_id":"levelo_inurba_marseille","lat":43.28065,"lon":5.34776,"is_reserved":false,"is_disabled":false,"rental_uris":{"android":"levelo://app?vid=56c71323-3935-4883-ac44-380e2c63ce2c","ios":"levelo://app?vid=56c71323-3935-4883-ac44-380e2c63ce2c"},"vehicle_type_id":"4","last_reported":1779283737,"current_range_meters":8800,"station_id":"","pricing_plan_id":"cebpf4jnsgd1na2vs0mg"},{"bike_id":"8c39b6dd-b754-48e2-823c-6f28d51803e0","system_id":"levelo_inurba_marseille","lat":43.29315,"lon":5.39874,"is_reserved":false,"is_disabled":false,"rental_uris":{"android":"levelo://app?vid=8c39b6dd-b754-48e2-823c-6f28d51803e0","ios":"levelo://app?vid=8c39b6dd-b754-48e2-823c-6f28d51803e0"},"vehicle_type_id":"4","last_reported":1779283737,"current_range_meters":8800,"station_id":"","pricing_plan_id":"cebpf4jnsgd1na2vs0mg"},{"bike_id":"c344eaf8-b2d1-47e0-9f51-ba69b983cef4","system_id":"levelo_inurba_marseille","lat":43.2987,"lon":5.38904,"is_reserved":false,"is_disabled":false,"rental_uris":{"android":"levelo://app?vid=c344eaf8-b2d1-47e0-9f51-ba69b983cef4","ios":"levelo://app?vid=c344eaf8-b2d1-47e0-9f51-ba69b983cef4"},"vehicle_type_id":"4","last_reported":1779283737,"current_range_meters":8800,"station_id":"ce4bh392rcd13ifvqdl0","pricing_plan_id":"cebpf4jnsgd1na2vs0mg"},{"bike_id":"d544d309-9713-498c-9697-af391d39a4dd","system_id":"levelo_inurba_marseille","lat":43.30326,"lon":5.40429,"is_reserved":false,"is_disabled":false,"rental_uris":{"android":"levelo://app?vid=d544d309-9713-498c-9697-af391d39a4dd","ios":"levelo://app?vid=d544d309-9713-498c-9697-af391d39a4dd"},"vehicle_type_id":"4","last_reported":1779283737,"current_range_meters":8800,"station_id":"ce4bh012rcd13ifvqd10","pricing_plan_id":"cebpf4jnsgd1na2vs0mg"},{"bike_id":"ec50fc7c-6a9b-4675-8d6d-ea4198e304f2","system_id":"levelo_inurba_marseille","lat":43.28414,"lon":5.34973,"is_reserved":false,"is_disabled":false,"rental_uris":{"android":"levelo://app?vid=ec50fc7c-6a9b-4675-8d6d-ea4198e304f2","ios":"levelo://app?vid=ec50fc7c-6a9b-4675-8d6d-ea4198e304f2"},"vehicle_type_id":"4","last_reported":1779283737,"current_range_meters":8800,"station_id":"ce4bhbh2rcd13ifvqepg","pricing_plan_id":"cebpf4jnsgd1na2vs0mg"},