{"last_updated":1700395894,"ttl":30,"version":"2.2","data":{"bikes":[{"bike_id":"304c090c-fe89-48f2-967d-b9d3e33e25c9","system_id":"levelo_inurba_marseille","lat":43.309039,"lon":5.371797,"is_reserved":false,"is_disabled":false,"rental_uris":{"android":"levelo://app?vid=304c090c-fe89-48f2-967d-b9d3e33e25c9","ios":"levelo://app?vid=304c090c-fe89-48f2-967d-b9d3e33e25c9"},"vehicle_type_id":"4","last_reported":1700395895,"current_range_meters":20000,"station_id":"ce4bguh2rcd13ifvqckg","pricing_plan_id":"free"},{"bike_id":"3475d204-43b6-43d9-b615-ca1d0d58200e","system_id":"levelo_inurba_marseille","lat":43.30679,"lon":5.3679,"is_reserved":false,"is_disabled":false,"rental_uris":{"android":"levelo://app?vid=3475d204-43b6-43d9-b615-ca1d0d58200e","ios":"levelo://app?vid=3475d204-43b6-43d9-b615-ca1d0d58200e"},"vehicle_type_id":"4","last_reported":1700395895,"current_range_meters":10800,"station_id":"","pricing_plan_id":"free"},{"bike_id":"607819cf-a4fa-4b55-885d-29b97af7d346","system_id":"levelo_inurba_marseille","lat":43.30553,"lon":5.36697,"is_reserved":false,"is_disabled":false,"rental_uris":{"android":"levelo://app?vid=607819cf-a4fa-4b55-885d-29b97af7d346","ios":"levelo://app?vid=607819cf-a4fa-4b55-885d-29b97af7d346"},"vehicle_type_id":"4","last_reported":1700395895,"current_range_meters":0,"station_id":"ce4bgrp2rcd13ifvqc9g","pricing_plan_id":"free"},{"bike_id":"1a9ca1e0-5541-49ff-811a-61f61fc9bc80","system_id":"levelo_inurba_marseille","lat":43.30544,"lon":5.36712,"is_reserved":false,"is_disabled":false,"rental_uris":{"android":"levelo://app?vid=1a9ca1e0-5541-49ff-811a-61f61fc9bc80","ios":"levelo://app?vid=1a9ca1e0-5541-49ff-811a-61f61fc9bc80"},"vehicle_type_id":"4","last_reported":1700395895,"current_range_meters":21200,"station_id":"ce4bgrp2rcd13ifvqc9g","pricing_plan_id":"free"},{"bike_id":"3abe67f4-4cbb-4980-b233-da9f20e76d04","system_id":"levelo_inurba_marseille","lat":43.305714,"lon":5.365633,"is_reserved":false,"is_disabled":false,"rental_uris":{"android":"levelo://app?vid=3abe67f4-4cbb-4980-b233-da9f20e76d04","ios":"levelo://app?vid=3abe67f4-4cbb-4980-b233-da9f20e76d04"},"vehicle_type_id":"4","last_reported":1700395895,"current_range_meters":6400,"station_id":"ce4bgs12rcd13ifvqcag","pricing_plan_id":"free"},{"bike_id":"09ccbac6-0f01-4cfb-8bb8-da5484277d5c","system_id":"levelo_inurba_marseille","lat":43.319516,"lon":5.371004,"is_reserved":false,"is_disabled":false,"rental_uris":{"android":"levelo://app?vid=09ccbac6-0f01-4cfb-8bb8-da5484277d5c","ios":"levelo://app?vid=09ccbac6-0f01-4cfb-8bb8-da5484277d5c"},"vehicle_type_id":"4","last_reported":1700395895,"current_range_meters":400,"station_id":"","pricing_plan_id":"free"},{"bike_id":"dcbf9c93-0758-41cf-8699-4ede01d69428","system_id":"levelo_inurba_marseille","lat":43.308201,"lon":5.37656,"is_reserved":false,"is_disabled":false,"rental_uris":{"android":"levelo://app?vid=dcbf9c93-0758-41cf-8699-4ede01d69428","ios":"levelo://app?vid=dcbf9c93-0758-41cf-8699-4ede01d69428"},"vehicle_type_id":"4","last_reported":1700395895,"current_range_meters":11600,"station_id":"ce4bgv92rcd13ifvqcq0","pricing_plan_id":"free"},{"bike_id":"c1b6f7bd-7ece-4b07-acb1-5c9f9e2474c0","system_id":"levelo_inurba_marseille","lat":43.32178,"lon":5.37512,"is_reserved":false,"is_disabled":false,"rental_uris":{"android":"levelo://app?vid=c1b6f7bd-7ece-4b07-acb1-5c9f9e2474c0","ios":"levelo://app?vid=c1b6f7bd-7ece-4b07-acb1-5c9f9e2474c0"},"vehicle_type_id":"4","last_reported":1700395895,"current_range_meters":28400,"station_id":"","pricing_plan_id":"free"},{"bike_id":"8c6b9948-2f23-41f5-967e-cd18cc963390","system_id":"levelo_inurba_marseille","lat":43.32481,"lon":5.36559,"is_reserved":false,"is_disabled":false,"rental_uris":{"android":"levelo://app?vid=8c6b9948-2f23-41f5-967e-cd18cc963390","ios":"levelo://app?vid=8c6b9948-2f23-41f5-967e-cd18cc963390"},"vehicle_type_id":"4","last_reported":1700395895,"current_range_meters":15600,"station_id":"ce4bhs12rcd13ifvqhvg","pricing_plan_id":"free"},{"bike_id":"80aa2afa-97fa-4924-bdce-8c8516f416e1","system_id":"levelo_inurba_marseille","lat":43.32482,"lon":5.36577,"is_reserved":false,"is_disabled":false,"rental_uris":{"android":"levelo://app?vid=80aa2afa-97fa-4924-bdce-8c8516f416e1","ios":"levelo://app?vid=80aa2afa-97fa-4924-bdce-8c8516f416e1"},"vehicle_type_id":"4","last_reported":1700395895,"current_range_meters":23200,"station_id":"ce4bhs12rcd13ifvqhvg","pricing_plan_id":"free"},{"bike_id":"3a722b20-8d9a-4ed7-bed2-82edca53ad10","system_id":"levelo_inurba_marseille","lat":43.324824,"lon":5.365517,"is_reserved":false,"is_disabled":false,"rental_uris":{"android":"levelo://app?vid=3a722b20-8d9a-4ed7-bed2-82edca53ad10","ios":"levelo://app?vid=3a722b20-8d9a-4ed7-bed2-82edca53ad10"},"vehicle_type_id":"4","last_reported":1700395895,"current_range_meters":18400,"station_id":"ce4bhs12rcd13ifvqhvg","pricing_plan_id":"free"},{"bike_id":"56667abf-fb99-4105-b77b-f7dfcdd37914","system_id":"levelo_inurba_marseille","lat":43.313571,"lon":5.384829,"is_reserved":false,"is_disabled":false,"rental_uris":{"android":"levelo://app?vid=56667abf-fb99-4105-b77b-f7dfcdd37914","ios":"levelo://app?vid=56667abf-fb99-4105-b77b-f7dfcdd37914"},"vehicle_type_id":"4","last_reported":1700395895,"current_range_meters":21600,"station_id":"ce4bgt92rcd13ifvqcf0","pricing_plan_id":"free"},{"bike_id":"5da9dea2-bd9f-4746-b637-56e44ea9e587","system_id":"levelo_inurba_marseille","lat":43.298489,"lon":5.362942,"is_reserved":false,"is_disabled":false,"rental_uris":{"android":"levelo://app?vid=5da9dea2-bd9f-4746-b637-56e44ea9e587","ios":"levelo://app?vid=5da9dea2-bd9f-4746-b637-56e44ea9e587"},"vehicle_type_id":"4","last_reported":1700395895,"current_range_meters":0,"station_id":"","pricing_plan_id":"free"},{"bike_id":"d3b9caf1-a752-40df-8a36-a40429eca156","system_id":"levelo_inurba_marseille","lat":43.305364,"lon":5.384119,"is_reserved":false,"is_disabled":false,"rental_uris":{"android":"levelo://app?vid=d3b9caf1-a752-40df-8a36-a40429eca156","ios":"levelo://app?vid=d3b9caf1-a752-40df-8a36-a40429eca156"},"vehicle_type_id":"4","last_reported":1700395895,"current_range_meters":17200,"station_id":"ce4bgg92rcd13ifvqb30","pricing_plan_id":"free"},{"bike_id":"d7cf37b9-9a91-40b7-8627-b149eecddd42","system_id":"levelo_inurba_marseille","lat":43.297794,"lon":5.370888,"is_reserved":false,"is_disabled":false,"rental_uris":{"android":"levelo://app?vid=d7cf37b9-9a91-40b7-8627-b149eecddd42","ios":"levelo://app?vid=d7cf37b9-9a91-40b7-8627-b149eecddd42"},"vehicle_type_id":"4","last_reported":1700395895,"current_range_meters":24000,"station_id":"ce4bgop2rcd13ifvqc1g","pricing_plan_id":"free"},{"bike_id":"6c5d7580-0af2-4711-aac6-b10b4ab61119","system_id":"levelo_inurba_marseille","lat":43.297847,"lon":5.372297,"is_reserved":false,"is_disabled":false,"rental_uris":{"android":"levelo://app?vid=6c5d7580-0af2-4711-aac6-b10b4ab61119","ios":"levelo://app?vid=6c5d7580-0af2-4711-aac6-b10b4ab61119"},"vehicle_type_id":"4","last_reported":1700395895,"current_range_meters":0,"station_id":"","pricing_plan_id":"free"},{"bike_id":"a1bfef67-e787-4496-8e54-575847ffa6ab","system_id":"levelo_inurba_marseille","lat":43.3283,"lon":5.36681,"is_reserved":false,"is_disabled":false,"rental_uris":{"android":"levelo://app?vid=a1bfef67-e787-4496-8e54-575847ffa6ab","ios":"levelo://app?vid=a1bfef67-e787-4496-8e54-575847ffa6ab"},"vehicle_type_id":"4","last_reported":1700395895,"current_range_meters":16400,"station_id":"ce4bhs92rcd13ifvqi0g","pricing_plan_id":"free"},{"bike_id":"400f50f1-8856-47a5-98cc-d6af2c8bca12","system_id":"levelo_inurba_marseille","lat":43.32831,"lon":5.36687,"is_reserved":false,"is_disabled":false,"rental_uris":{"android":"levelo://app?vid=400f50f1-8856-47a5-98cc-d6af2c8bca12","ios":"levelo://app?vid=400f50f1-8856-47a5-98cc-d6af2c8bca12"},"vehicle_type_id":"4","last_reported":1700395895,"current_range_meters":10400,"station_id":"ce4bhs92rcd13ifvqi0g","pricing_plan_id":"free"},{"bike_id":"f1823e1a-4a1c-465c-a3d5-b3d8c07ce2f2","system_id":"levelo_inurba_marseille","lat":43.32834,"lon":5.366859,"is_reserved":false,"is_disabled":false,"rental_uris":{"android":"levelo://app?vid=f1823e1a-4a1c-465c-a3d5-b3d8c07ce2f2","ios":"levelo://app?vid=f1823e1a-4a1c-465c-a3d5-b3d8c07ce2f2"},"vehicle_type_id":"4","last_reported":1700395895,"current_range_meters":14400,"station_id":"ce4bhs92rcd13ifvqi0g","pricing_plan_id":"free"},{"bike_id":"2b484e59-19eb-437e-9314-3ae7072288ee","system_id":"levelo_inurba_marseille","lat":43.29702,"lon":5.36613,"is_reserved":false,"is_disabled":false,"rental_uris":{"android":"levelo://app?vid=2b484e59-19eb-437e-9314-3ae7072288ee","ios":"levelo://app?vid=2b484e59-19eb-437e-9314-3ae7072288ee"},"vehicle_type_id":"4","last_reported":1700395895,"current_range_meters":11600,"station_id":"ce4bgn12rcd13ifvqbt0","pricing_plan_id":"free"},{"bike_id":"1792ae9d-06da-4fcb-8b2e-4817dbf84e32","system_id":"levelo_inurba_marseille","lat":43.2968,"lon":5.37291,"is_reserved":false,"is_disabled":false,"rental_uris":{"android":"levelo://app?vid=1792ae9d-06da-4fcb-8b2e-4817dbf84e32","ios":"levelo://app?vid=1792ae9d-06da-4fcb-8b2e-4817dbf84e32"},"vehicle_type_id":"4","last_reported":1700395895,"current_range_meters":9200,"station_id":"ce4bgk12rcd13ifvqbj0","pricing_plan_id":"free"},{"bike_id":"2a07802c-16d5-4104-9ab3-93ca6dd62601","system_id":"levelo_inurba_marseille","lat":43.29601,"lon":5.368027,"is_reserved":false,"is_disabled":false,"rental_uris":{"android":"levelo://app?vid=2a07802c-16d5-4104-9ab3-93ca6dd62601","ios":"levelo://app?vid=2a07802c-16d5-4104-9ab3-93ca6dd62601"},"vehicle_type_id":"4","last_reported":1700395895,"current_range_meters":26800,"station_id":"","pricing_plan_id":"free"},{"bike_id":"ca2e4849-438a-49a4-b89a-732d22d7b98b","system_id":"levelo_inurba_marseille","lat":43.298037,"lon":5.381066,"is_reserved":false,"is_disabled":false,"rental_uris":{"android":"levelo://app?vid=ca2e4849-438a-49a4-b89a-732d22d7b98b","ios":"levelo://app?vid=ca2e4849-438a-49a4-b89a-732d22d7b98b"},"vehicle_type_id":"4","last_reported":1700395895,"current_range_meters":2000,"station_id":"ce4bgip2rcd13ifvqbb0","pricing_plan_id":"free"},{"bike_id":"67ffd28a-0325-489b-a10f-d90500122751","system_id":"levelo_inurba_marseille","lat":43.295748,"lon":5.37522,"is_reserved":false,"is_disabled":false,"rental_uris":{"android":"levelo://app?vid=67ffd28a-0325-489b-a10f-d90500122751","ios":"levelo://app?vid=67ffd28a-0325-489b-a10f-d90500122751"},"vehicle_type_id":"4","last_reported":1700395895,"current_range_meters":30000,"station_id":"ce4bgh92rcd13ifvqb50","pricing_plan_id":"free"},{"bike_id":"3e3e92fe-39b7-4933-99ff-3747b28b5d69","system_id":"levelo_inurba_marseille","lat":43.328154,"lon":5.380034,"is_reserved":false,"is_disabled":false,"rental_uris":{"android":"levelo://app?vid=3e3e92fe-39b7-4933-99ff-3747b28b5d69","ios":"levelo://app?vid=3e3e92fe-39b7-4933-99ff-3747b28b5d69"},"vehicle_type_id":"4","last_reported":1700395895,"current_range_meters":6000,"station_id":"","pricing_plan_id":"free"},{"bike_id":"1f22b926-589f-48b9-ae0d-8ef6458b24b7","system_id":"levelo_inurba_marseille","lat":43.29619,"lon":5.37731,"is_reserved":false,"is_disabled":false,"rental_uris":{"android":"levelo://app?vid=1f22b926-589f-48b9-ae0d-8ef6458b24b7","ios":"levelo://app?vid=1f22b926-589f-48b9-ae0d-8ef6458b24b7"},"vehicle_type_id":"4","last_reported":1700395895,"current_range_meters":0,"station_id":"ce4bgi92rcd13ifvqb90","pricing_plan_id":"free"},{"bike_id":"d28adcae-53c4-4533-b2be-357a0d11b08b","system_id":"levelo_inurba_marseille","lat":43.29599,"lon":5.37717,"is_reserved":false,"is_disabled":false,"rental_uris":{"android":"levelo://app?vid=d28adcae-53c4-4533-b2be-357a0d11b08b","ios":"levelo://app?vid=d28adcae-53c4-4533-b2be-357a0d11b08b"},"vehicle_type_id":"4","last_reported":1700395895,"current_range_meters":0,"station_id":"ce4bgi92rcd13ifvqb90","pricing_plan_id":"free"},{"bike_id":"c1d515be-ea7b-4d31-8c6d-8bdca8b03e41","system_id":"levelo_inurba_marseille","lat":43.295279,"lon":5.375048,"is_reserved":false,"is_disabled":false,"rental_uris":{"android":"levelo://app?vid=c1d515be-ea7b-4d31-8c6d-8bdca8b03e41","ios":"levelo://app?vid=c1d515be-ea7b-4d31-8c6d-8bdca8b03e41"},"vehicle_type_id":"4","last_reported":1700395895,"current_range_meters":0,"station_id":"ce4bgkp2rcd13ifvqbmg","pricing_plan_id":"free"},{"bike_id":"e145a3f7-00ac-4f8f-bfe5-435bc38ccaf7","system_id":"levelo_inurba_marseille","lat":43.293801,"lon":5.363066,"is_reserved":false,"is_disabled":false,"rental_uris":{"android":"levelo://app?vid=e145a3f7-00ac-4f8f-bfe5-435bc38ccaf7","ios":"levelo://app?vid=e145a3f7-00ac-4f8f-bfe5-435bc38ccaf7"},"vehicle_type_id":"4","last_reported":1700395895,"current_range_meters":24000,"station_id":"","pricing_plan_id":"free"},{"bike_id":"4eef38cc-64cf-4f4d-8d5b-99bd9d3b1b37","system_id":"levelo_inurba_marseille","lat":43.293214,"lon":5.371116,"is_reserved":false,"is_disabled":false,"rental_uris":{"android":"levelo://app?vid=4eef38cc-64cf-4f4d-8d5b-99bd9d3b1b37","ios":"levelo://app?vid=4eef38cc-64cf-4f4d-8d5b-99bd9d3b1b37"},"vehicle_type_id":"4","last_reported":1700395895,"current_range_meters":24800,"station_id":"","pricing_plan_id":"free"},{"bike_id":"8dfea7be-2985-4ef5-8190-f28a5c72bb07","system_id":"levelo_inurba_marseille","lat":43.292311,"lon":5.360731,"is_reserved":false,"is_disabled":false,"rental_uris":{"android":"levelo://app?vid=8dfea7be-2985-4ef5-8190-f28a5c72bb07","ios":"levelo://app?vid=8dfea7be-2985-4ef5-8190-f28a5c72bb07"},"vehicle_type_id":"4","last_reported":1700395895,"current_range_meters":22800,"station_id":"ce4bhbh2rcd13ifvqeqg","pricing_plan_id":"free"},{"bike_id":"f31c7210-83e1-449c-aaed-bb21faac2f2b","system_id":"levelo_inurba_marseille","lat":43.2923,"lon":5.3607,"is_reserved":false,"is_disabled":false,"rental_uris":{"android":"levelo://app?vid=f31c7210-83e1-449c-aaed-bb21faac2f2b","ios":"levelo://app?vid=f31c7210-83e1-449c-aaed-bb21faac2f2b"},"vehicle_type_id":"4","last_reported":1700395895,"current_range_meters":28400,"station_id":"ce4bhbh2rcd13ifvqeqg","pricing_plan_id":"free"},{"bike_id":"30104dd5-3056-4eed-84f8-a56c0c4561a9","system_id":"levelo_inurba_marseille","lat":43.313291,"lon":5.396838,"is_reserved":false,"is_disabled":false,"rental_uris":{"android":"levelo://app?vid=30104dd5-3056-4eed-84f8-a56c0c4561a9","ios":"levelo://app?vid=30104dd5-3056-4eed-84f8-a56c0c4561a9"},"vehicle_type_id":"4","last_reported":1700395895,"current_range_meters":16400,"station_id":"ce4bgvp2rcd13ifvqcu0","pricing_plan_id":"free"},{"bike_id":"ef903cad-49cd-4482-a6da-32cd6c0c4627","system_id":"levelo_inurba_marseille","lat":43.30883,"lon":5.39653,"is_reserved":false,"is_disabled":false,"rental_uris":{"android":"levelo://app?vid=ef903cad-49cd-4482-a6da-32cd6c0c4627","ios":"levelo://app?vid=ef903cad-49cd-4482-a6da-32cd6c0c4627"},"vehicle_type_id":"4","last_reported":1700395895,"current_range_meters":25600,"station_id":"ce4bh012rcd13ifvqcv0","pricing_plan_id":"free"},{"bike_id":"07202f70-50d7-46f0-a5bd-59712659d6a0","system_id":"levelo_inurba_marseille","lat":43.31251,"lon":5.40162,"is_reserved":false,"is_disabled":false,"rental_uris":{"android":"levelo://app?vid=07202f70-50d7-46f0-a5bd-59712659d6a0","ios":"levelo://app?vid=07202f70-50d7-46f0-a5bd-59712659d6a0"},"vehicle_type_id":"4","last_reported":1700395895,"current_range_meters":11200,"station_id":"","pricing_plan_id":"free"},{"bike_id":"4b839fc0-878b-4eed-9fc2-f5225b4f213c","system_id":"levelo_inurba_marseille","lat":43.31272,"lon":5.40174,"is_reserved":false,"is_disabled":false,"rental_uris":{"android":"levelo://app?vid=4b839fc0-878b-4eed-9fc2-f5225b4f213c","ios":"levelo://app?vid=4b839fc0-878b-4eed-9fc2-f5225b4f213c"},"vehicle_type_id":"4","last_reported":1700395895,"current_range_meters":0,"station_id":"ce4bh092rcd13ifvqd30","pricing_plan_id":"free"},{"bike_id":"46509513-12f0-4bae-91ab-3b5bb7ed22cf","system_id":"levelo_inurba_marseille","lat":43.337744,"lon":5.374269,"is_reserved":false,"is_disabled":false,"rental_uris":{"android":"levelo://app?vid=46509513-12f0-4bae-91ab-3b5bb7ed22cf","ios":"levelo://app?vid=46509513-12f0-4bae-91ab-3b5bb7ed22cf"},"vehicle_type_id":"4","last_reported":1700395895,"current_range_meters":19200,"station_id":"","pricing_plan_id":"free"},{"bike_id":"daee28c8-64ab-4705-93f8-50792f277620","system_id":"levelo_inurba_marseille","lat":43.28727,"lon":5.36078,"is_reserved":false,"is_disabled":false,"rental_uris":{"android":"levelo://app?vid=daee28c8-64ab-4705-93f8-50792f277620","ios":"levelo://app?vid=daee28c8-64ab-4705-93f8-50792f277620"},"vehicle_type_id":"4","last_reported":1700395895,"current_range_meters":31200,"station_id":"cki0cbj6b192h4jlfktg","pricing_plan_id":"free"},{"bike_id":"9dd91ed9-770f-44d1-960f-c348327b5119","system_id":"levelo_inurba_marseille","lat":43.298681,"lon":5.397225,"is_reserved":false,"is_disabled":false,"rental_uris":{"android":"levelo://app?vid=9dd91ed9-770f-44d1-960f-c348327b5119","ios":"levelo://app?vid=9dd91ed9-770f-44d1-960f-c348327b5119"},"vehicle_type_id":"4","last_reported":1700395895,"current_range_meters":14000,"station_id":"ce4bh0h2rcd13ifvqd50","pricing_plan_id":"free"},{"bike_id":"4d3ca9b2-6fb8-4c8f-8896-6183a08dd904","system_id":"levelo_inurba_marseille","lat":43.298681,"lon":5.397225,"is_reserved":false,"is_disabled":false,"rental_uris":{"android":"levelo://app?vid=4d3ca9b2-6fb8-4c8f-8896-6183a08dd904","ios":"levelo://app?vid=4d3ca9b2-6fb8-4c8f-8896-6183a08dd904"},"vehicle_type_id":"4","last_reported":1700395895,"current_range_meters":25200,"station_id":"ce4bh0h2rcd13ifvqd50","pricing_plan_id":"free"},{"bike_id":"7669793d-cce0-42f0-b58a-cb2df0a6ff50","system_id":"levelo_inurba_marseille","lat":43.298681,"lon":5.397225,"is_reserved":false,"is_disabled":false,"rental_uris":{"android":"levelo://app?vid=7669793d-cce0-42f0-b58a-cb2df0a6ff50","ios":"levelo://app?vid=7669793d-cce0-42f0-b58a-cb2df0a6ff50"},"vehicle_type_id":"4","last_reported":1700395895,"current_range_meters":26000,"station_id":"ce4bh0h2rcd13ifvqd50","pricing_plan_id":"free"},{"bike_id":"5bdb595c-0edf-4f8b-836c-c2fd68ad7bf9","system_id":"levelo_inurba_marseille","lat":43.286961,"lon":5.373785,"is_reserved":false,"is_disabled":false,"rental_uris":{"android":"levelo://app?vid=5bdb595c-0edf-4f8b-836c-c2fd68ad7bf9","ios":"levelo://app?vid=5bdb595c-0edf-4f8b-836c-c2fd68ad7bf9"},"vehicle_type_id":"4","last_reported":1700395895,"current_range_meters":9200,"station_id":"ce4bh3p2rcd13ifvqdq0","pricing_plan_id":"free"},{"bike_id":"c514866a-afb7-41b8-af54-0c1b27d2d59b","system_id":"levelo_inurba_marseille","lat":43.29035,"lon":5.3865,"is_reserved":false,"is_disabled":false,"rental_uris":{"android":"levelo://app?vid=c514866a-afb7-41b8-af54-0c1b27d2d59b","ios":"levelo://app?vid=c514866a-afb7-41b8-af54-0c1b27d2d59b"},"vehicle_type_id":"4","last_reported":1700395895,"current_range_meters":29200,"station_id":"ce4bh4p2rcd13ifvqe0g","pricing_plan_id":"free"},{"bike_id":"eabad27d-57e7-4aca-b875-79f0f04318c5","system_id":"levelo_inurba_marseille","lat":43.29026,"lon":5.38646,"is_reserved":false,"is_disabled":false,"rental_uris":{"android":"levelo://app?vid=eabad27d-57e7-4aca-b875-79f0f04318c5","ios":"levelo://app?vid=eabad27d-57e7-4aca-b875-79f0f04318c5"},"vehicle_type_id":"4","last_reported":1700395895,"current_range_meters":20400,"station_id":"ce4bh4p2rcd13ifvqe0g","pricing_plan_id":"free"},{"bike_id":"6507c740-2946-445d-a535-95ad21d952df","system_id":"levelo_inurba_marseille","lat":43.285856,"lon":5.350771,"is_reserved":false,"is_disabled":false,"rental_uris":{"android":"levelo://app?vid=6507c740-2946-445d-a535-95ad21d952df","ios":"levelo://app?vid=6507c740-2946-445d-a535-95ad21d952df"},"vehicle_type_id":"4","last_reported":1700395895,"current_range_meters":16400,"station_id":"ce4bhch2rcd13ifvqeug","pricing_plan_id":"free"},{"bike_id":"7dc076e8-da24-483f-935a-40c47f04349c","system_id":"levelo_inurba_marseille","lat":43.28615,"lon":5.35105,"is_reserved":false,"is_disabled":false,"rental_uris":{"android":"levelo://app?vid=7dc076e8-da24-483f-935a-40c47f04349c","ios":"levelo://app?vid=7dc076e8-da24-483f-935a-40c47f04349c"},"vehicle_type_id":"4","last_reported":1700395895,"current_range_meters":0,"station_id":"ce4bhch2rcd13ifvqeug","pricing_plan_id":"free"},{"bike_id":"0dc21920-3397-4fee-89c9-e2c2b68646c9","system_id":"levelo_inurba_marseille","lat":43.286153,"lon":5.351009,"is_reserved":false,"is_disabled":false,"rental_uris":{"android":"levelo://app?vid=0dc21920-3397-4fee-89c9-e2c2b68646c9","ios":"levelo://app?vid=0dc21920-3397-4fee-89c9-e2c2b68646c9"},"vehicle_type_id":"4","last_reported":1700395895,"current_range_meters":4400,"station_id":"ce4bhch2rcd13ifvqeug","pricing_plan_id":"free"},{"bike_id":"39d57ba8-1c9d-41ba-8ae8-ead2a13492f7","system_id":"levelo_inurba_marseille","lat":43.319179,"lon":5.407725,"is_reserved":false,"is_disabled":false,"rental_uris":{"android":"levelo://app?vid=39d57ba8-1c9d-41ba-8ae8-ead2a13492f7","ios":"levelo://app?vid=39d57ba8-1c9d-41ba-8ae8-ead2a13492f7"},"vehicle_type_id":"4","last_reported":1700395895,"current_range_meters":26000,"station_id":"ce4bhq12rcd13ifvqhig","pricing_plan_id":"free"},{"bike_id":"76fd3c20-7e7a-4fc5-97ea-29ed988a42e5","system_id":"levelo_inurba_marseille","lat":43.319179,"lon":5.407725,"is_reserved":false,"is_disabled":false,"rental_uris":{"android":"levelo://app?vid=76fd3c20-7e7a-4fc5-97ea-29ed988a42e5","ios":"levelo://app?vid=76fd3c20-7e7a-4fc5-97ea-29ed988a42e5"},"vehicle_type_id":"4","last_reported":1700395895,"current_range_meters":16400,"station_id":"ce4bhq12rcd13ifvqhig","pricing_plan_id":"free"},{"bike_id":"98553aa2-25cb-4ed9-ba2a-005e74f1b23f","system_id":"levelo_inurba_marseille","lat":43.319179,"lon":5.407725,"is_reserved":false,"is_disabled":false,"rental_uris":{"android":"levelo://app?vid=98553aa2-25cb-4ed9-ba2a-005e74f1b23f","ios":"levelo://app?vid=98553aa2-25cb-4ed9-ba2a-005e74f1b23f"},"vehicle_type_id":"4","last_reported":1700395895,"current_range_meters":27600,"station_id":"ce4bhq12rcd13ifvqhig","pricing_plan_id":"free"},{"bike_id":"5974ad3b-da81-42ca-a08b-1b3632a47afa","system_id":"levelo_inurba_marseille","lat":43.33237,"lon":5.3985,"is_reserved":false,"is_disabled":false,"rental_uris":{"android":"levelo://app?vid=5974ad3b-da81-42ca-a08b-1b3632a47afa","ios":"levelo://app?vid=5974ad3b-da81-42ca-a08b-1b3632a47afa"},"vehicle_type_id":"4","last_reported":1700395895,"current_range_meters":1600,"station_id":"","pricing_plan_id":"free"},{"bike_id":"a08607c1-816a-491b-a085-3077fb7fb178","system_id":"levelo_inurba_marseille","lat":43.323464,"lon":5.406297,"is_reserved":false,"is_disabled":false,"rental_uris":{"android":"levelo://app?vid=a08607c1-816a-491b-a085-3077fb7fb178","ios":"levelo://app?vid=a08607c1-816a-491b-a085-3077fb7fb178"},"vehicle_type_id":"4","last_reported":1700395895,"current_range_meters":30000,"station_id":"ce4bhq92rcd13ifvqhjg","pricing_plan_id":"free"},{"bike_id":"d6f7df67-d5bc-4965-8f64-d16233b17328","system_id":"levelo_inurba_marseille","lat":43.284787,"lon":5.384116,"is_reserved":false,"is_disabled":false,"rental_uris":{"android":"levelo://app?vid=d6f7df67-d5bc-4965-8f64-d16233b17328","ios":"levelo://app?vid=d6f7df67-d5bc-4965-8f64-d16233b17328"},"vehicle_type_id":"4","last_reported":1700395895,"current_range_meters":20400,"station_id":"ce4bh512rcd13ifvqe3g","pricing_plan_id":"free"},{"bike_id":"11a3c6db-d108-4aa8-843b-03a76cf7cdc8","system_id":"levelo_inurba_marseille","lat":43.284787,"lon":5.384116,"is_reserved":false,"is_disabled":false,"rental_uris":{"android":"levelo://app?vid=11a3c6db-d108-4aa8-843b-03a76cf7cdc8","ios":"levelo://app?vid=11a3c6db-d108-4aa8-843b-03a76cf7cdc8"},"vehicle_type_id":"4","last_reported":1700395895,"current_range_meters":8000,"station_id":"ce4bh512rcd13ifvqe3g","pricing_plan_id":"free"},{"bike_id":"97067c65-aebd-48b1-bedc-56d6aaffca6e","system_id":"levelo_inurba_marseille","lat":43.29795,"lon":5.404086,"is_reserved":false,"is_disabled":false,"rental_uris":{"android":"levelo://app?vid=97067c65-aebd-48b1-bedc-56d6aaffca6e","ios":"levelo://app?vid=97067c65-aebd-48b1-bedc-56d6aaffca6e"},"vehicle_type_id":"4","last_reported":1700395895,"current_range_meters":30400,"station_id":"ce4bh112rcd13ifvqd90","pricing_plan_id":"free"},{"bike_id":"d3dd3e3d-57b0-4c9e-949f-fddd56c2349c","system_id":"levelo_inurba_marseille","lat":43.32521,"lon":5.40575,"is_reserved":false,"is_disabled":false,"rental_uris":{"android":"levelo://app?vid=d3dd3e3d-57b0-4c9e-949f-fddd56c2349c","ios":"levelo://app?vid=d3dd3e3d-57b0-4c9e-949f-fddd56c2349c"},"vehicle_type_id":"4","last_reported":1700395895,"current_range_meters":0,"station_id":"","pricing_plan_id":"free"},{"bike_id":"e1ef215b-5a47-4c3a-9fe4-a2b6649b1ae3","system_id":"levelo_inurba_marseille","lat":43.2842,"lon":5.34984,"is_reserved":false,"is_disabled":false,"rental_uris":{"android":"levelo://app?vid=e1ef215b-5a47-4c3a-9fe4-a2b6649b1ae3","ios":"levelo://app?vid=e1ef215b-5a47-4c3a-9fe4-a2b6649b1ae3"},"vehicle_type_id":"4","last_reported":1700395895,"current_range_meters":16400,"station_id":"ce4bhbh2rcd13ifvqepg","pricing_plan_id":"free"},{"bike_id":"d81cd3d9-288f-4705-814c-c631fc49529b","system_id":"levelo_inurba_marseille","lat":43.28417,"lon":5.34987,"is_reserved":false,"is_disabled":false,"rental_uris":{"android":"levelo://app?vid=d81cd3d9-288f-4705-814c-c631fc49529b","ios":"levelo://app?vid=d81cd3d9-288f-4705-814c-c631fc49529b"},"vehicle_type_id":"4","last_reported":1700395895,"current_range_meters":24000,"station_id":"ce4bhbh2rcd13ifvqepg","pricing_plan_id":"free"},{"bike_id":"fd18f911-f6fa-447f-ab6b-d31bc739203f","system_id":"levelo_inurba_marseille","lat":43.28419,"lon":5.34974,"is_reserved":false,"is_disabled":false,"rental_uris":{"android":"levelo://app?vid=fd18f911-f6fa-447f-ab6b-d31bc739203f","ios":"levelo://app?vid=fd18f911-f6fa-447f-ab6b-d31bc739203f"},"vehicle_type_id":"4","last_reported":1700395895,"current_range_meters":0,"station_id":"ce4bhbh2rcd13ifvqepg","pricing_plan_id":"free"},{"bike_id":"d2cfcbbe-29c5-45c4-8879-12f0bcb038ad","system_id":"levelo_inurba_marseille","lat":43.28415,"lon":5.34976,"is_reserved":false,"is_disabled":false,"rental_uris":{"android":"levelo://app?vid=d2cfcbbe-29c5-45c4-8879-12f0bcb038ad","ios":"levelo://app?vid=d2cfcbbe-29c5-45c4-8879-12f0bcb038ad"},"vehicle_type_id":"4","last_reported":1700395895,"current_range_meters":22800,"station_id":"ce4bhbh2rcd13ifvqepg","pricing_plan_id":"free"},{"bike_id":"ada08e7e-6479-4b8e-b7d5-a074e9bcd7e6","system_id":"levelo_inurba_marseille","lat":43.28413,"lon":5.3498,"is_reserved":false,"is_disabled":false,"rental_uris":{"android":"levelo://app?vid=ada08e7e-6479-4b8e-b7d5-a074e9bcd7e6","ios":"levelo://app?vid=ada08e7e-6479-4b8e-b7d5-a074e9bcd7e6"},"vehicle_type_id":"4","last_reported":1700395895,"current_range_meters":17600,"station_id":"ce4bhbh2rcd13ifvqepg","pricing_plan_id":"free"},{"bike_id":"e0361c48-b423-4ad9-9a75-f706669fab4e","system_id":"levelo_inurba_marseille","lat":43.284129,"lon":5.349801,"is_reserved":false,"is_disabled":false,"rental_uris":{"android":"levelo://app?vid=e0361c48-b423-4ad9-9a75-f706669fab4e","ios":"levelo://app?vid=e0361c48-b423-4ad9-9a75-f706669fab4e"},"vehicle_type_id":"4","last_reported":1700395895,"current_range_meters":0,"station_id":"ce4bhbh2rcd13ifvqepg","pricing_plan_id":"free"},{"bike_id":"f0a08d99-2a75-4899-96cc-12e41b2ce57f","system_id":"levelo_inurba_marseille","lat":43.286595,"lon":5.386795,"is_reserved":false,"is_disabled":false,"rental_uris":{"android":"levelo://app?vid=f0a08d99-2a75-4899-96cc-12e41b2ce57f","ios":"levelo://app?vid=f0a08d99-2a75-4899-96cc-12e41b2ce57f"},"vehicle_type_id":"4","last_reported":1700395895,"current_range_meters":5200,"station_id":"ce4bh492rcd13ifvqdug","pricing_plan_id":"free"},{"bike_id":"998b8e62-f2d2-4c5a-ad4f-21bc990cc804","system_id":"levelo_inurba_marseille","lat":43.283502,"lon":5.386471,"is_reserved":false,"is_disabled":false,"rental_uris":{"android":"levelo://app?vid=998b8e62-f2d2-4c5a-ad4f-21bc990cc804","ios":"levelo://app?vid=998b8e62-f2d2-4c5a-ad4f-21bc990cc804"},"vehicle_type_id":"4","last_reported":1700395895,"current_range_meters":24400,"station_id":"ce4bh492rcd13ifvqdvg","pricing_plan_id":"free"},{"bike_id":"3a8aae9f-dbfa-4d3e-9a77-d1ed3703f05b","system_id":"levelo_inurba_marseille","lat":43.282744,"lon":5.350533,"is_reserved":false,"is_disabled":false,"rental_uris":{"android":"levelo://app?vid=3a8aae9f-dbfa-4d3e-9a77-d1ed3703f05b","ios":"levelo://app?vid=3a8aae9f-dbfa-4d3e-9a77-d1ed3703f05b"},"vehicle_type_id":"4","last_reported":1700395895,"current_range_meters":16400,"station_id":"ce4bhbp2rcd13ifvqerg","pricing_plan_id":"free"},{"bike_id":"acdca312-8114-49d2-bf93-c86bb099afd3","system_id":"levelo_inurba_marseille","lat":43.282744,"lon":5.350533,"is_reserved":false,"is_disabled":false,"rental_uris":{"android":"levelo://app?vid=acdca312-8114-49d2-bf93-c86bb099afd3","ios":"levelo://app?vid=acdca312-8114-49d2-bf93-c86bb099afd3"},"vehicle_type_id":"4","last_reported":1700395895,"current_range_meters":0,"station_id":"ce4bhbp2rcd13ifvqerg","pricing_plan_id":"free"},{"bike_id":"62188278-076a-465c-a3fb-f411991e17cf","system_id":"levelo_inurba_marseille","lat":43.282744,"lon":5.350533,"is_reserved":false,"is_disabled":false,"rental_uris":{"android":"levelo://app?vid=62188278-076a-465c-a3fb-f411991e17cf","ios":"levelo://app?vid=62188278-076a-465c-a3fb-f411991e17cf"},"vehicle_type_id":"4","last_reported":1700395895,"current_range_meters":26000,"station_id":"ce4bhbp2rcd13ifvqerg","pricing_plan_id":"free"},{"bike_id":"f1d88964-3458-4adb-8880-435d0b6a4df6","system_id":"levelo_inurba_marseille","lat":43.290412,"lon":5.399633,"is_reserved":false,"is_disabled":false,"rental_uris":{"android":"levelo://app?vid=f1d88964-3458-4adb-8880-435d0b6a4df6","ios":"levelo://app?vid=f1d88964-3458-4adb-8880-435d0b6a4df6"},"vehicle_type_id":"4","last_reported":1700395895,"current_range_meters":28800,"station_id":"ce4bh392rcd13ifvqdm0","pricing_plan_id":"free"},{"bike_id":"774e0f9a-b3fe-4ae4-acee-6b92a012ed8e","system_id":"levelo_inurba_marseille","lat":43.281044,"lon":5.378308,"is_reserved":false,"is_disabled":false,"rental_uris":{"android":"levelo://app?vid=774e0f9a-b3fe-4ae4-acee-6b92a012ed8e","ios":"levelo://app?vid=774e0f9a-b3fe-4ae4-acee-6b92a012ed8e"},"vehicle_type_id":"4","last_reported":1700395895,"current_range_meters":5600,"station_id":"ce4bha12rcd13ifvqee0","pricing_plan_id":"free"},{"bike_id":"20afe71b-e308-4e10-96d1-c6ba9740cfcc","system_id":"levelo_inurba_marseille","lat":43.28045,"lon":5.35332,"is_reserved":false,"is_disabled":false,"rental_uris":{"android":"levelo://app?vid=20afe71b-e308-4e10-96d1-c6ba9740cfcc","ios":"levelo://app?vid=20afe71b-e308-4e10-96d1-c6ba9740cfcc"},"vehicle_type_id":"4","last_reported":1700395895,"current_range_meters":26400,"station_id":"","pricing_plan_id":"free"},{"bike_id":"ccf9b17e-2fb6-47d5-b5cb-73ea08fcb6e5","system_id":"levelo_inurba_marseille","lat":43.28575,"lon":5.39498,"is_reserved":false,"is_disabled":false,"rental_uris":{"android":"levelo://app?vid=ccf9b17e-2fb6-47d5-b5cb-73ea08fcb6e5","ios":"levelo://app?vid=ccf9b17e-2fb6-47d5-b5cb-73ea08fcb6e5"},"vehicle_type_id":"4","last_reported":1700395895,"current_range_meters":0,"station_id":"ce4bh292rcd13ifvqdg0","pricing_plan_id":"free"},{"bike_id":"cb1f1c93-476c-4a2b-bb32-5bb3533a52e2","system_id":"levelo_inurba_marseille","lat":43.279087,"lon":5.380114,"is_reserved":false,"is_disabled":false,"rental_uris":{"android":"levelo://app?vid=cb1f1c93-476c-4a2b-bb32-5bb3533a52e2","ios":"levelo://app?vid=cb1f1c93-476c-4a2b-bb32-5bb3533a52e2"},"vehicle_type_id":"4","last_reported":1700395895,"current_range_meters":14000,"station_id":"ce4bhf92rcd13ifvqf50","pricing_plan_id":"free"},{"bike_id":"044b4dd3-83af-4f5f-af47-abbbd77843c5","system_id":"levelo_inurba_marseille","lat":43.287154,"lon":5.399979,"is_reserved":false,"is_disabled":false,"rental_uris":{"android":"levelo://app?vid=044b4dd3-83af-4f5f-af47-abbbd77843c5","ios":"levelo://app?vid=044b4dd3-83af-4f5f-af47-abbbd77843c5"},"vehicle_type_id":"4","last_reported":1700395895,"current_range_meters":14400,"station_id":"ce4bho92rcd13ifvqh3g","pricing_plan_id":"free"},{"bike_id":"1a66ec51-8872-4bc4-b87a-d78c086073cf","system_id":"levelo_inurba_marseille","lat":43.292664,"lon":5.408166,"is_reserved":false,"is_disabled":false,"rental_uris":{"android":"levelo://app?vid=1a66ec51-8872-4bc4-b87a-d78c086073cf","ios":"levelo://app?vid=1a66ec51-8872-4bc4-b87a-d78c086073cf"},"vehicle_type_id":"4","last_reported":1700395895,"current_range_meters":6800,"station_id":"","pricing_plan_id":"free"},{"bike_id":"ec3d5511-e101-462c-b1f5-b72b05193400","system_id":"levelo_inurba_marseille","lat":43.299577,"lon":5.413277,"is_reserved":false,"is_disabled":false,"rental_uris":{"android":"levelo://app?vid=ec3d5511-e101-462c-b1f5-b72b05193400","ios":"levelo://app?vid=ec3d5511-e101-462c-b1f5-b72b05193400"},"vehicle_type_id":"4","last_reported":1700395895,"current_range_meters":30000,"station_id":"ce4bhp12rcd13ifvqh9g","pricing_plan_id":"free"},{"bike_id":"a0dfccd0-48ee-4fcf-bff2-13ebaed45431","system_id":"levelo_inurba_marseille","lat":43.320045,"lon":5.415046,"is_reserved":false,"is_disabled":false,"rental_uris":{"android":"levelo://app?vid=a0dfccd0-48ee-4fcf-bff2-13ebaed45431","ios":"levelo://app?vid=a0dfccd0-48ee-4fcf-bff2-13ebaed45431"},"vehicle_type_id":"4","last_reported":1700395895,"current_range_meters":29200,"station_id":"ce4bhq92rcd13ifvqhkg","pricing_plan_id":"free"},{"bike_id":"bb1b1bf5-61b6-47ea-a576-47ed5475ce44","system_id":"levelo_inurba_marseille","lat":43.279742,"lon":5.38744,"is_reserved":false,"is_disabled":false,"rental_uris":{"android":"levelo://app?vid=bb1b1bf5-61b6-47ea-a576-47ed5475ce44","ios":"levelo://app?vid=bb1b1bf5-61b6-47ea-a576-47ed5475ce44"},"vehicle_type_id":"4","last_reported":1700395895,"current_range_meters":8000,"station_id":"ce4bhg12rcd13ifvqf80","pricing_plan_id":"free"},{"bike_id":"aaae4dd8-f86d-4097-a5ac-4b32ef8fc770","system_id":"levelo_inurba_marseille","lat":43.279742,"lon":5.38744,"is_reserved":false,"is_disabled":false,"rental_uris":{"android":"levelo://app?vid=aaae4dd8-f86d-4097-a5ac-4b32ef8fc770","ios":"levelo://app?vid=aaae4dd8-f86d-4097-a5ac-4b32ef8fc770"},"vehicle_type_id":"4","last_reported":1700395895,"current_range_meters":26800,"station_id":"ce4bhg12rcd13ifvqf80","pricing_plan_id":"free"},{"bike_id":"8655e4b6-81c9-4131-9eef-e6e7b2ac3d50","system_id":"levelo_inurba_marseille","lat":43.280784,"lon":5.396622,"is_reserved":false,"is_disabled":false,"rental_uris":{"android":"levelo://app?vid=8655e4b6-81c9-4131-9eef-e6e7b2ac3d50","ios":"levelo://app?vid=8655e4b6-81c9-4131-9eef-e6e7b2ac3d50"},"vehicle_type_id":"4","last_reported":1700395895,"current_range_meters":24400,"station_id":"ce4bho12rcd13ifvqh2g","pricing_plan_id":"free"},{"bike_id":"c6788832-3bc0-41bc-81e7-c86f322cdccc","system_id":"levelo_inurba_marseille","lat":43.30351,"lon":5.41884,"is_reserved":false,"is_disabled":false,"rental_uris":{"android":"levelo://app?vid=c6788832-3bc0-41bc-81e7-c86f322cdccc","ios":"levelo://app?vid=c6788832-3bc0-41bc-81e7-c86f322cdccc"},"vehicle_type_id":"4","last_reported":1700395895,"current_range_meters":0,"station_id":"ce4bhop2rcd13ifvqh7g","pricing_plan_id":"free"},{"bike_id":"a2e2442c-585f-43b7-ae25-41e06ef16984","system_id":"levelo_inurba_marseille","lat":43.273613,"lon":5.362705,"is_reserved":false,"is_disabled":false,"rental_uris":{"android":"levelo://app?vid=a2e2442c-585f-43b7-ae25-41e06ef16984","ios":"levelo://app?vid=a2e2442c-585f-43b7-ae25-41e06ef16984"},"vehicle_type_id":"4","last_reported":1700395895,"current_range_meters":14000,"station_id":"ce4bhbh2rcd13ifvqeo0","pricing_plan_id":"free"},{"bike_id":"76b0ee10-caf6-41e9-8efc-b01d696f32ec","system_id":"levelo_inurba_marseille","lat":43.273609,"lon":5.362708,"is_reserved":false,"is_disabled":false,"rental_uris":{"android":"levelo://app?vid=76b0ee10-caf6-41e9-8efc-b01d696f32ec","ios":"levelo://app?vid=76b0ee10-caf6-41e9-8efc-b01d696f32ec"},"vehicle_type_id":"4","last_reported":1700395895,"current_range_meters":11600,"station_id":"ce4bhbh2rcd13ifvqeo0","pricing_plan_id":"free"},{"bike_id":"cc342de7-22d4-4f1d-b8de-efa248efb73c","system_id":"levelo_inurba_marseille","lat":43.273613,"lon":5.362705,"is_reserved":false,"is_disabled":false,"rental_uris":{"android":"levelo://app?vid=cc342de7-22d4-4f1d-b8de-efa248efb73c","ios":"levelo://app?vid=cc342de7-22d4-4f1d-b8de-efa248efb73c"},"vehicle_type_id":"4","last_reported":1700395895,"current_range_meters":2000,"station_id":"ce4bhbh2rcd13ifvqeo0","pricing_plan_id":"free"},{"bike_id":"b7a92934-de30-4179-bc73-5b7805f0251f","system_id":"levelo_inurba_marseille","lat":43.273609,"lon":5.362708,"is_reserved":false,"is_disabled":false,"rental_uris":{"android":"levelo://app?vid=b7a92934-de30-4179-bc73-5b7805f0251f","ios":"levelo://app?vid=b7a92934-de30-4179-bc73-5b7805f0251f"},"vehicle_type_id":"4","last_reported":1700395895,"current_range_meters":0,"station_id":"ce4bhbh2rcd13ifvqeo0","pricing_plan_id":"free"},{"bike_id":"2b211598-c6f8-4e22-9ff6-5fa6873b8d02","system_id":"levelo_inurba_marseille","lat":43.317121,"lon":5.423936,"is_reserved":false,"is_disabled":false,"rental_uris":{"android":"levelo://app?vid=2b211598-c6f8-4e22-9ff6-5fa6873b8d02","ios":"levelo://app?vid=2b211598-c6f8-4e22-9ff6-5fa6873b8d02"},"vehicle_type_id":"4","last_reported":1700395895,"current_range_meters":29200,"station_id":"ce4bhp92rcd13ifvqhbg","pricing_plan_id":"free"},{"bike_id":"eafeb385-8734-4d6e-872f-817338dfdd8c","system_id":"levelo_inurba_marseille","lat":43.317121,"lon":5.423936,"is_reserved":false,"is_disabled":false,"rental_uris":{"android":"levelo://app?vid=eafeb385-8734-4d6e-872f-817338dfdd8c","ios":"levelo://app?vid=eafeb385-8734-4d6e-872f-817338dfdd8c"},"vehicle_type_id":"4","last_reported":1700395895,"current_range_meters":20800,"station_id":"ce4bhp92rcd13ifvqhbg","pricing_plan_id":"free"},{"bike_id":"11029918-c8d9-492d-9f2f-c2e87e6330ec","system_id":"levelo_inurba_marseille","lat":43.27421,"lon":5.3941,"is_reserved":false,"is_disabled":false,"rental_uris":{"android":"levelo://app?vid=11029918-c8d9-492d-9f2f-c2e87e6330ec","ios":"levelo://app?vid=11029918-c8d9-492d-9f2f-c2e87e6330ec"},"vehicle_type_id":"4","last_reported":1700395895,"current_range_meters":11200,"station_id":"ce4bhdp2rcd13ifvqf20","pricing_plan_id":"free"},{"bike_id":"2a7cc644-8f22-4c4c-a64e-ab107532e50a","system_id":"levelo_inurba_marseille","lat":43.295511,"lon":5.422926,"is_reserved":false,"is_disabled":false,"rental_uris":{"android":"levelo://app?vid=2a7cc644-8f22-4c4c-a64e-ab107532e50a","ios":"levelo://app?vid=2a7cc644-8f22-4c4c-a64e-ab107532e50a"},"vehicle_type_id":"4","last_reported":1700395895,"current_range_meters":25200,"station_id":"ce4bhph2rcd13ifvqhdg","pricing_plan_id":"free"},{"bike_id":"abe024ca-cbec-406a-ab12-ef1f44bbe8dc","system_id":"levelo_inurba_marseille","lat":43.295523,"lon":5.422926,"is_reserved":false,"is_disabled":false,"rental_uris":{"android":"levelo://app?vid=abe024ca-cbec-406a-ab12-ef1f44bbe8dc","ios":"levelo://app?vid=abe024ca-cbec-406a-ab12-ef1f44bbe8dc"},"vehicle_type_id":"4","last_reported":1700395895,"current_range_meters":28000,"station_id":"ce4bhph2rcd13ifvqhdg","pricing_plan_id":"free"},{"bike_id":"f8f5619a-a183-461d-b100-453fb972fcd4","system_id":"levelo_inurba_marseille","lat":43.272118,"lon":5.391758,"is_reserved":false,"is_disabled":false,"rental_uris":{"android":"levelo://app?vid=f8f5619a-a183-461d-b100-453fb972fcd4","ios":"levelo://app?vid=f8f5619a-a183-461d-b100-453fb972fcd4"},"vehicle_type_id":"4","last_reported":1700395895,"current_range_meters":20800,"station_id":"ce4bhhp2rcd13ifvqfm0","pricing_plan_id":"free"},{"bike_id":"139753b1-0b83-4c3a-80f1-5052bac15461","system_id":"levelo_inurba_marseille","lat":43.27215,"lon":5.39265,"is_reserved":false,"is_disabled":false,"rental_uris":{"android":"levelo://app?vid=139753b1-0b83-4c3a-80f1-5052bac15461","ios":"levelo://app?vid=139753b1-0b83-4c3a-80f1-5052bac15461"},"vehicle_type_id":"4","last_reported":1700395895,"current_range_meters":8000,"station_id":"","pricing_plan_id":"free"},{"bike_id":"fe139271-7817-4645-9ec4-f7eee743e805","system_id":"levelo_inurba_marseille","lat":43.271896,"lon":5.392307,"is_reserved":false,"is_disabled":false,"rental_uris":{"android":"levelo://app?vid=fe139271-7817-4645-9ec4-f7eee743e805","ios":"levelo://app?vid=fe139271-7817-4645-9ec4-f7eee743e805"},"vehicle_type_id":"4","last_reported":1700395895,"current_range_meters":0,"station_id":"","pricing_plan_id":"free"},{"bike_id":"f0ed4531-078e-42fb-a007-3ed80505eb54","system_id":"levelo_inurba_marseille","lat":43.271891,"lon":5.392412,"is_reserved":false,"is_disabled":false,"rental_uris":{"android":"levelo://app?vid=f0ed4531-078e-42fb-a007-3ed80505eb54","ios":"levelo://app?vid=f0ed4531-078e-42fb-a007-3ed80505eb54"},"vehicle_type_id":"4","last_reported":1700395895,"current_range_meters":3200,"station_id":"","pricing_plan_id":"free"},{"bike_id":"c7758cb2-2a45-4f89-aa5c-0e391d845c76","system_id":"levelo_inurba_marseille","lat":43.326053,"lon":5.429943,"is_reserved":false,"is_disabled":false,"rental_uris":{"android":"levelo://app?vid=c7758cb2-2a45-4f89-aa5c-0e391d845c76","ios":"levelo://app?vid=c7758cb2-2a45-4f89-aa5c-0e391d845c76"},"vehicle_type_id":"4","last_reported":1700395895,"current_range_meters":400,"station_id":"","pricing_plan_id":"free"},{"bike_id":"42871d3b-8c03-490f-baf1-f4b57c44a331","system_id":"levelo_inurba_marseille","lat":43.326569,"lon":5.430586,"is_reserved":false,"is_disabled":false,"rental_uris":{"android":"levelo://app?vid=42871d3b-8c03-490f-baf1-f4b57c44a331","ios":"levelo://app?vid=42871d3b-8c03-490f-baf1-f4b57c44a331"},"vehicle_type_id":"4","last_reported":1700395895,"current_range_meters":15600,"station_id":"","pricing_plan_id":"free"},{"bike_id":"87be04d4-b68d-4ca4-bc75-5865077b920f","system_id":"levelo_inurba_marseille","lat":43.288543,"lon":5.426343,"is_reserved":false,"is_disabled":false,"rental_uris":{"android":"levelo://app?vid=87be04d4-b68d-4ca4-bc75-5865077b920f","ios":"levelo://app?vid=87be04d4-b68d-4ca4-bc75-5865077b920f"},"vehicle_type_id":"4","last_reported":1700395895,"current_range_meters":3200,"station_id":"","pricing_plan_id":"free"},{"bike_id":"15c5419a-b588-4ae6-90bd-54417c6f6978","system_id":"levelo_inurba_marseille","lat":43.308051,"lon":5.43527,"is_reserved":false,"is_disabled":false,"rental_uris":{"android":"levelo://app?vid=15c5419a-b588-4ae6-90bd-54417c6f6978","ios":"levelo://app?vid=15c5419a-b588-4ae6-90bd-54417c6f6978"},"vehicle_type_id":"4","last_reported":1700395895,"current_range_meters":30400,"station_id":"ce4bhph2rcd13ifvqheg","pricing_plan_id":"free"},{"bike_id":"b674d3b6-2b02-4e36-800a-7fb8338a0340","system_id":"levelo_inurba_marseille","lat":43.2656,"lon":5.39,"is_reserved":false,"is_disabled":false,"rental_uris":{"android":"levelo://app?vid=b674d3b6-2b02-4e36-800a-7fb8338a0340","ios":"levelo://app?vid=b674d3b6-2b02-4e36-800a-7fb8338a0340"},"vehicle_type_id":"4","last_reported":1700395895,"current_range_meters":0,"station_id":"ce4bhe12rcd13ifvqf30","pricing_plan_id":"free"},{"bike_id":"d237de6e-9a14-436d-ab51-f37da55b089d","system_id":"levelo_inurba_marseille","lat":43.261892,"lon":5.37445,"is_reserved":false,"is_disabled":false,"rental_uris":{"android":"levelo://app?vid=d237de6e-9a14-436d-ab51-f37da55b089d","ios":"levelo://app?vid=d237de6e-9a14-436d-ab51-f37da55b089d"},"vehicle_type_id":"4","last_reported":1700395895,"current_range_meters":25600,"station_id":"ce4bhgp2rcd13ifvqfc0","pricing_plan_id":"free"},{"bike_id":"42ad4550-6092-4191-8f80-4638657532c1","system_id":"levelo_inurba_marseille","lat":43.26184,"lon":5.37445,"is_reserved":false,"is_disabled":false,"rental_uris":{"android":"levelo://app?vid=42ad4550-6092-4191-8f80-4638657532c1","ios":"levelo://app?vid=42ad4550-6092-4191-8f80-4638657532c1"},"vehicle_type_id":"4","last_reported":1700395895,"current_range_meters":0,"station_id":"","pricing_plan_id":"free"},{"bike_id":"e0a3a3cb-ef6f-49eb-b433-460ff8383670","system_id":"levelo_inurba_marseille","lat":43.26182,"lon":5.37438,"is_reserved":false,"is_disabled":false,"rental_uris":{"android":"levelo://app?vid=e0a3a3cb-ef6f-49eb-b433-460ff8383670","ios":"levelo://app?vid=e0a3a3cb-ef6f-49eb-b433-460ff8383670"},"vehicle_type_id":"4","last_reported":1700395895,"current_range_meters":0,"station_id":"ce4bhgp2rcd13ifvqfc0","pricing_plan_id":"free"},{"bike_id":"5f153f02-c4c9-456b-aa48-aeca587f3139","system_id":"levelo_inurba_marseille","lat":43.261824,"lon":5.374479,"is_reserved":false,"is_disabled":false,"rental_uris":{"android":"levelo://app?vid=5f153f02-c4c9-456b-aa48-aeca587f3139","ios":"levelo://app?vid=5f153f02-c4c9-456b-aa48-aeca587f3139"},"vehicle_type_id":"4","last_reported":1700395895,"current_range_meters":25200,"station_id":"","pricing_plan_id":"free"},{"bike_id":"9e1366d3-2c8d-4c5b-ad69-70c15129aa81","system_id":"levelo_inurba_marseille","lat":43.317104,"lon":5.436818,"is_reserved":false,"is_disabled":false,"rental_uris":{"android":"levelo://app?vid=9e1366d3-2c8d-4c5b-ad69-70c15129aa81","ios":"levelo://app?vid=9e1366d3-2c8d-4c5b-ad69-70c15129aa81"},"vehicle_type_id":"4","last_reported":1700395895,"current_range_meters":29200,"station_id":"ce4bhp92rcd13ifvqhcg","pricing_plan_id":"free"},{"bike_id":"7b0cd522-03bd-4231-9582-3b803edbe4fa","system_id":"levelo_inurba_marseille","lat":43.262012,"lon":5.379307,"is_reserved":false,"is_disabled":false,"rental_uris":{"android":"levelo://app?vid=7b0cd522-03bd-4231-9582-3b803edbe4fa","ios":"levelo://app?vid=7b0cd522-03bd-4231-9582-3b803edbe4fa"},"vehicle_type_id":"4","last_reported":1700395895,"current_range_meters":23600,"station_id":"ce4bhjp2rcd13ifvqg90","pricing_plan_id":"free"},{"bike_id":"f4a2fc63-625f-4b55-a6d6-3e5a80cf60df","system_id":"levelo_inurba_marseille","lat":43.271368,"lon":5.40928,"is_reserved":false,"is_disabled":false,"rental_uris":{"android":"levelo://app?vid=f4a2fc63-625f-4b55-a6d6-3e5a80cf60df","ios":"levelo://app?vid=f4a2fc63-625f-4b55-a6d6-3e5a80cf60df"},"vehicle_type_id":"4","last_reported":1700395895,"current_range_meters":3200,"station_id":"ce4bhl12rcd13ifvqgf0","pricing_plan_id":"free"},{"bike_id":"74ce853b-0d8b-42c9-81c8-17a7564a4b34","system_id":"levelo_inurba_marseille","lat":43.31725,"lon":5.43786,"is_reserved":false,"is_disabled":false,"rental_uris":{"android":"levelo://app?vid=74ce853b-0d8b-42c9-81c8-17a7564a4b34","ios":"levelo://app?vid=74ce853b-0d8b-42c9-81c8-17a7564a4b34"},"vehicle_type_id":"4","last_reported":1700395895,"current_range_meters":14800,"station_id":"","pricing_plan_id":"free"},{"bike_id":"abadc828-69fe-497b-b711-e5360a68b2c4","system_id":"levelo_inurba_marseille","lat":43.29899,"lon":5.43662,"is_reserved":false,"is_disabled":false,"rental_uris":{"android":"levelo://app?vid=abadc828-69fe-497b-b711-e5360a68b2c4","ios":"levelo://app?vid=abadc828-69fe-497b-b711-e5360a68b2c4"},"vehicle_type_id":"4","last_reported":1700395895,"current_range_meters":20800,"station_id":"ce4bhpp2rcd13ifvqhfg","pricing_plan_id":"free"},{"bike_id":"eceaa0f3-52ef-4d0d-b422-04c8e585a271","system_id":"levelo_inurba_marseille","lat":43.28149,"lon":5.42642,"is_reserved":false,"is_disabled":false,"rental_uris":{"android":"levelo://app?vid=eceaa0f3-52ef-4d0d-b422-04c8e585a271","ios":"levelo://app?vid=eceaa0f3-52ef-4d0d-b422-04c8e585a271"},"vehicle_type_id":"4","last_reported":1700395895,"current_range_meters":0,"station_id":"ce4bhnh2rcd13ifvqgug","pricing_plan_id":"free"},{"bike_id":"039398bb-8f48-4a09-90e4-c695a075e1b2","system_id":"levelo_inurba_marseille","lat":43.275028,"lon":5.424534,"is_reserved":false,"is_disabled":false,"rental_uris":{"android":"levelo://app?vid=039398bb-8f48-4a09-90e4-c695a075e1b2","ios":"levelo://app?vid=039398bb-8f48-4a09-90e4-c695a075e1b2"},"vehicle_type_id":"4","last_reported":1700395895,"current_range_meters":30400,"station_id":"ce4bhn92rcd13ifvqgrg","pricing_plan_id":"free"},{"bike_id":"91b3c4bf-7b19-45fb-b809-6f886f9aa480","system_id":"levelo_inurba_marseille","lat":43.275028,"lon":5.424534,"is_reserved":false,"is_disabled":false,"rental_uris":{"android":"levelo://app?vid=91b3c4bf-7b19-45fb-b809-6f886f9aa480","ios":"levelo://app?vid=91b3c4bf-7b19-45fb-b809-6f886f9aa480"},"vehicle_type_id":"4","last_reported":1700395895,"current_range_meters":31200,"station_id":"ce4bhn92rcd13ifvqgrg","pricing_plan_id":"free"},{"bike_id":"31b3c04c-84ab-4864-86d2-f1cb1ec27c19","system_id":"levelo_inurba_marseille","lat":43.2549,"lon":5.37649,"is_reserved":false,"is_disabled":false,"rental_uris":{"android":"levelo://app?vid=31b3c04c-84ab-4864-86d2-f1cb1ec27c19","ios":"levelo://app?vid=31b3c04c-84ab-4864-86d2-f1cb1ec27c19"},"vehicle_type_id":"4","last_reported":1700395895,"current_range_meters":0,"station_id":"ce4bhh12rcd13ifvqff0","pricing_plan_id":"free"},{"bike_id":"4fd7e9f0-ecc5-4c03-95e9-3c5f8bb25355","system_id":"levelo_inurba_marseille","lat":43.25489,"lon":5.37648,"is_reserved":false,"is_disabled":false,"rental_uris":{"android":"levelo://app?vid=4fd7e9f0-ecc5-4c03-95e9-3c5f8bb25355","ios":"levelo://app?vid=4fd7e9f0-ecc5-4c03-95e9-3c5f8bb25355"},"vehicle_type_id":"4","last_reported":1700395895,"current_range_meters":16400,"station_id":"ce4bhh12rcd13ifvqff0","pricing_plan_id":"free"},{"bike_id":"76fef11a-7829-487a-9631-e23115b93199","system_id":"levelo_inurba_marseille","lat":43.25487,"lon":5.37645,"is_reserved":false,"is_disabled":false,"rental_uris":{"android":"levelo://app?vid=76fef11a-7829-487a-9631-e23115b93199","ios":"levelo://app?vid=76fef11a-7829-487a-9631-e23115b93199"},"vehicle_type_id":"4","last_reported":1700395895,"current_range_meters":10800,"station_id":"ce4bhh12rcd13ifvqff0","pricing_plan_id":"free"},{"bike_id":"eda73509-5f55-4b2d-95fc-67f3395f85c0","system_id":"levelo_inurba_marseille","lat":43.25723,"lon":5.41108,"is_reserved":false,"is_disabled":false,"rental_uris":{"android":"levelo://app?vid=eda73509-5f55-4b2d-95fc-67f3395f85c0","ios":"levelo://app?vid=eda73509-5f55-4b2d-95fc-67f3395f85c0"},"vehicle_type_id":"4","last_reported":1700395895,"current_range_meters":0,"station_id":"ce4bhkp2rcd13ifvqgd0","pricing_plan_id":"free"},{"bike_id":"0ed2f0e0-b0bf-48ee-9dfa-f169064f79ef","system_id":"levelo_inurba_marseille","lat":43.24811,"lon":5.3746,"is_reserved":false,"is_disabled":false,"rental_uris":{"android":"levelo://app?vid=0ed2f0e0-b0bf-48ee-9dfa-f169064f79ef","ios":"levelo://app?vid=0ed2f0e0-b0bf-48ee-9dfa-f169064f79ef"},"vehicle_type_id":"4","last_reported":1700395895,"current_range_meters":23600,"station_id":"ce4bhgh2rcd13ifvqfb0","pricing_plan_id":"free"},{"bike_id":"559e2a24-4881-4e63-9618-30da9490b130","system_id":"levelo_inurba_marseille","lat":43.2479,"lon":5.374457,"is_reserved":false,"is_disabled":false,"rental_uris":{"android":"levelo://app?vid=559e2a24-4881-4e63-9618-30da9490b130","ios":"levelo://app?vid=559e2a24-4881-4e63-9618-30da9490b130"},"vehicle_type_id":"4","last_reported":1700395895,"current_range_meters":25200,"station_id":"ce4bhgh2rcd13ifvqfb0","pricing_plan_id":"free"},{"bike_id":"caf4ca60-5fdf-4ae4-ab25-633df6f4634e","system_id":"levelo_inurba_marseille","lat":43.2479,"lon":5.374457,"is_reserved":false,"is_disabled":false,"rental_uris":{"android":"levelo://app?vid=caf4ca60-5fdf-4ae4-ab25-633df6f4634e","ios":"levelo://app?vid=caf4ca60-5fdf-4ae4-ab25-633df6f4634e"},"vehicle_type_id":"4","last_reported":1700395895,"current_range_meters":25200,"station_id":"ce4bhgh2rcd13ifvqfb0","pricing_plan_id":"free"},{"bike_id":"15fb9f3f-1be2-4aa5-9deb-8c9c450e703b","system_id":"levelo_inurba_marseille","lat":43.2479,"lon":5.374457,"is_reserved":false,"is_disabled":false,"rental_uris":{"android":"levelo://app?vid=15fb9f3f-1be2-4aa5-9deb-8c9c450e703b","ios":"levelo://app?vid=15fb9f3f-1be2-4aa5-9deb-8c9c450e703b"},"vehicle_type_id":"4","last_reported":1700395895,"current_range_meters":10400,"station_id":"ce4bhgh2rcd13ifvqfb0","pricing_plan_id":"free"},{"bike_id":"7f88a31d-ca2b-4a7d-9c7c-ddd24ad21f64","system_id":"levelo_inurba_marseille","lat":43.2479,"lon":5.374457,"is_reserved":false,"is_disabled":false,"rental_uris":{"android":"levelo://app?vid=7f88a31d-ca2b-4a7d-9c7c-ddd24ad21f64","ios":"levelo://app?vid=7f88a31d-ca2b-4a7d-9c7c-ddd24ad21f64"},"vehicle_type_id":"4","last_reported":1700395895,"current_range_meters":2000,"station_id":"ce4bhgh2rcd13ifvqfb0","pricing_plan_id":"free"},{"bike_id":"636e98fb-c36f-477b-b6a3-9fb164c3e8b9","system_id":"levelo_inurba_marseille","lat":43.2467,"lon":5.38169,"is_reserved":false,"is_disabled":false,"rental_uris":{"android":"levelo://app?vid=636e98fb-c36f-477b-b6a3-9fb164c3e8b9","ios":"levelo://app?vid=636e98fb-c36f-477b-b6a3-9fb164c3e8b9"},"vehicle_type_id":"4","last_reported":1700395895,"current_range_meters":22400,"station_id":"ce4bhih2rcd13ifvqfr0","pricing_plan_id":"free"},{"bike_id":"c4b96e3d-99d2-4945-8901-d5303dd7ca41","system_id":"levelo_inurba_marseille","lat":43.25102,"lon":5.403214,"is_reserved":false,"is_disabled":false,"rental_uris":{"android":"levelo://app?vid=c4b96e3d-99d2-4945-8901-d5303dd7ca41","ios":"levelo://app?vid=c4b96e3d-99d2-4945-8901-d5303dd7ca41"},"vehicle_type_id":"4","last_reported":1700395895,"current_range_meters":21600,"station_id":"ce4bhlh2rcd13ifvqgig","pricing_plan_id":"free"},{"bike_id":"55332525-fd99-4f08-a2a6-f5e51acf01ac","system_id":"levelo_inurba_marseille","lat":43.2439,"lon":5.37064,"is_reserved":false,"is_disabled":false,"rental_uris":{"android":"levelo://app?vid=55332525-fd99-4f08-a2a6-f5e51acf01ac","ios":"levelo://app?vid=55332525-fd99-4f08-a2a6-f5e51acf01ac"},"vehicle_type_id":"4","last_reported":1700395895,"current_range_meters":14400,"station_id":"ce4bhhh2rcd13ifvqfk0","pricing_plan_id":"free"},{"bike_id":"bcb0d86d-c53a-4f31-ac76-42d49c8c3e2a","system_id":"levelo_inurba_marseille","lat":43.24388,"lon":5.3706,"is_reserved":false,"is_disabled":false,"rental_uris":{"android":"levelo://app?vid=bcb0d86d-c53a-4f31-ac76-42d49c8c3e2a","ios":"levelo://app?vid=bcb0d86d-c53a-4f31-ac76-42d49c8c3e2a"},"vehicle_type_id":"4","last_reported":1700395895,"current_range_meters":6400,"station_id":"ce4bhhh2rcd13ifvqfk0","pricing_plan_id":"free"},{"bike_id":"4a60354d-8aa8-491e-89b2-71e19fe7b17f","system_id":"levelo_inurba_marseille","lat":43.243884,"lon":5.370737,"is_reserved":false,"is_disabled":false,"rental_uris":{"android":"levelo://app?vid=4a60354d-8aa8-491e-89b2-71e19fe7b17f","ios":"levelo://app?vid=4a60354d-8aa8-491e-89b2-71e19fe7b17f"},"vehicle_type_id":"4","last_reported":1700395895,"current_range_meters":6400,"station_id":"ce4bhhh2rcd13ifvqfk0","pricing_plan_id":"free"},{"bike_id":"83ddbacb-8f1f-4732-bd1a-8d0c63301078","system_id":"levelo_inurba_marseille","lat":43.243884,"lon":5.370737,"is_reserved":false,"is_disabled":false,"rental_uris":{"android":"levelo://app?vid=83ddbacb-8f1f-4732-bd1a-8d0c63301078","ios":"levelo://app?vid=83ddbacb-8f1f-4732-bd1a-8d0c63301078"},"vehicle_type_id":"4","last_reported":1700395895,"current_range_meters":14400,"station_id":"ce4bhhh2rcd13ifvqfk0","pricing_plan_id":"free"},{"bike_id":"e4e08e8a-d45b-4ba8-bf1a-f90d159e600c","system_id":"levelo_inurba_marseille","lat":43.2418,"lon":5.39727,"is_reserved":false,"is_disabled":false,"rental_uris":{"android":"levelo://app?vid=e4e08e8a-d45b-4ba8-bf1a-f90d159e600c","ios":"levelo://app?vid=e4e08e8a-d45b-4ba8-bf1a-f90d159e600c"},"vehicle_type_id":"4","last_reported":1700395895,"current_range_meters":17600,"station_id":"ce4bhn12rcd13ifvqgpg","pricing_plan_id":"free"},{"bike_id":"6579e416-2ce8-443d-a73a-886941cc69f8","system_id":"levelo_inurba_marseille","lat":43.241782,"lon":5.397261,"is_reserved":false,"is_disabled":false,"rental_uris":{"android":"levelo://app?vid=6579e416-2ce8-443d-a73a-886941cc69f8","ios":"levelo://app?vid=6579e416-2ce8-443d-a73a-886941cc69f8"},"vehicle_type_id":"4","last_reported":1700395895,"current_range_meters":26400,"station_id":"ce4bhn12rcd13ifvqgpg","pricing_plan_id":"free"},{"bike_id":"4370869b-0c59-4e1b-b4c7-59bf3a7bc50e","system_id":"levelo_inurba_marseille","lat":43.24176,"lon":5.39726,"is_reserved":false,"is_disabled":false,"rental_uris":{"android":"levelo://app?vid=4370869b-0c59-4e1b-b4c7-59bf3a7bc50e","ios":"levelo://app?vid=4370869b-0c59-4e1b-b4c7-59bf3a7bc50e"},"vehicle_type_id":"4","last_reported":1700395895,"current_range_meters":13600,"station_id":"ce4bhn12rcd13ifvqgpg","pricing_plan_id":"free"},{"bike_id":"eee92882-7a80-4fb7-8e3b-6d5c85558114","system_id":"levelo_inurba_marseille","lat":43.241782,"lon":5.397261,"is_reserved":false,"is_disabled":false,"rental_uris":{"android":"levelo://app?vid=eee92882-7a80-4fb7-8e3b-6d5c85558114","ios":"levelo://app?vid=eee92882-7a80-4fb7-8e3b-6d5c85558114"},"vehicle_type_id":"4","last_reported":1700395895,"current_range_meters":22400,"station_id":"ce4bhn12rcd13ifvqgpg","pricing_plan_id":"free"},{"bike_id":"ec62c682-abfa-481a-bb37-e702a24bba76","system_id":"levelo_inurba_marseille","lat":43.231923,"lon":5.355545,"is_reserved":false,"is_disabled":false,"rental_uris":{"android":"levelo://app?vid=ec62c682-abfa-481a-bb37-e702a24bba76","ios":"levelo://app?vid=ec62c682-abfa-481a-bb37-e702a24bba76"},"vehicle_type_id":"4","last_reported":1700395895,"current_range_meters":17600,"station_id":"ce4bhu92rcd13ifvqi70","pricing_plan_id":"free"},{"bike_id":"7a52b81c-52a8-4776-8fd1-69fdad3dee5e","system_id":"levelo_inurba_marseille","lat":43.231923,"lon":5.355545,"is_reserved":false,"is_disabled":false,"rental_uris":{"android":"levelo://app?vid=7a52b81c-52a8-4776-8fd1-69fdad3dee5e","ios":"levelo://app?vid=7a52b81c-52a8-4776-8fd1-69fdad3dee5e"},"vehicle_type_id":"4","last_reported":1700395895,"current_range_meters":5200,"station_id":"ce4bhu92rcd13ifvqi70","pricing_plan_id":"free"},{"bike_id":"37416442-308e-4dea-bd51-2ca12166bbc7","system_id":"levelo_inurba_marseille","lat":43.231923,"lon":5.355545,"is_reserved":false,"is_disabled":false,"rental_uris":{"android":"levelo://app?vid=37416442-308e-4dea-bd51-2ca12166bbc7","ios":"levelo://app?vid=37416442-308e-4dea-bd51-2ca12166bbc7"},"vehicle_type_id":"4","last_reported":1700395895,"current_range_meters":24800,"station_id":"ce4bhu92rcd13ifvqi70","pricing_plan_id":"free"},{"bike_id":"ffa9bbb0-2049-48dc-9860-c3476c934f4b","system_id":"levelo_inurba_marseille","lat":43.231923,"lon":5.355545,"is_reserved":false,"is_disabled":false,"rental_uris":{"android":"levelo://app?vid=ffa9bbb0-2049-48dc-9860-c3476c934f4b","ios":"levelo://app?vid=ffa9bbb0-2049-48dc-9860-c3476c934f4b"},"vehicle_type_id":"4","last_reported":1700395895,"current_range_meters":16800,"station_id":"ce4bhu92rcd13ifvqi70","pricing_plan_id":"free"},{"bike_id":"662f058d-46b1-4787-b52a-d29e98a28779","system_id":"levelo_inurba_marseille","lat":43.231919,"lon":5.355532,"is_reserved":false,"is_disabled":false,"rental_uris":{"android":"levelo://app?vid=662f058d-46b1-4787-b52a-d29e98a28779","ios":"levelo://app?vid=662f058d-46b1-4787-b52a-d29e98a28779"},"vehicle_type_id":"4","last_reported":1700395895,"current_range_meters":31600,"station_id":"ce4bhu92rcd13ifvqi70","pricing_plan_id":"free"},{"bike_id":"8a62ccf4-93c4-408c-8efe-bc9afcdd6a80","system_id":"levelo_inurba_marseille","lat":43.231923,"lon":5.355545,"is_reserved":false,"is_disabled":false,"rental_uris":{"android":"levelo://app?vid=8a62ccf4-93c4-408c-8efe-bc9afcdd6a80","ios":"levelo://app?vid=8a62ccf4-93c4-408c-8efe-bc9afcdd6a80"},"vehicle_type_id":"4","last_reported":1700395895,"current_range_meters":25200,"station_id":"ce4bhu92rcd13ifvqi70","pricing_plan_id":"free"},{"bike_id":"73825668-897d-4ba7-8138-a1757218e46a","system_id":"levelo_inurba_marseille","lat":43.231923,"lon":5.355545,"is_reserved":false,"is_disabled":false,"rental_uris":{"android":"levelo://app?vid=73825668-897d-4ba7-8138-a1757218e46a","ios":"levelo://app?vid=73825668-897d-4ba7-8138-a1757218e46a"},"vehicle_type_id":"4","last_reported":1700395895,"current_range_meters":21200,"station_id":"ce4bhu92rcd13ifvqi70","pricing_plan_id":"free"},{"bike_id":"d4b8beac-e21d-4a32-bc13-6a5c65e2b33e","system_id":"levelo_inurba_marseille","lat":43.231923,"lon":5.355545,"is_reserved":false,"is_disabled":false,"rental_uris":{"android":"levelo://app?vid=d4b8beac-e21d-4a32-bc13-6a5c65e2b33e","ios":"levelo://app?vid=d4b8beac-e21d-4a32-bc13-6a5c65e2b33e"},"vehicle_type_id":"4","last_reported":1700395895,"current_range_meters":12800,"station_id":"ce4bhu92rcd13ifvqi70","pricing_plan_id":"free"},{"bike_id":"b3f28fa0-47fb-43fd-82e6-2a2ef1ac5db0","system_id":"levelo_inurba_marseille","lat":43.231923,"lon":5.355545,"is_reserved":false,"is_disabled":false,"rental_uris":{"android":"levelo://app?vid=b3f28fa0-47fb-43fd-82e6-2a2ef1ac5db0","ios":"levelo://app?vid=b3f28fa0-47fb-43fd-82e6-2a2ef1ac5db0"},"vehicle_type_id":"4","last_reported":1700395895,"current_range_meters":22800,"station_id":"ce4bhu92rcd13ifvqi70","pricing_plan_id":"free"},{"bike_id":"4fc7e59d-8508-422c-8560-7d42e117611d","system_id":"levelo_inurba_marseille","lat":43.231919,"lon":5.355532,"is_reserved":false,"is_disabled":false,"rental_uris":{"android":"levelo://app?vid=4fc7e59d-8508-422c-8560-7d42e117611d","ios":"levelo://app?vid=4fc7e59d-8508-422c-8560-7d42e117611d"},"vehicle_type_id":"4","last_reported":1700395895,"current_range_meters":31200,"station_id":"ce4bhu92rcd13ifvqi70","pricing_plan_id":"free"},{"bike_id":"d8457044-e11e-4159-85e8-e12c29610982","system_id":"levelo_inurba_marseille","lat":43.231919,"lon":5.355532,"is_reserved":false,"is_disabled":false,"rental_uris":{"android":"levelo://app?vid=d8457044-e11e-4159-85e8-e12c29610982","ios":"levelo://app?vid=d8457044-e11e-4159-85e8-e12c29610982"},"vehicle_type_id":"4","last_reported":1700395895,"current_range_meters":10800,"station_id":"ce4bhu92rcd13ifvqi70","pricing_plan_id":"free"},{"bike_id":"9c0d77bd-3dbd-475c-a364-7b66f096a80e","system_id":"levelo_inurba_marseille","lat":43.231923,"lon":5.355545,"is_reserved":false,"is_disabled":false,"rental_uris":{"android":"levelo://app?vid=9c0d77bd-3dbd-475c-a364-7b66f096a80e","ios":"levelo://app?vid=9c0d77bd-3dbd-475c-a364-7b66f096a80e"},"vehicle_type_id":"4","last_reported":1700395895,"current_range_meters":1200,"station_id":"ce4bhu92rcd13ifvqi70","pricing_plan_id":"free"},{"bike_id":"21325b80-6608-4cc8-9abf-9d4d0f8ccd45","system_id":"levelo_inurba_marseille","lat":43.231919,"lon":5.355532,"is_reserved":false,"is_disabled":false,"rental_uris":{"android":"levelo://app?vid=21325b80-6608-4cc8-9abf-9d4d0f8ccd45","ios":"levelo://app?vid=21325b80-6608-4cc8-9abf-9d4d0f8ccd45"},"vehicle_type_id":"4","last_reported":1700395895,"current_range_meters":12800,"station_id":"ce4bhu92rcd13ifvqi70","pricing_plan_id":"free"},{"bike_id":"8455f21a-e0e1-4873-89da-72b3d3b154e0","system_id":"levelo_inurba_marseille","lat":43.231919,"lon":5.355532,"is_reserved":false,"is_disabled":false,"rental_uris":{"android":"levelo://app?vid=8455f21a-e0e1-4873-89da-72b3d3b154e0","ios":"levelo://app?vid=8455f21a-e0e1-4873-89da-72b3d3b154e0"},"vehicle_type_id":"4","last_reported":1700395895,"current_range_meters":31600,"station_id":"ce4bhu92rcd13ifvqi70","pricing_plan_id":"free"},{"bike_id":"67abb360-e18b-4830-85ce-36cc3fad9966","system_id":"levelo_inurba_marseille","lat":43.231919,"lon":5.355532,"is_reserved":false,"is_disabled":false,"rental_uris":{"android":"levelo://app?vid=67abb360-e18b-4830-85ce-36cc3fad9966","ios":"levelo://app?vid=67abb360-e18b-4830-85ce-36cc3fad9966"},"vehicle_type_id":"4","last_reported":1700395895,"current_range_meters":13600,"station_id":"ce4bhu92rcd13ifvqi70","pricing_plan_id":"free"},{"bike_id":"e90e6dbe-4103-4584-a33a-a878da9cf267","system_id":"levelo_inurba_marseille","lat":43.231923,"lon":5.355545,"is_reserved":false,"is_disabled":false,"rental_uris":{"android":"levelo://app?vid=e90e6dbe-4103-4584-a33a-a878da9cf267","ios":"levelo://app?vid=e90e6dbe-4103-4584-a33a-a878da9cf267"},"vehicle_type_id":"4","last_reported":1700395895,"current_range_meters":23200,"station_id":"ce4bhu92rcd13ifvqi70","pricing_plan_id":"free"},{"bike_id":"b0f6b9bb-86ee-4339-b9eb-45755566c908","system_id":"levelo_inurba_marseille","lat":43.231919,"lon":5.355532,"is_reserved":false,"is_disabled":false,"rental_uris":{"android":"levelo://app?vid=b0f6b9bb-86ee-4339-b9eb-45755566c908","ios":"levelo://app?vid=b0f6b9bb-86ee-4339-b9eb-45755566c908"},"vehicle_type_id":"4","last_reported":1700395895,"current_range_meters":18800,"station_id":"ce4bhu92rcd13ifvqi70","pricing_plan_id":"free"},{"bike_id":"e5457ee5-4562-42f5-87e4-f39fc52d5dd8","system_id":"levelo_inurba_marseille","lat":43.231919,"lon":5.355532,"is_reserved":false,"is_disabled":false,"rental_uris":{"android":"levelo://app?vid=e5457ee5-4562-42f5-87e4-f39fc52d5dd8","ios":"levelo://app?vid=e5457ee5-4562-42f5-87e4-f39fc52d5dd8"},"vehicle_type_id":"4","last_reported":1700395895,"current_range_meters":23600,"station_id":"ce4bhu92rcd13ifvqi70","pricing_plan_id":"free"},{"bike_id":"58084edd-aa38-45e0-814b-88dc7d35a228","system_id":"levelo_inurba_marseille","lat":43.231919,"lon":5.355532,"is_reserved":false,"is_disabled":false,"rental_uris":{"android":"levelo://app?vid=58084edd-aa38-45e0-814b-88dc7d35a228","ios":"levelo://app?vid=58084edd-aa38-45e0-814b-88dc7d35a228"},"vehicle_type_id":"4","last_reported":1700395895,"current_range_meters":10400,"station_id":"ce4bhu92rcd13ifvqi70","pricing_plan_id":"free"},{"bike_id":"da9c9aea-c3bc-4a71-a581-942883b36e7a","system_id":"levelo_inurba_marseille","lat":43.231923,"lon":5.355545,"is_reserved":false,"is_disabled":false,"rental_uris":{"android":"levelo://app?vid=da9c9aea-c3bc-4a71-a581-942883b36e7a","ios":"levelo://app?vid=da9c9aea-c3bc-4a71-a581-942883b36e7a"},"vehicle_type_id":"4","last_reported":1700395895,"current_range_meters":21200,"station_id":"ce4bhu92rcd13ifvqi70","pricing_plan_id":"free"},{"bike_id":"d66f08d8-b6e5-4ad9-be4a-5cd3998403dc","system_id":"levelo_inurba_marseille","lat":43.231919,"lon":5.355532,"is_reserved":false,"is_disabled":false,"rental_uris":{"android":"levelo://app?vid=d66f08d8-b6e5-4ad9-be4a-5cd3998403dc","ios":"levelo://app?vid=d66f08d8-b6e5-4ad9-be4a-5cd3998403dc"},"vehicle_type_id":"4","last_reported":1700395895,"current_range_meters":14000,"station_id":"ce4bhu92rcd13ifvqi70","pricing_plan_id":"free"},{"bike_id":"18a2742a-f4bf-49a9-9e2a-88eea5110e55","system_id":"levelo_inurba_marseille","lat":43.231923,"lon":5.355545,"is_reserved":false,"is_disabled":false,"rental_uris":{"android":"levelo://app?vid=18a2742a-f4bf-49a9-9e2a-88eea5110e55","ios":"levelo://app?vid=18a2742a-f4bf-49a9-9e2a-88eea5110e55"},"vehicle_type_id":"4","last_reported":1700395895,"current_range_meters":3600,"station_id":"ce4bhu92rcd13ifvqi70","pricing_plan_id":"free"},{"bike_id":"efe9f44b-467d-42d3-8df0-08df4fdbb017","system_id":"levelo_inurba_marseille","lat":43.231923,"lon":5.355545,"is_reserved":false,"is_disabled":false,"rental_uris":{"android":"levelo://app?vid=efe9f44b-467d-42d3-8df0-08df4fdbb017","ios":"levelo://app?vid=efe9f44b-467d-42d3-8df0-08df4fdbb017"},"vehicle_type_id":"4","last_reported":1700395895,"current_range_meters":24000,"station_id":"ce4bhu92rcd13ifvqi70","pricing_plan_id":"free"},{"bike_id":"342c6487-8835-45bf-9225-57764044268f","system_id":"levelo_inurba_marseille","lat":43.231919,"lon":5.355532,"is_reserved":false,"is_disabled":false,"rental_uris":{"android":"levelo://app?vid=342c6487-8835-45bf-9225-57764044268f","ios":"levelo://app?vid=342c6487-8835-45bf-9225-57764044268f"},"vehicle_type_id":"4","last_reported":1700395895,"current_range_meters":3200,"station_id":"ce4bhu92rcd13ifvqi70","pricing_plan_id":"free"},{"bike_id":"d9fd4f8d-322c-45fe-b651-4a9394dd3741","system_id":"levelo_inurba_marseille","lat":43.231923,"lon":5.355545,"is_reserved":false,"is_disabled":false,"rental_uris":{"android":"levelo://app?vid=d9fd4f8d-322c-45fe-b651-4a9394dd3741","ios":"levelo://app?vid=d9fd4f8d-322c-45fe-b651-4a9394dd3741"},"vehicle_type_id":"4","last_reported":1700395895,"current_range_meters":30400,"station_id":"ce4bhu92rcd13ifvqi70","pricing_plan_id":"free"},{"bike_id":"fb0f70e1-a3d7-4fe8-bb51-a84c80c81d36","system_id":"levelo_inurba_marseille","lat":43.231793,"lon":5.400044,"is_reserved":false,"is_disabled":false,"rental_uris":{"android":"levelo://app?vid=fb0f70e1-a3d7-4fe8-bb51-a84c80c81d36","ios":"levelo://app?vid=fb0f70e1-a3d7-4fe8-bb51-a84c80c81d36"},"vehicle_type_id":"4","last_reported":1700395895,"current_range_meters":11600,"station_id":"ce4bhn12rcd13ifvqgqg","pricing_plan_id":"free"},{"bike_id":"5d8316f4-9b3b-4f22-8b0a-d975b6faa1c0","system_id":"levelo_inurba_marseille","lat":43.231793,"lon":5.400044,"is_reserved":false,"is_disabled":false,"rental_uris":{"android":"levelo://app?vid=5d8316f4-9b3b-4f22-8b0a-d975b6faa1c0","ios":"levelo://app?vid=5d8316f4-9b3b-4f22-8b0a-d975b6faa1c0"},"vehicle_type_id":"4","last_reported":1700395895,"current_range_meters":14800,"station_id":"ce4bhn12rcd13ifvqgqg","pricing_plan_id":"free"},{"bike_id":"fb647ab6-bdfe-4d43-8021-469b840e3f01","system_id":"levelo_inurba_marseille","lat":43.231794,"lon":5.400052,"is_reserved":false,"is_disabled":false,"rental_uris":{"android":"levelo://app?vid=fb647ab6-bdfe-4d43-8021-469b840e3f01","ios":"levelo://app?vid=fb647ab6-bdfe-4d43-8021-469b840e3f01"},"vehicle_type_id":"4","last_reported":1700395895,"current_range_meters":26000,"station_id":"ce4bhn12rcd13ifvqgqg","pricing_plan_id":"free"},{"bike_id":"5a91a0b0-a2bb-4b5c-a99e-5b5c93d6631d","system_id":"levelo_inurba_marseille","lat":43.231793,"lon":5.400044,"is_reserved":false,"is_disabled":false,"rental_uris":{"android":"levelo://app?vid=5a91a0b0-a2bb-4b5c-a99e-5b5c93d6631d","ios":"levelo://app?vid=5a91a0b0-a2bb-4b5c-a99e-5b5c93d6631d"},"vehicle_type_id":"4","last_reported":1700395895,"current_range_meters":25600,"station_id":"ce4bhn12rcd13ifvqgqg","pricing_plan_id":"free"},{"bike_id":"486fecf0-765d-4eee-9a85-898f8aa27175","system_id":"levelo_inurba_marseille","lat":43.231793,"lon":5.400044,"is_reserved":false,"is_disabled":false,"rental_uris":{"android":"levelo://app?vid=486fecf0-765d-4eee-9a85-898f8aa27175","ios":"levelo://app?vid=486fecf0-765d-4eee-9a85-898f8aa27175"},"vehicle_type_id":"4","last_reported":1700395895,"current_range_meters":28400,"station_id":"ce4bhn12rcd13ifvqgqg","pricing_plan_id":"free"},{"bike_id":"7bc95a0e-72f8-4232-b877-46fe8e7f9e0c","system_id":"levelo_inurba_marseille","lat":43.231794,"lon":5.400052,"is_reserved":false,"is_disabled":false,"rental_uris":{"android":"levelo://app?vid=7bc95a0e-72f8-4232-b877-46fe8e7f9e0c","ios":"levelo://app?vid=7bc95a0e-72f8-4232-b877-46fe8e7f9e0c"},"vehicle_type_id":"4","last_reported":1700395895,"current_range_meters":30000,"station_id":"ce4bhn12rcd13ifvqgqg","pricing_plan_id":"free"},{"bike_id":"67b0dae3-3730-48b7-8c1b-0817011fbdd2","system_id":"levelo_inurba_marseille","lat":43.231794,"lon":5.400052,"is_reserved":false,"is_disabled":false,"rental_uris":{"android":"levelo://app?vid=67b0dae3-3730-48b7-8c1b-0817011fbdd2","ios":"levelo://app?vid=67b0dae3-3730-48b7-8c1b-0817011fbdd2"},"vehicle_type_id":"4","last_reported":1700395895,"current_range_meters":30400,"station_id":"ce4bhn12rcd13ifvqgqg","pricing_plan_id":"free"},{"bike_id":"65f86e4f-3234-4fca-beae-05f04dc8df5f","system_id":"levelo_inurba_marseille","lat":43.231794,"lon":5.400052,"is_reserved":false,"is_disabled":false,"rental_uris":{"android":"levelo://app?vid=65f86e4f-3234-4fca-beae-05f04dc8df5f","ios":"levelo://app?vid=65f86e4f-3234-4fca-beae-05f04dc8df5f"},"vehicle_type_id":"4","last_reported":1700395895,"current_range_meters":30400,"station_id":"ce4bhn12rcd13ifvqgqg","pricing_plan_id":"free"},{"bike_id":"adac1971-5e73-41e6-9ade-b5ded0f026e7","system_id":"levelo_inurba_marseille","lat":43.231793,"lon":5.400044,"is_reserved":false,"is_disabled":false,"rental_uris":{"android":"levelo://app?vid=adac1971-5e73-41e6-9ade-b5ded0f026e7","ios":"levelo://app?vid=adac1971-5e73-41e6-9ade-b5ded0f026e7"},"vehicle_type_id":"4","last_reported":1700395895,"current_range_meters":30800,"station_id":"ce4bhn12rcd13ifvqgqg","pricing_plan_id":"free"},{"bike_id":"efc139d5-8bb1-4a6b-b437-01d31830d455","system_id":"levelo_inurba_marseille","lat":43.231794,"lon":5.400052,"is_reserved":false,"is_disabled":false,"rental_uris":{"android":"levelo://app?vid=efc139d5-8bb1-4a6b-b437-01d31830d455","ios":"levelo://app?vid=efc139d5-8bb1-4a6b-b437-01d31830d455"},"vehicle_type_id":"4","last_reported":1700395895,"current_range_meters":31200,"station_id":"ce4bhn12rcd13ifvqgqg","pricing_plan_id":"free"},{"bike_id":"a77536b5-5a4a-4d26-b9d3-350ffe3416bd","system_id":"levelo_inurba_marseille","lat":43.231793,"lon":5.400044,"is_reserved":false,"is_disabled":false,"rental_uris":{"android":"levelo://app?vid=a77536b5-5a4a-4d26-b9d3-350ffe3416bd","ios":"levelo://app?vid=a77536b5-5a4a-4d26-b9d3-350ffe3416bd"},"vehicle_type_id":"4","last_reported":1700395895,"current_range_meters":6800,"station_id":"ce4bhn12rcd13ifvqgqg","pricing_plan_id":"free"},{"bike_id":"ad9d26be-fd61-4954-b04a-614ee9d33f7d","system_id":"levelo_inurba_marseille","lat":43.231794,"lon":5.400052,"is_reserved":false,"is_disabled":false,"rental_uris":{"android":"levelo://app?vid=ad9d26be-fd61-4954-b04a-614ee9d33f7d","ios":"levelo://app?vid=ad9d26be-fd61-4954-b04a-614ee9d33f7d"},"vehicle_type_id":"4","last_reported":1700395895,"current_range_meters":31200,"station_id":"ce4bhn12rcd13ifvqgqg","pricing_plan_id":"free"},{"bike_id":"4c94e881-6e5c-48d3-965c-664be9299745","system_id":"levelo_inurba_marseille","lat":43.231793,"lon":5.400044,"is_reserved":false,"is_disabled":false,"rental_uris":{"android":"levelo://app?vid=4c94e881-6e5c-48d3-965c-664be9299745","ios":"levelo://app?vid=4c94e881-6e5c-48d3-965c-664be9299745"},"vehicle_type_id":"4","last_reported":1700395895,"current_range_meters":6800,"station_id":"ce4bhn12rcd13ifvqgqg","pricing_plan_id":"free"},{"bike_id":"bae0372a-01f8-47b8-906a-f1f3418f21aa","system_id":"levelo_inurba_marseille","lat":43.231794,"lon":5.400052,"is_reserved":false,"is_disabled":false,"rental_uris":{"android":"levelo://app?vid=bae0372a-01f8-47b8-906a-f1f3418f21aa","ios":"levelo://app?vid=bae0372a-01f8-47b8-906a-f1f3418f21aa"},"vehicle_type_id":"4","last_reported":1700395895,"current_range_meters":6000,"station_id":"ce4bhn12rcd13ifvqgqg","pricing_plan_id":"free"},{"bike_id":"78c7b8b3-4492-4225-8359-c557b6989c3d","system_id":"levelo_inurba_marseille","lat":43.231562,"lon":5.436933,"is_reserved":false,"is_disabled":false,"rental_uris":{"android":"levelo://app?vid=78c7b8b3-4492-4225-8359-c557b6989c3d","ios":"levelo://app?vid=78c7b8b3-4492-4225-8359-c557b6989c3d"},"vehicle_type_id":"4","last_reported":1700395895,"current_range_meters":8800,"station_id":"ce4bhmp2rcd13ifvqgog","pricing_plan_id":"free"},{"bike_id":"49f546c6-5a89-4d62-b0e6-0167a3bea35f","system_id":"levelo_inurba_marseille","lat":43.231562,"lon":5.436933,"is_reserved":false,"is_disabled":false,"rental_uris":{"android":"levelo://app?vid=49f546c6-5a89-4d62-b0e6-0167a3bea35f","ios":"levelo://app?vid=49f546c6-5a89-4d62-b0e6-0167a3bea35f"},"vehicle_type_id":"4","last_reported":1700395895,"current_range_meters":24800,"station_id":"ce4bhmp2rcd13ifvqgog","pricing_plan_id":"free"},{"bike_id":"172b1adb-2ae3-4c1b-b5fe-96e44bf1344e","system_id":"levelo_inurba_marseille","lat":43.231562,"lon":5.436933,"is_reserved":false,"is_disabled":false,"rental_uris":{"android":"levelo://app?vid=172b1adb-2ae3-4c1b-b5fe-96e44bf1344e","ios":"levelo://app?vid=172b1adb-2ae3-4c1b-b5fe-96e44bf1344e"},"vehicle_type_id":"4","last_reported":1700395895,"current_range_meters":30000,"station_id":"ce4bhmp2rcd13ifvqgog","pricing_plan_id":"free"},{"bike_id":"79f0fe2a-828d-4adb-8c21-6c90ec54f44a","system_id":"levelo_inurba_marseille","lat":43.231562,"lon":5.436933,"is_reserved":false,"is_disabled":false,"rental_uris":{"android":"levelo://app?vid=79f0fe2a-828d-4adb-8c21-6c90ec54f44a","ios":"levelo://app?vid=79f0fe2a-828d-4adb-8c21-6c90ec54f44a"},"vehicle_type_id":"4","last_reported":1700395895,"current_range_meters":28800,"station_id":"ce4bhmp2rcd13ifvqgog","pricing_plan_id":"free"},{"bike_id":"ac753338-7ae7-484b-b345-d535336dbb1b","system_id":"levelo_inurba_marseille","lat":43.231562,"lon":5.436933,"is_reserved":false,"is_disabled":false,"rental_uris":{"android":"levelo://app?vid=ac753338-7ae7-484b-b345-d535336dbb1b","ios":"levelo://app?vid=ac753338-7ae7-484b-b345-d535336dbb1b"},"vehicle_type_id":"4","last_reported":1700395895,"current_range_meters":30800,"station_id":"ce4bhmp2rcd13ifvqgog","pricing_plan_id":"free"},{"bike_id":"04a6c4f8-53df-4ad5-9de2-341e812f9ec8","system_id":"levelo_inurba_marseille","lat":43.231562,"lon":5.436933,"is_reserved":false,"is_disabled":false,"rental_uris":{"android":"levelo://app?vid=04a6c4f8-53df-4ad5-9de2-341e812f9ec8","ios":"levelo://app?vid=04a6c4f8-53df-4ad5-9de2-341e812f9ec8"},"vehicle_type_id":"4","last_reported":1700395895,"current_range_meters":10400,"station_id":"ce4bhmp2rcd13ifvqgog","pricing_plan_id":"free"},{"bike_id":"96c9b960-69c2-43ef-8595-a0d32e3cd3b8","system_id":"levelo_inurba_marseille","lat":43.231562,"lon":5.436933,"is_reserved":false,"is_disabled":false,"rental_uris":{"android":"levelo://app?vid=96c9b960-69c2-43ef-8595-a0d32e3cd3b8","ios":"levelo://app?vid=96c9b960-69c2-43ef-8595-a0d32e3cd3b8"},"vehicle_type_id":"4","last_reported":1700395895,"current_range_meters":11200,"station_id":"ce4bhmp2rcd13ifvqgog","pricing_plan_id":"free"}]}}