{"last_updated":1751742485,"ttl":60,"version":"2.2","data":{"bikes":[{"bike_id":"3da29fb8-fc97-44c6-b9ac-31dd456b2fd4","system_id":"levelo_inurba_marseille","lat":43.33771,"lon":5.37424,"is_reserved":false,"is_disabled":true,"rental_uris":{"android":"levelo://app?vid=3da29fb8-fc97-44c6-b9ac-31dd456b2fd4","ios":"levelo://app?vid=3da29fb8-fc97-44c6-b9ac-31dd456b2fd4"},"vehicle_type_id":"4","last_reported":1751742485,"current_range_meters":0,"station_id":"","pricing_plan_id":"cebpf4jnsgd1na2vs0mg"},{"bike_id":"01861ad8-a8d7-4be6-816e-651927c87584","system_id":"levelo_inurba_marseille","lat":43.33751,"lon":5.37456,"is_reserved":false,"is_disabled":true,"rental_uris":{"android":"levelo://app?vid=01861ad8-a8d7-4be6-816e-651927c87584","ios":"levelo://app?vid=01861ad8-a8d7-4be6-816e-651927c87584"},"vehicle_type_id":"4","last_reported":1751742485,"current_range_meters":0,"station_id":"","pricing_plan_id":"cebpf4jnsgd1na2vs0mg"},{"bike_id":"072cfc05-528b-40e9-8678-8d3578d4a69f","system_id":"levelo_inurba_marseille","lat":43.30456,"lon":5.36707,"is_reserved":false,"is_disabled":true,"rental_uris":{"android":"levelo://app?vid=072cfc05-528b-40e9-8678-8d3578d4a69f","ios":"levelo://app?vid=072cfc05-528b-40e9-8678-8d3578d4a69f"},"vehicle_type_id":"4","last_reported":1751742485,"current_range_meters":0,"station_id":"","pricing_plan_id":"cebpf4jnsgd1na2vs0mg"},{"bike_id":"8d26356e-2fd7-486d-b1ca-1079ce32d01f","system_id":"levelo_inurba_marseille","lat":43.295178,"lon":5.36305,"is_reserved":false,"is_disabled":true,"rental_uris":{"android":"levelo://app?vid=8d26356e-2fd7-486d-b1ca-1079ce32d01f","ios":"levelo://app?vid=8d26356e-2fd7-486d-b1ca-1079ce32d01f"},"vehicle_type_id":"4","last_reported":1751742485,"current_range_meters":0,"station_id":"","pricing_plan_id":"cebpf4jnsgd1na2vs0mg"},{"bike_id":"374dc5fc-aac8-4da9-98b1-98e70c32d600","system_id":"levelo_inurba_marseille","lat":43.28199,"lon":5.34927,"is_reserved":false,"is_disabled":true,"rental_uris":{"android":"levelo://app?vid=374dc5fc-aac8-4da9-98b1-98e70c32d600","ios":"levelo://app?vid=374dc5fc-aac8-4da9-98b1-98e70c32d600"},"vehicle_type_id":"4","last_reported":1751742485,"current_range_meters":0,"station_id":"","pricing_plan_id":"cebpf4jnsgd1na2vs0mg"},{"bike_id":"b65a9fd4-7deb-4781-bcc0-03ead0c67986","system_id":"levelo_inurba_marseille","lat":43.29971,"lon":5.38485,"is_reserved":false,"is_disabled":true,"rental_uris":{"android":"levelo://app?vid=b65a9fd4-7deb-4781-bcc0-03ead0c67986","ios":"levelo://app?vid=b65a9fd4-7deb-4781-bcc0-03ead0c67986"},"vehicle_type_id":"4","last_reported":1751742485,"current_range_meters":0,"station_id":"ce4bgj92rcd13ifvqbd0","pricing_plan_id":"cebpf4jnsgd1na2vs0mg"},{"bike_id":"9cf9a367-2367-434b-a40c-d11404a5ae25","system_id":"levelo_inurba_marseille","lat":43.31485,"lon":5.37307,"is_reserved":false,"is_disabled":true,"rental_uris":{"android":"levelo://app?vid=9cf9a367-2367-434b-a40c-d11404a5ae25","ios":"levelo://app?vid=9cf9a367-2367-434b-a40c-d11404a5ae25"},"vehicle_type_id":"4","last_reported":1751742485,"current_range_meters":0,"station_id":"ce4bgt12rcd13ifvqcd0","pricing_plan_id":"cebpf4jnsgd1na2vs0mg"},{"bike_id":"d2fe0c65-4e37-4c16-80cb-3d9d54f29291","system_id":"levelo_inurba_marseille","lat":43.31384,"lon":5.38509,"is_reserved":false,"is_disabled":true,"rental_uris":{"android":"levelo://app?vid=d2fe0c65-4e37-4c16-80cb-3d9d54f29291","ios":"levelo://app?vid=d2fe0c65-4e37-4c16-80cb-3d9d54f29291"},"vehicle_type_id":"4","last_reported":1751742485,"current_range_meters":0,"station_id":"ce4bgt92rcd13ifvqcf0","pricing_plan_id":"cebpf4jnsgd1na2vs0mg"},{"bike_id":"c7d02e7b-389c-4055-a2ad-bba8b8dd4603","system_id":"levelo_inurba_marseille","lat":43.32014,"lon":5.41417,"is_reserved":false,"is_disabled":true,"rental_uris":{"android":"levelo://app?vid=c7d02e7b-389c-4055-a2ad-bba8b8dd4603","ios":"levelo://app?vid=c7d02e7b-389c-4055-a2ad-bba8b8dd4603"},"vehicle_type_id":"4","last_reported":1751742485,"current_range_meters":0,"station_id":"ce4bh012rcd13ifvqd00","pricing_plan_id":"cebpf4jnsgd1na2vs0mg"},{"bike_id":"d00580ce-6e8d-4b7c-9451-35ee9c40de07","system_id":"levelo_inurba_marseille","lat":43.2926,"lon":5.38448,"is_reserved":false,"is_disabled":true,"rental_uris":{"android":"levelo://app?vid=d00580ce-6e8d-4b7c-9451-35ee9c40de07","ios":"levelo://app?vid=d00580ce-6e8d-4b7c-9451-35ee9c40de07"},"vehicle_type_id":"4","last_reported":1751742485,"current_range_meters":0,"station_id":"ce4bh692rcd13ifvqea0","pricing_plan_id":"cebpf4jnsgd1na2vs0mg"},{"bike_id":"bf44381e-4860-4a2d-bfcd-60239d1b4f49","system_id":"levelo_inurba_marseille","lat":43.29197,"lon":5.35793,"is_reserved":false,"is_disabled":true,"rental_uris":{"android":"levelo://app?vid=bf44381e-4860-4a2d-bfcd-60239d1b4f49","ios":"levelo://app?vid=bf44381e-4860-4a2d-bfcd-60239d1b4f49"},"vehicle_type_id":"4","last_reported":1751742485,"current_range_meters":0,"station_id":"ce4bhb12rcd13ifvqel0","pricing_plan_id":"cebpf4jnsgd1na2vs0mg"},{"bike_id":"fe41328c-e68c-4cd2-8813-ce6d372d6f80","system_id":"levelo_inurba_marseille","lat":43.28848,"lon":5.35858,"is_reserved":false,"is_disabled":true,"rental_uris":{"android":"levelo://app?vid=fe41328c-e68c-4cd2-8813-ce6d372d6f80","ios":"levelo://app?vid=fe41328c-e68c-4cd2-8813-ce6d372d6f80"},"vehicle_type_id":"4","last_reported":1751742485,"current_range_meters":0,"station_id":"ce4bhb12rcd13ifvqem0","pricing_plan_id":"cebpf4jnsgd1na2vs0mg"},{"bike_id":"24aa3bd0-3bcb-4217-bf02-fe8185cd8e1a","system_id":"levelo_inurba_marseille","lat":43.265572,"lon":5.373396,"is_reserved":false,"is_disabled":true,"rental_uris":{"android":"levelo://app?vid=24aa3bd0-3bcb-4217-bf02-fe8185cd8e1a","ios":"levelo://app?vid=24aa3bd0-3bcb-4217-bf02-fe8185cd8e1a"},"vehicle_type_id":"4","last_reported":1751742485,"current_range_meters":0,"station_id":"ce4bhg12rcd13ifvqf70","pricing_plan_id":"cebpf4jnsgd1na2vs0mg"},{"bike_id":"9d557803-124e-4442-b8ee-d65dcbd943b3","system_id":"levelo_inurba_marseille","lat":43.248,"lon":5.37468,"is_reserved":false,"is_disabled":true,"rental_uris":{"android":"levelo://app?vid=9d557803-124e-4442-b8ee-d65dcbd943b3","ios":"levelo://app?vid=9d557803-124e-4442-b8ee-d65dcbd943b3"},"vehicle_type_id":"4","last_reported":1751742485,"current_range_meters":0,"station_id":"ce4bhgh2rcd13ifvqfb0","pricing_plan_id":"cebpf4jnsgd1na2vs0mg"},{"bike_id":"0c49a7d6-f9db-4a6c-978f-71d3ca86d4a3","system_id":"levelo_inurba_marseille","lat":43.2252,"lon":5.3477,"is_reserved":false,"is_disabled":true,"rental_uris":{"android":"levelo://app?vid=0c49a7d6-f9db-4a6c-978f-71d3ca86d4a3","ios":"levelo://app?vid=0c49a7d6-f9db-4a6c-978f-71d3ca86d4a3"},"vehicle_type_id":"4","last_reported":1751742485,"current_range_meters":0,"station_id":"st_cvj5dfep6f1abm77gieg","pricing_plan_id":"cebpf4jnsgd1na2vs0mg"},{"bike_id":"220a97c7-7a1f-4a4c-8f04-bd7030b29edc","system_id":"levelo_inurba_marseille","lat":43.29579,"lon":5.36717,"is_reserved":false,"is_disabled":true,"rental_uris":{"android":"levelo://app?vid=220a97c7-7a1f-4a4c-8f04-bd7030b29edc","ios":"levelo://app?vid=220a97c7-7a1f-4a4c-8f04-bd7030b29edc"},"vehicle_type_id":"4","last_reported":1751742485,"current_range_meters":400,"station_id":"","pricing_plan_id":"cebpf4jnsgd1na2vs0mg"},{"bike_id":"a12de9a0-21be-4169-a0f0-d72a0f4b3553","system_id":"levelo_inurba_marseille","lat":43.27664,"lon":5.38875,"is_reserved":false,"is_disabled":true,"rental_uris":{"android":"levelo://app?vid=a12de9a0-21be-4169-a0f0-d72a0f4b3553","ios":"levelo://app?vid=a12de9a0-21be-4169-a0f0-d72a0f4b3553"},"vehicle_type_id":"4","last_reported":1751742485,"current_range_meters":400,"station_id":"ce4bhi12rcd13ifvqfo0","pricing_plan_id":"cebpf4jnsgd1na2vs0mg"},{"bike_id":"7d700fe5-59ec-4d47-b8c2-c85d7cc322a5","system_id":"levelo_inurba_marseille","lat":43.28532,"lon":5.37807,"is_reserved":false,"is_disabled":true,"rental_uris":{"android":"levelo://app?vid=7d700fe5-59ec-4d47-b8c2-c85d7cc322a5","ios":"levelo://app?vid=7d700fe5-59ec-4d47-b8c2-c85d7cc322a5"},"vehicle_type_id":"4","last_reported":1751742485,"current_range_meters":800,"station_id":"","pricing_plan_id":"cebpf4jnsgd1na2vs0mg"},{"bike_id":"e26ba497-efc7-4420-b8c5-9fa5e27f2ce4","system_id":"levelo_inurba_marseille","lat":43.31342,"lon":5.37062,"is_reserved":false,"is_disabled":true,"rental_uris":{"android":"levelo://app?vid=e26ba497-efc7-4420-b8c5-9fa5e27f2ce4","ios":"levelo://app?vid=e26ba497-efc7-4420-b8c5-9fa5e27f2ce4"},"vehicle_type_id":"4","last_reported":1751742485,"current_range_meters":800,"station_id":"","pricing_plan_id":"cebpf4jnsgd1na2vs0mg"},{"bike_id":"723ea1f1-cc5a-4cf5-a956-887a5b7fec27","system_id":"levelo_inurba_marseille","lat":43.27612,"lon":5.36114,"is_reserved":false,"is_disabled":true,"rental_uris":{"android":"levelo://app?vid=723ea1f1-cc5a-4cf5-a956-887a5b7fec27","ios":"levelo://app?vid=723ea1f1-cc5a-4cf5-a956-887a5b7fec27"},"vehicle_type_id":"4","last_reported":1751742485,"current_range_meters":1200,"station_id":"ce4bgj92rcd13ifvqbe0","pricing_plan_id":"cebpf4jnsgd1na2vs0mg"},{"bike_id":"6bcf2ea4-4cc9-4817-8b0d-f78d01852049","system_id":"levelo_inurba_marseille","lat":43.31494,"lon":5.37299,"is_reserved":false,"is_disabled":true,"rental_uris":{"android":"levelo://app?vid=6bcf2ea4-4cc9-4817-8b0d-f78d01852049","ios":"levelo://app?vid=6bcf2ea4-4cc9-4817-8b0d-f78d01852049"},"vehicle_type_id":"4","last_reported":1751742485,"current_range_meters":1200,"station_id":"ce4bgt12rcd13ifvqcd0","pricing_plan_id":"cebpf4jnsgd1na2vs0mg"},{"bike_id":"45b92e8a-ec4c-49f6-93d4-4f978291e857","system_id":"levelo_inurba_marseille","lat":43.30948,"lon":5.39044,"is_reserved":false,"is_disabled":true,"rental_uris":{"android":"levelo://app?vid=45b92e8a-ec4c-49f6-93d4-4f978291e857","ios":"levelo://app?vid=45b92e8a-ec4c-49f6-93d4-4f978291e857"},"vehicle_type_id":"4","last_reported":1751742485,"current_range_meters":1200,"station_id":"ce4bgup2rcd13ifvqco0","pricing_plan_id":"cebpf4jnsgd1na2vs0mg"},{"bike_id":"1a22c9f7-69be-44c9-8c9f-be1194fead73","system_id":"levelo_inurba_marseille","lat":43.32652,"lon":5.40975,"is_reserved":false,"is_disabled":true,"rental_uris":{"android":"levelo://app?vid=1a22c9f7-69be-44c9-8c9f-be1194fead73","ios":"levelo://app?vid=1a22c9f7-69be-44c9-8c9f-be1194fead73"},"vehicle_type_id":"4","last_reported":1751742485,"current_range_meters":1200,"station_id":"ce4bhpp2rcd13ifvqhgg","pricing_plan_id":"cebpf4jnsgd1na2vs0mg"},{"bike_id":"9bfc7d3d-4e60-4f8a-9c32-ef3d0e77ec5b","system_id":"levelo_inurba_marseille","lat":43.21192,"lon":5.350693,"is_reserved":false,"is_disabled":true,"rental_uris":{"android":"levelo://app?vid=9bfc7d3d-4e60-4f8a-9c32-ef3d0e77ec5b","ios":"levelo://app?vid=9bfc7d3d-4e60-4f8a-9c32-ef3d0e77ec5b"},"vehicle_type_id":"4","last_reported":1751742485,"current_range_meters":1200,"station_id":"st_cvj6sg6p6f1abm77japg","pricing_plan_id":"cebpf4jnsgd1na2vs0mg"},{"bike_id":"bb3a298f-6d46-4249-b2a7-253a86d09877","system_id":"levelo_inurba_marseille","lat":43.29532,"lon":5.37443,"is_reserved":false,"is_disabled":true,"rental_uris":{"android":"levelo://app?vid=bb3a298f-6d46-4249-b2a7-253a86d09877","ios":"levelo://app?vid=bb3a298f-6d46-4249-b2a7-253a86d09877"},"vehicle_type_id":"4","last_reported":1751742485,"current_range_meters":1600,"station_id":"","pricing_plan_id":"cebpf4jnsgd1na2vs0mg"},{"bike_id":"06501fcd-e686-49b0-9b47-b04b289b8a1f","system_id":"levelo_inurba_marseille","lat":43.29527,"lon":5.37508,"is_reserved":false,"is_disabled":true,"rental_uris":{"android":"levelo://app?vid=06501fcd-e686-49b0-9b47-b04b289b8a1f","ios":"levelo://app?vid=06501fcd-e686-49b0-9b47-b04b289b8a1f"},"vehicle_type_id":"4","last_reported":1751742485,"current_range_meters":1600,"station_id":"ce4bgkp2rcd13ifvqbmg","pricing_plan_id":"cebpf4jnsgd1na2vs0mg"},{"bike_id":"95fdbcab-2910-4a42-beac-d61dad9cbd43","system_id":"levelo_inurba_marseille","lat":43.30544,"lon":5.36559,"is_reserved":false,"is_disabled":true,"rental_uris":{"android":"levelo://app?vid=95fdbcab-2910-4a42-beac-d61dad9cbd43","ios":"levelo://app?vid=95fdbcab-2910-4a42-beac-d61dad9cbd43"},"vehicle_type_id":"4","last_reported":1751742485,"current_range_meters":1600,"station_id":"ce4bgs12rcd13ifvqcag","pricing_plan_id":"cebpf4jnsgd1na2vs0mg"},{"bike_id":"7ceb9e32-e15d-4bdf-b848-e10098ca54b4","system_id":"levelo_inurba_marseille","lat":43.31524,"lon":5.38035,"is_reserved":false,"is_disabled":true,"rental_uris":{"android":"levelo://app?vid=7ceb9e32-e15d-4bdf-b848-e10098ca54b4","ios":"levelo://app?vid=7ceb9e32-e15d-4bdf-b848-e10098ca54b4"},"vehicle_type_id":"4","last_reported":1751742485,"current_range_meters":1600,"station_id":"ce4bhsp2rcd13ifvqi50","pricing_plan_id":"cebpf4jnsgd1na2vs0mg"},{"bike_id":"60abe387-d356-454c-91f4-92dc541e66be","system_id":"levelo_inurba_marseille","lat":43.32367,"lon":5.38883,"is_reserved":false,"is_disabled":true,"rental_uris":{"android":"levelo://app?vid=60abe387-d356-454c-91f4-92dc541e66be","ios":"levelo://app?vid=60abe387-d356-454c-91f4-92dc541e66be"},"vehicle_type_id":"4","last_reported":1751742485,"current_range_meters":2000,"station_id":"ce4bhqp2rcd13ifvqhog","pricing_plan_id":"cebpf4jnsgd1na2vs0mg"},{"bike_id":"eefdc968-1545-4a2a-8dbd-3d9736b142f2","system_id":"levelo_inurba_marseille","lat":43.30934,"lon":5.39059,"is_reserved":false,"is_disabled":false,"rental_uris":{"android":"levelo://app?vid=eefdc968-1545-4a2a-8dbd-3d9736b142f2","ios":"levelo://app?vid=eefdc968-1545-4a2a-8dbd-3d9736b142f2"},"vehicle_type_id":"4","last_reported":1751742485,"current_range_meters":2800,"station_id":"ce4bgup2rcd13ifvqco0","pricing_plan_id":"cebpf4jnsgd1na2vs0mg"},{"bike_id":"f1c8dfb3-289a-4f84-8ac4-17ecaffd6dba","system_id":"levelo_inurba_marseille","lat":43.31164,"lon":5.38723,"is_reserved":false,"is_disabled":false,"rental_uris":{"android":"levelo://app?vid=f1c8dfb3-289a-4f84-8ac4-17ecaffd6dba","ios":"levelo://app?vid=f1c8dfb3-289a-4f84-8ac4-17ecaffd6dba"},"vehicle_type_id":"4","last_reported":1751742485,"current_range_meters":2800,"station_id":"ce4bgv12rcd13ifvqcp0","pricing_plan_id":"cebpf4jnsgd1na2vs0mg"},{"bike_id":"07e94706-634b-4158-a05d-58891cb4a872","system_id":"levelo_inurba_marseille","lat":43.29172,"lon":5.39338,"is_reserved":false,"is_disabled":false,"rental_uris":{"android":"levelo://app?vid=07e94706-634b-4158-a05d-58891cb4a872","ios":"levelo://app?vid=07e94706-634b-4158-a05d-58891cb4a872"},"vehicle_type_id":"4","last_reported":1751742485,"current_range_meters":2800,"station_id":"ce4bh192rcd13ifvqdd0","pricing_plan_id":"cebpf4jnsgd1na2vs0mg"},{"bike_id":"d1444e94-489f-4fa9-9e06-4bdf6ba47149","system_id":"levelo_inurba_marseille","lat":43.2251,"lon":5.34772,"is_reserved":false,"is_disabled":false,"rental_uris":{"android":"levelo://app?vid=d1444e94-489f-4fa9-9e06-4bdf6ba47149","ios":"levelo://app?vid=d1444e94-489f-4fa9-9e06-4bdf6ba47149"},"vehicle_type_id":"4","last_reported":1751742485,"current_range_meters":2800,"station_id":"st_cvj5dfep6f1abm77gieg","pricing_plan_id":"cebpf4jnsgd1na2vs0mg"},{"bike_id":"cb04e5da-46c1-4566-88f6-e9814de2c94b","system_id":"levelo_inurba_marseille","lat":43.309452,"lon":5.390392,"is_reserved":false,"is_disabled":false,"rental_uris":{"android":"levelo://app?vid=cb04e5da-46c1-4566-88f6-e9814de2c94b","ios":"levelo://app?vid=cb04e5da-46c1-4566-88f6-e9814de2c94b"},"vehicle_type_id":"4","last_reported":1751742485,"current_range_meters":3200,"station_id":"","pricing_plan_id":"cebpf4jnsgd1na2vs0mg"},{"bike_id":"d97e5bb9-ea1e-471a-abae-b63281bde218","system_id":"levelo_inurba_marseille","lat":43.30324,"lon":5.38553,"is_reserved":false,"is_disabled":false,"rental_uris":{"android":"levelo://app?vid=d97e5bb9-ea1e-471a-abae-b63281bde218","ios":"levelo://app?vid=d97e5bb9-ea1e-471a-abae-b63281bde218"},"vehicle_type_id":"4","last_reported":1751742485,"current_range_meters":3200,"station_id":"","pricing_plan_id":"cebpf4jnsgd1na2vs0mg"},{"bike_id":"dd40a685-969d-4bae-9f4c-b9af7ab5bea6","system_id":"levelo_inurba_marseille","lat":43.27614,"lon":5.36108,"is_reserved":false,"is_disabled":false,"rental_uris":{"android":"levelo://app?vid=dd40a685-969d-4bae-9f4c-b9af7ab5bea6","ios":"levelo://app?vid=dd40a685-969d-4bae-9f4c-b9af7ab5bea6"},"vehicle_type_id":"4","last_reported":1751742485,"current_range_meters":3200,"station_id":"ce4bgj92rcd13ifvqbe0","pricing_plan_id":"cebpf4jnsgd1na2vs0mg"},{"bike_id":"2049a83d-a651-4651-a3d9-89e39914a7d7","system_id":"levelo_inurba_marseille","lat":43.2797,"lon":5.38743,"is_reserved":false,"is_disabled":false,"rental_uris":{"android":"levelo://app?vid=2049a83d-a651-4651-a3d9-89e39914a7d7","ios":"levelo://app?vid=2049a83d-a651-4651-a3d9-89e39914a7d7"},"vehicle_type_id":"4","last_reported":1751742485,"current_range_meters":3200,"station_id":"ce4bhg12rcd13ifvqf80","pricing_plan_id":"cebpf4jnsgd1na2vs0mg"},{"bike_id":"f6ac2ca1-a3ac-4f58-b1a1-b74be8a76990","system_id":"levelo_inurba_marseille","lat":43.29891,"lon":5.43655,"is_reserved":false,"is_disabled":false,"rental_uris":{"android":"levelo://app?vid=f6ac2ca1-a3ac-4f58-b1a1-b74be8a76990","ios":"levelo://app?vid=f6ac2ca1-a3ac-4f58-b1a1-b74be8a76990"},"vehicle_type_id":"4","last_reported":1751742485,"current_range_meters":3200,"station_id":"ce4bhpp2rcd13ifvqhfg","pricing_plan_id":"cebpf4jnsgd1na2vs0mg"},{"bike_id":"6c8a009e-0342-4814-ac3a-dc5e0391c225","system_id":"levelo_inurba_marseille","lat":43.31321,"lon":5.39707,"is_reserved":false,"is_disabled":false,"rental_uris":{"android":"levelo://app?vid=6c8a009e-0342-4814-ac3a-dc5e0391c225","ios":"levelo://app?vid=6c8a009e-0342-4814-ac3a-dc5e0391c225"},"vehicle_type_id":"4","last_reported":1751742485,"current_range_meters":3600,"station_id":"ce4bgvp2rcd13ifvqcu0","pricing_plan_id":"cebpf4jnsgd1na2vs0mg"},{"bike_id":"1203e32b-6420-4818-a025-2a5a8620cadc","system_id":"levelo_inurba_marseille","lat":43.30417,"lon":5.41282,"is_reserved":false,"is_disabled":false,"rental_uris":{"android":"levelo://app?vid=1203e32b-6420-4818-a025-2a5a8620cadc","ios":"levelo://app?vid=1203e32b-6420-4818-a025-2a5a8620cadc"},"vehicle_type_id":"4","last_reported":1751742485,"current_range_meters":3600,"station_id":"ce4bhop2rcd13ifvqh8g","pricing_plan_id":"cebpf4jnsgd1na2vs0mg"},{"bike_id":"aa90b26a-1840-487f-af75-b8eca842a21e","system_id":"levelo_inurba_marseille","lat":43.30948,"lon":5.39033,"is_reserved":false,"is_disabled":false,"rental_uris":{"android":"levelo://app?vid=aa90b26a-1840-487f-af75-b8eca842a21e","ios":"levelo://app?vid=aa90b26a-1840-487f-af75-b8eca842a21e"},"vehicle_type_id":"4","last_reported":1751742485,"current_range_meters":4000,"station_id":"ce4bgup2rcd13ifvqco0","pricing_plan_id":"cebpf4jnsgd1na2vs0mg"},{"bike_id":"cbabb6e1-6032-4260-95e0-b27d315f98dd","system_id":"levelo_inurba_marseille","lat":43.28097,"lon":5.37852,"is_reserved":false,"is_disabled":false,"rental_uris":{"android":"levelo://app?vid=cbabb6e1-6032-4260-95e0-b27d315f98dd","ios":"levelo://app?vid=cbabb6e1-6032-4260-95e0-b27d315f98dd"},"vehicle_type_id":"4","last_reported":1751742485,"current_range_meters":4400,"station_id":"ce4bha12rcd13ifvqee0","pricing_plan_id":"cebpf4jnsgd1na2vs0mg"},{"bike_id":"de0ba7ab-f7e8-4848-8a20-77f9d76c6ebb","system_id":"levelo_inurba_marseille","lat":43.30941,"lon":5.39042,"is_reserved":false,"is_disabled":false,"rental_uris":{"android":"levelo://app?vid=de0ba7ab-f7e8-4848-8a20-77f9d76c6ebb","ios":"levelo://app?vid=de0ba7ab-f7e8-4848-8a20-77f9d76c6ebb"},"vehicle_type_id":"4","last_reported":1751742485,"current_range_meters":4800,"station_id":"ce4bgup2rcd13ifvqco0","pricing_plan_id":"cebpf4jnsgd1na2vs0mg"},{"bike_id":"f397dcf7-c818-4b8c-b464-7b041463bcbb","system_id":"levelo_inurba_marseille","lat":43.31687,"lon":5.40471,"is_reserved":false,"is_disabled":false,"rental_uris":{"android":"levelo://app?vid=f397dcf7-c818-4b8c-b464-7b041463bcbb","ios":"levelo://app?vid=f397dcf7-c818-4b8c-b464-7b041463bcbb"},"vehicle_type_id":"4","last_reported":1751742485,"current_range_meters":5600,"station_id":"ce4bh012rcd13ifvqd00","pricing_plan_id":"cebpf4jnsgd1na2vs0mg"},{"bike_id":"68ac0022-0357-4cc4-9360-1d0dfe516e10","system_id":"levelo_inurba_marseille","lat":43.23055,"lon":5.35494,"is_reserved":false,"is_disabled":false,"rental_uris":{"android":"levelo://app?vid=68ac0022-0357-4cc4-9360-1d0dfe516e10","ios":"levelo://app?vid=68ac0022-0357-4cc4-9360-1d0dfe516e10"},"vehicle_type_id":"4","last_reported":1751742485,"current_range_meters":5600,"station_id":"cpo3342slgdg3j2ifvpg","pricing_plan_id":"cebpf4jnsgd1na2vs0mg"},{"bike_id":"15ce5cc8-b52c-441c-827c-6eed58e5d5f6","system_id":"levelo_inurba_marseille","lat":43.301977,"lon":5.382388,"is_reserved":false,"is_disabled":false,"rental_uris":{"android":"levelo://app?vid=15ce5cc8-b52c-441c-827c-6eed58e5d5f6","ios":"levelo://app?vid=15ce5cc8-b52c-441c-827c-6eed58e5d5f6"},"vehicle_type_id":"4","last_reported":1751742485,"current_range_meters":6000,"station_id":"","pricing_plan_id":"cebpf4jnsgd1na2vs0mg"},{"bike_id":"4c2baf2e-1b18-4593-810c-5e902aa3edd1","system_id":"levelo_inurba_marseille","lat":43.29976,"lon":5.38493,"is_reserved":false,"is_disabled":false,"rental_uris":{"android":"levelo://app?vid=4c2baf2e-1b18-4593-810c-5e902aa3edd1","ios":"levelo://app?vid=4c2baf2e-1b18-4593-810c-5e902aa3edd1"},"vehicle_type_id":"4","last_reported":1751742485,"current_range_meters":6000,"station_id":"ce4bgj92rcd13ifvqbd0","pricing_plan_id":"cebpf4jnsgd1na2vs0mg"},{"bike_id":"728fa38a-7323-445e-ad3e-bf3cbeafeed1","system_id":"levelo_inurba_marseille","lat":43.3136,"lon":5.38486,"is_reserved":false,"is_disabled":false,"rental_uris":{"android":"levelo://app?vid=728fa38a-7323-445e-ad3e-bf3cbeafeed1","ios":"levelo://app?vid=728fa38a-7323-445e-ad3e-bf3cbeafeed1"},"vehicle_type_id":"4","last_reported":1751742485,"current_range_meters":6000,"station_id":"ce4bgt92rcd13ifvqcf0","pricing_plan_id":"cebpf4jnsgd1na2vs0mg"},{"bike_id":"2cdb5783-f4c4-4d47-b144-1fd1732ea884","system_id":"levelo_inurba_marseille","lat":43.2655,"lon":5.37293,"is_reserved":false,"is_disabled":false,"rental_uris":{"android":"levelo://app?vid=2cdb5783-f4c4-4d47-b144-1fd1732ea884","ios":"levelo://app?vid=2cdb5783-f4c4-4d47-b144-1fd1732ea884"},"vehicle_type_id":"4","last_reported":1751742485,"current_range_meters":6000,"station_id":"ce4bhg12rcd13ifvqf70","pricing_plan_id":"cebpf4jnsgd1na2vs0mg"},{"bike_id":"d784a434-4f1e-4e84-be0b-dc886794f81f","system_id":"levelo_inurba_marseille","lat":43.24167,"lon":5.36397,"is_reserved":false,"is_disabled":false,"rental_uris":{"android":"levelo://app?vid=d784a434-4f1e-4e84-be0b-dc886794f81f","ios":"levelo://app?vid=d784a434-4f1e-4e84-be0b-dc886794f81f"},"vehicle_type_id":"4","last_reported":1751742485,"current_range_meters":6000,"station_id":"cpo36qri1sfpv3e86is0","pricing_plan_id":"cebpf4jnsgd1na2vs0mg"},{"bike_id":"ba154a12-11bd-42a5-958a-5992f5d043d1","system_id":"levelo_inurba_marseille","lat":43.30503,"lon":5.37093,"is_reserved":false,"is_disabled":false,"rental_uris":{"android":"levelo://app?vid=ba154a12-11bd-42a5-958a-5992f5d043d1","ios":"levelo://app?vid=ba154a12-11bd-42a5-958a-5992f5d043d1"},"vehicle_type_id":"4","last_reported":1751742485,"current_range_meters":6400,"station_id":"","pricing_plan_id":"cebpf4jnsgd1na2vs0mg"},{"bike_id":"0c4b7fdb-b39e-49b3-a2b0-ae3d0f43e89d","system_id":"levelo_inurba_marseille","lat":43.32869,"lon":5.40633,"is_reserved":false,"is_disabled":false,"rental_uris":{"android":"levelo://app?vid=0c4b7fdb-b39e-49b3-a2b0-ae3d0f43e89d","ios":"levelo://app?vid=0c4b7fdb-b39e-49b3-a2b0-ae3d0f43e89d"},"vehicle_type_id":"4","last_reported":1751742485,"current_range_meters":6400,"station_id":"","pricing_plan_id":"cebpf4jnsgd1na2vs0mg"},{"bike_id":"8cba1663-37f5-4588-8a58-318c657be607","system_id":"levelo_inurba_marseille","lat":43.30903,"lon":5.36865,"is_reserved":false,"is_disabled":false,"rental_uris":{"android":"levelo://app?vid=8cba1663-37f5-4588-8a58-318c657be607","ios":"levelo://app?vid=8cba1663-37f5-4588-8a58-318c657be607"},"vehicle_type_id":"4","last_reported":1751742485,"current_range_meters":6400,"station_id":"ce4bgn92rcd13ifvqbvg","pricing_plan_id":"cebpf4jnsgd1na2vs0mg"},{"bike_id":"bad87b4b-3dce-4c2f-b72c-0a953bb467fc","system_id":"levelo_inurba_marseille","lat":43.30942,"lon":5.39046,"is_reserved":false,"is_disabled":false,"rental_uris":{"android":"levelo://app?vid=bad87b4b-3dce-4c2f-b72c-0a953bb467fc","ios":"levelo://app?vid=bad87b4b-3dce-4c2f-b72c-0a953bb467fc"},"vehicle_type_id":"4","last_reported":1751742485,"current_range_meters":6400,"station_id":"ce4bgup2rcd13ifvqco0","pricing_plan_id":"cebpf4jnsgd1na2vs0mg"},{"bike_id":"7aaca2dc-a117-4703-9413-9337c3c391b8","system_id":"levelo_inurba_marseille","lat":43.27377,"lon":5.36256,"is_reserved":false,"is_disabled":false,"rental_uris":{"android":"levelo://app?vid=7aaca2dc-a117-4703-9413-9337c3c391b8","ios":"levelo://app?vid=7aaca2dc-a117-4703-9413-9337c3c391b8"},"vehicle_type_id":"4","last_reported":1751742485,"current_range_meters":6400,"station_id":"ce4bhbh2rcd13ifvqeo0","pricing_plan_id":"cebpf4jnsgd1na2vs0mg"},{"bike_id":"1b316e27-cc63-4d5b-8708-a7523bf59eb1","system_id":"levelo_inurba_marseille","lat":43.29788,"lon":5.38096,"is_reserved":false,"is_disabled":false,"rental_uris":{"android":"levelo://app?vid=1b316e27-cc63-4d5b-8708-a7523bf59eb1","ios":"levelo://app?vid=1b316e27-cc63-4d5b-8708-a7523bf59eb1"},"vehicle_type_id":"4","last_reported":1751742485,"current_range_meters":6800,"station_id":"ce4bgip2rcd13ifvqbb0","pricing_plan_id":"cebpf4jnsgd1na2vs0mg"},{"bike_id":"37ce1d2c-d21b-433a-a7d9-07e5076ca65b","system_id":"levelo_inurba_marseille","lat":43.29003,"lon":5.35613,"is_reserved":false,"is_disabled":false,"rental_uris":{"android":"levelo://app?vid=37ce1d2c-d21b-433a-a7d9-07e5076ca65b","ios":"levelo://app?vid=37ce1d2c-d21b-433a-a7d9-07e5076ca65b"},"vehicle_type_id":"4","last_reported":1751742485,"current_range_meters":6800,"station_id":"ce4bhb92rcd13ifvqen0","pricing_plan_id":"cebpf4jnsgd1na2vs0mg"},{"bike_id":"7b2af3b8-5687-4a9b-abbc-e60f5f32fa5d","system_id":"levelo_inurba_marseille","lat":43.26021,"lon":5.37555,"is_reserved":false,"is_disabled":false,"rental_uris":{"android":"levelo://app?vid=7b2af3b8-5687-4a9b-abbc-e60f5f32fa5d","ios":"levelo://app?vid=7b2af3b8-5687-4a9b-abbc-e60f5f32fa5d"},"vehicle_type_id":"4","last_reported":1751742485,"current_range_meters":6800,"station_id":"ce4bhgh2rcd13ifvqfa0","pricing_plan_id":"cebpf4jnsgd1na2vs0mg"},{"bike_id":"d06953fd-ca40-4e5e-9eb2-0c83288cde69","system_id":"levelo_inurba_marseille","lat":43.29779,"lon":5.37103,"is_reserved":false,"is_disabled":false,"rental_uris":{"android":"levelo://app?vid=d06953fd-ca40-4e5e-9eb2-0c83288cde69","ios":"levelo://app?vid=d06953fd-ca40-4e5e-9eb2-0c83288cde69"},"vehicle_type_id":"4","last_reported":1751742485,"current_range_meters":7200,"station_id":"ce4bgop2rcd13ifvqc1g","pricing_plan_id":"cebpf4jnsgd1na2vs0mg"},{"bike_id":"73354d7e-0243-499c-83ae-3962ab22df0d","system_id":"levelo_inurba_marseille","lat":43.313298,"lon":5.396945,"is_reserved":false,"is_disabled":false,"rental_uris":{"android":"levelo://app?vid=73354d7e-0243-499c-83ae-3962ab22df0d","ios":"levelo://app?vid=73354d7e-0243-499c-83ae-3962ab22df0d"},"vehicle_type_id":"4","last_reported":1751742485,"current_range_meters":7200,"station_id":"ce4bgvp2rcd13ifvqcu0","pricing_plan_id":"cebpf4jnsgd1na2vs0mg"},{"bike_id":"430f6505-7206-4927-9e43-e553eeef3403","system_id":"levelo_inurba_marseille","lat":43.294142,"lon":5.386313,"is_reserved":false,"is_disabled":false,"rental_uris":{"android":"levelo://app?vid=430f6505-7206-4927-9e43-e553eeef3403","ios":"levelo://app?vid=430f6505-7206-4927-9e43-e553eeef3403"},"vehicle_type_id":"4","last_reported":1751742485,"current_range_meters":7200,"station_id":"ce4bh2h2rcd13ifvqdh0","pricing_plan_id":"cebpf4jnsgd1na2vs0mg"},{"bike_id":"91de1a81-a9a1-40d8-bd13-0932386026ea","system_id":"levelo_inurba_marseille","lat":43.30416,"lon":5.41279,"is_reserved":false,"is_disabled":false,"rental_uris":{"android":"levelo://app?vid=91de1a81-a9a1-40d8-bd13-0932386026ea","ios":"levelo://app?vid=91de1a81-a9a1-40d8-bd13-0932386026ea"},"vehicle_type_id":"4","last_reported":1751742485,"current_range_meters":7200,"station_id":"ce4bhop2rcd13ifvqh8g","pricing_plan_id":"cebpf4jnsgd1na2vs0mg"},{"bike_id":"92015f74-efd0-488b-8ba3-24bde090a08b","system_id":"levelo_inurba_marseille","lat":43.268694,"lon":5.403129,"is_reserved":false,"is_disabled":false,"rental_uris":{"android":"levelo://app?vid=92015f74-efd0-488b-8ba3-24bde090a08b","ios":"levelo://app?vid=92015f74-efd0-488b-8ba3-24bde090a08b"},"vehicle_type_id":"4","last_reported":1751742485,"current_range_meters":7200,"station_id":"ce501612rcd8frsf0b60","pricing_plan_id":"cebpf4jnsgd1na2vs0mg"},{"bike_id":"6af2019f-a8df-4cc0-8691-264381a11378","system_id":"levelo_inurba_marseille","lat":43.30954,"lon":5.39037,"is_reserved":false,"is_disabled":false,"rental_uris":{"android":"levelo://app?vid=6af2019f-a8df-4cc0-8691-264381a11378","ios":"levelo://app?vid=6af2019f-a8df-4cc0-8691-264381a11378"},"vehicle_type_id":"4","last_reported":1751742485,"current_range_meters":8000,"station_id":"","pricing_plan_id":"cebpf4jnsgd1na2vs0mg"},{"bike_id":"6917bed5-c21f-48c3-870d-5408dab99803","system_id":"levelo_inurba_marseille","lat":43.29682,"lon":5.36895,"is_reserved":false,"is_disabled":false,"rental_uris":{"android":"levelo://app?vid=6917bed5-c21f-48c3-870d-5408dab99803","ios":"levelo://app?vid=6917bed5-c21f-48c3-870d-5408dab99803"},"vehicle_type_id":"4","last_reported":1751742485,"current_range_meters":8000,"station_id":"","pricing_plan_id":"cebpf4jnsgd1na2vs0mg"},{"bike_id":"ed174135-772f-4ad8-8e10-82e4034d5337","system_id":"levelo_inurba_marseille","lat":43.30937,"lon":5.39065,"is_reserved":false,"is_disabled":false,"rental_uris":{"android":"levelo://app?vid=ed174135-772f-4ad8-8e10-82e4034d5337","ios":"levelo://app?vid=ed174135-772f-4ad8-8e10-82e4034d5337"},"vehicle_type_id":"4","last_reported":1751742485,"current_range_meters":8000,"station_id":"ce4bgup2rcd13ifvqco0","pricing_plan_id":"cebpf4jnsgd1na2vs0mg"},{"bike_id":"ba36ea47-8440-4e0e-a855-f31d4ed56377","system_id":"levelo_inurba_marseille","lat":43.30939,"lon":5.3904,"is_reserved":false,"is_disabled":false,"rental_uris":{"android":"levelo://app?vid=ba36ea47-8440-4e0e-a855-f31d4ed56377","ios":"levelo://app?vid=ba36ea47-8440-4e0e-a855-f31d4ed56377"},"vehicle_type_id":"4","last_reported":1751742485,"current_range_meters":8000,"station_id":"ce4bgup2rcd13ifvqco0","pricing_plan_id":"cebpf4jnsgd1na2vs0mg"},{"bike_id":"e9991264-f8e9-4d34-919d-046f71fe72a8","system_id":"levelo_inurba_marseille","lat":43.31695,"lon":5.40472,"is_reserved":false,"is_disabled":false,"rental_uris":{"android":"levelo://app?vid=e9991264-f8e9-4d34-919d-046f71fe72a8","ios":"levelo://app?vid=e9991264-f8e9-4d34-919d-046f71fe72a8"},"vehicle_type_id":"4","last_reported":1751742485,"current_range_meters":8000,"station_id":"ce4bh012rcd13ifvqd00","pricing_plan_id":"cebpf4jnsgd1na2vs0mg"},{"bike_id":"8380252d-c166-405c-ab44-90ccb5958e0d","system_id":"levelo_inurba_marseille","lat":43.30206,"lon":5.39467,"is_reserved":false,"is_disabled":false,"rental_uris":{"android":"levelo://app?vid=8380252d-c166-405c-ab44-90ccb5958e0d","ios":"levelo://app?vid=8380252d-c166-405c-ab44-90ccb5958e0d"},"vehicle_type_id":"4","last_reported":1751742485,"current_range_meters":8000,"station_id":"ce4bh0p2rcd13ifvqd70","pricing_plan_id":"cebpf4jnsgd1na2vs0mg"},{"bike_id":"e44a587a-de15-4c55-a22d-ac775ae9b5cc","system_id":"levelo_inurba_marseille","lat":43.23145,"lon":5.43713,"is_reserved":false,"is_disabled":false,"rental_uris":{"android":"levelo://app?vid=e44a587a-de15-4c55-a22d-ac775ae9b5cc","ios":"levelo://app?vid=e44a587a-de15-4c55-a22d-ac775ae9b5cc"},"vehicle_type_id":"4","last_reported":1751742485,"current_range_meters":8000,"station_id":"ce4bhmp2rcd13ifvqgog","pricing_plan_id":"cebpf4jnsgd1na2vs0mg"},{"bike_id":"2ffeba7a-8316-4052-8019-91454da58cbe","system_id":"levelo_inurba_marseille","lat":43.26984,"lon":5.420136,"is_reserved":false,"is_disabled":false,"rental_uris":{"android":"levelo://app?vid=2ffeba7a-8316-4052-8019-91454da58cbe","ios":"levelo://app?vid=2ffeba7a-8316-4052-8019-91454da58cbe"},"vehicle_type_id":"4","last_reported":1751742485,"current_range_meters":8400,"station_id":"","pricing_plan_id":"cebpf4jnsgd1na2vs0mg"},{"bike_id":"371edb06-dc3d-43bb-8c9f-119f7b22ba75","system_id":"levelo_inurba_marseille","lat":43.30973,"lon":5.39099,"is_reserved":false,"is_disabled":false,"rental_uris":{"android":"levelo://app?vid=371edb06-dc3d-43bb-8c9f-119f7b22ba75","ios":"levelo://app?vid=371edb06-dc3d-43bb-8c9f-119f7b22ba75"},"vehicle_type_id":"4","last_reported":1751742485,"current_range_meters":8400,"station_id":"","pricing_plan_id":"cebpf4jnsgd1na2vs0mg"},{"bike_id":"41433d3b-7f8e-4182-892e-6e6d987f6c6d","system_id":"levelo_inurba_marseille","lat":43.29604,"lon":5.381,"is_reserved":false,"is_disabled":false,"rental_uris":{"android":"levelo://app?vid=41433d3b-7f8e-4182-892e-6e6d987f6c6d","ios":"levelo://app?vid=41433d3b-7f8e-4182-892e-6e6d987f6c6d"},"vehicle_type_id":"4","last_reported":1751742485,"current_range_meters":8400,"station_id":"ce4bgl12rcd13ifvqbo0","pricing_plan_id":"cebpf4jnsgd1na2vs0mg"},{"bike_id":"c8536ec2-45a8-4610-b62f-517cfbaf6c3a","system_id":"levelo_inurba_marseille","lat":43.30936,"lon":5.39038,"is_reserved":false,"is_disabled":false,"rental_uris":{"android":"levelo://app?vid=c8536ec2-45a8-4610-b62f-517cfbaf6c3a","ios":"levelo://app?vid=c8536ec2-45a8-4610-b62f-517cfbaf6c3a"},"vehicle_type_id":"4","last_reported":1751742485,"current_range_meters":8400,"station_id":"ce4bgup2rcd13ifvqco0","pricing_plan_id":"cebpf4jnsgd1na2vs0mg"},{"bike_id":"24d50a5d-ea56-43b6-8eb9-b54ff63599ef","system_id":"levelo_inurba_marseille","lat":43.30943,"lon":5.39042,"is_reserved":false,"is_disabled":false,"rental_uris":{"android":"levelo://app?vid=24d50a5d-ea56-43b6-8eb9-b54ff63599ef","ios":"levelo://app?vid=24d50a5d-ea56-43b6-8eb9-b54ff63599ef"},"vehicle_type_id":"4","last_reported":1751742485,"current_range_meters":8400,"station_id":"ce4bgup2rcd13ifvqco0","pricing_plan_id":"cebpf4jnsgd1na2vs0mg"},{"bike_id":"5b703af4-f680-41d8-85c3-611872a5feac","system_id":"levelo_inurba_marseille","lat":43.28469,"lon":5.38408,"is_reserved":false,"is_disabled":false,"rental_uris":{"android":"levelo://app?vid=5b703af4-f680-41d8-85c3-611872a5feac","ios":"levelo://app?vid=5b703af4-f680-41d8-85c3-611872a5feac"},"vehicle_type_id":"4","last_reported":1751742485,"current_range_meters":8400,"station_id":"ce4bh512rcd13ifvqe3g","pricing_plan_id":"cebpf4jnsgd1na2vs0mg"},{"bike_id":"03b1372e-d745-4146-afca-0c0caa460d4d","system_id":"levelo_inurba_marseille","lat":43.31996,"lon":5.38165,"is_reserved":false,"is_disabled":false,"rental_uris":{"android":"levelo://app?vid=03b1372e-d745-4146-afca-0c0caa460d4d","ios":"levelo://app?vid=03b1372e-d745-4146-afca-0c0caa460d4d"},"vehicle_type_id":"4","last_reported":1751742485,"current_range_meters":8400,"station_id":"ce4bhr12rcd13ifvqhpg","pricing_plan_id":"cebpf4jnsgd1na2vs0mg"},{"bike_id":"e227ba38-cf05-4368-b4e3-deb39e7d2c57","system_id":"levelo_inurba_marseille","lat":43.30941,"lon":5.3904,"is_reserved":false,"is_disabled":false,"rental_uris":{"android":"levelo://app?vid=e227ba38-cf05-4368-b4e3-deb39e7d2c57","ios":"levelo://app?vid=e227ba38-cf05-4368-b4e3-deb39e7d2c57"},"vehicle_type_id":"4","last_reported":1751742485,"current_range_meters":8800,"station_id":"","pricing_plan_id":"cebpf4jnsgd1na2vs0mg"},{"bike_id":"b26fae72-751e-4090-a9c4-76ff5de1ad66","system_id":"levelo_inurba_marseille","lat":43.33266,"lon":5.38025,"is_reserved":false,"is_disabled":false,"rental_uris":{"android":"levelo://app?vid=b26fae72-751e-4090-a9c4-76ff5de1ad66","ios":"levelo://app?vid=b26fae72-751e-4090-a9c4-76ff5de1ad66"},"vehicle_type_id":"4","last_reported":1751742485,"current_range_meters":8800,"station_id":"","pricing_plan_id":"cebpf4jnsgd1na2vs0mg"},{"bike_id":"6b0a1fd8-d9c6-42b7-8aee-05d9231cf95a","system_id":"levelo_inurba_marseille","lat":43.29212,"lon":5.39992,"is_reserved":false,"is_disabled":false,"rental_uris":{"android":"levelo://app?vid=6b0a1fd8-d9c6-42b7-8aee-05d9231cf95a","ios":"levelo://app?vid=6b0a1fd8-d9c6-42b7-8aee-05d9231cf95a"},"vehicle_type_id":"4","last_reported":1751742485,"current_range_meters":8800,"station_id":"","pricing_plan_id":"cebpf4jnsgd1na2vs0mg"},{"bike_id":"36c296fb-83e1-4044-b065-50d87bcfbef1","system_id":"levelo_inurba_marseille","lat":43.30936,"lon":5.39062,"is_reserved":false,"is_disabled":false,"rental_uris":{"android":"levelo://app?vid=36c296fb-83e1-4044-b065-50d87bcfbef1","ios":"levelo://app?vid=36c296fb-83e1-4044-b065-50d87bcfbef1"},"vehicle_type_id":"4","last_reported":1751742485,"current_range_meters":8800,"station_id":"ce4bgup2rcd13ifvqco0","pricing_plan_id":"cebpf4jnsgd1na2vs0mg"},{"bike_id":"7b543ada-dbb7-4448-b53c-97d8ed39487b","system_id":"levelo_inurba_marseille","lat":43.28939,"lon":5.36641,"is_reserved":false,"is_disabled":false,"rental_uris":{"android":"levelo://app?vid=7b543ada-dbb7-4448-b53c-97d8ed39487b","ios":"levelo://app?vid=7b543ada-dbb7-4448-b53c-97d8ed39487b"},"vehicle_type_id":"4","last_reported":1751742485,"current_range_meters":8800,"station_id":"ce4bhap2rcd13ifvqek0","pricing_plan_id":"cebpf4jnsgd1na2vs0mg"},{"bike_id":"acf7eee5-e5cc-428a-8c04-0c30743ff8a3","system_id":"levelo_inurba_marseille","lat":43.29266,"lon":5.36848,"is_reserved":false,"is_disabled":false,"rental_uris":{"android":"levelo://app?vid=acf7eee5-e5cc-428a-8c04-0c30743ff8a3","ios":"levelo://app?vid=acf7eee5-e5cc-428a-8c04-0c30743ff8a3"},"vehicle_type_id":"4","last_reported":1751742485,"current_range_meters":8800,"station_id":"ce4bhbp2rcd13ifvqesg","pricing_plan_id":"cebpf4jnsgd1na2vs0mg"},{"bike_id":"e598a001-86ae-4b5f-b6c2-1a67e21311f5","system_id":"levelo_inurba_marseille","lat":43.24551,"lon":5.3952,"is_reserved":false,"is_disabled":false,"rental_uris":{"android":"levelo://app?vid=e598a001-86ae-4b5f-b6c2-1a67e21311f5","ios":"levelo://app?vid=e598a001-86ae-4b5f-b6c2-1a67e21311f5"},"vehicle_type_id":"4","last_reported":1751742485,"current_range_meters":8800,"station_id":"ce4bhlp2rcd13ifvqgjg","pricing_plan_id":"cebpf4jnsgd1na2vs0mg"},{"bike_id":"54349a8e-2753-43b8-9098-880b9a47bb39","system_id":"levelo_inurba_marseille","lat":43.30412,"lon":5.41279,"is_reserved":false,"is_disabled":false,"rental_uris":{"android":"levelo://app?vid=54349a8e-2753-43b8-9098-880b9a47bb39","ios":"levelo://app?vid=54349a8e-2753-43b8-9098-880b9a47bb39"},"vehicle_type_id":"4","last_reported":1751742485,"current_range_meters":8800,"station_id":"ce4bhop2rcd13ifvqh8g","pricing_plan_id":"cebpf4jnsgd1na2vs0mg"},{"bike_id":"1c8ab180-05fd-405f-9922-b2b2c2d5142f","system_id":"levelo_inurba_marseille","lat":43.337891,"lon":5.381223,"is_reserved":false,"is_disabled":false,"rental_uris":{"android":"levelo://app?vid=1c8ab180-05fd-405f-9922-b2b2c2d5142f","ios":"levelo://app?vid=1c8ab180-05fd-405f-9922-b2b2c2d5142f"},"vehicle_type_id":"4","last_reported":1751742485,"current_range_meters":9200,"station_id":"","pricing_plan_id":"cebpf4jnsgd1na2vs0mg"},{"bike_id":"2b1512d1-7fd9-4126-90c4-54e88591cd2b","system_id":"levelo_inurba_marseille","lat":43.30904,"lon":5.36844,"is_reserved":false,"is_disabled":false,"rental_uris":{"android":"levelo://app?vid=2b1512d1-7fd9-4126-90c4-54e88591cd2b","ios":"levelo://app?vid=2b1512d1-7fd9-4126-90c4-54e88591cd2b"},"vehicle_type_id":"4","last_reported":1751742485,"current_range_meters":9200,"station_id":"ce4bgn92rcd13ifvqbvg","pricing_plan_id":"cebpf4jnsgd1na2vs0mg"},{"bike_id":"2d67eff7-3fcd-4ab9-aa31-38a4caaf79f0","system_id":"levelo_inurba_marseille","lat":43.28558,"lon":5.39515,"is_reserved":false,"is_disabled":false,"rental_uris":{"android":"levelo://app?vid=2d67eff7-3fcd-4ab9-aa31-38a4caaf79f0","ios":"levelo://app?vid=2d67eff7-3fcd-4ab9-aa31-38a4caaf79f0"},"vehicle_type_id":"4","last_reported":1751742485,"current_range_meters":9200,"station_id":"ce4bh292rcd13ifvqdg0","pricing_plan_id":"cebpf4jnsgd1na2vs0mg"},{"bike_id":"d13d9016-7c35-4095-a399-ac89fde82279","system_id":"levelo_inurba_marseille","lat":43.294159,"lon":5.386157,"is_reserved":false,"is_disabled":false,"rental_uris":{"android":"levelo://app?vid=d13d9016-7c35-4095-a399-ac89fde82279","ios":"levelo://app?vid=d13d9016-7c35-4095-a399-ac89fde82279"},"vehicle_type_id":"4","last_reported":1751742485,"current_range_meters":9200,"station_id":"ce4bh2h2rcd13ifvqdh0","pricing_plan_id":"cebpf4jnsgd1na2vs0mg"},{"bike_id":"69c2280d-9883-47db-99f2-c073a6babae6","system_id":"levelo_inurba_marseille","lat":43.30821,"lon":5.37017,"is_reserved":false,"is_disabled":false,"rental_uris":{"android":"levelo://app?vid=69c2280d-9883-47db-99f2-c073a6babae6","ios":"levelo://app?vid=69c2280d-9883-47db-99f2-c073a6babae6"},"vehicle_type_id":"4","last_reported":1751742485,"current_range_meters":9600,"station_id":"","pricing_plan_id":"cebpf4jnsgd1na2vs0mg"},{"bike_id":"29f534f3-f43b-40a1-972c-ff4928125cc6","system_id":"levelo_inurba_marseille","lat":43.31361,"lon":5.38498,"is_reserved":false,"is_disabled":false,"rental_uris":{"android":"levelo://app?vid=29f534f3-f43b-40a1-972c-ff4928125cc6","ios":"levelo://app?vid=29f534f3-f43b-40a1-972c-ff4928125cc6"},"vehicle_type_id":"4","last_reported":1751742485,"current_range_meters":9600,"station_id":"ce4bgt92rcd13ifvqcf0","pricing_plan_id":"cebpf4jnsgd1na2vs0mg"},{"bike_id":"b6fc651c-afd3-404d-b515-fefd722d36fe","system_id":"levelo_inurba_marseille","lat":43.30947,"lon":5.39044,"is_reserved":false,"is_disabled":false,"rental_uris":{"android":"levelo://app?vid=b6fc651c-afd3-404d-b515-fefd722d36fe","ios":"levelo://app?vid=b6fc651c-afd3-404d-b515-fefd722d36fe"},"vehicle_type_id":"4","last_reported":1751742485,"current_range_meters":9600,"station_id":"ce4bgup2rcd13ifvqco0","pricing_plan_id":"cebpf4jnsgd1na2vs0mg"},{"bike_id":"2ad00b7e-d71d-47c5-877a-6a4c330df975","system_id":"levelo_inurba_marseille","lat":43.29859,"lon":5.39754,"is_reserved":false,"is_disabled":false,"rental_uris":{"android":"levelo://app?vid=2ad00b7e-d71d-47c5-877a-6a4c330df975","ios":"levelo://app?vid=2ad00b7e-d71d-47c5-877a-6a4c330df975"},"vehicle_type_id":"4","last_reported":1751742485,"current_range_meters":9600,"station_id":"ce4bh0h2rcd13ifvqd50","pricing_plan_id":"cebpf4jnsgd1na2vs0mg"},{"bike_id":"ac422fa6-019a-490c-a217-5ef57e7cc099","system_id":"levelo_inurba_marseille","lat":43.2606,"lon":5.39398,"is_reserved":false,"is_disabled":false,"rental_uris":{"android":"levelo://app?vid=ac422fa6-019a-490c-a217-5ef57e7cc099","ios":"levelo://app?vid=ac422fa6-019a-490c-a217-5ef57e7cc099"},"vehicle_type_id":"4","last_reported":1751742485,"current_range_meters":9600,"station_id":"ce4bhh92rcd13ifvqfj0","pricing_plan_id":"cebpf4jnsgd1na2vs0mg"},{"bike_id":"5621ac77-52f0-4e1a-92d6-a991cabe5104","system_id":"levelo_inurba_marseille","lat":43.2316,"lon":5.43715,"is_reserved":false,"is_disabled":false,"rental_uris":{"android":"levelo://app?vid=5621ac77-52f0-4e1a-92d6-a991cabe5104","ios":"levelo://app?vid=5621ac77-52f0-4e1a-92d6-a991cabe5104"},"vehicle_type_id":"4","last_reported":1751742485,"current_range_meters":9600,"station_id":"ce4bhmp2rcd13ifvqgog","pricing_plan_id":"cebpf4jnsgd1na2vs0mg"},{"bike_id":"4b8da722-ee9e-48a4-a5e5-3a8a10364708","system_id":"levelo_inurba_marseille","lat":43.31236,"lon":5.37799,"is_reserved":false,"is_disabled":false,"rental_uris":{"android":"levelo://app?vid=4b8da722-ee9e-48a4-a5e5-3a8a10364708","ios":"levelo://app?vid=4b8da722-ee9e-48a4-a5e5-3a8a10364708"},"vehicle_type_id":"4","last_reported":1751742485,"current_range_meters":10000,"station_id":"","pricing_plan_id":"cebpf4jnsgd1na2vs0mg"},{"bike_id":"4c4a1d36-e920-461c-b073-7b2b726a8e4f","system_id":"levelo_inurba_marseille","lat":43.29972,"lon":5.38489,"is_reserved":false,"is_disabled":false,"rental_uris":{"android":"levelo://app?vid=4c4a1d36-e920-461c-b073-7b2b726a8e4f","ios":"levelo://app?vid=4c4a1d36-e920-461c-b073-7b2b726a8e4f"},"vehicle_type_id":"4","last_reported":1751742485,"current_range_meters":10000,"station_id":"ce4bgj92rcd13ifvqbd0","pricing_plan_id":"cebpf4jnsgd1na2vs0mg"},{"bike_id":"88c571b3-ef1c-4183-972e-ebed8b92986c","system_id":"levelo_inurba_marseille","lat":43.30924,"lon":5.40153,"is_reserved":false,"is_disabled":false,"rental_uris":{"android":"levelo://app?vid=88c571b3-ef1c-4183-972e-ebed8b92986c","ios":"levelo://app?vid=88c571b3-ef1c-4183-972e-ebed8b92986c"},"vehicle_type_id":"4","last_reported":1751742485,"current_range_meters":10000,"station_id":"ce4bgvp2rcd13ifvqct0","pricing_plan_id":"cebpf4jnsgd1na2vs0mg"},{"bike_id":"d573e457-74e0-4e1d-9bb4-9be93fcb3499","system_id":"levelo_inurba_marseille","lat":43.28262,"lon":5.35057,"is_reserved":false,"is_disabled":false,"rental_uris":{"android":"levelo://app?vid=d573e457-74e0-4e1d-9bb4-9be93fcb3499","ios":"levelo://app?vid=d573e457-74e0-4e1d-9bb4-9be93fcb3499"},"vehicle_type_id":"4","last_reported":1751742485,"current_range_meters":10000,"station_id":"ce4bhbp2rcd13ifvqerg","pricing_plan_id":"cebpf4jnsgd1na2vs0mg"},{"bike_id":"4db45513-e520-4598-82fa-5809d80d4f3d","system_id":"levelo_inurba_marseille","lat":43.28104,"lon":5.35465,"is_reserved":false,"is_disabled":false,"rental_uris":{"android":"levelo://app?vid=4db45513-e520-4598-82fa-5809d80d4f3d","ios":"levelo://app?vid=4db45513-e520-4598-82fa-5809d80d4f3d"},"vehicle_type_id":"4","last_reported":1751742485,"current_range_meters":10800,"station_id":"","pricing_plan_id":"cebpf4jnsgd1na2vs0mg"},{"bike_id":"1e04b9e2-27c6-4b30-b902-6c81e18716e2","system_id":"levelo_inurba_marseille","lat":43.31173,"lon":5.37743,"is_reserved":false,"is_disabled":false,"rental_uris":{"android":"levelo://app?vid=1e04b9e2-27c6-4b30-b902-6c81e18716e2","ios":"levelo://app?vid=1e04b9e2-27c6-4b30-b902-6c81e18716e2"},"vehicle_type_id":"4","last_reported":1751742485,"current_range_meters":10800,"station_id":"","pricing_plan_id":"cebpf4jnsgd1na2vs0mg"},{"bike_id":"1b039762-2894-48cd-9595-0bf32ee6474f","system_id":"levelo_inurba_marseille","lat":43.2953,"lon":5.38539,"is_reserved":false,"is_disabled":false,"rental_uris":{"android":"levelo://app?vid=1b039762-2894-48cd-9595-0bf32ee6474f","ios":"levelo://app?vid=1b039762-2894-48cd-9595-0bf32ee6474f"},"vehicle_type_id":"4","last_reported":1751742485,"current_range_meters":10800,"station_id":"ce4bgih2rcd13ifvqba0","pricing_plan_id":"cebpf4jnsgd1na2vs0mg"},{"bike_id":"8476c491-c4d0-4a88-8b40-e47fa0ac18dd","system_id":"levelo_inurba_marseille","lat":43.31472,"lon":5.37316,"is_reserved":false,"is_disabled":false,"rental_uris":{"android":"levelo://app?vid=8476c491-c4d0-4a88-8b40-e47fa0ac18dd","ios":"levelo://app?vid=8476c491-c4d0-4a88-8b40-e47fa0ac18dd"},"vehicle_type_id":"4","last_reported":1751742485,"current_range_meters":10800,"station_id":"ce4bgt12rcd13ifvqcd0","pricing_plan_id":"cebpf4jnsgd1na2vs0mg"},{"bike_id":"559e2904-747d-4a02-9b1e-0ce54aaac2cf","system_id":"levelo_inurba_marseille","lat":43.3136,"lon":5.38499,"is_reserved":false,"is_disabled":false,"rental_uris":{"android":"levelo://app?vid=559e2904-747d-4a02-9b1e-0ce54aaac2cf","ios":"levelo://app?vid=559e2904-747d-4a02-9b1e-0ce54aaac2cf"},"vehicle_type_id":"4","last_reported":1751742485,"current_range_meters":10800,"station_id":"ce4bgt92rcd13ifvqcf0","pricing_plan_id":"cebpf4jnsgd1na2vs0mg"},{"bike_id":"ba029e0b-4345-4790-9497-4bf99e50af46","system_id":"levelo_inurba_marseille","lat":43.30935,"lon":5.3904,"is_reserved":false,"is_disabled":false,"rental_uris":{"android":"levelo://app?vid=ba029e0b-4345-4790-9497-4bf99e50af46","ios":"levelo://app?vid=ba029e0b-4345-4790-9497-4bf99e50af46"},"vehicle_type_id":"4","last_reported":1751742485,"current_range_meters":10800,"station_id":"ce4bgup2rcd13ifvqco0","pricing_plan_id":"cebpf4jnsgd1na2vs0mg"},{"bike_id":"338904b9-8a90-4989-bae7-fad498a626ce","system_id":"levelo_inurba_marseille","lat":43.30946,"lon":5.39035,"is_reserved":false,"is_disabled":false,"rental_uris":{"android":"levelo://app?vid=338904b9-8a90-4989-bae7-fad498a626ce","ios":"levelo://app?vid=338904b9-8a90-4989-bae7-fad498a626ce"},"vehicle_type_id":"4","last_reported":1751742485,"current_range_meters":10800,"station_id":"ce4bgup2rcd13ifvqco0","pricing_plan_id":"cebpf4jnsgd1na2vs0mg"},{"bike_id":"7587c3fb-c4de-4915-9132-03b126c5a97b","system_id":"levelo_inurba_marseille","lat":43.28083,"lon":5.39631,"is_reserved":false,"is_disabled":false,"rental_uris":{"android":"levelo://app?vid=7587c3fb-c4de-4915-9132-03b126c5a97b","ios":"levelo://app?vid=7587c3fb-c4de-4915-9132-03b126c5a97b"},"vehicle_type_id":"4","last_reported":1751742485,"current_range_meters":10800,"station_id":"ce4bho12rcd13ifvqh2g","pricing_plan_id":"cebpf4jnsgd1na2vs0mg"},{"bike_id":"86c92dc1-b4da-49d9-acb8-ba390f939865","system_id":"levelo_inurba_marseille","lat":43.33017,"lon":5.39026,"is_reserved":false,"is_disabled":false,"rental_uris":{"android":"levelo://app?vid=86c92dc1-b4da-49d9-acb8-ba390f939865","ios":"levelo://app?vid=86c92dc1-b4da-49d9-acb8-ba390f939865"},"vehicle_type_id":"4","last_reported":1751742485,"current_range_meters":10800,"station_id":"ce4bhr92rcd13ifvqhrg","pricing_plan_id":"cebpf4jnsgd1na2vs0mg"},{"bike_id":"89b4eca9-e526-4b41-be44-89c8952c28b2","system_id":"levelo_inurba_marseille","lat":43.309518,"lon":5.390262,"is_reserved":false,"is_disabled":false,"rental_uris":{"android":"levelo://app?vid=89b4eca9-e526-4b41-be44-89c8952c28b2","ios":"levelo://app?vid=89b4eca9-e526-4b41-be44-89c8952c28b2"},"vehicle_type_id":"4","last_reported":1751742485,"current_range_meters":11200,"station_id":"ce4bgg92rcd13ifvqb30","pricing_plan_id":"cebpf4jnsgd1na2vs0mg"},{"bike_id":"86fd8981-20f9-4224-bd4a-ffbfeb25559b","system_id":"levelo_inurba_marseille","lat":43.30542,"lon":5.38434,"is_reserved":false,"is_disabled":false,"rental_uris":{"android":"levelo://app?vid=86fd8981-20f9-4224-bd4a-ffbfeb25559b","ios":"levelo://app?vid=86fd8981-20f9-4224-bd4a-ffbfeb25559b"},"vehicle_type_id":"4","last_reported":1751742485,"current_range_meters":11200,"station_id":"ce4bgg92rcd13ifvqb30","pricing_plan_id":"cebpf4jnsgd1na2vs0mg"},{"bike_id":"a4a7b91a-9bcb-45ac-ad95-e34a86e555f2","system_id":"levelo_inurba_marseille","lat":43.29501,"lon":5.37524,"is_reserved":false,"is_disabled":false,"rental_uris":{"android":"levelo://app?vid=a4a7b91a-9bcb-45ac-ad95-e34a86e555f2","ios":"levelo://app?vid=a4a7b91a-9bcb-45ac-ad95-e34a86e555f2"},"vehicle_type_id":"4","last_reported":1751742485,"current_range_meters":11200,"station_id":"ce4bgkp2rcd13ifvqbmg","pricing_plan_id":"cebpf4jnsgd1na2vs0mg"},{"bike_id":"3a9f8733-1d66-4d01-8f4b-4b845ee4d218","system_id":"levelo_inurba_marseille","lat":43.30939,"lon":5.39037,"is_reserved":false,"is_disabled":false,"rental_uris":{"android":"levelo://app?vid=3a9f8733-1d66-4d01-8f4b-4b845ee4d218","ios":"levelo://app?vid=3a9f8733-1d66-4d01-8f4b-4b845ee4d218"},"vehicle_type_id":"4","last_reported":1751742485,"current_range_meters":11200,"station_id":"ce4bgup2rcd13ifvqco0","pricing_plan_id":"cebpf4jnsgd1na2vs0mg"},{"bike_id":"a8d1ceee-a613-4132-9d94-042f11f77c25","system_id":"levelo_inurba_marseille","lat":43.28938,"lon":5.39631,"is_reserved":false,"is_disabled":false,"rental_uris":{"android":"levelo://app?vid=a8d1ceee-a613-4132-9d94-042f11f77c25","ios":"levelo://app?vid=a8d1ceee-a613-4132-9d94-042f11f77c25"},"vehicle_type_id":"4","last_reported":1751742485,"current_range_meters":11200,"station_id":"ce4bh3h2rcd13ifvqdn0","pricing_plan_id":"cebpf4jnsgd1na2vs0mg"},{"bike_id":"995ff9f6-ed11-43db-bd38-0b6d23095eb7","system_id":"levelo_inurba_marseille","lat":43.2835,"lon":5.38096,"is_reserved":false,"is_disabled":false,"rental_uris":{"android":"levelo://app?vid=995ff9f6-ed11-43db-bd38-0b6d23095eb7","ios":"levelo://app?vid=995ff9f6-ed11-43db-bd38-0b6d23095eb7"},"vehicle_type_id":"4","last_reported":1751742485,"current_range_meters":11600,"station_id":"ce4bh412rcd13ifvqdr0","pricing_plan_id":"cebpf4jnsgd1na2vs0mg"},{"bike_id":"fbb6eb26-f5ee-4d8b-a185-17f748b796b4","system_id":"levelo_inurba_marseille","lat":43.3171,"lon":5.43703,"is_reserved":false,"is_disabled":false,"rental_uris":{"android":"levelo://app?vid=fbb6eb26-f5ee-4d8b-a185-17f748b796b4","ios":"levelo://app?vid=fbb6eb26-f5ee-4d8b-a185-17f748b796b4"},"vehicle_type_id":"4","last_reported":1751742485,"current_range_meters":11600,"station_id":"ce4bhp92rcd13ifvqhcg","pricing_plan_id":"cebpf4jnsgd1na2vs0mg"},{"bike_id":"daeee1e5-3b93-44da-8e47-7b24df6d544e","system_id":"levelo_inurba_marseille","lat":43.3,"lon":5.37349,"is_reserved":false,"is_disabled":false,"rental_uris":{"android":"levelo://app?vid=daeee1e5-3b93-44da-8e47-7b24df6d544e","ios":"levelo://app?vid=daeee1e5-3b93-44da-8e47-7b24df6d544e"},"vehicle_type_id":"4","last_reported":1751742485,"current_range_meters":12000,"station_id":"","pricing_plan_id":"cebpf4jnsgd1na2vs0mg"},{"bike_id":"92956f34-a313-40c1-a677-a4856fd13d79","system_id":"levelo_inurba_marseille","lat":43.31167,"lon":5.38711,"is_reserved":false,"is_disabled":false,"rental_uris":{"android":"levelo://app?vid=92956f34-a313-40c1-a677-a4856fd13d79","ios":"levelo://app?vid=92956f34-a313-40c1-a677-a4856fd13d79"},"vehicle_type_id":"4","last_reported":1751742485,"current_range_meters":12000,"station_id":"ce4bgv12rcd13ifvqcp0","pricing_plan_id":"cebpf4jnsgd1na2vs0mg"},{"bike_id":"2835a0f9-f0d8-4065-bfec-a99a55480d3d","system_id":"levelo_inurba_marseille","lat":43.24175,"lon":5.39741,"is_reserved":false,"is_disabled":false,"rental_uris":{"android":"levelo://app?vid=2835a0f9-f0d8-4065-bfec-a99a55480d3d","ios":"levelo://app?vid=2835a0f9-f0d8-4065-bfec-a99a55480d3d"},"vehicle_type_id":"4","last_reported":1751742485,"current_range_meters":12000,"station_id":"ce4bhn12rcd13ifvqgpg","pricing_plan_id":"cebpf4jnsgd1na2vs0mg"},{"bike_id":"b1d40197-e49c-4962-8cd8-0babe05d31a6","system_id":"levelo_inurba_marseille","lat":43.21228,"lon":5.3529,"is_reserved":false,"is_disabled":false,"rental_uris":{"android":"levelo://app?vid=b1d40197-e49c-4962-8cd8-0babe05d31a6","ios":"levelo://app?vid=b1d40197-e49c-4962-8cd8-0babe05d31a6"},"vehicle_type_id":"4","last_reported":1751742485,"current_range_meters":12400,"station_id":"","pricing_plan_id":"cebpf4jnsgd1na2vs0mg"},{"bike_id":"84677b0b-cf40-4a0f-8b59-dc515bb38b62","system_id":"levelo_inurba_marseille","lat":43.29541,"lon":5.38542,"is_reserved":false,"is_disabled":false,"rental_uris":{"android":"levelo://app?vid=84677b0b-cf40-4a0f-8b59-dc515bb38b62","ios":"levelo://app?vid=84677b0b-cf40-4a0f-8b59-dc515bb38b62"},"vehicle_type_id":"4","last_reported":1751742485,"current_range_meters":12400,"station_id":"ce4bgih2rcd13ifvqba0","pricing_plan_id":"cebpf4jnsgd1na2vs0mg"},{"bike_id":"dbcb8a3b-8ed1-42a1-adb9-e44b9106b840","system_id":"levelo_inurba_marseille","lat":43.3095,"lon":5.39045,"is_reserved":false,"is_disabled":false,"rental_uris":{"android":"levelo://app?vid=dbcb8a3b-8ed1-42a1-adb9-e44b9106b840","ios":"levelo://app?vid=dbcb8a3b-8ed1-42a1-adb9-e44b9106b840"},"vehicle_type_id":"4","last_reported":1751742485,"current_range_meters":12400,"station_id":"ce4bgup2rcd13ifvqco0","pricing_plan_id":"cebpf4jnsgd1na2vs0mg"},{"bike_id":"de198ce5-8e83-43b7-a0c7-926b317fb475","system_id":"levelo_inurba_marseille","lat":43.27806,"lon":5.40711,"is_reserved":false,"is_disabled":false,"rental_uris":{"android":"levelo://app?vid=de198ce5-8e83-43b7-a0c7-926b317fb475","ios":"levelo://app?vid=de198ce5-8e83-43b7-a0c7-926b317fb475"},"vehicle_type_id":"4","last_reported":1751742485,"current_range_meters":12400,"station_id":"ce4bhnh2rcd13ifvqgtg","pricing_plan_id":"cebpf4jnsgd1na2vs0mg"},{"bike_id":"83d30763-53ce-440f-a78b-c80d98f22807","system_id":"levelo_inurba_marseille","lat":43.27993,"lon":5.40019,"is_reserved":false,"is_disabled":false,"rental_uris":{"android":"levelo://app?vid=83d30763-53ce-440f-a78b-c80d98f22807","ios":"levelo://app?vid=83d30763-53ce-440f-a78b-c80d98f22807"},"vehicle_type_id":"4","last_reported":1751742485,"current_range_meters":12400,"station_id":"ce4bho92rcd13ifvqh4g","pricing_plan_id":"cebpf4jnsgd1na2vs0mg"},{"bike_id":"d008f2d7-a6e8-4370-83cd-46244114c79c","system_id":"levelo_inurba_marseille","lat":43.231906,"lon":5.355441,"is_reserved":false,"is_disabled":false,"rental_uris":{"android":"levelo://app?vid=d008f2d7-a6e8-4370-83cd-46244114c79c","ios":"levelo://app?vid=d008f2d7-a6e8-4370-83cd-46244114c79c"},"vehicle_type_id":"4","last_reported":1751742485,"current_range_meters":12400,"station_id":"ce4bhu92rcd13ifvqi70","pricing_plan_id":"cebpf4jnsgd1na2vs0mg"},{"bike_id":"36a66f11-ea4b-4ce2-bd33-710f684f644d","system_id":"levelo_inurba_marseille","lat":43.3117,"lon":5.3871,"is_reserved":false,"is_disabled":false,"rental_uris":{"android":"levelo://app?vid=36a66f11-ea4b-4ce2-bd33-710f684f644d","ios":"levelo://app?vid=36a66f11-ea4b-4ce2-bd33-710f684f644d"},"vehicle_type_id":"4","last_reported":1751742485,"current_range_meters":12800,"station_id":"ce4bgv12rcd13ifvqcp0","pricing_plan_id":"cebpf4jnsgd1na2vs0mg"},{"bike_id":"ce9a6b88-00b3-44c1-89d8-903e71ada96d","system_id":"levelo_inurba_marseille","lat":43.30883,"lon":5.39637,"is_reserved":false,"is_disabled":false,"rental_uris":{"android":"levelo://app?vid=ce9a6b88-00b3-44c1-89d8-903e71ada96d","ios":"levelo://app?vid=ce9a6b88-00b3-44c1-89d8-903e71ada96d"},"vehicle_type_id":"4","last_reported":1751742485,"current_range_meters":12800,"station_id":"ce4bh012rcd13ifvqcv0","pricing_plan_id":"cebpf4jnsgd1na2vs0mg"},{"bike_id":"1c314aa7-85cf-46e8-a124-ab193d28009b","system_id":"levelo_inurba_marseille","lat":43.25501,"lon":5.37652,"is_reserved":false,"is_disabled":false,"rental_uris":{"android":"levelo://app?vid=1c314aa7-85cf-46e8-a124-ab193d28009b","ios":"levelo://app?vid=1c314aa7-85cf-46e8-a124-ab193d28009b"},"vehicle_type_id":"4","last_reported":1751742485,"current_range_meters":12800,"station_id":"ce4bhh12rcd13ifvqff0","pricing_plan_id":"cebpf4jnsgd1na2vs0mg"},{"bike_id":"41500941-e441-4feb-9b17-4bba752053cf","system_id":"levelo_inurba_marseille","lat":43.30952,"lon":5.39049,"is_reserved":false,"is_disabled":false,"rental_uris":{"android":"levelo://app?vid=41500941-e441-4feb-9b17-4bba752053cf","ios":"levelo://app?vid=41500941-e441-4feb-9b17-4bba752053cf"},"vehicle_type_id":"4","last_reported":1751742485,"current_range_meters":13600,"station_id":"ce4bgup2rcd13ifvqco0","pricing_plan_id":"cebpf4jnsgd1na2vs0mg"},{"bike_id":"bb529eb9-2560-447b-b0a1-a513d0dd952e","system_id":"levelo_inurba_marseille","lat":43.30939,"lon":5.39047,"is_reserved":false,"is_disabled":false,"rental_uris":{"android":"levelo://app?vid=bb529eb9-2560-447b-b0a1-a513d0dd952e","ios":"levelo://app?vid=bb529eb9-2560-447b-b0a1-a513d0dd952e"},"vehicle_type_id":"4","last_reported":1751742485,"current_range_meters":13600,"station_id":"ce4bgup2rcd13ifvqco0","pricing_plan_id":"cebpf4jnsgd1na2vs0mg"},{"bike_id":"c0f33a4b-2a86-4b3f-8c28-0f7c687f9052","system_id":"levelo_inurba_marseille","lat":43.31164,"lon":5.38714,"is_reserved":false,"is_disabled":false,"rental_uris":{"android":"levelo://app?vid=c0f33a4b-2a86-4b3f-8c28-0f7c687f9052","ios":"levelo://app?vid=c0f33a4b-2a86-4b3f-8c28-0f7c687f9052"},"vehicle_type_id":"4","last_reported":1751742485,"current_range_meters":13600,"station_id":"ce4bgv12rcd13ifvqcp0","pricing_plan_id":"cebpf4jnsgd1na2vs0mg"},{"bike_id":"5eb8716b-d46d-4116-82be-4f68285f96e7","system_id":"levelo_inurba_marseille","lat":43.28402,"lon":5.37508,"is_reserved":false,"is_disabled":false,"rental_uris":{"android":"levelo://app?vid=5eb8716b-d46d-4116-82be-4f68285f96e7","ios":"levelo://app?vid=5eb8716b-d46d-4116-82be-4f68285f96e7"},"vehicle_type_id":"4","last_reported":1751742485,"current_range_meters":13600,"station_id":"ce4bh412rcd13ifvqds0","pricing_plan_id":"cebpf4jnsgd1na2vs0mg"},{"bike_id":"32883bb5-17a5-41a5-a279-4d119c078ea2","system_id":"levelo_inurba_marseille","lat":43.26212,"lon":5.37438,"is_reserved":false,"is_disabled":false,"rental_uris":{"android":"levelo://app?vid=32883bb5-17a5-41a5-a279-4d119c078ea2","ios":"levelo://app?vid=32883bb5-17a5-41a5-a279-4d119c078ea2"},"vehicle_type_id":"4","last_reported":1751742485,"current_range_meters":13600,"station_id":"ce4bhgp2rcd13ifvqfc0","pricing_plan_id":"cebpf4jnsgd1na2vs0mg"},{"bike_id":"7435f08c-6953-4ba3-bcb3-810244efcf74","system_id":"levelo_inurba_marseille","lat":43.32106,"lon":5.36767,"is_reserved":false,"is_disabled":false,"rental_uris":{"android":"levelo://app?vid=7435f08c-6953-4ba3-bcb3-810244efcf74","ios":"levelo://app?vid=7435f08c-6953-4ba3-bcb3-810244efcf74"},"vehicle_type_id":"4","last_reported":1751742485,"current_range_meters":13600,"station_id":"ce4bhrh2rcd13ifvqhug","pricing_plan_id":"cebpf4jnsgd1na2vs0mg"},{"bike_id":"c4ff648a-f214-4632-8118-32b7fd04476a","system_id":"levelo_inurba_marseille","lat":43.31525,"lon":5.38032,"is_reserved":false,"is_disabled":false,"rental_uris":{"android":"levelo://app?vid=c4ff648a-f214-4632-8118-32b7fd04476a","ios":"levelo://app?vid=c4ff648a-f214-4632-8118-32b7fd04476a"},"vehicle_type_id":"4","last_reported":1751742485,"current_range_meters":13600,"station_id":"ce4bhsp2rcd13ifvqi50","pricing_plan_id":"cebpf4jnsgd1na2vs0mg"},{"bike_id":"8b01cf32-54e2-4fd2-a618-94fbfc8c3130","system_id":"levelo_inurba_marseille","lat":43.23193,"lon":5.3554,"is_reserved":false,"is_disabled":false,"rental_uris":{"android":"levelo://app?vid=8b01cf32-54e2-4fd2-a618-94fbfc8c3130","ios":"levelo://app?vid=8b01cf32-54e2-4fd2-a618-94fbfc8c3130"},"vehicle_type_id":"4","last_reported":1751742485,"current_range_meters":13600,"station_id":"ce4bhu92rcd13ifvqi70","pricing_plan_id":"cebpf4jnsgd1na2vs0mg"},{"bike_id":"adf1d38d-1f03-40cf-9b57-0a8f15f62b2d","system_id":"levelo_inurba_marseille","lat":43.32957,"lon":5.36385,"is_reserved":false,"is_disabled":false,"rental_uris":{"android":"levelo://app?vid=adf1d38d-1f03-40cf-9b57-0a8f15f62b2d","ios":"levelo://app?vid=adf1d38d-1f03-40cf-9b57-0a8f15f62b2d"},"vehicle_type_id":"4","last_reported":1751742485,"current_range_meters":14000,"station_id":"","pricing_plan_id":"cebpf4jnsgd1na2vs0mg"},{"bike_id":"4a6b16b5-ec75-4741-b19b-4b752cffac2b","system_id":"levelo_inurba_marseille","lat":43.25495,"lon":5.37654,"is_reserved":false,"is_disabled":false,"rental_uris":{"android":"levelo://app?vid=4a6b16b5-ec75-4741-b19b-4b752cffac2b","ios":"levelo://app?vid=4a6b16b5-ec75-4741-b19b-4b752cffac2b"},"vehicle_type_id":"4","last_reported":1751742485,"current_range_meters":14000,"station_id":"ce4bhh12rcd13ifvqff0","pricing_plan_id":"cebpf4jnsgd1na2vs0mg"},{"bike_id":"36f9c75b-5d6c-412a-b395-ad8ffc2d771a","system_id":"levelo_inurba_marseille","lat":43.26027,"lon":5.41747,"is_reserved":false,"is_disabled":false,"rental_uris":{"android":"levelo://app?vid=36f9c75b-5d6c-412a-b395-ad8ffc2d771a","ios":"levelo://app?vid=36f9c75b-5d6c-412a-b395-ad8ffc2d771a"},"vehicle_type_id":"4","last_reported":1751742485,"current_range_meters":14400,"station_id":"","pricing_plan_id":"cebpf4jnsgd1na2vs0mg"},{"bike_id":"d712008c-4f25-4a2b-bf71-9d59dbc29da6","system_id":"levelo_inurba_marseille","lat":43.2573,"lon":5.41107,"is_reserved":false,"is_disabled":false,"rental_uris":{"android":"levelo://app?vid=d712008c-4f25-4a2b-bf71-9d59dbc29da6","ios":"levelo://app?vid=d712008c-4f25-4a2b-bf71-9d59dbc29da6"},"vehicle_type_id":"4","last_reported":1751742485,"current_range_meters":14400,"station_id":"","pricing_plan_id":"cebpf4jnsgd1na2vs0mg"},{"bike_id":"ba8e5270-5a7f-4191-a91d-7cf85eea91c2","system_id":"levelo_inurba_marseille","lat":43.28197,"lon":5.34957,"is_reserved":false,"is_disabled":false,"rental_uris":{"android":"levelo://app?vid=ba8e5270-5a7f-4191-a91d-7cf85eea91c2","ios":"levelo://app?vid=ba8e5270-5a7f-4191-a91d-7cf85eea91c2"},"vehicle_type_id":"4","last_reported":1751742485,"current_range_meters":14400,"station_id":"","pricing_plan_id":"cebpf4jnsgd1na2vs0mg"},{"bike_id":"390712f1-2bcb-4369-8d8c-04d4689965df","system_id":"levelo_inurba_marseille","lat":43.2953,"lon":5.38544,"is_reserved":false,"is_disabled":false,"rental_uris":{"android":"levelo://app?vid=390712f1-2bcb-4369-8d8c-04d4689965df","ios":"levelo://app?vid=390712f1-2bcb-4369-8d8c-04d4689965df"},"vehicle_type_id":"4","last_reported":1751742485,"current_range_meters":14400,"station_id":"ce4bgih2rcd13ifvqba0","pricing_plan_id":"cebpf4jnsgd1na2vs0mg"},{"bike_id":"a81c014a-2bd6-4a38-9183-528697e8abf7","system_id":"levelo_inurba_marseille","lat":43.31115,"lon":5.37763,"is_reserved":false,"is_disabled":false,"rental_uris":{"android":"levelo://app?vid=a81c014a-2bd6-4a38-9183-528697e8abf7","ios":"levelo://app?vid=a81c014a-2bd6-4a38-9183-528697e8abf7"},"vehicle_type_id":"4","last_reported":1751742485,"current_range_meters":14400,"station_id":"ce4bgt92rcd13ifvqcg0","pricing_plan_id":"cebpf4jnsgd1na2vs0mg"},{"bike_id":"6059c830-af5a-413e-a02b-0b02c64df85a","system_id":"levelo_inurba_marseille","lat":43.29262,"lon":5.38437,"is_reserved":false,"is_disabled":false,"rental_uris":{"android":"levelo://app?vid=6059c830-af5a-413e-a02b-0b02c64df85a","ios":"levelo://app?vid=6059c830-af5a-413e-a02b-0b02c64df85a"},"vehicle_type_id":"4","last_reported":1751742485,"current_range_meters":14400,"station_id":"ce4bh692rcd13ifvqea0","pricing_plan_id":"cebpf4jnsgd1na2vs0mg"},{"bike_id":"00d046c1-c97a-4cbf-9104-df0b8a144efc","system_id":"levelo_inurba_marseille","lat":43.27503,"lon":5.42453,"is_reserved":false,"is_disabled":false,"rental_uris":{"android":"levelo://app?vid=00d046c1-c97a-4cbf-9104-df0b8a144efc","ios":"levelo://app?vid=00d046c1-c97a-4cbf-9104-df0b8a144efc"},"vehicle_type_id":"4","last_reported":1751742485,"current_range_meters":14400,"station_id":"ce4bhn92rcd13ifvqgrg","pricing_plan_id":"cebpf4jnsgd1na2vs0mg"},{"bike_id":"fe8ee84c-fdfc-40aa-a1c2-6e36409c0740","system_id":"levelo_inurba_marseille","lat":43.26812,"lon":5.39057,"is_reserved":false,"is_disabled":false,"rental_uris":{"android":"levelo://app?vid=fe8ee84c-fdfc-40aa-a1c2-6e36409c0740","ios":"levelo://app?vid=fe8ee84c-fdfc-40aa-a1c2-6e36409c0740"},"vehicle_type_id":"4","last_reported":1751742485,"current_range_meters":14800,"station_id":"","pricing_plan_id":"cebpf4jnsgd1na2vs0mg"},{"bike_id":"4d8942c7-0e64-4b67-b6b6-d1a5c3d08cfb","system_id":"levelo_inurba_marseille","lat":43.224823,"lon":5.347908,"is_reserved":false,"is_disabled":false,"rental_uris":{"android":"levelo://app?vid=4d8942c7-0e64-4b67-b6b6-d1a5c3d08cfb","ios":"levelo://app?vid=4d8942c7-0e64-4b67-b6b6-d1a5c3d08cfb"},"vehicle_type_id":"4","last_reported":1751742485,"current_range_meters":14800,"station_id":"","pricing_plan_id":"cebpf4jnsgd1na2vs0mg"},{"bike_id":"63b47e91-f1c1-49bf-a433-5d6b52ff5682","system_id":"levelo_inurba_marseille","lat":43.31166,"lon":5.3871,"is_reserved":false,"is_disabled":false,"rental_uris":{"android":"levelo://app?vid=63b47e91-f1c1-49bf-a433-5d6b52ff5682","ios":"levelo://app?vid=63b47e91-f1c1-49bf-a433-5d6b52ff5682"},"vehicle_type_id":"4","last_reported":1751742485,"current_range_meters":14800,"station_id":"ce4bgv12rcd13ifvqcp0","pricing_plan_id":"cebpf4jnsgd1na2vs0mg"},{"bike_id":"4ca326be-cdb7-40e0-a9ab-f5f45c2feb07","system_id":"levelo_inurba_marseille","lat":43.26212,"lon":5.37445,"is_reserved":false,"is_disabled":false,"rental_uris":{"android":"levelo://app?vid=4ca326be-cdb7-40e0-a9ab-f5f45c2feb07","ios":"levelo://app?vid=4ca326be-cdb7-40e0-a9ab-f5f45c2feb07"},"vehicle_type_id":"4","last_reported":1751742485,"current_range_meters":14800,"station_id":"ce4bhgp2rcd13ifvqfc0","pricing_plan_id":"cebpf4jnsgd1na2vs0mg"},{"bike_id":"637fcc3b-c74d-473a-96c1-57ab4bb52ed7","system_id":"levelo_inurba_marseille","lat":43.25932,"lon":5.40922,"is_reserved":false,"is_disabled":false,"rental_uris":{"android":"levelo://app?vid=637fcc3b-c74d-473a-96c1-57ab4bb52ed7","ios":"levelo://app?vid=637fcc3b-c74d-473a-96c1-57ab4bb52ed7"},"vehicle_type_id":"4","last_reported":1751742485,"current_range_meters":14800,"station_id":"ce4bhm92rcd13ifvqglg","pricing_plan_id":"cebpf4jnsgd1na2vs0mg"},{"bike_id":"39a9c9b1-7e05-428d-b2ba-e4c1a623b164","system_id":"levelo_inurba_marseille","lat":43.29526,"lon":5.38539,"is_reserved":false,"is_disabled":false,"rental_uris":{"android":"levelo://app?vid=39a9c9b1-7e05-428d-b2ba-e4c1a623b164","ios":"levelo://app?vid=39a9c9b1-7e05-428d-b2ba-e4c1a623b164"},"vehicle_type_id":"4","last_reported":1751742485,"current_range_meters":15200,"station_id":"ce4bgih2rcd13ifvqba0","pricing_plan_id":"cebpf4jnsgd1na2vs0mg"},{"bike_id":"254b06bd-2177-439d-a911-69fa42b192a7","system_id":"levelo_inurba_marseille","lat":43.30946,"lon":5.39075,"is_reserved":false,"is_disabled":false,"rental_uris":{"android":"levelo://app?vid=254b06bd-2177-439d-a911-69fa42b192a7","ios":"levelo://app?vid=254b06bd-2177-439d-a911-69fa42b192a7"},"vehicle_type_id":"4","last_reported":1751742485,"current_range_meters":15200,"station_id":"ce4bgup2rcd13ifvqco0","pricing_plan_id":"cebpf4jnsgd1na2vs0mg"},{"bike_id":"b4ec6548-1bb5-43e2-9065-2cfc40654e0c","system_id":"levelo_inurba_marseille","lat":43.256623,"lon":5.382588,"is_reserved":false,"is_disabled":false,"rental_uris":{"android":"levelo://app?vid=b4ec6548-1bb5-43e2-9065-2cfc40654e0c","ios":"levelo://app?vid=b4ec6548-1bb5-43e2-9065-2cfc40654e0c"},"vehicle_type_id":"4","last_reported":1751742485,"current_range_meters":15200,"station_id":"ce4bhh12rcd13ifvqff0","pricing_plan_id":"cebpf4jnsgd1na2vs0mg"},{"bike_id":"1133fa96-960d-45e6-9328-aa458deeee07","system_id":"levelo_inurba_marseille","lat":43.26205,"lon":5.404,"is_reserved":false,"is_disabled":false,"rental_uris":{"android":"levelo://app?vid=1133fa96-960d-45e6-9328-aa458deeee07","ios":"levelo://app?vid=1133fa96-960d-45e6-9328-aa458deeee07"},"vehicle_type_id":"4","last_reported":1751742485,"current_range_meters":15200,"station_id":"ce4bhmh2rcd13ifvqgmg","pricing_plan_id":"cebpf4jnsgd1na2vs0mg"},{"bike_id":"736cb780-619a-4c87-bb33-3a45c6d3502b","system_id":"levelo_inurba_marseille","lat":43.32029,"lon":5.41525,"is_reserved":false,"is_disabled":false,"rental_uris":{"android":"levelo://app?vid=736cb780-619a-4c87-bb33-3a45c6d3502b","ios":"levelo://app?vid=736cb780-619a-4c87-bb33-3a45c6d3502b"},"vehicle_type_id":"4","last_reported":1751742485,"current_range_meters":15200,"station_id":"ce4bhq92rcd13ifvqhkg","pricing_plan_id":"cebpf4jnsgd1na2vs0mg"},{"bike_id":"38f7fbb9-ddf9-4adc-90d7-9ce9e9c6f27c","system_id":"levelo_inurba_marseille","lat":43.28246,"lon":5.38581,"is_reserved":false,"is_disabled":false,"rental_uris":{"android":"levelo://app?vid=38f7fbb9-ddf9-4adc-90d7-9ce9e9c6f27c","ios":"levelo://app?vid=38f7fbb9-ddf9-4adc-90d7-9ce9e9c6f27c"},"vehicle_type_id":"4","last_reported":1751742485,"current_range_meters":16000,"station_id":"","pricing_plan_id":"cebpf4jnsgd1na2vs0mg"},{"bike_id":"79eb233f-9b35-4efe-ac09-e001a0ad4f83","system_id":"levelo_inurba_marseille","lat":43.30878,"lon":5.39655,"is_reserved":false,"is_disabled":false,"rental_uris":{"android":"levelo://app?vid=79eb233f-9b35-4efe-ac09-e001a0ad4f83","ios":"levelo://app?vid=79eb233f-9b35-4efe-ac09-e001a0ad4f83"},"vehicle_type_id":"4","last_reported":1751742485,"current_range_meters":16000,"station_id":"ce4bh012rcd13ifvqcv0","pricing_plan_id":"cebpf4jnsgd1na2vs0mg"},{"bike_id":"18e903c3-bd69-4cad-bc4b-fefd2f289489","system_id":"levelo_inurba_marseille","lat":43.26231,"lon":5.404635,"is_reserved":false,"is_disabled":false,"rental_uris":{"android":"levelo://app?vid=18e903c3-bd69-4cad-bc4b-fefd2f289489","ios":"levelo://app?vid=18e903c3-bd69-4cad-bc4b-fefd2f289489"},"vehicle_type_id":"4","last_reported":1751742485,"current_range_meters":16000,"station_id":"ce4bhmh2rcd13ifvqgmg","pricing_plan_id":"cebpf4jnsgd1na2vs0mg"},{"bike_id":"7f0c1e3c-145d-459e-b135-55934e2c45cf","system_id":"levelo_inurba_marseille","lat":43.28124,"lon":5.42666,"is_reserved":false,"is_disabled":false,"rental_uris":{"android":"levelo://app?vid=7f0c1e3c-145d-459e-b135-55934e2c45cf","ios":"levelo://app?vid=7f0c1e3c-145d-459e-b135-55934e2c45cf"},"vehicle_type_id":"4","last_reported":1751742485,"current_range_meters":16000,"station_id":"ce4bhnh2rcd13ifvqgug","pricing_plan_id":"cebpf4jnsgd1na2vs0mg"},{"bike_id":"38855c64-4a55-4d3a-8da1-44a2b313158b","system_id":"levelo_inurba_marseille","lat":43.32368,"lon":5.36743,"is_reserved":false,"is_disabled":false,"rental_uris":{"android":"levelo://app?vid=38855c64-4a55-4d3a-8da1-44a2b313158b","ios":"levelo://app?vid=38855c64-4a55-4d3a-8da1-44a2b313158b"},"vehicle_type_id":"4","last_reported":1751742485,"current_range_meters":16000,"station_id":"ce4bhsh2rcd13ifvqi2g","pricing_plan_id":"cebpf4jnsgd1na2vs0mg"},{"bike_id":"e9f184b7-4c52-47df-adfb-be4fdc9c8ed3","system_id":"levelo_inurba_marseille","lat":43.231943,"lon":5.35552,"is_reserved":false,"is_disabled":false,"rental_uris":{"android":"levelo://app?vid=e9f184b7-4c52-47df-adfb-be4fdc9c8ed3","ios":"levelo://app?vid=e9f184b7-4c52-47df-adfb-be4fdc9c8ed3"},"vehicle_type_id":"4","last_reported":1751742485,"current_range_meters":16000,"station_id":"ce4bhu92rcd13ifvqi70","pricing_plan_id":"cebpf4jnsgd1na2vs0mg"},{"bike_id":"e449aa29-cae1-4432-9aec-dedc13360b20","system_id":"levelo_inurba_marseille","lat":43.21189,"lon":5.35078,"is_reserved":false,"is_disabled":false,"rental_uris":{"android":"levelo://app?vid=e449aa29-cae1-4432-9aec-dedc13360b20","ios":"levelo://app?vid=e449aa29-cae1-4432-9aec-dedc13360b20"},"vehicle_type_id":"4","last_reported":1751742485,"current_range_meters":16000,"station_id":"st_cvj6sg6p6f1abm77japg","pricing_plan_id":"cebpf4jnsgd1na2vs0mg"},{"bike_id":"bf24b26e-7f51-4120-9a48-54c87edaa2f7","system_id":"levelo_inurba_marseille","lat":43.21193,"lon":5.35074,"is_reserved":false,"is_disabled":false,"rental_uris":{"android":"levelo://app?vid=bf24b26e-7f51-4120-9a48-54c87edaa2f7","ios":"levelo://app?vid=bf24b26e-7f51-4120-9a48-54c87edaa2f7"},"vehicle_type_id":"4","last_reported":1751742485,"current_range_meters":16000,"station_id":"st_cvj6sg6p6f1abm77japg","pricing_plan_id":"cebpf4jnsgd1na2vs0mg"},{"bike_id":"9c8c780f-f296-4a33-98ff-a4dfab17d383","system_id":"levelo_inurba_marseille","lat":43.29703,"lon":5.36609,"is_reserved":false,"is_disabled":false,"rental_uris":{"android":"levelo://app?vid=9c8c780f-f296-4a33-98ff-a4dfab17d383","ios":"levelo://app?vid=9c8c780f-f296-4a33-98ff-a4dfab17d383"},"vehicle_type_id":"4","last_reported":1751742485,"current_range_meters":16400,"station_id":"ce4bgn12rcd13ifvqbt0","pricing_plan_id":"cebpf4jnsgd1na2vs0mg"},{"bike_id":"bba003aa-2c86-4d35-8454-122e7bddc421","system_id":"levelo_inurba_marseille","lat":43.30944,"lon":5.39048,"is_reserved":false,"is_disabled":false,"rental_uris":{"android":"levelo://app?vid=bba003aa-2c86-4d35-8454-122e7bddc421","ios":"levelo://app?vid=bba003aa-2c86-4d35-8454-122e7bddc421"},"vehicle_type_id":"4","last_reported":1751742485,"current_range_meters":16400,"station_id":"ce4bgup2rcd13ifvqco0","pricing_plan_id":"cebpf4jnsgd1na2vs0mg"},{"bike_id":"757ac034-1037-40e0-add9-8f165a766480","system_id":"levelo_inurba_marseille","lat":43.25493,"lon":5.37651,"is_reserved":false,"is_disabled":false,"rental_uris":{"android":"levelo://app?vid=757ac034-1037-40e0-add9-8f165a766480","ios":"levelo://app?vid=757ac034-1037-40e0-add9-8f165a766480"},"vehicle_type_id":"4","last_reported":1751742485,"current_range_meters":16400,"station_id":"ce4bhh12rcd13ifvqff0","pricing_plan_id":"cebpf4jnsgd1na2vs0mg"},{"bike_id":"f2130bee-7a19-4953-bf71-a817b9b563dc","system_id":"levelo_inurba_marseille","lat":43.30413,"lon":5.41279,"is_reserved":false,"is_disabled":false,"rental_uris":{"android":"levelo://app?vid=f2130bee-7a19-4953-bf71-a817b9b563dc","ios":"levelo://app?vid=f2130bee-7a19-4953-bf71-a817b9b563dc"},"vehicle_type_id":"4","last_reported":1751742485,"current_range_meters":16400,"station_id":"ce4bhop2rcd13ifvqh8g","pricing_plan_id":"cebpf4jnsgd1na2vs0mg"},{"bike_id":"e934df3a-55ad-4287-be0e-970eb81a614c","system_id":"levelo_inurba_marseille","lat":43.33755,"lon":5.39188,"is_reserved":false,"is_disabled":false,"rental_uris":{"android":"levelo://app?vid=e934df3a-55ad-4287-be0e-970eb81a614c","ios":"levelo://app?vid=e934df3a-55ad-4287-be0e-970eb81a614c"},"vehicle_type_id":"4","last_reported":1751742485,"current_range_meters":16400,"station_id":"ce4bhr92rcd13ifvqhsg","pricing_plan_id":"cebpf4jnsgd1na2vs0mg"},{"bike_id":"cfedde4d-29e4-48a6-bc2a-67d1ad344395","system_id":"levelo_inurba_marseille","lat":43.23194,"lon":5.35551,"is_reserved":false,"is_disabled":false,"rental_uris":{"android":"levelo://app?vid=cfedde4d-29e4-48a6-bc2a-67d1ad344395","ios":"levelo://app?vid=cfedde4d-29e4-48a6-bc2a-67d1ad344395"},"vehicle_type_id":"4","last_reported":1751742485,"current_range_meters":16400,"station_id":"ce4bhu92rcd13ifvqi70","pricing_plan_id":"cebpf4jnsgd1na2vs0mg"},{"bike_id":"cd6f91d4-bdaf-4e38-b4f5-14f6e83055e8","system_id":"levelo_inurba_marseille","lat":43.211929,"lon":5.350787,"is_reserved":false,"is_disabled":false,"rental_uris":{"android":"levelo://app?vid=cd6f91d4-bdaf-4e38-b4f5-14f6e83055e8","ios":"levelo://app?vid=cd6f91d4-bdaf-4e38-b4f5-14f6e83055e8"},"vehicle_type_id":"4","last_reported":1751742485,"current_range_meters":16400,"station_id":"st_cvj6sg6p6f1abm77japg","pricing_plan_id":"cebpf4jnsgd1na2vs0mg"},{"bike_id":"d858b784-4fd9-41d7-8169-6d2f7e176251","system_id":"levelo_inurba_marseille","lat":43.30034,"lon":5.37812,"is_reserved":false,"is_disabled":false,"rental_uris":{"android":"levelo://app?vid=d858b784-4fd9-41d7-8169-6d2f7e176251","ios":"levelo://app?vid=d858b784-4fd9-41d7-8169-6d2f7e176251"},"vehicle_type_id":"4","last_reported":1751742485,"current_range_meters":16800,"station_id":"","pricing_plan_id":"cebpf4jnsgd1na2vs0mg"},{"bike_id":"d98f8318-487e-4927-817f-c7d08a328c84","system_id":"levelo_inurba_marseille","lat":43.31163,"lon":5.38713,"is_reserved":false,"is_disabled":false,"rental_uris":{"android":"levelo://app?vid=d98f8318-487e-4927-817f-c7d08a328c84","ios":"levelo://app?vid=d98f8318-487e-4927-817f-c7d08a328c84"},"vehicle_type_id":"4","last_reported":1751742485,"current_range_meters":16800,"station_id":"ce4bgv12rcd13ifvqcp0","pricing_plan_id":"cebpf4jnsgd1na2vs0mg"},{"bike_id":"20c5c1d9-88c0-46f4-8a59-665deced8254","system_id":"levelo_inurba_marseille","lat":43.30207,"lon":5.39465,"is_reserved":false,"is_disabled":false,"rental_uris":{"android":"levelo://app?vid=20c5c1d9-88c0-46f4-8a59-665deced8254","ios":"levelo://app?vid=20c5c1d9-88c0-46f4-8a59-665deced8254"},"vehicle_type_id":"4","last_reported":1751742485,"current_range_meters":16800,"station_id":"ce4bh0p2rcd13ifvqd70","pricing_plan_id":"cebpf4jnsgd1na2vs0mg"},{"bike_id":"17e72bc4-afed-4421-bc74-0c66855fa736","system_id":"levelo_inurba_marseille","lat":43.29518,"lon":5.39399,"is_reserved":false,"is_disabled":false,"rental_uris":{"android":"levelo://app?vid=17e72bc4-afed-4421-bc74-0c66855fa736","ios":"levelo://app?vid=17e72bc4-afed-4421-bc74-0c66855fa736"},"vehicle_type_id":"4","last_reported":1751742485,"current_range_meters":16800,"station_id":"ce4bh292rcd13ifvqdf0","pricing_plan_id":"cebpf4jnsgd1na2vs0mg"},{"bike_id":"dc39cd39-2a9b-4702-b230-e33e32990dfc","system_id":"levelo_inurba_marseille","lat":43.29284,"lon":5.40117,"is_reserved":false,"is_disabled":false,"rental_uris":{"android":"levelo://app?vid=dc39cd39-2a9b-4702-b230-e33e32990dfc","ios":"levelo://app?vid=dc39cd39-2a9b-4702-b230-e33e32990dfc"},"vehicle_type_id":"4","last_reported":1751742485,"current_range_meters":16800,"station_id":"ce4bh312rcd13ifvqdk0","pricing_plan_id":"cebpf4jnsgd1na2vs0mg"},{"bike_id":"6203887d-23bb-4b4e-9498-37ef47679f9e","system_id":"levelo_inurba_marseille","lat":43.30416,"lon":5.41285,"is_reserved":false,"is_disabled":false,"rental_uris":{"android":"levelo://app?vid=6203887d-23bb-4b4e-9498-37ef47679f9e","ios":"levelo://app?vid=6203887d-23bb-4b4e-9498-37ef47679f9e"},"vehicle_type_id":"4","last_reported":1751742485,"current_range_meters":16800,"station_id":"ce4bhop2rcd13ifvqh8g","pricing_plan_id":"cebpf4jnsgd1na2vs0mg"},{"bike_id":"452e8211-4f44-45d0-814a-3e9e25b8c44e","system_id":"levelo_inurba_marseille","lat":43.21193,"lon":5.35078,"is_reserved":false,"is_disabled":false,"rental_uris":{"android":"levelo://app?vid=452e8211-4f44-45d0-814a-3e9e25b8c44e","ios":"levelo://app?vid=452e8211-4f44-45d0-814a-3e9e25b8c44e"},"vehicle_type_id":"4","last_reported":1751742485,"current_range_meters":16800,"station_id":"st_cvj6sg6p6f1abm77japg","pricing_plan_id":"cebpf4jnsgd1na2vs0mg"},{"bike_id":"89d2e01b-74ef-4516-8426-1037f763d3ac","system_id":"levelo_inurba_marseille","lat":43.27629,"lon":5.36098,"is_reserved":false,"is_disabled":false,"rental_uris":{"android":"levelo://app?vid=89d2e01b-74ef-4516-8426-1037f763d3ac","ios":"levelo://app?vid=89d2e01b-74ef-4516-8426-1037f763d3ac"},"vehicle_type_id":"4","last_reported":1751742485,"current_range_meters":17200,"station_id":"ce4bgj92rcd13ifvqbe0","pricing_plan_id":"cebpf4jnsgd1na2vs0mg"},{"bike_id":"31e382fb-2be4-4376-8277-726c5310c74a","system_id":"levelo_inurba_marseille","lat":43.298483,"lon":5.362784,"is_reserved":false,"is_disabled":false,"rental_uris":{"android":"levelo://app?vid=31e382fb-2be4-4376-8277-726c5310c74a","ios":"levelo://app?vid=31e382fb-2be4-4376-8277-726c5310c74a"},"vehicle_type_id":"4","last_reported":1751742485,"current_range_meters":17200,"station_id":"ce4bgpp2rcd13ifvqc3g","pricing_plan_id":"cebpf4jnsgd1na2vs0mg"},{"bike_id":"c36c1dd5-94de-479e-9aa2-37440e999633","system_id":"levelo_inurba_marseille","lat":43.31166,"lon":5.38721,"is_reserved":false,"is_disabled":false,"rental_uris":{"android":"levelo://app?vid=c36c1dd5-94de-479e-9aa2-37440e999633","ios":"levelo://app?vid=c36c1dd5-94de-479e-9aa2-37440e999633"},"vehicle_type_id":"4","last_reported":1751742485,"current_range_meters":17200,"station_id":"ce4bgv12rcd13ifvqcp0","pricing_plan_id":"cebpf4jnsgd1na2vs0mg"},{"bike_id":"23b223ed-1614-4e48-8b70-b21fb60b15bf","system_id":"levelo_inurba_marseille","lat":43.29569,"lon":5.39983,"is_reserved":false,"is_disabled":false,"rental_uris":{"android":"levelo://app?vid=23b223ed-1614-4e48-8b70-b21fb60b15bf","ios":"levelo://app?vid=23b223ed-1614-4e48-8b70-b21fb60b15bf"},"vehicle_type_id":"4","last_reported":1751742485,"current_range_meters":17200,"station_id":"ce4bh312rcd13ifvqdj0","pricing_plan_id":"cebpf4jnsgd1na2vs0mg"},{"bike_id":"c14a4edc-379c-464e-9fd8-b5ed5f32fed0","system_id":"levelo_inurba_marseille","lat":43.2957,"lon":5.39973,"is_reserved":false,"is_disabled":false,"rental_uris":{"android":"levelo://app?vid=c14a4edc-379c-464e-9fd8-b5ed5f32fed0","ios":"levelo://app?vid=c14a4edc-379c-464e-9fd8-b5ed5f32fed0"},"vehicle_type_id":"4","last_reported":1751742485,"current_range_meters":17200,"station_id":"ce4bh312rcd13ifvqdj0","pricing_plan_id":"cebpf4jnsgd1na2vs0mg"},{"bike_id":"38556a8c-bc16-440b-aba1-9df44c77db93","system_id":"levelo_inurba_marseille","lat":43.262361,"lon":5.404574,"is_reserved":false,"is_disabled":false,"rental_uris":{"android":"levelo://app?vid=38556a8c-bc16-440b-aba1-9df44c77db93","ios":"levelo://app?vid=38556a8c-bc16-440b-aba1-9df44c77db93"},"vehicle_type_id":"4","last_reported":1751742485,"current_range_meters":17200,"station_id":"ce4bhmh2rcd13ifvqgmg","pricing_plan_id":"cebpf4jnsgd1na2vs0mg"},{"bike_id":"aca47642-4ceb-4a40-bae0-66b7f0d6dee2","system_id":"levelo_inurba_marseille","lat":43.2251,"lon":5.34792,"is_reserved":false,"is_disabled":false,"rental_uris":{"android":"levelo://app?vid=aca47642-4ceb-4a40-bae0-66b7f0d6dee2","ios":"levelo://app?vid=aca47642-4ceb-4a40-bae0-66b7f0d6dee2"},"vehicle_type_id":"4","last_reported":1751742485,"current_range_meters":17200,"station_id":"st_cvj5dfep6f1abm77gieg","pricing_plan_id":"cebpf4jnsgd1na2vs0mg"},{"bike_id":"c13b5e34-7419-4548-aa5c-2eae435afd90","system_id":"levelo_inurba_marseille","lat":43.30952,"lon":5.39043,"is_reserved":false,"is_disabled":false,"rental_uris":{"android":"levelo://app?vid=c13b5e34-7419-4548-aa5c-2eae435afd90","ios":"levelo://app?vid=c13b5e34-7419-4548-aa5c-2eae435afd90"},"vehicle_type_id":"4","last_reported":1751742485,"current_range_meters":17600,"station_id":"ce4bgup2rcd13ifvqco0","pricing_plan_id":"cebpf4jnsgd1na2vs0mg"},{"bike_id":"a5431da6-64f4-443c-ba05-a972d78a5e83","system_id":"levelo_inurba_marseille","lat":43.30937,"lon":5.39036,"is_reserved":false,"is_disabled":false,"rental_uris":{"android":"levelo://app?vid=a5431da6-64f4-443c-ba05-a972d78a5e83","ios":"levelo://app?vid=a5431da6-64f4-443c-ba05-a972d78a5e83"},"vehicle_type_id":"4","last_reported":1751742485,"current_range_meters":17600,"station_id":"ce4bgup2rcd13ifvqco0","pricing_plan_id":"cebpf4jnsgd1na2vs0mg"},{"bike_id":"77c83707-cfda-4bb9-a0ea-9e7ed407d883","system_id":"levelo_inurba_marseille","lat":43.30942,"lon":5.39054,"is_reserved":false,"is_disabled":false,"rental_uris":{"android":"levelo://app?vid=77c83707-cfda-4bb9-a0ea-9e7ed407d883","ios":"levelo://app?vid=77c83707-cfda-4bb9-a0ea-9e7ed407d883"},"vehicle_type_id":"4","last_reported":1751742485,"current_range_meters":17600,"station_id":"ce4bgup2rcd13ifvqco0","pricing_plan_id":"cebpf4jnsgd1na2vs0mg"},{"bike_id":"75999e01-814d-4dc5-a6ed-4ec0cc24db45","system_id":"levelo_inurba_marseille","lat":43.28972,"lon":5.37829,"is_reserved":false,"is_disabled":false,"rental_uris":{"android":"levelo://app?vid=75999e01-814d-4dc5-a6ed-4ec0cc24db45","ios":"levelo://app?vid=75999e01-814d-4dc5-a6ed-4ec0cc24db45"},"vehicle_type_id":"4","last_reported":1751742485,"current_range_meters":17600,"station_id":"ce4bh9p2rcd13ifvqed0","pricing_plan_id":"cebpf4jnsgd1na2vs0mg"},{"bike_id":"41d928e6-b9b0-4e48-84e1-7ba52781d76b","system_id":"levelo_inurba_marseille","lat":43.24682,"lon":5.38174,"is_reserved":false,"is_disabled":false,"rental_uris":{"android":"levelo://app?vid=41d928e6-b9b0-4e48-84e1-7ba52781d76b","ios":"levelo://app?vid=41d928e6-b9b0-4e48-84e1-7ba52781d76b"},"vehicle_type_id":"4","last_reported":1751742485,"current_range_meters":17600,"station_id":"ce4bhih2rcd13ifvqfr0","pricing_plan_id":"cebpf4jnsgd1na2vs0mg"},{"bike_id":"c310c455-2738-40af-9f2f-6b8c178c9275","system_id":"levelo_inurba_marseille","lat":43.27148,"lon":5.41011,"is_reserved":false,"is_disabled":false,"rental_uris":{"android":"levelo://app?vid=c310c455-2738-40af-9f2f-6b8c178c9275","ios":"levelo://app?vid=c310c455-2738-40af-9f2f-6b8c178c9275"},"vehicle_type_id":"4","last_reported":1751742485,"current_range_meters":17600,"station_id":"ce4bhl12rcd13ifvqgf0","pricing_plan_id":"cebpf4jnsgd1na2vs0mg"},{"bike_id":"c43eae3b-dccb-4509-aa37-b59577141f6c","system_id":"levelo_inurba_marseille","lat":43.23224,"lon":5.35559,"is_reserved":false,"is_disabled":false,"rental_uris":{"android":"levelo://app?vid=c43eae3b-dccb-4509-aa37-b59577141f6c","ios":"levelo://app?vid=c43eae3b-dccb-4509-aa37-b59577141f6c"},"vehicle_type_id":"4","last_reported":1751742485,"current_range_meters":17600,"station_id":"ce4bhu92rcd13ifvqi70","pricing_plan_id":"cebpf4jnsgd1na2vs0mg"},{"bike_id":"e38289a0-f2b8-4944-994f-dfab1897842e","system_id":"levelo_inurba_marseille","lat":43.29533,"lon":5.38544,"is_reserved":false,"is_disabled":false,"rental_uris":{"android":"levelo://app?vid=e38289a0-f2b8-4944-994f-dfab1897842e","ios":"levelo://app?vid=e38289a0-f2b8-4944-994f-dfab1897842e"},"vehicle_type_id":"4","last_reported":1751742485,"current_range_meters":18000,"station_id":"ce4bgih2rcd13ifvqba0","pricing_plan_id":"cebpf4jnsgd1na2vs0mg"},{"bike_id":"ae55aaba-511c-4391-acc5-54aa86dbd2a9","system_id":"levelo_inurba_marseille","lat":43.31064,"lon":5.38357,"is_reserved":false,"is_disabled":false,"rental_uris":{"android":"levelo://app?vid=ae55aaba-511c-4391-acc5-54aa86dbd2a9","ios":"levelo://app?vid=ae55aaba-511c-4391-acc5-54aa86dbd2a9"},"vehicle_type_id":"4","last_reported":1751742485,"current_range_meters":18000,"station_id":"ce4bgv92rcd13ifvqcr0","pricing_plan_id":"cebpf4jnsgd1na2vs0mg"},{"bike_id":"7ad44ac9-96dd-40ec-8071-1a0bdeb26bc5","system_id":"levelo_inurba_marseille","lat":43.28662,"lon":5.3635,"is_reserved":false,"is_disabled":false,"rental_uris":{"android":"levelo://app?vid=7ad44ac9-96dd-40ec-8071-1a0bdeb26bc5","ios":"levelo://app?vid=7ad44ac9-96dd-40ec-8071-1a0bdeb26bc5"},"vehicle_type_id":"4","last_reported":1751742485,"current_range_meters":18000,"station_id":"ce4bhah2rcd13ifvqej0","pricing_plan_id":"cebpf4jnsgd1na2vs0mg"},{"bike_id":"d5ac8cdf-52b8-49ac-9700-4c91ec376a71","system_id":"levelo_inurba_marseille","lat":43.24805,"lon":5.37445,"is_reserved":false,"is_disabled":false,"rental_uris":{"android":"levelo://app?vid=d5ac8cdf-52b8-49ac-9700-4c91ec376a71","ios":"levelo://app?vid=d5ac8cdf-52b8-49ac-9700-4c91ec376a71"},"vehicle_type_id":"4","last_reported":1751742485,"current_range_meters":18000,"station_id":"ce4bhgh2rcd13ifvqfb0","pricing_plan_id":"cebpf4jnsgd1na2vs0mg"},{"bike_id":"f80c61ac-9570-479a-b73c-17eeae26a6c8","system_id":"levelo_inurba_marseille","lat":43.27063,"lon":5.42266,"is_reserved":false,"is_disabled":false,"rental_uris":{"android":"levelo://app?vid=f80c61ac-9570-479a-b73c-17eeae26a6c8","ios":"levelo://app?vid=f80c61ac-9570-479a-b73c-17eeae26a6c8"},"vehicle_type_id":"4","last_reported":1751742485,"current_range_meters":18000,"station_id":"ce4bhk92rcd13ifvqgb0","pricing_plan_id":"cebpf4jnsgd1na2vs0mg"},{"bike_id":"cd6d3140-7b48-4f92-82f7-6a9cfbb0b387","system_id":"levelo_inurba_marseille","lat":43.31713,"lon":5.43706,"is_reserved":false,"is_disabled":false,"rental_uris":{"android":"levelo://app?vid=cd6d3140-7b48-4f92-82f7-6a9cfbb0b387","ios":"levelo://app?vid=cd6d3140-7b48-4f92-82f7-6a9cfbb0b387"},"vehicle_type_id":"4","last_reported":1751742485,"current_range_meters":18000,"station_id":"ce4bhp92rcd13ifvqhcg","pricing_plan_id":"cebpf4jnsgd1na2vs0mg"},{"bike_id":"3639c6e9-85c1-44ed-8dab-fe5e4a68b0a4","system_id":"levelo_inurba_marseille","lat":43.30535,"lon":5.38436,"is_reserved":false,"is_disabled":false,"rental_uris":{"android":"levelo://app?vid=3639c6e9-85c1-44ed-8dab-fe5e4a68b0a4","ios":"levelo://app?vid=3639c6e9-85c1-44ed-8dab-fe5e4a68b0a4"},"vehicle_type_id":"4","last_reported":1751742485,"current_range_meters":18800,"station_id":"ce4bgg92rcd13ifvqb30","pricing_plan_id":"cebpf4jnsgd1na2vs0mg"},{"bike_id":"0fb4452d-67ab-40fd-a600-077c2fa11da5","system_id":"levelo_inurba_marseille","lat":43.27631,"lon":5.36095,"is_reserved":false,"is_disabled":false,"rental_uris":{"android":"levelo://app?vid=0fb4452d-67ab-40fd-a600-077c2fa11da5","ios":"levelo://app?vid=0fb4452d-67ab-40fd-a600-077c2fa11da5"},"vehicle_type_id":"4","last_reported":1751742485,"current_range_meters":18800,"station_id":"ce4bgj92rcd13ifvqbe0","pricing_plan_id":"cebpf4jnsgd1na2vs0mg"},{"bike_id":"71632596-46e4-4bfe-b99f-0d2fb18c6a02","system_id":"levelo_inurba_marseille","lat":43.30941,"lon":5.39055,"is_reserved":false,"is_disabled":false,"rental_uris":{"android":"levelo://app?vid=71632596-46e4-4bfe-b99f-0d2fb18c6a02","ios":"levelo://app?vid=71632596-46e4-4bfe-b99f-0d2fb18c6a02"},"vehicle_type_id":"4","last_reported":1751742485,"current_range_meters":18800,"station_id":"ce4bgup2rcd13ifvqco0","pricing_plan_id":"cebpf4jnsgd1na2vs0mg"},{"bike_id":"9f8a20c4-aa84-4f9a-a327-069786eb155c","system_id":"levelo_inurba_marseille","lat":43.31066,"lon":5.38346,"is_reserved":false,"is_disabled":false,"rental_uris":{"android":"levelo://app?vid=9f8a20c4-aa84-4f9a-a327-069786eb155c","ios":"levelo://app?vid=9f8a20c4-aa84-4f9a-a327-069786eb155c"},"vehicle_type_id":"4","last_reported":1751742485,"current_range_meters":18800,"station_id":"ce4bgv92rcd13ifvqcr0","pricing_plan_id":"cebpf4jnsgd1na2vs0mg"},{"bike_id":"532b9476-7e55-4b4b-9b33-1fb06f909539","system_id":"levelo_inurba_marseille","lat":43.30593,"lon":5.39355,"is_reserved":false,"is_disabled":false,"rental_uris":{"android":"levelo://app?vid=532b9476-7e55-4b4b-9b33-1fb06f909539","ios":"levelo://app?vid=532b9476-7e55-4b4b-9b33-1fb06f909539"},"vehicle_type_id":"4","last_reported":1751742485,"current_range_meters":18800,"station_id":"ce4bh0p2rcd13ifvqd80","pricing_plan_id":"cebpf4jnsgd1na2vs0mg"},{"bike_id":"e151d009-7dcb-4be4-b379-3e0feec893ef","system_id":"levelo_inurba_marseille","lat":43.29276,"lon":5.36832,"is_reserved":false,"is_disabled":false,"rental_uris":{"android":"levelo://app?vid=e151d009-7dcb-4be4-b379-3e0feec893ef","ios":"levelo://app?vid=e151d009-7dcb-4be4-b379-3e0feec893ef"},"vehicle_type_id":"4","last_reported":1751742485,"current_range_meters":18800,"station_id":"ce4bhbp2rcd13ifvqesg","pricing_plan_id":"cebpf4jnsgd1na2vs0mg"},{"bike_id":"137e3f1b-2c58-4240-a7c5-25daae3dcf2e","system_id":"levelo_inurba_marseille","lat":43.27813,"lon":5.40707,"is_reserved":false,"is_disabled":false,"rental_uris":{"android":"levelo://app?vid=137e3f1b-2c58-4240-a7c5-25daae3dcf2e","ios":"levelo://app?vid=137e3f1b-2c58-4240-a7c5-25daae3dcf2e"},"vehicle_type_id":"4","last_reported":1751742485,"current_range_meters":18800,"station_id":"ce4bhnh2rcd13ifvqgtg","pricing_plan_id":"cebpf4jnsgd1na2vs0mg"},{"bike_id":"ab5ee707-c42d-4b5c-bb32-1f8f15fe15de","system_id":"levelo_inurba_marseille","lat":43.32654,"lon":5.40991,"is_reserved":false,"is_disabled":false,"rental_uris":{"android":"levelo://app?vid=ab5ee707-c42d-4b5c-bb32-1f8f15fe15de","ios":"levelo://app?vid=ab5ee707-c42d-4b5c-bb32-1f8f15fe15de"},"vehicle_type_id":"4","last_reported":1751742485,"current_range_meters":18800,"station_id":"ce4bhpp2rcd13ifvqhgg","pricing_plan_id":"cebpf4jnsgd1na2vs0mg"},{"bike_id":"d5ef770d-9759-47e3-b3a5-7d2785ef76db","system_id":"levelo_inurba_marseille","lat":43.32686,"lon":5.39221,"is_reserved":false,"is_disabled":false,"rental_uris":{"android":"levelo://app?vid=d5ef770d-9759-47e3-b3a5-7d2785ef76db","ios":"levelo://app?vid=d5ef770d-9759-47e3-b3a5-7d2785ef76db"},"vehicle_type_id":"4","last_reported":1751742485,"current_range_meters":19200,"station_id":"","pricing_plan_id":"cebpf4jnsgd1na2vs0mg"},{"bike_id":"82c9a00e-c050-44c7-9ec0-9f05d5b049de","system_id":"levelo_inurba_marseille","lat":43.29526,"lon":5.38544,"is_reserved":false,"is_disabled":false,"rental_uris":{"android":"levelo://app?vid=82c9a00e-c050-44c7-9ec0-9f05d5b049de","ios":"levelo://app?vid=82c9a00e-c050-44c7-9ec0-9f05d5b049de"},"vehicle_type_id":"4","last_reported":1751742485,"current_range_meters":19200,"station_id":"ce4bgih2rcd13ifvqba0","pricing_plan_id":"cebpf4jnsgd1na2vs0mg"},{"bike_id":"fc1e2089-6b9f-47bf-93d9-b32f6028a427","system_id":"levelo_inurba_marseille","lat":43.28406,"lon":5.3751,"is_reserved":false,"is_disabled":false,"rental_uris":{"android":"levelo://app?vid=fc1e2089-6b9f-47bf-93d9-b32f6028a427","ios":"levelo://app?vid=fc1e2089-6b9f-47bf-93d9-b32f6028a427"},"vehicle_type_id":"4","last_reported":1751742485,"current_range_meters":19200,"station_id":"ce4bh412rcd13ifvqds0","pricing_plan_id":"cebpf4jnsgd1na2vs0mg"},{"bike_id":"3b023717-c36b-4bd8-aa81-505929156219","system_id":"levelo_inurba_marseille","lat":43.30412,"lon":5.41289,"is_reserved":false,"is_disabled":false,"rental_uris":{"android":"levelo://app?vid=3b023717-c36b-4bd8-aa81-505929156219","ios":"levelo://app?vid=3b023717-c36b-4bd8-aa81-505929156219"},"vehicle_type_id":"4","last_reported":1751742485,"current_range_meters":19200,"station_id":"ce4bhop2rcd13ifvqh8g","pricing_plan_id":"cebpf4jnsgd1na2vs0mg"},{"bike_id":"19c552da-55bc-46d8-97cb-d1fbabdad01a","system_id":"levelo_inurba_marseille","lat":43.211897,"lon":5.350672,"is_reserved":false,"is_disabled":false,"rental_uris":{"android":"levelo://app?vid=19c552da-55bc-46d8-97cb-d1fbabdad01a","ios":"levelo://app?vid=19c552da-55bc-46d8-97cb-d1fbabdad01a"},"vehicle_type_id":"4","last_reported":1751742485,"current_range_meters":19200,"station_id":"st_cvj6sg6p6f1abm77japg","pricing_plan_id":"cebpf4jnsgd1na2vs0mg"},{"bike_id":"80955d0f-8669-4c02-b90f-c6fe20790c37","system_id":"levelo_inurba_marseille","lat":43.23183,"lon":5.3504,"is_reserved":false,"is_disabled":false,"rental_uris":{"android":"levelo://app?vid=80955d0f-8669-4c02-b90f-c6fe20790c37","ios":"levelo://app?vid=80955d0f-8669-4c02-b90f-c6fe20790c37"},"vehicle_type_id":"4","last_reported":1751742485,"current_range_meters":19600,"station_id":"","pricing_plan_id":"cebpf4jnsgd1na2vs0mg"},{"bike_id":"3b22f952-d0bc-4c00-8fd3-7e27b88aea23","system_id":"levelo_inurba_marseille","lat":43.29659,"lon":5.36245,"is_reserved":false,"is_disabled":false,"rental_uris":{"android":"levelo://app?vid=3b22f952-d0bc-4c00-8fd3-7e27b88aea23","ios":"levelo://app?vid=3b22f952-d0bc-4c00-8fd3-7e27b88aea23"},"vehicle_type_id":"4","last_reported":1751742485,"current_range_meters":19600,"station_id":"","pricing_plan_id":"cebpf4jnsgd1na2vs0mg"},{"bike_id":"2196d5c4-1817-40a9-8ab8-7dc410eb60e0","system_id":"levelo_inurba_marseille","lat":43.30533,"lon":5.38431,"is_reserved":false,"is_disabled":false,"rental_uris":{"android":"levelo://app?vid=2196d5c4-1817-40a9-8ab8-7dc410eb60e0","ios":"levelo://app?vid=2196d5c4-1817-40a9-8ab8-7dc410eb60e0"},"vehicle_type_id":"4","last_reported":1751742485,"current_range_meters":19600,"station_id":"ce4bgg92rcd13ifvqb30","pricing_plan_id":"cebpf4jnsgd1na2vs0mg"},{"bike_id":"a125d5ae-25ed-46e7-9ad2-0f5a39054b69","system_id":"levelo_inurba_marseille","lat":43.31222,"lon":5.36865,"is_reserved":false,"is_disabled":false,"rental_uris":{"android":"levelo://app?vid=a125d5ae-25ed-46e7-9ad2-0f5a39054b69","ios":"levelo://app?vid=a125d5ae-25ed-46e7-9ad2-0f5a39054b69"},"vehicle_type_id":"4","last_reported":1751742485,"current_range_meters":19600,"station_id":"ce4bgl92rcd13ifvqbq0","pricing_plan_id":"cebpf4jnsgd1na2vs0mg"},{"bike_id":"2a781572-4182-48b3-b3d6-27f835e990b1","system_id":"levelo_inurba_marseille","lat":43.31221,"lon":5.36859,"is_reserved":false,"is_disabled":false,"rental_uris":{"android":"levelo://app?vid=2a781572-4182-48b3-b3d6-27f835e990b1","ios":"levelo://app?vid=2a781572-4182-48b3-b3d6-27f835e990b1"},"vehicle_type_id":"4","last_reported":1751742485,"current_range_meters":19600,"station_id":"ce4bgl92rcd13ifvqbq0","pricing_plan_id":"cebpf4jnsgd1na2vs0mg"},{"bike_id":"a6db5fc2-e5d0-430e-aa71-36b96c5b42ff","system_id":"levelo_inurba_marseille","lat":43.262223,"lon":5.374332,"is_reserved":false,"is_disabled":false,"rental_uris":{"android":"levelo://app?vid=a6db5fc2-e5d0-430e-aa71-36b96c5b42ff","ios":"levelo://app?vid=a6db5fc2-e5d0-430e-aa71-36b96c5b42ff"},"vehicle_type_id":"4","last_reported":1751742485,"current_range_meters":19600,"station_id":"ce4bhgp2rcd13ifvqfc0","pricing_plan_id":"cebpf4jnsgd1na2vs0mg"},{"bike_id":"e113175a-26c2-4709-bd2e-8b90ec8dd3ee","system_id":"levelo_inurba_marseille","lat":43.27488,"lon":5.42468,"is_reserved":false,"is_disabled":false,"rental_uris":{"android":"levelo://app?vid=e113175a-26c2-4709-bd2e-8b90ec8dd3ee","ios":"levelo://app?vid=e113175a-26c2-4709-bd2e-8b90ec8dd3ee"},"vehicle_type_id":"4","last_reported":1751742485,"current_range_meters":19600,"station_id":"ce4bhn92rcd13ifvqgrg","pricing_plan_id":"cebpf4jnsgd1na2vs0mg"},{"bike_id":"1651de4a-86a7-438f-ac73-c8aa63351922","system_id":"levelo_inurba_marseille","lat":43.330287,"lon":5.390374,"is_reserved":false,"is_disabled":false,"rental_uris":{"android":"levelo://app?vid=1651de4a-86a7-438f-ac73-c8aa63351922","ios":"levelo://app?vid=1651de4a-86a7-438f-ac73-c8aa63351922"},"vehicle_type_id":"4","last_reported":1751742485,"current_range_meters":19600,"station_id":"ce4bhr92rcd13ifvqhrg","pricing_plan_id":"cebpf4jnsgd1na2vs0mg"},{"bike_id":"aa8f61d8-323f-47e5-890f-90ad80dab82c","system_id":"levelo_inurba_marseille","lat":43.33716,"lon":5.391908,"is_reserved":false,"is_disabled":false,"rental_uris":{"android":"levelo://app?vid=aa8f61d8-323f-47e5-890f-90ad80dab82c","ios":"levelo://app?vid=aa8f61d8-323f-47e5-890f-90ad80dab82c"},"vehicle_type_id":"4","last_reported":1751742485,"current_range_meters":19600,"station_id":"ce4bhr92rcd13ifvqhsg","pricing_plan_id":"cebpf4jnsgd1na2vs0mg"},{"bike_id":"e8d7fcf5-14a0-430b-a247-ddceafd06b95","system_id":"levelo_inurba_marseille","lat":43.22505,"lon":5.34785,"is_reserved":false,"is_disabled":false,"rental_uris":{"android":"levelo://app?vid=e8d7fcf5-14a0-430b-a247-ddceafd06b95","ios":"levelo://app?vid=e8d7fcf5-14a0-430b-a247-ddceafd06b95"},"vehicle_type_id":"4","last_reported":1751742485,"current_range_meters":19600,"station_id":"st_cvj5dfep6f1abm77gieg","pricing_plan_id":"cebpf4jnsgd1na2vs0mg"},{"bike_id":"99adf05d-0d03-4129-8928-7947c3da8df0","system_id":"levelo_inurba_marseille","lat":43.31356,"lon":5.38487,"is_reserved":false,"is_disabled":false,"rental_uris":{"android":"levelo://app?vid=99adf05d-0d03-4129-8928-7947c3da8df0","ios":"levelo://app?vid=99adf05d-0d03-4129-8928-7947c3da8df0"},"vehicle_type_id":"4","last_reported":1751742485,"current_range_meters":20000,"station_id":"ce4bgt92rcd13ifvqcf0","pricing_plan_id":"cebpf4jnsgd1na2vs0mg"},{"bike_id":"1394db0a-0fbf-4a53-a759-a239d7bf2357","system_id":"levelo_inurba_marseille","lat":43.301232,"lon":5.398597,"is_reserved":false,"is_disabled":false,"rental_uris":{"android":"levelo://app?vid=1394db0a-0fbf-4a53-a759-a239d7bf2357","ios":"levelo://app?vid=1394db0a-0fbf-4a53-a759-a239d7bf2357"},