{"last_updated":1741388833,"ttl":60,"version":"2.2","data":{"bikes":[{"bike_id":"d572b633-d5af-4df0-87b8-0a5b1819b02b","system_id":"levelo_inurba_marseille","lat":43.24169,"lon":5.39709,"is_reserved":false,"is_disabled":true,"rental_uris":{"android":"levelo://app?vid=d572b633-d5af-4df0-87b8-0a5b1819b02b","ios":"levelo://app?vid=d572b633-d5af-4df0-87b8-0a5b1819b02b"},"vehicle_type_id":"4","last_reported":1741388833,"current_range_meters":2800,"station_id":"ce4bhn12rcd13ifvqgpg","pricing_plan_id":"cebpf4jnsgd1na2vs0mg"},{"bike_id":"84fd8a9d-d33c-4402-bbe4-001e62a7f660","system_id":"levelo_inurba_marseille","lat":43.26644,"lon":5.39867,"is_reserved":false,"is_disabled":false,"rental_uris":{"android":"levelo://app?vid=84fd8a9d-d33c-4402-bbe4-001e62a7f660","ios":"levelo://app?vid=84fd8a9d-d33c-4402-bbe4-001e62a7f660"},"vehicle_type_id":"4","last_reported":1741388833,"current_range_meters":2800,"station_id":"","pricing_plan_id":"cebpf4jnsgd1na2vs0mg"},{"bike_id":"b53e9f16-5927-45e7-8046-218d7fdf68eb","system_id":"levelo_inurba_marseille","lat":43.29022,"lon":5.3862,"is_reserved":false,"is_disabled":false,"rental_uris":{"android":"levelo://app?vid=b53e9f16-5927-45e7-8046-218d7fdf68eb","ios":"levelo://app?vid=b53e9f16-5927-45e7-8046-218d7fdf68eb"},"vehicle_type_id":"4","last_reported":1741388833,"current_range_meters":2800,"station_id":"ce4bh4p2rcd13ifvqe0g","pricing_plan_id":"cebpf4jnsgd1na2vs0mg"},{"bike_id":"ced04070-0327-4674-b68f-f8c11d534b6a","system_id":"levelo_inurba_marseille","lat":43.29698,"lon":5.37695,"is_reserved":false,"is_disabled":false,"rental_uris":{"android":"levelo://app?vid=ced04070-0327-4674-b68f-f8c11d534b6a","ios":"levelo://app?vid=ced04070-0327-4674-b68f-f8c11d534b6a"},"vehicle_type_id":"4","last_reported":1741388833,"current_range_meters":2800,"station_id":"ce4bgkh2rcd13ifvqbl0","pricing_plan_id":"cebpf4jnsgd1na2vs0mg"},{"bike_id":"8b983e50-613b-4317-a4c9-dcd158a0f998","system_id":"levelo_inurba_marseille","lat":43.30083,"lon":5.39076,"is_reserved":false,"is_disabled":false,"rental_uris":{"android":"levelo://app?vid=8b983e50-613b-4317-a4c9-dcd158a0f998","ios":"levelo://app?vid=8b983e50-613b-4317-a4c9-dcd158a0f998"},"vehicle_type_id":"4","last_reported":1741388833,"current_range_meters":2800,"station_id":"ce4bh312rcd13ifvqdj0","pricing_plan_id":"cebpf4jnsgd1na2vs0mg"},{"bike_id":"de10dad3-cc48-400a-922c-cca5bf1a3a20","system_id":"levelo_inurba_marseille","lat":43.29938,"lon":5.38831,"is_reserved":false,"is_disabled":true,"rental_uris":{"android":"levelo://app?vid=de10dad3-cc48-400a-922c-cca5bf1a3a20","ios":"levelo://app?vid=de10dad3-cc48-400a-922c-cca5bf1a3a20"},"vehicle_type_id":"4","last_reported":1741388833,"current_range_meters":3600,"station_id":"","pricing_plan_id":"cebpf4jnsgd1na2vs0mg"},{"bike_id":"20d4a8f5-db36-4f59-aca3-ceecf7ec512e","system_id":"levelo_inurba_marseille","lat":43.28726,"lon":5.38547,"is_reserved":false,"is_disabled":false,"rental_uris":{"android":"levelo://app?vid=20d4a8f5-db36-4f59-aca3-ceecf7ec512e","ios":"levelo://app?vid=20d4a8f5-db36-4f59-aca3-ceecf7ec512e"},"vehicle_type_id":"4","last_reported":1741388833,"current_range_meters":3600,"station_id":"","pricing_plan_id":"cebpf4jnsgd1na2vs0mg"},{"bike_id":"74cae0c1-8d28-4bef-8967-85173913b919","system_id":"levelo_inurba_marseille","lat":43.31369,"lon":5.385,"is_reserved":false,"is_disabled":false,"rental_uris":{"android":"levelo://app?vid=74cae0c1-8d28-4bef-8967-85173913b919","ios":"levelo://app?vid=74cae0c1-8d28-4bef-8967-85173913b919"},"vehicle_type_id":"4","last_reported":1741388833,"current_range_meters":3600,"station_id":"ce4bgt92rcd13ifvqcf0","pricing_plan_id":"cebpf4jnsgd1na2vs0mg"},{"bike_id":"68d661a1-3738-45b2-9d69-8e2416699516","system_id":"levelo_inurba_marseille","lat":43.29021,"lon":5.38129,"is_reserved":false,"is_disabled":false,"rental_uris":{"android":"levelo://app?vid=68d661a1-3738-45b2-9d69-8e2416699516","ios":"levelo://app?vid=68d661a1-3738-45b2-9d69-8e2416699516"},"vehicle_type_id":"4","last_reported":1741388833,"current_range_meters":3600,"station_id":"ce4bh4p2rcd13ifvqe1g","pricing_plan_id":"cebpf4jnsgd1na2vs0mg"},{"bike_id":"ed84b227-569a-4f75-bf8e-6a6e5e9915ae","system_id":"levelo_inurba_marseille","lat":43.3065,"lon":5.40104,"is_reserved":false,"is_disabled":false,"rental_uris":{"android":"levelo://app?vid=ed84b227-569a-4f75-bf8e-6a6e5e9915ae","ios":"levelo://app?vid=ed84b227-569a-4f75-bf8e-6a6e5e9915ae"},"vehicle_type_id":"4","last_reported":1741388833,"current_range_meters":3600,"station_id":"","pricing_plan_id":"cebpf4jnsgd1na2vs0mg"},{"bike_id":"c2a8d3f6-815a-4b43-8583-521545be73db","system_id":"levelo_inurba_marseille","lat":43.25575,"lon":5.38249,"is_reserved":false,"is_disabled":false,"rental_uris":{"android":"levelo://app?vid=c2a8d3f6-815a-4b43-8583-521545be73db","ios":"levelo://app?vid=c2a8d3f6-815a-4b43-8583-521545be73db"},"vehicle_type_id":"4","last_reported":1741388833,"current_range_meters":4000,"station_id":"ce4bhih2rcd13ifvqfs0","pricing_plan_id":"cebpf4jnsgd1na2vs0mg"},{"bike_id":"338e979a-30b6-4acd-8861-5f6afc3fba46","system_id":"levelo_inurba_marseille","lat":43.24803,"lon":5.37453,"is_reserved":false,"is_disabled":false,"rental_uris":{"android":"levelo://app?vid=338e979a-30b6-4acd-8861-5f6afc3fba46","ios":"levelo://app?vid=338e979a-30b6-4acd-8861-5f6afc3fba46"},"vehicle_type_id":"4","last_reported":1741388833,"current_range_meters":4000,"station_id":"ce4bhgh2rcd13ifvqfb0","pricing_plan_id":"cebpf4jnsgd1na2vs0mg"},{"bike_id":"6a2cba80-c390-45cb-a386-17b5eb2ff411","system_id":"levelo_inurba_marseille","lat":43.23323,"lon":5.36165,"is_reserved":false,"is_disabled":false,"rental_uris":{"android":"levelo://app?vid=6a2cba80-c390-45cb-a386-17b5eb2ff411","ios":"levelo://app?vid=6a2cba80-c390-45cb-a386-17b5eb2ff411"},"vehicle_type_id":"4","last_reported":1741388833,"current_range_meters":4400,"station_id":"","pricing_plan_id":"cebpf4jnsgd1na2vs0mg"},{"bike_id":"d97b34a5-4a9d-4d9c-b55f-b72c9be6ca47","system_id":"levelo_inurba_marseille","lat":43.25097,"lon":5.4032,"is_reserved":false,"is_disabled":true,"rental_uris":{"android":"levelo://app?vid=d97b34a5-4a9d-4d9c-b55f-b72c9be6ca47","ios":"levelo://app?vid=d97b34a5-4a9d-4d9c-b55f-b72c9be6ca47"},"vehicle_type_id":"4","last_reported":1741388833,"current_range_meters":4400,"station_id":"ce4bhlh2rcd13ifvqgig","pricing_plan_id":"cebpf4jnsgd1na2vs0mg"},{"bike_id":"922965ec-ad3d-4bcd-8626-3511bd86109a","system_id":"levelo_inurba_marseille","lat":43.231861,"lon":5.399934,"is_reserved":false,"is_disabled":false,"rental_uris":{"android":"levelo://app?vid=922965ec-ad3d-4bcd-8626-3511bd86109a","ios":"levelo://app?vid=922965ec-ad3d-4bcd-8626-3511bd86109a"},"vehicle_type_id":"4","last_reported":1741388833,"current_range_meters":4400,"station_id":"ce4bhn12rcd13ifvqgqg","pricing_plan_id":"cebpf4jnsgd1na2vs0mg"},{"bike_id":"ea485f72-e582-4f0e-a626-3a8f06830588","system_id":"levelo_inurba_marseille","lat":43.29662,"lon":5.37003,"is_reserved":false,"is_disabled":false,"rental_uris":{"android":"levelo://app?vid=ea485f72-e582-4f0e-a626-3a8f06830588","ios":"levelo://app?vid=ea485f72-e582-4f0e-a626-3a8f06830588"},"vehicle_type_id":"4","last_reported":1741388833,"current_range_meters":4800,"station_id":"","pricing_plan_id":"cebpf4jnsgd1na2vs0mg"},{"bike_id":"d93bdeca-d0ff-402c-a1ae-de5375476d11","system_id":"levelo_inurba_marseille","lat":43.282261,"lon":5.402813,"is_reserved":false,"is_disabled":true,"rental_uris":{"android":"levelo://app?vid=d93bdeca-d0ff-402c-a1ae-de5375476d11","ios":"levelo://app?vid=d93bdeca-d0ff-402c-a1ae-de5375476d11"},"vehicle_type_id":"4","last_reported":1741388833,"current_range_meters":4800,"station_id":"","pricing_plan_id":"cebpf4jnsgd1na2vs0mg"},{"bike_id":"cb47043e-2b36-4398-963d-22088496551a","system_id":"levelo_inurba_marseille","lat":43.317553,"lon":5.390127,"is_reserved":false,"is_disabled":true,"rental_uris":{"android":"levelo://app?vid=cb47043e-2b36-4398-963d-22088496551a","ios":"levelo://app?vid=cb47043e-2b36-4398-963d-22088496551a"},"vehicle_type_id":"4","last_reported":1741388833,"current_range_meters":4800,"station_id":"ce4bhqp2rcd13ifvqhng","pricing_plan_id":"cebpf4jnsgd1na2vs0mg"},{"bike_id":"7f1905bf-da4d-4f13-af14-c5d46804e585","system_id":"levelo_inurba_marseille","lat":43.23183,"lon":5.35563,"is_reserved":false,"is_disabled":false,"rental_uris":{"android":"levelo://app?vid=7f1905bf-da4d-4f13-af14-c5d46804e585","ios":"levelo://app?vid=7f1905bf-da4d-4f13-af14-c5d46804e585"},"vehicle_type_id":"4","last_reported":1741388833,"current_range_meters":4800,"station_id":"ce4bhu92rcd13ifvqi70","pricing_plan_id":"cebpf4jnsgd1na2vs0mg"},{"bike_id":"9bfe4e82-241b-4620-b471-d226beb88b23","system_id":"levelo_inurba_marseille","lat":43.22942,"lon":5.35353,"is_reserved":false,"is_disabled":false,"rental_uris":{"android":"levelo://app?vid=9bfe4e82-241b-4620-b471-d226beb88b23","ios":"levelo://app?vid=9bfe4e82-241b-4620-b471-d226beb88b23"},"vehicle_type_id":"4","last_reported":1741388833,"current_range_meters":4800,"station_id":"cpo3532slgdg3j2ikp40","pricing_plan_id":"cebpf4jnsgd1na2vs0mg"},{"bike_id":"fc4d4463-1740-4792-8883-016d2470c4fc","system_id":"levelo_inurba_marseille","lat":43.2799,"lon":5.40014,"is_reserved":false,"is_disabled":false,"rental_uris":{"android":"levelo://app?vid=fc4d4463-1740-4792-8883-016d2470c4fc","ios":"levelo://app?vid=fc4d4463-1740-4792-8883-016d2470c4fc"},"vehicle_type_id":"4","last_reported":1741388833,"current_range_meters":5600,"station_id":"ce4bho92rcd13ifvqh4g","pricing_plan_id":"cebpf4jnsgd1na2vs0mg"},{"bike_id":"3d830b9b-4dfe-472d-9564-72889457c7fa","system_id":"levelo_inurba_marseille","lat":43.29056,"lon":5.37163,"is_reserved":false,"is_disabled":false,"rental_uris":{"android":"levelo://app?vid=3d830b9b-4dfe-472d-9564-72889457c7fa","ios":"levelo://app?vid=3d830b9b-4dfe-472d-9564-72889457c7fa"},"vehicle_type_id":"4","last_reported":1741388833,"current_range_meters":5600,"station_id":"ce4bh5p2rcd13ifvqe4g","pricing_plan_id":"cebpf4jnsgd1na2vs0mg"},{"bike_id":"01fd6840-d8be-4b5e-9ba7-0ed0dbe54f06","system_id":"levelo_inurba_marseille","lat":43.23204,"lon":5.35528,"is_reserved":false,"is_disabled":false,"rental_uris":{"android":"levelo://app?vid=01fd6840-d8be-4b5e-9ba7-0ed0dbe54f06","ios":"levelo://app?vid=01fd6840-d8be-4b5e-9ba7-0ed0dbe54f06"},"vehicle_type_id":"4","last_reported":1741388833,"current_range_meters":5600,"station_id":"ce4bhu92rcd13ifvqi70","pricing_plan_id":"cebpf4jnsgd1na2vs0mg"},{"bike_id":"d8d0bbf1-87fb-4fc8-9ada-9d7a5ccd7c47","system_id":"levelo_inurba_marseille","lat":43.30304,"lon":5.39231,"is_reserved":false,"is_disabled":false,"rental_uris":{"android":"levelo://app?vid=d8d0bbf1-87fb-4fc8-9ada-9d7a5ccd7c47","ios":"levelo://app?vid=d8d0bbf1-87fb-4fc8-9ada-9d7a5ccd7c47"},"vehicle_type_id":"4","last_reported":1741388833,"current_range_meters":5600,"station_id":"ce4bgkh2rcd13ifvqbk0","pricing_plan_id":"cebpf4jnsgd1na2vs0mg"},{"bike_id":"4554b79d-ad3b-41df-8fb2-2494f22b3412","system_id":"levelo_inurba_marseille","lat":43.29034,"lon":5.38648,"is_reserved":false,"is_disabled":false,"rental_uris":{"android":"levelo://app?vid=4554b79d-ad3b-41df-8fb2-2494f22b3412","ios":"levelo://app?vid=4554b79d-ad3b-41df-8fb2-2494f22b3412"},"vehicle_type_id":"4","last_reported":1741388833,"current_range_meters":5600,"station_id":"ce4bh4p2rcd13ifvqe0g","pricing_plan_id":"cebpf4jnsgd1na2vs0mg"},{"bike_id":"d07ee039-25fa-4782-b6f3-90272a490603","system_id":"levelo_inurba_marseille","lat":43.29275,"lon":5.40127,"is_reserved":false,"is_disabled":false,"rental_uris":{"android":"levelo://app?vid=d07ee039-25fa-4782-b6f3-90272a490603","ios":"levelo://app?vid=d07ee039-25fa-4782-b6f3-90272a490603"},"vehicle_type_id":"4","last_reported":1741388833,"current_range_meters":5600,"station_id":"ce4bh312rcd13ifvqdk0","pricing_plan_id":"cebpf4jnsgd1na2vs0mg"},{"bike_id":"77932506-a232-4d46-b36d-352ef01eaf03","system_id":"levelo_inurba_marseille","lat":43.28016,"lon":5.40002,"is_reserved":false,"is_disabled":false,"rental_uris":{"android":"levelo://app?vid=77932506-a232-4d46-b36d-352ef01eaf03","ios":"levelo://app?vid=77932506-a232-4d46-b36d-352ef01eaf03"},"vehicle_type_id":"4","last_reported":1741388833,"current_range_meters":6000,"station_id":"ce4bho92rcd13ifvqh4g","pricing_plan_id":"cebpf4jnsgd1na2vs0mg"},{"bike_id":"612a1c99-27e9-401f-b929-01031c4e0885","system_id":"levelo_inurba_marseille","lat":43.26189,"lon":5.37455,"is_reserved":false,"is_disabled":false,"rental_uris":{"android":"levelo://app?vid=612a1c99-27e9-401f-b929-01031c4e0885","ios":"levelo://app?vid=612a1c99-27e9-401f-b929-01031c4e0885"},"vehicle_type_id":"4","last_reported":1741388833,"current_range_meters":6000,"station_id":"ce4bhgp2rcd13ifvqfc0","pricing_plan_id":"cebpf4jnsgd1na2vs0mg"},{"bike_id":"1b34c58c-f011-43f3-baac-47c6cf7523c0","system_id":"levelo_inurba_marseille","lat":43.29896,"lon":5.43685,"is_reserved":false,"is_disabled":false,"rental_uris":{"android":"levelo://app?vid=1b34c58c-f011-43f3-baac-47c6cf7523c0","ios":"levelo://app?vid=1b34c58c-f011-43f3-baac-47c6cf7523c0"},"vehicle_type_id":"4","last_reported":1741388833,"current_range_meters":6000,"station_id":"ce4bhpp2rcd13ifvqhfg","pricing_plan_id":"cebpf4jnsgd1na2vs0mg"},{"bike_id":"f7a85f1b-5528-4bd4-98d9-a65f1b6b8628","system_id":"levelo_inurba_marseille","lat":43.28914,"lon":5.35444,"is_reserved":false,"is_disabled":false,"rental_uris":{"android":"levelo://app?vid=f7a85f1b-5528-4bd4-98d9-a65f1b6b8628","ios":"levelo://app?vid=f7a85f1b-5528-4bd4-98d9-a65f1b6b8628"},"vehicle_type_id":"4","last_reported":1741388833,"current_range_meters":6000,"station_id":"","pricing_plan_id":"cebpf4jnsgd1na2vs0mg"},{"bike_id":"e1a3d094-fd5a-4b0e-b3fd-06c39e7f4f48","system_id":"levelo_inurba_marseille","lat":43.32863,"lon":5.39101,"is_reserved":false,"is_disabled":false,"rental_uris":{"android":"levelo://app?vid=e1a3d094-fd5a-4b0e-b3fd-06c39e7f4f48","ios":"levelo://app?vid=e1a3d094-fd5a-4b0e-b3fd-06c39e7f4f48"},"vehicle_type_id":"4","last_reported":1741388833,"current_range_meters":6000,"station_id":"","pricing_plan_id":"cebpf4jnsgd1na2vs0mg"},{"bike_id":"c5d9a748-fb84-4751-9008-dc4467d9ed9a","system_id":"levelo_inurba_marseille","lat":43.23164,"lon":5.35569,"is_reserved":false,"is_disabled":false,"rental_uris":{"android":"levelo://app?vid=c5d9a748-fb84-4751-9008-dc4467d9ed9a","ios":"levelo://app?vid=c5d9a748-fb84-4751-9008-dc4467d9ed9a"},"vehicle_type_id":"4","last_reported":1741388833,"current_range_meters":6000,"station_id":"ce4bhu92rcd13ifvqi70","pricing_plan_id":"cebpf4jnsgd1na2vs0mg"},{"bike_id":"24df224d-ffa5-472e-acc0-380979001d96","system_id":"levelo_inurba_marseille","lat":43.25705,"lon":5.41105,"is_reserved":false,"is_disabled":false,"rental_uris":{"android":"levelo://app?vid=24df224d-ffa5-472e-acc0-380979001d96","ios":"levelo://app?vid=24df224d-ffa5-472e-acc0-380979001d96"},"vehicle_type_id":"4","last_reported":1741388833,"current_range_meters":6000,"station_id":"ce4bhkp2rcd13ifvqgd0","pricing_plan_id":"cebpf4jnsgd1na2vs0mg"},{"bike_id":"3047e59d-f1cb-465b-b6cd-b5c66d974104","system_id":"levelo_inurba_marseille","lat":43.26061,"lon":5.39395,"is_reserved":false,"is_disabled":false,"rental_uris":{"android":"levelo://app?vid=3047e59d-f1cb-465b-b6cd-b5c66d974104","ios":"levelo://app?vid=3047e59d-f1cb-465b-b6cd-b5c66d974104"},"vehicle_type_id":"4","last_reported":1741388833,"current_range_meters":6000,"station_id":"ce4bhh92rcd13ifvqfj0","pricing_plan_id":"cebpf4jnsgd1na2vs0mg"},{"bike_id":"914bbafb-3768-41ed-9924-1947bd4ab869","system_id":"levelo_inurba_marseille","lat":43.30125,"lon":5.38379,"is_reserved":false,"is_disabled":false,"rental_uris":{"android":"levelo://app?vid=914bbafb-3768-41ed-9924-1947bd4ab869","ios":"levelo://app?vid=914bbafb-3768-41ed-9924-1947bd4ab869"},"vehicle_type_id":"4","last_reported":1741388833,"current_range_meters":6000,"station_id":"","pricing_plan_id":"cebpf4jnsgd1na2vs0mg"},{"bike_id":"d7cfe9af-c3c6-4e9b-afff-ab6e19b29b2a","system_id":"levelo_inurba_marseille","lat":43.2657,"lon":5.39012,"is_reserved":false,"is_disabled":false,"rental_uris":{"android":"levelo://app?vid=d7cfe9af-c3c6-4e9b-afff-ab6e19b29b2a","ios":"levelo://app?vid=d7cfe9af-c3c6-4e9b-afff-ab6e19b29b2a"},"vehicle_type_id":"4","last_reported":1741388833,"current_range_meters":6400,"station_id":"ce4bhe12rcd13ifvqf30","pricing_plan_id":"cebpf4jnsgd1na2vs0mg"},{"bike_id":"bc6c6432-c850-4c95-8536-ec9b4347a974","system_id":"levelo_inurba_marseille","lat":43.25082,"lon":5.39521,"is_reserved":false,"is_disabled":false,"rental_uris":{"android":"levelo://app?vid=bc6c6432-c850-4c95-8536-ec9b4347a974","ios":"levelo://app?vid=bc6c6432-c850-4c95-8536-ec9b4347a974"},"vehicle_type_id":"4","last_reported":1741388833,"current_range_meters":6400,"station_id":"ce4bhm12rcd13ifvqgkg","pricing_plan_id":"cebpf4jnsgd1na2vs0mg"},{"bike_id":"55f1a346-655d-4ceb-961f-e11c032b07e0","system_id":"levelo_inurba_marseille","lat":43.32673,"lon":5.40272,"is_reserved":false,"is_disabled":false,"rental_uris":{"android":"levelo://app?vid=55f1a346-655d-4ceb-961f-e11c032b07e0","ios":"levelo://app?vid=55f1a346-655d-4ceb-961f-e11c032b07e0"},"vehicle_type_id":"4","last_reported":1741388833,"current_range_meters":6400,"station_id":"","pricing_plan_id":"cebpf4jnsgd1na2vs0mg"},{"bike_id":"3763ca09-281c-481c-9755-79dce3edd104","system_id":"levelo_inurba_marseille","lat":43.31995,"lon":5.38163,"is_reserved":false,"is_disabled":false,"rental_uris":{"android":"levelo://app?vid=3763ca09-281c-481c-9755-79dce3edd104","ios":"levelo://app?vid=3763ca09-281c-481c-9755-79dce3edd104"},"vehicle_type_id":"4","last_reported":1741388833,"current_range_meters":6400,"station_id":"ce4bhr12rcd13ifvqhpg","pricing_plan_id":"cebpf4jnsgd1na2vs0mg"},{"bike_id":"e0862a4c-1ac9-4de1-9beb-ae484a52b446","system_id":"levelo_inurba_marseille","lat":43.24414,"lon":5.40974,"is_reserved":false,"is_disabled":false,"rental_uris":{"android":"levelo://app?vid=e0862a4c-1ac9-4de1-9beb-ae484a52b446","ios":"levelo://app?vid=e0862a4c-1ac9-4de1-9beb-ae484a52b446"},"vehicle_type_id":"4","last_reported":1741388833,"current_range_meters":6800,"station_id":"","pricing_plan_id":"cebpf4jnsgd1na2vs0mg"},{"bike_id":"143b74fc-ab7b-4910-8495-ffc1ad22971d","system_id":"levelo_inurba_marseille","lat":43.25022,"lon":5.38951,"is_reserved":false,"is_disabled":true,"rental_uris":{"android":"levelo://app?vid=143b74fc-ab7b-4910-8495-ffc1ad22971d","ios":"levelo://app?vid=143b74fc-ab7b-4910-8495-ffc1ad22971d"},"vehicle_type_id":"4","last_reported":1741388833,"current_range_meters":6800,"station_id":"ce4bhgp2rcd13ifvqfd0","pricing_plan_id":"cebpf4jnsgd1na2vs0mg"},{"bike_id":"bb05f23e-14b8-454c-8b5f-3dfc96887b02","system_id":"levelo_inurba_marseille","lat":43.26225,"lon":5.40426,"is_reserved":false,"is_disabled":false,"rental_uris":{"android":"levelo://app?vid=bb05f23e-14b8-454c-8b5f-3dfc96887b02","ios":"levelo://app?vid=bb05f23e-14b8-454c-8b5f-3dfc96887b02"},"vehicle_type_id":"4","last_reported":1741388833,"current_range_meters":6800,"station_id":"ce4bhmh2rcd13ifvqgmg","pricing_plan_id":"cebpf4jnsgd1na2vs0mg"},{"bike_id":"c7b856f3-5384-43d0-9239-d897a865fee4","system_id":"levelo_inurba_marseille","lat":43.23057,"lon":5.35489,"is_reserved":false,"is_disabled":false,"rental_uris":{"android":"levelo://app?vid=c7b856f3-5384-43d0-9239-d897a865fee4","ios":"levelo://app?vid=c7b856f3-5384-43d0-9239-d897a865fee4"},"vehicle_type_id":"4","last_reported":1741388833,"current_range_meters":6800,"station_id":"cpo3342slgdg3j2ifvpg","pricing_plan_id":"cebpf4jnsgd1na2vs0mg"},{"bike_id":"215a01e2-9c1c-45bf-a69c-7a5458c1fe75","system_id":"levelo_inurba_marseille","lat":43.28054,"lon":5.39641,"is_reserved":false,"is_disabled":false,"rental_uris":{"android":"levelo://app?vid=215a01e2-9c1c-45bf-a69c-7a5458c1fe75","ios":"levelo://app?vid=215a01e2-9c1c-45bf-a69c-7a5458c1fe75"},"vehicle_type_id":"4","last_reported":1741388833,"current_range_meters":6800,"station_id":"ce4bho12rcd13ifvqh2g","pricing_plan_id":"cebpf4jnsgd1na2vs0mg"},{"bike_id":"b3efa482-ba88-41b4-9fa2-130aeb426a3b","system_id":"levelo_inurba_marseille","lat":43.28032,"lon":5.36942,"is_reserved":false,"is_disabled":false,"rental_uris":{"android":"levelo://app?vid=b3efa482-ba88-41b4-9fa2-130aeb426a3b","ios":"levelo://app?vid=b3efa482-ba88-41b4-9fa2-130aeb426a3b"},"vehicle_type_id":"4","last_reported":1741388833,"current_range_meters":6800,"station_id":"ce4bha12rcd13ifvqef0","pricing_plan_id":"cebpf4jnsgd1na2vs0mg"},{"bike_id":"d6d8f87b-25ab-4e84-9c2a-1348cf230730","system_id":"levelo_inurba_marseille","lat":43.281538,"lon":5.402184,"is_reserved":false,"is_disabled":false,"rental_uris":{"android":"levelo://app?vid=d6d8f87b-25ab-4e84-9c2a-1348cf230730","ios":"levelo://app?vid=d6d8f87b-25ab-4e84-9c2a-1348cf230730"},"vehicle_type_id":"4","last_reported":1741388833,"current_range_meters":6800,"station_id":"","pricing_plan_id":"cebpf4jnsgd1na2vs0mg"},{"bike_id":"e82b73a7-d1ae-43c3-a107-e0b413d5ff48","system_id":"levelo_inurba_marseille","lat":43.32643,"lon":5.40971,"is_reserved":false,"is_disabled":false,"rental_uris":{"android":"levelo://app?vid=e82b73a7-d1ae-43c3-a107-e0b413d5ff48","ios":"levelo://app?vid=e82b73a7-d1ae-43c3-a107-e0b413d5ff48"},"vehicle_type_id":"4","last_reported":1741388833,"current_range_meters":6800,"station_id":"ce4bhpp2rcd13ifvqhgg","pricing_plan_id":"cebpf4jnsgd1na2vs0mg"},{"bike_id":"5ece6216-c140-461a-8332-f5b985568faf","system_id":"levelo_inurba_marseille","lat":43.27953,"lon":5.38717,"is_reserved":false,"is_disabled":true,"rental_uris":{"android":"levelo://app?vid=5ece6216-c140-461a-8332-f5b985568faf","ios":"levelo://app?vid=5ece6216-c140-461a-8332-f5b985568faf"},"vehicle_type_id":"4","last_reported":1741388833,"current_range_meters":6800,"station_id":"ce4bhg12rcd13ifvqf80","pricing_plan_id":"cebpf4jnsgd1na2vs0mg"},{"bike_id":"a45eda30-93db-4cd6-bc29-df6c0e7b5378","system_id":"levelo_inurba_marseille","lat":43.239646,"lon":5.366262,"is_reserved":false,"is_disabled":false,"rental_uris":{"android":"levelo://app?vid=a45eda30-93db-4cd6-bc29-df6c0e7b5378","ios":"levelo://app?vid=a45eda30-93db-4cd6-bc29-df6c0e7b5378"},"vehicle_type_id":"4","last_reported":1741388833,"current_range_meters":7200,"station_id":"ce4bhi12rcd13ifvqfp0","pricing_plan_id":"cebpf4jnsgd1na2vs0mg"},{"bike_id":"a8412a7a-010e-484a-b42c-cb34a76c7697","system_id":"levelo_inurba_marseille","lat":43.32626,"lon":5.40989,"is_reserved":false,"is_disabled":false,"rental_uris":{"android":"levelo://app?vid=a8412a7a-010e-484a-b42c-cb34a76c7697","ios":"levelo://app?vid=a8412a7a-010e-484a-b42c-cb34a76c7697"},"vehicle_type_id":"4","last_reported":1741388833,"current_range_meters":7200,"station_id":"ce4bhpp2rcd13ifvqhgg","pricing_plan_id":"cebpf4jnsgd1na2vs0mg"},{"bike_id":"4e8ff07a-bd27-4652-bb07-b260c85679d1","system_id":"levelo_inurba_marseille","lat":43.30888,"lon":5.37206,"is_reserved":false,"is_disabled":false,"rental_uris":{"android":"levelo://app?vid=4e8ff07a-bd27-4652-bb07-b260c85679d1","ios":"levelo://app?vid=4e8ff07a-bd27-4652-bb07-b260c85679d1"},"vehicle_type_id":"4","last_reported":1741388833,"current_range_meters":7200,"station_id":"ce4bguh2rcd13ifvqckg","pricing_plan_id":"cebpf4jnsgd1na2vs0mg"},{"bike_id":"72ad35d5-229e-4395-b775-8a505aad1b5e","system_id":"levelo_inurba_marseille","lat":43.2761,"lon":5.36137,"is_reserved":false,"is_disabled":false,"rental_uris":{"android":"levelo://app?vid=72ad35d5-229e-4395-b775-8a505aad1b5e","ios":"levelo://app?vid=72ad35d5-229e-4395-b775-8a505aad1b5e"},"vehicle_type_id":"4","last_reported":1741388833,"current_range_meters":7200,"station_id":"ce4bgj92rcd13ifvqbe0","pricing_plan_id":"cebpf4jnsgd1na2vs0mg"},{"bike_id":"f59d85d2-8c07-41cb-90bd-9ddecc26ffd7","system_id":"levelo_inurba_marseille","lat":43.30459,"lon":5.36769,"is_reserved":false,"is_disabled":false,"rental_uris":{"android":"levelo://app?vid=f59d85d2-8c07-41cb-90bd-9ddecc26ffd7","ios":"levelo://app?vid=f59d85d2-8c07-41cb-90bd-9ddecc26ffd7"},"vehicle_type_id":"4","last_reported":1741388833,"current_range_meters":7200,"station_id":"","pricing_plan_id":"cebpf4jnsgd1na2vs0mg"},{"bike_id":"35130f87-b313-43ca-86df-0e44026654c1","system_id":"levelo_inurba_marseille","lat":43.30823,"lon":5.38031,"is_reserved":false,"is_disabled":false,"rental_uris":{"android":"levelo://app?vid=35130f87-b313-43ca-86df-0e44026654c1","ios":"levelo://app?vid=35130f87-b313-43ca-86df-0e44026654c1"},"vehicle_type_id":"4","last_reported":1741388833,"current_range_meters":7200,"station_id":"","pricing_plan_id":"cebpf4jnsgd1na2vs0mg"},{"bike_id":"49bb524d-911e-4e57-a25a-4f733aad7f1d","system_id":"levelo_inurba_marseille","lat":43.30369,"lon":5.3707,"is_reserved":false,"is_disabled":false,"rental_uris":{"android":"levelo://app?vid=49bb524d-911e-4e57-a25a-4f733aad7f1d","ios":"levelo://app?vid=49bb524d-911e-4e57-a25a-4f733aad7f1d"},"vehicle_type_id":"4","last_reported":1741388833,"current_range_meters":7200,"station_id":"","pricing_plan_id":"cebpf4jnsgd1na2vs0mg"},{"bike_id":"3afab725-6af5-4155-b50a-97e866da3c6e","system_id":"levelo_inurba_marseille","lat":43.30207,"lon":5.39454,"is_reserved":false,"is_disabled":false,"rental_uris":{"android":"levelo://app?vid=3afab725-6af5-4155-b50a-97e866da3c6e","ios":"levelo://app?vid=3afab725-6af5-4155-b50a-97e866da3c6e"},"vehicle_type_id":"4","last_reported":1741388833,"current_range_meters":7200,"station_id":"ce4bh0p2rcd13ifvqd70","pricing_plan_id":"cebpf4jnsgd1na2vs0mg"},{"bike_id":"39f29d20-8a35-4526-b9c8-23d9916e23e7","system_id":"levelo_inurba_marseille","lat":43.28078,"lon":5.39655,"is_reserved":false,"is_disabled":false,"rental_uris":{"android":"levelo://app?vid=39f29d20-8a35-4526-b9c8-23d9916e23e7","ios":"levelo://app?vid=39f29d20-8a35-4526-b9c8-23d9916e23e7"},"vehicle_type_id":"4","last_reported":1741388833,"current_range_meters":8000,"station_id":"ce4bho12rcd13ifvqh2g","pricing_plan_id":"cebpf4jnsgd1na2vs0mg"},{"bike_id":"c9151ceb-fd35-4b40-9877-b7757062111e","system_id":"levelo_inurba_marseille","lat":43.27809,"lon":5.40711,"is_reserved":false,"is_disabled":false,"rental_uris":{"android":"levelo://app?vid=c9151ceb-fd35-4b40-9877-b7757062111e","ios":"levelo://app?vid=c9151ceb-fd35-4b40-9877-b7757062111e"},"vehicle_type_id":"4","last_reported":1741388833,"current_range_meters":8000,"station_id":"ce4bhnh2rcd13ifvqgtg","pricing_plan_id":"cebpf4jnsgd1na2vs0mg"},{"bike_id":"979987e2-dfc4-42fc-8f32-b517c3f9a62d","system_id":"levelo_inurba_marseille","lat":43.2843,"lon":5.39193,"is_reserved":false,"is_disabled":false,"rental_uris":{"android":"levelo://app?vid=979987e2-dfc4-42fc-8f32-b517c3f9a62d","ios":"levelo://app?vid=979987e2-dfc4-42fc-8f32-b517c3f9a62d"},"vehicle_type_id":"4","last_reported":1741388833,"current_range_meters":8000,"station_id":"ce4bhoh2rcd13ifvqh5g","pricing_plan_id":"cebpf4jnsgd1na2vs0mg"},{"bike_id":"7202a711-5bc4-4e0d-8a12-46c161c42844","system_id":"levelo_inurba_marseille","lat":43.30656,"lon":5.401,"is_reserved":false,"is_disabled":false,"rental_uris":{"android":"levelo://app?vid=7202a711-5bc4-4e0d-8a12-46c161c42844","ios":"levelo://app?vid=7202a711-5bc4-4e0d-8a12-46c161c42844"},"vehicle_type_id":"4","last_reported":1741388833,"current_range_meters":8000,"station_id":"ce4bh112rcd13ifvqda0","pricing_plan_id":"cebpf4jnsgd1na2vs0mg"},{"bike_id":"81aba683-fa7a-4275-b5eb-4d3d9e8f53d9","system_id":"levelo_inurba_marseille","lat":43.27556,"lon":5.38414,"is_reserved":false,"is_disabled":false,"rental_uris":{"android":"levelo://app?vid=81aba683-fa7a-4275-b5eb-4d3d9e8f53d9","ios":"levelo://app?vid=81aba683-fa7a-4275-b5eb-4d3d9e8f53d9"},"vehicle_type_id":"4","last_reported":1741388833,"current_range_meters":8000,"station_id":"ce4bhh92rcd13ifvqfi0","pricing_plan_id":"cebpf4jnsgd1na2vs0mg"},{"bike_id":"62391f34-3130-43d3-9ff9-87e80b4db075","system_id":"levelo_inurba_marseille","lat":43.3208,"lon":5.36804,"is_reserved":false,"is_disabled":false,"rental_uris":{"android":"levelo://app?vid=62391f34-3130-43d3-9ff9-87e80b4db075","ios":"levelo://app?vid=62391f34-3130-43d3-9ff9-87e80b4db075"},"vehicle_type_id":"4","last_reported":1741388833,"current_range_meters":8400,"station_id":"ce4bhrh2rcd13ifvqhug","pricing_plan_id":"cebpf4jnsgd1na2vs0mg"},{"bike_id":"b2d09183-894c-4f2f-92b7-63f97e5cffda","system_id":"levelo_inurba_marseille","lat":43.30886,"lon":5.39643,"is_reserved":false,"is_disabled":false,"rental_uris":{"android":"levelo://app?vid=b2d09183-894c-4f2f-92b7-63f97e5cffda","ios":"levelo://app?vid=b2d09183-894c-4f2f-92b7-63f97e5cffda"},"vehicle_type_id":"4","last_reported":1741388833,"current_range_meters":8400,"station_id":"ce4bh012rcd13ifvqcv0","pricing_plan_id":"cebpf4jnsgd1na2vs0mg"},{"bike_id":"0af30f24-954a-46d7-b033-51d52f807b8c","system_id":"levelo_inurba_marseille","lat":43.25001,"lon":5.38929,"is_reserved":false,"is_disabled":false,"rental_uris":{"android":"levelo://app?vid=0af30f24-954a-46d7-b033-51d52f807b8c","ios":"levelo://app?vid=0af30f24-954a-46d7-b033-51d52f807b8c"},"vehicle_type_id":"4","last_reported":1741388833,"current_range_meters":8400,"station_id":"ce4bhgp2rcd13ifvqfd0","pricing_plan_id":"cebpf4jnsgd1na2vs0mg"},{"bike_id":"51510a95-54e3-4b84-9b22-bfa3391426f3","system_id":"levelo_inurba_marseille","lat":43.23209,"lon":5.35536,"is_reserved":false,"is_disabled":false,"rental_uris":{"android":"levelo://app?vid=51510a95-54e3-4b84-9b22-bfa3391426f3","ios":"levelo://app?vid=51510a95-54e3-4b84-9b22-bfa3391426f3"},"vehicle_type_id":"4","last_reported":1741388833,"current_range_meters":8400,"station_id":"ce4bhu92rcd13ifvqi70","pricing_plan_id":"cebpf4jnsgd1na2vs0mg"},{"bike_id":"1f1b69c5-067d-4677-a02d-6299a5fc1bb9","system_id":"levelo_inurba_marseille","lat":43.23961,"lon":5.36633,"is_reserved":false,"is_disabled":false,"rental_uris":{"android":"levelo://app?vid=1f1b69c5-067d-4677-a02d-6299a5fc1bb9","ios":"levelo://app?vid=1f1b69c5-067d-4677-a02d-6299a5fc1bb9"},"vehicle_type_id":"4","last_reported":1741388833,"current_range_meters":8400,"station_id":"ce4bhi12rcd13ifvqfp0","pricing_plan_id":"cebpf4jnsgd1na2vs0mg"},{"bike_id":"020ce40c-2dd1-4b7c-ac49-384d5a2a477f","system_id":"levelo_inurba_marseille","lat":43.29933,"lon":5.36548,"is_reserved":false,"is_disabled":false,"rental_uris":{"android":"levelo://app?vid=020ce40c-2dd1-4b7c-ac49-384d5a2a477f","ios":"levelo://app?vid=020ce40c-2dd1-4b7c-ac49-384d5a2a477f"},"vehicle_type_id":"4","last_reported":1741388833,"current_range_meters":8400,"station_id":"ce4bgm92rcd13ifvqbr0","pricing_plan_id":"cebpf4jnsgd1na2vs0mg"},{"bike_id":"b2cada68-d22d-4962-a15a-eab832155af1","system_id":"levelo_inurba_marseille","lat":43.31319,"lon":5.39707,"is_reserved":false,"is_disabled":false,"rental_uris":{"android":"levelo://app?vid=b2cada68-d22d-4962-a15a-eab832155af1","ios":"levelo://app?vid=b2cada68-d22d-4962-a15a-eab832155af1"},"vehicle_type_id":"4","last_reported":1741388833,"current_range_meters":8400,"station_id":"ce4bgvp2rcd13ifvqcu0","pricing_plan_id":"cebpf4jnsgd1na2vs0mg"},{"bike_id":"e3057739-689d-412d-99fb-acef7a4e734f","system_id":"levelo_inurba_marseille","lat":43.26562,"lon":5.37289,"is_reserved":false,"is_disabled":false,"rental_uris":{"android":"levelo://app?vid=e3057739-689d-412d-99fb-acef7a4e734f","ios":"levelo://app?vid=e3057739-689d-412d-99fb-acef7a4e734f"},"vehicle_type_id":"4","last_reported":1741388833,"current_range_meters":8400,"station_id":"ce4bhg12rcd13ifvqf70","pricing_plan_id":"cebpf4jnsgd1na2vs0mg"},{"bike_id":"5a6842ae-c0b9-41cc-a935-1573a6ab60b1","system_id":"levelo_inurba_marseille","lat":43.29845,"lon":5.36287,"is_reserved":false,"is_disabled":false,"rental_uris":{"android":"levelo://app?vid=5a6842ae-c0b9-41cc-a935-1573a6ab60b1","ios":"levelo://app?vid=5a6842ae-c0b9-41cc-a935-1573a6ab60b1"},"vehicle_type_id":"4","last_reported":1741388833,"current_range_meters":8400,"station_id":"ce4bgpp2rcd13ifvqc3g","pricing_plan_id":"cebpf4jnsgd1na2vs0mg"},{"bike_id":"67e94c61-e7ab-42f6-adc4-4f5482dd7f96","system_id":"levelo_inurba_marseille","lat":43.23198,"lon":5.39981,"is_reserved":false,"is_disabled":false,"rental_uris":{"android":"levelo://app?vid=67e94c61-e7ab-42f6-adc4-4f5482dd7f96","ios":"levelo://app?vid=67e94c61-e7ab-42f6-adc4-4f5482dd7f96"},"vehicle_type_id":"4","last_reported":1741388833,"current_range_meters":8400,"station_id":"ce4bhn12rcd13ifvqgqg","pricing_plan_id":"cebpf4jnsgd1na2vs0mg"},{"bike_id":"45e14e50-2223-4f93-82bc-fb83a4bfdc86","system_id":"levelo_inurba_marseille","lat":43.29524,"lon":5.3938,"is_reserved":false,"is_disabled":false,"rental_uris":{"android":"levelo://app?vid=45e14e50-2223-4f93-82bc-fb83a4bfdc86","ios":"levelo://app?vid=45e14e50-2223-4f93-82bc-fb83a4bfdc86"},"vehicle_type_id":"4","last_reported":1741388833,"current_range_meters":8800,"station_id":"ce4bh292rcd13ifvqdf0","pricing_plan_id":"cebpf4jnsgd1na2vs0mg"},{"bike_id":"59ef7ab1-f072-4315-9e2a-a3482cc569d5","system_id":"levelo_inurba_marseille","lat":43.2989,"lon":5.43658,"is_reserved":false,"is_disabled":false,"rental_uris":{"android":"levelo://app?vid=59ef7ab1-f072-4315-9e2a-a3482cc569d5","ios":"levelo://app?vid=59ef7ab1-f072-4315-9e2a-a3482cc569d5"},"vehicle_type_id":"4","last_reported":1741388833,"current_range_meters":8800,"station_id":"ce4bhpp2rcd13ifvqhfg","pricing_plan_id":"cebpf4jnsgd1na2vs0mg"},{"bike_id":"a6639f99-e13b-44f9-91cd-0038654bbc9d","system_id":"levelo_inurba_marseille","lat":43.30784,"lon":5.38149,"is_reserved":false,"is_disabled":false,"rental_uris":{"android":"levelo://app?vid=a6639f99-e13b-44f9-91cd-0038654bbc9d","ios":"levelo://app?vid=a6639f99-e13b-44f9-91cd-0038654bbc9d"},"vehicle_type_id":"4","last_reported":1741388833,"current_range_meters":8400,"station_id":"ce4bgt12rcd13ifvqce0","pricing_plan_id":"cebpf4jnsgd1na2vs0mg"},{"bike_id":"1a34d10a-69f9-4218-bf6d-264da60c3157","system_id":"levelo_inurba_marseille","lat":43.31273,"lon":5.40172,"is_reserved":false,"is_disabled":false,"rental_uris":{"android":"levelo://app?vid=1a34d10a-69f9-4218-bf6d-264da60c3157","ios":"levelo://app?vid=1a34d10a-69f9-4218-bf6d-264da60c3157"},"vehicle_type_id":"4","last_reported":1741388833,"current_range_meters":8800,"station_id":"ce4bh092rcd13ifvqd30","pricing_plan_id":"cebpf4jnsgd1na2vs0mg"},{"bike_id":"bd1ca430-15b2-40f5-ab85-6f767aed8061","system_id":"levelo_inurba_marseille","lat":43.23053,"lon":5.35492,"is_reserved":false,"is_disabled":false,"rental_uris":{"android":"levelo://app?vid=bd1ca430-15b2-40f5-ab85-6f767aed8061","ios":"levelo://app?vid=bd1ca430-15b2-40f5-ab85-6f767aed8061"},"vehicle_type_id":"4","last_reported":1741388833,"current_range_meters":8800,"station_id":"cpo3342slgdg3j2ifvpg","pricing_plan_id":"cebpf4jnsgd1na2vs0mg"},{"bike_id":"904a8371-ebed-45e5-8cc3-b64b65860481","system_id":"levelo_inurba_marseille","lat":43.31696,"lon":5.37774,"is_reserved":false,"is_disabled":false,"rental_uris":{"android":"levelo://app?vid=904a8371-ebed-45e5-8cc3-b64b65860481","ios":"levelo://app?vid=904a8371-ebed-45e5-8cc3-b64b65860481"},"vehicle_type_id":"4","last_reported":1741388833,"current_range_meters":8800,"station_id":"ce4bgth2rcd13ifvqch0","pricing_plan_id":"cebpf4jnsgd1na2vs0mg"},{"bike_id":"3fe318d1-5178-4d5f-ae4c-f2f3ac9a3885","system_id":"levelo_inurba_marseille","lat":43.30079,"lon":5.39068,"is_reserved":false,"is_disabled":false,"rental_uris":{"android":"levelo://app?vid=3fe318d1-5178-4d5f-ae4c-f2f3ac9a3885","ios":"levelo://app?vid=3fe318d1-5178-4d5f-ae4c-f2f3ac9a3885"},"vehicle_type_id":"4","last_reported":1741388833,"current_range_meters":8400,"station_id":"ce4bh192rcd13ifvqdb0","pricing_plan_id":"cebpf4jnsgd1na2vs0mg"},{"bike_id":"ed657e84-2887-4c0d-8368-5982332257e2","system_id":"levelo_inurba_marseille","lat":43.29628,"lon":5.40599,"is_reserved":false,"is_disabled":false,"rental_uris":{"android":"levelo://app?vid=ed657e84-2887-4c0d-8368-5982332257e2","ios":"levelo://app?vid=ed657e84-2887-4c0d-8368-5982332257e2"},"vehicle_type_id":"4","last_reported":1741388833,"current_range_meters":8800,"station_id":"ce4bh0h2rcd13ifvqd60","pricing_plan_id":"cebpf4jnsgd1na2vs0mg"},{"bike_id":"48ce40c1-0299-44b6-af4d-acc32ba2f0c2","system_id":"levelo_inurba_marseille","lat":43.23963,"lon":5.36622,"is_reserved":false,"is_disabled":false,"rental_uris":{"android":"levelo://app?vid=48ce40c1-0299-44b6-af4d-acc32ba2f0c2","ios":"levelo://app?vid=48ce40c1-0299-44b6-af4d-acc32ba2f0c2"},"vehicle_type_id":"4","last_reported":1741388833,"current_range_meters":8800,"station_id":"ce4bhi12rcd13ifvqfp0","pricing_plan_id":"cebpf4jnsgd1na2vs0mg"},{"bike_id":"c6ec3735-e9d3-47a3-a053-20434d658a51","system_id":"levelo_inurba_marseille","lat":43.284519,"lon":5.360594,"is_reserved":false,"is_disabled":false,"rental_uris":{"android":"levelo://app?vid=c6ec3735-e9d3-47a3-a053-20434d658a51","ios":"levelo://app?vid=c6ec3735-e9d3-47a3-a053-20434d658a51"},"vehicle_type_id":"4","last_reported":1741388833,"current_range_meters":8800,"station_id":"ce4bhah2rcd13ifvqei0","pricing_plan_id":"cebpf4jnsgd1na2vs0mg"},{"bike_id":"a8fad798-ba40-4b81-8bfa-339d730ef1cc","system_id":"levelo_inurba_marseille","lat":43.30596,"lon":5.39346,"is_reserved":false,"is_disabled":false,"rental_uris":{"android":"levelo://app?vid=a8fad798-ba40-4b81-8bfa-339d730ef1cc","ios":"levelo://app?vid=a8fad798-ba40-4b81-8bfa-339d730ef1cc"},"vehicle_type_id":"4","last_reported":1741388833,"current_range_meters":9200,"station_id":"ce4bh0p2rcd13ifvqd80","pricing_plan_id":"cebpf4jnsgd1na2vs0mg"},{"bike_id":"13fcdae9-d224-4311-96b7-343170dc0475","system_id":"levelo_inurba_marseille","lat":43.2904,"lon":5.35914,"is_reserved":false,"is_disabled":false,"rental_uris":{"android":"levelo://app?vid=13fcdae9-d224-4311-96b7-343170dc0475","ios":"levelo://app?vid=13fcdae9-d224-4311-96b7-343170dc0475"},"vehicle_type_id":"4","last_reported":1741388833,"current_range_meters":8800,"station_id":"ce4bha92rcd13ifvqeg0","pricing_plan_id":"cebpf4jnsgd1na2vs0mg"},{"bike_id":"086d469f-dff5-4ec5-8e53-42a42c799cc9","system_id":"levelo_inurba_marseille","lat":43.29558,"lon":5.4227,"is_reserved":false,"is_disabled":false,"rental_uris":{"android":"levelo://app?vid=086d469f-dff5-4ec5-8e53-42a42c799cc9","ios":"levelo://app?vid=086d469f-dff5-4ec5-8e53-42a42c799cc9"},"vehicle_type_id":"4","last_reported":1741388833,"current_range_meters":9200,"station_id":"ce4bhph2rcd13ifvqhdg","pricing_plan_id":"cebpf4jnsgd1na2vs0mg"},{"bike_id":"42323b44-4776-4993-88db-08c90d643018","system_id":"levelo_inurba_marseille","lat":43.30086,"lon":5.37669,"is_reserved":false,"is_disabled":false,"rental_uris":{"android":"levelo://app?vid=42323b44-4776-4993-88db-08c90d643018","ios":"levelo://app?vid=42323b44-4776-4993-88db-08c90d643018"},"vehicle_type_id":"4","last_reported":1741388833,"current_range_meters":9200,"station_id":"","pricing_plan_id":"cebpf4jnsgd1na2vs0mg"},{"bike_id":"eb56149e-30af-4558-8822-53a332401eb1","system_id":"levelo_inurba_marseille","lat":43.29306,"lon":5.37175,"is_reserved":false,"is_disabled":false,"rental_uris":{"android":"levelo://app?vid=eb56149e-30af-4558-8822-53a332401eb1","ios":"levelo://app?vid=eb56149e-30af-4558-8822-53a332401eb1"},"vehicle_type_id":"4","last_reported":1741388833,"current_range_meters":9200,"station_id":"ce4bgh92rcd13ifvqb40","pricing_plan_id":"cebpf4jnsgd1na2vs0mg"},{"bike_id":"d8c22869-c5a3-4fa2-9dd7-72f9623d1f03","system_id":"levelo_inurba_marseille","lat":43.31074,"lon":5.38351,"is_reserved":false,"is_disabled":false,"rental_uris":{"android":"levelo://app?vid=d8c22869-c5a3-4fa2-9dd7-72f9623d1f03","ios":"levelo://app?vid=d8c22869-c5a3-4fa2-9dd7-72f9623d1f03"},"vehicle_type_id":"4","last_reported":1741388833,"current_range_meters":9200,"station_id":"ce4bgv92rcd13ifvqcr0","pricing_plan_id":"cebpf4jnsgd1na2vs0mg"},{"bike_id":"fa4eab7e-09d6-4ed0-87d9-6cd93a88b8b6","system_id":"levelo_inurba_marseille","lat":43.28351,"lon":5.38104,"is_reserved":false,"is_disabled":false,"rental_uris":{"android":"levelo://app?vid=fa4eab7e-09d6-4ed0-87d9-6cd93a88b8b6","ios":"levelo://app?vid=fa4eab7e-09d6-4ed0-87d9-6cd93a88b8b6"},"vehicle_type_id":"4","last_reported":1741388833,"current_range_meters":9600,"station_id":"ce4bh412rcd13ifvqdr0","pricing_plan_id":"cebpf4jnsgd1na2vs0mg"},{"bike_id":"3949e300-2dbd-4203-aa58-eef0b1b0c774","system_id":"levelo_inurba_marseille","lat":43.3375,"lon":5.37438,"is_reserved":false,"is_disabled":false,"rental_uris":{"android":"levelo://app?vid=3949e300-2dbd-4203-aa58-eef0b1b0c774","ios":"levelo://app?vid=3949e300-2dbd-4203-aa58-eef0b1b0c774"},"vehicle_type_id":"4","last_reported":1741388833,"current_range_meters":9600,"station_id":"","pricing_plan_id":"cebpf4jnsgd1na2vs0mg"},{"bike_id":"d2ddb84a-0b8c-4b36-8bb4-364014948f7d","system_id":"levelo_inurba_marseille","lat":43.29024,"lon":5.38148,"is_reserved":false,"is_disabled":false,"rental_uris":{"android":"levelo://app?vid=d2ddb84a-0b8c-4b36-8bb4-364014948f7d","ios":"levelo://app?vid=d2ddb84a-0b8c-4b36-8bb4-364014948f7d"},"vehicle_type_id":"4","last_reported":1741388833,"current_range_meters":9200,"station_id":"ce4bh4p2rcd13ifvqe1g","pricing_plan_id":"cebpf4jnsgd1na2vs0mg"},{"bike_id":"920ff55d-e722-45ea-b645-85ea1685a342","system_id":"levelo_inurba_marseille","lat":43.29263,"lon":5.38436,"is_reserved":false,"is_disabled":false,"rental_uris":{"android":"levelo://app?vid=920ff55d-e722-45ea-b645-85ea1685a342","ios":"levelo://app?vid=920ff55d-e722-45ea-b645-85ea1685a342"},"vehicle_type_id":"4","last_reported":1741388833,"current_range_meters":9600,"station_id":"ce4bh692rcd13ifvqea0","pricing_plan_id":"cebpf4jnsgd1na2vs0mg"},{"bike_id":"daa48c53-c5de-46aa-94fc-655cbd710c8c","system_id":"levelo_inurba_marseille","lat":43.22942,"lon":5.35364,"is_reserved":false,"is_disabled":false,"rental_uris":{"android":"levelo://app?vid=daa48c53-c5de-46aa-94fc-655cbd710c8c","ios":"levelo://app?vid=daa48c53-c5de-46aa-94fc-655cbd710c8c"},"vehicle_type_id":"4","last_reported":1741388833,"current_range_meters":9600,"station_id":"cpo3532slgdg3j2ikp40","pricing_plan_id":"cebpf4jnsgd1na2vs0mg"},{"bike_id":"09877e09-ae34-40bc-8f01-a4637a519e06","system_id":"levelo_inurba_marseille","lat":43.25114,"lon":5.40326,"is_reserved":false,"is_disabled":false,"rental_uris":{"android":"levelo://app?vid=09877e09-ae34-40bc-8f01-a4637a519e06","ios":"levelo://app?vid=09877e09-ae34-40bc-8f01-a4637a519e06"},"vehicle_type_id":"4","last_reported":1741388833,"current_range_meters":10000,"station_id":"ce4bhlh2rcd13ifvqgig","pricing_plan_id":"cebpf4jnsgd1na2vs0mg"},{"bike_id":"f81564de-b929-4427-ba5c-a5b4372d6131","system_id":"levelo_inurba_marseille","lat":43.282899,"lon":5.402028,"is_reserved":false,"is_disabled":false,"rental_uris":{"android":"levelo://app?vid=f81564de-b929-4427-ba5c-a5b4372d6131","ios":"levelo://app?vid=f81564de-b929-4427-ba5c-a5b4372d6131"},"vehicle_type_id":"4","last_reported":1741388833,"current_range_meters":9600,"station_id":"ce4bhjp2rcd13ifvqga0","pricing_plan_id":"cebpf4jnsgd1na2vs0mg"},{"bike_id":"153123e8-090d-4fdf-a76f-c1dde8b77727","system_id":"levelo_inurba_marseille","lat":43.28153,"lon":5.4265,"is_reserved":false,"is_disabled":false,"rental_uris":{"android":"levelo://app?vid=153123e8-090d-4fdf-a76f-c1dde8b77727","ios":"levelo://app?vid=153123e8-090d-4fdf-a76f-c1dde8b77727"},"vehicle_type_id":"4","last_reported":1741388833,"current_range_meters":10000,"station_id":"ce4bhnh2rcd13ifvqgug","pricing_plan_id":"cebpf4jnsgd1na2vs0mg"},{"bike_id":"b56bbdc7-588d-4f09-9b29-ff1d14afdb54","system_id":"levelo_inurba_marseille","lat":43.295166,"lon":5.385912,"is_reserved":false,"is_disabled":false,"rental_uris":{"android":"levelo://app?vid=b56bbdc7-588d-4f09-9b29-ff1d14afdb54","ios":"levelo://app?vid=b56bbdc7-588d-4f09-9b29-ff1d14afdb54"},"vehicle_type_id":"4","last_reported":1741388833,"current_range_meters":10000,"station_id":"ce4bh3h2rcd13ifvqdo0","pricing_plan_id":"cebpf4jnsgd1na2vs0mg"},{"bike_id":"33297c05-bc12-4af4-9af1-ecdfff2fd527","system_id":"levelo_inurba_marseille","lat":43.27494,"lon":5.42449,"is_reserved":false,"is_disabled":false,"rental_uris":{"android":"levelo://app?vid=33297c05-bc12-4af4-9af1-ecdfff2fd527","ios":"levelo://app?vid=33297c05-bc12-4af4-9af1-ecdfff2fd527"},"vehicle_type_id":"4","last_reported":1741388833,"current_range_meters":10000,"station_id":"ce4bhn92rcd13ifvqgrg","pricing_plan_id":"cebpf4jnsgd1na2vs0mg"},{"bike_id":"db7cd95b-0159-457d-aa08-f78ad0493427","system_id":"levelo_inurba_marseille","lat":43.32356,"lon":5.38886,"is_reserved":false,"is_disabled":false,"rental_uris":{"android":"levelo://app?vid=db7cd95b-0159-457d-aa08-f78ad0493427","ios":"levelo://app?vid=db7cd95b-0159-457d-aa08-f78ad0493427"},"vehicle_type_id":"4","last_reported":1741388833,"current_range_meters":10800,"station_id":"ce4bhqp2rcd13ifvqhog","pricing_plan_id":"cebpf4jnsgd1na2vs0mg"},{"bike_id":"7b62c62b-d961-49e1-afe1-b0b21a291801","system_id":"levelo_inurba_marseille","lat":43.27858,"lon":5.41739,"is_reserved":false,"is_disabled":true,"rental_uris":{"android":"levelo://app?vid=7b62c62b-d961-49e1-afe1-b0b21a291801","ios":"levelo://app?vid=7b62c62b-d961-49e1-afe1-b0b21a291801"},"vehicle_type_id":"4","last_reported":1741388833,"current_range_meters":10000,"station_id":"","pricing_plan_id":"cebpf4jnsgd1na2vs0mg"},{"bike_id":"a7d87b7e-1251-45e4-8a55-8f8a7d87b0e2","system_id":"levelo_inurba_marseille","lat":43.26569,"lon":5.37334,"is_reserved":false,"is_disabled":false,"rental_uris":{"android":"levelo://app?vid=a7d87b7e-1251-45e4-8a55-8f8a7d87b0e2","ios":"levelo://app?vid=a7d87b7e-1251-45e4-8a55-8f8a7d87b0e2"},"vehicle_type_id":"4","last_reported":1741388833,"current_range_meters":10000,"station_id":"ce4bhg12rcd13ifvqf70","pricing_plan_id":"cebpf4jnsgd1na2vs0mg"},{"bike_id":"01a6afe2-d645-4130-8890-22799000c76a","system_id":"levelo_inurba_marseille","lat":43.279982,"lon":5.40011,"is_reserved":false,"is_disabled":false,"rental_uris":{"android":"levelo://app?vid=01a6afe2-d645-4130-8890-22799000c76a","ios":"levelo://app?vid=01a6afe2-d645-4130-8890-22799000c76a"},"vehicle_type_id":"4","last_reported":1741388833,"current_range_meters":10000,"station_id":"ce4bho92rcd13ifvqh4g","pricing_plan_id":"cebpf4jnsgd1na2vs0mg"},{"bike_id":"048f47d3-cba0-4741-88e2-d93c0bc1ee02","system_id":"levelo_inurba_marseille","lat":43.29847,"lon":5.36283,"is_reserved":false,"is_disabled":false,"rental_uris":{"android":"levelo://app?vid=048f47d3-cba0-4741-88e2-d93c0bc1ee02","ios":"levelo://app?vid=048f47d3-cba0-4741-88e2-d93c0bc1ee02"},"vehicle_type_id":"4","last_reported":1741388833,"current_range_meters":10000,"station_id":"ce4bgpp2rcd13ifvqc3g","pricing_plan_id":"cebpf4jnsgd1na2vs0mg"},{"bike_id":"58659d1d-526b-4bb2-b140-6f7efc12a41e","system_id":"levelo_inurba_marseille","lat":43.26055,"lon":5.39397,"is_reserved":false,"is_disabled":false,"rental_uris":{"android":"levelo://app?vid=58659d1d-526b-4bb2-b140-6f7efc12a41e","ios":"levelo://app?vid=58659d1d-526b-4bb2-b140-6f7efc12a41e"},"vehicle_type_id":"4","last_reported":1741388833,"current_range_meters":10000,"station_id":"ce4bhh92rcd13ifvqfj0","pricing_plan_id":"cebpf4jnsgd1na2vs0mg"},{"bike_id":"b2f23c87-37db-48fb-a111-f515e2457fd2","system_id":"levelo_inurba_marseille","lat":43.30407,"lon":5.3976,"is_reserved":false,"is_disabled":false,"rental_uris":{"android":"levelo://app?vid=b2f23c87-37db-48fb-a111-f515e2457fd2","ios":"levelo://app?vid=b2f23c87-37db-48fb-a111-f515e2457fd2"},"vehicle_type_id":"4","last_reported":1741388833,"current_range_meters":10000,"station_id":"ce4bh092rcd13ifvqd20","pricing_plan_id":"cebpf4jnsgd1na2vs0mg"},{"bike_id":"60fba7df-4520-4d63-9c5b-9a7a002cedfb","system_id":"levelo_inurba_marseille","lat":43.28046,"lon":5.39105,"is_reserved":false,"is_disabled":false,"rental_uris":{"android":"levelo://app?vid=60fba7df-4520-4d63-9c5b-9a7a002cedfb","ios":"levelo://app?vid=60fba7df-4520-4d63-9c5b-9a7a002cedfb"},"vehicle_type_id":"4","last_reported":1741388833,"current_range_meters":10800,"station_id":"","pricing_plan_id":"cebpf4jnsgd1na2vs0mg"},{"bike_id":"b1e189d2-cc2d-4bbc-9210-3d18e5683801","system_id":"levelo_inurba_marseille","lat":43.26933,"lon":5.40283,"is_reserved":false,"is_disabled":true,"rental_uris":{"android":"levelo://app?vid=b1e189d2-cc2d-4bbc-9210-3d18e5683801","ios":"levelo://app?vid=b1e189d2-cc2d-4bbc-9210-3d18e5683801"},"vehicle_type_id":"4","last_reported":1741388833,"current_range_meters":11200,"station_id":"cjm6bp8fraef2m0cb0m0","pricing_plan_id":"cebpf4jnsgd1na2vs0mg"},{"bike_id":"ae99eef4-0d01-432b-b9f3-30beda5f0e73","system_id":"levelo_inurba_marseille","lat":43.29893,"lon":5.43658,"is_reserved":false,"is_disabled":false,"rental_uris":{"android":"levelo://app?vid=ae99eef4-0d01-432b-b9f3-30beda5f0e73","ios":"levelo://app?vid=ae99eef4-0d01-432b-b9f3-30beda5f0e73"},"vehicle_type_id":"4","last_reported":1741388833,"current_range_meters":11200,"station_id":"ce4bhpp2rcd13ifvqhfg","pricing_plan_id":"cebpf4jnsgd1na2vs0mg"},{"bike_id":"757562e5-3df4-40c3-a432-85dfc2faeb3d","system_id":"levelo_inurba_marseille","lat":43.23959,"lon":5.36631,"is_reserved":false,"is_disabled":false,"rental_uris":{"android":"levelo://app?vid=757562e5-3df4-40c3-a432-85dfc2faeb3d","ios":"levelo://app?vid=757562e5-3df4-40c3-a432-85dfc2faeb3d"},"vehicle_type_id":"4","last_reported":1741388833,"current_range_meters":11200,"station_id":"ce4bhi12rcd13ifvqfp0","pricing_plan_id":"cebpf4jnsgd1na2vs0mg"},{"bike_id":"f0f073b8-3a3a-4841-a660-7c86c96fde81","system_id":"levelo_inurba_marseille","lat":43.31292,"lon":5.37314,"is_reserved":false,"is_disabled":false,"rental_uris":{"android":"levelo://app?vid=f0f073b8-3a3a-4841-a660-7c86c96fde81","ios":"levelo://app?vid=f0f073b8-3a3a-4841-a660-7c86c96fde81"},"vehicle_type_id":"4","last_reported":1741388833,"current_range_meters":11200,"station_id":"","pricing_plan_id":"cebpf4jnsgd1na2vs0mg"},{"bike_id":"42168c6f-35a5-43f2-8ef8-61a75051262d","system_id":"levelo_inurba_marseille","lat":43.28159,"lon":5.42646,"is_reserved":false,"is_disabled":true,"rental_uris":{"android":"levelo://app?vid=42168c6f-35a5-43f2-8ef8-61a75051262d","ios":"levelo://app?vid=42168c6f-35a5-43f2-8ef8-61a75051262d"},"vehicle_type_id":"4","last_reported":1741388833,"current_range_meters":11200,"station_id":"ce4bhnh2rcd13ifvqgug","pricing_plan_id":"cebpf4jnsgd1na2vs0mg"},{"bike_id":"0c8d7e6b-0cc4-4d31-af78-da252ef1a442","system_id":"levelo_inurba_marseille","lat":43.29155,"lon":5.38616,"is_reserved":false,"is_disabled":false,"rental_uris":{"android":"levelo://app?vid=0c8d7e6b-0cc4-4d31-af78-da252ef1a442","ios":"levelo://app?vid=0c8d7e6b-0cc4-4d31-af78-da252ef1a442"},"vehicle_type_id":"4","last_reported":1741388833,"current_range_meters":11200,"station_id":"","pricing_plan_id":"cebpf4jnsgd1na2vs0mg"},{"bike_id":"0d2ba36d-9360-41d5-bed8-a642d33b4fbe","system_id":"levelo_inurba_marseille","lat":43.30137,"lon":5.39851,"is_reserved":false,"is_disabled":false,"rental_uris":{"android":"levelo://app?vid=0d2ba36d-9360-41d5-bed8-a642d33b4fbe","ios":"levelo://app?vid=0d2ba36d-9360-41d5-bed8-a642d33b4fbe"},"vehicle_type_id":"4","last_reported":1741388833,"current_range_meters":11200,"station_id":"ce4bh0h2rcd13ifvqd40","pricing_plan_id":"cebpf4jnsgd1na2vs0mg"},{"bike_id":"0e674cb4-f37d-4bd5-aaff-7ec953d386c6","system_id":"levelo_inurba_marseille","lat":43.24164,"lon":5.36396,"is_reserved":false,"is_disabled":false,"rental_uris":{"android":"levelo://app?vid=0e674cb4-f37d-4bd5-aaff-7ec953d386c6","ios":"levelo://app?vid=0e674cb4-f37d-4bd5-aaff-7ec953d386c6"},"vehicle_type_id":"4","last_reported":1741388833,"current_range_meters":11200,"station_id":"cpo36qri1sfpv3e86is0","pricing_plan_id":"cebpf4jnsgd1na2vs0mg"},{"bike_id":"eefe66a8-9b10-4ded-8e0a-619e66601e02","system_id":"levelo_inurba_marseille","lat":43.29626,"lon":5.42589,"is_reserved":false,"is_disabled":false,"rental_uris":{"android":"levelo://app?vid=eefe66a8-9b10-4ded-8e0a-619e66601e02","ios":"levelo://app?vid=eefe66a8-9b10-4ded-8e0a-619e66601e02"},"vehicle_type_id":"4","last_reported":1741388833,"current_range_meters":11200,"station_id":"","pricing_plan_id":"cebpf4jnsgd1na2vs0mg"},{"bike_id":"ac269663-43a8-4f28-8118-be61d0478060","system_id":"levelo_inurba_marseille","lat":43.28695,"lon":5.40735,"is_reserved":false,"is_disabled":false,"rental_uris":{"android":"levelo://app?vid=ac269663-43a8-4f28-8118-be61d0478060","ios":"levelo://app?vid=ac269663-43a8-4f28-8118-be61d0478060"},"vehicle_type_id":"4","last_reported":1741388833,"current_range_meters":11200,"station_id":"","pricing_plan_id":"cebpf4jnsgd1na2vs0mg"},{"bike_id":"e524bcef-a391-41b2-bad2-673eae53ea51","system_id":"levelo_inurba_marseille","lat":43.31709,"lon":5.43701,"is_reserved":false,"is_disabled":false,"rental_uris":{"android":"levelo://app?vid=e524bcef-a391-41b2-bad2-673eae53ea51","ios":"levelo://app?vid=e524bcef-a391-41b2-bad2-673eae53ea51"},"vehicle_type_id":"4","last_reported":1741388833,"current_range_meters":11600,"station_id":"ce4bhp92rcd13ifvqhcg","pricing_plan_id":"cebpf4jnsgd1na2vs0mg"},{"bike_id":"dac09d9e-9ab6-4c54-8fe2-7fcfc9203869","system_id":"levelo_inurba_marseille","lat":43.26559,"lon":5.37342,"is_reserved":false,"is_disabled":true,"rental_uris":{"android":"levelo://app?vid=dac09d9e-9ab6-4c54-8fe2-7fcfc9203869","ios":"levelo://app?vid=dac09d9e-9ab6-4c54-8fe2-7fcfc9203869"},"vehicle_type_id":"4","last_reported":1741388833,"current_range_meters":11600,"station_id":"ce4bhg12rcd13ifvqf70","pricing_plan_id":"cebpf4jnsgd1na2vs0mg"},{"bike_id":"7372ba19-4949-453e-a20c-490c28817add","system_id":"levelo_inurba_marseille","lat":43.33789,"lon":5.37457,"is_reserved":false,"is_disabled":false,"rental_uris":{"android":"levelo://app?vid=7372ba19-4949-453e-a20c-490c28817add","ios":"levelo://app?vid=7372ba19-4949-453e-a20c-490c28817add"},"vehicle_type_id":"4","last_reported":1741388833,"current_range_meters":12000,"station_id":"","pricing_plan_id":"cebpf4jnsgd1na2vs0mg"},{"bike_id":"7a6390d5-30f1-42a9-81f6-77c4114cf172","system_id":"levelo_inurba_marseille","lat":43.278156,"lon":5.407094,"is_reserved":false,"is_disabled":false,"rental_uris":{"android":"levelo://app?vid=7a6390d5-30f1-42a9-81f6-77c4114cf172","ios":"levelo://app?vid=7a6390d5-30f1-42a9-81f6-77c4114cf172"},"vehicle_type_id":"4","last_reported":1741388833,"current_range_meters":12400,"station_id":"ce4bhnh2rcd13ifvqgtg","pricing_plan_id":"cebpf4jnsgd1na2vs0mg"},{"bike_id":"4048f4cb-c79a-4e84-a8e6-068b2a53463d","system_id":"levelo_inurba_marseille","lat":43.29716,"lon":5.393947,"is_reserved":false,"is_disabled":false,"rental_uris":{"android":"levelo://app?vid=4048f4cb-c79a-4e84-a8e6-068b2a53463d","ios":"levelo://app?vid=4048f4cb-c79a-4e84-a8e6-068b2a53463d"},"vehicle_type_id":"4","last_reported":1741388833,"current_range_meters":12000,"station_id":"","pricing_plan_id":"cebpf4jnsgd1na2vs0mg"},{"bike_id":"e31092ac-b6a1-414f-bdb8-1f248314f867","system_id":"levelo_inurba_marseille","lat":43.27559,"lon":5.38417,"is_reserved":false,"is_disabled":false,"rental_uris":{"android":"levelo://app?vid=e31092ac-b6a1-414f-bdb8-1f248314f867","ios":"levelo://app?vid=e31092ac-b6a1-414f-bdb8-1f248314f867"},"vehicle_type_id":"4","last_reported":1741388833,"current_range_meters":12000,"station_id":"ce4bhh92rcd13ifvqfi0","pricing_plan_id":"cebpf4jnsgd1na2vs0mg"},{"bike_id":"48ef3b9b-1d63-4598-ab19-dc9297f651a4","system_id":"levelo_inurba_marseille","lat":43.308,"lon":5.38157,"is_reserved":false,"is_disabled":false,"rental_uris":{"android":"levelo://app?vid=48ef3b9b-1d63-4598-ab19-dc9297f651a4","ios":"levelo://app?vid=48ef3b9b-1d63-4598-ab19-dc9297f651a4"},"vehicle_type_id":"4","last_reported":1741388833,"current_range_meters":12000,"station_id":"ce4bgt12rcd13ifvqce0","pricing_plan_id":"cebpf4jnsgd1na2vs0mg"},{"bike_id":"69ee786d-580d-43d3-af33-fb79760094d6","system_id":"levelo_inurba_marseille","lat":43.27612,"lon":5.36109,"is_reserved":false,"is_disabled":false,"rental_uris":{"android":"levelo://app?vid=69ee786d-580d-43d3-af33-fb79760094d6","ios":"levelo://app?vid=69ee786d-580d-43d3-af33-fb79760094d6"},"vehicle_type_id":"4","last_reported":1741388833,"current_range_meters":12400,"station_id":"ce4bgj92rcd13ifvqbe0","pricing_plan_id":"cebpf4jnsgd1na2vs0mg"},{"bike_id":"ca139617-9374-4268-888c-8db46d229f2d","system_id":"levelo_inurba_marseille","lat":43.32359,"lon":5.38888,"is_reserved":false,"is_disabled":false,"rental_uris":{"android":"levelo://app?vid=ca139617-9374-4268-888c-8db46d229f2d","ios":"levelo://app?vid=ca139617-9374-4268-888c-8db46d229f2d"},"vehicle_type_id":"4","last_reported":1741388833,"current_range_meters":12400,"station_id":"ce4bhqp2rcd13ifvqhog","pricing_plan_id":"cebpf4jnsgd1na2vs0mg"},{"bike_id":"635beb12-73ff-4358-ad6f-b104a172d12b","system_id":"levelo_inurba_marseille","lat":43.27671,"lon":5.38875,"is_reserved":false,"is_disabled":false,"rental_uris":{"android":"levelo://app?vid=635beb12-73ff-4358-ad6f-b104a172d12b","ios":"levelo://app?vid=635beb12-73ff-4358-ad6f-b104a172d12b"},"vehicle_type_id":"4","last_reported":1741388833,"current_range_meters":12400,"station_id":"ce4bhi12rcd13ifvqfo0","pricing_plan_id":"cebpf4jnsgd1na2vs0mg"},{"bike_id":"4f508b50-1e3d-40c5-be77-1e6495edbe07","system_id":"levelo_inurba_marseille","lat":43.25713,"lon":5.41107,"is_reserved":false,"is_disabled":false,"rental_uris":{"android":"levelo://app?vid=4f508b50-1e3d-40c5-be77-1e6495edbe07","ios":"levelo://app?vid=4f508b50-1e3d-40c5-be77-1e6495edbe07"},"vehicle_type_id":"4","last_reported":1741388833,"current_range_meters":12400,"station_id":"ce4bhkp2rcd13ifvqgd0","pricing_plan_id":"cebpf4jnsgd1na2vs0mg"},{"bike_id":"ba1993c2-4a65-43bb-a1cc-36e375788125","system_id":"levelo_inurba_marseille","lat":43.27993,"lon":5.40012,"is_reserved":false,"is_disabled":false,"rental_uris":{"android":"levelo://app?vid=ba1993c2-4a65-43bb-a1cc-36e375788125","ios":"levelo://app?vid=ba1993c2-4a65-43bb-a1cc-36e375788125"},"vehicle_type_id":"4","last_reported":1741388833,"current_range_meters":12400,"station_id":"ce4bho92rcd13ifvqh4g","pricing_plan_id":"cebpf4jnsgd1na2vs0mg"},{"bike_id":"117576de-ea7a-4e20-89ce-191a1398e64d","system_id":"levelo_inurba_marseille","lat":43.23215,"lon":5.39955,"is_reserved":false,"is_disabled":false,"rental_uris":{"android":"levelo://app?vid=117576de-ea7a-4e20-89ce-191a1398e64d","ios":"levelo://app?vid=117576de-ea7a-4e20-89ce-191a1398e64d"},"vehicle_type_id":"4","last_reported":1741388833,"current_range_meters":12400,"station_id":"ce4bhn12rcd13ifvqgqg","pricing_plan_id":"cebpf4jnsgd1na2vs0mg"},{"bike_id":"7e60b09d-959c-4d55-a820-f3270555724f","system_id":"levelo_inurba_marseille","lat":43.28624,"lon":5.35094,"is_reserved":false,"is_disabled":false,"rental_uris":{"android":"levelo://app?vid=7e60b09d-959c-4d55-a820-f3270555724f","ios":"levelo://app?vid=7e60b09d-959c-4d55-a820-f3270555724f"},"vehicle_type_id":"4","last_reported":1741388833,"current_range_meters":12400,"station_id":"ce4bhch2rcd13ifvqeug","pricing_plan_id":"cebpf4jnsgd1na2vs0mg"},{"bike_id":"b54292f7-ba5a-4ca2-851d-b34190bdf4a8","system_id":"levelo_inurba_marseille","lat":43.33015,"lon":5.39059,"is_reserved":false,"is_disabled":false,"rental_uris":{"android":"levelo://app?vid=b54292f7-ba5a-4ca2-851d-b34190bdf4a8","ios":"levelo://app?vid=b54292f7-ba5a-4ca2-851d-b34190bdf4a8"},"vehicle_type_id":"4","last_reported":1741388833,"current_range_meters":12400,"station_id":"ce4bhr92rcd13ifvqhrg","pricing_plan_id":"cebpf4jnsgd1na2vs0mg"},{"bike_id":"bb135f14-8d6b-481e-8082-9e2bfab31d17","system_id":"levelo_inurba_marseille","lat":43.29415,"lon":5.38639,"is_reserved":false,"is_disabled":false,"rental_uris":{"android":"levelo://app?vid=bb135f14-8d6b-481e-8082-9e2bfab31d17","ios":"levelo://app?vid=bb135f14-8d6b-481e-8082-9e2bfab31d17"},"vehicle_type_id":"4","last_reported":1741388833,"current_range_meters":12400,"station_id":"ce4bh2h2rcd13ifvqdh0","pricing_plan_id":"cebpf4jnsgd1na2vs0mg"},{"bike_id":"201e16e9-1f9c-45a3-8dec-2d516ef1efcb","system_id":"levelo_inurba_marseille","lat":43.2397,"lon":5.36615,"is_reserved":false,"is_disabled":false,"rental_uris":{"android":"levelo://app?vid=201e16e9-1f9c-45a3-8dec-2d516ef1efcb","ios":"levelo://app?vid=201e16e9-1f9c-45a3-8dec-2d516ef1efcb"},"vehicle_type_id":"4","last_reported":1741388833,"current_range_meters":12400,"station_id":"ce4bhi12rcd13ifvqfp0","pricing_plan_id":"cebpf4jnsgd1na2vs0mg"},{"bike_id":"9b8789be-c150-4679-b8ba-e1d5e4639da2","system_id":"levelo_inurba_marseille","lat":43.25693,"lon":5.41138,"is_reserved":false,"is_disabled":false,"rental_uris":{"android":"levelo://app?vid=9b8789be-c150-4679-b8ba-e1d5e4639da2","ios":"levelo://app?vid=9b8789be-c150-4679-b8ba-e1d5e4639da2"},"vehicle_type_id":"4","last_reported":1741388833,"current_range_meters":12400,"station_id":"ce4bhkp2rcd13ifvqgd0","pricing_plan_id":"cebpf4jnsgd1na2vs0mg"},{"bike_id":"11e7fc3b-ed5a-4401-a0af-6e80583f87e8","system_id":"levelo_inurba_marseille","lat":43.27823,"lon":5.40727,"is_reserved":false,"is_disabled":false,"rental_uris":{"android":"levelo://app?vid=11e7fc3b-ed5a-4401-a0af-6e80583f87e8","ios":"levelo://app?vid=11e7fc3b-ed5a-4401-a0af-6e80583f87e8"},"vehicle_type_id":"4","last_reported":1741388833,"current_range_meters":12400,"station_id":"ce4bhnh2rcd13ifvqgtg","pricing_plan_id":"cebpf4jnsgd1na2vs0mg"},{"bike_id":"d47b3569-7f92-439b-94f1-38239ac778f1","system_id":"levelo_inurba_marseille","lat":43.294183,"lon":5.386373,"is_reserved":false,"is_disabled":false,"rental_uris":{"android":"levelo://app?vid=d47b3569-7f92-439b-94f1-38239ac778f1","ios":"levelo://app?vid=d47b3569-7f92-439b-94f1-38239ac778f1"},"vehicle_type_id":"4","last_reported":1741388833,"current_range_meters":12400,"station_id":"ce4bh2h2rcd13ifvqdh0","pricing_plan_id":"cebpf4jnsgd1na2vs0mg"},{"bike_id":"02d30f10-39c9-48b2-9c13-ae450d814668","system_id":"levelo_inurba_marseille","lat":43.298707,"lon":5.397325,"is_reserved":false,"is_disabled":false,"rental_uris":{"android":"levelo://app?vid=02d30f10-39c9-48b2-9c13-ae450d814668","ios":"levelo://app?vid=02d30f10-39c9-48b2-9c13-ae450d814668"},"vehicle_type_id":"4","last_reported":1741388833,"current_range_meters":12400,"station_id":"ce4bh292rcd13ifvqdf0","pricing_plan_id":"cebpf4jnsgd1na2vs0mg"},{"bike_id":"bef8b1e1-1f3f-4f03-8b78-608ec9a93267","system_id":"levelo_inurba_marseille","lat":43.23986,"lon":5.36601,"is_reserved":false,"is_disabled":false,"rental_uris":{"android":"levelo://app?vid=bef8b1e1-1f3f-4f03-8b78-608ec9a93267","ios":"levelo://app?vid=bef8b1e1-1f3f-4f03-8b78-608ec9a93267"},"vehicle_type_id":"4","last_reported":1741388833,"current_range_meters":12400,"station_id":"ce4bhi12rcd13ifvqfp0","pricing_plan_id":"cebpf4jnsgd1na2vs0mg"},{"bike_id":"2d34081b-0c5a-46fb-8913-7d2f76662f40","system_id":"levelo_inurba_marseille","lat":43.29529,"lon":5.39401,"is_reserved":false,"is_disabled":false,"rental_uris":{"android":"levelo://app?vid=2d34081b-0c5a-46fb-8913-7d2f76662f40","ios":"levelo://app?vid=2d34081b-0c5a-46fb-8913-7d2f76662f40"},"vehicle_type_id":"4","last_reported":1741388833,"current_range_meters":12800,"station_id":"ce4bh292rcd13ifvqdf0","pricing_plan_id":"cebpf4jnsgd1na2vs0mg"},{"bike_id":"61184bb7-49e8-48d3-b8bf-ff84769dcb0d","system_id":"levelo_inurba_marseille","lat":43.30311,"lon":5.39208,"is_reserved":false,"is_disabled":false,"rental_uris":{"android":"levelo://app?vid=61184bb7-49e8-48d3-b8bf-ff84769dcb0d","ios":"levelo://app?vid=61184bb7-49e8-48d3-b8bf-ff84769dcb0d"},"vehicle_type_id":"4","last_reported":1741388833,"current_range_meters":12800,"station_id":"ce4bgkh2rcd13ifvqbk0","pricing_plan_id":"cebpf4jnsgd1na2vs0mg"},{"bike_id":"0ed6293e-03ae-409b-ac82-a67f1a22c325","system_id":"levelo_inurba_marseille","lat":43.30526,"lon":5.36718,"is_reserved":false,"is_disabled":false,"rental_uris":{"android":"levelo://app?vid=0ed6293e-03ae-409b-ac82-a67f1a22c325","ios":"levelo://app?vid=0ed6293e-03ae-409b-ac82-a67f1a22c325"},"vehicle_type_id":"4","last_reported":1741388833,"current_range_meters":12800,"station_id":"ce4bgrp2rcd13ifvqc9g","pricing_plan_id":"cebpf4jnsgd1na2vs0mg"},{"bike_id":"b533f38f-df9a-4e01-86fb-08f4b9bfcdfb","system_id":"levelo_inurba_marseille","lat":43.26226,"lon":5.42123,"is_reserved":false,"is_disabled":false,"rental_uris":{"android":"levelo://app?vid=b533f38f-df9a-4e01-86fb-08f4b9bfcdfb","ios":"levelo://app?vid=b533f38f-df9a-4e01-86fb-08f4b9bfcdfb"},"vehicle_type_id":"4","last_reported":1741388833,"current_range_meters":12800,"station_id":"","pricing_plan_id":"cebpf4jnsgd1na2vs0mg"},{"bike_id":"1fa7f2ee-9d06-4eb8-aadd-d8a021f126ce","system_id":"levelo_inurba_marseille","lat":43.25117,"lon":5.40324,"is_reserved":false,"is_disabled":false,"rental_uris":{"android":"levelo://app?vid=1fa7f2ee-9d06-4eb8-aadd-d8a021f126ce","ios":"levelo://app?vid=1fa7f2ee-9d06-4eb8-aadd-d8a021f126ce"},"vehicle_type_id":"4","last_reported":1741388833,"current_range_meters":12800,"station_id":"ce4bhlh2rcd13ifvqgig","pricing_plan_id":"cebpf4jnsgd1na2vs0mg"},{"bike_id":"f479a6d1-3cb4-4f96-b97e-51428b8374e3","system_id":"levelo_inurba_marseille","lat":43.28451,"lon":5.35898,"is_reserved":false,"is_disabled":false,"rental_uris":{"android":"levelo://app?vid=f479a6d1-3cb4-4f96-b97e-51428b8374e3","ios":"levelo://app?vid=f479a6d1-3cb4-4f96-b97e-51428b8374e3"},"vehicle_type_id":"4","last_reported":1741388833,"current_range_meters":12800,"station_id":"ce4bhah2rcd13ifvqei0","pricing_plan_id":"cebpf4jnsgd1na2vs0mg"},{"bike_id":"5832083a-af6c-455b-9dbd-d8b68bd79a1e","system_id":"levelo_inurba_marseille","lat":43.299,"lon":5.43654,"is_reserved":false,"is_disabled":false,"rental_uris":{"android":"levelo://app?vid=5832083a-af6c-455b-9dbd-d8b68bd79a1e","ios":"levelo://app?vid=5832083a-af6c-455b-9dbd-d8b68bd79a1e"},"vehicle_type_id":"4","last_reported":1741388833,"current_range_meters":13600,"station_id":"ce4bhpp2rcd13ifvqhfg","pricing_plan_id":"cebpf4jnsgd1na2vs0mg"},{"bike_id":"afd3745f-2980-403a-a6ef-0c035551bdb9","system_id":"levelo_inurba_marseille","lat":43.32829,"lon":5.38772,"is_reserved":false,"is_disabled":false,"rental_uris":{"android":"levelo://app?vid=afd3745f-2980-403a-a6ef-0c035551bdb9","ios":"levelo://app?vid=afd3745f-2980-403a-a6ef-0c035551bdb9"},"vehicle_type_id":"4","last_reported":1741388833,"current_range_meters":13600,"station_id":"","pricing_plan_id":"cebpf4jnsgd1na2vs0mg"},{"bike_id":"a9510a61-a339-4bf2-98f6-85ca0981c2d2","system_id":"levelo_inurba_marseille","lat":43.26192,"lon":5.37448,"is_reserved":false,"is_disabled":false,"rental_uris":{"android":"levelo://app?vid=a9510a61-a339-4bf2-98f6-85ca0981c2d2","ios":"levelo://app?vid=a9510a61-a339-4bf2-98f6-85ca0981c2d2"},"vehicle_type_id":"4","last_reported":1741388833,"current_range_meters":13600,"station_id":"ce4bhgp2rcd13ifvqfc0","pricing_plan_id":"cebpf4jnsgd1na2vs0mg"},{"bike_id":"84bbcc0f-719e-4fb2-b78f-55773a1e402e","system_id":"levelo_inurba_marseille","lat":43.28068,"lon":5.39664,"is_reserved":false,"is_disabled":true,"rental_uris":{"android":"levelo://app?vid=84bbcc0f-719e-4fb2-b78f-55773a1e402e","ios":"levelo://app?vid=84bbcc0f-719e-4fb2-b78f-55773a1e402e"},"vehicle_type_id":"4","last_reported":1741388833,"current_range_meters":13600,"station_id":"ce4bho12rcd13ifvqh2g","pricing_plan_id":"cebpf4jnsgd1na2vs0mg"},{"bike_id":"4ce1148f-94dc-4742-8f6c-b798d2b0023b","system_id":"levelo_inurba_marseille","lat":43.27994,"lon":5.41656,"is_reserved":false,"is_disabled":false,"rental_uris":{"android":"levelo://app?vid=4ce1148f-94dc-4742-8f6c-b798d2b0023b","ios":"levelo://app?vid=4ce1148f-94dc-4742-8f6c-b798d2b0023b"},"vehicle_type_id":"4","last_reported":1741388833,"current_range_meters":13600,"station_id":"ce4bho12rcd13ifvqh1g","pricing_plan_id":"cebpf4jnsgd1na2vs0mg"},{"bike_id":"9b9912a1-cda6-4b6e-8236-6c79e235b387","system_id":"levelo_inurba_marseille","lat":43.32389,"lon":5.3888,"is_reserved":false,"is_disabled":false,"rental_uris":{"android":"levelo://app?vid=9b9912a1-cda6-4b6e-8236-6c79e235b387","ios":"levelo://app?vid=9b9912a1-cda6-4b6e-8236-6c79e235b387"},"vehicle_type_id":"4","last_reported":1741388833,"current_range_meters":14000,"station_id":"ce4bhqp2rcd13ifvqhog","pricing_plan_id":"cebpf4jnsgd1na2vs0mg"},{"bike_id":"7a8959cf-cba4-472b-a67f-21d9d3e5e3a1","system_id":"levelo_inurba_marseille","lat":43.24392,"lon":5.43816,"is_reserved":false,"is_disabled":false,"rental_uris":{"android":"levelo://app?vid=7a8959cf-cba4-472b-a67f-21d9d3e5e3a1","ios":"levelo://app?vid=7a8959cf-cba4-472b-a67f-21d9d3e5e3a1"},"vehicle_type_id":"4","last_reported":1741388833,"current_range_meters":14000,"station_id":"","pricing_plan_id":"cebpf4jnsgd1na2vs0mg"},{"bike_id":"1f6756a0-25fe-4891-8acd-d202dbe7a284","system_id":"levelo_inurba_marseille","lat":43.29553,"lon":5.39586,"is_reserved":false,"is_disabled":false,"rental_uris":{"android":"levelo://app?vid=1f6756a0-25fe-4891-8acd-d202dbe7a284","ios":"levelo://app?vid=1f6756a0-25fe-4891-8acd-d202dbe7a284"},"vehicle_type_id":"4","last_reported":1741388833,"current_range_meters":14000,"station_id":"ce4bh0h2rcd13ifvqd40","pricing_plan_id":"cebpf4jnsgd1na2vs0mg"},{"bike_id":"d15888b3-84cd-42f5-8973-07174fa936f9","system_id":"levelo_inurba_marseille","lat":43.31473,"lon":5.37368,"is_reserved":false,"is_disabled":false,"rental_uris":{"android":"levelo://app?vid=d15888b3-84cd-42f5-8973-07174fa936f9","ios":"levelo://app?vid=d15888b3-84cd-42f5-8973-07174fa936f9"},"vehicle_type_id":"4","last_reported":1741388833,"current_range_meters":14000,"station_id":"ce4bgt12rcd13ifvqcd0","pricing_plan_id":"cebpf4jnsgd1na2vs0mg"},{"bike_id":"dd5f41e5-c8cf-4f84-b980-82750aa719f5","system_id":"levelo_inurba_marseille","lat":43.30884,"lon":5.39644,"is_reserved":false,"is_disabled":false,"rental_uris":{"android":"levelo://app?vid=dd5f41e5-c8cf-4f84-b980-82750aa719f5","ios":"levelo://app?vid=dd5f41e5-c8cf-4f84-b980-82750aa719f5"},"vehicle_type_id":"4","last_reported":1741388833,"current_range_meters":14000,"station_id":"ce4bh012rcd13ifvqcv0","pricing_plan_id":"cebpf4jnsgd1na2vs0mg"},{"bike_id":"d5fb4e53-8af0-4098-8459-23b82f32d085","system_id":"levelo_inurba_marseille","lat":43.28665,"lon":5.38667,"is_reserved":false,"is_disabled":false,"rental_uris":{"android":"levelo://app?vid=d5fb4e53-8af0-4098-8459-23b82f32d085","ios":"levelo://app?vid=d5fb4e53-8af0-4098-8459-23b82f32d085"},"vehicle_type_id":"4","last_reported":1741388833,"current_range_meters":14000,"station_id":"ce4bh492rcd13ifvqdug","pricing_plan_id":"cebpf4jnsgd1na2vs0mg"},{"bike_id":"b2c2514d-58df-4080-9acc-0a3325c87525","system_id":"levelo_inurba_marseille","lat":43.323664,"lon":5.367605,"is_reserved":false,"is_disabled":false,"rental_uris":{"android":"levelo://app?vid=b2c2514d-58df-4080-9acc-0a3325c87525","ios":"levelo://app?vid=b2c2514d-58df-4080-9acc-0a3325c87525"},"vehicle_type_id":"4","last_reported":1741388833,"current_range_meters":14400,"station_id":"ce4bhsh2rcd13ifvqi2g","pricing_plan_id":"cebpf4jnsgd1na2vs0mg"},{"bike_id":"44c0f9a1-99ba-41cb-8f36-0e033c5e16cc","system_id":"levelo_inurba_marseille","lat":43.26168,"lon":5.37424,"is_reserved":false,"is_disabled":false,"rental_uris":{"android":"levelo://app?vid=44c0f9a1-99ba-41cb-8f36-0e033c5e16cc","ios":"levelo://app?vid=44c0f9a1-99ba-41cb-8f36-0e033c5e16cc"},"vehicle_type_id":"4","last_reported":1741388833,"current_range_meters":14400,"station_id":"ce4bhgp2rcd13ifvqfc0","pricing_plan_id":"cebpf4jnsgd1na2vs0mg"},{"bike_id":"d1af1c64-45b6-4d17-9d6d-0f29e2231eaa","system_id":"levelo_inurba_marseille","lat":43.23965,"lon":5.36625,"is_reserved":false,"is_disabled":false,"rental_uris":{"android":"levelo://app?vid=d1af1c64-45b6-4d17-9d6d-0f29e2231eaa","ios":"levelo://app?vid=d1af1c64-45b6-4d17-9d6d-0f29e2231eaa"},"vehicle_type_id":"4","last_reported":1741388833,"current_range_meters":14800,"station_id":"ce4bhi12rcd13ifvqfp0","pricing_plan_id":"cebpf4jnsgd1na2vs0mg"},{"bike_id":"8e43052e-86ee-431c-a3c5-7b2cafc0c661","system_id":"levelo_inurba_marseille","lat":43.27285,"lon":5.3913,"is_reserved":false,"is_disabled":true,"rental_uris":{"android":"levelo://app?vid=8e43052e-86ee-431c-a3c5-7b2cafc0c661","ios":"levelo://app?vid=8e43052e-86ee-431c-a3c5-7b2cafc0c661"},"vehicle_type_id":"4","last_reported":1741388833,"current_range_meters":14800,"station_id":"ce4bhgp2rcd13ifvqfe0","pricing_plan_id":"cebpf4jnsgd1na2vs0mg"},{"bike_id":"b42b532d-b2d9-4fda-b4d9-35dfd8fb1694","system_id":"levelo_inurba_marseille","lat":43.26566,"lon":5.39008,"is_reserved":false,"is_disabled":false,"rental_uris":{"android":"levelo://app?vid=b42b532d-b2d9-4fda-b4d9-35dfd8fb1694","ios":"levelo://app?vid=b42b532d-b2d9-4fda-b4d9-35dfd8fb1694"},"vehicle_type_id":"4","last_reported":1741388833,"current_range_meters":14800,"station_id":"ce4bhe12rcd13ifvqf30","pricing_plan_id":"cebpf4jnsgd1na2vs0mg"},{"bike_id":"1ff664cb-f378-4a6c-b3c1-b47ee25a2174","system_id":"levelo_inurba_marseille","lat":43.32367,"lon":5.38878,"is_reserved":false,"is_disabled":false,"rental_uris":{"android":"levelo://app?vid=1ff664cb-f378-4a6c-b3c1-b47ee25a2174","ios":"levelo://app?vid=1ff664cb-f378-4a6c-b3c1-b47ee25a2174"},"vehicle_type_id":"4","last_reported":1741388833,"current_range_meters":14800,"station_id":"ce4bhqp2rcd13ifvqhog","pricing_plan_id":"cebpf4jnsgd1na2vs0mg"},{"bike_id":"3b527087-0e58-4397-a11f-323037dd6298","system_id":"levelo_inurba_marseille","lat":43.301361,"lon":5.387831,"is_reserved":false,"is_disabled":false,"rental_uris":{"android":"levelo://app?vid=3b527087-0e58-4397-a11f-323037dd6298","ios":"levelo://app?vid=3b527087-0e58-4397-a11f-323037dd6298"},"vehicle_type_id":"4","last_reported":1741388833,"current_range_meters":14800,"station_id":"ce4bhsp2rcd13ifvqi50","pricing_plan_id":"cebpf4jnsgd1na2vs0mg"},{"bike_id":"55cd27a4-a7fe-4bab-bd28-16018afbae66","system_id":"levelo_inurba_marseille","lat":43.30589,"lon":5.3935,"is_reserved":false,"is_disabled":false,"rental_uris":{"android":"levelo://app?vid=55cd27a4-a7fe-4bab-bd28-16018afbae66","ios":"levelo://app?vid=55cd27a4-a7fe-4bab-bd28-16018afbae66"},"vehicle_type_id":"4","last_reported":1741388833,"current_range_meters":14800,"station_id":"ce4bh0p2rcd13ifvqd80","pricing_plan_id":"cebpf4jnsgd1na2vs0mg"},{"bike_id":"f76c7c48-d13a-435b-8cb8-5b58804e04d0","system_id":"levelo_inurba_marseille","lat":43.29198,"lon":5.3933,"is_reserved":false,"is_disabled":false,"rental_uris":{"android":"levelo://app?vid=f76c7c48-d13a-435b-8cb8-5b58804e04d0","ios":"levelo://app?vid=f76c7c48-d13a-435b-8cb8-5b58804e04d0"},"vehicle_type_id":"4","last_reported":1741388833,"current_range_meters":14800,"station_id":"ce4bh192rcd13ifvqdd0","pricing_plan_id":"cebpf4jnsgd1na2vs0mg"},{"bike_id":"c3821921-6f0e-4522-ac7a-982a8ffe12d7","system_id":"levelo_inurba_marseille","lat":43.28827,"lon":5.35866,"is_reserved":false,"is_disabled":false,"rental_uris":{"android":"levelo://app?vid=c3821921-6f0e-4522-ac7a-982a8ffe12d7","ios":"levelo://app?vid=c3821921-6f0e-4522-ac7a-982a8ffe12d7"},"vehicle_type_id":"4","last_reported":1741388833,"current_range_meters":14800,"station_id":"ce4bhb12rcd13ifvqem0","pricing_plan_id":"cebpf4jnsgd1na2vs0mg"},{"bike_id":"97d95439-94cf-421a-af98-a49a3db92d1a","system_id":"levelo_inurba_marseille","lat":43.24754,"lon":5.41845,"is_reserved":false,"is_disabled":false,"rental_uris":{"android":"levelo://app?vid=97d95439-94cf-421a-af98-a49a3db92d1a","ios":"levelo://app?vid=97d95439-94cf-421a-af98-a49a3db92d1a"},"vehicle_type_id":"4","last_reported":1741388833,"current_range_meters":15200,"station_id":"","pricing_plan_id":"cebpf4jnsgd1na2vs0mg"},{"bike_id":"9ebf7432-af29-4e25-8cf3-9b526635f572","system_id":"levelo_inurba_marseille","lat":43.2695,"lon":5.3863,"is_reserved":false,"is_disabled":false,"rental_uris":{"android":"levelo://app?vid=9ebf7432-af29-4e25-8cf3-9b526635f572","ios":"levelo://app?vid=9ebf7432-af29-4e25-8cf3-9b526635f572"},"vehicle_type_id":"4","last_reported":1741388833,"current_range_meters":15200,"station_id":"ce4bhh92rcd13ifvqfh0","pricing_plan_id":"cebpf4jnsgd1na2vs0mg"},{"bike_id":"8b722601-abad-44fa-88e3-ce51624ce56d","system_id":"levelo_inurba_marseille","lat":43.31117,"lon":5.37763,"is_reserved":false,"is_disabled":false,"rental_uris":{"android":"levelo://app?vid=8b722601-abad-44fa-88e3-ce51624ce56d","ios":"levelo://app?vid=8b722601-abad-44fa-88e3-ce51624ce56d"},"vehicle_type_id":"4","last_reported":1741388833,"current_range_meters":15200,"station_id":"ce4bgt92rcd13ifvqcg0","pricing_plan_id":"cebpf4jnsgd1na2vs0mg"},{"bike_id":"388ea826-f5fa-4632-a530-45d13cc0a769","system_id":"levelo_inurba_marseille","lat":43.23196,"lon":5.39989,"is_reserved":false,"is_disabled":false,"rental_uris":{"android":"levelo://app?vid=388ea826-f5fa-4632-a530-45d13cc0a769","ios":"levelo://app?vid=388ea826-f5fa-4632-a530-45d13cc0a769"},"vehicle_type_id":"4","last_reported":1741388833,"current_range_meters":15200,"station_id":"ce4bhn12rcd13ifvqgqg","pricing_plan_id":"cebpf4jnsgd1na2vs0mg"},{"bike_id":"cad50f92-ade3-4d44-854f-ce870686a5ae","system_id":"levelo_inurba_marseille","lat":43.32651,"lon":5.40988,"is_reserved":false,"is_disabled":false,"rental_uris":{"android":"levelo://app?vid=cad50f92-ade3-4d44-854f-ce870686a5ae","ios":"levelo://app?vid=cad50f92-ade3-4d44-854f-ce870686a5ae"},"vehicle_type_id":"4","last_reported":1741388833,"current_range_meters":15200,"station_id":"ce4bhpp2rcd13ifvqhgg","pricing_plan_id":"cebpf4jnsgd1na2vs0mg"},{"bike_id":"c4440271-3fcf-4ba1-a76e-05e2a3eefe6d","system_id":"levelo_inurba_marseille","lat":43.29921,"lon":5.38138,"is_reserved":false,"is_disabled":true,"rental_uris":{"android":"levelo://app?vid=c4440271-3fcf-4ba1-a76e-05e2a3eefe6d","ios":"levelo://app?vid=c4440271-3fcf-4ba1-a76e-05e2a3eefe6d"},"vehicle_type_id":"4","last_reported":1741388833,"current_range_meters":15200,"station_id":"ce4bgj12rcd13ifvqbc0","pricing_plan_id":"cebpf4jnsgd1na2vs0mg"},{"bike_id":"65d2271a-97b5-4913-95aa-cf77a293f0eb","system_id":"levelo_inurba_marseille","lat":43.26088,"lon":5.37545,"is_reserved":false,"is_disabled":false,"rental_uris":{"android":"levelo://app?vid=65d2271a-97b5-4913-95aa-cf77a293f0eb","ios":"levelo://app?vid=65d2271a-97b5-4913-95aa-cf77a293f0eb"},"vehicle_type_id":"4","last_reported":1741388833,"current_range_meters":15200,"station_id":"","pricing_plan_id":"cebpf4jnsgd1na2vs0mg"},{"bike_id":"cf9c8e12-2155-41a7-81b3-8937b5fe01f3","system_id":"levelo_inurba_marseille","lat":43.32105,"lon":5.36765,"is_reserved":false,"is_disabled":false,"rental_uris":{"android":"levelo://app?vid=cf9c8e12-2155-41a7-81b3-8937b5fe01f3","ios":"levelo://app?vid=cf9c8e12-2155-41a7-81b3-8937b5fe01f3"},"vehicle_type_id":"4","last_reported":1741388833,"current_range_meters":15200,"station_id":"ce4bhrh2rcd13ifvqhug","pricing_plan_id":"cebpf4jnsgd1na2vs0mg"},{"bike_id":"27911139-6f90-4352-b932-121c7ef8e452","system_id":"levelo_inurba_marseille","lat":43.30635,"lon":5.40096,"is_reserved":false,"is_disabled":false,"rental_uris":{"android":"levelo://app?vid=27911139-6f90-4352-b932-121c7ef8e452","ios":"levelo://app?vid=27911139-6f90-4352-b932-121c7ef8e452"},"vehicle_type_id":"4","last_reported":1741388833,"current_range_meters":16000,"station_id":"ce4bh112rcd13ifvqda0","pricing_plan_id":"cebpf4jnsgd1na2vs0mg"},{"bike_id":"cbc52a4d-b1a3-4bdf-8ed7-d851e16ba8f2","system_id":"levelo_inurba_marseille","lat":43.27637,"lon":5.38941,"is_reserved":false,"is_disabled":true,"rental_uris":{"android":"levelo://app?vid=cbc52a4d-b1a3-4bdf-8ed7-d851e16ba8f2","ios":"levelo://app?vid=cbc52a4d-b1a3-4bdf-8ed7-d851e16ba8f2"},"vehicle_type_id":"4","last_reported":1741388833,"current_range_meters":16000,"station_id":"","pricing_plan_id":"cebpf4jnsgd1na2vs0mg"},{"bike_id":"fbf804d7-6c73-46e9-abdb-acb74deb6dc4","system_id":"levelo_inurba_marseille","lat":43.23061,"lon":5.35507,"is_reserved":false,"is_disabled":false,"rental_uris":{"android":"levelo://app?vid=fbf804d7-6c73-46e9-abdb-acb74deb6dc4","ios":"levelo://app?vid=fbf804d7-6c73-46e9-abdb-acb74deb6dc4"},"vehicle_type_id":"4","last_reported":1741388833,"current_range_meters":16000,"station_id":"cpo3342slgdg3j2ifvpg","pricing_plan_id":"cebpf4jnsgd1na2vs0mg"},{"bike_id":"ca1ac6f9-8304-441d-b17f-201bcc008dae","system_id":"levelo_inurba_marseille","lat":43.34368,"lon":5.39931,"is_reserved":false,"is_disabled":false,"rental_uris":{"android":"levelo://app?vid=ca1ac6f9-8304-441d-b17f-201bcc008dae","ios":"levelo://app?vid=ca1ac6f9-8304-441d-b17f-201bcc008dae"},"vehicle_type_id":"4","last_reported":1741388833,"current_range_meters":16000,"station_id":"","pricing_plan_id":"cebpf4jnsgd1na2vs0mg"},{"bike_id":"cdc6fa71-b8c0-46e7-902c-4e18b52385d2","system_id":"levelo_inurba_marseille","lat":43.28845,"lon":5.4001,"is_reserved":false,"is_disabled":false,"rental_uris":{"android":"levelo://app?vid=cdc6fa71-b8c0-46e7-902c-4e18b52385d2","ios":"levelo://app?vid=cdc6fa71-b8c0-46e7-902c-4e18b52385d2"},"vehicle_type_id":"4","last_reported":1741388833,"current_range_meters":16000,"station_id":"","pricing_plan_id":"cebpf4jnsgd1na2vs0mg"},{"bike_id":"eb71b34d-9ea7-42f5-9c09-d0728a72baed","system_id":"levelo_inurba_marseille","lat":43.30877,"lon":5.39645,"is_reserved":false,"is_disabled":false,"rental_uris":{"android":"levelo://app?vid=eb71b34d-9ea7-42f5-9c09-d0728a72baed","ios":"levelo://app?vid=eb71b34d-9ea7-42f5-9c09-d0728a72baed"},"vehicle_type_id":"4","last_reported":1741388833,"current_range_meters":16000,"station_id":"ce4bh012rcd13ifvqcv0","pricing_plan_id":"cebpf4jnsgd1na2vs0mg"},{"bike_id":"8c78920a-759b-468a-a304-5199fc949111","system_id":"levelo_inurba_marseille","lat":43.27668,"lon":5.38873,"is_reserved":false,"is_disabled":false,"rental_uris":{"android":"levelo://app?vid=8c78920a-759b-468a-a304-5199fc949111","ios":"levelo://app?vid=8c78920a-759b-468a-a304-5199fc949111"},"vehicle_type_id":"4","last_reported":1741388833,"current_range_meters":16000,"station_id":"ce4bhi12rcd13ifvqfo0","pricing_plan_id":"cebpf4jnsgd1na2vs0mg"},{"bike_id":"c1c412b3-ae23-45ab-894a-fe5b494cc9e6","system_id":"levelo_inurba_marseille","lat":43.23195,"lon":5.3556,"is_reserved":false,"is_disabled":false,"rental_uris":{"android":"levelo://app?vid=c1c412b3-ae23-45ab-894a-fe5b494cc9e6","ios":"levelo://app?vid=c1c412b3-ae23-45ab-894a-fe5b494cc9e6"},"vehicle_type_id":"4","last_reported":1741388833,"current_range_meters":16000,"station_id":"ce4bhu92rcd13ifvqi70","pricing_plan_id":"cebpf4jnsgd1na2vs0mg"},{"bike_id":"21a97c5e-42a1-42dc-8f0b-c09a56ace1b8","system_id":"levelo_inurba_marseille","lat":43.30372,"lon":5.42477,"is_reserved":false,"is_disabled":true,"rental_uris":{"android":"levelo://app?vid=21a97c5e-42a1-42dc-8f0b-c09a56ace1b8","ios":"levelo://app?vid=21a97c5e-42a1-42dc-8f0b-c09a56ace1b8"},"vehicle_type_id":"4","last_reported":1741388833,"current_range_meters":16000,"station_id":"","pricing_plan_id":"cebpf4jnsgd1na2vs0mg"},{"bike_id":"12924bac-9196-477c-887f-46f4674af4fe","system_id":"levelo_inurba_marseille","lat":43.29966,"lon":5.37184,"is_reserved":false,"is_disabled":false,"rental_uris":{"android":"levelo://app?vid=12924bac-9196-477c-887f-46f4674af4fe","ios":"levelo://app?vid=12924bac-9196-477c-887f-46f4674af4fe"},"vehicle_type_id":"4","last_reported":1741388833,"current_range_meters":16000,"station_id":"ce4bgr92rcd13ifvqc7g","pricing_plan_id":"cebpf4jnsgd1na2vs0mg"},{"bike_id":"b7cc588a-a217-48f3-9e50-40033e8ce22d","system_id":"levelo_inurba_marseille","lat":43.2738,"lon":5.3625,"is_reserved":false,"is_disabled":false,"rental_uris":{"android":"levelo://app?vid=b7cc588a-a217-48f3-9e50-40033e8ce22d","ios":"levelo://app?vid=b7cc588a-a217-48f3-9e50-40033e8ce22d"},"vehicle_type_id":"4","last_reported":1741388833,"current_range_meters":16000,"station_id":"ce4bhbh2rcd13ifvqeo0","pricing_plan_id":"cebpf4jnsgd1na2vs0mg"},{"bike_id":"79e4545e-ac8f-4b28-8731-f29f67427a82","system_id":"levelo_inurba_marseille","lat":43.31371,"lon":5.38484,"is_reserved":false,"is_disabled":false,"rental_uris":{"android":"levelo://app?vid=79e4545e-ac8f-4b28-8731-f29f67427a82","ios":"levelo://app?vid=79e4545e-ac8f-4b28-8731-f29f67427a82"},"vehicle_type_id":"4","last_reported":1741388833,"current_range_meters":16400,"station_id":"ce4bgt92rcd13ifvqcf0","pricing_plan_id":"cebpf4jnsgd1na2vs0mg"},{"bike_id":"bfbfb8b2-951b-41e3-9abb-8ec2115a8df8","system_id":"levelo_inurba_marseille","lat":43.284637,"lon":5.358861,"is_reserved":false,"is_disabled":false,"rental_uris":{"android":"levelo://app?vid=bfbfb8b2-951b-41e3-9abb-8ec2115a8df8","ios":"levelo://app?vid=bfbfb8b2-951b-41e3-9abb-8ec2115a8df8"},"vehicle_type_id":"4","last_reported":1741388833,"current_range_meters":16400,"station_id":"ce4bhah2rcd13ifvqei0","pricing_plan_id":"cebpf4jnsgd1na2vs0mg"},{"bike_id":"7e0bf986-f5dc-479b-955f-56c0449f9098","system_id":"levelo_inurba_marseille","lat":43.31357,"lon":5.38489,"is_reserved":false,"is_disabled":false,"rental_uris":{"android":"levelo://app?vid=7e0bf986-f5dc-479b-955f-56c0449f9098","ios":"levelo://app?vid=7e0bf986-f5dc-479b-955f-56c0449f9098"},"vehicle_type_id":"4","last_reported":1741388833,"current_range_meters":16400,"station_id":"ce4bgt92rcd13ifvqcf0","pricing_plan_id":"cebpf4jnsgd1na2vs0mg"},{"bike_id":"0da4b025-c2c9-4c92-8128-932f98eb7ed9","system_id":"levelo_inurba_marseille","lat":43.3236,"lon":5.38882,"is_reserved":false,"is_disabled":false,"rental_uris":{"android":"levelo://app?vid=0da4b025-c2c9-4c92-8128-932f98eb7ed9","ios":"levelo://app?vid=0da4b025-c2c9-4c92-8128-932f98eb7ed9"},"vehicle_type_id":"4","last_reported":1741388833,"current_range_meters":16400,"station_id":"ce4bhqp2rcd13ifvqhog","pricing_plan_id":"cebpf4jnsgd1na2vs0mg"},{"bike_id":"b63fd082-5781-49bc-8066-49a9528e01ba","system_id":"levelo_inurba_marseille","lat":43.26505,"lon":5.39546,"is_reserved":false,"is_disabled":false,"rental_uris":{"android":"levelo://app?vid=b63fd082-5781-49bc-8066-49a9528e01ba","ios":"levelo://app?vid=b63fd082-5781-49bc-8066-49a9528e01ba"},"vehicle_type_id":"4","last_reported":1741388833,"current_range_meters":16000,"station_id":"ce4bhi12rcd13ifvqfq0","pricing_plan_id":"cebpf4jnsgd1na2vs0mg"},{"bike_id":"7470f053-99e0-4222-a436-e5ac7880f722","system_id":"levelo_inurba_marseille","lat":43.22927,"lon":5.35382,"is_reserved":false,"is_disabled":false,"rental_uris":{"android":"levelo://app?vid=7470f053-99e0-4222-a436-e5ac7880f722","ios":"levelo://app?vid=7470f053-99e0-4222-a436-e5ac7880f722"},"vehicle_type_id":"4","last_reported":1741388833,"current_range_meters":16400,"station_id":"cpo3532slgdg3j2ikp40","pricing_plan_id":"cebpf4jnsgd1na2vs0mg"},{"bike_id":"95936caa-1f4e-46e1-af83-370d03622e59","system_id":"levelo_inurba_marseille","lat":43.300981,"lon":5.390904,"is_reserved":false,"is_disabled":true,"rental_uris":{"android":"levelo://app?vid=95936caa-1f4e-46e1-af83-370d03622e59","ios":"levelo://app?vid=95936caa-1f4e-46e1-af83-370d03622e59"},"vehicle_type_id":"4","last_reported":1741388833,"current_range_meters":16400,"station_id":"ce4bh192rcd13ifvqdb0","pricing_plan_id":"cebpf4jnsgd1na2vs0mg"},{"bike_id":"df69c338-b92e-4297-b9a4-bb341a84f992","system_id":"levelo_inurba_marseille","lat":43.30599,"lon":5.39361,"is_reserved":false,"is_disabled":false,"rental_uris":{"android":"levelo://app?vid=df69c338-b92e-4297-b9a4-bb341a84f992","ios":"levelo://app?vid=df69c338-b92e-4297-b9a4-bb341a84f992"},"vehicle_type_id":"4","last_reported":1741388833,"current_range_meters":9600,"station_id":"ce4bh0p2rcd13ifvqd80","pricing_plan_id":"cebpf4jnsgd1na2vs0mg"},{"bike_id":"a586c568-d7a2-4438-be9e-8f3fd7fb07dd","system_id":"levelo_inurba_marseille","lat":43.29686,"lon":5.373,"is_reserved":false,"is_disabled":false,"rental_uris":{"android":"levelo://app?vid=a586c568-d7a2-4438-be9e-8f3fd7fb07dd","ios":"levelo://app?vid=a586c568-d7a2-4438-be9e-8f3fd7fb07dd"},"vehicle_type_id":"4","last_reported":1741388833,"current_range_meters":16800,"station_id":"ce4bgk12rcd13ifvqbj0","pricing_plan_id":"cebpf4jnsgd1na2vs0mg"},{"bike_id":"ca1ba0b8-b8b8-4138-9a53-150b46de62cf","system_id":"levelo_inurba_marseille","lat":43.29309,"lon":5.37144,"is_reserved":false,"is_disabled":false,"rental_uris":{"android":"levelo://app?vid=ca1ba0b8-b8b8-4138-9a53-150b46de62cf","ios":"levelo://app?vid=ca1ba0b8-b8b8-4138-9a53-150b46de62cf"},"vehicle_type_id":"4","last_reported":1741388833,"current_range_meters":16800,"station_id":"ce4bgh92rcd13ifvqb40","pricing_plan_id":"cebpf4jnsgd1na2vs0mg"},{"bike_id":"cb0c6d6e-4b9d-4f67-ac5f-0e223206ff35","system_id":"levelo_inurba_marseille","lat":43.30292,"lon":5.39211,"is_reserved":false,"is_disabled":false,"rental_uris":{"android":"levelo://app?vid=cb0c6d6e-4b9d-4f67-ac5f-0e223206ff35","ios":"levelo://app?vid=cb0c6d6e-4b9d-4f67-ac5f-0e223206ff35"},"vehicle_type_id":"4","last_reported":1741388833,"current_range_meters":16800,"station_id":"ce4bgkh2rcd13ifvqbk0","pricing_plan_id":"cebpf4jnsgd1na2vs0mg"},{"bike_id":"1b8cc84a-28ec-4cc7-9d85-8844eddb6543","system_id":"levelo_inurba_marseille","lat":43.3059,"lon":5.37241,"is_reserved":false,"is_disabled":false,"rental_uris":{"android":"levelo://app?vid=1b8cc84a-28ec-4cc7-9d85-8844eddb6543","ios":"levelo://app?vid=1b8cc84a-28ec-4cc7-9d85-8844eddb6543"},"vehicle_type_id":"4","last_reported":1741388833,"current_range_meters":16800,"station_id":"ce4bgqh2rcd13ifvqc4g","pricing_plan_id":"cebpf4jnsgd1na2vs0mg"},{"bike_id":"edf49f95-2fe0-427e-ad7d-691dea536ce3","system_id":"levelo_inurba_marseille","lat":43.29571,"lon":5.39973,"is_reserved":false,"is_disabled":false,"rental_uris":{"android":"levelo://app?vid=edf49f95-2fe0-427e-ad7d-691dea536ce3","ios":"levelo://app?vid=edf49f95-2fe0-427e-ad7d-691dea536ce3"},"vehicle_type_id":"4","last_reported":1741388833,"current_range_meters":16400,"station_id":"ce4bh312rcd13ifvqdj0","pricing_plan_id":"cebpf4jnsgd1na2vs0mg"},{"bike_id":"c8bf9a63-b2da-4188-9af5-e094b95f1697","system_id":"levelo_inurba_marseille","lat":43.2649,"lon":5.39549,"is_reserved":false,"is_disabled":false,"rental_uris":{"android":"levelo://app?vid=c8bf9a63-b2da-4188-9af5-e094b95f1697","ios":"levelo://app?vid=c8bf9a63-b2da-4188-9af5-e094b95f1697"},"vehicle_type_id":"4","last_reported":1741388833,"current_range_meters":17200,"station_id":"ce4bhi12rcd13ifvqfq0","pricing_plan_id":"cebpf4jnsgd1na2vs0mg"},{"bike_id":"1111d054-a4da-43e5-b1ef-b2b5866de597","system_id":"levelo_inurba_marseille","lat":43.24806,"lon":5.37455,"is_reserved":false,"is_disabled":false,"rental_uris":{"android":"levelo://app?vid=1111d054-a4da-43e5-b1ef-b2b5866de597","ios":"levelo://app?vid=1111d054-a4da-43e5-b1ef-b2b5866de597"},"vehicle_type_id":"4","last_reported":1741388833,"current_range_meters":16800,"station_id":"ce4bhgh2rcd13ifvqfb0","pricing_plan_id":"cebpf4jnsgd1na2vs0mg"},{"bike_id":"7010ed15-b1c0-4687-82e0-c5a65b3df130","system_id":"levelo_inurba_marseille","lat":43.27988,"lon":5.4166,"is_reserved":false,"is_disabled":false,"rental_uris":{"android":"levelo://app?vid=7010ed15-b1c0-4687-82e0-c5a65b3df130","ios":"levelo://app?vid=7010ed15-b1c0-4687-82e0-c5a65b3df130"},"vehicle_type_id":"4","last_reported":1741388833,"current_range_meters":16800,"station_id":"ce4bho12rcd13ifvqh1g","pricing_plan_id":"cebpf4jnsgd1na2vs0mg"},{"bike_id":"0a9bc1bd-e305-40d4-8852-5005300b12a0","system_id":"levelo_inurba_marseille","lat":43.229384,"lon":5.353891,"is_reserved":false,"is_disabled":false,"rental_uris":{"android":"levelo://app?vid=0a9bc1bd-e305-40d4-8852-5005300b12a0","ios":"levelo://app?vid=0a9bc1bd-e305-40d4-8852-5005300b12a0"},"vehicle_type_id":"4","last_reported":1741388833,"current_range_meters":17200,"station_id":"cpo3532slgdg3j2ikp40","pricing_plan_id":"cebpf4jnsgd1na2vs0mg"},{"bike_id":"77dcc18d-868f-4c0e-9fce-478571e43839","system_id":"levelo_inurba_marseille","lat":43.28708,"lon":5.39989,"is_reserved":false,"is_disabled":false,"rental_uris":{"android":"levelo://app?vid=77dcc18d-868f-4c0e-9fce-478571e43839","ios":"levelo://app?vid=77dcc18d-868f-4c0e-9fce-478571e43839"},"vehicle_type_id":"4","last_reported":1741388833,"current_range_meters":17200,"station_id":"ce4bho92rcd13ifvqh3g","pricing_plan_id":"cebpf4jnsgd1na2vs0mg"},{"bike_id":"50c27f90-c60b-414c-8977-a509fb566bc9","system_id":"levelo_inurba_marseille","lat":43.30796,"lon":5.38149,"is_reserved":false,"is_disabled":false,"rental_uris":{"android":"levelo://app?vid=50c27f90-c60b-414c-8977-a509fb566bc9","ios":"levelo://app?vid=50c27f90-c60b-414c-8977-a509fb566bc9"},"vehicle_type_id":"4","last_reported":1741388833,"current_range_meters":16800,"station_id":"ce4bgt12rcd13ifvqce0","pricing_plan_id":"cebpf4jnsgd1na2vs0mg"},{"bike_id":"19bbe8da-d7df-496e-a677-cbaab925cf5e","system_id":"levelo_inurba_marseille","lat":43.24877,"lon":5.42529,"is_reserved":false,"is_disabled":false,"rental_uris":{"android":"levelo://app?vid=19bbe8da-d7df-496e-a677-cbaab925cf5e","ios":"levelo://app?vid=19bbe8da-d7df-496e-a677-cbaab925cf5e"},"vehicle_type_id":"4","last_reported":1741388833,"current_range_meters":17200,"station_id":"","pricing_plan_id":"cebpf4jnsgd1na2vs0mg"},{"bike_id":"fde65d0e-62ed-4926-a6b0-2ca76c6d86e9","system_id":"levelo_inurba_marseille","lat":43.29238,"lon":5.38448,"is_reserved":false,"is_disabled":false,"rental_uris":{"android":"levelo://app?vid=fde65d0e-62ed-4926-a6b0-2ca76c6d86e9","ios":"levelo://app?vid=fde65d0e-62ed-4926-a6b0-2ca76c6d86e9"},"vehicle_type_id":"4","last_reported":1741388833,"current_range_meters":17200,"station_id":"ce4bh692rcd13ifvqea0","pricing_plan_id":"cebpf4jnsgd1na2vs0mg"},{"bike_id":"971882c7-adea-4510-b584-a476be330ce4","system_id":"levelo_inurba_marseille","lat":43.29601,"lon":5.38106,"is_reserved":false,"is_disabled":true,"rental_uris":{"android":"levelo://app?vid=971882c7-adea-4510-b584-a476be330ce4","ios":"levelo://app?vid=971882c7-adea-4510-b584-a476be330ce4"},"vehicle_type_id":"4","last_reported":1741388833,"current_range_meters":17200,"station_id":"ce4bgl12rcd13ifvqbo0","pricing_plan_id":"cebpf4jnsgd1na2vs0mg"},{"bike_id":"ba3cab05-da73-480c-a123-6382d1db2e48","system_id":"levelo_inurba_marseille","lat":43.30536,"lon":5.38443,"is_reserved":false,"is_disabled":false,"rental_uris":{"android":"levelo://app?vid=ba3cab05-da73-480c-a123-6382d1db2e48","ios":"levelo://app?vid=ba3cab05-da73-480c-a123-6382d1db2e48"},"vehicle_type_id":"4","last_reported":1741388833,"current_range_meters":17200,"station_id":"ce4bgg92rcd13ifvqb30","pricing_plan_id":"cebpf4jnsgd1na2vs0mg"},{"bike_id":"2211d061-0d0a-4661-a0f5-96586b08d475","system_id":"levelo_inurba_marseille","lat":43.292811,"lon":5.401209,"is_reserved":false,"is_disabled":false,"rental_uris":{"android":"levelo://app?vid=2211d061-0d0a-4661-a0f5-96586b08d475","ios":"levelo://app?vid=2211d061-0d0a-4661-a0f5-96586b08d475"},"vehicle_type_id":"4","last_reported":1741388833,"current_range_meters":17200,"station_id":"ce4bhh12rcd13ifvqfg0","pricing_plan_id":"cebpf4jnsgd1na2vs0mg"},{"bike_id":"4c6c13bc-579b-4844-8fef-b47317369df5","system_id":"levelo_inurba_marseille","lat":43.29414,"lon":5.38617,"is_reserved":false,"is_disabled":false,"rental_uris":{"android":"levelo://app?vid=4c6c13bc-579b-4844-8fef-b47317369df5","ios":"levelo://app?vid=4c6c13bc-579b-4844-8fef-b47317369df5"},"vehicle_type_id":"4","last_reported":1741388833,"current_range_meters":17600,"station_id":"ce4bh2h2rcd13ifvqdh0","pricing_plan_id":"cebpf4jnsgd1na2vs0mg"},{"bike_id":"6d9080d4-3d28-4f6c-8018-9e3dbb174041","system_id":"levelo_inurba_marseille","lat":43.29004,"lon":5.35613,"is_reserved":false,"is_disabled":false,"rental_uris":{"android":"levelo://app?vid=6d9080d4-3d28-4f6c-8018-9e3dbb174041","ios":"levelo://app?vid=6d9080d4-3d28-4f6c-8018-9e3dbb174041"},"vehicle_type_id":"4","last_reported":1741388833,"current_range_meters":17200,"station_id":"ce4bhb92rcd13ifvqen0","pricing_plan_id":"cebpf4jnsgd1na2vs0mg"},{"bike_id":"ca685a2b-6bca-42db-abec-29f3a0f1b358","system_id":"levelo_inurba_marseille","lat":43.306042,"lon":5.393506,"is_reserved":false,"is_disabled":false,"rental_uris":{"android":"levelo://app?vid=ca685a2b-6bca-42db-abec-29f3a0f1b358","ios":"levelo://app?vid=ca685a2b-6bca-42db-abec-29f3a0f1b358"},"vehicle_type_id":"4","last_reported":1741388833,"current_range_meters":17600,"station_id":"ce4bh0p2rcd13ifvqd80","pricing_plan_id":"cebpf4jnsgd1na2vs0mg"},{"bike_id":"0b6b8dd8-3450-4779-834c-499fd12aab96","system_id":"levelo_inurba_marseille","lat":43.27819,"lon":5.4072,"is_reserved":false,"is_disabled":false,"rental_uris":{"android":"levelo://app?vid=0b6b8dd8-3450-4779-834c-499fd12aab96","ios":"levelo://app?vid=0b6b8dd8-3450-4779-834c-499fd12aab96"},"vehicle_type_id":"4","last_reported":1741388833,"current_range_meters":17600,"station_id":"ce4bhnh2rcd13ifvqgtg","pricing_plan_id":"cebpf4jnsgd1na2vs0mg"},{"bike_id":"f5bc50e0-18ac-466f-a238-faccbb25bd95","system_id":"levelo_inurba_marseille","lat":43.30312,"lon":5.40446,"is_reserved":false,"is_disabled":false,"rental_uris":{"android":"levelo://app?vid=f5bc50e0-18ac-466f-a238-faccbb25bd95","ios":"levelo://app?vid=f5bc50e0-18ac-466f-a238-faccbb25bd95"},"vehicle_type_id":"4","last_reported":1741388833,"current_range_meters":17600,"station_id":"ce4bh012rcd13ifvqd10","pricing_plan_id":"cebpf4jnsgd1na2vs0mg"},{"bike_id":"fcdee4e4-775f-40a5-af36-ebe37031a563","system_id":"levelo_inurba_marseille","lat":43.27491,"lon":5.43517,"is_reserved":false,"is_disabled":false,"rental_uris":{"android":"levelo://app?vid=fcdee4e4-775f-40a5-af36-ebe37031a563","ios":"levelo://app?vid=fcdee4e4-775f-40a5-af36-ebe37031a563"},"vehicle_type_id":"4","last_reported":1741388833,"current_range_meters":17600,"station_id":"","pricing_plan_id":"cebpf4jnsgd1na2vs0mg"},{"bike_id":"0347d370-bcbc-4444-9e08-e99619b6baa3","system_id":"levelo_inurba_marseille","lat":43.29228,"lon":5.3844,"is_reserved":false,"is_disabled":false,"rental_uris":{"android":"levelo://app?vid=0347d370-bcbc-4444-9e08-e99619b6baa3","ios":"levelo://app?vid=0347d370-bcbc-4444-9e08-e99619b6baa3"},"vehicle_type_id":"4","last_reported":1741388833,"current_range_meters":18000,"station_id":"ce4bh692rcd13ifvqea0","pricing_plan_id":"cebpf4jnsgd1na2vs0mg"},{"bike_id":"e392d3fd-925c-43ce-bf40-51b5037fd1e5","system_id":"levelo_inurba_marseille","lat":43.32362,"lon":5.38883,"is_reserved":false,"is_disabled":false,"rental_uris":{"android":"levelo://app?vid=e392d3fd-925c-43ce-bf40-51b5037fd1e5","ios":"levelo://app?vid=e392d3fd-925c-43ce-bf40-51b5037fd1e5"},"vehicle_type_id":"4","last_reported":1741388833,"current_range_meters":18000,"station_id":"ce4bhqp2rcd13ifvqhog","pricing_plan_id":"cebpf4jnsgd1na2vs0mg"},{"bike_id":"cc1dad08-5ae7-441b-9724-a80fb596759d","system_id":"levelo_inurba_marseille","lat":43.2873,"lon":5.39958,"is_reserved":false,"is_disabled":false,"rental_uris":{"android":"levelo://app?vid=cc1dad08-5ae7-441b-9724-a80fb596759d","ios":"levelo://app?vid=cc1dad08-5ae7-441b-9724-a80fb596759d"},"vehicle_type_id":"4","last_reported":1741388833,"current_range_meters":18000,"station_id":"ce4bho92rcd13ifvqh3g","pricing_plan_id":"cebpf4jnsgd1na2vs0mg"},{"bike_id":"6817314f-e159-49df-b69d-8aeaad3a6651","system_id":"levelo_inurba_marseille","lat":43.29865,"lon":5.39724,"is_reserved":false,"is_disabled":false,"rental_uris":{"android":"levelo://app?vid=6817314f-e159-49df-b69d-8aeaad3a6651","ios":"levelo://app?vid=6817314f-e159-49df-b69d-8aeaad3a6651"},"vehicle_type_id":"4","last_reported":1741388833,"current_range_meters":17600,"station_id":"ce4bh0h2rcd13ifvqd50","pricing_plan_id":"cebpf4jnsgd1na2vs0mg"},{"bike_id":"33e26e31-5419-40ba-85e6-8ce4ad59afe5","system_id":"levelo_inurba_marseille","lat":43.29304,"lon":5.37459,"is_reserved":false,"is_disabled":false,"rental_uris":{"android":"levelo://app?vid=33e26e31-5419-40ba-85e6-8ce4ad59afe5","ios":"levelo://app?vid=33e26e31-5419-40ba-85e6-8ce4ad59afe5"},"vehicle_type_id":"4","last_reported":1741388833,"current_range_meters":18800,"station_id":"ce4bgi12rcd13ifvqb70","pricing_plan_id":"cebpf4jnsgd1na2vs0mg"},{"bike_id":"bcdf98df-8d27-4828-8870-2c5bfb469a5a","system_id":"levelo_inurba_marseille","lat":43.28118,"lon":5.37854,"is_reserved":false,"is_disabled":true,"rental_uris":{"android":"levelo://app?vid=bcdf98df-8d27-4828-8870-2c5bfb469a5a","ios":"levelo://app?vid=bcdf98df-8d27-4828-8870-2c5bfb469a5a"},"vehicle_type_id":"4","last_reported":1741388833,"current_range_meters":18000,"station_id":"ce4bha12rcd13ifvqee0","pricing_plan_id":"cebpf4jnsgd1na2vs0mg"},{"bike_id":"35c1791e-aa31-4855-b00e-94e87190641b","system_id":"levelo_inurba_marseille","lat":43.27983,"lon":5.41664,"is_reserved":false,"is_disabled":false,"rental_uris":{"android":"levelo://app?vid=35c1791e-aa31-4855-b00e-94e87190641b","ios":"levelo://app?vid=35c1791e-aa31-4855-b00e-94e87190641b"},"vehicle_type_id":"4","last_reported":1741388833,"current_range_meters":18000,"station_id":"ce4bho12rcd13ifvqh1g","pricing_plan_id":"cebpf4jnsgd1na2vs0mg"},