{"last_updated":1746540642,"ttl":60,"version":"2.2","data":{"bikes":[{"bike_id":"545631c8-05b7-4070-95e3-52dc096addb5","system_id":"levelo_inurba_marseille","lat":43.272019,"lon":5.364683,"is_reserved":false,"is_disabled":true,"rental_uris":{"android":"levelo://app?vid=545631c8-05b7-4070-95e3-52dc096addb5","ios":"levelo://app?vid=545631c8-05b7-4070-95e3-52dc096addb5"},"vehicle_type_id":"4","last_reported":1746540642,"current_range_meters":0,"station_id":"","pricing_plan_id":"cebpf4jnsgd1na2vs0mg"},{"bike_id":"64a99dee-e5f5-406c-bb57-3c1dd0084469","system_id":"levelo_inurba_marseille","lat":43.23667,"lon":5.39143,"is_reserved":false,"is_disabled":true,"rental_uris":{"android":"levelo://app?vid=64a99dee-e5f5-406c-bb57-3c1dd0084469","ios":"levelo://app?vid=64a99dee-e5f5-406c-bb57-3c1dd0084469"},"vehicle_type_id":"4","last_reported":1746540642,"current_range_meters":0,"station_id":"","pricing_plan_id":"cebpf4jnsgd1na2vs0mg"},{"bike_id":"b56eeeb9-9ded-4dd2-9efa-c8d4f8a5e387","system_id":"levelo_inurba_marseille","lat":43.273635,"lon":5.422135,"is_reserved":false,"is_disabled":true,"rental_uris":{"android":"levelo://app?vid=b56eeeb9-9ded-4dd2-9efa-c8d4f8a5e387","ios":"levelo://app?vid=b56eeeb9-9ded-4dd2-9efa-c8d4f8a5e387"},"vehicle_type_id":"4","last_reported":1746540642,"current_range_meters":0,"station_id":"","pricing_plan_id":"cebpf4jnsgd1na2vs0mg"},{"bike_id":"2d251c8d-e9d0-476f-8622-cb88831f30c3","system_id":"levelo_inurba_marseille","lat":43.27018,"lon":5.38763,"is_reserved":false,"is_disabled":true,"rental_uris":{"android":"levelo://app?vid=2d251c8d-e9d0-476f-8622-cb88831f30c3","ios":"levelo://app?vid=2d251c8d-e9d0-476f-8622-cb88831f30c3"},"vehicle_type_id":"4","last_reported":1746540642,"current_range_meters":0,"station_id":"","pricing_plan_id":"cebpf4jnsgd1na2vs0mg"},{"bike_id":"81eff0ee-a78e-40ed-af3f-ae0e834a33f4","system_id":"levelo_inurba_marseille","lat":43.30536,"lon":5.38448,"is_reserved":false,"is_disabled":true,"rental_uris":{"android":"levelo://app?vid=81eff0ee-a78e-40ed-af3f-ae0e834a33f4","ios":"levelo://app?vid=81eff0ee-a78e-40ed-af3f-ae0e834a33f4"},"vehicle_type_id":"4","last_reported":1746540642,"current_range_meters":0,"station_id":"ce4bgg92rcd13ifvqb30","pricing_plan_id":"cebpf4jnsgd1na2vs0mg"},{"bike_id":"336211ac-1b07-482f-91de-e525eca3a981","system_id":"levelo_inurba_marseille","lat":43.31495,"lon":5.3731,"is_reserved":false,"is_disabled":true,"rental_uris":{"android":"levelo://app?vid=336211ac-1b07-482f-91de-e525eca3a981","ios":"levelo://app?vid=336211ac-1b07-482f-91de-e525eca3a981"},"vehicle_type_id":"4","last_reported":1746540642,"current_range_meters":0,"station_id":"ce4bgt12rcd13ifvqcd0","pricing_plan_id":"cebpf4jnsgd1na2vs0mg"},{"bike_id":"0f65586c-f0b8-410d-acc6-d3a0e26db42b","system_id":"levelo_inurba_marseille","lat":43.29277,"lon":5.38456,"is_reserved":false,"is_disabled":true,"rental_uris":{"android":"levelo://app?vid=0f65586c-f0b8-410d-acc6-d3a0e26db42b","ios":"levelo://app?vid=0f65586c-f0b8-410d-acc6-d3a0e26db42b"},"vehicle_type_id":"4","last_reported":1746540642,"current_range_meters":0,"station_id":"ce4bh692rcd13ifvqea0","pricing_plan_id":"cebpf4jnsgd1na2vs0mg"},{"bike_id":"bc27cc76-2e5d-49b7-9056-2ff9e3fbd10e","system_id":"levelo_inurba_marseille","lat":43.29255,"lon":5.36838,"is_reserved":false,"is_disabled":true,"rental_uris":{"android":"levelo://app?vid=bc27cc76-2e5d-49b7-9056-2ff9e3fbd10e","ios":"levelo://app?vid=bc27cc76-2e5d-49b7-9056-2ff9e3fbd10e"},"vehicle_type_id":"4","last_reported":1746540642,"current_range_meters":0,"station_id":"ce4bhbp2rcd13ifvqesg","pricing_plan_id":"cebpf4jnsgd1na2vs0mg"},{"bike_id":"7d6c0afe-7d9d-4d17-b28e-127227c9e2b3","system_id":"levelo_inurba_marseille","lat":43.26558,"lon":5.37308,"is_reserved":false,"is_disabled":true,"rental_uris":{"android":"levelo://app?vid=7d6c0afe-7d9d-4d17-b28e-127227c9e2b3","ios":"levelo://app?vid=7d6c0afe-7d9d-4d17-b28e-127227c9e2b3"},"vehicle_type_id":"4","last_reported":1746540642,"current_range_meters":0,"station_id":"ce4bhg12rcd13ifvqf70","pricing_plan_id":"cebpf4jnsgd1na2vs0mg"},{"bike_id":"ec3c4aaa-78de-4b25-b090-a4cb8ca3e9d7","system_id":"levelo_inurba_marseille","lat":43.26556,"lon":5.37285,"is_reserved":false,"is_disabled":true,"rental_uris":{"android":"levelo://app?vid=ec3c4aaa-78de-4b25-b090-a4cb8ca3e9d7","ios":"levelo://app?vid=ec3c4aaa-78de-4b25-b090-a4cb8ca3e9d7"},"vehicle_type_id":"4","last_reported":1746540642,"current_range_meters":0,"station_id":"ce4bhg12rcd13ifvqf70","pricing_plan_id":"cebpf4jnsgd1na2vs0mg"},{"bike_id":"bd270d44-40e4-4a62-883f-40252b9e5704","system_id":"levelo_inurba_marseille","lat":43.2396,"lon":5.36621,"is_reserved":false,"is_disabled":true,"rental_uris":{"android":"levelo://app?vid=bd270d44-40e4-4a62-883f-40252b9e5704","ios":"levelo://app?vid=bd270d44-40e4-4a62-883f-40252b9e5704"},"vehicle_type_id":"4","last_reported":1746540642,"current_range_meters":0,"station_id":"ce4bhi12rcd13ifvqfp0","pricing_plan_id":"cebpf4jnsgd1na2vs0mg"},{"bike_id":"588cc029-df09-4310-9e8c-b6aab017cfbb","system_id":"levelo_inurba_marseille","lat":43.29619,"lon":5.37738,"is_reserved":false,"is_disabled":true,"rental_uris":{"android":"levelo://app?vid=588cc029-df09-4310-9e8c-b6aab017cfbb","ios":"levelo://app?vid=588cc029-df09-4310-9e8c-b6aab017cfbb"},"vehicle_type_id":"4","last_reported":1746540642,"current_range_meters":400,"station_id":"ce4bgi92rcd13ifvqb90","pricing_plan_id":"cebpf4jnsgd1na2vs0mg"},{"bike_id":"31a6a0de-75bf-4804-bf48-d62971d4f778","system_id":"levelo_inurba_marseille","lat":43.301303,"lon":5.398467,"is_reserved":false,"is_disabled":true,"rental_uris":{"android":"levelo://app?vid=31a6a0de-75bf-4804-bf48-d62971d4f778","ios":"levelo://app?vid=31a6a0de-75bf-4804-bf48-d62971d4f778"},"vehicle_type_id":"4","last_reported":1746540642,"current_range_meters":400,"station_id":"ce4bh0h2rcd13ifvqd40","pricing_plan_id":"cebpf4jnsgd1na2vs0mg"},{"bike_id":"0f13a025-e9a8-445e-9847-25adc12c4638","system_id":"levelo_inurba_marseille","lat":43.281946,"lon":5.386136,"is_reserved":false,"is_disabled":true,"rental_uris":{"android":"levelo://app?vid=0f13a025-e9a8-445e-9847-25adc12c4638","ios":"levelo://app?vid=0f13a025-e9a8-445e-9847-25adc12c4638"},"vehicle_type_id":"4","last_reported":1746540642,"current_range_meters":400,"station_id":"ce4bh512rcd13ifvqe3g","pricing_plan_id":"cebpf4jnsgd1na2vs0mg"},{"bike_id":"7551b747-e9b7-404b-b2ca-80047c151fea","system_id":"levelo_inurba_marseille","lat":43.31758,"lon":5.39024,"is_reserved":false,"is_disabled":true,"rental_uris":{"android":"levelo://app?vid=7551b747-e9b7-404b-b2ca-80047c151fea","ios":"levelo://app?vid=7551b747-e9b7-404b-b2ca-80047c151fea"},"vehicle_type_id":"4","last_reported":1746540642,"current_range_meters":400,"station_id":"ce4bhqp2rcd13ifvqhng","pricing_plan_id":"cebpf4jnsgd1na2vs0mg"},{"bike_id":"d8e4675d-e8ff-4618-b1fc-c837633aa8bb","system_id":"levelo_inurba_marseille","lat":43.26203,"lon":5.37453,"is_reserved":false,"is_disabled":true,"rental_uris":{"android":"levelo://app?vid=d8e4675d-e8ff-4618-b1fc-c837633aa8bb","ios":"levelo://app?vid=d8e4675d-e8ff-4618-b1fc-c837633aa8bb"},"vehicle_type_id":"4","last_reported":1746540642,"current_range_meters":800,"station_id":"ce4bhgp2rcd13ifvqfc0","pricing_plan_id":"cebpf4jnsgd1na2vs0mg"},{"bike_id":"50b788a9-6388-4779-ad8e-fe4de7ae1914","system_id":"levelo_inurba_marseille","lat":43.23153,"lon":5.43714,"is_reserved":false,"is_disabled":true,"rental_uris":{"android":"levelo://app?vid=50b788a9-6388-4779-ad8e-fe4de7ae1914","ios":"levelo://app?vid=50b788a9-6388-4779-ad8e-fe4de7ae1914"},"vehicle_type_id":"4","last_reported":1746540642,"current_range_meters":800,"station_id":"ce4bhmp2rcd13ifvqgog","pricing_plan_id":"cebpf4jnsgd1na2vs0mg"},{"bike_id":"ed20bc46-9a2c-48ba-a160-2c78732d8619","system_id":"levelo_inurba_marseille","lat":43.292788,"lon":5.401167,"is_reserved":false,"is_disabled":true,"rental_uris":{"android":"levelo://app?vid=ed20bc46-9a2c-48ba-a160-2c78732d8619","ios":"levelo://app?vid=ed20bc46-9a2c-48ba-a160-2c78732d8619"},"vehicle_type_id":"4","last_reported":1746540642,"current_range_meters":1600,"station_id":"","pricing_plan_id":"cebpf4jnsgd1na2vs0mg"},{"bike_id":"3d4405da-cf1a-4d2d-a3f6-9105b8f09694","system_id":"levelo_inurba_marseille","lat":43.31078,"lon":5.38346,"is_reserved":false,"is_disabled":true,"rental_uris":{"android":"levelo://app?vid=3d4405da-cf1a-4d2d-a3f6-9105b8f09694","ios":"levelo://app?vid=3d4405da-cf1a-4d2d-a3f6-9105b8f09694"},"vehicle_type_id":"4","last_reported":1746540642,"current_range_meters":1600,"station_id":"ce4bgv92rcd13ifvqcr0","pricing_plan_id":"cebpf4jnsgd1na2vs0mg"},{"bike_id":"f7878102-e306-4543-a226-505ce9e4c15e","system_id":"levelo_inurba_marseille","lat":43.29528,"lon":5.38549,"is_reserved":false,"is_disabled":true,"rental_uris":{"android":"levelo://app?vid=f7878102-e306-4543-a226-505ce9e4c15e","ios":"levelo://app?vid=f7878102-e306-4543-a226-505ce9e4c15e"},"vehicle_type_id":"4","last_reported":1746540642,"current_range_meters":2000,"station_id":"ce4bgih2rcd13ifvqba0","pricing_plan_id":"cebpf4jnsgd1na2vs0mg"},{"bike_id":"28b4b106-a05b-4a5c-b76d-5f5b9f3a9209","system_id":"levelo_inurba_marseille","lat":43.30546,"lon":5.3654,"is_reserved":false,"is_disabled":true,"rental_uris":{"android":"levelo://app?vid=28b4b106-a05b-4a5c-b76d-5f5b9f3a9209","ios":"levelo://app?vid=28b4b106-a05b-4a5c-b76d-5f5b9f3a9209"},"vehicle_type_id":"4","last_reported":1746540642,"current_range_meters":2000,"station_id":"ce4bgs12rcd13ifvqcag","pricing_plan_id":"cebpf4jnsgd1na2vs0mg"},{"bike_id":"92824dfd-24ac-40a4-8cd5-09af62e035d8","system_id":"levelo_inurba_marseille","lat":43.3094,"lon":5.40145,"is_reserved":false,"is_disabled":true,"rental_uris":{"android":"levelo://app?vid=92824dfd-24ac-40a4-8cd5-09af62e035d8","ios":"levelo://app?vid=92824dfd-24ac-40a4-8cd5-09af62e035d8"},"vehicle_type_id":"4","last_reported":1746540642,"current_range_meters":2000,"station_id":"ce4bgvp2rcd13ifvqct0","pricing_plan_id":"cebpf4jnsgd1na2vs0mg"},{"bike_id":"12898056-0f35-49fc-8e66-14c360b40540","system_id":"levelo_inurba_marseille","lat":43.29572,"lon":5.37517,"is_reserved":false,"is_disabled":false,"rental_uris":{"android":"levelo://app?vid=12898056-0f35-49fc-8e66-14c360b40540","ios":"levelo://app?vid=12898056-0f35-49fc-8e66-14c360b40540"},"vehicle_type_id":"4","last_reported":1746540642,"current_range_meters":2800,"station_id":"","pricing_plan_id":"cebpf4jnsgd1na2vs0mg"},{"bike_id":"19cbe9b5-26bf-4019-ad01-d4406e74c499","system_id":"levelo_inurba_marseille","lat":43.2963,"lon":5.40591,"is_reserved":false,"is_disabled":false,"rental_uris":{"android":"levelo://app?vid=19cbe9b5-26bf-4019-ad01-d4406e74c499","ios":"levelo://app?vid=19cbe9b5-26bf-4019-ad01-d4406e74c499"},"vehicle_type_id":"4","last_reported":1746540642,"current_range_meters":2800,"station_id":"ce4bh0h2rcd13ifvqd60","pricing_plan_id":"cebpf4jnsgd1na2vs0mg"},{"bike_id":"a871b4c0-b0ad-4a64-8010-655db632f81f","system_id":"levelo_inurba_marseille","lat":43.29515,"lon":5.39042,"is_reserved":false,"is_disabled":false,"rental_uris":{"android":"levelo://app?vid=a871b4c0-b0ad-4a64-8010-655db632f81f","ios":"levelo://app?vid=a871b4c0-b0ad-4a64-8010-655db632f81f"},"vehicle_type_id":"4","last_reported":1746540642,"current_range_meters":2800,"station_id":"ce4bh3p2rcd13ifvqdp0","pricing_plan_id":"cebpf4jnsgd1na2vs0mg"},{"bike_id":"bfbbbc7e-e023-45c8-9669-89f74319aaea","system_id":"levelo_inurba_marseille","lat":43.26546,"lon":5.3728,"is_reserved":false,"is_disabled":false,"rental_uris":{"android":"levelo://app?vid=bfbbbc7e-e023-45c8-9669-89f74319aaea","ios":"levelo://app?vid=bfbbbc7e-e023-45c8-9669-89f74319aaea"},"vehicle_type_id":"4","last_reported":1746540642,"current_range_meters":2800,"station_id":"ce4bhg12rcd13ifvqf70","pricing_plan_id":"cebpf4jnsgd1na2vs0mg"},{"bike_id":"66b646b3-6352-44bb-9bfb-21570512e3e5","system_id":"levelo_inurba_marseille","lat":43.281352,"lon":5.403922,"is_reserved":false,"is_disabled":false,"rental_uris":{"android":"levelo://app?vid=66b646b3-6352-44bb-9bfb-21570512e3e5","ios":"levelo://app?vid=66b646b3-6352-44bb-9bfb-21570512e3e5"},"vehicle_type_id":"4","last_reported":1746540642,"current_range_meters":3200,"station_id":"","pricing_plan_id":"cebpf4jnsgd1na2vs0mg"},{"bike_id":"463b3308-7172-42d1-b3ca-815a0541aac7","system_id":"levelo_inurba_marseille","lat":43.2407,"lon":5.37766,"is_reserved":false,"is_disabled":false,"rental_uris":{"android":"levelo://app?vid=463b3308-7172-42d1-b3ca-815a0541aac7","ios":"levelo://app?vid=463b3308-7172-42d1-b3ca-815a0541aac7"},"vehicle_type_id":"4","last_reported":1746540642,"current_range_meters":3200,"station_id":"ce4bhnp2rcd13ifvqgvg","pricing_plan_id":"cebpf4jnsgd1na2vs0mg"},{"bike_id":"05be89a1-2960-4ff7-898e-896c771068f1","system_id":"levelo_inurba_marseille","lat":43.29914,"lon":5.374754,"is_reserved":false,"is_disabled":false,"rental_uris":{"android":"levelo://app?vid=05be89a1-2960-4ff7-898e-896c771068f1","ios":"levelo://app?vid=05be89a1-2960-4ff7-898e-896c771068f1"},"vehicle_type_id":"4","last_reported":1746540642,"current_range_meters":3600,"station_id":"ce4bgjh2rcd13ifvqbg0","pricing_plan_id":"cebpf4jnsgd1na2vs0mg"},{"bike_id":"deba0b43-7b30-4aeb-b97f-047239b98fc8","system_id":"levelo_inurba_marseille","lat":43.27997,"lon":5.41663,"is_reserved":false,"is_disabled":false,"rental_uris":{"android":"levelo://app?vid=deba0b43-7b30-4aeb-b97f-047239b98fc8","ios":"levelo://app?vid=deba0b43-7b30-4aeb-b97f-047239b98fc8"},"vehicle_type_id":"4","last_reported":1746540642,"current_range_meters":3600,"station_id":"ce4bho12rcd13ifvqh1g","pricing_plan_id":"cebpf4jnsgd1na2vs0mg"},{"bike_id":"b4c99081-bd5c-46ad-a787-f64087b79c0a","system_id":"levelo_inurba_marseille","lat":43.28445,"lon":5.39215,"is_reserved":false,"is_disabled":false,"rental_uris":{"android":"levelo://app?vid=b4c99081-bd5c-46ad-a787-f64087b79c0a","ios":"levelo://app?vid=b4c99081-bd5c-46ad-a787-f64087b79c0a"},"vehicle_type_id":"4","last_reported":1746540642,"current_range_meters":4000,"station_id":"ce4bhoh2rcd13ifvqh5g","pricing_plan_id":"cebpf4jnsgd1na2vs0mg"},{"bike_id":"4a30f690-9601-40c4-ab2d-edffc1713d70","system_id":"levelo_inurba_marseille","lat":43.30331,"lon":5.40432,"is_reserved":false,"is_disabled":false,"rental_uris":{"android":"levelo://app?vid=4a30f690-9601-40c4-ab2d-edffc1713d70","ios":"levelo://app?vid=4a30f690-9601-40c4-ab2d-edffc1713d70"},"vehicle_type_id":"4","last_reported":1746540642,"current_range_meters":4400,"station_id":"ce4bh012rcd13ifvqd10","pricing_plan_id":"cebpf4jnsgd1na2vs0mg"},{"bike_id":"713addbb-83ed-4bb4-8953-037e3c486bd4","system_id":"levelo_inurba_marseille","lat":43.24167,"lon":5.36393,"is_reserved":false,"is_disabled":false,"rental_uris":{"android":"levelo://app?vid=713addbb-83ed-4bb4-8953-037e3c486bd4","ios":"levelo://app?vid=713addbb-83ed-4bb4-8953-037e3c486bd4"},"vehicle_type_id":"4","last_reported":1746540642,"current_range_meters":4400,"station_id":"cpo36qri1sfpv3e86is0","pricing_plan_id":"cebpf4jnsgd1na2vs0mg"},{"bike_id":"02194a26-0df4-4197-99c5-9aab9f3d2497","system_id":"levelo_inurba_marseille","lat":43.29612,"lon":5.38094,"is_reserved":false,"is_disabled":false,"rental_uris":{"android":"levelo://app?vid=02194a26-0df4-4197-99c5-9aab9f3d2497","ios":"levelo://app?vid=02194a26-0df4-4197-99c5-9aab9f3d2497"},"vehicle_type_id":"4","last_reported":1746540642,"current_range_meters":4800,"station_id":"ce4bgl12rcd13ifvqbo0","pricing_plan_id":"cebpf4jnsgd1na2vs0mg"},{"bike_id":"5f98cb28-3d91-4c26-bf1f-4c9332ec5395","system_id":"levelo_inurba_marseille","lat":43.27992,"lon":5.40012,"is_reserved":false,"is_disabled":false,"rental_uris":{"android":"levelo://app?vid=5f98cb28-3d91-4c26-bf1f-4c9332ec5395","ios":"levelo://app?vid=5f98cb28-3d91-4c26-bf1f-4c9332ec5395"},"vehicle_type_id":"4","last_reported":1746540642,"current_range_meters":4800,"station_id":"ce4bho92rcd13ifvqh4g","pricing_plan_id":"cebpf4jnsgd1na2vs0mg"},{"bike_id":"5c7249a3-596f-4101-8dbd-1087a1f3b438","system_id":"levelo_inurba_marseille","lat":43.231885,"lon":5.355614,"is_reserved":false,"is_disabled":false,"rental_uris":{"android":"levelo://app?vid=5c7249a3-596f-4101-8dbd-1087a1f3b438","ios":"levelo://app?vid=5c7249a3-596f-4101-8dbd-1087a1f3b438"},"vehicle_type_id":"4","last_reported":1746540642,"current_range_meters":4800,"station_id":"ce4bhu92rcd13ifvqi70","pricing_plan_id":"cebpf4jnsgd1na2vs0mg"},{"bike_id":"482344f1-460c-48ea-83dd-01b9a385e5cf","system_id":"levelo_inurba_marseille","lat":43.30667,"lon":5.36853,"is_reserved":false,"is_disabled":false,"rental_uris":{"android":"levelo://app?vid=482344f1-460c-48ea-83dd-01b9a385e5cf","ios":"levelo://app?vid=482344f1-460c-48ea-83dd-01b9a385e5cf"},"vehicle_type_id":"4","last_reported":1746540642,"current_range_meters":5600,"station_id":"","pricing_plan_id":"cebpf4jnsgd1na2vs0mg"},{"bike_id":"05acc269-3585-43c2-bd71-44178ddba2ab","system_id":"levelo_inurba_marseille","lat":43.231487,"lon":5.355169,"is_reserved":false,"is_disabled":false,"rental_uris":{"android":"levelo://app?vid=05acc269-3585-43c2-bd71-44178ddba2ab","ios":"levelo://app?vid=05acc269-3585-43c2-bd71-44178ddba2ab"},"vehicle_type_id":"4","last_reported":1746540642,"current_range_meters":5600,"station_id":"","pricing_plan_id":"cebpf4jnsgd1na2vs0mg"},{"bike_id":"3d83df0e-5cd9-44d1-b431-d4ad54233c86","system_id":"levelo_inurba_marseille","lat":43.3078,"lon":5.37645,"is_reserved":false,"is_disabled":false,"rental_uris":{"android":"levelo://app?vid=3d83df0e-5cd9-44d1-b431-d4ad54233c86","ios":"levelo://app?vid=3d83df0e-5cd9-44d1-b431-d4ad54233c86"},"vehicle_type_id":"4","last_reported":1746540642,"current_range_meters":5600,"station_id":"ce4bgv92rcd13ifvqcq0","pricing_plan_id":"cebpf4jnsgd1na2vs0mg"},{"bike_id":"bc13fe38-f50f-4183-9208-cb1400342f16","system_id":"levelo_inurba_marseille","lat":43.30212,"lon":5.39482,"is_reserved":false,"is_disabled":false,"rental_uris":{"android":"levelo://app?vid=bc13fe38-f50f-4183-9208-cb1400342f16","ios":"levelo://app?vid=bc13fe38-f50f-4183-9208-cb1400342f16"},"vehicle_type_id":"4","last_reported":1746540642,"current_range_meters":5600,"station_id":"ce4bh0p2rcd13ifvqd70","pricing_plan_id":"cebpf4jnsgd1na2vs0mg"},{"bike_id":"291cec61-41ff-4c26-a559-f946db051e71","system_id":"levelo_inurba_marseille","lat":43.28931,"lon":5.38385,"is_reserved":false,"is_disabled":false,"rental_uris":{"android":"levelo://app?vid=291cec61-41ff-4c26-a559-f946db051e71","ios":"levelo://app?vid=291cec61-41ff-4c26-a559-f946db051e71"},"vehicle_type_id":"4","last_reported":1746540642,"current_range_meters":5600,"station_id":"ce4bh612rcd13ifvqe6g","pricing_plan_id":"cebpf4jnsgd1na2vs0mg"},{"bike_id":"9016d79a-e0b0-48c7-8be1-073862022cf9","system_id":"levelo_inurba_marseille","lat":43.31276,"lon":5.40168,"is_reserved":false,"is_disabled":false,"rental_uris":{"android":"levelo://app?vid=9016d79a-e0b0-48c7-8be1-073862022cf9","ios":"levelo://app?vid=9016d79a-e0b0-48c7-8be1-073862022cf9"},"vehicle_type_id":"4","last_reported":1746540642,"current_range_meters":6000,"station_id":"ce4bh092rcd13ifvqd30","pricing_plan_id":"cebpf4jnsgd1na2vs0mg"},{"bike_id":"d4425f0e-7361-41b6-9e91-df057029635e","system_id":"levelo_inurba_marseille","lat":43.27057,"lon":5.40257,"is_reserved":false,"is_disabled":false,"rental_uris":{"android":"levelo://app?vid=d4425f0e-7361-41b6-9e91-df057029635e","ios":"levelo://app?vid=d4425f0e-7361-41b6-9e91-df057029635e"},"vehicle_type_id":"4","last_reported":1746540642,"current_range_meters":6000,"station_id":"ce4bhk92rcd13ifvqgc0","pricing_plan_id":"cebpf4jnsgd1na2vs0mg"},{"bike_id":"abc33db6-4f2b-43ba-b047-a303570eb986","system_id":"levelo_inurba_marseille","lat":43.31334,"lon":5.39688,"is_reserved":false,"is_disabled":false,"rental_uris":{"android":"levelo://app?vid=abc33db6-4f2b-43ba-b047-a303570eb986","ios":"levelo://app?vid=abc33db6-4f2b-43ba-b047-a303570eb986"},"vehicle_type_id":"4","last_reported":1746540642,"current_range_meters":6400,"station_id":"ce4bgvp2rcd13ifvqcu0","pricing_plan_id":"cebpf4jnsgd1na2vs0mg"},{"bike_id":"e0e33155-3006-414b-9041-b401316445dc","system_id":"levelo_inurba_marseille","lat":43.29956,"lon":5.41317,"is_reserved":false,"is_disabled":false,"rental_uris":{"android":"levelo://app?vid=e0e33155-3006-414b-9041-b401316445dc","ios":"levelo://app?vid=e0e33155-3006-414b-9041-b401316445dc"},"vehicle_type_id":"4","last_reported":1746540642,"current_range_meters":6400,"station_id":"ce4bhp12rcd13ifvqh9g","pricing_plan_id":"cebpf4jnsgd1na2vs0mg"},{"bike_id":"83cc1842-773c-46bc-8be1-caa63d83c3c2","system_id":"levelo_inurba_marseille","lat":43.25904,"lon":5.39524,"is_reserved":false,"is_disabled":false,"rental_uris":{"android":"levelo://app?vid=83cc1842-773c-46bc-8be1-caa63d83c3c2","ios":"levelo://app?vid=83cc1842-773c-46bc-8be1-caa63d83c3c2"},"vehicle_type_id":"4","last_reported":1746540642,"current_range_meters":6800,"station_id":"","pricing_plan_id":"cebpf4jnsgd1na2vs0mg"},{"bike_id":"902e7b37-8eb8-422a-9b4e-48687c91cf6d","system_id":"levelo_inurba_marseille","lat":43.31494,"lon":5.37306,"is_reserved":false,"is_disabled":false,"rental_uris":{"android":"levelo://app?vid=902e7b37-8eb8-422a-9b4e-48687c91cf6d","ios":"levelo://app?vid=902e7b37-8eb8-422a-9b4e-48687c91cf6d"},"vehicle_type_id":"4","last_reported":1746540642,"current_range_meters":6800,"station_id":"ce4bgt12rcd13ifvqcd0","pricing_plan_id":"cebpf4jnsgd1na2vs0mg"},{"bike_id":"8f85a23d-67cd-442b-b58a-9cf8c81ccfb4","system_id":"levelo_inurba_marseille","lat":43.292367,"lon":5.392045,"is_reserved":false,"is_disabled":false,"rental_uris":{"android":"levelo://app?vid=8f85a23d-67cd-442b-b58a-9cf8c81ccfb4","ios":"levelo://app?vid=8f85a23d-67cd-442b-b58a-9cf8c81ccfb4"},"vehicle_type_id":"4","last_reported":1746540642,"current_range_meters":6800,"station_id":"ce4bh192rcd13ifvqdd0","pricing_plan_id":"cebpf4jnsgd1na2vs0mg"},{"bike_id":"6fa0a199-882b-4626-9454-51867f6d3a20","system_id":"levelo_inurba_marseille","lat":43.285781,"lon":5.395015,"is_reserved":false,"is_disabled":false,"rental_uris":{"android":"levelo://app?vid=6fa0a199-882b-4626-9454-51867f6d3a20","ios":"levelo://app?vid=6fa0a199-882b-4626-9454-51867f6d3a20"},"vehicle_type_id":"4","last_reported":1746540642,"current_range_meters":6800,"station_id":"ce4bh292rcd13ifvqdg0","pricing_plan_id":"cebpf4jnsgd1na2vs0mg"},{"bike_id":"fbf4154f-31ea-4558-aa1e-a8b76d4ebf89","system_id":"levelo_inurba_marseille","lat":43.29096,"lon":5.38125,"is_reserved":false,"is_disabled":false,"rental_uris":{"android":"levelo://app?vid=fbf4154f-31ea-4558-aa1e-a8b76d4ebf89","ios":"levelo://app?vid=fbf4154f-31ea-4558-aa1e-a8b76d4ebf89"},"vehicle_type_id":"4","last_reported":1746540642,"current_range_meters":6800,"station_id":"ce4bh512rcd13ifvqe2g","pricing_plan_id":"cebpf4jnsgd1na2vs0mg"},{"bike_id":"aa27f56e-e014-4472-9224-3ffb5a249a8e","system_id":"levelo_inurba_marseille","lat":43.27418,"lon":5.39407,"is_reserved":false,"is_disabled":false,"rental_uris":{"android":"levelo://app?vid=aa27f56e-e014-4472-9224-3ffb5a249a8e","ios":"levelo://app?vid=aa27f56e-e014-4472-9224-3ffb5a249a8e"},"vehicle_type_id":"4","last_reported":1746540642,"current_range_meters":6800,"station_id":"ce4bhdp2rcd13ifvqf20","pricing_plan_id":"cebpf4jnsgd1na2vs0mg"},{"bike_id":"fa7ffac6-de9e-47db-a4bb-54f13bf82da8","system_id":"levelo_inurba_marseille","lat":43.25593,"lon":5.38249,"is_reserved":false,"is_disabled":false,"rental_uris":{"android":"levelo://app?vid=fa7ffac6-de9e-47db-a4bb-54f13bf82da8","ios":"levelo://app?vid=fa7ffac6-de9e-47db-a4bb-54f13bf82da8"},"vehicle_type_id":"4","last_reported":1746540642,"current_range_meters":6800,"station_id":"ce4bhih2rcd13ifvqfs0","pricing_plan_id":"cebpf4jnsgd1na2vs0mg"},{"bike_id":"416f578b-a76d-4698-b5ca-69135ef4b579","system_id":"levelo_inurba_marseille","lat":43.24132,"lon":5.36417,"is_reserved":false,"is_disabled":false,"rental_uris":{"android":"levelo://app?vid=416f578b-a76d-4698-b5ca-69135ef4b579","ios":"levelo://app?vid=416f578b-a76d-4698-b5ca-69135ef4b579"},"vehicle_type_id":"4","last_reported":1746540642,"current_range_meters":6800,"station_id":"cpo36qri1sfpv3e86is0","pricing_plan_id":"cebpf4jnsgd1na2vs0mg"},{"bike_id":"f201e35f-0887-46ff-bb2e-950f0791d4ee","system_id":"levelo_inurba_marseille","lat":43.265494,"lon":5.372899,"is_reserved":false,"is_disabled":false,"rental_uris":{"android":"levelo://app?vid=f201e35f-0887-46ff-bb2e-950f0791d4ee","ios":"levelo://app?vid=f201e35f-0887-46ff-bb2e-950f0791d4ee"},"vehicle_type_id":"4","last_reported":1746540642,"current_range_meters":7200,"station_id":"ce4bhg12rcd13ifvqf70","pricing_plan_id":"cebpf4jnsgd1na2vs0mg"},{"bike_id":"3fd5ea8b-d603-447a-8740-c625c88642df","system_id":"levelo_inurba_marseille","lat":43.28171,"lon":5.42675,"is_reserved":false,"is_disabled":false,"rental_uris":{"android":"levelo://app?vid=3fd5ea8b-d603-447a-8740-c625c88642df","ios":"levelo://app?vid=3fd5ea8b-d603-447a-8740-c625c88642df"},"vehicle_type_id":"4","last_reported":1746540642,"current_range_meters":7200,"station_id":"ce4bhnh2rcd13ifvqgug","pricing_plan_id":"cebpf4jnsgd1na2vs0mg"},{"bike_id":"15766b34-1ffa-48b4-bcdc-1037197cdcf9","system_id":"levelo_inurba_marseille","lat":43.32363,"lon":5.36757,"is_reserved":false,"is_disabled":false,"rental_uris":{"android":"levelo://app?vid=15766b34-1ffa-48b4-bcdc-1037197cdcf9","ios":"levelo://app?vid=15766b34-1ffa-48b4-bcdc-1037197cdcf9"},"vehicle_type_id":"4","last_reported":1746540642,"current_range_meters":7200,"station_id":"ce4bhsh2rcd13ifvqi2g","pricing_plan_id":"cebpf4jnsgd1na2vs0mg"},{"bike_id":"4f18ae10-ca52-49f4-9270-2255dcd90874","system_id":"levelo_inurba_marseille","lat":43.297042,"lon":5.366065,"is_reserved":false,"is_disabled":false,"rental_uris":{"android":"levelo://app?vid=4f18ae10-ca52-49f4-9270-2255dcd90874","ios":"levelo://app?vid=4f18ae10-ca52-49f4-9270-2255dcd90874"},"vehicle_type_id":"4","last_reported":1746540642,"current_range_meters":8000,"station_id":"ce4bgn12rcd13ifvqbt0","pricing_plan_id":"cebpf4jnsgd1na2vs0mg"},{"bike_id":"4be95b90-db9a-4205-9ad8-468cfd9c87c9","system_id":"levelo_inurba_marseille","lat":43.2549,"lon":5.37644,"is_reserved":false,"is_disabled":false,"rental_uris":{"android":"levelo://app?vid=4be95b90-db9a-4205-9ad8-468cfd9c87c9","ios":"levelo://app?vid=4be95b90-db9a-4205-9ad8-468cfd9c87c9"},"vehicle_type_id":"4","last_reported":1746540642,"current_range_meters":8000,"station_id":"ce4bhh12rcd13ifvqff0","pricing_plan_id":"cebpf4jnsgd1na2vs0mg"},{"bike_id":"aebf23dc-0478-4109-8364-f54304e22adc","system_id":"levelo_inurba_marseille","lat":43.2315,"lon":5.43719,"is_reserved":false,"is_disabled":false,"rental_uris":{"android":"levelo://app?vid=aebf23dc-0478-4109-8364-f54304e22adc","ios":"levelo://app?vid=aebf23dc-0478-4109-8364-f54304e22adc"},"vehicle_type_id":"4","last_reported":1746540642,"current_range_meters":8000,"station_id":"ce4bhmp2rcd13ifvqgog","pricing_plan_id":"cebpf4jnsgd1na2vs0mg"},{"bike_id":"e9f4fd24-574d-4605-bbee-c27f913e5918","system_id":"levelo_inurba_marseille","lat":43.27934,"lon":5.41024,"is_reserved":false,"is_disabled":false,"rental_uris":{"android":"levelo://app?vid=e9f4fd24-574d-4605-bbee-c27f913e5918","ios":"levelo://app?vid=e9f4fd24-574d-4605-bbee-c27f913e5918"},"vehicle_type_id":"4","last_reported":1746540642,"current_range_meters":8000,"station_id":"ce4bhnp2rcd13ifvqh0g","pricing_plan_id":"cebpf4jnsgd1na2vs0mg"},{"bike_id":"7a7eec1e-4fca-4c03-8bca-0c5711fede88","system_id":"levelo_inurba_marseille","lat":43.3266,"lon":5.40998,"is_reserved":false,"is_disabled":false,"rental_uris":{"android":"levelo://app?vid=7a7eec1e-4fca-4c03-8bca-0c5711fede88","ios":"levelo://app?vid=7a7eec1e-4fca-4c03-8bca-0c5711fede88"},"vehicle_type_id":"4","last_reported":1746540642,"current_range_meters":8000,"station_id":"ce4bhpp2rcd13ifvqhgg","pricing_plan_id":"cebpf4jnsgd1na2vs0mg"},{"bike_id":"58f03aad-9d90-4c17-a26c-90afdf133427","system_id":"levelo_inurba_marseille","lat":43.32478,"lon":5.3657,"is_reserved":false,"is_disabled":false,"rental_uris":{"android":"levelo://app?vid=58f03aad-9d90-4c17-a26c-90afdf133427","ios":"levelo://app?vid=58f03aad-9d90-4c17-a26c-90afdf133427"},"vehicle_type_id":"4","last_reported":1746540642,"current_range_meters":8000,"station_id":"ce4bhs12rcd13ifvqhvg","pricing_plan_id":"cebpf4jnsgd1na2vs0mg"},{"bike_id":"7fb8ae87-400b-4f3c-8e58-d855e91aef6d","system_id":"levelo_inurba_marseille","lat":43.29707,"lon":5.36611,"is_reserved":false,"is_disabled":false,"rental_uris":{"android":"levelo://app?vid=7fb8ae87-400b-4f3c-8e58-d855e91aef6d","ios":"levelo://app?vid=7fb8ae87-400b-4f3c-8e58-d855e91aef6d"},"vehicle_type_id":"4","last_reported":1746540642,"current_range_meters":8400,"station_id":"ce4bgn12rcd13ifvqbt0","pricing_plan_id":"cebpf4jnsgd1na2vs0mg"},{"bike_id":"90969fe2-1cfe-426d-aab1-ba08ec8a5751","system_id":"levelo_inurba_marseille","lat":43.30601,"lon":5.3724,"is_reserved":false,"is_disabled":false,"rental_uris":{"android":"levelo://app?vid=90969fe2-1cfe-426d-aab1-ba08ec8a5751","ios":"levelo://app?vid=90969fe2-1cfe-426d-aab1-ba08ec8a5751"},"vehicle_type_id":"4","last_reported":1746540642,"current_range_meters":8400,"station_id":"ce4bgqh2rcd13ifvqc4g","pricing_plan_id":"cebpf4jnsgd1na2vs0mg"},{"bike_id":"96870986-18f5-48db-b697-ff6e932d8b6f","system_id":"levelo_inurba_marseille","lat":43.24069,"lon":5.37763,"is_reserved":false,"is_disabled":false,"rental_uris":{"android":"levelo://app?vid=96870986-18f5-48db-b697-ff6e932d8b6f","ios":"levelo://app?vid=96870986-18f5-48db-b697-ff6e932d8b6f"},"vehicle_type_id":"4","last_reported":1746540642,"current_range_meters":8400,"station_id":"ce4bhnp2rcd13ifvqgvg","pricing_plan_id":"cebpf4jnsgd1na2vs0mg"},{"bike_id":"9d8f73eb-df09-4699-86a7-d631e2319093","system_id":"levelo_inurba_marseille","lat":43.26264,"lon":5.37432,"is_reserved":false,"is_disabled":false,"rental_uris":{"android":"levelo://app?vid=9d8f73eb-df09-4699-86a7-d631e2319093","ios":"levelo://app?vid=9d8f73eb-df09-4699-86a7-d631e2319093"},"vehicle_type_id":"4","last_reported":1746540642,"current_range_meters":8800,"station_id":"","pricing_plan_id":"cebpf4jnsgd1na2vs0mg"},{"bike_id":"912f8490-7d07-4b75-87e0-dc40df6806ce","system_id":"levelo_inurba_marseille","lat":43.30147,"lon":5.38078,"is_reserved":false,"is_disabled":false,"rental_uris":{"android":"levelo://app?vid=912f8490-7d07-4b75-87e0-dc40df6806ce","ios":"levelo://app?vid=912f8490-7d07-4b75-87e0-dc40df6806ce"},"vehicle_type_id":"4","last_reported":1746540642,"current_range_meters":8800,"station_id":"ce4bgjp2rcd13ifvqbh0","pricing_plan_id":"cebpf4jnsgd1na2vs0mg"},{"bike_id":"6c4f2cf0-c857-41e3-8a96-846c44883462","system_id":"levelo_inurba_marseille","lat":43.30885,"lon":5.39616,"is_reserved":false,"is_disabled":false,"rental_uris":{"android":"levelo://app?vid=6c4f2cf0-c857-41e3-8a96-846c44883462","ios":"levelo://app?vid=6c4f2cf0-c857-41e3-8a96-846c44883462"},"vehicle_type_id":"4","last_reported":1746540642,"current_range_meters":8800,"station_id":"ce4bh012rcd13ifvqcv0","pricing_plan_id":"cebpf4jnsgd1na2vs0mg"},{"bike_id":"8ebc4a2c-66b5-4738-97be-5b0d757b53fb","system_id":"levelo_inurba_marseille","lat":43.24665,"lon":5.38166,"is_reserved":false,"is_disabled":false,"rental_uris":{"android":"levelo://app?vid=8ebc4a2c-66b5-4738-97be-5b0d757b53fb","ios":"levelo://app?vid=8ebc4a2c-66b5-4738-97be-5b0d757b53fb"},"vehicle_type_id":"4","last_reported":1746540642,"current_range_meters":8800,"station_id":"ce4bhih2rcd13ifvqfr0","pricing_plan_id":"cebpf4jnsgd1na2vs0mg"},{"bike_id":"776ce2e3-d3eb-4c8d-8939-fbec936f08ff","system_id":"levelo_inurba_marseille","lat":43.25117,"lon":5.40318,"is_reserved":false,"is_disabled":false,"rental_uris":{"android":"levelo://app?vid=776ce2e3-d3eb-4c8d-8939-fbec936f08ff","ios":"levelo://app?vid=776ce2e3-d3eb-4c8d-8939-fbec936f08ff"},"vehicle_type_id":"4","last_reported":1746540642,"current_range_meters":8800,"station_id":"ce4bhlh2rcd13ifvqgig","pricing_plan_id":"cebpf4jnsgd1na2vs0mg"},{"bike_id":"05a84f69-0592-442a-b098-6253d0b70e9e","system_id":"levelo_inurba_marseille","lat":43.2998,"lon":5.37219,"is_reserved":false,"is_disabled":false,"rental_uris":{"android":"levelo://app?vid=05a84f69-0592-442a-b098-6253d0b70e9e","ios":"levelo://app?vid=05a84f69-0592-442a-b098-6253d0b70e9e"},"vehicle_type_id":"4","last_reported":1746540642,"current_range_meters":9200,"station_id":"ce4bgr92rcd13ifvqc7g","pricing_plan_id":"cebpf4jnsgd1na2vs0mg"},{"bike_id":"bbc00970-a508-4407-bd90-72997bc4f2ed","system_id":"levelo_inurba_marseille","lat":43.30547,"lon":5.36545,"is_reserved":false,"is_disabled":false,"rental_uris":{"android":"levelo://app?vid=bbc00970-a508-4407-bd90-72997bc4f2ed","ios":"levelo://app?vid=bbc00970-a508-4407-bd90-72997bc4f2ed"},"vehicle_type_id":"4","last_reported":1746540642,"current_range_meters":9200,"station_id":"ce4bgs12rcd13ifvqcag","pricing_plan_id":"cebpf4jnsgd1na2vs0mg"},{"bike_id":"53d26411-d5b8-4435-b8c5-8dc4a5523c3d","system_id":"levelo_inurba_marseille","lat":43.24167,"lon":5.36391,"is_reserved":false,"is_disabled":false,"rental_uris":{"android":"levelo://app?vid=53d26411-d5b8-4435-b8c5-8dc4a5523c3d","ios":"levelo://app?vid=53d26411-d5b8-4435-b8c5-8dc4a5523c3d"},"vehicle_type_id":"4","last_reported":1746540642,"current_range_meters":9200,"station_id":"cpo36qri1sfpv3e86is0","pricing_plan_id":"cebpf4jnsgd1na2vs0mg"},{"bike_id":"503569af-07db-461f-918e-29f89d0c1c24","system_id":"levelo_inurba_marseille","lat":43.2249,"lon":5.34794,"is_reserved":false,"is_disabled":false,"rental_uris":{"android":"levelo://app?vid=503569af-07db-461f-918e-29f89d0c1c24","ios":"levelo://app?vid=503569af-07db-461f-918e-29f89d0c1c24"},"vehicle_type_id":"4","last_reported":1746540642,"current_range_meters":9200,"station_id":"st_cvj5dfep6f1abm77gieg","pricing_plan_id":"cebpf4jnsgd1na2vs0mg"},{"bike_id":"c2fff035-6128-402a-b38b-ebc94261b3d8","system_id":"levelo_inurba_marseille","lat":43.21189,"lon":5.35072,"is_reserved":false,"is_disabled":false,"rental_uris":{"android":"levelo://app?vid=c2fff035-6128-402a-b38b-ebc94261b3d8","ios":"levelo://app?vid=c2fff035-6128-402a-b38b-ebc94261b3d8"},"vehicle_type_id":"4","last_reported":1746540642,"current_range_meters":9200,"station_id":"st_cvj6sg6p6f1abm77japg","pricing_plan_id":"cebpf4jnsgd1na2vs0mg"},{"bike_id":"88c3c6c1-a33a-48ed-b2a4-48c16332184c","system_id":"levelo_inurba_marseille","lat":43.29011,"lon":5.38139,"is_reserved":false,"is_disabled":false,"rental_uris":{"android":"levelo://app?vid=88c3c6c1-a33a-48ed-b2a4-48c16332184c","ios":"levelo://app?vid=88c3c6c1-a33a-48ed-b2a4-48c16332184c"},"vehicle_type_id":"4","last_reported":1746540642,"current_range_meters":9600,"station_id":"","pricing_plan_id":"cebpf4jnsgd1na2vs0mg"},{"bike_id":"0c377d9d-9a3a-47a7-9944-6039314b5e15","system_id":"levelo_inurba_marseille","lat":43.24589,"lon":5.40477,"is_reserved":false,"is_disabled":false,"rental_uris":{"android":"levelo://app?vid=0c377d9d-9a3a-47a7-9944-6039314b5e15","ios":"levelo://app?vid=0c377d9d-9a3a-47a7-9944-6039314b5e15"},"vehicle_type_id":"4","last_reported":1746540642,"current_range_meters":9600,"station_id":"","pricing_plan_id":"cebpf4jnsgd1na2vs0mg"},{"bike_id":"ee03aadd-7e6c-4b24-93ce-6b18c7ef99bb","system_id":"levelo_inurba_marseille","lat":43.28373,"lon":5.38634,"is_reserved":false,"is_disabled":false,"rental_uris":{"android":"levelo://app?vid=ee03aadd-7e6c-4b24-93ce-6b18c7ef99bb","ios":"levelo://app?vid=ee03aadd-7e6c-4b24-93ce-6b18c7ef99bb"},"vehicle_type_id":"4","last_reported":1746540642,"current_range_meters":9600,"station_id":"ce4bh492rcd13ifvqdvg","pricing_plan_id":"cebpf4jnsgd1na2vs0mg"},{"bike_id":"d2979c37-7c16-44be-9ea6-06bc4496036b","system_id":"levelo_inurba_marseille","lat":43.28459,"lon":5.35883,"is_reserved":false,"is_disabled":false,"rental_uris":{"android":"levelo://app?vid=d2979c37-7c16-44be-9ea6-06bc4496036b","ios":"levelo://app?vid=d2979c37-7c16-44be-9ea6-06bc4496036b"},"vehicle_type_id":"4","last_reported":1746540642,"current_range_meters":9600,"station_id":"ce4bhah2rcd13ifvqei0","pricing_plan_id":"cebpf4jnsgd1na2vs0mg"},{"bike_id":"d7baf11c-482e-4e9e-8fc8-c79689c51a43","system_id":"levelo_inurba_marseille","lat":43.24805,"lon":5.37451,"is_reserved":false,"is_disabled":false,"rental_uris":{"android":"levelo://app?vid=d7baf11c-482e-4e9e-8fc8-c79689c51a43","ios":"levelo://app?vid=d7baf11c-482e-4e9e-8fc8-c79689c51a43"},"vehicle_type_id":"4","last_reported":1746540642,"current_range_meters":9600,"station_id":"ce4bhgh2rcd13ifvqfb0","pricing_plan_id":"cebpf4jnsgd1na2vs0mg"},{"bike_id":"3ffb72b3-3870-4ecb-bb52-bfefa0d19a50","system_id":"levelo_inurba_marseille","lat":43.2706,"lon":5.4227,"is_reserved":false,"is_disabled":false,"rental_uris":{"android":"levelo://app?vid=3ffb72b3-3870-4ecb-bb52-bfefa0d19a50","ios":"levelo://app?vid=3ffb72b3-3870-4ecb-bb52-bfefa0d19a50"},"vehicle_type_id":"4","last_reported":1746540642,"current_range_meters":9600,"station_id":"ce4bhk92rcd13ifvqgb0","pricing_plan_id":"cebpf4jnsgd1na2vs0mg"},{"bike_id":"1b5093f1-8754-4e6c-995b-4b3a40b0ab08","system_id":"levelo_inurba_marseille","lat":43.29437,"lon":5.39754,"is_reserved":false,"is_disabled":false,"rental_uris":{"android":"levelo://app?vid=1b5093f1-8754-4e6c-995b-4b3a40b0ab08","ios":"levelo://app?vid=1b5093f1-8754-4e6c-995b-4b3a40b0ab08"},"vehicle_type_id":"4","last_reported":1746540642,"current_range_meters":10000,"station_id":"ce4bh3h2rcd13ifvqdo0","pricing_plan_id":"cebpf4jnsgd1na2vs0mg"},{"bike_id":"7bbeaa7e-5c67-4ae1-b2b5-221b46d3df9f","system_id":"levelo_inurba_marseille","lat":43.27971,"lon":5.38731,"is_reserved":false,"is_disabled":false,"rental_uris":{"android":"levelo://app?vid=7bbeaa7e-5c67-4ae1-b2b5-221b46d3df9f","ios":"levelo://app?vid=7bbeaa7e-5c67-4ae1-b2b5-221b46d3df9f"},"vehicle_type_id":"4","last_reported":1746540642,"current_range_meters":10000,"station_id":"ce4bhg12rcd13ifvqf80","pricing_plan_id":"cebpf4jnsgd1na2vs0mg"},{"bike_id":"68649bf2-34f5-4803-8114-a67fc9e0b442","system_id":"levelo_inurba_marseille","lat":43.27208,"lon":5.39181,"is_reserved":false,"is_disabled":false,"rental_uris":{"android":"levelo://app?vid=68649bf2-34f5-4803-8114-a67fc9e0b442","ios":"levelo://app?vid=68649bf2-34f5-4803-8114-a67fc9e0b442"},"vehicle_type_id":"4","last_reported":1746540642,"current_range_meters":10000,"station_id":"ce4bhhp2rcd13ifvqfm0","pricing_plan_id":"cebpf4jnsgd1na2vs0mg"},{"bike_id":"b20b13e1-551c-4f9d-b936-982fd039d887","system_id":"levelo_inurba_marseille","lat":43.2512,"lon":5.40317,"is_reserved":false,"is_disabled":false,"rental_uris":{"android":"levelo://app?vid=b20b13e1-551c-4f9d-b936-982fd039d887","ios":"levelo://app?vid=b20b13e1-551c-4f9d-b936-982fd039d887"},"vehicle_type_id":"4","last_reported":1746540642,"current_range_meters":10000,"station_id":"ce4bhlh2rcd13ifvqgig","pricing_plan_id":"cebpf4jnsgd1na2vs0mg"},{"bike_id":"377cba4d-c532-4b1a-90e4-12937369a524","system_id":"levelo_inurba_marseille","lat":43.25111,"lon":5.40319,"is_reserved":false,"is_disabled":false,"rental_uris":{"android":"levelo://app?vid=377cba4d-c532-4b1a-90e4-12937369a524","ios":"levelo://app?vid=377cba4d-c532-4b1a-90e4-12937369a524"},"vehicle_type_id":"4","last_reported":1746540642,"current_range_meters":10000,"station_id":"ce4bhlh2rcd13ifvqgig","pricing_plan_id":"cebpf4jnsgd1na2vs0mg"},{"bike_id":"e0eebb06-5c98-44a4-9f84-563b62ed60fe","system_id":"levelo_inurba_marseille","lat":43.25956,"lon":5.40927,"is_reserved":false,"is_disabled":false,"rental_uris":{"android":"levelo://app?vid=e0eebb06-5c98-44a4-9f84-563b62ed60fe","ios":"levelo://app?vid=e0eebb06-5c98-44a4-9f84-563b62ed60fe"},"vehicle_type_id":"4","last_reported":1746540642,"current_range_meters":10000,"station_id":"ce4bhm92rcd13ifvqglg","pricing_plan_id":"cebpf4jnsgd1na2vs0mg"},{"bike_id":"9fa1bd57-4b28-4439-bc0d-cd0bd1827fe4","system_id":"levelo_inurba_marseille","lat":43.23195,"lon":5.39982,"is_reserved":false,"is_disabled":false,"rental_uris":{"android":"levelo://app?vid=9fa1bd57-4b28-4439-bc0d-cd0bd1827fe4","ios":"levelo://app?vid=9fa1bd57-4b28-4439-bc0d-cd0bd1827fe4"},"vehicle_type_id":"4","last_reported":1746540642,"current_range_meters":10000,"station_id":"ce4bhn12rcd13ifvqgqg","pricing_plan_id":"cebpf4jnsgd1na2vs0mg"},{"bike_id":"fc453207-e37b-4b13-ae20-4430b65eb533","system_id":"levelo_inurba_marseille","lat":43.32442,"lon":5.39127,"is_reserved":false,"is_disabled":false,"rental_uris":{"android":"levelo://app?vid=fc453207-e37b-4b13-ae20-4430b65eb533","ios":"levelo://app?vid=fc453207-e37b-4b13-ae20-4430b65eb533"},"vehicle_type_id":"4","last_reported":1746540642,"current_range_meters":10800,"station_id":"","pricing_plan_id":"cebpf4jnsgd1na2vs0mg"},{"bike_id":"c9592205-9409-4f74-aed1-7c4141a58caa","system_id":"levelo_inurba_marseille","lat":43.27148,"lon":5.36366,"is_reserved":false,"is_disabled":false,"rental_uris":{"android":"levelo://app?vid=c9592205-9409-4f74-aed1-7c4141a58caa","ios":"levelo://app?vid=c9592205-9409-4f74-aed1-7c4141a58caa"},"vehicle_type_id":"4","last_reported":1746540642,"current_range_meters":10800,"station_id":"","pricing_plan_id":"cebpf4jnsgd1na2vs0mg"},{"bike_id":"669c7a56-84b1-42bf-b536-d89f2d7f6699","system_id":"levelo_inurba_marseille","lat":43.29635,"lon":5.40591,"is_reserved":false,"is_disabled":false,"rental_uris":{"android":"levelo://app?vid=669c7a56-84b1-42bf-b536-d89f2d7f6699","ios":"levelo://app?vid=669c7a56-84b1-42bf-b536-d89f2d7f6699"},"vehicle_type_id":"4","last_reported":1746540642,"current_range_meters":10800,"station_id":"ce4bh0h2rcd13ifvqd60","pricing_plan_id":"cebpf4jnsgd1na2vs0mg"},{"bike_id":"6ba912aa-2af8-448d-af34-e7932fde269c","system_id":"levelo_inurba_marseille","lat":43.28924,"lon":5.38395,"is_reserved":false,"is_disabled":false,"rental_uris":{"android":"levelo://app?vid=6ba912aa-2af8-448d-af34-e7932fde269c","ios":"levelo://app?vid=6ba912aa-2af8-448d-af34-e7932fde269c"},"vehicle_type_id":"4","last_reported":1746540642,"current_range_meters":10800,"station_id":"ce4bh612rcd13ifvqe6g","pricing_plan_id":"cebpf4jnsgd1na2vs0mg"},{"bike_id":"4cf6b65d-c17d-4695-848a-00a259a3df0a","system_id":"levelo_inurba_marseille","lat":43.29039,"lon":5.3757,"is_reserved":false,"is_disabled":false,"rental_uris":{"android":"levelo://app?vid=4cf6b65d-c17d-4695-848a-00a259a3df0a","ios":"levelo://app?vid=4cf6b65d-c17d-4695-848a-00a259a3df0a"},"vehicle_type_id":"4","last_reported":1746540642,"current_range_meters":10800,"station_id":"ce4bh692rcd13ifvqe90","pricing_plan_id":"cebpf4jnsgd1na2vs0mg"},{"bike_id":"fa37bfe9-0fcc-4f35-84b9-67041a093339","system_id":"levelo_inurba_marseille","lat":43.24078,"lon":5.37752,"is_reserved":false,"is_disabled":false,"rental_uris":{"android":"levelo://app?vid=fa37bfe9-0fcc-4f35-84b9-67041a093339","ios":"levelo://app?vid=fa37bfe9-0fcc-4f35-84b9-67041a093339"},"vehicle_type_id":"4","last_reported":1746540642,"current_range_meters":10800,"station_id":"ce4bhnp2rcd13ifvqgvg","pricing_plan_id":"cebpf4jnsgd1na2vs0mg"},{"bike_id":"94aa5dc4-e2be-4a92-a73f-e0e33f6131db","system_id":"levelo_inurba_marseille","lat":43.27372,"lon":5.36255,"is_reserved":false,"is_disabled":false,"rental_uris":{"android":"levelo://app?vid=94aa5dc4-e2be-4a92-a73f-e0e33f6131db","ios":"levelo://app?vid=94aa5dc4-e2be-4a92-a73f-e0e33f6131db"},"vehicle_type_id":"4","last_reported":1746540642,"current_range_meters":11200,"station_id":"ce4bhbh2rcd13ifvqeo0","pricing_plan_id":"cebpf4jnsgd1na2vs0mg"},{"bike_id":"511d233a-af9d-47b4-badf-fb6da8fb7f25","system_id":"levelo_inurba_marseille","lat":43.29326,"lon":5.37182,"is_reserved":false,"is_disabled":false,"rental_uris":{"android":"levelo://app?vid=511d233a-af9d-47b4-badf-fb6da8fb7f25","ios":"levelo://app?vid=511d233a-af9d-47b4-badf-fb6da8fb7f25"},"vehicle_type_id":"4","last_reported":1746540642,"current_range_meters":11600,"station_id":"ce4bgh92rcd13ifvqb40","pricing_plan_id":"cebpf4jnsgd1na2vs0mg"},{"bike_id":"386c20a1-95b7-4f13-a3a8-413782affb79","system_id":"levelo_inurba_marseille","lat":43.28669,"lon":5.3867,"is_reserved":false,"is_disabled":false,"rental_uris":{"android":"levelo://app?vid=386c20a1-95b7-4f13-a3a8-413782affb79","ios":"levelo://app?vid=386c20a1-95b7-4f13-a3a8-413782affb79"},"vehicle_type_id":"4","last_reported":1746540642,"current_range_meters":11600,"station_id":"ce4bh492rcd13ifvqdug","pricing_plan_id":"cebpf4jnsgd1na2vs0mg"},{"bike_id":"617f87de-e853-440f-aa5d-dc06d99325a0","system_id":"levelo_inurba_marseille","lat":43.29004,"lon":5.35612,"is_reserved":false,"is_disabled":false,"rental_uris":{"android":"levelo://app?vid=617f87de-e853-440f-aa5d-dc06d99325a0","ios":"levelo://app?vid=617f87de-e853-440f-aa5d-dc06d99325a0"},"vehicle_type_id":"4","last_reported":1746540642,"current_range_meters":11600,"station_id":"ce4bhb92rcd13ifvqen0","pricing_plan_id":"cebpf4jnsgd1na2vs0mg"},{"bike_id":"3f84d55c-f7b3-443f-a8ba-1f83ba8291a2","system_id":"levelo_inurba_marseille","lat":43.21189,"lon":5.35082,"is_reserved":false,"is_disabled":false,"rental_uris":{"android":"levelo://app?vid=3f84d55c-f7b3-443f-a8ba-1f83ba8291a2","ios":"levelo://app?vid=3f84d55c-f7b3-443f-a8ba-1f83ba8291a2"},"vehicle_type_id":"4","last_reported":1746540642,"current_range_meters":11600,"station_id":"st_cvj6sg6p6f1abm77japg","pricing_plan_id":"cebpf4jnsgd1na2vs0mg"},{"bike_id":"207d5896-6735-4d7c-8be1-4b22a1ac4c26","system_id":"levelo_inurba_marseille","lat":43.29375,"lon":5.37846,"is_reserved":false,"is_disabled":false,"rental_uris":{"android":"levelo://app?vid=207d5896-6735-4d7c-8be1-4b22a1ac4c26","ios":"levelo://app?vid=207d5896-6735-4d7c-8be1-4b22a1ac4c26"},"vehicle_type_id":"4","last_reported":1746540642,"current_range_meters":12000,"station_id":"ce4bgjh2rcd13ifvqbf0","pricing_plan_id":"cebpf4jnsgd1na2vs0mg"},{"bike_id":"e1b458c2-2217-412d-8eb4-b5eb18739b5a","system_id":"levelo_inurba_marseille","lat":43.30545,"lon":5.36542,"is_reserved":false,"is_disabled":false,"rental_uris":{"android":"levelo://app?vid=e1b458c2-2217-412d-8eb4-b5eb18739b5a","ios":"levelo://app?vid=e1b458c2-2217-412d-8eb4-b5eb18739b5a"},"vehicle_type_id":"4","last_reported":1746540642,"current_range_meters":12000,"station_id":"ce4bgs12rcd13ifvqcag","pricing_plan_id":"cebpf4jnsgd1na2vs0mg"},{"bike_id":"d51ec963-cc3d-4831-b179-7b8f80cfbfd5","system_id":"levelo_inurba_marseille","lat":43.31758,"lon":5.39018,"is_reserved":false,"is_disabled":false,"rental_uris":{"android":"levelo://app?vid=d51ec963-cc3d-4831-b179-7b8f80cfbfd5","ios":"levelo://app?vid=d51ec963-cc3d-4831-b179-7b8f80cfbfd5"},"vehicle_type_id":"4","last_reported":1746540642,"current_range_meters":12000,"station_id":"ce4bhqp2rcd13ifvqhng","pricing_plan_id":"cebpf4jnsgd1na2vs0mg"},{"bike_id":"5b4deaa3-ca16-4568-beb3-41d2cb364841","system_id":"levelo_inurba_marseille","lat":43.30533,"lon":5.36709,"is_reserved":false,"is_disabled":false,"rental_uris":{"android":"levelo://app?vid=5b4deaa3-ca16-4568-beb3-41d2cb364841","ios":"levelo://app?vid=5b4deaa3-ca16-4568-beb3-41d2cb364841"},"vehicle_type_id":"4","last_reported":1746540642,"current_range_meters":12400,"station_id":"ce4bgrp2rcd13ifvqc9g","pricing_plan_id":"cebpf4jnsgd1na2vs0mg"},{"bike_id":"fc3c9af2-118a-4372-be75-382ce87a9c3b","system_id":"levelo_inurba_marseille","lat":43.28024,"lon":5.36942,"is_reserved":false,"is_disabled":false,"rental_uris":{"android":"levelo://app?vid=fc3c9af2-118a-4372-be75-382ce87a9c3b","ios":"levelo://app?vid=fc3c9af2-118a-4372-be75-382ce87a9c3b"},"vehicle_type_id":"4","last_reported":1746540642,"current_range_meters":12400,"station_id":"ce4bha12rcd13ifvqef0","pricing_plan_id":"cebpf4jnsgd1na2vs0mg"},{"bike_id":"701841e0-810b-49d4-9f53-514308839156","system_id":"levelo_inurba_marseille","lat":43.26553,"lon":5.37281,"is_reserved":false,"is_disabled":false,"rental_uris":{"android":"levelo://app?vid=701841e0-810b-49d4-9f53-514308839156","ios":"levelo://app?vid=701841e0-810b-49d4-9f53-514308839156"},"vehicle_type_id":"4","last_reported":1746540642,"current_range_meters":12400,"station_id":"ce4bhg12rcd13ifvqf70","pricing_plan_id":"cebpf4jnsgd1na2vs0mg"},{"bike_id":"3675d9e1-9d4c-40bf-bbff-1edab32f6f69","system_id":"levelo_inurba_marseille","lat":43.30525,"lon":5.3653,"is_reserved":false,"is_disabled":false,"rental_uris":{"android":"levelo://app?vid=3675d9e1-9d4c-40bf-bbff-1edab32f6f69","ios":"levelo://app?vid=3675d9e1-9d4c-40bf-bbff-1edab32f6f69"},"vehicle_type_id":"4","last_reported":1746540642,"current_range_meters":12800,"station_id":"ce4bgs12rcd13ifvqcag","pricing_plan_id":"cebpf4jnsgd1na2vs0mg"},{"bike_id":"aedcbb51-597b-4b5f-9450-9b2cad6ac2c5","system_id":"levelo_inurba_marseille","lat":43.28618,"lon":5.35101,"is_reserved":false,"is_disabled":false,"rental_uris":{"android":"levelo://app?vid=aedcbb51-597b-4b5f-9450-9b2cad6ac2c5","ios":"levelo://app?vid=aedcbb51-597b-4b5f-9450-9b2cad6ac2c5"},"vehicle_type_id":"4","last_reported":1746540642,"current_range_meters":12800,"station_id":"ce4bhch2rcd13ifvqeug","pricing_plan_id":"cebpf4jnsgd1na2vs0mg"},{"bike_id":"97b4366c-7219-4a1a-a4fd-94a310043c89","system_id":"levelo_inurba_marseille","lat":43.25005,"lon":5.38924,"is_reserved":false,"is_disabled":false,"rental_uris":{"android":"levelo://app?vid=97b4366c-7219-4a1a-a4fd-94a310043c89","ios":"levelo://app?vid=97b4366c-7219-4a1a-a4fd-94a310043c89"},"vehicle_type_id":"4","last_reported":1746540642,"current_range_meters":12800,"station_id":"ce4bhgp2rcd13ifvqfd0","pricing_plan_id":"cebpf4jnsgd1na2vs0mg"},{"bike_id":"9d7ed5a9-c2da-4620-bb60-7c871dcf83b4","system_id":"levelo_inurba_marseille","lat":43.211922,"lon":5.350716,"is_reserved":false,"is_disabled":false,"rental_uris":{"android":"levelo://app?vid=9d7ed5a9-c2da-4620-bb60-7c871dcf83b4","ios":"levelo://app?vid=9d7ed5a9-c2da-4620-bb60-7c871dcf83b4"},"vehicle_type_id":"4","last_reported":1746540642,"current_range_meters":12800,"station_id":"ce4bhu92rcd13ifvqi70","pricing_plan_id":"cebpf4jnsgd1na2vs0mg"},{"bike_id":"583cbb13-c145-4efe-a6f1-2cbe82bb0914","system_id":"levelo_inurba_marseille","lat":43.30706,"lon":5.37288,"is_reserved":false,"is_disabled":false,"rental_uris":{"android":"levelo://app?vid=583cbb13-c145-4efe-a6f1-2cbe82bb0914","ios":"levelo://app?vid=583cbb13-c145-4efe-a6f1-2cbe82bb0914"},"vehicle_type_id":"4","last_reported":1746540642,"current_range_meters":13600,"station_id":"","pricing_plan_id":"cebpf4jnsgd1na2vs0mg"},{"bike_id":"231c0ebf-823d-4804-ab28-0754af9a2531","system_id":"levelo_inurba_marseille","lat":43.29048,"lon":5.3996,"is_reserved":false,"is_disabled":false,"rental_uris":{"android":"levelo://app?vid=231c0ebf-823d-4804-ab28-0754af9a2531","ios":"levelo://app?vid=231c0ebf-823d-4804-ab28-0754af9a2531"},"vehicle_type_id":"4","last_reported":1746540642,"current_range_meters":13600,"station_id":"ce4bh392rcd13ifvqdm0","pricing_plan_id":"cebpf4jnsgd1na2vs0mg"},{"bike_id":"d665b931-805d-4172-822c-1be6af513662","system_id":"levelo_inurba_marseille","lat":43.24391,"lon":5.37062,"is_reserved":false,"is_disabled":false,"rental_uris":{"android":"levelo://app?vid=d665b931-805d-4172-822c-1be6af513662","ios":"levelo://app?vid=d665b931-805d-4172-822c-1be6af513662"},"vehicle_type_id":"4","last_reported":1746540642,"current_range_meters":13600,"station_id":"ce4bhhh2rcd13ifvqfk0","pricing_plan_id":"cebpf4jnsgd1na2vs0mg"},{"bike_id":"fe69aa06-a399-4878-8ffb-10ae7ba7bd81","system_id":"levelo_inurba_marseille","lat":43.27061,"lon":5.40258,"is_reserved":false,"is_disabled":false,"rental_uris":{"android":"levelo://app?vid=fe69aa06-a399-4878-8ffb-10ae7ba7bd81","ios":"levelo://app?vid=fe69aa06-a399-4878-8ffb-10ae7ba7bd81"},"vehicle_type_id":"4","last_reported":1746540642,"current_range_meters":13600,"station_id":"ce4bhk92rcd13ifvqgc0","pricing_plan_id":"cebpf4jnsgd1na2vs0mg"},{"bike_id":"dfcb56d8-81c9-4a03-b57b-f9396ebaf54f","system_id":"levelo_inurba_marseille","lat":43.30537,"lon":5.36544,"is_reserved":false,"is_disabled":false,"rental_uris":{"android":"levelo://app?vid=dfcb56d8-81c9-4a03-b57b-f9396ebaf54f","ios":"levelo://app?vid=dfcb56d8-81c9-4a03-b57b-f9396ebaf54f"},"vehicle_type_id":"4","last_reported":1746540642,"current_range_meters":14000,"station_id":"ce4bgs12rcd13ifvqcag","pricing_plan_id":"cebpf4jnsgd1na2vs0mg"},{"bike_id":"0cb308e3-10a7-43b5-8dc6-c5b438672fc9","system_id":"levelo_inurba_marseille","lat":43.240716,"lon":5.377532,"is_reserved":false,"is_disabled":false,"rental_uris":{"android":"levelo://app?vid=0cb308e3-10a7-43b5-8dc6-c5b438672fc9","ios":"levelo://app?vid=0cb308e3-10a7-43b5-8dc6-c5b438672fc9"},"vehicle_type_id":"4","last_reported":1746540642,"current_range_meters":14400,"station_id":"ce4bhnp2rcd13ifvqgvg","pricing_plan_id":"cebpf4jnsgd1na2vs0mg"},{"bike_id":"961e477c-afaf-4034-99dd-403eb1597523","system_id":"levelo_inurba_marseille","lat":43.31719,"lon":5.42387,"is_reserved":false,"is_disabled":false,"rental_uris":{"android":"levelo://app?vid=961e477c-afaf-4034-99dd-403eb1597523","ios":"levelo://app?vid=961e477c-afaf-4034-99dd-403eb1597523"},"vehicle_type_id":"4","last_reported":1746540642,"current_range_meters":14400,"station_id":"ce4bhp92rcd13ifvqhbg","pricing_plan_id":"cebpf4jnsgd1na2vs0mg"},{"bike_id":"ec803bb0-5fa7-4b62-8e29-97916bff57f8","system_id":"levelo_inurba_marseille","lat":43.299194,"lon":5.374709,"is_reserved":false,"is_disabled":false,"rental_uris":{"android":"levelo://app?vid=ec803bb0-5fa7-4b62-8e29-97916bff57f8","ios":"levelo://app?vid=ec803bb0-5fa7-4b62-8e29-97916bff57f8"},"vehicle_type_id":"4","last_reported":1746540642,"current_range_meters":14800,"station_id":"ce4bgjh2rcd13ifvqbg0","pricing_plan_id":"cebpf4jnsgd1na2vs0mg"},{"bike_id":"ebc63594-69c4-46d0-9190-c6246fcf9691","system_id":"levelo_inurba_marseille","lat":43.30251,"lon":5.40058,"is_reserved":false,"is_disabled":false,"rental_uris":{"android":"levelo://app?vid=ebc63594-69c4-46d0-9190-c6246fcf9691","ios":"levelo://app?vid=ebc63594-69c4-46d0-9190-c6246fcf9691"},"vehicle_type_id":"4","last_reported":1746540642,"current_range_meters":14800,"station_id":"ce4bgvh2rcd13ifvqcs0","pricing_plan_id":"cebpf4jnsgd1na2vs0mg"},{"bike_id":"ae344944-0fac-4dca-a41f-3cce7db21a4c","system_id":"levelo_inurba_marseille","lat":43.28376,"lon":5.38619,"is_reserved":false,"is_disabled":false,"rental_uris":{"android":"levelo://app?vid=ae344944-0fac-4dca-a41f-3cce7db21a4c","ios":"levelo://app?vid=ae344944-0fac-4dca-a41f-3cce7db21a4c"},"vehicle_type_id":"4","last_reported":1746540642,"current_range_meters":14800,"station_id":"ce4bh492rcd13ifvqdvg","pricing_plan_id":"cebpf4jnsgd1na2vs0mg"},{"bike_id":"5771a026-fcf6-4597-8d98-a6824390e557","system_id":"levelo_inurba_marseille","lat":43.27051,"lon":5.40258,"is_reserved":false,"is_disabled":false,"rental_uris":{"android":"levelo://app?vid=5771a026-fcf6-4597-8d98-a6824390e557","ios":"levelo://app?vid=5771a026-fcf6-4597-8d98-a6824390e557"},"vehicle_type_id":"4","last_reported":1746540642,"current_range_meters":14800,"station_id":"ce4bhk92rcd13ifvqgc0","pricing_plan_id":"cebpf4jnsgd1na2vs0mg"},{"bike_id":"a2146c79-b041-459d-8764-f827240286a9","system_id":"levelo_inurba_marseille","lat":43.24181,"lon":5.39731,"is_reserved":false,"is_disabled":false,"rental_uris":{"android":"levelo://app?vid=a2146c79-b041-459d-8764-f827240286a9","ios":"levelo://app?vid=a2146c79-b041-459d-8764-f827240286a9"},"vehicle_type_id":"4","last_reported":1746540642,"current_range_meters":14800,"station_id":"ce4bhn12rcd13ifvqgpg","pricing_plan_id":"cebpf4jnsgd1na2vs0mg"},{"bike_id":"299d3321-bb95-4b06-aa4e-c49e33e80db1","system_id":"levelo_inurba_marseille","lat":43.32283,"lon":5.38249,"is_reserved":false,"is_disabled":false,"rental_uris":{"android":"levelo://app?vid=299d3321-bb95-4b06-aa4e-c49e33e80db1","ios":"levelo://app?vid=299d3321-bb95-4b06-aa4e-c49e33e80db1"},"vehicle_type_id":"4","last_reported":1746540642,"current_range_meters":14800,"station_id":"ce4bhr12rcd13ifvqhqg","pricing_plan_id":"cebpf4jnsgd1na2vs0mg"},{"bike_id":"b4bac287-3615-423a-bca2-a11fb80cb066","system_id":"levelo_inurba_marseille","lat":43.230538,"lon":5.354865,"is_reserved":false,"is_disabled":false,"rental_uris":{"android":"levelo://app?vid=b4bac287-3615-423a-bca2-a11fb80cb066","ios":"levelo://app?vid=b4bac287-3615-423a-bca2-a11fb80cb066"},"vehicle_type_id":"4","last_reported":1746540642,"current_range_meters":14800,"station_id":"cpo3342slgdg3j2ifvpg","pricing_plan_id":"cebpf4jnsgd1na2vs0mg"},{"bike_id":"a19353f3-623e-4974-a95e-a8807a59515a","system_id":"levelo_inurba_marseille","lat":43.21193,"lon":5.3507,"is_reserved":false,"is_disabled":false,"rental_uris":{"android":"levelo://app?vid=a19353f3-623e-4974-a95e-a8807a59515a","ios":"levelo://app?vid=a19353f3-623e-4974-a95e-a8807a59515a"},"vehicle_type_id":"4","last_reported":1746540642,"current_range_meters":14800,"station_id":"st_cvj6sg6p6f1abm77japg","pricing_plan_id":"cebpf4jnsgd1na2vs0mg"},{"bike_id":"1900e395-19ba-404e-aa6a-262b7656599d","system_id":"levelo_inurba_marseille","lat":43.2888,"lon":5.43707,"is_reserved":false,"is_disabled":false,"rental_uris":{"android":"levelo://app?vid=1900e395-19ba-404e-aa6a-262b7656599d","ios":"levelo://app?vid=1900e395-19ba-404e-aa6a-262b7656599d"},"vehicle_type_id":"4","last_reported":1746540642,"current_range_meters":15200,"station_id":"","pricing_plan_id":"cebpf4jnsgd1na2vs0mg"},{"bike_id":"9a932ebb-6659-43f2-a641-39564785cb6a","system_id":"levelo_inurba_marseille","lat":43.29642,"lon":5.37164,"is_reserved":false,"is_disabled":false,"rental_uris":{"android":"levelo://app?vid=9a932ebb-6659-43f2-a641-39564785cb6a","ios":"levelo://app?vid=9a932ebb-6659-43f2-a641-39564785cb6a"},"vehicle_type_id":"4","last_reported":1746540642,"current_range_meters":15200,"station_id":"ce4bgnh2rcd13ifvqc0g","pricing_plan_id":"cebpf4jnsgd1na2vs0mg"},{"bike_id":"ca06b44c-773f-4744-8cd4-f6dbe82f0ded","system_id":"levelo_inurba_marseille","lat":43.29268,"lon":5.38453,"is_reserved":false,"is_disabled":false,"rental_uris":{"android":"levelo://app?vid=ca06b44c-773f-4744-8cd4-f6dbe82f0ded","ios":"levelo://app?vid=ca06b44c-773f-4744-8cd4-f6dbe82f0ded"},"vehicle_type_id":"4","last_reported":1746540642,"current_range_meters":15200,"station_id":"ce4bh692rcd13ifvqea0","pricing_plan_id":"cebpf4jnsgd1na2vs0mg"},{"bike_id":"03bb5049-51e5-461e-8353-3cc13edfbfb8","system_id":"levelo_inurba_marseille","lat":43.239604,"lon":5.366231,"is_reserved":false,"is_disabled":false,"rental_uris":{"android":"levelo://app?vid=03bb5049-51e5-461e-8353-3cc13edfbfb8","ios":"levelo://app?vid=03bb5049-51e5-461e-8353-3cc13edfbfb8"},"vehicle_type_id":"4","last_reported":1746540642,"current_range_meters":15200,"station_id":"ce4bhi12rcd13ifvqfp0","pricing_plan_id":"cebpf4jnsgd1na2vs0mg"},{"bike_id":"645d7b0f-9b4d-498f-af9a-e201bc57083c","system_id":"levelo_inurba_marseille","lat":43.26921,"lon":5.40309,"is_reserved":false,"is_disabled":false,"rental_uris":{"android":"levelo://app?vid=645d7b0f-9b4d-498f-af9a-e201bc57083c","ios":"levelo://app?vid=645d7b0f-9b4d-498f-af9a-e201bc57083c"},"vehicle_type_id":"4","last_reported":1746540642,"current_range_meters":15200,"station_id":"cjm6bp8fraef2m0cb0m0","pricing_plan_id":"cebpf4jnsgd1na2vs0mg"},{"bike_id":"741922f7-49ff-4751-a228-5a73f2c8c24d","system_id":"levelo_inurba_marseille","lat":43.241696,"lon":5.363999,"is_reserved":false,"is_disabled":false,"rental_uris":{"android":"levelo://app?vid=741922f7-49ff-4751-a228-5a73f2c8c24d","ios":"levelo://app?vid=741922f7-49ff-4751-a228-5a73f2c8c24d"},"vehicle_type_id":"4","last_reported":1746540642,"current_range_meters":15200,"station_id":"cpo36qri1sfpv3e86is0","pricing_plan_id":"cebpf4jnsgd1na2vs0mg"},{"bike_id":"c65b64f5-a38f-4b33-a48f-6bb6c6b32a53","system_id":"levelo_inurba_marseille","lat":43.21191,"lon":5.35071,"is_reserved":false,"is_disabled":false,"rental_uris":{"android":"levelo://app?vid=c65b64f5-a38f-4b33-a48f-6bb6c6b32a53","ios":"levelo://app?vid=c65b64f5-a38f-4b33-a48f-6bb6c6b32a53"},"vehicle_type_id":"4","last_reported":1746540642,"current_range_meters":15200,"station_id":"st_cvj6sg6p6f1abm77japg","pricing_plan_id":"cebpf4jnsgd1na2vs0mg"},{"bike_id":"344b4e84-34a9-47f5-8633-d02afa5bd421","system_id":"levelo_inurba_marseille","lat":43.28274,"lon":5.35059,"is_reserved":false,"is_disabled":false,"rental_uris":{"android":"levelo://app?vid=344b4e84-34a9-47f5-8633-d02afa5bd421","ios":"levelo://app?vid=344b4e84-34a9-47f5-8633-d02afa5bd421"},"vehicle_type_id":"4","last_reported":1746540642,"current_range_meters":16000,"station_id":"ce4bhbp2rcd13ifvqerg","pricing_plan_id":"cebpf4jnsgd1na2vs0mg"},{"bike_id":"8628899e-76bf-4794-9773-2f5cc2bf87c0","system_id":"levelo_inurba_marseille","lat":43.27179,"lon":5.40992,"is_reserved":false,"is_disabled":false,"rental_uris":{"android":"levelo://app?vid=8628899e-76bf-4794-9773-2f5cc2bf87c0","ios":"levelo://app?vid=8628899e-76bf-4794-9773-2f5cc2bf87c0"},"vehicle_type_id":"4","last_reported":1746540642,"current_range_meters":16000,"station_id":"ce4bhl12rcd13ifvqgf0","pricing_plan_id":"cebpf4jnsgd1na2vs0mg"},{"bike_id":"3f05e618-0616-46ca-9a95-4bc5be73039f","system_id":"levelo_inurba_marseille","lat":43.26232,"lon":5.40456,"is_reserved":false,"is_disabled":false,"rental_uris":{"android":"levelo://app?vid=3f05e618-0616-46ca-9a95-4bc5be73039f","ios":"levelo://app?vid=3f05e618-0616-46ca-9a95-4bc5be73039f"},"vehicle_type_id":"4","last_reported":1746540642,"current_range_meters":16000,"station_id":"ce4bhmh2rcd13ifvqgmg","pricing_plan_id":"cebpf4jnsgd1na2vs0mg"},{"bike_id":"d2125939-b570-4b67-9cb5-f5a5bc562ba6","system_id":"levelo_inurba_marseille","lat":43.31711,"lon":5.43706,"is_reserved":false,"is_disabled":false,"rental_uris":{"android":"levelo://app?vid=d2125939-b570-4b67-9cb5-f5a5bc562ba6","ios":"levelo://app?vid=d2125939-b570-4b67-9cb5-f5a5bc562ba6"},"vehicle_type_id":"4","last_reported":1746540642,"current_range_meters":16000,"station_id":"ce4bhp92rcd13ifvqhcg","pricing_plan_id":"cebpf4jnsgd1na2vs0mg"},{"bike_id":"2714f713-c769-4f6a-ac44-441a635e9cba","system_id":"levelo_inurba_marseille","lat":43.21615,"lon":5.34265,"is_reserved":false,"is_disabled":false,"rental_uris":{"android":"levelo://app?vid=2714f713-c769-4f6a-ac44-441a635e9cba","ios":"levelo://app?vid=2714f713-c769-4f6a-ac44-441a635e9cba"},"vehicle_type_id":"4","last_reported":1746540642,"current_range_meters":16800,"station_id":"","pricing_plan_id":"cebpf4jnsgd1na2vs0mg"},{"bike_id":"40fd1688-c944-4cf2-9591-74e6a15d7419","system_id":"levelo_inurba_marseille","lat":43.31771,"lon":5.37446,"is_reserved":false,"is_disabled":false,"rental_uris":{"android":"levelo://app?vid=40fd1688-c944-4cf2-9591-74e6a15d7419","ios":"levelo://app?vid=40fd1688-c944-4cf2-9591-74e6a15d7419"},"vehicle_type_id":"4","last_reported":1746540642,"current_range_meters":17200,"station_id":"","pricing_plan_id":"cebpf4jnsgd1na2vs0mg"},{"bike_id":"e4898331-beef-4e49-8be5-c36e83d50b32","system_id":"levelo_inurba_marseille","lat":43.292371,"lon":5.364653,"is_reserved":false,"is_disabled":false,"rental_uris":{"android":"levelo://app?vid=e4898331-beef-4e49-8be5-c36e83d50b32","ios":"levelo://app?vid=e4898331-beef-4e49-8be5-c36e83d50b32"},"vehicle_type_id":"4","last_reported":1746540642,"current_range_meters":17200,"station_id":"ce4bhb12rcd13ifvqel0","pricing_plan_id":"cebpf4jnsgd1na2vs0mg"},{"bike_id":"5638fae2-2e1b-469b-8abd-91d7d799618a","system_id":"levelo_inurba_marseille","lat":43.32112,"lon":5.36772,"is_reserved":false,"is_disabled":false,"rental_uris":{"android":"levelo://app?vid=5638fae2-2e1b-469b-8abd-91d7d799618a","ios":"levelo://app?vid=5638fae2-2e1b-469b-8abd-91d7d799618a"},"vehicle_type_id":"4","last_reported":1746540642,"current_range_meters":17200,"station_id":"ce4bhrh2rcd13ifvqhug","pricing_plan_id":"cebpf4jnsgd1na2vs0mg"},{"bike_id":"86241c76-8857-476a-a582-92b8d84cc452","system_id":"levelo_inurba_marseille","lat":43.29964,"lon":5.37166,"is_reserved":false,"is_disabled":false,"rental_uris":{"android":"levelo://app?vid=86241c76-8857-476a-a582-92b8d84cc452","ios":"levelo://app?vid=86241c76-8857-476a-a582-92b8d84cc452"},"vehicle_type_id":"4","last_reported":1746540642,"current_range_meters":17600,"station_id":"ce4bgr92rcd13ifvqc7g","pricing_plan_id":"cebpf4jnsgd1na2vs0mg"},{"bike_id":"b1fc6a02-7faf-4628-b1ca-11f47a4fc257","system_id":"levelo_inurba_marseille","lat":43.27931,"lon":5.38695,"is_reserved":false,"is_disabled":false,"rental_uris":{"android":"levelo://app?vid=b1fc6a02-7faf-4628-b1ca-11f47a4fc257","ios":"levelo://app?vid=b1fc6a02-7faf-4628-b1ca-11f47a4fc257"},"vehicle_type_id":"4","last_reported":1746540642,"current_range_meters":17600,"station_id":"ce4bhg12rcd13ifvqf80","pricing_plan_id":"cebpf4jnsgd1na2vs0mg"},{"bike_id":"a9ec5aaf-0ede-48ec-99e6-42fc8f897f8e","system_id":"levelo_inurba_marseille","lat":43.27209,"lon":5.39181,"is_reserved":false,"is_disabled":false,"rental_uris":{"android":"levelo://app?vid=a9ec5aaf-0ede-48ec-99e6-42fc8f897f8e","ios":"levelo://app?vid=a9ec5aaf-0ede-48ec-99e6-42fc8f897f8e"},"vehicle_type_id":"4","last_reported":1746540642,"current_range_meters":17600,"station_id":"ce4bhhp2rcd13ifvqfm0","pricing_plan_id":"cebpf4jnsgd1na2vs0mg"},{"bike_id":"d6d43850-c392-4e05-bd8e-d9f637332061","system_id":"levelo_inurba_marseille","lat":43.27953,"lon":5.41036,"is_reserved":false,"is_disabled":false,"rental_uris":{"android":"levelo://app?vid=d6d43850-c392-4e05-bd8e-d9f637332061","ios":"levelo://app?vid=d6d43850-c392-4e05-bd8e-d9f637332061"},"vehicle_type_id":"4","last_reported":1746540642,"current_range_meters":17600,"station_id":"ce4bhnp2rcd13ifvqh0g","pricing_plan_id":"cebpf4jnsgd1na2vs0mg"},{"bike_id":"aae78705-7aae-48e9-8c18-bc4726a7f8d8","system_id":"levelo_inurba_marseille","lat":43.32112,"lon":5.36792,"is_reserved":false,"is_disabled":false,"rental_uris":{"android":"levelo://app?vid=aae78705-7aae-48e9-8c18-bc4726a7f8d8","ios":"levelo://app?vid=aae78705-7aae-48e9-8c18-bc4726a7f8d8"},"vehicle_type_id":"4","last_reported":1746540642,"current_range_meters":17600,"station_id":"ce4bhrh2rcd13ifvqhug","pricing_plan_id":"cebpf4jnsgd1na2vs0mg"},{"bike_id":"ac700e2e-c129-4f82-a3c3-f628077933a6","system_id":"levelo_inurba_marseille","lat":43.21241,"lon":5.35022,"is_reserved":false,"is_disabled":false,"rental_uris":{"android":"levelo://app?vid=ac700e2e-c129-4f82-a3c3-f628077933a6","ios":"levelo://app?vid=ac700e2e-c129-4f82-a3c3-f628077933a6"},"vehicle_type_id":"4","last_reported":1746540642,"current_range_meters":18000,"station_id":"","pricing_plan_id":"cebpf4jnsgd1na2vs0mg"},{"bike_id":"482d53da-f193-4dce-8b45-b787b4aba6c2","system_id":"levelo_inurba_marseille","lat":43.25004,"lon":5.38919,"is_reserved":false,"is_disabled":false,"rental_uris":{"android":"levelo://app?vid=482d53da-f193-4dce-8b45-b787b4aba6c2","ios":"levelo://app?vid=482d53da-f193-4dce-8b45-b787b4aba6c2"},"vehicle_type_id":"4","last_reported":1746540642,"current_range_meters":18000,"station_id":"ce4bhgp2rcd13ifvqfd0","pricing_plan_id":"cebpf4jnsgd1na2vs0mg"},{"bike_id":"02c3f926-1654-43a5-bdd5-0ab5d6602055","system_id":"levelo_inurba_marseille","lat":43.28266,"lon":5.35059,"is_reserved":false,"is_disabled":false,"rental_uris":{"android":"levelo://app?vid=02c3f926-1654-43a5-bdd5-0ab5d6602055","ios":"levelo://app?vid=02c3f926-1654-43a5-bdd5-0ab5d6602055"},"vehicle_type_id":"4","last_reported":1746540642,"current_range_meters":18800,"station_id":"ce4bhbp2rcd13ifvqerg","pricing_plan_id":"cebpf4jnsgd1na2vs0mg"},{"bike_id":"0e87f288-e8c8-42f7-9b45-5d07827eac14","system_id":"levelo_inurba_marseille","lat":43.32344,"lon":5.36747,"is_reserved":false,"is_disabled":false,"rental_uris":{"android":"levelo://app?vid=0e87f288-e8c8-42f7-9b45-5d07827eac14","ios":"levelo://app?vid=0e87f288-e8c8-42f7-9b45-5d07827eac14"},"vehicle_type_id":"4","last_reported":1746540642,"current_range_meters":18800,"station_id":"ce4bhsh2rcd13ifvqi2g","pricing_plan_id":"cebpf4jnsgd1na2vs0mg"},{"bike_id":"4fa44a4d-c738-41bc-9022-213fbeae4065","system_id":"levelo_inurba_marseille","lat":43.23188,"lon":5.39991,"is_reserved":false,"is_disabled":false,"rental_uris":{"android":"levelo://app?vid=4fa44a4d-c738-41bc-9022-213fbeae4065","ios":"levelo://app?vid=4fa44a4d-c738-41bc-9022-213fbeae4065"},"vehicle_type_id":"4","last_reported":1746540642,"current_range_meters":19200,"station_id":"ce4bhn12rcd13ifvqgqg","pricing_plan_id":"cebpf4jnsgd1na2vs0mg"},{"bike_id":"5ef777be-1414-4a1e-b3f6-1d60751ad2b2","system_id":"levelo_inurba_marseille","lat":43.27808,"lon":5.40706,"is_reserved":false,"is_disabled":false,"rental_uris":{"android":"levelo://app?vid=5ef777be-1414-4a1e-b3f6-1d60751ad2b2","ios":"levelo://app?vid=5ef777be-1414-4a1e-b3f6-1d60751ad2b2"},"vehicle_type_id":"4","last_reported":1746540642,"current_range_meters":19200,"station_id":"ce4bhnh2rcd13ifvqgtg","pricing_plan_id":"cebpf4jnsgd1na2vs0mg"},{"bike_id":"a3ed077e-760f-4bb6-b7f5-6ec386df71d4","system_id":"levelo_inurba_marseille","lat":43.21182,"lon":5.35072,"is_reserved":false,"is_disabled":false,"rental_uris":{"android":"levelo://app?vid=a3ed077e-760f-4bb6-b7f5-6ec386df71d4","ios":"levelo://app?vid=a3ed077e-760f-4bb6-b7f5-6ec386df71d4"},"vehicle_type_id":"4","last_reported":1746540642,"current_range_meters":19200,"station_id":"st_cvj6sg6p6f1abm77japg","pricing_plan_id":"cebpf4jnsgd1na2vs0mg"},{"bike_id":"d311b20a-8cc0-4a8b-9a14-c41639eee7ac","system_id":"levelo_inurba_marseille","lat":43.323358,"lon":5.406268,"is_reserved":false,"is_disabled":false,"rental_uris":{"android":"levelo://app?vid=d311b20a-8cc0-4a8b-9a14-c41639eee7ac","ios":"levelo://app?vid=d311b20a-8cc0-4a8b-9a14-c41639eee7ac"},"vehicle_type_id":"4","last_reported":1746540642,"current_range_meters":19600,"station_id":"","pricing_plan_id":"cebpf4jnsgd1na2vs0mg"},{"bike_id":"73333526-a451-4277-8efa-cd1de84a7b24","system_id":"levelo_inurba_marseille","lat":43.28666,"lon":5.36355,"is_reserved":false,"is_disabled":false,"rental_uris":{"android":"levelo://app?vid=73333526-a451-4277-8efa-cd1de84a7b24","ios":"levelo://app?vid=73333526-a451-4277-8efa-cd1de84a7b24"},"vehicle_type_id":"4","last_reported":1746540642,"current_range_meters":19600,"station_id":"ce4bhah2rcd13ifvqej0","pricing_plan_id":"cebpf4jnsgd1na2vs0mg"},{"bike_id":"093bc92b-961f-454d-8133-dea8cd80ec3f","system_id":"levelo_inurba_marseille","lat":43.28437,"lon":5.39189,"is_reserved":false,"is_disabled":false,"rental_uris":{"android":"levelo://app?vid=093bc92b-961f-454d-8133-dea8cd80ec3f","ios":"levelo://app?vid=093bc92b-961f-454d-8133-dea8cd80ec3f"},"vehicle_type_id":"4","last_reported":1746540642,"current_range_meters":19600,"station_id":"ce4bhoh2rcd13ifvqh5g","pricing_plan_id":"cebpf4jnsgd1na2vs0mg"},{"bike_id":"cfa48441-2949-4753-a9d0-3172cb79d096","system_id":"levelo_inurba_marseille","lat":43.31236,"lon":5.37605,"is_reserved":false,"is_disabled":false,"rental_uris":{"android":"levelo://app?vid=cfa48441-2949-4753-a9d0-3172cb79d096","ios":"levelo://app?vid=cfa48441-2949-4753-a9d0-3172cb79d096"},"vehicle_type_id":"4","last_reported":1746540642,"current_range_meters":20000,"station_id":"","pricing_plan_id":"cebpf4jnsgd1na2vs0mg"},{"bike_id":"8151c317-13ba-4cc7-8c0b-0540d01f5fb1","system_id":"levelo_inurba_marseille","lat":43.31487,"lon":5.37307,"is_reserved":false,"is_disabled":false,"rental_uris":{"android":"levelo://app?vid=8151c317-13ba-4cc7-8c0b-0540d01f5fb1","ios":"levelo://app?vid=8151c317-13ba-4cc7-8c0b-0540d01f5fb1"},"vehicle_type_id":"4","last_reported":1746540642,"current_range_meters":20000,"station_id":"ce4bgt12rcd13ifvqcd0","pricing_plan_id":"cebpf4jnsgd1na2vs0mg"},{"bike_id":"7241216c-c95b-41a2-83d7-197ae0415ef7","system_id":"levelo_inurba_marseille","lat":43.24389,"lon":5.37065,"is_reserved":false,"is_disabled":false,"rental_uris":{"android":"levelo://app?vid=7241216c-c95b-41a2-83d7-197ae0415ef7","ios":"levelo://app?vid=7241216c-c95b-41a2-83d7-197ae0415ef7"},"vehicle_type_id":"4","last_reported":1746540642,"current_range_meters":20000,"station_id":"ce4bhhh2rcd13ifvqfk0","pricing_plan_id":"cebpf4jnsgd1na2vs0mg"},{"bike_id":"975de10f-a299-4fdf-ac6c-013ff6474508","system_id":"levelo_inurba_marseille","lat":43.25828,"lon":5.39432,"is_reserved":false,"is_disabled":false,"rental_uris":{"android":"levelo://app?vid=975de10f-a299-4fdf-ac6c-013ff6474508","ios":"levelo://app?vid=975de10f-a299-4fdf-ac6c-013ff6474508"},"vehicle_type_id":"4","last_reported":1746540642,"current_range_meters":20000,"station_id":"ce4bhip2rcd13ifvqft0","pricing_plan_id":"cebpf4jnsgd1na2vs0mg"},{"bike_id":"76a94a31-f8ed-46f8-9a52-926c5bd8402a","system_id":"levelo_inurba_marseille","lat":43.25119,"lon":5.40313,"is_reserved":false,"is_disabled":false,"rental_uris":{"android":"levelo://app?vid=76a94a31-f8ed-46f8-9a52-926c5bd8402a","ios":"levelo://app?vid=76a94a31-f8ed-46f8-9a52-926c5bd8402a"},"vehicle_type_id":"4","last_reported":1746540642,"current_range_meters":20000,"station_id":"ce4bhlh2rcd13ifvqgig","pricing_plan_id":"cebpf4jnsgd1na2vs0mg"},{"bike_id":"64800414-c228-42cc-b732-f65944c7bfa4","system_id":"levelo_inurba_marseille","lat":43.23186,"lon":5.3998,"is_reserved":false,"is_disabled":false,"rental_uris":{"android":"levelo://app?vid=64800414-c228-42cc-b732-f65944c7bfa4","ios":"levelo://app?vid=64800414-c228-42cc-b732-f65944c7bfa4"},"vehicle_type_id":"4","last_reported":1746540642,"current_range_meters":20000,"station_id":"ce4bhn12rcd13ifvqgqg","pricing_plan_id":"cebpf4jnsgd1na2vs0mg"},{"bike_id":"defa5bc3-5603-444a-9198-41bdf48231ad","system_id":"levelo_inurba_marseille","lat":43.26941,"lon":5.40249,"is_reserved":false,"is_disabled":false,"rental_uris":{"android":"levelo://app?vid=defa5bc3-5603-444a-9198-41bdf48231ad","ios":"levelo://app?vid=defa5bc3-5603-444a-9198-41bdf48231ad"},"vehicle_type_id":"4","last_reported":1746540642,"current_range_meters":20000,"station_id":"cjm6bp8fraef2m0cb0m0","pricing_plan_id":"cebpf4jnsgd1na2vs0mg"},{"bike_id":"24384f0e-408a-42ee-9dc0-46996d573e79","system_id":"levelo_inurba_marseille","lat":43.225125,"lon":5.348256,"is_reserved":false,"is_disabled":false,"rental_uris":{"android":"levelo://app?vid=24384f0e-408a-42ee-9dc0-46996d573e79","ios":"levelo://app?vid=24384f0e-408a-42ee-9dc0-46996d573e79"},"vehicle_type_id":"4","last_reported":1746540642,"current_range_meters":20400,"station_id":"","pricing_plan_id":"cebpf4jnsgd1na2vs0mg"},{"bike_id":"0d3a54d7-fa6d-4e00-b396-ef49656b5de7","system_id":"levelo_inurba_marseille","lat":43.21748,"lon":5.346017,"is_reserved":false,"is_disabled":false,"rental_uris":{"android":"levelo://app?vid=0d3a54d7-fa6d-4e00-b396-ef49656b5de7","ios":"levelo://app?vid=0d3a54d7-fa6d-4e00-b396-ef49656b5de7"},"vehicle_type_id":"4","last_reported":1746540642,"current_range_meters":20400,"station_id":"","pricing_plan_id":"cebpf4jnsgd1na2vs0mg"},{"bike_id":"6c304fa4-f8a4-4aef-b18c-e47aee83ef3b","system_id":"levelo_inurba_marseille","lat":43.29928,"lon":5.37491,"is_reserved":false,"is_disabled":false,"rental_uris":{"android":"levelo://app?vid=6c304fa4-f8a4-4aef-b18c-e47aee83ef3b","ios":"levelo://app?vid=6c304fa4-f8a4-4aef-b18c-e47aee83ef3b"},"vehicle_type_id":"4","last_reported":1746540642,"current_range_meters":20400,"station_id":"ce4bgjh2rcd13ifvqbg0","pricing_plan_id":"cebpf4jnsgd1na2vs0mg"},{"bike_id":"ec31982e-90ba-42c2-aafa-89c6ffb24435","system_id":"levelo_inurba_marseille","lat":43.26558,"lon":5.37282,"is_reserved":false,"is_disabled":false,"rental_uris":{"android":"levelo://app?vid=ec31982e-90ba-42c2-aafa-89c6ffb24435","ios":"levelo://app?vid=ec31982e-90ba-42c2-aafa-89c6ffb24435"},"vehicle_type_id":"4","last_reported":1746540642,"current_range_meters":20400,"station_id":"ce4bhg12rcd13ifvqf70","pricing_plan_id":"cebpf4jnsgd1na2vs0mg"},{"bike_id":"0bf098a9-b2ae-4ecb-a1bc-98e336dc7bbe","system_id":"levelo_inurba_marseille","lat":43.26194,"lon":5.37447,"is_reserved":false,"is_disabled":false,"rental_uris":{"android":"levelo://app?vid=0bf098a9-b2ae-4ecb-a1bc-98e336dc7bbe","ios":"levelo://app?vid=0bf098a9-b2ae-4ecb-a1bc-98e336dc7bbe"},"vehicle_type_id":"4","last_reported":1746540642,"current_range_meters":20400,"station_id":"ce4bhgp2rcd13ifvqfc0","pricing_plan_id":"cebpf4jnsgd1na2vs0mg"},{"bike_id":"8cc36731-ed2d-4099-ab3b-f284def3c98a","system_id":"levelo_inurba_marseille","lat":43.2511,"lon":5.4032,"is_reserved":false,"is_disabled":false,"rental_uris":{"android":"levelo://app?vid=8cc36731-ed2d-4099-ab3b-f284def3c98a","ios":"levelo://app?vid=8cc36731-ed2d-4099-ab3b-f284def3c98a"},"vehicle_type_id":"4","last_reported":1746540642,"current_range_meters":20400,"station_id":"ce4bhlh2rcd13ifvqgig","pricing_plan_id":"cebpf4jnsgd1na2vs0mg"},{"bike_id":"2f41933e-5b81-4767-a682-59c6ab616448","system_id":"levelo_inurba_marseille","lat":43.31758,"lon":5.39019,"is_reserved":false,"is_disabled":false,"rental_uris":{"android":"levelo://app?vid=2f41933e-5b81-4767-a682-59c6ab616448","ios":"levelo://app?vid=2f41933e-5b81-4767-a682-59c6ab616448"},"vehicle_type_id":"4","last_reported":1746540642,"current_range_meters":20400,"station_id":"ce4bhqp2rcd13ifvqhng","pricing_plan_id":"cebpf4jnsgd1na2vs0mg"},{"bike_id":"be63e609-fa40-4204-a197-82f7be0f1e61","system_id":"levelo_inurba_marseille","lat":43.29369,"lon":5.37845,"is_reserved":false,"is_disabled":false,"rental_uris":{"android":"levelo://app?vid=be63e609-fa40-4204-a197-82f7be0f1e61","ios":"levelo://app?vid=be63e609-fa40-4204-a197-82f7be0f1e61"},"vehicle_type_id":"4","last_reported":1746540642,"current_range_meters":20800,"station_id":"ce4bgjh2rcd13ifvqbf0","pricing_plan_id":"cebpf4jnsgd1na2vs0mg"},{"bike_id":"0b0a08da-805b-44ca-9c6d-677bbea2a680","system_id":"levelo_inurba_marseille","lat":43.2893,"lon":5.3839,"is_reserved":false,"is_disabled":false,"rental_uris":{"android":"levelo://app?vid=0b0a08da-805b-44ca-9c6d-677bbea2a680","ios":"levelo://app?vid=0b0a08da-805b-44ca-9c6d-677bbea2a680"},"vehicle_type_id":"4","last_reported":1746540642,"current_range_meters":20800,"station_id":"ce4bh612rcd13ifvqe6g","pricing_plan_id":"cebpf4jnsgd1na2vs0mg"},{"bike_id":"65ecf2d8-74e5-4f08-b858-38bb7505d054","system_id":"levelo_inurba_marseille","lat":43.290051,"lon":5.356113,"is_reserved":false,"is_disabled":false,"rental_uris":{"android":"levelo://app?vid=65ecf2d8-74e5-4f08-b858-38bb7505d054","ios":"levelo://app?vid=65ecf2d8-74e5-4f08-b858-38bb7505d054"},"vehicle_type_id":"4","last_reported":1746540642,"current_range_meters":20800,"station_id":"ce4bhb92rcd13ifvqen0","pricing_plan_id":"cebpf4jnsgd1na2vs0mg"},{"bike_id":"81dd1c4b-6a3b-4570-b1e2-1c9b93ab7410","system_id":"levelo_inurba_marseille","lat":43.22503,"lon":5.34779,"is_reserved":false,"is_disabled":false,"rental_uris":{"android":"levelo://app?vid=81dd1c4b-6a3b-4570-b1e2-1c9b93ab7410","ios":"levelo://app?vid=81dd1c4b-6a3b-4570-b1e2-1c9b93ab7410"},"vehicle_type_id":"4","last_reported":1746540642,"current_range_meters":20800,"station_id":"st_cvj5dfep6f1abm77gieg","pricing_plan_id":"cebpf4jnsgd1na2vs0mg"},{"bike_id":"e780dcea-2277-44d8-9114-97957f80fd1b","system_id":"levelo_inurba_marseille","lat":43.28225,"lon":5.35089,"is_reserved":false,"is_disabled":false,"rental_uris":{"android":"levelo://app?vid=e780dcea-2277-44d8-9114-97957f80fd1b","ios":"levelo://app?vid=e780dcea-2277-44d8-9114-97957f80fd1b"},"vehicle_type_id":"4","last_reported":1746540642,"current_range_meters":21600,"station_id":"","pricing_plan_id":"cebpf4jnsgd1na2vs0mg"},{"bike_id":"aea4d281-abf2-4f08-b7e4-6635508dfb57","system_id":"levelo_inurba_marseille","lat":43.29298,"lon":5.37453,"is_reserved":false,"is_disabled":false,"rental_uris":{"android":"levelo://app?vid=aea4d281-abf2-4f08-b7e4-6635508dfb57","ios":"levelo://app?vid=aea4d281-abf2-4f08-b7e4-6635508dfb57"},"vehicle_type_id":"4","last_reported":1746540642,"current_range_meters":21600,"station_id":"ce4bgi12rcd13ifvqb70","pricing_plan_id":"cebpf4jnsgd1na2vs0mg"},{"bike_id":"0e2c6179-1cc2-46ec-96fa-7c9f59b32904","system_id":"levelo_inurba_marseille","lat":43.31359,"lon":5.38495,"is_reserved":false,"is_disabled":false,"rental_uris":{"android":"levelo://app?vid=0e2c6179-1cc2-46ec-96fa-7c9f59b32904","ios":"levelo://app?vid=0e2c6179-1cc2-46ec-96fa-7c9f59b32904"},"vehicle_type_id":"4","last_reported":1746540642,"current_range_meters":21600,"station_id":"ce4bgt92rcd13ifvqcf0","pricing_plan_id":"cebpf4jnsgd1na2vs0mg"},{"bike_id":"2952a110-3659-4e52-bfe6-92dc33b5975b","system_id":"levelo_inurba_marseille","lat":43.30374,"lon":5.42487,"is_reserved":false,"is_disabled":false,"rental_uris":{"android":"levelo://app?vid=2952a110-3659-4e52-bfe6-92dc33b5975b","ios":"levelo://app?vid=2952a110-3659-4e52-bfe6-92dc33b5975b"},"vehicle_type_id":"4","last_reported":1746540642,"current_range_meters":21600,"station_id":"ce4bhoh2rcd13ifvqh6g","pricing_plan_id":"cebpf4jnsgd1na2vs0mg"},{"bike_id":"fd6b5876-9637-4641-b6a9-ef917a25d7e7","system_id":"levelo_inurba_marseille","lat":43.29961,"lon":5.41316,"is_reserved":false,"is_disabled":false,"rental_uris":{"android":"levelo://app?vid=fd6b5876-9637-4641-b6a9-ef917a25d7e7","ios":"levelo://app?vid=fd6b5876-9637-4641-b6a9-ef917a25d7e7"},"vehicle_type_id":"4","last_reported":1746540642,"current_range_meters":21600,"station_id":"ce4bhp12rcd13ifvqh9g","pricing_plan_id":"cebpf4jnsgd1na2vs0mg"},{"bike_id":"f5bc5812-bd6c-44d4-ba5e-018e8bf36e52","system_id":"levelo_inurba_marseille","lat":43.3266,"lon":5.40994,"is_reserved":false,"is_disabled":false,"rental_uris":{"android":"levelo://app?vid=f5bc5812-bd6c-44d4-ba5e-018e8bf36e52","ios":"levelo://app?vid=f5bc5812-bd6c-44d4-ba5e-018e8bf36e52"},"vehicle_type_id":"4","last_reported":1746540642,"current_range_meters":21600,"station_id":"ce4bhpp2rcd13ifvqhgg","pricing_plan_id":"cebpf4jnsgd1na2vs0mg"},{"bike_id":"54031613-f3b9-44ce-8a5e-8f5ca47a1f61","system_id":"levelo_inurba_marseille","lat":43.30537,"lon":5.36538,"is_reserved":false,"is_disabled":false,"rental_uris":{"android":"levelo://app?vid=54031613-f3b9-44ce-8a5e-8f5ca47a1f61","ios":"levelo://app?vid=54031613-f3b9-44ce-8a5e-8f5ca47a1f61"},"vehicle_type_id":"4","last_reported":1746540642,"current_range_meters":22000,"station_id":"ce4bgs12rcd13ifvqcag","pricing_plan_id":"cebpf4jnsgd1na2vs0mg"},{"bike_id":"15f0f824-56f1-48b4-b5c1-1287f46c842d","system_id":"levelo_inurba_marseille","lat":43.32662,"lon":5.40994,"is_reserved":false,"is_disabled":false,"rental_uris":{"android":"levelo://app?vid=15f0f824-56f1-48b4-b5c1-1287f46c842d","ios":"levelo://app?vid=15f0f824-56f1-48b4-b5c1-1287f46c842d"},"vehicle_type_id":"4","last_reported":1746540642,"current_range_meters":22000,"station_id":"ce4bhpp2rcd13ifvqhgg","pricing_plan_id":"cebpf4jnsgd1na2vs0mg"},{"bike_id":"be109fb4-5bd2-488f-841d-49d561d994cf","system_id":"levelo_inurba_marseille","lat":43.28267,"lon":5.35068,"is_reserved":false,"is_disabled":false,"rental_uris":{"android":"levelo://app?vid=be109fb4-5bd2-488f-841d-49d561d994cf","ios":"levelo://app?vid=be109fb4-5bd2-488f-841d-49d561d994cf"},"vehicle_type_id":"4","last_reported":1746540642,"current_range_meters":22400,"station_id":"ce4bhbp2rcd13ifvqerg","pricing_plan_id":"cebpf4jnsgd1na2vs0mg"},{"bike_id":"1157cec8-17f8-4a5a-a659-a3ccbb2b94d0","system_id":"levelo_inurba_marseille","lat":43.25114,"lon":5.4032,"is_reserved":false,"is_disabled":false,"rental_uris":{"android":"levelo://app?vid=1157cec8-17f8-4a5a-a659-a3ccbb2b94d0","ios":"levelo://app?vid=1157cec8-17f8-4a5a-a659-a3ccbb2b94d0"},"vehicle_type_id":"4","last_reported":1746540642,"current_range_meters":22400,"station_id":"ce4bhlh2rcd13ifvqgig","pricing_plan_id":"cebpf4jnsgd1na2vs0mg"},{"bike_id":"4c92ddfb-82c6-411c-8a4c-50ec62be918b","system_id":"levelo_inurba_marseille","lat":43.24087,"lon":5.37752,"is_reserved":false,"is_disabled":false,"rental_uris":{"android":"levelo://app?vid=4c92ddfb-82c6-411c-8a4c-50ec62be918b","ios":"levelo://app?vid=4c92ddfb-82c6-411c-8a4c-50ec62be918b"},"vehicle_type_id":"4","last_reported":1746540642,"current_range_meters":22400,"station_id":"ce4bhnp2rcd13ifvqgvg","pricing_plan_id":"cebpf4jnsgd1na2vs0mg"},{"bike_id":"96175c6b-7676-4c4f-8523-d41df33ea507","system_id":"levelo_inurba_marseille","lat":43.24076,"lon":5.37739,"is_reserved":false,"is_disabled":false,"rental_uris":{"android":"levelo://app?vid=96175c6b-7676-4c4f-8523-d41df33ea507","ios":"levelo://app?vid=96175c6b-7676-4c4f-8523-d41df33ea507"},"vehicle_type_id":"4","last_reported":1746540642,"current_range_meters":22400,"station_id":"ce4bhnp2rcd13ifvqgvg","pricing_plan_id":"cebpf4jnsgd1na2vs0mg"},{"bike_id":"24cb5bd8-1a1f-4a28-9427-7490b45f8762","system_id":"levelo_inurba_marseille","lat":43.21199,"lon":5.35087,"is_reserved":false,"is_disabled":false,"rental_uris":{"android":"levelo://app?vid=24cb5bd8-1a1f-4a28-9427-7490b45f8762","ios":"levelo://app?vid=24cb5bd8-1a1f-4a28-9427-7490b45f8762"},"vehicle_type_id":"4","last_reported":1746540642,"current_range_meters":22400,"station_id":"st_cvj6sg6p6f1abm77japg","pricing_plan_id":"cebpf4jnsgd1na2vs0mg"},{"bike_id":"e59dd6bb-e8fa-41ff-a44f-a2122f342973","system_id":"levelo_inurba_marseille","lat":43.29814,"lon":5.4042,"is_reserved":false,"is_disabled":false,"rental_uris":{"android":"levelo://app?vid=e59dd6bb-e8fa-41ff-a44f-a2122f342973","ios":"levelo://app?vid=e59dd6bb-e8fa-41ff-a44f-a2122f342973"},"vehicle_type_id":"4","last_reported":1746540642,"current_range_meters":22800,"station_id":"ce4bh112rcd13ifvqd90","pricing_plan_id":"cebpf4jnsgd1na2vs0mg"},{"bike_id":"d5ab06e3-e77d-4b7f-a195-6a14c71353d9","system_id":"levelo_inurba_marseille","lat":43.26168,"lon":5.4046,"is_reserved":false,"is_disabled":false,"rental_uris":{"android":"levelo://app?vid=d5ab06e3-e77d-4b7f-a195-6a14c71353d9","ios":"levelo://app?vid=d5ab06e3-e77d-4b7f-a195-6a14c71353d9"},"vehicle_type_id":"4","last_reported":1746540642,"current_range_meters":22800,"station_id":"ce4bhmh2rcd13ifvqgmg","pricing_plan_id":"cebpf4jnsgd1na2vs0mg"},{"bike_id":"6f2f6b92-9c54-4464-86a7-2d7df482b80a","system_id":"levelo_inurba_marseille","lat":43.324737,"lon":5.36584,"is_reserved":false,"is_disabled":false,"rental_uris":{"android":"levelo://app?vid=6f2f6b92-9c54-4464-86a7-2d7df482b80a","ios":"levelo://app?vid=6f2f6b92-9c54-4464-86a7-2d7df482b80a"},"vehicle_type_id":"4","last_reported":1746540642,"current_range_meters":22800,"station_id":"ce4bhs12rcd13ifvqhvg","pricing_plan_id":"cebpf4jnsgd1na2vs0mg"},{"bike_id":"9164aace-04bb-49d9-9faa-3a795154ecb1","system_id":"levelo_inurba_marseille","lat":43.21187,"lon":5.35073,"is_reserved":false,"is_disabled":false,"rental_uris":{"android":"levelo://app?vid=9164aace-04bb-49d9-9faa-3a795154ecb1","ios":"levelo://app?vid=9164aace-04bb-49d9-9faa-3a795154ecb1"},"vehicle_type_id":"4","last_reported":1746540642,"current_range_meters":22800,"station_id":"st_cvj6sg6p6f1abm77japg","pricing_plan_id":"cebpf4jnsgd1na2vs0mg"},{"bike_id":"0df3111c-fd99-4e63-915e-e7763d46bb1b","system_id":"levelo_inurba_marseille","lat":43.28498,"lon":5.37068,"is_reserved":false,"is_disabled":false,"rental_uris":{"android":"levelo://app?vid=0df3111c-fd99-4e63-915e-e7763d46bb1b","ios":"levelo://app?vid=0df3111c-fd99-4e63-915e-e7763d46bb1b"},"vehicle_type_id":"4","last_reported":1746540642,"current_range_meters":23200,"station_id":"","pricing_plan_id":"cebpf4jnsgd1na2vs0mg"},{"bike_id":"f497c6a5-6004-40dc-93b0-257dac0e786b","system_id":"levelo_inurba_marseille","lat":43.240781,"lon":5.377567,"is_reserved":false,"is_disabled":false,"rental_uris":{"android":"levelo://app?vid=f497c6a5-6004-40dc-93b0-257dac0e786b","ios":"levelo://app?vid=f497c6a5-6004-40dc-93b0-257dac0e786b"},"vehicle_type_id":"4","last_reported":1746540642,"current_range_meters":23200,"station_id":"ce4bhnp2rcd13ifvqgvg","pricing_plan_id":"cebpf4jnsgd1na2vs0mg"},{"bike_id":"4a2d8d50-a55a-4f77-b4cd-0971c9a2edf4","system_id":"levelo_inurba_marseille","lat":43.2408,"lon":5.37756,"is_reserved":false,"is_disabled":false,"rental_uris":{"android":"levelo://app?vid=4a2d8d50-a55a-4f77-b4cd-0971c9a2edf4","ios":"levelo://app?vid=4a2d8d50-a55a-4f77-b4cd-0971c9a2edf4"},"vehicle_type_id":"4","last_reported":1746540642,"current_range_meters":23200,"station_id":"ce4bhnp2rcd13ifvqgvg","pricing_plan_id":"cebpf4jnsgd1na2vs0mg"},{"bike_id":"41c8690d-b500-4305-9f56-da85152564fb","system_id":"levelo_inurba_marseille","lat":43.27943,"lon":5.41052,"is_reserved":false,"is_disabled":false,"rental_uris":{"android":"levelo://app?vid=41c8690d-b500-4305-9f56-da85152564fb","ios":"levelo://app?vid=41c8690d-b500-4305-9f56-da85152564fb"},"vehicle_type_id":"4","last_reported":1746540642,"current_range_meters":23200,"station_id":"ce4bhnp2rcd13ifvqh0g","pricing_plan_id":"cebpf4jnsgd1na2vs0mg"},{"bike_id":"d59279ec-29b4-492e-a0e2-8ac6f14f9b13","system_id":"levelo_inurba_marseille","lat":43.24072,"lon":5.37761,"is_reserved":false,"is_disabled":false,"rental_uris":{"android":"levelo://app?vid=d59279ec-29b4-492e-a0e2-8ac6f14f9b13","ios":"levelo://app?vid=d59279ec-29b4-492e-a0e2-8ac6f14f9b13"},"vehicle_type_id":"4","last_reported":1746540642,"current_range_meters":24000,"station_id":"ce4bhnp2rcd13ifvqgvg","pricing_plan_id":"cebpf4jnsgd1na2vs0mg"},{"bike_id":"e4820203-c1cc-47e3-b31e-153e346eb62b","system_id":"levelo_inurba_marseille","lat":43.32105,"lon":5.36769,"is_reserved":false,"is_disabled":false,"rental_uris":{"android":"levelo://app?vid=e4820203-c1cc-47e3-b31e-153e346eb62b","ios":"levelo://app?vid=e4820203-c1cc-47e3-b31e-153e346eb62b"},"vehicle_type_id":"4","last_reported":1746540642,"current_range_meters":24000,"station_id":"ce4bhrh2rcd13ifvqhug","pricing_plan_id":"cebpf4jnsgd1na2vs0mg"},{"bike_id":"18644f67-72ce-4631-9d9d-aa6cb4af4f83","system_id":"levelo_inurba_marseille","lat":43.21188,"lon":5.35072,"is_reserved":false,"is_disabled":false,"rental_uris":{"android":"levelo://app?vid=18644f67-72ce-4631-9d9d-aa6cb4af4f83","ios":"levelo://app?vid=18644f67-72ce-4631-9d9d-aa6cb4af4f83"},"vehicle_type_id":"4","last_reported":1746540642,"current_range_meters":24000,"station_id":"st_cvj6sg6p6f1abm77japg","pricing_plan_id":"cebpf4jnsgd1na2vs0mg"},{"bike_id":"325238cb-c505-4f8d-9870-16abbb9de739","system_id":"levelo_inurba_marseille","lat":43.29715,"lon":5.36619,"is_reserved":false,"is_disabled":false,"rental_uris":{"android":"levelo://app?vid=325238cb-c505-4f8d-9870-16abbb9de739","ios":"levelo://app?vid=325238cb-c505-4f8d-9870-16abbb9de739"},"vehicle_type_id":"4","last_reported":1746540642,"current_range_meters":24400,"station_id":"ce4bgn12rcd13ifvqbt0","pricing_plan_id":"cebpf4jnsgd1na2vs0mg"},{"bike_id":"a82656cd-2b5a-45ed-a583-2ca62f1160be","system_id":"levelo_inurba_marseille","lat":43.30466,"lon":5.37897,"is_reserved":false,"is_disabled":false,"rental_uris":{"android":"levelo://app?vid=a82656cd-2b5a-45ed-a583-2ca62f1160be","ios":"levelo://app?vid=a82656cd-2b5a-45ed-a583-2ca62f1160be"},"vehicle_type_id":"4","last_reported":1746540642,"current_range_meters":24400,"station_id":"ce4bgup2rcd13ifvqcn0","pricing_plan_id":"cebpf4jnsgd1na2vs0mg"},{"bike_id":"032e54cf-f8eb-45e9-a2b5-3198defc852b","system_id":"levelo_inurba_marseille","lat":43.30317,"lon":5.40431,"is_reserved":false,"is_disabled":false,"rental_uris":{"android":"levelo://app?vid=032e54cf-f8eb-45e9-a2b5-3198defc852b","ios":"levelo://app?vid=032e54cf-f8eb-45e9-a2b5-3198defc852b"},"vehicle_type_id":"4","last_reported":1746540642,"current_range_meters":24400,"station_id":"ce4bh012rcd13ifvqd10","pricing_plan_id":"cebpf4jnsgd1na2vs0mg"},{"bike_id":"a52f6c7c-c24c-4818-b99f-34179f044545","system_id":"levelo_inurba_marseille","lat":43.25495,"lon":5.37648,"is_reserved":false,"is_disabled":false,"rental_uris":{"android":"levelo://app?vid=a52f6c7c-c24c-4818-b99f-34179f044545","ios":"levelo://app?vid=a52f6c7c-c24c-4818-b99f-34179f044545"},"vehicle_type_id":"4","last_reported":1746540642,"current_range_meters":24400,"station_id":"ce4bhh12rcd13ifvqff0","pricing_plan_id":"cebpf4jnsgd1na2vs0mg"},{"bike_id":"98154f32-a2a4-44c1-8b3b-8d3825fc3ba6","system_id":"levelo_inurba_marseille","lat":43.26196,"lon":5.40466,"is_reserved":false,"is_disabled":false,"rental_uris":{"android":"levelo://app?vid=98154f32-a2a4-44c1-8b3b-8d3825fc3ba6","ios":"levelo://app?vid=98154f32-a2a4-44c1-8b3b-8d3825fc3ba6"},"vehicle_type_id":"4","last_reported":1746540642,"current_range_meters":24400,"station_id":"ce4bhmh2rcd13ifvqgmg","pricing_plan_id":"cebpf4jnsgd1na2vs0mg"},{"bike_id":"eaf85864-1914-4922-9096-a942aa6e399f","system_id":"levelo_inurba_marseille","lat":43.279615,"lon":5.417063,"is_reserved":false,"is_disabled":false,"rental_uris":{"android":"levelo://app?vid=eaf85864-1914-4922-9096-a942aa6e399f","ios":"levelo://app?vid=eaf85864-1914-4922-9096-a942aa6e399f"},"vehicle_type_id":"4","last_reported":1746540642,"current_range_meters":24400,"station_id":"ce4bho12rcd13ifvqh1g","pricing_plan_id":"cebpf4jnsgd1na2vs0mg"},{"bike_id":"baa0990c-63b8-40f5-9c59-db7c8b182c0e","system_id":"levelo_inurba_marseille","lat":43.32106,"lon":5.36786,"is_reserved":false,"is_disabled":false,"rental_uris":{"android":"levelo://app?vid=baa0990c-63b8-40f5-9c59-db7c8b182c0e","ios":"levelo://app?vid=baa0990c-63b8-40f5-9c59-db7c8b182c0e"},"vehicle_type_id":"4","last_reported":1746540642,"current_range_meters":24400,"station_id":"ce4bhrh2rcd13ifvqhug","pricing_plan_id":"cebpf4jnsgd1na2vs0mg"},{"bike_id":"be14af02-7701-4605-b2d6-5fd0439029d8","system_id":"levelo_inurba_marseille","lat":43.2119,"lon":5.35081,"is_reserved":false,"is_disabled":false,"rental_uris":{"android":"levelo://app?vid=be14af02-7701-4605-b2d6-5fd0439029d8","ios":"levelo://app?vid=be14af02-7701-4605-b2d6-5fd0439029d8"},"vehicle_type_id":"4","last_reported":1746540642,"current_range_meters":24400,"station_id":"st_cvj6sg6p6f1abm77japg","pricing_plan_id":"cebpf4jnsgd1na2vs0mg"},{"bike_id":"b9f01e79-7f23-470a-9a82-b9b3aa87d00d","system_id":"levelo_inurba_marseille","lat":43.29542,"lon":5.37504,"is_reserved":false,"is_disabled":false,"rental_uris":{"android":"levelo://app?vid=b9f01e79-7f23-470a-9a82-b9b3aa87d00d","ios":"levelo://app?vid=b9f01e79-7f23-470a-9a82-b9b3aa87d00d"},"vehicle_type_id":"4","last_reported":1746540642,"current_range_meters":24800,"station_id":"ce4bgkp2rcd13ifvqbmg","pricing_plan_id":"cebpf4jnsgd1na2vs0mg"},{"bike_id":"fd3393d4-1dc2-40a4-bd77-a6bf9c85dadd","system_id":"levelo_inurba_marseille","lat":43.29605,"lon":5.38095,"is_reserved":false,"is_disabled":false,"rental_uris":{"android":"levelo://app?vid=fd3393d4-1dc2-40a4-bd77-a6bf9c85dadd","ios":"levelo://app?vid=fd3393d4-1dc2-40a4-bd77-a6bf9c85dadd"},"vehicle_type_id":"4","last_reported":1746540642,"current_range_meters":24800,"station_id":"ce4bgl12rcd13ifvqbo0","pricing_plan_id":"cebpf4jnsgd1na2vs0mg"},{"bike_id":"a4b464ac-8de5-49d3-86ab-c4917811e0dc","system_id":"levelo_inurba_marseille","lat":43.3136,"lon":5.36735,"is_reserved":false,"is_disabled":false,"rental_uris":{"android":"levelo://app?vid=a4b464ac-8de5-49d3-86ab-c4917811e0dc","ios":"levelo://app?vid=a4b464ac-8de5-49d3-86ab-c4917811e0dc"},"vehicle_type_id":"4","last_reported":1746540642,"current_range_meters":24800,"station_id":"ce4bgr92rcd13ifvqc6g","pricing_plan_id":"cebpf4jnsgd1na2vs0mg"},{"bike_id":"bb3e9d52-eac3-47eb-bb0a-d2895c84bd4d","system_id":"levelo_inurba_marseille","lat":43.29971,"lon":5.37162,"is_reserved":false,"is_disabled":false,"rental_uris":{"android":"levelo://app?vid=bb3e9d52-eac3-47eb-bb0a-d2895c84bd4d","ios":"levelo://app?vid=bb3e9d52-eac3-47eb-bb0a-d2895c84bd4d"},"vehicle_type_id":"4","last_reported":1746540642,"current_range_meters":24800,"station_id":"ce4bgr92rcd13ifvqc7g","pricing_plan_id":"cebpf4jnsgd1na2vs0mg"},{"bike_id":"604cc3a5-864a-42ea-aed5-d16081f0dead","system_id":"levelo_inurba_marseille","lat":43.29006,"lon":5.35608,"is_reserved":false,"is_disabled":false,"rental_uris":{"android":"levelo://app?vid=604cc3a5-864a-42ea-aed5-d16081f0dead","ios":"levelo://app?vid=604cc3a5-864a-42ea-aed5-d16081f0dead"},"vehicle_type_id":"4","last_reported":1746540642,"current_range_meters":24800,"station_id":"ce4bhb92rcd13ifvqen0","pricing_plan_id":"cebpf4jnsgd1na2vs0mg"},{"bike_id":"57a075ab-58f9-4336-b622-3fa123a6cf43","system_id":"levelo_inurba_marseille","lat":43.265507,"lon":5.373057,"is_reserved":false,"is_disabled":false,"rental_uris":{"android":"levelo://app?vid=57a075ab-58f9-4336-b622-3fa123a6cf43","ios":"levelo://app?vid=57a075ab-58f9-4336-b622-3fa123a6cf43"},"vehicle_type_id":"4","last_reported":1746540642,"current_range_meters":24800,"station_id":"ce4bhg12rcd13ifvqf70","pricing_plan_id":"cebpf4jnsgd1na2vs0mg"},{"bike_id":"126293b5-3dc0-408c-b313-22943a8f7f9c","system_id":"levelo_inurba_marseille","lat":43.28703,"lon":5.39983,"is_reserved":false,"is_disabled":false,"rental_uris":{"android":"levelo://app?vid=126293b5-3dc0-408c-b313-22943a8f7f9c","ios":"levelo://app?vid=126293b5-3dc0-408c-b313-22943a8f7f9c"},"vehicle_type_id":"4","last_reported":1746540642,"current_range_meters":24800,"station_id":"ce4bho92rcd13ifvqh3g","pricing_plan_id":"cebpf4jnsgd1na2vs0mg"},{"bike_id":"a9fac4a7-dbc6-453a-af84-cbf8e43c0473","system_id":"levelo_inurba_marseille","lat":43.33023,"lon":5.39035,"is_reserved":false,"is_disabled":false,"rental_uris":{"android":"levelo://app?vid=a9fac4a7-dbc6-453a-af84-cbf8e43c0473","ios":"levelo://app?vid=a9fac4a7-dbc6-453a-af84-cbf8e43c0473"},"vehicle_type_id":"4","last_reported":1746540642,"current_range_meters":24800,"station_id":"ce4bhr92rcd13ifvqhrg","pricing_plan_id":"cebpf4jnsgd1na2vs0mg"},{"bike_id":"9c18fdf7-2a13-46d4-8439-620ad393ba8e","system_id":"levelo_inurba_marseille","lat":43.29647,"lon":5.37145,"is_reserved":false,"is_disabled":false,"rental_uris":{"android":"levelo://app?vid=9c18fdf7-2a13-46d4-8439-620ad393ba8e","ios":"levelo://app?vid=9c18fdf7-2a13-46d4-8439-620ad393ba8e"},"vehicle_type_id":"4","last_reported":1746540642,"current_range_meters":25200,"station_id":"ce4bgnh2rcd13ifvqc0g","pricing_plan_id":"cebpf4jnsgd1na2vs0mg"},{"bike_id":"d4882ba5-cdd0-457d-bf01-aa39b2b3b1e7","system_id":"levelo_inurba_marseille","lat":43.28277,"lon":5.35074,"is_reserved":false,"is_disabled":false,"rental_uris":{"android":"levelo://app?vid=d4882ba5-cdd0-457d-bf01-aa39b2b3b1e7","ios":"levelo://app?vid=d4882ba5-cdd0-457d-bf01-aa39b2b3b1e7"},"vehicle_type_id":"4","last_reported":1746540642,"current_range_meters":25200,"station_id":"ce4bhbp2rcd13ifvqerg","pricing_plan_id":"cebpf4jnsgd1na2vs0mg"},{"bike_id":"98dd5fb4-6d80-40eb-b60b-d8792766f4f3","system_id":"levelo_inurba_marseille","lat":43.27969,"lon":5.38754,"is_reserved":false,"is_disabled":false,"rental_uris":{"android":"levelo://app?vid=98dd5fb4-6d80-40eb-b60b-d8792766f4f3","ios":"levelo://app?vid=98dd5fb4-6d80-40eb-b60b-d8792766f4f3"},"vehicle_type_id":"4","last_reported":1746540642,"current_range_meters":25200,"station_id":"ce4bhg12rcd13ifvqf80","pricing_plan_id":"cebpf4jnsgd1na2vs0mg"},{"bike_id":"4930ad72-decf-408e-a1b6-674ba3854b29","system_id":"levelo_inurba_marseille","lat":43.2679,"lon":5.39427,"is_reserved":false,"is_disabled":false,"rental_uris":{"android":"levelo://app?vid=4930ad72-decf-408e-a1b6-674ba3854b29","ios":"levelo://app?vid=4930ad72-decf-408e-a1b6-674ba3854b29"},"vehicle_type_id":"4","last_reported":1746540642,"current_range_meters":25200,"station_id":"ce4bhh12rcd13ifvqfg0","pricing_plan_id":"cebpf4jnsgd1na2vs0mg"},{"bike_id":"53926fcd-d73e-4c5c-bd77-4c490e283652","system_id":"levelo_inurba_marseille","lat":43.23963,"lon":5.36623,"is_reserved":false,"is_disabled":false,"rental_uris":{"android":"levelo://app?vid=53926fcd-d73e-4c5c-bd77-4c490e283652","ios":"levelo://app?vid=53926fcd-d73e-4c5c-bd77-4c490e283652"},"vehicle_type_id":"4","last_reported":1746540642,"current_range_meters":25200,"station_id":"ce4bhi12rcd13ifvqfp0","pricing_plan_id":"cebpf4jnsgd1na2vs0mg"},{"bike_id":"c057e067-9454-496f-a3c5-09af2a3d7b6a","system_id":"levelo_inurba_marseille","lat":43.25114,"lon":5.40317,"is_reserved":false,"is_disabled":false,"rental_uris":{"android":"levelo://app?vid=c057e067-9454-496f-a3c5-09af2a3d7b6a","ios":"levelo://app?vid=c057e067-9454-496f-a3c5-09af2a3d7b6a"},"vehicle_type_id":"4","last_reported":1746540642,"current_range_meters":25200,"station_id":"ce4bhlh2rcd13ifvqgig","pricing_plan_id":"cebpf4jnsgd1na2vs0mg"},{"bike_id":"9fca8dbd-c8c8-4a14-aead-3c9b04da40ae","system_id":"levelo_inurba_marseille","lat":43.24178,"lon":5.39733,"is_reserved":false,"is_disabled":false,"rental_uris":{"android":"levelo://app?vid=9fca8dbd-c8c8-4a14-aead-3c9b04da40ae","ios":"levelo://app?vid=9fca8dbd-c8c8-4a14-aead-3c9b04da40ae"},"vehicle_type_id":"4","last_reported":1746540642,"current_range_meters":25200,"station_id":"ce4bhn12rcd13ifvqgpg","pricing_plan_id":"cebpf4jnsgd1na2vs0mg"},{"bike_id":"1f333037-ddff-40f0-8c45-b8eeb93d8fa3","system_id":"levelo_inurba_marseille","lat":43.23061,"lon":5.35493,"is_reserved":false,"is_disabled":false,"rental_uris":{"android":"levelo://app?vid=1f333037-ddff-40f0-8c45-b8eeb93d8fa3","ios":"levelo://app?vid=1f333037-ddff-40f0-8c45-b8eeb93d8fa3"},"vehicle_type_id":"4","last_reported":1746540642,"current_range_meters":25200,"station_id":"cpo3342slgdg3j2ifvpg","pricing_plan_id":"cebpf4jnsgd1na2vs0mg"},