{"last_updated":1738847791,"ttl":60,"version":"2.2","data":{"bikes":[{"bike_id":"9b310c92-efeb-4765-8a96-172429f0f07e","system_id":"levelo_inurba_marseille","lat":43.28854,"lon":5.35848,"is_reserved":false,"is_disabled":false,"rental_uris":{"android":"levelo://app?vid=9b310c92-efeb-4765-8a96-172429f0f07e","ios":"levelo://app?vid=9b310c92-efeb-4765-8a96-172429f0f07e"},"vehicle_type_id":"4","last_reported":1738847792,"current_range_meters":30400,"station_id":"ce4bhb12rcd13ifvqem0","pricing_plan_id":"cebpf4jnsgd1na2vs0mg"},{"bike_id":"c88a5332-299f-4c55-b376-657578c07d3a","system_id":"levelo_inurba_marseille","lat":43.25822,"lon":5.39429,"is_reserved":false,"is_disabled":false,"rental_uris":{"android":"levelo://app?vid=c88a5332-299f-4c55-b376-657578c07d3a","ios":"levelo://app?vid=c88a5332-299f-4c55-b376-657578c07d3a"},"vehicle_type_id":"4","last_reported":1738847792,"current_range_meters":31200,"station_id":"ce4bhip2rcd13ifvqft0","pricing_plan_id":"cebpf4jnsgd1na2vs0mg"},{"bike_id":"26ba1934-c8ef-48a9-980c-d71ca1604721","system_id":"levelo_inurba_marseille","lat":43.24656,"lon":5.38927,"is_reserved":false,"is_disabled":false,"rental_uris":{"android":"levelo://app?vid=26ba1934-c8ef-48a9-980c-d71ca1604721","ios":"levelo://app?vid=26ba1934-c8ef-48a9-980c-d71ca1604721"},"vehicle_type_id":"4","last_reported":1738847792,"current_range_meters":38800,"station_id":"ce4bhg12rcd13ifvqf60","pricing_plan_id":"cebpf4jnsgd1na2vs0mg"},{"bike_id":"d1af5d3b-9e03-460f-a37f-2626a93f5d61","system_id":"levelo_inurba_marseille","lat":43.29633,"lon":5.37162,"is_reserved":false,"is_disabled":false,"rental_uris":{"android":"levelo://app?vid=d1af5d3b-9e03-460f-a37f-2626a93f5d61","ios":"levelo://app?vid=d1af5d3b-9e03-460f-a37f-2626a93f5d61"},"vehicle_type_id":"4","last_reported":1738847792,"current_range_meters":38800,"station_id":"ce4bgnh2rcd13ifvqc0g","pricing_plan_id":"cebpf4jnsgd1na2vs0mg"},{"bike_id":"2f1cf415-09de-41aa-895a-9eee8998baaf","system_id":"levelo_inurba_marseille","lat":43.29554,"lon":5.42275,"is_reserved":false,"is_disabled":false,"rental_uris":{"android":"levelo://app?vid=2f1cf415-09de-41aa-895a-9eee8998baaf","ios":"levelo://app?vid=2f1cf415-09de-41aa-895a-9eee8998baaf"},"vehicle_type_id":"4","last_reported":1738847792,"current_range_meters":39200,"station_id":"ce4bhph2rcd13ifvqhdg","pricing_plan_id":"cebpf4jnsgd1na2vs0mg"},{"bike_id":"f4428aad-7027-47c7-910b-818cdd2926ae","system_id":"levelo_inurba_marseille","lat":43.28632,"lon":5.39138,"is_reserved":false,"is_disabled":false,"rental_uris":{"android":"levelo://app?vid=f4428aad-7027-47c7-910b-818cdd2926ae","ios":"levelo://app?vid=f4428aad-7027-47c7-910b-818cdd2926ae"},"vehicle_type_id":"4","last_reported":1738847792,"current_range_meters":19200,"station_id":"","pricing_plan_id":"cebpf4jnsgd1na2vs0mg"},{"bike_id":"cd1ebea5-0969-4ed1-ba5b-a7c9f2c12b56","system_id":"levelo_inurba_marseille","lat":43.28273,"lon":5.35065,"is_reserved":false,"is_disabled":false,"rental_uris":{"android":"levelo://app?vid=cd1ebea5-0969-4ed1-ba5b-a7c9f2c12b56","ios":"levelo://app?vid=cd1ebea5-0969-4ed1-ba5b-a7c9f2c12b56"},"vehicle_type_id":"4","last_reported":1738847792,"current_range_meters":6800,"station_id":"ce4bhbp2rcd13ifvqerg","pricing_plan_id":"cebpf4jnsgd1na2vs0mg"},{"bike_id":"60efba71-1f79-4331-8e03-d1cbb62a05fd","system_id":"levelo_inurba_marseille","lat":43.232,"lon":5.39989,"is_reserved":false,"is_disabled":false,"rental_uris":{"android":"levelo://app?vid=60efba71-1f79-4331-8e03-d1cbb62a05fd","ios":"levelo://app?vid=60efba71-1f79-4331-8e03-d1cbb62a05fd"},"vehicle_type_id":"4","last_reported":1738847792,"current_range_meters":17200,"station_id":"ce4bhn12rcd13ifvqgqg","pricing_plan_id":"cebpf4jnsgd1na2vs0mg"},{"bike_id":"b499502b-c611-44c7-9094-9006271f142b","system_id":"levelo_inurba_marseille","lat":43.26911,"lon":5.386,"is_reserved":false,"is_disabled":false,"rental_uris":{"android":"levelo://app?vid=b499502b-c611-44c7-9094-9006271f142b","ios":"levelo://app?vid=b499502b-c611-44c7-9094-9006271f142b"},"vehicle_type_id":"4","last_reported":1738847792,"current_range_meters":28800,"station_id":"ce4bhh92rcd13ifvqfh0","pricing_plan_id":"cebpf4jnsgd1na2vs0mg"},{"bike_id":"0121d835-7074-4b48-995f-784505b960c4","system_id":"levelo_inurba_marseille","lat":43.25514,"lon":5.37656,"is_reserved":false,"is_disabled":false,"rental_uris":{"android":"levelo://app?vid=0121d835-7074-4b48-995f-784505b960c4","ios":"levelo://app?vid=0121d835-7074-4b48-995f-784505b960c4"},"vehicle_type_id":"4","last_reported":1738847792,"current_range_meters":39200,"station_id":"ce4bhh12rcd13ifvqff0","pricing_plan_id":"cebpf4jnsgd1na2vs0mg"},{"bike_id":"93f1a4a4-d649-4484-be88-99ea0ccefd62","system_id":"levelo_inurba_marseille","lat":43.31218,"lon":5.36841,"is_reserved":false,"is_disabled":false,"rental_uris":{"android":"levelo://app?vid=93f1a4a4-d649-4484-be88-99ea0ccefd62","ios":"levelo://app?vid=93f1a4a4-d649-4484-be88-99ea0ccefd62"},"vehicle_type_id":"4","last_reported":1738847792,"current_range_meters":37600,"station_id":"ce4bgl92rcd13ifvqbq0","pricing_plan_id":"cebpf4jnsgd1na2vs0mg"},{"bike_id":"48387a09-94e7-4db4-8a78-34cf00f146fa","system_id":"levelo_inurba_marseille","lat":43.29555,"lon":5.42274,"is_reserved":false,"is_disabled":false,"rental_uris":{"android":"levelo://app?vid=48387a09-94e7-4db4-8a78-34cf00f146fa","ios":"levelo://app?vid=48387a09-94e7-4db4-8a78-34cf00f146fa"},"vehicle_type_id":"4","last_reported":1738847792,"current_range_meters":21600,"station_id":"ce4bhph2rcd13ifvqhdg","pricing_plan_id":"cebpf4jnsgd1na2vs0mg"},{"bike_id":"ccf91d6f-14d6-490a-8ef5-ac1f49c08c9c","system_id":"levelo_inurba_marseille","lat":43.28355,"lon":5.38104,"is_reserved":false,"is_disabled":false,"rental_uris":{"android":"levelo://app?vid=ccf91d6f-14d6-490a-8ef5-ac1f49c08c9c","ios":"levelo://app?vid=ccf91d6f-14d6-490a-8ef5-ac1f49c08c9c"},"vehicle_type_id":"4","last_reported":1738847792,"current_range_meters":36800,"station_id":"ce4bh412rcd13ifvqdr0","pricing_plan_id":"cebpf4jnsgd1na2vs0mg"},{"bike_id":"93436f32-c9ca-48fd-adf7-e627183ce3b5","system_id":"levelo_inurba_marseille","lat":43.2871,"lon":5.37945,"is_reserved":false,"is_disabled":true,"rental_uris":{"android":"levelo://app?vid=93436f32-c9ca-48fd-adf7-e627183ce3b5","ios":"levelo://app?vid=93436f32-c9ca-48fd-adf7-e627183ce3b5"},"vehicle_type_id":"4","last_reported":1738847792,"current_range_meters":35600,"station_id":"ce4bh9p2rcd13ifvqec0","pricing_plan_id":"cebpf4jnsgd1na2vs0mg"},{"bike_id":"3bf0b438-56c0-41f5-b811-b240349868d1","system_id":"levelo_inurba_marseille","lat":43.25019,"lon":5.38937,"is_reserved":false,"is_disabled":false,"rental_uris":{"android":"levelo://app?vid=3bf0b438-56c0-41f5-b811-b240349868d1","ios":"levelo://app?vid=3bf0b438-56c0-41f5-b811-b240349868d1"},"vehicle_type_id":"4","last_reported":1738847792,"current_range_meters":36800,"station_id":"ce4bhgp2rcd13ifvqfd0","pricing_plan_id":"cebpf4jnsgd1na2vs0mg"},{"bike_id":"fa041172-745c-49ed-942f-eb70fbb1f908","system_id":"levelo_inurba_marseille","lat":43.25822,"lon":5.39432,"is_reserved":false,"is_disabled":false,"rental_uris":{"android":"levelo://app?vid=fa041172-745c-49ed-942f-eb70fbb1f908","ios":"levelo://app?vid=fa041172-745c-49ed-942f-eb70fbb1f908"},"vehicle_type_id":"4","last_reported":1738847792,"current_range_meters":11200,"station_id":"ce4bhip2rcd13ifvqft0","pricing_plan_id":"cebpf4jnsgd1na2vs0mg"},{"bike_id":"1880b3ef-88c3-46be-9750-3ae5d9e6d234","system_id":"levelo_inurba_marseille","lat":43.32534,"lon":5.4144,"is_reserved":false,"is_disabled":false,"rental_uris":{"android":"levelo://app?vid=1880b3ef-88c3-46be-9750-3ae5d9e6d234","ios":"levelo://app?vid=1880b3ef-88c3-46be-9750-3ae5d9e6d234"},"vehicle_type_id":"4","last_reported":1738847792,"current_range_meters":33600,"station_id":"ce4bhq12rcd13ifvqhhg","pricing_plan_id":"cebpf4jnsgd1na2vs0mg"},{"bike_id":"81880421-05f7-4c00-92d1-6da33a38aae6","system_id":"levelo_inurba_marseille","lat":43.30534,"lon":5.36697,"is_reserved":false,"is_disabled":false,"rental_uris":{"android":"levelo://app?vid=81880421-05f7-4c00-92d1-6da33a38aae6","ios":"levelo://app?vid=81880421-05f7-4c00-92d1-6da33a38aae6"},"vehicle_type_id":"4","last_reported":1738847792,"current_range_meters":23200,"station_id":"ce4bgrp2rcd13ifvqc9g","pricing_plan_id":"cebpf4jnsgd1na2vs0mg"},{"bike_id":"6b32ff78-5819-4c3f-a716-f83117e0a004","system_id":"levelo_inurba_marseille","lat":43.26213,"lon":5.37442,"is_reserved":false,"is_disabled":false,"rental_uris":{"android":"levelo://app?vid=6b32ff78-5819-4c3f-a716-f83117e0a004","ios":"levelo://app?vid=6b32ff78-5819-4c3f-a716-f83117e0a004"},"vehicle_type_id":"4","last_reported":1738847792,"current_range_meters":38800,"station_id":"ce4bhgp2rcd13ifvqfc0","pricing_plan_id":"cebpf4jnsgd1na2vs0mg"},{"bike_id":"d57c2d03-ac19-4315-ba46-a2663b705955","system_id":"levelo_inurba_marseille","lat":43.29587,"lon":5.37511,"is_reserved":false,"is_disabled":false,"rental_uris":{"android":"levelo://app?vid=d57c2d03-ac19-4315-ba46-a2663b705955","ios":"levelo://app?vid=d57c2d03-ac19-4315-ba46-a2663b705955"},"vehicle_type_id":"4","last_reported":1738847792,"current_range_meters":19200,"station_id":"ce4bgh92rcd13ifvqb50","pricing_plan_id":"cebpf4jnsgd1na2vs0mg"},{"bike_id":"b85d0f36-4ceb-47ae-b932-72d8372ef081","system_id":"levelo_inurba_marseille","lat":43.232,"lon":5.3999,"is_reserved":false,"is_disabled":false,"rental_uris":{"android":"levelo://app?vid=b85d0f36-4ceb-47ae-b932-72d8372ef081","ios":"levelo://app?vid=b85d0f36-4ceb-47ae-b932-72d8372ef081"},"vehicle_type_id":"4","last_reported":1738847792,"current_range_meters":37600,"station_id":"ce4bhn12rcd13ifvqgqg","pricing_plan_id":"cebpf4jnsgd1na2vs0mg"},{"bike_id":"d6b7f99a-81ee-4ae6-b4e9-6f58fdcd1ef9","system_id":"levelo_inurba_marseille","lat":43.30888,"lon":5.39655,"is_reserved":false,"is_disabled":false,"rental_uris":{"android":"levelo://app?vid=d6b7f99a-81ee-4ae6-b4e9-6f58fdcd1ef9","ios":"levelo://app?vid=d6b7f99a-81ee-4ae6-b4e9-6f58fdcd1ef9"},"vehicle_type_id":"4","last_reported":1738847792,"current_range_meters":32000,"station_id":"ce4bh012rcd13ifvqcv0","pricing_plan_id":"cebpf4jnsgd1na2vs0mg"},{"bike_id":"577d649f-af1d-4b9a-83d6-9a252b86f050","system_id":"levelo_inurba_marseille","lat":43.26198,"lon":5.37925,"is_reserved":false,"is_disabled":false,"rental_uris":{"android":"levelo://app?vid=577d649f-af1d-4b9a-83d6-9a252b86f050","ios":"levelo://app?vid=577d649f-af1d-4b9a-83d6-9a252b86f050"},"vehicle_type_id":"4","last_reported":1738847792,"current_range_meters":24000,"station_id":"ce4bhjp2rcd13ifvqg90","pricing_plan_id":"cebpf4jnsgd1na2vs0mg"},{"bike_id":"bf30465c-5d09-47ab-ba56-6e7954972992","system_id":"levelo_inurba_marseille","lat":43.29046,"lon":5.35914,"is_reserved":false,"is_disabled":false,"rental_uris":{"android":"levelo://app?vid=bf30465c-5d09-47ab-ba56-6e7954972992","ios":"levelo://app?vid=bf30465c-5d09-47ab-ba56-6e7954972992"},"vehicle_type_id":"4","last_reported":1738847792,"current_range_meters":38800,"station_id":"ce4bha92rcd13ifvqeg0","pricing_plan_id":"cebpf4jnsgd1na2vs0mg"},{"bike_id":"fe947b53-19fc-45b8-9d79-a68f980dbade","system_id":"levelo_inurba_marseille","lat":43.30777,"lon":5.37095,"is_reserved":false,"is_disabled":false,"rental_uris":{"android":"levelo://app?vid=fe947b53-19fc-45b8-9d79-a68f980dbade","ios":"levelo://app?vid=fe947b53-19fc-45b8-9d79-a68f980dbade"},"vehicle_type_id":"4","last_reported":1738847792,"current_range_meters":38800,"station_id":"","pricing_plan_id":"cebpf4jnsgd1na2vs0mg"},{"bike_id":"d85f0742-2d59-4b75-98c3-7f2f837ef07c","system_id":"levelo_inurba_marseille","lat":43.29572,"lon":5.37512,"is_reserved":false,"is_disabled":false,"rental_uris":{"android":"levelo://app?vid=d85f0742-2d59-4b75-98c3-7f2f837ef07c","ios":"levelo://app?vid=d85f0742-2d59-4b75-98c3-7f2f837ef07c"},"vehicle_type_id":"4","last_reported":1738847792,"current_range_meters":38800,"station_id":"ce4bgh92rcd13ifvqb50","pricing_plan_id":"cebpf4jnsgd1na2vs0mg"},{"bike_id":"a6ba5ef6-5b99-47d9-acea-ad62a4cd0a59","system_id":"levelo_inurba_marseille","lat":43.29762,"lon":5.37341,"is_reserved":false,"is_disabled":false,"rental_uris":{"android":"levelo://app?vid=a6ba5ef6-5b99-47d9-acea-ad62a4cd0a59","ios":"levelo://app?vid=a6ba5ef6-5b99-47d9-acea-ad62a4cd0a59"},"vehicle_type_id":"4","last_reported":1738847792,"current_range_meters":34800,"station_id":"","pricing_plan_id":"cebpf4jnsgd1na2vs0mg"},{"bike_id":"a1a7079b-68b5-45ca-9af8-b6bc9f7cd559","system_id":"levelo_inurba_marseille","lat":43.22938,"lon":5.35381,"is_reserved":false,"is_disabled":false,"rental_uris":{"android":"levelo://app?vid=a1a7079b-68b5-45ca-9af8-b6bc9f7cd559","ios":"levelo://app?vid=a1a7079b-68b5-45ca-9af8-b6bc9f7cd559"},"vehicle_type_id":"4","last_reported":1738847792,"current_range_meters":39200,"station_id":"cpo3532slgdg3j2ikp40","pricing_plan_id":"cebpf4jnsgd1na2vs0mg"},{"bike_id":"286b8180-be51-4933-b8c1-dffba00f048b","system_id":"levelo_inurba_marseille","lat":43.25853,"lon":5.39425,"is_reserved":false,"is_disabled":false,"rental_uris":{"android":"levelo://app?vid=286b8180-be51-4933-b8c1-dffba00f048b","ios":"levelo://app?vid=286b8180-be51-4933-b8c1-dffba00f048b"},"vehicle_type_id":"4","last_reported":1738847792,"current_range_meters":38800,"station_id":"ce4bhip2rcd13ifvqft0","pricing_plan_id":"cebpf4jnsgd1na2vs0mg"},{"bike_id":"c38b6560-3958-4a97-810f-9dd69ff47a9b","system_id":"levelo_inurba_marseille","lat":43.3065,"lon":5.3799,"is_reserved":false,"is_disabled":false,"rental_uris":{"android":"levelo://app?vid=c38b6560-3958-4a97-810f-9dd69ff47a9b","ios":"levelo://app?vid=c38b6560-3958-4a97-810f-9dd69ff47a9b"},"vehicle_type_id":"4","last_reported":1738847792,"current_range_meters":28000,"station_id":"","pricing_plan_id":"cebpf4jnsgd1na2vs0mg"},{"bike_id":"08e42cd3-6257-4ea4-839f-08272f21e059","system_id":"levelo_inurba_marseille","lat":43.290417,"lon":5.375779,"is_reserved":false,"is_disabled":false,"rental_uris":{"android":"levelo://app?vid=08e42cd3-6257-4ea4-839f-08272f21e059","ios":"levelo://app?vid=08e42cd3-6257-4ea4-839f-08272f21e059"},"vehicle_type_id":"4","last_reported":1738847792,"current_range_meters":38400,"station_id":"ce4bh692rcd13ifvqe90","pricing_plan_id":"cebpf4jnsgd1na2vs0mg"},{"bike_id":"f01de237-bf70-4d73-8633-ec8ae86b779c","system_id":"levelo_inurba_marseille","lat":43.28723,"lon":5.3794,"is_reserved":false,"is_disabled":false,"rental_uris":{"android":"levelo://app?vid=f01de237-bf70-4d73-8633-ec8ae86b779c","ios":"levelo://app?vid=f01de237-bf70-4d73-8633-ec8ae86b779c"},"vehicle_type_id":"4","last_reported":1738847792,"current_range_meters":34000,"station_id":"ce4bh9p2rcd13ifvqec0","pricing_plan_id":"cebpf4jnsgd1na2vs0mg"},{"bike_id":"6e8c8f9e-5ecd-4047-86aa-d26d6c0ff6d4","system_id":"levelo_inurba_marseille","lat":43.29725,"lon":5.37692,"is_reserved":false,"is_disabled":false,"rental_uris":{"android":"levelo://app?vid=6e8c8f9e-5ecd-4047-86aa-d26d6c0ff6d4","ios":"levelo://app?vid=6e8c8f9e-5ecd-4047-86aa-d26d6c0ff6d4"},"vehicle_type_id":"4","last_reported":1738847792,"current_range_meters":19200,"station_id":"ce4bgkh2rcd13ifvqbl0","pricing_plan_id":"cebpf4jnsgd1na2vs0mg"},{"bike_id":"78433e7b-8e3e-4dcc-9204-985380e49e4b","system_id":"levelo_inurba_marseille","lat":43.2653,"lon":5.39562,"is_reserved":false,"is_disabled":false,"rental_uris":{"android":"levelo://app?vid=78433e7b-8e3e-4dcc-9204-985380e49e4b","ios":"levelo://app?vid=78433e7b-8e3e-4dcc-9204-985380e49e4b"},"vehicle_type_id":"4","last_reported":1738847792,"current_range_meters":22800,"station_id":"ce4bhi12rcd13ifvqfq0","pricing_plan_id":"cebpf4jnsgd1na2vs0mg"},{"bike_id":"0108ca67-7ed9-4d1f-a379-7f3ab6a29192","system_id":"levelo_inurba_marseille","lat":43.30427,"lon":5.41277,"is_reserved":false,"is_disabled":false,"rental_uris":{"android":"levelo://app?vid=0108ca67-7ed9-4d1f-a379-7f3ab6a29192","ios":"levelo://app?vid=0108ca67-7ed9-4d1f-a379-7f3ab6a29192"},"vehicle_type_id":"4","last_reported":1738847792,"current_range_meters":35600,"station_id":"ce4bhop2rcd13ifvqh8g","pricing_plan_id":"cebpf4jnsgd1na2vs0mg"},{"bike_id":"0ff383dd-17ba-403c-8b38-64f30b07586d","system_id":"levelo_inurba_marseille","lat":43.27894,"lon":5.37998,"is_reserved":false,"is_disabled":false,"rental_uris":{"android":"levelo://app?vid=0ff383dd-17ba-403c-8b38-64f30b07586d","ios":"levelo://app?vid=0ff383dd-17ba-403c-8b38-64f30b07586d"},"vehicle_type_id":"4","last_reported":1738847792,"current_range_meters":39200,"station_id":"ce4bhf92rcd13ifvqf50","pricing_plan_id":"cebpf4jnsgd1na2vs0mg"},{"bike_id":"03fa3b22-d8cb-4f5a-98a2-61fc9938a61e","system_id":"levelo_inurba_marseille","lat":43.24565,"lon":5.39536,"is_reserved":false,"is_disabled":false,"rental_uris":{"android":"levelo://app?vid=03fa3b22-d8cb-4f5a-98a2-61fc9938a61e","ios":"levelo://app?vid=03fa3b22-d8cb-4f5a-98a2-61fc9938a61e"},"vehicle_type_id":"4","last_reported":1738847792,"current_range_meters":39200,"station_id":"ce4bhlp2rcd13ifvqgjg","pricing_plan_id":"cebpf4jnsgd1na2vs0mg"},{"bike_id":"a81c5ab9-11b5-4fec-b57c-5fbd53242765","system_id":"levelo_inurba_marseille","lat":43.30294,"lon":5.36897,"is_reserved":false,"is_disabled":false,"rental_uris":{"android":"levelo://app?vid=a81c5ab9-11b5-4fec-b57c-5fbd53242765","ios":"levelo://app?vid=a81c5ab9-11b5-4fec-b57c-5fbd53242765"},"vehicle_type_id":"4","last_reported":1738847792,"current_range_meters":30800,"station_id":"ce4bgqh2rcd13ifvqc5g","pricing_plan_id":"cebpf4jnsgd1na2vs0mg"},{"bike_id":"72854be5-5ce6-416a-a959-2a83f92c56b2","system_id":"levelo_inurba_marseille","lat":43.23216,"lon":5.3998,"is_reserved":false,"is_disabled":false,"rental_uris":{"android":"levelo://app?vid=72854be5-5ce6-416a-a959-2a83f92c56b2","ios":"levelo://app?vid=72854be5-5ce6-416a-a959-2a83f92c56b2"},"vehicle_type_id":"4","last_reported":1738847792,"current_range_meters":39200,"station_id":"ce4bhn12rcd13ifvqgqg","pricing_plan_id":"cebpf4jnsgd1na2vs0mg"},{"bike_id":"6bba36c7-75a6-4b1b-96cb-c03d219a6faa","system_id":"levelo_inurba_marseille","lat":43.33027,"lon":5.39037,"is_reserved":false,"is_disabled":false,"rental_uris":{"android":"levelo://app?vid=6bba36c7-75a6-4b1b-96cb-c03d219a6faa","ios":"levelo://app?vid=6bba36c7-75a6-4b1b-96cb-c03d219a6faa"},"vehicle_type_id":"4","last_reported":1738847792,"current_range_meters":33200,"station_id":"ce4bhr92rcd13ifvqhrg","pricing_plan_id":"cebpf4jnsgd1na2vs0mg"},{"bike_id":"46055e3a-e8f4-4382-8c29-7984f2bd0756","system_id":"levelo_inurba_marseille","lat":43.29027,"lon":5.38144,"is_reserved":false,"is_disabled":false,"rental_uris":{"android":"levelo://app?vid=46055e3a-e8f4-4382-8c29-7984f2bd0756","ios":"levelo://app?vid=46055e3a-e8f4-4382-8c29-7984f2bd0756"},"vehicle_type_id":"4","last_reported":1738847792,"current_range_meters":30000,"station_id":"ce4bh4p2rcd13ifvqe1g","pricing_plan_id":"cebpf4jnsgd1na2vs0mg"},{"bike_id":"7a0f0760-25b1-43d7-bc51-857515fe6106","system_id":"levelo_inurba_marseille","lat":43.26067,"lon":5.39399,"is_reserved":false,"is_disabled":false,"rental_uris":{"android":"levelo://app?vid=7a0f0760-25b1-43d7-bc51-857515fe6106","ios":"levelo://app?vid=7a0f0760-25b1-43d7-bc51-857515fe6106"},"vehicle_type_id":"4","last_reported":1738847792,"current_range_meters":17200,"station_id":"ce4bhh92rcd13ifvqfj0","pricing_plan_id":"cebpf4jnsgd1na2vs0mg"},{"bike_id":"74983f85-01f2-40b7-8446-3be5cab4902e","system_id":"levelo_inurba_marseille","lat":43.28107,"lon":5.37859,"is_reserved":false,"is_disabled":false,"rental_uris":{"android":"levelo://app?vid=74983f85-01f2-40b7-8446-3be5cab4902e","ios":"levelo://app?vid=74983f85-01f2-40b7-8446-3be5cab4902e"},"vehicle_type_id":"4","last_reported":1738847792,"current_range_meters":27200,"station_id":"ce4bha12rcd13ifvqee0","pricing_plan_id":"cebpf4jnsgd1na2vs0mg"},{"bike_id":"fe239b4b-111f-4c4c-9420-e66e46d42615","system_id":"levelo_inurba_marseille","lat":43.29362,"lon":5.3785,"is_reserved":false,"is_disabled":false,"rental_uris":{"android":"levelo://app?vid=fe239b4b-111f-4c4c-9420-e66e46d42615","ios":"levelo://app?vid=fe239b4b-111f-4c4c-9420-e66e46d42615"},"vehicle_type_id":"4","last_reported":1738847792,"current_range_meters":2800,"station_id":"ce4bgjh2rcd13ifvqbf0","pricing_plan_id":"cebpf4jnsgd1na2vs0mg"},{"bike_id":"8ee0d147-e6cd-4876-9f70-a3e6d6b53555","system_id":"levelo_inurba_marseille","lat":43.27374,"lon":5.36264,"is_reserved":false,"is_disabled":false,"rental_uris":{"android":"levelo://app?vid=8ee0d147-e6cd-4876-9f70-a3e6d6b53555","ios":"levelo://app?vid=8ee0d147-e6cd-4876-9f70-a3e6d6b53555"},"vehicle_type_id":"4","last_reported":1738847792,"current_range_meters":32400,"station_id":"ce4bhbh2rcd13ifvqeo0","pricing_plan_id":"cebpf4jnsgd1na2vs0mg"},{"bike_id":"7d99d3f3-f14e-48e3-87f8-70609924b0bf","system_id":"levelo_inurba_marseille","lat":43.27496,"lon":5.42451,"is_reserved":false,"is_disabled":false,"rental_uris":{"android":"levelo://app?vid=7d99d3f3-f14e-48e3-87f8-70609924b0bf","ios":"levelo://app?vid=7d99d3f3-f14e-48e3-87f8-70609924b0bf"},"vehicle_type_id":"4","last_reported":1738847792,"current_range_meters":22400,"station_id":"ce4bhn92rcd13ifvqgrg","pricing_plan_id":"cebpf4jnsgd1na2vs0mg"},{"bike_id":"2e8e8620-e82e-4444-a8cb-51177d5eef4b","system_id":"levelo_inurba_marseille","lat":43.33018,"lon":5.39028,"is_reserved":false,"is_disabled":false,"rental_uris":{"android":"levelo://app?vid=2e8e8620-e82e-4444-a8cb-51177d5eef4b","ios":"levelo://app?vid=2e8e8620-e82e-4444-a8cb-51177d5eef4b"},"vehicle_type_id":"4","last_reported":1738847792,"current_range_meters":27600,"station_id":"ce4bhr92rcd13ifvqhrg","pricing_plan_id":"cebpf4jnsgd1na2vs0mg"},{"bike_id":"284e60d5-2ea0-4767-9940-bb8695adb083","system_id":"levelo_inurba_marseille","lat":43.274957,"lon":5.424513,"is_reserved":false,"is_disabled":false,"rental_uris":{"android":"levelo://app?vid=284e60d5-2ea0-4767-9940-bb8695adb083","ios":"levelo://app?vid=284e60d5-2ea0-4767-9940-bb8695adb083"},"vehicle_type_id":"4","last_reported":1738847792,"current_range_meters":14400,"station_id":"ce4bhn92rcd13ifvqgrg","pricing_plan_id":"cebpf4jnsgd1na2vs0mg"},{"bike_id":"33957fe0-e920-4d72-ba1f-6f528ec87423","system_id":"levelo_inurba_marseille","lat":43.337444,"lon":5.374475,"is_reserved":false,"is_disabled":false,"rental_uris":{"android":"levelo://app?vid=33957fe0-e920-4d72-ba1f-6f528ec87423","ios":"levelo://app?vid=33957fe0-e920-4d72-ba1f-6f528ec87423"},"vehicle_type_id":"4","last_reported":1738847792,"current_range_meters":14000,"station_id":"","pricing_plan_id":"cebpf4jnsgd1na2vs0mg"},{"bike_id":"21593118-7964-431f-a445-68c1014dea98","system_id":"levelo_inurba_marseille","lat":43.2648,"lon":5.39565,"is_reserved":false,"is_disabled":true,"rental_uris":{"android":"levelo://app?vid=21593118-7964-431f-a445-68c1014dea98","ios":"levelo://app?vid=21593118-7964-431f-a445-68c1014dea98"},"vehicle_type_id":"4","last_reported":1738847792,"current_range_meters":1200,"station_id":"ce4bhi12rcd13ifvqfq0","pricing_plan_id":"cebpf4jnsgd1na2vs0mg"},{"bike_id":"2b6fbade-512b-495a-a447-8904017cfe27","system_id":"levelo_inurba_marseille","lat":43.28154,"lon":5.42648,"is_reserved":false,"is_disabled":false,"rental_uris":{"android":"levelo://app?vid=2b6fbade-512b-495a-a447-8904017cfe27","ios":"levelo://app?vid=2b6fbade-512b-495a-a447-8904017cfe27"},"vehicle_type_id":"4","last_reported":1738847792,"current_range_meters":24800,"station_id":"ce4bhnh2rcd13ifvqgug","pricing_plan_id":"cebpf4jnsgd1na2vs0mg"},{"bike_id":"fab751b1-8cdd-4390-97e3-2907815af78b","system_id":"levelo_inurba_marseille","lat":43.29709,"lon":5.36608,"is_reserved":false,"is_disabled":false,"rental_uris":{"android":"levelo://app?vid=fab751b1-8cdd-4390-97e3-2907815af78b","ios":"levelo://app?vid=fab751b1-8cdd-4390-97e3-2907815af78b"},"vehicle_type_id":"4","last_reported":1738847792,"current_range_meters":25200,"station_id":"ce4bgn12rcd13ifvqbt0","pricing_plan_id":"cebpf4jnsgd1na2vs0mg"},{"bike_id":"096037dc-64a2-4011-8217-5874bb697c8d","system_id":"levelo_inurba_marseille","lat":43.29235,"lon":5.36052,"is_reserved":false,"is_disabled":false,"rental_uris":{"android":"levelo://app?vid=096037dc-64a2-4011-8217-5874bb697c8d","ios":"levelo://app?vid=096037dc-64a2-4011-8217-5874bb697c8d"},"vehicle_type_id":"4","last_reported":1738847792,"current_range_meters":30400,"station_id":"ce4bhbh2rcd13ifvqeqg","pricing_plan_id":"cebpf4jnsgd1na2vs0mg"},{"bike_id":"8b0fd0b4-3c32-44a1-8840-0714668a5cd8","system_id":"levelo_inurba_marseille","lat":43.29602,"lon":5.38092,"is_reserved":false,"is_disabled":false,"rental_uris":{"android":"levelo://app?vid=8b0fd0b4-3c32-44a1-8840-0714668a5cd8","ios":"levelo://app?vid=8b0fd0b4-3c32-44a1-8840-0714668a5cd8"},"vehicle_type_id":"4","last_reported":1738847792,"current_range_meters":27200,"station_id":"ce4bgl12rcd13ifvqbo0","pricing_plan_id":"cebpf4jnsgd1na2vs0mg"},{"bike_id":"2d5e818a-f3d5-4923-a01a-fd5d72da083e","system_id":"levelo_inurba_marseille","lat":43.26581,"lon":5.39014,"is_reserved":false,"is_disabled":false,"rental_uris":{"android":"levelo://app?vid=2d5e818a-f3d5-4923-a01a-fd5d72da083e","ios":"levelo://app?vid=2d5e818a-f3d5-4923-a01a-fd5d72da083e"},"vehicle_type_id":"4","last_reported":1738847792,"current_range_meters":38800,"station_id":"ce4bhe12rcd13ifvqf30","pricing_plan_id":"cebpf4jnsgd1na2vs0mg"},{"bike_id":"6712f04b-f35d-4e3a-a70d-c89aec85d9b2","system_id":"levelo_inurba_marseille","lat":43.22949,"lon":5.35394,"is_reserved":false,"is_disabled":false,"rental_uris":{"android":"levelo://app?vid=6712f04b-f35d-4e3a-a70d-c89aec85d9b2","ios":"levelo://app?vid=6712f04b-f35d-4e3a-a70d-c89aec85d9b2"},"vehicle_type_id":"4","last_reported":1738847792,"current_range_meters":38000,"station_id":"cpo3532slgdg3j2ikp40","pricing_plan_id":"cebpf4jnsgd1na2vs0mg"},{"bike_id":"9a00d698-d180-4907-9408-56ace74ac400","system_id":"levelo_inurba_marseille","lat":43.29808,"lon":5.381,"is_reserved":false,"is_disabled":false,"rental_uris":{"android":"levelo://app?vid=9a00d698-d180-4907-9408-56ace74ac400","ios":"levelo://app?vid=9a00d698-d180-4907-9408-56ace74ac400"},"vehicle_type_id":"4","last_reported":1738847792,"current_range_meters":12400,"station_id":"ce4bgip2rcd13ifvqbb0","pricing_plan_id":"cebpf4jnsgd1na2vs0mg"},{"bike_id":"3c960873-09f3-4e6e-9166-31318d022dd0","system_id":"levelo_inurba_marseille","lat":43.27842,"lon":5.42536,"is_reserved":false,"is_disabled":false,"rental_uris":{"android":"levelo://app?vid=3c960873-09f3-4e6e-9166-31318d022dd0","ios":"levelo://app?vid=3c960873-09f3-4e6e-9166-31318d022dd0"},"vehicle_type_id":"4","last_reported":1738847792,"current_range_meters":4800,"station_id":"","pricing_plan_id":"cebpf4jnsgd1na2vs0mg"},{"bike_id":"5169f958-fc07-489b-b19b-5b31b5506996","system_id":"levelo_inurba_marseille","lat":43.30165,"lon":5.38078,"is_reserved":false,"is_disabled":false,"rental_uris":{"android":"levelo://app?vid=5169f958-fc07-489b-b19b-5b31b5506996","ios":"levelo://app?vid=5169f958-fc07-489b-b19b-5b31b5506996"},"vehicle_type_id":"4","last_reported":1738847792,"current_range_meters":24800,"station_id":"ce4bgjp2rcd13ifvqbh0","pricing_plan_id":"cebpf4jnsgd1na2vs0mg"},{"bike_id":"1631835e-eb64-4097-b39f-638a3f74b000","system_id":"levelo_inurba_marseille","lat":43.30287,"lon":5.37703,"is_reserved":false,"is_disabled":false,"rental_uris":{"android":"levelo://app?vid=1631835e-eb64-4097-b39f-638a3f74b000","ios":"levelo://app?vid=1631835e-eb64-4097-b39f-638a3f74b000"},"vehicle_type_id":"4","last_reported":1738847792,"current_range_meters":38800,"station_id":"ce4bguh2rcd13ifvqcj0","pricing_plan_id":"cebpf4jnsgd1na2vs0mg"},{"bike_id":"0e96ca77-1816-4622-89ef-dccc2a4c57a6","system_id":"levelo_inurba_marseille","lat":43.28105,"lon":5.37852,"is_reserved":false,"is_disabled":false,"rental_uris":{"android":"levelo://app?vid=0e96ca77-1816-4622-89ef-dccc2a4c57a6","ios":"levelo://app?vid=0e96ca77-1816-4622-89ef-dccc2a4c57a6"},"vehicle_type_id":"4","last_reported":1738847792,"current_range_meters":24800,"station_id":"ce4bha12rcd13ifvqee0","pricing_plan_id":"cebpf4jnsgd1na2vs0mg"},{"bike_id":"69e03564-17f5-44a1-8879-5030df3f7e46","system_id":"levelo_inurba_marseille","lat":43.30168,"lon":5.37457,"is_reserved":false,"is_disabled":false,"rental_uris":{"android":"levelo://app?vid=69e03564-17f5-44a1-8879-5030df3f7e46","ios":"levelo://app?vid=69e03564-17f5-44a1-8879-5030df3f7e46"},"vehicle_type_id":"4","last_reported":1738847792,"current_range_meters":38800,"station_id":"ce4bgs92rcd13ifvqcc0","pricing_plan_id":"cebpf4jnsgd1na2vs0mg"},{"bike_id":"9317d66b-a0ad-42ff-bd11-1d92ce60cf6b","system_id":"levelo_inurba_marseille","lat":43.27822,"lon":5.40711,"is_reserved":false,"is_disabled":false,"rental_uris":{"android":"levelo://app?vid=9317d66b-a0ad-42ff-bd11-1d92ce60cf6b","ios":"levelo://app?vid=9317d66b-a0ad-42ff-bd11-1d92ce60cf6b"},"vehicle_type_id":"4","last_reported":1738847792,"current_range_meters":38000,"station_id":"ce4bhnh2rcd13ifvqgtg","pricing_plan_id":"cebpf4jnsgd1na2vs0mg"},{"bike_id":"c1c75084-6fe2-45e8-8aa7-83f2021a6f51","system_id":"levelo_inurba_marseille","lat":43.27971,"lon":5.38745,"is_reserved":false,"is_disabled":false,"rental_uris":{"android":"levelo://app?vid=c1c75084-6fe2-45e8-8aa7-83f2021a6f51","ios":"levelo://app?vid=c1c75084-6fe2-45e8-8aa7-83f2021a6f51"},"vehicle_type_id":"4","last_reported":1738847792,"current_range_meters":38800,"station_id":"ce4bhg12rcd13ifvqf80","pricing_plan_id":"cebpf4jnsgd1na2vs0mg"},{"bike_id":"b2683804-695f-4e4b-8ba3-a015d998632e","system_id":"levelo_inurba_marseille","lat":43.29921,"lon":5.37478,"is_reserved":false,"is_disabled":false,"rental_uris":{"android":"levelo://app?vid=b2683804-695f-4e4b-8ba3-a015d998632e","ios":"levelo://app?vid=b2683804-695f-4e4b-8ba3-a015d998632e"},"vehicle_type_id":"4","last_reported":1738847792,"current_range_meters":38800,"station_id":"ce4bgjh2rcd13ifvqbg0","pricing_plan_id":"cebpf4jnsgd1na2vs0mg"},{"bike_id":"12be4a65-e7b3-4220-9442-37e04da9989a","system_id":"levelo_inurba_marseille","lat":43.27176,"lon":5.40982,"is_reserved":false,"is_disabled":false,"rental_uris":{"android":"levelo://app?vid=12be4a65-e7b3-4220-9442-37e04da9989a","ios":"levelo://app?vid=12be4a65-e7b3-4220-9442-37e04da9989a"},"vehicle_type_id":"4","last_reported":1738847792,"current_range_meters":38800,"station_id":"ce4bhl12rcd13ifvqgf0","pricing_plan_id":"cebpf4jnsgd1na2vs0mg"},{"bike_id":"8604271a-1856-49cc-98e1-13f33c6adfc2","system_id":"levelo_inurba_marseille","lat":43.31418,"lon":5.36639,"is_reserved":false,"is_disabled":false,"rental_uris":{"android":"levelo://app?vid=8604271a-1856-49cc-98e1-13f33c6adfc2","ios":"levelo://app?vid=8604271a-1856-49cc-98e1-13f33c6adfc2"},"vehicle_type_id":"4","last_reported":1738847792,"current_range_meters":39200,"station_id":"ce4bgr92rcd13ifvqc6g","pricing_plan_id":"cebpf4jnsgd1na2vs0mg"},{"bike_id":"00aa0e72-8507-4075-86ea-b65e798a9b9f","system_id":"levelo_inurba_marseille","lat":43.2835,"lon":5.38093,"is_reserved":false,"is_disabled":false,"rental_uris":{"android":"levelo://app?vid=00aa0e72-8507-4075-86ea-b65e798a9b9f","ios":"levelo://app?vid=00aa0e72-8507-4075-86ea-b65e798a9b9f"},"vehicle_type_id":"4","last_reported":1738847792,"current_range_meters":32400,"station_id":"ce4bh412rcd13ifvqdr0","pricing_plan_id":"cebpf4jnsgd1na2vs0mg"},{"bike_id":"bb59bbf9-a773-4050-b666-ab885ddc31a5","system_id":"levelo_inurba_marseille","lat":43.24079,"lon":5.37714,"is_reserved":false,"is_disabled":false,"rental_uris":{"android":"levelo://app?vid=bb59bbf9-a773-4050-b666-ab885ddc31a5","ios":"levelo://app?vid=bb59bbf9-a773-4050-b666-ab885ddc31a5"},"vehicle_type_id":"4","last_reported":1738847792,"current_range_meters":20400,"station_id":"ce4bhnp2rcd13ifvqgvg","pricing_plan_id":"cebpf4jnsgd1na2vs0mg"},{"bike_id":"087f58b2-e053-4d45-986c-a4eb239b655a","system_id":"levelo_inurba_marseille","lat":43.30296,"lon":5.36889,"is_reserved":false,"is_disabled":true,"rental_uris":{"android":"levelo://app?vid=087f58b2-e053-4d45-986c-a4eb239b655a","ios":"levelo://app?vid=087f58b2-e053-4d45-986c-a4eb239b655a"},"vehicle_type_id":"4","last_reported":1738847792,"current_range_meters":0,"station_id":"ce4bgqh2rcd13ifvqc5g","pricing_plan_id":"cebpf4jnsgd1na2vs0mg"},{"bike_id":"348b1443-ad25-420b-9268-c11e4f333911","system_id":"levelo_inurba_marseille","lat":43.23153,"lon":5.43722,"is_reserved":false,"is_disabled":false,"rental_uris":{"android":"levelo://app?vid=348b1443-ad25-420b-9268-c11e4f333911","ios":"levelo://app?vid=348b1443-ad25-420b-9268-c11e4f333911"},"vehicle_type_id":"4","last_reported":1738847792,"current_range_meters":17200,"station_id":"ce4bhmp2rcd13ifvqgog","pricing_plan_id":"cebpf4jnsgd1na2vs0mg"},{"bike_id":"175c0c5d-1dbb-4630-866f-3e84c2f1c4fd","system_id":"levelo_inurba_marseille","lat":43.28699,"lon":5.37913,"is_reserved":false,"is_disabled":false,"rental_uris":{"android":"levelo://app?vid=175c0c5d-1dbb-4630-866f-3e84c2f1c4fd","ios":"levelo://app?vid=175c0c5d-1dbb-4630-866f-3e84c2f1c4fd"},"vehicle_type_id":"4","last_reported":1738847792,"current_range_meters":38800,"station_id":"ce4bh9p2rcd13ifvqec0","pricing_plan_id":"cebpf4jnsgd1na2vs0mg"},{"bike_id":"679274d3-e500-4dd7-ace3-877f33c86066","system_id":"levelo_inurba_marseille","lat":43.27067,"lon":5.40246,"is_reserved":false,"is_disabled":false,"rental_uris":{"android":"levelo://app?vid=679274d3-e500-4dd7-ace3-877f33c86066","ios":"levelo://app?vid=679274d3-e500-4dd7-ace3-877f33c86066"},"vehicle_type_id":"4","last_reported":1738847792,"current_range_meters":30000,"station_id":"ce4bhk92rcd13ifvqgc0","pricing_plan_id":"cebpf4jnsgd1na2vs0mg"},{"bike_id":"75ce5bb6-1a4c-4231-b8f0-d1a218332922","system_id":"levelo_inurba_marseille","lat":43.30301,"lon":5.37692,"is_reserved":false,"is_disabled":false,"rental_uris":{"android":"levelo://app?vid=75ce5bb6-1a4c-4231-b8f0-d1a218332922","ios":"levelo://app?vid=75ce5bb6-1a4c-4231-b8f0-d1a218332922"},"vehicle_type_id":"4","last_reported":1738847792,"current_range_meters":30800,"station_id":"ce4bguh2rcd13ifvqcj0","pricing_plan_id":"cebpf4jnsgd1na2vs0mg"},{"bike_id":"f910fbc4-cc24-4789-8ec3-384f5436b7f0","system_id":"levelo_inurba_marseille","lat":43.31722,"lon":5.42414,"is_reserved":false,"is_disabled":false,"rental_uris":{"android":"levelo://app?vid=f910fbc4-cc24-4789-8ec3-384f5436b7f0","ios":"levelo://app?vid=f910fbc4-cc24-4789-8ec3-384f5436b7f0"},"vehicle_type_id":"4","last_reported":1738847792,"current_range_meters":8800,"station_id":"ce4bhp92rcd13ifvqhbg","pricing_plan_id":"cebpf4jnsgd1na2vs0mg"},{"bike_id":"a866a81d-73d3-494d-b324-e7c41d4563a6","system_id":"levelo_inurba_marseille","lat":43.28281,"lon":5.35075,"is_reserved":false,"is_disabled":false,"rental_uris":{"android":"levelo://app?vid=a866a81d-73d3-494d-b324-e7c41d4563a6","ios":"levelo://app?vid=a866a81d-73d3-494d-b324-e7c41d4563a6"},"vehicle_type_id":"4","last_reported":1738847792,"current_range_meters":39200,"station_id":"ce4bhbp2rcd13ifvqerg","pricing_plan_id":"cebpf4jnsgd1na2vs0mg"},{"bike_id":"41fd7471-eede-4211-ae52-cabbf54f6615","system_id":"levelo_inurba_marseille","lat":43.2985,"lon":5.36285,"is_reserved":false,"is_disabled":false,"rental_uris":{"android":"levelo://app?vid=41fd7471-eede-4211-ae52-cabbf54f6615","ios":"levelo://app?vid=41fd7471-eede-4211-ae52-cabbf54f6615"},"vehicle_type_id":"4","last_reported":1738847792,"current_range_meters":30000,"station_id":"ce4bgpp2rcd13ifvqc3g","pricing_plan_id":"cebpf4jnsgd1na2vs0mg"},{"bike_id":"f6abcce2-0993-4345-8889-2e5c8bb1bf44","system_id":"levelo_inurba_marseille","lat":43.231509,"lon":5.437098,"is_reserved":false,"is_disabled":false,"rental_uris":{"android":"levelo://app?vid=f6abcce2-0993-4345-8889-2e5c8bb1bf44","ios":"levelo://app?vid=f6abcce2-0993-4345-8889-2e5c8bb1bf44"},"vehicle_type_id":"4","last_reported":1738847792,"current_range_meters":16800,"station_id":"ce4bhmp2rcd13ifvqgog","pricing_plan_id":"cebpf4jnsgd1na2vs0mg"},{"bike_id":"9df59132-1915-4a14-8e93-bc8d9b2bee37","system_id":"levelo_inurba_marseille","lat":43.29704,"lon":5.37706,"is_reserved":false,"is_disabled":false,"rental_uris":{"android":"levelo://app?vid=9df59132-1915-4a14-8e93-bc8d9b2bee37","ios":"levelo://app?vid=9df59132-1915-4a14-8e93-bc8d9b2bee37"},"vehicle_type_id":"4","last_reported":1738847792,"current_range_meters":30400,"station_id":"ce4bgkh2rcd13ifvqbl0","pricing_plan_id":"cebpf4jnsgd1na2vs0mg"},{"bike_id":"5148e1ce-c5e8-434a-8ce5-f0b5f69e4dcd","system_id":"levelo_inurba_marseille","lat":43.292,"lon":5.35815,"is_reserved":false,"is_disabled":false,"rental_uris":{"android":"levelo://app?vid=5148e1ce-c5e8-434a-8ce5-f0b5f69e4dcd","ios":"levelo://app?vid=5148e1ce-c5e8-434a-8ce5-f0b5f69e4dcd"},"vehicle_type_id":"4","last_reported":1738847792,"current_range_meters":37600,"station_id":"ce4bhb12rcd13ifvqel0","pricing_plan_id":"cebpf4jnsgd1na2vs0mg"},{"bike_id":"6a3f47a3-8f7a-4dd2-a856-450fdd8291f6","system_id":"levelo_inurba_marseille","lat":43.305476,"lon":5.367034,"is_reserved":false,"is_disabled":false,"rental_uris":{"android":"levelo://app?vid=6a3f47a3-8f7a-4dd2-a856-450fdd8291f6","ios":"levelo://app?vid=6a3f47a3-8f7a-4dd2-a856-450fdd8291f6"},"vehicle_type_id":"4","last_reported":1738847792,"current_range_meters":30000,"station_id":"ce4bgrp2rcd13ifvqc9g","pricing_plan_id":"cebpf4jnsgd1na2vs0mg"},{"bike_id":"76ddc39b-fa51-4aaf-a76c-6f0c67f6b097","system_id":"levelo_inurba_marseille","lat":43.31163,"lon":5.38728,"is_reserved":false,"is_disabled":false,"rental_uris":{"android":"levelo://app?vid=76ddc39b-fa51-4aaf-a76c-6f0c67f6b097","ios":"levelo://app?vid=76ddc39b-fa51-4aaf-a76c-6f0c67f6b097"},"vehicle_type_id":"4","last_reported":1738847792,"current_range_meters":18800,"station_id":"ce4bgv12rcd13ifvqcp0","pricing_plan_id":"cebpf4jnsgd1na2vs0mg"},{"bike_id":"1f60af65-67e4-4506-92ce-b099d71368bc","system_id":"levelo_inurba_marseille","lat":43.27368,"lon":5.36261,"is_reserved":false,"is_disabled":false,"rental_uris":{"android":"levelo://app?vid=1f60af65-67e4-4506-92ce-b099d71368bc","ios":"levelo://app?vid=1f60af65-67e4-4506-92ce-b099d71368bc"},"vehicle_type_id":"4","last_reported":1738847792,"current_range_meters":38800,"station_id":"ce4bhbh2rcd13ifvqeo0","pricing_plan_id":"cebpf4jnsgd1na2vs0mg"},{"bike_id":"8d1a27f6-6aea-4b23-ab78-248d5409d976","system_id":"levelo_inurba_marseille","lat":43.29014,"lon":5.356,"is_reserved":false,"is_disabled":false,"rental_uris":{"android":"levelo://app?vid=8d1a27f6-6aea-4b23-ab78-248d5409d976","ios":"levelo://app?vid=8d1a27f6-6aea-4b23-ab78-248d5409d976"},"vehicle_type_id":"4","last_reported":1738847792,"current_range_meters":38800,"station_id":"ce4bhb92rcd13ifvqen0","pricing_plan_id":"cebpf4jnsgd1na2vs0mg"},{"bike_id":"3f55b8bf-8511-4485-a336-6c00c5c24045","system_id":"levelo_inurba_marseille","lat":43.29796,"lon":5.40415,"is_reserved":false,"is_disabled":false,"rental_uris":{"android":"levelo://app?vid=3f55b8bf-8511-4485-a336-6c00c5c24045","ios":"levelo://app?vid=3f55b8bf-8511-4485-a336-6c00c5c24045"},"vehicle_type_id":"4","last_reported":1738847792,"current_range_meters":30800,"station_id":"ce4bh112rcd13ifvqd90","pricing_plan_id":"cebpf4jnsgd1na2vs0mg"},{"bike_id":"a08c3f50-2972-4fb5-8d9c-2be5365819fb","system_id":"levelo_inurba_marseille","lat":43.31757,"lon":5.39009,"is_reserved":false,"is_disabled":false,"rental_uris":{"android":"levelo://app?vid=a08c3f50-2972-4fb5-8d9c-2be5365819fb","ios":"levelo://app?vid=a08c3f50-2972-4fb5-8d9c-2be5365819fb"},"vehicle_type_id":"4","last_reported":1738847792,"current_range_meters":39200,"station_id":"ce4bhqp2rcd13ifvqhng","pricing_plan_id":"cebpf4jnsgd1na2vs0mg"},{"bike_id":"9193840a-a4d3-45d8-a9f7-dfd661a76b64","system_id":"levelo_inurba_marseille","lat":43.3135,"lon":5.36687,"is_reserved":false,"is_disabled":false,"rental_uris":{"android":"levelo://app?vid=9193840a-a4d3-45d8-a9f7-dfd661a76b64","ios":"levelo://app?vid=9193840a-a4d3-45d8-a9f7-dfd661a76b64"},"vehicle_type_id":"4","last_reported":1738847792,"current_range_meters":38800,"station_id":"ce4bgr92rcd13ifvqc6g","pricing_plan_id":"cebpf4jnsgd1na2vs0mg"},{"bike_id":"39573a8c-34b2-4cc9-ba92-225c3e7f2f5f","system_id":"levelo_inurba_marseille","lat":43.29564,"lon":5.37522,"is_reserved":false,"is_disabled":false,"rental_uris":{"android":"levelo://app?vid=39573a8c-34b2-4cc9-ba92-225c3e7f2f5f","ios":"levelo://app?vid=39573a8c-34b2-4cc9-ba92-225c3e7f2f5f"},"vehicle_type_id":"4","last_reported":1738847792,"current_range_meters":5600,"station_id":"ce4bgh92rcd13ifvqb50","pricing_plan_id":"cebpf4jnsgd1na2vs0mg"},{"bike_id":"0f3bc404-5106-438a-bb43-c3e45215f23b","system_id":"levelo_inurba_marseille","lat":43.30424,"lon":5.41279,"is_reserved":false,"is_disabled":false,"rental_uris":{"android":"levelo://app?vid=0f3bc404-5106-438a-bb43-c3e45215f23b","ios":"levelo://app?vid=0f3bc404-5106-438a-bb43-c3e45215f23b"},"vehicle_type_id":"4","last_reported":1738847792,"current_range_meters":38800,"station_id":"ce4bhop2rcd13ifvqh8g","pricing_plan_id":"cebpf4jnsgd1na2vs0mg"},{"bike_id":"88ce7e1b-d6f8-4620-beef-be982f304f3e","system_id":"levelo_inurba_marseille","lat":43.32107,"lon":5.36763,"is_reserved":false,"is_disabled":false,"rental_uris":{"android":"levelo://app?vid=88ce7e1b-d6f8-4620-beef-be982f304f3e","ios":"levelo://app?vid=88ce7e1b-d6f8-4620-beef-be982f304f3e"},"vehicle_type_id":"4","last_reported":1738847792,"current_range_meters":37600,"station_id":"ce4bhrh2rcd13ifvqhug","pricing_plan_id":"cebpf4jnsgd1na2vs0mg"},{"bike_id":"344d1955-5263-40eb-a201-ab603aa02c10","system_id":"levelo_inurba_marseille","lat":43.23958,"lon":5.36632,"is_reserved":false,"is_disabled":false,"rental_uris":{"android":"levelo://app?vid=344d1955-5263-40eb-a201-ab603aa02c10","ios":"levelo://app?vid=344d1955-5263-40eb-a201-ab603aa02c10"},"vehicle_type_id":"4","last_reported":1738847792,"current_range_meters":38000,"station_id":"ce4bhi12rcd13ifvqfp0","pricing_plan_id":"cebpf4jnsgd1na2vs0mg"},{"bike_id":"0083c554-f72b-4dec-a9ea-993a6d3d9431","system_id":"levelo_inurba_marseille","lat":43.27064,"lon":5.4027,"is_reserved":false,"is_disabled":false,"rental_uris":{"android":"levelo://app?vid=0083c554-f72b-4dec-a9ea-993a6d3d9431","ios":"levelo://app?vid=0083c554-f72b-4dec-a9ea-993a6d3d9431"},"vehicle_type_id":"4","last_reported":1738847792,"current_range_meters":6400,"station_id":"ce4bhk92rcd13ifvqgc0","pricing_plan_id":"cebpf4jnsgd1na2vs0mg"},{"bike_id":"4973b1c3-b0fd-4f70-8ba4-b7dc2b3639d8","system_id":"levelo_inurba_marseille","lat":43.2695,"lon":5.38644,"is_reserved":false,"is_disabled":false,"rental_uris":{"android":"levelo://app?vid=4973b1c3-b0fd-4f70-8ba4-b7dc2b3639d8","ios":"levelo://app?vid=4973b1c3-b0fd-4f70-8ba4-b7dc2b3639d8"},"vehicle_type_id":"4","last_reported":1738847792,"current_range_meters":38800,"station_id":"ce4bhh92rcd13ifvqfh0","pricing_plan_id":"cebpf4jnsgd1na2vs0mg"},{"bike_id":"20ae6716-0886-47b7-8db9-d027ffe29cf3","system_id":"levelo_inurba_marseille","lat":43.27977,"lon":5.400287,"is_reserved":false,"is_disabled":false,"rental_uris":{"android":"levelo://app?vid=20ae6716-0886-47b7-8db9-d027ffe29cf3","ios":"levelo://app?vid=20ae6716-0886-47b7-8db9-d027ffe29cf3"},"vehicle_type_id":"4","last_reported":1738847792,"current_range_meters":38800,"station_id":"ce4bho92rcd13ifvqh4g","pricing_plan_id":"cebpf4jnsgd1na2vs0mg"},{"bike_id":"786af5a6-7181-4746-8e7c-5055a97f6274","system_id":"levelo_inurba_marseille","lat":43.28156,"lon":5.42645,"is_reserved":false,"is_disabled":false,"rental_uris":{"android":"levelo://app?vid=786af5a6-7181-4746-8e7c-5055a97f6274","ios":"levelo://app?vid=786af5a6-7181-4746-8e7c-5055a97f6274"},"vehicle_type_id":"4","last_reported":1738847792,"current_range_meters":28000,"station_id":"ce4bhnh2rcd13ifvqgug","pricing_plan_id":"cebpf4jnsgd1na2vs0mg"},{"bike_id":"e15065a6-8250-416b-8039-693e48ff6eed","system_id":"levelo_inurba_marseille","lat":43.24184,"lon":5.39721,"is_reserved":false,"is_disabled":false,"rental_uris":{"android":"levelo://app?vid=e15065a6-8250-416b-8039-693e48ff6eed","ios":"levelo://app?vid=e15065a6-8250-416b-8039-693e48ff6eed"},"vehicle_type_id":"4","last_reported":1738847792,"current_range_meters":38400,"station_id":"ce4bhn12rcd13ifvqgpg","pricing_plan_id":"cebpf4jnsgd1na2vs0mg"},{"bike_id":"9e5ca2fc-5cbe-46cd-b90d-7181c4fbf0ab","system_id":"levelo_inurba_marseille","lat":43.29172,"lon":5.37147,"is_reserved":false,"is_disabled":false,"rental_uris":{"android":"levelo://app?vid=9e5ca2fc-5cbe-46cd-b90d-7181c4fbf0ab","ios":"levelo://app?vid=9e5ca2fc-5cbe-46cd-b90d-7181c4fbf0ab"},"vehicle_type_id":"4","last_reported":1738847792,"current_range_meters":22400,"station_id":"ce4bha92rcd13ifvqeh0","pricing_plan_id":"cebpf4jnsgd1na2vs0mg"},{"bike_id":"dea3caf3-4372-452d-a8b7-101a967d7129","system_id":"levelo_inurba_marseille","lat":43.24168,"lon":5.39727,"is_reserved":false,"is_disabled":false,"rental_uris":{"android":"levelo://app?vid=dea3caf3-4372-452d-a8b7-101a967d7129","ios":"levelo://app?vid=dea3caf3-4372-452d-a8b7-101a967d7129"},"vehicle_type_id":"4","last_reported":1738847792,"current_range_meters":16400,"station_id":"ce4bhn12rcd13ifvqgpg","pricing_plan_id":"cebpf4jnsgd1na2vs0mg"},{"bike_id":"30384a0f-2118-413d-a01c-545306047bb3","system_id":"levelo_inurba_marseille","lat":43.30655,"lon":5.40087,"is_reserved":false,"is_disabled":false,"rental_uris":{"android":"levelo://app?vid=30384a0f-2118-413d-a01c-545306047bb3","ios":"levelo://app?vid=30384a0f-2118-413d-a01c-545306047bb3"},"vehicle_type_id":"4","last_reported":1738847792,"current_range_meters":38000,"station_id":"ce4bh112rcd13ifvqda0","pricing_plan_id":"cebpf4jnsgd1na2vs0mg"},{"bike_id":"1346bfbe-e75e-4491-bef8-e7d304b3cb06","system_id":"levelo_inurba_marseille","lat":43.2895,"lon":5.36631,"is_reserved":false,"is_disabled":false,"rental_uris":{"android":"levelo://app?vid=1346bfbe-e75e-4491-bef8-e7d304b3cb06","ios":"levelo://app?vid=1346bfbe-e75e-4491-bef8-e7d304b3cb06"},"vehicle_type_id":"4","last_reported":1738847792,"current_range_meters":36800,"station_id":"ce4bhap2rcd13ifvqek0","pricing_plan_id":"cebpf4jnsgd1na2vs0mg"},{"bike_id":"9b7355dc-7165-40f0-8cd2-81f22484ab5d","system_id":"levelo_inurba_marseille","lat":43.2397,"lon":5.3662,"is_reserved":false,"is_disabled":false,"rental_uris":{"android":"levelo://app?vid=9b7355dc-7165-40f0-8cd2-81f22484ab5d","ios":"levelo://app?vid=9b7355dc-7165-40f0-8cd2-81f22484ab5d"},"vehicle_type_id":"4","last_reported":1738847792,"current_range_meters":32000,"station_id":"ce4bhi12rcd13ifvqfp0","pricing_plan_id":"cebpf4jnsgd1na2vs0mg"},{"bike_id":"90535df1-0ce1-4ee3-9be0-17f57a11fd91","system_id":"levelo_inurba_marseille","lat":43.27374,"lon":5.36255,"is_reserved":false,"is_disabled":false,"rental_uris":{"android":"levelo://app?vid=90535df1-0ce1-4ee3-9be0-17f57a11fd91","ios":"levelo://app?vid=90535df1-0ce1-4ee3-9be0-17f57a11fd91"},"vehicle_type_id":"4","last_reported":1738847792,"current_range_meters":27600,"station_id":"ce4bhbh2rcd13ifvqeo0","pricing_plan_id":"cebpf4jnsgd1na2vs0mg"},{"bike_id":"1a4ce9d9-0df0-436f-9557-26a2bb40d43e","system_id":"levelo_inurba_marseille","lat":43.30929,"lon":5.36823,"is_reserved":false,"is_disabled":false,"rental_uris":{"android":"levelo://app?vid=1a4ce9d9-0df0-436f-9557-26a2bb40d43e","ios":"levelo://app?vid=1a4ce9d9-0df0-436f-9557-26a2bb40d43e"},"vehicle_type_id":"4","last_reported":1738847792,"current_range_meters":18000,"station_id":"ce4bgn92rcd13ifvqbvg","pricing_plan_id":"cebpf4jnsgd1na2vs0mg"},{"bike_id":"5faf1ae7-8dab-473f-a1d4-d668766e2b45","system_id":"levelo_inurba_marseille","lat":43.267,"lon":5.3827,"is_reserved":false,"is_disabled":false,"rental_uris":{"android":"levelo://app?vid=5faf1ae7-8dab-473f-a1d4-d668766e2b45","ios":"levelo://app?vid=5faf1ae7-8dab-473f-a1d4-d668766e2b45"},"vehicle_type_id":"4","last_reported":1738847792,"current_range_meters":27600,"station_id":"ce4bhg92rcd13ifvqf90","pricing_plan_id":"cebpf4jnsgd1na2vs0mg"},{"bike_id":"4f5ffbaf-7726-4c1d-9d69-983c8c211d63","system_id":"levelo_inurba_marseille","lat":43.28421,"lon":5.34989,"is_reserved":false,"is_disabled":false,"rental_uris":{"android":"levelo://app?vid=4f5ffbaf-7726-4c1d-9d69-983c8c211d63","ios":"levelo://app?vid=4f5ffbaf-7726-4c1d-9d69-983c8c211d63"},"vehicle_type_id":"4","last_reported":1738847792,"current_range_meters":8000,"station_id":"ce4bhbh2rcd13ifvqepg","pricing_plan_id":"cebpf4jnsgd1na2vs0mg"},{"bike_id":"1b672d68-89f6-4797-9e5c-3fcb2caefe46","system_id":"levelo_inurba_marseille","lat":43.25001,"lon":5.38935,"is_reserved":false,"is_disabled":false,"rental_uris":{"android":"levelo://app?vid=1b672d68-89f6-4797-9e5c-3fcb2caefe46","ios":"levelo://app?vid=1b672d68-89f6-4797-9e5c-3fcb2caefe46"},"vehicle_type_id":"4","last_reported":1738847792,"current_range_meters":18000,"station_id":"ce4bhgp2rcd13ifvqfd0","pricing_plan_id":"cebpf4jnsgd1na2vs0mg"},{"bike_id":"8df48950-0500-4b08-a2bc-6ac590159577","system_id":"levelo_inurba_marseille","lat":43.26953,"lon":5.38627,"is_reserved":false,"is_disabled":false,"rental_uris":{"android":"levelo://app?vid=8df48950-0500-4b08-a2bc-6ac590159577","ios":"levelo://app?vid=8df48950-0500-4b08-a2bc-6ac590159577"},"vehicle_type_id":"4","last_reported":1738847792,"current_range_meters":24000,"station_id":"ce4bhh92rcd13ifvqfh0","pricing_plan_id":"cebpf4jnsgd1na2vs0mg"},{"bike_id":"60bd43fc-1502-42f4-89a3-1f42b0003495","system_id":"levelo_inurba_marseille","lat":43.28104,"lon":5.37838,"is_reserved":false,"is_disabled":false,"rental_uris":{"android":"levelo://app?vid=60bd43fc-1502-42f4-89a3-1f42b0003495","ios":"levelo://app?vid=60bd43fc-1502-42f4-89a3-1f42b0003495"},"vehicle_type_id":"4","last_reported":1738847792,"current_range_meters":28000,"station_id":"ce4bha12rcd13ifvqee0","pricing_plan_id":"cebpf4jnsgd1na2vs0mg"},{"bike_id":"e6edb276-e20b-43cc-83c7-01f362fbb974","system_id":"levelo_inurba_marseille","lat":43.24806,"lon":5.37449,"is_reserved":false,"is_disabled":true,"rental_uris":{"android":"levelo://app?vid=e6edb276-e20b-43cc-83c7-01f362fbb974","ios":"levelo://app?vid=e6edb276-e20b-43cc-83c7-01f362fbb974"},"vehicle_type_id":"4","last_reported":1738847792,"current_range_meters":0,"station_id":"ce4bhgh2rcd13ifvqfb0","pricing_plan_id":"cebpf4jnsgd1na2vs0mg"},{"bike_id":"6100990f-c4b7-4419-ab12-3d9c2a9f7c81","system_id":"levelo_inurba_marseille","lat":43.28281,"lon":5.35128,"is_reserved":false,"is_disabled":false,"rental_uris":{"android":"levelo://app?vid=6100990f-c4b7-4419-ab12-3d9c2a9f7c81","ios":"levelo://app?vid=6100990f-c4b7-4419-ab12-3d9c2a9f7c81"},"vehicle_type_id":"4","last_reported":1738847792,"current_range_meters":34800,"station_id":"","pricing_plan_id":"cebpf4jnsgd1na2vs0mg"},{"bike_id":"f374f7bb-b748-45cc-9d0d-bb6cc354d08a","system_id":"levelo_inurba_marseille","lat":43.32655,"lon":5.40998,"is_reserved":false,"is_disabled":false,"rental_uris":{"android":"levelo://app?vid=f374f7bb-b748-45cc-9d0d-bb6cc354d08a","ios":"levelo://app?vid=f374f7bb-b748-45cc-9d0d-bb6cc354d08a"},"vehicle_type_id":"4","last_reported":1738847792,"current_range_meters":32000,"station_id":"ce4bhpp2rcd13ifvqhgg","pricing_plan_id":"cebpf4jnsgd1na2vs0mg"},{"bike_id":"bcc1bee9-cbcc-437b-8e4e-5a80c47f696c","system_id":"levelo_inurba_marseille","lat":43.29622,"lon":5.38103,"is_reserved":false,"is_disabled":false,"rental_uris":{"android":"levelo://app?vid=bcc1bee9-cbcc-437b-8e4e-5a80c47f696c","ios":"levelo://app?vid=bcc1bee9-cbcc-437b-8e4e-5a80c47f696c"},"vehicle_type_id":"4","last_reported":1738847792,"current_range_meters":37600,"station_id":"ce4bgl12rcd13ifvqbo0","pricing_plan_id":"cebpf4jnsgd1na2vs0mg"},{"bike_id":"d1e9f9c6-9325-44bf-8e14-85c2aa4d8c41","system_id":"levelo_inurba_marseille","lat":43.28271,"lon":5.3505,"is_reserved":false,"is_disabled":false,"rental_uris":{"android":"levelo://app?vid=d1e9f9c6-9325-44bf-8e14-85c2aa4d8c41","ios":"levelo://app?vid=d1e9f9c6-9325-44bf-8e14-85c2aa4d8c41"},"vehicle_type_id":"4","last_reported":1738847792,"current_range_meters":20000,"station_id":"ce4bhbp2rcd13ifvqerg","pricing_plan_id":"cebpf4jnsgd1na2vs0mg"},{"bike_id":"6867001b-615b-4a5f-9f6f-1fe932da162e","system_id":"levelo_inurba_marseille","lat":43.30625,"lon":5.3723,"is_reserved":false,"is_disabled":false,"rental_uris":{"android":"levelo://app?vid=6867001b-615b-4a5f-9f6f-1fe932da162e","ios":"levelo://app?vid=6867001b-615b-4a5f-9f6f-1fe932da162e"},"vehicle_type_id":"4","last_reported":1738847792,"current_range_meters":38000,"station_id":"ce4bgqh2rcd13ifvqc4g","pricing_plan_id":"cebpf4jnsgd1na2vs0mg"},{"bike_id":"b4505583-e3f7-49e7-b331-b13c7923de2e","system_id":"levelo_inurba_marseille","lat":43.28044,"lon":5.36949,"is_reserved":false,"is_disabled":false,"rental_uris":{"android":"levelo://app?vid=b4505583-e3f7-49e7-b331-b13c7923de2e","ios":"levelo://app?vid=b4505583-e3f7-49e7-b331-b13c7923de2e"},"vehicle_type_id":"4","last_reported":1738847792,"current_range_meters":31200,"station_id":"ce4bha12rcd13ifvqef0","pricing_plan_id":"cebpf4jnsgd1na2vs0mg"},{"bike_id":"5a3dc70e-cca6-4850-8b0a-be39d9bb82df","system_id":"levelo_inurba_marseille","lat":43.25724,"lon":5.41115,"is_reserved":false,"is_disabled":false,"rental_uris":{"android":"levelo://app?vid=5a3dc70e-cca6-4850-8b0a-be39d9bb82df","ios":"levelo://app?vid=5a3dc70e-cca6-4850-8b0a-be39d9bb82df"},"vehicle_type_id":"4","last_reported":1738847792,"current_range_meters":39200,"station_id":"ce4bhkp2rcd13ifvqgd0","pricing_plan_id":"cebpf4jnsgd1na2vs0mg"},{"bike_id":"bc4186b3-1073-492b-ab95-0326a7b12d0e","system_id":"levelo_inurba_marseille","lat":43.28431,"lon":5.34988,"is_reserved":false,"is_disabled":false,"rental_uris":{"android":"levelo://app?vid=bc4186b3-1073-492b-ab95-0326a7b12d0e","ios":"levelo://app?vid=bc4186b3-1073-492b-ab95-0326a7b12d0e"},"vehicle_type_id":"4","last_reported":1738847792,"current_range_meters":32000,"station_id":"ce4bhbh2rcd13ifvqepg","pricing_plan_id":"cebpf4jnsgd1na2vs0mg"},{"bike_id":"b2bd2ac3-e33a-4af6-b513-3816f6338a13","system_id":"levelo_inurba_marseille","lat":43.245712,"lon":5.394913,"is_reserved":false,"is_disabled":false,"rental_uris":{"android":"levelo://app?vid=b2bd2ac3-e33a-4af6-b513-3816f6338a13","ios":"levelo://app?vid=b2bd2ac3-e33a-4af6-b513-3816f6338a13"},"vehicle_type_id":"4","last_reported":1738847792,"current_range_meters":20000,"station_id":"ce4bhlp2rcd13ifvqgjg","pricing_plan_id":"cebpf4jnsgd1na2vs0mg"},{"bike_id":"2502a83f-59c8-4e6c-a522-fa56238bf57b","system_id":"levelo_inurba_marseille","lat":43.24561,"lon":5.39531,"is_reserved":false,"is_disabled":false,"rental_uris":{"android":"levelo://app?vid=2502a83f-59c8-4e6c-a522-fa56238bf57b","ios":"levelo://app?vid=2502a83f-59c8-4e6c-a522-fa56238bf57b"},"vehicle_type_id":"4","last_reported":1738847792,"current_range_meters":39200,"station_id":"ce4bhlp2rcd13ifvqgjg","pricing_plan_id":"cebpf4jnsgd1na2vs0mg"},{"bike_id":"7284181b-60c1-4075-adca-d837a205d46f","system_id":"levelo_inurba_marseille","lat":43.27952,"lon":5.41051,"is_reserved":false,"is_disabled":false,"rental_uris":{"android":"levelo://app?vid=7284181b-60c1-4075-adca-d837a205d46f","ios":"levelo://app?vid=7284181b-60c1-4075-adca-d837a205d46f"},"vehicle_type_id":"4","last_reported":1738847792,"current_range_meters":14000,"station_id":"ce4bhnp2rcd13ifvqh0g","pricing_plan_id":"cebpf4jnsgd1na2vs0mg"},{"bike_id":"434166d5-5641-4cb0-8226-50315c2bc2ea","system_id":"levelo_inurba_marseille","lat":43.25149,"lon":5.40355,"is_reserved":false,"is_disabled":false,"rental_uris":{"android":"levelo://app?vid=434166d5-5641-4cb0-8226-50315c2bc2ea","ios":"levelo://app?vid=434166d5-5641-4cb0-8226-50315c2bc2ea"},"vehicle_type_id":"4","last_reported":1738847792,"current_range_meters":22000,"station_id":"","pricing_plan_id":"cebpf4jnsgd1na2vs0mg"},{"bike_id":"f2f5faee-8807-4570-acdb-9ab56ad43b0b","system_id":"levelo_inurba_marseille","lat":43.31338,"lon":5.36743,"is_reserved":false,"is_disabled":false,"rental_uris":{"android":"levelo://app?vid=f2f5faee-8807-4570-acdb-9ab56ad43b0b","ios":"levelo://app?vid=f2f5faee-8807-4570-acdb-9ab56ad43b0b"},"vehicle_type_id":"4","last_reported":1738847792,"current_range_meters":27200,"station_id":"ce4bgr92rcd13ifvqc6g","pricing_plan_id":"cebpf4jnsgd1na2vs0mg"},{"bike_id":"2b52254f-933d-4903-ac07-21eb27a1e798","system_id":"levelo_inurba_marseille","lat":43.2718,"lon":5.40998,"is_reserved":false,"is_disabled":false,"rental_uris":{"android":"levelo://app?vid=2b52254f-933d-4903-ac07-21eb27a1e798","ios":"levelo://app?vid=2b52254f-933d-4903-ac07-21eb27a1e798"},"vehicle_type_id":"4","last_reported":1738847792,"current_range_meters":36800,"station_id":"ce4bhl12rcd13ifvqgf0","pricing_plan_id":"cebpf4jnsgd1na2vs0mg"},{"bike_id":"7f8991b5-2053-49be-b751-4f2c5ddcae9b","system_id":"levelo_inurba_marseille","lat":43.31761,"lon":5.39004,"is_reserved":false,"is_disabled":false,"rental_uris":{"android":"levelo://app?vid=7f8991b5-2053-49be-b751-4f2c5ddcae9b","ios":"levelo://app?vid=7f8991b5-2053-49be-b751-4f2c5ddcae9b"},"vehicle_type_id":"4","last_reported":1738847792,"current_range_meters":22400,"station_id":"ce4bhqp2rcd13ifvqhng","pricing_plan_id":"cebpf4jnsgd1na2vs0mg"},{"bike_id":"c3ec81c5-55a3-441b-a441-84365219d5ea","system_id":"levelo_inurba_marseille","lat":43.27826,"lon":5.43429,"is_reserved":false,"is_disabled":false,"rental_uris":{"android":"levelo://app?vid=c3ec81c5-55a3-441b-a441-84365219d5ea","ios":"levelo://app?vid=c3ec81c5-55a3-441b-a441-84365219d5ea"},"vehicle_type_id":"4","last_reported":1738847792,"current_range_meters":4000,"station_id":"","pricing_plan_id":"cebpf4jnsgd1na2vs0mg"},{"bike_id":"be772c64-4232-4e92-889d-31e86f91cdf3","system_id":"levelo_inurba_marseille","lat":43.29366,"lon":5.3783,"is_reserved":false,"is_disabled":false,"rental_uris":{"android":"levelo://app?vid=be772c64-4232-4e92-889d-31e86f91cdf3","ios":"levelo://app?vid=be772c64-4232-4e92-889d-31e86f91cdf3"},"vehicle_type_id":"4","last_reported":1738847792,"current_range_meters":38000,"station_id":"ce4bgjh2rcd13ifvqbf0","pricing_plan_id":"cebpf4jnsgd1na2vs0mg"},{"bike_id":"1a0c5923-e55d-424b-8146-37481455e520","system_id":"levelo_inurba_marseille","lat":43.27499,"lon":5.42458,"is_reserved":false,"is_disabled":false,"rental_uris":{"android":"levelo://app?vid=1a0c5923-e55d-424b-8146-37481455e520","ios":"levelo://app?vid=1a0c5923-e55d-424b-8146-37481455e520"},"vehicle_type_id":"4","last_reported":1738847792,"current_range_meters":20800,"station_id":"ce4bhn92rcd13ifvqgrg","pricing_plan_id":"cebpf4jnsgd1na2vs0mg"},{"bike_id":"62444b51-acfe-48b6-8007-d203c31f0a39","system_id":"levelo_inurba_marseille","lat":43.29706,"lon":5.37711,"is_reserved":false,"is_disabled":false,"rental_uris":{"android":"levelo://app?vid=62444b51-acfe-48b6-8007-d203c31f0a39","ios":"levelo://app?vid=62444b51-acfe-48b6-8007-d203c31f0a39"},"vehicle_type_id":"4","last_reported":1738847792,"current_range_meters":38000,"station_id":"ce4bgkh2rcd13ifvqbl0","pricing_plan_id":"cebpf4jnsgd1na2vs0mg"},{"bike_id":"30cb9f15-09a3-49ec-8f40-f7fe676f5757","system_id":"levelo_inurba_marseille","lat":43.26035,"lon":5.37553,"is_reserved":false,"is_disabled":false,"rental_uris":{"android":"levelo://app?vid=30cb9f15-09a3-49ec-8f40-f7fe676f5757","ios":"levelo://app?vid=30cb9f15-09a3-49ec-8f40-f7fe676f5757"},"vehicle_type_id":"4","last_reported":1738847792,"current_range_meters":4000,"station_id":"ce4bhgh2rcd13ifvqfa0","pricing_plan_id":"cebpf4jnsgd1na2vs0mg"},{"bike_id":"0cd05763-606a-4efb-bd5d-c296b9cec394","system_id":"levelo_inurba_marseille","lat":43.24086,"lon":5.37757,"is_reserved":false,"is_disabled":false,"rental_uris":{"android":"levelo://app?vid=0cd05763-606a-4efb-bd5d-c296b9cec394","ios":"levelo://app?vid=0cd05763-606a-4efb-bd5d-c296b9cec394"},"vehicle_type_id":"4","last_reported":1738847792,"current_range_meters":28400,"station_id":"ce4bhnp2rcd13ifvqgvg","pricing_plan_id":"cebpf4jnsgd1na2vs0mg"},{"bike_id":"d8efbcd9-835a-4eeb-a01a-3017cb8037d5","system_id":"levelo_inurba_marseille","lat":43.29596,"lon":5.37503,"is_reserved":false,"is_disabled":false,"rental_uris":{"android":"levelo://app?vid=d8efbcd9-835a-4eeb-a01a-3017cb8037d5","ios":"levelo://app?vid=d8efbcd9-835a-4eeb-a01a-3017cb8037d5"},"vehicle_type_id":"4","last_reported":1738847792,"current_range_meters":38800,"station_id":"ce4bgh92rcd13ifvqb50","pricing_plan_id":"cebpf4jnsgd1na2vs0mg"},{"bike_id":"9eb01c18-d575-49b0-b335-bff70127852a","system_id":"levelo_inurba_marseille","lat":43.292507,"lon":5.384389,"is_reserved":false,"is_disabled":true,"rental_uris":{"android":"levelo://app?vid=9eb01c18-d575-49b0-b335-bff70127852a","ios":"levelo://app?vid=9eb01c18-d575-49b0-b335-bff70127852a"},"vehicle_type_id":"4","last_reported":1738847792,"current_range_meters":38400,"station_id":"ce4bh692rcd13ifvqea0","pricing_plan_id":"cebpf4jnsgd1na2vs0mg"},{"bike_id":"09963baf-f270-43fd-8845-1d0fc8b80973","system_id":"levelo_inurba_marseille","lat":43.29089,"lon":5.38148,"is_reserved":false,"is_disabled":true,"rental_uris":{"android":"levelo://app?vid=09963baf-f270-43fd-8845-1d0fc8b80973","ios":"levelo://app?vid=09963baf-f270-43fd-8845-1d0fc8b80973"},"vehicle_type_id":"4","last_reported":1738847792,"current_range_meters":0,"station_id":"ce4bh512rcd13ifvqe2g","pricing_plan_id":"cebpf4jnsgd1na2vs0mg"},{"bike_id":"4646af66-0dd4-47cf-83cb-4f3f70a6c2f5","system_id":"levelo_inurba_marseille","lat":43.2668,"lon":5.38272,"is_reserved":false,"is_disabled":false,"rental_uris":{"android":"levelo://app?vid=4646af66-0dd4-47cf-83cb-4f3f70a6c2f5","ios":"levelo://app?vid=4646af66-0dd4-47cf-83cb-4f3f70a6c2f5"},"vehicle_type_id":"4","last_reported":1738847792,"current_range_meters":38800,"station_id":"ce4bhg92rcd13ifvqf90","pricing_plan_id":"cebpf4jnsgd1na2vs0mg"},{"bike_id":"2c310423-76b6-48f4-b2ac-2e94c730b007","system_id":"levelo_inurba_marseille","lat":43.28126,"lon":5.37876,"is_reserved":false,"is_disabled":false,"rental_uris":{"android":"levelo://app?vid=2c310423-76b6-48f4-b2ac-2e94c730b007","ios":"levelo://app?vid=2c310423-76b6-48f4-b2ac-2e94c730b007"},"vehicle_type_id":"4","last_reported":1738847792,"current_range_meters":36400,"station_id":"ce4bha12rcd13ifvqee0","pricing_plan_id":"cebpf4jnsgd1na2vs0mg"},{"bike_id":"be9f4333-5473-4694-b66e-aa68202e2103","system_id":"levelo_inurba_marseille","lat":43.28348,"lon":5.38098,"is_reserved":false,"is_disabled":false,"rental_uris":{"android":"levelo://app?vid=be9f4333-5473-4694-b66e-aa68202e2103","ios":"levelo://app?vid=be9f4333-5473-4694-b66e-aa68202e2103"},"vehicle_type_id":"4","last_reported":1738847792,"current_range_meters":28800,"station_id":"ce4bh412rcd13ifvqdr0","pricing_plan_id":"cebpf4jnsgd1na2vs0mg"},{"bike_id":"fab9910f-f448-49b1-be37-4c6c5ae3862a","system_id":"levelo_inurba_marseille","lat":43.27808,"lon":5.40719,"is_reserved":false,"is_disabled":false,"rental_uris":{"android":"levelo://app?vid=fab9910f-f448-49b1-be37-4c6c5ae3862a","ios":"levelo://app?vid=fab9910f-f448-49b1-be37-4c6c5ae3862a"},"vehicle_type_id":"4","last_reported":1738847792,"current_range_meters":38800,"station_id":"ce4bhnh2rcd13ifvqgtg","pricing_plan_id":"cebpf4jnsgd1na2vs0mg"},{"bike_id":"dfd7a4d1-9cc9-4353-9f27-02a2bff4b934","system_id":"levelo_inurba_marseille","lat":43.29068,"lon":5.37545,"is_reserved":false,"is_disabled":false,"rental_uris":{"android":"levelo://app?vid=dfd7a4d1-9cc9-4353-9f27-02a2bff4b934","ios":"levelo://app?vid=dfd7a4d1-9cc9-4353-9f27-02a2bff4b934"},"vehicle_type_id":"4","last_reported":1738847792,"current_range_meters":28400,"station_id":"ce4bhbp2rcd13ifvqerg","pricing_plan_id":"cebpf4jnsgd1na2vs0mg"},{"bike_id":"6293896a-658c-47b9-b858-b62c3cf3f2f8","system_id":"levelo_inurba_marseille","lat":43.24082,"lon":5.37756,"is_reserved":false,"is_disabled":false,"rental_uris":{"android":"levelo://app?vid=6293896a-658c-47b9-b858-b62c3cf3f2f8","ios":"levelo://app?vid=6293896a-658c-47b9-b858-b62c3cf3f2f8"},"vehicle_type_id":"4","last_reported":1738847792,"current_range_meters":9600,"station_id":"ce4bhnp2rcd13ifvqgvg","pricing_plan_id":"cebpf4jnsgd1na2vs0mg"},{"bike_id":"66c91f0e-d404-4399-99c9-77276ceb134d","system_id":"levelo_inurba_marseille","lat":43.30541,"lon":5.36536,"is_reserved":false,"is_disabled":false,"rental_uris":{"android":"levelo://app?vid=66c91f0e-d404-4399-99c9-77276ceb134d","ios":"levelo://app?vid=66c91f0e-d404-4399-99c9-77276ceb134d"},"vehicle_type_id":"4","last_reported":1738847792,"current_range_meters":33600,"station_id":"ce4bgs12rcd13ifvqcag","pricing_plan_id":"cebpf4jnsgd1na2vs0mg"},{"bike_id":"0fe75a77-59c8-4e9b-a9c0-5d484c957c5c","system_id":"levelo_inurba_marseille","lat":43.287367,"lon":5.379275,"is_reserved":false,"is_disabled":true,"rental_uris":{"android":"levelo://app?vid=0fe75a77-59c8-4e9b-a9c0-5d484c957c5c","ios":"levelo://app?vid=0fe75a77-59c8-4e9b-a9c0-5d484c957c5c"},"vehicle_type_id":"4","last_reported":1738847792,"current_range_meters":39200,"station_id":"ce4bh9p2rcd13ifvqec0","pricing_plan_id":"cebpf4jnsgd1na2vs0mg"},{"bike_id":"bab07d03-5352-4a1b-80e4-e1f9df8edacd","system_id":"levelo_inurba_marseille","lat":43.23198,"lon":5.35555,"is_reserved":false,"is_disabled":false,"rental_uris":{"android":"levelo://app?vid=bab07d03-5352-4a1b-80e4-e1f9df8edacd","ios":"levelo://app?vid=bab07d03-5352-4a1b-80e4-e1f9df8edacd"},"vehicle_type_id":"4","last_reported":1738847792,"current_range_meters":33200,"station_id":"ce4bhu92rcd13ifvqi70","pricing_plan_id":"cebpf4jnsgd1na2vs0mg"},{"bike_id":"c9f152c9-75c7-43f0-945b-0ea42ff300e0","system_id":"levelo_inurba_marseille","lat":43.32552,"lon":5.41482,"is_reserved":false,"is_disabled":false,"rental_uris":{"android":"levelo://app?vid=c9f152c9-75c7-43f0-945b-0ea42ff300e0","ios":"levelo://app?vid=c9f152c9-75c7-43f0-945b-0ea42ff300e0"},"vehicle_type_id":"4","last_reported":1738847792,"current_range_meters":27200,"station_id":"","pricing_plan_id":"cebpf4jnsgd1na2vs0mg"},{"bike_id":"f364ec4e-77a4-4264-a1e7-cc094d8dec9d","system_id":"levelo_inurba_marseille","lat":43.2559,"lon":5.3824,"is_reserved":false,"is_disabled":false,"rental_uris":{"android":"levelo://app?vid=f364ec4e-77a4-4264-a1e7-cc094d8dec9d","ios":"levelo://app?vid=f364ec4e-77a4-4264-a1e7-cc094d8dec9d"},"vehicle_type_id":"4","last_reported":1738847792,"current_range_meters":39200,"station_id":"ce4bhih2rcd13ifvqfs0","pricing_plan_id":"cebpf4jnsgd1na2vs0mg"},{"bike_id":"5cf97d94-022b-4d61-b384-2f21715c0760","system_id":"levelo_inurba_marseille","lat":43.24087,"lon":5.37755,"is_reserved":false,"is_disabled":false,"rental_uris":{"android":"levelo://app?vid=5cf97d94-022b-4d61-b384-2f21715c0760","ios":"levelo://app?vid=5cf97d94-022b-4d61-b384-2f21715c0760"},"vehicle_type_id":"4","last_reported":1738847792,"current_range_meters":20400,"station_id":"ce4bhnp2rcd13ifvqgvg","pricing_plan_id":"cebpf4jnsgd1na2vs0mg"},{"bike_id":"15ae9215-f51b-4554-80b8-c11ca72ed0d7","system_id":"levelo_inurba_marseille","lat":43.30791,"lon":5.43531,"is_reserved":false,"is_disabled":false,"rental_uris":{"android":"levelo://app?vid=15ae9215-f51b-4554-80b8-c11ca72ed0d7","ios":"levelo://app?vid=15ae9215-f51b-4554-80b8-c11ca72ed0d7"},"vehicle_type_id":"4","last_reported":1738847792,"current_range_meters":32000,"station_id":"ce4bhph2rcd13ifvqheg","pricing_plan_id":"cebpf4jnsgd1na2vs0mg"},{"bike_id":"5ac0c598-3f1d-4248-8ea4-f785651e19bf","system_id":"levelo_inurba_marseille","lat":43.32526,"lon":5.41429,"is_reserved":false,"is_disabled":false,"rental_uris":{"android":"levelo://app?vid=5ac0c598-3f1d-4248-8ea4-f785651e19bf","ios":"levelo://app?vid=5ac0c598-3f1d-4248-8ea4-f785651e19bf"},"vehicle_type_id":"4","last_reported":1738847792,"current_range_meters":38800,"station_id":"ce4bhq12rcd13ifvqhhg","pricing_plan_id":"cebpf4jnsgd1na2vs0mg"},{"bike_id":"595588ff-42cd-4170-8c75-046e92bfb34d","system_id":"levelo_inurba_marseille","lat":43.3046,"lon":5.37909,"is_reserved":false,"is_disabled":true,"rental_uris":{"android":"levelo://app?vid=595588ff-42cd-4170-8c75-046e92bfb34d","ios":"levelo://app?vid=595588ff-42cd-4170-8c75-046e92bfb34d"},"vehicle_type_id":"4","last_reported":1738847792,"current_range_meters":14000,"station_id":"ce4bho92rcd13ifvqh3g","pricing_plan_id":"cebpf4jnsgd1na2vs0mg"},{"bike_id":"e8c55bc4-da44-41db-b5ed-37373a1066d4","system_id":"levelo_inurba_marseille","lat":43.25941,"lon":5.40897,"is_reserved":false,"is_disabled":false,"rental_uris":{"android":"levelo://app?vid=e8c55bc4-da44-41db-b5ed-37373a1066d4","ios":"levelo://app?vid=e8c55bc4-da44-41db-b5ed-37373a1066d4"},"vehicle_type_id":"4","last_reported":1738847792,"current_range_meters":16000,"station_id":"ce4bhm92rcd13ifvqglg","pricing_plan_id":"cebpf4jnsgd1na2vs0mg"},{"bike_id":"934710cf-9010-4a78-81b6-34b30dbe6d5c","system_id":"levelo_inurba_marseille","lat":43.26207,"lon":5.37908,"is_reserved":false,"is_disabled":false,"rental_uris":{"android":"levelo://app?vid=934710cf-9010-4a78-81b6-34b30dbe6d5c","ios":"levelo://app?vid=934710cf-9010-4a78-81b6-34b30dbe6d5c"},"vehicle_type_id":"4","last_reported":1738847792,"current_range_meters":38800,"station_id":"ce4bhjp2rcd13ifvqg90","pricing_plan_id":"cebpf4jnsgd1na2vs0mg"},{"bike_id":"ccbc292f-c370-4f3f-821e-eaf3a0a6e9d5","system_id":"levelo_inurba_marseille","lat":43.25685,"lon":5.4115,"is_reserved":false,"is_disabled":false,"rental_uris":{"android":"levelo://app?vid=ccbc292f-c370-4f3f-821e-eaf3a0a6e9d5","ios":"levelo://app?vid=ccbc292f-c370-4f3f-821e-eaf3a0a6e9d5"},"vehicle_type_id":"4","last_reported":1738847792,"current_range_meters":21600,"station_id":"ce4bhkp2rcd13ifvqgd0","pricing_plan_id":"cebpf4jnsgd1na2vs0mg"},{"bike_id":"1581d598-5307-4e55-905b-001a70f200f9","system_id":"levelo_inurba_marseille","lat":43.257255,"lon":5.411096,"is_reserved":false,"is_disabled":false,"rental_uris":{"android":"levelo://app?vid=1581d598-5307-4e55-905b-001a70f200f9","ios":"levelo://app?vid=1581d598-5307-4e55-905b-001a70f200f9"},"vehicle_type_id":"4","last_reported":1738847792,"current_range_meters":39200,"station_id":"ce4bhkp2rcd13ifvqgd0","pricing_plan_id":"cebpf4jnsgd1na2vs0mg"},{"bike_id":"3195df0f-c7f7-418e-961d-6b8b318a1678","system_id":"levelo_inurba_marseille","lat":43.30263,"lon":5.40077,"is_reserved":false,"is_disabled":false,"rental_uris":{"android":"levelo://app?vid=3195df0f-c7f7-418e-961d-6b8b318a1678","ios":"levelo://app?vid=3195df0f-c7f7-418e-961d-6b8b318a1678"},"vehicle_type_id":"4","last_reported":1738847792,"current_range_meters":9600,"station_id":"ce4bgvh2rcd13ifvqcs0","pricing_plan_id":"cebpf4jnsgd1na2vs0mg"},{"bike_id":"6522239a-3688-4f94-bb02-adaf4a055ea5","system_id":"levelo_inurba_marseille","lat":43.23228,"lon":5.35563,"is_reserved":false,"is_disabled":false,"rental_uris":{"android":"levelo://app?vid=6522239a-3688-4f94-bb02-adaf4a055ea5","ios":"levelo://app?vid=6522239a-3688-4f94-bb02-adaf4a055ea5"},"vehicle_type_id":"4","last_reported":1738847792,"current_range_meters":39200,"station_id":"ce4bhu92rcd13ifvqi70","pricing_plan_id":"cebpf4jnsgd1na2vs0mg"},{"bike_id":"bef1122d-062a-49cf-aee7-09ecdd1a9425","system_id":"levelo_inurba_marseille","lat":43.24084,"lon":5.37758,"is_reserved":false,"is_disabled":false,"rental_uris":{"android":"levelo://app?vid=bef1122d-062a-49cf-aee7-09ecdd1a9425","ios":"levelo://app?vid=bef1122d-062a-49cf-aee7-09ecdd1a9425"},"vehicle_type_id":"4","last_reported":1738847792,"current_range_meters":19200,"station_id":"ce4bhnp2rcd13ifvqgvg","pricing_plan_id":"cebpf4jnsgd1na2vs0mg"},{"bike_id":"6fd0c732-3a1a-4c3f-8237-1cac68335031","system_id":"levelo_inurba_marseille","lat":43.27497,"lon":5.42439,"is_reserved":false,"is_disabled":false,"rental_uris":{"android":"levelo://app?vid=6fd0c732-3a1a-4c3f-8237-1cac68335031","ios":"levelo://app?vid=6fd0c732-3a1a-4c3f-8237-1cac68335031"},"vehicle_type_id":"4","last_reported":1738847792,"current_range_meters":17600,"station_id":"ce4bhn92rcd13ifvqgrg","pricing_plan_id":"cebpf4jnsgd1na2vs0mg"},{"bike_id":"2067b896-33e2-45f5-86d8-d65552e3842f","system_id":"levelo_inurba_marseille","lat":43.30169,"lon":5.37414,"is_reserved":false,"is_disabled":false,"rental_uris":{"android":"levelo://app?vid=2067b896-33e2-45f5-86d8-d65552e3842f","ios":"levelo://app?vid=2067b896-33e2-45f5-86d8-d65552e3842f"},"vehicle_type_id":"4","last_reported":1738847792,"current_range_meters":38800,"station_id":"ce4bgs92rcd13ifvqcc0","pricing_plan_id":"cebpf4jnsgd1na2vs0mg"},{"bike_id":"cd07e062-2af1-406e-bcb9-5f1ec4730937","system_id":"levelo_inurba_marseille","lat":43.23069,"lon":5.35495,"is_reserved":false,"is_disabled":false,"rental_uris":{"android":"levelo://app?vid=cd07e062-2af1-406e-bcb9-5f1ec4730937","ios":"levelo://app?vid=cd07e062-2af1-406e-bcb9-5f1ec4730937"},"vehicle_type_id":"4","last_reported":1738847792,"current_range_meters":36400,"station_id":"cpo3342slgdg3j2ifvpg","pricing_plan_id":"cebpf4jnsgd1na2vs0mg"},{"bike_id":"c3644d12-8427-4602-9945-9ef42c46feca","system_id":"levelo_inurba_marseille","lat":43.24163,"lon":5.36395,"is_reserved":false,"is_disabled":false,"rental_uris":{"android":"levelo://app?vid=c3644d12-8427-4602-9945-9ef42c46feca","ios":"levelo://app?vid=c3644d12-8427-4602-9945-9ef42c46feca"},"vehicle_type_id":"4","last_reported":1738847792,"current_range_meters":36400,"station_id":"cpo36qri1sfpv3e86is0","pricing_plan_id":"cebpf4jnsgd1na2vs0mg"},{"bike_id":"aad07774-8bdc-4dc2-af93-6fca6de0b6b2","system_id":"levelo_inurba_marseille","lat":43.28347,"lon":5.38098,"is_reserved":false,"is_disabled":false,"rental_uris":{"android":"levelo://app?vid=aad07774-8bdc-4dc2-af93-6fca6de0b6b2","ios":"levelo://app?vid=aad07774-8bdc-4dc2-af93-6fca6de0b6b2"},"vehicle_type_id":"4","last_reported":1738847792,"current_range_meters":31200,"station_id":"ce4bh412rcd13ifvqdr0","pricing_plan_id":"cebpf4jnsgd1na2vs0mg"},{"bike_id":"20815bf0-f955-435e-a63e-482bd619f1c6","system_id":"levelo_inurba_marseille","lat":43.24174,"lon":5.39737,"is_reserved":false,"is_disabled":false,"rental_uris":{"android":"levelo://app?vid=20815bf0-f955-435e-a63e-482bd619f1c6","ios":"levelo://app?vid=20815bf0-f955-435e-a63e-482bd619f1c6"},"vehicle_type_id":"4","last_reported":1738847792,"current_range_meters":36400,"station_id":"ce4bhn12rcd13ifvqgpg","pricing_plan_id":"cebpf4jnsgd1na2vs0mg"},{"bike_id":"1e7bde43-ab8f-4755-b59a-acd0a53ae759","system_id":"levelo_inurba_marseille","lat":43.31716,"lon":5.42409,"is_reserved":false,"is_disabled":true,"rental_uris":{"android":"levelo://app?vid=1e7bde43-ab8f-4755-b59a-acd0a53ae759","ios":"levelo://app?vid=1e7bde43-ab8f-4755-b59a-acd0a53ae759"},"vehicle_type_id":"4","last_reported":1738847792,"current_range_meters":0,"station_id":"ce4bhp92rcd13ifvqhbg","pricing_plan_id":"cebpf4jnsgd1na2vs0mg"},{"bike_id":"7e5a38b7-f0c2-407f-af00-f68fa64f6683","system_id":"levelo_inurba_marseille","lat":43.29245,"lon":5.40911,"is_reserved":false,"is_disabled":false,"rental_uris":{"android":"levelo://app?vid=7e5a38b7-f0c2-407f-af00-f68fa64f6683","ios":"levelo://app?vid=7e5a38b7-f0c2-407f-af00-f68fa64f6683"},"vehicle_type_id":"4","last_reported":1738847792,"current_range_meters":19200,"station_id":"ce4bh192rcd13ifvqdc0","pricing_plan_id":"cebpf4jnsgd1na2vs0mg"},{"bike_id":"66af3906-e3aa-42f8-8080-7a8513b8a0fa","system_id":"levelo_inurba_marseille","lat":43.30157,"lon":5.38063,"is_reserved":false,"is_disabled":true,"rental_uris":{"android":"levelo://app?vid=66af3906-e3aa-42f8-8080-7a8513b8a0fa","ios":"levelo://app?vid=66af3906-e3aa-42f8-8080-7a8513b8a0fa"},"vehicle_type_id":"4","last_reported":1738847792,"current_range_meters":2000,"station_id":"ce4bgjp2rcd13ifvqbh0","pricing_plan_id":"cebpf4jnsgd1na2vs0mg"},{"bike_id":"bd944b22-bdc4-45a8-9a31-0c38734abd7e","system_id":"levelo_inurba_marseille","lat":43.28989,"lon":5.36414,"is_reserved":false,"is_disabled":true,"rental_uris":{"android":"levelo://app?vid=bd944b22-bdc4-45a8-9a31-0c38734abd7e","ios":"levelo://app?vid=bd944b22-bdc4-45a8-9a31-0c38734abd7e"},"vehicle_type_id":"4","last_reported":1738847792,"current_range_meters":0,"station_id":"","pricing_plan_id":"cebpf4jnsgd1na2vs0mg"},{"bike_id":"ffd6a891-8662-4394-a9f0-6cd81dd5f2b8","system_id":"levelo_inurba_marseille","lat":43.28163,"lon":5.42659,"is_reserved":false,"is_disabled":false,"rental_uris":{"android":"levelo://app?vid=ffd6a891-8662-4394-a9f0-6cd81dd5f2b8","ios":"levelo://app?vid=ffd6a891-8662-4394-a9f0-6cd81dd5f2b8"},"vehicle_type_id":"4","last_reported":1738847792,"current_range_meters":38800,"station_id":"","pricing_plan_id":"cebpf4jnsgd1na2vs0mg"},{"bike_id":"da46b123-df0d-4ae0-8493-a204976aa799","system_id":"levelo_inurba_marseille","lat":43.30463,"lon":5.37915,"is_reserved":false,"is_disabled":false,"rental_uris":{"android":"levelo://app?vid=da46b123-df0d-4ae0-8493-a204976aa799","ios":"levelo://app?vid=da46b123-df0d-4ae0-8493-a204976aa799"},"vehicle_type_id":"4","last_reported":1738847792,"current_range_meters":27200,"station_id":"ce4bgup2rcd13ifvqcn0","pricing_plan_id":"cebpf4jnsgd1na2vs0mg"},{"bike_id":"45a7daa2-2a2e-4454-90c3-1009aaecc5bd","system_id":"levelo_inurba_marseille","lat":43.23199,"lon":5.35553,"is_reserved":false,"is_disabled":false,"rental_uris":{"android":"levelo://app?vid=45a7daa2-2a2e-4454-90c3-1009aaecc5bd","ios":"levelo://app?vid=45a7daa2-2a2e-4454-90c3-1009aaecc5bd"},"vehicle_type_id":"4","last_reported":1738847792,"current_range_meters":38800,"station_id":"ce4bhu92rcd13ifvqi70","pricing_plan_id":"cebpf4jnsgd1na2vs0mg"},{"bike_id":"892f13d0-2159-4c20-84db-6c65fe24aa70","system_id":"levelo_inurba_marseille","lat":43.269318,"lon":5.389177,"is_reserved":false,"is_disabled":false,"rental_uris":{"android":"levelo://app?vid=892f13d0-2159-4c20-84db-6c65fe24aa70","ios":"levelo://app?vid=892f13d0-2159-4c20-84db-6c65fe24aa70"},"vehicle_type_id":"4","last_reported":1738847792,"current_range_meters":22400,"station_id":"ce4bhhh2rcd13ifvqfl0","pricing_plan_id":"cebpf4jnsgd1na2vs0mg"},{"bike_id":"7b38f8c6-1394-4414-bc75-137f7cdd3a38","system_id":"levelo_inurba_marseille","lat":43.29621,"lon":5.37718,"is_reserved":false,"is_disabled":false,"rental_uris":{"android":"levelo://app?vid=7b38f8c6-1394-4414-bc75-137f7cdd3a38","ios":"levelo://app?vid=7b38f8c6-1394-4414-bc75-137f7cdd3a38"},"vehicle_type_id":"4","last_reported":1738847792,"current_range_meters":35200,"station_id":"ce4bgi92rcd13ifvqb90","pricing_plan_id":"cebpf4jnsgd1na2vs0mg"},{"bike_id":"0fbcd613-9ae2-4529-9e01-94d561c40800","system_id":"levelo_inurba_marseille","lat":43.30464,"lon":5.37902,"is_reserved":false,"is_disabled":false,"rental_uris":{"android":"levelo://app?vid=0fbcd613-9ae2-4529-9e01-94d561c40800","ios":"levelo://app?vid=0fbcd613-9ae2-4529-9e01-94d561c40800"},"vehicle_type_id":"4","last_reported":1738847792,"current_range_meters":38000,"station_id":"ce4bgup2rcd13ifvqcn0","pricing_plan_id":"cebpf4jnsgd1na2vs0mg"},{"bike_id":"3b1d5f28-8e2f-4cd2-84ee-32e60c8bc1d4","system_id":"levelo_inurba_marseille","lat":43.27962,"lon":5.38707,"is_reserved":false,"is_disabled":false,"rental_uris":{"android":"levelo://app?vid=3b1d5f28-8e2f-4cd2-84ee-32e60c8bc1d4","ios":"levelo://app?vid=3b1d5f28-8e2f-4cd2-84ee-32e60c8bc1d4"},"vehicle_type_id":"4","last_reported":1738847792,"current_range_meters":38000,"station_id":"ce4bhg12rcd13ifvqf80","pricing_plan_id":"cebpf4jnsgd1na2vs0mg"},{"bike_id":"e97674ae-19e5-4109-952e-ee3c6221a082","system_id":"levelo_inurba_marseille","lat":43.26207,"lon":5.37926,"is_reserved":false,"is_disabled":false,"rental_uris":{"android":"levelo://app?vid=e97674ae-19e5-4109-952e-ee3c6221a082","ios":"levelo://app?vid=e97674ae-19e5-4109-952e-ee3c6221a082"},"vehicle_type_id":"4","last_reported":1738847792,"current_range_meters":36800,"station_id":"ce4bhjp2rcd13ifvqg90","pricing_plan_id":"cebpf4jnsgd1na2vs0mg"},{"bike_id":"9c344d07-ddad-4c5a-9137-0c96ba5fe1cb","system_id":"levelo_inurba_marseille","lat":43.2958,"lon":5.37514,"is_reserved":false,"is_disabled":false,"rental_uris":{"android":"levelo://app?vid=9c344d07-ddad-4c5a-9137-0c96ba5fe1cb","ios":"levelo://app?vid=9c344d07-ddad-4c5a-9137-0c96ba5fe1cb"},"vehicle_type_id":"4","last_reported":1738847792,"current_range_meters":28800,"station_id":"ce4bgh92rcd13ifvqb50","pricing_plan_id":"cebpf4jnsgd1na2vs0mg"},{"bike_id":"a17b902b-bafc-49d0-9389-2ce74253b3a1","system_id":"levelo_inurba_marseille","lat":43.27199,"lon":5.40973,"is_reserved":false,"is_disabled":false,"rental_uris":{"android":"levelo://app?vid=a17b902b-bafc-49d0-9389-2ce74253b3a1","ios":"levelo://app?vid=a17b902b-bafc-49d0-9389-2ce74253b3a1"},"vehicle_type_id":"4","last_reported":1738847792,"current_range_meters":38800,"station_id":"ce4bhl12rcd13ifvqgf0","pricing_plan_id":"cebpf4jnsgd1na2vs0mg"},{"bike_id":"fad02d01-4951-4c33-ac0b-cee9b1c67a69","system_id":"levelo_inurba_marseille","lat":43.33736,"lon":5.39205,"is_reserved":false,"is_disabled":false,"rental_uris":{"android":"levelo://app?vid=fad02d01-4951-4c33-ac0b-cee9b1c67a69","ios":"levelo://app?vid=fad02d01-4951-4c33-ac0b-cee9b1c67a69"},"vehicle_type_id":"4","last_reported":1738847792,"current_range_meters":39200,"station_id":"ce4bhr92rcd13ifvqhsg","pricing_plan_id":"cebpf4jnsgd1na2vs0mg"},{"bike_id":"7376b4ba-925f-45da-8ee6-9d0ca31cd81c","system_id":"levelo_inurba_marseille","lat":43.26561,"lon":5.39011,"is_reserved":false,"is_disabled":false,"rental_uris":{"android":"levelo://app?vid=7376b4ba-925f-45da-8ee6-9d0ca31cd81c","ios":"levelo://app?vid=7376b4ba-925f-45da-8ee6-9d0ca31cd81c"},"vehicle_type_id":"4","last_reported":1738847792,"current_range_meters":20000,"station_id":"ce4bhe12rcd13ifvqf30","pricing_plan_id":"cebpf4jnsgd1na2vs0mg"},{"bike_id":"ecae73d1-2c66-4113-a621-fef7465426a7","system_id":"levelo_inurba_marseille","lat":43.23201,"lon":5.35551,"is_reserved":false,"is_disabled":false,"rental_uris":{"android":"levelo://app?vid=ecae73d1-2c66-4113-a621-fef7465426a7","ios":"levelo://app?vid=ecae73d1-2c66-4113-a621-fef7465426a7"},"vehicle_type_id":"4","last_reported":1738847792,"current_range_meters":24000,"station_id":"ce4bhu92rcd13ifvqi70","pricing_plan_id":"cebpf4jnsgd1na2vs0mg"},{"bike_id":"282c8ffb-e6b0-44f9-a4ae-1d2f27f1e8ea","system_id":"levelo_inurba_marseille","lat":43.239618,"lon":5.3663,"is_reserved":false,"is_disabled":false,"rental_uris":{"android":"levelo://app?vid=282c8ffb-e6b0-44f9-a4ae-1d2f27f1e8ea","ios":"levelo://app?vid=282c8ffb-e6b0-44f9-a4ae-1d2f27f1e8ea"},"vehicle_type_id":"4","last_reported":1738847792,"current_range_meters":18800,"station_id":"ce4bhi12rcd13ifvqfp0","pricing_plan_id":"cebpf4jnsgd1na2vs0mg"},{"bike_id":"2c572b16-cdce-4769-ba0d-eb513bbce049","system_id":"levelo_inurba_marseille","lat":43.257283,"lon":5.41118,"is_reserved":false,"is_disabled":false,"rental_uris":{"android":"levelo://app?vid=2c572b16-cdce-4769-ba0d-eb513bbce049","ios":"levelo://app?vid=2c572b16-cdce-4769-ba0d-eb513bbce049"},"vehicle_type_id":"4","last_reported":1738847792,"current_range_meters":19600,"station_id":"ce4bhkp2rcd13ifvqgd0","pricing_plan_id":"cebpf4jnsgd1na2vs0mg"},{"bike_id":"0bf6c54d-155f-42c0-90c3-a5b0f7dff979","system_id":"levelo_inurba_marseille","lat":43.29934,"lon":5.36496,"is_reserved":false,"is_disabled":false,"rental_uris":{"android":"levelo://app?vid=0bf6c54d-155f-42c0-90c3-a5b0f7dff979","ios":"levelo://app?vid=0bf6c54d-155f-42c0-90c3-a5b0f7dff979"},"vehicle_type_id":"4","last_reported":1738847792,"current_range_meters":14800,"station_id":"ce4bgm92rcd13ifvqbr0","pricing_plan_id":"cebpf4jnsgd1na2vs0mg"},{"bike_id":"0a1d80a5-8567-473e-862c-e2d2e710157a","system_id":"levelo_inurba_marseille","lat":43.2843,"lon":5.34987,"is_reserved":false,"is_disabled":false,"rental_uris":{"android":"levelo://app?vid=0a1d80a5-8567-473e-862c-e2d2e710157a","ios":"levelo://app?vid=0a1d80a5-8567-473e-862c-e2d2e710157a"},"vehicle_type_id":"4","last_reported":1738847792,"current_range_meters":29600,"station_id":"ce4bhbh2rcd13ifvqepg","pricing_plan_id":"cebpf4jnsgd1na2vs0mg"},{"bike_id":"5aba4bbf-e847-48a2-993c-bd9146ebada4","system_id":"levelo_inurba_marseille","lat":43.2733,"lon":5.39074,"is_reserved":false,"is_disabled":false,"rental_uris":{"android":"levelo://app?vid=5aba4bbf-e847-48a2-993c-bd9146ebada4","ios":"levelo://app?vid=5aba4bbf-e847-48a2-993c-bd9146ebada4"},"vehicle_type_id":"4","last_reported":1738847792,"current_range_meters":36000,"station_id":"ce4bhgp2rcd13ifvqfe0","pricing_plan_id":"cebpf4jnsgd1na2vs0mg"},{"bike_id":"ef15b174-9029-4622-95b2-4e5f874342a6","system_id":"levelo_inurba_marseille","lat":43.24072,"lon":5.37678,"is_reserved":false,"is_disabled":false,"rental_uris":{"android":"levelo://app?vid=ef15b174-9029-4622-95b2-4e5f874342a6","ios":"levelo://app?vid=ef15b174-9029-4622-95b2-4e5f874342a6"},"vehicle_type_id":"4","last_reported":1738847792,"current_range_meters":38800,"station_id":"","pricing_plan_id":"cebpf4jnsgd1na2vs0mg"},{"bike_id":"efc75f68-c0e7-4c38-a126-0f2ae1afe39d","system_id":"levelo_inurba_marseille","lat":43.2717,"lon":5.40996,"is_reserved":false,"is_disabled":false,"rental_uris":{"android":"levelo://app?vid=efc75f68-c0e7-4c38-a126-0f2ae1afe39d","ios":"levelo://app?vid=efc75f68-c0e7-4c38-a126-0f2ae1afe39d"},"vehicle_type_id":"4","last_reported":1738847792,"current_range_meters":38800,"station_id":"ce4bhl12rcd13ifvqgf0","pricing_plan_id":"cebpf4jnsgd1na2vs0mg"},{"bike_id":"c8867084-73b3-4ef6-939b-90719c3af5d4","system_id":"levelo_inurba_marseille","lat":43.241644,"lon":5.364021,"is_reserved":false,"is_disabled":false,"rental_uris":{"android":"levelo://app?vid=c8867084-73b3-4ef6-939b-90719c3af5d4","ios":"levelo://app?vid=c8867084-73b3-4ef6-939b-90719c3af5d4"},"vehicle_type_id":"4","last_reported":1738847792,"current_range_meters":38800,"station_id":"cpo36qri1sfpv3e86is0","pricing_plan_id":"cebpf4jnsgd1na2vs0mg"},{"bike_id":"0dc28690-d1fc-4c68-886e-a1e203ae5896","system_id":"levelo_inurba_marseille","lat":43.31394,"lon":5.36734,"is_reserved":false,"is_disabled":false,"rental_uris":{"android":"levelo://app?vid=0dc28690-d1fc-4c68-886e-a1e203ae5896","ios":"levelo://app?vid=0dc28690-d1fc-4c68-886e-a1e203ae5896"},"vehicle_type_id":"4","last_reported":1738847792,"current_range_meters":39200,"station_id":"ce4bgr92rcd13ifvqc6g","pricing_plan_id":"cebpf4jnsgd1na2vs0mg"},{"bike_id":"f69dc3f9-01e1-4afe-b7d9-814a54a1f1b7","system_id":"levelo_inurba_marseille","lat":43.32492,"lon":5.36578,"is_reserved":false,"is_disabled":false,"rental_uris":{"android":"levelo://app?vid=f69dc3f9-01e1-4afe-b7d9-814a54a1f1b7","ios":"levelo://app?vid=f69dc3f9-01e1-4afe-b7d9-814a54a1f1b7"},"vehicle_type_id":"4","last_reported":1738847792,"current_range_meters":34000,"station_id":"ce4bhs12rcd13ifvqhvg","pricing_plan_id":"cebpf4jnsgd1na2vs0mg"},{"bike_id":"aa16a0f0-f75a-444e-a590-729c050ae236","system_id":"levelo_inurba_marseille","lat":43.231887,"lon":5.39983,"is_reserved":false,"is_disabled":false,"rental_uris":{"android":"levelo://app?vid=aa16a0f0-f75a-444e-a590-729c050ae236","ios":"levelo://app?vid=aa16a0f0-f75a-444e-a590-729c050ae236"},"vehicle_type_id":"4","last_reported":1738847792,"current_range_meters":19600,"station_id":"ce4bhn12rcd13ifvqgqg","pricing_plan_id":"cebpf4jnsgd1na2vs0mg"},{"bike_id":"3aa0747a-6735-4adf-9b91-af44df78d93a","system_id":"levelo_inurba_marseille","lat":43.28952,"lon":5.36407,"is_reserved":false,"is_disabled":false,"rental_uris":{"android":"levelo://app?vid=3aa0747a-6735-4adf-9b91-af44df78d93a","ios":"levelo://app?vid=3aa0747a-6735-4adf-9b91-af44df78d93a"},"vehicle_type_id":"4","last_reported":1738847792,"current_range_meters":24400,"station_id":"ce4bhc92rcd13ifvqetg","pricing_plan_id":"cebpf4jnsgd1na2vs0mg"},{"bike_id":"97e3f16d-c680-499c-b7df-c4ab9d43861c","system_id":"levelo_inurba_marseille","lat":43.23191,"lon":5.39994,"is_reserved":false,"is_disabled":false,"rental_uris":{"android":"levelo://app?vid=97e3f16d-c680-499c-b7df-c4ab9d43861c","ios":"levelo://app?vid=97e3f16d-c680-499c-b7df-c4ab9d43861c"},"vehicle_type_id":"4","last_reported":1738847792,"current_range_meters":18000,"station_id":"ce4bhn12rcd13ifvqgqg","pricing_plan_id":"cebpf4jnsgd1na2vs0mg"},{"bike_id":"678726f9-d6ac-43cc-bc1f-449053deea15","system_id":"levelo_inurba_marseille","lat":43.25834,"lon":5.39426,"is_reserved":false,"is_disabled":false,"rental_uris":{"android":"levelo://app?vid=678726f9-d6ac-43cc-bc1f-449053deea15","ios":"levelo://app?vid=678726f9-d6ac-43cc-bc1f-449053deea15"},"vehicle_type_id":"4","last_reported":1738847792,"current_range_meters":38800,"station_id":"ce4bhip2rcd13ifvqft0","pricing_plan_id":"cebpf4jnsgd1na2vs0mg"},{"bike_id":"1d39db26-f63e-47ca-96af-759972ec17a4","system_id":"levelo_inurba_marseille","lat":43.27384,"lon":5.36246,"is_reserved":false,"is_disabled":false,"rental_uris":{"android":"levelo://app?vid=1d39db26-f63e-47ca-96af-759972ec17a4","ios":"levelo://app?vid=1d39db26-f63e-47ca-96af-759972ec17a4"},"vehicle_type_id":"4","last_reported":1738847792,"current_range_meters":39200,"station_id":"ce4bhbh2rcd13ifvqeo0","pricing_plan_id":"cebpf4jnsgd1na2vs0mg"},{"bike_id":"b5feb98a-aa95-435c-a137-55733d6ba143","system_id":"levelo_inurba_marseille","lat":43.28279,"lon":5.3507,"is_reserved":false,"is_disabled":false,"rental_uris":{"android":"levelo://app?vid=b5feb98a-aa95-435c-a137-55733d6ba143","ios":"levelo://app?vid=b5feb98a-aa95-435c-a137-55733d6ba143"},"vehicle_type_id":"4","last_reported":1738847792,"current_range_meters":39200,"station_id":"ce4bhbp2rcd13ifvqerg","pricing_plan_id":"cebpf4jnsgd1na2vs0mg"},{"bike_id":"d3528ceb-2f27-446b-9c32-1180811e75e9","system_id":"levelo_inurba_marseille","lat":43.30477,"lon":5.37914,"is_reserved":false,"is_disabled":false,"rental_uris":{"android":"levelo://app?vid=d3528ceb-2f27-446b-9c32-1180811e75e9","ios":"levelo://app?vid=d3528ceb-2f27-446b-9c32-1180811e75e9"},"vehicle_type_id":"4","last_reported":1738847792,"current_range_meters":28800,"station_id":"ce4bgup2rcd13ifvqcn0","pricing_plan_id":"cebpf4jnsgd1na2vs0mg"},{"bike_id":"f8ed853b-c7b1-462b-bd9a-64047dbbb42a","system_id":"levelo_inurba_marseille","lat":43.31126,"lon":5.37779,"is_reserved":false,"is_disabled":false,"rental_uris":{"android":"levelo://app?vid=f8ed853b-c7b1-462b-bd9a-64047dbbb42a","ios":"levelo://app?vid=f8ed853b-c7b1-462b-bd9a-64047dbbb42a"},"vehicle_type_id":"4","last_reported":1738847792,"current_range_meters":38800,"station_id":"ce4bgt92rcd13ifvqcg0","pricing_plan_id":"cebpf4jnsgd1na2vs0mg"},{"bike_id":"238ddc42-3449-44a1-84c7-a33014a8becd","system_id":"levelo_inurba_marseille","lat":43.30295,"lon":5.36892,"is_reserved":false,"is_disabled":false,"rental_uris":{"android":"levelo://app?vid=238ddc42-3449-44a1-84c7-a33014a8becd","ios":"levelo://app?vid=238ddc42-3449-44a1-84c7-a33014a8becd"},"vehicle_type_id":"4","last_reported":1738847792,"current_range_meters":8000,"station_id":"ce4bgqh2rcd13ifvqc5g","pricing_plan_id":"cebpf4jnsgd1na2vs0mg"},{"bike_id":"72a18803-ec88-4631-90d8-3edccc2b7334","system_id":"levelo_inurba_marseille","lat":43.30794,"lon":5.38138,"is_reserved":false,"is_disabled":false,"rental_uris":{"android":"levelo://app?vid=72a18803-ec88-4631-90d8-3edccc2b7334","ios":"levelo://app?vid=72a18803-ec88-4631-90d8-3edccc2b7334"},"vehicle_type_id":"4","last_reported":1738847792,"current_range_meters":37600,"station_id":"ce4bgt12rcd13ifvqce0","pricing_plan_id":"cebpf4jnsgd1na2vs0mg"},{"bike_id":"83ef95b3-ccc8-417e-9a6a-675d525834ee","system_id":"levelo_inurba_marseille","lat":43.27665,"lon":5.38907,"is_reserved":false,"is_disabled":true,"rental_uris":{"android":"levelo://app?vid=83ef95b3-ccc8-417e-9a6a-675d525834ee","ios":"levelo://app?vid=83ef95b3-ccc8-417e-9a6a-675d525834ee"},"vehicle_type_id":"4","last_reported":1738847792,"current_range_meters":11200,"station_id":"ce4bhi12rcd13ifvqfo0","pricing_plan_id":"cebpf4jnsgd1na2vs0mg"},{"bike_id":"890690ca-5f38-49a0-b9a8-80cf6e869978","system_id":"levelo_inurba_marseille","lat":43.34127,"lon":5.40901,"is_reserved":false,"is_disabled":false,"rental_uris":{"android":"levelo://app?vid=890690ca-5f38-49a0-b9a8-80cf6e869978","ios":"levelo://app?vid=890690ca-5f38-49a0-b9a8-80cf6e869978"},"vehicle_type_id":"4","last_reported":1738847792,"current_range_meters":9600,"station_id":"ce4bhqh2rcd13ifvqhlg","pricing_plan_id":"cebpf4jnsgd1na2vs0mg"},{"bike_id":"12224c15-b2b2-4517-9e1f-0437388221ad","system_id":"levelo_inurba_marseille","lat":43.30093,"lon":5.3907,"is_reserved":false,"is_disabled":false,"rental_uris":{"android":"levelo://app?vid=12224c15-b2b2-4517-9e1f-0437388221ad","ios":"levelo://app?vid=12224c15-b2b2-4517-9e1f-0437388221ad"},"vehicle_type_id":"4","last_reported":1738847792,"current_range_meters":16800,"station_id":"ce4bh192rcd13ifvqdb0","pricing_plan_id":"cebpf4jnsgd1na2vs0mg"},{"bike_id":"e3c98cdf-d041-4497-aed2-daf7ca6a23de","system_id":"levelo_inurba_marseille","lat":43.27209,"lon":5.39188,"is_reserved":false,"is_disabled":true,"rental_uris":{"android":"levelo://app?vid=e3c98cdf-d041-4497-aed2-daf7ca6a23de","ios":"levelo://app?vid=e3c98cdf-d041-4497-aed2-daf7ca6a23de"},"vehicle_type_id":"4","last_reported":1738847792,"current_range_meters":38800,"station_id":"ce4bhhp2rcd13ifvqfm0","pricing_plan_id":"cebpf4jnsgd1na2vs0mg"},{"bike_id":"d5d9a3e9-b6b9-4496-97c0-0d638a64e82b","system_id":"levelo_inurba_marseille","lat":43.25828,"lon":5.39419,"is_reserved":false,"is_disabled":false,"rental_uris":{"android":"levelo://app?vid=d5d9a3e9-b6b9-4496-97c0-0d638a64e82b","ios":"levelo://app?vid=d5d9a3e9-b6b9-4496-97c0-0d638a64e82b"},"vehicle_type_id":"4","last_reported":1738847792,"current_range_meters":36000,"station_id":"ce4bhip2rcd13ifvqft0","pricing_plan_id":"cebpf4jnsgd1na2vs0mg"},{"bike_id":"e84347d6-b757-47bb-b6b4-f9b15347469e","system_id":"levelo_inurba_marseille","lat":43.30134,"lon":5.38771,"is_reserved":false,"is_disabled":false,"rental_uris":{"android":"levelo://app?vid=e84347d6-b757-47bb-b6b4-f9b15347469e","ios":"levelo://app?vid=e84347d6-b757-47bb-b6b4-f9b15347469e"},"vehicle_type_id":"4","last_reported":1738847792,"current_range_meters":38000,"station_id":"ce4bghh2rcd13ifvqb60","pricing_plan_id":"cebpf4jnsgd1na2vs0mg"},{"bike_id":"8e29c9e1-a150-4da7-8fa7-cf9baa4f8475","system_id":"levelo_inurba_marseille","lat":43.28106,"lon":5.37852,"is_reserved":false,"is_disabled":false,"rental_uris":{"android":"levelo://app?vid=8e29c9e1-a150-4da7-8fa7-cf9baa4f8475","ios":"levelo://app?vid=8e29c9e1-a150-4da7-8fa7-cf9baa4f8475"},"vehicle_type_id":"4","last_reported":1738847792,"current_range_meters":38800,"station_id":"ce4bha12rcd13ifvqee0","pricing_plan_id":"cebpf4jnsgd1na2vs0mg"},{"bike_id":"2bb5b233-2d35-432a-84a1-04d4497101d7","system_id":"levelo_inurba_marseille","lat":43.30353,"lon":5.41881,"is_reserved":false,"is_disabled":false,"rental_uris":{"android":"levelo://app?vid=2bb5b233-2d35-432a-84a1-04d4497101d7","ios":"levelo://app?vid=2bb5b233-2d35-432a-84a1-04d4497101d7"},"vehicle_type_id":"4","last_reported":1738847792,"current_range_meters":30000,"station_id":"ce4bhop2rcd13ifvqh7g","pricing_plan_id":"cebpf4jnsgd1na2vs0mg"},{"bike_id":"eb6107a0-42f3-4f68-ad7b-fcb0117c564f","system_id":"levelo_inurba_marseille","lat":43.30183,"lon":5.38075,"is_reserved":false,"is_disabled":false,"rental_uris":{"android":"levelo://app?vid=eb6107a0-42f3-4f68-ad7b-fcb0117c564f","ios":"levelo://app?vid=eb6107a0-42f3-4f68-ad7b-fcb0117c564f"},"vehicle_type_id":"4","last_reported":1738847792,"current_range_meters":34000,"station_id":"ce4bgjp2rcd13ifvqbh0","pricing_plan_id":"cebpf4jnsgd1na2vs0mg"},{"bike_id":"ec58a886-eddf-413c-9588-048d119536b0","system_id":"levelo_inurba_marseille","lat":43.28,"lon":5.40011,"is_reserved":false,"is_disabled":false,"rental_uris":{"android":"levelo://app?vid=ec58a886-eddf-413c-9588-048d119536b0","ios":"levelo://app?vid=ec58a886-eddf-413c-9588-048d119536b0"},"vehicle_type_id":"4","last_reported":1738847792,"current_range_meters":24000,"station_id":"ce4bho92rcd13ifvqh4g","pricing_plan_id":"cebpf4jnsgd1na2vs0mg"},{"bike_id":"6d8e3c88-203f-4840-be57-19792e9a4f79","system_id":"levelo_inurba_marseille","lat":43.29561,"lon":5.37498,"is_reserved":false,"is_disabled":false,"rental_uris":{"android":"levelo://app?vid=6d8e3c88-203f-4840-be57-19792e9a4f79","ios":"levelo://app?vid=6d8e3c88-203f-4840-be57-19792e9a4f79"},"vehicle_type_id":"4","last_reported":1738847792,"current_range_meters":27200,"station_id":"ce4bgh92rcd13ifvqb50","pricing_plan_id":"cebpf4jnsgd1na2vs0mg"},{"bike_id":"0f6ab662-5515-4798-b566-ed16861180f9","system_id":"levelo_inurba_marseille","lat":43.2955,"lon":5.4229,"is_reserved":false,"is_disabled":true,"rental_uris":{"android":"levelo://app?vid=0f6ab662-5515-4798-b566-ed16861180f9","ios":"levelo://app?vid=0f6ab662-5515-4798-b566-ed16861180f9"},"vehicle_type_id":"4","last_reported":1738847792,"current_range_meters":0,"station_id":"ce4bhph2rcd13ifvqhdg","pricing_plan_id":"cebpf4jnsgd1na2vs0mg"},{"bike_id":"75e92bb5-7c2d-4846-a2fe-913999ac9d04","system_id":"levelo_inurba_marseille","lat":43.30919,"lon":5.36849,"is_reserved":false,"is_disabled":false,"rental_uris":{"android":"levelo://app?vid=75e92bb5-7c2d-4846-a2fe-913999ac9d04","ios":"levelo://app?vid=75e92bb5-7c2d-4846-a2fe-913999ac9d04"},"vehicle_type_id":"4","last_reported":1738847792,"current_range_meters":38400,"station_id":"ce4bgn92rcd13ifvqbvg","pricing_plan_id":"cebpf4jnsgd1na2vs0mg"},{"bike_id":"8cfbb62d-d410-4066-920b-f8f1a69e859a","system_id":"levelo_inurba_marseille","lat":43.260275,"lon":5.37551,"is_reserved":false,"is_disabled":true,"rental_uris":{"android":"levelo://app?vid=8cfbb62d-d410-4066-920b-f8f1a69e859a","ios":"levelo://app?vid=8cfbb62d-d410-4066-920b-f8f1a69e859a"},"vehicle_type_id":"4","last_reported":1738847792,"current_range_meters":8800,"station_id":"","pricing_plan_id":"cebpf4jnsgd1na2vs0mg"},{"bike_id":"9596cacb-8f48-4b08-8219-0a76cb2ddb16","system_id":"levelo_inurba_marseille","lat":43.25845,"lon":5.39436,"is_reserved":false,"is_disabled":false,"rental_uris":{"android":"levelo://app?vid=9596cacb-8f48-4b08-8219-0a76cb2ddb16","ios":"levelo://app?vid=9596cacb-8f48-4b08-8219-0a76cb2ddb16"},"vehicle_type_id":"4","last_reported":1738847792,"current_range_meters":36400,"station_id":"ce4bhip2rcd13ifvqft0","pricing_plan_id":"cebpf4jnsgd1na2vs0mg"},{"bike_id":"6aedebae-b59b-4d11-8249-7bfa9c5a0dc0","system_id":"levelo_inurba_marseille","lat":43.2835,"lon":5.38109,"is_reserved":false,"is_disabled":false,"rental_uris":{"android":"levelo://app?vid=6aedebae-b59b-4d11-8249-7bfa9c5a0dc0","ios":"levelo://app?vid=6aedebae-b59b-4d11-8249-7bfa9c5a0dc0"},"vehicle_type_id":"4","last_reported":1738847792,"current_range_meters":30400,"station_id":"ce4bh412rcd13ifvqdr0","pricing_plan_id":"cebpf4jnsgd1na2vs0mg"},{"bike_id":"6d541e51-9bb4-44a9-b56e-7869e06e062b","system_id":"levelo_inurba_marseille","lat":43.3139,"lon":5.36716,"is_reserved":false,"is_disabled":false,"rental_uris":{"android":"levelo://app?vid=6d541e51-9bb4-44a9-b56e-7869e06e062b","ios":"levelo://app?vid=6d541e51-9bb4-44a9-b56e-7869e06e062b"},"vehicle_type_id":"4","last_reported":1738847792,"current_range_meters":21600,"station_id":"ce4bgr92rcd13ifvqc6g","pricing_plan_id":"cebpf4jnsgd1na2vs0mg"},{"bike_id":"7b39ed00-86df-4303-bda1-bfc0fee1e7e2","system_id":"levelo_inurba_marseille","lat":43.32464,"lon":5.45548,"is_reserved":false,"is_disabled":true,"rental_uris":{"android":"levelo://app?vid=7b39ed00-86df-4303-bda1-bfc0fee1e7e2","ios":"levelo://app?vid=7b39ed00-86df-4303-bda1-bfc0fee1e7e2"},"vehicle_type_id":"4","last_reported":1738847792,"current_range_meters":16000,"station_id":"","pricing_plan_id":"cebpf4jnsgd1na2vs0mg"},{"bike_id":"6b96fecf-757d-40de-8dd6-b21f4a7b3b71","system_id":"levelo_inurba_marseille","lat":43.28304,"lon":5.35049,"is_reserved":false,"is_disabled":false,"rental_uris":{"android":"levelo://app?vid=6b96fecf-757d-40de-8dd6-b21f4a7b3b71","ios":"levelo://app?vid=6b96fecf-757d-40de-8dd6-b21f4a7b3b71"},"vehicle_type_id":"4","last_reported":1738847792,"current_range_meters":36400,"station_id":"ce4bhbp2rcd13ifvqerg","pricing_plan_id":"cebpf4jnsgd1na2vs0mg"},{"bike_id":"9736f717-5d6f-4dd2-a7f1-bb087b3e9e13","system_id":"levelo_inurba_marseille","lat":43.28151,"lon":5.42646,"is_reserved":false,"is_disabled":false,"rental_uris":{"android":"levelo://app?vid=9736f717-5d6f-4dd2-a7f1-bb087b3e9e13","ios":"levelo://app?vid=9736f717-5d6f-4dd2-a7f1-bb087b3e9e13"},"vehicle_type_id":"4","last_reported":1738847792,"current_range_meters":37600,"station_id":"ce4bhnh2rcd13ifvqgug","pricing_plan_id":"cebpf4jnsgd1na2vs0mg"},{"bike_id":"fb74a200-9cb0-4d2c-a2f5-30f3544d81bc","system_id":"levelo_inurba_marseille","lat":43.31357,"lon":5.36726,"is_reserved":false,"is_disabled":false,"rental_uris":{"android":"levelo://app?vid=fb74a200-9cb0-4d2c-a2f5-30f3544d81bc","ios":"levelo://app?vid=fb74a200-9cb0-4d2c-a2f5-30f3544d81bc"},"vehicle_type_id":"4","last_reported":1738847792,"current_range_meters":38800,"station_id":"ce4bgr92rcd13ifvqc6g","pricing_plan_id":"cebpf4jnsgd1na2vs0mg"},