{"last_updated":1728670296,"ttl":60,"version":"2.2","data":{"bikes":[{"bike_id":"d84fd2e3-be91-47f2-8212-5bf03a54cc56","system_id":"levelo_inurba_marseille","lat":43.25086,"lon":5.39522,"is_reserved":false,"is_disabled":false,"rental_uris":{"android":"levelo://app?vid=d84fd2e3-be91-47f2-8212-5bf03a54cc56","ios":"levelo://app?vid=d84fd2e3-be91-47f2-8212-5bf03a54cc56"},"vehicle_type_id":"4","last_reported":1728670297,"current_range_meters":38800,"station_id":"ce4bhm12rcd13ifvqgkg","pricing_plan_id":"cebpf4jnsgd1na2vs0mg"},{"bike_id":"7d2b4839-36b1-4816-aa1e-a683bfce56ce","system_id":"levelo_inurba_marseille","lat":43.30209,"lon":5.36633,"is_reserved":false,"is_disabled":false,"rental_uris":{"android":"levelo://app?vid=7d2b4839-36b1-4816-aa1e-a683bfce56ce","ios":"levelo://app?vid=7d2b4839-36b1-4816-aa1e-a683bfce56ce"},"vehicle_type_id":"4","last_reported":1728670297,"current_range_meters":38000,"station_id":"ce4bgrh2rcd13ifvqc8g","pricing_plan_id":"cebpf4jnsgd1na2vs0mg"},{"bike_id":"11260d2c-c212-4336-9aec-e080b9039040","system_id":"levelo_inurba_marseille","lat":43.27997,"lon":5.40007,"is_reserved":false,"is_disabled":false,"rental_uris":{"android":"levelo://app?vid=11260d2c-c212-4336-9aec-e080b9039040","ios":"levelo://app?vid=11260d2c-c212-4336-9aec-e080b9039040"},"vehicle_type_id":"4","last_reported":1728670297,"current_range_meters":38000,"station_id":"ce4bho92rcd13ifvqh4g","pricing_plan_id":"cebpf4jnsgd1na2vs0mg"},{"bike_id":"37656845-65ce-441d-ba77-e3ba82586b51","system_id":"levelo_inurba_marseille","lat":43.27987,"lon":5.39991,"is_reserved":false,"is_disabled":false,"rental_uris":{"android":"levelo://app?vid=37656845-65ce-441d-ba77-e3ba82586b51","ios":"levelo://app?vid=37656845-65ce-441d-ba77-e3ba82586b51"},"vehicle_type_id":"4","last_reported":1728670297,"current_range_meters":8000,"station_id":"ce4bho92rcd13ifvqh4g","pricing_plan_id":"cebpf4jnsgd1na2vs0mg"},{"bike_id":"8801d62e-1abf-455d-a1f4-2e9f8a44b86e","system_id":"levelo_inurba_marseille","lat":43.29601,"lon":5.38097,"is_reserved":false,"is_disabled":false,"rental_uris":{"android":"levelo://app?vid=8801d62e-1abf-455d-a1f4-2e9f8a44b86e","ios":"levelo://app?vid=8801d62e-1abf-455d-a1f4-2e9f8a44b86e"},"vehicle_type_id":"4","last_reported":1728670297,"current_range_meters":35600,"station_id":"ce4bgl12rcd13ifvqbo0","pricing_plan_id":"cebpf4jnsgd1na2vs0mg"},{"bike_id":"51dd5005-a195-4642-bd5f-8cbea71cb3b3","system_id":"levelo_inurba_marseille","lat":43.2293,"lon":5.35372,"is_reserved":false,"is_disabled":false,"rental_uris":{"android":"levelo://app?vid=51dd5005-a195-4642-bd5f-8cbea71cb3b3","ios":"levelo://app?vid=51dd5005-a195-4642-bd5f-8cbea71cb3b3"},"vehicle_type_id":"4","last_reported":1728670297,"current_range_meters":38800,"station_id":"cpo3532slgdg3j2ikp40","pricing_plan_id":"cebpf4jnsgd1na2vs0mg"},{"bike_id":"53985809-d93c-49ed-93ad-c2277063ff3c","system_id":"levelo_inurba_marseille","lat":43.25824,"lon":5.39443,"is_reserved":false,"is_disabled":false,"rental_uris":{"android":"levelo://app?vid=53985809-d93c-49ed-93ad-c2277063ff3c","ios":"levelo://app?vid=53985809-d93c-49ed-93ad-c2277063ff3c"},"vehicle_type_id":"4","last_reported":1728670297,"current_range_meters":16400,"station_id":"ce4bhip2rcd13ifvqft0","pricing_plan_id":"cebpf4jnsgd1na2vs0mg"},{"bike_id":"03f46402-07dc-42c9-9bbb-99baa60d6dbb","system_id":"levelo_inurba_marseille","lat":43.29842,"lon":5.36272,"is_reserved":false,"is_disabled":false,"rental_uris":{"android":"levelo://app?vid=03f46402-07dc-42c9-9bbb-99baa60d6dbb","ios":"levelo://app?vid=03f46402-07dc-42c9-9bbb-99baa60d6dbb"},"vehicle_type_id":"4","last_reported":1728670297,"current_range_meters":4400,"station_id":"ce4bgpp2rcd13ifvqc3g","pricing_plan_id":"cebpf4jnsgd1na2vs0mg"},{"bike_id":"b474cc28-429d-4bf6-a453-cfd8e447da8a","system_id":"levelo_inurba_marseille","lat":43.3373,"lon":5.39186,"is_reserved":false,"is_disabled":false,"rental_uris":{"android":"levelo://app?vid=b474cc28-429d-4bf6-a453-cfd8e447da8a","ios":"levelo://app?vid=b474cc28-429d-4bf6-a453-cfd8e447da8a"},"vehicle_type_id":"4","last_reported":1728670297,"current_range_meters":38800,"station_id":"ce4bhr92rcd13ifvqhsg","pricing_plan_id":"cebpf4jnsgd1na2vs0mg"},{"bike_id":"8a3ea5a6-b0cd-48da-acf8-ccf7be6f48c6","system_id":"levelo_inurba_marseille","lat":43.33022,"lon":5.39038,"is_reserved":false,"is_disabled":false,"rental_uris":{"android":"levelo://app?vid=8a3ea5a6-b0cd-48da-acf8-ccf7be6f48c6","ios":"levelo://app?vid=8a3ea5a6-b0cd-48da-acf8-ccf7be6f48c6"},"vehicle_type_id":"4","last_reported":1728670297,"current_range_meters":14400,"station_id":"ce4bhr92rcd13ifvqhrg","pricing_plan_id":"cebpf4jnsgd1na2vs0mg"},{"bike_id":"4f1ac9db-36fd-4126-b3cc-b859636a6a29","system_id":"levelo_inurba_marseille","lat":43.2293,"lon":5.35375,"is_reserved":false,"is_disabled":false,"rental_uris":{"android":"levelo://app?vid=4f1ac9db-36fd-4126-b3cc-b859636a6a29","ios":"levelo://app?vid=4f1ac9db-36fd-4126-b3cc-b859636a6a29"},"vehicle_type_id":"4","last_reported":1728670297,"current_range_meters":38800,"station_id":"cpo3532slgdg3j2ikp40","pricing_plan_id":"cebpf4jnsgd1na2vs0mg"},{"bike_id":"ec6493d5-6652-438a-b06b-dbcd3b9ac1b3","system_id":"levelo_inurba_marseille","lat":43.29419,"lon":5.38619,"is_reserved":false,"is_disabled":false,"rental_uris":{"android":"levelo://app?vid=ec6493d5-6652-438a-b06b-dbcd3b9ac1b3","ios":"levelo://app?vid=ec6493d5-6652-438a-b06b-dbcd3b9ac1b3"},"vehicle_type_id":"4","last_reported":1728670297,"current_range_meters":7200,"station_id":"ce4bh2h2rcd13ifvqdh0","pricing_plan_id":"cebpf4jnsgd1na2vs0mg"},{"bike_id":"9df1654a-d800-47be-a986-ad235800984c","system_id":"levelo_inurba_marseille","lat":43.29705,"lon":5.37705,"is_reserved":false,"is_disabled":false,"rental_uris":{"android":"levelo://app?vid=9df1654a-d800-47be-a986-ad235800984c","ios":"levelo://app?vid=9df1654a-d800-47be-a986-ad235800984c"},"vehicle_type_id":"4","last_reported":1728670297,"current_range_meters":10000,"station_id":"ce4bgkh2rcd13ifvqbl0","pricing_plan_id":"cebpf4jnsgd1na2vs0mg"},{"bike_id":"2646a6f7-ff30-45d6-a56c-18c537d3cefa","system_id":"levelo_inurba_marseille","lat":43.27952,"lon":5.41058,"is_reserved":false,"is_disabled":false,"rental_uris":{"android":"levelo://app?vid=2646a6f7-ff30-45d6-a56c-18c537d3cefa","ios":"levelo://app?vid=2646a6f7-ff30-45d6-a56c-18c537d3cefa"},"vehicle_type_id":"4","last_reported":1728670297,"current_range_meters":7200,"station_id":"ce4bhnp2rcd13ifvqh0g","pricing_plan_id":"cebpf4jnsgd1na2vs0mg"},{"bike_id":"4d76c9e4-0f18-4d48-8be9-615810b211b5","system_id":"levelo_inurba_marseille","lat":43.23193,"lon":5.35552,"is_reserved":false,"is_disabled":false,"rental_uris":{"android":"levelo://app?vid=4d76c9e4-0f18-4d48-8be9-615810b211b5","ios":"levelo://app?vid=4d76c9e4-0f18-4d48-8be9-615810b211b5"},"vehicle_type_id":"4","last_reported":1728670297,"current_range_meters":21600,"station_id":"ce4bhhp2rcd13ifvqfm0","pricing_plan_id":"cebpf4jnsgd1na2vs0mg"},{"bike_id":"85530627-6b39-4aea-aaf6-1d7f7ee57f97","system_id":"levelo_inurba_marseille","lat":43.28002,"lon":5.40009,"is_reserved":false,"is_disabled":false,"rental_uris":{"android":"levelo://app?vid=85530627-6b39-4aea-aaf6-1d7f7ee57f97","ios":"levelo://app?vid=85530627-6b39-4aea-aaf6-1d7f7ee57f97"},"vehicle_type_id":"4","last_reported":1728670297,"current_range_meters":6800,"station_id":"ce4bho92rcd13ifvqh4g","pricing_plan_id":"cebpf4jnsgd1na2vs0mg"},{"bike_id":"b88c662f-80b1-4df7-ad5b-4c7e84ca1fbe","system_id":"levelo_inurba_marseille","lat":43.24541,"lon":5.37322,"is_reserved":false,"is_disabled":false,"rental_uris":{"android":"levelo://app?vid=b88c662f-80b1-4df7-ad5b-4c7e84ca1fbe","ios":"levelo://app?vid=b88c662f-80b1-4df7-ad5b-4c7e84ca1fbe"},"vehicle_type_id":"4","last_reported":1728670297,"current_range_meters":4800,"station_id":"ce4bgj92rcd13ifvqbe0","pricing_plan_id":"cebpf4jnsgd1na2vs0mg"},{"bike_id":"017e70aa-dc7c-4c6b-a612-5da0a084b900","system_id":"levelo_inurba_marseille","lat":43.27946,"lon":5.41045,"is_reserved":false,"is_disabled":false,"rental_uris":{"android":"levelo://app?vid=017e70aa-dc7c-4c6b-a612-5da0a084b900","ios":"levelo://app?vid=017e70aa-dc7c-4c6b-a612-5da0a084b900"},"vehicle_type_id":"4","last_reported":1728670297,"current_range_meters":13600,"station_id":"ce4bhnp2rcd13ifvqh0g","pricing_plan_id":"cebpf4jnsgd1na2vs0mg"},{"bike_id":"081a940f-5800-4887-8415-a02c52745a8c","system_id":"levelo_inurba_marseille","lat":43.30267,"lon":5.37726,"is_reserved":false,"is_disabled":false,"rental_uris":{"android":"levelo://app?vid=081a940f-5800-4887-8415-a02c52745a8c","ios":"levelo://app?vid=081a940f-5800-4887-8415-a02c52745a8c"},"vehicle_type_id":"4","last_reported":1728670297,"current_range_meters":2800,"station_id":"ce4bguh2rcd13ifvqcj0","pricing_plan_id":"cebpf4jnsgd1na2vs0mg"},{"bike_id":"46ae086b-5e80-4196-addf-a159e9780d52","system_id":"levelo_inurba_marseille","lat":43.2873,"lon":5.37939,"is_reserved":false,"is_disabled":false,"rental_uris":{"android":"levelo://app?vid=46ae086b-5e80-4196-addf-a159e9780d52","ios":"levelo://app?vid=46ae086b-5e80-4196-addf-a159e9780d52"},"vehicle_type_id":"4","last_reported":1728670297,"current_range_meters":10000,"station_id":"ce4bh9p2rcd13ifvqec0","pricing_plan_id":"cebpf4jnsgd1na2vs0mg"},{"bike_id":"631afeb3-ff24-4869-b570-0bf0c9ce47b0","system_id":"levelo_inurba_marseille","lat":43.32111,"lon":5.38621,"is_reserved":false,"is_disabled":false,"rental_uris":{"android":"levelo://app?vid=631afeb3-ff24-4869-b570-0bf0c9ce47b0","ios":"levelo://app?vid=631afeb3-ff24-4869-b570-0bf0c9ce47b0"},"vehicle_type_id":"4","last_reported":1728670297,"current_range_meters":20000,"station_id":"","pricing_plan_id":"cebpf4jnsgd1na2vs0mg"},{"bike_id":"3292ac98-3664-4830-9bea-0dc7bbdd926c","system_id":"levelo_inurba_marseille","lat":43.30913,"lon":5.36855,"is_reserved":false,"is_disabled":false,"rental_uris":{"android":"levelo://app?vid=3292ac98-3664-4830-9bea-0dc7bbdd926c","ios":"levelo://app?vid=3292ac98-3664-4830-9bea-0dc7bbdd926c"},"vehicle_type_id":"4","last_reported":1728670297,"current_range_meters":8800,"station_id":"ce4bgn92rcd13ifvqbvg","pricing_plan_id":"cebpf4jnsgd1na2vs0mg"},{"bike_id":"30c763d8-64f3-4d88-925a-8f293328d831","system_id":"levelo_inurba_marseille","lat":43.27982,"lon":5.38744,"is_reserved":false,"is_disabled":false,"rental_uris":{"android":"levelo://app?vid=30c763d8-64f3-4d88-925a-8f293328d831","ios":"levelo://app?vid=30c763d8-64f3-4d88-925a-8f293328d831"},"vehicle_type_id":"4","last_reported":1728670297,"current_range_meters":10000,"station_id":"ce4bhg12rcd13ifvqf80","pricing_plan_id":"cebpf4jnsgd1na2vs0mg"},{"bike_id":"93a377d3-6cd7-477c-8f6a-3bb00f886bb5","system_id":"levelo_inurba_marseille","lat":43.29593,"lon":5.38116,"is_reserved":false,"is_disabled":false,"rental_uris":{"android":"levelo://app?vid=93a377d3-6cd7-477c-8f6a-3bb00f886bb5","ios":"levelo://app?vid=93a377d3-6cd7-477c-8f6a-3bb00f886bb5"},"vehicle_type_id":"4","last_reported":1728670297,"current_range_meters":6400,"station_id":"ce4bgl12rcd13ifvqbo0","pricing_plan_id":"cebpf4jnsgd1na2vs0mg"},{"bike_id":"5835e4b7-f8e2-4a93-9dc8-7c1dcf18a014","system_id":"levelo_inurba_marseille","lat":43.27952,"lon":5.38715,"is_reserved":false,"is_disabled":false,"rental_uris":{"android":"levelo://app?vid=5835e4b7-f8e2-4a93-9dc8-7c1dcf18a014","ios":"levelo://app?vid=5835e4b7-f8e2-4a93-9dc8-7c1dcf18a014"},"vehicle_type_id":"4","last_reported":1728670297,"current_range_meters":38800,"station_id":"ce4bhg12rcd13ifvqf80","pricing_plan_id":"cebpf4jnsgd1na2vs0mg"},{"bike_id":"e1416cd5-45db-4fa6-9467-5c652edd6827","system_id":"levelo_inurba_marseille","lat":43.25825,"lon":5.39439,"is_reserved":false,"is_disabled":false,"rental_uris":{"android":"levelo://app?vid=e1416cd5-45db-4fa6-9467-5c652edd6827","ios":"levelo://app?vid=e1416cd5-45db-4fa6-9467-5c652edd6827"},"vehicle_type_id":"4","last_reported":1728670297,"current_range_meters":31200,"station_id":"ce4bhip2rcd13ifvqft0","pricing_plan_id":"cebpf4jnsgd1na2vs0mg"},{"bike_id":"f02a3d92-27a2-4602-aaa2-6b856017b433","system_id":"levelo_inurba_marseille","lat":43.2797,"lon":5.38736,"is_reserved":false,"is_disabled":false,"rental_uris":{"android":"levelo://app?vid=f02a3d92-27a2-4602-aaa2-6b856017b433","ios":"levelo://app?vid=f02a3d92-27a2-4602-aaa2-6b856017b433"},"vehicle_type_id":"4","last_reported":1728670297,"current_range_meters":26000,"station_id":"ce4bhg12rcd13ifvqf80","pricing_plan_id":"cebpf4jnsgd1na2vs0mg"},{"bike_id":"c5db6bdf-880f-4856-bfb7-5a44994e4baa","system_id":"levelo_inurba_marseille","lat":43.29269,"lon":5.38456,"is_reserved":false,"is_disabled":false,"rental_uris":{"android":"levelo://app?vid=c5db6bdf-880f-4856-bfb7-5a44994e4baa","ios":"levelo://app?vid=c5db6bdf-880f-4856-bfb7-5a44994e4baa"},"vehicle_type_id":"4","last_reported":1728670297,"current_range_meters":8800,"station_id":"ce4bh692rcd13ifvqea0","pricing_plan_id":"cebpf4jnsgd1na2vs0mg"},{"bike_id":"4d584c82-64cd-4909-ba11-b99fb93bdbac","system_id":"levelo_inurba_marseille","lat":43.28933,"lon":5.3664,"is_reserved":false,"is_disabled":false,"rental_uris":{"android":"levelo://app?vid=4d584c82-64cd-4909-ba11-b99fb93bdbac","ios":"levelo://app?vid=4d584c82-64cd-4909-ba11-b99fb93bdbac"},"vehicle_type_id":"4","last_reported":1728670297,"current_range_meters":10000,"station_id":"ce4bhap2rcd13ifvqek0","pricing_plan_id":"cebpf4jnsgd1na2vs0mg"},{"bike_id":"9ccefaa5-71fb-4ab9-baca-c2ec4d57eef4","system_id":"levelo_inurba_marseille","lat":43.29184,"lon":5.356959,"is_reserved":false,"is_disabled":false,"rental_uris":{"android":"levelo://app?vid=9ccefaa5-71fb-4ab9-baca-c2ec4d57eef4","ios":"levelo://app?vid=9ccefaa5-71fb-4ab9-baca-c2ec4d57eef4"},"vehicle_type_id":"4","last_reported":1728670297,"current_range_meters":4800,"station_id":"ce4bhb12rcd13ifvqel0","pricing_plan_id":"cebpf4jnsgd1na2vs0mg"},{"bike_id":"e91c5bf7-780b-40aa-8130-817f9a0ae6db","system_id":"levelo_inurba_marseille","lat":43.25112,"lon":5.40326,"is_reserved":false,"is_disabled":false,"rental_uris":{"android":"levelo://app?vid=e91c5bf7-780b-40aa-8130-817f9a0ae6db","ios":"levelo://app?vid=e91c5bf7-780b-40aa-8130-817f9a0ae6db"},"vehicle_type_id":"4","last_reported":1728670297,"current_range_meters":26800,"station_id":"ce4bhlh2rcd13ifvqgig","pricing_plan_id":"cebpf4jnsgd1na2vs0mg"},{"bike_id":"d1c3a849-24a7-4a69-9dd7-4012a79359af","system_id":"levelo_inurba_marseille","lat":43.31531,"lon":5.38033,"is_reserved":false,"is_disabled":false,"rental_uris":{"android":"levelo://app?vid=d1c3a849-24a7-4a69-9dd7-4012a79359af","ios":"levelo://app?vid=d1c3a849-24a7-4a69-9dd7-4012a79359af"},"vehicle_type_id":"4","last_reported":1728670297,"current_range_meters":38800,"station_id":"ce4bhsp2rcd13ifvqi50","pricing_plan_id":"cebpf4jnsgd1na2vs0mg"},{"bike_id":"39c316a2-3412-4da6-8f5d-f74ee2770e87","system_id":"levelo_inurba_marseille","lat":43.29263,"lon":5.38443,"is_reserved":false,"is_disabled":false,"rental_uris":{"android":"levelo://app?vid=39c316a2-3412-4da6-8f5d-f74ee2770e87","ios":"levelo://app?vid=39c316a2-3412-4da6-8f5d-f74ee2770e87"},"vehicle_type_id":"4","last_reported":1728670297,"current_range_meters":14000,"station_id":"ce4bh692rcd13ifvqea0","pricing_plan_id":"cebpf4jnsgd1na2vs0mg"},{"bike_id":"b27220ce-643c-4cda-b1cf-ddebfd37a8aa","system_id":"levelo_inurba_marseille","lat":43.23187,"lon":5.39987,"is_reserved":false,"is_disabled":false,"rental_uris":{"android":"levelo://app?vid=b27220ce-643c-4cda-b1cf-ddebfd37a8aa","ios":"levelo://app?vid=b27220ce-643c-4cda-b1cf-ddebfd37a8aa"},"vehicle_type_id":"4","last_reported":1728670297,"current_range_meters":34800,"station_id":"ce4bhn12rcd13ifvqgqg","pricing_plan_id":"cebpf4jnsgd1na2vs0mg"},{"bike_id":"70f98ebc-65a0-4324-a82f-94fd4918b797","system_id":"levelo_inurba_marseille","lat":43.29847,"lon":5.36286,"is_reserved":false,"is_disabled":false,"rental_uris":{"android":"levelo://app?vid=70f98ebc-65a0-4324-a82f-94fd4918b797","ios":"levelo://app?vid=70f98ebc-65a0-4324-a82f-94fd4918b797"},"vehicle_type_id":"4","last_reported":1728670297,"current_range_meters":6800,"station_id":"ce4bgpp2rcd13ifvqc3g","pricing_plan_id":"cebpf4jnsgd1na2vs0mg"},{"bike_id":"9c2cdcb3-465e-4a6f-b1d1-c94dd9d1e2ed","system_id":"levelo_inurba_marseille","lat":43.28942,"lon":5.36638,"is_reserved":false,"is_disabled":false,"rental_uris":{"android":"levelo://app?vid=9c2cdcb3-465e-4a6f-b1d1-c94dd9d1e2ed","ios":"levelo://app?vid=9c2cdcb3-465e-4a6f-b1d1-c94dd9d1e2ed"},"vehicle_type_id":"4","last_reported":1728670297,"current_range_meters":38800,"station_id":"ce4bhap2rcd13ifvqek0","pricing_plan_id":"cebpf4jnsgd1na2vs0mg"},{"bike_id":"c2709d8c-182c-4c66-9678-32143d413767","system_id":"levelo_inurba_marseille","lat":43.2293,"lon":5.35377,"is_reserved":false,"is_disabled":false,"rental_uris":{"android":"levelo://app?vid=c2709d8c-182c-4c66-9678-32143d413767","ios":"levelo://app?vid=c2709d8c-182c-4c66-9678-32143d413767"},"vehicle_type_id":"4","last_reported":1728670297,"current_range_meters":30000,"station_id":"cpo3532slgdg3j2ikp40","pricing_plan_id":"cebpf4jnsgd1na2vs0mg"},{"bike_id":"9795e3a8-775d-458a-888e-29d10d28be1a","system_id":"levelo_inurba_marseille","lat":43.28277,"lon":5.35182,"is_reserved":false,"is_disabled":false,"rental_uris":{"android":"levelo://app?vid=9795e3a8-775d-458a-888e-29d10d28be1a","ios":"levelo://app?vid=9795e3a8-775d-458a-888e-29d10d28be1a"},"vehicle_type_id":"4","last_reported":1728670297,"current_range_meters":9600,"station_id":"","pricing_plan_id":"cebpf4jnsgd1na2vs0mg"},{"bike_id":"6f73511c-287a-42db-a295-da885e9076c7","system_id":"levelo_inurba_marseille","lat":43.29422,"lon":5.38623,"is_reserved":false,"is_disabled":false,"rental_uris":{"android":"levelo://app?vid=6f73511c-287a-42db-a295-da885e9076c7","ios":"levelo://app?vid=6f73511c-287a-42db-a295-da885e9076c7"},"vehicle_type_id":"4","last_reported":1728670297,"current_range_meters":22800,"station_id":"ce4bh2h2rcd13ifvqdh0","pricing_plan_id":"cebpf4jnsgd1na2vs0mg"},{"bike_id":"e9a0e6c3-9259-4a96-a59a-4a2eb64085ac","system_id":"levelo_inurba_marseille","lat":43.3149,"lon":5.37309,"is_reserved":false,"is_disabled":false,"rental_uris":{"android":"levelo://app?vid=e9a0e6c3-9259-4a96-a59a-4a2eb64085ac","ios":"levelo://app?vid=e9a0e6c3-9259-4a96-a59a-4a2eb64085ac"},"vehicle_type_id":"4","last_reported":1728670297,"current_range_meters":23200,"station_id":"ce4bgt12rcd13ifvqcd0","pricing_plan_id":"cebpf4jnsgd1na2vs0mg"},{"bike_id":"3345c334-e15d-4d02-ae87-fa93582036df","system_id":"levelo_inurba_marseille","lat":43.28841,"lon":5.39302,"is_reserved":false,"is_disabled":false,"rental_uris":{"android":"levelo://app?vid=3345c334-e15d-4d02-ae87-fa93582036df","ios":"levelo://app?vid=3345c334-e15d-4d02-ae87-fa93582036df"},"vehicle_type_id":"4","last_reported":1728670297,"current_range_meters":8000,"station_id":"ce4bh2p2rcd13ifvqdi0","pricing_plan_id":"cebpf4jnsgd1na2vs0mg"},{"bike_id":"57797ef1-e37f-408f-98ce-4a969df64701","system_id":"levelo_inurba_marseille","lat":43.28861,"lon":5.38775,"is_reserved":false,"is_disabled":false,"rental_uris":{"android":"levelo://app?vid=57797ef1-e37f-408f-98ce-4a969df64701","ios":"levelo://app?vid=57797ef1-e37f-408f-98ce-4a969df64701"},"vehicle_type_id":"4","last_reported":1728670297,"current_range_meters":3200,"station_id":"ce4bgh92rcd13ifvqb50","pricing_plan_id":"cebpf4jnsgd1na2vs0mg"},{"bike_id":"613375e0-c8a8-4169-8853-6a6cc9dea7c3","system_id":"levelo_inurba_marseille","lat":43.33724,"lon":5.39182,"is_reserved":false,"is_disabled":false,"rental_uris":{"android":"levelo://app?vid=613375e0-c8a8-4169-8853-6a6cc9dea7c3","ios":"levelo://app?vid=613375e0-c8a8-4169-8853-6a6cc9dea7c3"},"vehicle_type_id":"4","last_reported":1728670297,"current_range_meters":9200,"station_id":"ce4bhr92rcd13ifvqhsg","pricing_plan_id":"cebpf4jnsgd1na2vs0mg"},{"bike_id":"ea4e822d-5c26-4348-9712-13dc92b51d6e","system_id":"levelo_inurba_marseille","lat":43.32537,"lon":5.41446,"is_reserved":false,"is_disabled":false,"rental_uris":{"android":"levelo://app?vid=ea4e822d-5c26-4348-9712-13dc92b51d6e","ios":"levelo://app?vid=ea4e822d-5c26-4348-9712-13dc92b51d6e"},"vehicle_type_id":"4","last_reported":1728670297,"current_range_meters":36800,"station_id":"ce4bhq12rcd13ifvqhhg","pricing_plan_id":"cebpf4jnsgd1na2vs0mg"},{"bike_id":"fe499ee7-6375-4ecd-b57e-a932fe0f65cf","system_id":"levelo_inurba_marseille","lat":43.3372,"lon":5.39189,"is_reserved":false,"is_disabled":false,"rental_uris":{"android":"levelo://app?vid=fe499ee7-6375-4ecd-b57e-a932fe0f65cf","ios":"levelo://app?vid=fe499ee7-6375-4ecd-b57e-a932fe0f65cf"},"vehicle_type_id":"4","last_reported":1728670297,"current_range_meters":12800,"station_id":"ce4bhr92rcd13ifvqhsg","pricing_plan_id":"cebpf4jnsgd1na2vs0mg"},{"bike_id":"fbffa957-ac49-4590-b223-7d57f26e111b","system_id":"levelo_inurba_marseille","lat":43.32255,"lon":5.3827,"is_reserved":false,"is_disabled":false,"rental_uris":{"android":"levelo://app?vid=fbffa957-ac49-4590-b223-7d57f26e111b","ios":"levelo://app?vid=fbffa957-ac49-4590-b223-7d57f26e111b"},"vehicle_type_id":"4","last_reported":1728670297,"current_range_meters":32400,"station_id":"ce4bhr12rcd13ifvqhqg","pricing_plan_id":"cebpf4jnsgd1na2vs0mg"},{"bike_id":"43cfaa97-bba1-4bf4-8aa2-b4a6612050aa","system_id":"levelo_inurba_marseille","lat":43.292786,"lon":5.38285,"is_reserved":false,"is_disabled":false,"rental_uris":{"android":"levelo://app?vid=43cfaa97-bba1-4bf4-8aa2-b4a6612050aa","ios":"levelo://app?vid=43cfaa97-bba1-4bf4-8aa2-b4a6612050aa"},"vehicle_type_id":"4","last_reported":1728670297,"current_range_meters":14000,"station_id":"ce4bh692rcd13ifvqea0","pricing_plan_id":"cebpf4jnsgd1na2vs0mg"},{"bike_id":"3bd6033b-b9e1-4e43-9cda-44c3e3f9f5ad","system_id":"levelo_inurba_marseille","lat":43.32332,"lon":5.40625,"is_reserved":false,"is_disabled":false,"rental_uris":{"android":"levelo://app?vid=3bd6033b-b9e1-4e43-9cda-44c3e3f9f5ad","ios":"levelo://app?vid=3bd6033b-b9e1-4e43-9cda-44c3e3f9f5ad"},"vehicle_type_id":"4","last_reported":1728670297,"current_range_meters":25200,"station_id":"ce4bhq92rcd13ifvqhjg","pricing_plan_id":"cebpf4jnsgd1na2vs0mg"},{"bike_id":"fa3d1a81-dcfc-4dd6-b6c7-47dd84b76d28","system_id":"levelo_inurba_marseille","lat":43.27171,"lon":5.40992,"is_reserved":false,"is_disabled":false,"rental_uris":{"android":"levelo://app?vid=fa3d1a81-dcfc-4dd6-b6c7-47dd84b76d28","ios":"levelo://app?vid=fa3d1a81-dcfc-4dd6-b6c7-47dd84b76d28"},"vehicle_type_id":"4","last_reported":1728670297,"current_range_meters":26800,"station_id":"ce4bhl12rcd13ifvqgf0","pricing_plan_id":"cebpf4jnsgd1na2vs0mg"},{"bike_id":"3b2bce86-53cb-4de3-b003-b6c78e8272b2","system_id":"levelo_inurba_marseille","lat":43.31229,"lon":5.36864,"is_reserved":false,"is_disabled":false,"rental_uris":{"android":"levelo://app?vid=3b2bce86-53cb-4de3-b003-b6c78e8272b2","ios":"levelo://app?vid=3b2bce86-53cb-4de3-b003-b6c78e8272b2"},"vehicle_type_id":"4","last_reported":1728670297,"current_range_meters":8400,"station_id":"ce4bgl92rcd13ifvqbq0","pricing_plan_id":"cebpf4jnsgd1na2vs0mg"},{"bike_id":"62523e9b-ab13-4ca8-a3d7-ee7620b0f82f","system_id":"levelo_inurba_marseille","lat":43.29418,"lon":5.38615,"is_reserved":false,"is_disabled":false,"rental_uris":{"android":"levelo://app?vid=62523e9b-ab13-4ca8-a3d7-ee7620b0f82f","ios":"levelo://app?vid=62523e9b-ab13-4ca8-a3d7-ee7620b0f82f"},"vehicle_type_id":"4","last_reported":1728670297,"current_range_meters":3600,"station_id":"ce4bh2h2rcd13ifvqdh0","pricing_plan_id":"cebpf4jnsgd1na2vs0mg"},{"bike_id":"8001d56e-58b2-4d3b-9d82-446786f38900","system_id":"levelo_inurba_marseille","lat":43.22935,"lon":5.3538,"is_reserved":false,"is_disabled":false,"rental_uris":{"android":"levelo://app?vid=8001d56e-58b2-4d3b-9d82-446786f38900","ios":"levelo://app?vid=8001d56e-58b2-4d3b-9d82-446786f38900"},"vehicle_type_id":"4","last_reported":1728670297,"current_range_meters":6000,"station_id":"cpo3532slgdg3j2ikp40","pricing_plan_id":"cebpf4jnsgd1na2vs0mg"},{"bike_id":"850d088a-e821-4e47-8b27-654fddfdeb05","system_id":"levelo_inurba_marseille","lat":43.301221,"lon":5.374562,"is_reserved":false,"is_disabled":false,"rental_uris":{"android":"levelo://app?vid=850d088a-e821-4e47-8b27-654fddfdeb05","ios":"levelo://app?vid=850d088a-e821-4e47-8b27-654fddfdeb05"},"vehicle_type_id":"4","last_reported":1728670297,"current_range_meters":36400,"station_id":"ce4bgs92rcd13ifvqcc0","pricing_plan_id":"cebpf4jnsgd1na2vs0mg"},{"bike_id":"573ada2f-25ee-496e-b11d-86ef27bd3232","system_id":"levelo_inurba_marseille","lat":43.28109,"lon":5.3689,"is_reserved":false,"is_disabled":false,"rental_uris":{"android":"levelo://app?vid=573ada2f-25ee-496e-b11d-86ef27bd3232","ios":"levelo://app?vid=573ada2f-25ee-496e-b11d-86ef27bd3232"},"vehicle_type_id":"4","last_reported":1728670297,"current_range_meters":4000,"station_id":"ce4bha12rcd13ifvqef0","pricing_plan_id":"cebpf4jnsgd1na2vs0mg"},{"bike_id":"2d04de68-d120-472d-8fa1-487ce4100c0c","system_id":"levelo_inurba_marseille","lat":43.29848,"lon":5.36289,"is_reserved":false,"is_disabled":false,"rental_uris":{"android":"levelo://app?vid=2d04de68-d120-472d-8fa1-487ce4100c0c","ios":"levelo://app?vid=2d04de68-d120-472d-8fa1-487ce4100c0c"},"vehicle_type_id":"4","last_reported":1728670297,"current_range_meters":7200,"station_id":"ce4bgpp2rcd13ifvqc3g","pricing_plan_id":"cebpf4jnsgd1na2vs0mg"},{"bike_id":"e452efaf-e760-47d5-89dd-1f7ae50a8aad","system_id":"levelo_inurba_marseille","lat":43.28845,"lon":5.39313,"is_reserved":false,"is_disabled":false,"rental_uris":{"android":"levelo://app?vid=e452efaf-e760-47d5-89dd-1f7ae50a8aad","ios":"levelo://app?vid=e452efaf-e760-47d5-89dd-1f7ae50a8aad"},"vehicle_type_id":"4","last_reported":1728670297,"current_range_meters":2000,"station_id":"ce4bh2p2rcd13ifvqdi0","pricing_plan_id":"cebpf4jnsgd1na2vs0mg"},{"bike_id":"ff68b789-7173-415f-860f-fb58c1b9d01d","system_id":"levelo_inurba_marseille","lat":43.22929,"lon":5.3538,"is_reserved":false,"is_disabled":false,"rental_uris":{"android":"levelo://app?vid=ff68b789-7173-415f-860f-fb58c1b9d01d","ios":"levelo://app?vid=ff68b789-7173-415f-860f-fb58c1b9d01d"},"vehicle_type_id":"4","last_reported":1728670297,"current_range_meters":30000,"station_id":"cpo3532slgdg3j2ikp40","pricing_plan_id":"cebpf4jnsgd1na2vs0mg"},{"bike_id":"1cfea740-6505-43cc-8e9a-44bd2a4a740d","system_id":"levelo_inurba_marseille","lat":43.27998,"lon":5.40012,"is_reserved":false,"is_disabled":false,"rental_uris":{"android":"levelo://app?vid=1cfea740-6505-43cc-8e9a-44bd2a4a740d","ios":"levelo://app?vid=1cfea740-6505-43cc-8e9a-44bd2a4a740d"},"vehicle_type_id":"4","last_reported":1728670297,"current_range_meters":3200,"station_id":"ce4bho92rcd13ifvqh4g","pricing_plan_id":"cebpf4jnsgd1na2vs0mg"},{"bike_id":"11ed2bc4-99e4-42ab-8911-f3374fcced68","system_id":"levelo_inurba_marseille","lat":43.27178,"lon":5.40989,"is_reserved":false,"is_disabled":false,"rental_uris":{"android":"levelo://app?vid=11ed2bc4-99e4-42ab-8911-f3374fcced68","ios":"levelo://app?vid=11ed2bc4-99e4-42ab-8911-f3374fcced68"},"vehicle_type_id":"4","last_reported":1728670297,"current_range_meters":36400,"station_id":"ce4bhl12rcd13ifvqgf0","pricing_plan_id":"cebpf4jnsgd1na2vs0mg"},{"bike_id":"845cfb2b-885b-4b48-bd9a-cda268c23a81","system_id":"levelo_inurba_marseille","lat":43.29975,"lon":5.38493,"is_reserved":false,"is_disabled":false,"rental_uris":{"android":"levelo://app?vid=845cfb2b-885b-4b48-bd9a-cda268c23a81","ios":"levelo://app?vid=845cfb2b-885b-4b48-bd9a-cda268c23a81"},"vehicle_type_id":"4","last_reported":1728670297,"current_range_meters":38800,"station_id":"ce4bgj92rcd13ifvqbd0","pricing_plan_id":"cebpf4jnsgd1na2vs0mg"},{"bike_id":"6cb5b02c-2401-484a-8b7d-b4d2106d6b08","system_id":"levelo_inurba_marseille","lat":43.2319,"lon":5.35558,"is_reserved":false,"is_disabled":false,"rental_uris":{"android":"levelo://app?vid=6cb5b02c-2401-484a-8b7d-b4d2106d6b08","ios":"levelo://app?vid=6cb5b02c-2401-484a-8b7d-b4d2106d6b08"},"vehicle_type_id":"4","last_reported":1728670297,"current_range_meters":35600,"station_id":"ce4bhu92rcd13ifvqi70","pricing_plan_id":"cebpf4jnsgd1na2vs0mg"},{"bike_id":"751ab8f4-b66e-4832-9b92-433be04fd785","system_id":"levelo_inurba_marseille","lat":43.33025,"lon":5.39037,"is_reserved":false,"is_disabled":false,"rental_uris":{"android":"levelo://app?vid=751ab8f4-b66e-4832-9b92-433be04fd785","ios":"levelo://app?vid=751ab8f4-b66e-4832-9b92-433be04fd785"},"vehicle_type_id":"4","last_reported":1728670297,"current_range_meters":27600,"station_id":"ce4bhr92rcd13ifvqhrg","pricing_plan_id":"cebpf4jnsgd1na2vs0mg"},{"bike_id":"7ac7e627-06e3-49fc-b1d7-b6203dd7d747","system_id":"levelo_inurba_marseille","lat":43.3176,"lon":5.39002,"is_reserved":false,"is_disabled":false,"rental_uris":{"android":"levelo://app?vid=7ac7e627-06e3-49fc-b1d7-b6203dd7d747","ios":"levelo://app?vid=7ac7e627-06e3-49fc-b1d7-b6203dd7d747"},"vehicle_type_id":"4","last_reported":1728670297,"current_range_meters":8000,"station_id":"ce4bhqp2rcd13ifvqhng","pricing_plan_id":"cebpf4jnsgd1na2vs0mg"},{"bike_id":"b255f080-97bf-4c44-8524-2ae6e27cf0bc","system_id":"levelo_inurba_marseille","lat":43.280033,"lon":5.400062,"is_reserved":false,"is_disabled":false,"rental_uris":{"android":"levelo://app?vid=b255f080-97bf-4c44-8524-2ae6e27cf0bc","ios":"levelo://app?vid=b255f080-97bf-4c44-8524-2ae6e27cf0bc"},"vehicle_type_id":"4","last_reported":1728670297,"current_range_meters":4000,"station_id":"ce4bho92rcd13ifvqh4g","pricing_plan_id":"cebpf4jnsgd1na2vs0mg"},{"bike_id":"915990ee-de15-4feb-a1f7-ce4cfdb870b2","system_id":"levelo_inurba_marseille","lat":43.29849,"lon":5.36289,"is_reserved":false,"is_disabled":false,"rental_uris":{"android":"levelo://app?vid=915990ee-de15-4feb-a1f7-ce4cfdb870b2","ios":"levelo://app?vid=915990ee-de15-4feb-a1f7-ce4cfdb870b2"},"vehicle_type_id":"4","last_reported":1728670297,"current_range_meters":20000,"station_id":"ce4bgpp2rcd13ifvqc3g","pricing_plan_id":"cebpf4jnsgd1na2vs0mg"},{"bike_id":"272075e8-4ede-47aa-bf4a-9a985c872f90","system_id":"levelo_inurba_marseille","lat":43.29034,"lon":5.37543,"is_reserved":false,"is_disabled":false,"rental_uris":{"android":"levelo://app?vid=272075e8-4ede-47aa-bf4a-9a985c872f90","ios":"levelo://app?vid=272075e8-4ede-47aa-bf4a-9a985c872f90"},"vehicle_type_id":"4","last_reported":1728670297,"current_range_meters":22800,"station_id":"ce4bh692rcd13ifvqe90","pricing_plan_id":"cebpf4jnsgd1na2vs0mg"},{"bike_id":"0218be81-a023-4135-a21e-30236bb4a4a4","system_id":"levelo_inurba_marseille","lat":43.32107,"lon":5.36761,"is_reserved":false,"is_disabled":false,"rental_uris":{"android":"levelo://app?vid=0218be81-a023-4135-a21e-30236bb4a4a4","ios":"levelo://app?vid=0218be81-a023-4135-a21e-30236bb4a4a4"},"vehicle_type_id":"4","last_reported":1728670297,"current_range_meters":37600,"station_id":"ce4bhrh2rcd13ifvqhug","pricing_plan_id":"cebpf4jnsgd1na2vs0mg"},{"bike_id":"f80c2e75-b47f-4161-9783-8454957aba75","system_id":"levelo_inurba_marseille","lat":43.32105,"lon":5.36764,"is_reserved":false,"is_disabled":false,"rental_uris":{"android":"levelo://app?vid=f80c2e75-b47f-4161-9783-8454957aba75","ios":"levelo://app?vid=f80c2e75-b47f-4161-9783-8454957aba75"},"vehicle_type_id":"4","last_reported":1728670297,"current_range_meters":38800,"station_id":"ce4bhrh2rcd13ifvqhug","pricing_plan_id":"cebpf4jnsgd1na2vs0mg"},{"bike_id":"a7b5e1b5-4ccc-4728-b45d-9adec9becb5d","system_id":"levelo_inurba_marseille","lat":43.30805,"lon":5.43517,"is_reserved":false,"is_disabled":false,"rental_uris":{"android":"levelo://app?vid=a7b5e1b5-4ccc-4728-b45d-9adec9becb5d","ios":"levelo://app?vid=a7b5e1b5-4ccc-4728-b45d-9adec9becb5d"},"vehicle_type_id":"4","last_reported":1728670297,"current_range_meters":12800,"station_id":"ce4bhph2rcd13ifvqheg","pricing_plan_id":"cebpf4jnsgd1na2vs0mg"},{"bike_id":"5cd086e3-41cc-466d-9dba-eb245c88c63e","system_id":"levelo_inurba_marseille","lat":43.24178,"lon":5.39729,"is_reserved":false,"is_disabled":false,"rental_uris":{"android":"levelo://app?vid=5cd086e3-41cc-466d-9dba-eb245c88c63e","ios":"levelo://app?vid=5cd086e3-41cc-466d-9dba-eb245c88c63e"},"vehicle_type_id":"4","last_reported":1728670297,"current_range_meters":14000,"station_id":"ce4bhn12rcd13ifvqgpg","pricing_plan_id":"cebpf4jnsgd1na2vs0mg"},{"bike_id":"212d8577-07e9-4521-a832-4e828067e229","system_id":"levelo_inurba_marseille","lat":43.29416,"lon":5.38623,"is_reserved":false,"is_disabled":false,"rental_uris":{"android":"levelo://app?vid=212d8577-07e9-4521-a832-4e828067e229","ios":"levelo://app?vid=212d8577-07e9-4521-a832-4e828067e229"},"vehicle_type_id":"4","last_reported":1728670297,"current_range_meters":8800,"station_id":"ce4bh2h2rcd13ifvqdh0","pricing_plan_id":"cebpf4jnsgd1na2vs0mg"},{"bike_id":"df17eff2-8021-4979-a2b0-b8b956c3dafc","system_id":"levelo_inurba_marseille","lat":43.27184,"lon":5.40996,"is_reserved":false,"is_disabled":false,"rental_uris":{"android":"levelo://app?vid=df17eff2-8021-4979-a2b0-b8b956c3dafc","ios":"levelo://app?vid=df17eff2-8021-4979-a2b0-b8b956c3dafc"},"vehicle_type_id":"4","last_reported":1728670297,"current_range_meters":6400,"station_id":"ce4bhl12rcd13ifvqgf0","pricing_plan_id":"cebpf4jnsgd1na2vs0mg"},{"bike_id":"ba40ef59-d58a-489b-a557-cd7027f57fdc","system_id":"levelo_inurba_marseille","lat":43.28155,"lon":5.42647,"is_reserved":false,"is_disabled":false,"rental_uris":{"android":"levelo://app?vid=ba40ef59-d58a-489b-a557-cd7027f57fdc","ios":"levelo://app?vid=ba40ef59-d58a-489b-a557-cd7027f57fdc"},"vehicle_type_id":"4","last_reported":1728670297,"current_range_meters":10000,"station_id":"ce4bhnh2rcd13ifvqgug","pricing_plan_id":"cebpf4jnsgd1na2vs0mg"},{"bike_id":"b0c74578-c598-4913-bba5-5a9cd08c4263","system_id":"levelo_inurba_marseille","lat":43.29849,"lon":5.36271,"is_reserved":false,"is_disabled":false,"rental_uris":{"android":"levelo://app?vid=b0c74578-c598-4913-bba5-5a9cd08c4263","ios":"levelo://app?vid=b0c74578-c598-4913-bba5-5a9cd08c4263"},"vehicle_type_id":"4","last_reported":1728670297,"current_range_meters":5600,"station_id":"ce4bgpp2rcd13ifvqc3g","pricing_plan_id":"cebpf4jnsgd1na2vs0mg"},{"bike_id":"b933402b-d1ca-49a8-bbf7-fb19281d941c","system_id":"levelo_inurba_marseille","lat":43.23189,"lon":5.35555,"is_reserved":false,"is_disabled":false,"rental_uris":{"android":"levelo://app?vid=b933402b-d1ca-49a8-bbf7-fb19281d941c","ios":"levelo://app?vid=b933402b-d1ca-49a8-bbf7-fb19281d941c"},"vehicle_type_id":"4","last_reported":1728670297,"current_range_meters":25600,"station_id":"ce4bhu92rcd13ifvqi70","pricing_plan_id":"cebpf4jnsgd1na2vs0mg"},{"bike_id":"d6bd0c49-99f4-470d-92bd-b8f3e56da122","system_id":"levelo_inurba_marseille","lat":43.29982,"lon":5.37182,"is_reserved":false,"is_disabled":false,"rental_uris":{"android":"levelo://app?vid=d6bd0c49-99f4-470d-92bd-b8f3e56da122","ios":"levelo://app?vid=d6bd0c49-99f4-470d-92bd-b8f3e56da122"},"vehicle_type_id":"4","last_reported":1728670297,"current_range_meters":9600,"station_id":"ce4bgr92rcd13ifvqc7g","pricing_plan_id":"cebpf4jnsgd1na2vs0mg"},{"bike_id":"c15bc34d-2094-4b14-a7d0-3014d4a88d42","system_id":"levelo_inurba_marseille","lat":43.30895,"lon":5.37204,"is_reserved":false,"is_disabled":false,"rental_uris":{"android":"levelo://app?vid=c15bc34d-2094-4b14-a7d0-3014d4a88d42","ios":"levelo://app?vid=c15bc34d-2094-4b14-a7d0-3014d4a88d42"},"vehicle_type_id":"4","last_reported":1728670297,"current_range_meters":38000,"station_id":"ce4bguh2rcd13ifvqckg","pricing_plan_id":"cebpf4jnsgd1na2vs0mg"},{"bike_id":"b578d725-7396-4140-b00b-ee62ff2d3958","system_id":"levelo_inurba_marseille","lat":43.30187,"lon":5.36624,"is_reserved":false,"is_disabled":false,"rental_uris":{"android":"levelo://app?vid=b578d725-7396-4140-b00b-ee62ff2d3958","ios":"levelo://app?vid=b578d725-7396-4140-b00b-ee62ff2d3958"},"vehicle_type_id":"4","last_reported":1728670297,"current_range_meters":14000,"station_id":"ce4bgrh2rcd13ifvqc8g","pricing_plan_id":"cebpf4jnsgd1na2vs0mg"},{"bike_id":"484a4c63-4ef1-4433-b27a-9a9ca5ad2f9a","system_id":"levelo_inurba_marseille","lat":43.22926,"lon":5.35381,"is_reserved":false,"is_disabled":false,"rental_uris":{"android":"levelo://app?vid=484a4c63-4ef1-4433-b27a-9a9ca5ad2f9a","ios":"levelo://app?vid=484a4c63-4ef1-4433-b27a-9a9ca5ad2f9a"},"vehicle_type_id":"4","last_reported":1728670297,"current_range_meters":15200,"station_id":"cpo3532slgdg3j2ikp40","pricing_plan_id":"cebpf4jnsgd1na2vs0mg"},{"bike_id":"0889b945-e4f4-4b63-8b2c-17c365f47b6d","system_id":"levelo_inurba_marseille","lat":43.31365,"lon":5.36705,"is_reserved":false,"is_disabled":false,"rental_uris":{"android":"levelo://app?vid=0889b945-e4f4-4b63-8b2c-17c365f47b6d","ios":"levelo://app?vid=0889b945-e4f4-4b63-8b2c-17c365f47b6d"},"vehicle_type_id":"4","last_reported":1728670297,"current_range_meters":10000,"station_id":"ce4bgr92rcd13ifvqc6g","pricing_plan_id":"cebpf4jnsgd1na2vs0mg"},{"bike_id":"70b93fde-0112-4666-b354-c5ae0e05e66d","system_id":"levelo_inurba_marseille","lat":43.29002,"lon":5.35613,"is_reserved":false,"is_disabled":false,"rental_uris":{"android":"levelo://app?vid=70b93fde-0112-4666-b354-c5ae0e05e66d","ios":"levelo://app?vid=70b93fde-0112-4666-b354-c5ae0e05e66d"},"vehicle_type_id":"4","last_reported":1728670297,"current_range_meters":23200,"station_id":"ce4bhb92rcd13ifvqen0","pricing_plan_id":"cebpf4jnsgd1na2vs0mg"},{"bike_id":"0acb2ccc-a829-423b-b46b-e86c58babd94","system_id":"levelo_inurba_marseille","lat":43.33724,"lon":5.39179,"is_reserved":false,"is_disabled":false,"rental_uris":{"android":"levelo://app?vid=0acb2ccc-a829-423b-b46b-e86c58babd94","ios":"levelo://app?vid=0acb2ccc-a829-423b-b46b-e86c58babd94"},"vehicle_type_id":"4","last_reported":1728670297,"current_range_meters":28000,"station_id":"ce4bhr92rcd13ifvqhsg","pricing_plan_id":"cebpf4jnsgd1na2vs0mg"},{"bike_id":"39bb093e-1fb0-4fe9-a7de-f970ccf3512f","system_id":"levelo_inurba_marseille","lat":43.22932,"lon":5.35378,"is_reserved":false,"is_disabled":false,"rental_uris":{"android":"levelo://app?vid=39bb093e-1fb0-4fe9-a7de-f970ccf3512f","ios":"levelo://app?vid=39bb093e-1fb0-4fe9-a7de-f970ccf3512f"},"vehicle_type_id":"4","last_reported":1728670297,"current_range_meters":24400,"station_id":"cpo3532slgdg3j2ikp40","pricing_plan_id":"cebpf4jnsgd1na2vs0mg"},{"bike_id":"882f833c-8863-4f43-b90e-74f92bc6adcf","system_id":"levelo_inurba_marseille","lat":43.27903,"lon":5.38015,"is_reserved":false,"is_disabled":false,"rental_uris":{"android":"levelo://app?vid=882f833c-8863-4f43-b90e-74f92bc6adcf","ios":"levelo://app?vid=882f833c-8863-4f43-b90e-74f92bc6adcf"},"vehicle_type_id":"4","last_reported":1728670297,"current_range_meters":5600,"station_id":"ce4bha12rcd13ifvqef0","pricing_plan_id":"cebpf4jnsgd1na2vs0mg"},{"bike_id":"12f42c7f-79bc-46c6-a005-d7c8a0453528","system_id":"levelo_inurba_marseille","lat":43.28151,"lon":5.42646,"is_reserved":false,"is_disabled":false,"rental_uris":{"android":"levelo://app?vid=12f42c7f-79bc-46c6-a005-d7c8a0453528","ios":"levelo://app?vid=12f42c7f-79bc-46c6-a005-d7c8a0453528"},"vehicle_type_id":"4","last_reported":1728670297,"current_range_meters":8800,"station_id":"ce4bhnh2rcd13ifvqgug","pricing_plan_id":"cebpf4jnsgd1na2vs0mg"},{"bike_id":"e640a7c8-ae41-48c0-8029-35a99e736199","system_id":"levelo_inurba_marseille","lat":43.292581,"lon":5.384094,"is_reserved":false,"is_disabled":false,"rental_uris":{"android":"levelo://app?vid=e640a7c8-ae41-48c0-8029-35a99e736199","ios":"levelo://app?vid=e640a7c8-ae41-48c0-8029-35a99e736199"},"vehicle_type_id":"4","last_reported":1728670297,"current_range_meters":18800,"station_id":"ce4bh692rcd13ifvqea0","pricing_plan_id":"cebpf4jnsgd1na2vs0mg"},{"bike_id":"94eac4d1-460b-4cf7-a575-bfabb4332f55","system_id":"levelo_inurba_marseille","lat":43.28483,"lon":5.38552,"is_reserved":false,"is_disabled":false,"rental_uris":{"android":"levelo://app?vid=94eac4d1-460b-4cf7-a575-bfabb4332f55","ios":"levelo://app?vid=94eac4d1-460b-4cf7-a575-bfabb4332f55"},"vehicle_type_id":"4","last_reported":1728670297,"current_range_meters":3600,"station_id":"ce4bh8p2rcd13ifvqeb0","pricing_plan_id":"cebpf4jnsgd1na2vs0mg"},{"bike_id":"5b9f2409-af94-4530-bdcb-ef3b7e257a37","system_id":"levelo_inurba_marseille","lat":43.31994,"lon":5.38139,"is_reserved":false,"is_disabled":false,"rental_uris":{"android":"levelo://app?vid=5b9f2409-af94-4530-bdcb-ef3b7e257a37","ios":"levelo://app?vid=5b9f2409-af94-4530-bdcb-ef3b7e257a37"},"vehicle_type_id":"4","last_reported":1728670297,"current_range_meters":38800,"station_id":"ce4bhr12rcd13ifvqhpg","pricing_plan_id":"cebpf4jnsgd1na2vs0mg"},{"bike_id":"711dbe94-07a9-46c9-b874-5f41247195c4","system_id":"levelo_inurba_marseille","lat":43.28952,"lon":5.36409,"is_reserved":false,"is_disabled":false,"rental_uris":{"android":"levelo://app?vid=711dbe94-07a9-46c9-b874-5f41247195c4","ios":"levelo://app?vid=711dbe94-07a9-46c9-b874-5f41247195c4"},"vehicle_type_id":"4","last_reported":1728670297,"current_range_meters":38400,"station_id":"ce4bhc92rcd13ifvqetg","pricing_plan_id":"cebpf4jnsgd1na2vs0mg"},{"bike_id":"9420c6dc-b19d-4421-8c0c-72e39b809c6b","system_id":"levelo_inurba_marseille","lat":43.22928,"lon":5.35375,"is_reserved":false,"is_disabled":false,"rental_uris":{"android":"levelo://app?vid=9420c6dc-b19d-4421-8c0c-72e39b809c6b","ios":"levelo://app?vid=9420c6dc-b19d-4421-8c0c-72e39b809c6b"},"vehicle_type_id":"4","last_reported":1728670297,"current_range_meters":38800,"station_id":"cpo3532slgdg3j2ikp40","pricing_plan_id":"cebpf4jnsgd1na2vs0mg"},{"bike_id":"5a5649e8-a9bc-4d0f-be41-ed6fc56a9baf","system_id":"levelo_inurba_marseille","lat":43.22925,"lon":5.35379,"is_reserved":false,"is_disabled":false,"rental_uris":{"android":"levelo://app?vid=5a5649e8-a9bc-4d0f-be41-ed6fc56a9baf","ios":"levelo://app?vid=5a5649e8-a9bc-4d0f-be41-ed6fc56a9baf"},"vehicle_type_id":"4","last_reported":1728670297,"current_range_meters":36400,"station_id":"cpo3532slgdg3j2ikp40","pricing_plan_id":"cebpf4jnsgd1na2vs0mg"},{"bike_id":"eebadb3e-f46b-49ea-bad1-19a75864e50a","system_id":"levelo_inurba_marseille","lat":43.294006,"lon":5.386378,"is_reserved":false,"is_disabled":false,"rental_uris":{"android":"levelo://app?vid=eebadb3e-f46b-49ea-bad1-19a75864e50a","ios":"levelo://app?vid=eebadb3e-f46b-49ea-bad1-19a75864e50a"},"vehicle_type_id":"4","last_reported":1728670297,"current_range_meters":12400,"station_id":"ce4bh2h2rcd13ifvqdh0","pricing_plan_id":"cebpf4jnsgd1na2vs0mg"},{"bike_id":"2b84292f-d1a2-4dbf-9fcc-7951f5481834","system_id":"levelo_inurba_marseille","lat":43.30217,"lon":5.39469,"is_reserved":false,"is_disabled":false,"rental_uris":{"android":"levelo://app?vid=2b84292f-d1a2-4dbf-9fcc-7951f5481834","ios":"levelo://app?vid=2b84292f-d1a2-4dbf-9fcc-7951f5481834"},"vehicle_type_id":"4","last_reported":1728670297,"current_range_meters":1200,"station_id":"ce4bh0p2rcd13ifvqd70","pricing_plan_id":"cebpf4jnsgd1na2vs0mg"},{"bike_id":"40fb2c1e-b849-48bd-bac0-bfc9f50b0c84","system_id":"levelo_inurba_marseille","lat":43.26802,"lon":5.40275,"is_reserved":false,"is_disabled":false,"rental_uris":{"android":"levelo://app?vid=40fb2c1e-b849-48bd-bac0-bfc9f50b0c84","ios":"levelo://app?vid=40fb2c1e-b849-48bd-bac0-bfc9f50b0c84"},"vehicle_type_id":"4","last_reported":1728670297,"current_range_meters":35200,"station_id":"ce501612rcd8frsf0b60","pricing_plan_id":"cebpf4jnsgd1na2vs0mg"},{"bike_id":"d66fdf2f-07a9-4b26-b71a-667699602f45","system_id":"levelo_inurba_marseille","lat":43.27937,"lon":5.41042,"is_reserved":false,"is_disabled":false,"rental_uris":{"android":"levelo://app?vid=d66fdf2f-07a9-4b26-b71a-667699602f45","ios":"levelo://app?vid=d66fdf2f-07a9-4b26-b71a-667699602f45"},"vehicle_type_id":"4","last_reported":1728670297,"current_range_meters":9200,"station_id":"ce4bhnp2rcd13ifvqh0g","pricing_plan_id":"cebpf4jnsgd1na2vs0mg"},{"bike_id":"379d6363-9152-4e84-bd42-6ec02dd02b54","system_id":"levelo_inurba_marseille","lat":43.31993,"lon":5.3815,"is_reserved":false,"is_disabled":false,"rental_uris":{"android":"levelo://app?vid=379d6363-9152-4e84-bd42-6ec02dd02b54","ios":"levelo://app?vid=379d6363-9152-4e84-bd42-6ec02dd02b54"},"vehicle_type_id":"4","last_reported":1728670297,"current_range_meters":38800,"station_id":"ce4bhr12rcd13ifvqhpg","pricing_plan_id":"cebpf4jnsgd1na2vs0mg"},{"bike_id":"8fb2b431-bcb9-46ba-80fb-e26e84592fc5","system_id":"levelo_inurba_marseille","lat":43.23192,"lon":5.35555,"is_reserved":false,"is_disabled":false,"rental_uris":{"android":"levelo://app?vid=8fb2b431-bcb9-46ba-80fb-e26e84592fc5","ios":"levelo://app?vid=8fb2b431-bcb9-46ba-80fb-e26e84592fc5"},"vehicle_type_id":"4","last_reported":1728670297,"current_range_meters":36000,"station_id":"ce4bhu92rcd13ifvqi70","pricing_plan_id":"cebpf4jnsgd1na2vs0mg"},{"bike_id":"4311070d-6aca-4a2e-a20e-896094b6cac2","system_id":"levelo_inurba_marseille","lat":43.33725,"lon":5.39184,"is_reserved":false,"is_disabled":false,"rental_uris":{"android":"levelo://app?vid=4311070d-6aca-4a2e-a20e-896094b6cac2","ios":"levelo://app?vid=4311070d-6aca-4a2e-a20e-896094b6cac2"},"vehicle_type_id":"4","last_reported":1728670297,"current_range_meters":13600,"station_id":"ce4bhr92rcd13ifvqhsg","pricing_plan_id":"cebpf4jnsgd1na2vs0mg"},{"bike_id":"81e012b7-d7e3-4524-9915-524b1b0c3063","system_id":"levelo_inurba_marseille","lat":43.29528,"lon":5.38539,"is_reserved":false,"is_disabled":false,"rental_uris":{"android":"levelo://app?vid=81e012b7-d7e3-4524-9915-524b1b0c3063","ios":"levelo://app?vid=81e012b7-d7e3-4524-9915-524b1b0c3063"},"vehicle_type_id":"4","last_reported":1728670297,"current_range_meters":38800,"station_id":"ce4bgih2rcd13ifvqba0","pricing_plan_id":"cebpf4jnsgd1na2vs0mg"},{"bike_id":"f4a9a51a-4cf1-4433-ac3c-527278e7b522","system_id":"levelo_inurba_marseille","lat":43.27185,"lon":5.40993,"is_reserved":false,"is_disabled":false,"rental_uris":{"android":"levelo://app?vid=f4a9a51a-4cf1-4433-ac3c-527278e7b522","ios":"levelo://app?vid=f4a9a51a-4cf1-4433-ac3c-527278e7b522"},"vehicle_type_id":"4","last_reported":1728670297,"current_range_meters":38000,"station_id":"ce4bhl12rcd13ifvqgf0","pricing_plan_id":"cebpf4jnsgd1na2vs0mg"},{"bike_id":"0fcf92ff-4e29-4aa1-8807-79e56f17ce9f","system_id":"levelo_inurba_marseille","lat":43.28157,"lon":5.42644,"is_reserved":false,"is_disabled":false,"rental_uris":{"android":"levelo://app?vid=0fcf92ff-4e29-4aa1-8807-79e56f17ce9f","ios":"levelo://app?vid=0fcf92ff-4e29-4aa1-8807-79e56f17ce9f"},"vehicle_type_id":"4","last_reported":1728670297,"current_range_meters":32000,"station_id":"ce4bhnh2rcd13ifvqgug","pricing_plan_id":"cebpf4jnsgd1na2vs0mg"},{"bike_id":"b143cc2b-c2af-4d5a-9ea8-60042381a872","system_id":"levelo_inurba_marseille","lat":43.25004,"lon":5.38934,"is_reserved":false,"is_disabled":false,"rental_uris":{"android":"levelo://app?vid=b143cc2b-c2af-4d5a-9ea8-60042381a872","ios":"levelo://app?vid=b143cc2b-c2af-4d5a-9ea8-60042381a872"},"vehicle_type_id":"4","last_reported":1728670297,"current_range_meters":26800,"station_id":"ce4bhgp2rcd13ifvqfd0","pricing_plan_id":"cebpf4jnsgd1na2vs0mg"},{"bike_id":"a27554a6-a50a-485f-8f1f-4487a4aa2e01","system_id":"levelo_inurba_marseille","lat":43.305893,"lon":5.380623,"is_reserved":false,"is_disabled":false,"rental_uris":{"android":"levelo://app?vid=a27554a6-a50a-485f-8f1f-4487a4aa2e01","ios":"levelo://app?vid=a27554a6-a50a-485f-8f1f-4487a4aa2e01"},"vehicle_type_id":"4","last_reported":1728670297,"current_range_meters":30400,"station_id":"","pricing_plan_id":"cebpf4jnsgd1na2vs0mg"},{"bike_id":"97f3bce6-c829-48d8-b61a-ec5d9c25fb20","system_id":"levelo_inurba_marseille","lat":43.26773,"lon":5.39415,"is_reserved":false,"is_disabled":false,"rental_uris":{"android":"levelo://app?vid=97f3bce6-c829-48d8-b61a-ec5d9c25fb20","ios":"levelo://app?vid=97f3bce6-c829-48d8-b61a-ec5d9c25fb20"},"vehicle_type_id":"4","last_reported":1728670297,"current_range_meters":36400,"station_id":"ce4bhh12rcd13ifvqfg0","pricing_plan_id":"cebpf4jnsgd1na2vs0mg"},{"bike_id":"ec4141ca-d8e6-4611-b0a0-d60934d3e575","system_id":"levelo_inurba_marseille","lat":43.29696,"lon":5.37706,"is_reserved":false,"is_disabled":false,"rental_uris":{"android":"levelo://app?vid=ec4141ca-d8e6-4611-b0a0-d60934d3e575","ios":"levelo://app?vid=ec4141ca-d8e6-4611-b0a0-d60934d3e575"},"vehicle_type_id":"4","last_reported":1728670297,"current_range_meters":7200,"station_id":"ce4bgkh2rcd13ifvqbl0","pricing_plan_id":"cebpf4jnsgd1na2vs0mg"},{"bike_id":"28866623-bb87-4ada-905b-fbe4e36f3628","system_id":"levelo_inurba_marseille","lat":43.30183,"lon":5.36626,"is_reserved":false,"is_disabled":false,"rental_uris":{"android":"levelo://app?vid=28866623-bb87-4ada-905b-fbe4e36f3628","ios":"levelo://app?vid=28866623-bb87-4ada-905b-fbe4e36f3628"},"vehicle_type_id":"4","last_reported":1728670297,"current_range_meters":38800,"station_id":"ce4bgrh2rcd13ifvqc8g","pricing_plan_id":"cebpf4jnsgd1na2vs0mg"},{"bike_id":"549aa92d-1d57-4f68-860e-b86ca10a5955","system_id":"levelo_inurba_marseille","lat":43.32288,"lon":5.38279,"is_reserved":false,"is_disabled":false,"rental_uris":{"android":"levelo://app?vid=549aa92d-1d57-4f68-860e-b86ca10a5955","ios":"levelo://app?vid=549aa92d-1d57-4f68-860e-b86ca10a5955"},"vehicle_type_id":"4","last_reported":1728670297,"current_range_meters":32000,"station_id":"ce4bhr12rcd13ifvqhqg","pricing_plan_id":"cebpf4jnsgd1na2vs0mg"},{"bike_id":"61caec01-bbcc-4b9a-af4a-e9e3dc7ff7f8","system_id":"levelo_inurba_marseille","lat":43.2954,"lon":5.37513,"is_reserved":false,"is_disabled":false,"rental_uris":{"android":"levelo://app?vid=61caec01-bbcc-4b9a-af4a-e9e3dc7ff7f8","ios":"levelo://app?vid=61caec01-bbcc-4b9a-af4a-e9e3dc7ff7f8"},"vehicle_type_id":"4","last_reported":1728670297,"current_range_meters":27200,"station_id":"ce4bgkp2rcd13ifvqbmg","pricing_plan_id":"cebpf4jnsgd1na2vs0mg"},{"bike_id":"e2c630b6-3b40-42ed-8ba9-670ce807433e","system_id":"levelo_inurba_marseille","lat":43.29851,"lon":5.36289,"is_reserved":false,"is_disabled":false,"rental_uris":{"android":"levelo://app?vid=e2c630b6-3b40-42ed-8ba9-670ce807433e","ios":"levelo://app?vid=e2c630b6-3b40-42ed-8ba9-670ce807433e"},"vehicle_type_id":"4","last_reported":1728670297,"current_range_meters":12000,"station_id":"ce4bgpp2rcd13ifvqc3g","pricing_plan_id":"cebpf4jnsgd1na2vs0mg"},{"bike_id":"039f5b19-afaf-4980-8d7b-7ed9613007b5","system_id":"levelo_inurba_marseille","lat":43.32263,"lon":5.38276,"is_reserved":false,"is_disabled":false,"rental_uris":{"android":"levelo://app?vid=039f5b19-afaf-4980-8d7b-7ed9613007b5","ios":"levelo://app?vid=039f5b19-afaf-4980-8d7b-7ed9613007b5"},"vehicle_type_id":"4","last_reported":1728670297,"current_range_meters":11600,"station_id":"ce4bhr12rcd13ifvqhqg","pricing_plan_id":"cebpf4jnsgd1na2vs0mg"},{"bike_id":"11b74571-50e4-4e9e-ab71-c14ab364d966","system_id":"levelo_inurba_marseille","lat":43.29414,"lon":5.38623,"is_reserved":false,"is_disabled":false,"rental_uris":{"android":"levelo://app?vid=11b74571-50e4-4e9e-ab71-c14ab364d966","ios":"levelo://app?vid=11b74571-50e4-4e9e-ab71-c14ab364d966"},"vehicle_type_id":"4","last_reported":1728670297,"current_range_meters":20800,"station_id":"ce4bgs12rcd13ifvqcag","pricing_plan_id":"cebpf4jnsgd1na2vs0mg"},{"bike_id":"aa75c41c-1391-4d5a-b0ad-fb29c317877d","system_id":"levelo_inurba_marseille","lat":43.23071,"lon":5.35497,"is_reserved":false,"is_disabled":false,"rental_uris":{"android":"levelo://app?vid=aa75c41c-1391-4d5a-b0ad-fb29c317877d","ios":"levelo://app?vid=aa75c41c-1391-4d5a-b0ad-fb29c317877d"},"vehicle_type_id":"4","last_reported":1728670297,"current_range_meters":38800,"station_id":"cpo3342slgdg3j2ifvpg","pricing_plan_id":"cebpf4jnsgd1na2vs0mg"},{"bike_id":"9ba2e5da-dfe6-4ecc-9e96-de9f8f0b4d82","system_id":"levelo_inurba_marseille","lat":43.30418,"lon":5.41286,"is_reserved":false,"is_disabled":false,"rental_uris":{"android":"levelo://app?vid=9ba2e5da-dfe6-4ecc-9e96-de9f8f0b4d82","ios":"levelo://app?vid=9ba2e5da-dfe6-4ecc-9e96-de9f8f0b4d82"},"vehicle_type_id":"4","last_reported":1728670297,"current_range_meters":7200,"station_id":"ce4bhop2rcd13ifvqh8g","pricing_plan_id":"cebpf4jnsgd1na2vs0mg"},{"bike_id":"f8881785-8a38-4506-9a43-884fc2f8d071","system_id":"levelo_inurba_marseille","lat":43.27992,"lon":5.40011,"is_reserved":false,"is_disabled":false,"rental_uris":{"android":"levelo://app?vid=f8881785-8a38-4506-9a43-884fc2f8d071","ios":"levelo://app?vid=f8881785-8a38-4506-9a43-884fc2f8d071"},"vehicle_type_id":"4","last_reported":1728670297,"current_range_meters":38800,"station_id":"ce4bho92rcd13ifvqh4g","pricing_plan_id":"cebpf4jnsgd1na2vs0mg"},{"bike_id":"de893dfc-1323-45e2-b5b3-f28298c7d514","system_id":"levelo_inurba_marseille","lat":43.315,"lon":5.37311,"is_reserved":false,"is_disabled":false,"rental_uris":{"android":"levelo://app?vid=de893dfc-1323-45e2-b5b3-f28298c7d514","ios":"levelo://app?vid=de893dfc-1323-45e2-b5b3-f28298c7d514"},"vehicle_type_id":"4","last_reported":1728670297,"current_range_meters":38800,"station_id":"ce4bgt12rcd13ifvqcd0","pricing_plan_id":"cebpf4jnsgd1na2vs0mg"},{"bike_id":"4772df1f-258c-4c2a-b7cd-f38cf99355e5","system_id":"levelo_inurba_marseille","lat":43.3234,"lon":5.40627,"is_reserved":false,"is_disabled":false,"rental_uris":{"android":"levelo://app?vid=4772df1f-258c-4c2a-b7cd-f38cf99355e5","ios":"levelo://app?vid=4772df1f-258c-4c2a-b7cd-f38cf99355e5"},"vehicle_type_id":"4","last_reported":1728670297,"current_range_meters":6800,"station_id":"ce4bhq92rcd13ifvqhjg","pricing_plan_id":"cebpf4jnsgd1na2vs0mg"},{"bike_id":"6b79247c-6cc8-4c04-befc-e496fc813bbf","system_id":"levelo_inurba_marseille","lat":43.2997,"lon":5.37183,"is_reserved":false,"is_disabled":false,"rental_uris":{"android":"levelo://app?vid=6b79247c-6cc8-4c04-befc-e496fc813bbf","ios":"levelo://app?vid=6b79247c-6cc8-4c04-befc-e496fc813bbf"},"vehicle_type_id":"4","last_reported":1728670297,"current_range_meters":36800,"station_id":"ce4bgr92rcd13ifvqc7g","pricing_plan_id":"cebpf4jnsgd1na2vs0mg"},{"bike_id":"92d0c9c0-95d1-4e7c-b27a-b25bed5f3e20","system_id":"levelo_inurba_marseille","lat":43.31493,"lon":5.37296,"is_reserved":false,"is_disabled":false,"rental_uris":{"android":"levelo://app?vid=92d0c9c0-95d1-4e7c-b27a-b25bed5f3e20","ios":"levelo://app?vid=92d0c9c0-95d1-4e7c-b27a-b25bed5f3e20"},"vehicle_type_id":"4","last_reported":1728670297,"current_range_meters":38800,"station_id":"ce4bgt12rcd13ifvqcd0","pricing_plan_id":"cebpf4jnsgd1na2vs0mg"},{"bike_id":"02db7aba-8ea0-4c3e-a3be-9668bdfddbfc","system_id":"levelo_inurba_marseille","lat":43.29424,"lon":5.38624,"is_reserved":false,"is_disabled":false,"rental_uris":{"android":"levelo://app?vid=02db7aba-8ea0-4c3e-a3be-9668bdfddbfc","ios":"levelo://app?vid=02db7aba-8ea0-4c3e-a3be-9668bdfddbfc"},"vehicle_type_id":"4","last_reported":1728670297,"current_range_meters":2800,"station_id":"ce4bh2h2rcd13ifvqdh0","pricing_plan_id":"cebpf4jnsgd1na2vs0mg"},{"bike_id":"a8e5ad48-1772-48fc-8f57-12ee5d4c62cb","system_id":"levelo_inurba_marseille","lat":43.24178,"lon":5.39728,"is_reserved":false,"is_disabled":false,"rental_uris":{"android":"levelo://app?vid=a8e5ad48-1772-48fc-8f57-12ee5d4c62cb","ios":"levelo://app?vid=a8e5ad48-1772-48fc-8f57-12ee5d4c62cb"},"vehicle_type_id":"4","last_reported":1728670297,"current_range_meters":38800,"station_id":"ce4bhn12rcd13ifvqgpg","pricing_plan_id":"cebpf4jnsgd1na2vs0mg"},{"bike_id":"b1009450-6152-462c-a724-90df51eeb6db","system_id":"levelo_inurba_marseille","lat":43.32382,"lon":5.38917,"is_reserved":false,"is_disabled":false,"rental_uris":{"android":"levelo://app?vid=b1009450-6152-462c-a724-90df51eeb6db","ios":"levelo://app?vid=b1009450-6152-462c-a724-90df51eeb6db"},"vehicle_type_id":"4","last_reported":1728670297,"current_range_meters":4400,"station_id":"ce4bhqp2rcd13ifvqhog","pricing_plan_id":"cebpf4jnsgd1na2vs0mg"},{"bike_id":"0cba809d-1364-4841-b7e5-2adff7d3ace2","system_id":"levelo_inurba_marseille","lat":43.29935,"lon":5.36554,"is_reserved":false,"is_disabled":false,"rental_uris":{"android":"levelo://app?vid=0cba809d-1364-4841-b7e5-2adff7d3ace2","ios":"levelo://app?vid=0cba809d-1364-4841-b7e5-2adff7d3ace2"},"vehicle_type_id":"4","last_reported":1728670297,"current_range_meters":17200,"station_id":"ce4bgm92rcd13ifvqbr0","pricing_plan_id":"cebpf4jnsgd1na2vs0mg"},{"bike_id":"428eae86-4d01-4e13-88a6-6af5d8344d64","system_id":"levelo_inurba_marseille","lat":43.3176,"lon":5.39012,"is_reserved":false,"is_disabled":false,"rental_uris":{"android":"levelo://app?vid=428eae86-4d01-4e13-88a6-6af5d8344d64","ios":"levelo://app?vid=428eae86-4d01-4e13-88a6-6af5d8344d64"},"vehicle_type_id":"4","last_reported":1728670297,"current_range_meters":8400,"station_id":"ce4bhqp2rcd13ifvqhng","pricing_plan_id":"cebpf4jnsgd1na2vs0mg"},{"bike_id":"8e57206f-6058-440a-b4f9-c02edf3dd674","system_id":"levelo_inurba_marseille","lat":43.29282,"lon":5.36843,"is_reserved":false,"is_disabled":false,"rental_uris":{"android":"levelo://app?vid=8e57206f-6058-440a-b4f9-c02edf3dd674","ios":"levelo://app?vid=8e57206f-6058-440a-b4f9-c02edf3dd674"},"vehicle_type_id":"4","last_reported":1728670297,"current_range_meters":28400,"station_id":"ce4bhbp2rcd13ifvqesg","pricing_plan_id":"cebpf4jnsgd1na2vs0mg"},{"bike_id":"894a75d0-521c-4663-8fe2-360fa961f387","system_id":"levelo_inurba_marseille","lat":43.27996,"lon":5.4001,"is_reserved":false,"is_disabled":false,"rental_uris":{"android":"levelo://app?vid=894a75d0-521c-4663-8fe2-360fa961f387","ios":"levelo://app?vid=894a75d0-521c-4663-8fe2-360fa961f387"},"vehicle_type_id":"4","last_reported":1728670297,"current_range_meters":24000,"station_id":"ce4bho92rcd13ifvqh4g","pricing_plan_id":"cebpf4jnsgd1na2vs0mg"},{"bike_id":"87c5257a-e956-4321-a659-aef4cc46035c","system_id":"levelo_inurba_marseille","lat":43.32295,"lon":5.38272,"is_reserved":false,"is_disabled":false,"rental_uris":{"android":"levelo://app?vid=87c5257a-e956-4321-a659-aef4cc46035c","ios":"levelo://app?vid=87c5257a-e956-4321-a659-aef4cc46035c"},"vehicle_type_id":"4","last_reported":1728670297,"current_range_meters":7200,"station_id":"ce4bhr12rcd13ifvqhqg","pricing_plan_id":"cebpf4jnsgd1na2vs0mg"},{"bike_id":"782e5cd4-ad0b-4783-bea5-9e9e32be0228","system_id":"levelo_inurba_marseille","lat":43.31374,"lon":5.38506,"is_reserved":false,"is_disabled":false,"rental_uris":{"android":"levelo://app?vid=782e5cd4-ad0b-4783-bea5-9e9e32be0228","ios":"levelo://app?vid=782e5cd4-ad0b-4783-bea5-9e9e32be0228"},"vehicle_type_id":"4","last_reported":1728670297,"current_range_meters":0,"station_id":"ce4bgt92rcd13ifvqcf0","pricing_plan_id":"cebpf4jnsgd1na2vs0mg"},{"bike_id":"23365f93-295a-4982-bc56-1d5e8857e07e","system_id":"levelo_inurba_marseille","lat":43.29544,"lon":5.38544,"is_reserved":false,"is_disabled":false,"rental_uris":{"android":"levelo://app?vid=23365f93-295a-4982-bc56-1d5e8857e07e","ios":"levelo://app?vid=23365f93-295a-4982-bc56-1d5e8857e07e"},"vehicle_type_id":"4","last_reported":1728670297,"current_range_meters":38800,"station_id":"ce4bgih2rcd13ifvqba0","pricing_plan_id":"cebpf4jnsgd1na2vs0mg"},{"bike_id":"69ab49b4-2897-40a3-b3f4-7964b1d615d8","system_id":"levelo_inurba_marseille","lat":43.31528,"lon":5.38027,"is_reserved":false,"is_disabled":false,"rental_uris":{"android":"levelo://app?vid=69ab49b4-2897-40a3-b3f4-7964b1d615d8","ios":"levelo://app?vid=69ab49b4-2897-40a3-b3f4-7964b1d615d8"},"vehicle_type_id":"4","last_reported":1728670297,"current_range_meters":38800,"station_id":"ce4bhsp2rcd13ifvqi50","pricing_plan_id":"cebpf4jnsgd1na2vs0mg"},{"bike_id":"20ba7bbb-2a3c-4bec-b781-1865ac6ab873","system_id":"levelo_inurba_marseille","lat":43.2826,"lon":5.35053,"is_reserved":false,"is_disabled":false,"rental_uris":{"android":"levelo://app?vid=20ba7bbb-2a3c-4bec-b781-1865ac6ab873","ios":"levelo://app?vid=20ba7bbb-2a3c-4bec-b781-1865ac6ab873"},"vehicle_type_id":"4","last_reported":1728670297,"current_range_meters":38800,"station_id":"ce4bhbp2rcd13ifvqerg","pricing_plan_id":"cebpf4jnsgd1na2vs0mg"},{"bike_id":"0e0a606f-3bae-4d30-9f6c-a92c12740f24","system_id":"levelo_inurba_marseille","lat":43.29415,"lon":5.38624,"is_reserved":false,"is_disabled":false,"rental_uris":{"android":"levelo://app?vid=0e0a606f-3bae-4d30-9f6c-a92c12740f24","ios":"levelo://app?vid=0e0a606f-3bae-4d30-9f6c-a92c12740f24"},"vehicle_type_id":"4","last_reported":1728670297,"current_range_meters":13600,"station_id":"ce4bh2h2rcd13ifvqdh0","pricing_plan_id":"cebpf4jnsgd1na2vs0mg"},{"bike_id":"1a0ddab3-5260-40c3-a774-f2cebd63408d","system_id":"levelo_inurba_marseille","lat":43.28004,"lon":5.40011,"is_reserved":false,"is_disabled":false,"rental_uris":{"android":"levelo://app?vid=1a0ddab3-5260-40c3-a774-f2cebd63408d","ios":"levelo://app?vid=1a0ddab3-5260-40c3-a774-f2cebd63408d"},"vehicle_type_id":"4","last_reported":1728670297,"current_range_meters":18800,"station_id":"ce4bho92rcd13ifvqh4g","pricing_plan_id":"cebpf4jnsgd1na2vs0mg"},{"bike_id":"473ae646-d043-4853-9639-1e837b890635","system_id":"levelo_inurba_marseille","lat":43.27993,"lon":5.40018,"is_reserved":false,"is_disabled":false,"rental_uris":{"android":"levelo://app?vid=473ae646-d043-4853-9639-1e837b890635","ios":"levelo://app?vid=473ae646-d043-4853-9639-1e837b890635"},"vehicle_type_id":"4","last_reported":1728670297,"current_range_meters":25600,"station_id":"ce4bho92rcd13ifvqh4g","pricing_plan_id":"cebpf4jnsgd1na2vs0mg"},{"bike_id":"bda6ea62-ebc6-46c6-aad7-569f1d5cb350","system_id":"levelo_inurba_marseille","lat":43.29515,"lon":5.37514,"is_reserved":false,"is_disabled":false,"rental_uris":{"android":"levelo://app?vid=bda6ea62-ebc6-46c6-aad7-569f1d5cb350","ios":"levelo://app?vid=bda6ea62-ebc6-46c6-aad7-569f1d5cb350"},"vehicle_type_id":"4","last_reported":1728670297,"current_range_meters":8000,"station_id":"ce4bgkp2rcd13ifvqbmg","pricing_plan_id":"cebpf4jnsgd1na2vs0mg"},{"bike_id":"70946586-c67b-4bbb-9665-e72f745a209b","system_id":"levelo_inurba_marseille","lat":43.31083,"lon":5.42432,"is_reserved":false,"is_disabled":false,"rental_uris":{"android":"levelo://app?vid=70946586-c67b-4bbb-9665-e72f745a209b","ios":"levelo://app?vid=70946586-c67b-4bbb-9665-e72f745a209b"},"vehicle_type_id":"4","last_reported":1728670297,"current_range_meters":39200,"station_id":"ce4bhp92rcd13ifvqhag","pricing_plan_id":"cebpf4jnsgd1na2vs0mg"},{"bike_id":"09e861ab-9da3-4b17-8792-c27052ebb9f6","system_id":"levelo_inurba_marseille","lat":43.27945,"lon":5.41046,"is_reserved":false,"is_disabled":false,"rental_uris":{"android":"levelo://app?vid=09e861ab-9da3-4b17-8792-c27052ebb9f6","ios":"levelo://app?vid=09e861ab-9da3-4b17-8792-c27052ebb9f6"},"vehicle_type_id":"4","last_reported":1728670297,"current_range_meters":11200,"station_id":"ce4bhnp2rcd13ifvqh0g","pricing_plan_id":"cebpf4jnsgd1na2vs0mg"},{"bike_id":"8c9a5779-48c6-4a49-b87c-4b9241d4f44b","system_id":"levelo_inurba_marseille","lat":43.337444,"lon":5.374475,"is_reserved":false,"is_disabled":false,"rental_uris":{"android":"levelo://app?vid=8c9a5779-48c6-4a49-b87c-4b9241d4f44b","ios":"levelo://app?vid=8c9a5779-48c6-4a49-b87c-4b9241d4f44b"},"vehicle_type_id":"4","last_reported":1728670297,"current_range_meters":10000,"station_id":"","pricing_plan_id":"cebpf4jnsgd1na2vs0mg"},{"bike_id":"9c7e0fa6-3f71-4262-9f45-ff48a7f6b063","system_id":"levelo_inurba_marseille","lat":43.3019,"lon":5.36624,"is_reserved":false,"is_disabled":false,"rental_uris":{"android":"levelo://app?vid=9c7e0fa6-3f71-4262-9f45-ff48a7f6b063","ios":"levelo://app?vid=9c7e0fa6-3f71-4262-9f45-ff48a7f6b063"},"vehicle_type_id":"4","last_reported":1728670297,"current_range_meters":18000,"station_id":"ce4bgrh2rcd13ifvqc8g","pricing_plan_id":"cebpf4jnsgd1na2vs0mg"},{"bike_id":"399d8c98-e024-4fd5-9a18-86181c781ac6","system_id":"levelo_inurba_marseille","lat":43.27997,"lon":5.40004,"is_reserved":false,"is_disabled":false,"rental_uris":{"android":"levelo://app?vid=399d8c98-e024-4fd5-9a18-86181c781ac6","ios":"levelo://app?vid=399d8c98-e024-4fd5-9a18-86181c781ac6"},"vehicle_type_id":"4","last_reported":1728670297,"current_range_meters":3200,"station_id":"ce4bho92rcd13ifvqh4g","pricing_plan_id":"cebpf4jnsgd1na2vs0mg"},{"bike_id":"1a53a9d2-dc59-4d67-925a-323b5ce6021f","system_id":"levelo_inurba_marseille","lat":43.29853,"lon":5.36283,"is_reserved":false,"is_disabled":false,"rental_uris":{"android":"levelo://app?vid=1a53a9d2-dc59-4d67-925a-323b5ce6021f","ios":"levelo://app?vid=1a53a9d2-dc59-4d67-925a-323b5ce6021f"},"vehicle_type_id":"4","last_reported":1728670297,"current_range_meters":37600,"station_id":"ce4bgpp2rcd13ifvqc3g","pricing_plan_id":"cebpf4jnsgd1na2vs0mg"},{"bike_id":"fe8bfe5f-6b56-4544-a987-9773c5b6594d","system_id":"levelo_inurba_marseille","lat":43.337444,"lon":5.374475,"is_reserved":false,"is_disabled":false,"rental_uris":{"android":"levelo://app?vid=fe8bfe5f-6b56-4544-a987-9773c5b6594d","ios":"levelo://app?vid=fe8bfe5f-6b56-4544-a987-9773c5b6594d"},"vehicle_type_id":"4","last_reported":1728670297,"current_range_meters":35200,"station_id":"","pricing_plan_id":"cebpf4jnsgd1na2vs0mg"},{"bike_id":"7df852e3-cc8d-4bb7-a41b-7598a862c5d5","system_id":"levelo_inurba_marseille","lat":43.30162,"lon":5.3988,"is_reserved":false,"is_disabled":false,"rental_uris":{"android":"levelo://app?vid=7df852e3-cc8d-4bb7-a41b-7598a862c5d5","ios":"levelo://app?vid=7df852e3-cc8d-4bb7-a41b-7598a862c5d5"},"vehicle_type_id":"4","last_reported":1728670297,"current_range_meters":12800,"station_id":"ce4bh0h2rcd13ifvqd40","pricing_plan_id":"cebpf4jnsgd1na2vs0mg"},{"bike_id":"ff3d43a1-7a82-4967-87d0-76f1e449e89b","system_id":"levelo_inurba_marseille","lat":43.27962,"lon":5.38729,"is_reserved":false,"is_disabled":false,"rental_uris":{"android":"levelo://app?vid=ff3d43a1-7a82-4967-87d0-76f1e449e89b","ios":"levelo://app?vid=ff3d43a1-7a82-4967-87d0-76f1e449e89b"},"vehicle_type_id":"4","last_reported":1728670297,"current_range_meters":38800,"station_id":"ce4bhg12rcd13ifvqf80","pricing_plan_id":"cebpf4jnsgd1na2vs0mg"},{"bike_id":"3727dd72-2eb8-4544-845a-ac22dd706585","system_id":"levelo_inurba_marseille","lat":43.33721,"lon":5.39187,"is_reserved":false,"is_disabled":false,"rental_uris":{"android":"levelo://app?vid=3727dd72-2eb8-4544-845a-ac22dd706585","ios":"levelo://app?vid=3727dd72-2eb8-4544-845a-ac22dd706585"},"vehicle_type_id":"4","last_reported":1728670297,"current_range_meters":22400,"station_id":"ce4bhr92rcd13ifvqhsg","pricing_plan_id":"cebpf4jnsgd1na2vs0mg"},{"bike_id":"9498b3b9-64ad-4872-88f7-71caada48dcf","system_id":"levelo_inurba_marseille","lat":43.30885,"lon":5.37201,"is_reserved":false,"is_disabled":false,"rental_uris":{"android":"levelo://app?vid=9498b3b9-64ad-4872-88f7-71caada48dcf","ios":"levelo://app?vid=9498b3b9-64ad-4872-88f7-71caada48dcf"},"vehicle_type_id":"4","last_reported":1728670297,"current_range_meters":26000,"station_id":"ce4bguh2rcd13ifvqckg","pricing_plan_id":"cebpf4jnsgd1na2vs0mg"},{"bike_id":"384f7998-c20a-48f5-9a4b-f8228082c4e6","system_id":"levelo_inurba_marseille","lat":43.27174,"lon":5.40989,"is_reserved":false,"is_disabled":false,"rental_uris":{"android":"levelo://app?vid=384f7998-c20a-48f5-9a4b-f8228082c4e6","ios":"levelo://app?vid=384f7998-c20a-48f5-9a4b-f8228082c4e6"},"vehicle_type_id":"4","last_reported":1728670297,"current_range_meters":27600,"station_id":"ce4bhl12rcd13ifvqgf0","pricing_plan_id":"cebpf4jnsgd1na2vs0mg"},{"bike_id":"24bdbe5b-2562-455b-85d9-6260a1bca30a","system_id":"levelo_inurba_marseille","lat":43.29305,"lon":5.37471,"is_reserved":false,"is_disabled":false,"rental_uris":{"android":"levelo://app?vid=24bdbe5b-2562-455b-85d9-6260a1bca30a","ios":"levelo://app?vid=24bdbe5b-2562-455b-85d9-6260a1bca30a"},"vehicle_type_id":"4","last_reported":1728670297,"current_range_meters":14000,"station_id":"ce4bgi12rcd13ifvqb70","pricing_plan_id":"cebpf4jnsgd1na2vs0mg"},{"bike_id":"ae0e8aa4-b27a-4e5b-9b34-d48fc24e558e","system_id":"levelo_inurba_marseille","lat":43.24676,"lon":5.38159,"is_reserved":false,"is_disabled":false,"rental_uris":{"android":"levelo://app?vid=ae0e8aa4-b27a-4e5b-9b34-d48fc24e558e","ios":"levelo://app?vid=ae0e8aa4-b27a-4e5b-9b34-d48fc24e558e"},"vehicle_type_id":"4","last_reported":1728670297,"current_range_meters":36800,"station_id":"ce4bhih2rcd13ifvqfr0","pricing_plan_id":"cebpf4jnsgd1na2vs0mg"},{"bike_id":"e90dd59a-3bb3-4c19-876f-002973cf406c","system_id":"levelo_inurba_marseille","lat":43.29421,"lon":5.38618,"is_reserved":false,"is_disabled":false,"rental_uris":{"android":"levelo://app?vid=e90dd59a-3bb3-4c19-876f-002973cf406c","ios":"levelo://app?vid=e90dd59a-3bb3-4c19-876f-002973cf406c"},"vehicle_type_id":"4","last_reported":1728670297,"current_range_meters":17600,"station_id":"ce4bh2h2rcd13ifvqdh0","pricing_plan_id":"cebpf4jnsgd1na2vs0mg"},{"bike_id":"468ac5e9-6c4c-497f-917e-2958f46cbd94","system_id":"levelo_inurba_marseille","lat":43.33024,"lon":5.39042,"is_reserved":false,"is_disabled":false,"rental_uris":{"android":"levelo://app?vid=468ac5e9-6c4c-497f-917e-2958f46cbd94","ios":"levelo://app?vid=468ac5e9-6c4c-497f-917e-2958f46cbd94"},"vehicle_type_id":"4","last_reported":1728670297,"current_range_meters":28800,"station_id":"ce4bhr92rcd13ifvqhrg","pricing_plan_id":"cebpf4jnsgd1na2vs0mg"},{"bike_id":"d0bcf234-798b-4c72-885f-7da24c2fef9e","system_id":"levelo_inurba_marseille","lat":43.32508,"lon":5.38954,"is_reserved":false,"is_disabled":false,"rental_uris":{"android":"levelo://app?vid=d0bcf234-798b-4c72-885f-7da24c2fef9e","ios":"levelo://app?vid=d0bcf234-798b-4c72-885f-7da24c2fef9e"},"vehicle_type_id":"4","last_reported":1728670297,"current_range_meters":38800,"station_id":"","pricing_plan_id":"cebpf4jnsgd1na2vs0mg"},{"bike_id":"250d4cea-d0cc-4a11-9ed6-07a5171e2f12","system_id":"levelo_inurba_marseille","lat":43.26203,"lon":5.37927,"is_reserved":false,"is_disabled":false,"rental_uris":{"android":"levelo://app?vid=250d4cea-d0cc-4a11-9ed6-07a5171e2f12","ios":"levelo://app?vid=250d4cea-d0cc-4a11-9ed6-07a5171e2f12"},"vehicle_type_id":"4","last_reported":1728670297,"current_range_meters":11200,"station_id":"ce4bhjp2rcd13ifvqg90","pricing_plan_id":"cebpf4jnsgd1na2vs0mg"},{"bike_id":"a46673cf-4928-49cb-8c44-9f668342015a","system_id":"levelo_inurba_marseille","lat":43.33021,"lon":5.39036,"is_reserved":false,"is_disabled":false,"rental_uris":{"android":"levelo://app?vid=a46673cf-4928-49cb-8c44-9f668342015a","ios":"levelo://app?vid=a46673cf-4928-49cb-8c44-9f668342015a"},"vehicle_type_id":"4","last_reported":1728670297,"current_range_meters":38800,"station_id":"ce4bhr92rcd13ifvqhrg","pricing_plan_id":"cebpf4jnsgd1na2vs0mg"},{"bike_id":"04297339-b0e6-4e0c-ba57-2ecfb29a6f77","system_id":"levelo_inurba_marseille","lat":43.23191,"lon":5.39987,"is_reserved":false,"is_disabled":false,"rental_uris":{"android":"levelo://app?vid=04297339-b0e6-4e0c-ba57-2ecfb29a6f77","ios":"levelo://app?vid=04297339-b0e6-4e0c-ba57-2ecfb29a6f77"},"vehicle_type_id":"4","last_reported":1728670297,"current_range_meters":28000,"station_id":"ce4bhn12rcd13ifvqgqg","pricing_plan_id":"cebpf4jnsgd1na2vs0mg"},{"bike_id":"3758c66e-410c-4587-ac08-a52558547f6d","system_id":"levelo_inurba_marseille","lat":43.27996,"lon":5.40023,"is_reserved":false,"is_disabled":false,"rental_uris":{"android":"levelo://app?vid=3758c66e-410c-4587-ac08-a52558547f6d","ios":"levelo://app?vid=3758c66e-410c-4587-ac08-a52558547f6d"},"vehicle_type_id":"4","last_reported":1728670297,"current_range_meters":10000,"station_id":"ce4bho92rcd13ifvqh4g","pricing_plan_id":"cebpf4jnsgd1na2vs0mg"},{"bike_id":"cc561aab-29d7-4528-b29c-c79887c6c13b","system_id":"levelo_inurba_marseille","lat":43.32281,"lon":5.3827,"is_reserved":false,"is_disabled":false,"rental_uris":{"android":"levelo://app?vid=cc561aab-29d7-4528-b29c-c79887c6c13b","ios":"levelo://app?vid=cc561aab-29d7-4528-b29c-c79887c6c13b"},"vehicle_type_id":"4","last_reported":1728670297,"current_range_meters":6400,"station_id":"ce4bhr12rcd13ifvqhqg","pricing_plan_id":"cebpf4jnsgd1na2vs0mg"},{"bike_id":"2cec717a-f132-462b-913c-08171378f2e1","system_id":"levelo_inurba_marseille","lat":43.28508,"lon":5.38535,"is_reserved":false,"is_disabled":false,"rental_uris":{"android":"levelo://app?vid=2cec717a-f132-462b-913c-08171378f2e1","ios":"levelo://app?vid=2cec717a-f132-462b-913c-08171378f2e1"},"vehicle_type_id":"4","last_reported":1728670297,"current_range_meters":37600,"station_id":"ce4bh8p2rcd13ifvqeb0","pricing_plan_id":"cebpf4jnsgd1na2vs0mg"},{"bike_id":"bcb426d8-a981-4f7b-b3b9-826240e3c837","system_id":"levelo_inurba_marseille","lat":43.28962,"lon":5.37829,"is_reserved":false,"is_disabled":false,"rental_uris":{"android":"levelo://app?vid=bcb426d8-a981-4f7b-b3b9-826240e3c837","ios":"levelo://app?vid=bcb426d8-a981-4f7b-b3b9-826240e3c837"},"vehicle_type_id":"4","last_reported":1728670297,"current_range_meters":25600,"station_id":"ce4bh9p2rcd13ifvqed0","pricing_plan_id":"cebpf4jnsgd1na2vs0mg"},{"bike_id":"47bc9339-94c6-4cde-b329-97d240c7b242","system_id":"levelo_inurba_marseille","lat":43.286163,"lon":5.350994,"is_reserved":false,"is_disabled":false,"rental_uris":{"android":"levelo://app?vid=47bc9339-94c6-4cde-b329-97d240c7b242","ios":"levelo://app?vid=47bc9339-94c6-4cde-b329-97d240c7b242"},"vehicle_type_id":"4","last_reported":1728670297,"current_range_meters":16000,"station_id":"ce4bh2p2rcd13ifvqdi0","pricing_plan_id":"cebpf4jnsgd1na2vs0mg"},{"bike_id":"3022372c-13da-4b70-9cd9-fba5449b2e83","system_id":"levelo_inurba_marseille","lat":43.31715,"lon":5.37747,"is_reserved":false,"is_disabled":false,"rental_uris":{"android":"levelo://app?vid=3022372c-13da-4b70-9cd9-fba5449b2e83","ios":"levelo://app?vid=3022372c-13da-4b70-9cd9-fba5449b2e83"},"vehicle_type_id":"4","last_reported":1728670297,"current_range_meters":20000,"station_id":"ce4bgth2rcd13ifvqch0","pricing_plan_id":"cebpf4jnsgd1na2vs0mg"},{"bike_id":"9088d917-5e44-461a-af28-2eb43d158bb2","system_id":"levelo_inurba_marseille","lat":43.28038,"lon":5.36942,"is_reserved":false,"is_disabled":false,"rental_uris":{"android":"levelo://app?vid=9088d917-5e44-461a-af28-2eb43d158bb2","ios":"levelo://app?vid=9088d917-5e44-461a-af28-2eb43d158bb2"},"vehicle_type_id":"4","last_reported":1728670297,"current_range_meters":20000,"station_id":"ce4bha12rcd13ifvqef0","pricing_plan_id":"cebpf4jnsgd1na2vs0mg"},{"bike_id":"6e4043e8-799d-4f31-b028-2c797e8044a1","system_id":"levelo_inurba_marseille","lat":43.265658,"lon":5.390213,"is_reserved":false,"is_disabled":false,"rental_uris":{"android":"levelo://app?vid=6e4043e8-799d-4f31-b028-2c797e8044a1","ios":"levelo://app?vid=6e4043e8-799d-4f31-b028-2c797e8044a1"},"vehicle_type_id":"4","last_reported":1728670297,"current_range_meters":33600,"station_id":"ce4bhe12rcd13ifvqf30","pricing_plan_id":"cebpf4jnsgd1na2vs0mg"},{"bike_id":"cdf015fb-5b0e-4333-bdd5-ff16dff1ed08","system_id":"levelo_inurba_marseille","lat":43.31713,"lon":5.43708,"is_reserved":false,"is_disabled":false,"rental_uris":{"android":"levelo://app?vid=cdf015fb-5b0e-4333-bdd5-ff16dff1ed08","ios":"levelo://app?vid=cdf015fb-5b0e-4333-bdd5-ff16dff1ed08"},"vehicle_type_id":"4","last_reported":1728670297,"current_range_meters":24800,"station_id":"ce4bhp92rcd13ifvqhcg","pricing_plan_id":"cebpf4jnsgd1na2vs0mg"},{"bike_id":"57a8a4e4-fb43-474f-af8c-fa1abb87ecef","system_id":"levelo_inurba_marseille","lat":43.33022,"lon":5.39039,"is_reserved":false,"is_disabled":false,"rental_uris":{"android":"levelo://app?vid=57a8a4e4-fb43-474f-af8c-fa1abb87ecef","ios":"levelo://app?vid=57a8a4e4-fb43-474f-af8c-fa1abb87ecef"},"vehicle_type_id":"4","last_reported":1728670297,"current_range_meters":37600,"station_id":"ce4bhr92rcd13ifvqhrg","pricing_plan_id":"cebpf4jnsgd1na2vs0mg"},{"bike_id":"17a689be-8074-44f9-9192-fa01e84cdd64","system_id":"levelo_inurba_marseille","lat":43.27997,"lon":5.40006,"is_reserved":false,"is_disabled":false,"rental_uris":{"android":"levelo://app?vid=17a689be-8074-44f9-9192-fa01e84cdd64","ios":"levelo://app?vid=17a689be-8074-44f9-9192-fa01e84cdd64"},"vehicle_type_id":"4","last_reported":1728670297,"current_range_meters":16000,"station_id":"ce4bho92rcd13ifvqh4g","pricing_plan_id":"cebpf4jnsgd1na2vs0mg"},{"bike_id":"ceaba6d0-7f02-4739-b799-9aeb36263d57","system_id":"levelo_inurba_marseille","lat":43.31761,"lon":5.39004,"is_reserved":false,"is_disabled":false,"rental_uris":{"android":"levelo://app?vid=ceaba6d0-7f02-4739-b799-9aeb36263d57","ios":"levelo://app?vid=ceaba6d0-7f02-4739-b799-9aeb36263d57"},"vehicle_type_id":"4","last_reported":1728670297,"current_range_meters":8000,"station_id":"ce4bhqp2rcd13ifvqhng","pricing_plan_id":"cebpf4jnsgd1na2vs0mg"},{"bike_id":"5c04becb-6479-42ce-ad17-106a902958fd","system_id":"levelo_inurba_marseille","lat":43.25495,"lon":5.3765,"is_reserved":false,"is_disabled":false,"rental_uris":{"android":"levelo://app?vid=5c04becb-6479-42ce-ad17-106a902958fd","ios":"levelo://app?vid=5c04becb-6479-42ce-ad17-106a902958fd"},"vehicle_type_id":"4","last_reported":1728670297,"current_range_meters":4000,"station_id":"ce4bhh12rcd13ifvqff0","pricing_plan_id":"cebpf4jnsgd1na2vs0mg"},{"bike_id":"68faa981-278b-44c0-9226-7968a8e7efee","system_id":"levelo_inurba_marseille","lat":43.27994,"lon":5.40008,"is_reserved":false,"is_disabled":false,"rental_uris":{"android":"levelo://app?vid=68faa981-278b-44c0-9226-7968a8e7efee","ios":"levelo://app?vid=68faa981-278b-44c0-9226-7968a8e7efee"},"vehicle_type_id":"4","last_reported":1728670297,"current_range_meters":30400,"station_id":"ce4bho92rcd13ifvqh4g","pricing_plan_id":"cebpf4jnsgd1na2vs0mg"},{"bike_id":"600a6ea5-5c70-4f25-9b57-c621b8210681","system_id":"levelo_inurba_marseille","lat":43.32659,"lon":5.40987,"is_reserved":false,"is_disabled":false,"rental_uris":{"android":"levelo://app?vid=600a6ea5-5c70-4f25-9b57-c621b8210681","ios":"levelo://app?vid=600a6ea5-5c70-4f25-9b57-c621b8210681"},"vehicle_type_id":"4","last_reported":1728670297,"current_range_meters":36800,"station_id":"ce4bhpp2rcd13ifvqhgg","pricing_plan_id":"cebpf4jnsgd1na2vs0mg"},{"bike_id":"4b87d059-700e-44a9-a71f-50f52b259ee6","system_id":"levelo_inurba_marseille","lat":43.278,"lon":5.4071,"is_reserved":false,"is_disabled":false,"rental_uris":{"android":"levelo://app?vid=4b87d059-700e-44a9-a71f-50f52b259ee6","ios":"levelo://app?vid=4b87d059-700e-44a9-a71f-50f52b259ee6"},"vehicle_type_id":"4","last_reported":1728670297,"current_range_meters":28400,"station_id":"ce4bhnh2rcd13ifvqgtg","pricing_plan_id":"cebpf4jnsgd1na2vs0mg"},{"bike_id":"7b6baa85-f647-4dbc-bee4-af88f44a8bf2","system_id":"levelo_inurba_marseille","lat":43.22924,"lon":5.35377,"is_reserved":false,"is_disabled":false,"rental_uris":{"android":"levelo://app?vid=7b6baa85-f647-4dbc-bee4-af88f44a8bf2","ios":"levelo://app?vid=7b6baa85-f647-4dbc-bee4-af88f44a8bf2"},"vehicle_type_id":"4","last_reported":1728670297,"current_range_meters":23200,"station_id":"cpo3532slgdg3j2ikp40","pricing_plan_id":"cebpf4jnsgd1na2vs0mg"},{"bike_id":"30e7d33d-e258-4432-bd01-ddafb22fd1ba","system_id":"levelo_inurba_marseille","lat":43.31996,"lon":5.3817,"is_reserved":false,"is_disabled":false,"rental_uris":{"android":"levelo://app?vid=30e7d33d-e258-4432-bd01-ddafb22fd1ba","ios":"levelo://app?vid=30e7d33d-e258-4432-bd01-ddafb22fd1ba"},"vehicle_type_id":"4","last_reported":1728670297,"current_range_meters":38800,"station_id":"ce4bhr12rcd13ifvqhpg","pricing_plan_id":"cebpf4jnsgd1na2vs0mg"},{"bike_id":"3c25dded-f8d5-4193-a336-9fad641c4aac","system_id":"levelo_inurba_marseille","lat":43.33766,"lon":5.37447,"is_reserved":false,"is_disabled":false,"rental_uris":{"android":"levelo://app?vid=3c25dded-f8d5-4193-a336-9fad641c4aac","ios":"levelo://app?vid=3c25dded-f8d5-4193-a336-9fad641c4aac"},"vehicle_type_id":"4","last_reported":1728670297,"current_range_meters":11200,"station_id":"","pricing_plan_id":"cebpf4jnsgd1na2vs0mg"},{"bike_id":"c9190722-3365-4e40-a5a3-e23bd7a15b11","system_id":"levelo_inurba_marseille","lat":43.2926,"lon":5.38441,"is_reserved":false,"is_disabled":false,"rental_uris":{"android":"levelo://app?vid=c9190722-3365-4e40-a5a3-e23bd7a15b11","ios":"levelo://app?vid=c9190722-3365-4e40-a5a3-e23bd7a15b11"},"vehicle_type_id":"4","last_reported":1728670297,"current_range_meters":4800,"station_id":"ce4bh692rcd13ifvqea0","pricing_plan_id":"cebpf4jnsgd1na2vs0mg"},{"bike_id":"7de1f7f2-3236-4cad-ae21-f6ba43ec4014","system_id":"levelo_inurba_marseille","lat":43.27973,"lon":5.38739,"is_reserved":false,"is_disabled":false,"rental_uris":{"android":"levelo://app?vid=7de1f7f2-3236-4cad-ae21-f6ba43ec4014","ios":"levelo://app?vid=7de1f7f2-3236-4cad-ae21-f6ba43ec4014"},"vehicle_type_id":"4","last_reported":1728670297,"current_range_meters":38800,"station_id":"ce4bhg12rcd13ifvqf80","pricing_plan_id":"cebpf4jnsgd1na2vs0mg"},{"bike_id":"f22edef2-00fd-4f8c-b1a2-09fab6675b5d","system_id":"levelo_inurba_marseille","lat":43.231781,"lon":5.400021,"is_reserved":false,"is_disabled":false,"rental_uris":{"android":"levelo://app?vid=f22edef2-00fd-4f8c-b1a2-09fab6675b5d","ios":"levelo://app?vid=f22edef2-00fd-4f8c-b1a2-09fab6675b5d"},"vehicle_type_id":"4","last_reported":1728670297,"current_range_meters":3600,"station_id":"ce4bhn12rcd13ifvqgqg","pricing_plan_id":"cebpf4jnsgd1na2vs0mg"},{"bike_id":"7975faaf-f260-41c7-87cd-147b9a3b3ebf","system_id":"levelo_inurba_marseille","lat":43.23057,"lon":5.35488,"is_reserved":false,"is_disabled":false,"rental_uris":{"android":"levelo://app?vid=7975faaf-f260-41c7-87cd-147b9a3b3ebf","ios":"levelo://app?vid=7975faaf-f260-41c7-87cd-147b9a3b3ebf"},"vehicle_type_id":"4","last_reported":1728670297,"current_range_meters":12400,"station_id":"cpo3342slgdg3j2ifvpg","pricing_plan_id":"cebpf4jnsgd1na2vs0mg"},{"bike_id":"daa9a70c-6b73-469b-b6cf-915b527dba7b","system_id":"levelo_inurba_marseille","lat":43.27996,"lon":5.40006,"is_reserved":false,"is_disabled":false,"rental_uris":{"android":"levelo://app?vid=daa9a70c-6b73-469b-b6cf-915b527dba7b","ios":"levelo://app?vid=daa9a70c-6b73-469b-b6cf-915b527dba7b"},"vehicle_type_id":"4","last_reported":1728670297,"current_range_meters":33200,"station_id":"ce4bho92rcd13ifvqh4g","pricing_plan_id":"cebpf4jnsgd1na2vs0mg"},{"bike_id":"34c8c061-2b61-4b0c-8144-ad31b4aad46a","system_id":"levelo_inurba_marseille","lat":43.30548,"lon":5.36705,"is_reserved":false,"is_disabled":false,"rental_uris":{"android":"levelo://app?vid=34c8c061-2b61-4b0c-8144-ad31b4aad46a","ios":"levelo://app?vid=34c8c061-2b61-4b0c-8144-ad31b4aad46a"},"vehicle_type_id":"4","last_reported":1728670297,"current_range_meters":36400,"station_id":"ce4bgrp2rcd13ifvqc9g","pricing_plan_id":"cebpf4jnsgd1na2vs0mg"},{"bike_id":"703d5faf-e8f5-42e8-a15c-36acb1ae64d2","system_id":"levelo_inurba_marseille","lat":43.22934,"lon":5.35382,"is_reserved":false,"is_disabled":false,"rental_uris":{"android":"levelo://app?vid=703d5faf-e8f5-42e8-a15c-36acb1ae64d2","ios":"levelo://app?vid=703d5faf-e8f5-42e8-a15c-36acb1ae64d2"},"vehicle_type_id":"4","last_reported":1728670297,"current_range_meters":38000,"station_id":"cpo3532slgdg3j2ikp40","pricing_plan_id":"cebpf4jnsgd1na2vs0mg"},{"bike_id":"520f9da1-803c-46a9-a84c-526545385892","system_id":"levelo_inurba_marseille","lat":43.29532,"lon":5.3854,"is_reserved":false,"is_disabled":false,"rental_uris":{"android":"levelo://app?vid=520f9da1-803c-46a9-a84c-526545385892","ios":"levelo://app?vid=520f9da1-803c-46a9-a84c-526545385892"},"vehicle_type_id":"4","last_reported":1728670297,"current_range_meters":28400,"station_id":"ce4bgih2rcd13ifvqba0","pricing_plan_id":"cebpf4jnsgd1na2vs0mg"},{"bike_id":"813cb73c-c273-490f-ab14-76009a9929b6","system_id":"levelo_inurba_marseille","lat":43.29555,"lon":5.42292,"is_reserved":false,"is_disabled":false,"rental_uris":{"android":"levelo://app?vid=813cb73c-c273-490f-ab14-76009a9929b6","ios":"levelo://app?vid=813cb73c-c273-490f-ab14-76009a9929b6"},"vehicle_type_id":"4","last_reported":1728670297,"current_range_meters":28800,"station_id":"ce4bhph2rcd13ifvqhdg","pricing_plan_id":"cebpf4jnsgd1na2vs0mg"},{"bike_id":"a9dcdd16-9599-4f0d-ad5b-ba43bb072194","system_id":"levelo_inurba_marseille","lat":43.27987,"lon":5.40019,"is_reserved":false,"is_disabled":false,"rental_uris":{"android":"levelo://app?vid=a9dcdd16-9599-4f0d-ad5b-ba43bb072194","ios":"levelo://app?vid=a9dcdd16-9599-4f0d-ad5b-ba43bb072194"},"vehicle_type_id":"4","last_reported":1728670297,"current_range_meters":7200,"station_id":"ce4bho92rcd13ifvqh4g","pricing_plan_id":"cebpf4jnsgd1na2vs0mg"},{"bike_id":"0affb511-11e4-4062-b2b6-78c70f605970","system_id":"levelo_inurba_marseille","lat":43.23834,"lon":5.36555,"is_reserved":false,"is_disabled":false,"rental_uris":{"android":"levelo://app?vid=0affb511-11e4-4062-b2b6-78c70f605970","ios":"levelo://app?vid=0affb511-11e4-4062-b2b6-78c70f605970"},"vehicle_type_id":"4","last_reported":1728670297,"current_range_meters":6800,"station_id":"","pricing_plan_id":"cebpf4jnsgd1na2vs0mg"},{"bike_id":"2f850830-77c7-4f29-b3a4-8e1d998b053f","system_id":"levelo_inurba_marseille","lat":43.32284,"lon":5.38277,"is_reserved":false,"is_disabled":false,"rental_uris":{"android":"levelo://app?vid=2f850830-77c7-4f29-b3a4-8e1d998b053f","ios":"levelo://app?vid=2f850830-77c7-4f29-b3a4-8e1d998b053f"},"vehicle_type_id":"4","last_reported":1728670297,"current_range_meters":25200,"station_id":"ce4bhr12rcd13ifvqhqg","pricing_plan_id":"cebpf4jnsgd1na2vs0mg"},{"bike_id":"4cba02c7-d3df-4fa4-a2c3-95934a08dd01","system_id":"levelo_inurba_marseille","lat":43.24546,"lon":5.39521,"is_reserved":false,"is_disabled":false,"rental_uris":{"android":"levelo://app?vid=4cba02c7-d3df-4fa4-a2c3-95934a08dd01","ios":"levelo://app?vid=4cba02c7-d3df-4fa4-a2c3-95934a08dd01"},"vehicle_type_id":"4","last_reported":1728670297,"current_range_meters":9200,"station_id":"ce4bhlp2rcd13ifvqgjg","pricing_plan_id":"cebpf4jnsgd1na2vs0mg"},{"bike_id":"c095734b-ad0a-457f-b8f0-a3f2379dbee0","system_id":"levelo_inurba_marseille","lat":43.27999,"lon":5.40014,"is_reserved":false,"is_disabled":false,"rental_uris":{"android":"levelo://app?vid=c095734b-ad0a-457f-b8f0-a3f2379dbee0","ios":"levelo://app?vid=c095734b-ad0a-457f-b8f0-a3f2379dbee0"},"vehicle_type_id":"4","last_reported":1728670297,"current_range_meters":2800,"station_id":"ce4bho92rcd13ifvqh4g","pricing_plan_id":"cebpf4jnsgd1na2vs0mg"},{"bike_id":"9688910d-640c-4dd8-9044-2a297333aacb","system_id":"levelo_inurba_marseille","lat":43.29923,"lon":5.36557,"is_reserved":false,"is_disabled":false,"rental_uris":{"android":"levelo://app?vid=9688910d-640c-4dd8-9044-2a297333aacb","ios":"levelo://app?vid=9688910d-640c-4dd8-9044-2a297333aacb"},"vehicle_type_id":"4","last_reported":1728670297,"current_range_meters":38800,"station_id":"ce4bgm92rcd13ifvqbr0","pricing_plan_id":"cebpf4jnsgd1na2vs0mg"},{"bike_id":"a9b01a36-7cd6-4035-823e-23385c5a076d","system_id":"levelo_inurba_marseille","lat":43.27942,"lon":5.41044,"is_reserved":false,"is_disabled":false,"rental_uris":{"android":"levelo://app?vid=a9b01a36-7cd6-4035-823e-23385c5a076d","ios":"levelo://app?vid=a9b01a36-7cd6-4035-823e-23385c5a076d"},"vehicle_type_id":"4","last_reported":1728670297,"current_range_meters":10800,"station_id":"ce4bhnp2rcd13ifvqh0g","pricing_plan_id":"cebpf4jnsgd1na2vs0mg"},{"bike_id":"ce7a5724-1783-445d-b156-eaeb13d2e12e","system_id":"levelo_inurba_marseille","lat":43.24174,"lon":5.39726,"is_reserved":false,"is_disabled":false,"rental_uris":{"android":"levelo://app?vid=ce7a5724-1783-445d-b156-eaeb13d2e12e","ios":"levelo://app?vid=ce7a5724-1783-445d-b156-eaeb13d2e12e"},"vehicle_type_id":"4","last_reported":1728670297,"current_range_meters":38800,"station_id":"ce4bhn12rcd13ifvqgpg","pricing_plan_id":"cebpf4jnsgd1na2vs0mg"},{"bike_id":"4c6d104c-578b-42dd-9868-6f8ae896012a","system_id":"levelo_inurba_marseille","lat":43.24178,"lon":5.3973,"is_reserved":false,"is_disabled":false,"rental_uris":{"android":"levelo://app?vid=4c6d104c-578b-42dd-9868-6f8ae896012a","ios":"levelo://app?vid=4c6d104c-578b-42dd-9868-6f8ae896012a"},"vehicle_type_id":"4","last_reported":1728670297,"current_range_meters":39200,"station_id":"ce4bhn12rcd13ifvqgpg","pricing_plan_id":"cebpf4jnsgd1na2vs0mg"},{"bike_id":"d42069ab-8fe1-48e2-be57-4b84375ce0ad","system_id":"levelo_inurba_marseille","lat":43.30183,"lon":5.36632,"is_reserved":false,"is_disabled":false,"rental_uris":{"android":"levelo://app?vid=d42069ab-8fe1-48e2-be57-4b84375ce0ad","ios":"levelo://app?vid=d42069ab-8fe1-48e2-be57-4b84375ce0ad"},"vehicle_type_id":"4","last_reported":1728670297,"current_range_meters":38400,"station_id":"ce4bgrh2rcd13ifvqc8g","pricing_plan_id":"cebpf4jnsgd1na2vs0mg"},{"bike_id":"1a8c3d69-7bf0-4caa-895e-2fcdf9569643","system_id":"levelo_inurba_marseille","lat":43.28854,"lon":5.358527,"is_reserved":false,"is_disabled":false,"rental_uris":{"android":"levelo://app?vid=1a8c3d69-7bf0-4caa-895e-2fcdf9569643","ios":"levelo://app?vid=1a8c3d69-7bf0-4caa-895e-2fcdf9569643"},"vehicle_type_id":"4","last_reported":1728670297,"current_range_meters":2000,"station_id":"ce4bhb12rcd13ifvqem0","pricing_plan_id":"cebpf4jnsgd1na2vs0mg"},{"bike_id":"450796b6-ee46-43ae-88f0-8031169b73ec","system_id":"levelo_inurba_marseille","lat":43.29378,"lon":5.40076,"is_reserved":false,"is_disabled":false,"rental_uris":{"android":"levelo://app?vid=450796b6-ee46-43ae-88f0-8031169b73ec","ios":"levelo://app?vid=450796b6-ee46-43ae-88f0-8031169b73ec"},"vehicle_type_id":"4","last_reported":1728670297,"current_range_meters":3600,"station_id":"","pricing_plan_id":"cebpf4jnsgd1na2vs0mg"},{"bike_id":"1d73fc2f-8fd7-4658-b9e9-3cc3e37b30eb","system_id":"levelo_inurba_marseille","lat":43.30224,"lon":5.39471,"is_reserved":false,"is_disabled":false,"rental_uris":{"android":"levelo://app?vid=1d73fc2f-8fd7-4658-b9e9-3cc3e37b30eb","ios":"levelo://app?vid=1d73fc2f-8fd7-4658-b9e9-3cc3e37b30eb"},"vehicle_type_id":"4","last_reported":1728670297,"current_range_meters":29600,"station_id":"ce4bh0p2rcd13ifvqd70","pricing_plan_id":"cebpf4jnsgd1na2vs0mg"},{"bike_id":"93597776-aa4b-4556-b902-f43005559dd1","system_id":"levelo_inurba_marseille","lat":43.27816,"lon":5.40706,"is_reserved":false,"is_disabled":false,"rental_uris":{"android":"levelo://app?vid=93597776-aa4b-4556-b902-f43005559dd1","ios":"levelo://app?vid=93597776-aa4b-4556-b902-f43005559dd1"},"vehicle_type_id":"4","last_reported":1728670297,"current_range_meters":8400,"station_id":"ce4bhnh2rcd13ifvqgtg","pricing_plan_id":"cebpf4jnsgd1na2vs0mg"},{"bike_id":"d0af47d5-71a2-4e6e-a4f7-a2d225b8e53a","system_id":"levelo_inurba_marseille","lat":43.23056,"lon":5.35492,"is_reserved":false,"is_disabled":false,"rental_uris":{"android":"levelo://app?vid=d0af47d5-71a2-4e6e-a4f7-a2d225b8e53a","ios":"levelo://app?vid=d0af47d5-71a2-4e6e-a4f7-a2d225b8e53a"},"vehicle_type_id":"4","last_reported":1728670297,"current_range_meters":14000,"station_id":"cpo3342slgdg3j2ifvpg","pricing_plan_id":"cebpf4jnsgd1na2vs0mg"},{"bike_id":"93ab6c55-8dad-48b5-8f7a-b3cf1bec6cfe","system_id":"levelo_inurba_marseille","lat":43.28004,"lon":5.40003,"is_reserved":false,"is_disabled":false,"rental_uris":{"android":"levelo://app?vid=93ab6c55-8dad-48b5-8f7a-b3cf1bec6cfe","ios":"levelo://app?vid=93ab6c55-8dad-48b5-8f7a-b3cf1bec6cfe"},"vehicle_type_id":"4","last_reported":1728670297,"current_range_meters":30400,"station_id":"ce4bho92rcd13ifvqh4g","pricing_plan_id":"cebpf4jnsgd1na2vs0mg"},{"bike_id":"3f1f6032-c6dc-40b2-80a0-591226a7e5f2","system_id":"levelo_inurba_marseille","lat":43.25088,"lon":5.39515,"is_reserved":false,"is_disabled":false,"rental_uris":{"android":"levelo://app?vid=3f1f6032-c6dc-40b2-80a0-591226a7e5f2","ios":"levelo://app?vid=3f1f6032-c6dc-40b2-80a0-591226a7e5f2"},"vehicle_type_id":"4","last_reported":1728670297,"current_range_meters":38800,"station_id":"ce4bhm12rcd13ifvqgkg","pricing_plan_id":"cebpf4jnsgd1na2vs0mg"},{"bike_id":"c8b2f361-0bf2-43a6-b4b7-0f317cc2df54","system_id":"levelo_inurba_marseille","lat":43.29845,"lon":5.36277,"is_reserved":false,"is_disabled":false,"rental_uris":{"android":"levelo://app?vid=c8b2f361-0bf2-43a6-b4b7-0f317cc2df54","ios":"levelo://app?vid=c8b2f361-0bf2-43a6-b4b7-0f317cc2df54"},"vehicle_type_id":"4","last_reported":1728670297,"current_range_meters":8800,"station_id":"ce4bgpp2rcd13ifvqc3g","pricing_plan_id":"cebpf4jnsgd1na2vs0mg"},{"bike_id":"97dcdfa7-d06f-4285-8696-944ad90b3bab","system_id":"levelo_inurba_marseille","lat":43.29836,"lon":5.36262,"is_reserved":false,"is_disabled":false,"rental_uris":{"android":"levelo://app?vid=97dcdfa7-d06f-4285-8696-944ad90b3bab","ios":"levelo://app?vid=97dcdfa7-d06f-4285-8696-944ad90b3bab"},"vehicle_type_id":"4","last_reported":1728670297,"current_range_meters":36400,"station_id":"ce4bgpp2rcd13ifvqc3g","pricing_plan_id":"cebpf4jnsgd1na2vs0mg"},{"bike_id":"65fd6c2d-276c-4975-ba6f-15caf10c1bdd","system_id":"levelo_inurba_marseille","lat":43.337444,"lon":5.374475,"is_reserved":false,"is_disabled":false,"rental_uris":{"android":"levelo://app?vid=65fd6c2d-276c-4975-ba6f-15caf10c1bdd","ios":"levelo://app?vid=65fd6c2d-276c-4975-ba6f-15caf10c1bdd"},"vehicle_type_id":"4","last_reported":1728670297,"current_range_meters":14400,"station_id":"","pricing_plan_id":"cebpf4jnsgd1na2vs0mg"},{"bike_id":"cb335146-c49b-4ac1-b949-a248b316f8ec","system_id":"levelo_inurba_marseille","lat":43.3021,"lon":5.3947,"is_reserved":false,"is_disabled":false,"rental_uris":{"android":"levelo://app?vid=cb335146-c49b-4ac1-b949-a248b316f8ec","ios":"levelo://app?vid=cb335146-c49b-4ac1-b949-a248b316f8ec"},"vehicle_type_id":"4","last_reported":1728670297,"current_range_meters":12400,"station_id":"ce4bh0p2rcd13ifvqd70","pricing_plan_id":"cebpf4jnsgd1na2vs0mg"},{"bike_id":"ee606357-fc2e-44ce-ade4-cf325ae272c1","system_id":"levelo_inurba_marseille","lat":43.29267,"lon":5.3844,"is_reserved":false,"is_disabled":false,"rental_uris":{"android":"levelo://app?vid=ee606357-fc2e-44ce-ade4-cf325ae272c1","ios":"levelo://app?vid=ee606357-fc2e-44ce-ade4-cf325ae272c1"},"vehicle_type_id":"4","last_reported":1728670297,"current_range_meters":17200,"station_id":"ce4bh692rcd13ifvqea0","pricing_plan_id":"cebpf4jnsgd1na2vs0mg"},{"bike_id":"3cbf11da-8538-4811-ae55-8c0ff8c01f42","system_id":"levelo_inurba_marseille","lat":43.29582,"lon":5.36741,"is_reserved":false,"is_disabled":false,"rental_uris":{"android":"levelo://app?vid=3cbf11da-8538-4811-ae55-8c0ff8c01f42","ios":"levelo://app?vid=3cbf11da-8538-4811-ae55-8c0ff8c01f42"},"vehicle_type_id":"4","last_reported":1728670297,"current_range_meters":25200,"station_id":"","pricing_plan_id":"cebpf4jnsgd1na2vs0mg"},{"bike_id":"ee2cb456-30bb-446c-8cf7-25b0fc3bafa2","system_id":"levelo_inurba_marseille","lat":43.31713,"lon":5.43713,"is_reserved":false,"is_disabled":false,"rental_uris":{"android":"levelo://app?vid=ee2cb456-30bb-446c-8cf7-25b0fc3bafa2","ios":"levelo://app?vid=ee2cb456-30bb-446c-8cf7-25b0fc3bafa2"},"vehicle_type_id":"4","last_reported":1728670297,"current_range_meters":24000,"station_id":"ce4bhp92rcd13ifvqhcg","pricing_plan_id":"cebpf4jnsgd1na2vs0mg"},{"bike_id":"81016c48-2bef-414f-8912-54948c91f038","system_id":"levelo_inurba_marseille","lat":43.31333,"lon":5.39699,"is_reserved":false,"is_disabled":false,"rental_uris":{"android":"levelo://app?vid=81016c48-2bef-414f-8912-54948c91f038","ios":"levelo://app?vid=81016c48-2bef-414f-8912-54948c91f038"},"vehicle_type_id":"4","last_reported":1728670297,"current_range_meters":8000,"station_id":"ce4bgvp2rcd13ifvqcu0","pricing_plan_id":"cebpf4jnsgd1na2vs0mg"},{"bike_id":"4426418b-bdc0-4aad-9993-cea0f953a114","system_id":"levelo_inurba_marseille","lat":43.2893,"lon":5.36633,"is_reserved":false,"is_disabled":false,"rental_uris":{"android":"levelo://app?vid=4426418b-bdc0-4aad-9993-cea0f953a114","ios":"levelo://app?vid=4426418b-bdc0-4aad-9993-cea0f953a114"},"vehicle_type_id":"4","last_reported":1728670297,"current_range_meters":38800,"station_id":"ce4bhap2rcd13ifvqek0","pricing_plan_id":"cebpf4jnsgd1na2vs0mg"},{"bike_id":"9119bfed-6fe0-44c1-92af-8f9f407caeeb","system_id":"levelo_inurba_marseille","lat":43.22931,"lon":5.35381,"is_reserved":false,"is_disabled":false,"rental_uris":{"android":"levelo://app?vid=9119bfed-6fe0-44c1-92af-8f9f407caeeb","ios":"levelo://app?vid=9119bfed-6fe0-44c1-92af-8f9f407caeeb"},"vehicle_type_id":"4","last_reported":1728670297,"current_range_meters":30400,"station_id":"cpo3532slgdg3j2ikp40","pricing_plan_id":"cebpf4jnsgd1na2vs0mg"},{"bike_id":"0d900853-4da4-4573-ba87-f90748b4c5c4","system_id":"levelo_inurba_marseille","lat":43.23968,"lon":5.36632,"is_reserved":false,"is_disabled":false,"rental_uris":{"android":"levelo://app?vid=0d900853-4da4-4573-ba87-f90748b4c5c4","ios":"levelo://app?vid=0d900853-4da4-4573-ba87-f90748b4c5c4"},"vehicle_type_id":"4","last_reported":1728670297,"current_range_meters":28800,"station_id":"ce4bhi12rcd13ifvqfp0","pricing_plan_id":"cebpf4jnsgd1na2vs0mg"},{"bike_id":"169b2a20-3636-4e62-82e1-3ab942e6b8f0","system_id":"levelo_inurba_marseille","lat":43.23188,"lon":5.3998,"is_reserved":false,"is_disabled":false,"rental_uris":{"android":"levelo://app?vid=169b2a20-3636-4e62-82e1-3ab942e6b8f0","ios":"levelo://app?vid=169b2a20-3636-4e62-82e1-3ab942e6b8f0"},"vehicle_type_id":"4","last_reported":1728670297,"current_range_meters":22800,"station_id":"ce4bhn12rcd13ifvqgqg","pricing_plan_id":"cebpf4jnsgd1na2vs0mg"},{"bike_id":"4ef1dda4-b3ce-40ee-9674-6dee53f619bf","system_id":"levelo_inurba_marseille","lat":43.27378,"lon":5.36254,"is_reserved":false,"is_disabled":false,"rental_uris":{"android":"levelo://app?vid=4ef1dda4-b3ce-40ee-9674-6dee53f619bf","ios":"levelo://app?vid=4ef1dda4-b3ce-40ee-9674-6dee53f619bf"},"vehicle_type_id":"4","last_reported":1728670297,"current_range_meters":8800,"station_id":"ce4bhbh2rcd13ifvqeo0","pricing_plan_id":"cebpf4jnsgd1na2vs0mg"},{"bike_id":"50f2d4af-a718-427a-b332-63750147b93b","system_id":"levelo_inurba_marseille","lat":43.27492,"lon":5.42447,"is_reserved":false,"is_disabled":false,"rental_uris":{"android":"levelo://app?vid=50f2d4af-a718-427a-b332-63750147b93b","ios":"levelo://app?vid=50f2d4af-a718-427a-b332-63750147b93b"},"vehicle_type_id":"4","last_reported":1728670297,"current_range_meters":5600,"station_id":"ce4bhn92rcd13ifvqgrg","pricing_plan_id":"cebpf4jnsgd1na2vs0mg"},{"bike_id":"249e9c07-a2d7-4d41-93da-edcad405a271","system_id":"levelo_inurba_marseille","lat":43.279999,"lon":5.400193,"is_reserved":false,"is_disabled":false,"rental_uris":{"android":"levelo://app?vid=249e9c07-a2d7-4d41-93da-edcad405a271","ios":"levelo://app?vid=249e9c07-a2d7-4d41-93da-edcad405a271"},"vehicle_type_id":"4","last_reported":1728670297,"current_range_meters":3200,"station_id":"ce4bho92rcd13ifvqh4g","pricing_plan_id":"cebpf4jnsgd1na2vs0mg"},{"bike_id":"60af9571-4931-4d76-85d2-7035472b165c","system_id":"levelo_inurba_marseille","lat":43.27938,"lon":5.41052,"is_reserved":false,"is_disabled":false,"rental_uris":{"android":"levelo://app?vid=60af9571-4931-4d76-85d2-7035472b165c","ios":"levelo://app?vid=60af9571-4931-4d76-85d2-7035472b165c"},"vehicle_type_id":"4","last_reported":1728670297,"current_range_meters":4800,"station_id":"ce4bhnp2rcd13ifvqh0g","pricing_plan_id":"cebpf4jnsgd1na2vs0mg"},{"bike_id":"f98c1df1-5d51-4fde-9e30-633632b93684","system_id":"levelo_inurba_marseille","lat":43.33603,"lon":5.41033,"is_reserved":false,"is_disabled":false,"rental_uris":{"android":"levelo://app?vid=f98c1df1-5d51-4fde-9e30-633632b93684","ios":"levelo://app?vid=f98c1df1-5d51-4fde-9e30-633632b93684"},"vehicle_type_id":"4","last_reported":1728670297,"current_range_meters":29600,"station_id":"ce4bhqh2rcd13ifvqhmg","pricing_plan_id":"cebpf4jnsgd1na2vs0mg"},{"bike_id":"91812a1a-0d88-4d5b-a279-b4bcabeab5a3","system_id":"levelo_inurba_marseille","lat":43.29962,"lon":5.38499,"is_reserved":false,"is_disabled":false,"rental_uris":{"android":"levelo://app?vid=91812a1a-0d88-4d5b-a279-b4bcabeab5a3","ios":"levelo://app?vid=91812a1a-0d88-4d5b-a279-b4bcabeab5a3"},"vehicle_type_id":"4","last_reported":1728670297,"current_range_meters":38800,"station_id":"ce4bgj92rcd13ifvqbd0","pricing_plan_id":"cebpf4jnsgd1na2vs0mg"},{"bike_id":"da80d51a-6e1f-4be8-84d5-060b5dde6777","system_id":"levelo_inurba_marseille","lat":43.29912,"lon":5.38153,"is_reserved":false,"is_disabled":false,"rental_uris":{"android":"levelo://app?vid=da80d51a-6e1f-4be8-84d5-060b5dde6777","ios":"levelo://app?vid=da80d51a-6e1f-4be8-84d5-060b5dde6777"},"vehicle_type_id":"4","last_reported":1728670297,"current_range_meters":8000,"station_id":"ce4bgj12rcd13ifvqbc0","pricing_plan_id":"cebpf4jnsgd1na2vs0mg"},{"bike_id":"379af439-96ce-4d62-9cb4-94424b28a2ca","system_id":"levelo_inurba_marseille","lat":43.27502,"lon":5.42452,"is_reserved":false,"is_disabled":false,"rental_uris":{"android":"levelo://app?vid=379af439-96ce-4d62-9cb4-94424b28a2ca","ios":"levelo://app?vid=379af439-96ce-4d62-9cb4-94424b28a2ca"},"vehicle_type_id":"4","last_reported":1728670297,"current_range_meters":38400,"station_id":"ce4bhn92rcd13ifvqgrg","pricing_plan_id":"cebpf4jnsgd1na2vs0mg"},