{"last_updated":1734113581,"ttl":60,"version":"2.2","data":{"bikes":[{"bike_id":"45c22bfb-3859-46ca-bbdd-b43970628095","system_id":"levelo_inurba_marseille","lat":43.23177,"lon":5.39979,"is_reserved":false,"is_disabled":false,"rental_uris":{"android":"levelo://app?vid=45c22bfb-3859-46ca-bbdd-b43970628095","ios":"levelo://app?vid=45c22bfb-3859-46ca-bbdd-b43970628095"},"vehicle_type_id":"4","last_reported":1734113581,"current_range_meters":27200,"station_id":"ce4bhn12rcd13ifvqgqg","pricing_plan_id":"cebpf4jnsgd1na2vs0mg"},{"bike_id":"3e5d99b9-1aaf-48b9-b5fb-fb7a0b5b1ba5","system_id":"levelo_inurba_marseille","lat":43.29041,"lon":5.39218,"is_reserved":false,"is_disabled":true,"rental_uris":{"android":"levelo://app?vid=3e5d99b9-1aaf-48b9-b5fb-fb7a0b5b1ba5","ios":"levelo://app?vid=3e5d99b9-1aaf-48b9-b5fb-fb7a0b5b1ba5"},"vehicle_type_id":"4","last_reported":1734113581,"current_range_meters":0,"station_id":"","pricing_plan_id":"cebpf4jnsgd1na2vs0mg"},{"bike_id":"249070ef-7f3c-475f-a50c-f5adaa69a95a","system_id":"levelo_inurba_marseille","lat":43.2926,"lon":5.38435,"is_reserved":false,"is_disabled":false,"rental_uris":{"android":"levelo://app?vid=249070ef-7f3c-475f-a50c-f5adaa69a95a","ios":"levelo://app?vid=249070ef-7f3c-475f-a50c-f5adaa69a95a"},"vehicle_type_id":"4","last_reported":1734113581,"current_range_meters":10000,"station_id":"ce4bh692rcd13ifvqea0","pricing_plan_id":"cebpf4jnsgd1na2vs0mg"},{"bike_id":"0c5fab13-b147-4c30-b30b-0839a6015356","system_id":"levelo_inurba_marseille","lat":43.29553,"lon":5.42277,"is_reserved":false,"is_disabled":false,"rental_uris":{"android":"levelo://app?vid=0c5fab13-b147-4c30-b30b-0839a6015356","ios":"levelo://app?vid=0c5fab13-b147-4c30-b30b-0839a6015356"},"vehicle_type_id":"4","last_reported":1734113581,"current_range_meters":24400,"station_id":"ce4bhph2rcd13ifvqhdg","pricing_plan_id":"cebpf4jnsgd1na2vs0mg"},{"bike_id":"c1ba8960-5c9e-478d-9f51-c4bd04bfae50","system_id":"levelo_inurba_marseille","lat":43.31409,"lon":5.37517,"is_reserved":false,"is_disabled":false,"rental_uris":{"android":"levelo://app?vid=c1ba8960-5c9e-478d-9f51-c4bd04bfae50","ios":"levelo://app?vid=c1ba8960-5c9e-478d-9f51-c4bd04bfae50"},"vehicle_type_id":"4","last_reported":1734113581,"current_range_meters":24000,"station_id":"","pricing_plan_id":"cebpf4jnsgd1na2vs0mg"},{"bike_id":"ce6933e1-f974-4430-ac2e-c56b32796da1","system_id":"levelo_inurba_marseille","lat":43.299791,"lon":5.371857,"is_reserved":false,"is_disabled":false,"rental_uris":{"android":"levelo://app?vid=ce6933e1-f974-4430-ac2e-c56b32796da1","ios":"levelo://app?vid=ce6933e1-f974-4430-ac2e-c56b32796da1"},"vehicle_type_id":"4","last_reported":1734113581,"current_range_meters":27600,"station_id":"ce4bgr92rcd13ifvqc7g","pricing_plan_id":"cebpf4jnsgd1na2vs0mg"},{"bike_id":"40b1da08-3620-4434-89b0-965f36f1980a","system_id":"levelo_inurba_marseille","lat":43.28452,"lon":5.35889,"is_reserved":false,"is_disabled":false,"rental_uris":{"android":"levelo://app?vid=40b1da08-3620-4434-89b0-965f36f1980a","ios":"levelo://app?vid=40b1da08-3620-4434-89b0-965f36f1980a"},"vehicle_type_id":"4","last_reported":1734113581,"current_range_meters":14400,"station_id":"ce4bhah2rcd13ifvqei0","pricing_plan_id":"cebpf4jnsgd1na2vs0mg"},{"bike_id":"136c5310-04b8-4831-81e4-542be0a9c7e7","system_id":"levelo_inurba_marseille","lat":43.29268,"lon":5.38431,"is_reserved":false,"is_disabled":true,"rental_uris":{"android":"levelo://app?vid=136c5310-04b8-4831-81e4-542be0a9c7e7","ios":"levelo://app?vid=136c5310-04b8-4831-81e4-542be0a9c7e7"},"vehicle_type_id":"4","last_reported":1734113581,"current_range_meters":400,"station_id":"ce4bh692rcd13ifvqea0","pricing_plan_id":"cebpf4jnsgd1na2vs0mg"},{"bike_id":"418b99b7-8b81-45de-be19-3c820db2af29","system_id":"levelo_inurba_marseille","lat":43.25859,"lon":5.39908,"is_reserved":false,"is_disabled":true,"rental_uris":{"android":"levelo://app?vid=418b99b7-8b81-45de-be19-3c820db2af29","ios":"levelo://app?vid=418b99b7-8b81-45de-be19-3c820db2af29"},"vehicle_type_id":"4","last_reported":1734113581,"current_range_meters":0,"station_id":"ce4bhl92rcd13ifvqghg","pricing_plan_id":"cebpf4jnsgd1na2vs0mg"},{"bike_id":"6afbae24-960e-451f-9110-865b10c3c6ab","system_id":"levelo_inurba_marseille","lat":43.30695,"lon":5.37786,"is_reserved":false,"is_disabled":false,"rental_uris":{"android":"levelo://app?vid=6afbae24-960e-451f-9110-865b10c3c6ab","ios":"levelo://app?vid=6afbae24-960e-451f-9110-865b10c3c6ab"},"vehicle_type_id":"4","last_reported":1734113581,"current_range_meters":23200,"station_id":"ce4bgv92rcd13ifvqcq0","pricing_plan_id":"cebpf4jnsgd1na2vs0mg"},{"bike_id":"1210c1f2-8ca3-42fe-a7b5-07bf08771e6d","system_id":"levelo_inurba_marseille","lat":43.28614,"lon":5.35104,"is_reserved":false,"is_disabled":false,"rental_uris":{"android":"levelo://app?vid=1210c1f2-8ca3-42fe-a7b5-07bf08771e6d","ios":"levelo://app?vid=1210c1f2-8ca3-42fe-a7b5-07bf08771e6d"},"vehicle_type_id":"4","last_reported":1734113581,"current_range_meters":16000,"station_id":"ce4bhch2rcd13ifvqeug","pricing_plan_id":"cebpf4jnsgd1na2vs0mg"},{"bike_id":"8739096b-3171-488c-8937-9252bd86e618","system_id":"levelo_inurba_marseille","lat":43.2481,"lon":5.37457,"is_reserved":false,"is_disabled":false,"rental_uris":{"android":"levelo://app?vid=8739096b-3171-488c-8937-9252bd86e618","ios":"levelo://app?vid=8739096b-3171-488c-8937-9252bd86e618"},"vehicle_type_id":"4","last_reported":1734113581,"current_range_meters":27600,"station_id":"ce4bhgh2rcd13ifvqfb0","pricing_plan_id":"cebpf4jnsgd1na2vs0mg"},{"bike_id":"f53a51f1-6db0-4716-9c45-7ac4c7fcd208","system_id":"levelo_inurba_marseille","lat":43.322805,"lon":5.38279,"is_reserved":false,"is_disabled":false,"rental_uris":{"android":"levelo://app?vid=f53a51f1-6db0-4716-9c45-7ac4c7fcd208","ios":"levelo://app?vid=f53a51f1-6db0-4716-9c45-7ac4c7fcd208"},"vehicle_type_id":"4","last_reported":1734113581,"current_range_meters":34800,"station_id":"ce4bhr12rcd13ifvqhqg","pricing_plan_id":"cebpf4jnsgd1na2vs0mg"},{"bike_id":"980f96eb-32c9-4906-98f6-c44dbf4c84a1","system_id":"levelo_inurba_marseille","lat":43.27455,"lon":5.40073,"is_reserved":false,"is_disabled":true,"rental_uris":{"android":"levelo://app?vid=980f96eb-32c9-4906-98f6-c44dbf4c84a1","ios":"levelo://app?vid=980f96eb-32c9-4906-98f6-c44dbf4c84a1"},"vehicle_type_id":"4","last_reported":1734113581,"current_range_meters":0,"station_id":"","pricing_plan_id":"cebpf4jnsgd1na2vs0mg"},{"bike_id":"d62c4b6d-6385-483e-a950-59b1f6d595a4","system_id":"levelo_inurba_marseille","lat":43.27999,"lon":5.40011,"is_reserved":false,"is_disabled":false,"rental_uris":{"android":"levelo://app?vid=d62c4b6d-6385-483e-a950-59b1f6d595a4","ios":"levelo://app?vid=d62c4b6d-6385-483e-a950-59b1f6d595a4"},"vehicle_type_id":"4","last_reported":1734113581,"current_range_meters":11600,"station_id":"ce4bho92rcd13ifvqh4g","pricing_plan_id":"cebpf4jnsgd1na2vs0mg"},{"bike_id":"d64735b9-3201-48f9-b7d1-d8bd9269830f","system_id":"levelo_inurba_marseille","lat":43.31321,"lon":5.3969,"is_reserved":false,"is_disabled":false,"rental_uris":{"android":"levelo://app?vid=d64735b9-3201-48f9-b7d1-d8bd9269830f","ios":"levelo://app?vid=d64735b9-3201-48f9-b7d1-d8bd9269830f"},"vehicle_type_id":"4","last_reported":1734113581,"current_range_meters":35200,"station_id":"ce4bgvp2rcd13ifvqcu0","pricing_plan_id":"cebpf4jnsgd1na2vs0mg"},{"bike_id":"6c8f0fb1-dda3-46f8-8b7e-d47203e07a27","system_id":"levelo_inurba_marseille","lat":43.25405,"lon":5.38317,"is_reserved":false,"is_disabled":false,"rental_uris":{"android":"levelo://app?vid=6c8f0fb1-dda3-46f8-8b7e-d47203e07a27","ios":"levelo://app?vid=6c8f0fb1-dda3-46f8-8b7e-d47203e07a27"},"vehicle_type_id":"4","last_reported":1734113581,"current_range_meters":4800,"station_id":"","pricing_plan_id":"cebpf4jnsgd1na2vs0mg"},{"bike_id":"ad96b3eb-1497-488c-b6e3-b2cd160fc7c6","system_id":"levelo_inurba_marseille","lat":43.28703,"lon":5.37388,"is_reserved":false,"is_disabled":false,"rental_uris":{"android":"levelo://app?vid=ad96b3eb-1497-488c-b6e3-b2cd160fc7c6","ios":"levelo://app?vid=ad96b3eb-1497-488c-b6e3-b2cd160fc7c6"},"vehicle_type_id":"4","last_reported":1734113581,"current_range_meters":32000,"station_id":"ce4bh3p2rcd13ifvqdq0","pricing_plan_id":"cebpf4jnsgd1na2vs0mg"},{"bike_id":"80e5c1e3-8d27-43e3-9451-b00f65b301df","system_id":"levelo_inurba_marseille","lat":43.23198,"lon":5.35552,"is_reserved":false,"is_disabled":false,"rental_uris":{"android":"levelo://app?vid=80e5c1e3-8d27-43e3-9451-b00f65b301df","ios":"levelo://app?vid=80e5c1e3-8d27-43e3-9451-b00f65b301df"},"vehicle_type_id":"4","last_reported":1734113581,"current_range_meters":9600,"station_id":"ce4bhu92rcd13ifvqi70","pricing_plan_id":"cebpf4jnsgd1na2vs0mg"},{"bike_id":"1630082a-d97c-4c40-814b-72c7ada49389","system_id":"levelo_inurba_marseille","lat":43.28322,"lon":5.43275,"is_reserved":false,"is_disabled":false,"rental_uris":{"android":"levelo://app?vid=1630082a-d97c-4c40-814b-72c7ada49389","ios":"levelo://app?vid=1630082a-d97c-4c40-814b-72c7ada49389"},"vehicle_type_id":"4","last_reported":1734113581,"current_range_meters":20800,"station_id":"","pricing_plan_id":"cebpf4jnsgd1na2vs0mg"},{"bike_id":"8021032c-891a-4eef-8588-e3eee82280df","system_id":"levelo_inurba_marseille","lat":43.27987,"lon":5.41661,"is_reserved":false,"is_disabled":false,"rental_uris":{"android":"levelo://app?vid=8021032c-891a-4eef-8588-e3eee82280df","ios":"levelo://app?vid=8021032c-891a-4eef-8588-e3eee82280df"},"vehicle_type_id":"4","last_reported":1734113581,"current_range_meters":38400,"station_id":"ce4bho12rcd13ifvqh1g","pricing_plan_id":"cebpf4jnsgd1na2vs0mg"},{"bike_id":"68341feb-c70b-4c28-91d5-1c7269ec3b3a","system_id":"levelo_inurba_marseille","lat":43.30261,"lon":5.39252,"is_reserved":false,"is_disabled":false,"rental_uris":{"android":"levelo://app?vid=68341feb-c70b-4c28-91d5-1c7269ec3b3a","ios":"levelo://app?vid=68341feb-c70b-4c28-91d5-1c7269ec3b3a"},"vehicle_type_id":"4","last_reported":1734113581,"current_range_meters":9200,"station_id":"","pricing_plan_id":"cebpf4jnsgd1na2vs0mg"},{"bike_id":"ce2ffe22-db46-4464-b065-cd8df23833eb","system_id":"levelo_inurba_marseille","lat":43.27945,"lon":5.4104,"is_reserved":false,"is_disabled":true,"rental_uris":{"android":"levelo://app?vid=ce2ffe22-db46-4464-b065-cd8df23833eb","ios":"levelo://app?vid=ce2ffe22-db46-4464-b065-cd8df23833eb"},"vehicle_type_id":"4","last_reported":1734113581,"current_range_meters":1200,"station_id":"ce4bhnp2rcd13ifvqh0g","pricing_plan_id":"cebpf4jnsgd1na2vs0mg"},{"bike_id":"fb32aea2-d437-4e9e-95b8-ad6ed33d022d","system_id":"levelo_inurba_marseille","lat":43.28711,"lon":5.37939,"is_reserved":false,"is_disabled":true,"rental_uris":{"android":"levelo://app?vid=fb32aea2-d437-4e9e-95b8-ad6ed33d022d","ios":"levelo://app?vid=fb32aea2-d437-4e9e-95b8-ad6ed33d022d"},"vehicle_type_id":"4","last_reported":1734113581,"current_range_meters":28800,"station_id":"ce4bh9p2rcd13ifvqec0","pricing_plan_id":"cebpf4jnsgd1na2vs0mg"},{"bike_id":"d5c89c1f-3bad-4af2-9449-e04c277a4696","system_id":"levelo_inurba_marseille","lat":43.29973,"lon":5.41322,"is_reserved":false,"is_disabled":true,"rental_uris":{"android":"levelo://app?vid=d5c89c1f-3bad-4af2-9449-e04c277a4696","ios":"levelo://app?vid=d5c89c1f-3bad-4af2-9449-e04c277a4696"},"vehicle_type_id":"4","last_reported":1734113581,"current_range_meters":33200,"station_id":"ce4bhp12rcd13ifvqh9g","pricing_plan_id":"cebpf4jnsgd1na2vs0mg"},{"bike_id":"9638bd5a-6709-4ae5-844c-ab1839e55063","system_id":"levelo_inurba_marseille","lat":43.22937,"lon":5.35371,"is_reserved":false,"is_disabled":false,"rental_uris":{"android":"levelo://app?vid=9638bd5a-6709-4ae5-844c-ab1839e55063","ios":"levelo://app?vid=9638bd5a-6709-4ae5-844c-ab1839e55063"},"vehicle_type_id":"4","last_reported":1734113581,"current_range_meters":24800,"station_id":"cpo3532slgdg3j2ikp40","pricing_plan_id":"cebpf4jnsgd1na2vs0mg"},{"bike_id":"5dcb142e-3766-4e2c-b1fe-c9ebbc5d3c50","system_id":"levelo_inurba_marseille","lat":43.31991,"lon":5.38152,"is_reserved":false,"is_disabled":false,"rental_uris":{"android":"levelo://app?vid=5dcb142e-3766-4e2c-b1fe-c9ebbc5d3c50","ios":"levelo://app?vid=5dcb142e-3766-4e2c-b1fe-c9ebbc5d3c50"},"vehicle_type_id":"4","last_reported":1734113581,"current_range_meters":8000,"station_id":"ce4bhr12rcd13ifvqhpg","pricing_plan_id":"cebpf4jnsgd1na2vs0mg"},{"bike_id":"f99acb18-1e4b-43f2-b578-dcfb6a48a3ea","system_id":"levelo_inurba_marseille","lat":43.25699,"lon":5.41092,"is_reserved":false,"is_disabled":false,"rental_uris":{"android":"levelo://app?vid=f99acb18-1e4b-43f2-b578-dcfb6a48a3ea","ios":"levelo://app?vid=f99acb18-1e4b-43f2-b578-dcfb6a48a3ea"},"vehicle_type_id":"4","last_reported":1734113581,"current_range_meters":4400,"station_id":"ce4bhkp2rcd13ifvqgd0","pricing_plan_id":"cebpf4jnsgd1na2vs0mg"},{"bike_id":"243f45db-ec67-4719-a7e7-573712e2eeff","system_id":"levelo_inurba_marseille","lat":43.30328,"lon":5.4043,"is_reserved":false,"is_disabled":false,"rental_uris":{"android":"levelo://app?vid=243f45db-ec67-4719-a7e7-573712e2eeff","ios":"levelo://app?vid=243f45db-ec67-4719-a7e7-573712e2eeff"},"vehicle_type_id":"4","last_reported":1734113581,"current_range_meters":32400,"station_id":"ce4bh012rcd13ifvqd10","pricing_plan_id":"cebpf4jnsgd1na2vs0mg"},{"bike_id":"3a312272-900a-4c4b-bb5b-4ed6000e4b63","system_id":"levelo_inurba_marseille","lat":43.30146,"lon":5.38074,"is_reserved":false,"is_disabled":true,"rental_uris":{"android":"levelo://app?vid=3a312272-900a-4c4b-bb5b-4ed6000e4b63","ios":"levelo://app?vid=3a312272-900a-4c4b-bb5b-4ed6000e4b63"},"vehicle_type_id":"4","last_reported":1734113581,"current_range_meters":17600,"station_id":"ce4bgjp2rcd13ifvqbh0","pricing_plan_id":"cebpf4jnsgd1na2vs0mg"},{"bike_id":"dfb84198-8fa0-4280-9042-3479585b1ddf","system_id":"levelo_inurba_marseille","lat":43.28466,"lon":5.38419,"is_reserved":false,"is_disabled":false,"rental_uris":{"android":"levelo://app?vid=dfb84198-8fa0-4280-9042-3479585b1ddf","ios":"levelo://app?vid=dfb84198-8fa0-4280-9042-3479585b1ddf"},"vehicle_type_id":"4","last_reported":1734113581,"current_range_meters":7200,"station_id":"ce4bh512rcd13ifvqe3g","pricing_plan_id":"cebpf4jnsgd1na2vs0mg"},{"bike_id":"cf2a1658-7b5a-421e-83d2-040c721d431b","system_id":"levelo_inurba_marseille","lat":43.28455,"lon":5.35884,"is_reserved":false,"is_disabled":false,"rental_uris":{"android":"levelo://app?vid=cf2a1658-7b5a-421e-83d2-040c721d431b","ios":"levelo://app?vid=cf2a1658-7b5a-421e-83d2-040c721d431b"},"vehicle_type_id":"4","last_reported":1734113581,"current_range_meters":38000,"station_id":"ce4bhah2rcd13ifvqei0","pricing_plan_id":"cebpf4jnsgd1na2vs0mg"},{"bike_id":"1246e6b9-1bba-43b9-9075-2687b084a677","system_id":"levelo_inurba_marseille","lat":43.25894,"lon":5.3986,"is_reserved":false,"is_disabled":false,"rental_uris":{"android":"levelo://app?vid=1246e6b9-1bba-43b9-9075-2687b084a677","ios":"levelo://app?vid=1246e6b9-1bba-43b9-9075-2687b084a677"},"vehicle_type_id":"4","last_reported":1734113581,"current_range_meters":12000,"station_id":"ce4bhl92rcd13ifvqghg","pricing_plan_id":"cebpf4jnsgd1na2vs0mg"},{"bike_id":"ca962d64-b97b-4b45-97aa-d8544859a59a","system_id":"levelo_inurba_marseille","lat":43.29266,"lon":5.38432,"is_reserved":false,"is_disabled":false,"rental_uris":{"android":"levelo://app?vid=ca962d64-b97b-4b45-97aa-d8544859a59a","ios":"levelo://app?vid=ca962d64-b97b-4b45-97aa-d8544859a59a"},"vehicle_type_id":"4","last_reported":1734113581,"current_range_meters":32800,"station_id":"ce4bh692rcd13ifvqea0","pricing_plan_id":"cebpf4jnsgd1na2vs0mg"},{"bike_id":"7205a45f-9be6-42af-92c7-538fc4433175","system_id":"levelo_inurba_marseille","lat":43.28157,"lon":5.42643,"is_reserved":false,"is_disabled":false,"rental_uris":{"android":"levelo://app?vid=7205a45f-9be6-42af-92c7-538fc4433175","ios":"levelo://app?vid=7205a45f-9be6-42af-92c7-538fc4433175"},"vehicle_type_id":"4","last_reported":1734113581,"current_range_meters":21600,"station_id":"ce4bhnh2rcd13ifvqgug","pricing_plan_id":"cebpf4jnsgd1na2vs0mg"},{"bike_id":"9658b4e0-946e-4511-8e18-b51586108f8c","system_id":"levelo_inurba_marseille","lat":43.33773,"lon":5.37412,"is_reserved":false,"is_disabled":false,"rental_uris":{"android":"levelo://app?vid=9658b4e0-946e-4511-8e18-b51586108f8c","ios":"levelo://app?vid=9658b4e0-946e-4511-8e18-b51586108f8c"},"vehicle_type_id":"4","last_reported":1734113581,"current_range_meters":37600,"station_id":"","pricing_plan_id":"cebpf4jnsgd1na2vs0mg"},{"bike_id":"495986c7-e02a-4c20-a1dc-c3edae2c8c07","system_id":"levelo_inurba_marseille","lat":43.30173,"lon":5.37347,"is_reserved":false,"is_disabled":false,"rental_uris":{"android":"levelo://app?vid=495986c7-e02a-4c20-a1dc-c3edae2c8c07","ios":"levelo://app?vid=495986c7-e02a-4c20-a1dc-c3edae2c8c07"},"vehicle_type_id":"4","last_reported":1734113581,"current_range_meters":28000,"station_id":"","pricing_plan_id":"cebpf4jnsgd1na2vs0mg"},{"bike_id":"62deda22-1fb7-432c-b85a-e74584847620","system_id":"levelo_inurba_marseille","lat":43.31183,"lon":5.37231,"is_reserved":false,"is_disabled":true,"rental_uris":{"android":"levelo://app?vid=62deda22-1fb7-432c-b85a-e74584847620","ios":"levelo://app?vid=62deda22-1fb7-432c-b85a-e74584847620"},"vehicle_type_id":"4","last_reported":1734113581,"current_range_meters":800,"station_id":"","pricing_plan_id":"cebpf4jnsgd1na2vs0mg"},{"bike_id":"9bfcebe4-fee2-409c-a8ab-5608ab6f061f","system_id":"levelo_inurba_marseille","lat":43.28164,"lon":5.42739,"is_reserved":false,"is_disabled":true,"rental_uris":{"android":"levelo://app?vid=9bfcebe4-fee2-409c-a8ab-5608ab6f061f","ios":"levelo://app?vid=9bfcebe4-fee2-409c-a8ab-5608ab6f061f"},"vehicle_type_id":"4","last_reported":1734113581,"current_range_meters":38000,"station_id":"","pricing_plan_id":"cebpf4jnsgd1na2vs0mg"},{"bike_id":"a4cbcb4d-c942-493d-a8a3-6e8c7eb61ce7","system_id":"levelo_inurba_marseille","lat":43.28413,"lon":5.37533,"is_reserved":false,"is_disabled":false,"rental_uris":{"android":"levelo://app?vid=a4cbcb4d-c942-493d-a8a3-6e8c7eb61ce7","ios":"levelo://app?vid=a4cbcb4d-c942-493d-a8a3-6e8c7eb61ce7"},"vehicle_type_id":"4","last_reported":1734113581,"current_range_meters":38000,"station_id":"ce4bh412rcd13ifvqds0","pricing_plan_id":"cebpf4jnsgd1na2vs0mg"},{"bike_id":"0e8a89dc-4e73-48a3-8682-6696627877b1","system_id":"levelo_inurba_marseille","lat":43.31768,"lon":5.39023,"is_reserved":false,"is_disabled":false,"rental_uris":{"android":"levelo://app?vid=0e8a89dc-4e73-48a3-8682-6696627877b1","ios":"levelo://app?vid=0e8a89dc-4e73-48a3-8682-6696627877b1"},"vehicle_type_id":"4","last_reported":1734113581,"current_range_meters":38800,"station_id":"ce4bhqp2rcd13ifvqhng","pricing_plan_id":"cebpf4jnsgd1na2vs0mg"},{"bike_id":"edaea664-24e0-4d6c-aa7a-497f5c5f88f6","system_id":"levelo_inurba_marseille","lat":43.27015,"lon":5.39143,"is_reserved":false,"is_disabled":true,"rental_uris":{"android":"levelo://app?vid=edaea664-24e0-4d6c-aa7a-497f5c5f88f6","ios":"levelo://app?vid=edaea664-24e0-4d6c-aa7a-497f5c5f88f6"},"vehicle_type_id":"4","last_reported":1734113581,"current_range_meters":0,"station_id":"","pricing_plan_id":"cebpf4jnsgd1na2vs0mg"},{"bike_id":"20cd681c-e1b2-4e02-a36a-4c0f539a1945","system_id":"levelo_inurba_marseille","lat":43.29982,"lon":5.37157,"is_reserved":false,"is_disabled":false,"rental_uris":{"android":"levelo://app?vid=20cd681c-e1b2-4e02-a36a-4c0f539a1945","ios":"levelo://app?vid=20cd681c-e1b2-4e02-a36a-4c0f539a1945"},"vehicle_type_id":"4","last_reported":1734113581,"current_range_meters":38800,"station_id":"ce4bgr92rcd13ifvqc7g","pricing_plan_id":"cebpf4jnsgd1na2vs0mg"},{"bike_id":"bfce6e9b-ab18-4760-913a-1337f7971db6","system_id":"levelo_inurba_marseille","lat":43.29297,"lon":5.37449,"is_reserved":false,"is_disabled":false,"rental_uris":{"android":"levelo://app?vid=bfce6e9b-ab18-4760-913a-1337f7971db6","ios":"levelo://app?vid=bfce6e9b-ab18-4760-913a-1337f7971db6"},"vehicle_type_id":"4","last_reported":1734113581,"current_range_meters":18800,"station_id":"ce4bgi12rcd13ifvqb70","pricing_plan_id":"cebpf4jnsgd1na2vs0mg"},{"bike_id":"69e8b734-359a-4913-807c-6c6e0641b1a5","system_id":"levelo_inurba_marseille","lat":43.29189,"lon":5.358,"is_reserved":false,"is_disabled":false,"rental_uris":{"android":"levelo://app?vid=69e8b734-359a-4913-807c-6c6e0641b1a5","ios":"levelo://app?vid=69e8b734-359a-4913-807c-6c6e0641b1a5"},"vehicle_type_id":"4","last_reported":1734113581,"current_range_meters":24400,"station_id":"ce4bhb12rcd13ifvqel0","pricing_plan_id":"cebpf4jnsgd1na2vs0mg"},{"bike_id":"031809f5-fdc4-4687-967d-86d6a0becf47","system_id":"levelo_inurba_marseille","lat":43.25855,"lon":5.39896,"is_reserved":false,"is_disabled":false,"rental_uris":{"android":"levelo://app?vid=031809f5-fdc4-4687-967d-86d6a0becf47","ios":"levelo://app?vid=031809f5-fdc4-4687-967d-86d6a0becf47"},"vehicle_type_id":"4","last_reported":1734113581,"current_range_meters":38000,"station_id":"ce4bhl92rcd13ifvqghg","pricing_plan_id":"cebpf4jnsgd1na2vs0mg"},{"bike_id":"a5c92841-c29e-47c6-b577-9bd7891b0bfa","system_id":"levelo_inurba_marseille","lat":43.3136,"lon":5.385,"is_reserved":false,"is_disabled":false,"rental_uris":{"android":"levelo://app?vid=a5c92841-c29e-47c6-b577-9bd7891b0bfa","ios":"levelo://app?vid=a5c92841-c29e-47c6-b577-9bd7891b0bfa"},"vehicle_type_id":"4","last_reported":1734113581,"current_range_meters":16800,"station_id":"ce4bgt92rcd13ifvqcf0","pricing_plan_id":"cebpf4jnsgd1na2vs0mg"},{"bike_id":"d8b63610-112b-4cc9-b52a-019fd8519065","system_id":"levelo_inurba_marseille","lat":43.3014,"lon":5.38089,"is_reserved":false,"is_disabled":false,"rental_uris":{"android":"levelo://app?vid=d8b63610-112b-4cc9-b52a-019fd8519065","ios":"levelo://app?vid=d8b63610-112b-4cc9-b52a-019fd8519065"},"vehicle_type_id":"4","last_reported":1734113581,"current_range_meters":38800,"station_id":"ce4bgjp2rcd13ifvqbh0","pricing_plan_id":"cebpf4jnsgd1na2vs0mg"},{"bike_id":"75d005f1-a104-4287-b501-1002db049ee7","system_id":"levelo_inurba_marseille","lat":43.33707,"lon":5.39186,"is_reserved":false,"is_disabled":false,"rental_uris":{"android":"levelo://app?vid=75d005f1-a104-4287-b501-1002db049ee7","ios":"levelo://app?vid=75d005f1-a104-4287-b501-1002db049ee7"},"vehicle_type_id":"4","last_reported":1734113581,"current_range_meters":38800,"station_id":"ce4bhr92rcd13ifvqhsg","pricing_plan_id":"cebpf4jnsgd1na2vs0mg"},{"bike_id":"9c1ce7b6-f5d4-48dd-b699-4ec030edf6d0","system_id":"levelo_inurba_marseille","lat":43.33025,"lon":5.39031,"is_reserved":false,"is_disabled":false,"rental_uris":{"android":"levelo://app?vid=9c1ce7b6-f5d4-48dd-b699-4ec030edf6d0","ios":"levelo://app?vid=9c1ce7b6-f5d4-48dd-b699-4ec030edf6d0"},"vehicle_type_id":"4","last_reported":1734113581,"current_range_meters":16000,"station_id":"ce4bhr92rcd13ifvqhrg","pricing_plan_id":"cebpf4jnsgd1na2vs0mg"},{"bike_id":"34d7631f-66a6-499a-9ffe-f1d4f47f7470","system_id":"levelo_inurba_marseille","lat":43.30141,"lon":5.37409,"is_reserved":false,"is_disabled":false,"rental_uris":{"android":"levelo://app?vid=34d7631f-66a6-499a-9ffe-f1d4f47f7470","ios":"levelo://app?vid=34d7631f-66a6-499a-9ffe-f1d4f47f7470"},"vehicle_type_id":"4","last_reported":1734113581,"current_range_meters":36000,"station_id":"ce4bgs92rcd13ifvqcc0","pricing_plan_id":"cebpf4jnsgd1na2vs0mg"},{"bike_id":"30b7f7b0-cffb-44e8-9e23-86428fe1183d","system_id":"levelo_inurba_marseille","lat":43.23078,"lon":5.35466,"is_reserved":false,"is_disabled":false,"rental_uris":{"android":"levelo://app?vid=30b7f7b0-cffb-44e8-9e23-86428fe1183d","ios":"levelo://app?vid=30b7f7b0-cffb-44e8-9e23-86428fe1183d"},"vehicle_type_id":"4","last_reported":1734113581,"current_range_meters":37600,"station_id":"cpo3342slgdg3j2ifvpg","pricing_plan_id":"cebpf4jnsgd1na2vs0mg"},{"bike_id":"c962957d-ec10-4997-96e1-a869343f922e","system_id":"levelo_inurba_marseille","lat":43.32667,"lon":5.36065,"is_reserved":false,"is_disabled":false,"rental_uris":{"android":"levelo://app?vid=c962957d-ec10-4997-96e1-a869343f922e","ios":"levelo://app?vid=c962957d-ec10-4997-96e1-a869343f922e"},"vehicle_type_id":"4","last_reported":1734113581,"current_range_meters":4800,"station_id":"","pricing_plan_id":"cebpf4jnsgd1na2vs0mg"},{"bike_id":"7906f1d8-f676-4e86-bb36-c3a9dd69bddb","system_id":"levelo_inurba_marseille","lat":43.30158,"lon":5.37389,"is_reserved":false,"is_disabled":false,"rental_uris":{"android":"levelo://app?vid=7906f1d8-f676-4e86-bb36-c3a9dd69bddb","ios":"levelo://app?vid=7906f1d8-f676-4e86-bb36-c3a9dd69bddb"},"vehicle_type_id":"4","last_reported":1734113581,"current_range_meters":33200,"station_id":"ce4bgs92rcd13ifvqcc0","pricing_plan_id":"cebpf4jnsgd1na2vs0mg"},{"bike_id":"bb14f36d-3645-4531-9655-e845e98af035","system_id":"levelo_inurba_marseille","lat":43.3229,"lon":5.38267,"is_reserved":false,"is_disabled":false,"rental_uris":{"android":"levelo://app?vid=bb14f36d-3645-4531-9655-e845e98af035","ios":"levelo://app?vid=bb14f36d-3645-4531-9655-e845e98af035"},"vehicle_type_id":"4","last_reported":1734113581,"current_range_meters":6800,"station_id":"ce4bhr12rcd13ifvqhqg","pricing_plan_id":"cebpf4jnsgd1na2vs0mg"},{"bike_id":"c9676edc-db76-4de5-985d-a93a6a10cb85","system_id":"levelo_inurba_marseille","lat":43.293078,"lon":5.371709,"is_reserved":false,"is_disabled":false,"rental_uris":{"android":"levelo://app?vid=c9676edc-db76-4de5-985d-a93a6a10cb85","ios":"levelo://app?vid=c9676edc-db76-4de5-985d-a93a6a10cb85"},"vehicle_type_id":"4","last_reported":1734113581,"current_range_meters":33600,"station_id":"ce4bgh92rcd13ifvqb40","pricing_plan_id":"cebpf4jnsgd1na2vs0mg"},{"bike_id":"bd733ec7-7958-403e-81a6-eae5589f111e","system_id":"levelo_inurba_marseille","lat":43.29982,"lon":5.37166,"is_reserved":false,"is_disabled":false,"rental_uris":{"android":"levelo://app?vid=bd733ec7-7958-403e-81a6-eae5589f111e","ios":"levelo://app?vid=bd733ec7-7958-403e-81a6-eae5589f111e"},"vehicle_type_id":"4","last_reported":1734113581,"current_range_meters":24400,"station_id":"ce4bgr92rcd13ifvqc7g","pricing_plan_id":"cebpf4jnsgd1na2vs0mg"},{"bike_id":"bc77552c-f2bc-4368-bc19-7004372d4910","system_id":"levelo_inurba_marseille","lat":43.31329,"lon":5.39688,"is_reserved":false,"is_disabled":false,"rental_uris":{"android":"levelo://app?vid=bc77552c-f2bc-4368-bc19-7004372d4910","ios":"levelo://app?vid=bc77552c-f2bc-4368-bc19-7004372d4910"},"vehicle_type_id":"4","last_reported":1734113581,"current_range_meters":36400,"station_id":"ce4bgvp2rcd13ifvqcu0","pricing_plan_id":"cebpf4jnsgd1na2vs0mg"},{"bike_id":"773210ee-d19a-4226-90f8-e420da4ce6bd","system_id":"levelo_inurba_marseille","lat":43.30231,"lon":5.40049,"is_reserved":false,"is_disabled":true,"rental_uris":{"android":"levelo://app?vid=773210ee-d19a-4226-90f8-e420da4ce6bd","ios":"levelo://app?vid=773210ee-d19a-4226-90f8-e420da4ce6bd"},"vehicle_type_id":"4","last_reported":1734113581,"current_range_meters":6800,"station_id":"ce4bgvh2rcd13ifvqcs0","pricing_plan_id":"cebpf4jnsgd1na2vs0mg"},{"bike_id":"da345435-a4ab-4142-96e2-d4c3515056c7","system_id":"levelo_inurba_marseille","lat":43.30132,"lon":5.38785,"is_reserved":false,"is_disabled":true,"rental_uris":{"android":"levelo://app?vid=da345435-a4ab-4142-96e2-d4c3515056c7","ios":"levelo://app?vid=da345435-a4ab-4142-96e2-d4c3515056c7"},"vehicle_type_id":"4","last_reported":1734113581,"current_range_meters":0,"station_id":"ce4bghh2rcd13ifvqb60","pricing_plan_id":"cebpf4jnsgd1na2vs0mg"},{"bike_id":"db447041-11ac-4071-bfd3-851b70762ace","system_id":"levelo_inurba_marseille","lat":43.29928,"lon":5.36528,"is_reserved":false,"is_disabled":false,"rental_uris":{"android":"levelo://app?vid=db447041-11ac-4071-bfd3-851b70762ace","ios":"levelo://app?vid=db447041-11ac-4071-bfd3-851b70762ace"},"vehicle_type_id":"4","last_reported":1734113581,"current_range_meters":8400,"station_id":"ce4bgm92rcd13ifvqbr0","pricing_plan_id":"cebpf4jnsgd1na2vs0mg"},{"bike_id":"2d7a1d93-135c-496a-a928-c47315373230","system_id":"levelo_inurba_marseille","lat":43.2781,"lon":5.40711,"is_reserved":false,"is_disabled":false,"rental_uris":{"android":"levelo://app?vid=2d7a1d93-135c-496a-a928-c47315373230","ios":"levelo://app?vid=2d7a1d93-135c-496a-a928-c47315373230"},"vehicle_type_id":"4","last_reported":1734113581,"current_range_meters":39200,"station_id":"ce4bhnh2rcd13ifvqgtg","pricing_plan_id":"cebpf4jnsgd1na2vs0mg"},{"bike_id":"9ad311dd-c450-4f09-933a-ef53d4559dc3","system_id":"levelo_inurba_marseille","lat":43.26992,"lon":5.39868,"is_reserved":false,"is_disabled":false,"rental_uris":{"android":"levelo://app?vid=9ad311dd-c450-4f09-933a-ef53d4559dc3","ios":"levelo://app?vid=9ad311dd-c450-4f09-933a-ef53d4559dc3"},"vehicle_type_id":"4","last_reported":1734113581,"current_range_meters":30000,"station_id":"","pricing_plan_id":"cebpf4jnsgd1na2vs0mg"},{"bike_id":"143ccd8e-9541-44bb-a0f3-805b2d1001bb","system_id":"levelo_inurba_marseille","lat":43.291966,"lon":5.393304,"is_reserved":false,"is_disabled":false,"rental_uris":{"android":"levelo://app?vid=143ccd8e-9541-44bb-a0f3-805b2d1001bb","ios":"levelo://app?vid=143ccd8e-9541-44bb-a0f3-805b2d1001bb"},"vehicle_type_id":"4","last_reported":1734113581,"current_range_meters":18000,"station_id":"ce4bh192rcd13ifvqdd0","pricing_plan_id":"cebpf4jnsgd1na2vs0mg"},{"bike_id":"d457e4a4-738d-49df-a4c6-a97bfb48b40f","system_id":"levelo_inurba_marseille","lat":43.308,"lon":5.38144,"is_reserved":false,"is_disabled":false,"rental_uris":{"android":"levelo://app?vid=d457e4a4-738d-49df-a4c6-a97bfb48b40f","ios":"levelo://app?vid=d457e4a4-738d-49df-a4c6-a97bfb48b40f"},"vehicle_type_id":"4","last_reported":1734113581,"current_range_meters":38800,"station_id":"ce4bgt12rcd13ifvqce0","pricing_plan_id":"cebpf4jnsgd1na2vs0mg"},{"bike_id":"153e2d50-f990-4298-a342-fa4edb251cac","system_id":"levelo_inurba_marseille","lat":43.24798,"lon":5.37452,"is_reserved":false,"is_disabled":false,"rental_uris":{"android":"levelo://app?vid=153e2d50-f990-4298-a342-fa4edb251cac","ios":"levelo://app?vid=153e2d50-f990-4298-a342-fa4edb251cac"},"vehicle_type_id":"4","last_reported":1734113581,"current_range_meters":18000,"station_id":"ce4bhgh2rcd13ifvqfb0","pricing_plan_id":"cebpf4jnsgd1na2vs0mg"},{"bike_id":"af67ac53-ba21-4ff0-8334-95679e9ff2cc","system_id":"levelo_inurba_marseille","lat":43.278805,"lon":5.388003,"is_reserved":false,"is_disabled":true,"rental_uris":{"android":"levelo://app?vid=af67ac53-ba21-4ff0-8334-95679e9ff2cc","ios":"levelo://app?vid=af67ac53-ba21-4ff0-8334-95679e9ff2cc"},"vehicle_type_id":"4","last_reported":1734113581,"current_range_meters":5600,"station_id":"","pricing_plan_id":"cebpf4jnsgd1na2vs0mg"},{"bike_id":"2a392c48-5f99-4704-96d2-f5c965baf6b6","system_id":"levelo_inurba_marseille","lat":43.26202,"lon":5.37925,"is_reserved":false,"is_disabled":false,"rental_uris":{"android":"levelo://app?vid=2a392c48-5f99-4704-96d2-f5c965baf6b6","ios":"levelo://app?vid=2a392c48-5f99-4704-96d2-f5c965baf6b6"},"vehicle_type_id":"4","last_reported":1734113581,"current_range_meters":17600,"station_id":"ce4bhjp2rcd13ifvqg90","pricing_plan_id":"cebpf4jnsgd1na2vs0mg"},{"bike_id":"6bdeafa2-9cf8-4a03-9b4b-71fe1c5f1eeb","system_id":"levelo_inurba_marseille","lat":43.26925,"lon":5.40272,"is_reserved":false,"is_disabled":true,"rental_uris":{"android":"levelo://app?vid=6bdeafa2-9cf8-4a03-9b4b-71fe1c5f1eeb","ios":"levelo://app?vid=6bdeafa2-9cf8-4a03-9b4b-71fe1c5f1eeb"},"vehicle_type_id":"4","last_reported":1734113581,"current_range_meters":1200,"station_id":"cjm6bp8fraef2m0cb0m0","pricing_plan_id":"cebpf4jnsgd1na2vs0mg"},{"bike_id":"bad9e3a2-f9f0-450e-8857-a3d18f272754","system_id":"levelo_inurba_marseille","lat":43.301,"lon":5.39064,"is_reserved":false,"is_disabled":false,"rental_uris":{"android":"levelo://app?vid=bad9e3a2-f9f0-450e-8857-a3d18f272754","ios":"levelo://app?vid=bad9e3a2-f9f0-450e-8857-a3d18f272754"},"vehicle_type_id":"4","last_reported":1734113581,"current_range_meters":24800,"station_id":"ce4bh192rcd13ifvqdb0","pricing_plan_id":"cebpf4jnsgd1na2vs0mg"},{"bike_id":"d8d7ffef-ae54-446a-a28c-8265164b47ce","system_id":"levelo_inurba_marseille","lat":43.29163,"lon":5.43905,"is_reserved":false,"is_disabled":true,"rental_uris":{"android":"levelo://app?vid=d8d7ffef-ae54-446a-a28c-8265164b47ce","ios":"levelo://app?vid=d8d7ffef-ae54-446a-a28c-8265164b47ce"},"vehicle_type_id":"4","last_reported":1734113581,"current_range_meters":28800,"station_id":"","pricing_plan_id":"cebpf4jnsgd1na2vs0mg"},{"bike_id":"c5768e7e-b244-4dfc-973f-384fac771fcc","system_id":"levelo_inurba_marseille","lat":43.279899,"lon":5.416662,"is_reserved":false,"is_disabled":true,"rental_uris":{"android":"levelo://app?vid=c5768e7e-b244-4dfc-973f-384fac771fcc","ios":"levelo://app?vid=c5768e7e-b244-4dfc-973f-384fac771fcc"},"vehicle_type_id":"4","last_reported":1734113581,"current_range_meters":0,"station_id":"ce4bho12rcd13ifvqh1g","pricing_plan_id":"cebpf4jnsgd1na2vs0mg"},{"bike_id":"d65fcea9-51ba-41f0-86fd-e798dfdd6f09","system_id":"levelo_inurba_marseille","lat":43.28667,"lon":5.38343,"is_reserved":false,"is_disabled":true,"rental_uris":{"android":"levelo://app?vid=d65fcea9-51ba-41f0-86fd-e798dfdd6f09","ios":"levelo://app?vid=d65fcea9-51ba-41f0-86fd-e798dfdd6f09"},"vehicle_type_id":"4","last_reported":1734113581,"current_range_meters":0,"station_id":"","pricing_plan_id":"cebpf4jnsgd1na2vs0mg"},{"bike_id":"02302532-92bc-4ff1-b1c5-e5a3b27f308c","system_id":"levelo_inurba_marseille","lat":43.28616,"lon":5.35101,"is_reserved":false,"is_disabled":false,"rental_uris":{"android":"levelo://app?vid=02302532-92bc-4ff1-b1c5-e5a3b27f308c","ios":"levelo://app?vid=02302532-92bc-4ff1-b1c5-e5a3b27f308c"},"vehicle_type_id":"4","last_reported":1734113581,"current_range_meters":29600,"station_id":"ce4bhch2rcd13ifvqeug","pricing_plan_id":"cebpf4jnsgd1na2vs0mg"},{"bike_id":"3cffa040-7e8b-4d9e-a1bd-b8a78d782447","system_id":"levelo_inurba_marseille","lat":43.314905,"lon":5.373088,"is_reserved":false,"is_disabled":true,"rental_uris":{"android":"levelo://app?vid=3cffa040-7e8b-4d9e-a1bd-b8a78d782447","ios":"levelo://app?vid=3cffa040-7e8b-4d9e-a1bd-b8a78d782447"},"vehicle_type_id":"4","last_reported":1734113581,"current_range_meters":2800,"station_id":"","pricing_plan_id":"cebpf4jnsgd1na2vs0mg"},{"bike_id":"ad5cbd3d-7c9b-45b6-9e26-bf9ba9cfbc39","system_id":"levelo_inurba_marseille","lat":43.27999,"lon":5.40014,"is_reserved":false,"is_disabled":false,"rental_uris":{"android":"levelo://app?vid=ad5cbd3d-7c9b-45b6-9e26-bf9ba9cfbc39","ios":"levelo://app?vid=ad5cbd3d-7c9b-45b6-9e26-bf9ba9cfbc39"},"vehicle_type_id":"4","last_reported":1734113581,"current_range_meters":37600,"station_id":"ce4bho92rcd13ifvqh4g","pricing_plan_id":"cebpf4jnsgd1na2vs0mg"},{"bike_id":"e44d44c6-dcab-40ec-966f-064cdbc258c8","system_id":"levelo_inurba_marseille","lat":43.26959,"lon":5.40255,"is_reserved":false,"is_disabled":false,"rental_uris":{"android":"levelo://app?vid=e44d44c6-dcab-40ec-966f-064cdbc258c8","ios":"levelo://app?vid=e44d44c6-dcab-40ec-966f-064cdbc258c8"},"vehicle_type_id":"4","last_reported":1734113581,"current_range_meters":38800,"station_id":"cjm6bp8fraef2m0cb0m0","pricing_plan_id":"cebpf4jnsgd1na2vs0mg"},{"bike_id":"64203de9-e72b-4d66-9a84-7a315c7ed37f","system_id":"levelo_inurba_marseille","lat":43.29429,"lon":5.37432,"is_reserved":false,"is_disabled":true,"rental_uris":{"android":"levelo://app?vid=64203de9-e72b-4d66-9a84-7a315c7ed37f","ios":"levelo://app?vid=64203de9-e72b-4d66-9a84-7a315c7ed37f"},"vehicle_type_id":"4","last_reported":1734113581,"current_range_meters":0,"station_id":"","pricing_plan_id":"cebpf4jnsgd1na2vs0mg"},{"bike_id":"740147fe-4948-4d57-9128-44f00d707f6e","system_id":"levelo_inurba_marseille","lat":43.30884,"lon":5.37206,"is_reserved":false,"is_disabled":false,"rental_uris":{"android":"levelo://app?vid=740147fe-4948-4d57-9128-44f00d707f6e","ios":"levelo://app?vid=740147fe-4948-4d57-9128-44f00d707f6e"},"vehicle_type_id":"4","last_reported":1734113581,"current_range_meters":28800,"station_id":"ce4bguh2rcd13ifvqckg","pricing_plan_id":"cebpf4jnsgd1na2vs0mg"},{"bike_id":"76af30ab-27aa-4350-8972-f8a294ad6b70","system_id":"levelo_inurba_marseille","lat":43.33027,"lon":5.39042,"is_reserved":false,"is_disabled":false,"rental_uris":{"android":"levelo://app?vid=76af30ab-27aa-4350-8972-f8a294ad6b70","ios":"levelo://app?vid=76af30ab-27aa-4350-8972-f8a294ad6b70"},"vehicle_type_id":"4","last_reported":1734113581,"current_range_meters":38400,"station_id":"ce4bhr92rcd13ifvqhrg","pricing_plan_id":"cebpf4jnsgd1na2vs0mg"},{"bike_id":"38bf081e-5615-478e-a2a1-1bb6fe2b9efd","system_id":"levelo_inurba_marseille","lat":43.30894,"lon":5.37163,"is_reserved":false,"is_disabled":false,"rental_uris":{"android":"levelo://app?vid=38bf081e-5615-478e-a2a1-1bb6fe2b9efd","ios":"levelo://app?vid=38bf081e-5615-478e-a2a1-1bb6fe2b9efd"},"vehicle_type_id":"4","last_reported":1734113581,"current_range_meters":38800,"station_id":"ce4bguh2rcd13ifvqckg","pricing_plan_id":"cebpf4jnsgd1na2vs0mg"},{"bike_id":"5c23befe-e7d4-4dee-ac43-14eb04f945cb","system_id":"levelo_inurba_marseille","lat":43.24893,"lon":5.40702,"is_reserved":false,"is_disabled":false,"rental_uris":{"android":"levelo://app?vid=5c23befe-e7d4-4dee-ac43-14eb04f945cb","ios":"levelo://app?vid=5c23befe-e7d4-4dee-ac43-14eb04f945cb"},"vehicle_type_id":"4","last_reported":1734113581,"current_range_meters":8800,"station_id":"","pricing_plan_id":"cebpf4jnsgd1na2vs0mg"},{"bike_id":"83697503-ebb6-4133-8865-690e94a16a9b","system_id":"levelo_inurba_marseille","lat":43.2419,"lon":5.39726,"is_reserved":false,"is_disabled":false,"rental_uris":{"android":"levelo://app?vid=83697503-ebb6-4133-8865-690e94a16a9b","ios":"levelo://app?vid=83697503-ebb6-4133-8865-690e94a16a9b"},"vehicle_type_id":"4","last_reported":1734113581,"current_range_meters":38800,"station_id":"ce4bhn12rcd13ifvqgpg","pricing_plan_id":"cebpf4jnsgd1na2vs0mg"},{"bike_id":"c419c4d0-8cc8-4724-811b-8ed9e704565e","system_id":"levelo_inurba_marseille","lat":43.309,"lon":5.36845,"is_reserved":false,"is_disabled":false,"rental_uris":{"android":"levelo://app?vid=c419c4d0-8cc8-4724-811b-8ed9e704565e","ios":"levelo://app?vid=c419c4d0-8cc8-4724-811b-8ed9e704565e"},"vehicle_type_id":"4","last_reported":1734113581,"current_range_meters":29600,"station_id":"ce4bgn92rcd13ifvqbvg","pricing_plan_id":"cebpf4jnsgd1na2vs0mg"},{"bike_id":"8e7403d1-6744-40cb-81a2-b0614a09f5ff","system_id":"levelo_inurba_marseille","lat":43.30791,"lon":5.38152,"is_reserved":false,"is_disabled":false,"rental_uris":{"android":"levelo://app?vid=8e7403d1-6744-40cb-81a2-b0614a09f5ff","ios":"levelo://app?vid=8e7403d1-6744-40cb-81a2-b0614a09f5ff"},"vehicle_type_id":"4","last_reported":1734113581,"current_range_meters":14800,"station_id":"ce4bgt12rcd13ifvqce0","pricing_plan_id":"cebpf4jnsgd1na2vs0mg"},{"bike_id":"2bead35c-7957-47fc-ad42-279d34b99a03","system_id":"levelo_inurba_marseille","lat":43.29268,"lon":5.38435,"is_reserved":false,"is_disabled":false,"rental_uris":{"android":"levelo://app?vid=2bead35c-7957-47fc-ad42-279d34b99a03","ios":"levelo://app?vid=2bead35c-7957-47fc-ad42-279d34b99a03"},"vehicle_type_id":"4","last_reported":1734113581,"current_range_meters":30400,"station_id":"ce4bh692rcd13ifvqea0","pricing_plan_id":"cebpf4jnsgd1na2vs0mg"},{"bike_id":"b948092c-9ab4-45a3-af33-669f10a0ca1c","system_id":"levelo_inurba_marseille","lat":43.24803,"lon":5.37454,"is_reserved":false,"is_disabled":false,"rental_uris":{"android":"levelo://app?vid=b948092c-9ab4-45a3-af33-669f10a0ca1c","ios":"levelo://app?vid=b948092c-9ab4-45a3-af33-669f10a0ca1c"},"vehicle_type_id":"4","last_reported":1734113581,"current_range_meters":36000,"station_id":"ce4bhgh2rcd13ifvqfb0","pricing_plan_id":"cebpf4jnsgd1na2vs0mg"},{"bike_id":"34e4619a-c0b1-431b-9d78-b8dd63c0c3a3","system_id":"levelo_inurba_marseille","lat":43.30805,"lon":5.38148,"is_reserved":false,"is_disabled":true,"rental_uris":{"android":"levelo://app?vid=34e4619a-c0b1-431b-9d78-b8dd63c0c3a3","ios":"levelo://app?vid=34e4619a-c0b1-431b-9d78-b8dd63c0c3a3"},"vehicle_type_id":"4","last_reported":1734113581,"current_range_meters":26800,"station_id":"ce4bgt12rcd13ifvqce0","pricing_plan_id":"cebpf4jnsgd1na2vs0mg"},{"bike_id":"f118420b-acb3-404b-a762-24d15f1ffc92","system_id":"levelo_inurba_marseille","lat":43.30327,"lon":5.4044,"is_reserved":false,"is_disabled":false,"rental_uris":{"android":"levelo://app?vid=f118420b-acb3-404b-a762-24d15f1ffc92","ios":"levelo://app?vid=f118420b-acb3-404b-a762-24d15f1ffc92"},"vehicle_type_id":"4","last_reported":1734113581,"current_range_meters":30400,"station_id":"ce4bh012rcd13ifvqd10","pricing_plan_id":"cebpf4jnsgd1na2vs0mg"},{"bike_id":"ea3a129b-5e50-420a-a0fa-ad83cdecba8f","system_id":"levelo_inurba_marseille","lat":43.2904,"lon":5.35899,"is_reserved":false,"is_disabled":false,"rental_uris":{"android":"levelo://app?vid=ea3a129b-5e50-420a-a0fa-ad83cdecba8f","ios":"levelo://app?vid=ea3a129b-5e50-420a-a0fa-ad83cdecba8f"},"vehicle_type_id":"4","last_reported":1734113581,"current_range_meters":33200,"station_id":"ce4bha92rcd13ifvqeg0","pricing_plan_id":"cebpf4jnsgd1na2vs0mg"},{"bike_id":"e0a31c9a-be2e-435b-b95c-7118ac48c310","system_id":"levelo_inurba_marseille","lat":43.32292,"lon":5.38278,"is_reserved":false,"is_disabled":false,"rental_uris":{"android":"levelo://app?vid=e0a31c9a-be2e-435b-b95c-7118ac48c310","ios":"levelo://app?vid=e0a31c9a-be2e-435b-b95c-7118ac48c310"},"vehicle_type_id":"4","last_reported":1734113581,"current_range_meters":8400,"station_id":"ce4bhr12rcd13ifvqhqg","pricing_plan_id":"cebpf4jnsgd1na2vs0mg"},{"bike_id":"5d0b7fa3-d2ba-4083-920b-ad665835dd81","system_id":"levelo_inurba_marseille","lat":43.298008,"lon":5.381135,"is_reserved":false,"is_disabled":false,"rental_uris":{"android":"levelo://app?vid=5d0b7fa3-d2ba-4083-920b-ad665835dd81","ios":"levelo://app?vid=5d0b7fa3-d2ba-4083-920b-ad665835dd81"},"vehicle_type_id":"4","last_reported":1734113581,"current_range_meters":36000,"station_id":"ce4bgip2rcd13ifvqbb0","pricing_plan_id":"cebpf4jnsgd1na2vs0mg"},{"bike_id":"818ef841-d8c0-4c92-9c0c-4a12654cda95","system_id":"levelo_inurba_marseille","lat":43.30562,"lon":5.37207,"is_reserved":false,"is_disabled":false,"rental_uris":{"android":"levelo://app?vid=818ef841-d8c0-4c92-9c0c-4a12654cda95","ios":"levelo://app?vid=818ef841-d8c0-4c92-9c0c-4a12654cda95"},"vehicle_type_id":"4","last_reported":1734113581,"current_range_meters":28400,"station_id":"","pricing_plan_id":"cebpf4jnsgd1na2vs0mg"},{"bike_id":"de78bc13-10a3-4ec7-bfa0-2b3d5fb981eb","system_id":"levelo_inurba_marseille","lat":43.31798,"lon":5.38043,"is_reserved":false,"is_disabled":false,"rental_uris":{"android":"levelo://app?vid=de78bc13-10a3-4ec7-bfa0-2b3d5fb981eb","ios":"levelo://app?vid=de78bc13-10a3-4ec7-bfa0-2b3d5fb981eb"},"vehicle_type_id":"4","last_reported":1734113581,"current_range_meters":38000,"station_id":"","pricing_plan_id":"cebpf4jnsgd1na2vs0mg"},{"bike_id":"24047a4d-8925-410b-b746-8b424d09c92a","system_id":"levelo_inurba_marseille","lat":43.24805,"lon":5.37456,"is_reserved":false,"is_disabled":false,"rental_uris":{"android":"levelo://app?vid=24047a4d-8925-410b-b746-8b424d09c92a","ios":"levelo://app?vid=24047a4d-8925-410b-b746-8b424d09c92a"},"vehicle_type_id":"4","last_reported":1734113581,"current_range_meters":38800,"station_id":"ce4bhgh2rcd13ifvqfb0","pricing_plan_id":"cebpf4jnsgd1na2vs0mg"},{"bike_id":"c24f816f-c9fc-4840-b062-64fdf0db40bd","system_id":"levelo_inurba_marseille","lat":43.29568,"lon":5.37526,"is_reserved":false,"is_disabled":false,"rental_uris":{"android":"levelo://app?vid=c24f816f-c9fc-4840-b062-64fdf0db40bd","ios":"levelo://app?vid=c24f816f-c9fc-4840-b062-64fdf0db40bd"},"vehicle_type_id":"4","last_reported":1734113581,"current_range_meters":38400,"station_id":"ce4bgv92rcd13ifvqcq0","pricing_plan_id":"cebpf4jnsgd1na2vs0mg"},{"bike_id":"57ccc37f-ef58-45d5-bfeb-d05efcd82975","system_id":"levelo_inurba_marseille","lat":43.28701,"lon":5.37396,"is_reserved":false,"is_disabled":false,"rental_uris":{"android":"levelo://app?vid=57ccc37f-ef58-45d5-bfeb-d05efcd82975","ios":"levelo://app?vid=57ccc37f-ef58-45d5-bfeb-d05efcd82975"},"vehicle_type_id":"4","last_reported":1734113581,"current_range_meters":19600,"station_id":"ce4bh3p2rcd13ifvqdq0","pricing_plan_id":"cebpf4jnsgd1na2vs0mg"},{"bike_id":"ccc9e736-395b-4466-94dc-6a787309142a","system_id":"levelo_inurba_marseille","lat":43.31438,"lon":5.37544,"is_reserved":false,"is_disabled":false,"rental_uris":{"android":"levelo://app?vid=ccc9e736-395b-4466-94dc-6a787309142a","ios":"levelo://app?vid=ccc9e736-395b-4466-94dc-6a787309142a"},"vehicle_type_id":"4","last_reported":1734113581,"current_range_meters":38800,"station_id":"","pricing_plan_id":"cebpf4jnsgd1na2vs0mg"},{"bike_id":"1e267932-f6c6-4991-9c6b-8abf107c1a22","system_id":"levelo_inurba_marseille","lat":43.32293,"lon":5.38247,"is_reserved":false,"is_disabled":false,"rental_uris":{"android":"levelo://app?vid=1e267932-f6c6-4991-9c6b-8abf107c1a22","ios":"levelo://app?vid=1e267932-f6c6-4991-9c6b-8abf107c1a22"},"vehicle_type_id":"4","last_reported":1734113581,"current_range_meters":38800,"station_id":"ce4bhr12rcd13ifvqhqg","pricing_plan_id":"cebpf4jnsgd1na2vs0mg"},{"bike_id":"2e6efb07-e4e4-4e9b-9af7-17b57b90ab5b","system_id":"levelo_inurba_marseille","lat":43.27947,"lon":5.41037,"is_reserved":false,"is_disabled":true,"rental_uris":{"android":"levelo://app?vid=2e6efb07-e4e4-4e9b-9af7-17b57b90ab5b","ios":"levelo://app?vid=2e6efb07-e4e4-4e9b-9af7-17b57b90ab5b"},"vehicle_type_id":"4","last_reported":1734113581,"current_range_meters":1600,"station_id":"ce4bhnp2rcd13ifvqh0g","pricing_plan_id":"cebpf4jnsgd1na2vs0mg"},{"bike_id":"265a59a5-1f8b-40cd-bb56-038ad2f60a5d","system_id":"levelo_inurba_marseille","lat":43.29065,"lon":5.39987,"is_reserved":false,"is_disabled":true,"rental_uris":{"android":"levelo://app?vid=265a59a5-1f8b-40cd-bb56-038ad2f60a5d","ios":"levelo://app?vid=265a59a5-1f8b-40cd-bb56-038ad2f60a5d"},"vehicle_type_id":"4","last_reported":1734113581,"current_range_meters":37600,"station_id":"ce4bh392rcd13ifvqdm0","pricing_plan_id":"cebpf4jnsgd1na2vs0mg"},{"bike_id":"1f8df251-c5a6-4258-b15b-89cf161eb63a","system_id":"levelo_inurba_marseille","lat":43.26033,"lon":5.37543,"is_reserved":false,"is_disabled":false,"rental_uris":{"android":"levelo://app?vid=1f8df251-c5a6-4258-b15b-89cf161eb63a","ios":"levelo://app?vid=1f8df251-c5a6-4258-b15b-89cf161eb63a"},"vehicle_type_id":"4","last_reported":1734113581,"current_range_meters":24800,"station_id":"","pricing_plan_id":"cebpf4jnsgd1na2vs0mg"},{"bike_id":"6bc7401a-ad66-4e4d-bfd6-a954bc5b40c0","system_id":"levelo_inurba_marseille","lat":43.337527,"lon":5.37441,"is_reserved":false,"is_disabled":false,"rental_uris":{"android":"levelo://app?vid=6bc7401a-ad66-4e4d-bfd6-a954bc5b40c0","ios":"levelo://app?vid=6bc7401a-ad66-4e4d-bfd6-a954bc5b40c0"},"vehicle_type_id":"4","last_reported":1734113581,"current_range_meters":28800,"station_id":"","pricing_plan_id":"cebpf4jnsgd1na2vs0mg"},{"bike_id":"991b029a-5940-49a6-8946-5558e963add0","system_id":"levelo_inurba_marseille","lat":43.289515,"lon":5.364055,"is_reserved":false,"is_disabled":false,"rental_uris":{"android":"levelo://app?vid=991b029a-5940-49a6-8946-5558e963add0","ios":"levelo://app?vid=991b029a-5940-49a6-8946-5558e963add0"},"vehicle_type_id":"4","last_reported":1734113581,"current_range_meters":28000,"station_id":"ce4bhc92rcd13ifvqetg","pricing_plan_id":"cebpf4jnsgd1na2vs0mg"},{"bike_id":"28fc90b9-3e7b-4c11-b6c2-40d95902dadd","system_id":"levelo_inurba_marseille","lat":43.22926,"lon":5.35379,"is_reserved":false,"is_disabled":false,"rental_uris":{"android":"levelo://app?vid=28fc90b9-3e7b-4c11-b6c2-40d95902dadd","ios":"levelo://app?vid=28fc90b9-3e7b-4c11-b6c2-40d95902dadd"},"vehicle_type_id":"4","last_reported":1734113581,"current_range_meters":38800,"station_id":"cpo3532slgdg3j2ikp40","pricing_plan_id":"cebpf4jnsgd1na2vs0mg"},{"bike_id":"1131c68d-eee9-4741-9120-9a723a995ed5","system_id":"levelo_inurba_marseille","lat":43.27814,"lon":5.40704,"is_reserved":false,"is_disabled":false,"rental_uris":{"android":"levelo://app?vid=1131c68d-eee9-4741-9120-9a723a995ed5","ios":"levelo://app?vid=1131c68d-eee9-4741-9120-9a723a995ed5"},"vehicle_type_id":"4","last_reported":1734113581,"current_range_meters":34800,"station_id":"ce4bhnh2rcd13ifvqgtg","pricing_plan_id":"cebpf4jnsgd1na2vs0mg"},{"bike_id":"88c224c3-4417-4097-9569-aff34514e470","system_id":"levelo_inurba_marseille","lat":43.29021,"lon":5.38642,"is_reserved":false,"is_disabled":false,"rental_uris":{"android":"levelo://app?vid=88c224c3-4417-4097-9569-aff34514e470","ios":"levelo://app?vid=88c224c3-4417-4097-9569-aff34514e470"},"vehicle_type_id":"4","last_reported":1734113581,"current_range_meters":38800,"station_id":"ce4bh4p2rcd13ifvqe0g","pricing_plan_id":"cebpf4jnsgd1na2vs0mg"},{"bike_id":"eb1496f4-67ed-47fd-8660-60023378367f","system_id":"levelo_inurba_marseille","lat":43.294212,"lon":5.374322,"is_reserved":false,"is_disabled":true,"rental_uris":{"android":"levelo://app?vid=eb1496f4-67ed-47fd-8660-60023378367f","ios":"levelo://app?vid=eb1496f4-67ed-47fd-8660-60023378367f"},"vehicle_type_id":"4","last_reported":1734113581,"current_range_meters":0,"station_id":"","pricing_plan_id":"cebpf4jnsgd1na2vs0mg"},{"bike_id":"edd07c02-9936-4457-bd98-063c892656f8","system_id":"levelo_inurba_marseille","lat":43.31034,"lon":5.37469,"is_reserved":false,"is_disabled":false,"rental_uris":{"android":"levelo://app?vid=edd07c02-9936-4457-bd98-063c892656f8","ios":"levelo://app?vid=edd07c02-9936-4457-bd98-063c892656f8"},"vehicle_type_id":"4","last_reported":1734113581,"current_range_meters":8400,"station_id":"","pricing_plan_id":"cebpf4jnsgd1na2vs0mg"},{"bike_id":"94ca721b-6f42-4a27-ab01-f33af979e5fb","system_id":"levelo_inurba_marseille","lat":43.29271,"lon":5.38439,"is_reserved":false,"is_disabled":false,"rental_uris":{"android":"levelo://app?vid=94ca721b-6f42-4a27-ab01-f33af979e5fb","ios":"levelo://app?vid=94ca721b-6f42-4a27-ab01-f33af979e5fb"},"vehicle_type_id":"4","last_reported":1734113581,"current_range_meters":23200,"station_id":"ce4bh692rcd13ifvqea0","pricing_plan_id":"cebpf4jnsgd1na2vs0mg"},{"bike_id":"fa05fbb3-1040-4abd-96f5-86980b9495bb","system_id":"levelo_inurba_marseille","lat":43.29712,"lon":5.3661,"is_reserved":false,"is_disabled":false,"rental_uris":{"android":"levelo://app?vid=fa05fbb3-1040-4abd-96f5-86980b9495bb","ios":"levelo://app?vid=fa05fbb3-1040-4abd-96f5-86980b9495bb"},"vehicle_type_id":"4","last_reported":1734113581,"current_range_meters":13600,"station_id":"ce4bgn12rcd13ifvqbt0","pricing_plan_id":"cebpf4jnsgd1na2vs0mg"},{"bike_id":"a2e3bf37-f1e5-4b35-adeb-0da3e0fe69d3","system_id":"levelo_inurba_marseille","lat":43.286287,"lon":5.38609,"is_reserved":false,"is_disabled":true,"rental_uris":{"android":"levelo://app?vid=a2e3bf37-f1e5-4b35-adeb-0da3e0fe69d3","ios":"levelo://app?vid=a2e3bf37-f1e5-4b35-adeb-0da3e0fe69d3"},"vehicle_type_id":"4","last_reported":1734113581,"current_range_meters":0,"station_id":"","pricing_plan_id":"cebpf4jnsgd1na2vs0mg"},{"bike_id":"1804d669-4e79-4bea-adac-987470dfbd18","system_id":"levelo_inurba_marseille","lat":43.31329,"lon":5.39689,"is_reserved":false,"is_disabled":false,"rental_uris":{"android":"levelo://app?vid=1804d669-4e79-4bea-adac-987470dfbd18","ios":"levelo://app?vid=1804d669-4e79-4bea-adac-987470dfbd18"},"vehicle_type_id":"4","last_reported":1734113581,"current_range_meters":8000,"station_id":"ce4bgvp2rcd13ifvqcu0","pricing_plan_id":"cebpf4jnsgd1na2vs0mg"},{"bike_id":"2277d411-9e3e-4756-b80f-b3eaf21c4c99","system_id":"levelo_inurba_marseille","lat":43.26676,"lon":5.38264,"is_reserved":false,"is_disabled":false,"rental_uris":{"android":"levelo://app?vid=2277d411-9e3e-4756-b80f-b3eaf21c4c99","ios":"levelo://app?vid=2277d411-9e3e-4756-b80f-b3eaf21c4c99"},"vehicle_type_id":"4","last_reported":1734113581,"current_range_meters":24000,"station_id":"ce4bhg92rcd13ifvqf90","pricing_plan_id":"cebpf4jnsgd1na2vs0mg"},{"bike_id":"8ec5fdd0-428d-4ad5-a792-fb065e6471a6","system_id":"levelo_inurba_marseille","lat":43.29413,"lon":5.38602,"is_reserved":false,"is_disabled":false,"rental_uris":{"android":"levelo://app?vid=8ec5fdd0-428d-4ad5-a792-fb065e6471a6","ios":"levelo://app?vid=8ec5fdd0-428d-4ad5-a792-fb065e6471a6"},"vehicle_type_id":"4","last_reported":1734113581,"current_range_meters":36000,"station_id":"ce4bh2h2rcd13ifvqdh0","pricing_plan_id":"cebpf4jnsgd1na2vs0mg"},{"bike_id":"173df24d-b21a-4c61-b590-7cc698caeb0c","system_id":"levelo_inurba_marseille","lat":43.27997,"lon":5.40018,"is_reserved":false,"is_disabled":false,"rental_uris":{"android":"levelo://app?vid=173df24d-b21a-4c61-b590-7cc698caeb0c","ios":"levelo://app?vid=173df24d-b21a-4c61-b590-7cc698caeb0c"},"vehicle_type_id":"4","last_reported":1734113581,"current_range_meters":38000,"station_id":"ce4bho92rcd13ifvqh4g","pricing_plan_id":"cebpf4jnsgd1na2vs0mg"},{"bike_id":"ec927667-9164-479a-b446-395f55c955bb","system_id":"levelo_inurba_marseille","lat":43.22924,"lon":5.35383,"is_reserved":false,"is_disabled":false,"rental_uris":{"android":"levelo://app?vid=ec927667-9164-479a-b446-395f55c955bb","ios":"levelo://app?vid=ec927667-9164-479a-b446-395f55c955bb"},"vehicle_type_id":"4","last_reported":1734113581,"current_range_meters":38000,"station_id":"cpo3532slgdg3j2ikp40","pricing_plan_id":"cebpf4jnsgd1na2vs0mg"},{"bike_id":"04dfa3c2-3046-4962-b4fb-e63497e1871e","system_id":"levelo_inurba_marseille","lat":43.3302,"lon":5.3904,"is_reserved":false,"is_disabled":false,"rental_uris":{"android":"levelo://app?vid=04dfa3c2-3046-4962-b4fb-e63497e1871e","ios":"levelo://app?vid=04dfa3c2-3046-4962-b4fb-e63497e1871e"},"vehicle_type_id":"4","last_reported":1734113581,"current_range_meters":31200,"station_id":"ce4bhr92rcd13ifvqhrg","pricing_plan_id":"cebpf4jnsgd1na2vs0mg"},{"bike_id":"e82e2801-95fb-4f32-869a-194467e17065","system_id":"levelo_inurba_marseille","lat":43.26925,"lon":5.40263,"is_reserved":false,"is_disabled":false,"rental_uris":{"android":"levelo://app?vid=e82e2801-95fb-4f32-869a-194467e17065","ios":"levelo://app?vid=e82e2801-95fb-4f32-869a-194467e17065"},"vehicle_type_id":"4","last_reported":1734113581,"current_range_meters":10800,"station_id":"cjm6bp8fraef2m0cb0m0","pricing_plan_id":"cebpf4jnsgd1na2vs0mg"},{"bike_id":"e74372ac-2a6c-47ae-afc7-e1b4e1c3d13f","system_id":"levelo_inurba_marseille","lat":43.23083,"lon":5.35487,"is_reserved":false,"is_disabled":false,"rental_uris":{"android":"levelo://app?vid=e74372ac-2a6c-47ae-afc7-e1b4e1c3d13f","ios":"levelo://app?vid=e74372ac-2a6c-47ae-afc7-e1b4e1c3d13f"},"vehicle_type_id":"4","last_reported":1734113581,"current_range_meters":38800,"station_id":"cpo3342slgdg3j2ifvpg","pricing_plan_id":"cebpf4jnsgd1na2vs0mg"},{"bike_id":"e193ef0e-e328-415a-a8ad-7b8f709bf396","system_id":"levelo_inurba_marseille","lat":43.28491,"lon":5.37904,"is_reserved":false,"is_disabled":true,"rental_uris":{"android":"levelo://app?vid=e193ef0e-e328-415a-a8ad-7b8f709bf396","ios":"levelo://app?vid=e193ef0e-e328-415a-a8ad-7b8f709bf396"},"vehicle_type_id":"4","last_reported":1734113581,"current_range_meters":24000,"station_id":"","pricing_plan_id":"cebpf4jnsgd1na2vs0mg"},{"bike_id":"9a6269d5-83ea-4140-ab37-1fa12f16bd71","system_id":"levelo_inurba_marseille","lat":43.31761,"lon":5.39014,"is_reserved":false,"is_disabled":false,"rental_uris":{"android":"levelo://app?vid=9a6269d5-83ea-4140-ab37-1fa12f16bd71","ios":"levelo://app?vid=9a6269d5-83ea-4140-ab37-1fa12f16bd71"},"vehicle_type_id":"4","last_reported":1734113581,"current_range_meters":35600,"station_id":"ce4bhqp2rcd13ifvqhng","pricing_plan_id":"cebpf4jnsgd1na2vs0mg"},{"bike_id":"fbc9f13f-022b-4af0-90a8-6756e4d52be1","system_id":"levelo_inurba_marseille","lat":43.31126,"lon":5.37752,"is_reserved":false,"is_disabled":false,"rental_uris":{"android":"levelo://app?vid=fbc9f13f-022b-4af0-90a8-6756e4d52be1","ios":"levelo://app?vid=fbc9f13f-022b-4af0-90a8-6756e4d52be1"},"vehicle_type_id":"4","last_reported":1734113581,"current_range_meters":38800,"station_id":"ce4bgt92rcd13ifvqcg0","pricing_plan_id":"cebpf4jnsgd1na2vs0mg"},{"bike_id":"f4cd03ef-49e6-4579-9c95-12ecbcaa32c0","system_id":"levelo_inurba_marseille","lat":43.31328,"lon":5.39695,"is_reserved":false,"is_disabled":false,"rental_uris":{"android":"levelo://app?vid=f4cd03ef-49e6-4579-9c95-12ecbcaa32c0","ios":"levelo://app?vid=f4cd03ef-49e6-4579-9c95-12ecbcaa32c0"},"vehicle_type_id":"4","last_reported":1734113581,"current_range_meters":10000,"station_id":"ce4bgvp2rcd13ifvqcu0","pricing_plan_id":"cebpf4jnsgd1na2vs0mg"},{"bike_id":"7f5f2b51-6dba-4bb6-90d5-a5cf04cc5c90","system_id":"levelo_inurba_marseille","lat":43.24648,"lon":5.38895,"is_reserved":false,"is_disabled":false,"rental_uris":{"android":"levelo://app?vid=7f5f2b51-6dba-4bb6-90d5-a5cf04cc5c90","ios":"levelo://app?vid=7f5f2b51-6dba-4bb6-90d5-a5cf04cc5c90"},"vehicle_type_id":"4","last_reported":1734113581,"current_range_meters":28400,"station_id":"ce4bhg12rcd13ifvqf60","pricing_plan_id":"cebpf4jnsgd1na2vs0mg"},{"bike_id":"cd3caf24-f4e9-4c70-abdb-4a79bd979db2","system_id":"levelo_inurba_marseille","lat":43.28462,"lon":5.35889,"is_reserved":false,"is_disabled":false,"rental_uris":{"android":"levelo://app?vid=cd3caf24-f4e9-4c70-abdb-4a79bd979db2","ios":"levelo://app?vid=cd3caf24-f4e9-4c70-abdb-4a79bd979db2"},"vehicle_type_id":"4","last_reported":1734113581,"current_range_meters":37600,"station_id":"ce4bhah2rcd13ifvqei0","pricing_plan_id":"cebpf4jnsgd1na2vs0mg"},{"bike_id":"5a1c9f6c-266c-4fec-baab-84474184d04a","system_id":"levelo_inurba_marseille","lat":43.31684,"lon":5.40469,"is_reserved":false,"is_disabled":false,"rental_uris":{"android":"levelo://app?vid=5a1c9f6c-266c-4fec-baab-84474184d04a","ios":"levelo://app?vid=5a1c9f6c-266c-4fec-baab-84474184d04a"},"vehicle_type_id":"4","last_reported":1734113581,"current_range_meters":31200,"station_id":"ce4bh012rcd13ifvqd00","pricing_plan_id":"cebpf4jnsgd1na2vs0mg"},{"bike_id":"48a81d22-f775-439d-8b0a-332e82d4bb65","system_id":"levelo_inurba_marseille","lat":43.2558,"lon":5.38234,"is_reserved":false,"is_disabled":false,"rental_uris":{"android":"levelo://app?vid=48a81d22-f775-439d-8b0a-332e82d4bb65","ios":"levelo://app?vid=48a81d22-f775-439d-8b0a-332e82d4bb65"},"vehicle_type_id":"4","last_reported":1734113581,"current_range_meters":20800,"station_id":"ce4bhih2rcd13ifvqfs0","pricing_plan_id":"cebpf4jnsgd1na2vs0mg"},{"bike_id":"2553a515-a79b-45c8-ae2d-5ee9c0dc841e","system_id":"levelo_inurba_marseille","lat":43.29097,"lon":5.3814,"is_reserved":false,"is_disabled":false,"rental_uris":{"android":"levelo://app?vid=2553a515-a79b-45c8-ae2d-5ee9c0dc841e","ios":"levelo://app?vid=2553a515-a79b-45c8-ae2d-5ee9c0dc841e"},"vehicle_type_id":"4","last_reported":1734113581,"current_range_meters":9600,"station_id":"ce4bh512rcd13ifvqe2g","pricing_plan_id":"cebpf4jnsgd1na2vs0mg"},{"bike_id":"f43b60c0-f88c-4e14-af84-90e9e26b07b0","system_id":"levelo_inurba_marseille","lat":43.31346,"lon":5.37266,"is_reserved":false,"is_disabled":false,"rental_uris":{"android":"levelo://app?vid=f43b60c0-f88c-4e14-af84-90e9e26b07b0","ios":"levelo://app?vid=f43b60c0-f88c-4e14-af84-90e9e26b07b0"},"vehicle_type_id":"4","last_reported":1734113581,"current_range_meters":9600,"station_id":"","pricing_plan_id":"cebpf4jnsgd1na2vs0mg"},{"bike_id":"bde168cb-e40d-4d30-9ebd-9cecf4a5254f","system_id":"levelo_inurba_marseille","lat":43.28845,"lon":5.35822,"is_reserved":false,"is_disabled":false,"rental_uris":{"android":"levelo://app?vid=bde168cb-e40d-4d30-9ebd-9cecf4a5254f","ios":"levelo://app?vid=bde168cb-e40d-4d30-9ebd-9cecf4a5254f"},"vehicle_type_id":"4","last_reported":1734113581,"current_range_meters":38800,"station_id":"ce4bhb12rcd13ifvqem0","pricing_plan_id":"cebpf4jnsgd1na2vs0mg"},{"bike_id":"88fde150-0952-410f-a018-ff6f6e670bb8","system_id":"levelo_inurba_marseille","lat":43.30521,"lon":5.38068,"is_reserved":false,"is_disabled":false,"rental_uris":{"android":"levelo://app?vid=88fde150-0952-410f-a018-ff6f6e670bb8","ios":"levelo://app?vid=88fde150-0952-410f-a018-ff6f6e670bb8"},"vehicle_type_id":"4","last_reported":1734113581,"current_range_meters":20400,"station_id":"","pricing_plan_id":"cebpf4jnsgd1na2vs0mg"},{"bike_id":"5584f6c4-cd15-45bb-976a-51430232b179","system_id":"levelo_inurba_marseille","lat":43.31337,"lon":5.40222,"is_reserved":false,"is_disabled":true,"rental_uris":{"android":"levelo://app?vid=5584f6c4-cd15-45bb-976a-51430232b179","ios":"levelo://app?vid=5584f6c4-cd15-45bb-976a-51430232b179"},"vehicle_type_id":"4","last_reported":1734113581,"current_range_meters":0,"station_id":"ce4bh092rcd13ifvqd30","pricing_plan_id":"cebpf4jnsgd1na2vs0mg"},{"bike_id":"fbc7e8ef-a1a7-4bf7-b94c-b7c2f6725445","system_id":"levelo_inurba_marseille","lat":43.31332,"lon":5.3969,"is_reserved":false,"is_disabled":false,"rental_uris":{"android":"levelo://app?vid=fbc7e8ef-a1a7-4bf7-b94c-b7c2f6725445","ios":"levelo://app?vid=fbc7e8ef-a1a7-4bf7-b94c-b7c2f6725445"},"vehicle_type_id":"4","last_reported":1734113581,"current_range_meters":25200,"station_id":"ce4bgvp2rcd13ifvqcu0","pricing_plan_id":"cebpf4jnsgd1na2vs0mg"},{"bike_id":"fc968cf6-07d5-44d4-b0f3-9d9a2519f292","system_id":"levelo_inurba_marseille","lat":43.28703,"lon":5.37396,"is_reserved":false,"is_disabled":true,"rental_uris":{"android":"levelo://app?vid=fc968cf6-07d5-44d4-b0f3-9d9a2519f292","ios":"levelo://app?vid=fc968cf6-07d5-44d4-b0f3-9d9a2519f292"},"vehicle_type_id":"4","last_reported":1734113581,"current_range_meters":0,"station_id":"ce4bh3p2rcd13ifvqdq0","pricing_plan_id":"cebpf4jnsgd1na2vs0mg"},{"bike_id":"ff11cab6-bfdf-438d-b6c2-0fe6748a1489","system_id":"levelo_inurba_marseille","lat":43.29031,"lon":5.35926,"is_reserved":false,"is_disabled":false,"rental_uris":{"android":"levelo://app?vid=ff11cab6-bfdf-438d-b6c2-0fe6748a1489","ios":"levelo://app?vid=ff11cab6-bfdf-438d-b6c2-0fe6748a1489"},"vehicle_type_id":"4","last_reported":1734113581,"current_range_meters":9200,"station_id":"ce4bha92rcd13ifvqeg0","pricing_plan_id":"cebpf4jnsgd1na2vs0mg"},{"bike_id":"002069da-d74c-4e41-ae54-1da711c0eed6","system_id":"levelo_inurba_marseille","lat":43.28602,"lon":5.41292,"is_reserved":false,"is_disabled":true,"rental_uris":{"android":"levelo://app?vid=002069da-d74c-4e41-ae54-1da711c0eed6","ios":"levelo://app?vid=002069da-d74c-4e41-ae54-1da711c0eed6"},"vehicle_type_id":"4","last_reported":1734113581,"current_range_meters":0,"station_id":"","pricing_plan_id":"cebpf4jnsgd1na2vs0mg"},{"bike_id":"75506391-a12b-4ce2-997a-eff08551addc","system_id":"levelo_inurba_marseille","lat":43.23063,"lon":5.35474,"is_reserved":false,"is_disabled":false,"rental_uris":{"android":"levelo://app?vid=75506391-a12b-4ce2-997a-eff08551addc","ios":"levelo://app?vid=75506391-a12b-4ce2-997a-eff08551addc"},"vehicle_type_id":"4","last_reported":1734113581,"current_range_meters":38800,"station_id":"cpo3342slgdg3j2ifvpg","pricing_plan_id":"cebpf4jnsgd1na2vs0mg"},{"bike_id":"b36b2261-da69-431d-9b33-acd79635b8c1","system_id":"levelo_inurba_marseille","lat":43.25586,"lon":5.38223,"is_reserved":false,"is_disabled":false,"rental_uris":{"android":"levelo://app?vid=b36b2261-da69-431d-9b33-acd79635b8c1","ios":"levelo://app?vid=b36b2261-da69-431d-9b33-acd79635b8c1"},"vehicle_type_id":"4","last_reported":1734113581,"current_range_meters":36800,"station_id":"ce4bhih2rcd13ifvqfs0","pricing_plan_id":"cebpf4jnsgd1na2vs0mg"},{"bike_id":"0dc53ed0-703c-41c7-a7ba-e5fe121ea6cc","system_id":"levelo_inurba_marseille","lat":43.28931,"lon":5.37882,"is_reserved":false,"is_disabled":false,"rental_uris":{"android":"levelo://app?vid=0dc53ed0-703c-41c7-a7ba-e5fe121ea6cc","ios":"levelo://app?vid=0dc53ed0-703c-41c7-a7ba-e5fe121ea6cc"},"vehicle_type_id":"4","last_reported":1734113581,"current_range_meters":32800,"station_id":"","pricing_plan_id":"cebpf4jnsgd1na2vs0mg"},{"bike_id":"1e09aea1-6592-4606-838e-01c5295332d1","system_id":"levelo_inurba_marseille","lat":43.32667,"lon":5.40981,"is_reserved":false,"is_disabled":true,"rental_uris":{"android":"levelo://app?vid=1e09aea1-6592-4606-838e-01c5295332d1","ios":"levelo://app?vid=1e09aea1-6592-4606-838e-01c5295332d1"},"vehicle_type_id":"4","last_reported":1734113581,"current_range_meters":32400,"station_id":"ce4bhpp2rcd13ifvqhgg","pricing_plan_id":"cebpf4jnsgd1na2vs0mg"},{"bike_id":"f0688521-339d-4b11-98b4-8b413dfcdc75","system_id":"levelo_inurba_marseille","lat":43.30236,"lon":5.40057,"is_reserved":false,"is_disabled":true,"rental_uris":{"android":"levelo://app?vid=f0688521-339d-4b11-98b4-8b413dfcdc75","ios":"levelo://app?vid=f0688521-339d-4b11-98b4-8b413dfcdc75"},"vehicle_type_id":"4","last_reported":1734113581,"current_range_meters":25200,"station_id":"ce4bgvh2rcd13ifvqcs0","pricing_plan_id":"cebpf4jnsgd1na2vs0mg"},{"bike_id":"a590330b-ba5e-4b05-9a5b-39bdae114fa0","system_id":"levelo_inurba_marseille","lat":43.3302,"lon":5.39031,"is_reserved":false,"is_disabled":false,"rental_uris":{"android":"levelo://app?vid=a590330b-ba5e-4b05-9a5b-39bdae114fa0","ios":"levelo://app?vid=a590330b-ba5e-4b05-9a5b-39bdae114fa0"},"vehicle_type_id":"4","last_reported":1734113581,"current_range_meters":11200,"station_id":"ce4bhr92rcd13ifvqhrg","pricing_plan_id":"cebpf4jnsgd1na2vs0mg"},{"bike_id":"be3d60a6-6fb6-4cc8-81d6-6fe96ff5ee23","system_id":"levelo_inurba_marseille","lat":43.23069,"lon":5.35484,"is_reserved":false,"is_disabled":false,"rental_uris":{"android":"levelo://app?vid=be3d60a6-6fb6-4cc8-81d6-6fe96ff5ee23","ios":"levelo://app?vid=be3d60a6-6fb6-4cc8-81d6-6fe96ff5ee23"},"vehicle_type_id":"4","last_reported":1734113581,"current_range_meters":38000,"station_id":"cpo3342slgdg3j2ifvpg","pricing_plan_id":"cebpf4jnsgd1na2vs0mg"},{"bike_id":"26f716e5-97aa-4ac8-b4e9-cfba05f017d8","system_id":"levelo_inurba_marseille","lat":43.23178,"lon":5.39989,"is_reserved":false,"is_disabled":false,"rental_uris":{"android":"levelo://app?vid=26f716e5-97aa-4ac8-b4e9-cfba05f017d8","ios":"levelo://app?vid=26f716e5-97aa-4ac8-b4e9-cfba05f017d8"},"vehicle_type_id":"4","last_reported":1734113581,"current_range_meters":11600,"station_id":"ce4bhn12rcd13ifvqgqg","pricing_plan_id":"cebpf4jnsgd1na2vs0mg"},{"bike_id":"a19bdc32-7d6d-4046-a238-b24edcb23725","system_id":"levelo_inurba_marseille","lat":43.29552,"lon":5.40018,"is_reserved":false,"is_disabled":false,"rental_uris":{"android":"levelo://app?vid=a19bdc32-7d6d-4046-a238-b24edcb23725","ios":"levelo://app?vid=a19bdc32-7d6d-4046-a238-b24edcb23725"},"vehicle_type_id":"4","last_reported":1734113581,"current_range_meters":36800,"station_id":"ce4bh312rcd13ifvqdj0","pricing_plan_id":"cebpf4jnsgd1na2vs0mg"},{"bike_id":"258b7d42-7ad8-44b3-9465-efa6d68e4867","system_id":"levelo_inurba_marseille","lat":43.23181,"lon":5.39987,"is_reserved":false,"is_disabled":false,"rental_uris":{"android":"levelo://app?vid=258b7d42-7ad8-44b3-9465-efa6d68e4867","ios":"levelo://app?vid=258b7d42-7ad8-44b3-9465-efa6d68e4867"},"vehicle_type_id":"4","last_reported":1734113581,"current_range_meters":38800,"station_id":"ce4bhn12rcd13ifvqgqg","pricing_plan_id":"cebpf4jnsgd1na2vs0mg"},{"bike_id":"da15a7af-b98b-4274-ab13-f3fc077f857c","system_id":"levelo_inurba_marseille","lat":43.29417,"lon":5.38626,"is_reserved":false,"is_disabled":true,"rental_uris":{"android":"levelo://app?vid=da15a7af-b98b-4274-ab13-f3fc077f857c","ios":"levelo://app?vid=da15a7af-b98b-4274-ab13-f3fc077f857c"},"vehicle_type_id":"4","last_reported":1734113581,"current_range_meters":0,"station_id":"ce4bh2h2rcd13ifvqdh0","pricing_plan_id":"cebpf4jnsgd1na2vs0mg"},{"bike_id":"b07b03cc-2cf2-47da-a621-daf36b7ee0b5","system_id":"levelo_inurba_marseille","lat":43.28658,"lon":5.36356,"is_reserved":false,"is_disabled":false,"rental_uris":{"android":"levelo://app?vid=b07b03cc-2cf2-47da-a621-daf36b7ee0b5","ios":"levelo://app?vid=b07b03cc-2cf2-47da-a621-daf36b7ee0b5"},"vehicle_type_id":"4","last_reported":1734113581,"current_range_meters":29600,"station_id":"ce4bhah2rcd13ifvqej0","pricing_plan_id":"cebpf4jnsgd1na2vs0mg"},{"bike_id":"9332f19c-96e3-47ac-8807-c5c2384614c0","system_id":"levelo_inurba_marseille","lat":43.23062,"lon":5.35492,"is_reserved":false,"is_disabled":false,"rental_uris":{"android":"levelo://app?vid=9332f19c-96e3-47ac-8807-c5c2384614c0","ios":"levelo://app?vid=9332f19c-96e3-47ac-8807-c5c2384614c0"},"vehicle_type_id":"4","last_reported":1734113581,"current_range_meters":38800,"station_id":"cpo3342slgdg3j2ifvpg","pricing_plan_id":"cebpf4jnsgd1na2vs0mg"},{"bike_id":"d903c7a0-8941-429b-9f97-31c04aeae91c","system_id":"levelo_inurba_marseille","lat":43.288465,"lon":5.358317,"is_reserved":false,"is_disabled":false,"rental_uris":{"android":"levelo://app?vid=d903c7a0-8941-429b-9f97-31c04aeae91c","ios":"levelo://app?vid=d903c7a0-8941-429b-9f97-31c04aeae91c"},"vehicle_type_id":"4","last_reported":1734113581,"current_range_meters":38400,"station_id":"ce4bhb12rcd13ifvqem0","pricing_plan_id":"cebpf4jnsgd1na2vs0mg"},{"bike_id":"c51875c3-4462-475c-9906-e5e3e8f579dd","system_id":"levelo_inurba_marseille","lat":43.30806,"lon":5.43521,"is_reserved":false,"is_disabled":false,"rental_uris":{"android":"levelo://app?vid=c51875c3-4462-475c-9906-e5e3e8f579dd","ios":"levelo://app?vid=c51875c3-4462-475c-9906-e5e3e8f579dd"},"vehicle_type_id":"4","last_reported":1734113581,"current_range_meters":35600,"station_id":"ce4bhph2rcd13ifvqheg","pricing_plan_id":"cebpf4jnsgd1na2vs0mg"},{"bike_id":"a8942e43-f3d6-46fd-8576-2cc6b2787f3e","system_id":"levelo_inurba_marseille","lat":43.33023,"lon":5.39037,"is_reserved":false,"is_disabled":false,"rental_uris":{"android":"levelo://app?vid=a8942e43-f3d6-46fd-8576-2cc6b2787f3e","ios":"levelo://app?vid=a8942e43-f3d6-46fd-8576-2cc6b2787f3e"},"vehicle_type_id":"4","last_reported":1734113581,"current_range_meters":20000,"station_id":"ce4bhr92rcd13ifvqhrg","pricing_plan_id":"cebpf4jnsgd1na2vs0mg"},{"bike_id":"ff053c70-8c96-447a-bad0-ff4bd156c100","system_id":"levelo_inurba_marseille","lat":43.27994,"lon":5.40012,"is_reserved":false,"is_disabled":false,"rental_uris":{"android":"levelo://app?vid=ff053c70-8c96-447a-bad0-ff4bd156c100","ios":"levelo://app?vid=ff053c70-8c96-447a-bad0-ff4bd156c100"},"vehicle_type_id":"4","last_reported":1734113581,"current_range_meters":18000,"station_id":"ce4bho92rcd13ifvqh4g","pricing_plan_id":"cebpf4jnsgd1na2vs0mg"},{"bike_id":"4757122f-dbf2-4bab-a259-196b3afe40ba","system_id":"levelo_inurba_marseille","lat":43.3117,"lon":5.38713,"is_reserved":false,"is_disabled":false,"rental_uris":{"android":"levelo://app?vid=4757122f-dbf2-4bab-a259-196b3afe40ba","ios":"levelo://app?vid=4757122f-dbf2-4bab-a259-196b3afe40ba"},"vehicle_type_id":"4","last_reported":1734113581,"current_range_meters":37600,"station_id":"ce4bgv12rcd13ifvqcp0","pricing_plan_id":"cebpf4jnsgd1na2vs0mg"},{"bike_id":"bd9ca622-608b-40f1-937b-4a1e1400a4ce","system_id":"levelo_inurba_marseille","lat":43.28614,"lon":5.35098,"is_reserved":false,"is_disabled":false,"rental_uris":{"android":"levelo://app?vid=bd9ca622-608b-40f1-937b-4a1e1400a4ce","ios":"levelo://app?vid=bd9ca622-608b-40f1-937b-4a1e1400a4ce"},"vehicle_type_id":"4","last_reported":1734113581,"current_range_meters":37600,"station_id":"ce4bhch2rcd13ifvqeug","pricing_plan_id":"cebpf4jnsgd1na2vs0mg"},{"bike_id":"ddd741ee-703d-465d-9a5e-04704e13a959","system_id":"levelo_inurba_marseille","lat":43.28415,"lon":5.34983,"is_reserved":false,"is_disabled":false,"rental_uris":{"android":"levelo://app?vid=ddd741ee-703d-465d-9a5e-04704e13a959","ios":"levelo://app?vid=ddd741ee-703d-465d-9a5e-04704e13a959"},"vehicle_type_id":"4","last_reported":1734113581,"current_range_meters":9200,"station_id":"ce4bhbh2rcd13ifvqepg","pricing_plan_id":"cebpf4jnsgd1na2vs0mg"},{"bike_id":"d9fa3420-1e12-46ef-ae23-491de3274878","system_id":"levelo_inurba_marseille","lat":43.30135,"lon":5.38781,"is_reserved":false,"is_disabled":false,"rental_uris":{"android":"levelo://app?vid=d9fa3420-1e12-46ef-ae23-491de3274878","ios":"levelo://app?vid=d9fa3420-1e12-46ef-ae23-491de3274878"},"vehicle_type_id":"4","last_reported":1734113581,"current_range_meters":35600,"station_id":"ce4bghh2rcd13ifvqb60","pricing_plan_id":"cebpf4jnsgd1na2vs0mg"},{"bike_id":"b77778c9-2a13-4232-a1d3-b52075d07595","system_id":"levelo_inurba_marseille","lat":43.33022,"lon":5.39035,"is_reserved":false,"is_disabled":false,"rental_uris":{"android":"levelo://app?vid=b77778c9-2a13-4232-a1d3-b52075d07595","ios":"levelo://app?vid=b77778c9-2a13-4232-a1d3-b52075d07595"},"vehicle_type_id":"4","last_reported":1734113581,"current_range_meters":24000,"station_id":"ce4bhr92rcd13ifvqhrg","pricing_plan_id":"cebpf4jnsgd1na2vs0mg"},{"bike_id":"837513f4-4af5-4927-b46e-d348c42ce2e1","system_id":"levelo_inurba_marseille","lat":43.29683,"lon":5.3728,"is_reserved":false,"is_disabled":false,"rental_uris":{"android":"levelo://app?vid=837513f4-4af5-4927-b46e-d348c42ce2e1","ios":"levelo://app?vid=837513f4-4af5-4927-b46e-d348c42ce2e1"},"vehicle_type_id":"4","last_reported":1734113581,"current_range_meters":29600,"station_id":"ce4bgk12rcd13ifvqbj0","pricing_plan_id":"cebpf4jnsgd1na2vs0mg"},{"bike_id":"7a118086-9b2e-483a-809a-a39d5dc57146","system_id":"levelo_inurba_marseille","lat":43.33021,"lon":5.39032,"is_reserved":false,"is_disabled":false,"rental_uris":{"android":"levelo://app?vid=7a118086-9b2e-483a-809a-a39d5dc57146","ios":"levelo://app?vid=7a118086-9b2e-483a-809a-a39d5dc57146"},"vehicle_type_id":"4","last_reported":1734113581,"current_range_meters":14400,"station_id":"ce4bhr92rcd13ifvqhrg","pricing_plan_id":"cebpf4jnsgd1na2vs0mg"},{"bike_id":"2eccba2c-4992-427c-8b99-f71682eddb98","system_id":"levelo_inurba_marseille","lat":43.29615,"lon":5.37729,"is_reserved":true,"is_disabled":false,"rental_uris":{"android":"levelo://app?vid=2eccba2c-4992-427c-8b99-f71682eddb98","ios":"levelo://app?vid=2eccba2c-4992-427c-8b99-f71682eddb98"},"vehicle_type_id":"4","last_reported":1734113581,"current_range_meters":36800,"station_id":"ce4bgi92rcd13ifvqb90","pricing_plan_id":"cebpf4jnsgd1na2vs0mg"},{"bike_id":"c6234abb-f24f-4e51-8203-a434dd5a5cf7","system_id":"levelo_inurba_marseille","lat":43.27179,"lon":5.40996,"is_reserved":false,"is_disabled":false,"rental_uris":{"android":"levelo://app?vid=c6234abb-f24f-4e51-8203-a434dd5a5cf7","ios":"levelo://app?vid=c6234abb-f24f-4e51-8203-a434dd5a5cf7"},"vehicle_type_id":"4","last_reported":1734113581,"current_range_meters":13600,"station_id":"ce4bhl12rcd13ifvqgf0","pricing_plan_id":"cebpf4jnsgd1na2vs0mg"},{"bike_id":"6e6a004b-462d-4b03-aeaa-2611256f0d89","system_id":"levelo_inurba_marseille","lat":43.28114,"lon":5.38929,"is_reserved":false,"is_disabled":true,"rental_uris":{"android":"levelo://app?vid=6e6a004b-462d-4b03-aeaa-2611256f0d89","ios":"levelo://app?vid=6e6a004b-462d-4b03-aeaa-2611256f0d89"},"vehicle_type_id":"4","last_reported":1734113581,"current_range_meters":0,"station_id":"","pricing_plan_id":"cebpf4jnsgd1na2vs0mg"},{"bike_id":"232f5610-5a60-4333-80a7-6a6f5cb821e9","system_id":"levelo_inurba_marseille","lat":43.28609,"lon":5.35105,"is_reserved":false,"is_disabled":false,"rental_uris":{"android":"levelo://app?vid=232f5610-5a60-4333-80a7-6a6f5cb821e9","ios":"levelo://app?vid=232f5610-5a60-4333-80a7-6a6f5cb821e9"},"vehicle_type_id":"4","last_reported":1734113581,"current_range_meters":25200,"station_id":"ce4bhch2rcd13ifvqeug","pricing_plan_id":"cebpf4jnsgd1na2vs0mg"},{"bike_id":"d3216aa2-ba9e-4b26-a671-72534b707ed0","system_id":"levelo_inurba_marseille","lat":43.28399,"lon":5.37509,"is_reserved":false,"is_disabled":false,"rental_uris":{"android":"levelo://app?vid=d3216aa2-ba9e-4b26-a671-72534b707ed0","ios":"levelo://app?vid=d3216aa2-ba9e-4b26-a671-72534b707ed0"},"vehicle_type_id":"4","last_reported":1734113581,"current_range_meters":25600,"station_id":"ce4bh412rcd13ifvqds0","pricing_plan_id":"cebpf4jnsgd1na2vs0mg"},{"bike_id":"a0ef5331-9483-44f0-802c-7a869e930ded","system_id":"levelo_inurba_marseille","lat":43.26938,"lon":5.40257,"is_reserved":false,"is_disabled":false,"rental_uris":{"android":"levelo://app?vid=a0ef5331-9483-44f0-802c-7a869e930ded","ios":"levelo://app?vid=a0ef5331-9483-44f0-802c-7a869e930ded"},"vehicle_type_id":"4","last_reported":1734113581,"current_range_meters":26000,"station_id":"cjm6bp8fraef2m0cb0m0","pricing_plan_id":"cebpf4jnsgd1na2vs0mg"},{"bike_id":"d6fffe95-279f-4f4a-acf8-3816725ad43e","system_id":"levelo_inurba_marseille","lat":43.3079,"lon":5.37642,"is_reserved":false,"is_disabled":false,"rental_uris":{"android":"levelo://app?vid=d6fffe95-279f-4f4a-acf8-3816725ad43e","ios":"levelo://app?vid=d6fffe95-279f-4f4a-acf8-3816725ad43e"},"vehicle_type_id":"4","last_reported":1734113581,"current_range_meters":38000,"station_id":"ce4bgv92rcd13ifvqcq0","pricing_plan_id":"cebpf4jnsgd1na2vs0mg"},{"bike_id":"8b7d1d27-143c-469e-8a0c-371ccc84edb8","system_id":"levelo_inurba_marseille","lat":43.27999,"lon":5.4,"is_reserved":false,"is_disabled":false,"rental_uris":{"android":"levelo://app?vid=8b7d1d27-143c-469e-8a0c-371ccc84edb8","ios":"levelo://app?vid=8b7d1d27-143c-469e-8a0c-371ccc84edb8"},"vehicle_type_id":"4","last_reported":1734113581,"current_range_meters":9600,"station_id":"ce4bho92rcd13ifvqh4g","pricing_plan_id":"cebpf4jnsgd1na2vs0mg"},{"bike_id":"978bce4a-4ce2-4d4c-9dc7-c42a0edfcb96","system_id":"levelo_inurba_marseille","lat":43.23154,"lon":5.43716,"is_reserved":false,"is_disabled":true,"rental_uris":{"android":"levelo://app?vid=978bce4a-4ce2-4d4c-9dc7-c42a0edfcb96","ios":"levelo://app?vid=978bce4a-4ce2-4d4c-9dc7-c42a0edfcb96"},"vehicle_type_id":"4","last_reported":1734113581,"current_range_meters":0,"station_id":"ce4bhmp2rcd13ifvqgog","pricing_plan_id":"cebpf4jnsgd1na2vs0mg"},{"bike_id":"551033a4-97cd-4e27-a00b-d1f0dcdb705d","system_id":"levelo_inurba_marseille","lat":43.29302,"lon":5.41207,"is_reserved":false,"is_disabled":false,"rental_uris":{"android":"levelo://app?vid=551033a4-97cd-4e27-a00b-d1f0dcdb705d","ios":"levelo://app?vid=551033a4-97cd-4e27-a00b-d1f0dcdb705d"},"vehicle_type_id":"4","last_reported":1734113581,"current_range_meters":36400,"station_id":"","pricing_plan_id":"cebpf4jnsgd1na2vs0mg"},{"bike_id":"7965bd8b-65b9-4460-9e65-36f253ebc53b","system_id":"levelo_inurba_marseille","lat":43.32044,"lon":5.41507,"is_reserved":false,"is_disabled":false,"rental_uris":{"android":"levelo://app?vid=7965bd8b-65b9-4460-9e65-36f253ebc53b","ios":"levelo://app?vid=7965bd8b-65b9-4460-9e65-36f253ebc53b"},"vehicle_type_id":"4","last_reported":1734113581,"current_range_meters":22800,"station_id":"ce4bhq92rcd13ifvqhkg","pricing_plan_id":"cebpf4jnsgd1na2vs0mg"},{"bike_id":"baf2a051-8c83-4545-8cb9-f2d0770a50f8","system_id":"levelo_inurba_marseille","lat":43.31008,"lon":5.38012,"is_reserved":false,"is_disabled":false,"rental_uris":{"android":"levelo://app?vid=baf2a051-8c83-4545-8cb9-f2d0770a50f8","ios":"levelo://app?vid=baf2a051-8c83-4545-8cb9-f2d0770a50f8"},"vehicle_type_id":"4","last_reported":1734113581,"current_range_meters":16000,"station_id":"","pricing_plan_id":"cebpf4jnsgd1na2vs0mg"},{"bike_id":"0ffc6b8d-2ddb-4335-86e7-92f0e64a897e","system_id":"levelo_inurba_marseille","lat":43.29856,"lon":5.36292,"is_reserved":false,"is_disabled":false,"rental_uris":{"android":"levelo://app?vid=0ffc6b8d-2ddb-4335-86e7-92f0e64a897e","ios":"levelo://app?vid=0ffc6b8d-2ddb-4335-86e7-92f0e64a897e"},"vehicle_type_id":"4","last_reported":1734113581,"current_range_meters":3600,"station_id":"ce4bgpp2rcd13ifvqc3g","pricing_plan_id":"cebpf4jnsgd1na2vs0mg"},{"bike_id":"e5192aff-1008-4e7e-b82a-23b5df79d920","system_id":"levelo_inurba_marseille","lat":43.29548,"lon":5.42276,"is_reserved":false,"is_disabled":true,"rental_uris":{"android":"levelo://app?vid=e5192aff-1008-4e7e-b82a-23b5df79d920","ios":"levelo://app?vid=e5192aff-1008-4e7e-b82a-23b5df79d920"},"vehicle_type_id":"4","last_reported":1734113581,"current_range_meters":0,"station_id":"ce4bhph2rcd13ifvqhdg","pricing_plan_id":"cebpf4jnsgd1na2vs0mg"},{"bike_id":"a38af6b8-e87a-497a-a962-b69d263ba4a0","system_id":"levelo_inurba_marseille","lat":43.31336,"lon":5.37039,"is_reserved":false,"is_disabled":false,"rental_uris":{"android":"levelo://app?vid=a38af6b8-e87a-497a-a962-b69d263ba4a0","ios":"levelo://app?vid=a38af6b8-e87a-497a-a962-b69d263ba4a0"},"vehicle_type_id":"4","last_reported":1734113581,"current_range_meters":32000,"station_id":"","pricing_plan_id":"cebpf4jnsgd1na2vs0mg"},{"bike_id":"f178e8d1-c0a7-4f40-b3a0-b4377e5bca18","system_id":"levelo_inurba_marseille","lat":43.25727,"lon":5.4111,"is_reserved":false,"is_disabled":false,"rental_uris":{"android":"levelo://app?vid=f178e8d1-c0a7-4f40-b3a0-b4377e5bca18","ios":"levelo://app?vid=f178e8d1-c0a7-4f40-b3a0-b4377e5bca18"},"vehicle_type_id":"4","last_reported":1734113581,"current_range_meters":25200,"station_id":"ce4bhkp2rcd13ifvqgd0","pricing_plan_id":"cebpf4jnsgd1na2vs0mg"},{"bike_id":"1d50a033-4b3f-4b04-a007-0cc758b2bffb","system_id":"levelo_inurba_marseille","lat":43.3093,"lon":5.4015,"is_reserved":false,"is_disabled":false,"rental_uris":{"android":"levelo://app?vid=1d50a033-4b3f-4b04-a007-0cc758b2bffb","ios":"levelo://app?vid=1d50a033-4b3f-4b04-a007-0cc758b2bffb"},"vehicle_type_id":"4","last_reported":1734113581,"current_range_meters":27600,"station_id":"ce4bgvp2rcd13ifvqct0","pricing_plan_id":"cebpf4jnsgd1na2vs0mg"},{"bike_id":"a5589391-a7e4-412b-9a87-f917b2322580","system_id":"levelo_inurba_marseille","lat":43.23041,"lon":5.35477,"is_reserved":false,"is_disabled":false,"rental_uris":{"android":"levelo://app?vid=a5589391-a7e4-412b-9a87-f917b2322580","ios":"levelo://app?vid=a5589391-a7e4-412b-9a87-f917b2322580"},"vehicle_type_id":"4","last_reported":1734113581,"current_range_meters":38000,"station_id":"cpo3342slgdg3j2ifvpg","pricing_plan_id":"cebpf4jnsgd1na2vs0mg"},{"bike_id":"c6d2a73e-0027-480c-b5d2-f161208bce68","system_id":"levelo_inurba_marseille","lat":43.29418,"lon":5.38628,"is_reserved":false,"is_disabled":false,"rental_uris":{"android":"levelo://app?vid=c6d2a73e-0027-480c-b5d2-f161208bce68","ios":"levelo://app?vid=c6d2a73e-0027-480c-b5d2-f161208bce68"},"vehicle_type_id":"4","last_reported":1734113581,"current_range_meters":8000,"station_id":"ce4bh2h2rcd13ifvqdh0","pricing_plan_id":"cebpf4jnsgd1na2vs0mg"},{"bike_id":"103e9cb3-a529-4d55-b047-75adf6d60c18","system_id":"levelo_inurba_marseille","lat":43.27961,"lon":5.39941,"is_reserved":false,"is_disabled":true,"rental_uris":{"android":"levelo://app?vid=103e9cb3-a529-4d55-b047-75adf6d60c18","ios":"levelo://app?vid=103e9cb3-a529-4d55-b047-75adf6d60c18"},"vehicle_type_id":"4","last_reported":1734113581,"current_range_meters":0,"station_id":"","pricing_plan_id":"cebpf4jnsgd1na2vs0mg"},{"bike_id":"9f6edf01-748c-401f-9fc5-e91fa31a072c","system_id":"levelo_inurba_marseille","lat":43.33019,"lon":5.39039,"is_reserved":false,"is_disabled":false,"rental_uris":{"android":"levelo://app?vid=9f6edf01-748c-401f-9fc5-e91fa31a072c","ios":"levelo://app?vid=9f6edf01-748c-401f-9fc5-e91fa31a072c"},"vehicle_type_id":"4","last_reported":1734113581,"current_range_meters":39200,"station_id":"ce4bhr92rcd13ifvqhrg","pricing_plan_id":"cebpf4jnsgd1na2vs0mg"},{"bike_id":"741cdeeb-6345-4fd3-a929-311fb52ce585","system_id":"levelo_inurba_marseille","lat":43.29581,"lon":5.36744,"is_reserved":false,"is_disabled":false,"rental_uris":{"android":"levelo://app?vid=741cdeeb-6345-4fd3-a929-311fb52ce585","ios":"levelo://app?vid=741cdeeb-6345-4fd3-a929-311fb52ce585"},"vehicle_type_id":"4","last_reported":1734113581,"current_range_meters":12800,"station_id":"ce4bgph2rcd13ifvqc2g","pricing_plan_id":"cebpf4jnsgd1na2vs0mg"},{"bike_id":"14afac6a-63b2-47cb-9bc3-0bc87d22bcde","system_id":"levelo_inurba_marseille","lat":43.32335,"lon":5.38908,"is_reserved":false,"is_disabled":false,"rental_uris":{"android":"levelo://app?vid=14afac6a-63b2-47cb-9bc3-0bc87d22bcde","ios":"levelo://app?vid=14afac6a-63b2-47cb-9bc3-0bc87d22bcde"},"vehicle_type_id":"4","last_reported":1734113581,"current_range_meters":38800,"station_id":"ce4bhqp2rcd13ifvqhog","pricing_plan_id":"cebpf4jnsgd1na2vs0mg"},{"bike_id":"cf114bb8-ce3e-43ba-8e23-69bcac3003fd","system_id":"levelo_inurba_marseille","lat":43.33756,"lon":5.3742,"is_reserved":false,"is_disabled":false,"rental_uris":{"android":"levelo://app?vid=cf114bb8-ce3e-43ba-8e23-69bcac3003fd","ios":"levelo://app?vid=cf114bb8-ce3e-43ba-8e23-69bcac3003fd"},"vehicle_type_id":"4","last_reported":1734113581,"current_range_meters":24400,"station_id":"","pricing_plan_id":"cebpf4jnsgd1na2vs0mg"},{"bike_id":"f72a7348-a98e-463a-8d26-f64d3092b70b","system_id":"levelo_inurba_marseille","lat":43.30533,"lon":5.38439,"is_reserved":false,"is_disabled":true,"rental_uris":{"android":"levelo://app?vid=f72a7348-a98e-463a-8d26-f64d3092b70b","ios":"levelo://app?vid=f72a7348-a98e-463a-8d26-f64d3092b70b"},"vehicle_type_id":"4","last_reported":1734113581,"current_range_meters":36400,"station_id":"ce4bgg92rcd13ifvqb30","pricing_plan_id":"cebpf4jnsgd1na2vs0mg"},{"bike_id":"1edcb435-be97-41f8-aa8c-4a20808cef7c","system_id":"levelo_inurba_marseille","lat":43.26796,"lon":5.40255,"is_reserved":false,"is_disabled":false,"rental_uris":{"android":"levelo://app?vid=1edcb435-be97-41f8-aa8c-4a20808cef7c","ios":"levelo://app?vid=1edcb435-be97-41f8-aa8c-4a20808cef7c"},"vehicle_type_id":"4","last_reported":1734113581,"current_range_meters":4400,"station_id":"ce501612rcd8frsf0b60","pricing_plan_id":"cebpf4jnsgd1na2vs0mg"},{"bike_id":"a46e3ccb-8bc2-4640-85fb-260de600c1f9","system_id":"levelo_inurba_marseille","lat":43.33752,"lon":5.37409,"is_reserved":false,"is_disabled":false,"rental_uris":{"android":"levelo://app?vid=a46e3ccb-8bc2-4640-85fb-260de600c1f9","ios":"levelo://app?vid=a46e3ccb-8bc2-4640-85fb-260de600c1f9"},"vehicle_type_id":"4","last_reported":1734113581,"current_range_meters":38400,"station_id":"","pricing_plan_id":"cebpf4jnsgd1na2vs0mg"},{"bike_id":"059de9be-c468-43e0-a4a4-c5350b5abfbb","system_id":"levelo_inurba_marseille","lat":43.30785,"lon":5.37637,"is_reserved":false,"is_disabled":false,"rental_uris":{"android":"levelo://app?vid=059de9be-c468-43e0-a4a4-c5350b5abfbb","ios":"levelo://app?vid=059de9be-c468-43e0-a4a4-c5350b5abfbb"},"vehicle_type_id":"4","last_reported":1734113581,"current_range_meters":14400,"station_id":"ce4bgv92rcd13ifvqcq0","pricing_plan_id":"cebpf4jnsgd1na2vs0mg"},{"bike_id":"cdea3099-0cd3-4de0-8dcf-c2e7c6649ade","system_id":"levelo_inurba_marseille","lat":43.27991,"lon":5.41667,"is_reserved":false,"is_disabled":false,"rental_uris":{"android":"levelo://app?vid=cdea3099-0cd3-4de0-8dcf-c2e7c6649ade","ios":"levelo://app?vid=cdea3099-0cd3-4de0-8dcf-c2e7c6649ade"},"vehicle_type_id":"4","last_reported":1734113581,"current_range_meters":8400,"station_id":"ce4bho12rcd13ifvqh1g","pricing_plan_id":"cebpf4jnsgd1na2vs0mg"},{"bike_id":"ca3bf6a0-806c-4046-b219-bbea4c2ba646","system_id":"levelo_inurba_marseille","lat":43.23202,"lon":5.35544,"is_reserved":false,"is_disabled":false,"rental_uris":{"android":"levelo://app?vid=ca3bf6a0-806c-4046-b219-bbea4c2ba646","ios":"levelo://app?vid=ca3bf6a0-806c-4046-b219-bbea4c2ba646"},"vehicle_type_id":"4","last_reported":1734113581,"current_range_meters":38800,"station_id":"ce4bhu92rcd13ifvqi70","pricing_plan_id":"cebpf4jnsgd1na2vs0mg"},{"bike_id":"5810f1bb-1a3e-452e-8936-27539c1a07ed","system_id":"levelo_inurba_marseille","lat":43.29189,"lon":5.39319,"is_reserved":false,"is_disabled":false,"rental_uris":{"android":"levelo://app?vid=5810f1bb-1a3e-452e-8936-27539c1a07ed","ios":"levelo://app?vid=5810f1bb-1a3e-452e-8936-27539c1a07ed"},"vehicle_type_id":"4","last_reported":1734113581,"current_range_meters":3200,"station_id":"ce4bh192rcd13ifvqdd0","pricing_plan_id":"cebpf4jnsgd1na2vs0mg"},{"bike_id":"46b2fdec-0870-4ae2-84dc-b1f57512351e","system_id":"levelo_inurba_marseille","lat":43.337444,"lon":5.374475,"is_reserved":false,"is_disabled":true,"rental_uris":{"android":"levelo://app?vid=46b2fdec-0870-4ae2-84dc-b1f57512351e","ios":"levelo://app?vid=46b2fdec-0870-4ae2-84dc-b1f57512351e"},"vehicle_type_id":"4","last_reported":1734113581,"current_range_meters":0,"station_id":"","pricing_plan_id":"cebpf4jnsgd1na2vs0mg"},{"bike_id":"cbe01e99-0ff7-479e-ac8d-a89f5a65b0d8","system_id":"levelo_inurba_marseille","lat":43.25579,"lon":5.38236,"is_reserved":false,"is_disabled":false,"rental_uris":{"android":"levelo://app?vid=cbe01e99-0ff7-479e-ac8d-a89f5a65b0d8","ios":"levelo://app?vid=cbe01e99-0ff7-479e-ac8d-a89f5a65b0d8"},"vehicle_type_id":"4","last_reported":1734113581,"current_range_meters":36400,"station_id":"ce4bhih2rcd13ifvqfs0","pricing_plan_id":"cebpf4jnsgd1na2vs0mg"},{"bike_id":"433d8f6d-5c01-4c20-ac12-92e75087762b","system_id":"levelo_inurba_marseille","lat":43.284224,"lon":5.349787,"is_reserved":false,"is_disabled":false,"rental_uris":{"android":"levelo://app?vid=433d8f6d-5c01-4c20-ac12-92e75087762b","ios":"levelo://app?vid=433d8f6d-5c01-4c20-ac12-92e75087762b"},"vehicle_type_id":"4","last_reported":1734113581,"current_range_meters":30800,"station_id":"ce4bhbh2rcd13ifvqepg","pricing_plan_id":"cebpf4jnsgd1na2vs0mg"},{"bike_id":"b376c920-b877-4ca5-a3f8-73a4d2e23232","system_id":"levelo_inurba_marseille","lat":43.24174,"lon":5.39739,"is_reserved":false,"is_disabled":false,"rental_uris":{"android":"levelo://app?vid=b376c920-b877-4ca5-a3f8-73a4d2e23232","ios":"levelo://app?vid=b376c920-b877-4ca5-a3f8-73a4d2e23232"},"vehicle_type_id":"4","last_reported":1734113581,"current_range_meters":19600,"station_id":"ce4bhn12rcd13ifvqgpg","pricing_plan_id":"cebpf4jnsgd1na2vs0mg"},{"bike_id":"df3805ee-7c9f-4290-85f8-e8b06a76a796","system_id":"levelo_inurba_marseille","lat":43.27489,"lon":5.42445,"is_reserved":false,"is_disabled":false,"rental_uris":{"android":"levelo://app?vid=df3805ee-7c9f-4290-85f8-e8b06a76a796","ios":"levelo://app?vid=df3805ee-7c9f-4290-85f8-e8b06a76a796"},"vehicle_type_id":"4","last_reported":1734113581,"current_range_meters":38000,"station_id":"ce4bhn92rcd13ifvqgrg","pricing_plan_id":"cebpf4jnsgd1na2vs0mg"},{"bike_id":"11a5908c-14ca-4666-9e78-3e2469d07326","system_id":"levelo_inurba_marseille","lat":43.30294,"lon":5.39216,"is_reserved":false,"is_disabled":false,"rental_uris":{"android":"levelo://app?vid=11a5908c-14ca-4666-9e78-3e2469d07326","ios":"levelo://app?vid=11a5908c-14ca-4666-9e78-3e2469d07326"},"vehicle_type_id":"4","last_reported":1734113581,"current_range_meters":22800,"station_id":"ce4bgkh2rcd13ifvqbk0","pricing_plan_id":"cebpf4jnsgd1na2vs0mg"},{"bike_id":"2439b886-b053-4742-9e64-0c9d960d2098","system_id":"levelo_inurba_marseille","lat":43.33778,"lon":5.37435,"is_reserved":false,"is_disabled":false,"rental_uris":{"android":"levelo://app?vid=2439b886-b053-4742-9e64-0c9d960d2098","ios":"levelo://app?vid=2439b886-b053-4742-9e64-0c9d960d2098"},"vehicle_type_id":"4","last_reported":1734113581,"current_range_meters":38400,"station_id":"","pricing_plan_id":"cebpf4jnsgd1na2vs0mg"},{"bike_id":"2448f112-093b-44a4-8c49-c482af2ba024","system_id":"levelo_inurba_marseille","lat":43.23039,"lon":5.35488,"is_reserved":false,"is_disabled":false,"rental_uris":{"android":"levelo://app?vid=2448f112-093b-44a4-8c49-c482af2ba024","ios":"levelo://app?vid=2448f112-093b-44a4-8c49-c482af2ba024"},"vehicle_type_id":"4","last_reported":1734113581,"current_range_meters":25600,"station_id":"cpo3342slgdg3j2ifvpg","pricing_plan_id":"cebpf4jnsgd1na2vs0mg"},{"bike_id":"61614bdd-50ab-4f21-b377-594fb302c056","system_id":"levelo_inurba_marseille","lat":43.28001,"lon":5.4,"is_reserved":false,"is_disabled":false,"rental_uris":{"android":"levelo://app?vid=61614bdd-50ab-4f21-b377-594fb302c056","ios":"levelo://app?vid=61614bdd-50ab-4f21-b377-594fb302c056"},"vehicle_type_id":"4","last_reported":1734113581,"current_range_meters":4800,"station_id":"ce4bho92rcd13ifvqh4g","pricing_plan_id":"cebpf4jnsgd1na2vs0mg"},{"bike_id":"928b8184-138e-4b49-b074-6713fe7a53b4","system_id":"levelo_inurba_marseille","lat":43.31374,"lon":5.38486,"is_reserved":false,"is_disabled":false,"rental_uris":{"android":"levelo://app?vid=928b8184-138e-4b49-b074-6713fe7a53b4","ios":"levelo://app?vid=928b8184-138e-4b49-b074-6713fe7a53b4"},"vehicle_type_id":"4","last_reported":1734113581,"current_range_meters":26000,"station_id":"ce4bgt92rcd13ifvqcf0","pricing_plan_id":"cebpf4jnsgd1na2vs0mg"},{"bike_id":"47b83216-658f-475c-8a11-b87ded17aa98","system_id":"levelo_inurba_marseille","lat":43.28006,"lon":5.40007,"is_reserved":false,"is_disabled":false,"rental_uris":{"android":"levelo://app?vid=47b83216-658f-475c-8a11-b87ded17aa98","ios":"levelo://app?vid=47b83216-658f-475c-8a11-b87ded17aa98"},"vehicle_type_id":"4","last_reported":1734113581,"current_range_meters":36800,"station_id":"ce4bho92rcd13ifvqh4g","pricing_plan_id":"cebpf4jnsgd1na2vs0mg"},{"bike_id":"d214c25f-242c-440b-993d-cd644c655be6","system_id":"levelo_inurba_marseille","lat":43.23063,"lon":5.35496,"is_reserved":false,"is_disabled":false,"rental_uris":{"android":"levelo://app?vid=d214c25f-242c-440b-993d-cd644c655be6","ios":"levelo://app?vid=d214c25f-242c-440b-993d-cd644c655be6"},"vehicle_type_id":"4","last_reported":1734113581,"current_range_meters":34000,"station_id":"cpo3342slgdg3j2ifvpg","pricing_plan_id":"cebpf4jnsgd1na2vs0mg"},{"bike_id":"cbcb1520-0c24-4b62-90ed-34196f6abcac","system_id":"levelo_inurba_marseille","lat":43.29629,"lon":5.40616,"is_reserved":false,"is_disabled":false,"rental_uris":{"android":"levelo://app?vid=cbcb1520-0c24-4b62-90ed-34196f6abcac","ios":"levelo://app?vid=cbcb1520-0c24-4b62-90ed-34196f6abcac"},"vehicle_type_id":"4","last_reported":1734113581,"current_range_meters":38800,"station_id":"ce4bh0h2rcd13ifvqd60","pricing_plan_id":"cebpf4jnsgd1na2vs0mg"},{"bike_id":"36fe7f2d-6b60-46ad-a5d3-ec5715357c26","system_id":"levelo_inurba_marseille","lat":43.337695,"lon":5.374371,"is_reserved":false,"is_disabled":false,"rental_uris":{"android":"levelo://app?vid=36fe7f2d-6b60-46ad-a5d3-ec5715357c26","ios":"levelo://app?vid=36fe7f2d-6b60-46ad-a5d3-ec5715357c26"},"vehicle_type_id":"4","last_reported":1734113581,"current_range_meters":37600,"station_id":"","pricing_plan_id":"cebpf4jnsgd1na2vs0mg"},{"bike_id":"6d05f7ba-808a-4403-b1f3-f8483fec843c","system_id":"levelo_inurba_marseille","lat":43.231881,"lon":5.355539,"is_reserved":false,"is_disabled":false,"rental_uris":{"android":"levelo://app?vid=6d05f7ba-808a-4403-b1f3-f8483fec843c","ios":"levelo://app?vid=6d05f7ba-808a-4403-b1f3-f8483fec843c"},"vehicle_type_id":"4","last_reported":1734113581,"current_range_meters":26000,"station_id":"ce4bhu92rcd13ifvqi70","pricing_plan_id":"cebpf4jnsgd1na2vs0mg"},{"bike_id":"6d81099e-b2e2-4dfc-8523-60931df8bbb9","system_id":"levelo_inurba_marseille","lat":43.29198,"lon":5.35795,"is_reserved":false,"is_disabled":false,"rental_uris":{"android":"levelo://app?vid=6d81099e-b2e2-4dfc-8523-60931df8bbb9","ios":"levelo://app?vid=6d81099e-b2e2-4dfc-8523-60931df8bbb9"},"vehicle_type_id":"4","last_reported":1734113581,"current_range_meters":8400,"station_id":"ce4bhb12rcd13ifvqel0","pricing_plan_id":"cebpf4jnsgd1na2vs0mg"},{"bike_id":"d1f8f88b-5fbd-4dc9-802c-b233ef4f52ad","system_id":"levelo_inurba_marseille","lat":43.31078,"lon":5.38336,"is_reserved":false,"is_disabled":false,"rental_uris":{"android":"levelo://app?vid=d1f8f88b-5fbd-4dc9-802c-b233ef4f52ad","ios":"levelo://app?vid=d1f8f88b-5fbd-4dc9-802c-b233ef4f52ad"},"vehicle_type_id":"4","last_reported":1734113581,"current_range_meters":14800,"station_id":"ce4bgv92rcd13ifvqcr0","pricing_plan_id":"cebpf4jnsgd1na2vs0mg"},{"bike_id":"a5397efa-629d-4917-8594-0532aea74fe2","system_id":"levelo_inurba_marseille","lat":43.2846,"lon":5.35883,"is_reserved":false,"is_disabled":false,"rental_uris":{"android":"levelo://app?vid=a5397efa-629d-4917-8594-0532aea74fe2","ios":"levelo://app?vid=a5397efa-629d-4917-8594-0532aea74fe2"},"vehicle_type_id":"4","last_reported":1734113581,"current_range_meters":17200,"station_id":"ce4bhah2rcd13ifvqei0","pricing_plan_id":"cebpf4jnsgd1na2vs0mg"},{"bike_id":"c140b6c6-e1ee-420e-8c8e-da14c8899759","system_id":"levelo_inurba_marseille","lat":43.30093,"lon":5.39065,"is_reserved":false,"is_disabled":false,"rental_uris":{"android":"levelo://app?vid=c140b6c6-e1ee-420e-8c8e-da14c8899759","ios":"levelo://app?vid=c140b6c6-e1ee-420e-8c8e-da14c8899759"},"vehicle_type_id":"4","last_reported":1734113581,"current_range_meters":37600,"station_id":"ce4bh192rcd13ifvqdb0","pricing_plan_id":"cebpf4jnsgd1na2vs0mg"},{"bike_id":"6fcdf81a-584f-4956-9988-260eab0ad6a1","system_id":"levelo_inurba_marseille","lat":43.29527,"lon":5.37507,"is_reserved":false,"is_disabled":false,"rental_uris":{"android":"levelo://app?vid=6fcdf81a-584f-4956-9988-260eab0ad6a1","ios":"levelo://app?vid=6fcdf81a-584f-4956-9988-260eab0ad6a1"},"vehicle_type_id":"4","last_reported":1734113581,"current_range_meters":24000,"station_id":"ce4bgkp2rcd13ifvqbmg","pricing_plan_id":"cebpf4jnsgd1na2vs0mg"},{"bike_id":"9c8c1480-9ffa-4086-913c-c2125a6eb848","system_id":"levelo_inurba_marseille","lat":43.22931,"lon":5.35378,"is_reserved":false,"is_disabled":false,"rental_uris":{"android":"levelo://app?vid=9c8c1480-9ffa-4086-913c-c2125a6eb848","ios":"levelo://app?vid=9c8c1480-9ffa-4086-913c-c2125a6eb848"},"vehicle_type_id":"4","last_reported":1734113581,"current_range_meters":30800,"station_id":"cpo3532slgdg3j2ikp40","pricing_plan_id":"cebpf4jnsgd1na2vs0mg"},{"bike_id":"783a59a0-9cfa-4c5a-b70c-00a7dd7961da","system_id":"levelo_inurba_marseille","lat":43.29188,"lon":5.39334,"is_reserved":false,"is_disabled":true,"rental_uris":{"android":"levelo://app?vid=783a59a0-9cfa-4c5a-b70c-00a7dd7961da","ios":"levelo://app?vid=783a59a0-9cfa-4c5a-b70c-00a7dd7961da"},"vehicle_type_id":"4","last_reported":1734113581,"current_range_meters":38400,"station_id":"ce4bh192rcd13ifvqdd0","pricing_plan_id":"cebpf4jnsgd1na2vs0mg"},{"bike_id":"68d1a597-d095-4be1-a270-65959be3b9ad","system_id":"levelo_inurba_marseille","lat":43.28073,"lon":5.39669,"is_reserved":false,"is_disabled":false,"rental_uris":{"android":"levelo://app?vid=68d1a597-d095-4be1-a270-65959be3b9ad","ios":"levelo://app?vid=68d1a597-d095-4be1-a270-65959be3b9ad"},"vehicle_type_id":"4","last_reported":1734113581,"current_range_meters":9600,"station_id":"ce4bho12rcd13ifvqh2g","pricing_plan_id":"cebpf4jnsgd1na2vs0mg"},{"bike_id":"74b30b9c-33cd-4b01-bc11-46c3d1b01fc9","system_id":"levelo_inurba_marseille","lat":43.32345,"lon":5.38299,"is_reserved":false,"is_disabled":false,"rental_uris":{"android":"levelo://app?vid=74b30b9c-33cd-4b01-bc11-46c3d1b01fc9","ios":"levelo://app?vid=74b30b9c-33cd-4b01-bc11-46c3d1b01fc9"},"vehicle_type_id":"4","last_reported":1734113581,"current_range_meters":33600,"station_id":"","pricing_plan_id":"cebpf4jnsgd1na2vs0mg"},{"bike_id":"dd76e1a4-0943-4507-a76b-20b15c09ddac","system_id":"levelo_inurba_marseille","lat":43.29569,"lon":5.39965,"is_reserved":false,"is_disabled":true,"rental_uris":{"android":"levelo://app?vid=dd76e1a4-0943-4507-a76b-20b15c09ddac","ios":"levelo://app?vid=dd76e1a4-0943-4507-a76b-20b15c09ddac"},"vehicle_type_id":"4","last_reported":1734113581,"current_range_meters":35600,"station_id":"ce4bh312rcd13ifvqdj0","pricing_plan_id":"cebpf4jnsgd1na2vs0mg"},{"bike_id":"de1d5e49-4fd2-4440-b63d-ecf3b73698ec","system_id":"levelo_inurba_marseille","lat":43.30886,"lon":5.37193,"is_reserved":false,"is_disabled":false,"rental_uris":{"android":"levelo://app?vid=de1d5e49-4fd2-4440-b63d-ecf3b73698ec","ios":"levelo://app?vid=de1d5e49-4fd2-4440-b63d-ecf3b73698ec"},"vehicle_type_id":"4","last_reported":1734113581,"current_range_meters":16400,"station_id":"ce4bguh2rcd13ifvqckg","pricing_plan_id":"cebpf4jnsgd1na2vs0mg"},{"bike_id":"76ff6577-012f-45c0-9808-97bac7529c3f","system_id":"levelo_inurba_marseille","lat":43.30148,"lon":5.37493,"is_reserved":false,"is_disabled":false,"rental_uris":{"android":"levelo://app?vid=76ff6577-012f-45c0-9808-97bac7529c3f","ios":"levelo://app?vid=76ff6577-012f-45c0-9808-97bac7529c3f"},"vehicle_type_id":"4","last_reported":1734113581,"current_range_meters":34000,"station_id":"","pricing_plan_id":"cebpf4jnsgd1na2vs0mg"},{"bike_id":"b9d48828-2e6d-42a0-8ec6-3f3dac75ebc9","system_id":"levelo_inurba_marseille","lat":43.29579,"lon":5.37516,"is_reserved":true,"is_disabled":false,"rental_uris":{"android":"levelo://app?vid=b9d48828-2e6d-42a0-8ec6-3f3dac75ebc9","ios":"levelo://app?vid=b9d48828-2e6d-42a0-8ec6-3f3dac75ebc9"},"vehicle_type_id":"4","last_reported":1734113581,"current_range_meters":36800,"station_id":"ce4bgh92rcd13ifvqb50","pricing_plan_id":"cebpf4jnsgd1na2vs0mg"},{"bike_id":"bfbf9b9c-9b9c-44ab-9a55-c02638a22585","system_id":"levelo_inurba_marseille","lat":43.29277,"lon":5.36839,"is_reserved":false,"is_disabled":false,"rental_uris":{"android":"levelo://app?vid=bfbf9b9c-9b9c-44ab-9a55-c02638a22585","ios":"levelo://app?vid=bfbf9b9c-9b9c-44ab-9a55-c02638a22585"},