{"last_updated":1762413063,"ttl":60,"version":"2.2","data":{"bikes":[{"bike_id":"b7c5e96f-2666-418c-b8cc-36dfc613348c","system_id":"levelo_inurba_marseille","lat":43.337444,"lon":5.374475,"is_reserved":false,"is_disabled":false,"rental_uris":{"android":"levelo://app?vid=b7c5e96f-2666-418c-b8cc-36dfc613348c","ios":"levelo://app?vid=b7c5e96f-2666-418c-b8cc-36dfc613348c"},"vehicle_type_id":"4","last_reported":1762413063,"current_range_meters":0,"station_id":"","pricing_plan_id":"cebpf4jnsgd1na2vs0mg"},{"bike_id":"9c46a9f5-39cb-461a-ac28-286dc216524b","system_id":"levelo_inurba_marseille","lat":43.337444,"lon":5.374475,"is_reserved":false,"is_disabled":false,"rental_uris":{"android":"levelo://app?vid=9c46a9f5-39cb-461a-ac28-286dc216524b","ios":"levelo://app?vid=9c46a9f5-39cb-461a-ac28-286dc216524b"},"vehicle_type_id":"4","last_reported":1762413063,"current_range_meters":0,"station_id":"","pricing_plan_id":"cebpf4jnsgd1na2vs0mg"},{"bike_id":"2aa95e42-5a8c-4825-81d0-40d356e0168e","system_id":"levelo_inurba_marseille","lat":43.337444,"lon":5.374475,"is_reserved":false,"is_disabled":false,"rental_uris":{"android":"levelo://app?vid=2aa95e42-5a8c-4825-81d0-40d356e0168e","ios":"levelo://app?vid=2aa95e42-5a8c-4825-81d0-40d356e0168e"},"vehicle_type_id":"4","last_reported":1762413063,"current_range_meters":0,"station_id":"","pricing_plan_id":"cebpf4jnsgd1na2vs0mg"},{"bike_id":"23f7c00c-abd3-4b9e-b454-b625ef68ddce","system_id":"levelo_inurba_marseille","lat":43.337444,"lon":5.374475,"is_reserved":false,"is_disabled":false,"rental_uris":{"android":"levelo://app?vid=23f7c00c-abd3-4b9e-b454-b625ef68ddce","ios":"levelo://app?vid=23f7c00c-abd3-4b9e-b454-b625ef68ddce"},"vehicle_type_id":"4","last_reported":1762413063,"current_range_meters":0,"station_id":"","pricing_plan_id":"cebpf4jnsgd1na2vs0mg"},{"bike_id":"a3451d83-9c80-4ffa-96f9-a14c25634465","system_id":"levelo_inurba_marseille","lat":43.337444,"lon":5.374475,"is_reserved":false,"is_disabled":false,"rental_uris":{"android":"levelo://app?vid=a3451d83-9c80-4ffa-96f9-a14c25634465","ios":"levelo://app?vid=a3451d83-9c80-4ffa-96f9-a14c25634465"},"vehicle_type_id":"4","last_reported":1762413063,"current_range_meters":0,"station_id":"","pricing_plan_id":"cebpf4jnsgd1na2vs0mg"},{"bike_id":"19649598-fd0f-4237-a302-8b748132eb30","system_id":"levelo_inurba_marseille","lat":43.337444,"lon":5.374475,"is_reserved":false,"is_disabled":false,"rental_uris":{"android":"levelo://app?vid=19649598-fd0f-4237-a302-8b748132eb30","ios":"levelo://app?vid=19649598-fd0f-4237-a302-8b748132eb30"},"vehicle_type_id":"4","last_reported":1762413063,"current_range_meters":0,"station_id":"","pricing_plan_id":"cebpf4jnsgd1na2vs0mg"},{"bike_id":"79f0199f-1fbb-40b2-9337-191d82b520a7","system_id":"levelo_inurba_marseille","lat":43.337444,"lon":5.374475,"is_reserved":false,"is_disabled":false,"rental_uris":{"android":"levelo://app?vid=79f0199f-1fbb-40b2-9337-191d82b520a7","ios":"levelo://app?vid=79f0199f-1fbb-40b2-9337-191d82b520a7"},"vehicle_type_id":"4","last_reported":1762413063,"current_range_meters":0,"station_id":"","pricing_plan_id":"cebpf4jnsgd1na2vs0mg"},{"bike_id":"34a0d96e-bbf5-4ab6-8de8-a56cc767fd57","system_id":"levelo_inurba_marseille","lat":43.337444,"lon":5.374475,"is_reserved":false,"is_disabled":false,"rental_uris":{"android":"levelo://app?vid=34a0d96e-bbf5-4ab6-8de8-a56cc767fd57","ios":"levelo://app?vid=34a0d96e-bbf5-4ab6-8de8-a56cc767fd57"},"vehicle_type_id":"4","last_reported":1762413063,"current_range_meters":0,"station_id":"","pricing_plan_id":"cebpf4jnsgd1na2vs0mg"},{"bike_id":"30c4756b-2e3a-4ac9-b1fb-aa08283eecaa","system_id":"levelo_inurba_marseille","lat":43.337444,"lon":5.374475,"is_reserved":false,"is_disabled":false,"rental_uris":{"android":"levelo://app?vid=30c4756b-2e3a-4ac9-b1fb-aa08283eecaa","ios":"levelo://app?vid=30c4756b-2e3a-4ac9-b1fb-aa08283eecaa"},"vehicle_type_id":"4","last_reported":1762413063,"current_range_meters":0,"station_id":"","pricing_plan_id":"cebpf4jnsgd1na2vs0mg"},{"bike_id":"cb5b6ee7-3ef8-4299-a38d-cc32f035098b","system_id":"levelo_inurba_marseille","lat":43.337444,"lon":5.374475,"is_reserved":false,"is_disabled":false,"rental_uris":{"android":"levelo://app?vid=cb5b6ee7-3ef8-4299-a38d-cc32f035098b","ios":"levelo://app?vid=cb5b6ee7-3ef8-4299-a38d-cc32f035098b"},"vehicle_type_id":"4","last_reported":1762413063,"current_range_meters":0,"station_id":"","pricing_plan_id":"cebpf4jnsgd1na2vs0mg"},{"bike_id":"0dbf8834-1963-4427-879a-60d5139a1252","system_id":"levelo_inurba_marseille","lat":43.337444,"lon":5.374475,"is_reserved":false,"is_disabled":false,"rental_uris":{"android":"levelo://app?vid=0dbf8834-1963-4427-879a-60d5139a1252","ios":"levelo://app?vid=0dbf8834-1963-4427-879a-60d5139a1252"},"vehicle_type_id":"4","last_reported":1762413063,"current_range_meters":0,"station_id":"","pricing_plan_id":"cebpf4jnsgd1na2vs0mg"},{"bike_id":"c3d3ce5c-8075-4b42-9455-beadd1468f17","system_id":"levelo_inurba_marseille","lat":43.337444,"lon":5.374475,"is_reserved":false,"is_disabled":false,"rental_uris":{"android":"levelo://app?vid=c3d3ce5c-8075-4b42-9455-beadd1468f17","ios":"levelo://app?vid=c3d3ce5c-8075-4b42-9455-beadd1468f17"},"vehicle_type_id":"4","last_reported":1762413063,"current_range_meters":0,"station_id":"","pricing_plan_id":"cebpf4jnsgd1na2vs0mg"},{"bike_id":"2177a091-7ad7-4fcd-ad08-e78406d1a8ef","system_id":"levelo_inurba_marseille","lat":43.337444,"lon":5.374475,"is_reserved":false,"is_disabled":false,"rental_uris":{"android":"levelo://app?vid=2177a091-7ad7-4fcd-ad08-e78406d1a8ef","ios":"levelo://app?vid=2177a091-7ad7-4fcd-ad08-e78406d1a8ef"},"vehicle_type_id":"4","last_reported":1762413063,"current_range_meters":0,"station_id":"","pricing_plan_id":"cebpf4jnsgd1na2vs0mg"},{"bike_id":"ed2dc6ad-7a96-47d2-b4d0-3deee38fd62c","system_id":"levelo_inurba_marseille","lat":43.337444,"lon":5.374475,"is_reserved":false,"is_disabled":false,"rental_uris":{"android":"levelo://app?vid=ed2dc6ad-7a96-47d2-b4d0-3deee38fd62c","ios":"levelo://app?vid=ed2dc6ad-7a96-47d2-b4d0-3deee38fd62c"},"vehicle_type_id":"4","last_reported":1762413063,"current_range_meters":0,"station_id":"","pricing_plan_id":"cebpf4jnsgd1na2vs0mg"},{"bike_id":"42735ee1-244b-4d96-8480-f9806199924f","system_id":"levelo_inurba_marseille","lat":43.337444,"lon":5.374475,"is_reserved":false,"is_disabled":false,"rental_uris":{"android":"levelo://app?vid=42735ee1-244b-4d96-8480-f9806199924f","ios":"levelo://app?vid=42735ee1-244b-4d96-8480-f9806199924f"},"vehicle_type_id":"4","last_reported":1762413063,"current_range_meters":0,"station_id":"","pricing_plan_id":"cebpf4jnsgd1na2vs0mg"},{"bike_id":"0d7ab61a-02ec-456f-ab23-ba92f34594d5","system_id":"levelo_inurba_marseille","lat":43.337444,"lon":5.374475,"is_reserved":false,"is_disabled":false,"rental_uris":{"android":"levelo://app?vid=0d7ab61a-02ec-456f-ab23-ba92f34594d5","ios":"levelo://app?vid=0d7ab61a-02ec-456f-ab23-ba92f34594d5"},"vehicle_type_id":"4","last_reported":1762413063,"current_range_meters":0,"station_id":"","pricing_plan_id":"cebpf4jnsgd1na2vs0mg"},{"bike_id":"f68022fa-eb0a-4aac-8aea-6f2e14d0afb9","system_id":"levelo_inurba_marseille","lat":43.337444,"lon":5.374475,"is_reserved":false,"is_disabled":false,"rental_uris":{"android":"levelo://app?vid=f68022fa-eb0a-4aac-8aea-6f2e14d0afb9","ios":"levelo://app?vid=f68022fa-eb0a-4aac-8aea-6f2e14d0afb9"},"vehicle_type_id":"4","last_reported":1762413063,"current_range_meters":0,"station_id":"","pricing_plan_id":"cebpf4jnsgd1na2vs0mg"},{"bike_id":"386a9781-f1f4-4d33-8679-4d1163c3b9de","system_id":"levelo_inurba_marseille","lat":43.337444,"lon":5.374475,"is_reserved":false,"is_disabled":false,"rental_uris":{"android":"levelo://app?vid=386a9781-f1f4-4d33-8679-4d1163c3b9de","ios":"levelo://app?vid=386a9781-f1f4-4d33-8679-4d1163c3b9de"},"vehicle_type_id":"4","last_reported":1762413063,"current_range_meters":0,"station_id":"","pricing_plan_id":"cebpf4jnsgd1na2vs0mg"},{"bike_id":"4692d694-8a80-47c7-a7c6-1264ca94c6df","system_id":"levelo_inurba_marseille","lat":43.337444,"lon":5.374475,"is_reserved":false,"is_disabled":false,"rental_uris":{"android":"levelo://app?vid=4692d694-8a80-47c7-a7c6-1264ca94c6df","ios":"levelo://app?vid=4692d694-8a80-47c7-a7c6-1264ca94c6df"},"vehicle_type_id":"4","last_reported":1762413063,"current_range_meters":0,"station_id":"","pricing_plan_id":"cebpf4jnsgd1na2vs0mg"},{"bike_id":"4706d18d-408c-4dc1-a44f-b0f99f27bdf0","system_id":"levelo_inurba_marseille","lat":43.337444,"lon":5.374475,"is_reserved":false,"is_disabled":false,"rental_uris":{"android":"levelo://app?vid=4706d18d-408c-4dc1-a44f-b0f99f27bdf0","ios":"levelo://app?vid=4706d18d-408c-4dc1-a44f-b0f99f27bdf0"},"vehicle_type_id":"4","last_reported":1762413063,"current_range_meters":0,"station_id":"","pricing_plan_id":"cebpf4jnsgd1na2vs0mg"},{"bike_id":"abb77335-fe7b-4b75-9b2f-be4bb45cbb0d","system_id":"levelo_inurba_marseille","lat":43.337444,"lon":5.374475,"is_reserved":false,"is_disabled":false,"rental_uris":{"android":"levelo://app?vid=abb77335-fe7b-4b75-9b2f-be4bb45cbb0d","ios":"levelo://app?vid=abb77335-fe7b-4b75-9b2f-be4bb45cbb0d"},"vehicle_type_id":"4","last_reported":1762413063,"current_range_meters":0,"station_id":"","pricing_plan_id":"cebpf4jnsgd1na2vs0mg"},{"bike_id":"4bde9393-6919-41f3-8fef-f4b40f375cc0","system_id":"levelo_inurba_marseille","lat":43.337444,"lon":5.374475,"is_reserved":false,"is_disabled":false,"rental_uris":{"android":"levelo://app?vid=4bde9393-6919-41f3-8fef-f4b40f375cc0","ios":"levelo://app?vid=4bde9393-6919-41f3-8fef-f4b40f375cc0"},"vehicle_type_id":"4","last_reported":1762413063,"current_range_meters":0,"station_id":"","pricing_plan_id":"cebpf4jnsgd1na2vs0mg"},{"bike_id":"51f4e824-5009-4c5b-9283-cfda2d34404c","system_id":"levelo_inurba_marseille","lat":43.337444,"lon":5.374475,"is_reserved":false,"is_disabled":false,"rental_uris":{"android":"levelo://app?vid=51f4e824-5009-4c5b-9283-cfda2d34404c","ios":"levelo://app?vid=51f4e824-5009-4c5b-9283-cfda2d34404c"},"vehicle_type_id":"4","last_reported":1762413063,"current_range_meters":0,"station_id":"","pricing_plan_id":"cebpf4jnsgd1na2vs0mg"},{"bike_id":"d155d58c-f50a-4469-b126-b5af1b8d3f8a","system_id":"levelo_inurba_marseille","lat":43.337444,"lon":5.374475,"is_reserved":false,"is_disabled":false,"rental_uris":{"android":"levelo://app?vid=d155d58c-f50a-4469-b126-b5af1b8d3f8a","ios":"levelo://app?vid=d155d58c-f50a-4469-b126-b5af1b8d3f8a"},"vehicle_type_id":"4","last_reported":1762413063,"current_range_meters":0,"station_id":"","pricing_plan_id":"cebpf4jnsgd1na2vs0mg"},{"bike_id":"16f471c2-a8ed-4e61-ba2a-d83085a9c284","system_id":"levelo_inurba_marseille","lat":43.337444,"lon":5.374475,"is_reserved":false,"is_disabled":false,"rental_uris":{"android":"levelo://app?vid=16f471c2-a8ed-4e61-ba2a-d83085a9c284","ios":"levelo://app?vid=16f471c2-a8ed-4e61-ba2a-d83085a9c284"},"vehicle_type_id":"4","last_reported":1762413063,"current_range_meters":0,"station_id":"","pricing_plan_id":"cebpf4jnsgd1na2vs0mg"},{"bike_id":"b8bd4cc4-f519-43de-b194-2cc2cf75483c","system_id":"levelo_inurba_marseille","lat":43.337444,"lon":5.374475,"is_reserved":false,"is_disabled":false,"rental_uris":{"android":"levelo://app?vid=b8bd4cc4-f519-43de-b194-2cc2cf75483c","ios":"levelo://app?vid=b8bd4cc4-f519-43de-b194-2cc2cf75483c"},"vehicle_type_id":"4","last_reported":1762413063,"current_range_meters":0,"station_id":"","pricing_plan_id":"cebpf4jnsgd1na2vs0mg"},{"bike_id":"591b062c-0423-40a0-9120-f7c30f97e98f","system_id":"levelo_inurba_marseille","lat":43.337444,"lon":5.374475,"is_reserved":false,"is_disabled":false,"rental_uris":{"android":"levelo://app?vid=591b062c-0423-40a0-9120-f7c30f97e98f","ios":"levelo://app?vid=591b062c-0423-40a0-9120-f7c30f97e98f"},"vehicle_type_id":"4","last_reported":1762413063,"current_range_meters":0,"station_id":"","pricing_plan_id":"cebpf4jnsgd1na2vs0mg"},{"bike_id":"8fbb8d57-565e-4232-a867-846a316b3375","system_id":"levelo_inurba_marseille","lat":43.337444,"lon":5.374475,"is_reserved":false,"is_disabled":false,"rental_uris":{"android":"levelo://app?vid=8fbb8d57-565e-4232-a867-846a316b3375","ios":"levelo://app?vid=8fbb8d57-565e-4232-a867-846a316b3375"},"vehicle_type_id":"4","last_reported":1762413063,"current_range_meters":0,"station_id":"","pricing_plan_id":"cebpf4jnsgd1na2vs0mg"},{"bike_id":"e6134458-396f-46c5-87ab-a79cf2b6424c","system_id":"levelo_inurba_marseille","lat":43.337444,"lon":5.374475,"is_reserved":false,"is_disabled":false,"rental_uris":{"android":"levelo://app?vid=e6134458-396f-46c5-87ab-a79cf2b6424c","ios":"levelo://app?vid=e6134458-396f-46c5-87ab-a79cf2b6424c"},"vehicle_type_id":"4","last_reported":1762413063,"current_range_meters":0,"station_id":"","pricing_plan_id":"cebpf4jnsgd1na2vs0mg"},{"bike_id":"0a0d4295-fe5b-4614-b2ca-f5579d5190b0","system_id":"levelo_inurba_marseille","lat":43.337444,"lon":5.374475,"is_reserved":false,"is_disabled":false,"rental_uris":{"android":"levelo://app?vid=0a0d4295-fe5b-4614-b2ca-f5579d5190b0","ios":"levelo://app?vid=0a0d4295-fe5b-4614-b2ca-f5579d5190b0"},"vehicle_type_id":"4","last_reported":1762413063,"current_range_meters":0,"station_id":"","pricing_plan_id":"cebpf4jnsgd1na2vs0mg"},{"bike_id":"62b2636f-adb6-4186-ae22-b1f76da4b7d0","system_id":"levelo_inurba_marseille","lat":43.31234,"lon":5.36861,"is_reserved":false,"is_disabled":false,"rental_uris":{"android":"levelo://app?vid=62b2636f-adb6-4186-ae22-b1f76da4b7d0","ios":"levelo://app?vid=62b2636f-adb6-4186-ae22-b1f76da4b7d0"},"vehicle_type_id":"4","last_reported":1762413063,"current_range_meters":2800,"station_id":"ce4bgl92rcd13ifvqbq0","pricing_plan_id":"cebpf4jnsgd1na2vs0mg"},{"bike_id":"d4ce5dc3-933e-4e6e-ba1b-58d6df8e1692","system_id":"levelo_inurba_marseille","lat":43.32538,"lon":5.41442,"is_reserved":false,"is_disabled":false,"rental_uris":{"android":"levelo://app?vid=d4ce5dc3-933e-4e6e-ba1b-58d6df8e1692","ios":"levelo://app?vid=d4ce5dc3-933e-4e6e-ba1b-58d6df8e1692"},"vehicle_type_id":"4","last_reported":1762413063,"current_range_meters":2800,"station_id":"ce4bhq12rcd13ifvqhhg","pricing_plan_id":"cebpf4jnsgd1na2vs0mg"},{"bike_id":"31a8232c-8dd0-41db-9f4f-f0bebaf9ed20","system_id":"levelo_inurba_marseille","lat":43.29789,"lon":5.38069,"is_reserved":false,"is_disabled":false,"rental_uris":{"android":"levelo://app?vid=31a8232c-8dd0-41db-9f4f-f0bebaf9ed20","ios":"levelo://app?vid=31a8232c-8dd0-41db-9f4f-f0bebaf9ed20"},"vehicle_type_id":"4","last_reported":1762413063,"current_range_meters":2800,"station_id":"ce4bgip2rcd13ifvqbb0","pricing_plan_id":"cebpf4jnsgd1na2vs0mg"},{"bike_id":"bbf12ce3-f3be-46d5-a0e9-a31469a056b4","system_id":"levelo_inurba_marseille","lat":43.30954,"lon":5.39037,"is_reserved":false,"is_disabled":false,"rental_uris":{"android":"levelo://app?vid=bbf12ce3-f3be-46d5-a0e9-a31469a056b4","ios":"levelo://app?vid=bbf12ce3-f3be-46d5-a0e9-a31469a056b4"},"vehicle_type_id":"4","last_reported":1762413063,"current_range_meters":3200,"station_id":"ce4bgup2rcd13ifvqco0","pricing_plan_id":"cebpf4jnsgd1na2vs0mg"},{"bike_id":"ab82886d-3cea-4c2b-aee3-edf7f8b4e0b8","system_id":"levelo_inurba_marseille","lat":43.301299,"lon":5.398593,"is_reserved":false,"is_disabled":false,"rental_uris":{"android":"levelo://app?vid=ab82886d-3cea-4c2b-aee3-edf7f8b4e0b8","ios":"levelo://app?vid=ab82886d-3cea-4c2b-aee3-edf7f8b4e0b8"},"vehicle_type_id":"4","last_reported":1762413063,"current_range_meters":3200,"station_id":"ce4bh0h2rcd13ifvqd40","pricing_plan_id":"cebpf4jnsgd1na2vs0mg"},{"bike_id":"23b003ed-5548-4deb-b9de-c1f2fcf8ca7e","system_id":"levelo_inurba_marseille","lat":43.2821,"lon":5.39062,"is_reserved":false,"is_disabled":false,"rental_uris":{"android":"levelo://app?vid=23b003ed-5548-4deb-b9de-c1f2fcf8ca7e","ios":"levelo://app?vid=23b003ed-5548-4deb-b9de-c1f2fcf8ca7e"},"vehicle_type_id":"4","last_reported":1762413063,"current_range_meters":3200,"station_id":"ce4bhn92rcd13ifvqgsg","pricing_plan_id":"cebpf4jnsgd1na2vs0mg"},{"bike_id":"41430360-4e8e-41bb-bdf4-e66db7291ea9","system_id":"levelo_inurba_marseille","lat":43.26557,"lon":5.39018,"is_reserved":false,"is_disabled":false,"rental_uris":{"android":"levelo://app?vid=41430360-4e8e-41bb-bdf4-e66db7291ea9","ios":"levelo://app?vid=41430360-4e8e-41bb-bdf4-e66db7291ea9"},"vehicle_type_id":"4","last_reported":1762413063,"current_range_meters":3200,"station_id":"ce4bhe12rcd13ifvqf30","pricing_plan_id":"cebpf4jnsgd1na2vs0mg"},{"bike_id":"4dfdfc7b-6dbd-404c-b9d8-554cc396af8f","system_id":"levelo_inurba_marseille","lat":43.287065,"lon":5.37948,"is_reserved":false,"is_disabled":false,"rental_uris":{"android":"levelo://app?vid=4dfdfc7b-6dbd-404c-b9d8-554cc396af8f","ios":"levelo://app?vid=4dfdfc7b-6dbd-404c-b9d8-554cc396af8f"},"vehicle_type_id":"4","last_reported":1762413063,"current_range_meters":3200,"station_id":"ce4bh9p2rcd13ifvqec0","pricing_plan_id":"cebpf4jnsgd1na2vs0mg"},{"bike_id":"ca027186-72c6-4358-8d7a-70b219e6273a","system_id":"levelo_inurba_marseille","lat":43.35069,"lon":5.38083,"is_reserved":false,"is_disabled":false,"rental_uris":{"android":"levelo://app?vid=ca027186-72c6-4358-8d7a-70b219e6273a","ios":"levelo://app?vid=ca027186-72c6-4358-8d7a-70b219e6273a"},"vehicle_type_id":"4","last_reported":1762413063,"current_range_meters":3600,"station_id":"","pricing_plan_id":"cebpf4jnsgd1na2vs0mg"},{"bike_id":"654dc482-8458-4686-a09b-a5e21a822232","system_id":"levelo_inurba_marseille","lat":43.231875,"lon":5.355572,"is_reserved":false,"is_disabled":false,"rental_uris":{"android":"levelo://app?vid=654dc482-8458-4686-a09b-a5e21a822232","ios":"levelo://app?vid=654dc482-8458-4686-a09b-a5e21a822232"},"vehicle_type_id":"4","last_reported":1762413063,"current_range_meters":3600,"station_id":"ce4bhu92rcd13ifvqi70","pricing_plan_id":"cebpf4jnsgd1na2vs0mg"},{"bike_id":"27c31e5e-45d2-4fa1-af09-7c93e271f655","system_id":"levelo_inurba_marseille","lat":43.24069,"lon":5.37767,"is_reserved":false,"is_disabled":false,"rental_uris":{"android":"levelo://app?vid=27c31e5e-45d2-4fa1-af09-7c93e271f655","ios":"levelo://app?vid=27c31e5e-45d2-4fa1-af09-7c93e271f655"},"vehicle_type_id":"4","last_reported":1762413063,"current_range_meters":3600,"station_id":"ce4bhnp2rcd13ifvqgvg","pricing_plan_id":"cebpf4jnsgd1na2vs0mg"},{"bike_id":"c076aafe-1f35-4f83-b993-2a85c4f5d38d","system_id":"levelo_inurba_marseille","lat":43.28341,"lon":5.38103,"is_reserved":false,"is_disabled":false,"rental_uris":{"android":"levelo://app?vid=c076aafe-1f35-4f83-b993-2a85c4f5d38d","ios":"levelo://app?vid=c076aafe-1f35-4f83-b993-2a85c4f5d38d"},"vehicle_type_id":"4","last_reported":1762413063,"current_range_meters":3600,"station_id":"ce4bh412rcd13ifvqdr0","pricing_plan_id":"cebpf4jnsgd1na2vs0mg"},{"bike_id":"70a3b2b0-e7d7-415e-a2c5-b19dc50c833b","system_id":"levelo_inurba_marseille","lat":43.29488,"lon":5.38728,"is_reserved":false,"is_disabled":false,"rental_uris":{"android":"levelo://app?vid=70a3b2b0-e7d7-415e-a2c5-b19dc50c833b","ios":"levelo://app?vid=70a3b2b0-e7d7-415e-a2c5-b19dc50c833b"},"vehicle_type_id":"4","last_reported":1762413063,"current_range_meters":3600,"station_id":"","pricing_plan_id":"cebpf4jnsgd1na2vs0mg"},{"bike_id":"f8fe01bb-9a7d-4ae0-9e10-eaf1265bf36d","system_id":"levelo_inurba_marseille","lat":43.296321,"lon":5.381424,"is_reserved":false,"is_disabled":false,"rental_uris":{"android":"levelo://app?vid=f8fe01bb-9a7d-4ae0-9e10-eaf1265bf36d","ios":"levelo://app?vid=f8fe01bb-9a7d-4ae0-9e10-eaf1265bf36d"},"vehicle_type_id":"4","last_reported":1762413063,"current_range_meters":4000,"station_id":"","pricing_plan_id":"cebpf4jnsgd1na2vs0mg"},{"bike_id":"c73ac938-35bc-41e9-b895-2def0a3473d7","system_id":"levelo_inurba_marseille","lat":43.29782,"lon":5.38114,"is_reserved":false,"is_disabled":false,"rental_uris":{"android":"levelo://app?vid=c73ac938-35bc-41e9-b895-2def0a3473d7","ios":"levelo://app?vid=c73ac938-35bc-41e9-b895-2def0a3473d7"},"vehicle_type_id":"4","last_reported":1762413063,"current_range_meters":4000,"station_id":"","pricing_plan_id":"cebpf4jnsgd1na2vs0mg"},{"bike_id":"35e065c6-34b1-4f79-ba6e-110dea036dce","system_id":"levelo_inurba_marseille","lat":43.27496,"lon":5.42475,"is_reserved":false,"is_disabled":false,"rental_uris":{"android":"levelo://app?vid=35e065c6-34b1-4f79-ba6e-110dea036dce","ios":"levelo://app?vid=35e065c6-34b1-4f79-ba6e-110dea036dce"},"vehicle_type_id":"4","last_reported":1762413063,"current_range_meters":4400,"station_id":"ce4bhn92rcd13ifvqgrg","pricing_plan_id":"cebpf4jnsgd1na2vs0mg"},{"bike_id":"dc6e4c2c-223e-452d-a4f5-a4515a266851","system_id":"levelo_inurba_marseille","lat":43.29262,"lon":5.37629,"is_reserved":false,"is_disabled":false,"rental_uris":{"android":"levelo://app?vid=dc6e4c2c-223e-452d-a4f5-a4515a266851","ios":"levelo://app?vid=dc6e4c2c-223e-452d-a4f5-a4515a266851"},"vehicle_type_id":"4","last_reported":1762413063,"current_range_meters":4800,"station_id":"ce4bgi12rcd13ifvqb80","pricing_plan_id":"cebpf4jnsgd1na2vs0mg"},{"bike_id":"faa273b1-03c7-4362-9b6d-99530942d732","system_id":"levelo_inurba_marseille","lat":43.24071,"lon":5.37754,"is_reserved":false,"is_disabled":false,"rental_uris":{"android":"levelo://app?vid=faa273b1-03c7-4362-9b6d-99530942d732","ios":"levelo://app?vid=faa273b1-03c7-4362-9b6d-99530942d732"},"vehicle_type_id":"4","last_reported":1762413063,"current_range_meters":5600,"station_id":"ce4bhnp2rcd13ifvqgvg","pricing_plan_id":"cebpf4jnsgd1na2vs0mg"},{"bike_id":"5e6b5e6b-9f8a-43ab-9eb8-b69e41a6c1e6","system_id":"levelo_inurba_marseille","lat":43.225298,"lon":5.348365,"is_reserved":false,"is_disabled":false,"rental_uris":{"android":"levelo://app?vid=5e6b5e6b-9f8a-43ab-9eb8-b69e41a6c1e6","ios":"levelo://app?vid=5e6b5e6b-9f8a-43ab-9eb8-b69e41a6c1e6"},"vehicle_type_id":"4","last_reported":1762413063,"current_range_meters":5600,"station_id":"","pricing_plan_id":"cebpf4jnsgd1na2vs0mg"},{"bike_id":"724341e6-e44b-47f7-b6c1-ff2fb8637e62","system_id":"levelo_inurba_marseille","lat":43.254891,"lon":5.376631,"is_reserved":false,"is_disabled":false,"rental_uris":{"android":"levelo://app?vid=724341e6-e44b-47f7-b6c1-ff2fb8637e62","ios":"levelo://app?vid=724341e6-e44b-47f7-b6c1-ff2fb8637e62"},"vehicle_type_id":"4","last_reported":1762413063,"current_range_meters":5600,"station_id":"ce4bhh12rcd13ifvqff0","pricing_plan_id":"cebpf4jnsgd1na2vs0mg"},{"bike_id":"ad483091-7411-4e16-8cc4-09042e8161f5","system_id":"levelo_inurba_marseille","lat":43.273468,"lon":5.385179,"is_reserved":false,"is_disabled":true,"rental_uris":{"android":"levelo://app?vid=ad483091-7411-4e16-8cc4-09042e8161f5","ios":"levelo://app?vid=ad483091-7411-4e16-8cc4-09042e8161f5"},"vehicle_type_id":"4","last_reported":1762413063,"current_range_meters":5600,"station_id":"","pricing_plan_id":"cebpf4jnsgd1na2vs0mg"},{"bike_id":"f7a192fe-ecfa-451f-8d3a-3c4f39209fc4","system_id":"levelo_inurba_marseille","lat":43.32368,"lon":5.38886,"is_reserved":false,"is_disabled":false,"rental_uris":{"android":"levelo://app?vid=f7a192fe-ecfa-451f-8d3a-3c4f39209fc4","ios":"levelo://app?vid=f7a192fe-ecfa-451f-8d3a-3c4f39209fc4"},"vehicle_type_id":"4","last_reported":1762413063,"current_range_meters":6000,"station_id":"ce4bhqp2rcd13ifvqhog","pricing_plan_id":"cebpf4jnsgd1na2vs0mg"},{"bike_id":"4b457b4d-0163-4a40-8157-7d73e31359cb","system_id":"levelo_inurba_marseille","lat":43.286883,"lon":5.379723,"is_reserved":false,"is_disabled":false,"rental_uris":{"android":"levelo://app?vid=4b457b4d-0163-4a40-8157-7d73e31359cb","ios":"levelo://app?vid=4b457b4d-0163-4a40-8157-7d73e31359cb"},"vehicle_type_id":"4","last_reported":1762413063,"current_range_meters":6000,"station_id":"ce4bh9p2rcd13ifvqec0","pricing_plan_id":"cebpf4jnsgd1na2vs0mg"},{"bike_id":"43241b2a-4cb5-4e4c-8865-8a8693625499","system_id":"levelo_inurba_marseille","lat":43.312776,"lon":5.378433,"is_reserved":false,"is_disabled":false,"rental_uris":{"android":"levelo://app?vid=43241b2a-4cb5-4e4c-8865-8a8693625499","ios":"levelo://app?vid=43241b2a-4cb5-4e4c-8865-8a8693625499"},"vehicle_type_id":"4","last_reported":1762413063,"current_range_meters":6000,"station_id":"","pricing_plan_id":"cebpf4jnsgd1na2vs0mg"},{"bike_id":"ea834091-b955-4cbd-a079-0c74843e9f4e","system_id":"levelo_inurba_marseille","lat":43.30452,"lon":5.38905,"is_reserved":false,"is_disabled":false,"rental_uris":{"android":"levelo://app?vid=ea834091-b955-4cbd-a079-0c74843e9f4e","ios":"levelo://app?vid=ea834091-b955-4cbd-a079-0c74843e9f4e"},"vehicle_type_id":"4","last_reported":1762413063,"current_range_meters":6000,"station_id":"ce4bgk12rcd13ifvqbi0","pricing_plan_id":"cebpf4jnsgd1na2vs0mg"},{"bike_id":"430765a4-80be-4420-93bc-106b6fd5744d","system_id":"levelo_inurba_marseille","lat":43.31337,"lon":5.3674,"is_reserved":false,"is_disabled":false,"rental_uris":{"android":"levelo://app?vid=430765a4-80be-4420-93bc-106b6fd5744d","ios":"levelo://app?vid=430765a4-80be-4420-93bc-106b6fd5744d"},"vehicle_type_id":"4","last_reported":1762413063,"current_range_meters":6400,"station_id":"ce4bgr92rcd13ifvqc6g","pricing_plan_id":"cebpf4jnsgd1na2vs0mg"},{"bike_id":"cd9c6c8f-813a-4b2c-b0c7-7a3265cb2fa0","system_id":"levelo_inurba_marseille","lat":43.24235,"lon":5.39338,"is_reserved":false,"is_disabled":false,"rental_uris":{"android":"levelo://app?vid=cd9c6c8f-813a-4b2c-b0c7-7a3265cb2fa0","ios":"levelo://app?vid=cd9c6c8f-813a-4b2c-b0c7-7a3265cb2fa0"},"vehicle_type_id":"4","last_reported":1762413063,"current_range_meters":6400,"station_id":"","pricing_plan_id":"cebpf4jnsgd1na2vs0mg"},{"bike_id":"cbe43fe5-7148-4241-81a4-6031e6525719","system_id":"levelo_inurba_marseille","lat":43.24081,"lon":5.37748,"is_reserved":false,"is_disabled":false,"rental_uris":{"android":"levelo://app?vid=cbe43fe5-7148-4241-81a4-6031e6525719","ios":"levelo://app?vid=cbe43fe5-7148-4241-81a4-6031e6525719"},"vehicle_type_id":"4","last_reported":1762413063,"current_range_meters":6800,"station_id":"ce4bhnp2rcd13ifvqgvg","pricing_plan_id":"cebpf4jnsgd1na2vs0mg"},{"bike_id":"a7b4d796-510e-4e56-b3d4-df510aaa5de9","system_id":"levelo_inurba_marseille","lat":43.29025,"lon":5.35631,"is_reserved":false,"is_disabled":false,"rental_uris":{"android":"levelo://app?vid=a7b4d796-510e-4e56-b3d4-df510aaa5de9","ios":"levelo://app?vid=a7b4d796-510e-4e56-b3d4-df510aaa5de9"},"vehicle_type_id":"4","last_reported":1762413063,"current_range_meters":6800,"station_id":"ce4bhb92rcd13ifvqen0","pricing_plan_id":"cebpf4jnsgd1na2vs0mg"},{"bike_id":"ea4f4b84-78b0-4180-a7f8-ecb8c6182713","system_id":"levelo_inurba_marseille","lat":43.2953,"lon":5.36104,"is_reserved":false,"is_disabled":true,"rental_uris":{"android":"levelo://app?vid=ea4f4b84-78b0-4180-a7f8-ecb8c6182713","ios":"levelo://app?vid=ea4f4b84-78b0-4180-a7f8-ecb8c6182713"},"vehicle_type_id":"4","last_reported":1762413063,"current_range_meters":6800,"station_id":"","pricing_plan_id":"cebpf4jnsgd1na2vs0mg"},{"bike_id":"9fe30441-607b-48c5-8998-b42f578e823c","system_id":"levelo_inurba_marseille","lat":43.29568,"lon":5.39974,"is_reserved":false,"is_disabled":false,"rental_uris":{"android":"levelo://app?vid=9fe30441-607b-48c5-8998-b42f578e823c","ios":"levelo://app?vid=9fe30441-607b-48c5-8998-b42f578e823c"},"vehicle_type_id":"4","last_reported":1762413063,"current_range_meters":7200,"station_id":"ce4bh312rcd13ifvqdj0","pricing_plan_id":"cebpf4jnsgd1na2vs0mg"},{"bike_id":"0137f4bc-0bfc-43bf-aefb-d98bea529d9f","system_id":"levelo_inurba_marseille","lat":43.29572,"lon":5.37505,"is_reserved":false,"is_disabled":false,"rental_uris":{"android":"levelo://app?vid=0137f4bc-0bfc-43bf-aefb-d98bea529d9f","ios":"levelo://app?vid=0137f4bc-0bfc-43bf-aefb-d98bea529d9f"},"vehicle_type_id":"4","last_reported":1762413063,"current_range_meters":7200,"station_id":"ce4bgh92rcd13ifvqb50","pricing_plan_id":"cebpf4jnsgd1na2vs0mg"},{"bike_id":"c8227461-4566-4216-906e-491a3e77df3d","system_id":"levelo_inurba_marseille","lat":43.24379,"lon":5.37054,"is_reserved":false,"is_disabled":false,"rental_uris":{"android":"levelo://app?vid=c8227461-4566-4216-906e-491a3e77df3d","ios":"levelo://app?vid=c8227461-4566-4216-906e-491a3e77df3d"},"vehicle_type_id":"4","last_reported":1762413063,"current_range_meters":8000,"station_id":"ce4bhhh2rcd13ifvqfk0","pricing_plan_id":"cebpf4jnsgd1na2vs0mg"},{"bike_id":"dcd7cc05-09ca-451c-b5c3-aec30ed844a3","system_id":"levelo_inurba_marseille","lat":43.295053,"lon":5.427368,"is_reserved":false,"is_disabled":false,"rental_uris":{"android":"levelo://app?vid=dcd7cc05-09ca-451c-b5c3-aec30ed844a3","ios":"levelo://app?vid=dcd7cc05-09ca-451c-b5c3-aec30ed844a3"},"vehicle_type_id":"4","last_reported":1762413063,"current_range_meters":8000,"station_id":"","pricing_plan_id":"cebpf4jnsgd1na2vs0mg"},{"bike_id":"36dadbf7-a228-4f6f-8b08-391008b68693","system_id":"levelo_inurba_marseille","lat":43.345617,"lon":5.368566,"is_reserved":false,"is_disabled":false,"rental_uris":{"android":"levelo://app?vid=36dadbf7-a228-4f6f-8b08-391008b68693","ios":"levelo://app?vid=36dadbf7-a228-4f6f-8b08-391008b68693"},"vehicle_type_id":"4","last_reported":1762413063,"current_range_meters":8000,"station_id":"","pricing_plan_id":"cebpf4jnsgd1na2vs0mg"},{"bike_id":"007ef72d-08cc-479c-9365-09157a1fd2b7","system_id":"levelo_inurba_marseille","lat":43.29709,"lon":5.37715,"is_reserved":false,"is_disabled":false,"rental_uris":{"android":"levelo://app?vid=007ef72d-08cc-479c-9365-09157a1fd2b7","ios":"levelo://app?vid=007ef72d-08cc-479c-9365-09157a1fd2b7"},"vehicle_type_id":"4","last_reported":1762413063,"current_range_meters":8000,"station_id":"ce4bgkh2rcd13ifvqbl0","pricing_plan_id":"cebpf4jnsgd1na2vs0mg"},{"bike_id":"5176c9ae-98fc-45dc-8231-69b11255d153","system_id":"levelo_inurba_marseille","lat":43.23154,"lon":5.43729,"is_reserved":false,"is_disabled":false,"rental_uris":{"android":"levelo://app?vid=5176c9ae-98fc-45dc-8231-69b11255d153","ios":"levelo://app?vid=5176c9ae-98fc-45dc-8231-69b11255d153"},"vehicle_type_id":"4","last_reported":1762413063,"current_range_meters":8000,"station_id":"ce4bhmp2rcd13ifvqgog","pricing_plan_id":"cebpf4jnsgd1na2vs0mg"},{"bike_id":"65363b1f-aeab-46b9-a6bc-793f50a40e22","system_id":"levelo_inurba_marseille","lat":43.28271,"lon":5.35056,"is_reserved":false,"is_disabled":true,"rental_uris":{"android":"levelo://app?vid=65363b1f-aeab-46b9-a6bc-793f50a40e22","ios":"levelo://app?vid=65363b1f-aeab-46b9-a6bc-793f50a40e22"},"vehicle_type_id":"4","last_reported":1762413063,"current_range_meters":8000,"station_id":"ce4bhbp2rcd13ifvqerg","pricing_plan_id":"cebpf4jnsgd1na2vs0mg"},{"bike_id":"4b24dbba-41a5-4ecf-ade9-ac15d69f3a39","system_id":"levelo_inurba_marseille","lat":43.30277,"lon":5.37689,"is_reserved":false,"is_disabled":false,"rental_uris":{"android":"levelo://app?vid=4b24dbba-41a5-4ecf-ade9-ac15d69f3a39","ios":"levelo://app?vid=4b24dbba-41a5-4ecf-ade9-ac15d69f3a39"},"vehicle_type_id":"4","last_reported":1762413063,"current_range_meters":8400,"station_id":"ce4bguh2rcd13ifvqcj0","pricing_plan_id":"cebpf4jnsgd1na2vs0mg"},{"bike_id":"753fbd5c-4755-4f28-bded-be48c8eb664d","system_id":"levelo_inurba_marseille","lat":43.33607,"lon":5.41026,"is_reserved":false,"is_disabled":false,"rental_uris":{"android":"levelo://app?vid=753fbd5c-4755-4f28-bded-be48c8eb664d","ios":"levelo://app?vid=753fbd5c-4755-4f28-bded-be48c8eb664d"},"vehicle_type_id":"4","last_reported":1762413063,"current_range_meters":8400,"station_id":"ce4bhqh2rcd13ifvqhmg","pricing_plan_id":"cebpf4jnsgd1na2vs0mg"},{"bike_id":"f9092b8b-f8d5-4fa7-b2da-db639c54cc1c","system_id":"levelo_inurba_marseille","lat":43.32108,"lon":5.36796,"is_reserved":false,"is_disabled":false,"rental_uris":{"android":"levelo://app?vid=f9092b8b-f8d5-4fa7-b2da-db639c54cc1c","ios":"levelo://app?vid=f9092b8b-f8d5-4fa7-b2da-db639c54cc1c"},"vehicle_type_id":"4","last_reported":1762413063,"current_range_meters":8400,"station_id":"ce4bhrh2rcd13ifvqhug","pricing_plan_id":"cebpf4jnsgd1na2vs0mg"},{"bike_id":"765b9661-2b24-4c0f-a9fb-732d7409b10c","system_id":"levelo_inurba_marseille","lat":43.21633,"lon":5.34424,"is_reserved":false,"is_disabled":false,"rental_uris":{"android":"levelo://app?vid=765b9661-2b24-4c0f-a9fb-732d7409b10c","ios":"levelo://app?vid=765b9661-2b24-4c0f-a9fb-732d7409b10c"},"vehicle_type_id":"4","last_reported":1762413063,"current_range_meters":8400,"station_id":"","pricing_plan_id":"cebpf4jnsgd1na2vs0mg"},{"bike_id":"c00ec1c6-2cb6-455a-a30c-ed3b3ffafd0a","system_id":"levelo_inurba_marseille","lat":43.273645,"lon":5.424048,"is_reserved":false,"is_disabled":false,"rental_uris":{"android":"levelo://app?vid=c00ec1c6-2cb6-455a-a30c-ed3b3ffafd0a","ios":"levelo://app?vid=c00ec1c6-2cb6-455a-a30c-ed3b3ffafd0a"},"vehicle_type_id":"4","last_reported":1762413063,"current_range_meters":8400,"station_id":"","pricing_plan_id":"cebpf4jnsgd1na2vs0mg"},{"bike_id":"e7002296-a724-4792-9c77-9aa7da662e7d","system_id":"levelo_inurba_marseille","lat":43.29752,"lon":5.36248,"is_reserved":false,"is_disabled":false,"rental_uris":{"android":"levelo://app?vid=e7002296-a724-4792-9c77-9aa7da662e7d","ios":"levelo://app?vid=e7002296-a724-4792-9c77-9aa7da662e7d"},"vehicle_type_id":"4","last_reported":1762413063,"current_range_meters":8400,"station_id":"","pricing_plan_id":"cebpf4jnsgd1na2vs0mg"},{"bike_id":"8ac34499-11b0-45a8-a728-0e9a92154d4f","system_id":"levelo_inurba_marseille","lat":43.28485,"lon":5.38431,"is_reserved":false,"is_disabled":false,"rental_uris":{"android":"levelo://app?vid=8ac34499-11b0-45a8-a728-0e9a92154d4f","ios":"levelo://app?vid=8ac34499-11b0-45a8-a728-0e9a92154d4f"},"vehicle_type_id":"4","last_reported":1762413063,"current_range_meters":8400,"station_id":"ce4bh512rcd13ifvqe3g","pricing_plan_id":"cebpf4jnsgd1na2vs0mg"},{"bike_id":"ac3661dd-248f-4b92-ad04-1fbf8e5c6660","system_id":"levelo_inurba_marseille","lat":43.280325,"lon":5.369378,"is_reserved":false,"is_disabled":true,"rental_uris":{"android":"levelo://app?vid=ac3661dd-248f-4b92-ad04-1fbf8e5c6660","ios":"levelo://app?vid=ac3661dd-248f-4b92-ad04-1fbf8e5c6660"},"vehicle_type_id":"4","last_reported":1762413063,"current_range_meters":8400,"station_id":"ce4bha12rcd13ifvqef0","pricing_plan_id":"cebpf4jnsgd1na2vs0mg"},{"bike_id":"02c565c9-e1be-4475-b1a9-b37751cdb830","system_id":"levelo_inurba_marseille","lat":43.34339,"lon":5.3484,"is_reserved":false,"is_disabled":false,"rental_uris":{"android":"levelo://app?vid=02c565c9-e1be-4475-b1a9-b37751cdb830","ios":"levelo://app?vid=02c565c9-e1be-4475-b1a9-b37751cdb830"},"vehicle_type_id":"4","last_reported":1762413063,"current_range_meters":8800,"station_id":"","pricing_plan_id":"cebpf4jnsgd1na2vs0mg"},{"bike_id":"dda6aa5e-77ba-4a8f-9fba-4bef04d7dc5c","system_id":"levelo_inurba_marseille","lat":43.270621,"lon":5.383032,"is_reserved":false,"is_disabled":false,"rental_uris":{"android":"levelo://app?vid=dda6aa5e-77ba-4a8f-9fba-4bef04d7dc5c","ios":"levelo://app?vid=dda6aa5e-77ba-4a8f-9fba-4bef04d7dc5c"},"vehicle_type_id":"4","last_reported":1762413063,"current_range_meters":8800,"station_id":"st_d3n2fo6cfp8s73cte1j0","pricing_plan_id":"cebpf4jnsgd1na2vs0mg"},{"bike_id":"f9a20c01-bbfa-4607-9039-c5f9dea4be43","system_id":"levelo_inurba_marseille","lat":43.2594,"lon":5.409,"is_reserved":false,"is_disabled":false,"rental_uris":{"android":"levelo://app?vid=f9a20c01-bbfa-4607-9039-c5f9dea4be43","ios":"levelo://app?vid=f9a20c01-bbfa-4607-9039-c5f9dea4be43"},"vehicle_type_id":"4","last_reported":1762413063,"current_range_meters":8800,"station_id":"ce4bhm92rcd13ifvqglg","pricing_plan_id":"cebpf4jnsgd1na2vs0mg"},{"bike_id":"c2f2788a-6d1f-4f8f-9d22-94bd03a34da7","system_id":"levelo_inurba_marseille","lat":43.28701,"lon":5.39987,"is_reserved":false,"is_disabled":true,"rental_uris":{"android":"levelo://app?vid=c2f2788a-6d1f-4f8f-9d22-94bd03a34da7","ios":"levelo://app?vid=c2f2788a-6d1f-4f8f-9d22-94bd03a34da7"},"vehicle_type_id":"4","last_reported":1762413063,"current_range_meters":8800,"station_id":"ce4bho92rcd13ifvqh3g","pricing_plan_id":"cebpf4jnsgd1na2vs0mg"},{"bike_id":"7283b808-3228-4b0a-a7ad-8e69eaae0be0","system_id":"levelo_inurba_marseille","lat":43.27316,"lon":5.39094,"is_reserved":false,"is_disabled":true,"rental_uris":{"android":"levelo://app?vid=7283b808-3228-4b0a-a7ad-8e69eaae0be0","ios":"levelo://app?vid=7283b808-3228-4b0a-a7ad-8e69eaae0be0"},"vehicle_type_id":"4","last_reported":1762413063,"current_range_meters":8800,"station_id":"ce4bhgp2rcd13ifvqfe0","pricing_plan_id":"cebpf4jnsgd1na2vs0mg"},{"bike_id":"3ed02add-87f3-41d7-bdf1-1cf82493034f","system_id":"levelo_inurba_marseille","lat":43.293125,"lon":5.383218,"is_reserved":false,"is_disabled":false,"rental_uris":{"android":"levelo://app?vid=3ed02add-87f3-41d7-bdf1-1cf82493034f","ios":"levelo://app?vid=3ed02add-87f3-41d7-bdf1-1cf82493034f"},"vehicle_type_id":"4","last_reported":1762413063,"current_range_meters":8800,"station_id":"","pricing_plan_id":"cebpf4jnsgd1na2vs0mg"},{"bike_id":"3355aec0-a377-4834-a229-72cc5e26f38f","system_id":"levelo_inurba_marseille","lat":43.308202,"lon":5.368965,"is_reserved":false,"is_disabled":false,"rental_uris":{"android":"levelo://app?vid=3355aec0-a377-4834-a229-72cc5e26f38f","ios":"levelo://app?vid=3355aec0-a377-4834-a229-72cc5e26f38f"},"vehicle_type_id":"4","last_reported":1762413063,"current_range_meters":8800,"station_id":"ce4bgn92rcd13ifvqbvg","pricing_plan_id":"cebpf4jnsgd1na2vs0mg"},{"bike_id":"70cb578b-b109-4b39-bffa-8ea3228aa29c","system_id":"levelo_inurba_marseille","lat":43.27999,"lon":5.41687,"is_reserved":false,"is_disabled":false,"rental_uris":{"android":"levelo://app?vid=70cb578b-b109-4b39-bffa-8ea3228aa29c","ios":"levelo://app?vid=70cb578b-b109-4b39-bffa-8ea3228aa29c"},"vehicle_type_id":"4","last_reported":1762413063,"current_range_meters":8800,"station_id":"","pricing_plan_id":"cebpf4jnsgd1na2vs0mg"},{"bike_id":"15b3727e-ebf6-4ad4-90fe-1847789c430d","system_id":"levelo_inurba_marseille","lat":43.29032,"lon":5.39974,"is_reserved":false,"is_disabled":false,"rental_uris":{"android":"levelo://app?vid=15b3727e-ebf6-4ad4-90fe-1847789c430d","ios":"levelo://app?vid=15b3727e-ebf6-4ad4-90fe-1847789c430d"},"vehicle_type_id":"4","last_reported":1762413063,"current_range_meters":9200,"station_id":"ce4bh392rcd13ifvqdm0","pricing_plan_id":"cebpf4jnsgd1na2vs0mg"},{"bike_id":"7375127c-bef1-42fe-a4c7-88f5ae40b4cd","system_id":"levelo_inurba_marseille","lat":43.23154,"lon":5.43713,"is_reserved":false,"is_disabled":false,"rental_uris":{"android":"levelo://app?vid=7375127c-bef1-42fe-a4c7-88f5ae40b4cd","ios":"levelo://app?vid=7375127c-bef1-42fe-a4c7-88f5ae40b4cd"},"vehicle_type_id":"4","last_reported":1762413063,"current_range_meters":9200,"station_id":"ce4bhmp2rcd13ifvqgog","pricing_plan_id":"cebpf4jnsgd1na2vs0mg"},{"bike_id":"3f14eb3d-e886-442c-a29d-ce46126f5339","system_id":"levelo_inurba_marseille","lat":43.2294,"lon":5.35383,"is_reserved":false,"is_disabled":false,"rental_uris":{"android":"levelo://app?vid=3f14eb3d-e886-442c-a29d-ce46126f5339","ios":"levelo://app?vid=3f14eb3d-e886-442c-a29d-ce46126f5339"},"vehicle_type_id":"4","last_reported":1762413063,"current_range_meters":9200,"station_id":"cpo3532slgdg3j2ikp40","pricing_plan_id":"cebpf4jnsgd1na2vs0mg"},{"bike_id":"cbf56b2a-2fe7-49c7-b629-bc93f74b7393","system_id":"levelo_inurba_marseille","lat":43.24561,"lon":5.41538,"is_reserved":false,"is_disabled":false,"rental_uris":{"android":"levelo://app?vid=cbf56b2a-2fe7-49c7-b629-bc93f74b7393","ios":"levelo://app?vid=cbf56b2a-2fe7-49c7-b629-bc93f74b7393"},"vehicle_type_id":"4","last_reported":1762413063,"current_range_meters":9200,"station_id":"","pricing_plan_id":"cebpf4jnsgd1na2vs0mg"},{"bike_id":"a78be7ef-ae0f-49a7-8453-8ec60fdfc997","system_id":"levelo_inurba_marseille","lat":43.30603,"lon":5.39343,"is_reserved":false,"is_disabled":false,"rental_uris":{"android":"levelo://app?vid=a78be7ef-ae0f-49a7-8453-8ec60fdfc997","ios":"levelo://app?vid=a78be7ef-ae0f-49a7-8453-8ec60fdfc997"},"vehicle_type_id":"4","last_reported":1762413063,"current_range_meters":9200,"station_id":"ce4bh0p2rcd13ifvqd80","pricing_plan_id":"cebpf4jnsgd1na2vs0mg"},{"bike_id":"b4a48015-91a6-48e9-81f2-63022e58e6ef","system_id":"levelo_inurba_marseille","lat":43.30157,"lon":5.38088,"is_reserved":false,"is_disabled":false,"rental_uris":{"android":"levelo://app?vid=b4a48015-91a6-48e9-81f2-63022e58e6ef","ios":"levelo://app?vid=b4a48015-91a6-48e9-81f2-63022e58e6ef"},"vehicle_type_id":"4","last_reported":1762413063,"current_range_meters":9200,"station_id":"ce4bgjp2rcd13ifvqbh0","pricing_plan_id":"cebpf4jnsgd1na2vs0mg"},{"bike_id":"78e9ed0c-03f7-4640-9361-03712cad71eb","system_id":"levelo_inurba_marseille","lat":43.25333,"lon":5.42169,"is_reserved":false,"is_disabled":false,"rental_uris":{"android":"levelo://app?vid=78e9ed0c-03f7-4640-9361-03712cad71eb","ios":"levelo://app?vid=78e9ed0c-03f7-4640-9361-03712cad71eb"},"vehicle_type_id":"4","last_reported":1762413063,"current_range_meters":9200,"station_id":"st_d2m65c5bi1j21697t3ng","pricing_plan_id":"cebpf4jnsgd1na2vs0mg"},{"bike_id":"2cb40037-0a85-40a4-b02d-f000f63d2857","system_id":"levelo_inurba_marseille","lat":43.3137,"lon":5.38491,"is_reserved":false,"is_disabled":false,"rental_uris":{"android":"levelo://app?vid=2cb40037-0a85-40a4-b02d-f000f63d2857","ios":"levelo://app?vid=2cb40037-0a85-40a4-b02d-f000f63d2857"},"vehicle_type_id":"4","last_reported":1762413063,"current_range_meters":9200,"station_id":"ce4bgt92rcd13ifvqcf0","pricing_plan_id":"cebpf4jnsgd1na2vs0mg"},{"bike_id":"8dbe5e0f-cd92-43ad-ab85-02ba87ee5fd2","system_id":"levelo_inurba_marseille","lat":43.29264,"lon":5.40148,"is_reserved":false,"is_disabled":false,"rental_uris":{"android":"levelo://app?vid=8dbe5e0f-cd92-43ad-ab85-02ba87ee5fd2","ios":"levelo://app?vid=8dbe5e0f-cd92-43ad-ab85-02ba87ee5fd2"},"vehicle_type_id":"4","last_reported":1762413063,"current_range_meters":9200,"station_id":"ce4bh312rcd13ifvqdk0","pricing_plan_id":"cebpf4jnsgd1na2vs0mg"},{"bike_id":"7dd0a1b1-116d-4fee-bfcb-0eb5c293dfac","system_id":"levelo_inurba_marseille","lat":43.25815,"lon":5.39441,"is_reserved":false,"is_disabled":false,"rental_uris":{"android":"levelo://app?vid=7dd0a1b1-116d-4fee-bfcb-0eb5c293dfac","ios":"levelo://app?vid=7dd0a1b1-116d-4fee-bfcb-0eb5c293dfac"},"vehicle_type_id":"4","last_reported":1762413063,"current_range_meters":9200,"station_id":"ce4bhip2rcd13ifvqft0","pricing_plan_id":"cebpf4jnsgd1na2vs0mg"},{"bike_id":"a80322af-ed5b-4292-a927-2fe8792435d5","system_id":"levelo_inurba_marseille","lat":43.294,"lon":5.38454,"is_reserved":false,"is_disabled":false,"rental_uris":{"android":"levelo://app?vid=a80322af-ed5b-4292-a927-2fe8792435d5","ios":"levelo://app?vid=a80322af-ed5b-4292-a927-2fe8792435d5"},"vehicle_type_id":"4","last_reported":1762413063,"current_range_meters":9200,"station_id":"","pricing_plan_id":"cebpf4jnsgd1na2vs0mg"},{"bike_id":"571bd3a6-912b-44a3-9841-50c558a61481","system_id":"levelo_inurba_marseille","lat":43.28116,"lon":5.40584,"is_reserved":false,"is_disabled":false,"rental_uris":{"android":"levelo://app?vid=571bd3a6-912b-44a3-9841-50c558a61481","ios":"levelo://app?vid=571bd3a6-912b-44a3-9841-50c558a61481"},"vehicle_type_id":"4","last_reported":1762413063,"current_range_meters":9600,"station_id":"","pricing_plan_id":"cebpf4jnsgd1na2vs0mg"},{"bike_id":"5a8b96ec-cb05-46c6-90cd-f561f8fce9ca","system_id":"levelo_inurba_marseille","lat":43.23153,"lon":5.43737,"is_reserved":false,"is_disabled":false,"rental_uris":{"android":"levelo://app?vid=5a8b96ec-cb05-46c6-90cd-f561f8fce9ca","ios":"levelo://app?vid=5a8b96ec-cb05-46c6-90cd-f561f8fce9ca"},"vehicle_type_id":"4","last_reported":1762413063,"current_range_meters":9600,"station_id":"ce4bhmp2rcd13ifvqgog","pricing_plan_id":"cebpf4jnsgd1na2vs0mg"},{"bike_id":"171042e6-3f87-41d6-8406-d07f86739712","system_id":"levelo_inurba_marseille","lat":43.309474,"lon":5.373181,"is_reserved":false,"is_disabled":true,"rental_uris":{"android":"levelo://app?vid=171042e6-3f87-41d6-8406-d07f86739712","ios":"levelo://app?vid=171042e6-3f87-41d6-8406-d07f86739712"},"vehicle_type_id":"4","last_reported":1762413063,"current_range_meters":9600,"station_id":"ce4bgt92rcd13ifvqcg0","pricing_plan_id":"cebpf4jnsgd1na2vs0mg"},{"bike_id":"8db420a7-407a-4cd3-9095-5a8e96625979","system_id":"levelo_inurba_marseille","lat":43.229328,"lon":5.353716,"is_reserved":false,"is_disabled":false,"rental_uris":{"android":"levelo://app?vid=8db420a7-407a-4cd3-9095-5a8e96625979","ios":"levelo://app?vid=8db420a7-407a-4cd3-9095-5a8e96625979"},"vehicle_type_id":"4","last_reported":1762413063,"current_range_meters":9600,"station_id":"cpo3532slgdg3j2ikp40","pricing_plan_id":"cebpf4jnsgd1na2vs0mg"},{"bike_id":"b9b03716-14ec-4e20-86a2-04f10e814909","system_id":"levelo_inurba_marseille","lat":43.291413,"lon":5.383119,"is_reserved":false,"is_disabled":false,"rental_uris":{"android":"levelo://app?vid=b9b03716-14ec-4e20-86a2-04f10e814909","ios":"levelo://app?vid=b9b03716-14ec-4e20-86a2-04f10e814909"},"vehicle_type_id":"4","last_reported":1762413063,"current_range_meters":9600,"station_id":"ce4bgl12rcd13ifvqbo0","pricing_plan_id":"cebpf4jnsgd1na2vs0mg"},{"bike_id":"41b64dfa-4df1-49a2-baec-dcbb6a771301","system_id":"levelo_inurba_marseille","lat":43.26567,"lon":5.37293,"is_reserved":false,"is_disabled":false,"rental_uris":{"android":"levelo://app?vid=41b64dfa-4df1-49a2-baec-dcbb6a771301","ios":"levelo://app?vid=41b64dfa-4df1-49a2-baec-dcbb6a771301"},"vehicle_type_id":"4","last_reported":1762413063,"current_range_meters":9600,"station_id":"ce4bhg12rcd13ifvqf70","pricing_plan_id":"cebpf4jnsgd1na2vs0mg"},{"bike_id":"76b7b0d3-59f1-4530-8573-24bcc168f308","system_id":"levelo_inurba_marseille","lat":43.284618,"lon":5.358814,"is_reserved":false,"is_disabled":false,"rental_uris":{"android":"levelo://app?vid=76b7b0d3-59f1-4530-8573-24bcc168f308","ios":"levelo://app?vid=76b7b0d3-59f1-4530-8573-24bcc168f308"},"vehicle_type_id":"4","last_reported":1762413063,"current_range_meters":9600,"station_id":"ce4bhah2rcd13ifvqei0","pricing_plan_id":"cebpf4jnsgd1na2vs0mg"},{"bike_id":"f324e154-3b9e-41e9-828c-8bdcab03ca41","system_id":"levelo_inurba_marseille","lat":43.30215,"lon":5.39471,"is_reserved":false,"is_disabled":false,"rental_uris":{"android":"levelo://app?vid=f324e154-3b9e-41e9-828c-8bdcab03ca41","ios":"levelo://app?vid=f324e154-3b9e-41e9-828c-8bdcab03ca41"},"vehicle_type_id":"4","last_reported":1762413063,"current_range_meters":9600,"station_id":"ce4bh0p2rcd13ifvqd70","pricing_plan_id":"cebpf4jnsgd1na2vs0mg"},{"bike_id":"4f0a4904-3c13-4b0b-b456-34fe698f9e20","system_id":"levelo_inurba_marseille","lat":43.295779,"lon":5.399689,"is_reserved":false,"is_disabled":false,"rental_uris":{"android":"levelo://app?vid=4f0a4904-3c13-4b0b-b456-34fe698f9e20","ios":"levelo://app?vid=4f0a4904-3c13-4b0b-b456-34fe698f9e20"},"vehicle_type_id":"4","last_reported":1762413063,"current_range_meters":10000,"station_id":"ce4bh312rcd13ifvqdj0","pricing_plan_id":"cebpf4jnsgd1na2vs0mg"},{"bike_id":"528e10e5-fbfd-4591-9275-c81e42b475d9","system_id":"levelo_inurba_marseille","lat":43.24942,"lon":5.40498,"is_reserved":false,"is_disabled":false,"rental_uris":{"android":"levelo://app?vid=528e10e5-fbfd-4591-9275-c81e42b475d9","ios":"levelo://app?vid=528e10e5-fbfd-4591-9275-c81e42b475d9"},"vehicle_type_id":"4","last_reported":1762413063,"current_range_meters":10000,"station_id":"st_d2ngiaodas8pm72gd1h0","pricing_plan_id":"cebpf4jnsgd1na2vs0mg"},{"bike_id":"07bfcfe6-a386-40c1-b97e-bf900ddc69da","system_id":"levelo_inurba_marseille","lat":43.25921,"lon":5.40866,"is_reserved":false,"is_disabled":true,"rental_uris":{"android":"levelo://app?vid=07bfcfe6-a386-40c1-b97e-bf900ddc69da","ios":"levelo://app?vid=07bfcfe6-a386-40c1-b97e-bf900ddc69da"},"vehicle_type_id":"4","last_reported":1762413063,"current_range_meters":10000,"station_id":"ce4bhm92rcd13ifvqglg","pricing_plan_id":"cebpf4jnsgd1na2vs0mg"},{"bike_id":"23704d21-dcb4-4524-a0e7-782c68706e98","system_id":"levelo_inurba_marseille","lat":43.279341,"lon":5.410371,"is_reserved":false,"is_disabled":false,"rental_uris":{"android":"levelo://app?vid=23704d21-dcb4-4524-a0e7-782c68706e98","ios":"levelo://app?vid=23704d21-dcb4-4524-a0e7-782c68706e98"},"vehicle_type_id":"4","last_reported":1762413063,"current_range_meters":10000,"station_id":"ce4bhnp2rcd13ifvqh0g","pricing_plan_id":"cebpf4jnsgd1na2vs0mg"},{"bike_id":"7479cfee-6f68-4a59-afc8-ceca6b83dba4","system_id":"levelo_inurba_marseille","lat":43.25564,"lon":5.38242,"is_reserved":false,"is_disabled":false,"rental_uris":{"android":"levelo://app?vid=7479cfee-6f68-4a59-afc8-ceca6b83dba4","ios":"levelo://app?vid=7479cfee-6f68-4a59-afc8-ceca6b83dba4"},"vehicle_type_id":"4","last_reported":1762413063,"current_range_meters":10000,"station_id":"ce4bhih2rcd13ifvqfs0","pricing_plan_id":"cebpf4jnsgd1na2vs0mg"},{"bike_id":"13d984c8-48d8-4dfc-aa86-5f78c707cacf","system_id":"levelo_inurba_marseille","lat":43.28039,"lon":5.36971,"is_reserved":false,"is_disabled":false,"rental_uris":{"android":"levelo://app?vid=13d984c8-48d8-4dfc-aa86-5f78c707cacf","ios":"levelo://app?vid=13d984c8-48d8-4dfc-aa86-5f78c707cacf"},"vehicle_type_id":"4","last_reported":1762413063,"current_range_meters":10000,"station_id":"ce4bha12rcd13ifvqef0","pricing_plan_id":"cebpf4jnsgd1na2vs0mg"},{"bike_id":"4018132b-c886-4886-ba66-ac2335fddf17","system_id":"levelo_inurba_marseille","lat":43.270797,"lon":5.422863,"is_reserved":false,"is_disabled":false,"rental_uris":{"android":"levelo://app?vid=4018132b-c886-4886-ba66-ac2335fddf17","ios":"levelo://app?vid=4018132b-c886-4886-ba66-ac2335fddf17"},"vehicle_type_id":"4","last_reported":1762413063,"current_range_meters":10000,"station_id":"ce4bhk92rcd13ifvqgb0","pricing_plan_id":"cebpf4jnsgd1na2vs0mg"},{"bike_id":"341c4173-c94e-4574-9875-f2db0d539383","system_id":"levelo_inurba_marseille","lat":43.24942,"lon":5.40502,"is_reserved":false,"is_disabled":false,"rental_uris":{"android":"levelo://app?vid=341c4173-c94e-4574-9875-f2db0d539383","ios":"levelo://app?vid=341c4173-c94e-4574-9875-f2db0d539383"},"vehicle_type_id":"4","last_reported":1762413063,"current_range_meters":10800,"station_id":"st_d2ngiaodas8pm72gd1h0","pricing_plan_id":"cebpf4jnsgd1na2vs0mg"},{"bike_id":"b160caa6-6ac3-4eff-87ad-1e81ce522936","system_id":"levelo_inurba_marseille","lat":43.30128,"lon":5.39865,"is_reserved":false,"is_disabled":false,"rental_uris":{"android":"levelo://app?vid=b160caa6-6ac3-4eff-87ad-1e81ce522936","ios":"levelo://app?vid=b160caa6-6ac3-4eff-87ad-1e81ce522936"},"vehicle_type_id":"4","last_reported":1762413063,"current_range_meters":10800,"station_id":"ce4bh0h2rcd13ifvqd40","pricing_plan_id":"cebpf4jnsgd1na2vs0mg"},{"bike_id":"a62d93be-0a32-4640-b9e2-a85b32f05239","system_id":"levelo_inurba_marseille","lat":43.25817,"lon":5.39446,"is_reserved":false,"is_disabled":false,"rental_uris":{"android":"levelo://app?vid=a62d93be-0a32-4640-b9e2-a85b32f05239","ios":"levelo://app?vid=a62d93be-0a32-4640-b9e2-a85b32f05239"},"vehicle_type_id":"4","last_reported":1762413063,"current_range_meters":10800,"station_id":"ce4bhip2rcd13ifvqft0","pricing_plan_id":"cebpf4jnsgd1na2vs0mg"},{"bike_id":"813d84df-d28e-442a-86a4-2693a3f1117d","system_id":"levelo_inurba_marseille","lat":43.23054,"lon":5.35486,"is_reserved":false,"is_disabled":false,"rental_uris":{"android":"levelo://app?vid=813d84df-d28e-442a-86a4-2693a3f1117d","ios":"levelo://app?vid=813d84df-d28e-442a-86a4-2693a3f1117d"},"vehicle_type_id":"4","last_reported":1762413063,"current_range_meters":10800,"station_id":"cpo3342slgdg3j2ifvpg","pricing_plan_id":"cebpf4jnsgd1na2vs0mg"},{"bike_id":"9985289f-9550-4d33-81df-5625e1f25a02","system_id":"levelo_inurba_marseille","lat":43.24965,"lon":5.40495,"is_reserved":false,"is_disabled":false,"rental_uris":{"android":"levelo://app?vid=9985289f-9550-4d33-81df-5625e1f25a02","ios":"levelo://app?vid=9985289f-9550-4d33-81df-5625e1f25a02"},"vehicle_type_id":"4","last_reported":1762413063,"current_range_meters":10800,"station_id":"st_d2ngiaodas8pm72gd1h0","pricing_plan_id":"cebpf4jnsgd1na2vs0mg"},{"bike_id":"c14b70b2-98d4-4848-a2d9-32722b8d1daf","system_id":"levelo_inurba_marseille","lat":43.31783,"lon":5.36824,"is_reserved":false,"is_disabled":false,"rental_uris":{"android":"levelo://app?vid=c14b70b2-98d4-4848-a2d9-32722b8d1daf","ios":"levelo://app?vid=c14b70b2-98d4-4848-a2d9-32722b8d1daf"},"vehicle_type_id":"4","last_reported":1762413063,"current_range_meters":10800,"station_id":"","pricing_plan_id":"cebpf4jnsgd1na2vs0mg"},{"bike_id":"42d2792a-88bd-48e5-afe0-4b6400cd337a","system_id":"levelo_inurba_marseille","lat":43.316552,"lon":5.382266,"is_reserved":false,"is_disabled":false,"rental_uris":{"android":"levelo://app?vid=42d2792a-88bd-48e5-afe0-4b6400cd337a","ios":"levelo://app?vid=42d2792a-88bd-48e5-afe0-4b6400cd337a"},"vehicle_type_id":"4","last_reported":1762413063,"current_range_meters":10800,"station_id":"","pricing_plan_id":"cebpf4jnsgd1na2vs0mg"},{"bike_id":"89668189-b95b-43c4-a0b4-cad5f1f90638","system_id":"levelo_inurba_marseille","lat":43.3016,"lon":5.38118,"is_reserved":false,"is_disabled":false,"rental_uris":{"android":"levelo://app?vid=89668189-b95b-43c4-a0b4-cad5f1f90638","ios":"levelo://app?vid=89668189-b95b-43c4-a0b4-cad5f1f90638"},"vehicle_type_id":"4","last_reported":1762413063,"current_range_meters":10800,"station_id":"ce4bgjp2rcd13ifvqbh0","pricing_plan_id":"cebpf4jnsgd1na2vs0mg"},{"bike_id":"81dcc136-dea2-46c0-98af-42dbdee92b54","system_id":"levelo_inurba_marseille","lat":43.28507,"lon":5.48387,"is_reserved":false,"is_disabled":false,"rental_uris":{"android":"levelo://app?vid=81dcc136-dea2-46c0-98af-42dbdee92b54","ios":"levelo://app?vid=81dcc136-dea2-46c0-98af-42dbdee92b54"},"vehicle_type_id":"4","last_reported":1762413063,"current_range_meters":10800,"station_id":"","pricing_plan_id":"cebpf4jnsgd1na2vs0mg"},{"bike_id":"d4b794b4-99f5-4da9-afee-48d6fee810a9","system_id":"levelo_inurba_marseille","lat":43.23968,"lon":5.36623,"is_reserved":false,"is_disabled":false,"rental_uris":{"android":"levelo://app?vid=d4b794b4-99f5-4da9-afee-48d6fee810a9","ios":"levelo://app?vid=d4b794b4-99f5-4da9-afee-48d6fee810a9"},"vehicle_type_id":"4","last_reported":1762413063,"current_range_meters":11200,"station_id":"ce4bhi12rcd13ifvqfp0","pricing_plan_id":"cebpf4jnsgd1na2vs0mg"},{"bike_id":"cff64f4e-5f37-43ea-ae7e-1ca574864a38","system_id":"levelo_inurba_marseille","lat":43.32448,"lon":5.42826,"is_reserved":false,"is_disabled":false,"rental_uris":{"android":"levelo://app?vid=cff64f4e-5f37-43ea-ae7e-1ca574864a38","ios":"levelo://app?vid=cff64f4e-5f37-43ea-ae7e-1ca574864a38"},"vehicle_type_id":"4","last_reported":1762413063,"current_range_meters":11200,"station_id":"","pricing_plan_id":"cebpf4jnsgd1na2vs0mg"},{"bike_id":"e74a192f-ff5c-4010-8a3a-6c72a983b687","system_id":"levelo_inurba_marseille","lat":43.28437,"lon":5.39171,"is_reserved":false,"is_disabled":false,"rental_uris":{"android":"levelo://app?vid=e74a192f-ff5c-4010-8a3a-6c72a983b687","ios":"levelo://app?vid=e74a192f-ff5c-4010-8a3a-6c72a983b687"},"vehicle_type_id":"4","last_reported":1762413063,"current_range_meters":11200,"station_id":"ce4bhoh2rcd13ifvqh5g","pricing_plan_id":"cebpf4jnsgd1na2vs0mg"},{"bike_id":"d05e3da8-8106-4f59-8bbd-be54a04dadf0","system_id":"levelo_inurba_marseille","lat":43.29264,"lon":5.40909,"is_reserved":false,"is_disabled":false,"rental_uris":{"android":"levelo://app?vid=d05e3da8-8106-4f59-8bbd-be54a04dadf0","ios":"levelo://app?vid=d05e3da8-8106-4f59-8bbd-be54a04dadf0"},"vehicle_type_id":"4","last_reported":1762413063,"current_range_meters":11200,"station_id":"ce4bh192rcd13ifvqdc0","pricing_plan_id":"cebpf4jnsgd1na2vs0mg"},{"bike_id":"8cf54d33-efb5-4166-8509-df2cb57488b1","system_id":"levelo_inurba_marseille","lat":43.33435,"lon":5.40031,"is_reserved":false,"is_disabled":false,"rental_uris":{"android":"levelo://app?vid=8cf54d33-efb5-4166-8509-df2cb57488b1","ios":"levelo://app?vid=8cf54d33-efb5-4166-8509-df2cb57488b1"},"vehicle_type_id":"4","last_reported":1762413063,"current_range_meters":11200,"station_id":"","pricing_plan_id":"cebpf4jnsgd1na2vs0mg"},{"bike_id":"94b06f3e-9c43-404e-899a-d1e48d6d7a76","system_id":"levelo_inurba_marseille","lat":43.287102,"lon":5.399967,"is_reserved":false,"is_disabled":false,"rental_uris":{"android":"levelo://app?vid=94b06f3e-9c43-404e-899a-d1e48d6d7a76","ios":"levelo://app?vid=94b06f3e-9c43-404e-899a-d1e48d6d7a76"},"vehicle_type_id":"4","last_reported":1762413063,"current_range_meters":11600,"station_id":"ce4bho92rcd13ifvqh3g","pricing_plan_id":"cebpf4jnsgd1na2vs0mg"},{"bike_id":"bcb3c39b-ec48-48ef-9eac-eb8b71840959","system_id":"levelo_inurba_marseille","lat":43.33757,"lon":5.37464,"is_reserved":false,"is_disabled":false,"rental_uris":{"android":"levelo://app?vid=bcb3c39b-ec48-48ef-9eac-eb8b71840959","ios":"levelo://app?vid=bcb3c39b-ec48-48ef-9eac-eb8b71840959"},"vehicle_type_id":"4","last_reported":1762413063,"current_range_meters":11600,"station_id":"","pricing_plan_id":"cebpf4jnsgd1na2vs0mg"},{"bike_id":"dae30738-204c-4787-a9b5-e056fa94e0c9","system_id":"levelo_inurba_marseille","lat":43.22575,"lon":5.41632,"is_reserved":false,"is_disabled":false,"rental_uris":{"android":"levelo://app?vid=dae30738-204c-4787-a9b5-e056fa94e0c9","ios":"levelo://app?vid=dae30738-204c-4787-a9b5-e056fa94e0c9"},"vehicle_type_id":"4","last_reported":1762413063,"current_range_meters":11600,"station_id":"st_d2o4gvlbi1j2169b742g","pricing_plan_id":"cebpf4jnsgd1na2vs0mg"},{"bike_id":"767d64a4-220f-486c-8778-46e8e90f9525","system_id":"levelo_inurba_marseille","lat":43.24951,"lon":5.40506,"is_reserved":false,"is_disabled":false,"rental_uris":{"android":"levelo://app?vid=767d64a4-220f-486c-8778-46e8e90f9525","ios":"levelo://app?vid=767d64a4-220f-486c-8778-46e8e90f9525"},"vehicle_type_id":"4","last_reported":1762413063,"current_range_meters":11600,"station_id":"st_d2ngiaodas8pm72gd1h0","pricing_plan_id":"cebpf4jnsgd1na2vs0mg"},{"bike_id":"bbc9d8de-f240-4902-9872-f4640d18cc6e","system_id":"levelo_inurba_marseille","lat":43.23153,"lon":5.43715,"is_reserved":false,"is_disabled":false,"rental_uris":{"android":"levelo://app?vid=bbc9d8de-f240-4902-9872-f4640d18cc6e","ios":"levelo://app?vid=bbc9d8de-f240-4902-9872-f4640d18cc6e"},"vehicle_type_id":"4","last_reported":1762413063,"current_range_meters":12000,"station_id":"ce4bhmp2rcd13ifvqgog","pricing_plan_id":"cebpf4jnsgd1na2vs0mg"},{"bike_id":"5cdf6db6-34e8-47e7-a941-262901b682d1","system_id":"levelo_inurba_marseille","lat":43.30485,"lon":5.37925,"is_reserved":false,"is_disabled":false,"rental_uris":{"android":"levelo://app?vid=5cdf6db6-34e8-47e7-a941-262901b682d1","ios":"levelo://app?vid=5cdf6db6-34e8-47e7-a941-262901b682d1"},"vehicle_type_id":"4","last_reported":1762413063,"current_range_meters":12000,"station_id":"ce4bgup2rcd13ifvqcn0","pricing_plan_id":"cebpf4jnsgd1na2vs0mg"},{"bike_id":"2c89c3ed-62de-4c74-8e11-a37172c6c77b","system_id":"levelo_inurba_marseille","lat":43.22871,"lon":5.40242,"is_reserved":false,"is_disabled":false,"rental_uris":{"android":"levelo://app?vid=2c89c3ed-62de-4c74-8e11-a37172c6c77b","ios":"levelo://app?vid=2c89c3ed-62de-4c74-8e11-a37172c6c77b"},"vehicle_type_id":"4","last_reported":1762413063,"current_range_meters":12000,"station_id":"","pricing_plan_id":"cebpf4jnsgd1na2vs0mg"},{"bike_id":"f6645b15-6d58-48de-94f0-ee582b80e28b","system_id":"levelo_inurba_marseille","lat":43.28277,"lon":5.35054,"is_reserved":false,"is_disabled":false,"rental_uris":{"android":"levelo://app?vid=f6645b15-6d58-48de-94f0-ee582b80e28b","ios":"levelo://app?vid=f6645b15-6d58-48de-94f0-ee582b80e28b"},"vehicle_type_id":"4","last_reported":1762413063,"current_range_meters":12000,"station_id":"ce4bhbp2rcd13ifvqerg","pricing_plan_id":"cebpf4jnsgd1na2vs0mg"},{"bike_id":"9d38cb94-edad-4fdc-a3fc-cab02ba9ba99","system_id":"levelo_inurba_marseille","lat":43.304659,"lon":5.3791,"is_reserved":false,"is_disabled":false,"rental_uris":{"android":"levelo://app?vid=9d38cb94-edad-4fdc-a3fc-cab02ba9ba99","ios":"levelo://app?vid=9d38cb94-edad-4fdc-a3fc-cab02ba9ba99"},"vehicle_type_id":"4","last_reported":1762413063,"current_range_meters":12000,"station_id":"ce4bgup2rcd13ifvqcn0","pricing_plan_id":"cebpf4jnsgd1na2vs0mg"},{"bike_id":"27aefe03-bbd2-43d3-8d72-3a7105da9194","system_id":"levelo_inurba_marseille","lat":43.31356,"lon":5.37911,"is_reserved":false,"is_disabled":false,"rental_uris":{"android":"levelo://app?vid=27aefe03-bbd2-43d3-8d72-3a7105da9194","ios":"levelo://app?vid=27aefe03-bbd2-43d3-8d72-3a7105da9194"},"vehicle_type_id":"4","last_reported":1762413063,"current_range_meters":12000,"station_id":"","pricing_plan_id":"cebpf4jnsgd1na2vs0mg"},{"bike_id":"72a9632b-cfa6-4253-993e-e5aaa618dc02","system_id":"levelo_inurba_marseille","lat":43.305367,"lon":5.365576,"is_reserved":false,"is_disabled":true,"rental_uris":{"android":"levelo://app?vid=72a9632b-cfa6-4253-993e-e5aaa618dc02","ios":"levelo://app?vid=72a9632b-cfa6-4253-993e-e5aaa618dc02"},"vehicle_type_id":"4","last_reported":1762413063,"current_range_meters":12400,"station_id":"","pricing_plan_id":"cebpf4jnsgd1na2vs0mg"},{"bike_id":"332ea5f8-d8ad-4878-bba6-2a32605882e6","system_id":"levelo_inurba_marseille","lat":43.321015,"lon":5.367694,"is_reserved":false,"is_disabled":false,"rental_uris":{"android":"levelo://app?vid=332ea5f8-d8ad-4878-bba6-2a32605882e6","ios":"levelo://app?vid=332ea5f8-d8ad-4878-bba6-2a32605882e6"},"vehicle_type_id":"4","last_reported":1762413063,"current_range_meters":12400,"station_id":"ce4bhrh2rcd13ifvqhug","pricing_plan_id":"cebpf4jnsgd1na2vs0mg"},{"bike_id":"7573b0ce-2bea-4f9b-b8d0-df9704e404a1","system_id":"levelo_inurba_marseille","lat":43.292727,"lon":5.376404,"is_reserved":false,"is_disabled":false,"rental_uris":{"android":"levelo://app?vid=7573b0ce-2bea-4f9b-b8d0-df9704e404a1","ios":"levelo://app?vid=7573b0ce-2bea-4f9b-b8d0-df9704e404a1"},"vehicle_type_id":"4","last_reported":1762413063,"current_range_meters":12400,"station_id":"ce4bgi12rcd13ifvqb80","pricing_plan_id":"cebpf4jnsgd1na2vs0mg"},{"bike_id":"337186f6-d017-4027-98b8-0a9cd53a5560","system_id":"levelo_inurba_marseille","lat":43.30113,"lon":5.39842,"is_reserved":false,"is_disabled":false,"rental_uris":{"android":"levelo://app?vid=337186f6-d017-4027-98b8-0a9cd53a5560","ios":"levelo://app?vid=337186f6-d017-4027-98b8-0a9cd53a5560"},"vehicle_type_id":"4","last_reported":1762413063,"current_range_meters":12400,"station_id":"ce4bh0h2rcd13ifvqd40","pricing_plan_id":"cebpf4jnsgd1na2vs0mg"},{"bike_id":"e41cf509-d9f5-40a6-8b97-a427a013cc6e","system_id":"levelo_inurba_marseille","lat":43.25725,"lon":5.4111,"is_reserved":false,"is_disabled":false,"rental_uris":{"android":"levelo://app?vid=e41cf509-d9f5-40a6-8b97-a427a013cc6e","ios":"levelo://app?vid=e41cf509-d9f5-40a6-8b97-a427a013cc6e"},"vehicle_type_id":"4","last_reported":1762413063,"current_range_meters":12800,"station_id":"ce4bhkp2rcd13ifvqgd0","pricing_plan_id":"cebpf4jnsgd1na2vs0mg"},{"bike_id":"7c212da4-e9ec-4ef1-95de-c7dc334a736f","system_id":"levelo_inurba_marseille","lat":43.24545,"lon":5.39524,"is_reserved":false,"is_disabled":false,"rental_uris":{"android":"levelo://app?vid=7c212da4-e9ec-4ef1-95de-c7dc334a736f","ios":"levelo://app?vid=7c212da4-e9ec-4ef1-95de-c7dc334a736f"},"vehicle_type_id":"4","last_reported":1762413063,"current_range_meters":12800,"station_id":"ce4bhlp2rcd13ifvqgjg","pricing_plan_id":"cebpf4jnsgd1na2vs0mg"},{"bike_id":"e1d85cc7-0185-480f-8d63-1ae25e5b4e7d","system_id":"levelo_inurba_marseille","lat":43.30526,"lon":5.38427,"is_reserved":false,"is_disabled":false,"rental_uris":{"android":"levelo://app?vid=e1d85cc7-0185-480f-8d63-1ae25e5b4e7d","ios":"levelo://app?vid=e1d85cc7-0185-480f-8d63-1ae25e5b4e7d"},"vehicle_type_id":"4","last_reported":1762413063,"current_range_meters":12800,"station_id":"ce4bgg92rcd13ifvqb30","pricing_plan_id":"cebpf4jnsgd1na2vs0mg"},{"bike_id":"929999a6-b071-4278-81b4-e68a96607eec","system_id":"levelo_inurba_marseille","lat":43.2407,"lon":5.37733,"is_reserved":false,"is_disabled":false,"rental_uris":{"android":"levelo://app?vid=929999a6-b071-4278-81b4-e68a96607eec","ios":"levelo://app?vid=929999a6-b071-4278-81b4-e68a96607eec"},"vehicle_type_id":"4","last_reported":1762413063,"current_range_meters":12800,"station_id":"ce4bhnp2rcd13ifvqgvg","pricing_plan_id":"cebpf4jnsgd1na2vs0mg"},{"bike_id":"ab9b2bcc-ea75-449d-adbb-4add292d38c4","system_id":"levelo_inurba_marseille","lat":43.34122,"lon":5.38363,"is_reserved":false,"is_disabled":false,"rental_uris":{"android":"levelo://app?vid=ab9b2bcc-ea75-449d-adbb-4add292d38c4","ios":"levelo://app?vid=ab9b2bcc-ea75-449d-adbb-4add292d38c4"},"vehicle_type_id":"4","last_reported":1762413063,"current_range_meters":12800,"station_id":"","pricing_plan_id":"cebpf4jnsgd1na2vs0mg"},{"bike_id":"ddeaa719-beea-4500-8aff-3836fff83949","system_id":"levelo_inurba_marseille","lat":43.31263,"lon":5.46767,"is_reserved":false,"is_disabled":false,"rental_uris":{"android":"levelo://app?vid=ddeaa719-beea-4500-8aff-3836fff83949","ios":"levelo://app?vid=ddeaa719-beea-4500-8aff-3836fff83949"},"vehicle_type_id":"4","last_reported":1762413063,"current_range_meters":12800,"station_id":"","pricing_plan_id":"cebpf4jnsgd1na2vs0mg"},{"bike_id":"f3b6b97a-4461-4acd-843a-72fda7482810","system_id":"levelo_inurba_marseille","lat":43.312516,"lon":5.367891,"is_reserved":false,"is_disabled":false,"rental_uris":{"android":"levelo://app?vid=f3b6b97a-4461-4acd-843a-72fda7482810","ios":"levelo://app?vid=f3b6b97a-4461-4acd-843a-72fda7482810"},"vehicle_type_id":"4","last_reported":1762413063,"current_range_meters":12800,"station_id":"ce4bgl92rcd13ifvqbq0","pricing_plan_id":"cebpf4jnsgd1na2vs0mg"},{"bike_id":"12ee6dc6-82d6-424f-8458-a5e060648ef0","system_id":"levelo_inurba_marseille","lat":43.2414,"lon":5.37887,"is_reserved":false,"is_disabled":false,"rental_uris":{"android":"levelo://app?vid=12ee6dc6-82d6-424f-8458-a5e060648ef0","ios":"levelo://app?vid=12ee6dc6-82d6-424f-8458-a5e060648ef0"},"vehicle_type_id":"4","last_reported":1762413063,"current_range_meters":13600,"station_id":"","pricing_plan_id":"cebpf4jnsgd1na2vs0mg"},{"bike_id":"815f6c5e-c259-40bc-a2f0-13fb20795193","system_id":"levelo_inurba_marseille","lat":43.24063,"lon":5.37758,"is_reserved":false,"is_disabled":false,"rental_uris":{"android":"levelo://app?vid=815f6c5e-c259-40bc-a2f0-13fb20795193","ios":"levelo://app?vid=815f6c5e-c259-40bc-a2f0-13fb20795193"},"vehicle_type_id":"4","last_reported":1762413063,"current_range_meters":13600,"station_id":"ce4bhnp2rcd13ifvqgvg","pricing_plan_id":"cebpf4jnsgd1na2vs0mg"},{"bike_id":"d77a88e5-20b9-4fe1-89df-69baec122738","system_id":"levelo_inurba_marseille","lat":43.29748,"lon":5.38075,"is_reserved":false,"is_disabled":false,"rental_uris":{"android":"levelo://app?vid=d77a88e5-20b9-4fe1-89df-69baec122738","ios":"levelo://app?vid=d77a88e5-20b9-4fe1-89df-69baec122738"},"vehicle_type_id":"4","last_reported":1762413063,"current_range_meters":13600,"station_id":"","pricing_plan_id":"cebpf4jnsgd1na2vs0mg"},{"bike_id":"c80c3e87-9ccd-4383-93bf-4fc14e4f68b2","system_id":"levelo_inurba_marseille","lat":43.32536,"lon":5.41432,"is_reserved":false,"is_disabled":false,"rental_uris":{"android":"levelo://app?vid=c80c3e87-9ccd-4383-93bf-4fc14e4f68b2","ios":"levelo://app?vid=c80c3e87-9ccd-4383-93bf-4fc14e4f68b2"},"vehicle_type_id":"4","last_reported":1762413063,"current_range_meters":13600,"station_id":"ce4bhq12rcd13ifvqhhg","pricing_plan_id":"cebpf4jnsgd1na2vs0mg"},{"bike_id":"c174055a-5793-4272-ab43-bc9c47647071","system_id":"levelo_inurba_marseille","lat":43.29028,"lon":5.3863,"is_reserved":false,"is_disabled":false,"rental_uris":{"android":"levelo://app?vid=c174055a-5793-4272-ab43-bc9c47647071","ios":"levelo://app?vid=c174055a-5793-4272-ab43-bc9c47647071"},"vehicle_type_id":"4","last_reported":1762413063,"current_range_meters":13600,"station_id":"ce4bh4p2rcd13ifvqe0g","pricing_plan_id":"cebpf4jnsgd1na2vs0mg"},{"bike_id":"09ed3eb5-c2d4-4c5e-b9d1-44fb102a0a7e","system_id":"levelo_inurba_marseille","lat":43.2257,"lon":5.4166,"is_reserved":false,"is_disabled":false,"rental_uris":{"android":"levelo://app?vid=09ed3eb5-c2d4-4c5e-b9d1-44fb102a0a7e","ios":"levelo://app?vid=09ed3eb5-c2d4-4c5e-b9d1-44fb102a0a7e"},"vehicle_type_id":"4","last_reported":1762413063,"current_range_meters":13600,"station_id":"st_d2o4gvlbi1j2169b742g","pricing_plan_id":"cebpf4jnsgd1na2vs0mg"},{"bike_id":"83f0b677-7d19-4265-a5bc-613d01c002ff","system_id":"levelo_inurba_marseille","lat":43.32099,"lon":5.36774,"is_reserved":false,"is_disabled":false,"rental_uris":{"android":"levelo://app?vid=83f0b677-7d19-4265-a5bc-613d01c002ff","ios":"levelo://app?vid=83f0b677-7d19-4265-a5bc-613d01c002ff"},"vehicle_type_id":"4","last_reported":1762413063,"current_range_meters":13600,"station_id":"ce4bhrh2rcd13ifvqhug","pricing_plan_id":"cebpf4jnsgd1na2vs0mg"},{"bike_id":"240d4be5-a18d-4a5e-954c-85435eb7e365","system_id":"levelo_inurba_marseille","lat":43.23192,"lon":5.3999,"is_reserved":false,"is_disabled":false,"rental_uris":{"android":"levelo://app?vid=240d4be5-a18d-4a5e-954c-85435eb7e365","ios":"levelo://app?vid=240d4be5-a18d-4a5e-954c-85435eb7e365"},"vehicle_type_id":"4","last_reported":1762413063,"current_range_meters":13600,"station_id":"ce4bhn12rcd13ifvqgqg","pricing_plan_id":"cebpf4jnsgd1na2vs0mg"},{"bike_id":"4409e8e6-e2b1-45fd-ac80-4ccdb4f82c11","system_id":"levelo_inurba_marseille","lat":43.31089,"lon":5.4243,"is_reserved":false,"is_disabled":false,"rental_uris":{"android":"levelo://app?vid=4409e8e6-e2b1-45fd-ac80-4ccdb4f82c11","ios":"levelo://app?vid=4409e8e6-e2b1-45fd-ac80-4ccdb4f82c11"},"vehicle_type_id":"4","last_reported":1762413063,"current_range_meters":14000,"station_id":"ce4bhp92rcd13ifvqhag","pricing_plan_id":"cebpf4jnsgd1na2vs0mg"},{"bike_id":"4e927a74-e82c-4083-b126-d62657f680f0","system_id":"levelo_inurba_marseille","lat":43.24074,"lon":5.37756,"is_reserved":false,"is_disabled":false,"rental_uris":{"android":"levelo://app?vid=4e927a74-e82c-4083-b126-d62657f680f0","ios":"levelo://app?vid=4e927a74-e82c-4083-b126-d62657f680f0"},"vehicle_type_id":"4","last_reported":1762413063,"current_range_meters":14000,"station_id":"ce4bhnp2rcd13ifvqgvg","pricing_plan_id":"cebpf4jnsgd1na2vs0mg"},{"bike_id":"e8851154-0da3-4c57-af32-b60315ca0a61","system_id":"levelo_inurba_marseille","lat":43.25124,"lon":5.4032,"is_reserved":false,"is_disabled":false,"rental_uris":{"android":"levelo://app?vid=e8851154-0da3-4c57-af32-b60315ca0a61","ios":"levelo://app?vid=e8851154-0da3-4c57-af32-b60315ca0a61"},"vehicle_type_id":"4","last_reported":1762413063,"current_range_meters":14400,"station_id":"ce4bhlh2rcd13ifvqgig","pricing_plan_id":"cebpf4jnsgd1na2vs0mg"},{"bike_id":"8cc67794-3000-4c38-9d4e-f8095b46f53f","system_id":"levelo_inurba_marseille","lat":43.30473,"lon":5.37931,"is_reserved":false,"is_disabled":false,"rental_uris":{"android":"levelo://app?vid=8cc67794-3000-4c38-9d4e-f8095b46f53f","ios":"levelo://app?vid=8cc67794-3000-4c38-9d4e-f8095b46f53f"},"vehicle_type_id":"4","last_reported":1762413063,"current_range_meters":14400,"station_id":"ce4bgup2rcd13ifvqcn0","pricing_plan_id":"cebpf4jnsgd1na2vs0mg"},{"bike_id":"59b31ef2-3fe3-46e5-b5a5-685f264695ce","system_id":"levelo_inurba_marseille","lat":43.2849,"lon":5.48412,"is_reserved":false,"is_disabled":false,"rental_uris":{"android":"levelo://app?vid=59b31ef2-3fe3-46e5-b5a5-685f264695ce","ios":"levelo://app?vid=59b31ef2-3fe3-46e5-b5a5-685f264695ce"},"vehicle_type_id":"4","last_reported":1762413063,"current_range_meters":14400,"station_id":"","pricing_plan_id":"cebpf4jnsgd1na2vs0mg"},{"bike_id":"3ffe2c7b-f27f-49bd-95c3-0ecfbf0880d2","system_id":"levelo_inurba_marseille","lat":43.306996,"lon":5.384375,"is_reserved":false,"is_disabled":false,"rental_uris":{"android":"levelo://app?vid=3ffe2c7b-f27f-49bd-95c3-0ecfbf0880d2","ios":"levelo://app?vid=3ffe2c7b-f27f-49bd-95c3-0ecfbf0880d2"},"vehicle_type_id":"4","last_reported":1762413063,"current_range_meters":14400,"station_id":"","pricing_plan_id":"cebpf4jnsgd1na2vs0mg"},{"bike_id":"71967476-752a-4f5e-b222-99c0eea95f39","system_id":"levelo_inurba_marseille","lat":43.32328,"lon":5.38446,"is_reserved":false,"is_disabled":false,"rental_uris":{"android":"levelo://app?vid=71967476-752a-4f5e-b222-99c0eea95f39","ios":"levelo://app?vid=71967476-752a-4f5e-b222-99c0eea95f39"},"vehicle_type_id":"4","last_reported":1762413063,"current_range_meters":14400,"station_id":"st_d45171o9ee8s73djdqug","pricing_plan_id":"cebpf4jnsgd1na2vs0mg"},{"bike_id":"a715c0ef-3857-414c-967a-b5d1a542eb13","system_id":"levelo_inurba_marseille","lat":43.224571,"lon":5.347186,"is_reserved":false,"is_disabled":false,"rental_uris":{"android":"levelo://app?vid=a715c0ef-3857-414c-967a-b5d1a542eb13","ios":"levelo://app?vid=a715c0ef-3857-414c-967a-b5d1a542eb13"},"vehicle_type_id":"4","last_reported":1762413063,"current_range_meters":14800,"station_id":"","pricing_plan_id":"cebpf4jnsgd1na2vs0mg"},{"bike_id":"e6386c74-bd9b-47a1-8cd6-cfff4be1db56","system_id":"levelo_inurba_marseille","lat":43.279638,"lon":5.436152,"is_reserved":false,"is_disabled":false,"rental_uris":{"android":"levelo://app?vid=e6386c74-bd9b-47a1-8cd6-cfff4be1db56","ios":"levelo://app?vid=e6386c74-bd9b-47a1-8cd6-cfff4be1db56"},"vehicle_type_id":"4","last_reported":1762413063,"current_range_meters":14800,"station_id":"","pricing_plan_id":"cebpf4jnsgd1na2vs0mg"},{"bike_id":"e9a2d578-2add-4e55-a5a1-2ded329f9de3","system_id":"levelo_inurba_marseille","lat":43.2845,"lon":5.3921,"is_reserved":false,"is_disabled":false,"rental_uris":{"android":"levelo://app?vid=e9a2d578-2add-4e55-a5a1-2ded329f9de3","ios":"levelo://app?vid=e9a2d578-2add-4e55-a5a1-2ded329f9de3"},"vehicle_type_id":"4","last_reported":1762413063,"current_range_meters":14800,"station_id":"ce4bhoh2rcd13ifvqh5g","pricing_plan_id":"cebpf4jnsgd1na2vs0mg"},{"bike_id":"ac0d2a37-c82c-4568-90bc-f937ccabadc1","system_id":"levelo_inurba_marseille","lat":43.25346,"lon":5.42171,"is_reserved":false,"is_disabled":false,"rental_uris":{"android":"levelo://app?vid=ac0d2a37-c82c-4568-90bc-f937ccabadc1","ios":"levelo://app?vid=ac0d2a37-c82c-4568-90bc-f937ccabadc1"},"vehicle_type_id":"4","last_reported":1762413063,"current_range_meters":15200,"station_id":"st_d2m65c5bi1j21697t3ng","pricing_plan_id":"cebpf4jnsgd1na2vs0mg"},{"bike_id":"02931a4f-41ca-4d63-991e-b78142ffd2df","system_id":"levelo_inurba_marseille","lat":43.324637,"lon":5.36588,"is_reserved":false,"is_disabled":false,"rental_uris":{"android":"levelo://app?vid=02931a4f-41ca-4d63-991e-b78142ffd2df","ios":"levelo://app?vid=02931a4f-41ca-4d63-991e-b78142ffd2df"},"vehicle_type_id":"4","last_reported":1762413063,"current_range_meters":15200,"station_id":"ce4bhs12rcd13ifvqhvg","pricing_plan_id":"cebpf4jnsgd1na2vs0mg"},{"bike_id":"0d7db708-3004-4c5b-b11b-27003898eadd","system_id":"levelo_inurba_marseille","lat":43.286934,"lon":5.35184,"is_reserved":false,"is_disabled":false,"rental_uris":{"android":"levelo://app?vid=0d7db708-3004-4c5b-b11b-27003898eadd","ios":"levelo://app?vid=0d7db708-3004-4c5b-b11b-27003898eadd"},"vehicle_type_id":"4","last_reported":1762413063,"current_range_meters":15200,"station_id":"","pricing_plan_id":"cebpf4jnsgd1na2vs0mg"},{"bike_id":"dba25d5d-05c6-4d15-80a3-de52b1f138d3","system_id":"levelo_inurba_marseille","lat":43.30352,"lon":5.41885,"is_reserved":false,"is_disabled":false,"rental_uris":{"android":"levelo://app?vid=dba25d5d-05c6-4d15-80a3-de52b1f138d3","ios":"levelo://app?vid=dba25d5d-05c6-4d15-80a3-de52b1f138d3"},"vehicle_type_id":"4","last_reported":1762413063,"current_range_meters":15200,"station_id":"ce4bhop2rcd13ifvqh7g","pricing_plan_id":"cebpf4jnsgd1na2vs0mg"},{"bike_id":"96e4140b-978d-44ac-a4fa-f700cc2c0694","system_id":"levelo_inurba_marseille","lat":43.30476,"lon":5.37914,"is_reserved":false,"is_disabled":false,"rental_uris":{"android":"levelo://app?vid=96e4140b-978d-44ac-a4fa-f700cc2c0694","ios":"levelo://app?vid=96e4140b-978d-44ac-a4fa-f700cc2c0694"},"vehicle_type_id":"4","last_reported":1762413063,"current_range_meters":15200,"station_id":"ce4bgup2rcd13ifvqcn0","pricing_plan_id":"cebpf4jnsgd1na2vs0mg"},{"bike_id":"5e3412dd-2232-4a2f-a361-0045d58481df","system_id":"levelo_inurba_marseille","lat":43.33767,"lon":5.37456,"is_reserved":false,"is_disabled":false,"rental_uris":{"android":"levelo://app?vid=5e3412dd-2232-4a2f-a361-0045d58481df","ios":"levelo://app?vid=5e3412dd-2232-4a2f-a361-0045d58481df"},"vehicle_type_id":"4","last_reported":1762413063,"current_range_meters":15200,"station_id":"","pricing_plan_id":"cebpf4jnsgd1na2vs0mg"},{"bike_id":"ab3a4d6b-b442-44b9-8f02-c1c222f445ba","system_id":"levelo_inurba_marseille","lat":43.27454,"lon":5.39281,"is_reserved":false,"is_disabled":false,"rental_uris":{"android":"levelo://app?vid=ab3a4d6b-b442-44b9-8f02-c1c222f445ba","ios":"levelo://app?vid=ab3a4d6b-b442-44b9-8f02-c1c222f445ba"},"vehicle_type_id":"4","last_reported":1762413063,"current_range_meters":16000,"station_id":"","pricing_plan_id":"cebpf4jnsgd1na2vs0mg"},{"bike_id":"2bbab07d-ef27-4ede-a6b7-a8e77daee4a9","system_id":"levelo_inurba_marseille","lat":43.2972,"lon":5.37697,"is_reserved":false,"is_disabled":false,"rental_uris":{"android":"levelo://app?vid=2bbab07d-ef27-4ede-a6b7-a8e77daee4a9","ios":"levelo://app?vid=2bbab07d-ef27-4ede-a6b7-a8e77daee4a9"},"vehicle_type_id":"4","last_reported":1762413063,"current_range_meters":16000,"station_id":"ce4bgkh2rcd13ifvqbl0","pricing_plan_id":"cebpf4jnsgd1na2vs0mg"},{"bike_id":"1d9df1f2-e349-4d9d-9ca1-5bd6b1126ee9","system_id":"levelo_inurba_marseille","lat":43.231932,"lon":5.355617,"is_reserved":false,"is_disabled":false,"rental_uris":{"android":"levelo://app?vid=1d9df1f2-e349-4d9d-9ca1-5bd6b1126ee9","ios":"levelo://app?vid=1d9df1f2-e349-4d9d-9ca1-5bd6b1126ee9"},"vehicle_type_id":"4","last_reported":1762413063,"current_range_meters":16000,"station_id":"ce4bhu92rcd13ifvqi70","pricing_plan_id":"cebpf4jnsgd1na2vs0mg"},{"bike_id":"d6868fe2-8dfb-4b03-9b67-46fb9e01fade","system_id":"levelo_inurba_marseille","lat":43.282759,"lon":5.35072,"is_reserved":false,"is_disabled":true,"rental_uris":{"android":"levelo://app?vid=d6868fe2-8dfb-4b03-9b67-46fb9e01fade","ios":"levelo://app?vid=d6868fe2-8dfb-4b03-9b67-46fb9e01fade"},"vehicle_type_id":"4","last_reported":1762413063,"current_range_meters":16000,"station_id":"ce4bhbp2rcd13ifvqerg","pricing_plan_id":"cebpf4jnsgd1na2vs0mg"},{"bike_id":"d9ab85f3-3f2f-4158-a693-74c91fd3a40c","system_id":"levelo_inurba_marseille","lat":43.30467,"lon":5.37917,"is_reserved":false,"is_disabled":false,"rental_uris":{"android":"levelo://app?vid=d9ab85f3-3f2f-4158-a693-74c91fd3a40c","ios":"levelo://app?vid=d9ab85f3-3f2f-4158-a693-74c91fd3a40c"},"vehicle_type_id":"4","last_reported":1762413063,"current_range_meters":16000,"station_id":"ce4bgup2rcd13ifvqcn0","pricing_plan_id":"cebpf4jnsgd1na2vs0mg"},{"bike_id":"1a18a8e9-480a-460d-ab82-93e2f65f8d99","system_id":"levelo_inurba_marseille","lat":43.33609,"lon":5.4101,"is_reserved":false,"is_disabled":false,"rental_uris":{"android":"levelo://app?vid=1a18a8e9-480a-460d-ab82-93e2f65f8d99","ios":"levelo://app?vid=1a18a8e9-480a-460d-ab82-93e2f65f8d99"},"vehicle_type_id":"4","last_reported":1762413063,"current_range_meters":16000,"station_id":"ce4bhqh2rcd13ifvqhmg","pricing_plan_id":"cebpf4jnsgd1na2vs0mg"},{"bike_id":"3aef97ee-c77f-40ee-b513-0ec274555b26","system_id":"levelo_inurba_marseille","lat":43.258647,"lon":5.399018,"is_reserved":false,"is_disabled":false,"rental_uris":{"android":"levelo://app?vid=3aef97ee-c77f-40ee-b513-0ec274555b26","ios":"levelo://app?vid=3aef97ee-c77f-40ee-b513-0ec274555b26"},"vehicle_type_id":"4","last_reported":1762413063,"current_range_meters":16400,"station_id":"","pricing_plan_id":"cebpf4jnsgd1na2vs0mg"},{"bike_id":"16ef74b7-1203-4a9a-8afd-2d12a6594735","system_id":"levelo_inurba_marseille","lat":43.25856,"lon":5.39416,"is_reserved":false,"is_disabled":false,"rental_uris":{"android":"levelo://app?vid=16ef74b7-1203-4a9a-8afd-2d12a6594735","ios":"levelo://app?vid=16ef74b7-1203-4a9a-8afd-2d12a6594735"},"vehicle_type_id":"4","last_reported":1762413063,"current_range_meters":16400,"station_id":"ce4bhip2rcd13ifvqft0","pricing_plan_id":"cebpf4jnsgd1na2vs0mg"},{"bike_id":"5f433812-4992-4556-8bea-3ef019818e9b","system_id":"levelo_inurba_marseille","lat":43.300528,"lon":5.365401,"is_reserved":false,"is_disabled":false,"rental_uris":{"android":"levelo://app?vid=5f433812-4992-4556-8bea-3ef019818e9b","ios":"levelo://app?vid=5f433812-4992-4556-8bea-3ef019818e9b"},"vehicle_type_id":"4","last_reported":1762413063,"current_range_meters":16400,"station_id":"","pricing_plan_id":"cebpf4jnsgd1na2vs0mg"},{"bike_id":"54beb56b-6fba-4aae-840b-7823b2db7357","system_id":"levelo_inurba_marseille","lat":43.25343,"lon":5.42169,"is_reserved":false,"is_disabled":false,"rental_uris":{"android":"levelo://app?vid=54beb56b-6fba-4aae-840b-7823b2db7357","ios":"levelo://app?vid=54beb56b-6fba-4aae-840b-7823b2db7357"},"vehicle_type_id":"4","last_reported":1762413063,"current_range_meters":16400,"station_id":"st_d2m65c5bi1j21697t3ng","pricing_plan_id":"cebpf4jnsgd1na2vs0mg"},{"bike_id":"a605b0fd-b5bf-4eaf-8b03-728b65b443bb","system_id":"levelo_inurba_marseille","lat":43.30615,"lon":5.4048,"is_reserved":false,"is_disabled":false,"rental_uris":{"android":"levelo://app?vid=a605b0fd-b5bf-4eaf-8b03-728b65b443bb","ios":"levelo://app?vid=a605b0fd-b5bf-4eaf-8b03-728b65b443bb"},"vehicle_type_id":"4","last_reported":1762413063,"current_range_meters":16400,"station_id":"","pricing_plan_id":"cebpf4jnsgd1na2vs0mg"},{"bike_id":"c4a01f38-9f05-44d1-b141-10f060432b17","system_id":"levelo_inurba_marseille","lat":43.28358,"lon":5.38098,"is_reserved":false,"is_disabled":false,"rental_uris":{"android":"levelo://app?vid=c4a01f38-9f05-44d1-b141-10f060432b17","ios":"levelo://app?vid=c4a01f38-9f05-44d1-b141-10f060432b17"},"vehicle_type_id":"4","last_reported":1762413063,"current_range_meters":16400,"station_id":"ce4bh412rcd13ifvqdr0","pricing_plan_id":"cebpf4jnsgd1na2vs0mg"},{"bike_id":"6eb1b934-6640-48be-84b7-6dc81c71f545","system_id":"levelo_inurba_marseille","lat":43.24167,"lon":5.36397,"is_reserved":false,"is_disabled":false,"rental_uris":{"android":"levelo://app?vid=6eb1b934-6640-48be-84b7-6dc81c71f545","ios":"levelo://app?vid=6eb1b934-6640-48be-84b7-6dc81c71f545"},"vehicle_type_id":"4","last_reported":1762413063,"current_range_meters":16400,"station_id":"cpo36qri1sfpv3e86is0","pricing_plan_id":"cebpf4jnsgd1na2vs0mg"},{"bike_id":"58913ae0-74ea-49b4-8d46-6c500447e71d","system_id":"levelo_inurba_marseille","lat":43.29862,"lon":5.37613,"is_reserved":false,"is_disabled":false,"rental_uris":{"android":"levelo://app?vid=58913ae0-74ea-49b4-8d46-6c500447e71d","ios":"levelo://app?vid=58913ae0-74ea-49b4-8d46-6c500447e71d"},"vehicle_type_id":"4","last_reported":1762413063,"current_range_meters":16400,"station_id":"","pricing_plan_id":"cebpf4jnsgd1na2vs0mg"},{"bike_id":"81db1f95-61ff-471e-891f-33f2a5ea4e56","system_id":"levelo_inurba_marseille","lat":43.287606,"lon":5.379544,"is_reserved":false,"is_disabled":false,"rental_uris":{"android":"levelo://app?vid=81db1f95-61ff-471e-891f-33f2a5ea4e56","ios":"levelo://app?vid=81db1f95-61ff-471e-891f-33f2a5ea4e56"},"vehicle_type_id":"4","last_reported":1762413063,"current_range_meters":16400,"station_id":"ce4bh9p2rcd13ifvqec0","pricing_plan_id":"cebpf4jnsgd1na2vs0mg"},{"bike_id":"48c2b0b9-f598-42fb-baa7-44213ce03a52","system_id":"levelo_inurba_marseille","lat":43.231519,"lon":5.437176,"is_reserved":false,"is_disabled":false,"rental_uris":{"android":"levelo://app?vid=48c2b0b9-f598-42fb-baa7-44213ce03a52","ios":"levelo://app?vid=48c2b0b9-f598-42fb-baa7-44213ce03a52"},"vehicle_type_id":"4","last_reported":1762413063,"current_range_meters":16400,"station_id":"ce4bhmp2rcd13ifvqgog","pricing_plan_id":"cebpf4jnsgd1na2vs0mg"},{"bike_id":"d0581743-e06c-4ad1-9f8a-41b25975ba07","system_id":"levelo_inurba_marseille","lat":43.29844,"lon":5.44067,"is_reserved":false,"is_disabled":false,"rental_uris":{"android":"levelo://app?vid=d0581743-e06c-4ad1-9f8a-41b25975ba07","ios":"levelo://app?vid=d0581743-e06c-4ad1-9f8a-41b25975ba07"},"vehicle_type_id":"4","last_reported":1762413063,"current_range_meters":16400,"station_id":"","pricing_plan_id":"cebpf4jnsgd1na2vs0mg"},{"bike_id":"9f2da96b-e073-41e9-9cb6-b8c289d4a763","system_id":"levelo_inurba_marseille","lat":43.231832,"lon":5.399799,"is_reserved":false,"is_disabled":false,"rental_uris":{"android":"levelo://app?vid=9f2da96b-e073-41e9-9cb6-b8c289d4a763","ios":"levelo://app?vid=9f2da96b-e073-41e9-9cb6-b8c289d4a763"},"vehicle_type_id":"4","last_reported":1762413063,"current_range_meters":16400,"station_id":"ce4bhn12rcd13ifvqgqg","pricing_plan_id":"cebpf4jnsgd1na2vs0mg"},{"bike_id":"63d8b48f-4544-4ccc-802a-ef3f3ea95adb","system_id":"levelo_inurba_marseille","lat":43.24084,"lon":5.37749,"is_reserved":false,"is_disabled":false,"rental_uris":{"android":"levelo://app?vid=63d8b48f-4544-4ccc-802a-ef3f3ea95adb","ios":"levelo://app?vid=63d8b48f-4544-4ccc-802a-ef3f3ea95adb"},"vehicle_type_id":"4","last_reported":1762413063,"current_range_meters":16400,"station_id":"ce4bhnp2rcd13ifvqgvg","pricing_plan_id":"cebpf4jnsgd1na2vs0mg"},{"bike_id":"e22b345d-4f89-4072-adbf-98664e18b0de","system_id":"levelo_inurba_marseille","lat":43.21189,"lon":5.35081,"is_reserved":false,"is_disabled":false,"rental_uris":{"android":"levelo://app?vid=e22b345d-4f89-4072-adbf-98664e18b0de","ios":"levelo://app?vid=e22b345d-4f89-4072-adbf-98664e18b0de"},"vehicle_type_id":"4","last_reported":1762413063,"current_range_meters":16400,"station_id":"st_cvj6sg6p6f1abm77japg","pricing_plan_id":"cebpf4jnsgd1na2vs0mg"},{"bike_id":"d3f004cb-2f7a-46f5-aef2-3de8f4a02f33","system_id":"levelo_inurba_marseille","lat":43.28718,"lon":5.37947,"is_reserved":false,"is_disabled":false,"rental_uris":{"android":"levelo://app?vid=d3f004cb-2f7a-46f5-aef2-3de8f4a02f33","ios":"levelo://app?vid=d3f004cb-2f7a-46f5-aef2-3de8f4a02f33"},"vehicle_type_id":"4","last_reported":1762413063,"current_range_meters":16800,"station_id":"ce4bh9p2rcd13ifvqec0","pricing_plan_id":"cebpf4jnsgd1na2vs0mg"},{"bike_id":"bd3d6166-ef12-455e-9330-7bbb61173a8e","system_id":"levelo_inurba_marseille","lat":43.298556,"lon":5.362899,"is_reserved":false,"is_disabled":false,"rental_uris":{"android":"levelo://app?vid=bd3d6166-ef12-455e-9330-7bbb61173a8e","ios":"levelo://app?vid=bd3d6166-ef12-455e-9330-7bbb61173a8e"},"vehicle_type_id":"4","last_reported":1762413063,"current_range_meters":16800,"station_id":"ce4bgpp2rcd13ifvqc3g","pricing_plan_id":"cebpf4jnsgd1na2vs0mg"},{"bike_id":"91514d44-8dff-4888-ba27-6d0f51cbeb77","system_id":"levelo_inurba_marseille","lat":43.292226,"lon":5.360594,"is_reserved":false,"is_disabled":false,"rental_uris":{"android":"levelo://app?vid=91514d44-8dff-4888-ba27-6d0f51cbeb77","ios":"levelo://app?vid=91514d44-8dff-4888-ba27-6d0f51cbeb77"},"vehicle_type_id":"4","last_reported":1762413063,"current_range_meters":16800,"station_id":"","pricing_plan_id":"cebpf4jnsgd1na2vs0mg"},{"bike_id":"dec507c1-6699-4a54-9215-69c5203b9f32","system_id":"levelo_inurba_marseille","lat":43.30156,"lon":5.38121,"is_reserved":false,"is_disabled":false,"rental_uris":{"android":"levelo://app?vid=dec507c1-6699-4a54-9215-69c5203b9f32","ios":"levelo://app?vid=dec507c1-6699-4a54-9215-69c5203b9f32"},"vehicle_type_id":"4","last_reported":1762413063,"current_range_meters":16800,"station_id":"ce4bgjp2rcd13ifvqbh0","pricing_plan_id":"cebpf4jnsgd1na2vs0mg"},{"bike_id":"218d47a3-c6e7-4c3c-9685-02a7ebcef396","system_id":"levelo_inurba_marseille","lat":43.25937,"lon":5.4091,"is_reserved":false,"is_disabled":false,"rental_uris":{"android":"levelo://app?vid=218d47a3-c6e7-4c3c-9685-02a7ebcef396","ios":"levelo://app?vid=218d47a3-c6e7-4c3c-9685-02a7ebcef396"},"vehicle_type_id":"4","last_reported":1762413063,"current_range_meters":16800,"station_id":"ce4bhm92rcd13ifvqglg","pricing_plan_id":"cebpf4jnsgd1na2vs0mg"},{"bike_id":"43cfab9e-f547-4304-9999-4a8329474751","system_id":"levelo_inurba_marseille","lat":43.21209,"lon":5.35092,"is_reserved":false,"is_disabled":false,"rental_uris":{"android":"levelo://app?vid=43cfab9e-f547-4304-9999-4a8329474751","ios":"levelo://app?vid=43cfab9e-f547-4304-9999-4a8329474751"},"vehicle_type_id":"4","last_reported":1762413063,"current_range_meters":16800,"station_id":"st_cvj6sg6p6f1abm77japg","pricing_plan_id":"cebpf4jnsgd1na2vs0mg"},{"bike_id":"33ae4984-5f12-485a-9589-62afcaed0591","system_id":"levelo_inurba_marseille","lat":43.291379,"lon":5.40794,"is_reserved":false,"is_disabled":false,"rental_uris":{"android":"levelo://app?vid=33ae4984-5f12-485a-9589-62afcaed0591","ios":"levelo://app?vid=33ae4984-5f12-485a-9589-62afcaed0591"},"vehicle_type_id":"4","last_reported":1762413063,"current_range_meters":16800,"station_id":"","pricing_plan_id":"cebpf4jnsgd1na2vs0mg"},{"bike_id":"b4b6efe0-1045-4943-8800-b1efe6e65561","system_id":"levelo_inurba_marseille","lat":43.31345,"lon":5.36745,"is_reserved":false,"is_disabled":false,"rental_uris":{"android":"levelo://app?vid=b4b6efe0-1045-4943-8800-b1efe6e65561","ios":"levelo://app?vid=b4b6efe0-1045-4943-8800-b1efe6e65561"},"vehicle_type_id":"4","last_reported":1762413063,"current_range_meters":16800,"station_id":"ce4bgr92rcd13ifvqc6g","pricing_plan_id":"cebpf4jnsgd1na2vs0mg"},{"bike_id":"ba00a797-bc94-42f1-aba8-9bf207fe458c","system_id":"levelo_inurba_marseille","lat":43.30541,"lon":5.36535,"is_reserved":false,"is_disabled":false,"rental_uris":{"android":"levelo://app?vid=ba00a797-bc94-42f1-aba8-9bf207fe458c","ios":"levelo://app?vid=ba00a797-bc94-42f1-aba8-9bf207fe458c"},"vehicle_type_id":"4","last_reported":1762413063,"current_range_meters":16800,"station_id":"ce4bgs12rcd13ifvqcag","pricing_plan_id":"cebpf4jnsgd1na2vs0mg"},{"bike_id":"a8de6f9d-3f93-4b47-b8c5-5f219ab5b32c","system_id":"levelo_inurba_marseille","lat":43.28701,"lon":5.4001,"is_reserved":false,"is_disabled":false,"rental_uris":{"android":"levelo://app?vid=a8de6f9d-3f93-4b47-b8c5-5f219ab5b32c","ios":"levelo://app?vid=a8de6f9d-3f93-4b47-b8c5-5f219ab5b32c"},"vehicle_type_id":"4","last_reported":1762413063,"current_range_meters":17200,"station_id":"ce4bho92rcd13ifvqh3g","pricing_plan_id":"cebpf4jnsgd1na2vs0mg"},{"bike_id":"1c1406c3-ccbf-4c7e-948d-af3d562996c8","system_id":"levelo_inurba_marseille","lat":43.29815,"lon":5.440583,"is_reserved":false,"is_disabled":false,"rental_uris":{"android":"levelo://app?vid=1c1406c3-ccbf-4c7e-948d-af3d562996c8","ios":"levelo://app?vid=1c1406c3-ccbf-4c7e-948d-af3d562996c8"},"vehicle_type_id":"4","last_reported":1762413063,"current_range_meters":17200,"station_id":"st_d3jp68qikq2c7381ktn0","pricing_plan_id":"cebpf4jnsgd1na2vs0mg"},{"bike_id":"7a744e83-0ce6-44f4-9792-e5778f390d93","system_id":"levelo_inurba_marseille","lat":43.319021,"lon":5.407743,"is_reserved":false,"is_disabled":false,"rental_uris":{"android":"levelo://app?vid=7a744e83-0ce6-44f4-9792-e5778f390d93","ios":"levelo://app?vid=7a744e83-0ce6-44f4-9792-e5778f390d93"},"vehicle_type_id":"4","last_reported":1762413063,"current_range_meters":17200,"station_id":"ce4bhq12rcd13ifvqhig","pricing_plan_id":"cebpf4jnsgd1na2vs0mg"},{"bike_id":"4802ddfc-a244-40ff-861b-0f33dae53a4e","system_id":"levelo_inurba_marseille","lat":43.297094,"lon":5.365977,"is_reserved":false,"is_disabled":false,"rental_uris":{"android":"levelo://app?vid=4802ddfc-a244-40ff-861b-0f33dae53a4e","ios":"levelo://app?vid=4802ddfc-a244-40ff-861b-0f33dae53a4e"},"vehicle_type_id":"4","last_reported":1762413063,"current_range_meters":17200,"station_id":"ce4bgn12rcd13ifvqbt0","pricing_plan_id":"cebpf4jnsgd1na2vs0mg"},{"bike_id":"08acd50c-3fa1-4e7e-b609-20f127219a21","system_id":"levelo_inurba_marseille","lat":43.28378,"lon":5.37498,"is_reserved":false,"is_disabled":false,"rental_uris":{"android":"levelo://app?vid=08acd50c-3fa1-4e7e-b609-20f127219a21","ios":"levelo://app?vid=08acd50c-3fa1-4e7e-b609-20f127219a21"},"vehicle_type_id":"4","last_reported":1762413063,"current_range_meters":17200,"station_id":"ce4bh412rcd13ifvqds0","pricing_plan_id":"cebpf4jnsgd1na2vs0mg"},{"bike_id":"04ba5500-24a2-4d55-b856-e5fae1cf5c67","system_id":"levelo_inurba_marseille","lat":43.297921,"lon":5.393553,"is_reserved":false,"is_disabled":false,"rental_uris":{"android":"levelo://app?vid=04ba5500-24a2-4d55-b856-e5fae1cf5c67","ios":"levelo://app?vid=04ba5500-24a2-4d55-b856-e5fae1cf5c67"},"vehicle_type_id":"4","last_reported":1762413063,"current_range_meters":17200,"station_id":"chh1huq6cuj3fo74tm60","pricing_plan_id":"cebpf4jnsgd1na2vs0mg"},{"bike_id":"e891f061-a38f-4c7a-b1ff-14ff94e2c0fd","system_id":"levelo_inurba_marseille","lat":43.28839,"lon":5.39335,"is_reserved":false,"is_disabled":true,"rental_uris":{"android":"levelo://app?vid=e891f061-a38f-4c7a-b1ff-14ff94e2c0fd","ios":"levelo://app?vid=e891f061-a38f-4c7a-b1ff-14ff94e2c0fd"},"vehicle_type_id":"4","last_reported":1762413063,"current_range_meters":17200,"station_id":"ce4bh2p2rcd13ifvqdi0","pricing_plan_id":"cebpf4jnsgd1na2vs0mg"},{"bike_id":"22e1598f-e953-41bb-8799-f15e4e25cd3f","system_id":"levelo_inurba_marseille","lat":43.29101,"lon":5.38177,"is_reserved":false,"is_disabled":true,"rental_uris":{"android":"levelo://app?vid=22e1598f-e953-41bb-8799-f15e4e25cd3f","ios":"levelo://app?vid=22e1598f-e953-41bb-8799-f15e4e25cd3f"},"vehicle_type_id":"4","last_reported":1762413063,"current_range_meters":17200,"station_id":"ce4bh512rcd13ifvqe2g","pricing_plan_id":"cebpf4jnsgd1na2vs0mg"},{"bike_id":"8d8bd3ff-7b43-4456-afe3-853982539b21","system_id":"levelo_inurba_marseille","lat":43.28458,"lon":5.3593,"is_reserved":false,"is_disabled":false,"rental_uris":{"android":"levelo://app?vid=8d8bd3ff-7b43-4456-afe3-853982539b21","ios":"levelo://app?vid=8d8bd3ff-7b43-4456-afe3-853982539b21"},"vehicle_type_id":"4","last_reported":1762413063,"current_range_meters":17600,"station_id":"","pricing_plan_id":"cebpf4jnsgd1na2vs0mg"},{"bike_id":"d98fae59-ff60-41e6-b471-90b576c490fa","system_id":"levelo_inurba_marseille","lat":43.29196,"lon":5.35798,"is_reserved":false,"is_disabled":true,"rental_uris":{"android":"levelo://app?vid=d98fae59-ff60-41e6-b471-90b576c490fa","ios":"levelo://app?vid=d98fae59-ff60-41e6-b471-90b576c490fa"},"vehicle_type_id":"4","last_reported":1762413063,"current_range_meters":17600,"station_id":"ce4bhb12rcd13ifvqel0","pricing_plan_id":"cebpf4jnsgd1na2vs0mg"},{"bike_id":"7b7106f7-1857-4970-b915-f0938645eac8","system_id":"levelo_inurba_marseille","lat":43.30217,"lon":5.39469,"is_reserved":false,"is_disabled":false,"rental_uris":{"android":"levelo://app?vid=7b7106f7-1857-4970-b915-f0938645eac8","ios":"levelo://app?vid=7b7106f7-1857-4970-b915-f0938645eac8"},"vehicle_type_id":"4","last_reported":1762413063,"current_range_meters":17600,"station_id":"ce4bh0p2rcd13ifvqd70","pricing_plan_id":"cebpf4jnsgd1na2vs0mg"},{"bike_id":"c8f136e5-31d7-40da-91e8-58d3251aaaa1","system_id":"levelo_inurba_marseille","lat":43.29248,"lon":5.36844,"is_reserved":false,"is_disabled":true,"rental_uris":{"android":"levelo://app?vid=c8f136e5-31d7-40da-91e8-58d3251aaaa1","ios":"levelo://app?vid=c8f136e5-31d7-40da-91e8-58d3251aaaa1"},"vehicle_type_id":"4","last_reported":1762413063,"current_range_meters":17600,"station_id":"ce4bhbp2rcd13ifvqesg","pricing_plan_id":"cebpf4jnsgd1na2vs0mg"},{"bike_id":"b2ee5b49-600b-4507-ad32-80e18dcfde19","system_id":"levelo_inurba_marseille","lat":43.240624,"lon":5.377602,"is_reserved":false,"is_disabled":false,"rental_uris":{"android":"levelo://app?vid=b2ee5b49-600b-4507-ad32-80e18dcfde19","ios":"levelo://app?vid=b2ee5b49-600b-4507-ad32-80e18dcfde19"},"vehicle_type_id":"4","last_reported":1762413063,"current_range_meters":17600,"station_id":"ce4bhnp2rcd13ifvqgvg","pricing_plan_id":"cebpf4jnsgd1na2vs0mg"},{"bike_id":"562db54a-cf6c-4231-84ee-f30bc9d044d6","system_id":"levelo_inurba_marseille","lat":43.301058,"lon":5.386174,"is_reserved":false,"is_disabled":false,"rental_uris":{"android":"levelo://app?vid=562db54a-cf6c-4231-84ee-f30bc9d044d6","ios":"levelo://app?vid=562db54a-cf6c-4231-84ee-f30bc9d044d6"},"vehicle_type_id":"4","last_reported":1762413063,"current_range_meters":17600,"station_id":"ce4bgt12rcd13ifvqcd0","pricing_plan_id":"cebpf4jnsgd1na2vs0mg"},{"bike_id":"d975e5c1-3a94-457d-8066-9bb046a73e78","system_id":"levelo_inurba_marseille","lat":43.2319,"lon":5.399885,"is_reserved":false,"is_disabled":false,"rental_uris":{"android":"levelo://app?vid=d975e5c1-3a94-457d-8066-9bb046a73e78","ios":"levelo://app?vid=d975e5c1-3a94-457d-8066-9bb046a73e78"},"vehicle_type_id":"4","last_reported":1762413063,"current_range_meters":17600,"station_id":"ce4bhn12rcd13ifvqgqg","pricing_plan_id":"cebpf4jnsgd1na2vs0mg"},{"bike_id":"3728b334-eb14-4eb8-a7a8-fdf9b82c262f","system_id":"levelo_inurba_marseille","lat":43.29562,"lon":5.3999,"is_reserved":false,"is_disabled":false,"rental_uris":{"android":"levelo://app?vid=3728b334-eb14-4eb8-a7a8-fdf9b82c262f","ios":"levelo://app?vid=3728b334-eb14-4eb8-a7a8-fdf9b82c262f"},"vehicle_type_id":"4","last_reported":1762413063,"current_range_meters":17600,"station_id":"ce4bh312rcd13ifvqdj0","pricing_plan_id":"cebpf4jnsgd1na2vs0mg"},{"bike_id":"5ef84235-eddd-425b-8be4-c31c46a00271","system_id":"levelo_inurba_marseille","lat":43.241703,"lon":5.363989,"is_reserved":false,"is_disabled":false,"rental_uris":{"android":"levelo://app?vid=5ef84235-eddd-425b-8be4-c31c46a00271","ios":"levelo://app?vid=5ef84235-eddd-425b-8be4-c31c46a00271"},"vehicle_type_id":"4","last_reported":1762413063,"current_range_meters":17600,"station_id":"cpo36qri1sfpv3e86is0","pricing_plan_id":"cebpf4jnsgd1na2vs0mg"},{"bike_id":"2e828f2c-0438-4aa4-8266-b2a4233ae4a4","system_id":"levelo_inurba_marseille","lat":43.3015,"lon":5.3809,"is_reserved":false,"is_disabled":false,"rental_uris":{"android":"levelo://app?vid=2e828f2c-0438-4aa4-8266-b2a4233ae4a4","ios":"levelo://app?vid=2e828f2c-0438-4aa4-8266-b2a4233ae4a4"},"vehicle_type_id":"4","last_reported":1762413063,"current_range_meters":17600,"station_id":"ce4bgjp2rcd13ifvqbh0","pricing_plan_id":"cebpf4jnsgd1na2vs0mg"},{"bike_id":"fab6c960-021b-4dff-be4c-af606a2505f2","system_id":"levelo_inurba_marseille","lat":43.30516,"lon":5.37827,"is_reserved":false,"is_disabled":false,"rental_uris":{"android":"levelo://app?vid=fab6c960-021b-4dff-be4c-af606a2505f2","ios":"levelo://app?vid=fab6c960-021b-4dff-be4c-af606a2505f2"},"vehicle_type_id":"4","last_reported":1762413063,"current_range_meters":18000,"station_id":"","pricing_plan_id":"cebpf4jnsgd1na2vs0mg"},{"bike_id":"ee1042f8-d88a-46aa-a342-278040f0e482","system_id":"levelo_inurba_marseille","lat":43.28608,"lon":5.38527,"is_reserved":false,"is_disabled":true,"rental_uris":{"android":"levelo://app?vid=ee1042f8-d88a-46aa-a342-278040f0e482","ios":"levelo://app?vid=ee1042f8-d88a-46aa-a342-278040f0e482"},"vehicle_type_id":"4","last_reported":1762413063,"current_range_meters":18000,"station_id":"","pricing_plan_id":"cebpf4jnsgd1na2vs0mg"},{"bike_id":"91bb12c7-2827-42b8-b3c8-c74ccf87e60c","system_id":"levelo_inurba_marseille","lat":43.29289,"lon":5.40966,"is_reserved":false,"is_disabled":false,"rental_uris":{"android":"levelo://app?vid=91bb12c7-2827-42b8-b3c8-c74ccf87e60c","ios":"levelo://app?vid=91bb12c7-2827-42b8-b3c8-c74ccf87e60c"},"vehicle_type_id":"4","last_reported":1762413063,"current_range_meters":18000,"station_id":"ce4bh192rcd13ifvqdc0","pricing_plan_id":"cebpf4jnsgd1na2vs0mg"},{"bike_id":"c8928740-e178-489c-9684-e98542ddf730","system_id":"levelo_inurba_marseille","lat":43.29041,"lon":5.38691,"is_reserved":false,"is_disabled":false,"rental_uris":{"android":"levelo://app?vid=c8928740-e178-489c-9684-e98542ddf730","ios":"levelo://app?vid=c8928740-e178-489c-9684-e98542ddf730"},"vehicle_type_id":"4","last_reported":1762413063,"current_range_meters":18000,"station_id":"ce4bh4p2rcd13ifvqe0g","pricing_plan_id":"cebpf4jnsgd1na2vs0mg"},{"bike_id":"65d83eaf-428a-43cd-a356-ecaed95948ff","system_id":"levelo_inurba_marseille","lat":43.248401,"lon":5.397811,"is_reserved":false,"is_disabled":false,"rental_uris":{"android":"levelo://app?vid=65d83eaf-428a-43cd-a356-ecaed95948ff","ios":"levelo://app?vid=65d83eaf-428a-43cd-a356-ecaed95948ff"},"vehicle_type_id":"4","last_reported":1762413063,"current_range_meters":18000,"station_id":"","pricing_plan_id":"cebpf4jnsgd1na2vs0mg"},{"bike_id":"363d28a4-8070-409b-b6c7-eb06990c7e61","system_id":"levelo_inurba_marseille","lat":43.253387,"lon":5.421701,"is_reserved":false,"is_disabled":false,"rental_uris":{"android":"levelo://app?vid=363d28a4-8070-409b-b6c7-eb06990c7e61","ios":"levelo://app?vid=363d28a4-8070-409b-b6c7-eb06990c7e61"},"vehicle_type_id":"4","last_reported":1762413063,"current_range_meters":18000,"station_id":"st_d2m65c5bi1j21697t3ng","pricing_plan_id":"cebpf4jnsgd1na2vs0mg"},