{"last_updated":1759158610,"ttl":60,"version":"2.2","data":{"bikes":[{"bike_id":"a1a95060-0d6d-4944-964e-fbb284021c63","system_id":"levelo_inurba_marseille","lat":43.29536,"lon":5.37509,"is_reserved":false,"is_disabled":false,"rental_uris":{"android":"levelo://app?vid=a1a95060-0d6d-4944-964e-fbb284021c63","ios":"levelo://app?vid=a1a95060-0d6d-4944-964e-fbb284021c63"},"vehicle_type_id":"4","last_reported":1759158610,"current_range_meters":2000,"station_id":"ce4bgkp2rcd13ifvqbmg","pricing_plan_id":"cebpf4jnsgd1na2vs0mg"},{"bike_id":"83e54a58-1a13-46aa-b5f5-2fe980e698ac","system_id":"levelo_inurba_marseille","lat":43.27562,"lon":5.3843,"is_reserved":false,"is_disabled":false,"rental_uris":{"android":"levelo://app?vid=83e54a58-1a13-46aa-b5f5-2fe980e698ac","ios":"levelo://app?vid=83e54a58-1a13-46aa-b5f5-2fe980e698ac"},"vehicle_type_id":"4","last_reported":1759158610,"current_range_meters":2800,"station_id":"ce4bhh92rcd13ifvqfi0","pricing_plan_id":"cebpf4jnsgd1na2vs0mg"},{"bike_id":"5d1addf3-5d32-41c0-aabd-3fe798b935f2","system_id":"levelo_inurba_marseille","lat":43.29016,"lon":5.38139,"is_reserved":false,"is_disabled":false,"rental_uris":{"android":"levelo://app?vid=5d1addf3-5d32-41c0-aabd-3fe798b935f2","ios":"levelo://app?vid=5d1addf3-5d32-41c0-aabd-3fe798b935f2"},"vehicle_type_id":"4","last_reported":1759158610,"current_range_meters":2800,"station_id":"ce4bh4p2rcd13ifvqe1g","pricing_plan_id":"cebpf4jnsgd1na2vs0mg"},{"bike_id":"bff61d8d-a3ed-47e8-a908-144b57254a2e","system_id":"levelo_inurba_marseille","lat":43.266358,"lon":5.381326,"is_reserved":false,"is_disabled":false,"rental_uris":{"android":"levelo://app?vid=bff61d8d-a3ed-47e8-a908-144b57254a2e","ios":"levelo://app?vid=bff61d8d-a3ed-47e8-a908-144b57254a2e"},"vehicle_type_id":"4","last_reported":1759158610,"current_range_meters":2800,"station_id":"","pricing_plan_id":"cebpf4jnsgd1na2vs0mg"},{"bike_id":"32afe384-ac0c-48de-9c1b-01b1bffcc913","system_id":"levelo_inurba_marseille","lat":43.29601,"lon":5.381029,"is_reserved":false,"is_disabled":true,"rental_uris":{"android":"levelo://app?vid=32afe384-ac0c-48de-9c1b-01b1bffcc913","ios":"levelo://app?vid=32afe384-ac0c-48de-9c1b-01b1bffcc913"},"vehicle_type_id":"4","last_reported":1759158610,"current_range_meters":2800,"station_id":"ce4bgl12rcd13ifvqbo0","pricing_plan_id":"cebpf4jnsgd1na2vs0mg"},{"bike_id":"ee111531-6ee9-4793-9daf-75cde0def166","system_id":"levelo_inurba_marseille","lat":43.296279,"lon":5.377305,"is_reserved":false,"is_disabled":false,"rental_uris":{"android":"levelo://app?vid=ee111531-6ee9-4793-9daf-75cde0def166","ios":"levelo://app?vid=ee111531-6ee9-4793-9daf-75cde0def166"},"vehicle_type_id":"4","last_reported":1759158610,"current_range_meters":2800,"station_id":"ce4bgi92rcd13ifvqb90","pricing_plan_id":"cebpf4jnsgd1na2vs0mg"},{"bike_id":"934ea1ec-b7f6-49a1-9efa-287317d4eb22","system_id":"levelo_inurba_marseille","lat":43.29048,"lon":5.35914,"is_reserved":false,"is_disabled":false,"rental_uris":{"android":"levelo://app?vid=934ea1ec-b7f6-49a1-9efa-287317d4eb22","ios":"levelo://app?vid=934ea1ec-b7f6-49a1-9efa-287317d4eb22"},"vehicle_type_id":"4","last_reported":1759158610,"current_range_meters":3200,"station_id":"","pricing_plan_id":"cebpf4jnsgd1na2vs0mg"},{"bike_id":"ac363d8c-2da8-4932-b7b8-4ea4ba901596","system_id":"levelo_inurba_marseille","lat":43.284123,"lon":5.375066,"is_reserved":false,"is_disabled":false,"rental_uris":{"android":"levelo://app?vid=ac363d8c-2da8-4932-b7b8-4ea4ba901596","ios":"levelo://app?vid=ac363d8c-2da8-4932-b7b8-4ea4ba901596"},"vehicle_type_id":"4","last_reported":1759158610,"current_range_meters":3200,"station_id":"ce4bh412rcd13ifvqds0","pricing_plan_id":"cebpf4jnsgd1na2vs0mg"},{"bike_id":"8bca3482-a153-4ba2-bde8-e385dd63bb76","system_id":"levelo_inurba_marseille","lat":43.29888,"lon":5.4369,"is_reserved":false,"is_disabled":false,"rental_uris":{"android":"levelo://app?vid=8bca3482-a153-4ba2-bde8-e385dd63bb76","ios":"levelo://app?vid=8bca3482-a153-4ba2-bde8-e385dd63bb76"},"vehicle_type_id":"4","last_reported":1759158610,"current_range_meters":3200,"station_id":"ce4bhpp2rcd13ifvqhfg","pricing_plan_id":"cebpf4jnsgd1na2vs0mg"},{"bike_id":"2d11afc8-b4fc-4c3d-9e0a-47703d88849c","system_id":"levelo_inurba_marseille","lat":43.29848,"lon":5.36292,"is_reserved":false,"is_disabled":false,"rental_uris":{"android":"levelo://app?vid=2d11afc8-b4fc-4c3d-9e0a-47703d88849c","ios":"levelo://app?vid=2d11afc8-b4fc-4c3d-9e0a-47703d88849c"},"vehicle_type_id":"4","last_reported":1759158610,"current_range_meters":4000,"station_id":"ce4bgpp2rcd13ifvqc3g","pricing_plan_id":"cebpf4jnsgd1na2vs0mg"},{"bike_id":"a88f0f10-6d4a-4c3c-8cef-d5d7a6300ba3","system_id":"levelo_inurba_marseille","lat":43.26571,"lon":5.39011,"is_reserved":false,"is_disabled":false,"rental_uris":{"android":"levelo://app?vid=a88f0f10-6d4a-4c3c-8cef-d5d7a6300ba3","ios":"levelo://app?vid=a88f0f10-6d4a-4c3c-8cef-d5d7a6300ba3"},"vehicle_type_id":"4","last_reported":1759158610,"current_range_meters":4000,"station_id":"ce4bhe12rcd13ifvqf30","pricing_plan_id":"cebpf4jnsgd1na2vs0mg"},{"bike_id":"92b45793-2ee2-494c-9fae-392ea29cd7ec","system_id":"levelo_inurba_marseille","lat":43.290276,"lon":5.381278,"is_reserved":false,"is_disabled":false,"rental_uris":{"android":"levelo://app?vid=92b45793-2ee2-494c-9fae-392ea29cd7ec","ios":"levelo://app?vid=92b45793-2ee2-494c-9fae-392ea29cd7ec"},"vehicle_type_id":"4","last_reported":1759158610,"current_range_meters":4000,"station_id":"ce4bh4p2rcd13ifvqe1g","pricing_plan_id":"cebpf4jnsgd1na2vs0mg"},{"bike_id":"87ef1c7c-3c35-4a7f-8f10-7401b12f19b1","system_id":"levelo_inurba_marseille","lat":43.28451,"lon":5.3921,"is_reserved":false,"is_disabled":false,"rental_uris":{"android":"levelo://app?vid=87ef1c7c-3c35-4a7f-8f10-7401b12f19b1","ios":"levelo://app?vid=87ef1c7c-3c35-4a7f-8f10-7401b12f19b1"},"vehicle_type_id":"4","last_reported":1759158610,"current_range_meters":4400,"station_id":"ce4bhoh2rcd13ifvqh5g","pricing_plan_id":"cebpf4jnsgd1na2vs0mg"},{"bike_id":"21fd6973-d641-47d1-94e4-e0609942393f","system_id":"levelo_inurba_marseille","lat":43.278926,"lon":5.405227,"is_reserved":false,"is_disabled":false,"rental_uris":{"android":"levelo://app?vid=21fd6973-d641-47d1-94e4-e0609942393f","ios":"levelo://app?vid=21fd6973-d641-47d1-94e4-e0609942393f"},"vehicle_type_id":"4","last_reported":1759158610,"current_range_meters":4800,"station_id":"ce4bhnh2rcd13ifvqgtg","pricing_plan_id":"cebpf4jnsgd1na2vs0mg"},{"bike_id":"972b1340-6c51-4142-8c3d-02a87aecc564","system_id":"levelo_inurba_marseille","lat":43.299866,"lon":5.371706,"is_reserved":false,"is_disabled":false,"rental_uris":{"android":"levelo://app?vid=972b1340-6c51-4142-8c3d-02a87aecc564","ios":"levelo://app?vid=972b1340-6c51-4142-8c3d-02a87aecc564"},"vehicle_type_id":"4","last_reported":1759158610,"current_range_meters":4800,"station_id":"ce4bgr92rcd13ifvqc7g","pricing_plan_id":"cebpf4jnsgd1na2vs0mg"},{"bike_id":"846b9ad1-a37c-4e96-83a1-cfe56d80f0d2","system_id":"levelo_inurba_marseille","lat":43.26256,"lon":5.3986,"is_reserved":false,"is_disabled":false,"rental_uris":{"android":"levelo://app?vid=846b9ad1-a37c-4e96-83a1-cfe56d80f0d2","ios":"levelo://app?vid=846b9ad1-a37c-4e96-83a1-cfe56d80f0d2"},"vehicle_type_id":"4","last_reported":1759158610,"current_range_meters":4800,"station_id":"","pricing_plan_id":"cebpf4jnsgd1na2vs0mg"},{"bike_id":"42d286c8-dd0d-4fd2-af3c-93f3f842d539","system_id":"levelo_inurba_marseille","lat":43.2904,"lon":5.37579,"is_reserved":false,"is_disabled":false,"rental_uris":{"android":"levelo://app?vid=42d286c8-dd0d-4fd2-af3c-93f3f842d539","ios":"levelo://app?vid=42d286c8-dd0d-4fd2-af3c-93f3f842d539"},"vehicle_type_id":"4","last_reported":1759158610,"current_range_meters":4800,"station_id":"ce4bh692rcd13ifvqe90","pricing_plan_id":"cebpf4jnsgd1na2vs0mg"},{"bike_id":"babfdb65-222f-4183-ae1d-ec8b564f9108","system_id":"levelo_inurba_marseille","lat":43.28668,"lon":5.38664,"is_reserved":false,"is_disabled":false,"rental_uris":{"android":"levelo://app?vid=babfdb65-222f-4183-ae1d-ec8b564f9108","ios":"levelo://app?vid=babfdb65-222f-4183-ae1d-ec8b564f9108"},"vehicle_type_id":"4","last_reported":1759158610,"current_range_meters":5600,"station_id":"ce4bh492rcd13ifvqdug","pricing_plan_id":"cebpf4jnsgd1na2vs0mg"},{"bike_id":"25204a46-bfca-4a8e-943d-dc5bf3cd0106","system_id":"levelo_inurba_marseille","lat":43.29705,"lon":5.36607,"is_reserved":false,"is_disabled":false,"rental_uris":{"android":"levelo://app?vid=25204a46-bfca-4a8e-943d-dc5bf3cd0106","ios":"levelo://app?vid=25204a46-bfca-4a8e-943d-dc5bf3cd0106"},"vehicle_type_id":"4","last_reported":1759158610,"current_range_meters":5600,"station_id":"ce4bgn12rcd13ifvqbt0","pricing_plan_id":"cebpf4jnsgd1na2vs0mg"},{"bike_id":"26172944-106b-4b4e-9e3c-562a87d00a0c","system_id":"levelo_inurba_marseille","lat":43.290321,"lon":5.376542,"is_reserved":false,"is_disabled":false,"rental_uris":{"android":"levelo://app?vid=26172944-106b-4b4e-9e3c-562a87d00a0c","ios":"levelo://app?vid=26172944-106b-4b4e-9e3c-562a87d00a0c"},"vehicle_type_id":"4","last_reported":1759158610,"current_range_meters":5600,"station_id":"","pricing_plan_id":"cebpf4jnsgd1na2vs0mg"},{"bike_id":"6cad5966-10cd-4651-aef0-a8d1d06c799b","system_id":"levelo_inurba_marseille","lat":43.29354,"lon":5.37862,"is_reserved":false,"is_disabled":false,"rental_uris":{"android":"levelo://app?vid=6cad5966-10cd-4651-aef0-a8d1d06c799b","ios":"levelo://app?vid=6cad5966-10cd-4651-aef0-a8d1d06c799b"},"vehicle_type_id":"4","last_reported":1759158610,"current_range_meters":5600,"station_id":"ce4bgjh2rcd13ifvqbf0","pricing_plan_id":"cebpf4jnsgd1na2vs0mg"},{"bike_id":"23503906-0354-48ca-8372-74cf3c23a7e0","system_id":"levelo_inurba_marseille","lat":43.29257,"lon":5.38453,"is_reserved":false,"is_disabled":false,"rental_uris":{"android":"levelo://app?vid=23503906-0354-48ca-8372-74cf3c23a7e0","ios":"levelo://app?vid=23503906-0354-48ca-8372-74cf3c23a7e0"},"vehicle_type_id":"4","last_reported":1759158610,"current_range_meters":6000,"station_id":"ce4bh692rcd13ifvqea0","pricing_plan_id":"cebpf4jnsgd1na2vs0mg"},{"bike_id":"757cf6ef-d1ca-4061-9bc4-6b941db40599","system_id":"levelo_inurba_marseille","lat":43.27324,"lon":5.39093,"is_reserved":false,"is_disabled":false,"rental_uris":{"android":"levelo://app?vid=757cf6ef-d1ca-4061-9bc4-6b941db40599","ios":"levelo://app?vid=757cf6ef-d1ca-4061-9bc4-6b941db40599"},"vehicle_type_id":"4","last_reported":1759158610,"current_range_meters":6000,"station_id":"ce4bhgp2rcd13ifvqfe0","pricing_plan_id":"cebpf4jnsgd1na2vs0mg"},{"bike_id":"ddc2c15a-331c-4bf0-a393-e9a2889ee5a8","system_id":"levelo_inurba_marseille","lat":43.29874,"lon":5.38907,"is_reserved":false,"is_disabled":false,"rental_uris":{"android":"levelo://app?vid=ddc2c15a-331c-4bf0-a393-e9a2889ee5a8","ios":"levelo://app?vid=ddc2c15a-331c-4bf0-a393-e9a2889ee5a8"},"vehicle_type_id":"4","last_reported":1759158610,"current_range_meters":6400,"station_id":"ce4bh392rcd13ifvqdl0","pricing_plan_id":"cebpf4jnsgd1na2vs0mg"},{"bike_id":"3aa1d4d9-026b-40d4-989a-149a110529b0","system_id":"levelo_inurba_marseille","lat":43.29374,"lon":5.37862,"is_reserved":false,"is_disabled":false,"rental_uris":{"android":"levelo://app?vid=3aa1d4d9-026b-40d4-989a-149a110529b0","ios":"levelo://app?vid=3aa1d4d9-026b-40d4-989a-149a110529b0"},"vehicle_type_id":"4","last_reported":1759158610,"current_range_meters":6400,"station_id":"ce4bgjh2rcd13ifvqbf0","pricing_plan_id":"cebpf4jnsgd1na2vs0mg"},{"bike_id":"9963c35b-faca-4695-96c6-7c4863a65c1b","system_id":"levelo_inurba_marseille","lat":43.246539,"lon":5.388933,"is_reserved":false,"is_disabled":false,"rental_uris":{"android":"levelo://app?vid=9963c35b-faca-4695-96c6-7c4863a65c1b","ios":"levelo://app?vid=9963c35b-faca-4695-96c6-7c4863a65c1b"},"vehicle_type_id":"4","last_reported":1759158610,"current_range_meters":6400,"station_id":"ce4bhg12rcd13ifvqf60","pricing_plan_id":"cebpf4jnsgd1na2vs0mg"},{"bike_id":"b3215b7f-7597-4f18-a0c2-b8e5509ce94d","system_id":"levelo_inurba_marseille","lat":43.29291,"lon":5.40118,"is_reserved":false,"is_disabled":false,"rental_uris":{"android":"levelo://app?vid=b3215b7f-7597-4f18-a0c2-b8e5509ce94d","ios":"levelo://app?vid=b3215b7f-7597-4f18-a0c2-b8e5509ce94d"},"vehicle_type_id":"4","last_reported":1759158610,"current_range_meters":6400,"station_id":"ce4bh312rcd13ifvqdk0","pricing_plan_id":"cebpf4jnsgd1na2vs0mg"},{"bike_id":"1428430d-dea3-4035-a1f7-b50ba331c1fc","system_id":"levelo_inurba_marseille","lat":43.24622,"lon":5.43165,"is_reserved":false,"is_disabled":false,"rental_uris":{"android":"levelo://app?vid=1428430d-dea3-4035-a1f7-b50ba331c1fc","ios":"levelo://app?vid=1428430d-dea3-4035-a1f7-b50ba331c1fc"},"vehicle_type_id":"4","last_reported":1759158610,"current_range_meters":6400,"station_id":"st_d2m6c4gdas8pm72e190g","pricing_plan_id":"cebpf4jnsgd1na2vs0mg"},{"bike_id":"697470c7-1e7d-47fa-9bf3-69454528a61d","system_id":"levelo_inurba_marseille","lat":43.30546,"lon":5.36714,"is_reserved":false,"is_disabled":false,"rental_uris":{"android":"levelo://app?vid=697470c7-1e7d-47fa-9bf3-69454528a61d","ios":"levelo://app?vid=697470c7-1e7d-47fa-9bf3-69454528a61d"},"vehicle_type_id":"4","last_reported":1759158610,"current_range_meters":6400,"station_id":"ce4bgrp2rcd13ifvqc9g","pricing_plan_id":"cebpf4jnsgd1na2vs0mg"},{"bike_id":"f5e6cbff-1444-43c6-835c-303354ed82ba","system_id":"levelo_inurba_marseille","lat":43.33741,"lon":5.39197,"is_reserved":false,"is_disabled":false,"rental_uris":{"android":"levelo://app?vid=f5e6cbff-1444-43c6-835c-303354ed82ba","ios":"levelo://app?vid=f5e6cbff-1444-43c6-835c-303354ed82ba"},"vehicle_type_id":"4","last_reported":1759158610,"current_range_meters":6800,"station_id":"ce4bhr92rcd13ifvqhsg","pricing_plan_id":"cebpf4jnsgd1na2vs0mg"},{"bike_id":"d16f46f5-3d43-4933-b088-bc397093924a","system_id":"levelo_inurba_marseille","lat":43.298573,"lon":5.362933,"is_reserved":false,"is_disabled":true,"rental_uris":{"android":"levelo://app?vid=d16f46f5-3d43-4933-b088-bc397093924a","ios":"levelo://app?vid=d16f46f5-3d43-4933-b088-bc397093924a"},"vehicle_type_id":"4","last_reported":1759158610,"current_range_meters":6800,"station_id":"ce4bgpp2rcd13ifvqc3g","pricing_plan_id":"cebpf4jnsgd1na2vs0mg"},{"bike_id":"e1780320-2354-4167-bdee-f5a3d9199d86","system_id":"levelo_inurba_marseille","lat":43.292674,"lon":5.384498,"is_reserved":false,"is_disabled":false,"rental_uris":{"android":"levelo://app?vid=e1780320-2354-4167-bdee-f5a3d9199d86","ios":"levelo://app?vid=e1780320-2354-4167-bdee-f5a3d9199d86"},"vehicle_type_id":"4","last_reported":1759158610,"current_range_meters":6800,"station_id":"ce4bh692rcd13ifvqea0","pricing_plan_id":"cebpf4jnsgd1na2vs0mg"},{"bike_id":"8a4a8404-2223-404b-b9d6-fda388efd3eb","system_id":"levelo_inurba_marseille","lat":43.225399,"lon":5.348524,"is_reserved":false,"is_disabled":false,"rental_uris":{"android":"levelo://app?vid=8a4a8404-2223-404b-b9d6-fda388efd3eb","ios":"levelo://app?vid=8a4a8404-2223-404b-b9d6-fda388efd3eb"},"vehicle_type_id":"4","last_reported":1759158610,"current_range_meters":7200,"station_id":"","pricing_plan_id":"cebpf4jnsgd1na2vs0mg"},{"bike_id":"316bbb3d-bc07-47a7-a7c9-5944aa3b2aac","system_id":"levelo_inurba_marseille","lat":43.29873,"lon":5.39737,"is_reserved":false,"is_disabled":false,"rental_uris":{"android":"levelo://app?vid=316bbb3d-bc07-47a7-a7c9-5944aa3b2aac","ios":"levelo://app?vid=316bbb3d-bc07-47a7-a7c9-5944aa3b2aac"},"vehicle_type_id":"4","last_reported":1759158610,"current_range_meters":7200,"station_id":"ce4bh0h2rcd13ifvqd50","pricing_plan_id":"cebpf4jnsgd1na2vs0mg"},{"bike_id":"97564049-5515-40fc-98aa-d6073f1eb98f","system_id":"levelo_inurba_marseille","lat":43.25113,"lon":5.40324,"is_reserved":false,"is_disabled":false,"rental_uris":{"android":"levelo://app?vid=97564049-5515-40fc-98aa-d6073f1eb98f","ios":"levelo://app?vid=97564049-5515-40fc-98aa-d6073f1eb98f"},"vehicle_type_id":"4","last_reported":1759158610,"current_range_meters":7200,"station_id":"ce4bhlh2rcd13ifvqgig","pricing_plan_id":"cebpf4jnsgd1na2vs0mg"},{"bike_id":"bc85c2b7-fb13-477a-bbd7-01f47d27e6a2","system_id":"levelo_inurba_marseille","lat":43.23188,"lon":5.35563,"is_reserved":false,"is_disabled":true,"rental_uris":{"android":"levelo://app?vid=bc85c2b7-fb13-477a-bbd7-01f47d27e6a2","ios":"levelo://app?vid=bc85c2b7-fb13-477a-bbd7-01f47d27e6a2"},"vehicle_type_id":"4","last_reported":1759158610,"current_range_meters":7200,"station_id":"ce4bhu92rcd13ifvqi70","pricing_plan_id":"cebpf4jnsgd1na2vs0mg"},{"bike_id":"baf9bd7b-3741-4080-bc45-3de04f8b1284","system_id":"levelo_inurba_marseille","lat":43.29606,"lon":5.38107,"is_reserved":false,"is_disabled":false,"rental_uris":{"android":"levelo://app?vid=baf9bd7b-3741-4080-bc45-3de04f8b1284","ios":"levelo://app?vid=baf9bd7b-3741-4080-bc45-3de04f8b1284"},"vehicle_type_id":"4","last_reported":1759158610,"current_range_meters":7200,"station_id":"ce4bgl12rcd13ifvqbo0","pricing_plan_id":"cebpf4jnsgd1na2vs0mg"},{"bike_id":"63d69e08-3509-4af8-8031-965df6d99e03","system_id":"levelo_inurba_marseille","lat":43.29753,"lon":5.37664,"is_reserved":false,"is_disabled":false,"rental_uris":{"android":"levelo://app?vid=63d69e08-3509-4af8-8031-965df6d99e03","ios":"levelo://app?vid=63d69e08-3509-4af8-8031-965df6d99e03"},"vehicle_type_id":"4","last_reported":1759158610,"current_range_meters":8000,"station_id":"ce4bgkh2rcd13ifvqbl0","pricing_plan_id":"cebpf4jnsgd1na2vs0mg"},{"bike_id":"f089fefd-ca62-4fa8-a70b-d83494406278","system_id":"levelo_inurba_marseille","lat":43.317276,"lon":5.424,"is_reserved":false,"is_disabled":false,"rental_uris":{"android":"levelo://app?vid=f089fefd-ca62-4fa8-a70b-d83494406278","ios":"levelo://app?vid=f089fefd-ca62-4fa8-a70b-d83494406278"},"vehicle_type_id":"4","last_reported":1759158610,"current_range_meters":8000,"station_id":"ce4bhp92rcd13ifvqhbg","pricing_plan_id":"cebpf4jnsgd1na2vs0mg"},{"bike_id":"cefe59df-2426-4a68-83cf-fcecbb3c8c98","system_id":"levelo_inurba_marseille","lat":43.3028,"lon":5.39647,"is_reserved":false,"is_disabled":true,"rental_uris":{"android":"levelo://app?vid=cefe59df-2426-4a68-83cf-fcecbb3c8c98","ios":"levelo://app?vid=cefe59df-2426-4a68-83cf-fcecbb3c8c98"},"vehicle_type_id":"4","last_reported":1759158610,"current_range_meters":8000,"station_id":"","pricing_plan_id":"cebpf4jnsgd1na2vs0mg"},{"bike_id":"c9916796-5f07-4d22-aceb-87882fb08ac5","system_id":"levelo_inurba_marseille","lat":43.30603,"lon":5.36528,"is_reserved":false,"is_disabled":false,"rental_uris":{"android":"levelo://app?vid=c9916796-5f07-4d22-aceb-87882fb08ac5","ios":"levelo://app?vid=c9916796-5f07-4d22-aceb-87882fb08ac5"},"vehicle_type_id":"4","last_reported":1759158610,"current_range_meters":8000,"station_id":"","pricing_plan_id":"cebpf4jnsgd1na2vs0mg"},{"bike_id":"258ab053-1083-4ca9-a32a-1e85f085fc22","system_id":"levelo_inurba_marseille","lat":43.337444,"lon":5.374475,"is_reserved":false,"is_disabled":false,"rental_uris":{"android":"levelo://app?vid=258ab053-1083-4ca9-a32a-1e85f085fc22","ios":"levelo://app?vid=258ab053-1083-4ca9-a32a-1e85f085fc22"},"vehicle_type_id":"4","last_reported":1759158610,"current_range_meters":8000,"station_id":"","pricing_plan_id":"cebpf4jnsgd1na2vs0mg"},{"bike_id":"8b353c9e-13c5-42ee-a76f-ccbd6269a3dc","system_id":"levelo_inurba_marseille","lat":43.30424,"lon":5.366666,"is_reserved":false,"is_disabled":false,"rental_uris":{"android":"levelo://app?vid=8b353c9e-13c5-42ee-a76f-ccbd6269a3dc","ios":"levelo://app?vid=8b353c9e-13c5-42ee-a76f-ccbd6269a3dc"},"vehicle_type_id":"4","last_reported":1759158610,"current_range_meters":8400,"station_id":"","pricing_plan_id":"cebpf4jnsgd1na2vs0mg"},{"bike_id":"ef24f36b-e0d9-4210-93e7-fd36ad3e2477","system_id":"levelo_inurba_marseille","lat":43.28208,"lon":5.39055,"is_reserved":false,"is_disabled":false,"rental_uris":{"android":"levelo://app?vid=ef24f36b-e0d9-4210-93e7-fd36ad3e2477","ios":"levelo://app?vid=ef24f36b-e0d9-4210-93e7-fd36ad3e2477"},"vehicle_type_id":"4","last_reported":1759158610,"current_range_meters":8400,"station_id":"ce4bhn92rcd13ifvqgsg","pricing_plan_id":"cebpf4jnsgd1na2vs0mg"},{"bike_id":"02c722e9-acdb-4fd8-a739-a49badd249f3","system_id":"levelo_inurba_marseille","lat":43.293706,"lon":5.378517,"is_reserved":false,"is_disabled":false,"rental_uris":{"android":"levelo://app?vid=02c722e9-acdb-4fd8-a739-a49badd249f3","ios":"levelo://app?vid=02c722e9-acdb-4fd8-a739-a49badd249f3"},"vehicle_type_id":"4","last_reported":1759158610,"current_range_meters":7200,"station_id":"ce4bgjh2rcd13ifvqbf0","pricing_plan_id":"cebpf4jnsgd1na2vs0mg"},{"bike_id":"6eeea41b-aa60-4f14-a3fb-55ba3b641da2","system_id":"levelo_inurba_marseille","lat":43.29874,"lon":5.3891,"is_reserved":false,"is_disabled":true,"rental_uris":{"android":"levelo://app?vid=6eeea41b-aa60-4f14-a3fb-55ba3b641da2","ios":"levelo://app?vid=6eeea41b-aa60-4f14-a3fb-55ba3b641da2"},"vehicle_type_id":"4","last_reported":1759158610,"current_range_meters":8400,"station_id":"ce4bh392rcd13ifvqdl0","pricing_plan_id":"cebpf4jnsgd1na2vs0mg"},{"bike_id":"9b1724fe-fd43-43db-ba47-8f206b61e5c8","system_id":"levelo_inurba_marseille","lat":43.28265,"lon":5.35074,"is_reserved":false,"is_disabled":false,"rental_uris":{"android":"levelo://app?vid=9b1724fe-fd43-43db-ba47-8f206b61e5c8","ios":"levelo://app?vid=9b1724fe-fd43-43db-ba47-8f206b61e5c8"},"vehicle_type_id":"4","last_reported":1759158610,"current_range_meters":8400,"station_id":"ce4bhbp2rcd13ifvqerg","pricing_plan_id":"cebpf4jnsgd1na2vs0mg"},{"bike_id":"2c6518be-b3f0-42d2-93c9-c1de9e54885f","system_id":"levelo_inurba_marseille","lat":43.29227,"lon":5.38219,"is_reserved":false,"is_disabled":false,"rental_uris":{"android":"levelo://app?vid=2c6518be-b3f0-42d2-93c9-c1de9e54885f","ios":"levelo://app?vid=2c6518be-b3f0-42d2-93c9-c1de9e54885f"},"vehicle_type_id":"4","last_reported":1759158610,"current_range_meters":8800,"station_id":"","pricing_plan_id":"cebpf4jnsgd1na2vs0mg"},{"bike_id":"507533aa-0cd7-4694-b07f-9a84135db0dc","system_id":"levelo_inurba_marseille","lat":43.25341,"lon":5.42176,"is_reserved":false,"is_disabled":false,"rental_uris":{"android":"levelo://app?vid=507533aa-0cd7-4694-b07f-9a84135db0dc","ios":"levelo://app?vid=507533aa-0cd7-4694-b07f-9a84135db0dc"},"vehicle_type_id":"4","last_reported":1759158610,"current_range_meters":8800,"station_id":"st_d2m65c5bi1j21697t3ng","pricing_plan_id":"cebpf4jnsgd1na2vs0mg"},{"bike_id":"c001d2fa-bdf4-4058-b13f-3586c00c603e","system_id":"levelo_inurba_marseille","lat":43.32367,"lon":5.38894,"is_reserved":false,"is_disabled":false,"rental_uris":{"android":"levelo://app?vid=c001d2fa-bdf4-4058-b13f-3586c00c603e","ios":"levelo://app?vid=c001d2fa-bdf4-4058-b13f-3586c00c603e"},"vehicle_type_id":"4","last_reported":1759158610,"current_range_meters":8800,"station_id":"ce4bhqp2rcd13ifvqhog","pricing_plan_id":"cebpf4jnsgd1na2vs0mg"},{"bike_id":"ee96a502-9b76-492e-840a-498b02aefe72","system_id":"levelo_inurba_marseille","lat":43.32355,"lon":5.39217,"is_reserved":false,"is_disabled":false,"rental_uris":{"android":"levelo://app?vid=ee96a502-9b76-492e-840a-498b02aefe72","ios":"levelo://app?vid=ee96a502-9b76-492e-840a-498b02aefe72"},"vehicle_type_id":"4","last_reported":1759158610,"current_range_meters":8800,"station_id":"","pricing_plan_id":"cebpf4jnsgd1na2vs0mg"},{"bike_id":"7be27ce3-ee6f-47e1-b2a1-89c0b09fce45","system_id":"levelo_inurba_marseille","lat":43.31995,"lon":5.38174,"is_reserved":false,"is_disabled":false,"rental_uris":{"android":"levelo://app?vid=7be27ce3-ee6f-47e1-b2a1-89c0b09fce45","ios":"levelo://app?vid=7be27ce3-ee6f-47e1-b2a1-89c0b09fce45"},"vehicle_type_id":"4","last_reported":1759158610,"current_range_meters":8800,"station_id":"ce4bhr12rcd13ifvqhpg","pricing_plan_id":"cebpf4jnsgd1na2vs0mg"},{"bike_id":"4595bb51-93b9-4c7c-b180-c64fa10a2c82","system_id":"levelo_inurba_marseille","lat":43.26563,"lon":5.39012,"is_reserved":false,"is_disabled":false,"rental_uris":{"android":"levelo://app?vid=4595bb51-93b9-4c7c-b180-c64fa10a2c82","ios":"levelo://app?vid=4595bb51-93b9-4c7c-b180-c64fa10a2c82"},"vehicle_type_id":"4","last_reported":1759158610,"current_range_meters":8800,"station_id":"ce4bhe12rcd13ifvqf30","pricing_plan_id":"cebpf4jnsgd1na2vs0mg"},{"bike_id":"03350417-1098-4d6c-b8fe-9e64358744bf","system_id":"levelo_inurba_marseille","lat":43.33195,"lon":5.41348,"is_reserved":false,"is_disabled":false,"rental_uris":{"android":"levelo://app?vid=03350417-1098-4d6c-b8fe-9e64358744bf","ios":"levelo://app?vid=03350417-1098-4d6c-b8fe-9e64358744bf"},"vehicle_type_id":"4","last_reported":1759158610,"current_range_meters":8800,"station_id":"","pricing_plan_id":"cebpf4jnsgd1na2vs0mg"},{"bike_id":"1dad2113-89e2-44fc-a0b6-ddd6a09baff1","system_id":"levelo_inurba_marseille","lat":43.337444,"lon":5.374475,"is_reserved":false,"is_disabled":false,"rental_uris":{"android":"levelo://app?vid=1dad2113-89e2-44fc-a0b6-ddd6a09baff1","ios":"levelo://app?vid=1dad2113-89e2-44fc-a0b6-ddd6a09baff1"},"vehicle_type_id":"4","last_reported":1759158610,"current_range_meters":8800,"station_id":"","pricing_plan_id":"cebpf4jnsgd1na2vs0mg"},{"bike_id":"48a13839-a97f-4f8a-a467-27553446ba2c","system_id":"levelo_inurba_marseille","lat":43.30246,"lon":5.40064,"is_reserved":false,"is_disabled":false,"rental_uris":{"android":"levelo://app?vid=48a13839-a97f-4f8a-a467-27553446ba2c","ios":"levelo://app?vid=48a13839-a97f-4f8a-a467-27553446ba2c"},"vehicle_type_id":"4","last_reported":1759158610,"current_range_meters":9200,"station_id":"ce4bgvh2rcd13ifvqcs0","pricing_plan_id":"cebpf4jnsgd1na2vs0mg"},{"bike_id":"5f2fe553-a3fb-4db8-90ec-d80c5da60c5c","system_id":"levelo_inurba_marseille","lat":43.3248,"lon":5.36572,"is_reserved":false,"is_disabled":false,"rental_uris":{"android":"levelo://app?vid=5f2fe553-a3fb-4db8-90ec-d80c5da60c5c","ios":"levelo://app?vid=5f2fe553-a3fb-4db8-90ec-d80c5da60c5c"},"vehicle_type_id":"4","last_reported":1759158610,"current_range_meters":9200,"station_id":"ce4bhs12rcd13ifvqhvg","pricing_plan_id":"cebpf4jnsgd1na2vs0mg"},{"bike_id":"c038739f-ac57-4932-8860-15d52f840d43","system_id":"levelo_inurba_marseille","lat":43.27316,"lon":5.39091,"is_reserved":false,"is_disabled":false,"rental_uris":{"android":"levelo://app?vid=c038739f-ac57-4932-8860-15d52f840d43","ios":"levelo://app?vid=c038739f-ac57-4932-8860-15d52f840d43"},"vehicle_type_id":"4","last_reported":1759158610,"current_range_meters":9200,"station_id":"ce4bhgp2rcd13ifvqfe0","pricing_plan_id":"cebpf4jnsgd1na2vs0mg"},{"bike_id":"5fe7f407-3191-4d84-bcf8-5bce6d58e56d","system_id":"levelo_inurba_marseille","lat":43.22923,"lon":5.35375,"is_reserved":false,"is_disabled":false,"rental_uris":{"android":"levelo://app?vid=5fe7f407-3191-4d84-bcf8-5bce6d58e56d","ios":"levelo://app?vid=5fe7f407-3191-4d84-bcf8-5bce6d58e56d"},"vehicle_type_id":"4","last_reported":1759158610,"current_range_meters":9200,"station_id":"cpo3532slgdg3j2ikp40","pricing_plan_id":"cebpf4jnsgd1na2vs0mg"},{"bike_id":"495d3978-63a6-4ee5-a026-0847d3aca687","system_id":"levelo_inurba_marseille","lat":43.23975,"lon":5.36633,"is_reserved":false,"is_disabled":false,"rental_uris":{"android":"levelo://app?vid=495d3978-63a6-4ee5-a026-0847d3aca687","ios":"levelo://app?vid=495d3978-63a6-4ee5-a026-0847d3aca687"},"vehicle_type_id":"4","last_reported":1759158610,"current_range_meters":9200,"station_id":"ce4bhi12rcd13ifvqfp0","pricing_plan_id":"cebpf4jnsgd1na2vs0mg"},{"bike_id":"3e504477-8817-4eee-adbb-28434c2ae538","system_id":"levelo_inurba_marseille","lat":43.27181,"lon":5.40997,"is_reserved":false,"is_disabled":false,"rental_uris":{"android":"levelo://app?vid=3e504477-8817-4eee-adbb-28434c2ae538","ios":"levelo://app?vid=3e504477-8817-4eee-adbb-28434c2ae538"},"vehicle_type_id":"4","last_reported":1759158610,"current_range_meters":9200,"station_id":"ce4bhl12rcd13ifvqgf0","pricing_plan_id":"cebpf4jnsgd1na2vs0mg"},{"bike_id":"9b4194c9-b398-4db5-8488-eed29fd5e487","system_id":"levelo_inurba_marseille","lat":43.28485,"lon":5.38563,"is_reserved":false,"is_disabled":false,"rental_uris":{"android":"levelo://app?vid=9b4194c9-b398-4db5-8488-eed29fd5e487","ios":"levelo://app?vid=9b4194c9-b398-4db5-8488-eed29fd5e487"},"vehicle_type_id":"4","last_reported":1759158610,"current_range_meters":9200,"station_id":"ce4bh8p2rcd13ifvqeb0","pricing_plan_id":"cebpf4jnsgd1na2vs0mg"},{"bike_id":"a1c069ad-966d-4c9f-978e-d070864bdd63","system_id":"levelo_inurba_marseille","lat":43.23183,"lon":5.39996,"is_reserved":false,"is_disabled":false,"rental_uris":{"android":"levelo://app?vid=a1c069ad-966d-4c9f-978e-d070864bdd63","ios":"levelo://app?vid=a1c069ad-966d-4c9f-978e-d070864bdd63"},"vehicle_type_id":"4","last_reported":1759158610,"current_range_meters":12800,"station_id":"ce4bhn12rcd13ifvqgqg","pricing_plan_id":"cebpf4jnsgd1na2vs0mg"},{"bike_id":"e7a07ee7-ff27-4e97-adec-6f7b9b9085bf","system_id":"levelo_inurba_marseille","lat":43.28857,"lon":5.42505,"is_reserved":false,"is_disabled":false,"rental_uris":{"android":"levelo://app?vid=e7a07ee7-ff27-4e97-adec-6f7b9b9085bf","ios":"levelo://app?vid=e7a07ee7-ff27-4e97-adec-6f7b9b9085bf"},"vehicle_type_id":"4","last_reported":1759158610,"current_range_meters":9600,"station_id":"st_d3b462108ojc7389ooeg","pricing_plan_id":"cebpf4jnsgd1na2vs0mg"},{"bike_id":"35e8f722-b82a-4247-beb8-7e2827829ce6","system_id":"levelo_inurba_marseille","lat":43.32405,"lon":5.3911,"is_reserved":false,"is_disabled":false,"rental_uris":{"android":"levelo://app?vid=35e8f722-b82a-4247-beb8-7e2827829ce6","ios":"levelo://app?vid=35e8f722-b82a-4247-beb8-7e2827829ce6"},"vehicle_type_id":"4","last_reported":1759158610,"current_range_meters":9600,"station_id":"","pricing_plan_id":"cebpf4jnsgd1na2vs0mg"},{"bike_id":"e5378695-fba9-432a-9cfb-3b5b05e40fec","system_id":"levelo_inurba_marseille","lat":43.337986,"lon":5.374304,"is_reserved":false,"is_disabled":false,"rental_uris":{"android":"levelo://app?vid=e5378695-fba9-432a-9cfb-3b5b05e40fec","ios":"levelo://app?vid=e5378695-fba9-432a-9cfb-3b5b05e40fec"},"vehicle_type_id":"4","last_reported":1759158610,"current_range_meters":9600,"station_id":"","pricing_plan_id":"cebpf4jnsgd1na2vs0mg"},{"bike_id":"c47f5c3e-1ff3-43b7-b740-1c081ef57305","system_id":"levelo_inurba_marseille","lat":43.296089,"lon":5.377258,"is_reserved":false,"is_disabled":false,"rental_uris":{"android":"levelo://app?vid=c47f5c3e-1ff3-43b7-b740-1c081ef57305","ios":"levelo://app?vid=c47f5c3e-1ff3-43b7-b740-1c081ef57305"},"vehicle_type_id":"4","last_reported":1759158610,"current_range_meters":10000,"station_id":"","pricing_plan_id":"cebpf4jnsgd1na2vs0mg"},{"bike_id":"2a80076c-3944-48b1-96b3-f2e8b18b987e","system_id":"levelo_inurba_marseille","lat":43.27954,"lon":5.41024,"is_reserved":false,"is_disabled":false,"rental_uris":{"android":"levelo://app?vid=2a80076c-3944-48b1-96b3-f2e8b18b987e","ios":"levelo://app?vid=2a80076c-3944-48b1-96b3-f2e8b18b987e"},"vehicle_type_id":"4","last_reported":1759158610,"current_range_meters":10000,"station_id":"ce4bhnp2rcd13ifvqh0g","pricing_plan_id":"cebpf4jnsgd1na2vs0mg"},{"bike_id":"d7d09523-34bb-44d2-9695-02f0abea9b47","system_id":"levelo_inurba_marseille","lat":43.2974,"lon":5.37887,"is_reserved":false,"is_disabled":false,"rental_uris":{"android":"levelo://app?vid=d7d09523-34bb-44d2-9695-02f0abea9b47","ios":"levelo://app?vid=d7d09523-34bb-44d2-9695-02f0abea9b47"},"vehicle_type_id":"4","last_reported":1759158610,"current_range_meters":10000,"station_id":"","pricing_plan_id":"cebpf4jnsgd1na2vs0mg"},{"bike_id":"66f487ff-3aae-4a72-86ae-ce3145250e5e","system_id":"levelo_inurba_marseille","lat":43.28466,"lon":5.35891,"is_reserved":false,"is_disabled":false,"rental_uris":{"android":"levelo://app?vid=66f487ff-3aae-4a72-86ae-ce3145250e5e","ios":"levelo://app?vid=66f487ff-3aae-4a72-86ae-ce3145250e5e"},"vehicle_type_id":"4","last_reported":1759158610,"current_range_meters":10000,"station_id":"ce4bhah2rcd13ifvqei0","pricing_plan_id":"cebpf4jnsgd1na2vs0mg"},{"bike_id":"60d76fdd-4796-43cb-b2b3-b4edf1b61c33","system_id":"levelo_inurba_marseille","lat":43.28264,"lon":5.3508,"is_reserved":false,"is_disabled":false,"rental_uris":{"android":"levelo://app?vid=60d76fdd-4796-43cb-b2b3-b4edf1b61c33","ios":"levelo://app?vid=60d76fdd-4796-43cb-b2b3-b4edf1b61c33"},"vehicle_type_id":"4","last_reported":1759158610,"current_range_meters":10800,"station_id":"ce4bhbp2rcd13ifvqerg","pricing_plan_id":"cebpf4jnsgd1na2vs0mg"},{"bike_id":"c3dca691-7f91-4820-a75e-fa24a08927ab","system_id":"levelo_inurba_marseille","lat":43.295565,"lon":5.422984,"is_reserved":false,"is_disabled":false,"rental_uris":{"android":"levelo://app?vid=c3dca691-7f91-4820-a75e-fa24a08927ab","ios":"levelo://app?vid=c3dca691-7f91-4820-a75e-fa24a08927ab"},"vehicle_type_id":"4","last_reported":1759158610,"current_range_meters":10800,"station_id":"ce4bhph2rcd13ifvqhdg","pricing_plan_id":"cebpf4jnsgd1na2vs0mg"},{"bike_id":"ec021ffa-3048-49e2-80a8-645eb0241089","system_id":"levelo_inurba_marseille","lat":43.30521,"lon":5.36699,"is_reserved":false,"is_disabled":false,"rental_uris":{"android":"levelo://app?vid=ec021ffa-3048-49e2-80a8-645eb0241089","ios":"levelo://app?vid=ec021ffa-3048-49e2-80a8-645eb0241089"},"vehicle_type_id":"4","last_reported":1759158610,"current_range_meters":10800,"station_id":"ce4bgrp2rcd13ifvqc9g","pricing_plan_id":"cebpf4jnsgd1na2vs0mg"},{"bike_id":"cd102c39-53ac-4dea-9267-d1fc9c021ae8","system_id":"levelo_inurba_marseille","lat":43.26557,"lon":5.37291,"is_reserved":false,"is_disabled":false,"rental_uris":{"android":"levelo://app?vid=cd102c39-53ac-4dea-9267-d1fc9c021ae8","ios":"levelo://app?vid=cd102c39-53ac-4dea-9267-d1fc9c021ae8"},"vehicle_type_id":"4","last_reported":1759158610,"current_range_meters":10800,"station_id":"ce4bhg12rcd13ifvqf70","pricing_plan_id":"cebpf4jnsgd1na2vs0mg"},{"bike_id":"4822dd99-56ec-44f6-a9b9-ee0ae5dcc1bf","system_id":"levelo_inurba_marseille","lat":43.30009,"lon":5.39994,"is_reserved":false,"is_disabled":false,"rental_uris":{"android":"levelo://app?vid=4822dd99-56ec-44f6-a9b9-ee0ae5dcc1bf","ios":"levelo://app?vid=4822dd99-56ec-44f6-a9b9-ee0ae5dcc1bf"},"vehicle_type_id":"4","last_reported":1759158610,"current_range_meters":10800,"station_id":"ce4bh0h2rcd13ifvqd40","pricing_plan_id":"cebpf4jnsgd1na2vs0mg"},{"bike_id":"c0403669-5703-4109-b829-6720b0fdf93d","system_id":"levelo_inurba_marseille","lat":43.30536,"lon":5.36712,"is_reserved":false,"is_disabled":false,"rental_uris":{"android":"levelo://app?vid=c0403669-5703-4109-b829-6720b0fdf93d","ios":"levelo://app?vid=c0403669-5703-4109-b829-6720b0fdf93d"},"vehicle_type_id":"4","last_reported":1759158610,"current_range_meters":10800,"station_id":"ce4bgrp2rcd13ifvqc9g","pricing_plan_id":"cebpf4jnsgd1na2vs0mg"},{"bike_id":"4a18c197-8509-4a8c-a069-8344e07bef10","system_id":"levelo_inurba_marseille","lat":43.27671,"lon":5.38887,"is_reserved":false,"is_disabled":false,"rental_uris":{"android":"levelo://app?vid=4a18c197-8509-4a8c-a069-8344e07bef10","ios":"levelo://app?vid=4a18c197-8509-4a8c-a069-8344e07bef10"},"vehicle_type_id":"4","last_reported":1759158610,"current_range_meters":10800,"station_id":"ce4bhi12rcd13ifvqfo0","pricing_plan_id":"cebpf4jnsgd1na2vs0mg"},{"bike_id":"678ae2a3-6376-41d9-85c2-7835cb1c061b","system_id":"levelo_inurba_marseille","lat":43.28867,"lon":5.42533,"is_reserved":false,"is_disabled":false,"rental_uris":{"android":"levelo://app?vid=678ae2a3-6376-41d9-85c2-7835cb1c061b","ios":"levelo://app?vid=678ae2a3-6376-41d9-85c2-7835cb1c061b"},"vehicle_type_id":"4","last_reported":1759158610,"current_range_meters":11200,"station_id":"st_d3b462108ojc7389ooeg","pricing_plan_id":"cebpf4jnsgd1na2vs0mg"},{"bike_id":"d6c734f5-0e13-46a8-8e3e-fda40abe4b7d","system_id":"levelo_inurba_marseille","lat":43.302139,"lon":5.394708,"is_reserved":false,"is_disabled":true,"rental_uris":{"android":"levelo://app?vid=d6c734f5-0e13-46a8-8e3e-fda40abe4b7d","ios":"levelo://app?vid=d6c734f5-0e13-46a8-8e3e-fda40abe4b7d"},"vehicle_type_id":"4","last_reported":1759158610,"current_range_meters":11200,"station_id":"ce4bhgh2rcd13ifvqfa0","pricing_plan_id":"cebpf4jnsgd1na2vs0mg"},{"bike_id":"924b3775-602f-434f-82fc-44c7ad1fc5c8","system_id":"levelo_inurba_marseille","lat":43.29001,"lon":5.35616,"is_reserved":false,"is_disabled":false,"rental_uris":{"android":"levelo://app?vid=924b3775-602f-434f-82fc-44c7ad1fc5c8","ios":"levelo://app?vid=924b3775-602f-434f-82fc-44c7ad1fc5c8"},"vehicle_type_id":"4","last_reported":1759158610,"current_range_meters":11200,"station_id":"ce4bhb92rcd13ifvqen0","pricing_plan_id":"cebpf4jnsgd1na2vs0mg"},{"bike_id":"80b98ce0-3233-47ce-84db-722943723d1e","system_id":"levelo_inurba_marseille","lat":43.269329,"lon":5.38928,"is_reserved":false,"is_disabled":false,"rental_uris":{"android":"levelo://app?vid=80b98ce0-3233-47ce-84db-722943723d1e","ios":"levelo://app?vid=80b98ce0-3233-47ce-84db-722943723d1e"},"vehicle_type_id":"4","last_reported":1759158610,"current_range_meters":11200,"station_id":"","pricing_plan_id":"cebpf4jnsgd1na2vs0mg"},{"bike_id":"9c4235da-d3d0-4056-aa6b-c6aa6e8e7367","system_id":"levelo_inurba_marseille","lat":43.30678,"lon":5.37518,"is_reserved":false,"is_disabled":false,"rental_uris":{"android":"levelo://app?vid=9c4235da-d3d0-4056-aa6b-c6aa6e8e7367","ios":"levelo://app?vid=9c4235da-d3d0-4056-aa6b-c6aa6e8e7367"},"vehicle_type_id":"4","last_reported":1759158610,"current_range_meters":11200,"station_id":"","pricing_plan_id":"cebpf4jnsgd1na2vs0mg"},{"bike_id":"0fc22d58-0168-4477-ad76-5c6511769d28","system_id":"levelo_inurba_marseille","lat":43.217458,"lon":5.345983,"is_reserved":false,"is_disabled":false,"rental_uris":{"android":"levelo://app?vid=0fc22d58-0168-4477-ad76-5c6511769d28","ios":"levelo://app?vid=0fc22d58-0168-4477-ad76-5c6511769d28"},"vehicle_type_id":"4","last_reported":1759158610,"current_range_meters":11200,"station_id":"st_cvj6r9ubvosntc0bgbag","pricing_plan_id":"cebpf4jnsgd1na2vs0mg"},{"bike_id":"225f413e-561e-425b-8ec5-6f60367d30c3","system_id":"levelo_inurba_marseille","lat":43.31712,"lon":5.4371,"is_reserved":false,"is_disabled":false,"rental_uris":{"android":"levelo://app?vid=225f413e-561e-425b-8ec5-6f60367d30c3","ios":"levelo://app?vid=225f413e-561e-425b-8ec5-6f60367d30c3"},"vehicle_type_id":"4","last_reported":1759158610,"current_range_meters":11600,"station_id":"ce4bhp92rcd13ifvqhcg","pricing_plan_id":"cebpf4jnsgd1na2vs0mg"},{"bike_id":"ee6406f7-9f33-4935-a835-0f3904e54bc4","system_id":"levelo_inurba_marseille","lat":43.31875,"lon":5.37317,"is_reserved":false,"is_disabled":true,"rental_uris":{"android":"levelo://app?vid=ee6406f7-9f33-4935-a835-0f3904e54bc4","ios":"levelo://app?vid=ee6406f7-9f33-4935-a835-0f3904e54bc4"},"vehicle_type_id":"4","last_reported":1759158610,"current_range_meters":11600,"station_id":"ce4bgt12rcd13ifvqcd0","pricing_plan_id":"cebpf4jnsgd1na2vs0mg"},{"bike_id":"32d53e8f-db22-49cc-9af7-3c16a4ab2a71","system_id":"levelo_inurba_marseille","lat":43.27176,"lon":5.40996,"is_reserved":false,"is_disabled":false,"rental_uris":{"android":"levelo://app?vid=32d53e8f-db22-49cc-9af7-3c16a4ab2a71","ios":"levelo://app?vid=32d53e8f-db22-49cc-9af7-3c16a4ab2a71"},"vehicle_type_id":"4","last_reported":1759158610,"current_range_meters":11600,"station_id":"ce4bhl12rcd13ifvqgf0","pricing_plan_id":"cebpf4jnsgd1na2vs0mg"},{"bike_id":"e468277b-f618-4d4d-8fa0-066aac9dc07b","system_id":"levelo_inurba_marseille","lat":43.30437,"lon":5.38896,"is_reserved":false,"is_disabled":false,"rental_uris":{"android":"levelo://app?vid=e468277b-f618-4d4d-8fa0-066aac9dc07b","ios":"levelo://app?vid=e468277b-f618-4d4d-8fa0-066aac9dc07b"},"vehicle_type_id":"4","last_reported":1759158610,"current_range_meters":11600,"station_id":"ce4bgk12rcd13ifvqbi0","pricing_plan_id":"cebpf4jnsgd1na2vs0mg"},{"bike_id":"0be1957c-2290-4671-b00b-45f56732d8ce","system_id":"levelo_inurba_marseille","lat":43.29582,"lon":5.36739,"is_reserved":false,"is_disabled":false,"rental_uris":{"android":"levelo://app?vid=0be1957c-2290-4671-b00b-45f56732d8ce","ios":"levelo://app?vid=0be1957c-2290-4671-b00b-45f56732d8ce"},"vehicle_type_id":"4","last_reported":1759158610,"current_range_meters":11600,"station_id":"ce4bgph2rcd13ifvqc2g","pricing_plan_id":"cebpf4jnsgd1na2vs0mg"},{"bike_id":"17d2c2d3-bd94-4765-b9ca-e28683f400b0","system_id":"levelo_inurba_marseille","lat":43.26675,"lon":5.38281,"is_reserved":false,"is_disabled":false,"rental_uris":{"android":"levelo://app?vid=17d2c2d3-bd94-4765-b9ca-e28683f400b0","ios":"levelo://app?vid=17d2c2d3-bd94-4765-b9ca-e28683f400b0"},"vehicle_type_id":"4","last_reported":1759158610,"current_range_meters":11600,"station_id":"ce4bhg92rcd13ifvqf90","pricing_plan_id":"cebpf4jnsgd1na2vs0mg"},{"bike_id":"40d0311a-46a0-4423-bf00-e0cbf2970008","system_id":"levelo_inurba_marseille","lat":43.2175,"lon":5.346,"is_reserved":false,"is_disabled":false,"rental_uris":{"android":"levelo://app?vid=40d0311a-46a0-4423-bf00-e0cbf2970008","ios":"levelo://app?vid=40d0311a-46a0-4423-bf00-e0cbf2970008"},"vehicle_type_id":"4","last_reported":1759158610,"current_range_meters":12000,"station_id":"st_cvj6r9ubvosntc0bgbag","pricing_plan_id":"cebpf4jnsgd1na2vs0mg"},{"bike_id":"618db275-bc77-4a8f-a11c-7f63b158c4dc","system_id":"levelo_inurba_marseille","lat":43.2936,"lon":5.37838,"is_reserved":false,"is_disabled":false,"rental_uris":{"android":"levelo://app?vid=618db275-bc77-4a8f-a11c-7f63b158c4dc","ios":"levelo://app?vid=618db275-bc77-4a8f-a11c-7f63b158c4dc"},"vehicle_type_id":"4","last_reported":1759158610,"current_range_meters":12000,"station_id":"ce4bgjh2rcd13ifvqbf0","pricing_plan_id":"cebpf4jnsgd1na2vs0mg"},{"bike_id":"8e22cf14-b2b4-4b09-90a7-6c182d85a696","system_id":"levelo_inurba_marseille","lat":43.30543,"lon":5.36694,"is_reserved":false,"is_disabled":false,"rental_uris":{"android":"levelo://app?vid=8e22cf14-b2b4-4b09-90a7-6c182d85a696","ios":"levelo://app?vid=8e22cf14-b2b4-4b09-90a7-6c182d85a696"},"vehicle_type_id":"4","last_reported":1759158610,"current_range_meters":12000,"station_id":"ce4bgrp2rcd13ifvqc9g","pricing_plan_id":"cebpf4jnsgd1na2vs0mg"},{"bike_id":"dd43656e-1df5-4bde-ac8d-e460ad230496","system_id":"levelo_inurba_marseille","lat":43.28252,"lon":5.35074,"is_reserved":false,"is_disabled":false,"rental_uris":{"android":"levelo://app?vid=dd43656e-1df5-4bde-ac8d-e460ad230496","ios":"levelo://app?vid=dd43656e-1df5-4bde-ac8d-e460ad230496"},"vehicle_type_id":"4","last_reported":1759158610,"current_range_meters":12000,"station_id":"ce4bhbp2rcd13ifvqerg","pricing_plan_id":"cebpf4jnsgd1na2vs0mg"},{"bike_id":"8c0227e3-55e8-4994-aa0c-9b6ee99b7e26","system_id":"levelo_inurba_marseille","lat":43.23052,"lon":5.35498,"is_reserved":false,"is_disabled":false,"rental_uris":{"android":"levelo://app?vid=8c0227e3-55e8-4994-aa0c-9b6ee99b7e26","ios":"levelo://app?vid=8c0227e3-55e8-4994-aa0c-9b6ee99b7e26"},"vehicle_type_id":"4","last_reported":1759158610,"current_range_meters":12400,"station_id":"cpo3342slgdg3j2ifvpg","pricing_plan_id":"cebpf4jnsgd1na2vs0mg"},{"bike_id":"15a4296d-bb5a-4dcf-8a2a-4cfec68083ad","system_id":"levelo_inurba_marseille","lat":43.31356,"lon":5.38486,"is_reserved":false,"is_disabled":false,"rental_uris":{"android":"levelo://app?vid=15a4296d-bb5a-4dcf-8a2a-4cfec68083ad","ios":"levelo://app?vid=15a4296d-bb5a-4dcf-8a2a-4cfec68083ad"},"vehicle_type_id":"4","last_reported":1759158610,"current_range_meters":12400,"station_id":"ce4bgt92rcd13ifvqcf0","pricing_plan_id":"cebpf4jnsgd1na2vs0mg"},{"bike_id":"29bf1bbb-f8e9-44cd-8d04-979f4802a823","system_id":"levelo_inurba_marseille","lat":43.30598,"lon":5.36576,"is_reserved":false,"is_disabled":false,"rental_uris":{"android":"levelo://app?vid=29bf1bbb-f8e9-44cd-8d04-979f4802a823","ios":"levelo://app?vid=29bf1bbb-f8e9-44cd-8d04-979f4802a823"},"vehicle_type_id":"4","last_reported":1759158610,"current_range_meters":12400,"station_id":"ce4bgs12rcd13ifvqcag","pricing_plan_id":"cebpf4jnsgd1na2vs0mg"},{"bike_id":"d3a8cc4b-a133-48d2-b9c8-bbccc53b963a","system_id":"levelo_inurba_marseille","lat":43.28711,"lon":5.37945,"is_reserved":false,"is_disabled":false,"rental_uris":{"android":"levelo://app?vid=d3a8cc4b-a133-48d2-b9c8-bbccc53b963a","ios":"levelo://app?vid=d3a8cc4b-a133-48d2-b9c8-bbccc53b963a"},"vehicle_type_id":"4","last_reported":1759158610,"current_range_meters":12400,"station_id":"ce4bh9p2rcd13ifvqec0","pricing_plan_id":"cebpf4jnsgd1na2vs0mg"},{"bike_id":"fcc51f06-acab-4a60-a656-ac72d53b2907","system_id":"levelo_inurba_marseille","lat":43.27317,"lon":5.390981,"is_reserved":false,"is_disabled":false,"rental_uris":{"android":"levelo://app?vid=fcc51f06-acab-4a60-a656-ac72d53b2907","ios":"levelo://app?vid=fcc51f06-acab-4a60-a656-ac72d53b2907"},"vehicle_type_id":"4","last_reported":1759158610,"current_range_meters":12400,"station_id":"ce4bhgp2rcd13ifvqfe0","pricing_plan_id":"cebpf4jnsgd1na2vs0mg"},{"bike_id":"ea59b303-6900-42ad-9e79-5b0f95bedd6c","system_id":"levelo_inurba_marseille","lat":43.30446,"lon":5.36916,"is_reserved":false,"is_disabled":false,"rental_uris":{"android":"levelo://app?vid=ea59b303-6900-42ad-9e79-5b0f95bedd6c","ios":"levelo://app?vid=ea59b303-6900-42ad-9e79-5b0f95bedd6c"},"vehicle_type_id":"4","last_reported":1759158610,"current_range_meters":12400,"station_id":"","pricing_plan_id":"cebpf4jnsgd1na2vs0mg"},{"bike_id":"0eda2527-f3ce-4552-96df-04220f592c11","system_id":"levelo_inurba_marseille","lat":43.21195,"lon":5.35096,"is_reserved":false,"is_disabled":false,"rental_uris":{"android":"levelo://app?vid=0eda2527-f3ce-4552-96df-04220f592c11","ios":"levelo://app?vid=0eda2527-f3ce-4552-96df-04220f592c11"},"vehicle_type_id":"4","last_reported":1759158610,"current_range_meters":12400,"station_id":"st_cvj6sg6p6f1abm77japg","pricing_plan_id":"cebpf4jnsgd1na2vs0mg"},{"bike_id":"a07a513e-e5a9-4481-8592-d991379bc662","system_id":"levelo_inurba_marseille","lat":43.33735,"lon":5.37481,"is_reserved":false,"is_disabled":false,"rental_uris":{"android":"levelo://app?vid=a07a513e-e5a9-4481-8592-d991379bc662","ios":"levelo://app?vid=a07a513e-e5a9-4481-8592-d991379bc662"},"vehicle_type_id":"4","last_reported":1759158610,"current_range_meters":12400,"station_id":"","pricing_plan_id":"cebpf4jnsgd1na2vs0mg"},{"bike_id":"08897f5d-483e-4ffa-b1bb-f13bc5f35002","system_id":"levelo_inurba_marseille","lat":43.28076,"lon":5.39655,"is_reserved":false,"is_disabled":false,"rental_uris":{"android":"levelo://app?vid=08897f5d-483e-4ffa-b1bb-f13bc5f35002","ios":"levelo://app?vid=08897f5d-483e-4ffa-b1bb-f13bc5f35002"},"vehicle_type_id":"4","last_reported":1759158610,"current_range_meters":12800,"station_id":"ce4bho12rcd13ifvqh2g","pricing_plan_id":"cebpf4jnsgd1na2vs0mg"},{"bike_id":"7dc10ae7-7366-4aef-afb3-946c513f88ef","system_id":"levelo_inurba_marseille","lat":43.27988,"lon":5.3642,"is_reserved":false,"is_disabled":false,"rental_uris":{"android":"levelo://app?vid=7dc10ae7-7366-4aef-afb3-946c513f88ef","ios":"levelo://app?vid=7dc10ae7-7366-4aef-afb3-946c513f88ef"},"vehicle_type_id":"4","last_reported":1759158610,"current_range_meters":12800,"station_id":"ce4bha12rcd13ifvqef0","pricing_plan_id":"cebpf4jnsgd1na2vs0mg"},{"bike_id":"f0d177d7-08b6-4ae3-a4af-a9eba1473eac","system_id":"levelo_inurba_marseille","lat":43.297829,"lon":5.371094,"is_reserved":false,"is_disabled":false,"rental_uris":{"android":"levelo://app?vid=f0d177d7-08b6-4ae3-a4af-a9eba1473eac","ios":"levelo://app?vid=f0d177d7-08b6-4ae3-a4af-a9eba1473eac"},"vehicle_type_id":"4","last_reported":1759158610,"current_range_meters":14800,"station_id":"ce4bgop2rcd13ifvqc1g","pricing_plan_id":"cebpf4jnsgd1na2vs0mg"},{"bike_id":"8c986307-df22-41f8-9c2d-42ccabc665aa","system_id":"levelo_inurba_marseille","lat":43.30182,"lon":5.36656,"is_reserved":false,"is_disabled":false,"rental_uris":{"android":"levelo://app?vid=8c986307-df22-41f8-9c2d-42ccabc665aa","ios":"levelo://app?vid=8c986307-df22-41f8-9c2d-42ccabc665aa"},"vehicle_type_id":"4","last_reported":1759158610,"current_range_meters":12800,"station_id":"ce4bgrh2rcd13ifvqc8g","pricing_plan_id":"cebpf4jnsgd1na2vs0mg"},{"bike_id":"6c26d1cf-9ede-44ae-8d29-5164ecd02450","system_id":"levelo_inurba_marseille","lat":43.2862,"lon":5.35108,"is_reserved":false,"is_disabled":false,"rental_uris":{"android":"levelo://app?vid=6c26d1cf-9ede-44ae-8d29-5164ecd02450","ios":"levelo://app?vid=6c26d1cf-9ede-44ae-8d29-5164ecd02450"},"vehicle_type_id":"4","last_reported":1759158610,"current_range_meters":12800,"station_id":"ce4bhch2rcd13ifvqeug","pricing_plan_id":"cebpf4jnsgd1na2vs0mg"},{"bike_id":"c627b34a-8e81-4438-af3b-4fd0aab1c160","system_id":"levelo_inurba_marseille","lat":43.29659,"lon":5.3601,"is_reserved":false,"is_disabled":false,"rental_uris":{"android":"levelo://app?vid=c627b34a-8e81-4438-af3b-4fd0aab1c160","ios":"levelo://app?vid=c627b34a-8e81-4438-af3b-4fd0aab1c160"},"vehicle_type_id":"4","last_reported":1759158610,"current_range_meters":12800,"station_id":"","pricing_plan_id":"cebpf4jnsgd1na2vs0mg"},{"bike_id":"ad5c22c8-0f32-454e-87ac-9a2b0c8148e4","system_id":"levelo_inurba_marseille","lat":43.32031,"lon":5.41568,"is_reserved":false,"is_disabled":false,"rental_uris":{"android":"levelo://app?vid=ad5c22c8-0f32-454e-87ac-9a2b0c8148e4","ios":"levelo://app?vid=ad5c22c8-0f32-454e-87ac-9a2b0c8148e4"},"vehicle_type_id":"4","last_reported":1759158610,"current_range_meters":13600,"station_id":"ce4bhq92rcd13ifvqhkg","pricing_plan_id":"cebpf4jnsgd1na2vs0mg"},{"bike_id":"5fcfcdbb-98af-4c1d-9521-b2177279b4d3","system_id":"levelo_inurba_marseille","lat":43.26934,"lon":5.40263,"is_reserved":false,"is_disabled":false,"rental_uris":{"android":"levelo://app?vid=5fcfcdbb-98af-4c1d-9521-b2177279b4d3","ios":"levelo://app?vid=5fcfcdbb-98af-4c1d-9521-b2177279b4d3"},"vehicle_type_id":"4","last_reported":1759158610,"current_range_meters":13600,"station_id":"cjm6bp8fraef2m0cb0m0","pricing_plan_id":"cebpf4jnsgd1na2vs0mg"},{"bike_id":"055320a6-895c-4f00-b0fd-7cb560611640","system_id":"levelo_inurba_marseille","lat":43.27961,"lon":5.41058,"is_reserved":false,"is_disabled":false,"rental_uris":{"android":"levelo://app?vid=055320a6-895c-4f00-b0fd-7cb560611640","ios":"levelo://app?vid=055320a6-895c-4f00-b0fd-7cb560611640"},"vehicle_type_id":"4","last_reported":1759158610,"current_range_meters":13600,"station_id":"ce4bhnp2rcd13ifvqh0g","pricing_plan_id":"cebpf4jnsgd1na2vs0mg"},{"bike_id":"ef2c0823-73d5-4b7d-8f5b-d0f88949fc5a","system_id":"levelo_inurba_marseille","lat":43.29043,"lon":5.39963,"is_reserved":false,"is_disabled":false,"rental_uris":{"android":"levelo://app?vid=ef2c0823-73d5-4b7d-8f5b-d0f88949fc5a","ios":"levelo://app?vid=ef2c0823-73d5-4b7d-8f5b-d0f88949fc5a"},"vehicle_type_id":"4","last_reported":1759158610,"current_range_meters":13600,"station_id":"ce4bh392rcd13ifvqdm0","pricing_plan_id":"cebpf4jnsgd1na2vs0mg"},{"bike_id":"e9789c59-2fe2-4f51-8a64-e1d3cc3bcad5","system_id":"levelo_inurba_marseille","lat":43.26214,"lon":5.37435,"is_reserved":false,"is_disabled":false,"rental_uris":{"android":"levelo://app?vid=e9789c59-2fe2-4f51-8a64-e1d3cc3bcad5","ios":"levelo://app?vid=e9789c59-2fe2-4f51-8a64-e1d3cc3bcad5"},"vehicle_type_id":"4","last_reported":1759158610,"current_range_meters":13600,"station_id":"ce4bhgp2rcd13ifvqfc0","pricing_plan_id":"cebpf4jnsgd1na2vs0mg"},{"bike_id":"d60dc148-253b-4625-ae0c-8c88dcdb4260","system_id":"levelo_inurba_marseille","lat":43.272127,"lon":5.391798,"is_reserved":false,"is_disabled":false,"rental_uris":{"android":"levelo://app?vid=d60dc148-253b-4625-ae0c-8c88dcdb4260","ios":"levelo://app?vid=d60dc148-253b-4625-ae0c-8c88dcdb4260"},"vehicle_type_id":"4","last_reported":1759158610,"current_range_meters":14000,"station_id":"","pricing_plan_id":"cebpf4jnsgd1na2vs0mg"},{"bike_id":"0030cf69-75f8-4719-a372-efc52bdb748a","system_id":"levelo_inurba_marseille","lat":43.32912,"lon":5.45404,"is_reserved":false,"is_disabled":false,"rental_uris":{"android":"levelo://app?vid=0030cf69-75f8-4719-a372-efc52bdb748a","ios":"levelo://app?vid=0030cf69-75f8-4719-a372-efc52bdb748a"},"vehicle_type_id":"4","last_reported":1759158610,"current_range_meters":14000,"station_id":"","pricing_plan_id":"cebpf4jnsgd1na2vs0mg"},{"bike_id":"d513fa7b-8ef2-4291-bd44-cb738c0f5237","system_id":"levelo_inurba_marseille","lat":43.289401,"lon":5.366452,"is_reserved":false,"is_disabled":false,"rental_uris":{"android":"levelo://app?vid=d513fa7b-8ef2-4291-bd44-cb738c0f5237","ios":"levelo://app?vid=d513fa7b-8ef2-4291-bd44-cb738c0f5237"},"vehicle_type_id":"4","last_reported":1759158610,"current_range_meters":14000,"station_id":"ce4bhap2rcd13ifvqek0","pricing_plan_id":"cebpf4jnsgd1na2vs0mg"},{"bike_id":"19db827e-8838-40be-ba7a-1ee0d4aa85f9","system_id":"levelo_inurba_marseille","lat":43.21198,"lon":5.35077,"is_reserved":false,"is_disabled":false,"rental_uris":{"android":"levelo://app?vid=19db827e-8838-40be-ba7a-1ee0d4aa85f9","ios":"levelo://app?vid=19db827e-8838-40be-ba7a-1ee0d4aa85f9"},"vehicle_type_id":"4","last_reported":1759158610,"current_range_meters":14400,"station_id":"st_cvj6sg6p6f1abm77japg","pricing_plan_id":"cebpf4jnsgd1na2vs0mg"},{"bike_id":"3a5267f8-6df8-4c8e-95ff-07d4b201db1e","system_id":"levelo_inurba_marseille","lat":43.26561,"lon":5.39013,"is_reserved":false,"is_disabled":false,"rental_uris":{"android":"levelo://app?vid=3a5267f8-6df8-4c8e-95ff-07d4b201db1e","ios":"levelo://app?vid=3a5267f8-6df8-4c8e-95ff-07d4b201db1e"},"vehicle_type_id":"4","last_reported":1759158610,"current_range_meters":14400,"station_id":"ce4bhe12rcd13ifvqf30","pricing_plan_id":"cebpf4jnsgd1na2vs0mg"},{"bike_id":"14a3f0a0-90f3-46d9-8d60-42e197c98c4f","system_id":"levelo_inurba_marseille","lat":43.2656,"lon":5.37301,"is_reserved":false,"is_disabled":false,"rental_uris":{"android":"levelo://app?vid=14a3f0a0-90f3-46d9-8d60-42e197c98c4f","ios":"levelo://app?vid=14a3f0a0-90f3-46d9-8d60-42e197c98c4f"},"vehicle_type_id":"4","last_reported":1759158610,"current_range_meters":14400,"station_id":"ce4bhg12rcd13ifvqf70","pricing_plan_id":"cebpf4jnsgd1na2vs0mg"},{"bike_id":"603b48a8-a4ae-4222-bee8-5769d86ea9a8","system_id":"levelo_inurba_marseille","lat":43.25327,"lon":5.42177,"is_reserved":false,"is_disabled":true,"rental_uris":{"android":"levelo://app?vid=603b48a8-a4ae-4222-bee8-5769d86ea9a8","ios":"levelo://app?vid=603b48a8-a4ae-4222-bee8-5769d86ea9a8"},"vehicle_type_id":"4","last_reported":1759158610,"current_range_meters":14400,"station_id":"st_d2m65c5bi1j21697t3ng","pricing_plan_id":"cebpf4jnsgd1na2vs0mg"},{"bike_id":"ae4220b2-1327-49a4-af95-ba3c47f81106","system_id":"levelo_inurba_marseille","lat":43.25346,"lon":5.4217,"is_reserved":false,"is_disabled":false,"rental_uris":{"android":"levelo://app?vid=ae4220b2-1327-49a4-af95-ba3c47f81106","ios":"levelo://app?vid=ae4220b2-1327-49a4-af95-ba3c47f81106"},"vehicle_type_id":"4","last_reported":1759158610,"current_range_meters":14400,"station_id":"st_d2m65c5bi1j21697t3ng","pricing_plan_id":"cebpf4jnsgd1na2vs0mg"},{"bike_id":"a9cd5665-4575-420b-bb7e-e441349a406a","system_id":"levelo_inurba_marseille","lat":43.28423,"lon":5.34988,"is_reserved":false,"is_disabled":true,"rental_uris":{"android":"levelo://app?vid=a9cd5665-4575-420b-bb7e-e441349a406a","ios":"levelo://app?vid=a9cd5665-4575-420b-bb7e-e441349a406a"},"vehicle_type_id":"4","last_reported":1759158610,"current_range_meters":14400,"station_id":"ce4bhbh2rcd13ifvqepg","pricing_plan_id":"cebpf4jnsgd1na2vs0mg"},{"bike_id":"aa123961-c527-4db0-9350-7d548f67905a","system_id":"levelo_inurba_marseille","lat":43.27946,"lon":5.38753,"is_reserved":false,"is_disabled":false,"rental_uris":{"android":"levelo://app?vid=aa123961-c527-4db0-9350-7d548f67905a","ios":"levelo://app?vid=aa123961-c527-4db0-9350-7d548f67905a"},"vehicle_type_id":"4","last_reported":1759158610,"current_range_meters":14400,"station_id":"ce4bh492rcd13ifvqdvg","pricing_plan_id":"cebpf4jnsgd1na2vs0mg"},{"bike_id":"ba1cfbb3-555c-4e6c-85db-b50e9395062e","system_id":"levelo_inurba_marseille","lat":43.246877,"lon":5.381936,"is_reserved":false,"is_disabled":false,"rental_uris":{"android":"levelo://app?vid=ba1cfbb3-555c-4e6c-85db-b50e9395062e","ios":"levelo://app?vid=ba1cfbb3-555c-4e6c-85db-b50e9395062e"},"vehicle_type_id":"4","last_reported":1759158610,"current_range_meters":14400,"station_id":"","pricing_plan_id":"cebpf4jnsgd1na2vs0mg"},{"bike_id":"e775d0da-966a-4ccc-8588-238c2eeb5cd7","system_id":"levelo_inurba_marseille","lat":43.30441,"lon":5.38892,"is_reserved":false,"is_disabled":false,"rental_uris":{"android":"levelo://app?vid=e775d0da-966a-4ccc-8588-238c2eeb5cd7","ios":"levelo://app?vid=e775d0da-966a-4ccc-8588-238c2eeb5cd7"},"vehicle_type_id":"4","last_reported":1759158610,"current_range_meters":14400,"station_id":"ce4bgk12rcd13ifvqbi0","pricing_plan_id":"cebpf4jnsgd1na2vs0mg"},{"bike_id":"f181f5b2-cccb-4127-bb75-b519fbd8c72e","system_id":"levelo_inurba_marseille","lat":43.28387,"lon":5.38502,"is_reserved":false,"is_disabled":false,"rental_uris":{"android":"levelo://app?vid=f181f5b2-cccb-4127-bb75-b519fbd8c72e","ios":"levelo://app?vid=f181f5b2-cccb-4127-bb75-b519fbd8c72e"},"vehicle_type_id":"4","last_reported":1759158610,"current_range_meters":14400,"station_id":"ce4bh8p2rcd13ifvqeb0","pricing_plan_id":"cebpf4jnsgd1na2vs0mg"},{"bike_id":"f5021a77-c228-4a2a-9684-27c6e2cc87cf","system_id":"levelo_inurba_marseille","lat":43.313635,"lon":5.384849,"is_reserved":false,"is_disabled":false,"rental_uris":{"android":"levelo://app?vid=f5021a77-c228-4a2a-9684-27c6e2cc87cf","ios":"levelo://app?vid=f5021a77-c228-4a2a-9684-27c6e2cc87cf"},"vehicle_type_id":"4","last_reported":1759158610,"current_range_meters":14400,"station_id":"ce4bgt92rcd13ifvqcf0","pricing_plan_id":"cebpf4jnsgd1na2vs0mg"},{"bike_id":"ce5e157e-4ef2-4c41-9b3b-54d3eecbfa45","system_id":"levelo_inurba_marseille","lat":43.225355,"lon":5.348444,"is_reserved":false,"is_disabled":false,"rental_uris":{"android":"levelo://app?vid=ce5e157e-4ef2-4c41-9b3b-54d3eecbfa45","ios":"levelo://app?vid=ce5e157e-4ef2-4c41-9b3b-54d3eecbfa45"},"vehicle_type_id":"4","last_reported":1759158610,"current_range_meters":14400,"station_id":"","pricing_plan_id":"cebpf4jnsgd1na2vs0mg"},{"bike_id":"aebf0e68-ba27-412a-9ce2-11cc42127dee","system_id":"levelo_inurba_marseille","lat":43.337444,"lon":5.374475,"is_reserved":false,"is_disabled":false,"rental_uris":{"android":"levelo://app?vid=aebf0e68-ba27-412a-9ce2-11cc42127dee","ios":"levelo://app?vid=aebf0e68-ba27-412a-9ce2-11cc42127dee"},"vehicle_type_id":"4","last_reported":1759158610,"current_range_meters":14400,"station_id":"","pricing_plan_id":"cebpf4jnsgd1na2vs0mg"},{"bike_id":"385fa573-6758-43e7-a2f4-f27be30ea572","system_id":"levelo_inurba_marseille","lat":43.321122,"lon":5.367699,"is_reserved":false,"is_disabled":false,"rental_uris":{"android":"levelo://app?vid=385fa573-6758-43e7-a2f4-f27be30ea572","ios":"levelo://app?vid=385fa573-6758-43e7-a2f4-f27be30ea572"},"vehicle_type_id":"4","last_reported":1759158610,"current_range_meters":14800,"station_id":"ce4bhrh2rcd13ifvqhug","pricing_plan_id":"cebpf4jnsgd1na2vs0mg"},{"bike_id":"28b576e8-bccf-4f36-bc1a-3bdfee10298a","system_id":"levelo_inurba_marseille","lat":43.29532,"lon":5.39035,"is_reserved":false,"is_disabled":false,"rental_uris":{"android":"levelo://app?vid=28b576e8-bccf-4f36-bc1a-3bdfee10298a","ios":"levelo://app?vid=28b576e8-bccf-4f36-bc1a-3bdfee10298a"},"vehicle_type_id":"4","last_reported":1759158610,"current_range_meters":17200,"station_id":"ce4bh3p2rcd13ifvqdp0","pricing_plan_id":"cebpf4jnsgd1na2vs0mg"},{"bike_id":"0a8b0e4e-4151-4511-9a3e-a22258611e90","system_id":"levelo_inurba_marseille","lat":43.23967,"lon":5.36631,"is_reserved":false,"is_disabled":false,"rental_uris":{"android":"levelo://app?vid=0a8b0e4e-4151-4511-9a3e-a22258611e90","ios":"levelo://app?vid=0a8b0e4e-4151-4511-9a3e-a22258611e90"},"vehicle_type_id":"4","last_reported":1759158610,"current_range_meters":14800,"station_id":"","pricing_plan_id":"cebpf4jnsgd1na2vs0mg"},{"bike_id":"8cbcf5e7-b804-4925-bbed-5f57e8580ccf","system_id":"levelo_inurba_marseille","lat":43.31519,"lon":5.36803,"is_reserved":false,"is_disabled":false,"rental_uris":{"android":"levelo://app?vid=8cbcf5e7-b804-4925-bbed-5f57e8580ccf","ios":"levelo://app?vid=8cbcf5e7-b804-4925-bbed-5f57e8580ccf"},"vehicle_type_id":"4","last_reported":1759158610,"current_range_meters":14800,"station_id":"","pricing_plan_id":"cebpf4jnsgd1na2vs0mg"},{"bike_id":"56d6a008-a903-4bd5-8ee3-1cec5d05c634","system_id":"levelo_inurba_marseille","lat":43.31749,"lon":5.39024,"is_reserved":false,"is_disabled":false,"rental_uris":{"android":"levelo://app?vid=56d6a008-a903-4bd5-8ee3-1cec5d05c634","ios":"levelo://app?vid=56d6a008-a903-4bd5-8ee3-1cec5d05c634"},"vehicle_type_id":"4","last_reported":1759158610,"current_range_meters":14800,"station_id":"ce4bhqp2rcd13ifvqhng","pricing_plan_id":"cebpf4jnsgd1na2vs0mg"},{"bike_id":"9f8016d4-7cfd-4da9-98fe-979484415ac7","system_id":"levelo_inurba_marseille","lat":43.30541,"lon":5.36703,"is_reserved":false,"is_disabled":false,"rental_uris":{"android":"levelo://app?vid=9f8016d4-7cfd-4da9-98fe-979484415ac7","ios":"levelo://app?vid=9f8016d4-7cfd-4da9-98fe-979484415ac7"},"vehicle_type_id":"4","last_reported":1759158610,"current_range_meters":14800,"station_id":"ce4bgrp2rcd13ifvqc9g","pricing_plan_id":"cebpf4jnsgd1na2vs0mg"},{"bike_id":"ed8283aa-f2f7-4b79-90ff-3e2dfa151f97","system_id":"levelo_inurba_marseille","lat":43.28701,"lon":5.39993,"is_reserved":false,"is_disabled":false,"rental_uris":{"android":"levelo://app?vid=ed8283aa-f2f7-4b79-90ff-3e2dfa151f97","ios":"levelo://app?vid=ed8283aa-f2f7-4b79-90ff-3e2dfa151f97"},"vehicle_type_id":"4","last_reported":1759158610,"current_range_meters":14800,"station_id":"ce4bho92rcd13ifvqh3g","pricing_plan_id":"cebpf4jnsgd1na2vs0mg"},{"bike_id":"78edd212-3bd8-4a45-bced-089e3907902a","system_id":"levelo_inurba_marseille","lat":43.32746,"lon":5.42381,"is_reserved":false,"is_disabled":false,"rental_uris":{"android":"levelo://app?vid=78edd212-3bd8-4a45-bced-089e3907902a","ios":"levelo://app?vid=78edd212-3bd8-4a45-bced-089e3907902a"},"vehicle_type_id":"4","last_reported":1759158610,"current_range_meters":15200,"station_id":"","pricing_plan_id":"cebpf4jnsgd1na2vs0mg"},{"bike_id":"91658db2-d6ae-4346-bb4d-02353c95c4ab","system_id":"levelo_inurba_marseille","lat":43.25337,"lon":5.42176,"is_reserved":false,"is_disabled":false,"rental_uris":{"android":"levelo://app?vid=91658db2-d6ae-4346-bb4d-02353c95c4ab","ios":"levelo://app?vid=91658db2-d6ae-4346-bb4d-02353c95c4ab"},"vehicle_type_id":"4","last_reported":1759158610,"current_range_meters":15200,"station_id":"st_d2m65c5bi1j21697t3ng","pricing_plan_id":"cebpf4jnsgd1na2vs0mg"},{"bike_id":"60439a97-5dd2-4616-ad31-e3dd28bda889","system_id":"levelo_inurba_marseille","lat":43.311053,"lon":5.385775,"is_reserved":false,"is_disabled":false,"rental_uris":{"android":"levelo://app?vid=60439a97-5dd2-4616-ad31-e3dd28bda889","ios":"levelo://app?vid=60439a97-5dd2-4616-ad31-e3dd28bda889"},"vehicle_type_id":"4","last_reported":1759158610,"current_range_meters":15200,"station_id":"","pricing_plan_id":"cebpf4jnsgd1na2vs0mg"},{"bike_id":"d6eb6cbd-0ee1-4c97-9e35-b8eff807ebc0","system_id":"levelo_inurba_marseille","lat":43.285343,"lon":5.373763,"is_reserved":false,"is_disabled":false,"rental_uris":{"android":"levelo://app?vid=d6eb6cbd-0ee1-4c97-9e35-b8eff807ebc0","ios":"levelo://app?vid=d6eb6cbd-0ee1-4c97-9e35-b8eff807ebc0"},"vehicle_type_id":"4","last_reported":1759158610,"current_range_meters":15200,"station_id":"ce4bh412rcd13ifvqds0","pricing_plan_id":"cebpf4jnsgd1na2vs0mg"},{"bike_id":"99ce2063-5dfb-4ed3-a4a6-8fc3a54c4890","system_id":"levelo_inurba_marseille","lat":43.337444,"lon":5.374475,"is_reserved":false,"is_disabled":false,"rental_uris":{"android":"levelo://app?vid=99ce2063-5dfb-4ed3-a4a6-8fc3a54c4890","ios":"levelo://app?vid=99ce2063-5dfb-4ed3-a4a6-8fc3a54c4890"},"vehicle_type_id":"4","last_reported":1759158610,"current_range_meters":15200,"station_id":"","pricing_plan_id":"cebpf4jnsgd1na2vs0mg"},{"bike_id":"9964068d-2dcd-4d91-beec-2e75bd1346b7","system_id":"levelo_inurba_marseille","lat":43.31756,"lon":5.39025,"is_reserved":false,"is_disabled":false,"rental_uris":{"android":"levelo://app?vid=9964068d-2dcd-4d91-beec-2e75bd1346b7","ios":"levelo://app?vid=9964068d-2dcd-4d91-beec-2e75bd1346b7"},"vehicle_type_id":"4","last_reported":1759158610,"current_range_meters":17600,"station_id":"ce4bhqp2rcd13ifvqhng","pricing_plan_id":"cebpf4jnsgd1na2vs0mg"},{"bike_id":"17e75973-e06b-4497-87a1-dfcb9b84fb83","system_id":"levelo_inurba_marseille","lat":43.30375,"lon":5.42495,"is_reserved":false,"is_disabled":false,"rental_uris":{"android":"levelo://app?vid=17e75973-e06b-4497-87a1-dfcb9b84fb83","ios":"levelo://app?vid=17e75973-e06b-4497-87a1-dfcb9b84fb83"},"vehicle_type_id":"4","last_reported":1759158610,"current_range_meters":16000,"station_id":"ce4bhoh2rcd13ifvqh6g","pricing_plan_id":"cebpf4jnsgd1na2vs0mg"},{"bike_id":"872b098e-8d73-4e68-9657-856be53a7655","system_id":"levelo_inurba_marseille","lat":43.309287,"lon":5.36837,"is_reserved":false,"is_disabled":false,"rental_uris":{"android":"levelo://app?vid=872b098e-8d73-4e68-9657-856be53a7655","ios":"levelo://app?vid=872b098e-8d73-4e68-9657-856be53a7655"},"vehicle_type_id":"4","last_reported":1759158610,"current_range_meters":16000,"station_id":"ce4bgn92rcd13ifvqbvg","pricing_plan_id":"cebpf4jnsgd1na2vs0mg"},{"bike_id":"3a4d3d1b-606b-42f1-a9d2-a8afa0eb3b20","system_id":"levelo_inurba_marseille","lat":43.29006,"lon":5.35624,"is_reserved":false,"is_disabled":false,"rental_uris":{"android":"levelo://app?vid=3a4d3d1b-606b-42f1-a9d2-a8afa0eb3b20","ios":"levelo://app?vid=3a4d3d1b-606b-42f1-a9d2-a8afa0eb3b20"},"vehicle_type_id":"4","last_reported":1759158610,"current_range_meters":16000,"station_id":"ce4bhb92rcd13ifvqen0","pricing_plan_id":"cebpf4jnsgd1na2vs0mg"},{"bike_id":"59e5b0d9-3711-44b3-89de-d88034e3311f","system_id":"levelo_inurba_marseille","lat":43.28268,"lon":5.35065,"is_reserved":false,"is_disabled":false,"rental_uris":{"android":"levelo://app?vid=59e5b0d9-3711-44b3-89de-d88034e3311f","ios":"levelo://app?vid=59e5b0d9-3711-44b3-89de-d88034e3311f"},"vehicle_type_id":"4","last_reported":1759158610,"current_range_meters":16000,"station_id":"ce4bhbp2rcd13ifvqerg","pricing_plan_id":"cebpf4jnsgd1na2vs0mg"},{"bike_id":"00b3c5d5-9ad5-4872-b372-089fa3a04914","system_id":"levelo_inurba_marseille","lat":43.286376,"lon":5.354934,"is_reserved":false,"is_disabled":false,"rental_uris":{"android":"levelo://app?vid=00b3c5d5-9ad5-4872-b372-089fa3a04914","ios":"levelo://app?vid=00b3c5d5-9ad5-4872-b372-089fa3a04914"},"vehicle_type_id":"4","last_reported":1759158610,"current_range_meters":16000,"station_id":"","pricing_plan_id":"cebpf4jnsgd1na2vs0mg"},{"bike_id":"87a0ffe6-3cfa-4595-bcb0-b7f545811752","system_id":"levelo_inurba_marseille","lat":43.28618,"lon":5.35109,"is_reserved":false,"is_disabled":false,"rental_uris":{"android":"levelo://app?vid=87a0ffe6-3cfa-4595-bcb0-b7f545811752","ios":"levelo://app?vid=87a0ffe6-3cfa-4595-bcb0-b7f545811752"},"vehicle_type_id":"4","last_reported":1759158610,"current_range_meters":16000,"station_id":"ce4bhch2rcd13ifvqeug","pricing_plan_id":"cebpf4jnsgd1na2vs0mg"},{"bike_id":"56ca0258-bee9-4eb2-b3c5-63b5cd0b9e67","system_id":"levelo_inurba_marseille","lat":43.33737,"lon":5.37445,"is_reserved":false,"is_disabled":false,"rental_uris":{"android":"levelo://app?vid=56ca0258-bee9-4eb2-b3c5-63b5cd0b9e67","ios":"levelo://app?vid=56ca0258-bee9-4eb2-b3c5-63b5cd0b9e67"},"vehicle_type_id":"4","last_reported":1759158610,"current_range_meters":16000,"station_id":"","pricing_plan_id":"cebpf4jnsgd1na2vs0mg"},{"bike_id":"92662833-c6ac-4b02-b7df-1638b54b1972","system_id":"levelo_inurba_marseille","lat":43.33742,"lon":5.37449,"is_reserved":false,"is_disabled":false,"rental_uris":{"android":"levelo://app?vid=92662833-c6ac-4b02-b7df-1638b54b1972","ios":"levelo://app?vid=92662833-c6ac-4b02-b7df-1638b54b1972"},"vehicle_type_id":"4","last_reported":1759158610,"current_range_meters":16000,"station_id":"","pricing_plan_id":"cebpf4jnsgd1na2vs0mg"},{"bike_id":"f8d78e5f-60e1-4623-939f-49e76ff16505","system_id":"levelo_inurba_marseille","lat":43.33742,"lon":5.37448,"is_reserved":false,"is_disabled":false,"rental_uris":{"android":"levelo://app?vid=f8d78e5f-60e1-4623-939f-49e76ff16505","ios":"levelo://app?vid=f8d78e5f-60e1-4623-939f-49e76ff16505"},"vehicle_type_id":"4","last_reported":1759158610,"current_range_meters":16000,"station_id":"","pricing_plan_id":"cebpf4jnsgd1na2vs0mg"},{"bike_id":"35674f30-45d2-4192-a400-f0f8445d4437","system_id":"levelo_inurba_marseille","lat":43.31065,"lon":5.40095,"is_reserved":false,"is_disabled":false,"rental_uris":{"android":"levelo://app?vid=35674f30-45d2-4192-a400-f0f8445d4437","ios":"levelo://app?vid=35674f30-45d2-4192-a400-f0f8445d4437"},"vehicle_type_id":"4","last_reported":1759158610,"current_range_meters":16400,"station_id":"","pricing_plan_id":"cebpf4jnsgd1na2vs0mg"},{"bike_id":"96520869-d013-4e0c-a355-f7bbd728ba84","system_id":"levelo_inurba_marseille","lat":43.32364,"lon":5.36754,"is_reserved":false,"is_disabled":false,"rental_uris":{"android":"levelo://app?vid=96520869-d013-4e0c-a355-f7bbd728ba84","ios":"levelo://app?vid=96520869-d013-4e0c-a355-f7bbd728ba84"},"vehicle_type_id":"4","last_reported":1759158610,"current_range_meters":16400,"station_id":"ce4bhsh2rcd13ifvqi2g","pricing_plan_id":"cebpf4jnsgd1na2vs0mg"},{"bike_id":"1bf3e189-3acd-42f2-9eea-0a21815fd068","system_id":"levelo_inurba_marseille","lat":43.28975,"lon":5.37832,"is_reserved":false,"is_disabled":false,"rental_uris":{"android":"levelo://app?vid=1bf3e189-3acd-42f2-9eea-0a21815fd068","ios":"levelo://app?vid=1bf3e189-3acd-42f2-9eea-0a21815fd068"},"vehicle_type_id":"4","last_reported":1759158610,"current_range_meters":16400,"station_id":"ce4bh9p2rcd13ifvqed0","pricing_plan_id":"cebpf4jnsgd1na2vs0mg"},{"bike_id":"892e70c6-af11-4c9f-9662-661ea36c448c","system_id":"levelo_inurba_marseille","lat":43.305468,"lon":5.366972,"is_reserved":false,"is_disabled":false,"rental_uris":{"android":"levelo://app?vid=892e70c6-af11-4c9f-9662-661ea36c448c","ios":"levelo://app?vid=892e70c6-af11-4c9f-9662-661ea36c448c"},"vehicle_type_id":"4","last_reported":1759158610,"current_range_meters":16400,"station_id":"ce4bgrp2rcd13ifvqc9g","pricing_plan_id":"cebpf4jnsgd1na2vs0mg"},{"bike_id":"b2cf005e-1bc5-4616-9e17-028539dbf7b3","system_id":"levelo_inurba_marseille","lat":43.28633,"lon":5.35093,"is_reserved":false,"is_disabled":false,"rental_uris":{"android":"levelo://app?vid=b2cf005e-1bc5-4616-9e17-028539dbf7b3","ios":"levelo://app?vid=b2cf005e-1bc5-4616-9e17-028539dbf7b3"},"vehicle_type_id":"4","last_reported":1759158610,"current_range_meters":16400,"station_id":"ce4bhch2rcd13ifvqeug","pricing_plan_id":"cebpf4jnsgd1na2vs0mg"},{"bike_id":"fbdab659-86ef-415f-a253-c1602c6f6743","system_id":"levelo_inurba_marseille","lat":43.28424,"lon":5.34993,"is_reserved":false,"is_disabled":false,"rental_uris":{"android":"levelo://app?vid=fbdab659-86ef-415f-a253-c1602c6f6743","ios":"levelo://app?vid=fbdab659-86ef-415f-a253-c1602c6f6743"},"vehicle_type_id":"4","last_reported":1759158610,"current_range_meters":16400,"station_id":"ce4bhbh2rcd13ifvqepg","pricing_plan_id":"cebpf4jnsgd1na2vs0mg"},{"bike_id":"738a51a6-02d0-4def-8f3f-9c82f6a6dd05","system_id":"levelo_inurba_marseille","lat":43.32358,"lon":5.36743,"is_reserved":false,"is_disabled":false,"rental_uris":{"android":"levelo://app?vid=738a51a6-02d0-4def-8f3f-9c82f6a6dd05","ios":"levelo://app?vid=738a51a6-02d0-4def-8f3f-9c82f6a6dd05"},"vehicle_type_id":"4","last_reported":1759158610,"current_range_meters":16400,"station_id":"ce4bhsh2rcd13ifvqi2g","pricing_plan_id":"cebpf4jnsgd1na2vs0mg"},{"bike_id":"5c021da4-41be-4c87-af86-5916da25ba3b","system_id":"levelo_inurba_marseille","lat":43.30884,"lon":5.39665,"is_reserved":false,"is_disabled":false,"rental_uris":{"android":"levelo://app?vid=5c021da4-41be-4c87-af86-5916da25ba3b","ios":"levelo://app?vid=5c021da4-41be-4c87-af86-5916da25ba3b"},"vehicle_type_id":"4","last_reported":1759158610,"current_range_meters":16400,"station_id":"ce4bh012rcd13ifvqcv0","pricing_plan_id":"cebpf4jnsgd1na2vs0mg"},{"bike_id":"9174e38a-f6c5-4657-8d7b-aa4f7ece4421","system_id":"levelo_inurba_marseille","lat":43.253349,"lon":5.421745,"is_reserved":false,"is_disabled":false,"rental_uris":{"android":"levelo://app?vid=9174e38a-f6c5-4657-8d7b-aa4f7ece4421","ios":"levelo://app?vid=9174e38a-f6c5-4657-8d7b-aa4f7ece4421"},"vehicle_type_id":"4","last_reported":1759158610,"current_range_meters":16400,"station_id":"st_d2m65c5bi1j21697t3ng","pricing_plan_id":"cebpf4jnsgd1na2vs0mg"},{"bike_id":"fd590728-dc3e-487e-a29b-7965ef83278f","system_id":"levelo_inurba_marseille","lat":43.23197,"lon":5.35554,"is_reserved":false,"is_disabled":false,"rental_uris":{"android":"levelo://app?vid=fd590728-dc3e-487e-a29b-7965ef83278f","ios":"levelo://app?vid=fd590728-dc3e-487e-a29b-7965ef83278f"},"vehicle_type_id":"4","last_reported":1759158610,"current_range_meters":16400,"station_id":"ce4bhu92rcd13ifvqi70","pricing_plan_id":"cebpf4jnsgd1na2vs0mg"},{"bike_id":"0aba4fe3-5dca-4d79-8b9d-2fc77d6e7d70","system_id":"levelo_inurba_marseille","lat":43.28418,"lon":5.349815,"is_reserved":false,"is_disabled":false,"rental_uris":{"android":"levelo://app?vid=0aba4fe3-5dca-4d79-8b9d-2fc77d6e7d70","ios":"levelo://app?vid=0aba4fe3-5dca-4d79-8b9d-2fc77d6e7d70"},"vehicle_type_id":"4","last_reported":1759158610,"current_range_meters":16800,"station_id":"","pricing_plan_id":"cebpf4jnsgd1na2vs0mg"},{"bike_id":"fc24db6d-91d4-4229-81f5-b1c8ff615c5d","system_id":"levelo_inurba_marseille","lat":43.29582,"lon":5.36742,"is_reserved":false,"is_disabled":false,"rental_uris":{"android":"levelo://app?vid=fc24db6d-91d4-4229-81f5-b1c8ff615c5d","ios":"levelo://app?vid=fc24db6d-91d4-4229-81f5-b1c8ff615c5d"},"vehicle_type_id":"4","last_reported":1759158610,"current_range_meters":16800,"station_id":"ce4bgph2rcd13ifvqc2g","pricing_plan_id":"cebpf4jnsgd1na2vs0mg"},{"bike_id":"823968c5-6c9b-4fc4-b277-e5fcb919fdc2","system_id":"levelo_inurba_marseille","lat":43.28284,"lon":5.35067,"is_reserved":false,"is_disabled":false,"rental_uris":{"android":"levelo://app?vid=823968c5-6c9b-4fc4-b277-e5fcb919fdc2","ios":"levelo://app?vid=823968c5-6c9b-4fc4-b277-e5fcb919fdc2"},"vehicle_type_id":"4","last_reported":1759158610,"current_range_meters":16800,"station_id":"ce4bhbp2rcd13ifvqerg","pricing_plan_id":"cebpf4jnsgd1na2vs0mg"},{"bike_id":"13fd8859-5f86-40b5-90fd-ae2df1f84cb6","system_id":"levelo_inurba_marseille","lat":43.29267,"lon":5.38442,"is_reserved":false,"is_disabled":false,"rental_uris":{"android":"levelo://app?vid=13fd8859-5f86-40b5-90fd-ae2df1f84cb6","ios":"levelo://app?vid=13fd8859-5f86-40b5-90fd-ae2df1f84cb6"},"vehicle_type_id":"4","last_reported":1759158610,"current_range_meters":16800,"station_id":"ce4bh692rcd13ifvqea0","pricing_plan_id":"cebpf4jnsgd1na2vs0mg"},{"bike_id":"13604148-437a-4148-9ed9-019ca4e03ec3","system_id":"levelo_inurba_marseille","lat":43.24632,"lon":5.43142,"is_reserved":false,"is_disabled":false,"rental_uris":{"android":"levelo://app?vid=13604148-437a-4148-9ed9-019ca4e03ec3","ios":"levelo://app?vid=13604148-437a-4148-9ed9-019ca4e03ec3"},"vehicle_type_id":"4","last_reported":1759158610,"current_range_meters":16800,"station_id":"st_d2m6c4gdas8pm72e190g","pricing_plan_id":"cebpf4jnsgd1na2vs0mg"},{"bike_id":"05003c91-a305-4a33-a438-1d7ddd3d026b","system_id":"levelo_inurba_marseille","lat":43.25338,"lon":5.42175,"is_reserved":false,"is_disabled":false,"rental_uris":{"android":"levelo://app?vid=05003c91-a305-4a33-a438-1d7ddd3d026b","ios":"levelo://app?vid=05003c91-a305-4a33-a438-1d7ddd3d026b"},"vehicle_type_id":"4","last_reported":1759158610,"current_range_meters":16800,"station_id":"st_d2m65c5bi1j21697t3ng","pricing_plan_id":"cebpf4jnsgd1na2vs0mg"},{"bike_id":"b05ed562-47de-470d-922d-da7545f39a3c","system_id":"levelo_inurba_marseille","lat":43.28418,"lon":5.34985,"is_reserved":false,"is_disabled":false,"rental_uris":{"android":"levelo://app?vid=b05ed562-47de-470d-922d-da7545f39a3c","ios":"levelo://app?vid=b05ed562-47de-470d-922d-da7545f39a3c"},"vehicle_type_id":"4","last_reported":1759158610,"current_range_meters":16800,"station_id":"ce4bhbh2rcd13ifvqepg","pricing_plan_id":"cebpf4jnsgd1na2vs0mg"},{"bike_id":"a1b7edc5-9c84-45b0-a013-9ff0c2a21786","system_id":"levelo_inurba_marseille","lat":43.26213,"lon":5.37444,"is_reserved":false,"is_disabled":false,"rental_uris":{"android":"levelo://app?vid=a1b7edc5-9c84-45b0-a013-9ff0c2a21786","ios":"levelo://app?vid=a1b7edc5-9c84-45b0-a013-9ff0c2a21786"},"vehicle_type_id":"4","last_reported":1759158610,"current_range_meters":16800,"station_id":"ce4bhgp2rcd13ifvqfc0","pricing_plan_id":"cebpf4jnsgd1na2vs0mg"},{"bike_id":"797689f9-404f-47ce-8502-a563ab8a5dc0","system_id":"levelo_inurba_marseille","lat":43.24398,"lon":5.37059,"is_reserved":false,"is_disabled":false,"rental_uris":{"android":"levelo://app?vid=797689f9-404f-47ce-8502-a563ab8a5dc0","ios":"levelo://app?vid=797689f9-404f-47ce-8502-a563ab8a5dc0"},"vehicle_type_id":"4","last_reported":1759158610,"current_range_meters":17200,"station_id":"ce4bhhh2rcd13ifvqfk0","pricing_plan_id":"cebpf4jnsgd1na2vs0mg"},{"bike_id":"6199221e-cb34-4ffc-a4c2-2cb3a099145c","system_id":"levelo_inurba_marseille","lat":43.23966,"lon":5.36627,"is_reserved":false,"is_disabled":false,"rental_uris":{"android":"levelo://app?vid=6199221e-cb34-4ffc-a4c2-2cb3a099145c","ios":"levelo://app?vid=6199221e-cb34-4ffc-a4c2-2cb3a099145c"},"vehicle_type_id":"4","last_reported":1759158610,"current_range_meters":17200,"station_id":"ce4bhi12rcd13ifvqfp0","pricing_plan_id":"cebpf4jnsgd1na2vs0mg"},{"bike_id":"6f316bf5-0c4d-41b9-8230-84bf4487f34f","system_id":"levelo_inurba_marseille","lat":43.239682,"lon":5.366239,"is_reserved":false,"is_disabled":false,"rental_uris":{"android":"levelo://app?vid=6f316bf5-0c4d-41b9-8230-84bf4487f34f","ios":"levelo://app?vid=6f316bf5-0c4d-41b9-8230-84bf4487f34f"},"vehicle_type_id":"4","last_reported":1759158610,"current_range_meters":17200,"station_id":"ce4bhi12rcd13ifvqfp0","pricing_plan_id":"cebpf4jnsgd1na2vs0mg"},{"bike_id":"686d597f-c80f-48da-b739-8ef918f0c2fb","system_id":"levelo_inurba_marseille","lat":43.28665,"lon":5.36347,"is_reserved":false,"is_disabled":false,"rental_uris":{"android":"levelo://app?vid=686d597f-c80f-48da-b739-8ef918f0c2fb","ios":"levelo://app?vid=686d597f-c80f-48da-b739-8ef918f0c2fb"},"vehicle_type_id":"4","last_reported":1759158610,"current_range_meters":17200,"station_id":"ce4bhah2rcd13ifvqej0","pricing_plan_id":"cebpf4jnsgd1na2vs0mg"},{"bike_id":"33c22d45-451e-4404-877b-8de38f6e4e67","system_id":"levelo_inurba_marseille","lat":43.29883,"lon":5.3768,"is_reserved":false,"is_disabled":false,"rental_uris":{"android":"levelo://app?vid=33c22d45-451e-4404-877b-8de38f6e4e67","ios":"levelo://app?vid=33c22d45-451e-4404-877b-8de38f6e4e67"},"vehicle_type_id":"4","last_reported":1759158610,"current_range_meters":17200,"station_id":"","pricing_plan_id":"cebpf4jnsgd1na2vs0mg"},{"bike_id":"f44df0c8-3c0a-4103-982e-900169d96e81","system_id":"levelo_inurba_marseille","lat":43.32108,"lon":5.36799,"is_reserved":false,"is_disabled":false,"rental_uris":{"android":"levelo://app?vid=f44df0c8-3c0a-4103-982e-900169d96e81","ios":"levelo://app?vid=f44df0c8-3c0a-4103-982e-900169d96e81"},"vehicle_type_id":"4","last_reported":1759158610,"current_range_meters":17200,"station_id":"ce4bhrh2rcd13ifvqhug","pricing_plan_id":"cebpf4jnsgd1na2vs0mg"},{"bike_id":"211afd9f-58b0-436e-9b6b-1acbadc34392","system_id":"levelo_inurba_marseille","lat":43.32365,"lon":5.36769,"is_reserved":false,"is_disabled":false,"rental_uris":{"android":"levelo://app?vid=211afd9f-58b0-436e-9b6b-1acbadc34392","ios":"levelo://app?vid=211afd9f-58b0-436e-9b6b-1acbadc34392"},"vehicle_type_id":"4","last_reported":1759158610,"current_range_meters":17200,"station_id":"ce4bhsh2rcd13ifvqi2g","pricing_plan_id":"cebpf4jnsgd1na2vs0mg"},{"bike_id":"def345bc-9a64-4646-9d19-9a83e4889853","system_id":"levelo_inurba_marseille","lat":43.23184,"lon":5.35561,"is_reserved":false,"is_disabled":false,"rental_uris":{"android":"levelo://app?vid=def345bc-9a64-4646-9d19-9a83e4889853","ios":"levelo://app?vid=def345bc-9a64-4646-9d19-9a83e4889853"},"vehicle_type_id":"4","last_reported":1759158610,"current_range_meters":17200,"station_id":"ce4bhu92rcd13ifvqi70","pricing_plan_id":"cebpf4jnsgd1na2vs0mg"},{"bike_id":"d2f46c9e-a53c-42a7-ad54-fd7c896f4565","system_id":"levelo_inurba_marseille","lat":43.33797,"lon":5.37428,"is_reserved":false,"is_disabled":false,"rental_uris":{"android":"levelo://app?vid=d2f46c9e-a53c-42a7-ad54-fd7c896f4565","ios":"levelo://app?vid=d2f46c9e-a53c-42a7-ad54-fd7c896f4565"},"vehicle_type_id":"4","last_reported":1759158610,"current_range_meters":17200,"station_id":"","pricing_plan_id":"cebpf4jnsgd1na2vs0mg"},{"bike_id":"4f6c225c-2f41-4430-b894-aea1cc32d949","system_id":"levelo_inurba_marseille","lat":43.25347,"lon":5.42176,"is_reserved":false,"is_disabled":false,"rental_uris":{"android":"levelo://app?vid=4f6c225c-2f41-4430-b894-aea1cc32d949","ios":"levelo://app?vid=4f6c225c-2f41-4430-b894-aea1cc32d949"},"vehicle_type_id":"4","last_reported":1759158610,"current_range_meters":17600,"station_id":"st_d2m65c5bi1j21697t3ng","pricing_plan_id":"cebpf4jnsgd1na2vs0mg"},{"bike_id":"b85bed18-5eb7-4352-b750-1a96c0b4f5b6","system_id":"levelo_inurba_marseille","lat":43.25333,"lon":5.42172,"is_reserved":false,"is_disabled":false,"rental_uris":{"android":"levelo://app?vid=b85bed18-5eb7-4352-b750-1a96c0b4f5b6","ios":"levelo://app?vid=b85bed18-5eb7-4352-b750-1a96c0b4f5b6"},"vehicle_type_id":"4","last_reported":1759158610,"current_range_meters":17600,"station_id":"st_d2m65c5bi1j21697t3ng","pricing_plan_id":"cebpf4jnsgd1na2vs0mg"},{"bike_id":"b1f50093-2e11-4283-86a0-13302b5a1c02","system_id":"levelo_inurba_marseille","lat":43.26047,"lon":5.37549,"is_reserved":false,"is_disabled":false,"rental_uris":{"android":"levelo://app?vid=b1f50093-2e11-4283-86a0-13302b5a1c02","ios":"levelo://app?vid=b1f50093-2e11-4283-86a0-13302b5a1c02"},"vehicle_type_id":"4","last_reported":1759158610,"current_range_meters":17600,"station_id":"ce4bhgh2rcd13ifvqfa0","pricing_plan_id":"cebpf4jnsgd1na2vs0mg"},{"bike_id":"bb55924a-8151-47d1-a62b-9e3cc7140913","system_id":"levelo_inurba_marseille","lat":43.23193,"lon":5.35554,"is_reserved":false,"is_disabled":false,"rental_uris":{"android":"levelo://app?vid=bb55924a-8151-47d1-a62b-9e3cc7140913","ios":"levelo://app?vid=bb55924a-8151-47d1-a62b-9e3cc7140913"},"vehicle_type_id":"4","last_reported":1759158610,"current_range_meters":17600,"station_id":"ce4bhu92rcd13ifvqi70","pricing_plan_id":"cebpf4jnsgd1na2vs0mg"},{"bike_id":"52f0823a-12f8-4380-b31f-4f20b6b5fd3e","system_id":"levelo_inurba_marseille","lat":43.28642,"lon":5.35072,"is_reserved":false,"is_disabled":false,"rental_uris":{"android":"levelo://app?vid=52f0823a-12f8-4380-b31f-4f20b6b5fd3e","ios":"levelo://app?vid=52f0823a-12f8-4380-b31f-4f20b6b5fd3e"},"vehicle_type_id":"4","last_reported":1759158610,"current_range_meters":17600,"station_id":"ce4bhch2rcd13ifvqeug","pricing_plan_id":"cebpf4jnsgd1na2vs0mg"},{"bike_id":"03c3eaa8-6c75-4654-b4cc-a3bd3a40459d","system_id":"levelo_inurba_marseille","lat":43.3029,"lon":5.3691,"is_reserved":false,"is_disabled":false,"rental_uris":{"android":"levelo://app?vid=03c3eaa8-6c75-4654-b4cc-a3bd3a40459d","ios":"levelo://app?vid=03c3eaa8-6c75-4654-b4cc-a3bd3a40459d"},"vehicle_type_id":"4","last_reported":1759158610,"current_range_meters":17600,"station_id":"ce4bgqh2rcd13ifvqc5g","pricing_plan_id":"cebpf4jnsgd1na2vs0mg"},{"bike_id":"35cf41f1-dea6-49f7-b79d-24763a73ff1c","system_id":"levelo_inurba_marseille","lat":43.25337,"lon":5.42172,"is_reserved":false,"is_disabled":false,"rental_uris":{"android":"levelo://app?vid=35cf41f1-dea6-49f7-b79d-24763a73ff1c","ios":"levelo://app?vid=35cf41f1-dea6-49f7-b79d-24763a73ff1c"},"vehicle_type_id":"4","last_reported":1759158610,"current_range_meters":17600,"station_id":"st_d2m65c5bi1j21697t3ng","pricing_plan_id":"cebpf4jnsgd1na2vs0mg"},{"bike_id":"cf433e0a-1680-4cdd-a594-ca0f33c07119","system_id":"levelo_inurba_marseille","lat":43.307913,"lon":5.381558,"is_reserved":false,"is_disabled":false,"rental_uris":{"android":"levelo://app?vid=cf433e0a-1680-4cdd-a594-ca0f33c07119","ios":"levelo://app?vid=cf433e0a-1680-4cdd-a594-ca0f33c07119"},"vehicle_type_id":"4","last_reported":1759158610,"current_range_meters":17600,"station_id":"ce4bgt12rcd13ifvqce0","pricing_plan_id":"cebpf4jnsgd1na2vs0mg"},{"bike_id":"17bbf4dd-fba9-4826-8c7d-9be0609a6e2f","system_id":"levelo_inurba_marseille","lat":43.31158,"lon":5.37745,"is_reserved":false,"is_disabled":false,"rental_uris":{"android":"levelo://app?vid=17bbf4dd-fba9-4826-8c7d-9be0609a6e2f","ios":"levelo://app?vid=17bbf4dd-fba9-4826-8c7d-9be0609a6e2f"},"vehicle_type_id":"4","last_reported":1759158610,"current_range_meters":17600,"station_id":"","pricing_plan_id":"cebpf4jnsgd1na2vs0mg"},{"bike_id":"27cc3b5a-9adb-4fa6-81b4-3927f8b798ca","system_id":"levelo_inurba_marseille","lat":43.27813,"lon":5.35495,"is_reserved":false,"is_disabled":false,"rental_uris":{"android":"levelo://app?vid=27cc3b5a-9adb-4fa6-81b4-3927f8b798ca","ios":"levelo://app?vid=27cc3b5a-9adb-4fa6-81b4-3927f8b798ca"},"vehicle_type_id":"4","last_reported":1759158610,"current_range_meters":17600,"station_id":"","pricing_plan_id":"cebpf4jnsgd1na2vs0mg"},{"bike_id":"df526f40-1d27-4405-bff0-bf937973c7c8","system_id":"levelo_inurba_marseille","lat":43.23188,"lon":5.39992,"is_reserved":false,"is_disabled":false,"rental_uris":{"android":"levelo://app?vid=df526f40-1d27-4405-bff0-bf937973c7c8","ios":"levelo://app?vid=df526f40-1d27-4405-bff0-bf937973c7c8"},"vehicle_type_id":"4","last_reported":1759158610,"current_range_meters":18000,"station_id":"ce4bhn12rcd13ifvqgqg","pricing_plan_id":"cebpf4jnsgd1na2vs0mg"},{"bike_id":"80bcdf69-6d79-4d35-8dc1-7b53894cd894","system_id":"levelo_inurba_marseille","lat":43.29873,"lon":5.39742,"is_reserved":false,"is_disabled":false,"rental_uris":{"android":"levelo://app?vid=80bcdf69-6d79-4d35-8dc1-7b53894cd894","ios":"levelo://app?vid=80bcdf69-6d79-4d35-8dc1-7b53894cd894"},"vehicle_type_id":"4","last_reported":1759158610,"current_range_meters":18000,"station_id":"ce4bh0h2rcd13ifvqd50","pricing_plan_id":"cebpf4jnsgd1na2vs0mg"},{"bike_id":"511cc80f-04a6-4a9f-afdd-004129d93b1f","system_id":"levelo_inurba_marseille","lat":43.23718,"lon":5.37197,"is_reserved":false,"is_disabled":false,"rental_uris":{"android":"levelo://app?vid=511cc80f-04a6-4a9f-afdd-004129d93b1f","ios":"levelo://app?vid=511cc80f-04a6-4a9f-afdd-004129d93b1f"},"vehicle_type_id":"4","last_reported":1759158610,"current_range_meters":18000,"station_id":"","pricing_plan_id":"cebpf4jnsgd1na2vs0mg"},{"bike_id":"689b5c09-0808-43a1-b698-2b2e5e590eb4","system_id":"levelo_inurba_marseille","lat":43.26061,"lon":5.39396,"is_reserved":false,"is_disabled":false,"rental_uris":{"android":"levelo://app?vid=689b5c09-0808-43a1-b698-2b2e5e590eb4","ios":"levelo://app?vid=689b5c09-0808-43a1-b698-2b2e5e590eb4"},"vehicle_type_id":"4","last_reported":1759158610,"current_range_meters":18000,"station_id":"ce4bhh92rcd13ifvqfj0","pricing_plan_id":"cebpf4jnsgd1na2vs0mg"},{"bike_id":"2ab535df-4c2c-40d8-af4f-189047a67c11","system_id":"levelo_inurba_marseille","lat":43.24623,"lon":5.43155,"is_reserved":false,"is_disabled":false,"rental_uris":{"android":"levelo://app?vid=2ab535df-4c2c-40d8-af4f-189047a67c11","ios":"levelo://app?vid=2ab535df-4c2c-40d8-af4f-189047a67c11"},"vehicle_type_id":"4","last_reported":1759158610,"current_range_meters":18000,"station_id":"st_d2m6c4gdas8pm72e190g","pricing_plan_id":"cebpf4jnsgd1na2vs0mg"},{"bike_id":"63aa2455-2da3-4e9c-9e4e-54ed059c09ac","system_id":"levelo_inurba_marseille","lat":43.31576,"lon":5.38903,"is_reserved":false,"is_disabled":false,"rental_uris":{"android":"levelo://app?vid=63aa2455-2da3-4e9c-9e4e-54ed059c09ac","ios":"levelo://app?vid=63aa2455-2da3-4e9c-9e4e-54ed059c09ac"},"vehicle_type_id":"4","last_reported":1759158610,"current_range_meters":18000,"station_id":"","pricing_plan_id":"cebpf4jnsgd1na2vs0mg"},{"bike_id":"273fa0fe-7161-4b68-9936-93f494b032fc","system_id":"levelo_inurba_marseille","lat":43.2175,"lon":5.34606,"is_reserved":false,"is_disabled":false,"rental_uris":{"android":"levelo://app?vid=273fa0fe-7161-4b68-9936-93f494b032fc","ios":"levelo://app?vid=273fa0fe-7161-4b68-9936-93f494b032fc"},"vehicle_type_id":"4","last_reported":1759158610,"current_range_meters":18000,"station_id":"st_cvj6r9ubvosntc0bgbag","pricing_plan_id":"cebpf4jnsgd1na2vs0mg"},{"bike_id":"a29bee59-ea4f-424e-b048-900473be4ae3","system_id":"levelo_inurba_marseille","lat":43.284546,"lon":5.358773,"is_reserved":false,"is_disabled":false,"rental_uris":{"android":"levelo://app?vid=a29bee59-ea4f-424e-b048-900473be4ae3","ios":"levelo://app?vid=a29bee59-ea4f-424e-b048-900473be4ae3"},"vehicle_type_id":"4","last_reported":1759158610,"current_range_meters":18800,"station_id":"","pricing_plan_id":"cebpf4jnsgd1na2vs0mg"},{"bike_id":"f752559e-e357-41d0-b0e1-06afd32411be","system_id":"levelo_inurba_marseille","lat":43.27468,"lon":5.40788,"is_reserved":false,"is_disabled":false,"rental_uris":{"android":"levelo://app?vid=f752559e-e357-41d0-b0e1-06afd32411be","ios":"levelo://app?vid=f752559e-e357-41d0-b0e1-06afd32411be"},"vehicle_type_id":"4","last_reported":1759158610,"current_range_meters":18800,"station_id":"","pricing_plan_id":"cebpf4jnsgd1na2vs0mg"},{"bike_id":"09dc7070-767f-485c-8bab-bf9eefcad225","system_id":"levelo_inurba_marseille","lat":43.29702,"lon":5.37133,"is_reserved":false,"is_disabled":false,"rental_uris":{"android":"levelo://app?vid=09dc7070-767f-485c-8bab-bf9eefcad225","ios":"levelo://app?vid=09dc7070-767f-485c-8bab-bf9eefcad225"},"vehicle_type_id":"4","last_reported":1759158610,"current_range_meters":18800,"station_id":"","pricing_plan_id":"cebpf4jnsgd1na2vs0mg"},{"bike_id":"e1a8649a-07be-427d-b687-1f766dc94d96","system_id":"levelo_inurba_marseille","lat":43.24081,"lon":5.37747,"is_reserved":false,"is_disabled":false,"rental_uris":{"android":"levelo://app?vid=e1a8649a-07be-427d-b687-1f766dc94d96","ios":"levelo://app?vid=e1a8649a-07be-427d-b687-1f766dc94d96"},"vehicle_type_id":"4","last_reported":1759158610,"current_range_meters":18800,"station_id":"ce4bhnp2rcd13ifvqgvg","pricing_plan_id":"cebpf4jnsgd1na2vs0mg"},{"bike_id":"91266b10-5d1c-4d27-9c23-afd858f544b2","system_id":"levelo_inurba_marseille","lat":43.25693,"lon":5.41155,"is_reserved":false,"is_disabled":false,"rental_uris":{"android":"levelo://app?vid=91266b10-5d1c-4d27-9c23-afd858f544b2","ios":"levelo://app?vid=91266b10-5d1c-4d27-9c23-afd858f544b2"},"vehicle_type_id":"4","last_reported":1759158610,"current_range_meters":18800,"station_id":"ce4bhkp2rcd13ifvqgd0","pricing_plan_id":"cebpf4jnsgd1na2vs0mg"},{"bike_id":"01f37019-c17c-42ca-929b-1d435088ce94","system_id":"levelo_inurba_marseille","lat":43.27163,"lon":5.404372,"is_reserved":false,"is_disabled":false,"rental_uris":{"android":"levelo://app?vid=01f37019-c17c-42ca-929b-1d435088ce94","ios":"levelo://app?vid=01f37019-c17c-42ca-929b-1d435088ce94"},"vehicle_type_id":"4","last_reported":1759158610,"current_range_meters":18800,"station_id":"ce4bhk92rcd13ifvqgc0","pricing_plan_id":"cebpf4jnsgd1na2vs0mg"},{"bike_id":"373deafe-e898-4654-bfc7-d98ec8b4c7af","system_id":"levelo_inurba_marseille","lat":43.24161,"lon":5.39723,"is_reserved":false,"is_disabled":false,"rental_uris":{"android":"levelo://app?vid=373deafe-e898-4654-bfc7-d98ec8b4c7af","ios":"levelo://app?vid=373deafe-e898-4654-bfc7-d98ec8b4c7af"},"vehicle_type_id":"4","last_reported":1759158610,"current_range_meters":18800,"station_id":"ce4bhn12rcd13ifvqgpg","pricing_plan_id":"cebpf4jnsgd1na2vs0mg"},{"bike_id":"d2dec92d-ca91-4d70-86bf-2c953cea6624","system_id":"levelo_inurba_marseille","lat":43.28273,"lon":5.3506,"is_reserved":false,"is_disabled":false,"rental_uris":{"android":"levelo://app?vid=d2dec92d-ca91-4d70-86bf-2c953cea6624","ios":"levelo://app?vid=d2dec92d-ca91-4d70-86bf-2c953cea6624"},"vehicle_type_id":"4","last_reported":1759158610,"current_range_meters":18800,"station_id":"ce4bhbp2rcd13ifvqerg","pricing_plan_id":"cebpf4jnsgd1na2vs0mg"},{"bike_id":"b31b1183-29a6-434d-9bb3-6587ce2ed2f9","system_id":"levelo_inurba_marseille","lat":43.27501,"lon":5.42452,"is_reserved":false,"is_disabled":false,"rental_uris":{"android":"levelo://app?vid=b31b1183-29a6-434d-9bb3-6587ce2ed2f9","ios":"levelo://app?vid=b31b1183-29a6-434d-9bb3-6587ce2ed2f9"},"vehicle_type_id":"4","last_reported":1759158610,"current_range_meters":19200,"station_id":"ce4bhn92rcd13ifvqgrg","pricing_plan_id":"cebpf4jnsgd1na2vs0mg"},{"bike_id":"04f400ac-2bb5-4717-bdb8-234a4e1f6e06","system_id":"levelo_inurba_marseille","lat":43.28276,"lon":5.35073,"is_reserved":false,"is_disabled":false,"rental_uris":{"android":"levelo://app?vid=04f400ac-2bb5-4717-bdb8-234a4e1f6e06","ios":"levelo://app?vid=04f400ac-2bb5-4717-bdb8-234a4e1f6e06"},"vehicle_type_id":"4","last_reported":1759158610,"current_range_meters":19200,"station_id":"ce4bhbp2rcd13ifvqerg","pricing_plan_id":"cebpf4jnsgd1na2vs0mg"},{"bike_id":"857d8652-f374-42cf-a415-e93fcc890fe9","system_id":"levelo_inurba_marseille","lat":43.25,"lon":5.38942,"is_reserved":false,"is_disabled":false,"rental_uris":{"android":"levelo://app?vid=857d8652-f374-42cf-a415-e93fcc890fe9","ios":"levelo://app?vid=857d8652-f374-42cf-a415-e93fcc890fe9"},"vehicle_type_id":"4","last_reported":1759158610,"current_range_meters":19600,"station_id":"ce4bhgp2rcd13ifvqfd0","pricing_plan_id":"cebpf4jnsgd1na2vs0mg"},{"bike_id":"4a9332a9-e97e-4152-b899-1dbcc929a701","system_id":"levelo_inurba_marseille","lat":43.24165,"lon":5.39751,"is_reserved":false,"is_disabled":false,"rental_uris":{"android":"levelo://app?vid=4a9332a9-e97e-4152-b899-1dbcc929a701","ios":"levelo://app?vid=4a9332a9-e97e-4152-b899-1dbcc929a701"},"vehicle_type_id":"4","last_reported":1759158610,"current_range_meters":19600,"station_id":"ce4bhn12rcd13ifvqgpg","pricing_plan_id":"cebpf4jnsgd1na2vs0mg"},{"bike_id":"c4823afe-50e7-48ee-916d-9ee995f5a1fe","system_id":"levelo_inurba_marseille","lat":43.30293,"lon":5.39219,"is_reserved":false,"is_disabled":false,"rental_uris":{"android":"levelo://app?vid=c4823afe-50e7-48ee-916d-9ee995f5a1fe","ios":"levelo://app?vid=c4823afe-50e7-48ee-916d-9ee995f5a1fe"},"vehicle_type_id":"4","last_reported":1759158610,"current_range_meters":19600,"station_id":"ce4bgkh2rcd13ifvqbk0","pricing_plan_id":"cebpf4jnsgd1na2vs0mg"},{"bike_id":"7cd433e0-4dc5-4dcb-a5c6-f17936bd4cb6","system_id":"levelo_inurba_marseille","lat":43.31576,"lon":5.40328,"is_reserved":false,"is_disabled":false,"rental_uris":{"android":"levelo://app?vid=7cd433e0-4dc5-4dcb-a5c6-f17936bd4cb6","ios":"levelo://app?vid=7cd433e0-4dc5-4dcb-a5c6-f17936bd4cb6"},"vehicle_type_id":"4","last_reported":1759158610,"current_range_meters":19600,"station_id":"","pricing_plan_id":"cebpf4jnsgd1na2vs0mg"},{"bike_id":"af748878-8682-44ed-85a6-08fc88464536","system_id":"levelo_inurba_marseille","lat":43.26032,"lon":5.37551,"is_reserved":false,"is_disabled":false,"rental_uris":{"android":"levelo://app?vid=af748878-8682-44ed-85a6-08fc88464536","ios":"levelo://app?vid=af748878-8682-44ed-85a6-08fc88464536"},"vehicle_type_id":"4","last_reported":1759158610,"current_range_meters":19600,"station_id":"ce4bhgh2rcd13ifvqfa0","pricing_plan_id":"cebpf4jnsgd1na2vs0mg"},{"bike_id":"617dca4b-4508-4d52-9e62-d583d919ac44","system_id":"levelo_inurba_marseille","lat":43.29749,"lon":5.37122,"is_reserved":false,"is_disabled":false,"rental_uris":{"android":"levelo://app?vid=617dca4b-4508-4d52-9e62-d583d919ac44","ios":"levelo://app?vid=617dca4b-4508-4d52-9e62-d583d919ac44"},"vehicle_type_id":"4","last_reported":1759158610,"current_range_meters":19600,"station_id":"ce4bgop2rcd13ifvqc1g","pricing_plan_id":"cebpf4jnsgd1na2vs0mg"},{"bike_id":"627f0009-c086-4f8a-8406-c08f3975bb85","system_id":"levelo_inurba_marseille","lat":43.337914,"lon":5.374267,"is_reserved":false,"is_disabled":false,"rental_uris":{"android":"levelo://app?vid=627f0009-c086-4f8a-8406-c08f3975bb85","ios":"levelo://app?vid=627f0009-c086-4f8a-8406-c08f3975bb85"},"vehicle_type_id":"4","last_reported":1759158610,"current_range_meters":19600,"station_id":"","pricing_plan_id":"cebpf4jnsgd1na2vs0mg"},{"bike_id":"33948e2e-7e95-435e-88f1-6b90fb801091","system_id":"levelo_inurba_marseille","lat":43.25716,"lon":5.41122,"is_reserved":false,"is_disabled":false,"rental_uris":{"android":"levelo://app?vid=33948e2e-7e95-435e-88f1-6b90fb801091","ios":"levelo://app?vid=33948e2e-7e95-435e-88f1-6b90fb801091"},"vehicle_type_id":"4","last_reported":1759158610,"current_range_meters":20000,"station_id":"ce4bhkp2rcd13ifvqgd0","pricing_plan_id":"cebpf4jnsgd1na2vs0mg"},{"bike_id":"91b0274d-9a9a-4466-89e3-e3b2e850d077","system_id":"levelo_inurba_marseille","lat":43.26059,"lon":5.39405,"is_reserved":false,"is_disabled":false,"rental_uris":{"android":"levelo://app?vid=91b0274d-9a9a-4466-89e3-e3b2e850d077","ios":"levelo://app?vid=91b0274d-9a9a-4466-89e3-e3b2e850d077"},"vehicle_type_id":"4","last_reported":1759158610,"current_range_meters":20000,"station_id":"ce4bhh92rcd13ifvqfj0","pricing_plan_id":"cebpf4jnsgd1na2vs0mg"},{"bike_id":"5dff0a3e-707c-44f5-a082-04afe8805dff","system_id":"levelo_inurba_marseille","lat":43.30518,"lon":5.36708,"is_reserved":false,"is_disabled":false,"rental_uris":{"android":"levelo://app?vid=5dff0a3e-707c-44f5-a082-04afe8805dff","ios":"levelo://app?vid=5dff0a3e-707c-44f5-a082-04afe8805dff"},"vehicle_type_id":"4","last_reported":1759158610,"current_range_meters":20000,"station_id":"ce4bgrp2rcd13ifvqc9g","pricing_plan_id":"cebpf4jnsgd1na2vs0mg"},{"bike_id":"3d704f10-89f9-4db3-b354-3763cd1401be","system_id":"levelo_inurba_marseille","lat":43.24635,"lon":5.38913,"is_reserved":false,"is_disabled":false,"rental_uris":{"android":"levelo://app?vid=3d704f10-89f9-4db3-b354-3763cd1401be","ios":"levelo://app?vid=3d704f10-89f9-4db3-b354-3763cd1401be"},"vehicle_type_id":"4","last_reported":1759158610,"current_range_meters":20000,"station_id":"ce4bhg12rcd13ifvqf60","pricing_plan_id":"cebpf4jnsgd1na2vs0mg"},{"bike_id":"4cd72209-9b2a-4b07-af5d-34570bb6831c","system_id":"levelo_inurba_marseille","lat":43.24811,"lon":5.3746,"is_reserved":false,"is_disabled":false,"rental_uris":{"android":"levelo://app?vid=4cd72209-9b2a-4b07-af5d-34570bb6831c","ios":"levelo://app?vid=4cd72209-9b2a-4b07-af5d-34570bb6831c"},"vehicle_type_id":"4","last_reported":1759158610,"current_range_meters":20000,"station_id":"ce4bhgh2rcd13ifvqfb0","pricing_plan_id":"cebpf4jnsgd1na2vs0mg"},{"bike_id":"8105eeef-5a4b-46b9-a2ef-666a8dda2a26","system_id":"levelo_inurba_marseille","lat":43.32972,"lon":5.38103,"is_reserved":false,"is_disabled":false,"rental_uris":{"android":"levelo://app?vid=8105eeef-5a4b-46b9-a2ef-666a8dda2a26","ios":"levelo://app?vid=8105eeef-5a4b-46b9-a2ef-666a8dda2a26"},"vehicle_type_id":"4","last_reported":1759158610,"current_range_meters":20000,"station_id":"","pricing_plan_id":"cebpf4jnsgd1na2vs0mg"},{"bike_id":"21461f0d-6c30-4570-88df-af9ed1077966","system_id":"levelo_inurba_marseille","lat":43.26686,"lon":5.38261,"is_reserved":false,"is_disabled":false,"rental_uris":{"android":"levelo://app?vid=21461f0d-6c30-4570-88df-af9ed1077966","ios":"levelo://app?vid=21461f0d-6c30-4570-88df-af9ed1077966"},"vehicle_type_id":"4","last_reported":1759158610,"current_range_meters":20000,"station_id":"ce4bhg92rcd13ifvqf90","pricing_plan_id":"cebpf4jnsgd1na2vs0mg"},{"bike_id":"75427950-2929-48e4-9711-bb1eea682436","system_id":"levelo_inurba_marseille","lat":43.30419,"lon":5.41288,"is_reserved":false,"is_disabled":false,"rental_uris":{"android":"levelo://app?vid=75427950-2929-48e4-9711-bb1eea682436","ios":"levelo://app?vid=75427950-2929-48e4-9711-bb1eea682436"},"vehicle_type_id":"4","last_reported":1759158610,"current_range_meters":20000,"station_id":"ce4bhop2rcd13ifvqh8g","pricing_plan_id":"cebpf4jnsgd1na2vs0mg"},{"bike_id":"ae97ee68-3cab-47b9-8b43-bca0b69bceca","system_id":"levelo_inurba_marseille","lat":43.21737,"lon":5.34615,"is_reserved":false,"is_disabled":false,"rental_uris":{"android":"levelo://app?vid=ae97ee68-3cab-47b9-8b43-bca0b69bceca","ios":"levelo://app?vid=ae97ee68-3cab-47b9-8b43-bca0b69bceca"},"vehicle_type_id":"4","last_reported":1759158610,"current_range_meters":20000,"station_id":"st_cvj6r9ubvosntc0bgbag","pricing_plan_id":"cebpf4jnsgd1na2vs0mg"},{"bike_id":"eb4af01f-7bb7-499a-8bee-fe6b117c3364","system_id":"levelo_inurba_marseille","lat":43.240723,"lon":5.377247,"is_reserved":false,"is_disabled":false,"rental_uris":{"android":"levelo://app?vid=eb4af01f-7bb7-499a-8bee-fe6b117c3364","ios":"levelo://app?vid=eb4af01f-7bb7-499a-8bee-fe6b117c3364"},