{"last_updated":1728134001,"ttl":60,"version":"2.2","data":{"bikes":[{"bike_id":"7b5918c9-286b-4a5d-8c11-f495ad5c7f7a","system_id":"levelo_inurba_marseille","lat":43.30796,"lon":5.43517,"is_reserved":false,"is_disabled":false,"rental_uris":{"android":"levelo://app?vid=7b5918c9-286b-4a5d-8c11-f495ad5c7f7a","ios":"levelo://app?vid=7b5918c9-286b-4a5d-8c11-f495ad5c7f7a"},"vehicle_type_id":"4","last_reported":1728134001,"current_range_meters":8400,"station_id":"ce4bhph2rcd13ifvqheg","pricing_plan_id":"cebpf4jnsgd1na2vs0mg"},{"bike_id":"9247ec34-aab0-4937-bc3e-502de77590bb","system_id":"levelo_inurba_marseille","lat":43.23362,"lon":5.39942,"is_reserved":false,"is_disabled":false,"rental_uris":{"android":"levelo://app?vid=9247ec34-aab0-4937-bc3e-502de77590bb","ios":"levelo://app?vid=9247ec34-aab0-4937-bc3e-502de77590bb"},"vehicle_type_id":"4","last_reported":1728134001,"current_range_meters":38000,"station_id":"ce4bhip2rcd13ifvqft0","pricing_plan_id":"cebpf4jnsgd1na2vs0mg"},{"bike_id":"48be9690-9a45-4d48-9e83-a826a78cccda","system_id":"levelo_inurba_marseille","lat":43.316883,"lon":5.37667,"is_reserved":false,"is_disabled":false,"rental_uris":{"android":"levelo://app?vid=48be9690-9a45-4d48-9e83-a826a78cccda","ios":"levelo://app?vid=48be9690-9a45-4d48-9e83-a826a78cccda"},"vehicle_type_id":"4","last_reported":1728134001,"current_range_meters":25200,"station_id":"ce4bgth2rcd13ifvqch0","pricing_plan_id":"cebpf4jnsgd1na2vs0mg"},{"bike_id":"78ec4dbb-81e6-4a55-8ec4-29e46a1756ec","system_id":"levelo_inurba_marseille","lat":43.24392,"lon":5.37054,"is_reserved":false,"is_disabled":false,"rental_uris":{"android":"levelo://app?vid=78ec4dbb-81e6-4a55-8ec4-29e46a1756ec","ios":"levelo://app?vid=78ec4dbb-81e6-4a55-8ec4-29e46a1756ec"},"vehicle_type_id":"4","last_reported":1728134001,"current_range_meters":37600,"station_id":"ce4bhhh2rcd13ifvqfk0","pricing_plan_id":"cebpf4jnsgd1na2vs0mg"},{"bike_id":"815da34a-5c5c-410e-8aec-d77c17e9d4ae","system_id":"levelo_inurba_marseille","lat":43.2922,"lon":5.36053,"is_reserved":false,"is_disabled":false,"rental_uris":{"android":"levelo://app?vid=815da34a-5c5c-410e-8aec-d77c17e9d4ae","ios":"levelo://app?vid=815da34a-5c5c-410e-8aec-d77c17e9d4ae"},"vehicle_type_id":"4","last_reported":1728134001,"current_range_meters":31200,"station_id":"ce4bhbh2rcd13ifvqeqg","pricing_plan_id":"cebpf4jnsgd1na2vs0mg"},{"bike_id":"3edccbad-c604-40df-acb2-6e9d91b67298","system_id":"levelo_inurba_marseille","lat":43.33769,"lon":5.37429,"is_reserved":false,"is_disabled":false,"rental_uris":{"android":"levelo://app?vid=3edccbad-c604-40df-acb2-6e9d91b67298","ios":"levelo://app?vid=3edccbad-c604-40df-acb2-6e9d91b67298"},"vehicle_type_id":"4","last_reported":1728134001,"current_range_meters":35200,"station_id":"","pricing_plan_id":"cebpf4jnsgd1na2vs0mg"},{"bike_id":"92c643a9-8809-4ecd-aa6a-973cf53baa88","system_id":"levelo_inurba_marseille","lat":43.28615,"lon":5.35103,"is_reserved":false,"is_disabled":false,"rental_uris":{"android":"levelo://app?vid=92c643a9-8809-4ecd-aa6a-973cf53baa88","ios":"levelo://app?vid=92c643a9-8809-4ecd-aa6a-973cf53baa88"},"vehicle_type_id":"4","last_reported":1728134001,"current_range_meters":4800,"station_id":"ce4bhch2rcd13ifvqeug","pricing_plan_id":"cebpf4jnsgd1na2vs0mg"},{"bike_id":"77acfbb3-2eae-4e91-9fd6-347779be8109","system_id":"levelo_inurba_marseille","lat":43.25858,"lon":5.39909,"is_reserved":false,"is_disabled":false,"rental_uris":{"android":"levelo://app?vid=77acfbb3-2eae-4e91-9fd6-347779be8109","ios":"levelo://app?vid=77acfbb3-2eae-4e91-9fd6-347779be8109"},"vehicle_type_id":"4","last_reported":1728134001,"current_range_meters":30400,"station_id":"ce4bhl92rcd13ifvqghg","pricing_plan_id":"cebpf4jnsgd1na2vs0mg"},{"bike_id":"61de1765-6c4e-498b-ab39-fc3c7eca5023","system_id":"levelo_inurba_marseille","lat":43.2293,"lon":5.35376,"is_reserved":false,"is_disabled":false,"rental_uris":{"android":"levelo://app?vid=61de1765-6c4e-498b-ab39-fc3c7eca5023","ios":"levelo://app?vid=61de1765-6c4e-498b-ab39-fc3c7eca5023"},"vehicle_type_id":"4","last_reported":1728134001,"current_range_meters":8000,"station_id":"cpo3532slgdg3j2ikp40","pricing_plan_id":"cebpf4jnsgd1na2vs0mg"},{"bike_id":"469e4615-69fd-4f50-ab75-3a5649cbabf7","system_id":"levelo_inurba_marseille","lat":43.30802,"lon":5.43519,"is_reserved":false,"is_disabled":false,"rental_uris":{"android":"levelo://app?vid=469e4615-69fd-4f50-ab75-3a5649cbabf7","ios":"levelo://app?vid=469e4615-69fd-4f50-ab75-3a5649cbabf7"},"vehicle_type_id":"4","last_reported":1728134001,"current_range_meters":12000,"station_id":"ce4bhph2rcd13ifvqheg","pricing_plan_id":"cebpf4jnsgd1na2vs0mg"},{"bike_id":"33bb3931-31f0-4478-96f2-bf8155649024","system_id":"levelo_inurba_marseille","lat":43.309326,"lon":5.401424,"is_reserved":false,"is_disabled":false,"rental_uris":{"android":"levelo://app?vid=33bb3931-31f0-4478-96f2-bf8155649024","ios":"levelo://app?vid=33bb3931-31f0-4478-96f2-bf8155649024"},"vehicle_type_id":"4","last_reported":1728134001,"current_range_meters":37600,"station_id":"ce4bgg92rcd13ifvqb30","pricing_plan_id":"cebpf4jnsgd1na2vs0mg"},{"bike_id":"e25027ff-329e-428f-ba4c-c56241f9e0a3","system_id":"levelo_inurba_marseille","lat":43.23541,"lon":5.36087,"is_reserved":false,"is_disabled":false,"rental_uris":{"android":"levelo://app?vid=e25027ff-329e-428f-ba4c-c56241f9e0a3","ios":"levelo://app?vid=e25027ff-329e-428f-ba4c-c56241f9e0a3"},"vehicle_type_id":"4","last_reported":1728134001,"current_range_meters":22400,"station_id":"","pricing_plan_id":"cebpf4jnsgd1na2vs0mg"},{"bike_id":"a132ca2a-ca7d-45c9-bd7d-44468d461615","system_id":"levelo_inurba_marseille","lat":43.25583,"lon":5.38237,"is_reserved":false,"is_disabled":false,"rental_uris":{"android":"levelo://app?vid=a132ca2a-ca7d-45c9-bd7d-44468d461615","ios":"levelo://app?vid=a132ca2a-ca7d-45c9-bd7d-44468d461615"},"vehicle_type_id":"4","last_reported":1728134001,"current_range_meters":8800,"station_id":"ce4bhih2rcd13ifvqfs0","pricing_plan_id":"cebpf4jnsgd1na2vs0mg"},{"bike_id":"37042c1b-99f0-4379-a7d0-0b6867cdb669","system_id":"levelo_inurba_marseille","lat":43.2318,"lon":5.39978,"is_reserved":false,"is_disabled":false,"rental_uris":{"android":"levelo://app?vid=37042c1b-99f0-4379-a7d0-0b6867cdb669","ios":"levelo://app?vid=37042c1b-99f0-4379-a7d0-0b6867cdb669"},"vehicle_type_id":"4","last_reported":1728134001,"current_range_meters":38800,"station_id":"ce4bhn12rcd13ifvqgqg","pricing_plan_id":"cebpf4jnsgd1na2vs0mg"},{"bike_id":"cd8efa60-20bb-4915-b299-6050f091013b","system_id":"levelo_inurba_marseille","lat":43.23057,"lon":5.35486,"is_reserved":false,"is_disabled":false,"rental_uris":{"android":"levelo://app?vid=cd8efa60-20bb-4915-b299-6050f091013b","ios":"levelo://app?vid=cd8efa60-20bb-4915-b299-6050f091013b"},"vehicle_type_id":"4","last_reported":1728134001,"current_range_meters":8400,"station_id":"cpo3342slgdg3j2ifvpg","pricing_plan_id":"cebpf4jnsgd1na2vs0mg"},{"bike_id":"18639f7b-759a-4a22-893f-93dfbbe316b4","system_id":"levelo_inurba_marseille","lat":43.23962,"lon":5.36625,"is_reserved":false,"is_disabled":false,"rental_uris":{"android":"levelo://app?vid=18639f7b-759a-4a22-893f-93dfbbe316b4","ios":"levelo://app?vid=18639f7b-759a-4a22-893f-93dfbbe316b4"},"vehicle_type_id":"4","last_reported":1728134001,"current_range_meters":4000,"station_id":"ce4bhi12rcd13ifvqfp0","pricing_plan_id":"cebpf4jnsgd1na2vs0mg"},{"bike_id":"f44ef408-f651-4fa4-aa7d-0d70f8af6a65","system_id":"levelo_inurba_marseille","lat":43.23204,"lon":5.35553,"is_reserved":false,"is_disabled":false,"rental_uris":{"android":"levelo://app?vid=f44ef408-f651-4fa4-aa7d-0d70f8af6a65","ios":"levelo://app?vid=f44ef408-f651-4fa4-aa7d-0d70f8af6a65"},"vehicle_type_id":"4","last_reported":1728134001,"current_range_meters":35600,"station_id":"ce4bhu92rcd13ifvqi70","pricing_plan_id":"cebpf4jnsgd1na2vs0mg"},{"bike_id":"4920a91b-45c3-4cc6-8c11-e9c0ce20f787","system_id":"levelo_inurba_marseille","lat":43.22932,"lon":5.35377,"is_reserved":false,"is_disabled":false,"rental_uris":{"android":"levelo://app?vid=4920a91b-45c3-4cc6-8c11-e9c0ce20f787","ios":"levelo://app?vid=4920a91b-45c3-4cc6-8c11-e9c0ce20f787"},"vehicle_type_id":"4","last_reported":1728134001,"current_range_meters":27600,"station_id":"cpo3532slgdg3j2ikp40","pricing_plan_id":"cebpf4jnsgd1na2vs0mg"},{"bike_id":"cea21fb0-353c-4c5f-aed1-92f1bd1d9991","system_id":"levelo_inurba_marseille","lat":43.27904,"lon":5.38012,"is_reserved":false,"is_disabled":false,"rental_uris":{"android":"levelo://app?vid=cea21fb0-353c-4c5f-aed1-92f1bd1d9991","ios":"levelo://app?vid=cea21fb0-353c-4c5f-aed1-92f1bd1d9991"},"vehicle_type_id":"4","last_reported":1728134001,"current_range_meters":18000,"station_id":"ce4bhf92rcd13ifvqf50","pricing_plan_id":"cebpf4jnsgd1na2vs0mg"},{"bike_id":"93c654a2-94c9-4514-863f-254898a7ddea","system_id":"levelo_inurba_marseille","lat":43.27366,"lon":5.36248,"is_reserved":false,"is_disabled":false,"rental_uris":{"android":"levelo://app?vid=93c654a2-94c9-4514-863f-254898a7ddea","ios":"levelo://app?vid=93c654a2-94c9-4514-863f-254898a7ddea"},"vehicle_type_id":"4","last_reported":1728134001,"current_range_meters":27600,"station_id":"ce4bhbh2rcd13ifvqeo0","pricing_plan_id":"cebpf4jnsgd1na2vs0mg"},{"bike_id":"03ebdfef-60b9-4383-b780-f6e10ef5dff9","system_id":"levelo_inurba_marseille","lat":43.337567,"lon":5.374567,"is_reserved":false,"is_disabled":false,"rental_uris":{"android":"levelo://app?vid=03ebdfef-60b9-4383-b780-f6e10ef5dff9","ios":"levelo://app?vid=03ebdfef-60b9-4383-b780-f6e10ef5dff9"},"vehicle_type_id":"4","last_reported":1728134001,"current_range_meters":34000,"station_id":"","pricing_plan_id":"cebpf4jnsgd1na2vs0mg"},{"bike_id":"500232fd-f9d3-411f-96c8-87966d9c6ab8","system_id":"levelo_inurba_marseille","lat":43.26027,"lon":5.37548,"is_reserved":false,"is_disabled":false,"rental_uris":{"android":"levelo://app?vid=500232fd-f9d3-411f-96c8-87966d9c6ab8","ios":"levelo://app?vid=500232fd-f9d3-411f-96c8-87966d9c6ab8"},"vehicle_type_id":"4","last_reported":1728134001,"current_range_meters":38800,"station_id":"ce4bhgh2rcd13ifvqfa0","pricing_plan_id":"cebpf4jnsgd1na2vs0mg"},{"bike_id":"2ee470a2-f6fc-41c4-9ed0-be15e787887a","system_id":"levelo_inurba_marseille","lat":43.23967,"lon":5.36628,"is_reserved":false,"is_disabled":false,"rental_uris":{"android":"levelo://app?vid=2ee470a2-f6fc-41c4-9ed0-be15e787887a","ios":"levelo://app?vid=2ee470a2-f6fc-41c4-9ed0-be15e787887a"},"vehicle_type_id":"4","last_reported":1728134001,"current_range_meters":38800,"station_id":"ce4bhi12rcd13ifvqfp0","pricing_plan_id":"cebpf4jnsgd1na2vs0mg"},{"bike_id":"d5270646-6fb5-4d77-9583-11b07a363a33","system_id":"levelo_inurba_marseille","lat":43.28411,"lon":5.34986,"is_reserved":false,"is_disabled":false,"rental_uris":{"android":"levelo://app?vid=d5270646-6fb5-4d77-9583-11b07a363a33","ios":"levelo://app?vid=d5270646-6fb5-4d77-9583-11b07a363a33"},"vehicle_type_id":"4","last_reported":1728134001,"current_range_meters":38800,"station_id":"ce4bhbh2rcd13ifvqepg","pricing_plan_id":"cebpf4jnsgd1na2vs0mg"},{"bike_id":"e6b2df58-b4a0-4aec-933d-a62e42f34d34","system_id":"levelo_inurba_marseille","lat":43.33725,"lon":5.39192,"is_reserved":false,"is_disabled":false,"rental_uris":{"android":"levelo://app?vid=e6b2df58-b4a0-4aec-933d-a62e42f34d34","ios":"levelo://app?vid=e6b2df58-b4a0-4aec-933d-a62e42f34d34"},"vehicle_type_id":"4","last_reported":1728134001,"current_range_meters":12800,"station_id":"ce4bhr92rcd13ifvqhsg","pricing_plan_id":"cebpf4jnsgd1na2vs0mg"},{"bike_id":"9bdfcddf-1fd9-4f35-bea0-76383e057359","system_id":"levelo_inurba_marseille","lat":43.25,"lon":5.38921,"is_reserved":false,"is_disabled":false,"rental_uris":{"android":"levelo://app?vid=9bdfcddf-1fd9-4f35-bea0-76383e057359","ios":"levelo://app?vid=9bdfcddf-1fd9-4f35-bea0-76383e057359"},"vehicle_type_id":"4","last_reported":1728134001,"current_range_meters":30000,"station_id":"ce4bhgp2rcd13ifvqfd0","pricing_plan_id":"cebpf4jnsgd1na2vs0mg"},{"bike_id":"d77938b7-ff1e-465c-a8b9-4b07085a5cc9","system_id":"levelo_inurba_marseille","lat":43.23062,"lon":5.35488,"is_reserved":false,"is_disabled":false,"rental_uris":{"android":"levelo://app?vid=d77938b7-ff1e-465c-a8b9-4b07085a5cc9","ios":"levelo://app?vid=d77938b7-ff1e-465c-a8b9-4b07085a5cc9"},"vehicle_type_id":"4","last_reported":1728134001,"current_range_meters":12000,"station_id":"cpo3342slgdg3j2ifvpg","pricing_plan_id":"cebpf4jnsgd1na2vs0mg"},{"bike_id":"852457a1-813f-46b8-bb13-232384e208e9","system_id":"levelo_inurba_marseille","lat":43.337674,"lon":5.37438,"is_reserved":false,"is_disabled":false,"rental_uris":{"android":"levelo://app?vid=852457a1-813f-46b8-bb13-232384e208e9","ios":"levelo://app?vid=852457a1-813f-46b8-bb13-232384e208e9"},"vehicle_type_id":"4","last_reported":1728134001,"current_range_meters":33200,"station_id":"","pricing_plan_id":"cebpf4jnsgd1na2vs0mg"},{"bike_id":"0d79ef91-e03a-4511-b960-a6f350f28d65","system_id":"levelo_inurba_marseille","lat":43.23062,"lon":5.35491,"is_reserved":false,"is_disabled":false,"rental_uris":{"android":"levelo://app?vid=0d79ef91-e03a-4511-b960-a6f350f28d65","ios":"levelo://app?vid=0d79ef91-e03a-4511-b960-a6f350f28d65"},"vehicle_type_id":"4","last_reported":1728134001,"current_range_meters":19200,"station_id":"cpo3342slgdg3j2ifvpg","pricing_plan_id":"cebpf4jnsgd1na2vs0mg"},{"bike_id":"e1729c06-d1d0-49d8-be14-4a2919fe4755","system_id":"levelo_inurba_marseille","lat":43.28412,"lon":5.3498,"is_reserved":false,"is_disabled":false,"rental_uris":{"android":"levelo://app?vid=e1729c06-d1d0-49d8-be14-4a2919fe4755","ios":"levelo://app?vid=e1729c06-d1d0-49d8-be14-4a2919fe4755"},"vehicle_type_id":"4","last_reported":1728134001,"current_range_meters":14800,"station_id":"ce4bhbh2rcd13ifvqepg","pricing_plan_id":"cebpf4jnsgd1na2vs0mg"},{"bike_id":"a53b98f8-52a1-4fbf-9c54-5ce202cb9f71","system_id":"levelo_inurba_marseille","lat":43.2737,"lon":5.36254,"is_reserved":false,"is_disabled":false,"rental_uris":{"android":"levelo://app?vid=a53b98f8-52a1-4fbf-9c54-5ce202cb9f71","ios":"levelo://app?vid=a53b98f8-52a1-4fbf-9c54-5ce202cb9f71"},"vehicle_type_id":"4","last_reported":1728134001,"current_range_meters":38000,"station_id":"ce4bhbh2rcd13ifvqeo0","pricing_plan_id":"cebpf4jnsgd1na2vs0mg"},{"bike_id":"54d09a39-e79d-434c-8a05-a8f2660c6a94","system_id":"levelo_inurba_marseille","lat":43.29896,"lon":5.43672,"is_reserved":false,"is_disabled":false,"rental_uris":{"android":"levelo://app?vid=54d09a39-e79d-434c-8a05-a8f2660c6a94","ios":"levelo://app?vid=54d09a39-e79d-434c-8a05-a8f2660c6a94"},"vehicle_type_id":"4","last_reported":1728134001,"current_range_meters":10000,"station_id":"ce4bhpp2rcd13ifvqhfg","pricing_plan_id":"cebpf4jnsgd1na2vs0mg"},{"bike_id":"e88589c2-9daf-4f7c-9d5a-36ecf8f63f21","system_id":"levelo_inurba_marseille","lat":43.3266,"lon":5.40983,"is_reserved":false,"is_disabled":false,"rental_uris":{"android":"levelo://app?vid=e88589c2-9daf-4f7c-9d5a-36ecf8f63f21","ios":"levelo://app?vid=e88589c2-9daf-4f7c-9d5a-36ecf8f63f21"},"vehicle_type_id":"4","last_reported":1728134001,"current_range_meters":36800,"station_id":"ce4bhpp2rcd13ifvqhgg","pricing_plan_id":"cebpf4jnsgd1na2vs0mg"},{"bike_id":"65d448da-6e54-4825-a5bc-23d6e62c6b82","system_id":"levelo_inurba_marseille","lat":43.24548,"lon":5.38029,"is_reserved":false,"is_disabled":false,"rental_uris":{"android":"levelo://app?vid=65d448da-6e54-4825-a5bc-23d6e62c6b82","ios":"levelo://app?vid=65d448da-6e54-4825-a5bc-23d6e62c6b82"},"vehicle_type_id":"4","last_reported":1728134001,"current_range_meters":4400,"station_id":"","pricing_plan_id":"cebpf4jnsgd1na2vs0mg"},{"bike_id":"5d5a6513-1c73-4e32-9b67-1d9451a2d17a","system_id":"levelo_inurba_marseille","lat":43.23061,"lon":5.35486,"is_reserved":false,"is_disabled":false,"rental_uris":{"android":"levelo://app?vid=5d5a6513-1c73-4e32-9b67-1d9451a2d17a","ios":"levelo://app?vid=5d5a6513-1c73-4e32-9b67-1d9451a2d17a"},"vehicle_type_id":"4","last_reported":1728134001,"current_range_meters":22400,"station_id":"cpo3342slgdg3j2ifvpg","pricing_plan_id":"cebpf4jnsgd1na2vs0mg"},{"bike_id":"491813ec-5bcd-4eda-acb2-c01ccb4e9894","system_id":"levelo_inurba_marseille","lat":43.33784,"lon":5.37443,"is_reserved":false,"is_disabled":false,"rental_uris":{"android":"levelo://app?vid=491813ec-5bcd-4eda-acb2-c01ccb4e9894","ios":"levelo://app?vid=491813ec-5bcd-4eda-acb2-c01ccb4e9894"},"vehicle_type_id":"4","last_reported":1728134001,"current_range_meters":36800,"station_id":"","pricing_plan_id":"cebpf4jnsgd1na2vs0mg"},{"bike_id":"4d7e810a-1cb2-4a64-a107-0a5aacd86b06","system_id":"levelo_inurba_marseille","lat":43.305994,"lon":5.393619,"is_reserved":false,"is_disabled":false,"rental_uris":{"android":"levelo://app?vid=4d7e810a-1cb2-4a64-a107-0a5aacd86b06","ios":"levelo://app?vid=4d7e810a-1cb2-4a64-a107-0a5aacd86b06"},"vehicle_type_id":"4","last_reported":1728134001,"current_range_meters":4000,"station_id":"ce4bh392rcd13ifvqdm0","pricing_plan_id":"cebpf4jnsgd1na2vs0mg"},{"bike_id":"55d4cda0-dbc0-4c6e-9c73-196326286778","system_id":"levelo_inurba_marseille","lat":43.2737,"lon":5.36257,"is_reserved":false,"is_disabled":false,"rental_uris":{"android":"levelo://app?vid=55d4cda0-dbc0-4c6e-9c73-196326286778","ios":"levelo://app?vid=55d4cda0-dbc0-4c6e-9c73-196326286778"},"vehicle_type_id":"4","last_reported":1728134001,"current_range_meters":16400,"station_id":"ce4bhbh2rcd13ifvqeo0","pricing_plan_id":"cebpf4jnsgd1na2vs0mg"},{"bike_id":"baba7691-81ff-4c7d-90d9-c89eba9696cb","system_id":"levelo_inurba_marseille","lat":43.25929,"lon":5.40912,"is_reserved":false,"is_disabled":false,"rental_uris":{"android":"levelo://app?vid=baba7691-81ff-4c7d-90d9-c89eba9696cb","ios":"levelo://app?vid=baba7691-81ff-4c7d-90d9-c89eba9696cb"},"vehicle_type_id":"4","last_reported":1728134001,"current_range_meters":36800,"station_id":"ce4bhm92rcd13ifvqglg","pricing_plan_id":"cebpf4jnsgd1na2vs0mg"},{"bike_id":"8398f01b-0c89-49cd-bea3-9feffbf7b091","system_id":"levelo_inurba_marseille","lat":43.30802,"lon":5.43519,"is_reserved":false,"is_disabled":false,"rental_uris":{"android":"levelo://app?vid=8398f01b-0c89-49cd-bea3-9feffbf7b091","ios":"levelo://app?vid=8398f01b-0c89-49cd-bea3-9feffbf7b091"},"vehicle_type_id":"4","last_reported":1728134001,"current_range_meters":25600,"station_id":"ce4bhph2rcd13ifvqheg","pricing_plan_id":"cebpf4jnsgd1na2vs0mg"},{"bike_id":"b357fbb9-27ed-4618-b14e-833fc65f4c3e","system_id":"levelo_inurba_marseille","lat":43.27314,"lon":5.39077,"is_reserved":false,"is_disabled":false,"rental_uris":{"android":"levelo://app?vid=b357fbb9-27ed-4618-b14e-833fc65f4c3e","ios":"levelo://app?vid=b357fbb9-27ed-4618-b14e-833fc65f4c3e"},"vehicle_type_id":"4","last_reported":1728134001,"current_range_meters":25200,"station_id":"ce4bhgp2rcd13ifvqfe0","pricing_plan_id":"cebpf4jnsgd1na2vs0mg"},{"bike_id":"003f79fe-6d41-46f1-841e-89c95bada677","system_id":"levelo_inurba_marseille","lat":43.22933,"lon":5.35373,"is_reserved":false,"is_disabled":false,"rental_uris":{"android":"levelo://app?vid=003f79fe-6d41-46f1-841e-89c95bada677","ios":"levelo://app?vid=003f79fe-6d41-46f1-841e-89c95bada677"},"vehicle_type_id":"4","last_reported":1728134001,"current_range_meters":27200,"station_id":"cpo3532slgdg3j2ikp40","pricing_plan_id":"cebpf4jnsgd1na2vs0mg"},{"bike_id":"8c1e930f-9fd1-4dbc-b3d8-12d463da78c2","system_id":"levelo_inurba_marseille","lat":43.25867,"lon":5.39895,"is_reserved":false,"is_disabled":false,"rental_uris":{"android":"levelo://app?vid=8c1e930f-9fd1-4dbc-b3d8-12d463da78c2","ios":"levelo://app?vid=8c1e930f-9fd1-4dbc-b3d8-12d463da78c2"},"vehicle_type_id":"4","last_reported":1728134001,"current_range_meters":38400,"station_id":"ce4bhl92rcd13ifvqghg","pricing_plan_id":"cebpf4jnsgd1na2vs0mg"},{"bike_id":"03fbec81-2a94-48dd-a306-be269f429402","system_id":"levelo_inurba_marseille","lat":43.2737,"lon":5.36259,"is_reserved":false,"is_disabled":false,"rental_uris":{"android":"levelo://app?vid=03fbec81-2a94-48dd-a306-be269f429402","ios":"levelo://app?vid=03fbec81-2a94-48dd-a306-be269f429402"},"vehicle_type_id":"4","last_reported":1728134001,"current_range_meters":37600,"station_id":"ce4bhbh2rcd13ifvqeo0","pricing_plan_id":"cebpf4jnsgd1na2vs0mg"},{"bike_id":"e5e43828-a215-457d-9526-dc97b02d3d09","system_id":"levelo_inurba_marseille","lat":43.23967,"lon":5.36621,"is_reserved":false,"is_disabled":false,"rental_uris":{"android":"levelo://app?vid=e5e43828-a215-457d-9526-dc97b02d3d09","ios":"levelo://app?vid=e5e43828-a215-457d-9526-dc97b02d3d09"},"vehicle_type_id":"4","last_reported":1728134001,"current_range_meters":20800,"station_id":"ce4bhi12rcd13ifvqfp0","pricing_plan_id":"cebpf4jnsgd1na2vs0mg"},{"bike_id":"3aafb614-c0fb-49bd-9fdd-12ff71c46a4d","system_id":"levelo_inurba_marseille","lat":43.28997,"lon":5.35607,"is_reserved":false,"is_disabled":false,"rental_uris":{"android":"levelo://app?vid=3aafb614-c0fb-49bd-9fdd-12ff71c46a4d","ios":"levelo://app?vid=3aafb614-c0fb-49bd-9fdd-12ff71c46a4d"},"vehicle_type_id":"4","last_reported":1728134001,"current_range_meters":36800,"station_id":"ce4bhb92rcd13ifvqen0","pricing_plan_id":"cebpf4jnsgd1na2vs0mg"},{"bike_id":"bcf80a46-b001-4153-8512-774166a3a6f3","system_id":"levelo_inurba_marseille","lat":43.27324,"lon":5.39073,"is_reserved":false,"is_disabled":false,"rental_uris":{"android":"levelo://app?vid=bcf80a46-b001-4153-8512-774166a3a6f3","ios":"levelo://app?vid=bcf80a46-b001-4153-8512-774166a3a6f3"},"vehicle_type_id":"4","last_reported":1728134001,"current_range_meters":6400,"station_id":"ce4bhgp2rcd13ifvqfe0","pricing_plan_id":"cebpf4jnsgd1na2vs0mg"},{"bike_id":"4af55307-045f-4c66-a045-a91d88bb4c16","system_id":"levelo_inurba_marseille","lat":43.33764,"lon":5.37431,"is_reserved":false,"is_disabled":false,"rental_uris":{"android":"levelo://app?vid=4af55307-045f-4c66-a045-a91d88bb4c16","ios":"levelo://app?vid=4af55307-045f-4c66-a045-a91d88bb4c16"},"vehicle_type_id":"4","last_reported":1728134001,"current_range_meters":35600,"station_id":"","pricing_plan_id":"cebpf4jnsgd1na2vs0mg"},{"bike_id":"048b48e2-fdf6-4f53-aa74-369aa9ffb52c","system_id":"levelo_inurba_marseille","lat":43.23148,"lon":5.43718,"is_reserved":false,"is_disabled":false,"rental_uris":{"android":"levelo://app?vid=048b48e2-fdf6-4f53-aa74-369aa9ffb52c","ios":"levelo://app?vid=048b48e2-fdf6-4f53-aa74-369aa9ffb52c"},"vehicle_type_id":"4","last_reported":1728134001,"current_range_meters":38800,"station_id":"ce4bhmp2rcd13ifvqgog","pricing_plan_id":"cebpf4jnsgd1na2vs0mg"},{"bike_id":"e756f7bf-048d-4602-8960-fecb6745cc19","system_id":"levelo_inurba_marseille","lat":43.27369,"lon":5.36254,"is_reserved":false,"is_disabled":false,"rental_uris":{"android":"levelo://app?vid=e756f7bf-048d-4602-8960-fecb6745cc19","ios":"levelo://app?vid=e756f7bf-048d-4602-8960-fecb6745cc19"},"vehicle_type_id":"4","last_reported":1728134001,"current_range_meters":26000,"station_id":"ce4bhbh2rcd13ifvqeo0","pricing_plan_id":"cebpf4jnsgd1na2vs0mg"},{"bike_id":"13a35d1a-1c21-4cdd-9282-17040c700716","system_id":"levelo_inurba_marseille","lat":43.32542,"lon":5.41443,"is_reserved":false,"is_disabled":false,"rental_uris":{"android":"levelo://app?vid=13a35d1a-1c21-4cdd-9282-17040c700716","ios":"levelo://app?vid=13a35d1a-1c21-4cdd-9282-17040c700716"},"vehicle_type_id":"4","last_reported":1728134001,"current_range_meters":38000,"station_id":"ce4bhq12rcd13ifvqhhg","pricing_plan_id":"cebpf4jnsgd1na2vs0mg"},{"bike_id":"9bfb7efb-b4ad-4d30-b46e-98fb290d3a76","system_id":"levelo_inurba_marseille","lat":43.2962,"lon":5.37156,"is_reserved":false,"is_disabled":false,"rental_uris":{"android":"levelo://app?vid=9bfb7efb-b4ad-4d30-b46e-98fb290d3a76","ios":"levelo://app?vid=9bfb7efb-b4ad-4d30-b46e-98fb290d3a76"},"vehicle_type_id":"4","last_reported":1728134001,"current_range_meters":38000,"station_id":"ce4bgnh2rcd13ifvqc0g","pricing_plan_id":"cebpf4jnsgd1na2vs0mg"},{"bike_id":"4facc4e5-c778-4d0b-b5ef-07c2dbdb2ff7","system_id":"levelo_inurba_marseille","lat":43.28264,"lon":5.35062,"is_reserved":false,"is_disabled":false,"rental_uris":{"android":"levelo://app?vid=4facc4e5-c778-4d0b-b5ef-07c2dbdb2ff7","ios":"levelo://app?vid=4facc4e5-c778-4d0b-b5ef-07c2dbdb2ff7"},"vehicle_type_id":"4","last_reported":1728134001,"current_range_meters":30400,"station_id":"ce4bhbp2rcd13ifvqerg","pricing_plan_id":"cebpf4jnsgd1na2vs0mg"},{"bike_id":"b24e1038-08a4-4c1c-9143-7a6915e15699","system_id":"levelo_inurba_marseille","lat":43.27372,"lon":5.36254,"is_reserved":false,"is_disabled":false,"rental_uris":{"android":"levelo://app?vid=b24e1038-08a4-4c1c-9143-7a6915e15699","ios":"levelo://app?vid=b24e1038-08a4-4c1c-9143-7a6915e15699"},"vehicle_type_id":"4","last_reported":1728134001,"current_range_meters":8400,"station_id":"ce4bhbh2rcd13ifvqeo0","pricing_plan_id":"cebpf4jnsgd1na2vs0mg"},{"bike_id":"0799626e-22fc-4ce8-9c32-01dd45f00ff6","system_id":"levelo_inurba_marseille","lat":43.25583,"lon":5.38245,"is_reserved":false,"is_disabled":false,"rental_uris":{"android":"levelo://app?vid=0799626e-22fc-4ce8-9c32-01dd45f00ff6","ios":"levelo://app?vid=0799626e-22fc-4ce8-9c32-01dd45f00ff6"},"vehicle_type_id":"4","last_reported":1728134001,"current_range_meters":20000,"station_id":"ce4bhih2rcd13ifvqfs0","pricing_plan_id":"cebpf4jnsgd1na2vs0mg"},{"bike_id":"696644f5-1423-4196-8c71-bccdf5f2a225","system_id":"levelo_inurba_marseille","lat":43.2842,"lon":5.34987,"is_reserved":false,"is_disabled":false,"rental_uris":{"android":"levelo://app?vid=696644f5-1423-4196-8c71-bccdf5f2a225","ios":"levelo://app?vid=696644f5-1423-4196-8c71-bccdf5f2a225"},"vehicle_type_id":"4","last_reported":1728134001,"current_range_meters":38000,"station_id":"ce4bhbh2rcd13ifvqepg","pricing_plan_id":"cebpf4jnsgd1na2vs0mg"},{"bike_id":"afb833f8-2a8f-416b-9edc-80e19206939a","system_id":"levelo_inurba_marseille","lat":43.22929,"lon":5.35373,"is_reserved":false,"is_disabled":false,"rental_uris":{"android":"levelo://app?vid=afb833f8-2a8f-416b-9edc-80e19206939a","ios":"levelo://app?vid=afb833f8-2a8f-416b-9edc-80e19206939a"},"vehicle_type_id":"4","last_reported":1728134001,"current_range_meters":12800,"station_id":"cpo3532slgdg3j2ikp40","pricing_plan_id":"cebpf4jnsgd1na2vs0mg"},{"bike_id":"47b63ec9-5455-4371-a0f6-d02c2e048c54","system_id":"levelo_inurba_marseille","lat":43.28406,"lon":5.34973,"is_reserved":false,"is_disabled":false,"rental_uris":{"android":"levelo://app?vid=47b63ec9-5455-4371-a0f6-d02c2e048c54","ios":"levelo://app?vid=47b63ec9-5455-4371-a0f6-d02c2e048c54"},"vehicle_type_id":"4","last_reported":1728134001,"current_range_meters":11600,"station_id":"ce4bhbh2rcd13ifvqepg","pricing_plan_id":"cebpf4jnsgd1na2vs0mg"},{"bike_id":"be5650fd-8832-47a5-92fc-d8e84d03ce71","system_id":"levelo_inurba_marseille","lat":43.30465,"lon":5.37909,"is_reserved":false,"is_disabled":false,"rental_uris":{"android":"levelo://app?vid=be5650fd-8832-47a5-92fc-d8e84d03ce71","ios":"levelo://app?vid=be5650fd-8832-47a5-92fc-d8e84d03ce71"},"vehicle_type_id":"4","last_reported":1728134001,"current_range_meters":5600,"station_id":"ce4bgup2rcd13ifvqcn0","pricing_plan_id":"cebpf4jnsgd1na2vs0mg"},{"bike_id":"d121a779-9cdf-42c8-b631-50afe8289345","system_id":"levelo_inurba_marseille","lat":43.29623,"lon":5.37723,"is_reserved":false,"is_disabled":false,"rental_uris":{"android":"levelo://app?vid=d121a779-9cdf-42c8-b631-50afe8289345","ios":"levelo://app?vid=d121a779-9cdf-42c8-b631-50afe8289345"},"vehicle_type_id":"4","last_reported":1728134001,"current_range_meters":22800,"station_id":"ce4bgi92rcd13ifvqb90","pricing_plan_id":"cebpf4jnsgd1na2vs0mg"},{"bike_id":"2f337cc6-9141-49b7-8d58-9e3bdedc3f11","system_id":"levelo_inurba_marseille","lat":43.23195,"lon":5.35552,"is_reserved":false,"is_disabled":false,"rental_uris":{"android":"levelo://app?vid=2f337cc6-9141-49b7-8d58-9e3bdedc3f11","ios":"levelo://app?vid=2f337cc6-9141-49b7-8d58-9e3bdedc3f11"},"vehicle_type_id":"4","last_reported":1728134001,"current_range_meters":20400,"station_id":"ce4bhu92rcd13ifvqi70","pricing_plan_id":"cebpf4jnsgd1na2vs0mg"},{"bike_id":"f8200e53-913d-40b1-b5b5-d27697b18a53","system_id":"levelo_inurba_marseille","lat":43.2857,"lon":5.3949,"is_reserved":false,"is_disabled":false,"rental_uris":{"android":"levelo://app?vid=f8200e53-913d-40b1-b5b5-d27697b18a53","ios":"levelo://app?vid=f8200e53-913d-40b1-b5b5-d27697b18a53"},"vehicle_type_id":"4","last_reported":1728134001,"current_range_meters":29600,"station_id":"ce4bh292rcd13ifvqdg0","pricing_plan_id":"cebpf4jnsgd1na2vs0mg"},{"bike_id":"560e753e-47cf-49e0-8558-93e8486c7137","system_id":"levelo_inurba_marseille","lat":43.282623,"lon":5.350476,"is_reserved":false,"is_disabled":false,"rental_uris":{"android":"levelo://app?vid=560e753e-47cf-49e0-8558-93e8486c7137","ios":"levelo://app?vid=560e753e-47cf-49e0-8558-93e8486c7137"},"vehicle_type_id":"4","last_reported":1728134001,"current_range_meters":24800,"station_id":"ce4bhbp2rcd13ifvqerg","pricing_plan_id":"cebpf4jnsgd1na2vs0mg"},{"bike_id":"2a3e8e73-9cb3-46f1-ab32-3c8afd93f4d9","system_id":"levelo_inurba_marseille","lat":43.26935,"lon":5.38912,"is_reserved":false,"is_disabled":false,"rental_uris":{"android":"levelo://app?vid=2a3e8e73-9cb3-46f1-ab32-3c8afd93f4d9","ios":"levelo://app?vid=2a3e8e73-9cb3-46f1-ab32-3c8afd93f4d9"},"vehicle_type_id":"4","last_reported":1728134001,"current_range_meters":23200,"station_id":"ce4bhhh2rcd13ifvqfl0","pricing_plan_id":"cebpf4jnsgd1na2vs0mg"},{"bike_id":"db981661-0e24-4757-bdf7-473bbc2a9be4","system_id":"levelo_inurba_marseille","lat":43.22931,"lon":5.35377,"is_reserved":false,"is_disabled":false,"rental_uris":{"android":"levelo://app?vid=db981661-0e24-4757-bdf7-473bbc2a9be4","ios":"levelo://app?vid=db981661-0e24-4757-bdf7-473bbc2a9be4"},"vehicle_type_id":"4","last_reported":1728134001,"current_range_meters":38000,"station_id":"cpo3532slgdg3j2ikp40","pricing_plan_id":"cebpf4jnsgd1na2vs0mg"},{"bike_id":"bcac455c-9902-48bf-b9b1-3c1b965f772f","system_id":"levelo_inurba_marseille","lat":43.28417,"lon":5.34986,"is_reserved":false,"is_disabled":false,"rental_uris":{"android":"levelo://app?vid=bcac455c-9902-48bf-b9b1-3c1b965f772f","ios":"levelo://app?vid=bcac455c-9902-48bf-b9b1-3c1b965f772f"},"vehicle_type_id":"4","last_reported":1728134001,"current_range_meters":29600,"station_id":"ce4bhbh2rcd13ifvqepg","pricing_plan_id":"cebpf4jnsgd1na2vs0mg"},{"bike_id":"72bbe761-9e6f-4875-967a-637883cd8459","system_id":"levelo_inurba_marseille","lat":43.24999,"lon":5.38931,"is_reserved":false,"is_disabled":false,"rental_uris":{"android":"levelo://app?vid=72bbe761-9e6f-4875-967a-637883cd8459","ios":"levelo://app?vid=72bbe761-9e6f-4875-967a-637883cd8459"},"vehicle_type_id":"4","last_reported":1728134001,"current_range_meters":38800,"station_id":"ce4bhgp2rcd13ifvqfd0","pricing_plan_id":"cebpf4jnsgd1na2vs0mg"},{"bike_id":"94f0f01f-ace1-467f-99b8-1c8953aef106","system_id":"levelo_inurba_marseille","lat":43.309463,"lon":5.390301,"is_reserved":false,"is_disabled":false,"rental_uris":{"android":"levelo://app?vid=94f0f01f-ace1-467f-99b8-1c8953aef106","ios":"levelo://app?vid=94f0f01f-ace1-467f-99b8-1c8953aef106"},"vehicle_type_id":"4","last_reported":1728134001,"current_range_meters":35600,"station_id":"ce4bgup2rcd13ifvqco0","pricing_plan_id":"cebpf4jnsgd1na2vs0mg"},{"bike_id":"7b940829-df84-4287-87e4-a224b1b8c44b","system_id":"levelo_inurba_marseille","lat":43.28619,"lon":5.35101,"is_reserved":false,"is_disabled":false,"rental_uris":{"android":"levelo://app?vid=7b940829-df84-4287-87e4-a224b1b8c44b","ios":"levelo://app?vid=7b940829-df84-4287-87e4-a224b1b8c44b"},"vehicle_type_id":"4","last_reported":1728134001,"current_range_meters":4400,"station_id":"ce4bhch2rcd13ifvqeug","pricing_plan_id":"cebpf4jnsgd1na2vs0mg"},{"bike_id":"73350923-75a5-4e5e-8947-1d0093426920","system_id":"levelo_inurba_marseille","lat":43.29004,"lon":5.35609,"is_reserved":false,"is_disabled":false,"rental_uris":{"android":"levelo://app?vid=73350923-75a5-4e5e-8947-1d0093426920","ios":"levelo://app?vid=73350923-75a5-4e5e-8947-1d0093426920"},"vehicle_type_id":"4","last_reported":1728134001,"current_range_meters":15200,"station_id":"ce4bhb92rcd13ifvqen0","pricing_plan_id":"cebpf4jnsgd1na2vs0mg"},{"bike_id":"fcfb42de-cde1-4ec3-8e89-f197fdfcc1a8","system_id":"levelo_inurba_marseille","lat":43.23967,"lon":5.3663,"is_reserved":false,"is_disabled":false,"rental_uris":{"android":"levelo://app?vid=fcfb42de-cde1-4ec3-8e89-f197fdfcc1a8","ios":"levelo://app?vid=fcfb42de-cde1-4ec3-8e89-f197fdfcc1a8"},"vehicle_type_id":"4","last_reported":1728134001,"current_range_meters":38800,"station_id":"ce4bhi12rcd13ifvqfp0","pricing_plan_id":"cebpf4jnsgd1na2vs0mg"},{"bike_id":"7101b9db-d328-47cf-a085-f83e3e2a7f92","system_id":"levelo_inurba_marseille","lat":43.268039,"lon":5.402636,"is_reserved":false,"is_disabled":false,"rental_uris":{"android":"levelo://app?vid=7101b9db-d328-47cf-a085-f83e3e2a7f92","ios":"levelo://app?vid=7101b9db-d328-47cf-a085-f83e3e2a7f92"},"vehicle_type_id":"4","last_reported":1728134001,"current_range_meters":8400,"station_id":"ce501612rcd8frsf0b60","pricing_plan_id":"cebpf4jnsgd1na2vs0mg"},{"bike_id":"c00d56df-3d94-4378-a507-25fefbac731b","system_id":"levelo_inurba_marseille","lat":43.23147,"lon":5.43718,"is_reserved":false,"is_disabled":false,"rental_uris":{"android":"levelo://app?vid=c00d56df-3d94-4378-a507-25fefbac731b","ios":"levelo://app?vid=c00d56df-3d94-4378-a507-25fefbac731b"},"vehicle_type_id":"4","last_reported":1728134001,"current_range_meters":33600,"station_id":"ce4bhmp2rcd13ifvqgog","pricing_plan_id":"cebpf4jnsgd1na2vs0mg"},{"bike_id":"9b20213d-3b6d-4970-bbc8-1bdf51f25874","system_id":"levelo_inurba_marseille","lat":43.23189,"lon":5.39985,"is_reserved":false,"is_disabled":false,"rental_uris":{"android":"levelo://app?vid=9b20213d-3b6d-4970-bbc8-1bdf51f25874","ios":"levelo://app?vid=9b20213d-3b6d-4970-bbc8-1bdf51f25874"},"vehicle_type_id":"4","last_reported":1728134001,"current_range_meters":6800,"station_id":"ce4bhn12rcd13ifvqgqg","pricing_plan_id":"cebpf4jnsgd1na2vs0mg"},{"bike_id":"9248fc6b-ce47-46e3-ab72-f59c08864c25","system_id":"levelo_inurba_marseille","lat":43.28418,"lon":5.34983,"is_reserved":false,"is_disabled":false,"rental_uris":{"android":"levelo://app?vid=9248fc6b-ce47-46e3-ab72-f59c08864c25","ios":"levelo://app?vid=9248fc6b-ce47-46e3-ab72-f59c08864c25"},"vehicle_type_id":"4","last_reported":1728134001,"current_range_meters":18000,"station_id":"ce4bhbh2rcd13ifvqepg","pricing_plan_id":"cebpf4jnsgd1na2vs0mg"},{"bike_id":"9a317d38-5a39-429c-bc04-e393c32ed944","system_id":"levelo_inurba_marseille","lat":43.26792,"lon":5.39407,"is_reserved":false,"is_disabled":false,"rental_uris":{"android":"levelo://app?vid=9a317d38-5a39-429c-bc04-e393c32ed944","ios":"levelo://app?vid=9a317d38-5a39-429c-bc04-e393c32ed944"},"vehicle_type_id":"4","last_reported":1728134001,"current_range_meters":13600,"station_id":"ce4bhh12rcd13ifvqfg0","pricing_plan_id":"cebpf4jnsgd1na2vs0mg"},{"bike_id":"79b9780c-0672-46ff-af34-19be6dec4043","system_id":"levelo_inurba_marseille","lat":43.3171,"lon":5.43707,"is_reserved":false,"is_disabled":false,"rental_uris":{"android":"levelo://app?vid=79b9780c-0672-46ff-af34-19be6dec4043","ios":"levelo://app?vid=79b9780c-0672-46ff-af34-19be6dec4043"},"vehicle_type_id":"4","last_reported":1728134001,"current_range_meters":24400,"station_id":"ce4bhp92rcd13ifvqhcg","pricing_plan_id":"cebpf4jnsgd1na2vs0mg"},{"bike_id":"757b11d9-6675-4fc4-b209-4e6e86b5bf6d","system_id":"levelo_inurba_marseille","lat":43.23064,"lon":5.35484,"is_reserved":false,"is_disabled":false,"rental_uris":{"android":"levelo://app?vid=757b11d9-6675-4fc4-b209-4e6e86b5bf6d","ios":"levelo://app?vid=757b11d9-6675-4fc4-b209-4e6e86b5bf6d"},"vehicle_type_id":"4","last_reported":1728134001,"current_range_meters":18800,"station_id":"cpo3342slgdg3j2ifvpg","pricing_plan_id":"cebpf4jnsgd1na2vs0mg"},{"bike_id":"71d7dac5-a0f7-4b66-a568-5d09c1ceac85","system_id":"levelo_inurba_marseille","lat":43.286102,"lon":5.351045,"is_reserved":false,"is_disabled":false,"rental_uris":{"android":"levelo://app?vid=71d7dac5-a0f7-4b66-a568-5d09c1ceac85","ios":"levelo://app?vid=71d7dac5-a0f7-4b66-a568-5d09c1ceac85"},"vehicle_type_id":"4","last_reported":1728134001,"current_range_meters":21600,"station_id":"ce4bhch2rcd13ifvqeug","pricing_plan_id":"cebpf4jnsgd1na2vs0mg"},{"bike_id":"ae38b8b2-3a5d-4f87-b460-38cf07201e87","system_id":"levelo_inurba_marseille","lat":43.23056,"lon":5.3549,"is_reserved":false,"is_disabled":false,"rental_uris":{"android":"levelo://app?vid=ae38b8b2-3a5d-4f87-b460-38cf07201e87","ios":"levelo://app?vid=ae38b8b2-3a5d-4f87-b460-38cf07201e87"},"vehicle_type_id":"4","last_reported":1728134001,"current_range_meters":31200,"station_id":"cpo3342slgdg3j2ifvpg","pricing_plan_id":"cebpf4jnsgd1na2vs0mg"},{"bike_id":"e19b1534-7c99-4fb8-bf6a-8ba1bcc29923","system_id":"levelo_inurba_marseille","lat":43.23151,"lon":5.43708,"is_reserved":false,"is_disabled":false,"rental_uris":{"android":"levelo://app?vid=e19b1534-7c99-4fb8-bf6a-8ba1bcc29923","ios":"levelo://app?vid=e19b1534-7c99-4fb8-bf6a-8ba1bcc29923"},"vehicle_type_id":"4","last_reported":1728134001,"current_range_meters":19600,"station_id":"ce4bhmp2rcd13ifvqgog","pricing_plan_id":"cebpf4jnsgd1na2vs0mg"},{"bike_id":"f60e19bf-f823-439a-9dfd-2cf90541d354","system_id":"levelo_inurba_marseille","lat":43.31879,"lon":5.40725,"is_reserved":false,"is_disabled":false,"rental_uris":{"android":"levelo://app?vid=f60e19bf-f823-439a-9dfd-2cf90541d354","ios":"levelo://app?vid=f60e19bf-f823-439a-9dfd-2cf90541d354"},"vehicle_type_id":"4","last_reported":1728134001,"current_range_meters":13600,"station_id":"ce4bhq12rcd13ifvqhig","pricing_plan_id":"cebpf4jnsgd1na2vs0mg"},{"bike_id":"24e8665c-c387-4bce-a92a-51df3b36226c","system_id":"levelo_inurba_marseille","lat":43.23194,"lon":5.35545,"is_reserved":false,"is_disabled":false,"rental_uris":{"android":"levelo://app?vid=24e8665c-c387-4bce-a92a-51df3b36226c","ios":"levelo://app?vid=24e8665c-c387-4bce-a92a-51df3b36226c"},"vehicle_type_id":"4","last_reported":1728134001,"current_range_meters":8800,"station_id":"ce4bhu92rcd13ifvqi70","pricing_plan_id":"cebpf4jnsgd1na2vs0mg"},{"bike_id":"78f819b8-85ba-4563-a6ef-d45e6873584d","system_id":"levelo_inurba_marseille","lat":43.31086,"lon":5.42428,"is_reserved":false,"is_disabled":false,"rental_uris":{"android":"levelo://app?vid=78f819b8-85ba-4563-a6ef-d45e6873584d","ios":"levelo://app?vid=78f819b8-85ba-4563-a6ef-d45e6873584d"},"vehicle_type_id":"4","last_reported":1728134001,"current_range_meters":24400,"station_id":"ce4bhp92rcd13ifvqhag","pricing_plan_id":"cebpf4jnsgd1na2vs0mg"},{"bike_id":"e0723e12-9fff-4915-bfe2-10751146dd04","system_id":"levelo_inurba_marseille","lat":43.27431,"lon":5.39408,"is_reserved":false,"is_disabled":false,"rental_uris":{"android":"levelo://app?vid=e0723e12-9fff-4915-bfe2-10751146dd04","ios":"levelo://app?vid=e0723e12-9fff-4915-bfe2-10751146dd04"},"vehicle_type_id":"4","last_reported":1728134001,"current_range_meters":36400,"station_id":"ce4bhdp2rcd13ifvqf20","pricing_plan_id":"cebpf4jnsgd1na2vs0mg"},{"bike_id":"2dfa250e-fa81-43be-b763-8f49843284b7","system_id":"levelo_inurba_marseille","lat":43.23187,"lon":5.39983,"is_reserved":false,"is_disabled":false,"rental_uris":{"android":"levelo://app?vid=2dfa250e-fa81-43be-b763-8f49843284b7","ios":"levelo://app?vid=2dfa250e-fa81-43be-b763-8f49843284b7"},"vehicle_type_id":"4","last_reported":1728134001,"current_range_meters":38800,"station_id":"ce4bhn12rcd13ifvqgqg","pricing_plan_id":"cebpf4jnsgd1na2vs0mg"},{"bike_id":"14960566-9ea5-45a5-997b-2fee6922b52f","system_id":"levelo_inurba_marseille","lat":43.31218,"lon":5.36857,"is_reserved":false,"is_disabled":false,"rental_uris":{"android":"levelo://app?vid=14960566-9ea5-45a5-997b-2fee6922b52f","ios":"levelo://app?vid=14960566-9ea5-45a5-997b-2fee6922b52f"},"vehicle_type_id":"4","last_reported":1728134001,"current_range_meters":30800,"station_id":"ce4bgl92rcd13ifvqbq0","pricing_plan_id":"cebpf4jnsgd1na2vs0mg"},{"bike_id":"adfdb9eb-b920-4581-9286-352ccab2a2ee","system_id":"levelo_inurba_marseille","lat":43.27995,"lon":5.40014,"is_reserved":false,"is_disabled":false,"rental_uris":{"android":"levelo://app?vid=adfdb9eb-b920-4581-9286-352ccab2a2ee","ios":"levelo://app?vid=adfdb9eb-b920-4581-9286-352ccab2a2ee"},"vehicle_type_id":"4","last_reported":1728134001,"current_range_meters":18000,"station_id":"ce4bho92rcd13ifvqh4g","pricing_plan_id":"cebpf4jnsgd1na2vs0mg"},{"bike_id":"0f834a8d-8504-430c-be41-c4596ae7a26d","system_id":"levelo_inurba_marseille","lat":43.26558,"lon":5.37283,"is_reserved":false,"is_disabled":false,"rental_uris":{"android":"levelo://app?vid=0f834a8d-8504-430c-be41-c4596ae7a26d","ios":"levelo://app?vid=0f834a8d-8504-430c-be41-c4596ae7a26d"},"vehicle_type_id":"4","last_reported":1728134001,"current_range_meters":34000,"station_id":"ce4bhg12rcd13ifvqf70","pricing_plan_id":"cebpf4jnsgd1na2vs0mg"},{"bike_id":"c1f127fe-5d34-4098-836e-b598a6b9dab7","system_id":"levelo_inurba_marseille","lat":43.29219,"lon":5.36045,"is_reserved":false,"is_disabled":false,"rental_uris":{"android":"levelo://app?vid=c1f127fe-5d34-4098-836e-b598a6b9dab7","ios":"levelo://app?vid=c1f127fe-5d34-4098-836e-b598a6b9dab7"},"vehicle_type_id":"4","last_reported":1728134001,"current_range_meters":23200,"station_id":"ce4bhbh2rcd13ifvqeqg","pricing_plan_id":"cebpf4jnsgd1na2vs0mg"},{"bike_id":"28b6c2e7-f1bd-4f4b-b006-3d8889ed4ea2","system_id":"levelo_inurba_marseille","lat":43.31527,"lon":5.38032,"is_reserved":false,"is_disabled":false,"rental_uris":{"android":"levelo://app?vid=28b6c2e7-f1bd-4f4b-b006-3d8889ed4ea2","ios":"levelo://app?vid=28b6c2e7-f1bd-4f4b-b006-3d8889ed4ea2"},"vehicle_type_id":"4","last_reported":1728134001,"current_range_meters":9600,"station_id":"ce4bhsp2rcd13ifvqi50","pricing_plan_id":"cebpf4jnsgd1na2vs0mg"},{"bike_id":"e04e5431-207d-4263-8b72-762e4c4878e5","system_id":"levelo_inurba_marseille","lat":43.23056,"lon":5.35491,"is_reserved":false,"is_disabled":false,"rental_uris":{"android":"levelo://app?vid=e04e5431-207d-4263-8b72-762e4c4878e5","ios":"levelo://app?vid=e04e5431-207d-4263-8b72-762e4c4878e5"},"vehicle_type_id":"4","last_reported":1728134001,"current_range_meters":16000,"station_id":"cpo3342slgdg3j2ifvpg","pricing_plan_id":"cebpf4jnsgd1na2vs0mg"},{"bike_id":"26a9678b-d130-44f1-a8ab-f1154f7156cd","system_id":"levelo_inurba_marseille","lat":43.28272,"lon":5.35068,"is_reserved":false,"is_disabled":false,"rental_uris":{"android":"levelo://app?vid=26a9678b-d130-44f1-a8ab-f1154f7156cd","ios":"levelo://app?vid=26a9678b-d130-44f1-a8ab-f1154f7156cd"},"vehicle_type_id":"4","last_reported":1728134001,"current_range_meters":18000,"station_id":"ce4bhbp2rcd13ifvqerg","pricing_plan_id":"cebpf4jnsgd1na2vs0mg"},{"bike_id":"c2619433-b703-415c-a472-cdeb6c354975","system_id":"levelo_inurba_marseille","lat":43.3122,"lon":5.36842,"is_reserved":false,"is_disabled":false,"rental_uris":{"android":"levelo://app?vid=c2619433-b703-415c-a472-cdeb6c354975","ios":"levelo://app?vid=c2619433-b703-415c-a472-cdeb6c354975"},"vehicle_type_id":"4","last_reported":1728134001,"current_range_meters":18000,"station_id":"ce4bgl92rcd13ifvqbq0","pricing_plan_id":"cebpf4jnsgd1na2vs0mg"},{"bike_id":"bea423fd-9062-4784-b005-f88ad15712a8","system_id":"levelo_inurba_marseille","lat":43.28618,"lon":5.35106,"is_reserved":false,"is_disabled":false,"rental_uris":{"android":"levelo://app?vid=bea423fd-9062-4784-b005-f88ad15712a8","ios":"levelo://app?vid=bea423fd-9062-4784-b005-f88ad15712a8"},"vehicle_type_id":"4","last_reported":1728134001,"current_range_meters":34000,"station_id":"ce4bhch2rcd13ifvqeug","pricing_plan_id":"cebpf4jnsgd1na2vs0mg"},{"bike_id":"dec9909c-e0ce-4a43-a3ca-3ab7b3aadef2","system_id":"levelo_inurba_marseille","lat":43.29551,"lon":5.42278,"is_reserved":false,"is_disabled":false,"rental_uris":{"android":"levelo://app?vid=dec9909c-e0ce-4a43-a3ca-3ab7b3aadef2","ios":"levelo://app?vid=dec9909c-e0ce-4a43-a3ca-3ab7b3aadef2"},"vehicle_type_id":"4","last_reported":1728134001,"current_range_meters":3600,"station_id":"ce4bhph2rcd13ifvqhdg","pricing_plan_id":"cebpf4jnsgd1na2vs0mg"},{"bike_id":"18244f21-4fc9-4772-af20-13d12653b477","system_id":"levelo_inurba_marseille","lat":43.31709,"lon":5.43705,"is_reserved":false,"is_disabled":false,"rental_uris":{"android":"levelo://app?vid=18244f21-4fc9-4772-af20-13d12653b477","ios":"levelo://app?vid=18244f21-4fc9-4772-af20-13d12653b477"},"vehicle_type_id":"4","last_reported":1728134001,"current_range_meters":36800,"station_id":"ce4bhp92rcd13ifvqhcg","pricing_plan_id":"cebpf4jnsgd1na2vs0mg"},{"bike_id":"f570204c-7cdc-41c2-9a2b-ca4e4119dee0","system_id":"levelo_inurba_marseille","lat":43.29271,"lon":5.38436,"is_reserved":false,"is_disabled":false,"rental_uris":{"android":"levelo://app?vid=f570204c-7cdc-41c2-9a2b-ca4e4119dee0","ios":"levelo://app?vid=f570204c-7cdc-41c2-9a2b-ca4e4119dee0"},"vehicle_type_id":"4","last_reported":1728134001,"current_range_meters":8400,"station_id":"ce4bh692rcd13ifvqea0","pricing_plan_id":"cebpf4jnsgd1na2vs0mg"},{"bike_id":"0fb7f460-51b7-4ea2-8b73-b99d84830d32","system_id":"levelo_inurba_marseille","lat":43.29628,"lon":5.40592,"is_reserved":false,"is_disabled":false,"rental_uris":{"android":"levelo://app?vid=0fb7f460-51b7-4ea2-8b73-b99d84830d32","ios":"levelo://app?vid=0fb7f460-51b7-4ea2-8b73-b99d84830d32"},"vehicle_type_id":"4","last_reported":1728134001,"current_range_meters":38000,"station_id":"ce4bh0h2rcd13ifvqd60","pricing_plan_id":"cebpf4jnsgd1na2vs0mg"},{"bike_id":"91566c25-b44f-4649-bcd1-e5af0f35a532","system_id":"levelo_inurba_marseille","lat":43.28265,"lon":5.35073,"is_reserved":false,"is_disabled":false,"rental_uris":{"android":"levelo://app?vid=91566c25-b44f-4649-bcd1-e5af0f35a532","ios":"levelo://app?vid=91566c25-b44f-4649-bcd1-e5af0f35a532"},"vehicle_type_id":"4","last_reported":1728134001,"current_range_meters":11600,"station_id":"ce4bhbp2rcd13ifvqerg","pricing_plan_id":"cebpf4jnsgd1na2vs0mg"},{"bike_id":"55235897-e772-426a-b2d3-9bc3b7917106","system_id":"levelo_inurba_marseille","lat":43.22932,"lon":5.35371,"is_reserved":false,"is_disabled":false,"rental_uris":{"android":"levelo://app?vid=55235897-e772-426a-b2d3-9bc3b7917106","ios":"levelo://app?vid=55235897-e772-426a-b2d3-9bc3b7917106"},"vehicle_type_id":"4","last_reported":1728134001,"current_range_meters":27200,"station_id":"cpo3532slgdg3j2ikp40","pricing_plan_id":"cebpf4jnsgd1na2vs0mg"},{"bike_id":"d1a48150-c56c-4258-9ef8-75affe065179","system_id":"levelo_inurba_marseille","lat":43.240817,"lon":5.37758,"is_reserved":false,"is_disabled":false,"rental_uris":{"android":"levelo://app?vid=d1a48150-c56c-4258-9ef8-75affe065179","ios":"levelo://app?vid=d1a48150-c56c-4258-9ef8-75affe065179"},"vehicle_type_id":"4","last_reported":1728134001,"current_range_meters":36000,"station_id":"ce4bhnp2rcd13ifvqgvg","pricing_plan_id":"cebpf4jnsgd1na2vs0mg"},{"bike_id":"59207f80-49b5-42ac-bb06-77755ab51403","system_id":"levelo_inurba_marseille","lat":43.22931,"lon":5.35377,"is_reserved":false,"is_disabled":false,"rental_uris":{"android":"levelo://app?vid=59207f80-49b5-42ac-bb06-77755ab51403","ios":"levelo://app?vid=59207f80-49b5-42ac-bb06-77755ab51403"},"vehicle_type_id":"4","last_reported":1728134001,"current_range_meters":37600,"station_id":"cpo3532slgdg3j2ikp40","pricing_plan_id":"cebpf4jnsgd1na2vs0mg"},{"bike_id":"0cdc0b25-f51b-449e-9863-f2104e0866e8","system_id":"levelo_inurba_marseille","lat":43.23059,"lon":5.35487,"is_reserved":false,"is_disabled":false,"rental_uris":{"android":"levelo://app?vid=0cdc0b25-f51b-449e-9863-f2104e0866e8","ios":"levelo://app?vid=0cdc0b25-f51b-449e-9863-f2104e0866e8"},"vehicle_type_id":"4","last_reported":1728134001,"current_range_meters":24000,"station_id":"cpo3342slgdg3j2ifvpg","pricing_plan_id":"cebpf4jnsgd1na2vs0mg"},{"bike_id":"96eb4682-19b8-4675-bab3-3275719e76a8","system_id":"levelo_inurba_marseille","lat":43.34143,"lon":5.40902,"is_reserved":false,"is_disabled":false,"rental_uris":{"android":"levelo://app?vid=96eb4682-19b8-4675-bab3-3275719e76a8","ios":"levelo://app?vid=96eb4682-19b8-4675-bab3-3275719e76a8"},"vehicle_type_id":"4","last_reported":1728134001,"current_range_meters":28000,"station_id":"ce4bhqh2rcd13ifvqhlg","pricing_plan_id":"cebpf4jnsgd1na2vs0mg"},{"bike_id":"635a9f02-69b9-4e5e-b5e5-da23f579a775","system_id":"levelo_inurba_marseille","lat":43.28415,"lon":5.34996,"is_reserved":false,"is_disabled":false,"rental_uris":{"android":"levelo://app?vid=635a9f02-69b9-4e5e-b5e5-da23f579a775","ios":"levelo://app?vid=635a9f02-69b9-4e5e-b5e5-da23f579a775"},"vehicle_type_id":"4","last_reported":1728134001,"current_range_meters":38800,"station_id":"ce4bhbh2rcd13ifvqepg","pricing_plan_id":"cebpf4jnsgd1na2vs0mg"},{"bike_id":"02830116-04b1-41e8-b8ba-fb8a313d2785","system_id":"levelo_inurba_marseille","lat":43.25929,"lon":5.40908,"is_reserved":false,"is_disabled":false,"rental_uris":{"android":"levelo://app?vid=02830116-04b1-41e8-b8ba-fb8a313d2785","ios":"levelo://app?vid=02830116-04b1-41e8-b8ba-fb8a313d2785"},"vehicle_type_id":"4","last_reported":1728134001,"current_range_meters":31200,"station_id":"ce4bhm92rcd13ifvqglg","pricing_plan_id":"cebpf4jnsgd1na2vs0mg"},{"bike_id":"c92fc8b0-269f-4855-a000-81fadba5ec3f","system_id":"levelo_inurba_marseille","lat":43.30556,"lon":5.36536,"is_reserved":false,"is_disabled":false,"rental_uris":{"android":"levelo://app?vid=c92fc8b0-269f-4855-a000-81fadba5ec3f","ios":"levelo://app?vid=c92fc8b0-269f-4855-a000-81fadba5ec3f"},"vehicle_type_id":"4","last_reported":1728134001,"current_range_meters":12000,"station_id":"ce4bgs12rcd13ifvqcag","pricing_plan_id":"cebpf4jnsgd1na2vs0mg"},{"bike_id":"e22204d5-248f-4c8e-b87f-5b38fdf348a2","system_id":"levelo_inurba_marseille","lat":43.28257,"lon":5.35067,"is_reserved":false,"is_disabled":false,"rental_uris":{"android":"levelo://app?vid=e22204d5-248f-4c8e-b87f-5b38fdf348a2","ios":"levelo://app?vid=e22204d5-248f-4c8e-b87f-5b38fdf348a2"},"vehicle_type_id":"4","last_reported":1728134001,"current_range_meters":28000,"station_id":"ce4bhbp2rcd13ifvqerg","pricing_plan_id":"cebpf4jnsgd1na2vs0mg"},{"bike_id":"eaa6c0c0-4076-4c5d-997e-cf42b730447a","system_id":"levelo_inurba_marseille","lat":43.28614,"lon":5.35098,"is_reserved":false,"is_disabled":false,"rental_uris":{"android":"levelo://app?vid=eaa6c0c0-4076-4c5d-997e-cf42b730447a","ios":"levelo://app?vid=eaa6c0c0-4076-4c5d-997e-cf42b730447a"},"vehicle_type_id":"4","last_reported":1728134001,"current_range_meters":17600,"station_id":"ce4bhch2rcd13ifvqeug","pricing_plan_id":"cebpf4jnsgd1na2vs0mg"},{"bike_id":"9e8cd4fd-af16-48f1-a975-9407f4a5abc0","system_id":"levelo_inurba_marseille","lat":43.29576,"lon":5.39972,"is_reserved":false,"is_disabled":false,"rental_uris":{"android":"levelo://app?vid=9e8cd4fd-af16-48f1-a975-9407f4a5abc0","ios":"levelo://app?vid=9e8cd4fd-af16-48f1-a975-9407f4a5abc0"},"vehicle_type_id":"4","last_reported":1728134001,"current_range_meters":2000,"station_id":"ce4bh312rcd13ifvqdj0","pricing_plan_id":"cebpf4jnsgd1na2vs0mg"},{"bike_id":"d8a863e7-f8e6-4396-a277-d8cbe57be00d","system_id":"levelo_inurba_marseille","lat":43.30558,"lon":5.36548,"is_reserved":false,"is_disabled":false,"rental_uris":{"android":"levelo://app?vid=d8a863e7-f8e6-4396-a277-d8cbe57be00d","ios":"levelo://app?vid=d8a863e7-f8e6-4396-a277-d8cbe57be00d"},"vehicle_type_id":"4","last_reported":1728134001,"current_range_meters":7200,"station_id":"ce4bgs12rcd13ifvqcag","pricing_plan_id":"cebpf4jnsgd1na2vs0mg"},{"bike_id":"50ba9cee-23ae-4356-9a99-06fca9f02cde","system_id":"levelo_inurba_marseille","lat":43.2938,"lon":5.37848,"is_reserved":false,"is_disabled":false,"rental_uris":{"android":"levelo://app?vid=50ba9cee-23ae-4356-9a99-06fca9f02cde","ios":"levelo://app?vid=50ba9cee-23ae-4356-9a99-06fca9f02cde"},"vehicle_type_id":"4","last_reported":1728134001,"current_range_meters":35200,"station_id":"ce4bgjh2rcd13ifvqbf0","pricing_plan_id":"cebpf4jnsgd1na2vs0mg"},{"bike_id":"bb5f5452-4b9b-417d-b148-b396a874f3d9","system_id":"levelo_inurba_marseille","lat":43.33759,"lon":5.37427,"is_reserved":false,"is_disabled":false,"rental_uris":{"android":"levelo://app?vid=bb5f5452-4b9b-417d-b148-b396a874f3d9","ios":"levelo://app?vid=bb5f5452-4b9b-417d-b148-b396a874f3d9"},"vehicle_type_id":"4","last_reported":1728134001,"current_range_meters":31200,"station_id":"","pricing_plan_id":"cebpf4jnsgd1na2vs0mg"},{"bike_id":"23a00371-5007-4988-97d0-a319a917dc38","system_id":"levelo_inurba_marseille","lat":43.23053,"lon":5.3549,"is_reserved":false,"is_disabled":false,"rental_uris":{"android":"levelo://app?vid=23a00371-5007-4988-97d0-a319a917dc38","ios":"levelo://app?vid=23a00371-5007-4988-97d0-a319a917dc38"},"vehicle_type_id":"4","last_reported":1728134001,"current_range_meters":14800,"station_id":"cpo3342slgdg3j2ifvpg","pricing_plan_id":"cebpf4jnsgd1na2vs0mg"},{"bike_id":"339379d0-d999-480d-88aa-4d631ed48008","system_id":"levelo_inurba_marseille","lat":43.23728,"lon":5.36342,"is_reserved":false,"is_disabled":false,"rental_uris":{"android":"levelo://app?vid=339379d0-d999-480d-88aa-4d631ed48008","ios":"levelo://app?vid=339379d0-d999-480d-88aa-4d631ed48008"},"vehicle_type_id":"4","last_reported":1728134001,"current_range_meters":34800,"station_id":"","pricing_plan_id":"cebpf4jnsgd1na2vs0mg"},{"bike_id":"9326976f-975c-4080-95e8-626ba3d81b3c","system_id":"levelo_inurba_marseille","lat":43.29524,"lon":5.39049,"is_reserved":false,"is_disabled":false,"rental_uris":{"android":"levelo://app?vid=9326976f-975c-4080-95e8-626ba3d81b3c","ios":"levelo://app?vid=9326976f-975c-4080-95e8-626ba3d81b3c"},"vehicle_type_id":"4","last_reported":1728134001,"current_range_meters":17200,"station_id":"ce4bh3p2rcd13ifvqdp0","pricing_plan_id":"cebpf4jnsgd1na2vs0mg"},{"bike_id":"9aa633e9-01f0-4436-b90b-e2ff99bd28ec","system_id":"levelo_inurba_marseille","lat":43.28269,"lon":5.35055,"is_reserved":false,"is_disabled":false,"rental_uris":{"android":"levelo://app?vid=9aa633e9-01f0-4436-b90b-e2ff99bd28ec","ios":"levelo://app?vid=9aa633e9-01f0-4436-b90b-e2ff99bd28ec"},"vehicle_type_id":"4","last_reported":1728134001,"current_range_meters":11200,"station_id":"ce4bhbp2rcd13ifvqerg","pricing_plan_id":"cebpf4jnsgd1na2vs0mg"},{"bike_id":"d7a0298f-5c2b-438d-ab05-5d6a7ac83160","system_id":"levelo_inurba_marseille","lat":43.30794,"lon":5.4351,"is_reserved":false,"is_disabled":false,"rental_uris":{"android":"levelo://app?vid=d7a0298f-5c2b-438d-ab05-5d6a7ac83160","ios":"levelo://app?vid=d7a0298f-5c2b-438d-ab05-5d6a7ac83160"},"vehicle_type_id":"4","last_reported":1728134001,"current_range_meters":36800,"station_id":"ce4bhph2rcd13ifvqheg","pricing_plan_id":"cebpf4jnsgd1na2vs0mg"},{"bike_id":"315f0690-7fc6-4850-bc97-2787e2ab9236","system_id":"levelo_inurba_marseille","lat":43.31491,"lon":5.37307,"is_reserved":false,"is_disabled":false,"rental_uris":{"android":"levelo://app?vid=315f0690-7fc6-4850-bc97-2787e2ab9236","ios":"levelo://app?vid=315f0690-7fc6-4850-bc97-2787e2ab9236"},"vehicle_type_id":"4","last_reported":1728134001,"current_range_meters":38800,"station_id":"ce4bgt12rcd13ifvqcd0","pricing_plan_id":"cebpf4jnsgd1na2vs0mg"},{"bike_id":"128c5cd4-d36f-4284-9306-f8fd33ea2446","system_id":"levelo_inurba_marseille","lat":43.29225,"lon":5.36055,"is_reserved":false,"is_disabled":false,"rental_uris":{"android":"levelo://app?vid=128c5cd4-d36f-4284-9306-f8fd33ea2446","ios":"levelo://app?vid=128c5cd4-d36f-4284-9306-f8fd33ea2446"},"vehicle_type_id":"4","last_reported":1728134001,"current_range_meters":38400,"station_id":"ce4bhbh2rcd13ifvqeqg","pricing_plan_id":"cebpf4jnsgd1na2vs0mg"},{"bike_id":"7fc6c0cf-ded4-49f8-b5c8-ba53c7f5cf4e","system_id":"levelo_inurba_marseille","lat":43.27317,"lon":5.39084,"is_reserved":false,"is_disabled":false,"rental_uris":{"android":"levelo://app?vid=7fc6c0cf-ded4-49f8-b5c8-ba53c7f5cf4e","ios":"levelo://app?vid=7fc6c0cf-ded4-49f8-b5c8-ba53c7f5cf4e"},"vehicle_type_id":"4","last_reported":1728134001,"current_range_meters":5600,"station_id":"ce4bhgp2rcd13ifvqfe0","pricing_plan_id":"cebpf4jnsgd1na2vs0mg"},{"bike_id":"27442616-e1a0-4140-a813-7a49a0d6abd0","system_id":"levelo_inurba_marseille","lat":43.23184,"lon":5.39975,"is_reserved":false,"is_disabled":false,"rental_uris":{"android":"levelo://app?vid=27442616-e1a0-4140-a813-7a49a0d6abd0","ios":"levelo://app?vid=27442616-e1a0-4140-a813-7a49a0d6abd0"},"vehicle_type_id":"4","last_reported":1728134001,"current_range_meters":37600,"station_id":"ce4bhn12rcd13ifvqgqg","pricing_plan_id":"cebpf4jnsgd1na2vs0mg"},{"bike_id":"4285547c-3114-4b0d-9188-c3356374994b","system_id":"levelo_inurba_marseille","lat":43.32656,"lon":5.40984,"is_reserved":false,"is_disabled":false,"rental_uris":{"android":"levelo://app?vid=4285547c-3114-4b0d-9188-c3356374994b","ios":"levelo://app?vid=4285547c-3114-4b0d-9188-c3356374994b"},"vehicle_type_id":"4","last_reported":1728134001,"current_range_meters":37600,"station_id":"ce4bhpp2rcd13ifvqhgg","pricing_plan_id":"cebpf4jnsgd1na2vs0mg"},{"bike_id":"cb1f6409-cdab-4f08-96f5-b86954b1909a","system_id":"levelo_inurba_marseille","lat":43.2885,"lon":5.39323,"is_reserved":false,"is_disabled":false,"rental_uris":{"android":"levelo://app?vid=cb1f6409-cdab-4f08-96f5-b86954b1909a","ios":"levelo://app?vid=cb1f6409-cdab-4f08-96f5-b86954b1909a"},"vehicle_type_id":"4","last_reported":1728134001,"current_range_meters":16400,"station_id":"ce4bh2p2rcd13ifvqdi0","pricing_plan_id":"cebpf4jnsgd1na2vs0mg"},{"bike_id":"2e158388-f5c8-41f9-a5e4-4688eda980c4","system_id":"levelo_inurba_marseille","lat":43.30942,"lon":5.40136,"is_reserved":false,"is_disabled":false,"rental_uris":{"android":"levelo://app?vid=2e158388-f5c8-41f9-a5e4-4688eda980c4","ios":"levelo://app?vid=2e158388-f5c8-41f9-a5e4-4688eda980c4"},"vehicle_type_id":"4","last_reported":1728134001,"current_range_meters":2000,"station_id":"ce4bgvp2rcd13ifvqct0","pricing_plan_id":"cebpf4jnsgd1na2vs0mg"},{"bike_id":"23161133-0ca2-4607-b419-0327faa07514","system_id":"levelo_inurba_marseille","lat":43.26561,"lon":5.39013,"is_reserved":false,"is_disabled":false,"rental_uris":{"android":"levelo://app?vid=23161133-0ca2-4607-b419-0327faa07514","ios":"levelo://app?vid=23161133-0ca2-4607-b419-0327faa07514"},"vehicle_type_id":"4","last_reported":1728134001,"current_range_meters":17600,"station_id":"ce4bhe12rcd13ifvqf30","pricing_plan_id":"cebpf4jnsgd1na2vs0mg"},{"bike_id":"a4b72351-5294-4a4e-9f99-717c4137f6f6","system_id":"levelo_inurba_marseille","lat":43.298981,"lon":5.384834,"is_reserved":false,"is_disabled":false,"rental_uris":{"android":"levelo://app?vid=a4b72351-5294-4a4e-9f99-717c4137f6f6","ios":"levelo://app?vid=a4b72351-5294-4a4e-9f99-717c4137f6f6"},"vehicle_type_id":"4","last_reported":1728134001,"current_range_meters":23200,"station_id":"ce4bgj92rcd13ifvqbd0","pricing_plan_id":"cebpf4jnsgd1na2vs0mg"},{"bike_id":"4c1d2121-57e5-4808-8cca-4bd2bbdfd38d","system_id":"levelo_inurba_marseille","lat":43.28172,"lon":5.3817,"is_reserved":false,"is_disabled":false,"rental_uris":{"android":"levelo://app?vid=4c1d2121-57e5-4808-8cca-4bd2bbdfd38d","ios":"levelo://app?vid=4c1d2121-57e5-4808-8cca-4bd2bbdfd38d"},"vehicle_type_id":"4","last_reported":1728134001,"current_range_meters":8000,"station_id":"","pricing_plan_id":"cebpf4jnsgd1na2vs0mg"},{"bike_id":"67ab6b30-8dc3-4518-a1e5-c0292cad84a6","system_id":"levelo_inurba_marseille","lat":43.25497,"lon":5.37646,"is_reserved":false,"is_disabled":false,"rental_uris":{"android":"levelo://app?vid=67ab6b30-8dc3-4518-a1e5-c0292cad84a6","ios":"levelo://app?vid=67ab6b30-8dc3-4518-a1e5-c0292cad84a6"},"vehicle_type_id":"4","last_reported":1728134001,"current_range_meters":38800,"station_id":"ce4bhh12rcd13ifvqff0","pricing_plan_id":"cebpf4jnsgd1na2vs0mg"},{"bike_id":"3c594ac3-1f93-4473-8ff1-02ccb24acb6e","system_id":"levelo_inurba_marseille","lat":43.28413,"lon":5.34977,"is_reserved":false,"is_disabled":false,"rental_uris":{"android":"levelo://app?vid=3c594ac3-1f93-4473-8ff1-02ccb24acb6e","ios":"levelo://app?vid=3c594ac3-1f93-4473-8ff1-02ccb24acb6e"},"vehicle_type_id":"4","last_reported":1728134001,"current_range_meters":24000,"station_id":"ce4bhbh2rcd13ifvqepg","pricing_plan_id":"cebpf4jnsgd1na2vs0mg"},{"bike_id":"a45c5852-f993-434b-9e0e-aaf2278af56a","system_id":"levelo_inurba_marseille","lat":43.23195,"lon":5.35552,"is_reserved":false,"is_disabled":false,"rental_uris":{"android":"levelo://app?vid=a45c5852-f993-434b-9e0e-aaf2278af56a","ios":"levelo://app?vid=a45c5852-f993-434b-9e0e-aaf2278af56a"},"vehicle_type_id":"4","last_reported":1728134001,"current_range_meters":7200,"station_id":"ce4bhu92rcd13ifvqi70","pricing_plan_id":"cebpf4jnsgd1na2vs0mg"},{"bike_id":"57d7b7bf-9a1e-4c35-8388-96cc980f8410","system_id":"levelo_inurba_marseille","lat":43.22932,"lon":5.35372,"is_reserved":false,"is_disabled":false,"rental_uris":{"android":"levelo://app?vid=57d7b7bf-9a1e-4c35-8388-96cc980f8410","ios":"levelo://app?vid=57d7b7bf-9a1e-4c35-8388-96cc980f8410"},"vehicle_type_id":"4","last_reported":1728134001,"current_range_meters":14400,"station_id":"cpo3532slgdg3j2ikp40","pricing_plan_id":"cebpf4jnsgd1na2vs0mg"},{"bike_id":"8f8163cf-dcfc-4c93-9ee2-79f74597a85b","system_id":"levelo_inurba_marseille","lat":43.30949,"lon":5.39036,"is_reserved":false,"is_disabled":false,"rental_uris":{"android":"levelo://app?vid=8f8163cf-dcfc-4c93-9ee2-79f74597a85b","ios":"levelo://app?vid=8f8163cf-dcfc-4c93-9ee2-79f74597a85b"},"vehicle_type_id":"4","last_reported":1728134001,"current_range_meters":9600,"station_id":"ce4bgup2rcd13ifvqco0","pricing_plan_id":"cebpf4jnsgd1na2vs0mg"},{"bike_id":"8c0ae48e-fb15-485f-8961-78c0f4fc42ef","system_id":"levelo_inurba_marseille","lat":43.24803,"lon":5.37449,"is_reserved":false,"is_disabled":false,"rental_uris":{"android":"levelo://app?vid=8c0ae48e-fb15-485f-8961-78c0f4fc42ef","ios":"levelo://app?vid=8c0ae48e-fb15-485f-8961-78c0f4fc42ef"},"vehicle_type_id":"4","last_reported":1728134001,"current_range_meters":38000,"station_id":"ce4bhgh2rcd13ifvqfb0","pricing_plan_id":"cebpf4jnsgd1na2vs0mg"},{"bike_id":"6739c8c5-60ac-48a9-90c0-e916b5f642fb","system_id":"levelo_inurba_marseille","lat":43.29879,"lon":5.38889,"is_reserved":false,"is_disabled":false,"rental_uris":{"android":"levelo://app?vid=6739c8c5-60ac-48a9-90c0-e916b5f642fb","ios":"levelo://app?vid=6739c8c5-60ac-48a9-90c0-e916b5f642fb"},"vehicle_type_id":"4","last_reported":1728134001,"current_range_meters":27600,"station_id":"ce4bh392rcd13ifvqdl0","pricing_plan_id":"cebpf4jnsgd1na2vs0mg"},{"bike_id":"928880f0-bc65-4cc9-9f46-a1792cd0060c","system_id":"levelo_inurba_marseille","lat":43.23189,"lon":5.35546,"is_reserved":false,"is_disabled":false,"rental_uris":{"android":"levelo://app?vid=928880f0-bc65-4cc9-9f46-a1792cd0060c","ios":"levelo://app?vid=928880f0-bc65-4cc9-9f46-a1792cd0060c"},"vehicle_type_id":"4","last_reported":1728134001,"current_range_meters":20800,"station_id":"ce4bhu92rcd13ifvqi70","pricing_plan_id":"cebpf4jnsgd1na2vs0mg"},{"bike_id":"b5cd4427-8b7e-4694-b9f1-2d84ee438946","system_id":"levelo_inurba_marseille","lat":43.2439,"lon":5.37062,"is_reserved":false,"is_disabled":false,"rental_uris":{"android":"levelo://app?vid=b5cd4427-8b7e-4694-b9f1-2d84ee438946","ios":"levelo://app?vid=b5cd4427-8b7e-4694-b9f1-2d84ee438946"},"vehicle_type_id":"4","last_reported":1728134001,"current_range_meters":7200,"station_id":"ce4bhhh2rcd13ifvqfk0","pricing_plan_id":"cebpf4jnsgd1na2vs0mg"},{"bike_id":"d25e1e54-5a4a-4edd-9fb7-a14ca4c40f80","system_id":"levelo_inurba_marseille","lat":43.22928,"lon":5.35374,"is_reserved":false,"is_disabled":false,"rental_uris":{"android":"levelo://app?vid=d25e1e54-5a4a-4edd-9fb7-a14ca4c40f80","ios":"levelo://app?vid=d25e1e54-5a4a-4edd-9fb7-a14ca4c40f80"},"vehicle_type_id":"4","last_reported":1728134001,"current_range_meters":27600,"station_id":"cpo3532slgdg3j2ikp40","pricing_plan_id":"cebpf4jnsgd1na2vs0mg"},{"bike_id":"d2b0596a-338c-475c-a27f-f53ce416452a","system_id":"levelo_inurba_marseille","lat":43.305,"lon":5.40091,"is_reserved":false,"is_disabled":false,"rental_uris":{"android":"levelo://app?vid=d2b0596a-338c-475c-a27f-f53ce416452a","ios":"levelo://app?vid=d2b0596a-338c-475c-a27f-f53ce416452a"},"vehicle_type_id":"4","last_reported":1728134001,"current_range_meters":22800,"station_id":"","pricing_plan_id":"cebpf4jnsgd1na2vs0mg"},{"bike_id":"85cfada1-4eca-4acb-a785-ae1bab76e6ed","system_id":"levelo_inurba_marseille","lat":43.337444,"lon":5.374475,"is_reserved":false,"is_disabled":false,"rental_uris":{"android":"levelo://app?vid=85cfada1-4eca-4acb-a785-ae1bab76e6ed","ios":"levelo://app?vid=85cfada1-4eca-4acb-a785-ae1bab76e6ed"},"vehicle_type_id":"4","last_reported":1728134001,"current_range_meters":9200,"station_id":"ce4bhb92rcd13ifvqen0","pricing_plan_id":"cebpf4jnsgd1na2vs0mg"},{"bike_id":"90e2e504-c450-4c38-b714-4638c010d9cb","system_id":"levelo_inurba_marseille","lat":43.23152,"lon":5.43694,"is_reserved":false,"is_disabled":false,"rental_uris":{"android":"levelo://app?vid=90e2e504-c450-4c38-b714-4638c010d9cb","ios":"levelo://app?vid=90e2e504-c450-4c38-b714-4638c010d9cb"},"vehicle_type_id":"4","last_reported":1728134001,"current_range_meters":36000,"station_id":"ce4bhmp2rcd13ifvqgog","pricing_plan_id":"cebpf4jnsgd1na2vs0mg"},{"bike_id":"3f3c44f3-0b8b-41b2-b44f-82fc53d2b064","system_id":"levelo_inurba_marseille","lat":43.32286,"lon":5.38264,"is_reserved":false,"is_disabled":false,"rental_uris":{"android":"levelo://app?vid=3f3c44f3-0b8b-41b2-b44f-82fc53d2b064","ios":"levelo://app?vid=3f3c44f3-0b8b-41b2-b44f-82fc53d2b064"},"vehicle_type_id":"4","last_reported":1728134001,"current_range_meters":38000,"station_id":"ce4bhr12rcd13ifvqhqg","pricing_plan_id":"cebpf4jnsgd1na2vs0mg"},{"bike_id":"32ceac28-dacd-4d4c-9c55-d75f7e6d1aa1","system_id":"levelo_inurba_marseille","lat":43.30794,"lon":5.43521,"is_reserved":false,"is_disabled":false,"rental_uris":{"android":"levelo://app?vid=32ceac28-dacd-4d4c-9c55-d75f7e6d1aa1","ios":"levelo://app?vid=32ceac28-dacd-4d4c-9c55-d75f7e6d1aa1"},"vehicle_type_id":"4","last_reported":1728134001,"current_range_meters":9600,"station_id":"ce4bhph2rcd13ifvqheg","pricing_plan_id":"cebpf4jnsgd1na2vs0mg"},{"bike_id":"3a23e4d2-e6d4-4caf-b572-469bedcb293d","system_id":"levelo_inurba_marseille","lat":43.29002,"lon":5.3562,"is_reserved":false,"is_disabled":false,"rental_uris":{"android":"levelo://app?vid=3a23e4d2-e6d4-4caf-b572-469bedcb293d","ios":"levelo://app?vid=3a23e4d2-e6d4-4caf-b572-469bedcb293d"},"vehicle_type_id":"4","last_reported":1728134001,"current_range_meters":18000,"station_id":"ce4bhb92rcd13ifvqen0","pricing_plan_id":"cebpf4jnsgd1na2vs0mg"},{"bike_id":"ab818bb7-e39d-4902-8113-7452c7dbfb1a","system_id":"levelo_inurba_marseille","lat":43.23156,"lon":5.43699,"is_reserved":false,"is_disabled":false,"rental_uris":{"android":"levelo://app?vid=ab818bb7-e39d-4902-8113-7452c7dbfb1a","ios":"levelo://app?vid=ab818bb7-e39d-4902-8113-7452c7dbfb1a"},"vehicle_type_id":"4","last_reported":1728134001,"current_range_meters":20800,"station_id":"ce4bhmp2rcd13ifvqgog","pricing_plan_id":"cebpf4jnsgd1na2vs0mg"},{"bike_id":"fad6b7e8-0f73-4830-8b2d-308091e87617","system_id":"levelo_inurba_marseille","lat":43.28415,"lon":5.34987,"is_reserved":false,"is_disabled":false,"rental_uris":{"android":"levelo://app?vid=fad6b7e8-0f73-4830-8b2d-308091e87617","ios":"levelo://app?vid=fad6b7e8-0f73-4830-8b2d-308091e87617"},"vehicle_type_id":"4","last_reported":1728134001,"current_range_meters":4800,"station_id":"ce4bhbh2rcd13ifvqepg","pricing_plan_id":"cebpf4jnsgd1na2vs0mg"},{"bike_id":"d54b1158-ec6f-4dc3-a7e1-2d0b5958261d","system_id":"levelo_inurba_marseille","lat":43.2955,"lon":5.42282,"is_reserved":false,"is_disabled":false,"rental_uris":{"android":"levelo://app?vid=d54b1158-ec6f-4dc3-a7e1-2d0b5958261d","ios":"levelo://app?vid=d54b1158-ec6f-4dc3-a7e1-2d0b5958261d"},"vehicle_type_id":"4","last_reported":1728134001,"current_range_meters":38800,"station_id":"ce4bhph2rcd13ifvqhdg","pricing_plan_id":"cebpf4jnsgd1na2vs0mg"},{"bike_id":"94fd660c-379c-4068-ba6e-02b6b5e9a638","system_id":"levelo_inurba_marseille","lat":43.30937,"lon":5.40133,"is_reserved":false,"is_disabled":false,"rental_uris":{"android":"levelo://app?vid=94fd660c-379c-4068-ba6e-02b6b5e9a638","ios":"levelo://app?vid=94fd660c-379c-4068-ba6e-02b6b5e9a638"},"vehicle_type_id":"4","last_reported":1728134001,"current_range_meters":38000,"station_id":"ce4bgvp2rcd13ifvqct0","pricing_plan_id":"cebpf4jnsgd1na2vs0mg"},{"bike_id":"d5c43e4f-ec76-4579-b5d4-6acbbae67566","system_id":"levelo_inurba_marseille","lat":43.22928,"lon":5.35376,"is_reserved":false,"is_disabled":false,"rental_uris":{"android":"levelo://app?vid=d5c43e4f-ec76-4579-b5d4-6acbbae67566","ios":"levelo://app?vid=d5c43e4f-ec76-4579-b5d4-6acbbae67566"},"vehicle_type_id":"4","last_reported":1728134001,"current_range_meters":20000,"station_id":"cpo3532slgdg3j2ikp40","pricing_plan_id":"cebpf4jnsgd1na2vs0mg"},{"bike_id":"75ce31e2-5f0d-4f06-9d38-6324d9daeecc","system_id":"levelo_inurba_marseille","lat":43.34142,"lon":5.40903,"is_reserved":false,"is_disabled":false,"rental_uris":{"android":"levelo://app?vid=75ce31e2-5f0d-4f06-9d38-6324d9daeecc","ios":"levelo://app?vid=75ce31e2-5f0d-4f06-9d38-6324d9daeecc"},"vehicle_type_id":"4","last_reported":1728134001,"current_range_meters":38800,"station_id":"ce4bhqh2rcd13ifvqhlg","pricing_plan_id":"cebpf4jnsgd1na2vs0mg"},{"bike_id":"03e4a193-ce0f-40a1-a6e1-501fbd8a1d7c","system_id":"levelo_inurba_marseille","lat":43.28041,"lon":5.36941,"is_reserved":false,"is_disabled":false,"rental_uris":{"android":"levelo://app?vid=03e4a193-ce0f-40a1-a6e1-501fbd8a1d7c","ios":"levelo://app?vid=03e4a193-ce0f-40a1-a6e1-501fbd8a1d7c"},"vehicle_type_id":"4","last_reported":1728134001,"current_range_meters":18000,"station_id":"ce4bha12rcd13ifvqef0","pricing_plan_id":"cebpf4jnsgd1na2vs0mg"},{"bike_id":"a8597e2b-11a4-41b1-af04-3d091354a1e4","system_id":"levelo_inurba_marseille","lat":43.32041,"lon":5.41559,"is_reserved":false,"is_disabled":false,"rental_uris":{"android":"levelo://app?vid=a8597e2b-11a4-41b1-af04-3d091354a1e4","ios":"levelo://app?vid=a8597e2b-11a4-41b1-af04-3d091354a1e4"},"vehicle_type_id":"4","last_reported":1728134001,"current_range_meters":28000,"station_id":"ce4bhq92rcd13ifvqhkg","pricing_plan_id":"cebpf4jnsgd1na2vs0mg"},{"bike_id":"e6ce1ada-37a6-4565-8b37-5c1769f34e22","system_id":"levelo_inurba_marseille","lat":43.312692,"lon":5.401671,"is_reserved":false,"is_disabled":false,"rental_uris":{"android":"levelo://app?vid=e6ce1ada-37a6-4565-8b37-5c1769f34e22","ios":"levelo://app?vid=e6ce1ada-37a6-4565-8b37-5c1769f34e22"},"vehicle_type_id":"4","last_reported":1728134001,"current_range_meters":19600,"station_id":"ce4bh092rcd13ifvqd30","pricing_plan_id":"cebpf4jnsgd1na2vs0mg"},{"bike_id":"9c3ffd87-5c7b-42d5-a21a-6e34b318b60d","system_id":"levelo_inurba_marseille","lat":43.32286,"lon":5.38275,"is_reserved":false,"is_disabled":false,"rental_uris":{"android":"levelo://app?vid=9c3ffd87-5c7b-42d5-a21a-6e34b318b60d","ios":"levelo://app?vid=9c3ffd87-5c7b-42d5-a21a-6e34b318b60d"},"vehicle_type_id":"4","last_reported":1728134001,"current_range_meters":24400,"station_id":"ce4bhr12rcd13ifvqhqg","pricing_plan_id":"cebpf4jnsgd1na2vs0mg"},{"bike_id":"996f311a-1052-4e93-bc99-a5db07024190","system_id":"levelo_inurba_marseille","lat":43.24173,"lon":5.3639,"is_reserved":false,"is_disabled":false,"rental_uris":{"android":"levelo://app?vid=996f311a-1052-4e93-bc99-a5db07024190","ios":"levelo://app?vid=996f311a-1052-4e93-bc99-a5db07024190"},"vehicle_type_id":"4","last_reported":1728134001,"current_range_meters":19600,"station_id":"cpo36qri1sfpv3e86is0","pricing_plan_id":"cebpf4jnsgd1na2vs0mg"},{"bike_id":"db745f48-478a-4f91-900c-01f29ab1be3f","system_id":"levelo_inurba_marseille","lat":43.29267,"lon":5.3843,"is_reserved":false,"is_disabled":false,"rental_uris":{"android":"levelo://app?vid=db745f48-478a-4f91-900c-01f29ab1be3f","ios":"levelo://app?vid=db745f48-478a-4f91-900c-01f29ab1be3f"},"vehicle_type_id":"4","last_reported":1728134001,"current_range_meters":2000,"station_id":"ce4bh692rcd13ifvqea0","pricing_plan_id":"cebpf4jnsgd1na2vs0mg"},{"bike_id":"3891d97a-cfe9-4125-a5ef-981326242baa","system_id":"levelo_inurba_marseille","lat":43.243911,"lon":5.370605,"is_reserved":false,"is_disabled":false,"rental_uris":{"android":"levelo://app?vid=3891d97a-cfe9-4125-a5ef-981326242baa","ios":"levelo://app?vid=3891d97a-cfe9-4125-a5ef-981326242baa"},"vehicle_type_id":"4","last_reported":1728134001,"current_range_meters":32400,"station_id":"ce4bhhh2rcd13ifvqfk0","pricing_plan_id":"cebpf4jnsgd1na2vs0mg"},{"bike_id":"12c79184-4e27-4836-bc7b-957bbc4d7857","system_id":"levelo_inurba_marseille","lat":43.27314,"lon":5.39072,"is_reserved":false,"is_disabled":false,"rental_uris":{"android":"levelo://app?vid=12c79184-4e27-4836-bc7b-957bbc4d7857","ios":"levelo://app?vid=12c79184-4e27-4836-bc7b-957bbc4d7857"},"vehicle_type_id":"4","last_reported":1728134001,"current_range_meters":32000,"station_id":"ce4bhgp2rcd13ifvqfe0","pricing_plan_id":"cebpf4jnsgd1na2vs0mg"},{"bike_id":"d9513a24-3235-43a7-b9a5-1c5cfe37603f","system_id":"levelo_inurba_marseille","lat":43.23052,"lon":5.35486,"is_reserved":false,"is_disabled":false,"rental_uris":{"android":"levelo://app?vid=d9513a24-3235-43a7-b9a5-1c5cfe37603f","ios":"levelo://app?vid=d9513a24-3235-43a7-b9a5-1c5cfe37603f"},"vehicle_type_id":"4","last_reported":1728134001,"current_range_meters":19600,"station_id":"cpo3342slgdg3j2ifvpg","pricing_plan_id":"cebpf4jnsgd1na2vs0mg"},{"bike_id":"80883cfe-f6ff-4203-89b1-e5cb91df708a","system_id":"levelo_inurba_marseille","lat":43.320515,"lon":5.41553,"is_reserved":false,"is_disabled":false,"rental_uris":{"android":"levelo://app?vid=80883cfe-f6ff-4203-89b1-e5cb91df708a","ios":"levelo://app?vid=80883cfe-f6ff-4203-89b1-e5cb91df708a"},"vehicle_type_id":"4","last_reported":1728134001,"current_range_meters":6800,"station_id":"ce4bhq92rcd13ifvqhkg","pricing_plan_id":"cebpf4jnsgd1na2vs0mg"},{"bike_id":"009d6d0e-c1a8-4ddc-b330-ebf04e9c45b9","system_id":"levelo_inurba_marseille","lat":43.2989,"lon":5.43666,"is_reserved":false,"is_disabled":false,"rental_uris":{"android":"levelo://app?vid=009d6d0e-c1a8-4ddc-b330-ebf04e9c45b9","ios":"levelo://app?vid=009d6d0e-c1a8-4ddc-b330-ebf04e9c45b9"},"vehicle_type_id":"4","last_reported":1728134001,"current_range_meters":20400,"station_id":"ce4bhpp2rcd13ifvqhfg","pricing_plan_id":"cebpf4jnsgd1na2vs0mg"},{"bike_id":"e801b355-6ede-41f3-aa7c-a02edf287c12","system_id":"levelo_inurba_marseille","lat":43.23191,"lon":5.35544,"is_reserved":false,"is_disabled":false,"rental_uris":{"android":"levelo://app?vid=e801b355-6ede-41f3-aa7c-a02edf287c12","ios":"levelo://app?vid=e801b355-6ede-41f3-aa7c-a02edf287c12"},"vehicle_type_id":"4","last_reported":1728134001,"current_range_meters":17600,"station_id":"ce4bhu92rcd13ifvqi70","pricing_plan_id":"cebpf4jnsgd1na2vs0mg"},{"bike_id":"4e0c83a2-b0c3-4894-8559-e509681998d3","system_id":"levelo_inurba_marseille","lat":43.311175,"lon":5.383239,"is_reserved":false,"is_disabled":false,"rental_uris":{"android":"levelo://app?vid=4e0c83a2-b0c3-4894-8559-e509681998d3","ios":"levelo://app?vid=4e0c83a2-b0c3-4894-8559-e509681998d3"},"vehicle_type_id":"4","last_reported":1728134001,"current_range_meters":16400,"station_id":"","pricing_plan_id":"cebpf4jnsgd1na2vs0mg"},{"bike_id":"3c797729-0364-42b3-8e58-4709c41c4a3c","system_id":"levelo_inurba_marseille","lat":43.30805,"lon":5.43517,"is_reserved":false,"is_disabled":false,"rental_uris":{"android":"levelo://app?vid=3c797729-0364-42b3-8e58-4709c41c4a3c","ios":"levelo://app?vid=3c797729-0364-42b3-8e58-4709c41c4a3c"},"vehicle_type_id":"4","last_reported":1728134001,"current_range_meters":25200,"station_id":"ce4bhph2rcd13ifvqheg","pricing_plan_id":"cebpf4jnsgd1na2vs0mg"},{"bike_id":"c76830d2-2ed6-425d-83ad-7117befa5dc1","system_id":"levelo_inurba_marseille","lat":43.31119,"lon":5.37763,"is_reserved":false,"is_disabled":false,"rental_uris":{"android":"levelo://app?vid=c76830d2-2ed6-425d-83ad-7117befa5dc1","ios":"levelo://app?vid=c76830d2-2ed6-425d-83ad-7117befa5dc1"},"vehicle_type_id":"4","last_reported":1728134001,"current_range_meters":36800,"station_id":"ce4bgt92rcd13ifvqcg0","pricing_plan_id":"cebpf4jnsgd1na2vs0mg"},{"bike_id":"0372629a-88b4-4f82-be94-d5bd27566edd","system_id":"levelo_inurba_marseille","lat":43.30633,"lon":5.41035,"is_reserved":false,"is_disabled":false,"rental_uris":{"android":"levelo://app?vid=0372629a-88b4-4f82-be94-d5bd27566edd","ios":"levelo://app?vid=0372629a-88b4-4f82-be94-d5bd27566edd"},"vehicle_type_id":"4","last_reported":1728134001,"current_range_meters":22400,"station_id":"","pricing_plan_id":"cebpf4jnsgd1na2vs0mg"},{"bike_id":"3554eda5-0378-453d-8dc2-aabab872591a","system_id":"levelo_inurba_marseille","lat":43.26201,"lon":5.3793,"is_reserved":false,"is_disabled":false,"rental_uris":{"android":"levelo://app?vid=3554eda5-0378-453d-8dc2-aabab872591a","ios":"levelo://app?vid=3554eda5-0378-453d-8dc2-aabab872591a"},"vehicle_type_id":"4","last_reported":1728134001,"current_range_meters":38800,"station_id":"ce4bhjp2rcd13ifvqg90","pricing_plan_id":"cebpf4jnsgd1na2vs0mg"},{"bike_id":"1a4a659e-bccf-4cca-9e7b-d671e2a4dbc5","system_id":"levelo_inurba_marseille","lat":43.27059,"lon":5.4025,"is_reserved":false,"is_disabled":false,"rental_uris":{"android":"levelo://app?vid=1a4a659e-bccf-4cca-9e7b-d671e2a4dbc5","ios":"levelo://app?vid=1a4a659e-bccf-4cca-9e7b-d671e2a4dbc5"},"vehicle_type_id":"4","last_reported":1728134001,"current_range_meters":19600,"station_id":"ce4bhk92rcd13ifvqgc0","pricing_plan_id":"cebpf4jnsgd1na2vs0mg"},{"bike_id":"da0a2d80-bb82-4a5b-a9f4-e9443d5f8926","system_id":"levelo_inurba_marseille","lat":43.31077,"lon":5.42428,"is_reserved":false,"is_disabled":false,"rental_uris":{"android":"levelo://app?vid=da0a2d80-bb82-4a5b-a9f4-e9443d5f8926","ios":"levelo://app?vid=da0a2d80-bb82-4a5b-a9f4-e9443d5f8926"},"vehicle_type_id":"4","last_reported":1728134001,"current_range_meters":26000,"station_id":"ce4bhp92rcd13ifvqhag","pricing_plan_id":"cebpf4jnsgd1na2vs0mg"},{"bike_id":"ca0543f7-45c5-4ae7-a6ab-d3b72823e58c","system_id":"levelo_inurba_marseille","lat":43.31121,"lon":5.37767,"is_reserved":false,"is_disabled":false,"rental_uris":{"android":"levelo://app?vid=ca0543f7-45c5-4ae7-a6ab-d3b72823e58c","ios":"levelo://app?vid=ca0543f7-45c5-4ae7-a6ab-d3b72823e58c"},"vehicle_type_id":"4","last_reported":1728134001,"current_range_meters":38400,"station_id":"ce4bgt92rcd13ifvqcg0","pricing_plan_id":"cebpf4jnsgd1na2vs0mg"},{"bike_id":"3191d89d-c2d2-4823-a7a4-847079d09e83","system_id":"levelo_inurba_marseille","lat":43.30304,"lon":5.36881,"is_reserved":false,"is_disabled":false,"rental_uris":{"android":"levelo://app?vid=3191d89d-c2d2-4823-a7a4-847079d09e83","ios":"levelo://app?vid=3191d89d-c2d2-4823-a7a4-847079d09e83"},"vehicle_type_id":"4","last_reported":1728134001,"current_range_meters":19200,"station_id":"ce4bgqh2rcd13ifvqc5g","pricing_plan_id":"cebpf4jnsgd1na2vs0mg"},{"bike_id":"8df5e434-358e-47ce-82bd-9291d9bbb368","system_id":"levelo_inurba_marseille","lat":43.32047,"lon":5.41555,"is_reserved":false,"is_disabled":false,"rental_uris":{"android":"levelo://app?vid=8df5e434-358e-47ce-82bd-9291d9bbb368","ios":"levelo://app?vid=8df5e434-358e-47ce-82bd-9291d9bbb368"},"vehicle_type_id":"4","last_reported":1728134001,"current_range_meters":38000,"station_id":"ce4bhq92rcd13ifvqhkg","pricing_plan_id":"cebpf4jnsgd1na2vs0mg"},{"bike_id":"3d72c258-bc4a-4844-b334-900f22273f09","system_id":"levelo_inurba_marseille","lat":43.24392,"lon":5.37061,"is_reserved":false,"is_disabled":false,"rental_uris":{"android":"levelo://app?vid=3d72c258-bc4a-4844-b334-900f22273f09","ios":"levelo://app?vid=3d72c258-bc4a-4844-b334-900f22273f09"},"vehicle_type_id":"4","last_reported":1728134001,"current_range_meters":36800,"station_id":"ce4bhhh2rcd13ifvqfk0","pricing_plan_id":"cebpf4jnsgd1na2vs0mg"},{"bike_id":"a70bfd41-161a-4a66-ba00-5651d8f779fe","system_id":"levelo_inurba_marseille","lat":43.29225,"lon":5.36055,"is_reserved":false,"is_disabled":false,"rental_uris":{"android":"levelo://app?vid=a70bfd41-161a-4a66-ba00-5651d8f779fe","ios":"levelo://app?vid=a70bfd41-161a-4a66-ba00-5651d8f779fe"},"vehicle_type_id":"4","last_reported":1728134001,"current_range_meters":20400,"station_id":"ce4bhbh2rcd13ifvqeqg","pricing_plan_id":"cebpf4jnsgd1na2vs0mg"},{"bike_id":"1d5ac711-fd39-458f-a4c8-b27910c7eef9","system_id":"levelo_inurba_marseille","lat":43.29594,"lon":5.38092,"is_reserved":false,"is_disabled":false,"rental_uris":{"android":"levelo://app?vid=1d5ac711-fd39-458f-a4c8-b27910c7eef9","ios":"levelo://app?vid=1d5ac711-fd39-458f-a4c8-b27910c7eef9"},"vehicle_type_id":"4","last_reported":1728134001,"current_range_meters":38800,"station_id":"ce4bgl12rcd13ifvqbo0","pricing_plan_id":"cebpf4jnsgd1na2vs0mg"},{"bike_id":"bdefae95-7cc5-4880-bfcb-b1af39586be0","system_id":"levelo_inurba_marseille","lat":43.32658,"lon":5.40983,"is_reserved":false,"is_disabled":false,"rental_uris":{"android":"levelo://app?vid=bdefae95-7cc5-4880-bfcb-b1af39586be0","ios":"levelo://app?vid=bdefae95-7cc5-4880-bfcb-b1af39586be0"},"vehicle_type_id":"4","last_reported":1728134001,"current_range_meters":38800,"station_id":"ce4bhpp2rcd13ifvqhgg","pricing_plan_id":"cebpf4jnsgd1na2vs0mg"},{"bike_id":"cf6e7575-69fe-41da-8916-745f8f355abb","system_id":"levelo_inurba_marseille","lat":43.24543,"lon":5.39518,"is_reserved":false,"is_disabled":false,"rental_uris":{"android":"levelo://app?vid=cf6e7575-69fe-41da-8916-745f8f355abb","ios":"levelo://app?vid=cf6e7575-69fe-41da-8916-745f8f355abb"},"vehicle_type_id":"4","last_reported":1728134001,"current_range_meters":24800,"station_id":"ce4bhlp2rcd13ifvqgjg","pricing_plan_id":"cebpf4jnsgd1na2vs0mg"},{"bike_id":"7a90b2f2-d00e-4c33-b981-befe4f1139d2","system_id":"levelo_inurba_marseille","lat":43.23179,"lon":5.39984,"is_reserved":false,"is_disabled":false,"rental_uris":{"android":"levelo://app?vid=7a90b2f2-d00e-4c33-b981-befe4f1139d2","ios":"levelo://app?vid=7a90b2f2-d00e-4c33-b981-befe4f1139d2"},"vehicle_type_id":"4","last_reported":1728134001,"current_range_meters":33200,"station_id":"ce4bhn12rcd13ifvqgqg","pricing_plan_id":"cebpf4jnsgd1na2vs0mg"},{"bike_id":"20a10651-4786-4c2f-b21e-b10e987e2fc4","system_id":"levelo_inurba_marseille","lat":43.27965,"lon":5.38749,"is_reserved":false,"is_disabled":false,"rental_uris":{"android":"levelo://app?vid=20a10651-4786-4c2f-b21e-b10e987e2fc4","ios":"levelo://app?vid=20a10651-4786-4c2f-b21e-b10e987e2fc4"},"vehicle_type_id":"4","last_reported":1728134001,"current_range_meters":37600,"station_id":"ce4bhg12rcd13ifvqf80","pricing_plan_id":"cebpf4jnsgd1na2vs0mg"},{"bike_id":"149a340a-f24e-46a7-bb2b-42f01b50e36d","system_id":"levelo_inurba_marseille","lat":43.25491,"lon":5.37644,"is_reserved":false,"is_disabled":false,"rental_uris":{"android":"levelo://app?vid=149a340a-f24e-46a7-bb2b-42f01b50e36d","ios":"levelo://app?vid=149a340a-f24e-46a7-bb2b-42f01b50e36d"},"vehicle_type_id":"4","last_reported":1728134001,"current_range_meters":18000,"station_id":"ce4bhh12rcd13ifvqff0","pricing_plan_id":"cebpf4jnsgd1na2vs0mg"},{"bike_id":"39895da1-b261-46b8-9f75-afa34c93daa0","system_id":"levelo_inurba_marseille","lat":43.30677,"lon":5.40098,"is_reserved":false,"is_disabled":false,"rental_uris":{"android":"levelo://app?vid=39895da1-b261-46b8-9f75-afa34c93daa0","ios":"levelo://app?vid=39895da1-b261-46b8-9f75-afa34c93daa0"},"vehicle_type_id":"4","last_reported":1728134001,"current_range_meters":38800,"station_id":"ce4bh112rcd13ifvqda0","pricing_plan_id":"cebpf4jnsgd1na2vs0mg"},{"bike_id":"7ecdac04-f526-40a8-9126-bd0e86885657","system_id":"levelo_inurba_marseille","lat":43.23149,"lon":5.43715,"is_reserved":false,"is_disabled":false,"rental_uris":{"android":"levelo://app?vid=7ecdac04-f526-40a8-9126-bd0e86885657","ios":"levelo://app?vid=7ecdac04-f526-40a8-9126-bd0e86885657"},"vehicle_type_id":"4","last_reported":1728134001,"current_range_meters":31200,"station_id":"ce4bhmp2rcd13ifvqgog","pricing_plan_id":"cebpf4jnsgd1na2vs0mg"},{"bike_id":"9134dd1e-9df6-480e-8ddd-92622a28d2a7","system_id":"levelo_inurba_marseille","lat":43.27614,"lon":5.36108,"is_reserved":false,"is_disabled":false,"rental_uris":{"android":"levelo://app?vid=9134dd1e-9df6-480e-8ddd-92622a28d2a7","ios":"levelo://app?vid=9134dd1e-9df6-480e-8ddd-92622a28d2a7"},"vehicle_type_id":"4","last_reported":1728134001,"current_range_meters":19200,"station_id":"ce4bgj92rcd13ifvqbe0","pricing_plan_id":"cebpf4jnsgd1na2vs0mg"},{"bike_id":"2ccfd7da-18c3-47d1-afb4-41b7dae9d7c3","system_id":"levelo_inurba_marseille","lat":43.28413,"lon":5.34995,"is_reserved":false,"is_disabled":false,"rental_uris":{"android":"levelo://app?vid=2ccfd7da-18c3-47d1-afb4-41b7dae9d7c3","ios":"levelo://app?vid=2ccfd7da-18c3-47d1-afb4-41b7dae9d7c3"},"vehicle_type_id":"4","last_reported":1728134001,"current_range_meters":30800,"station_id":"ce4bhbh2rcd13ifvqepg","pricing_plan_id":"cebpf4jnsgd1na2vs0mg"},{"bike_id":"a0a48911-ae34-4a3f-883c-27ac2f740d77","system_id":"levelo_inurba_marseille","lat":43.29547,"lon":5.42278,"is_reserved":false,"is_disabled":false,"rental_uris":{"android":"levelo://app?vid=a0a48911-ae34-4a3f-883c-27ac2f740d77","ios":"levelo://app?vid=a0a48911-ae34-4a3f-883c-27ac2f740d77"},"vehicle_type_id":"4","last_reported":1728134001,"current_range_meters":9600,"station_id":"ce4bhph2rcd13ifvqhdg","pricing_plan_id":"cebpf4jnsgd1na2vs0mg"},{"bike_id":"08bcc337-89c9-4546-81d8-db8583b9883d","system_id":"levelo_inurba_marseille","lat":43.26215,"lon":5.37442,"is_reserved":false,"is_disabled":false,"rental_uris":{"android":"levelo://app?vid=08bcc337-89c9-4546-81d8-db8583b9883d","ios":"levelo://app?vid=08bcc337-89c9-4546-81d8-db8583b9883d"},"vehicle_type_id":"4","last_reported":1728134001,"current_range_meters":14800,"station_id":"ce4bhgp2rcd13ifvqfc0","pricing_plan_id":"cebpf4jnsgd1na2vs0mg"},{"bike_id":"ab9154ee-04eb-48dd-b427-55accbc23795","system_id":"levelo_inurba_marseille","lat":43.28422,"lon":5.34974,"is_reserved":false,"is_disabled":false,"rental_uris":{"android":"levelo://app?vid=ab9154ee-04eb-48dd-b427-55accbc23795","ios":"levelo://app?vid=ab9154ee-04eb-48dd-b427-55accbc23795"},"vehicle_type_id":"4","last_reported":1728134001,"current_range_meters":8000,"station_id":"ce4bhbh2rcd13ifvqepg","pricing_plan_id":"cebpf4jnsgd1na2vs0mg"},{"bike_id":"979d0554-a2ea-4223-a1ed-21e318623c4a","system_id":"levelo_inurba_marseille","lat":43.31717,"lon":5.43722,"is_reserved":false,"is_disabled":false,"rental_uris":{"android":"levelo://app?vid=979d0554-a2ea-4223-a1ed-21e318623c4a","ios":"levelo://app?vid=979d0554-a2ea-4223-a1ed-21e318623c4a"},"vehicle_type_id":"4","last_reported":1728134001,"current_range_meters":35600,"station_id":"ce4bhp92rcd13ifvqhcg","pricing_plan_id":"cebpf4jnsgd1na2vs0mg"},{"bike_id":"036cfa71-7460-40a3-b54d-ab61f31e6ab6","system_id":"levelo_inurba_marseille","lat":43.23056,"lon":5.35491,"is_reserved":false,"is_disabled":false,"rental_uris":{"android":"levelo://app?vid=036cfa71-7460-40a3-b54d-ab61f31e6ab6","ios":"levelo://app?vid=036cfa71-7460-40a3-b54d-ab61f31e6ab6"},"vehicle_type_id":"4","last_reported":1728134001,"current_range_meters":19200,"station_id":"cpo3342slgdg3j2ifvpg","pricing_plan_id":"cebpf4jnsgd1na2vs0mg"},{"bike_id":"3fb161cb-bb75-4d65-a585-6102d7e8530b","system_id":"levelo_inurba_marseille","lat":43.32004,"lon":5.38148,"is_reserved":false,"is_disabled":false,"rental_uris":{"android":"levelo://app?vid=3fb161cb-bb75-4d65-a585-6102d7e8530b","ios":"levelo://app?vid=3fb161cb-bb75-4d65-a585-6102d7e8530b"},"vehicle_type_id":"4","last_reported":1728134001,"current_range_meters":29600,"station_id":"ce4bhr12rcd13ifvqhpg","pricing_plan_id":"cebpf4jnsgd1na2vs0mg"},{"bike_id":"d9e40dcd-42bd-4450-b899-bd6e1533b60d","system_id":"levelo_inurba_marseille","lat":43.317925,"lon":5.390195,"is_reserved":false,"is_disabled":false,"rental_uris":{"android":"levelo://app?vid=d9e40dcd-42bd-4450-b899-bd6e1533b60d","ios":"levelo://app?vid=d9e40dcd-42bd-4450-b899-bd6e1533b60d"},"vehicle_type_id":"4","last_reported":1728134001,"current_range_meters":6400,"station_id":"ce4bhqp2rcd13ifvqhng","pricing_plan_id":"cebpf4jnsgd1na2vs0mg"},{"bike_id":"08a74786-c5f4-430e-a14c-69771022fad2","system_id":"levelo_inurba_marseille","lat":43.337444,"lon":5.374475,"is_reserved":false,"is_disabled":false,"rental_uris":{"android":"levelo://app?vid=08a74786-c5f4-430e-a14c-69771022fad2","ios":"levelo://app?vid=08a74786-c5f4-430e-a14c-69771022fad2"},"vehicle_type_id":"4","last_reported":1728134001,"current_range_meters":23200,"station_id":"","pricing_plan_id":"cebpf4jnsgd1na2vs0mg"},{"bike_id":"7df07c99-6018-42e5-a6d0-8d2fac82069b","system_id":"levelo_inurba_marseille","lat":43.28268,"lon":5.35053,"is_reserved":false,"is_disabled":false,"rental_uris":{"android":"levelo://app?vid=7df07c99-6018-42e5-a6d0-8d2fac82069b","ios":"levelo://app?vid=7df07c99-6018-42e5-a6d0-8d2fac82069b"},"vehicle_type_id":"4","last_reported":1728134001,"current_range_meters":27600,"station_id":"ce4bhbp2rcd13ifvqerg","pricing_plan_id":"cebpf4jnsgd1na2vs0mg"},{"bike_id":"2f65af92-a0a7-40f8-b601-a1926760aa1b","system_id":"levelo_inurba_marseille","lat":43.24167,"lon":5.36395,"is_reserved":false,"is_disabled":false,"rental_uris":{"android":"levelo://app?vid=2f65af92-a0a7-40f8-b601-a1926760aa1b","ios":"levelo://app?vid=2f65af92-a0a7-40f8-b601-a1926760aa1b"},"vehicle_type_id":"4","last_reported":1728134001,"current_range_meters":20400,"station_id":"cpo36qri1sfpv3e86is0","pricing_plan_id":"cebpf4jnsgd1na2vs0mg"},{"bike_id":"22f3e562-524d-4355-8806-13e5eccf368f","system_id":"levelo_inurba_marseille","lat":43.23058,"lon":5.35489,"is_reserved":false,"is_disabled":false,"rental_uris":{"android":"levelo://app?vid=22f3e562-524d-4355-8806-13e5eccf368f","ios":"levelo://app?vid=22f3e562-524d-4355-8806-13e5eccf368f"},"vehicle_type_id":"4","last_reported":1728134001,"current_range_meters":29600,"station_id":"cpo3342slgdg3j2ifvpg","pricing_plan_id":"cebpf4jnsgd1na2vs0mg"},{"bike_id":"49f75723-f35c-45a8-b0e1-43e1a8667a46","system_id":"levelo_inurba_marseille","lat":43.29036,"lon":5.3996,"is_reserved":false,"is_disabled":false,"rental_uris":{"android":"levelo://app?vid=49f75723-f35c-45a8-b0e1-43e1a8667a46","ios":"levelo://app?vid=49f75723-f35c-45a8-b0e1-43e1a8667a46"},"vehicle_type_id":"4","last_reported":1728134001,"current_range_meters":20400,"station_id":"ce4bh392rcd13ifvqdm0","pricing_plan_id":"cebpf4jnsgd1na2vs0mg"},{"bike_id":"b6a817d8-5787-46a3-898e-0b46c75fc481","system_id":"levelo_inurba_marseille","lat":43.32965,"lon":5.40344,"is_reserved":false,"is_disabled":false,"rental_uris":{"android":"levelo://app?vid=b6a817d8-5787-46a3-898e-0b46c75fc481","ios":"levelo://app?vid=b6a817d8-5787-46a3-898e-0b46c75fc481"},"vehicle_type_id":"4","last_reported":1728134001,"current_range_meters":6000,"station_id":"","pricing_plan_id":"cebpf4jnsgd1na2vs0mg"},{"bike_id":"524e4691-54b9-421d-808d-78c4d20f022f","system_id":"levelo_inurba_marseille","lat":43.23196,"lon":5.35552,"is_reserved":false,"is_disabled":false,"rental_uris":{"android":"levelo://app?vid=524e4691-54b9-421d-808d-78c4d20f022f","ios":"levelo://app?vid=524e4691-54b9-421d-808d-78c4d20f022f"},"vehicle_type_id":"4","last_reported":1728134001,"current_range_meters":32400,"station_id":"ce4bhu92rcd13ifvqi70","pricing_plan_id":"cebpf4jnsgd1na2vs0mg"},{"bike_id":"fcee5d9d-c512-4424-a5e2-0c0b879f5951","system_id":"levelo_inurba_marseille","lat":43.24168,"lon":5.36391,"is_reserved":false,"is_disabled":false,"rental_uris":{"android":"levelo://app?vid=fcee5d9d-c512-4424-a5e2-0c0b879f5951","ios":"levelo://app?vid=fcee5d9d-c512-4424-a5e2-0c0b879f5951"},"vehicle_type_id":"4","last_reported":1728134001,"current_range_meters":12400,"station_id":"cpo36qri1sfpv3e86is0","pricing_plan_id":"cebpf4jnsgd1na2vs0mg"},{"bike_id":"6856d22e-440d-40d9-809f-3167dacdbdc3","system_id":"levelo_inurba_marseille","lat":43.337444,"lon":5.374475,"is_reserved":false,"is_disabled":false,"rental_uris":{"android":"levelo://app?vid=6856d22e-440d-40d9-809f-3167dacdbdc3","ios":"levelo://app?vid=6856d22e-440d-40d9-809f-3167dacdbdc3"},"vehicle_type_id":"4","last_reported":1728134001,"current_range_meters":19200,"station_id":"","pricing_plan_id":"cebpf4jnsgd1na2vs0mg"},{"bike_id":"f9a7f7c3-e454-44cc-a090-30d598e5ae5a","system_id":"levelo_inurba_marseille","lat":43.26561,"lon":5.38087,"is_reserved":false,"is_disabled":false,"rental_uris":{"android":"levelo://app?vid=f9a7f7c3-e454-44cc-a090-30d598e5ae5a","ios":"levelo://app?vid=f9a7f7c3-e454-44cc-a090-30d598e5ae5a"},"vehicle_type_id":"4","last_reported":1728134001,"current_range_meters":27600,"station_id":"","pricing_plan_id":"cebpf4jnsgd1na2vs0mg"},{"bike_id":"64bd957e-b978-44cb-a85c-928d627d24ec","system_id":"levelo_inurba_marseille","lat":43.35424,"lon":5.35869,"is_reserved":false,"is_disabled":false,"rental_uris":{"android":"levelo://app?vid=64bd957e-b978-44cb-a85c-928d627d24ec","ios":"levelo://app?vid=64bd957e-b978-44cb-a85c-928d627d24ec"},"vehicle_type_id":"4","last_reported":1728134001,"current_range_meters":8000,"station_id":"","pricing_plan_id":"cebpf4jnsgd1na2vs0mg"},{"bike_id":"64995d1a-0a95-43c1-8426-b3115325266b","system_id":"levelo_inurba_marseille","lat":43.27916,"lon":5.42302,"is_reserved":false,"is_disabled":false,"rental_uris":{"android":"levelo://app?vid=64995d1a-0a95-43c1-8426-b3115325266b","ios":"levelo://app?vid=64995d1a-0a95-43c1-8426-b3115325266b"},"vehicle_type_id":"4","last_reported":1728134001,"current_range_meters":16800,"station_id":"","pricing_plan_id":"cebpf4jnsgd1na2vs0mg"},{"bike_id":"19efa9c6-0eee-42bc-8288-1176feaeb485","system_id":"levelo_inurba_marseille","lat":43.27075,"lon":5.42277,"is_reserved":false,"is_disabled":false,"rental_uris":{"android":"levelo://app?vid=19efa9c6-0eee-42bc-8288-1176feaeb485","ios":"levelo://app?vid=19efa9c6-0eee-42bc-8288-1176feaeb485"},"vehicle_type_id":"4","last_reported":1728134001,"current_range_meters":22800,"station_id":"ce4bhk92rcd13ifvqgb0","pricing_plan_id":"cebpf4jnsgd1na2vs0mg"},{"bike_id":"df142ee2-7c55-406d-84dd-76b52398a53b","system_id":"levelo_inurba_marseille","lat":43.28421,"lon":5.34977,"is_reserved":false,"is_disabled":false,"rental_uris":{"android":"levelo://app?vid=df142ee2-7c55-406d-84dd-76b52398a53b","ios":"levelo://app?vid=df142ee2-7c55-406d-84dd-76b52398a53b"},"vehicle_type_id":"4","last_reported":1728134001,"current_range_meters":32800,"station_id":"ce4bhbh2rcd13ifvqepg","pricing_plan_id":"cebpf4jnsgd1na2vs0mg"},{"bike_id":"3fff8127-14ca-4f20-ad43-a6c499ea62f7","system_id":"levelo_inurba_marseille","lat":43.28611,"lon":5.351,"is_reserved":false,"is_disabled":false,"rental_uris":{"android":"levelo://app?vid=3fff8127-14ca-4f20-ad43-a6c499ea62f7","ios":"levelo://app?vid=3fff8127-14ca-4f20-ad43-a6c499ea62f7"},"vehicle_type_id":"4","last_reported":1728134001,"current_range_meters":24800,"station_id":"ce4bhch2rcd13ifvqeug","pricing_plan_id":"cebpf4jnsgd1na2vs0mg"},{"bike_id":"f2b2e43c-e08f-4821-8fbf-8a978b59697f","system_id":"levelo_inurba_marseille","lat":43.28411,"lon":5.3497,"is_reserved":false,"is_disabled":false,"rental_uris":{"android":"levelo://app?vid=f2b2e43c-e08f-4821-8fbf-8a978b59697f","ios":"levelo://app?vid=f2b2e43c-e08f-4821-8fbf-8a978b59697f"},"vehicle_type_id":"4","last_reported":1728134001,"current_range_meters":31200,"station_id":"ce4bhbh2rcd13ifvqepg","pricing_plan_id":"cebpf4jnsgd1na2vs0mg"},{"bike_id":"89fd1e8b-6584-4e6c-90ce-c3b97fd397a1","system_id":"levelo_inurba_marseille","lat":43.30145,"lon":5.39877,"is_reserved":false,"is_disabled":false,"rental_uris":{"android":"levelo://app?vid=89fd1e8b-6584-4e6c-90ce-c3b97fd397a1","ios":"levelo://app?vid=89fd1e8b-6584-4e6c-90ce-c3b97fd397a1"},"vehicle_type_id":"4","last_reported":1728134001,"current_range_meters":38000,"station_id":"ce4bh0h2rcd13ifvqd40","pricing_plan_id":"cebpf4jnsgd1na2vs0mg"},{"bike_id":"79d4ce44-dde0-4856-adfb-9d048612b764","system_id":"levelo_inurba_marseille","lat":43.33758,"lon":5.37434,"is_reserved":false,"is_disabled":false,"rental_uris":{"android":"levelo://app?vid=79d4ce44-dde0-4856-adfb-9d048612b764","ios":"levelo://app?vid=79d4ce44-dde0-4856-adfb-9d048612b764"},"vehicle_type_id":"4","last_reported":1728134001,"current_range_meters":38000,"station_id":"","pricing_plan_id":"cebpf4jnsgd1na2vs0mg"},{"bike_id":"6362dd7e-711b-4b82-af8e-291ea8f6ea1e","system_id":"levelo_inurba_marseille","lat":43.33759,"lon":5.37437,"is_reserved":false,"is_disabled":false,"rental_uris":{"android":"levelo://app?vid=6362dd7e-711b-4b82-af8e-291ea8f6ea1e","ios":"levelo://app?vid=6362dd7e-711b-4b82-af8e-291ea8f6ea1e"},"vehicle_type_id":"4","last_reported":1728134001,"current_range_meters":36400,"station_id":"","pricing_plan_id":"cebpf4jnsgd1na2vs0mg"},{"bike_id":"0a1bdca5-6bb3-45ef-8222-f8c538711962","system_id":"levelo_inurba_marseille","lat":43.2808,"lon":5.39655,"is_reserved":false,"is_disabled":false,"rental_uris":{"android":"levelo://app?vid=0a1bdca5-6bb3-45ef-8222-f8c538711962","ios":"levelo://app?vid=0a1bdca5-6bb3-45ef-8222-f8c538711962"},"vehicle_type_id":"4","last_reported":1728134001,"current_range_meters":2800,"station_id":"ce4bho12rcd13ifvqh2g","pricing_plan_id":"cebpf4jnsgd1na2vs0mg"},{"bike_id":"55caaa4f-371d-41e4-877f-2b0b552288cc","system_id":"levelo_inurba_marseille","lat":43.31219,"lon":5.36843,"is_reserved":false,"is_disabled":false,"rental_uris":{"android":"levelo://app?vid=55caaa4f-371d-41e4-877f-2b0b552288cc","ios":"levelo://app?vid=55caaa4f-371d-41e4-877f-2b0b552288cc"},"vehicle_type_id":"4","last_reported":1728134001,"current_range_meters":38400,"station_id":"ce4bgl92rcd13ifvqbq0","pricing_plan_id":"cebpf4jnsgd1na2vs0mg"},{"bike_id":"22184ed8-d8fc-4dca-b974-1fe10b24a5a2","system_id":"levelo_inurba_marseille","lat":43.28414,"lon":5.34991,"is_reserved":false,"is_disabled":false,"rental_uris":{"android":"levelo://app?vid=22184ed8-d8fc-4dca-b974-1fe10b24a5a2","ios":"levelo://app?vid=22184ed8-d8fc-4dca-b974-1fe10b24a5a2"},"vehicle_type_id":"4","last_reported":1728134001,"current_range_meters":33200,"station_id":"ce4bhbh2rcd13ifvqepg","pricing_plan_id":"cebpf4jnsgd1na2vs0mg"},{"bike_id":"9c4c2785-4e07-4582-9294-b135155e2812","system_id":"levelo_inurba_marseille","lat":43.2511,"lon":5.40318,"is_reserved":false,"is_disabled":false,"rental_uris":{"android":"levelo://app?vid=9c4c2785-4e07-4582-9294-b135155e2812","ios":"levelo://app?vid=9c4c2785-4e07-4582-9294-b135155e2812"},"vehicle_type_id":"4","last_reported":1728134001,"current_range_meters":14000,"station_id":"ce4bhlh2rcd13ifvqgig","pricing_plan_id":"cebpf4jnsgd1na2vs0mg"},{"bike_id":"acd85f60-21fd-4362-a985-af1f9072aa29","system_id":"levelo_inurba_marseille","lat":43.28282,"lon":5.3741,"is_reserved":false,"is_disabled":false,"rental_uris":{"android":"levelo://app?vid=acd85f60-21fd-4362-a985-af1f9072aa29","ios":"levelo://app?vid=acd85f60-21fd-4362-a985-af1f9072aa29"},"vehicle_type_id":"4","last_reported":1728134001,"current_range_meters":18000,"station_id":"","pricing_plan_id":"cebpf4jnsgd1na2vs0mg"},{"bike_id":"5305316b-eb43-43cb-bedf-3a735be36892","system_id":"levelo_inurba_marseille","lat":43.31715,"lon":5.43706,"is_reserved":false,"is_disabled":false,"rental_uris":{"android":"levelo://app?vid=5305316b-eb43-43cb-bedf-3a735be36892","ios":"levelo://app?vid=5305316b-eb43-43cb-bedf-3a735be36892"},"vehicle_type_id":"4","last_reported":1728134001,"current_range_meters":37600,"station_id":"ce4bhp92rcd13ifvqhcg","pricing_plan_id":"cebpf4jnsgd1na2vs0mg"},{"bike_id":"191082f3-d6c6-4cdf-af68-76e707014d20","system_id":"levelo_inurba_marseille","lat":43.26804,"lon":5.40256,"is_reserved":false,"is_disabled":false,"rental_uris":{"android":"levelo://app?vid=191082f3-d6c6-4cdf-af68-76e707014d20","ios":"levelo://app?vid=191082f3-d6c6-4cdf-af68-76e707014d20"},"vehicle_type_id":"4","last_reported":1728134001,"current_range_meters":18800,"station_id":"ce501612rcd8frsf0b60","pricing_plan_id":"cebpf4jnsgd1na2vs0mg"},{"bike_id":"c4e3cfb6-43a7-40a1-8fc8-d96e5d94335c","system_id":"levelo_inurba_marseille","lat":43.23964,"lon":5.36629,"is_reserved":false,"is_disabled":false,"rental_uris":{"android":"levelo://app?vid=c4e3cfb6-43a7-40a1-8fc8-d96e5d94335c","ios":"levelo://app?vid=c4e3cfb6-43a7-40a1-8fc8-d96e5d94335c"},"vehicle_type_id":"4","last_reported":1728134001,"current_range_meters":10000,"station_id":"ce4bhi12rcd13ifvqfp0","pricing_plan_id":"cebpf4jnsgd1na2vs0mg"},{"bike_id":"f646f494-6ce1-4ee5-a296-db2cdb20e2d8","system_id":"levelo_inurba_marseille","lat":43.2827,"lon":5.35053,"is_reserved":false,"is_disabled":false,"rental_uris":{"android":"levelo://app?vid=f646f494-6ce1-4ee5-a296-db2cdb20e2d8","ios":"levelo://app?vid=f646f494-6ce1-4ee5-a296-db2cdb20e2d8"},