{"last_updated":1731924678,"ttl":60,"version":"2.2","data":{"bikes":[{"bike_id":"d156847a-ba51-48d7-ae19-397cfb973d50","system_id":"levelo_inurba_marseille","lat":43.337444,"lon":5.374475,"is_reserved":false,"is_disabled":false,"rental_uris":{"android":"levelo://app?vid=d156847a-ba51-48d7-ae19-397cfb973d50","ios":"levelo://app?vid=d156847a-ba51-48d7-ae19-397cfb973d50"},"vehicle_type_id":"4","last_reported":1731924678,"current_range_meters":37600,"station_id":"","pricing_plan_id":"cebpf4jnsgd1na2vs0mg"},{"bike_id":"fb3af305-4514-454e-b4a1-f28931733540","system_id":"levelo_inurba_marseille","lat":43.2318,"lon":5.39991,"is_reserved":false,"is_disabled":false,"rental_uris":{"android":"levelo://app?vid=fb3af305-4514-454e-b4a1-f28931733540","ios":"levelo://app?vid=fb3af305-4514-454e-b4a1-f28931733540"},"vehicle_type_id":"4","last_reported":1731924678,"current_range_meters":39200,"station_id":"ce4bhn12rcd13ifvqgqg","pricing_plan_id":"cebpf4jnsgd1na2vs0mg"},{"bike_id":"a176f94a-12e4-405f-b9d4-97ba5574439b","system_id":"levelo_inurba_marseille","lat":43.30957,"lon":5.39047,"is_reserved":false,"is_disabled":false,"rental_uris":{"android":"levelo://app?vid=a176f94a-12e4-405f-b9d4-97ba5574439b","ios":"levelo://app?vid=a176f94a-12e4-405f-b9d4-97ba5574439b"},"vehicle_type_id":"4","last_reported":1731924678,"current_range_meters":38800,"station_id":"ce4bgup2rcd13ifvqco0","pricing_plan_id":"cebpf4jnsgd1na2vs0mg"},{"bike_id":"8c10ab09-c2a0-44aa-8d74-39b3de7108e5","system_id":"levelo_inurba_marseille","lat":43.29012,"lon":5.35624,"is_reserved":false,"is_disabled":false,"rental_uris":{"android":"levelo://app?vid=8c10ab09-c2a0-44aa-8d74-39b3de7108e5","ios":"levelo://app?vid=8c10ab09-c2a0-44aa-8d74-39b3de7108e5"},"vehicle_type_id":"4","last_reported":1731924678,"current_range_meters":38800,"station_id":"ce4bhb92rcd13ifvqen0","pricing_plan_id":"cebpf4jnsgd1na2vs0mg"},{"bike_id":"4dcf46ca-97d3-4646-8193-7170ea46e339","system_id":"levelo_inurba_marseille","lat":43.24078,"lon":5.37747,"is_reserved":false,"is_disabled":false,"rental_uris":{"android":"levelo://app?vid=4dcf46ca-97d3-4646-8193-7170ea46e339","ios":"levelo://app?vid=4dcf46ca-97d3-4646-8193-7170ea46e339"},"vehicle_type_id":"4","last_reported":1731924678,"current_range_meters":6400,"station_id":"ce4bhnp2rcd13ifvqgvg","pricing_plan_id":"cebpf4jnsgd1na2vs0mg"},{"bike_id":"9d3506a7-93b0-481a-a9f4-f87ba4b5a00d","system_id":"levelo_inurba_marseille","lat":43.2408,"lon":5.37749,"is_reserved":false,"is_disabled":false,"rental_uris":{"android":"levelo://app?vid=9d3506a7-93b0-481a-a9f4-f87ba4b5a00d","ios":"levelo://app?vid=9d3506a7-93b0-481a-a9f4-f87ba4b5a00d"},"vehicle_type_id":"4","last_reported":1731924678,"current_range_meters":14000,"station_id":"ce4bhnp2rcd13ifvqgvg","pricing_plan_id":"cebpf4jnsgd1na2vs0mg"},{"bike_id":"4c07d5e4-3f48-4074-a1ad-89c1a59ccdd6","system_id":"levelo_inurba_marseille","lat":43.28079,"lon":5.39664,"is_reserved":false,"is_disabled":false,"rental_uris":{"android":"levelo://app?vid=4c07d5e4-3f48-4074-a1ad-89c1a59ccdd6","ios":"levelo://app?vid=4c07d5e4-3f48-4074-a1ad-89c1a59ccdd6"},"vehicle_type_id":"4","last_reported":1731924678,"current_range_meters":14800,"station_id":"ce4bho12rcd13ifvqh2g","pricing_plan_id":"cebpf4jnsgd1na2vs0mg"},{"bike_id":"e4d4b6a3-efd8-4f6a-b18f-9e5609305c48","system_id":"levelo_inurba_marseille","lat":43.25589,"lon":5.38229,"is_reserved":false,"is_disabled":false,"rental_uris":{"android":"levelo://app?vid=e4d4b6a3-efd8-4f6a-b18f-9e5609305c48","ios":"levelo://app?vid=e4d4b6a3-efd8-4f6a-b18f-9e5609305c48"},"vehicle_type_id":"4","last_reported":1731924678,"current_range_meters":14800,"station_id":"ce4bhih2rcd13ifvqfs0","pricing_plan_id":"cebpf4jnsgd1na2vs0mg"},{"bike_id":"0672d165-d197-4474-bbec-2df95543fd2f","system_id":"levelo_inurba_marseille","lat":43.29903,"lon":5.43668,"is_reserved":false,"is_disabled":false,"rental_uris":{"android":"levelo://app?vid=0672d165-d197-4474-bbec-2df95543fd2f","ios":"levelo://app?vid=0672d165-d197-4474-bbec-2df95543fd2f"},"vehicle_type_id":"4","last_reported":1731924678,"current_range_meters":38000,"station_id":"ce4bhpp2rcd13ifvqhfg","pricing_plan_id":"cebpf4jnsgd1na2vs0mg"},{"bike_id":"8e1608f7-0c9d-4d5a-bdae-d5e906f9b475","system_id":"levelo_inurba_marseille","lat":43.23149,"lon":5.43711,"is_reserved":false,"is_disabled":false,"rental_uris":{"android":"levelo://app?vid=8e1608f7-0c9d-4d5a-bdae-d5e906f9b475","ios":"levelo://app?vid=8e1608f7-0c9d-4d5a-bdae-d5e906f9b475"},"vehicle_type_id":"4","last_reported":1731924678,"current_range_meters":19200,"station_id":"ce4bhmp2rcd13ifvqgog","pricing_plan_id":"cebpf4jnsgd1na2vs0mg"},{"bike_id":"5cf6163b-0b69-4ea6-9575-0a2ed6c16fe9","system_id":"levelo_inurba_marseille","lat":43.27074,"lon":5.42278,"is_reserved":false,"is_disabled":false,"rental_uris":{"android":"levelo://app?vid=5cf6163b-0b69-4ea6-9575-0a2ed6c16fe9","ios":"levelo://app?vid=5cf6163b-0b69-4ea6-9575-0a2ed6c16fe9"},"vehicle_type_id":"4","last_reported":1731924678,"current_range_meters":6400,"station_id":"ce4bhk92rcd13ifvqgb0","pricing_plan_id":"cebpf4jnsgd1na2vs0mg"},{"bike_id":"13fa1f82-3d70-4237-9172-96a864040cd2","system_id":"levelo_inurba_marseille","lat":43.29788,"lon":5.39347,"is_reserved":false,"is_disabled":false,"rental_uris":{"android":"levelo://app?vid=13fa1f82-3d70-4237-9172-96a864040cd2","ios":"levelo://app?vid=13fa1f82-3d70-4237-9172-96a864040cd2"},"vehicle_type_id":"4","last_reported":1731924678,"current_range_meters":35200,"station_id":"chh1huq6cuj3fo74tm60","pricing_plan_id":"cebpf4jnsgd1na2vs0mg"},{"bike_id":"572612f6-46e2-444e-81ae-97635107e19d","system_id":"levelo_inurba_marseille","lat":43.30955,"lon":5.39047,"is_reserved":false,"is_disabled":false,"rental_uris":{"android":"levelo://app?vid=572612f6-46e2-444e-81ae-97635107e19d","ios":"levelo://app?vid=572612f6-46e2-444e-81ae-97635107e19d"},"vehicle_type_id":"4","last_reported":1731924678,"current_range_meters":17600,"station_id":"ce4bgup2rcd13ifvqco0","pricing_plan_id":"cebpf4jnsgd1na2vs0mg"},{"bike_id":"4c167bc3-2964-4625-adc0-c92e539ad80f","system_id":"levelo_inurba_marseille","lat":43.28278,"lon":5.40797,"is_reserved":false,"is_disabled":false,"rental_uris":{"android":"levelo://app?vid=4c167bc3-2964-4625-adc0-c92e539ad80f","ios":"levelo://app?vid=4c167bc3-2964-4625-adc0-c92e539ad80f"},"vehicle_type_id":"4","last_reported":1731924678,"current_range_meters":30000,"station_id":"","pricing_plan_id":"cebpf4jnsgd1na2vs0mg"},{"bike_id":"4d3b4655-4b5b-47a3-9888-1cf2725c1ba6","system_id":"levelo_inurba_marseille","lat":43.3028,"lon":5.37689,"is_reserved":false,"is_disabled":false,"rental_uris":{"android":"levelo://app?vid=4d3b4655-4b5b-47a3-9888-1cf2725c1ba6","ios":"levelo://app?vid=4d3b4655-4b5b-47a3-9888-1cf2725c1ba6"},"vehicle_type_id":"4","last_reported":1731924678,"current_range_meters":25600,"station_id":"ce4bguh2rcd13ifvqcj0","pricing_plan_id":"cebpf4jnsgd1na2vs0mg"},{"bike_id":"dc24ccdd-f78a-4bfd-b60d-87b5aafd671c","system_id":"levelo_inurba_marseille","lat":43.30532,"lon":5.36533,"is_reserved":false,"is_disabled":false,"rental_uris":{"android":"levelo://app?vid=dc24ccdd-f78a-4bfd-b60d-87b5aafd671c","ios":"levelo://app?vid=dc24ccdd-f78a-4bfd-b60d-87b5aafd671c"},"vehicle_type_id":"4","last_reported":1731924678,"current_range_meters":33600,"station_id":"ce4bgs12rcd13ifvqcag","pricing_plan_id":"cebpf4jnsgd1na2vs0mg"},{"bike_id":"04158bc5-9c78-48e9-a13d-accf0389172c","system_id":"levelo_inurba_marseille","lat":43.309451,"lon":5.390207,"is_reserved":false,"is_disabled":false,"rental_uris":{"android":"levelo://app?vid=04158bc5-9c78-48e9-a13d-accf0389172c","ios":"levelo://app?vid=04158bc5-9c78-48e9-a13d-accf0389172c"},"vehicle_type_id":"4","last_reported":1731924678,"current_range_meters":9200,"station_id":"ce4bgqh2rcd13ifvqc4g","pricing_plan_id":"cebpf4jnsgd1na2vs0mg"},{"bike_id":"853a1166-61cc-42b2-9e7f-3b747ea4f57f","system_id":"levelo_inurba_marseille","lat":43.29545,"lon":5.42282,"is_reserved":false,"is_disabled":false,"rental_uris":{"android":"levelo://app?vid=853a1166-61cc-42b2-9e7f-3b747ea4f57f","ios":"levelo://app?vid=853a1166-61cc-42b2-9e7f-3b747ea4f57f"},"vehicle_type_id":"4","last_reported":1731924678,"current_range_meters":39200,"station_id":"ce4bhph2rcd13ifvqhdg","pricing_plan_id":"cebpf4jnsgd1na2vs0mg"},{"bike_id":"c3e4d78a-dd1f-4cf1-b44e-038eff147532","system_id":"levelo_inurba_marseille","lat":43.29581,"lon":5.36736,"is_reserved":false,"is_disabled":false,"rental_uris":{"android":"levelo://app?vid=c3e4d78a-dd1f-4cf1-b44e-038eff147532","ios":"levelo://app?vid=c3e4d78a-dd1f-4cf1-b44e-038eff147532"},"vehicle_type_id":"4","last_reported":1731924678,"current_range_meters":38800,"station_id":"ce4bgph2rcd13ifvqc2g","pricing_plan_id":"cebpf4jnsgd1na2vs0mg"},{"bike_id":"6b0ea79e-cb12-4a50-9845-e4686b3cacc8","system_id":"levelo_inurba_marseille","lat":43.295751,"lon":5.399791,"is_reserved":false,"is_disabled":false,"rental_uris":{"android":"levelo://app?vid=6b0ea79e-cb12-4a50-9845-e4686b3cacc8","ios":"levelo://app?vid=6b0ea79e-cb12-4a50-9845-e4686b3cacc8"},"vehicle_type_id":"4","last_reported":1731924678,"current_range_meters":5600,"station_id":"","pricing_plan_id":"cebpf4jnsgd1na2vs0mg"},{"bike_id":"3de79762-7d3a-4ddd-9398-05d2c68d3618","system_id":"levelo_inurba_marseille","lat":43.33763,"lon":5.37463,"is_reserved":false,"is_disabled":false,"rental_uris":{"android":"levelo://app?vid=3de79762-7d3a-4ddd-9398-05d2c68d3618","ios":"levelo://app?vid=3de79762-7d3a-4ddd-9398-05d2c68d3618"},"vehicle_type_id":"4","last_reported":1731924678,"current_range_meters":38800,"station_id":"","pricing_plan_id":"cebpf4jnsgd1na2vs0mg"},{"bike_id":"c6f935b5-1fb8-4ac2-948d-41849ba56e58","system_id":"levelo_inurba_marseille","lat":43.30887,"lon":5.3965,"is_reserved":false,"is_disabled":false,"rental_uris":{"android":"levelo://app?vid=c6f935b5-1fb8-4ac2-948d-41849ba56e58","ios":"levelo://app?vid=c6f935b5-1fb8-4ac2-948d-41849ba56e58"},"vehicle_type_id":"4","last_reported":1731924678,"current_range_meters":38400,"station_id":"ce4bh012rcd13ifvqcv0","pricing_plan_id":"cebpf4jnsgd1na2vs0mg"},{"bike_id":"8666faf0-7c6b-4264-a47c-d1edc2a6df92","system_id":"levelo_inurba_marseille","lat":43.22932,"lon":5.35375,"is_reserved":false,"is_disabled":false,"rental_uris":{"android":"levelo://app?vid=8666faf0-7c6b-4264-a47c-d1edc2a6df92","ios":"levelo://app?vid=8666faf0-7c6b-4264-a47c-d1edc2a6df92"},"vehicle_type_id":"4","last_reported":1731924678,"current_range_meters":24800,"station_id":"cpo3532slgdg3j2ikp40","pricing_plan_id":"cebpf4jnsgd1na2vs0mg"},{"bike_id":"e564c6bf-05ad-4d88-a069-e0fe90f490f7","system_id":"levelo_inurba_marseille","lat":43.29623,"lon":5.37168,"is_reserved":false,"is_disabled":false,"rental_uris":{"android":"levelo://app?vid=e564c6bf-05ad-4d88-a069-e0fe90f490f7","ios":"levelo://app?vid=e564c6bf-05ad-4d88-a069-e0fe90f490f7"},"vehicle_type_id":"4","last_reported":1731924678,"current_range_meters":8400,"station_id":"ce4bgnh2rcd13ifvqc0g","pricing_plan_id":"cebpf4jnsgd1na2vs0mg"},{"bike_id":"e0b967c0-b35f-4934-9248-f55c41b4f08b","system_id":"levelo_inurba_marseille","lat":43.28151,"lon":5.4422,"is_reserved":false,"is_disabled":false,"rental_uris":{"android":"levelo://app?vid=e0b967c0-b35f-4934-9248-f55c41b4f08b","ios":"levelo://app?vid=e0b967c0-b35f-4934-9248-f55c41b4f08b"},"vehicle_type_id":"4","last_reported":1731924678,"current_range_meters":3600,"station_id":"","pricing_plan_id":"cebpf4jnsgd1na2vs0mg"},{"bike_id":"57edd0e2-68de-4e93-a8c5-cbb7808c0b01","system_id":"levelo_inurba_marseille","lat":43.24819,"lon":5.37454,"is_reserved":false,"is_disabled":false,"rental_uris":{"android":"levelo://app?vid=57edd0e2-68de-4e93-a8c5-cbb7808c0b01","ios":"levelo://app?vid=57edd0e2-68de-4e93-a8c5-cbb7808c0b01"},"vehicle_type_id":"4","last_reported":1731924678,"current_range_meters":20000,"station_id":"ce4bhgh2rcd13ifvqfb0","pricing_plan_id":"cebpf4jnsgd1na2vs0mg"},{"bike_id":"0b38b36a-cb8f-48e5-a013-7abb6c4dcc0e","system_id":"levelo_inurba_marseille","lat":43.27999,"lon":5.40018,"is_reserved":false,"is_disabled":false,"rental_uris":{"android":"levelo://app?vid=0b38b36a-cb8f-48e5-a013-7abb6c4dcc0e","ios":"levelo://app?vid=0b38b36a-cb8f-48e5-a013-7abb6c4dcc0e"},"vehicle_type_id":"4","last_reported":1731924678,"current_range_meters":29600,"station_id":"ce4bho92rcd13ifvqh4g","pricing_plan_id":"cebpf4jnsgd1na2vs0mg"},{"bike_id":"d0b0ce12-16f6-4fe3-b743-c0018360672a","system_id":"levelo_inurba_marseille","lat":43.29172,"lon":5.37157,"is_reserved":false,"is_disabled":false,"rental_uris":{"android":"levelo://app?vid=d0b0ce12-16f6-4fe3-b743-c0018360672a","ios":"levelo://app?vid=d0b0ce12-16f6-4fe3-b743-c0018360672a"},"vehicle_type_id":"4","last_reported":1731924678,"current_range_meters":16000,"station_id":"ce4bha92rcd13ifvqeh0","pricing_plan_id":"cebpf4jnsgd1na2vs0mg"},{"bike_id":"4ce2bd69-819e-43e6-97a3-4dd30d8e5432","system_id":"levelo_inurba_marseille","lat":43.29725,"lon":5.37685,"is_reserved":false,"is_disabled":false,"rental_uris":{"android":"levelo://app?vid=4ce2bd69-819e-43e6-97a3-4dd30d8e5432","ios":"levelo://app?vid=4ce2bd69-819e-43e6-97a3-4dd30d8e5432"},"vehicle_type_id":"4","last_reported":1731924678,"current_range_meters":38000,"station_id":"ce4bgkh2rcd13ifvqbl0","pricing_plan_id":"cebpf4jnsgd1na2vs0mg"},{"bike_id":"ebc5ff2a-1934-4dc8-9d0f-bc104e73ada8","system_id":"levelo_inurba_marseille","lat":43.30139,"lon":5.37424,"is_reserved":false,"is_disabled":false,"rental_uris":{"android":"levelo://app?vid=ebc5ff2a-1934-4dc8-9d0f-bc104e73ada8","ios":"levelo://app?vid=ebc5ff2a-1934-4dc8-9d0f-bc104e73ada8"},"vehicle_type_id":"4","last_reported":1731924678,"current_range_meters":25600,"station_id":"ce4bgs92rcd13ifvqcc0","pricing_plan_id":"cebpf4jnsgd1na2vs0mg"},{"bike_id":"5be600ff-958a-4031-9ec8-d554b363a204","system_id":"levelo_inurba_marseille","lat":43.24078,"lon":5.37748,"is_reserved":false,"is_disabled":false,"rental_uris":{"android":"levelo://app?vid=5be600ff-958a-4031-9ec8-d554b363a204","ios":"levelo://app?vid=5be600ff-958a-4031-9ec8-d554b363a204"},"vehicle_type_id":"4","last_reported":1731924678,"current_range_meters":16000,"station_id":"ce4bhnp2rcd13ifvqgvg","pricing_plan_id":"cebpf4jnsgd1na2vs0mg"},{"bike_id":"4305c1d1-ca62-4e47-ac96-b9970d6e957d","system_id":"levelo_inurba_marseille","lat":43.23194,"lon":5.35547,"is_reserved":false,"is_disabled":false,"rental_uris":{"android":"levelo://app?vid=4305c1d1-ca62-4e47-ac96-b9970d6e957d","ios":"levelo://app?vid=4305c1d1-ca62-4e47-ac96-b9970d6e957d"},"vehicle_type_id":"4","last_reported":1731924678,"current_range_meters":38800,"station_id":"ce4bhu92rcd13ifvqi70","pricing_plan_id":"cebpf4jnsgd1na2vs0mg"},{"bike_id":"79bb4caa-e313-469b-ba3b-de2b77bc3679","system_id":"levelo_inurba_marseille","lat":43.294312,"lon":5.398156,"is_reserved":false,"is_disabled":false,"rental_uris":{"android":"levelo://app?vid=79bb4caa-e313-469b-ba3b-de2b77bc3679","ios":"levelo://app?vid=79bb4caa-e313-469b-ba3b-de2b77bc3679"},"vehicle_type_id":"4","last_reported":1731924678,"current_range_meters":35600,"station_id":"ce4bh3h2rcd13ifvqdo0","pricing_plan_id":"cebpf4jnsgd1na2vs0mg"},{"bike_id":"2bd3ae1c-22d2-4b0f-9fd7-42d6b84fc3a3","system_id":"levelo_inurba_marseille","lat":43.33603,"lon":5.41035,"is_reserved":false,"is_disabled":false,"rental_uris":{"android":"levelo://app?vid=2bd3ae1c-22d2-4b0f-9fd7-42d6b84fc3a3","ios":"levelo://app?vid=2bd3ae1c-22d2-4b0f-9fd7-42d6b84fc3a3"},"vehicle_type_id":"4","last_reported":1731924678,"current_range_meters":11600,"station_id":"ce4bhqh2rcd13ifvqhmg","pricing_plan_id":"cebpf4jnsgd1na2vs0mg"},{"bike_id":"79b76398-f4aa-422b-b325-2360d07a8784","system_id":"levelo_inurba_marseille","lat":43.3373,"lon":5.39183,"is_reserved":false,"is_disabled":false,"rental_uris":{"android":"levelo://app?vid=79b76398-f4aa-422b-b325-2360d07a8784","ios":"levelo://app?vid=79b76398-f4aa-422b-b325-2360d07a8784"},"vehicle_type_id":"4","last_reported":1731924678,"current_range_meters":38000,"station_id":"ce4bhr92rcd13ifvqhsg","pricing_plan_id":"cebpf4jnsgd1na2vs0mg"},{"bike_id":"7a50bb6d-7fad-4773-97a1-766337904a2d","system_id":"levelo_inurba_marseille","lat":43.28459,"lon":5.35891,"is_reserved":false,"is_disabled":false,"rental_uris":{"android":"levelo://app?vid=7a50bb6d-7fad-4773-97a1-766337904a2d","ios":"levelo://app?vid=7a50bb6d-7fad-4773-97a1-766337904a2d"},"vehicle_type_id":"4","last_reported":1731924678,"current_range_meters":38800,"station_id":"ce4bhah2rcd13ifvqei0","pricing_plan_id":"cebpf4jnsgd1na2vs0mg"},{"bike_id":"1a93d716-7d0d-4e27-983d-5b1a467137b7","system_id":"levelo_inurba_marseille","lat":43.30889,"lon":5.39644,"is_reserved":false,"is_disabled":false,"rental_uris":{"android":"levelo://app?vid=1a93d716-7d0d-4e27-983d-5b1a467137b7","ios":"levelo://app?vid=1a93d716-7d0d-4e27-983d-5b1a467137b7"},"vehicle_type_id":"4","last_reported":1731924678,"current_range_meters":38400,"station_id":"ce4bh012rcd13ifvqcv0","pricing_plan_id":"cebpf4jnsgd1na2vs0mg"},{"bike_id":"f547dc2a-7341-4371-8e50-941333da4743","system_id":"levelo_inurba_marseille","lat":43.2408,"lon":5.37744,"is_reserved":false,"is_disabled":false,"rental_uris":{"android":"levelo://app?vid=f547dc2a-7341-4371-8e50-941333da4743","ios":"levelo://app?vid=f547dc2a-7341-4371-8e50-941333da4743"},"vehicle_type_id":"4","last_reported":1731924678,"current_range_meters":28400,"station_id":"ce4bhnp2rcd13ifvqgvg","pricing_plan_id":"cebpf4jnsgd1na2vs0mg"},{"bike_id":"3ba2b2e1-3c95-4de7-915d-86cf8ebac199","system_id":"levelo_inurba_marseille","lat":43.23151,"lon":5.43723,"is_reserved":false,"is_disabled":false,"rental_uris":{"android":"levelo://app?vid=3ba2b2e1-3c95-4de7-915d-86cf8ebac199","ios":"levelo://app?vid=3ba2b2e1-3c95-4de7-915d-86cf8ebac199"},"vehicle_type_id":"4","last_reported":1731924678,"current_range_meters":27600,"station_id":"ce4bhmp2rcd13ifvqgog","pricing_plan_id":"cebpf4jnsgd1na2vs0mg"},{"bike_id":"75d5d9b0-1a26-4958-947d-de357f07f02c","system_id":"levelo_inurba_marseille","lat":43.31756,"lon":5.39014,"is_reserved":false,"is_disabled":false,"rental_uris":{"android":"levelo://app?vid=75d5d9b0-1a26-4958-947d-de357f07f02c","ios":"levelo://app?vid=75d5d9b0-1a26-4958-947d-de357f07f02c"},"vehicle_type_id":"4","last_reported":1731924678,"current_range_meters":33600,"station_id":"ce4bhqp2rcd13ifvqhng","pricing_plan_id":"cebpf4jnsgd1na2vs0mg"},{"bike_id":"d2f0f3fe-5594-42dd-8e69-8cdbebee7e7d","system_id":"levelo_inurba_marseille","lat":43.23152,"lon":5.43716,"is_reserved":false,"is_disabled":false,"rental_uris":{"android":"levelo://app?vid=d2f0f3fe-5594-42dd-8e69-8cdbebee7e7d","ios":"levelo://app?vid=d2f0f3fe-5594-42dd-8e69-8cdbebee7e7d"},"vehicle_type_id":"4","last_reported":1731924678,"current_range_meters":17200,"station_id":"ce4bhmp2rcd13ifvqgog","pricing_plan_id":"cebpf4jnsgd1na2vs0mg"},{"bike_id":"2c4874ef-9abd-4400-8cd7-bafe971a0da7","system_id":"levelo_inurba_marseille","lat":43.26673,"lon":5.38268,"is_reserved":false,"is_disabled":false,"rental_uris":{"android":"levelo://app?vid=2c4874ef-9abd-4400-8cd7-bafe971a0da7","ios":"levelo://app?vid=2c4874ef-9abd-4400-8cd7-bafe971a0da7"},"vehicle_type_id":"4","last_reported":1731924678,"current_range_meters":28000,"station_id":"ce4bhg92rcd13ifvqf90","pricing_plan_id":"cebpf4jnsgd1na2vs0mg"},{"bike_id":"e0c06d7f-6c9a-4d47-aebf-1f4d87b9a208","system_id":"levelo_inurba_marseille","lat":43.2408,"lon":5.37748,"is_reserved":false,"is_disabled":false,"rental_uris":{"android":"levelo://app?vid=e0c06d7f-6c9a-4d47-aebf-1f4d87b9a208","ios":"levelo://app?vid=e0c06d7f-6c9a-4d47-aebf-1f4d87b9a208"},"vehicle_type_id":"4","last_reported":1731924678,"current_range_meters":29600,"station_id":"ce4bhnp2rcd13ifvqgvg","pricing_plan_id":"cebpf4jnsgd1na2vs0mg"},{"bike_id":"20b8bb00-4fa4-49d3-b00f-f353e411e243","system_id":"levelo_inurba_marseille","lat":43.27069,"lon":5.42273,"is_reserved":false,"is_disabled":false,"rental_uris":{"android":"levelo://app?vid=20b8bb00-4fa4-49d3-b00f-f353e411e243","ios":"levelo://app?vid=20b8bb00-4fa4-49d3-b00f-f353e411e243"},"vehicle_type_id":"4","last_reported":1731924678,"current_range_meters":16400,"station_id":"ce4bhk92rcd13ifvqgb0","pricing_plan_id":"cebpf4jnsgd1na2vs0mg"},{"bike_id":"5f89f61e-343d-4cfe-8829-222555f36d01","system_id":"levelo_inurba_marseille","lat":43.3135,"lon":5.36721,"is_reserved":false,"is_disabled":false,"rental_uris":{"android":"levelo://app?vid=5f89f61e-343d-4cfe-8829-222555f36d01","ios":"levelo://app?vid=5f89f61e-343d-4cfe-8829-222555f36d01"},"vehicle_type_id":"4","last_reported":1731924678,"current_range_meters":36400,"station_id":"ce4bgr92rcd13ifvqc6g","pricing_plan_id":"cebpf4jnsgd1na2vs0mg"},{"bike_id":"843e9cf8-cb36-40cc-a9bb-d3ba7a303f37","system_id":"levelo_inurba_marseille","lat":43.27495,"lon":5.42452,"is_reserved":false,"is_disabled":false,"rental_uris":{"android":"levelo://app?vid=843e9cf8-cb36-40cc-a9bb-d3ba7a303f37","ios":"levelo://app?vid=843e9cf8-cb36-40cc-a9bb-d3ba7a303f37"},"vehicle_type_id":"4","last_reported":1731924678,"current_range_meters":19600,"station_id":"ce4bhn92rcd13ifvqgrg","pricing_plan_id":"cebpf4jnsgd1na2vs0mg"},{"bike_id":"f21c48c3-a1e5-4ba3-9b29-fdd091aefe72","system_id":"levelo_inurba_marseille","lat":43.28435,"lon":5.39188,"is_reserved":false,"is_disabled":false,"rental_uris":{"android":"levelo://app?vid=f21c48c3-a1e5-4ba3-9b29-fdd091aefe72","ios":"levelo://app?vid=f21c48c3-a1e5-4ba3-9b29-fdd091aefe72"},"vehicle_type_id":"4","last_reported":1731924678,"current_range_meters":12000,"station_id":"ce4bhoh2rcd13ifvqh5g","pricing_plan_id":"cebpf4jnsgd1na2vs0mg"},{"bike_id":"4b45f2f7-39e0-4643-b2c9-db7253417500","system_id":"levelo_inurba_marseille","lat":43.3133,"lon":5.39685,"is_reserved":false,"is_disabled":false,"rental_uris":{"android":"levelo://app?vid=4b45f2f7-39e0-4643-b2c9-db7253417500","ios":"levelo://app?vid=4b45f2f7-39e0-4643-b2c9-db7253417500"},"vehicle_type_id":"4","last_reported":1731924678,"current_range_meters":20800,"station_id":"ce4bgvp2rcd13ifvqcu0","pricing_plan_id":"cebpf4jnsgd1na2vs0mg"},{"bike_id":"0b057349-f250-4577-af67-19fa9ffc1374","system_id":"levelo_inurba_marseille","lat":43.29193,"lon":5.35798,"is_reserved":false,"is_disabled":false,"rental_uris":{"android":"levelo://app?vid=0b057349-f250-4577-af67-19fa9ffc1374","ios":"levelo://app?vid=0b057349-f250-4577-af67-19fa9ffc1374"},"vehicle_type_id":"4","last_reported":1731924678,"current_range_meters":25600,"station_id":"ce4bhb12rcd13ifvqel0","pricing_plan_id":"cebpf4jnsgd1na2vs0mg"},{"bike_id":"10dc04fe-e3bf-435d-bf01-2e0d45200714","system_id":"levelo_inurba_marseille","lat":43.2961,"lon":5.37709,"is_reserved":false,"is_disabled":false,"rental_uris":{"android":"levelo://app?vid=10dc04fe-e3bf-435d-bf01-2e0d45200714","ios":"levelo://app?vid=10dc04fe-e3bf-435d-bf01-2e0d45200714"},"vehicle_type_id":"4","last_reported":1731924678,"current_range_meters":38800,"station_id":"ce4bgi92rcd13ifvqb90","pricing_plan_id":"cebpf4jnsgd1na2vs0mg"},{"bike_id":"4f475baa-25a7-46a4-bbb6-a03c9b045fca","system_id":"levelo_inurba_marseille","lat":43.26039,"lon":5.3755,"is_reserved":false,"is_disabled":false,"rental_uris":{"android":"levelo://app?vid=4f475baa-25a7-46a4-bbb6-a03c9b045fca","ios":"levelo://app?vid=4f475baa-25a7-46a4-bbb6-a03c9b045fca"},"vehicle_type_id":"4","last_reported":1731924678,"current_range_meters":33200,"station_id":"ce4bhgh2rcd13ifvqfa0","pricing_plan_id":"cebpf4jnsgd1na2vs0mg"},{"bike_id":"89e5e066-8e8b-4f46-b612-129fca9a9d8b","system_id":"levelo_inurba_marseille","lat":43.3096,"lon":5.3904,"is_reserved":false,"is_disabled":false,"rental_uris":{"android":"levelo://app?vid=89e5e066-8e8b-4f46-b612-129fca9a9d8b","ios":"levelo://app?vid=89e5e066-8e8b-4f46-b612-129fca9a9d8b"},"vehicle_type_id":"4","last_reported":1731924678,"current_range_meters":39200,"station_id":"ce4bgup2rcd13ifvqco0","pricing_plan_id":"cebpf4jnsgd1na2vs0mg"},{"bike_id":"0037c62e-50ee-41a8-945a-3f9a1405ce9d","system_id":"levelo_inurba_marseille","lat":43.31328,"lon":5.39689,"is_reserved":false,"is_disabled":false,"rental_uris":{"android":"levelo://app?vid=0037c62e-50ee-41a8-945a-3f9a1405ce9d","ios":"levelo://app?vid=0037c62e-50ee-41a8-945a-3f9a1405ce9d"},"vehicle_type_id":"4","last_reported":1731924678,"current_range_meters":39200,"station_id":"ce4bgvp2rcd13ifvqcu0","pricing_plan_id":"cebpf4jnsgd1na2vs0mg"},{"bike_id":"5cad086e-cb7b-4491-81b8-b4839c9d4e1f","system_id":"levelo_inurba_marseille","lat":43.3361,"lon":5.41027,"is_reserved":false,"is_disabled":false,"rental_uris":{"android":"levelo://app?vid=5cad086e-cb7b-4491-81b8-b4839c9d4e1f","ios":"levelo://app?vid=5cad086e-cb7b-4491-81b8-b4839c9d4e1f"},"vehicle_type_id":"4","last_reported":1731924678,"current_range_meters":36400,"station_id":"ce4bhqh2rcd13ifvqhmg","pricing_plan_id":"cebpf4jnsgd1na2vs0mg"},{"bike_id":"8c43ec51-a327-446e-8cf3-4b92e82d4a0c","system_id":"levelo_inurba_marseille","lat":43.3134,"lon":5.36711,"is_reserved":false,"is_disabled":false,"rental_uris":{"android":"levelo://app?vid=8c43ec51-a327-446e-8cf3-4b92e82d4a0c","ios":"levelo://app?vid=8c43ec51-a327-446e-8cf3-4b92e82d4a0c"},"vehicle_type_id":"4","last_reported":1731924678,"current_range_meters":38800,"station_id":"ce4bgr92rcd13ifvqc6g","pricing_plan_id":"cebpf4jnsgd1na2vs0mg"},{"bike_id":"27757d2e-94cc-46f1-b4e2-8780c773e562","system_id":"levelo_inurba_marseille","lat":43.34141,"lon":5.40898,"is_reserved":false,"is_disabled":false,"rental_uris":{"android":"levelo://app?vid=27757d2e-94cc-46f1-b4e2-8780c773e562","ios":"levelo://app?vid=27757d2e-94cc-46f1-b4e2-8780c773e562"},"vehicle_type_id":"4","last_reported":1731924678,"current_range_meters":28800,"station_id":"ce4bhqh2rcd13ifvqhlg","pricing_plan_id":"cebpf4jnsgd1na2vs0mg"},{"bike_id":"2c916808-1103-40df-bd9a-a6bf4818d9cd","system_id":"levelo_inurba_marseille","lat":43.31337,"lon":5.36712,"is_reserved":false,"is_disabled":false,"rental_uris":{"android":"levelo://app?vid=2c916808-1103-40df-bd9a-a6bf4818d9cd","ios":"levelo://app?vid=2c916808-1103-40df-bd9a-a6bf4818d9cd"},"vehicle_type_id":"4","last_reported":1731924678,"current_range_meters":39200,"station_id":"ce4bgr92rcd13ifvqc6g","pricing_plan_id":"cebpf4jnsgd1na2vs0mg"},{"bike_id":"1e20f6b0-197e-4380-9980-b57ccfaaa0a4","system_id":"levelo_inurba_marseille","lat":43.29437,"lon":5.39756,"is_reserved":false,"is_disabled":false,"rental_uris":{"android":"levelo://app?vid=1e20f6b0-197e-4380-9980-b57ccfaaa0a4","ios":"levelo://app?vid=1e20f6b0-197e-4380-9980-b57ccfaaa0a4"},"vehicle_type_id":"4","last_reported":1731924678,"current_range_meters":38800,"station_id":"ce4bh3h2rcd13ifvqdo0","pricing_plan_id":"cebpf4jnsgd1na2vs0mg"},{"bike_id":"f493fbd1-a6d2-46e7-bd5f-a282c47329e6","system_id":"levelo_inurba_marseille","lat":43.29901,"lon":5.43662,"is_reserved":false,"is_disabled":false,"rental_uris":{"android":"levelo://app?vid=f493fbd1-a6d2-46e7-bd5f-a282c47329e6","ios":"levelo://app?vid=f493fbd1-a6d2-46e7-bd5f-a282c47329e6"},"vehicle_type_id":"4","last_reported":1731924678,"current_range_meters":39200,"station_id":"ce4bhpp2rcd13ifvqhfg","pricing_plan_id":"cebpf4jnsgd1na2vs0mg"},{"bike_id":"8700b163-9d6d-4ba4-8f67-8f73e2fafd13","system_id":"levelo_inurba_marseille","lat":43.24069,"lon":5.37763,"is_reserved":false,"is_disabled":false,"rental_uris":{"android":"levelo://app?vid=8700b163-9d6d-4ba4-8f67-8f73e2fafd13","ios":"levelo://app?vid=8700b163-9d6d-4ba4-8f67-8f73e2fafd13"},"vehicle_type_id":"4","last_reported":1731924678,"current_range_meters":39200,"station_id":"ce4bhnp2rcd13ifvqgvg","pricing_plan_id":"cebpf4jnsgd1na2vs0mg"},{"bike_id":"5f7af20b-8740-416c-a770-66f799e39f12","system_id":"levelo_inurba_marseille","lat":43.30535,"lon":5.36533,"is_reserved":false,"is_disabled":false,"rental_uris":{"android":"levelo://app?vid=5f7af20b-8740-416c-a770-66f799e39f12","ios":"levelo://app?vid=5f7af20b-8740-416c-a770-66f799e39f12"},"vehicle_type_id":"4","last_reported":1731924678,"current_range_meters":26000,"station_id":"ce4bgs12rcd13ifvqcag","pricing_plan_id":"cebpf4jnsgd1na2vs0mg"},{"bike_id":"7d4cd296-c6d6-4e80-b460-2fe6483131c3","system_id":"levelo_inurba_marseille","lat":43.28344,"lon":5.38087,"is_reserved":false,"is_disabled":false,"rental_uris":{"android":"levelo://app?vid=7d4cd296-c6d6-4e80-b460-2fe6483131c3","ios":"levelo://app?vid=7d4cd296-c6d6-4e80-b460-2fe6483131c3"},"vehicle_type_id":"4","last_reported":1731924678,"current_range_meters":36800,"station_id":"ce4bh412rcd13ifvqdr0","pricing_plan_id":"cebpf4jnsgd1na2vs0mg"},{"bike_id":"c3b2f2e4-a56b-4032-90ec-36bdae251001","system_id":"levelo_inurba_marseille","lat":43.30532,"lon":5.36533,"is_reserved":false,"is_disabled":false,"rental_uris":{"android":"levelo://app?vid=c3b2f2e4-a56b-4032-90ec-36bdae251001","ios":"levelo://app?vid=c3b2f2e4-a56b-4032-90ec-36bdae251001"},"vehicle_type_id":"4","last_reported":1731924678,"current_range_meters":31200,"station_id":"ce4bgs12rcd13ifvqcag","pricing_plan_id":"cebpf4jnsgd1na2vs0mg"},{"bike_id":"f42152e8-082f-4097-9b84-b169e7a33b19","system_id":"levelo_inurba_marseille","lat":43.25818,"lon":5.39436,"is_reserved":false,"is_disabled":false,"rental_uris":{"android":"levelo://app?vid=f42152e8-082f-4097-9b84-b169e7a33b19","ios":"levelo://app?vid=f42152e8-082f-4097-9b84-b169e7a33b19"},"vehicle_type_id":"4","last_reported":1731924678,"current_range_meters":23200,"station_id":"ce4bhip2rcd13ifvqft0","pricing_plan_id":"cebpf4jnsgd1na2vs0mg"},{"bike_id":"01272bd5-a2c0-44b6-b76e-87cd305d9451","system_id":"levelo_inurba_marseille","lat":43.3302,"lon":5.39044,"is_reserved":false,"is_disabled":false,"rental_uris":{"android":"levelo://app?vid=01272bd5-a2c0-44b6-b76e-87cd305d9451","ios":"levelo://app?vid=01272bd5-a2c0-44b6-b76e-87cd305d9451"},"vehicle_type_id":"4","last_reported":1731924678,"current_range_meters":10000,"station_id":"ce4bhr92rcd13ifvqhrg","pricing_plan_id":"cebpf4jnsgd1na2vs0mg"},{"bike_id":"7694d120-882b-4df8-9318-0f76e5aee323","system_id":"levelo_inurba_marseille","lat":43.29811,"lon":5.37738,"is_reserved":false,"is_disabled":false,"rental_uris":{"android":"levelo://app?vid=7694d120-882b-4df8-9318-0f76e5aee323","ios":"levelo://app?vid=7694d120-882b-4df8-9318-0f76e5aee323"},"vehicle_type_id":"4","last_reported":1731924678,"current_range_meters":30400,"station_id":"","pricing_plan_id":"cebpf4jnsgd1na2vs0mg"},{"bike_id":"232ffc96-f192-451d-bd3b-46ad106e9690","system_id":"levelo_inurba_marseille","lat":43.23188,"lon":5.35547,"is_reserved":false,"is_disabled":false,"rental_uris":{"android":"levelo://app?vid=232ffc96-f192-451d-bd3b-46ad106e9690","ios":"levelo://app?vid=232ffc96-f192-451d-bd3b-46ad106e9690"},"vehicle_type_id":"4","last_reported":1731924678,"current_range_meters":11600,"station_id":"ce4bhu92rcd13ifvqi70","pricing_plan_id":"cebpf4jnsgd1na2vs0mg"},{"bike_id":"891094ec-2367-48fe-988f-7aeca1d5a466","system_id":"levelo_inurba_marseille","lat":43.27998,"lon":5.40006,"is_reserved":false,"is_disabled":false,"rental_uris":{"android":"levelo://app?vid=891094ec-2367-48fe-988f-7aeca1d5a466","ios":"levelo://app?vid=891094ec-2367-48fe-988f-7aeca1d5a466"},"vehicle_type_id":"4","last_reported":1731924678,"current_range_meters":38800,"station_id":"ce4bho92rcd13ifvqh4g","pricing_plan_id":"cebpf4jnsgd1na2vs0mg"},{"bike_id":"8a5f23ee-ed6f-4d20-a0e5-4fc90a1a04b0","system_id":"levelo_inurba_marseille","lat":43.33155,"lon":5.37736,"is_reserved":false,"is_disabled":false,"rental_uris":{"android":"levelo://app?vid=8a5f23ee-ed6f-4d20-a0e5-4fc90a1a04b0","ios":"levelo://app?vid=8a5f23ee-ed6f-4d20-a0e5-4fc90a1a04b0"},"vehicle_type_id":"4","last_reported":1731924678,"current_range_meters":32400,"station_id":"","pricing_plan_id":"cebpf4jnsgd1na2vs0mg"},{"bike_id":"91ade9a4-a826-46c2-80cb-12654846f984","system_id":"levelo_inurba_marseille","lat":43.3229,"lon":5.38282,"is_reserved":false,"is_disabled":false,"rental_uris":{"android":"levelo://app?vid=91ade9a4-a826-46c2-80cb-12654846f984","ios":"levelo://app?vid=91ade9a4-a826-46c2-80cb-12654846f984"},"vehicle_type_id":"4","last_reported":1731924678,"current_range_meters":37600,"station_id":"ce4bhr12rcd13ifvqhqg","pricing_plan_id":"cebpf4jnsgd1na2vs0mg"},{"bike_id":"cb3165b9-4890-480d-ae63-784fba188dfc","system_id":"levelo_inurba_marseille","lat":43.2707,"lon":5.42278,"is_reserved":false,"is_disabled":false,"rental_uris":{"android":"levelo://app?vid=cb3165b9-4890-480d-ae63-784fba188dfc","ios":"levelo://app?vid=cb3165b9-4890-480d-ae63-784fba188dfc"},"vehicle_type_id":"4","last_reported":1731924678,"current_range_meters":39200,"station_id":"ce4bhk92rcd13ifvqgb0","pricing_plan_id":"cebpf4jnsgd1na2vs0mg"},{"bike_id":"2dad41c9-1917-4242-9edb-0790ad103b2a","system_id":"levelo_inurba_marseille","lat":43.262,"lon":5.37929,"is_reserved":false,"is_disabled":false,"rental_uris":{"android":"levelo://app?vid=2dad41c9-1917-4242-9edb-0790ad103b2a","ios":"levelo://app?vid=2dad41c9-1917-4242-9edb-0790ad103b2a"},"vehicle_type_id":"4","last_reported":1731924678,"current_range_meters":32800,"station_id":"ce4bhjp2rcd13ifvqg90","pricing_plan_id":"cebpf4jnsgd1na2vs0mg"},{"bike_id":"5938f129-0be9-4612-acac-86791f6673ad","system_id":"levelo_inurba_marseille","lat":43.28199,"lon":5.4437,"is_reserved":false,"is_disabled":false,"rental_uris":{"android":"levelo://app?vid=5938f129-0be9-4612-acac-86791f6673ad","ios":"levelo://app?vid=5938f129-0be9-4612-acac-86791f6673ad"},"vehicle_type_id":"4","last_reported":1731924678,"current_range_meters":8800,"station_id":"","pricing_plan_id":"cebpf4jnsgd1na2vs0mg"},{"bike_id":"4ddda77b-3169-4448-8e06-10231f4b4780","system_id":"levelo_inurba_marseille","lat":43.2408,"lon":5.37752,"is_reserved":false,"is_disabled":false,"rental_uris":{"android":"levelo://app?vid=4ddda77b-3169-4448-8e06-10231f4b4780","ios":"levelo://app?vid=4ddda77b-3169-4448-8e06-10231f4b4780"},"vehicle_type_id":"4","last_reported":1731924678,"current_range_meters":26800,"station_id":"ce4bhnp2rcd13ifvqgvg","pricing_plan_id":"cebpf4jnsgd1na2vs0mg"},{"bike_id":"923df655-0650-44f4-8123-689c72f127f8","system_id":"levelo_inurba_marseille","lat":43.296531,"lon":5.400071,"is_reserved":false,"is_disabled":false,"rental_uris":{"android":"levelo://app?vid=923df655-0650-44f4-8123-689c72f127f8","ios":"levelo://app?vid=923df655-0650-44f4-8123-689c72f127f8"},"vehicle_type_id":"4","last_reported":1731924678,"current_range_meters":24800,"station_id":"ce4bh312rcd13ifvqdj0","pricing_plan_id":"cebpf4jnsgd1na2vs0mg"},{"bike_id":"a5c6397b-4773-4673-8f19-a09873f0e2b0","system_id":"levelo_inurba_marseille","lat":43.30286,"lon":5.37699,"is_reserved":false,"is_disabled":false,"rental_uris":{"android":"levelo://app?vid=a5c6397b-4773-4673-8f19-a09873f0e2b0","ios":"levelo://app?vid=a5c6397b-4773-4673-8f19-a09873f0e2b0"},"vehicle_type_id":"4","last_reported":1731924678,"current_range_meters":39200,"station_id":"ce4bguh2rcd13ifvqcj0","pricing_plan_id":"cebpf4jnsgd1na2vs0mg"},{"bike_id":"5a19b76a-bc9e-4d10-a22e-a9a8b5ef4c47","system_id":"levelo_inurba_marseille","lat":43.24069,"lon":5.37751,"is_reserved":false,"is_disabled":false,"rental_uris":{"android":"levelo://app?vid=5a19b76a-bc9e-4d10-a22e-a9a8b5ef4c47","ios":"levelo://app?vid=5a19b76a-bc9e-4d10-a22e-a9a8b5ef4c47"},"vehicle_type_id":"4","last_reported":1731924678,"current_range_meters":28000,"station_id":"ce4bhnp2rcd13ifvqgvg","pricing_plan_id":"cebpf4jnsgd1na2vs0mg"},{"bike_id":"5ed22230-ed97-489b-a6af-ba06152c21b7","system_id":"levelo_inurba_marseille","lat":43.23153,"lon":5.43723,"is_reserved":false,"is_disabled":false,"rental_uris":{"android":"levelo://app?vid=5ed22230-ed97-489b-a6af-ba06152c21b7","ios":"levelo://app?vid=5ed22230-ed97-489b-a6af-ba06152c21b7"},"vehicle_type_id":"4","last_reported":1731924678,"current_range_meters":6000,"station_id":"ce4bhmp2rcd13ifvqgog","pricing_plan_id":"cebpf4jnsgd1na2vs0mg"},{"bike_id":"3d889148-005b-4d14-b3f5-0166b79de543","system_id":"levelo_inurba_marseille","lat":43.30534,"lon":5.36694,"is_reserved":false,"is_disabled":false,"rental_uris":{"android":"levelo://app?vid=3d889148-005b-4d14-b3f5-0166b79de543","ios":"levelo://app?vid=3d889148-005b-4d14-b3f5-0166b79de543"},"vehicle_type_id":"4","last_reported":1731924678,"current_range_meters":24800,"station_id":"ce4bgrp2rcd13ifvqc9g","pricing_plan_id":"cebpf4jnsgd1na2vs0mg"},{"bike_id":"12867844-fa2a-41b2-8d74-706d4ef15909","system_id":"levelo_inurba_marseille","lat":43.33774,"lon":5.37438,"is_reserved":false,"is_disabled":false,"rental_uris":{"android":"levelo://app?vid=12867844-fa2a-41b2-8d74-706d4ef15909","ios":"levelo://app?vid=12867844-fa2a-41b2-8d74-706d4ef15909"},"vehicle_type_id":"4","last_reported":1731924678,"current_range_meters":28800,"station_id":"","pricing_plan_id":"cebpf4jnsgd1na2vs0mg"},{"bike_id":"af63ad17-d8d4-481f-9d86-eec282f49406","system_id":"levelo_inurba_marseille","lat":43.33601,"lon":5.41031,"is_reserved":false,"is_disabled":false,"rental_uris":{"android":"levelo://app?vid=af63ad17-d8d4-481f-9d86-eec282f49406","ios":"levelo://app?vid=af63ad17-d8d4-481f-9d86-eec282f49406"},"vehicle_type_id":"4","last_reported":1731924678,"current_range_meters":16400,"station_id":"ce4bhqh2rcd13ifvqhmg","pricing_plan_id":"cebpf4jnsgd1na2vs0mg"},{"bike_id":"0ae325b1-7e11-4dbc-8dbb-1c881b0b94d4","system_id":"levelo_inurba_marseille","lat":43.24804,"lon":5.37453,"is_reserved":false,"is_disabled":false,"rental_uris":{"android":"levelo://app?vid=0ae325b1-7e11-4dbc-8dbb-1c881b0b94d4","ios":"levelo://app?vid=0ae325b1-7e11-4dbc-8dbb-1c881b0b94d4"},"vehicle_type_id":"4","last_reported":1731924678,"current_range_meters":27600,"station_id":"ce4bhgh2rcd13ifvqfb0","pricing_plan_id":"cebpf4jnsgd1na2vs0mg"},{"bike_id":"885f2e7d-e0ae-4a50-b8a5-bbf7b8f45236","system_id":"levelo_inurba_marseille","lat":43.28917,"lon":5.35923,"is_reserved":false,"is_disabled":false,"rental_uris":{"android":"levelo://app?vid=885f2e7d-e0ae-4a50-b8a5-bbf7b8f45236","ios":"levelo://app?vid=885f2e7d-e0ae-4a50-b8a5-bbf7b8f45236"},"vehicle_type_id":"4","last_reported":1731924678,"current_range_meters":28400,"station_id":"","pricing_plan_id":"cebpf4jnsgd1na2vs0mg"},{"bike_id":"7a771648-63f5-4c34-b7b5-423a1240d23d","system_id":"levelo_inurba_marseille","lat":43.29844,"lon":5.36267,"is_reserved":false,"is_disabled":false,"rental_uris":{"android":"levelo://app?vid=7a771648-63f5-4c34-b7b5-423a1240d23d","ios":"levelo://app?vid=7a771648-63f5-4c34-b7b5-423a1240d23d"},"vehicle_type_id":"4","last_reported":1731924678,"current_range_meters":37600,"station_id":"ce4bgpp2rcd13ifvqc3g","pricing_plan_id":"cebpf4jnsgd1na2vs0mg"},{"bike_id":"c9ba69ea-7684-458f-901a-166daea52dd5","system_id":"levelo_inurba_marseille","lat":43.29626,"lon":5.4058,"is_reserved":false,"is_disabled":false,"rental_uris":{"android":"levelo://app?vid=c9ba69ea-7684-458f-901a-166daea52dd5","ios":"levelo://app?vid=c9ba69ea-7684-458f-901a-166daea52dd5"},"vehicle_type_id":"4","last_reported":1731924678,"current_range_meters":34800,"station_id":"ce4bh0h2rcd13ifvqd60","pricing_plan_id":"cebpf4jnsgd1na2vs0mg"},{"bike_id":"b9919d37-06fd-4ea3-9428-3e4d89482538","system_id":"levelo_inurba_marseille","lat":43.29624,"lon":5.37159,"is_reserved":false,"is_disabled":false,"rental_uris":{"android":"levelo://app?vid=b9919d37-06fd-4ea3-9428-3e4d89482538","ios":"levelo://app?vid=b9919d37-06fd-4ea3-9428-3e4d89482538"},"vehicle_type_id":"4","last_reported":1731924678,"current_range_meters":37600,"station_id":"ce4bgnh2rcd13ifvqc0g","pricing_plan_id":"cebpf4jnsgd1na2vs0mg"},{"bike_id":"d7858290-a409-4351-861d-a1a90bf483cf","system_id":"levelo_inurba_marseille","lat":43.30535,"lon":5.36544,"is_reserved":false,"is_disabled":false,"rental_uris":{"android":"levelo://app?vid=d7858290-a409-4351-861d-a1a90bf483cf","ios":"levelo://app?vid=d7858290-a409-4351-861d-a1a90bf483cf"},"vehicle_type_id":"4","last_reported":1731924678,"current_range_meters":12400,"station_id":"ce4bgs12rcd13ifvqcag","pricing_plan_id":"cebpf4jnsgd1na2vs0mg"},{"bike_id":"e84bb813-4161-41a2-a627-24b3003b74bf","system_id":"levelo_inurba_marseille","lat":43.29035,"lon":5.37563,"is_reserved":false,"is_disabled":false,"rental_uris":{"android":"levelo://app?vid=e84bb813-4161-41a2-a627-24b3003b74bf","ios":"levelo://app?vid=e84bb813-4161-41a2-a627-24b3003b74bf"},"vehicle_type_id":"4","last_reported":1731924678,"current_range_meters":37600,"station_id":"ce4bh692rcd13ifvqe90","pricing_plan_id":"cebpf4jnsgd1na2vs0mg"},{"bike_id":"f5a042e4-9244-45ca-a000-cfabc5edd18a","system_id":"levelo_inurba_marseille","lat":43.27066,"lon":5.42277,"is_reserved":false,"is_disabled":false,"rental_uris":{"android":"levelo://app?vid=f5a042e4-9244-45ca-a000-cfabc5edd18a","ios":"levelo://app?vid=f5a042e4-9244-45ca-a000-cfabc5edd18a"},"vehicle_type_id":"4","last_reported":1731924678,"current_range_meters":8800,"station_id":"ce4bhk92rcd13ifvqgb0","pricing_plan_id":"cebpf4jnsgd1na2vs0mg"},{"bike_id":"438c7460-0f2d-492b-8a11-5a4b3f82e315","system_id":"levelo_inurba_marseille","lat":43.27997,"lon":5.41655,"is_reserved":false,"is_disabled":false,"rental_uris":{"android":"levelo://app?vid=438c7460-0f2d-492b-8a11-5a4b3f82e315","ios":"levelo://app?vid=438c7460-0f2d-492b-8a11-5a4b3f82e315"},"vehicle_type_id":"4","last_reported":1731924678,"current_range_meters":33600,"station_id":"ce4bho12rcd13ifvqh1g","pricing_plan_id":"cebpf4jnsgd1na2vs0mg"},{"bike_id":"10808265-c82e-4663-ad34-00454e769817","system_id":"levelo_inurba_marseille","lat":43.23187,"lon":5.3999,"is_reserved":false,"is_disabled":false,"rental_uris":{"android":"levelo://app?vid=10808265-c82e-4663-ad34-00454e769817","ios":"levelo://app?vid=10808265-c82e-4663-ad34-00454e769817"},"vehicle_type_id":"4","last_reported":1731924678,"current_range_meters":27200,"station_id":"ce4bhn12rcd13ifvqgqg","pricing_plan_id":"cebpf4jnsgd1na2vs0mg"},{"bike_id":"6c9c6e89-0b12-47f2-baf9-8bfd4a1e7141","system_id":"levelo_inurba_marseille","lat":43.29842,"lon":5.36262,"is_reserved":false,"is_disabled":false,"rental_uris":{"android":"levelo://app?vid=6c9c6e89-0b12-47f2-baf9-8bfd4a1e7141","ios":"levelo://app?vid=6c9c6e89-0b12-47f2-baf9-8bfd4a1e7141"},"vehicle_type_id":"4","last_reported":1731924678,"current_range_meters":38000,"station_id":"ce4bgpp2rcd13ifvqc3g","pricing_plan_id":"cebpf4jnsgd1na2vs0mg"},{"bike_id":"cccc15e4-d2c8-45f7-abbe-e5b3cb8bc634","system_id":"levelo_inurba_marseille","lat":43.27072,"lon":5.4228,"is_reserved":false,"is_disabled":false,"rental_uris":{"android":"levelo://app?vid=cccc15e4-d2c8-45f7-abbe-e5b3cb8bc634","ios":"levelo://app?vid=cccc15e4-d2c8-45f7-abbe-e5b3cb8bc634"},"vehicle_type_id":"4","last_reported":1731924678,"current_range_meters":6400,"station_id":"ce4bhk92rcd13ifvqgb0","pricing_plan_id":"cebpf4jnsgd1na2vs0mg"},{"bike_id":"6bcc6a84-ce11-4a3f-b321-4ab21fe5ea37","system_id":"levelo_inurba_marseille","lat":43.28079,"lon":5.39656,"is_reserved":false,"is_disabled":false,"rental_uris":{"android":"levelo://app?vid=6bcc6a84-ce11-4a3f-b321-4ab21fe5ea37","ios":"levelo://app?vid=6bcc6a84-ce11-4a3f-b321-4ab21fe5ea37"},"vehicle_type_id":"4","last_reported":1731924678,"current_range_meters":10800,"station_id":"ce4bho12rcd13ifvqh2g","pricing_plan_id":"cebpf4jnsgd1na2vs0mg"},{"bike_id":"8f019a78-c493-4f9d-a72d-a75fc0e36210","system_id":"levelo_inurba_marseille","lat":43.2407,"lon":5.37759,"is_reserved":false,"is_disabled":false,"rental_uris":{"android":"levelo://app?vid=8f019a78-c493-4f9d-a72d-a75fc0e36210","ios":"levelo://app?vid=8f019a78-c493-4f9d-a72d-a75fc0e36210"},"vehicle_type_id":"4","last_reported":1731924678,"current_range_meters":27200,"station_id":"ce4bhnp2rcd13ifvqgvg","pricing_plan_id":"cebpf4jnsgd1na2vs0mg"},{"bike_id":"af5b6f30-c1ae-41a8-8658-805682fdccfa","system_id":"levelo_inurba_marseille","lat":43.27492,"lon":5.42457,"is_reserved":false,"is_disabled":false,"rental_uris":{"android":"levelo://app?vid=af5b6f30-c1ae-41a8-8658-805682fdccfa","ios":"levelo://app?vid=af5b6f30-c1ae-41a8-8658-805682fdccfa"},"vehicle_type_id":"4","last_reported":1731924678,"current_range_meters":27600,"station_id":"ce4bhn92rcd13ifvqgrg","pricing_plan_id":"cebpf4jnsgd1na2vs0mg"},{"bike_id":"e4d33ed1-742f-49f3-adbf-78ac4798197d","system_id":"levelo_inurba_marseille","lat":43.31759,"lon":5.39016,"is_reserved":false,"is_disabled":false,"rental_uris":{"android":"levelo://app?vid=e4d33ed1-742f-49f3-adbf-78ac4798197d","ios":"levelo://app?vid=e4d33ed1-742f-49f3-adbf-78ac4798197d"},"vehicle_type_id":"4","last_reported":1731924678,"current_range_meters":32400,"station_id":"ce4bhqp2rcd13ifvqhng","pricing_plan_id":"cebpf4jnsgd1na2vs0mg"},{"bike_id":"2ec448d8-ab1e-4b5b-9ab7-4092c37c8982","system_id":"levelo_inurba_marseille","lat":43.31221,"lon":5.36848,"is_reserved":false,"is_disabled":false,"rental_uris":{"android":"levelo://app?vid=2ec448d8-ab1e-4b5b-9ab7-4092c37c8982","ios":"levelo://app?vid=2ec448d8-ab1e-4b5b-9ab7-4092c37c8982"},"vehicle_type_id":"4","last_reported":1731924678,"current_range_meters":39200,"station_id":"ce4bgl92rcd13ifvqbq0","pricing_plan_id":"cebpf4jnsgd1na2vs0mg"},{"bike_id":"fe452959-f152-41c8-8a20-9e0e74f17d40","system_id":"levelo_inurba_marseille","lat":43.29895,"lon":5.43669,"is_reserved":false,"is_disabled":false,"rental_uris":{"android":"levelo://app?vid=fe452959-f152-41c8-8a20-9e0e74f17d40","ios":"levelo://app?vid=fe452959-f152-41c8-8a20-9e0e74f17d40"},"vehicle_type_id":"4","last_reported":1731924678,"current_range_meters":29600,"station_id":"ce4bhpp2rcd13ifvqhfg","pricing_plan_id":"cebpf4jnsgd1na2vs0mg"},{"bike_id":"94b96e1a-875a-4fb2-8a15-489944c1a547","system_id":"levelo_inurba_marseille","lat":43.2668,"lon":5.38267,"is_reserved":false,"is_disabled":false,"rental_uris":{"android":"levelo://app?vid=94b96e1a-875a-4fb2-8a15-489944c1a547","ios":"levelo://app?vid=94b96e1a-875a-4fb2-8a15-489944c1a547"},"vehicle_type_id":"4","last_reported":1731924678,"current_range_meters":24800,"station_id":"ce4bhg92rcd13ifvqf90","pricing_plan_id":"cebpf4jnsgd1na2vs0mg"},{"bike_id":"f78e874f-2bcc-46c3-917b-baae845142a0","system_id":"levelo_inurba_marseille","lat":43.27493,"lon":5.42457,"is_reserved":false,"is_disabled":false,"rental_uris":{"android":"levelo://app?vid=f78e874f-2bcc-46c3-917b-baae845142a0","ios":"levelo://app?vid=f78e874f-2bcc-46c3-917b-baae845142a0"},"vehicle_type_id":"4","last_reported":1731924678,"current_range_meters":36400,"station_id":"ce4bhn92rcd13ifvqgrg","pricing_plan_id":"cebpf4jnsgd1na2vs0mg"},{"bike_id":"859f92bc-1ac4-46af-8d7c-8f6933ceb861","system_id":"levelo_inurba_marseille","lat":43.29278,"lon":5.36846,"is_reserved":false,"is_disabled":false,"rental_uris":{"android":"levelo://app?vid=859f92bc-1ac4-46af-8d7c-8f6933ceb861","ios":"levelo://app?vid=859f92bc-1ac4-46af-8d7c-8f6933ceb861"},"vehicle_type_id":"4","last_reported":1731924678,"current_range_meters":38800,"station_id":"ce4bhbp2rcd13ifvqesg","pricing_plan_id":"cebpf4jnsgd1na2vs0mg"},{"bike_id":"bdb11cd9-5aef-4c3f-8b22-81193a3ae419","system_id":"levelo_inurba_marseille","lat":43.31325,"lon":5.39686,"is_reserved":false,"is_disabled":false,"rental_uris":{"android":"levelo://app?vid=bdb11cd9-5aef-4c3f-8b22-81193a3ae419","ios":"levelo://app?vid=bdb11cd9-5aef-4c3f-8b22-81193a3ae419"},"vehicle_type_id":"4","last_reported":1731924678,"current_range_meters":26000,"station_id":"ce4bgvp2rcd13ifvqcu0","pricing_plan_id":"cebpf4jnsgd1na2vs0mg"},{"bike_id":"afd5e78f-339a-41d4-9c5d-45b35f2e47fe","system_id":"levelo_inurba_marseille","lat":43.31348,"lon":5.36711,"is_reserved":false,"is_disabled":false,"rental_uris":{"android":"levelo://app?vid=afd5e78f-339a-41d4-9c5d-45b35f2e47fe","ios":"levelo://app?vid=afd5e78f-339a-41d4-9c5d-45b35f2e47fe"},"vehicle_type_id":"4","last_reported":1731924678,"current_range_meters":25200,"station_id":"ce4bgr92rcd13ifvqc6g","pricing_plan_id":"cebpf4jnsgd1na2vs0mg"},{"bike_id":"d8823f91-2f41-4024-b33e-ce57043d030f","system_id":"levelo_inurba_marseille","lat":43.29783,"lon":5.39356,"is_reserved":false,"is_disabled":false,"rental_uris":{"android":"levelo://app?vid=d8823f91-2f41-4024-b33e-ce57043d030f","ios":"levelo://app?vid=d8823f91-2f41-4024-b33e-ce57043d030f"},"vehicle_type_id":"4","last_reported":1731924678,"current_range_meters":10800,"station_id":"chh1huq6cuj3fo74tm60","pricing_plan_id":"cebpf4jnsgd1na2vs0mg"},{"bike_id":"9237d3c4-7e1a-49da-a0a7-34a90b355d75","system_id":"levelo_inurba_marseille","lat":43.27498,"lon":5.42448,"is_reserved":false,"is_disabled":false,"rental_uris":{"android":"levelo://app?vid=9237d3c4-7e1a-49da-a0a7-34a90b355d75","ios":"levelo://app?vid=9237d3c4-7e1a-49da-a0a7-34a90b355d75"},"vehicle_type_id":"4","last_reported":1731924678,"current_range_meters":12000,"station_id":"ce501612rcd8frsf0b60","pricing_plan_id":"cebpf4jnsgd1na2vs0mg"},{"bike_id":"957ef9a3-d159-45d5-ab17-3699fd15dd65","system_id":"levelo_inurba_marseille","lat":43.29024,"lon":5.38131,"is_reserved":false,"is_disabled":false,"rental_uris":{"android":"levelo://app?vid=957ef9a3-d159-45d5-ab17-3699fd15dd65","ios":"levelo://app?vid=957ef9a3-d159-45d5-ab17-3699fd15dd65"},"vehicle_type_id":"4","last_reported":1731924678,"current_range_meters":32000,"station_id":"ce4bh4p2rcd13ifvqe1g","pricing_plan_id":"cebpf4jnsgd1na2vs0mg"},{"bike_id":"e73206b1-cfd7-4ecb-ba5a-91c351b433ae","system_id":"levelo_inurba_marseille","lat":43.33598,"lon":5.41024,"is_reserved":false,"is_disabled":false,"rental_uris":{"android":"levelo://app?vid=e73206b1-cfd7-4ecb-ba5a-91c351b433ae","ios":"levelo://app?vid=e73206b1-cfd7-4ecb-ba5a-91c351b433ae"},"vehicle_type_id":"4","last_reported":1731924678,"current_range_meters":35200,"station_id":"ce4bhqh2rcd13ifvqhmg","pricing_plan_id":"cebpf4jnsgd1na2vs0mg"},{"bike_id":"bfd64417-e6fd-45ae-b899-e06cad147021","system_id":"levelo_inurba_marseille","lat":43.31225,"lon":5.36866,"is_reserved":false,"is_disabled":false,"rental_uris":{"android":"levelo://app?vid=bfd64417-e6fd-45ae-b899-e06cad147021","ios":"levelo://app?vid=bfd64417-e6fd-45ae-b899-e06cad147021"},"vehicle_type_id":"4","last_reported":1731924678,"current_range_meters":36800,"station_id":"ce4bgl92rcd13ifvqbq0","pricing_plan_id":"cebpf4jnsgd1na2vs0mg"},{"bike_id":"7d672f00-807f-4797-bc98-b9c9999e1004","system_id":"levelo_inurba_marseille","lat":43.25121,"lon":5.40321,"is_reserved":false,"is_disabled":false,"rental_uris":{"android":"levelo://app?vid=7d672f00-807f-4797-bc98-b9c9999e1004","ios":"levelo://app?vid=7d672f00-807f-4797-bc98-b9c9999e1004"},"vehicle_type_id":"4","last_reported":1731924678,"current_range_meters":39200,"station_id":"ce4bhlh2rcd13ifvqgig","pricing_plan_id":"cebpf4jnsgd1na2vs0mg"},{"bike_id":"631d2d14-efd4-4b0b-889f-708a61b56711","system_id":"levelo_inurba_marseille","lat":43.31218,"lon":5.36846,"is_reserved":false,"is_disabled":false,"rental_uris":{"android":"levelo://app?vid=631d2d14-efd4-4b0b-889f-708a61b56711","ios":"levelo://app?vid=631d2d14-efd4-4b0b-889f-708a61b56711"},"vehicle_type_id":"4","last_reported":1731924678,"current_range_meters":16800,"station_id":"ce4bgl92rcd13ifvqbq0","pricing_plan_id":"cebpf4jnsgd1na2vs0mg"},{"bike_id":"44141cc5-6704-481a-92a4-25c2aa934978","system_id":"levelo_inurba_marseille","lat":43.28414,"lon":5.37524,"is_reserved":false,"is_disabled":false,"rental_uris":{"android":"levelo://app?vid=44141cc5-6704-481a-92a4-25c2aa934978","ios":"levelo://app?vid=44141cc5-6704-481a-92a4-25c2aa934978"},"vehicle_type_id":"4","last_reported":1731924678,"current_range_meters":37600,"station_id":"ce4bh412rcd13ifvqds0","pricing_plan_id":"cebpf4jnsgd1na2vs0mg"},{"bike_id":"c66a46ef-4089-45bd-9f70-e99b818fb74d","system_id":"levelo_inurba_marseille","lat":43.316573,"lon":5.373084,"is_reserved":false,"is_disabled":false,"rental_uris":{"android":"levelo://app?vid=c66a46ef-4089-45bd-9f70-e99b818fb74d","ios":"levelo://app?vid=c66a46ef-4089-45bd-9f70-e99b818fb74d"},"vehicle_type_id":"4","last_reported":1731924678,"current_range_meters":31200,"station_id":"ce4bgth2rcd13ifvqch0","pricing_plan_id":"cebpf4jnsgd1na2vs0mg"},{"bike_id":"b954f69f-37e3-4481-9551-dcd91e5df090","system_id":"levelo_inurba_marseille","lat":43.29633,"lon":5.40584,"is_reserved":false,"is_disabled":false,"rental_uris":{"android":"levelo://app?vid=b954f69f-37e3-4481-9551-dcd91e5df090","ios":"levelo://app?vid=b954f69f-37e3-4481-9551-dcd91e5df090"},"vehicle_type_id":"4","last_reported":1731924678,"current_range_meters":34000,"station_id":"ce4bh0h2rcd13ifvqd60","pricing_plan_id":"cebpf4jnsgd1na2vs0mg"},{"bike_id":"8cdbbb9d-e54c-4963-8b6c-ba5d001805cc","system_id":"levelo_inurba_marseille","lat":43.28149,"lon":5.44217,"is_reserved":false,"is_disabled":false,"rental_uris":{"android":"levelo://app?vid=8cdbbb9d-e54c-4963-8b6c-ba5d001805cc","ios":"levelo://app?vid=8cdbbb9d-e54c-4963-8b6c-ba5d001805cc"},"vehicle_type_id":"4","last_reported":1731924678,"current_range_meters":30800,"station_id":"","pricing_plan_id":"cebpf4jnsgd1na2vs0mg"},{"bike_id":"0ffa13a9-98c1-4470-98b9-9c9b68a0be33","system_id":"levelo_inurba_marseille","lat":43.29006,"lon":5.35614,"is_reserved":false,"is_disabled":false,"rental_uris":{"android":"levelo://app?vid=0ffa13a9-98c1-4470-98b9-9c9b68a0be33","ios":"levelo://app?vid=0ffa13a9-98c1-4470-98b9-9c9b68a0be33"},"vehicle_type_id":"4","last_reported":1731924678,"current_range_meters":38800,"station_id":"ce4bhb92rcd13ifvqen0","pricing_plan_id":"cebpf4jnsgd1na2vs0mg"},{"bike_id":"ad18d8d1-2c0f-43a3-951e-3675e3d5e4d7","system_id":"levelo_inurba_marseille","lat":43.275055,"lon":5.424327,"is_reserved":false,"is_disabled":false,"rental_uris":{"android":"levelo://app?vid=ad18d8d1-2c0f-43a3-951e-3675e3d5e4d7","ios":"levelo://app?vid=ad18d8d1-2c0f-43a3-951e-3675e3d5e4d7"},"vehicle_type_id":"4","last_reported":1731924678,"current_range_meters":30400,"station_id":"ce501612rcd8frsf0b60","pricing_plan_id":"cebpf4jnsgd1na2vs0mg"},{"bike_id":"627267c9-1348-4cb3-88c3-2f2514fc4c79","system_id":"levelo_inurba_marseille","lat":43.24178,"lon":5.39729,"is_reserved":false,"is_disabled":false,"rental_uris":{"android":"levelo://app?vid=627267c9-1348-4cb3-88c3-2f2514fc4c79","ios":"levelo://app?vid=627267c9-1348-4cb3-88c3-2f2514fc4c79"},"vehicle_type_id":"4","last_reported":1731924678,"current_range_meters":32800,"station_id":"ce4bhn12rcd13ifvqgpg","pricing_plan_id":"cebpf4jnsgd1na2vs0mg"},{"bike_id":"9d0ff97e-4153-45c9-bb5a-0bdd6df51804","system_id":"levelo_inurba_marseille","lat":43.32488,"lon":5.36577,"is_reserved":false,"is_disabled":false,"rental_uris":{"android":"levelo://app?vid=9d0ff97e-4153-45c9-bb5a-0bdd6df51804","ios":"levelo://app?vid=9d0ff97e-4153-45c9-bb5a-0bdd6df51804"},"vehicle_type_id":"4","last_reported":1731924678,"current_range_meters":10800,"station_id":"ce4bhs12rcd13ifvqhvg","pricing_plan_id":"cebpf4jnsgd1na2vs0mg"},{"bike_id":"f948c08c-87c6-4eea-9b2a-90117faf348b","system_id":"levelo_inurba_marseille","lat":43.28845,"lon":5.35838,"is_reserved":false,"is_disabled":false,"rental_uris":{"android":"levelo://app?vid=f948c08c-87c6-4eea-9b2a-90117faf348b","ios":"levelo://app?vid=f948c08c-87c6-4eea-9b2a-90117faf348b"},"vehicle_type_id":"4","last_reported":1731924678,"current_range_meters":38800,"station_id":"ce4bhb12rcd13ifvqem0","pricing_plan_id":"cebpf4jnsgd1na2vs0mg"},{"bike_id":"99e250a3-df4c-4b34-9509-c05720c8abf5","system_id":"levelo_inurba_marseille","lat":43.30538,"lon":5.36528,"is_reserved":false,"is_disabled":false,"rental_uris":{"android":"levelo://app?vid=99e250a3-df4c-4b34-9509-c05720c8abf5","ios":"levelo://app?vid=99e250a3-df4c-4b34-9509-c05720c8abf5"},"vehicle_type_id":"4","last_reported":1731924678,"current_range_meters":17600,"station_id":"ce4bgs12rcd13ifvqcag","pricing_plan_id":"cebpf4jnsgd1na2vs0mg"},{"bike_id":"20c2a3ef-5802-4bf3-806a-29ad3c9e8e37","system_id":"levelo_inurba_marseille","lat":43.24083,"lon":5.3775,"is_reserved":false,"is_disabled":false,"rental_uris":{"android":"levelo://app?vid=20c2a3ef-5802-4bf3-806a-29ad3c9e8e37","ios":"levelo://app?vid=20c2a3ef-5802-4bf3-806a-29ad3c9e8e37"},"vehicle_type_id":"4","last_reported":1731924678,"current_range_meters":36400,"station_id":"ce4bhnp2rcd13ifvqgvg","pricing_plan_id":"cebpf4jnsgd1na2vs0mg"},{"bike_id":"c137ad19-1d76-4102-b396-b36fb3e5c779","system_id":"levelo_inurba_marseille","lat":43.31219,"lon":5.368605,"is_reserved":false,"is_disabled":false,"rental_uris":{"android":"levelo://app?vid=c137ad19-1d76-4102-b396-b36fb3e5c779","ios":"levelo://app?vid=c137ad19-1d76-4102-b396-b36fb3e5c779"},"vehicle_type_id":"4","last_reported":1731924678,"current_range_meters":32000,"station_id":"ce4bgl92rcd13ifvqbq0","pricing_plan_id":"cebpf4jnsgd1na2vs0mg"},{"bike_id":"2089e05e-a424-4565-85cd-3916a0f1cecd","system_id":"levelo_inurba_marseille","lat":43.29621,"lon":5.37162,"is_reserved":false,"is_disabled":false,"rental_uris":{"android":"levelo://app?vid=2089e05e-a424-4565-85cd-3916a0f1cecd","ios":"levelo://app?vid=2089e05e-a424-4565-85cd-3916a0f1cecd"},"vehicle_type_id":"4","last_reported":1731924678,"current_range_meters":38000,"station_id":"ce4bgnh2rcd13ifvqc0g","pricing_plan_id":"cebpf4jnsgd1na2vs0mg"},{"bike_id":"25b37235-ee87-472b-88a6-4e5edc0a53e3","system_id":"levelo_inurba_marseille","lat":43.26497,"lon":5.39538,"is_reserved":false,"is_disabled":false,"rental_uris":{"android":"levelo://app?vid=25b37235-ee87-472b-88a6-4e5edc0a53e3","ios":"levelo://app?vid=25b37235-ee87-472b-88a6-4e5edc0a53e3"},"vehicle_type_id":"4","last_reported":1731924678,"current_range_meters":10800,"station_id":"ce4bhi12rcd13ifvqfq0","pricing_plan_id":"cebpf4jnsgd1na2vs0mg"},{"bike_id":"ce249102-5132-45ee-9b83-fc2ea0c15102","system_id":"levelo_inurba_marseille","lat":43.23153,"lon":5.4371,"is_reserved":false,"is_disabled":false,"rental_uris":{"android":"levelo://app?vid=ce249102-5132-45ee-9b83-fc2ea0c15102","ios":"levelo://app?vid=ce249102-5132-45ee-9b83-fc2ea0c15102"},"vehicle_type_id":"4","last_reported":1731924678,"current_range_meters":38800,"station_id":"ce4bhmp2rcd13ifvqgog","pricing_plan_id":"cebpf4jnsgd1na2vs0mg"},{"bike_id":"4f01fa73-c9c0-4fc0-986b-b2a94d270e4a","system_id":"levelo_inurba_marseille","lat":43.302519,"lon":5.400883,"is_reserved":false,"is_disabled":false,"rental_uris":{"android":"levelo://app?vid=4f01fa73-c9c0-4fc0-986b-b2a94d270e4a","ios":"levelo://app?vid=4f01fa73-c9c0-4fc0-986b-b2a94d270e4a"},"vehicle_type_id":"4","last_reported":1731924678,"current_range_meters":6400,"station_id":"ce4bgvh2rcd13ifvqcs0","pricing_plan_id":"cebpf4jnsgd1na2vs0mg"},{"bike_id":"6d757fef-4f26-43f9-ac2c-ffab39bf7dae","system_id":"levelo_inurba_marseille","lat":43.32249,"lon":5.36901,"is_reserved":false,"is_disabled":false,"rental_uris":{"android":"levelo://app?vid=6d757fef-4f26-43f9-ac2c-ffab39bf7dae","ios":"levelo://app?vid=6d757fef-4f26-43f9-ac2c-ffab39bf7dae"},"vehicle_type_id":"4","last_reported":1731924678,"current_range_meters":11200,"station_id":"","pricing_plan_id":"cebpf4jnsgd1na2vs0mg"},{"bike_id":"00b10178-2dd6-4b25-bd2f-3948b65be282","system_id":"levelo_inurba_marseille","lat":43.261985,"lon":5.379291,"is_reserved":false,"is_disabled":false,"rental_uris":{"android":"levelo://app?vid=00b10178-2dd6-4b25-bd2f-3948b65be282","ios":"levelo://app?vid=00b10178-2dd6-4b25-bd2f-3948b65be282"},"vehicle_type_id":"4","last_reported":1731924678,"current_range_meters":27600,"station_id":"ce4bhjp2rcd13ifvqg90","pricing_plan_id":"cebpf4jnsgd1na2vs0mg"},{"bike_id":"999e422d-9108-47a7-9b68-8d82f6bf9e78","system_id":"levelo_inurba_marseille","lat":43.277222,"lon":5.388263,"is_reserved":false,"is_disabled":false,"rental_uris":{"android":"levelo://app?vid=999e422d-9108-47a7-9b68-8d82f6bf9e78","ios":"levelo://app?vid=999e422d-9108-47a7-9b68-8d82f6bf9e78"},"vehicle_type_id":"4","last_reported":1731924678,"current_range_meters":19200,"station_id":"ce4bhih2rcd13ifvqfs0","pricing_plan_id":"cebpf4jnsgd1na2vs0mg"},{"bike_id":"d21d17e7-2f48-45e6-a424-c15abbaa2ab7","system_id":"levelo_inurba_marseille","lat":43.24544,"lon":5.39525,"is_reserved":false,"is_disabled":false,"rental_uris":{"android":"levelo://app?vid=d21d17e7-2f48-45e6-a424-c15abbaa2ab7","ios":"levelo://app?vid=d21d17e7-2f48-45e6-a424-c15abbaa2ab7"},"vehicle_type_id":"4","last_reported":1731924678,"current_range_meters":22800,"station_id":"ce4bhlp2rcd13ifvqgjg","pricing_plan_id":"cebpf4jnsgd1na2vs0mg"},{"bike_id":"3f4cfda2-06d7-42d5-a506-6b6eb38b77c3","system_id":"levelo_inurba_marseille","lat":43.29567,"lon":5.37506,"is_reserved":false,"is_disabled":false,"rental_uris":{"android":"levelo://app?vid=3f4cfda2-06d7-42d5-a506-6b6eb38b77c3","ios":"levelo://app?vid=3f4cfda2-06d7-42d5-a506-6b6eb38b77c3"},"vehicle_type_id":"4","last_reported":1731924678,"current_range_meters":38800,"station_id":"ce4bgh92rcd13ifvqb50","pricing_plan_id":"cebpf4jnsgd1na2vs0mg"},{"bike_id":"1ede608c-8dec-484d-9315-76e0e8eb111a","system_id":"levelo_inurba_marseille","lat":43.24082,"lon":5.37747,"is_reserved":false,"is_disabled":false,"rental_uris":{"android":"levelo://app?vid=1ede608c-8dec-484d-9315-76e0e8eb111a","ios":"levelo://app?vid=1ede608c-8dec-484d-9315-76e0e8eb111a"},"vehicle_type_id":"4","last_reported":1731924678,"current_range_meters":38000,"station_id":"ce4bhnp2rcd13ifvqgvg","pricing_plan_id":"cebpf4jnsgd1na2vs0mg"},{"bike_id":"449d1953-47f7-4ead-9975-96c2e0235a90","system_id":"levelo_inurba_marseille","lat":43.30893,"lon":5.39656,"is_reserved":false,"is_disabled":false,"rental_uris":{"android":"levelo://app?vid=449d1953-47f7-4ead-9975-96c2e0235a90","ios":"levelo://app?vid=449d1953-47f7-4ead-9975-96c2e0235a90"},"vehicle_type_id":"4","last_reported":1731924678,"current_range_meters":17600,"station_id":"ce4bh012rcd13ifvqcv0","pricing_plan_id":"cebpf4jnsgd1na2vs0mg"},{"bike_id":"7e5e29dd-7333-42b8-8c25-a7ee1b9edb1b","system_id":"levelo_inurba_marseille","lat":43.26028,"lon":5.37547,"is_reserved":false,"is_disabled":false,"rental_uris":{"android":"levelo://app?vid=7e5e29dd-7333-42b8-8c25-a7ee1b9edb1b","ios":"levelo://app?vid=7e5e29dd-7333-42b8-8c25-a7ee1b9edb1b"},"vehicle_type_id":"4","last_reported":1731924678,"current_range_meters":28800,"station_id":"ce4bhgh2rcd13ifvqfa0","pricing_plan_id":"cebpf4jnsgd1na2vs0mg"},{"bike_id":"6b8c4514-cb85-4a2a-9925-6fb4153b9632","system_id":"levelo_inurba_marseille","lat":43.29548,"lon":5.42277,"is_reserved":false,"is_disabled":false,"rental_uris":{"android":"levelo://app?vid=6b8c4514-cb85-4a2a-9925-6fb4153b9632","ios":"levelo://app?vid=6b8c4514-cb85-4a2a-9925-6fb4153b9632"},"vehicle_type_id":"4","last_reported":1731924678,"current_range_meters":31200,"station_id":"ce4bhph2rcd13ifvqhdg","pricing_plan_id":"cebpf4jnsgd1na2vs0mg"},{"bike_id":"d914fa43-2598-4422-a5bb-6d98f5bd5e37","system_id":"levelo_inurba_marseille","lat":43.31704,"lon":5.37755,"is_reserved":false,"is_disabled":false,"rental_uris":{"android":"levelo://app?vid=d914fa43-2598-4422-a5bb-6d98f5bd5e37","ios":"levelo://app?vid=d914fa43-2598-4422-a5bb-6d98f5bd5e37"},"vehicle_type_id":"4","last_reported":1731924678,"current_range_meters":8000,"station_id":"ce4bgth2rcd13ifvqch0","pricing_plan_id":"cebpf4jnsgd1na2vs0mg"},{"bike_id":"5818854c-6006-4244-8902-c7effaeee597","system_id":"levelo_inurba_marseille","lat":43.299266,"lon":5.381584,"is_reserved":false,"is_disabled":false,"rental_uris":{"android":"levelo://app?vid=5818854c-6006-4244-8902-c7effaeee597","ios":"levelo://app?vid=5818854c-6006-4244-8902-c7effaeee597"},"vehicle_type_id":"4","last_reported":1731924678,"current_range_meters":38000,"station_id":"ce4bgj12rcd13ifvqbc0","pricing_plan_id":"cebpf4jnsgd1na2vs0mg"},{"bike_id":"139a9c37-6b2f-43a0-9a41-400224b43309","system_id":"levelo_inurba_marseille","lat":43.24078,"lon":5.3775,"is_reserved":false,"is_disabled":false,"rental_uris":{"android":"levelo://app?vid=139a9c37-6b2f-43a0-9a41-400224b43309","ios":"levelo://app?vid=139a9c37-6b2f-43a0-9a41-400224b43309"},"vehicle_type_id":"4","last_reported":1731924678,"current_range_meters":27200,"station_id":"ce4bhnp2rcd13ifvqgvg","pricing_plan_id":"cebpf4jnsgd1na2vs0mg"},{"bike_id":"909a618f-fa02-4ee0-97c6-1f5dcd97f129","system_id":"levelo_inurba_marseille","lat":43.28869,"lon":5.35833,"is_reserved":false,"is_disabled":false,"rental_uris":{"android":"levelo://app?vid=909a618f-fa02-4ee0-97c6-1f5dcd97f129","ios":"levelo://app?vid=909a618f-fa02-4ee0-97c6-1f5dcd97f129"},"vehicle_type_id":"4","last_reported":1731924678,"current_range_meters":39200,"station_id":"ce4bhb12rcd13ifvqem0","pricing_plan_id":"cebpf4jnsgd1na2vs0mg"},{"bike_id":"65ad3404-ca16-4ff6-a3da-345d3f802f80","system_id":"levelo_inurba_marseille","lat":43.24176,"lon":5.39728,"is_reserved":false,"is_disabled":false,"rental_uris":{"android":"levelo://app?vid=65ad3404-ca16-4ff6-a3da-345d3f802f80","ios":"levelo://app?vid=65ad3404-ca16-4ff6-a3da-345d3f802f80"},"vehicle_type_id":"4","last_reported":1731924678,"current_range_meters":28000,"station_id":"ce4bhn12rcd13ifvqgpg","pricing_plan_id":"cebpf4jnsgd1na2vs0mg"},{"bike_id":"4c2c815b-1dbf-4764-b166-28c222ac8f4a","system_id":"levelo_inurba_marseille","lat":43.26492,"lon":5.39545,"is_reserved":false,"is_disabled":false,"rental_uris":{"android":"levelo://app?vid=4c2c815b-1dbf-4764-b166-28c222ac8f4a","ios":"levelo://app?vid=4c2c815b-1dbf-4764-b166-28c222ac8f4a"},"vehicle_type_id":"4","last_reported":1731924678,"current_range_meters":24000,"station_id":"ce4bhi12rcd13ifvqfq0","pricing_plan_id":"cebpf4jnsgd1na2vs0mg"},{"bike_id":"1053b5d1-416f-45c9-93b7-c25f16720cad","system_id":"levelo_inurba_marseille","lat":43.29273,"lon":5.36844,"is_reserved":false,"is_disabled":false,"rental_uris":{"android":"levelo://app?vid=1053b5d1-416f-45c9-93b7-c25f16720cad","ios":"levelo://app?vid=1053b5d1-416f-45c9-93b7-c25f16720cad"},"vehicle_type_id":"4","last_reported":1731924678,"current_range_meters":6800,"station_id":"ce4bhbp2rcd13ifvqesg","pricing_plan_id":"cebpf4jnsgd1na2vs0mg"},{"bike_id":"30a7f999-986c-48a3-8ede-577b666edfcd","system_id":"levelo_inurba_marseille","lat":43.30909,"lon":5.36845,"is_reserved":false,"is_disabled":false,"rental_uris":{"android":"levelo://app?vid=30a7f999-986c-48a3-8ede-577b666edfcd","ios":"levelo://app?vid=30a7f999-986c-48a3-8ede-577b666edfcd"},"vehicle_type_id":"4","last_reported":1731924678,"current_range_meters":39200,"station_id":"ce4bgn92rcd13ifvqbvg","pricing_plan_id":"cebpf4jnsgd1na2vs0mg"},{"bike_id":"2b238d72-8129-40b8-a647-76de4a951ae7","system_id":"levelo_inurba_marseille","lat":43.24081,"lon":5.37744,"is_reserved":false,"is_disabled":false,"rental_uris":{"android":"levelo://app?vid=2b238d72-8129-40b8-a647-76de4a951ae7","ios":"levelo://app?vid=2b238d72-8129-40b8-a647-76de4a951ae7"},"vehicle_type_id":"4","last_reported":1731924678,"current_range_meters":38800,"station_id":"ce4bhnp2rcd13ifvqgvg","pricing_plan_id":"cebpf4jnsgd1na2vs0mg"},{"bike_id":"cc911dbc-2c04-4373-b6ec-a968894c44ba","system_id":"levelo_inurba_marseille","lat":43.29932,"lon":5.36536,"is_reserved":false,"is_disabled":false,"rental_uris":{"android":"levelo://app?vid=cc911dbc-2c04-4373-b6ec-a968894c44ba","ios":"levelo://app?vid=cc911dbc-2c04-4373-b6ec-a968894c44ba"},"vehicle_type_id":"4","last_reported":1731924678,"current_range_meters":30800,"station_id":"ce4bgm92rcd13ifvqbr0","pricing_plan_id":"cebpf4jnsgd1na2vs0mg"},{"bike_id":"4efb8206-2f13-42d3-a933-0c452fc3a643","system_id":"levelo_inurba_marseille","lat":43.25824,"lon":5.39431,"is_reserved":false,"is_disabled":false,"rental_uris":{"android":"levelo://app?vid=4efb8206-2f13-42d3-a933-0c452fc3a643","ios":"levelo://app?vid=4efb8206-2f13-42d3-a933-0c452fc3a643"},"vehicle_type_id":"4","last_reported":1731924678,"current_range_meters":38400,"station_id":"ce4bhip2rcd13ifvqft0","pricing_plan_id":"cebpf4jnsgd1na2vs0mg"},{"bike_id":"2de2153c-2d59-4553-be64-0242b5580cb6","system_id":"levelo_inurba_marseille","lat":43.30427,"lon":5.39738,"is_reserved":false,"is_disabled":false,"rental_uris":{"android":"levelo://app?vid=2de2153c-2d59-4553-be64-0242b5580cb6","ios":"levelo://app?vid=2de2153c-2d59-4553-be64-0242b5580cb6"},"vehicle_type_id":"4","last_reported":1731924678,"current_range_meters":22400,"station_id":"ce4bh092rcd13ifvqd20","pricing_plan_id":"cebpf4jnsgd1na2vs0mg"},{"bike_id":"6fadf99c-83cc-447e-90ed-daf038a752e5","system_id":"levelo_inurba_marseille","lat":43.29297,"lon":5.37162,"is_reserved":false,"is_disabled":false,"rental_uris":{"android":"levelo://app?vid=6fadf99c-83cc-447e-90ed-daf038a752e5","ios":"levelo://app?vid=6fadf99c-83cc-447e-90ed-daf038a752e5"},"vehicle_type_id":"4","last_reported":1731924678,"current_range_meters":16800,"station_id":"ce4bgh92rcd13ifvqb40","pricing_plan_id":"cebpf4jnsgd1na2vs0mg"},{"bike_id":"0efdd6bb-bcff-4b35-9d9b-3cfbf69529f2","system_id":"levelo_inurba_marseille","lat":43.230164,"lon":5.354778,"is_reserved":false,"is_disabled":false,"rental_uris":{"android":"levelo://app?vid=0efdd6bb-bcff-4b35-9d9b-3cfbf69529f2","ios":"levelo://app?vid=0efdd6bb-bcff-4b35-9d9b-3cfbf69529f2"},"vehicle_type_id":"4","last_reported":1731924678,"current_range_meters":18000,"station_id":"cpo3532slgdg3j2ikp40","pricing_plan_id":"cebpf4jnsgd1na2vs0mg"},{"bike_id":"677df5e1-15ed-476c-bfe9-cd7a6d52fd85","system_id":"levelo_inurba_marseille","lat":43.32365,"lon":5.38887,"is_reserved":false,"is_disabled":false,"rental_uris":{"android":"levelo://app?vid=677df5e1-15ed-476c-bfe9-cd7a6d52fd85","ios":"levelo://app?vid=677df5e1-15ed-476c-bfe9-cd7a6d52fd85"},"vehicle_type_id":"4","last_reported":1731924678,"current_range_meters":32800,"station_id":"ce4bhqp2rcd13ifvqhog","pricing_plan_id":"cebpf4jnsgd1na2vs0mg"},{"bike_id":"38eaa893-4df3-47c8-8955-40a4a50dd910","system_id":"levelo_inurba_marseille","lat":43.25924,"lon":5.40904,"is_reserved":false,"is_disabled":false,"rental_uris":{"android":"levelo://app?vid=38eaa893-4df3-47c8-8955-40a4a50dd910","ios":"levelo://app?vid=38eaa893-4df3-47c8-8955-40a4a50dd910"},"vehicle_type_id":"4","last_reported":1731924678,"current_range_meters":25600,"station_id":"ce4bhm92rcd13ifvqglg","pricing_plan_id":"cebpf4jnsgd1na2vs0mg"},{"bike_id":"13e81c8f-190b-4b3a-acfe-5ba5c5e93528","system_id":"levelo_inurba_marseille","lat":43.294288,"lon":5.397556,"is_reserved":false,"is_disabled":false,"rental_uris":{"android":"levelo://app?vid=13e81c8f-190b-4b3a-acfe-5ba5c5e93528","ios":"levelo://app?vid=13e81c8f-190b-4b3a-acfe-5ba5c5e93528"},"vehicle_type_id":"4","last_reported":1731924678,"current_range_meters":35600,"station_id":"ce4bh3h2rcd13ifvqdo0","pricing_plan_id":"cebpf4jnsgd1na2vs0mg"},{"bike_id":"ae4b2d56-ce70-4260-aa4a-74f42a8752ff","system_id":"levelo_inurba_marseille","lat":43.34141,"lon":5.40907,"is_reserved":false,"is_disabled":false,"rental_uris":{"android":"levelo://app?vid=ae4b2d56-ce70-4260-aa4a-74f42a8752ff","ios":"levelo://app?vid=ae4b2d56-ce70-4260-aa4a-74f42a8752ff"},"vehicle_type_id":"4","last_reported":1731924678,"current_range_meters":32800,"station_id":"ce4bhqh2rcd13ifvqhlg","pricing_plan_id":"cebpf4jnsgd1na2vs0mg"},{"bike_id":"ecc6fda2-058e-459c-8c0f-0f1da247a3de","system_id":"levelo_inurba_marseille","lat":43.30533,"lon":5.36706,"is_reserved":false,"is_disabled":false,"rental_uris":{"android":"levelo://app?vid=ecc6fda2-058e-459c-8c0f-0f1da247a3de","ios":"levelo://app?vid=ecc6fda2-058e-459c-8c0f-0f1da247a3de"},"vehicle_type_id":"4","last_reported":1731924678,"current_range_meters":39200,"station_id":"ce4bgrp2rcd13ifvqc9g","pricing_plan_id":"cebpf4jnsgd1na2vs0mg"},{"bike_id":"b9a4e4fb-278c-416f-ad0d-810e7e5201c1","system_id":"levelo_inurba_marseille","lat":43.2679,"lon":5.39417,"is_reserved":false,"is_disabled":false,"rental_uris":{"android":"levelo://app?vid=b9a4e4fb-278c-416f-ad0d-810e7e5201c1","ios":"levelo://app?vid=b9a4e4fb-278c-416f-ad0d-810e7e5201c1"},"vehicle_type_id":"4","last_reported":1731924678,"current_range_meters":32400,"station_id":"ce4bhh12rcd13ifvqfg0","pricing_plan_id":"cebpf4jnsgd1na2vs0mg"},{"bike_id":"2a5a9fa1-679f-4ad2-ae76-4901eeccf095","system_id":"levelo_inurba_marseille","lat":43.30556,"lon":5.36712,"is_reserved":false,"is_disabled":false,"rental_uris":{"android":"levelo://app?vid=2a5a9fa1-679f-4ad2-ae76-4901eeccf095","ios":"levelo://app?vid=2a5a9fa1-679f-4ad2-ae76-4901eeccf095"},"vehicle_type_id":"4","last_reported":1731924678,"current_range_meters":14800,"station_id":"ce4bgrp2rcd13ifvqc9g","pricing_plan_id":"cebpf4jnsgd1na2vs0mg"},{"bike_id":"1b441a5d-fcf3-4cb1-9707-fd87ad14e96d","system_id":"levelo_inurba_marseille","lat":43.24069,"lon":5.37759,"is_reserved":false,"is_disabled":false,"rental_uris":{"android":"levelo://app?vid=1b441a5d-fcf3-4cb1-9707-fd87ad14e96d","ios":"levelo://app?vid=1b441a5d-fcf3-4cb1-9707-fd87ad14e96d"},"vehicle_type_id":"4","last_reported":1731924678,"current_range_meters":16800,"station_id":"ce4bhnp2rcd13ifvqgvg","pricing_plan_id":"cebpf4jnsgd1na2vs0mg"},{"bike_id":"dc552ba3-76bf-4584-b9e0-cdc82c369ebd","system_id":"levelo_inurba_marseille","lat":43.28,"lon":5.40012,"is_reserved":false,"is_disabled":false,"rental_uris":{"android":"levelo://app?vid=dc552ba3-76bf-4584-b9e0-cdc82c369ebd","ios":"levelo://app?vid=dc552ba3-76bf-4584-b9e0-cdc82c369ebd"},"vehicle_type_id":"4","last_reported":1731924678,"current_range_meters":35200,"station_id":"ce4bho92rcd13ifvqh4g","pricing_plan_id":"cebpf4jnsgd1na2vs0mg"},{"bike_id":"10d64864-cb06-4542-9a64-4a9e76c76caa","system_id":"levelo_inurba_marseille","lat":43.26683,"lon":5.38263,"is_reserved":false,"is_disabled":false,"rental_uris":{"android":"levelo://app?vid=10d64864-cb06-4542-9a64-4a9e76c76caa","ios":"levelo://app?vid=10d64864-cb06-4542-9a64-4a9e76c76caa"},"vehicle_type_id":"4","last_reported":1731924678,"current_range_meters":26800,"station_id":"ce4bhg92rcd13ifvqf90","pricing_plan_id":"cebpf4jnsgd1na2vs0mg"},{"bike_id":"475290c4-27aa-445d-baab-c53c24b225ac","system_id":"levelo_inurba_marseille","lat":43.24548,"lon":5.39524,"is_reserved":false,"is_disabled":false,"rental_uris":{"android":"levelo://app?vid=475290c4-27aa-445d-baab-c53c24b225ac","ios":"levelo://app?vid=475290c4-27aa-445d-baab-c53c24b225ac"},"vehicle_type_id":"4","last_reported":1731924678,"current_range_meters":38800,"station_id":"ce4bhlp2rcd13ifvqgjg","pricing_plan_id":"cebpf4jnsgd1na2vs0mg"},{"bike_id":"95f08fa4-307c-4fd3-a7bc-d20cdd77c8df","system_id":"levelo_inurba_marseille","lat":43.299133,"lon":5.374706,"is_reserved":false,"is_disabled":false,"rental_uris":{"android":"levelo://app?vid=95f08fa4-307c-4fd3-a7bc-d20cdd77c8df","ios":"levelo://app?vid=95f08fa4-307c-4fd3-a7bc-d20cdd77c8df"},"vehicle_type_id":"4","last_reported":1731924678,"current_range_meters":18000,"station_id":"ce4bgjh2rcd13ifvqbg0","pricing_plan_id":"cebpf4jnsgd1na2vs0mg"},{"bike_id":"0c7483d4-e223-4c26-a83a-a4b9e7e6633e","system_id":"levelo_inurba_marseille","lat":43.26199,"lon":5.3793,"is_reserved":false,"is_disabled":false,"rental_uris":{"android":"levelo://app?vid=0c7483d4-e223-4c26-a83a-a4b9e7e6633e","ios":"levelo://app?vid=0c7483d4-e223-4c26-a83a-a4b9e7e6633e"},"vehicle_type_id":"4","last_reported":1731924678,"current_range_meters":33600,"station_id":"ce4bhjp2rcd13ifvqg90","pricing_plan_id":"cebpf4jnsgd1na2vs0mg"},{"bike_id":"da515a69-6a73-42f2-a2f4-9829e3175d2f","system_id":"levelo_inurba_marseille","lat":43.30255,"lon":5.40076,"is_reserved":false,"is_disabled":false,"rental_uris":{"android":"levelo://app?vid=da515a69-6a73-42f2-a2f4-9829e3175d2f","ios":"levelo://app?vid=da515a69-6a73-42f2-a2f4-9829e3175d2f"},"vehicle_type_id":"4","last_reported":1731924678,"current_range_meters":33200,"station_id":"ce4bgvh2rcd13ifvqcs0","pricing_plan_id":"cebpf4jnsgd1na2vs0mg"},{"bike_id":"72b96922-5842-4fb8-9252-39ddcfd38a5f","system_id":"levelo_inurba_marseille","lat":43.28003,"lon":5.40011,"is_reserved":false,"is_disabled":false,"rental_uris":{"android":"levelo://app?vid=72b96922-5842-4fb8-9252-39ddcfd38a5f","ios":"levelo://app?vid=72b96922-5842-4fb8-9252-39ddcfd38a5f"},"vehicle_type_id":"4","last_reported":1731924678,"current_range_meters":25200,"station_id":"ce4bho92rcd13ifvqh4g","pricing_plan_id":"cebpf4jnsgd1na2vs0mg"},{"bike_id":"57e4cbd9-496a-46ca-92ab-a9501b32000d","system_id":"levelo_inurba_marseille","lat":43.23186,"lon":5.39981,"is_reserved":false,"is_disabled":false,"rental_uris":{"android":"levelo://app?vid=57e4cbd9-496a-46ca-92ab-a9501b32000d","ios":"levelo://app?vid=57e4cbd9-496a-46ca-92ab-a9501b32000d"},"vehicle_type_id":"4","last_reported":1731924678,"current_range_meters":37600,"station_id":"ce4bhn12rcd13ifvqgqg","pricing_plan_id":"cebpf4jnsgd1na2vs0mg"},{"bike_id":"7b27c454-a208-4b73-8bd0-ee8f6350f25e","system_id":"levelo_inurba_marseille","lat":43.29624,"lon":5.37168,"is_reserved":false,"is_disabled":false,"rental_uris":{"android":"levelo://app?vid=7b27c454-a208-4b73-8bd0-ee8f6350f25e","ios":"levelo://app?vid=7b27c454-a208-4b73-8bd0-ee8f6350f25e"},"vehicle_type_id":"4","last_reported":1731924678,"current_range_meters":38800,"station_id":"ce4bgnh2rcd13ifvqc0g","pricing_plan_id":"cebpf4jnsgd1na2vs0mg"},{"bike_id":"a6b8c285-acc9-4039-9531-1aae39136a33","system_id":"levelo_inurba_marseille","lat":43.312042,"lon":5.367348,"is_reserved":false,"is_disabled":false,"rental_uris":{"android":"levelo://app?vid=a6b8c285-acc9-4039-9531-1aae39136a33","ios":"levelo://app?vid=a6b8c285-acc9-4039-9531-1aae39136a33"},"vehicle_type_id":"4","last_reported":1731924678,"current_range_meters":6400,"station_id":"","pricing_plan_id":"cebpf4jnsgd1na2vs0mg"},{"bike_id":"11f81d72-c8e7-4ef6-b62d-17f40c3efe62","system_id":"levelo_inurba_marseille","lat":43.3211,"lon":5.36767,"is_reserved":false,"is_disabled":false,"rental_uris":{"android":"levelo://app?vid=11f81d72-c8e7-4ef6-b62d-17f40c3efe62","ios":"levelo://app?vid=11f81d72-c8e7-4ef6-b62d-17f40c3efe62"},"vehicle_type_id":"4","last_reported":1731924678,"current_range_meters":35600,"station_id":"ce4bhrh2rcd13ifvqhug","pricing_plan_id":"cebpf4jnsgd1na2vs0mg"},{"bike_id":"34b9f970-27e7-43cb-bb06-ac9397ebf150","system_id":"levelo_inurba_marseille","lat":43.24086,"lon":5.37753,"is_reserved":false,"is_disabled":false,"rental_uris":{"android":"levelo://app?vid=34b9f970-27e7-43cb-bb06-ac9397ebf150","ios":"levelo://app?vid=34b9f970-27e7-43cb-bb06-ac9397ebf150"},"vehicle_type_id":"4","last_reported":1731924678,"current_range_meters":18800,"station_id":"ce4bhnp2rcd13ifvqgvg","pricing_plan_id":"cebpf4jnsgd1na2vs0mg"},{"bike_id":"39208c10-828e-4392-9aa2-019dd2bc97c3","system_id":"levelo_inurba_marseille","lat":43.27993,"lon":5.40017,"is_reserved":false,"is_disabled":false,"rental_uris":{"android":"levelo://app?vid=39208c10-828e-4392-9aa2-019dd2bc97c3","ios":"levelo://app?vid=39208c10-828e-4392-9aa2-019dd2bc97c3"},"vehicle_type_id":"4","last_reported":1731924678,"current_range_meters":25600,"station_id":"ce4bho92rcd13ifvqh4g","pricing_plan_id":"cebpf4jnsgd1na2vs0mg"},{"bike_id":"73d613f7-a8f3-44f9-afc4-4afeb215439b","system_id":"levelo_inurba_marseille","lat":43.23965,"lon":5.36629,"is_reserved":false,"is_disabled":false,"rental_uris":{"android":"levelo://app?vid=73d613f7-a8f3-44f9-afc4-4afeb215439b","ios":"levelo://app?vid=73d613f7-a8f3-44f9-afc4-4afeb215439b"},"vehicle_type_id":"4","last_reported":1731924678,"current_range_meters":21600,"station_id":"ce4bhi12rcd13ifvqfp0","pricing_plan_id":"cebpf4jnsgd1na2vs0mg"},{"bike_id":"d1fbc991-a48b-41ed-a778-bb3daa3dd802","system_id":"levelo_inurba_marseille","lat":43.26198,"lon":5.37924,"is_reserved":false,"is_disabled":false,"rental_uris":{"android":"levelo://app?vid=d1fbc991-a48b-41ed-a778-bb3daa3dd802","ios":"levelo://app?vid=d1fbc991-a48b-41ed-a778-bb3daa3dd802"},"vehicle_type_id":"4","last_reported":1731924678,"current_range_meters":36000,"station_id":"ce4bhjp2rcd13ifvqg90","pricing_plan_id":"cebpf4jnsgd1na2vs0mg"},{"bike_id":"9af3cdec-4f63-4439-b320-1cf5e6351989","system_id":"levelo_inurba_marseille","lat":43.26304,"lon":5.37391,"is_reserved":false,"is_disabled":false,"rental_uris":{"android":"levelo://app?vid=9af3cdec-4f63-4439-b320-1cf5e6351989","ios":"levelo://app?vid=9af3cdec-4f63-4439-b320-1cf5e6351989"},"vehicle_type_id":"4","last_reported":1731924678,"current_range_meters":27200,"station_id":"","pricing_plan_id":"cebpf4jnsgd1na2vs0mg"},{"bike_id":"9689f23a-a61d-4356-8e8c-d25a14276c53","system_id":"levelo_inurba_marseille","lat":43.28866,"lon":5.35841,"is_reserved":false,"is_disabled":false,"rental_uris":{"android":"levelo://app?vid=9689f23a-a61d-4356-8e8c-d25a14276c53","ios":"levelo://app?vid=9689f23a-a61d-4356-8e8c-d25a14276c53"},"vehicle_type_id":"4","last_reported":1731924678,"current_range_meters":38800,"station_id":"ce4bhb12rcd13ifvqem0","pricing_plan_id":"cebpf4jnsgd1na2vs0mg"},{"bike_id":"30623e0d-666e-459c-8ee2-dd2be51ba16a","system_id":"levelo_inurba_marseille","lat":43.27991,"lon":5.40019,"is_reserved":false,"is_disabled":false,"rental_uris":{"android":"levelo://app?vid=30623e0d-666e-459c-8ee2-dd2be51ba16a","ios":"levelo://app?vid=30623e0d-666e-459c-8ee2-dd2be51ba16a"},"vehicle_type_id":"4","last_reported":1731924678,"current_range_meters":7200,"station_id":"ce4bho92rcd13ifvqh4g","pricing_plan_id":"cebpf4jnsgd1na2vs0mg"},{"bike_id":"e1a28b36-0717-4e37-be43-98104648c62b","system_id":"levelo_inurba_marseille","lat":43.24394,"lon":5.37065,"is_reserved":false,"is_disabled":false,"rental_uris":{"android":"levelo://app?vid=e1a28b36-0717-4e37-be43-98104648c62b","ios":"levelo://app?vid=e1a28b36-0717-4e37-be43-98104648c62b"},"vehicle_type_id":"4","last_reported":1731924678,"current_range_meters":6400,"station_id":"ce4bhhh2rcd13ifvqfk0","pricing_plan_id":"cebpf4jnsgd1na2vs0mg"},{"bike_id":"7f76cb89-fb75-4866-819c-b40569c58e7e","system_id":"levelo_inurba_marseille","lat":43.23151,"lon":5.43719,"is_reserved":false,"is_disabled":false,"rental_uris":{"android":"levelo://app?vid=7f76cb89-fb75-4866-819c-b40569c58e7e","ios":"levelo://app?vid=7f76cb89-fb75-4866-819c-b40569c58e7e"},"vehicle_type_id":"4","last_reported":1731924678,"current_range_meters":20400,"station_id":"ce4bhmp2rcd13ifvqgog","pricing_plan_id":"cebpf4jnsgd1na2vs0mg"},{"bike_id":"c51f4d7b-b912-4619-a0f6-68e640c96bcd","system_id":"levelo_inurba_marseille","lat":43.31334,"lon":5.36718,"is_reserved":false,"is_disabled":false,"rental_uris":{"android":"levelo://app?vid=c51f4d7b-b912-4619-a0f6-68e640c96bcd","ios":"levelo://app?vid=c51f4d7b-b912-4619-a0f6-68e640c96bcd"},"vehicle_type_id":"4","last_reported":1731924678,"current_range_meters":38800,"station_id":"ce4bgr92rcd13ifvqc6g","pricing_plan_id":"cebpf4jnsgd1na2vs0mg"},{"bike_id":"92ac4858-87d6-4ceb-8f6e-004635a816a8","system_id":"levelo_inurba_marseille","lat":43.27789,"lon":5.40729,"is_reserved":false,"is_disabled":false,"rental_uris":{"android":"levelo://app?vid=92ac4858-87d6-4ceb-8f6e-004635a816a8","ios":"levelo://app?vid=92ac4858-87d6-4ceb-8f6e-004635a816a8"},"vehicle_type_id":"4","last_reported":1731924678,"current_range_meters":22800,"station_id":"ce4bhnh2rcd13ifvqgtg","pricing_plan_id":"cebpf4jnsgd1na2vs0mg"},{"bike_id":"bf5881fa-4d9d-4dc8-b253-41223199274e","system_id":"levelo_inurba_marseille","lat":43.24183,"lon":5.39721,"is_reserved":false,"is_disabled":false,"rental_uris":{"android":"levelo://app?vid=bf5881fa-4d9d-4dc8-b253-41223199274e","ios":"levelo://app?vid=bf5881fa-4d9d-4dc8-b253-41223199274e"},"vehicle_type_id":"4","last_reported":1731924678,"current_range_meters":39200,"station_id":"ce4bhn12rcd13ifvqgpg","pricing_plan_id":"cebpf4jnsgd1na2vs0mg"},{"bike_id":"f46943d2-0cae-48cb-853d-406f6e57f2b9","system_id":"levelo_inurba_marseille","lat":43.297424,"lon":5.377101,"is_reserved":false,"is_disabled":false,"rental_uris":{"android":"levelo://app?vid=f46943d2-0cae-48cb-853d-406f6e57f2b9","ios":"levelo://app?vid=f46943d2-0cae-48cb-853d-406f6e57f2b9"},"vehicle_type_id":"4","last_reported":1731924678,"current_range_meters":32000,"station_id":"ce4bgkh2rcd13ifvqbl0","pricing_plan_id":"cebpf4jnsgd1na2vs0mg"},{"bike_id":"ec2351d1-10f8-43e0-aebc-df5382abbad8","system_id":"levelo_inurba_marseille","lat":43.23143,"lon":5.43711,"is_reserved":false,"is_disabled":false,"rental_uris":{"android":"levelo://app?vid=ec2351d1-10f8-43e0-aebc-df5382abbad8","ios":"levelo://app?vid=ec2351d1-10f8-43e0-aebc-df5382abbad8"},"vehicle_type_id":"4","last_reported":1731924678,"current_range_meters":22800,"station_id":"ce4bhmp2rcd13ifvqgog","pricing_plan_id":"cebpf4jnsgd1na2vs0mg"},{"bike_id":"7465bc4b-7341-47ef-959d-45c0a1d37e4c","system_id":"levelo_inurba_marseille","lat":43.24079,"lon":5.37732,"is_reserved":false,"is_disabled":false,"rental_uris":{"android":"levelo://app?vid=7465bc4b-7341-47ef-959d-45c0a1d37e4c","ios":"levelo://app?vid=7465bc4b-7341-47ef-959d-45c0a1d37e4c"},"vehicle_type_id":"4","last_reported":1731924678,"current_range_meters":24800,"station_id":"ce4bhnp2rcd13ifvqgvg","pricing_plan_id":"cebpf4jnsgd1na2vs0mg"},{"bike_id":"827526a7-1cd2-4cdc-9740-44acb0c0d667","system_id":"levelo_inurba_marseille","lat":43.28158,"lon":5.42643,"is_reserved":false,"is_disabled":false,"rental_uris":{"android":"levelo://app?vid=827526a7-1cd2-4cdc-9740-44acb0c0d667","ios":"levelo://app?vid=827526a7-1cd2-4cdc-9740-44acb0c0d667"},"vehicle_type_id":"4","last_reported":1731924678,"current_range_meters":38800,"station_id":"ce4bhnh2rcd13ifvqgug","pricing_plan_id":"cebpf4jnsgd1na2vs0mg"},{"bike_id":"ea0462fd-0cb2-4c33-966b-bfbdac5e99d6","system_id":"levelo_inurba_marseille","lat":43.268,"lon":5.40266,"is_reserved":false,"is_disabled":false,"rental_uris":{"android":"levelo://app?vid=ea0462fd-0cb2-4c33-966b-bfbdac5e99d6","ios":"levelo://app?vid=ea0462fd-0cb2-4c33-966b-bfbdac5e99d6"},"vehicle_type_id":"4","last_reported":1731924678,"current_range_meters":8400,"station_id":"ce501612rcd8frsf0b60","pricing_plan_id":"cebpf4jnsgd1na2vs0mg"},{"bike_id":"8f426890-14c3-4f84-af0e-ede85f28b7aa","system_id":"levelo_inurba_marseille","lat":43.23148,"lon":5.4372,"is_reserved":false,"is_disabled":false,"rental_uris":{"android":"levelo://app?vid=8f426890-14c3-4f84-af0e-ede85f28b7aa","ios":"levelo://app?vid=8f426890-14c3-4f84-af0e-ede85f28b7aa"},"vehicle_type_id":"4","last_reported":1731924678,"current_range_meters":19600,"station_id":"ce4bhmp2rcd13ifvqgog","pricing_plan_id":"cebpf4jnsgd1na2vs0mg"},{"bike_id":"822c061a-0064-4b6e-932c-3453d6132b96","system_id":"levelo_inurba_marseille","lat":43.26802,"lon":5.40269,"is_reserved":false,"is_disabled":false,"rental_uris":{"android":"levelo://app?vid=822c061a-0064-4b6e-932c-3453d6132b96","ios":"levelo://app?vid=822c061a-0064-4b6e-932c-3453d6132b96"},"vehicle_type_id":"4","last_reported":1731924678,"current_range_meters":10800,"station_id":"ce501612rcd8frsf0b60","pricing_plan_id":"cebpf4jnsgd1na2vs0mg"},{"bike_id":"e642cba8-47b5-402d-beac-a365c34fa126","system_id":"levelo_inurba_marseille","lat":43.30283,"lon":5.37694,"is_reserved":false,"is_disabled":false,"rental_uris":{"android":"levelo://app?vid=e642cba8-47b5-402d-beac-a365c34fa126","ios":"levelo://app?vid=e642cba8-47b5-402d-beac-a365c34fa126"},"vehicle_type_id":"4","last_reported":1731924678,"current_range_meters":38800,"station_id":"ce4bguh2rcd13ifvqcj0","pricing_plan_id":"cebpf4jnsgd1na2vs0mg"},{"bike_id":"25e9b8f0-4e43-46b3-a670-6cc0b06ff3f8","system_id":"levelo_inurba_marseille","lat":43.33599,"lon":5.41033,"is_reserved":false,"is_disabled":false,"rental_uris":{"android":"levelo://app?vid=25e9b8f0-4e43-46b3-a670-6cc0b06ff3f8","ios":"levelo://app?vid=25e9b8f0-4e43-46b3-a670-6cc0b06ff3f8"},"vehicle_type_id":"4","last_reported":1731924678,"current_range_meters":6400,"station_id":"ce4bhqh2rcd13ifvqhmg","pricing_plan_id":"cebpf4jnsgd1na2vs0mg"},{"bike_id":"264fdb9c-80e3-44be-8463-62f7b0470c33","system_id":"levelo_inurba_marseille","lat":43.29039,"lon":5.37571,"is_reserved":false,"is_disabled":false,"rental_uris":{"android":"levelo://app?vid=264fdb9c-80e3-44be-8463-62f7b0470c33","ios":"levelo://app?vid=264fdb9c-80e3-44be-8463-62f7b0470c33"},"vehicle_type_id":"4","last_reported":1731924678,"current_range_meters":36000,"station_id":"ce4bh692rcd13ifvqe90","pricing_plan_id":"cebpf4jnsgd1na2vs0mg"},{"bike_id":"fcc3bb46-7516-43b0-811a-0a0d7e3d2379","system_id":"levelo_inurba_marseille","lat":43.312225,"lon":5.368588,"is_reserved":false,"is_disabled":false,"rental_uris":{"android":"levelo://app?vid=fcc3bb46-7516-43b0-811a-0a0d7e3d2379","ios":"levelo://app?vid=fcc3bb46-7516-43b0-811a-0a0d7e3d2379"},"vehicle_type_id":"4","last_reported":1731924678,"current_range_meters":32400,"station_id":"ce4bgl92rcd13ifvqbq0","pricing_plan_id":"cebpf4jnsgd1na2vs0mg"},{"bike_id":"01feae37-ffbb-4487-a5b2-da0cbb94773d","system_id":"levelo_inurba_marseille","lat":43.3204,"lon":5.41565,"is_reserved":false,"is_disabled":false,"rental_uris":{"android":"levelo://app?vid=01feae37-ffbb-4487-a5b2-da0cbb94773d","ios":"levelo://app?vid=01feae37-ffbb-4487-a5b2-da0cbb94773d"},"vehicle_type_id":"4","last_reported":1731924678,"current_range_meters":38000,"station_id":"ce4bhq92rcd13ifvqhkg","pricing_plan_id":"cebpf4jnsgd1na2vs0mg"},{"bike_id":"85839a1c-42b4-494d-9586-126072acbec5","system_id":"levelo_inurba_marseille","lat":43.31324,"lon":5.39694,"is_reserved":false,"is_disabled":false,"rental_uris":{"android":"levelo://app?vid=85839a1c-42b4-494d-9586-126072acbec5","ios":"levelo://app?vid=85839a1c-42b4-494d-9586-126072acbec5"},"vehicle_type_id":"4","last_reported":1731924678,"current_range_meters":28800,"station_id":"ce4bgvp2rcd13ifvqcu0","pricing_plan_id":"cebpf4jnsgd1na2vs0mg"},{"bike_id":"d6204a94-8517-4454-be65-f1c360ad1702","system_id":"levelo_inurba_marseille","lat":43.24077,"lon":5.37749,"is_reserved":false,"is_disabled":false,"rental_uris":{"android":"levelo://app?vid=d6204a94-8517-4454-be65-f1c360ad1702","ios":"levelo://app?vid=d6204a94-8517-4454-be65-f1c360ad1702"},"vehicle_type_id":"4","last_reported":1731924678,"current_range_meters":38800,"station_id":"ce4bhnp2rcd13ifvqgvg","pricing_plan_id":"cebpf4jnsgd1na2vs0mg"},{"bike_id":"d8e8b981-42e2-475f-b097-cf09e75e8523","system_id":"levelo_inurba_marseille","lat":43.28607,"lon":5.37064,"is_reserved":false,"is_disabled":false,"rental_uris":{"android":"levelo://app?vid=d8e8b981-42e2-475f-b097-cf09e75e8523","ios":"levelo://app?vid=d8e8b981-42e2-475f-b097-cf09e75e8523"},"vehicle_type_id":"4","last_reported":1731924678,"current_range_meters":22800,"station_id":"ce4bht12rcd13ifvqi60","pricing_plan_id":"cebpf4jnsgd1na2vs0mg"},{"bike_id":"645729e0-e47c-4825-8b88-15df8e4f9be0","system_id":"levelo_inurba_marseille","lat":43.29628,"lon":5.37717,"is_reserved":false,"is_disabled":false,"rental_uris":{"android":"levelo://app?vid=645729e0-e47c-4825-8b88-15df8e4f9be0","ios":"levelo://app?vid=645729e0-e47c-4825-8b88-15df8e4f9be0"},"vehicle_type_id":"4","last_reported":1731924678,"current_range_meters":16000,"station_id":"ce4bgi92rcd13ifvqb90","pricing_plan_id":"cebpf4jnsgd1na2vs0mg"},{"bike_id":"2ad42d3c-6132-4b7f-813e-b871c0709eff","system_id":"levelo_inurba_marseille","lat":43.2606,"lon":5.39397,"is_reserved":false,"is_disabled":false,"rental_uris":{"android":"levelo://app?vid=2ad42d3c-6132-4b7f-813e-b871c0709eff","ios":"levelo://app?vid=2ad42d3c-6132-4b7f-813e-b871c0709eff"},"vehicle_type_id":"4","last_reported":1731924678,"current_range_meters":38000,"station_id":"ce4bhh92rcd13ifvqfj0","pricing_plan_id":"cebpf4jnsgd1na2vs0mg"},{"bike_id":"5fe0f24c-5a44-4b8f-8a24-e40c0f946e5e","system_id":"levelo_inurba_marseille","lat":43.23146,"lon":5.43688,"is_reserved":false,"is_disabled":false,"rental_uris":{"android":"levelo://app?vid=5fe0f24c-5a44-4b8f-8a24-e40c0f946e5e","ios":"levelo://app?vid=5fe0f24c-5a44-4b8f-8a24-e40c0f946e5e"},"vehicle_type_id":"4","last_reported":1731924678,"current_range_meters":6400,"station_id":"ce4bhmp2rcd13ifvqgog","pricing_plan_id":"cebpf4jnsgd1na2vs0mg"},{"bike_id":"4da88b75-edd5-4a06-ac88-d71d87d20fbf","system_id":"levelo_inurba_marseille","lat":43.31069,"lon":5.38357,"is_reserved":false,"is_disabled":false,"rental_uris":{"android":"levelo://app?vid=4da88b75-edd5-4a06-ac88-d71d87d20fbf","ios":"levelo://app?vid=4da88b75-edd5-4a06-ac88-d71d87d20fbf"},"vehicle_type_id":"4","last_reported":1731924678,"current_range_meters":28000,"station_id":"ce4bgv92rcd13ifvqcr0","pricing_plan_id":"cebpf4jnsgd1na2vs0mg"},{"bike_id":"1182142e-ed3e-4553-9d56-bec875b584f4","system_id":"levelo_inurba_marseille","lat":43.29017,"lon":5.38124,"is_reserved":false,"is_disabled":false,"rental_uris":{"android":"levelo://app?vid=1182142e-ed3e-4553-9d56-bec875b584f4","ios":"levelo://app?vid=1182142e-ed3e-4553-9d56-bec875b584f4"},"vehicle_type_id":"4","last_reported":1731924678,"current_range_meters":3600,"station_id":"ce4bh4p2rcd13ifvqe1g","pricing_plan_id":"cebpf4jnsgd1na2vs0mg"},{"bike_id":"c38670fb-9bee-46c0-a002-1c6f570da772","system_id":"levelo_inurba_marseille","lat":43.25584,"lon":5.38236,"is_reserved":false,"is_disabled":false,"rental_uris":{"android":"levelo://app?vid=c38670fb-9bee-46c0-a002-1c6f570da772","ios":"levelo://app?vid=c38670fb-9bee-46c0-a002-1c6f570da772"},"vehicle_type_id":"4","last_reported":1731924678,"current_range_meters":10800,"station_id":"ce4bhih2rcd13ifvqfs0","pricing_plan_id":"cebpf4jnsgd1na2vs0mg"},{"bike_id":"8f191948-4a07-47c7-9f04-5e1f6813a104","system_id":"levelo_inurba_marseille","lat":43.29649,"lon":5.37648,"is_reserved":false,"is_disabled":false,"rental_uris":{"android":"levelo://app?vid=8f191948-4a07-47c7-9f04-5e1f6813a104","ios":"levelo://app?vid=8f191948-4a07-47c7-9f04-5e1f6813a104"},"vehicle_type_id":"4","last_reported":1731924678,"current_range_meters":4000,"station_id":"","pricing_plan_id":"cebpf4jnsgd1na2vs0mg"},{"bike_id":"7174d6a2-3f65-4ff0-8252-138e4d064a24","system_id":"levelo_inurba_marseille","lat":43.33753,"lon":5.37473,"is_reserved":false,"is_disabled":false,"rental_uris":{"android":"levelo://app?vid=7174d6a2-3f65-4ff0-8252-138e4d064a24","ios":"levelo://app?vid=7174d6a2-3f65-4ff0-8252-138e4d064a24"},"vehicle_type_id":"4","last_reported":1731924678,"current_range_meters":38800,"station_id":"","pricing_plan_id":"cebpf4jnsgd1na2vs0mg"},{"bike_id":"ea851758-50ca-45bf-97ef-8b24f3162bb2","system_id":"levelo_inurba_marseille","lat":43.27393,"lon":5.39378,"is_reserved":false,"is_disabled":false,"rental_uris":{"android":"levelo://app?vid=ea851758-50ca-45bf-97ef-8b24f3162bb2","ios":"levelo://app?vid=ea851758-50ca-45bf-97ef-8b24f3162bb2"},"vehicle_type_id":"4","last_reported":1731924678,"current_range_meters":36000,"station_id":"ce4bgjh2rcd13ifvqbf0","pricing_plan_id":"cebpf4jnsgd1na2vs0mg"},{"bike_id":"a9cd42f2-97ab-47bc-95b5-e9ed64ecb7da","system_id":"levelo_inurba_marseille","lat":43.30954,"lon":5.39049,"is_reserved":false,"is_disabled":false,"rental_uris":{"android":"levelo://app?vid=a9cd42f2-97ab-47bc-95b5-e9ed64ecb7da","ios":"levelo://app?vid=a9cd42f2-97ab-47bc-95b5-e9ed64ecb7da"},"vehicle_type_id":"4","last_reported":1731924678,"current_range_meters":32400,"station_id":"ce4bgup2rcd13ifvqco0","pricing_plan_id":"cebpf4jnsgd1na2vs0mg"},{"bike_id":"bc982a24-c663-47fb-b816-f750d49860b2","system_id":"levelo_inurba_marseille","lat":43.29556,"lon":5.42286,"is_reserved":false,"is_disabled":false,"rental_uris":{"android":"levelo://app?vid=bc982a24-c663-47fb-b816-f750d49860b2","ios":"levelo://app?vid=bc982a24-c663-47fb-b816-f750d49860b2"},"vehicle_type_id":"4","last_reported":1731924678,"current_range_meters":33600,"station_id":"ce4bhph2rcd13ifvqhdg","pricing_plan_id":"cebpf4jnsgd1na2vs0mg"},{"bike_id":"9e0fe9ed-dad6-4dfe-8841-c783d6cac338","system_id":"levelo_inurba_marseille","lat":43.24085,"lon":5.37749,"is_reserved":false,"is_disabled":false,"rental_uris":{"android":"levelo://app?vid=9e0fe9ed-dad6-4dfe-8841-c783d6cac338","ios":"levelo://app?vid=9e0fe9ed-dad6-4dfe-8841-c783d6cac338"},"vehicle_type_id":"4","last_reported":1731924678,"current_range_meters":19200,"station_id":"ce4bhnp2rcd13ifvqgvg","pricing_plan_id":"cebpf4jnsgd1na2vs0mg"},{"bike_id":"5aec949b-ac63-4bc3-9b4e-e9c1551c2168","system_id":"levelo_inurba_marseille","lat":43.28714,"lon":5.3793,"is_reserved":false,"is_disabled":false,"rental_uris":{"android":"levelo://app?vid=5aec949b-ac63-4bc3-9b4e-e9c1551c2168","ios":"levelo://app?vid=5aec949b-ac63-4bc3-9b4e-e9c1551c2168"},"vehicle_type_id":"4","last_reported":1731924678,"current_range_meters":38400,"station_id":"ce4bh9p2rcd13ifvqec0","pricing_plan_id":"cebpf4jnsgd1na2vs0mg"},{"bike_id":"80021477-a82e-4788-93f9-a1be5b876083","system_id":"levelo_inurba_marseille","lat":43.27494,"lon":5.42461,"is_reserved":false,"is_disabled":false,"rental_uris":{"android":"levelo://app?vid=80021477-a82e-4788-93f9-a1be5b876083","ios":"levelo://app?vid=80021477-a82e-4788-93f9-a1be5b876083"},"vehicle_type_id":"4","last_reported":1731924678,"current_range_meters":24000,"station_id":"ce4bhn92rcd13ifvqgrg","pricing_plan_id":"cebpf4jnsgd1na2vs0mg"},{"bike_id":"022f478e-da93-4eda-9d1b-2d0e36905c07","system_id":"levelo_inurba_marseille","lat":43.27994,"lon":5.40016,"is_reserved":false,"is_disabled":false,"rental_uris":{"android":"levelo://app?vid=022f478e-da93-4eda-9d1b-2d0e36905c07","ios":"levelo://app?vid=022f478e-da93-4eda-9d1b-2d0e36905c07"},"vehicle_type_id":"4","last_reported":1731924678,"current_range_meters":7200,"station_id":"ce4bho92rcd13ifvqh4g","pricing_plan_id":"cebpf4jnsgd1na2vs0mg"},{"bike_id":"3c7108fb-85fe-43b6-95ce-e6a5e6d34b1a","system_id":"levelo_inurba_marseille","lat":43.337303,"lon":5.391812,"is_reserved":false,"is_disabled":false,"rental_uris":{"android":"levelo://app?vid=3c7108fb-85fe-43b6-95ce-e6a5e6d34b1a","ios":"levelo://app?vid=3c7108fb-85fe-43b6-95ce-e6a5e6d34b1a"},"vehicle_type_id":"4","last_reported":1731924678,"current_range_meters":25200,"station_id":"ce4bhr92rcd13ifvqhsg","pricing_plan_id":"cebpf4jnsgd1na2vs0mg"},{"bike_id":"355c0a0b-84bd-4fdf-b751-29022c418da1","system_id":"levelo_inurba_marseille","lat":43.28966,"lon":5.37828,"is_reserved":false,"is_disabled":false,"rental_uris":{"android":"levelo://app?vid=355c0a0b-84bd-4fdf-b751-29022c418da1","ios":"levelo://app?vid=355c0a0b-84bd-4fdf-b751-29022c418da1"},"vehicle_type_id":"4","last_reported":1731924678,"current_range_meters":38800,"station_id":"ce4bh9p2rcd13ifvqed0","pricing_plan_id":"cebpf4jnsgd1na2vs0mg"},{"bike_id":"418cdeef-0b94-4f10-bf25-4099cd06a0d9","system_id":"levelo_inurba_marseille","lat":43.26199,"lon":5.37932,"is_reserved":false,"is_disabled":false,"rental_uris":{"android":"levelo://app?vid=418cdeef-0b94-4f10-bf25-4099cd06a0d9","ios":"levelo://app?vid=418cdeef-0b94-4f10-bf25-4099cd06a0d9"},"vehicle_type_id":"4","last_reported":1731924678,"current_range_meters":36800,"station_id":"ce4bhjp2rcd13ifvqg90","pricing_plan_id":"cebpf4jnsgd1na2vs0mg"},{"bike_id":"a59c236a-4050-4bb4-b900-133474c0c63c","system_id":"levelo_inurba_marseille","lat":43.2834,"lon":5.38099,"is_reserved":false,"is_disabled":false,"rental_uris":{"android":"levelo://app?vid=a59c236a-4050-4bb4-b900-133474c0c63c","ios":"levelo://app?vid=a59c236a-4050-4bb4-b900-133474c0c63c"},"vehicle_type_id":"4","last_reported":1731924678,"current_range_meters":25600,"station_id":"ce4bh412rcd13ifvqdr0","pricing_plan_id":"cebpf4jnsgd1na2vs0mg"},{"bike_id":"e07300b7-8408-4b0c-a4bb-bd9affbf124d","system_id":"levelo_inurba_marseille","lat":43.30885,"lon":5.39642,"is_reserved":false,"is_disabled":false,"rental_uris":{"android":"levelo://app?vid=e07300b7-8408-4b0c-a4bb-bd9affbf124d","ios":"levelo://app?vid=e07300b7-8408-4b0c-a4bb-bd9affbf124d"},"vehicle_type_id":"4","last_reported":1731924678,"current_range_meters":8400,"station_id":"ce4bh012rcd13ifvqcv0","pricing_plan_id":"cebpf4jnsgd1na2vs0mg"},{"bike_id":"b90ec3f9-28cf-47bb-aa02-076cea50a7b3","system_id":"levelo_inurba_marseille","lat":43.31112,"lon":5.37761,"is_reserved":false,"is_disabled":false,"rental_uris":{"android":"levelo://app?vid=b90ec3f9-28cf-47bb-aa02-076cea50a7b3","ios":"levelo://app?vid=b90ec3f9-28cf-47bb-aa02-076cea50a7b3"},"vehicle_type_id":"4","last_reported":1731924678,"current_range_meters":18000,"station_id":"ce4bgt92rcd13ifvqcg0","pricing_plan_id":"cebpf4jnsgd1na2vs0mg"},{"bike_id":"c71998b4-4e49-4022-8ad1-687216411ec6","system_id":"levelo_inurba_marseille","lat":43.23186,"lon":5.39992,"is_reserved":false,"is_disabled":false,"rental_uris":{"android":"levelo://app?vid=c71998b4-4e49-4022-8ad1-687216411ec6","ios":"levelo://app?vid=c71998b4-4e49-4022-8ad1-687216411ec6"},"vehicle_type_id":"4","last_reported":1731924678,"current_range_meters":15200,"station_id":"ce4bhn12rcd13ifvqgqg","pricing_plan_id":"cebpf4jnsgd1na2vs0mg"},{"bike_id":"e0500e76-9b1d-4cdf-81a0-bac96644b86a","system_id":"levelo_inurba_marseille","lat":43.24664,"lon":5.38168,"is_reserved":false,"is_disabled":false,"rental_uris":{"android":"levelo://app?vid=e0500e76-9b1d-4cdf-81a0-bac96644b86a","ios":"levelo://app?vid=e0500e76-9b1d-4cdf-81a0-bac96644b86a"},"vehicle_type_id":"4","last_reported":1731924678,"current_range_meters":32800,"station_id":"ce4bhih2rcd13ifvqfr0","pricing_plan_id":"cebpf4jnsgd1na2vs0mg"},