{"last_updated":1679310402,"ttl":30,"version":"2.2","data":{"bikes":[{"bike_id":"5e1c12c4-0217-4fcc-a931-e37432fa6006","system_id":"levelo_inurba_marseille","lat":43.31224,"lon":5.36856,"is_reserved":false,"is_disabled":false,"rental_uris":{"android":"levelo://app?vid=5e1c12c4-0217-4fcc-a931-e37432fa6006","ios":"levelo://app?vid=5e1c12c4-0217-4fcc-a931-e37432fa6006"},"vehicle_type_id":"4","last_reported":1679310402,"current_range_meters":8000,"station_id":"","pricing_plan_id":"free"},{"bike_id":"3a457b58-4aff-4f81-a0a2-57fb7d014e1f","system_id":"levelo_inurba_marseille","lat":43.3123,"lon":5.36861,"is_reserved":false,"is_disabled":false,"rental_uris":{"android":"levelo://app?vid=3a457b58-4aff-4f81-a0a2-57fb7d014e1f","ios":"levelo://app?vid=3a457b58-4aff-4f81-a0a2-57fb7d014e1f"},"vehicle_type_id":"4","last_reported":1679310402,"current_range_meters":26000,"station_id":"ce4bgl92rcd13ifvqbq0","pricing_plan_id":"free"},{"bike_id":"796f94a0-a596-49e7-abd9-1007aee19491","system_id":"levelo_inurba_marseille","lat":43.31224,"lon":5.36862,"is_reserved":false,"is_disabled":false,"rental_uris":{"android":"levelo://app?vid=796f94a0-a596-49e7-abd9-1007aee19491","ios":"levelo://app?vid=796f94a0-a596-49e7-abd9-1007aee19491"},"vehicle_type_id":"4","last_reported":1679310402,"current_range_meters":23200,"station_id":"","pricing_plan_id":"free"},{"bike_id":"4686537f-160e-4468-921d-a0a80cca76e8","system_id":"levelo_inurba_marseille","lat":43.312323,"lon":5.368663,"is_reserved":false,"is_disabled":false,"rental_uris":{"android":"levelo://app?vid=4686537f-160e-4468-921d-a0a80cca76e8","ios":"levelo://app?vid=4686537f-160e-4468-921d-a0a80cca76e8"},"vehicle_type_id":"4","last_reported":1679310402,"current_range_meters":30800,"station_id":"ce4bgl92rcd13ifvqbq0","pricing_plan_id":"free"},{"bike_id":"e93ed7ca-8807-4f42-8b94-cd65f999c84a","system_id":"levelo_inurba_marseille","lat":43.312239,"lon":5.368562,"is_reserved":false,"is_disabled":false,"rental_uris":{"android":"levelo://app?vid=e93ed7ca-8807-4f42-8b94-cd65f999c84a","ios":"levelo://app?vid=e93ed7ca-8807-4f42-8b94-cd65f999c84a"},"vehicle_type_id":"4","last_reported":1679310402,"current_range_meters":22000,"station_id":"ce4bgl92rcd13ifvqbq0","pricing_plan_id":"free"},{"bike_id":"34b832ea-e72a-4bec-8092-c2fe6b2d1304","system_id":"levelo_inurba_marseille","lat":43.31226,"lon":5.368675,"is_reserved":false,"is_disabled":false,"rental_uris":{"android":"levelo://app?vid=34b832ea-e72a-4bec-8092-c2fe6b2d1304","ios":"levelo://app?vid=34b832ea-e72a-4bec-8092-c2fe6b2d1304"},"vehicle_type_id":"4","last_reported":1679310402,"current_range_meters":30800,"station_id":"ce4bgl92rcd13ifvqbq0","pricing_plan_id":"free"},{"bike_id":"684a41bf-e4ae-44cd-a8ed-f585e63ba9c4","system_id":"levelo_inurba_marseille","lat":43.312239,"lon":5.368562,"is_reserved":false,"is_disabled":false,"rental_uris":{"android":"levelo://app?vid=684a41bf-e4ae-44cd-a8ed-f585e63ba9c4","ios":"levelo://app?vid=684a41bf-e4ae-44cd-a8ed-f585e63ba9c4"},"vehicle_type_id":"4","last_reported":1679310402,"current_range_meters":21200,"station_id":"ce4bgl92rcd13ifvqbq0","pricing_plan_id":"free"},{"bike_id":"546a44a0-c16b-464d-9450-49234e824fb7","system_id":"levelo_inurba_marseille","lat":43.312239,"lon":5.368562,"is_reserved":false,"is_disabled":false,"rental_uris":{"android":"levelo://app?vid=546a44a0-c16b-464d-9450-49234e824fb7","ios":"levelo://app?vid=546a44a0-c16b-464d-9450-49234e824fb7"},"vehicle_type_id":"4","last_reported":1679310402,"current_range_meters":28800,"station_id":"ce4bgl92rcd13ifvqbq0","pricing_plan_id":"free"},{"bike_id":"40daceb0-bd2e-4c72-a79c-cecc337b4228","system_id":"levelo_inurba_marseille","lat":43.309076,"lon":5.368465,"is_reserved":false,"is_disabled":false,"rental_uris":{"android":"levelo://app?vid=40daceb0-bd2e-4c72-a79c-cecc337b4228","ios":"levelo://app?vid=40daceb0-bd2e-4c72-a79c-cecc337b4228"},"vehicle_type_id":"4","last_reported":1679310402,"current_range_meters":20000,"station_id":"ce4bgn92rcd13ifvqbvg","pricing_plan_id":"free"},{"bike_id":"99eb29cb-c342-4cfc-91b9-e96a4dddce4a","system_id":"levelo_inurba_marseille","lat":43.309076,"lon":5.368465,"is_reserved":false,"is_disabled":false,"rental_uris":{"android":"levelo://app?vid=99eb29cb-c342-4cfc-91b9-e96a4dddce4a","ios":"levelo://app?vid=99eb29cb-c342-4cfc-91b9-e96a4dddce4a"},"vehicle_type_id":"4","last_reported":1679310402,"current_range_meters":14800,"station_id":"ce4bgn92rcd13ifvqbvg","pricing_plan_id":"free"},{"bike_id":"c60be92d-fbd0-4656-9677-ef0dc729bf8b","system_id":"levelo_inurba_marseille","lat":43.309076,"lon":5.368465,"is_reserved":false,"is_disabled":false,"rental_uris":{"android":"levelo://app?vid=c60be92d-fbd0-4656-9677-ef0dc729bf8b","ios":"levelo://app?vid=c60be92d-fbd0-4656-9677-ef0dc729bf8b"},"vehicle_type_id":"4","last_reported":1679310402,"current_range_meters":31200,"station_id":"ce4bgn92rcd13ifvqbvg","pricing_plan_id":"free"},{"bike_id":"75c08a00-9264-471d-87a1-4d6c3a8e3ef2","system_id":"levelo_inurba_marseille","lat":43.309076,"lon":5.368465,"is_reserved":false,"is_disabled":false,"rental_uris":{"android":"levelo://app?vid=75c08a00-9264-471d-87a1-4d6c3a8e3ef2","ios":"levelo://app?vid=75c08a00-9264-471d-87a1-4d6c3a8e3ef2"},"vehicle_type_id":"4","last_reported":1679310402,"current_range_meters":10800,"station_id":"ce4bgn92rcd13ifvqbvg","pricing_plan_id":"free"},{"bike_id":"31e110bd-57e1-4fca-afa8-799c81078e6a","system_id":"levelo_inurba_marseille","lat":43.309076,"lon":5.368465,"is_reserved":false,"is_disabled":false,"rental_uris":{"android":"levelo://app?vid=31e110bd-57e1-4fca-afa8-799c81078e6a","ios":"levelo://app?vid=31e110bd-57e1-4fca-afa8-799c81078e6a"},"vehicle_type_id":"4","last_reported":1679310402,"current_range_meters":31600,"station_id":"ce4bgn92rcd13ifvqbvg","pricing_plan_id":"free"},{"bike_id":"199bf262-3fba-455a-867f-4e2c510b158d","system_id":"levelo_inurba_marseille","lat":43.309076,"lon":5.368465,"is_reserved":false,"is_disabled":false,"rental_uris":{"android":"levelo://app?vid=199bf262-3fba-455a-867f-4e2c510b158d","ios":"levelo://app?vid=199bf262-3fba-455a-867f-4e2c510b158d"},"vehicle_type_id":"4","last_reported":1679310402,"current_range_meters":28800,"station_id":"ce4bgn92rcd13ifvqbvg","pricing_plan_id":"free"},{"bike_id":"a89bb93a-3d1e-437a-8fd0-26e84b125a45","system_id":"levelo_inurba_marseille","lat":43.309076,"lon":5.368465,"is_reserved":false,"is_disabled":false,"rental_uris":{"android":"levelo://app?vid=a89bb93a-3d1e-437a-8fd0-26e84b125a45","ios":"levelo://app?vid=a89bb93a-3d1e-437a-8fd0-26e84b125a45"},"vehicle_type_id":"4","last_reported":1679310402,"current_range_meters":31600,"station_id":"ce4bgn92rcd13ifvqbvg","pricing_plan_id":"free"},{"bike_id":"81a4a575-f59d-4256-b9c1-c469a6a93f35","system_id":"levelo_inurba_marseille","lat":43.30905,"lon":5.368505,"is_reserved":false,"is_disabled":false,"rental_uris":{"android":"levelo://app?vid=81a4a575-f59d-4256-b9c1-c469a6a93f35","ios":"levelo://app?vid=81a4a575-f59d-4256-b9c1-c469a6a93f35"},"vehicle_type_id":"4","last_reported":1679310402,"current_range_meters":17600,"station_id":"ce4bgn92rcd13ifvqbvg","pricing_plan_id":"free"},{"bike_id":"50badb26-fda4-4a54-83cc-4fd5847bff75","system_id":"levelo_inurba_marseille","lat":43.30886,"lon":5.37188,"is_reserved":false,"is_disabled":false,"rental_uris":{"android":"levelo://app?vid=50badb26-fda4-4a54-83cc-4fd5847bff75","ios":"levelo://app?vid=50badb26-fda4-4a54-83cc-4fd5847bff75"},"vehicle_type_id":"4","last_reported":1679310402,"current_range_meters":24000,"station_id":"ce4bguh2rcd13ifvqckg","pricing_plan_id":"free"},{"bike_id":"875159f1-b088-427a-943b-37d1dd52c7fe","system_id":"levelo_inurba_marseille","lat":43.308823,"lon":5.372,"is_reserved":false,"is_disabled":false,"rental_uris":{"android":"levelo://app?vid=875159f1-b088-427a-943b-37d1dd52c7fe","ios":"levelo://app?vid=875159f1-b088-427a-943b-37d1dd52c7fe"},"vehicle_type_id":"4","last_reported":1679310402,"current_range_meters":30400,"station_id":"ce4bguh2rcd13ifvqckg","pricing_plan_id":"free"},{"bike_id":"fe033ddd-90ad-4500-b8f6-f04b36205ee5","system_id":"levelo_inurba_marseille","lat":43.30556,"lon":5.36702,"is_reserved":false,"is_disabled":false,"rental_uris":{"android":"levelo://app?vid=fe033ddd-90ad-4500-b8f6-f04b36205ee5","ios":"levelo://app?vid=fe033ddd-90ad-4500-b8f6-f04b36205ee5"},"vehicle_type_id":"4","last_reported":1679310402,"current_range_meters":3200,"station_id":"","pricing_plan_id":"free"},{"bike_id":"51534f5f-cc67-4a8a-bdd1-d3e29ab138be","system_id":"levelo_inurba_marseille","lat":43.317075,"lon":5.377367,"is_reserved":false,"is_disabled":false,"rental_uris":{"android":"levelo://app?vid=51534f5f-cc67-4a8a-bdd1-d3e29ab138be","ios":"levelo://app?vid=51534f5f-cc67-4a8a-bdd1-d3e29ab138be"},"vehicle_type_id":"4","last_reported":1679310402,"current_range_meters":18800,"station_id":"ce4bgth2rcd13ifvqch0","pricing_plan_id":"free"},{"bike_id":"58125cb7-3d05-4f10-bac5-4817caf7b3c5","system_id":"levelo_inurba_marseille","lat":43.317075,"lon":5.377367,"is_reserved":false,"is_disabled":false,"rental_uris":{"android":"levelo://app?vid=58125cb7-3d05-4f10-bac5-4817caf7b3c5","ios":"levelo://app?vid=58125cb7-3d05-4f10-bac5-4817caf7b3c5"},"vehicle_type_id":"4","last_reported":1679310402,"current_range_meters":14000,"station_id":"ce4bgth2rcd13ifvqch0","pricing_plan_id":"free"},{"bike_id":"9501f391-1ebe-44a9-a9e9-e1594413d30c","system_id":"levelo_inurba_marseille","lat":43.317998,"lon":5.377828,"is_reserved":false,"is_disabled":false,"rental_uris":{"android":"levelo://app?vid=9501f391-1ebe-44a9-a9e9-e1594413d30c","ios":"levelo://app?vid=9501f391-1ebe-44a9-a9e9-e1594413d30c"},"vehicle_type_id":"4","last_reported":1679310402,"current_range_meters":0,"station_id":"","pricing_plan_id":"free"},{"bike_id":"4733a617-6492-4762-84a4-b6c7e41d51a4","system_id":"levelo_inurba_marseille","lat":43.3056,"lon":5.376155,"is_reserved":false,"is_disabled":false,"rental_uris":{"android":"levelo://app?vid=4733a617-6492-4762-84a4-b6c7e41d51a4","ios":"levelo://app?vid=4733a617-6492-4762-84a4-b6c7e41d51a4"},"vehicle_type_id":"4","last_reported":1679310402,"current_range_meters":800,"station_id":"","pricing_plan_id":"free"},{"bike_id":"b73d0073-6ce8-4a0d-8a1b-c62ee471a5c7","system_id":"levelo_inurba_marseille","lat":43.301939,"lon":5.366286,"is_reserved":false,"is_disabled":false,"rental_uris":{"android":"levelo://app?vid=b73d0073-6ce8-4a0d-8a1b-c62ee471a5c7","ios":"levelo://app?vid=b73d0073-6ce8-4a0d-8a1b-c62ee471a5c7"},"vehicle_type_id":"4","last_reported":1679310402,"current_range_meters":22000,"station_id":"ce4bgrh2rcd13ifvqc8g","pricing_plan_id":"free"},{"bike_id":"a8a50b8e-4d9f-4ffa-bce6-27989c322f83","system_id":"levelo_inurba_marseille","lat":43.301939,"lon":5.366286,"is_reserved":false,"is_disabled":false,"rental_uris":{"android":"levelo://app?vid=a8a50b8e-4d9f-4ffa-bce6-27989c322f83","ios":"levelo://app?vid=a8a50b8e-4d9f-4ffa-bce6-27989c322f83"},"vehicle_type_id":"4","last_reported":1679310402,"current_range_meters":12800,"station_id":"ce4bgrh2rcd13ifvqc8g","pricing_plan_id":"free"},{"bike_id":"6bce755d-8862-4b6c-9f52-f0b734833fa7","system_id":"levelo_inurba_marseille","lat":43.301939,"lon":5.366286,"is_reserved":false,"is_disabled":false,"rental_uris":{"android":"levelo://app?vid=6bce755d-8862-4b6c-9f52-f0b734833fa7","ios":"levelo://app?vid=6bce755d-8862-4b6c-9f52-f0b734833fa7"},"vehicle_type_id":"4","last_reported":1679310402,"current_range_meters":27600,"station_id":"ce4bgrh2rcd13ifvqc8g","pricing_plan_id":"free"},{"bike_id":"902b9f08-e0d2-45f8-ba5c-6f0e3f03d9fb","system_id":"levelo_inurba_marseille","lat":43.301939,"lon":5.366286,"is_reserved":false,"is_disabled":false,"rental_uris":{"android":"levelo://app?vid=902b9f08-e0d2-45f8-ba5c-6f0e3f03d9fb","ios":"levelo://app?vid=902b9f08-e0d2-45f8-ba5c-6f0e3f03d9fb"},"vehicle_type_id":"4","last_reported":1679310402,"current_range_meters":19600,"station_id":"ce4bgrh2rcd13ifvqc8g","pricing_plan_id":"free"},{"bike_id":"8bac2c59-f548-4c76-8929-cd337de18d21","system_id":"levelo_inurba_marseille","lat":43.301939,"lon":5.366286,"is_reserved":false,"is_disabled":false,"rental_uris":{"android":"levelo://app?vid=8bac2c59-f548-4c76-8929-cd337de18d21","ios":"levelo://app?vid=8bac2c59-f548-4c76-8929-cd337de18d21"},"vehicle_type_id":"4","last_reported":1679310402,"current_range_meters":23600,"station_id":"ce4bgrh2rcd13ifvqc8g","pricing_plan_id":"free"},{"bike_id":"98ecd958-69e3-44d8-8927-52fa523f4ad6","system_id":"levelo_inurba_marseille","lat":43.301939,"lon":5.366286,"is_reserved":false,"is_disabled":false,"rental_uris":{"android":"levelo://app?vid=98ecd958-69e3-44d8-8927-52fa523f4ad6","ios":"levelo://app?vid=98ecd958-69e3-44d8-8927-52fa523f4ad6"},"vehicle_type_id":"4","last_reported":1679310402,"current_range_meters":23600,"station_id":"ce4bgrh2rcd13ifvqc8g","pricing_plan_id":"free"},{"bike_id":"bdb11955-a89a-4c56-93f0-5ba0d8c6da6c","system_id":"levelo_inurba_marseille","lat":43.301939,"lon":5.366286,"is_reserved":false,"is_disabled":false,"rental_uris":{"android":"levelo://app?vid=bdb11955-a89a-4c56-93f0-5ba0d8c6da6c","ios":"levelo://app?vid=bdb11955-a89a-4c56-93f0-5ba0d8c6da6c"},"vehicle_type_id":"4","last_reported":1679310402,"current_range_meters":28400,"station_id":"ce4bgrh2rcd13ifvqc8g","pricing_plan_id":"free"},{"bike_id":"452b2672-b362-4d38-9696-ddda64ec1212","system_id":"levelo_inurba_marseille","lat":43.301939,"lon":5.366286,"is_reserved":false,"is_disabled":false,"rental_uris":{"android":"levelo://app?vid=452b2672-b362-4d38-9696-ddda64ec1212","ios":"levelo://app?vid=452b2672-b362-4d38-9696-ddda64ec1212"},"vehicle_type_id":"4","last_reported":1679310402,"current_range_meters":31600,"station_id":"ce4bgrh2rcd13ifvqc8g","pricing_plan_id":"free"},{"bike_id":"984998f6-fd36-4333-adf1-d3aa6266a6e9","system_id":"levelo_inurba_marseille","lat":43.301861,"lon":5.365995,"is_reserved":false,"is_disabled":false,"rental_uris":{"android":"levelo://app?vid=984998f6-fd36-4333-adf1-d3aa6266a6e9","ios":"levelo://app?vid=984998f6-fd36-4333-adf1-d3aa6266a6e9"},"vehicle_type_id":"4","last_reported":1679310402,"current_range_meters":28400,"station_id":"ce4bgrh2rcd13ifvqc8g","pricing_plan_id":"free"},{"bike_id":"120a5a49-09b2-4e1e-9da0-5d81dbe8ec8f","system_id":"levelo_inurba_marseille","lat":43.301939,"lon":5.366286,"is_reserved":false,"is_disabled":false,"rental_uris":{"android":"levelo://app?vid=120a5a49-09b2-4e1e-9da0-5d81dbe8ec8f","ios":"levelo://app?vid=120a5a49-09b2-4e1e-9da0-5d81dbe8ec8f"},"vehicle_type_id":"4","last_reported":1679310402,"current_range_meters":26400,"station_id":"ce4bgrh2rcd13ifvqc8g","pricing_plan_id":"free"},{"bike_id":"5fbdb319-87fa-4806-bb62-d9e98df51a6e","system_id":"levelo_inurba_marseille","lat":43.301939,"lon":5.366286,"is_reserved":false,"is_disabled":false,"rental_uris":{"android":"levelo://app?vid=5fbdb319-87fa-4806-bb62-d9e98df51a6e","ios":"levelo://app?vid=5fbdb319-87fa-4806-bb62-d9e98df51a6e"},"vehicle_type_id":"4","last_reported":1679310402,"current_range_meters":30800,"station_id":"ce4bgrh2rcd13ifvqc8g","pricing_plan_id":"free"},{"bike_id":"fe4b7fed-8b18-47be-90d3-2c4944b53c47","system_id":"levelo_inurba_marseille","lat":43.301939,"lon":5.366286,"is_reserved":false,"is_disabled":false,"rental_uris":{"android":"levelo://app?vid=fe4b7fed-8b18-47be-90d3-2c4944b53c47","ios":"levelo://app?vid=fe4b7fed-8b18-47be-90d3-2c4944b53c47"},"vehicle_type_id":"4","last_reported":1679310402,"current_range_meters":11200,"station_id":"ce4bgrh2rcd13ifvqc8g","pricing_plan_id":"free"},{"bike_id":"76d1cf74-fe4a-4894-b5fa-60baf3c17303","system_id":"levelo_inurba_marseille","lat":43.30143,"lon":5.37413,"is_reserved":false,"is_disabled":false,"rental_uris":{"android":"levelo://app?vid=76d1cf74-fe4a-4894-b5fa-60baf3c17303","ios":"levelo://app?vid=76d1cf74-fe4a-4894-b5fa-60baf3c17303"},"vehicle_type_id":"4","last_reported":1679310402,"current_range_meters":24000,"station_id":"ce4bgs92rcd13ifvqcc0","pricing_plan_id":"free"},{"bike_id":"de724037-e3b1-4246-8d0c-27706e054546","system_id":"levelo_inurba_marseille","lat":43.30143,"lon":5.37413,"is_reserved":false,"is_disabled":false,"rental_uris":{"android":"levelo://app?vid=de724037-e3b1-4246-8d0c-27706e054546","ios":"levelo://app?vid=de724037-e3b1-4246-8d0c-27706e054546"},"vehicle_type_id":"4","last_reported":1679310402,"current_range_meters":30400,"station_id":"ce4bgs92rcd13ifvqcc0","pricing_plan_id":"free"},{"bike_id":"8f2e531e-c33e-4348-a9c8-f55ff993c4d0","system_id":"levelo_inurba_marseille","lat":43.30281,"lon":5.37953,"is_reserved":false,"is_disabled":false,"rental_uris":{"android":"levelo://app?vid=8f2e531e-c33e-4348-a9c8-f55ff993c4d0","ios":"levelo://app?vid=8f2e531e-c33e-4348-a9c8-f55ff993c4d0"},"vehicle_type_id":"4","last_reported":1679310402,"current_range_meters":26800,"station_id":"","pricing_plan_id":"free"},{"bike_id":"623b4898-88c9-47dc-bd1d-13b90786cc81","system_id":"levelo_inurba_marseille","lat":43.29856,"lon":5.36288,"is_reserved":false,"is_disabled":false,"rental_uris":{"android":"levelo://app?vid=623b4898-88c9-47dc-bd1d-13b90786cc81","ios":"levelo://app?vid=623b4898-88c9-47dc-bd1d-13b90786cc81"},"vehicle_type_id":"4","last_reported":1679310402,"current_range_meters":11200,"station_id":"","pricing_plan_id":"free"},{"bike_id":"13a05c36-a657-432f-8cc2-c4bf6db05e10","system_id":"levelo_inurba_marseille","lat":43.29854,"lon":5.36285,"is_reserved":false,"is_disabled":false,"rental_uris":{"android":"levelo://app?vid=13a05c36-a657-432f-8cc2-c4bf6db05e10","ios":"levelo://app?vid=13a05c36-a657-432f-8cc2-c4bf6db05e10"},"vehicle_type_id":"4","last_reported":1679310402,"current_range_meters":28400,"station_id":"","pricing_plan_id":"free"},{"bike_id":"b10693b3-1864-4537-9ef8-35a98db8e784","system_id":"levelo_inurba_marseille","lat":43.2985,"lon":5.36285,"is_reserved":false,"is_disabled":false,"rental_uris":{"android":"levelo://app?vid=b10693b3-1864-4537-9ef8-35a98db8e784","ios":"levelo://app?vid=b10693b3-1864-4537-9ef8-35a98db8e784"},"vehicle_type_id":"4","last_reported":1679310402,"current_range_meters":14400,"station_id":"","pricing_plan_id":"free"},{"bike_id":"35887d5f-d4dc-4145-b0df-f1db15f2139e","system_id":"levelo_inurba_marseille","lat":43.298433,"lon":5.362774,"is_reserved":false,"is_disabled":false,"rental_uris":{"android":"levelo://app?vid=35887d5f-d4dc-4145-b0df-f1db15f2139e","ios":"levelo://app?vid=35887d5f-d4dc-4145-b0df-f1db15f2139e"},"vehicle_type_id":"4","last_reported":1679310402,"current_range_meters":29600,"station_id":"ce4bgpp2rcd13ifvqc3g","pricing_plan_id":"free"},{"bike_id":"fd727984-792d-4163-aecd-879999208a41","system_id":"levelo_inurba_marseille","lat":43.297794,"lon":5.370888,"is_reserved":false,"is_disabled":false,"rental_uris":{"android":"levelo://app?vid=fd727984-792d-4163-aecd-879999208a41","ios":"levelo://app?vid=fd727984-792d-4163-aecd-879999208a41"},"vehicle_type_id":"4","last_reported":1679310402,"current_range_meters":15200,"station_id":"ce4bgop2rcd13ifvqc1g","pricing_plan_id":"free"},{"bike_id":"24239f60-582d-4a8d-b6f7-b081ac4608ed","system_id":"levelo_inurba_marseille","lat":43.328371,"lon":5.366909,"is_reserved":false,"is_disabled":false,"rental_uris":{"android":"levelo://app?vid=24239f60-582d-4a8d-b6f7-b081ac4608ed","ios":"levelo://app?vid=24239f60-582d-4a8d-b6f7-b081ac4608ed"},"vehicle_type_id":"4","last_reported":1679310402,"current_range_meters":19200,"station_id":"ce4bhs92rcd13ifvqi0g","pricing_plan_id":"free"},{"bike_id":"86b64564-7709-4104-9e70-390a59f82068","system_id":"levelo_inurba_marseille","lat":43.328371,"lon":5.366909,"is_reserved":false,"is_disabled":false,"rental_uris":{"android":"levelo://app?vid=86b64564-7709-4104-9e70-390a59f82068","ios":"levelo://app?vid=86b64564-7709-4104-9e70-390a59f82068"},"vehicle_type_id":"4","last_reported":1679310402,"current_range_meters":8000,"station_id":"ce4bhs92rcd13ifvqi0g","pricing_plan_id":"free"},{"bike_id":"92e58fdf-5326-486f-928c-6447bdf0adfa","system_id":"levelo_inurba_marseille","lat":43.317557,"lon":5.390173,"is_reserved":false,"is_disabled":false,"rental_uris":{"android":"levelo://app?vid=92e58fdf-5326-486f-928c-6447bdf0adfa","ios":"levelo://app?vid=92e58fdf-5326-486f-928c-6447bdf0adfa"},"vehicle_type_id":"4","last_reported":1679310402,"current_range_meters":16800,"station_id":"ce4bhqp2rcd13ifvqhng","pricing_plan_id":"free"},{"bike_id":"0d39fdaf-0306-485c-8b5d-1b464feae090","system_id":"levelo_inurba_marseille","lat":43.29812,"lon":5.38075,"is_reserved":false,"is_disabled":false,"rental_uris":{"android":"levelo://app?vid=0d39fdaf-0306-485c-8b5d-1b464feae090","ios":"levelo://app?vid=0d39fdaf-0306-485c-8b5d-1b464feae090"},"vehicle_type_id":"4","last_reported":1679310402,"current_range_meters":25200,"station_id":"","pricing_plan_id":"free"},{"bike_id":"7f2a1713-1b8c-439f-b65e-711fa6c8c43e","system_id":"levelo_inurba_marseille","lat":43.295748,"lon":5.37522,"is_reserved":false,"is_disabled":false,"rental_uris":{"android":"levelo://app?vid=7f2a1713-1b8c-439f-b65e-711fa6c8c43e","ios":"levelo://app?vid=7f2a1713-1b8c-439f-b65e-711fa6c8c43e"},"vehicle_type_id":"4","last_reported":1679310402,"current_range_meters":25200,"station_id":"ce4bgh92rcd13ifvqb50","pricing_plan_id":"free"},{"bike_id":"ecb42ce3-1f01-4a40-8fa3-27b3ba4d8b46","system_id":"levelo_inurba_marseille","lat":43.295748,"lon":5.37522,"is_reserved":false,"is_disabled":false,"rental_uris":{"android":"levelo://app?vid=ecb42ce3-1f01-4a40-8fa3-27b3ba4d8b46","ios":"levelo://app?vid=ecb42ce3-1f01-4a40-8fa3-27b3ba4d8b46"},"vehicle_type_id":"4","last_reported":1679310402,"current_range_meters":30400,"station_id":"ce4bgh92rcd13ifvqb50","pricing_plan_id":"free"},{"bike_id":"ed866ab1-2f17-48db-a1e8-3f469962e9f9","system_id":"levelo_inurba_marseille","lat":43.295748,"lon":5.37522,"is_reserved":false,"is_disabled":false,"rental_uris":{"android":"levelo://app?vid=ed866ab1-2f17-48db-a1e8-3f469962e9f9","ios":"levelo://app?vid=ed866ab1-2f17-48db-a1e8-3f469962e9f9"},"vehicle_type_id":"4","last_reported":1679310402,"current_range_meters":24000,"station_id":"ce4bgh92rcd13ifvqb50","pricing_plan_id":"free"},{"bike_id":"85ba40da-cc1c-4477-a6d2-59c9e6de78f4","system_id":"levelo_inurba_marseille","lat":43.309589,"lon":5.390258,"is_reserved":false,"is_disabled":false,"rental_uris":{"android":"levelo://app?vid=85ba40da-cc1c-4477-a6d2-59c9e6de78f4","ios":"levelo://app?vid=85ba40da-cc1c-4477-a6d2-59c9e6de78f4"},"vehicle_type_id":"4","last_reported":1679310402,"current_range_meters":25600,"station_id":"ce4bgup2rcd13ifvqco0","pricing_plan_id":"free"},{"bike_id":"35b28b1f-3504-4ca9-b2f8-4430b47d84ac","system_id":"levelo_inurba_marseille","lat":43.32362,"lon":5.388872,"is_reserved":false,"is_disabled":false,"rental_uris":{"android":"levelo://app?vid=35b28b1f-3504-4ca9-b2f8-4430b47d84ac","ios":"levelo://app?vid=35b28b1f-3504-4ca9-b2f8-4430b47d84ac"},"vehicle_type_id":"4","last_reported":1679310402,"current_range_meters":0,"station_id":"ce4bhqp2rcd13ifvqhog","pricing_plan_id":"free"},{"bike_id":"4b80bbc4-a525-4ff2-8d01-c04667f30381","system_id":"levelo_inurba_marseille","lat":43.305994,"lon":5.393687,"is_reserved":false,"is_disabled":false,"rental_uris":{"android":"levelo://app?vid=4b80bbc4-a525-4ff2-8d01-c04667f30381","ios":"levelo://app?vid=4b80bbc4-a525-4ff2-8d01-c04667f30381"},"vehicle_type_id":"4","last_reported":1679310402,"current_range_meters":19200,"station_id":"ce4bh0p2rcd13ifvqd80","pricing_plan_id":"free"},{"bike_id":"8d6cb814-a26c-43af-b868-20bd6e65fe6c","system_id":"levelo_inurba_marseille","lat":43.293009,"lon":5.374584,"is_reserved":false,"is_disabled":false,"rental_uris":{"android":"levelo://app?vid=8d6cb814-a26c-43af-b868-20bd6e65fe6c","ios":"levelo://app?vid=8d6cb814-a26c-43af-b868-20bd6e65fe6c"},"vehicle_type_id":"4","last_reported":1679310402,"current_range_meters":24400,"station_id":"ce4bgi12rcd13ifvqb70","pricing_plan_id":"free"},{"bike_id":"6868d2c4-79d3-47fe-aa9c-856e62e176ec","system_id":"levelo_inurba_marseille","lat":43.29233,"lon":5.36066,"is_reserved":false,"is_disabled":false,"rental_uris":{"android":"levelo://app?vid=6868d2c4-79d3-47fe-aa9c-856e62e176ec","ios":"levelo://app?vid=6868d2c4-79d3-47fe-aa9c-856e62e176ec"},"vehicle_type_id":"4","last_reported":1679310402,"current_range_meters":31200,"station_id":"ce4bhbh2rcd13ifvqeqg","pricing_plan_id":"free"},{"bike_id":"66c63f96-ed06-4172-9668-caedd12c7ae7","system_id":"levelo_inurba_marseille","lat":43.292311,"lon":5.360731,"is_reserved":false,"is_disabled":false,"rental_uris":{"android":"levelo://app?vid=66c63f96-ed06-4172-9668-caedd12c7ae7","ios":"levelo://app?vid=66c63f96-ed06-4172-9668-caedd12c7ae7"},"vehicle_type_id":"4","last_reported":1679310402,"current_range_meters":30400,"station_id":"ce4bhbh2rcd13ifvqeqg","pricing_plan_id":"free"},{"bike_id":"647aa8bd-712d-4ab7-9629-ee64134e119e","system_id":"levelo_inurba_marseille","lat":43.292311,"lon":5.360731,"is_reserved":false,"is_disabled":false,"rental_uris":{"android":"levelo://app?vid=647aa8bd-712d-4ab7-9629-ee64134e119e","ios":"levelo://app?vid=647aa8bd-712d-4ab7-9629-ee64134e119e"},"vehicle_type_id":"4","last_reported":1679310402,"current_range_meters":18400,"station_id":"ce4bhbh2rcd13ifvqeqg","pricing_plan_id":"free"},{"bike_id":"c2a19da1-7245-47a4-8dc0-ba4c5c8a0bbc","system_id":"levelo_inurba_marseille","lat":43.292311,"lon":5.360731,"is_reserved":false,"is_disabled":false,"rental_uris":{"android":"levelo://app?vid=c2a19da1-7245-47a4-8dc0-ba4c5c8a0bbc","ios":"levelo://app?vid=c2a19da1-7245-47a4-8dc0-ba4c5c8a0bbc"},"vehicle_type_id":"4","last_reported":1679310402,"current_range_meters":31600,"station_id":"ce4bhbh2rcd13ifvqeqg","pricing_plan_id":"free"},{"bike_id":"a59a7787-c9c1-4116-b344-ce2c6b46ee55","system_id":"levelo_inurba_marseille","lat":43.29228,"lon":5.36065,"is_reserved":false,"is_disabled":false,"rental_uris":{"android":"levelo://app?vid=a59a7787-c9c1-4116-b344-ce2c6b46ee55","ios":"levelo://app?vid=a59a7787-c9c1-4116-b344-ce2c6b46ee55"},"vehicle_type_id":"4","last_reported":1679310402,"current_range_meters":28000,"station_id":"ce4bhbh2rcd13ifvqeqg","pricing_plan_id":"free"},{"bike_id":"97f433d8-4725-401c-86e1-aa8c3bc580df","system_id":"levelo_inurba_marseille","lat":43.292311,"lon":5.360731,"is_reserved":false,"is_disabled":false,"rental_uris":{"android":"levelo://app?vid=97f433d8-4725-401c-86e1-aa8c3bc580df","ios":"levelo://app?vid=97f433d8-4725-401c-86e1-aa8c3bc580df"},"vehicle_type_id":"4","last_reported":1679310402,"current_range_meters":13200,"station_id":"ce4bhbh2rcd13ifvqeqg","pricing_plan_id":"free"},{"bike_id":"d17b337e-acc6-434b-80b7-b19f29671b6a","system_id":"levelo_inurba_marseille","lat":43.292311,"lon":5.360731,"is_reserved":false,"is_disabled":false,"rental_uris":{"android":"levelo://app?vid=d17b337e-acc6-434b-80b7-b19f29671b6a","ios":"levelo://app?vid=d17b337e-acc6-434b-80b7-b19f29671b6a"},"vehicle_type_id":"4","last_reported":1679310402,"current_range_meters":28000,"station_id":"ce4bhbh2rcd13ifvqeqg","pricing_plan_id":"free"},{"bike_id":"b114e721-650c-4d8a-87c6-a99f172f21ae","system_id":"levelo_inurba_marseille","lat":43.29222,"lon":5.36056,"is_reserved":false,"is_disabled":false,"rental_uris":{"android":"levelo://app?vid=b114e721-650c-4d8a-87c6-a99f172f21ae","ios":"levelo://app?vid=b114e721-650c-4d8a-87c6-a99f172f21ae"},"vehicle_type_id":"4","last_reported":1679310402,"current_range_meters":24000,"station_id":"ce4bhbh2rcd13ifvqeqg","pricing_plan_id":"free"},{"bike_id":"4ed9e2e8-73f5-489a-b565-42a56cf09cc5","system_id":"levelo_inurba_marseille","lat":43.29876,"lon":5.38896,"is_reserved":false,"is_disabled":false,"rental_uris":{"android":"levelo://app?vid=4ed9e2e8-73f5-489a-b565-42a56cf09cc5","ios":"levelo://app?vid=4ed9e2e8-73f5-489a-b565-42a56cf09cc5"},"vehicle_type_id":"4","last_reported":1679310402,"current_range_meters":12400,"station_id":"ce4bh392rcd13ifvqdl0","pricing_plan_id":"free"},{"bike_id":"984426df-a75d-4e10-a7b4-d530bf1a8c4d","system_id":"levelo_inurba_marseille","lat":43.29008,"lon":5.35615,"is_reserved":false,"is_disabled":false,"rental_uris":{"android":"levelo://app?vid=984426df-a75d-4e10-a7b4-d530bf1a8c4d","ios":"levelo://app?vid=984426df-a75d-4e10-a7b4-d530bf1a8c4d"},"vehicle_type_id":"4","last_reported":1679310402,"current_range_meters":11600,"station_id":"","pricing_plan_id":"free"},{"bike_id":"856d3f89-a21c-4059-aa1b-1792d52d2057","system_id":"levelo_inurba_marseille","lat":43.290104,"lon":5.356111,"is_reserved":false,"is_disabled":false,"rental_uris":{"android":"levelo://app?vid=856d3f89-a21c-4059-aa1b-1792d52d2057","ios":"levelo://app?vid=856d3f89-a21c-4059-aa1b-1792d52d2057"},"vehicle_type_id":"4","last_reported":1679310402,"current_range_meters":0,"station_id":"ce4bhb92rcd13ifvqen0","pricing_plan_id":"free"},{"bike_id":"0954aad4-7ae2-4e5b-a014-88727e8a2b35","system_id":"levelo_inurba_marseille","lat":43.290104,"lon":5.356111,"is_reserved":false,"is_disabled":false,"rental_uris":{"android":"levelo://app?vid=0954aad4-7ae2-4e5b-a014-88727e8a2b35","ios":"levelo://app?vid=0954aad4-7ae2-4e5b-a014-88727e8a2b35"},"vehicle_type_id":"4","last_reported":1679310402,"current_range_meters":8800,"station_id":"ce4bhb92rcd13ifvqen0","pricing_plan_id":"free"},{"bike_id":"a9756f61-0acf-4074-86d2-285157ae1a80","system_id":"levelo_inurba_marseille","lat":43.330442,"lon":5.389148,"is_reserved":false,"is_disabled":false,"rental_uris":{"android":"levelo://app?vid=a9756f61-0acf-4074-86d2-285157ae1a80","ios":"levelo://app?vid=a9756f61-0acf-4074-86d2-285157ae1a80"},"vehicle_type_id":"4","last_reported":1679310402,"current_range_meters":22400,"station_id":"ce4bhr92rcd13ifvqhrg","pricing_plan_id":"free"},{"bike_id":"e9c4f922-43c9-4f71-ae65-79467d2e8e81","system_id":"levelo_inurba_marseille","lat":43.295169,"lon":5.390426,"is_reserved":false,"is_disabled":false,"rental_uris":{"android":"levelo://app?vid=e9c4f922-43c9-4f71-ae65-79467d2e8e81","ios":"levelo://app?vid=e9c4f922-43c9-4f71-ae65-79467d2e8e81"},"vehicle_type_id":"4","last_reported":1679310402,"current_range_meters":20000,"station_id":"ce4bh3p2rcd13ifvqdp0","pricing_plan_id":"free"},{"bike_id":"de441016-b680-4f22-850b-f8b44d97b388","system_id":"levelo_inurba_marseille","lat":43.30642,"lon":5.401031,"is_reserved":false,"is_disabled":false,"rental_uris":{"android":"levelo://app?vid=de441016-b680-4f22-850b-f8b44d97b388","ios":"levelo://app?vid=de441016-b680-4f22-850b-f8b44d97b388"},"vehicle_type_id":"4","last_reported":1679310402,"current_range_meters":7600,"station_id":"ce4bh112rcd13ifvqda0","pricing_plan_id":"free"},{"bike_id":"5e884e50-39ac-47a4-a3bf-82bca791542f","system_id":"levelo_inurba_marseille","lat":43.30642,"lon":5.401031,"is_reserved":false,"is_disabled":false,"rental_uris":{"android":"levelo://app?vid=5e884e50-39ac-47a4-a3bf-82bca791542f","ios":"levelo://app?vid=5e884e50-39ac-47a4-a3bf-82bca791542f"},"vehicle_type_id":"4","last_reported":1679310402,"current_range_meters":31600,"station_id":"ce4bh112rcd13ifvqda0","pricing_plan_id":"free"},{"bike_id":"8e031bf7-ca65-458c-b944-3cddd31a8985","system_id":"levelo_inurba_marseille","lat":43.301117,"lon":5.398795,"is_reserved":false,"is_disabled":false,"rental_uris":{"android":"levelo://app?vid=8e031bf7-ca65-458c-b944-3cddd31a8985","ios":"levelo://app?vid=8e031bf7-ca65-458c-b944-3cddd31a8985"},"vehicle_type_id":"4","last_reported":1679310402,"current_range_meters":20000,"station_id":"ce4bh0h2rcd13ifvqd40","pricing_plan_id":"free"},{"bike_id":"0c9dea4d-e10e-4a09-a296-848389d565ac","system_id":"levelo_inurba_marseille","lat":43.295127,"lon":5.394062,"is_reserved":false,"is_disabled":false,"rental_uris":{"android":"levelo://app?vid=0c9dea4d-e10e-4a09-a296-848389d565ac","ios":"levelo://app?vid=0c9dea4d-e10e-4a09-a296-848389d565ac"},"vehicle_type_id":"4","last_reported":1679310402,"current_range_meters":0,"station_id":"ce4bh292rcd13ifvqdf0","pricing_plan_id":"free"},{"bike_id":"46b3f5c2-7868-4e54-920e-73c9bd4a18c2","system_id":"levelo_inurba_marseille","lat":43.286039,"lon":5.370679,"is_reserved":false,"is_disabled":false,"rental_uris":{"android":"levelo://app?vid=46b3f5c2-7868-4e54-920e-73c9bd4a18c2","ios":"levelo://app?vid=46b3f5c2-7868-4e54-920e-73c9bd4a18c2"},"vehicle_type_id":"4","last_reported":1679310402,"current_range_meters":26000,"station_id":"ce4bht12rcd13ifvqi60","pricing_plan_id":"free"},{"bike_id":"831e48e5-5e9c-40c9-80ec-77a41bcc8211","system_id":"levelo_inurba_marseille","lat":43.31652,"lon":5.40436,"is_reserved":false,"is_disabled":false,"rental_uris":{"android":"levelo://app?vid=831e48e5-5e9c-40c9-80ec-77a41bcc8211","ios":"levelo://app?vid=831e48e5-5e9c-40c9-80ec-77a41bcc8211"},"vehicle_type_id":"4","last_reported":1679310402,"current_range_meters":8800,"station_id":"ce4bh012rcd13ifvqd00","pricing_plan_id":"free"},{"bike_id":"8e2bff62-a0e2-4a77-8f54-1daa1e0a2113","system_id":"levelo_inurba_marseille","lat":43.31649,"lon":5.40437,"is_reserved":false,"is_disabled":false,"rental_uris":{"android":"levelo://app?vid=8e2bff62-a0e2-4a77-8f54-1daa1e0a2113","ios":"levelo://app?vid=8e2bff62-a0e2-4a77-8f54-1daa1e0a2113"},"vehicle_type_id":"4","last_reported":1679310402,"current_range_meters":10800,"station_id":"ce4bh012rcd13ifvqd00","pricing_plan_id":"free"},{"bike_id":"2b969a61-260f-4042-b5c8-d956d95d83d5","system_id":"levelo_inurba_marseille","lat":43.243884,"lon":5.370736,"is_reserved":false,"is_disabled":false,"rental_uris":{"android":"levelo://app?vid=2b969a61-260f-4042-b5c8-d956d95d83d5","ios":"levelo://app?vid=2b969a61-260f-4042-b5c8-d956d95d83d5"},"vehicle_type_id":"4","last_reported":1679310402,"current_range_meters":27200,"station_id":"ce4bhhh2rcd13ifvqfk0","pricing_plan_id":"free"},{"bike_id":"0b20ae92-3f58-4d86-ad84-3f9ea357d7d0","system_id":"levelo_inurba_marseille","lat":43.284534,"lon":5.358662,"is_reserved":false,"is_disabled":false,"rental_uris":{"android":"levelo://app?vid=0b20ae92-3f58-4d86-ad84-3f9ea357d7d0","ios":"levelo://app?vid=0b20ae92-3f58-4d86-ad84-3f9ea357d7d0"},"vehicle_type_id":"4","last_reported":1679310402,"current_range_meters":10800,"station_id":"ce4bhah2rcd13ifvqei0","pricing_plan_id":"free"},{"bike_id":"8ae6fdc5-f4a4-496a-9952-b6f4cc873b98","system_id":"levelo_inurba_marseille","lat":43.295713,"lon":5.399639,"is_reserved":false,"is_disabled":false,"rental_uris":{"android":"levelo://app?vid=8ae6fdc5-f4a4-496a-9952-b6f4cc873b98","ios":"levelo://app?vid=8ae6fdc5-f4a4-496a-9952-b6f4cc873b98"},"vehicle_type_id":"4","last_reported":1679310402,"current_range_meters":22000,"station_id":"ce4bh312rcd13ifvqdj0","pricing_plan_id":"free"},{"bike_id":"c27a97c0-578b-4f6f-8c0c-3a1d0cd6275d","system_id":"levelo_inurba_marseille","lat":43.32336,"lon":5.40617,"is_reserved":false,"is_disabled":false,"rental_uris":{"android":"levelo://app?vid=c27a97c0-578b-4f6f-8c0c-3a1d0cd6275d","ios":"levelo://app?vid=c27a97c0-578b-4f6f-8c0c-3a1d0cd6275d"},"vehicle_type_id":"4","last_reported":1679310402,"current_range_meters":24000,"station_id":"","pricing_plan_id":"free"},{"bike_id":"350020b3-68f2-4bdf-8435-1f6feb6f1e88","system_id":"levelo_inurba_marseille","lat":43.32338,"lon":5.40624,"is_reserved":false,"is_disabled":false,"rental_uris":{"android":"levelo://app?vid=350020b3-68f2-4bdf-8435-1f6feb6f1e88","ios":"levelo://app?vid=350020b3-68f2-4bdf-8435-1f6feb6f1e88"},"vehicle_type_id":"4","last_reported":1679310402,"current_range_meters":17200,"station_id":"","pricing_plan_id":"free"},{"bike_id":"7fd8c432-303d-4a86-b008-80234edc930b","system_id":"levelo_inurba_marseille","lat":43.284793,"lon":5.384113,"is_reserved":false,"is_disabled":false,"rental_uris":{"android":"levelo://app?vid=7fd8c432-303d-4a86-b008-80234edc930b","ios":"levelo://app?vid=7fd8c432-303d-4a86-b008-80234edc930b"},"vehicle_type_id":"4","last_reported":1679310402,"current_range_meters":1600,"station_id":"ce4bh512rcd13ifvqe3g","pricing_plan_id":"free"},{"bike_id":"13fcd194-c671-4b8b-ad01-dd929269d64f","system_id":"levelo_inurba_marseille","lat":43.28424,"lon":5.34994,"is_reserved":false,"is_disabled":false,"rental_uris":{"android":"levelo://app?vid=13fcd194-c671-4b8b-ad01-dd929269d64f","ios":"levelo://app?vid=13fcd194-c671-4b8b-ad01-dd929269d64f"},"vehicle_type_id":"4","last_reported":1679310402,"current_range_meters":31600,"station_id":"","pricing_plan_id":"free"},{"bike_id":"6f64b8e7-362c-4221-a4dd-c639abaf2981","system_id":"levelo_inurba_marseille","lat":43.28419,"lon":5.34992,"is_reserved":false,"is_disabled":false,"rental_uris":{"android":"levelo://app?vid=6f64b8e7-362c-4221-a4dd-c639abaf2981","ios":"levelo://app?vid=6f64b8e7-362c-4221-a4dd-c639abaf2981"},"vehicle_type_id":"4","last_reported":1679310402,"current_range_meters":5600,"station_id":"ce4bhbh2rcd13ifvqepg","pricing_plan_id":"free"},{"bike_id":"0323c625-7cbe-4145-a909-e7e5d8c7e099","system_id":"levelo_inurba_marseille","lat":43.284219,"lon":5.3497,"is_reserved":false,"is_disabled":false,"rental_uris":{"android":"levelo://app?vid=0323c625-7cbe-4145-a909-e7e5d8c7e099","ios":"levelo://app?vid=0323c625-7cbe-4145-a909-e7e5d8c7e099"},"vehicle_type_id":"4","last_reported":1679310402,"current_range_meters":10400,"station_id":"ce4bhbh2rcd13ifvqepg","pricing_plan_id":"free"},{"bike_id":"d345098d-4610-453e-9762-406043b36e76","system_id":"levelo_inurba_marseille","lat":43.292724,"lon":5.401131,"is_reserved":false,"is_disabled":false,"rental_uris":{"android":"levelo://app?vid=d345098d-4610-453e-9762-406043b36e76","ios":"levelo://app?vid=d345098d-4610-453e-9762-406043b36e76"},"vehicle_type_id":"4","last_reported":1679310402,"current_range_meters":30000,"station_id":"ce4bh312rcd13ifvqdk0","pricing_plan_id":"free"},{"bike_id":"e38b69dd-17f7-47af-abca-3433004a1dd3","system_id":"levelo_inurba_marseille","lat":43.294081,"lon":5.402809,"is_reserved":false,"is_disabled":false,"rental_uris":{"android":"levelo://app?vid=e38b69dd-17f7-47af-abca-3433004a1dd3","ios":"levelo://app?vid=e38b69dd-17f7-47af-abca-3433004a1dd3"},"vehicle_type_id":"4","last_reported":1679310402,"current_range_meters":0,"station_id":"","pricing_plan_id":"free"},{"bike_id":"b6a9c5b4-246a-45eb-bec6-6332914c9297","system_id":"levelo_inurba_marseille","lat":43.282744,"lon":5.350533,"is_reserved":false,"is_disabled":false,"rental_uris":{"android":"levelo://app?vid=b6a9c5b4-246a-45eb-bec6-6332914c9297","ios":"levelo://app?vid=b6a9c5b4-246a-45eb-bec6-6332914c9297"},"vehicle_type_id":"4","last_reported":1679310402,"current_range_meters":29600,"station_id":"ce4bhbp2rcd13ifvqerg","pricing_plan_id":"free"},{"bike_id":"7f6d549c-261a-4110-af95-02e6d742f69b","system_id":"levelo_inurba_marseille","lat":43.282754,"lon":5.350519,"is_reserved":false,"is_disabled":false,"rental_uris":{"android":"levelo://app?vid=7f6d549c-261a-4110-af95-02e6d742f69b","ios":"levelo://app?vid=7f6d549c-261a-4110-af95-02e6d742f69b"},"vehicle_type_id":"4","last_reported":1679310402,"current_range_meters":27600,"station_id":"ce4bhbp2rcd13ifvqerg","pricing_plan_id":"free"},{"bike_id":"91d3e450-0063-4c98-ad5f-8fca57e20aba","system_id":"levelo_inurba_marseille","lat":43.282744,"lon":5.350533,"is_reserved":false,"is_disabled":false,"rental_uris":{"android":"levelo://app?vid=91d3e450-0063-4c98-ad5f-8fca57e20aba","ios":"levelo://app?vid=91d3e450-0063-4c98-ad5f-8fca57e20aba"},"vehicle_type_id":"4","last_reported":1679310402,"current_range_meters":31600,"station_id":"ce4bhbp2rcd13ifvqerg","pricing_plan_id":"free"},{"bike_id":"8ee9948d-1fb5-4ab4-8ea6-81d0862e9879","system_id":"levelo_inurba_marseille","lat":43.28039,"lon":5.369297,"is_reserved":false,"is_disabled":false,"rental_uris":{"android":"levelo://app?vid=8ee9948d-1fb5-4ab4-8ea6-81d0862e9879","ios":"levelo://app?vid=8ee9948d-1fb5-4ab4-8ea6-81d0862e9879"},"vehicle_type_id":"4","last_reported":1679310402,"current_range_meters":16800,"station_id":"ce4bha12rcd13ifvqef0","pricing_plan_id":"free"},{"bike_id":"b91e60e4-f1d3-4e85-afe1-ee0a5c26fc28","system_id":"levelo_inurba_marseille","lat":43.28109,"lon":5.3784,"is_reserved":false,"is_disabled":false,"rental_uris":{"android":"levelo://app?vid=b91e60e4-f1d3-4e85-afe1-ee0a5c26fc28","ios":"levelo://app?vid=b91e60e4-f1d3-4e85-afe1-ee0a5c26fc28"},"vehicle_type_id":"4","last_reported":1679310402,"current_range_meters":20000,"station_id":"","pricing_plan_id":"free"},{"bike_id":"c0a87c4b-2a4d-4077-aa10-19323e48556e","system_id":"levelo_inurba_marseille","lat":43.281044,"lon":5.378308,"is_reserved":false,"is_disabled":false,"rental_uris":{"android":"levelo://app?vid=c0a87c4b-2a4d-4077-aa10-19323e48556e","ios":"levelo://app?vid=c0a87c4b-2a4d-4077-aa10-19323e48556e"},"vehicle_type_id":"4","last_reported":1679310402,"current_range_meters":26800,"station_id":"ce4bha12rcd13ifvqee0","pricing_plan_id":"free"},{"bike_id":"50d82108-5314-4583-a5d3-4526b85ffb9a","system_id":"levelo_inurba_marseille","lat":43.287154,"lon":5.399979,"is_reserved":false,"is_disabled":false,"rental_uris":{"android":"levelo://app?vid=50d82108-5314-4583-a5d3-4526b85ffb9a","ios":"levelo://app?vid=50d82108-5314-4583-a5d3-4526b85ffb9a"},"vehicle_type_id":"4","last_reported":1679310402,"current_range_meters":12800,"station_id":"ce4bho92rcd13ifvqh3g","pricing_plan_id":"free"},{"bike_id":"4868b396-2567-4b5e-a5ba-06dda07092f0","system_id":"levelo_inurba_marseille","lat":43.320045,"lon":5.415048,"is_reserved":false,"is_disabled":false,"rental_uris":{"android":"levelo://app?vid=4868b396-2567-4b5e-a5ba-06dda07092f0","ios":"levelo://app?vid=4868b396-2567-4b5e-a5ba-06dda07092f0"},"vehicle_type_id":"4","last_reported":1679310402,"current_range_meters":10000,"station_id":"ce4bhq92rcd13ifvqhkg","pricing_plan_id":"free"},{"bike_id":"e5b64737-d083-443a-9480-c0f21a4c2c17","system_id":"levelo_inurba_marseille","lat":43.279742,"lon":5.38744,"is_reserved":false,"is_disabled":false,"rental_uris":{"android":"levelo://app?vid=e5b64737-d083-443a-9480-c0f21a4c2c17","ios":"levelo://app?vid=e5b64737-d083-443a-9480-c0f21a4c2c17"},"vehicle_type_id":"4","last_reported":1679310402,"current_range_meters":2000,"station_id":"ce4bhg12rcd13ifvqf80","pricing_plan_id":"free"},{"bike_id":"0ab6c0ac-0af6-494c-9983-cf879c8ec953","system_id":"levelo_inurba_marseille","lat":43.320045,"lon":5.415048,"is_reserved":false,"is_disabled":false,"rental_uris":{"android":"levelo://app?vid=0ab6c0ac-0af6-494c-9983-cf879c8ec953","ios":"levelo://app?vid=0ab6c0ac-0af6-494c-9983-cf879c8ec953"},"vehicle_type_id":"4","last_reported":1679310402,"current_range_meters":25200,"station_id":"ce4bhq92rcd13ifvqhkg","pricing_plan_id":"free"},{"bike_id":"632288f1-529f-4c65-8ed7-8d8a3aa288ff","system_id":"levelo_inurba_marseille","lat":43.320565,"lon":5.41572,"is_reserved":false,"is_disabled":false,"rental_uris":{"android":"levelo://app?vid=632288f1-529f-4c65-8ed7-8d8a3aa288ff","ios":"levelo://app?vid=632288f1-529f-4c65-8ed7-8d8a3aa288ff"},"vehicle_type_id":"4","last_reported":1679310402,"current_range_meters":7200,"station_id":"","pricing_plan_id":"free"},{"bike_id":"679fd8f8-2235-438a-a9e9-ce3e34fe297a","system_id":"levelo_inurba_marseille","lat":43.324785,"lon":5.414321,"is_reserved":false,"is_disabled":false,"rental_uris":{"android":"levelo://app?vid=679fd8f8-2235-438a-a9e9-ce3e34fe297a","ios":"levelo://app?vid=679fd8f8-2235-438a-a9e9-ce3e34fe297a"},"vehicle_type_id":"4","last_reported":1679310402,"current_range_meters":800,"station_id":"","pricing_plan_id":"free"},{"bike_id":"50318329-6f5a-43d4-9a37-0107f111fb0f","system_id":"levelo_inurba_marseille","lat":43.292569,"lon":5.409107,"is_reserved":false,"is_disabled":false,"rental_uris":{"android":"levelo://app?vid=50318329-6f5a-43d4-9a37-0107f111fb0f","ios":"levelo://app?vid=50318329-6f5a-43d4-9a37-0107f111fb0f"},"vehicle_type_id":"4","last_reported":1679310402,"current_range_meters":25200,"station_id":"ce4bh192rcd13ifvqdc0","pricing_plan_id":"free"},{"bike_id":"464c51c6-05a5-41fd-84e3-b5b527c0c43c","system_id":"levelo_inurba_marseille","lat":43.32544,"lon":5.41434,"is_reserved":false,"is_disabled":false,"rental_uris":{"android":"levelo://app?vid=464c51c6-05a5-41fd-84e3-b5b527c0c43c","ios":"levelo://app?vid=464c51c6-05a5-41fd-84e3-b5b527c0c43c"},"vehicle_type_id":"4","last_reported":1679310402,"current_range_meters":9600,"station_id":"ce4bhq12rcd13ifvqhhg","pricing_plan_id":"free"},{"bike_id":"e741786f-24b6-43df-821a-4c38c925fdca","system_id":"levelo_inurba_marseille","lat":43.27618,"lon":5.361009,"is_reserved":false,"is_disabled":false,"rental_uris":{"android":"levelo://app?vid=e741786f-24b6-43df-821a-4c38c925fdca","ios":"levelo://app?vid=e741786f-24b6-43df-821a-4c38c925fdca"},"vehicle_type_id":"4","last_reported":1679310402,"current_range_meters":20000,"station_id":"ce4bgj92rcd13ifvqbe0","pricing_plan_id":"free"},{"bike_id":"be5ebee7-1ef6-4132-86d4-10698dcd5ae9","system_id":"levelo_inurba_marseille","lat":43.276179,"lon":5.361009,"is_reserved":false,"is_disabled":false,"rental_uris":{"android":"levelo://app?vid=be5ebee7-1ef6-4132-86d4-10698dcd5ae9","ios":"levelo://app?vid=be5ebee7-1ef6-4132-86d4-10698dcd5ae9"},"vehicle_type_id":"4","last_reported":1679310402,"current_range_meters":27200,"station_id":"ce4bgj92rcd13ifvqbe0","pricing_plan_id":"free"},{"bike_id":"fa528e8a-6be0-4ee8-b0c5-de1ba7752521","system_id":"levelo_inurba_marseille","lat":43.273813,"lon":5.362493,"is_reserved":false,"is_disabled":false,"rental_uris":{"android":"levelo://app?vid=fa528e8a-6be0-4ee8-b0c5-de1ba7752521","ios":"levelo://app?vid=fa528e8a-6be0-4ee8-b0c5-de1ba7752521"},"vehicle_type_id":"4","last_reported":1679310402,"current_range_meters":21200,"station_id":"","pricing_plan_id":"free"},{"bike_id":"5f43c133-482d-404c-908d-c4afaa6c4fe8","system_id":"levelo_inurba_marseille","lat":43.27375,"lon":5.36243,"is_reserved":false,"is_disabled":false,"rental_uris":{"android":"levelo://app?vid=5f43c133-482d-404c-908d-c4afaa6c4fe8","ios":"levelo://app?vid=5f43c133-482d-404c-908d-c4afaa6c4fe8"},"vehicle_type_id":"4","last_reported":1679310402,"current_range_meters":0,"station_id":"","pricing_plan_id":"free"},{"bike_id":"529ea17c-395a-41e2-b627-6b1b99b0a2fd","system_id":"levelo_inurba_marseille","lat":43.274103,"lon":5.394016,"is_reserved":false,"is_disabled":false,"rental_uris":{"android":"levelo://app?vid=529ea17c-395a-41e2-b627-6b1b99b0a2fd","ios":"levelo://app?vid=529ea17c-395a-41e2-b627-6b1b99b0a2fd"},"vehicle_type_id":"4","last_reported":1679310402,"current_range_meters":2800,"station_id":"ce4bhdp2rcd13ifvqf20","pricing_plan_id":"free"},{"bike_id":"195a259b-7de4-4bbf-8c2b-7eef5071df32","system_id":"levelo_inurba_marseille","lat":43.304096,"lon":5.425385,"is_reserved":false,"is_disabled":false,"rental_uris":{"android":"levelo://app?vid=195a259b-7de4-4bbf-8c2b-7eef5071df32","ios":"levelo://app?vid=195a259b-7de4-4bbf-8c2b-7eef5071df32"},"vehicle_type_id":"4","last_reported":1679310402,"current_range_meters":31600,"station_id":"ce4bhoh2rcd13ifvqh6g","pricing_plan_id":"free"},{"bike_id":"499b021a-abac-450d-8693-67d7854471b0","system_id":"levelo_inurba_marseille","lat":43.25102,"lon":5.403214,"is_reserved":false,"is_disabled":false,"rental_uris":{"android":"levelo://app?vid=499b021a-abac-450d-8693-67d7854471b0","ios":"levelo://app?vid=499b021a-abac-450d-8693-67d7854471b0"},"vehicle_type_id":"4","last_reported":1679310402,"current_range_meters":29200,"station_id":"ce4bhlh2rcd13ifvqgig","pricing_plan_id":"free"},{"bike_id":"16efaf82-e492-4e03-9515-7e4f37d0881a","system_id":"levelo_inurba_marseille","lat":43.295523,"lon":5.422926,"is_reserved":false,"is_disabled":false,"rental_uris":{"android":"levelo://app?vid=16efaf82-e492-4e03-9515-7e4f37d0881a","ios":"levelo://app?vid=16efaf82-e492-4e03-9515-7e4f37d0881a"},"vehicle_type_id":"4","last_reported":1679310402,"current_range_meters":22800,"station_id":"ce4bhph2rcd13ifvqhdg","pricing_plan_id":"free"},{"bike_id":"95568952-c9cf-4078-8b22-e7c64b0068de","system_id":"levelo_inurba_marseille","lat":43.29556,"lon":5.4228,"is_reserved":false,"is_disabled":false,"rental_uris":{"android":"levelo://app?vid=95568952-c9cf-4078-8b22-e7c64b0068de","ios":"levelo://app?vid=95568952-c9cf-4078-8b22-e7c64b0068de"},"vehicle_type_id":"4","last_reported":1679310402,"current_range_meters":31600,"station_id":"","pricing_plan_id":"free"},{"bike_id":"dabe33ee-41f5-44b5-908f-88ba7f62a292","system_id":"levelo_inurba_marseille","lat":43.295523,"lon":5.422926,"is_reserved":false,"is_disabled":false,"rental_uris":{"android":"levelo://app?vid=dabe33ee-41f5-44b5-908f-88ba7f62a292","ios":"levelo://app?vid=dabe33ee-41f5-44b5-908f-88ba7f62a292"},"vehicle_type_id":"4","last_reported":1679310402,"current_range_meters":31600,"station_id":"ce4bhph2rcd13ifvqhdg","pricing_plan_id":"free"},{"bike_id":"99377502-dff0-4b75-9e1d-1845d19c5a05","system_id":"levelo_inurba_marseille","lat":43.295523,"lon":5.422926,"is_reserved":false,"is_disabled":false,"rental_uris":{"android":"levelo://app?vid=99377502-dff0-4b75-9e1d-1845d19c5a05","ios":"levelo://app?vid=99377502-dff0-4b75-9e1d-1845d19c5a05"},"vehicle_type_id":"4","last_reported":1679310402,"current_range_meters":31600,"station_id":"ce4bhph2rcd13ifvqhdg","pricing_plan_id":"free"},{"bike_id":"2302e543-5559-49a1-97a6-ebeab36d0d39","system_id":"levelo_inurba_marseille","lat":43.29558,"lon":5.42292,"is_reserved":false,"is_disabled":false,"rental_uris":{"android":"levelo://app?vid=2302e543-5559-49a1-97a6-ebeab36d0d39","ios":"levelo://app?vid=2302e543-5559-49a1-97a6-ebeab36d0d39"},"vehicle_type_id":"4","last_reported":1679310402,"current_range_meters":15600,"station_id":"ce4bhph2rcd13ifvqhdg","pricing_plan_id":"free"},{"bike_id":"dff8512f-cd54-47ab-ac62-1b2f70846029","system_id":"levelo_inurba_marseille","lat":43.295523,"lon":5.422926,"is_reserved":false,"is_disabled":false,"rental_uris":{"android":"levelo://app?vid=dff8512f-cd54-47ab-ac62-1b2f70846029","ios":"levelo://app?vid=dff8512f-cd54-47ab-ac62-1b2f70846029"},"vehicle_type_id":"4","last_reported":1679310402,"current_range_meters":8400,"station_id":"ce4bhph2rcd13ifvqhdg","pricing_plan_id":"free"},{"bike_id":"1a52fc2f-5c74-40c1-ad59-abed68745597","system_id":"levelo_inurba_marseille","lat":43.295523,"lon":5.422926,"is_reserved":false,"is_disabled":false,"rental_uris":{"android":"levelo://app?vid=1a52fc2f-5c74-40c1-ad59-abed68745597","ios":"levelo://app?vid=1a52fc2f-5c74-40c1-ad59-abed68745597"},"vehicle_type_id":"4","last_reported":1679310402,"current_range_meters":28400,"station_id":"ce4bhph2rcd13ifvqhdg","pricing_plan_id":"free"},{"bike_id":"e479089f-3c5d-4f13-aa92-9304b2b18ece","system_id":"levelo_inurba_marseille","lat":43.278128,"lon":5.407195,"is_reserved":false,"is_disabled":false,"rental_uris":{"android":"levelo://app?vid=e479089f-3c5d-4f13-aa92-9304b2b18ece","ios":"levelo://app?vid=e479089f-3c5d-4f13-aa92-9304b2b18ece"},"vehicle_type_id":"4","last_reported":1679310402,"current_range_meters":21600,"station_id":"ce4bhnh2rcd13ifvqgtg","pricing_plan_id":"free"},{"bike_id":"bf90e94a-b68e-4e23-b6a9-7c022fac01d2","system_id":"levelo_inurba_marseille","lat":43.278128,"lon":5.407195,"is_reserved":false,"is_disabled":false,"rental_uris":{"android":"levelo://app?vid=bf90e94a-b68e-4e23-b6a9-7c022fac01d2","ios":"levelo://app?vid=bf90e94a-b68e-4e23-b6a9-7c022fac01d2"},"vehicle_type_id":"4","last_reported":1679310402,"current_range_meters":28000,"station_id":"ce4bhnh2rcd13ifvqgtg","pricing_plan_id":"free"},{"bike_id":"c1503414-9985-4646-8da3-ea0773adc8ac","system_id":"levelo_inurba_marseille","lat":43.278128,"lon":5.407195,"is_reserved":false,"is_disabled":false,"rental_uris":{"android":"levelo://app?vid=c1503414-9985-4646-8da3-ea0773adc8ac","ios":"levelo://app?vid=c1503414-9985-4646-8da3-ea0773adc8ac"},"vehicle_type_id":"4","last_reported":1679310402,"current_range_meters":4800,"station_id":"ce4bhnh2rcd13ifvqgtg","pricing_plan_id":"free"},{"bike_id":"2968cb7d-c419-4ad1-a113-87823a7ea2c2","system_id":"levelo_inurba_marseille","lat":43.337891,"lon":5.421036,"is_reserved":false,"is_disabled":false,"rental_uris":{"android":"levelo://app?vid=2968cb7d-c419-4ad1-a113-87823a7ea2c2","ios":"levelo://app?vid=2968cb7d-c419-4ad1-a113-87823a7ea2c2"},"vehicle_type_id":"4","last_reported":1679310402,"current_range_meters":1600,"station_id":"","pricing_plan_id":"free"},{"bike_id":"12930c38-4130-469e-ba88-d34196cf0955","system_id":"levelo_inurba_marseille","lat":43.26681,"lon":5.382694,"is_reserved":false,"is_disabled":false,"rental_uris":{"android":"levelo://app?vid=12930c38-4130-469e-ba88-d34196cf0955","ios":"levelo://app?vid=12930c38-4130-469e-ba88-d34196cf0955"},"vehicle_type_id":"4","last_reported":1679310402,"current_range_meters":27600,"station_id":"ce4bhg92rcd13ifvqf90","pricing_plan_id":"free"},{"bike_id":"65a9012c-79f3-49ed-953b-54da039d709a","system_id":"levelo_inurba_marseille","lat":43.265714,"lon":5.372891,"is_reserved":false,"is_disabled":false,"rental_uris":{"android":"levelo://app?vid=65a9012c-79f3-49ed-953b-54da039d709a","ios":"levelo://app?vid=65a9012c-79f3-49ed-953b-54da039d709a"},"vehicle_type_id":"4","last_reported":1679310402,"current_range_meters":29200,"station_id":"ce4bhg12rcd13ifvqf70","pricing_plan_id":"free"},{"bike_id":"76b6f863-f9d4-446a-96ef-f8034c28e956","system_id":"levelo_inurba_marseille","lat":43.265714,"lon":5.372891,"is_reserved":false,"is_disabled":false,"rental_uris":{"android":"levelo://app?vid=76b6f863-f9d4-446a-96ef-f8034c28e956","ios":"levelo://app?vid=76b6f863-f9d4-446a-96ef-f8034c28e956"},"vehicle_type_id":"4","last_reported":1679310402,"current_range_meters":27600,"station_id":"ce4bhg12rcd13ifvqf70","pricing_plan_id":"free"},{"bike_id":"f177df83-bbf4-4db7-8a20-40551a932337","system_id":"levelo_inurba_marseille","lat":43.265714,"lon":5.372891,"is_reserved":false,"is_disabled":false,"rental_uris":{"android":"levelo://app?vid=f177df83-bbf4-4db7-8a20-40551a932337","ios":"levelo://app?vid=f177df83-bbf4-4db7-8a20-40551a932337"},"vehicle_type_id":"4","last_reported":1679310402,"current_range_meters":20400,"station_id":"ce4bhg12rcd13ifvqf70","pricing_plan_id":"free"},{"bike_id":"8fd1077a-223d-408b-9819-259f96690cda","system_id":"levelo_inurba_marseille","lat":43.27994,"lon":5.41657,"is_reserved":false,"is_disabled":false,"rental_uris":{"android":"levelo://app?vid=8fd1077a-223d-408b-9819-259f96690cda","ios":"levelo://app?vid=8fd1077a-223d-408b-9819-259f96690cda"},"vehicle_type_id":"4","last_reported":1679310402,"current_range_meters":14400,"station_id":"","pricing_plan_id":"free"},{"bike_id":"c75a1e6b-a9f8-4f4d-8d70-1dd9616c0b2c","system_id":"levelo_inurba_marseille","lat":43.307979,"lon":5.435248,"is_reserved":false,"is_disabled":false,"rental_uris":{"android":"levelo://app?vid=c75a1e6b-a9f8-4f4d-8d70-1dd9616c0b2c","ios":"levelo://app?vid=c75a1e6b-a9f8-4f4d-8d70-1dd9616c0b2c"},"vehicle_type_id":"4","last_reported":1679310402,"current_range_meters":0,"station_id":"ce4bhph2rcd13ifvqheg","pricing_plan_id":"free"},{"bike_id":"8b15f785-5df3-4c07-b1b8-93ebb0894008","system_id":"levelo_inurba_marseille","lat":43.267959,"lon":5.402685,"is_reserved":false,"is_disabled":false,"rental_uris":{"android":"levelo://app?vid=8b15f785-5df3-4c07-b1b8-93ebb0894008","ios":"levelo://app?vid=8b15f785-5df3-4c07-b1b8-93ebb0894008"},"vehicle_type_id":"4","last_reported":1679310402,"current_range_meters":24400,"station_id":"ce501612rcd8frsf0b60","pricing_plan_id":"free"},{"bike_id":"9dd3ee47-e3b5-4c05-b6b4-670c7e9c00ea","system_id":"levelo_inurba_marseille","lat":43.260225,"lon":5.375455,"is_reserved":false,"is_disabled":false,"rental_uris":{"android":"levelo://app?vid=9dd3ee47-e3b5-4c05-b6b4-670c7e9c00ea","ios":"levelo://app?vid=9dd3ee47-e3b5-4c05-b6b4-670c7e9c00ea"},"vehicle_type_id":"4","last_reported":1679310402,"current_range_meters":26400,"station_id":"ce4bhgh2rcd13ifvqfa0","pricing_plan_id":"free"},{"bike_id":"d1c31f63-51cd-4e4f-844a-59f44d56d2a6","system_id":"levelo_inurba_marseille","lat":43.260219,"lon":5.37546,"is_reserved":false,"is_disabled":false,"rental_uris":{"android":"levelo://app?vid=d1c31f63-51cd-4e4f-844a-59f44d56d2a6","ios":"levelo://app?vid=d1c31f63-51cd-4e4f-844a-59f44d56d2a6"},"vehicle_type_id":"4","last_reported":1679310402,"current_range_meters":29600,"station_id":"ce4bhgh2rcd13ifvqfa0","pricing_plan_id":"free"},{"bike_id":"da14d2b3-1039-4ca4-ae23-631bd52b38a0","system_id":"levelo_inurba_marseille","lat":43.26063,"lon":5.39393,"is_reserved":false,"is_disabled":false,"rental_uris":{"android":"levelo://app?vid=da14d2b3-1039-4ca4-ae23-631bd52b38a0","ios":"levelo://app?vid=da14d2b3-1039-4ca4-ae23-631bd52b38a0"},"vehicle_type_id":"4","last_reported":1679310402,"current_range_meters":0,"station_id":"ce4bhh92rcd13ifvqfj0","pricing_plan_id":"free"},{"bike_id":"9e3043a0-62cc-43b7-a488-f3ad2f9f071b","system_id":"levelo_inurba_marseille","lat":43.292524,"lon":5.441356,"is_reserved":false,"is_disabled":false,"rental_uris":{"android":"levelo://app?vid=9e3043a0-62cc-43b7-a488-f3ad2f9f071b","ios":"levelo://app?vid=9e3043a0-62cc-43b7-a488-f3ad2f9f071b"},"vehicle_type_id":"4","last_reported":1679310402,"current_range_meters":15200,"station_id":"","pricing_plan_id":"free"},{"bike_id":"cefc7b8d-c371-4828-9c92-711344c3910a","system_id":"levelo_inurba_marseille","lat":43.255756,"lon":5.382303,"is_reserved":false,"is_disabled":false,"rental_uris":{"android":"levelo://app?vid=cefc7b8d-c371-4828-9c92-711344c3910a","ios":"levelo://app?vid=cefc7b8d-c371-4828-9c92-711344c3910a"},"vehicle_type_id":"4","last_reported":1679310402,"current_range_meters":27600,"station_id":"ce4bhih2rcd13ifvqfs0","pricing_plan_id":"free"},{"bike_id":"d9e7568f-a270-40ba-a3db-d3434a49cae7","system_id":"levelo_inurba_marseille","lat":43.255756,"lon":5.382303,"is_reserved":false,"is_disabled":false,"rental_uris":{"android":"levelo://app?vid=d9e7568f-a270-40ba-a3db-d3434a49cae7","ios":"levelo://app?vid=d9e7568f-a270-40ba-a3db-d3434a49cae7"},"vehicle_type_id":"4","last_reported":1679310402,"current_range_meters":24800,"station_id":"ce4bhih2rcd13ifvqfs0","pricing_plan_id":"free"},{"bike_id":"5684c5e8-daac-48eb-be98-7e56fb891ac1","system_id":"levelo_inurba_marseille","lat":43.255756,"lon":5.382303,"is_reserved":false,"is_disabled":false,"rental_uris":{"android":"levelo://app?vid=5684c5e8-daac-48eb-be98-7e56fb891ac1","ios":"levelo://app?vid=5684c5e8-daac-48eb-be98-7e56fb891ac1"},"vehicle_type_id":"4","last_reported":1679310402,"current_range_meters":18800,"station_id":"ce4bhih2rcd13ifvqfs0","pricing_plan_id":"free"},{"bike_id":"227f034a-c6a2-491c-8530-8639514a0fa6","system_id":"levelo_inurba_marseille","lat":43.270721,"lon":5.422764,"is_reserved":false,"is_disabled":false,"rental_uris":{"android":"levelo://app?vid=227f034a-c6a2-491c-8530-8639514a0fa6","ios":"levelo://app?vid=227f034a-c6a2-491c-8530-8639514a0fa6"},"vehicle_type_id":"4","last_reported":1679310402,"current_range_meters":26400,"station_id":"ce4bhk92rcd13ifvqgb0","pricing_plan_id":"free"},{"bike_id":"278fe437-948b-4f1c-b93f-86c6d46d7043","system_id":"levelo_inurba_marseille","lat":43.250966,"lon":5.395186,"is_reserved":false,"is_disabled":false,"rental_uris":{"android":"levelo://app?vid=278fe437-948b-4f1c-b93f-86c6d46d7043","ios":"levelo://app?vid=278fe437-948b-4f1c-b93f-86c6d46d7043"},"vehicle_type_id":"4","last_reported":1679310402,"current_range_meters":30000,"station_id":"ce4bhm12rcd13ifvqgkg","pricing_plan_id":"free"},{"bike_id":"96810765-f4c1-4003-adfa-1b5038812474","system_id":"levelo_inurba_marseille","lat":43.250966,"lon":5.395186,"is_reserved":false,"is_disabled":false,"rental_uris":{"android":"levelo://app?vid=96810765-f4c1-4003-adfa-1b5038812474","ios":"levelo://app?vid=96810765-f4c1-4003-adfa-1b5038812474"},"vehicle_type_id":"4","last_reported":1679310402,"current_range_meters":29600,"station_id":"ce4bhm12rcd13ifvqgkg","pricing_plan_id":"free"},{"bike_id":"69149cbc-650a-47ea-8706-11bdc5b69dde","system_id":"levelo_inurba_marseille","lat":43.24778,"lon":5.37545,"is_reserved":false,"is_disabled":false,"rental_uris":{"android":"levelo://app?vid=69149cbc-650a-47ea-8706-11bdc5b69dde","ios":"levelo://app?vid=69149cbc-650a-47ea-8706-11bdc5b69dde"},"vehicle_type_id":"4","last_reported":1679310402,"current_range_meters":0,"station_id":"","pricing_plan_id":"free"},{"bike_id":"8695a540-6030-4fa6-9069-6d86aec88f4e","system_id":"levelo_inurba_marseille","lat":43.24693,"lon":5.382096,"is_reserved":false,"is_disabled":false,"rental_uris":{"android":"levelo://app?vid=8695a540-6030-4fa6-9069-6d86aec88f4e","ios":"levelo://app?vid=8695a540-6030-4fa6-9069-6d86aec88f4e"},"vehicle_type_id":"4","last_reported":1679310402,"current_range_meters":28800,"station_id":"ce4bhih2rcd13ifvqfr0","pricing_plan_id":"free"},{"bike_id":"13681e7a-2aab-4d59-8479-97b2f5c7c2de","system_id":"levelo_inurba_marseille","lat":43.25102,"lon":5.403214,"is_reserved":false,"is_disabled":false,"rental_uris":{"android":"levelo://app?vid=13681e7a-2aab-4d59-8479-97b2f5c7c2de","ios":"levelo://app?vid=13681e7a-2aab-4d59-8479-97b2f5c7c2de"},"vehicle_type_id":"4","last_reported":1679310402,"current_range_meters":29600,"station_id":"ce4bhlh2rcd13ifvqgig","pricing_plan_id":"free"},{"bike_id":"11b93fe0-9431-4039-97a3-7ee2c92e5492","system_id":"levelo_inurba_marseille","lat":43.25102,"lon":5.403214,"is_reserved":false,"is_disabled":false,"rental_uris":{"android":"levelo://app?vid=11b93fe0-9431-4039-97a3-7ee2c92e5492","ios":"levelo://app?vid=11b93fe0-9431-4039-97a3-7ee2c92e5492"},"vehicle_type_id":"4","last_reported":1679310402,"current_range_meters":25200,"station_id":"ce4bhlh2rcd13ifvqgig","pricing_plan_id":"free"},{"bike_id":"7352bda4-89bc-4f5a-b9b0-6014ce132c85","system_id":"levelo_inurba_marseille","lat":43.25102,"lon":5.403214,"is_reserved":false,"is_disabled":false,"rental_uris":{"android":"levelo://app?vid=7352bda4-89bc-4f5a-b9b0-6014ce132c85","ios":"levelo://app?vid=7352bda4-89bc-4f5a-b9b0-6014ce132c85"},"vehicle_type_id":"4","last_reported":1679310402,"current_range_meters":29600,"station_id":"ce4bhlh2rcd13ifvqgig","pricing_plan_id":"free"},{"bike_id":"e2b5fbec-470d-4eae-b33d-52fe25cac1a1","system_id":"levelo_inurba_marseille","lat":43.25102,"lon":5.403214,"is_reserved":false,"is_disabled":false,"rental_uris":{"android":"levelo://app?vid=e2b5fbec-470d-4eae-b33d-52fe25cac1a1","ios":"levelo://app?vid=e2b5fbec-470d-4eae-b33d-52fe25cac1a1"},"vehicle_type_id":"4","last_reported":1679310402,"current_range_meters":18800,"station_id":"ce4bhlh2rcd13ifvqgig","pricing_plan_id":"free"},{"bike_id":"a696b73e-a533-4d61-b49f-22c23925da2a","system_id":"levelo_inurba_marseille","lat":43.25102,"lon":5.403214,"is_reserved":false,"is_disabled":false,"rental_uris":{"android":"levelo://app?vid=a696b73e-a533-4d61-b49f-22c23925da2a","ios":"levelo://app?vid=a696b73e-a533-4d61-b49f-22c23925da2a"},"vehicle_type_id":"4","last_reported":1679310402,"current_range_meters":30400,"station_id":"ce4bhlh2rcd13ifvqgig","pricing_plan_id":"free"},{"bike_id":"ac8f027b-3c87-4193-a225-690a63d5c0a6","system_id":"levelo_inurba_marseille","lat":43.245581,"lon":5.395069,"is_reserved":false,"is_disabled":false,"rental_uris":{"android":"levelo://app?vid=ac8f027b-3c87-4193-a225-690a63d5c0a6","ios":"levelo://app?vid=ac8f027b-3c87-4193-a225-690a63d5c0a6"},"vehicle_type_id":"4","last_reported":1679310402,"current_range_meters":22400,"station_id":"ce4bhlp2rcd13ifvqgjg","pricing_plan_id":"free"},{"bike_id":"5ff25efb-8c58-4f61-ab12-7816df2b6251","system_id":"levelo_inurba_marseille","lat":43.245581,"lon":5.395069,"is_reserved":false,"is_disabled":false,"rental_uris":{"android":"levelo://app?vid=5ff25efb-8c58-4f61-ab12-7816df2b6251","ios":"levelo://app?vid=5ff25efb-8c58-4f61-ab12-7816df2b6251"},"vehicle_type_id":"4","last_reported":1679310402,"current_range_meters":16400,"station_id":"ce4bhlp2rcd13ifvqgjg","pricing_plan_id":"free"},{"bike_id":"38cdbcc8-de7e-48ce-9a0c-2eeee27b4081","system_id":"levelo_inurba_marseille","lat":43.245581,"lon":5.395069,"is_reserved":false,"is_disabled":false,"rental_uris":{"android":"levelo://app?vid=38cdbcc8-de7e-48ce-9a0c-2eeee27b4081","ios":"levelo://app?vid=38cdbcc8-de7e-48ce-9a0c-2eeee27b4081"},"vehicle_type_id":"4","last_reported":1679310402,"current_range_meters":27200,"station_id":"ce4bhlp2rcd13ifvqgjg","pricing_plan_id":"free"},{"bike_id":"73d666dc-c727-4717-84d2-95bd8609664c","system_id":"levelo_inurba_marseille","lat":43.239588,"lon":5.366238,"is_reserved":false,"is_disabled":false,"rental_uris":{"android":"levelo://app?vid=73d666dc-c727-4717-84d2-95bd8609664c","ios":"levelo://app?vid=73d666dc-c727-4717-84d2-95bd8609664c"},"vehicle_type_id":"4","last_reported":1679310402,"current_range_meters":29200,"station_id":"ce4bhi12rcd13ifvqfp0","pricing_plan_id":"free"},{"bike_id":"06fa6828-cf8a-4284-8b83-e4ed130e3a12","system_id":"levelo_inurba_marseille","lat":43.239588,"lon":5.366238,"is_reserved":false,"is_disabled":false,"rental_uris":{"android":"levelo://app?vid=06fa6828-cf8a-4284-8b83-e4ed130e3a12","ios":"levelo://app?vid=06fa6828-cf8a-4284-8b83-e4ed130e3a12"},"vehicle_type_id":"4","last_reported":1679310402,"current_range_meters":9600,"station_id":"ce4bhi12rcd13ifvqfp0","pricing_plan_id":"free"},{"bike_id":"598ebe56-e992-4e0e-ac00-a4d63b7bc636","system_id":"levelo_inurba_marseille","lat":43.239588,"lon":5.366238,"is_reserved":false,"is_disabled":false,"rental_uris":{"android":"levelo://app?vid=598ebe56-e992-4e0e-ac00-a4d63b7bc636","ios":"levelo://app?vid=598ebe56-e992-4e0e-ac00-a4d63b7bc636"},"vehicle_type_id":"4","last_reported":1679310402,"current_range_meters":30800,"station_id":"ce4bhi12rcd13ifvqfp0","pricing_plan_id":"free"},{"bike_id":"333b4673-5f2e-4bd6-a3cc-75239d1562d9","system_id":"levelo_inurba_marseille","lat":43.239588,"lon":5.366238,"is_reserved":false,"is_disabled":false,"rental_uris":{"android":"levelo://app?vid=333b4673-5f2e-4bd6-a3cc-75239d1562d9","ios":"levelo://app?vid=333b4673-5f2e-4bd6-a3cc-75239d1562d9"},"vehicle_type_id":"4","last_reported":1679310402,"current_range_meters":31600,"station_id":"ce4bhi12rcd13ifvqfp0","pricing_plan_id":"free"},{"bike_id":"898d13de-8b0e-4fa4-a666-2b5ffe0bd04c","system_id":"levelo_inurba_marseille","lat":43.24183,"lon":5.39726,"is_reserved":false,"is_disabled":false,"rental_uris":{"android":"levelo://app?vid=898d13de-8b0e-4fa4-a666-2b5ffe0bd04c","ios":"levelo://app?vid=898d13de-8b0e-4fa4-a666-2b5ffe0bd04c"},"vehicle_type_id":"4","last_reported":1679310402,"current_range_meters":20400,"station_id":"","pricing_plan_id":"free"},{"bike_id":"92819819-a2fe-41af-b612-18a08812ded7","system_id":"levelo_inurba_marseille","lat":43.241782,"lon":5.397264,"is_reserved":false,"is_disabled":false,"rental_uris":{"android":"levelo://app?vid=92819819-a2fe-41af-b612-18a08812ded7","ios":"levelo://app?vid=92819819-a2fe-41af-b612-18a08812ded7"},"vehicle_type_id":"4","last_reported":1679310402,"current_range_meters":21600,"station_id":"ce4bhn12rcd13ifvqgpg","pricing_plan_id":"free"},{"bike_id":"a679af6e-2fb7-44b3-9691-350055be96f8","system_id":"levelo_inurba_marseille","lat":43.241782,"lon":5.397264,"is_reserved":false,"is_disabled":false,"rental_uris":{"android":"levelo://app?vid=a679af6e-2fb7-44b3-9691-350055be96f8","ios":"levelo://app?vid=a679af6e-2fb7-44b3-9691-350055be96f8"},"vehicle_type_id":"4","last_reported":1679310402,"current_range_meters":31600,"station_id":"ce4bhn12rcd13ifvqgpg","pricing_plan_id":"free"},{"bike_id":"334e498b-b826-46b9-9de7-4687ff6c9d3a","system_id":"levelo_inurba_marseille","lat":43.23826,"lon":5.3757,"is_reserved":false,"is_disabled":false,"rental_uris":{"android":"levelo://app?vid=334e498b-b826-46b9-9de7-4687ff6c9d3a","ios":"levelo://app?vid=334e498b-b826-46b9-9de7-4687ff6c9d3a"},"vehicle_type_id":"4","last_reported":1679310402,"current_range_meters":0,"station_id":"","pricing_plan_id":"free"},{"bike_id":"36e4d05f-9c7d-4464-8d5c-f6f35fd0aeb0","system_id":"levelo_inurba_marseille","lat":43.231923,"lon":5.355545,"is_reserved":false,"is_disabled":false,"rental_uris":{"android":"levelo://app?vid=36e4d05f-9c7d-4464-8d5c-f6f35fd0aeb0","ios":"levelo://app?vid=36e4d05f-9c7d-4464-8d5c-f6f35fd0aeb0"},"vehicle_type_id":"4","last_reported":1679310402,"current_range_meters":28000,"station_id":"ce4bhu92rcd13ifvqi70","pricing_plan_id":"free"},{"bike_id":"93df46c2-755c-4e44-82e8-313b251854e5","system_id":"levelo_inurba_marseille","lat":43.231919,"lon":5.355532,"is_reserved":false,"is_disabled":false,"rental_uris":{"android":"levelo://app?vid=93df46c2-755c-4e44-82e8-313b251854e5","ios":"levelo://app?vid=93df46c2-755c-4e44-82e8-313b251854e5"},"vehicle_type_id":"4","last_reported":1679310402,"current_range_meters":26800,"station_id":"ce4bhu92rcd13ifvqi70","pricing_plan_id":"free"},{"bike_id":"5dda21a0-4fd2-4ce0-bc65-60056dc23de8","system_id":"levelo_inurba_marseille","lat":43.231923,"lon":5.355545,"is_reserved":false,"is_disabled":false,"rental_uris":{"android":"levelo://app?vid=5dda21a0-4fd2-4ce0-bc65-60056dc23de8","ios":"levelo://app?vid=5dda21a0-4fd2-4ce0-bc65-60056dc23de8"},"vehicle_type_id":"4","last_reported":1679310402,"current_range_meters":27200,"station_id":"ce4bhu92rcd13ifvqi70","pricing_plan_id":"free"},{"bike_id":"2330a857-0775-4481-8767-6dfc1bdded79","system_id":"levelo_inurba_marseille","lat":43.28626,"lon":5.47505,"is_reserved":false,"is_disabled":false,"rental_uris":{"android":"levelo://app?vid=2330a857-0775-4481-8767-6dfc1bdded79","ios":"levelo://app?vid=2330a857-0775-4481-8767-6dfc1bdded79"},"vehicle_type_id":"4","last_reported":1679310402,"current_range_meters":14000,"station_id":"","pricing_plan_id":"free"},{"bike_id":"dc46f849-62cf-47d9-993c-25d51a98d655","system_id":"levelo_inurba_marseille","lat":43.28072,"lon":5.505497,"is_reserved":false,"is_disabled":false,"rental_uris":{"android":"levelo://app?vid=dc46f849-62cf-47d9-993c-25d51a98d655","ios":"levelo://app?vid=dc46f849-62cf-47d9-993c-25d51a98d655"},"vehicle_type_id":"4","last_reported":1679310402,"current_range_meters":2400,"station_id":"","pricing_plan_id":"free"}]}}