{"last_updated":1719335270,"ttl":30,"version":"2.2","data":{"bikes":[{"bike_id":"8c11a57f-37bf-4575-8ca5-dc50684add6c","system_id":"levelo_inurba_marseille","lat":43.312239,"lon":5.368562,"is_reserved":false,"is_disabled":false,"rental_uris":{"android":"levelo://app?vid=8c11a57f-37bf-4575-8ca5-dc50684add6c","ios":"levelo://app?vid=8c11a57f-37bf-4575-8ca5-dc50684add6c"},"vehicle_type_id":"4","last_reported":1719335270,"current_range_meters":14800,"station_id":"ce4bgl92rcd13ifvqbq0","pricing_plan_id":"cebpf4jnsgd1na2vs0mg"},{"bike_id":"bcc3e4e7-49ad-4827-ad72-a8aac5cd29e6","system_id":"levelo_inurba_marseille","lat":43.31509,"lon":5.37089,"is_reserved":false,"is_disabled":false,"rental_uris":{"android":"levelo://app?vid=bcc3e4e7-49ad-4827-ad72-a8aac5cd29e6","ios":"levelo://app?vid=bcc3e4e7-49ad-4827-ad72-a8aac5cd29e6"},"vehicle_type_id":"4","last_reported":1719335270,"current_range_meters":18800,"station_id":"","pricing_plan_id":"cebpf4jnsgd1na2vs0mg"},{"bike_id":"1a7e641c-fc0c-4e74-b577-443ca2957676","system_id":"levelo_inurba_marseille","lat":43.30906,"lon":5.3685,"is_reserved":false,"is_disabled":false,"rental_uris":{"android":"levelo://app?vid=1a7e641c-fc0c-4e74-b577-443ca2957676","ios":"levelo://app?vid=1a7e641c-fc0c-4e74-b577-443ca2957676"},"vehicle_type_id":"4","last_reported":1719335270,"current_range_meters":0,"station_id":"ce4bgn92rcd13ifvqbvg","pricing_plan_id":"cebpf4jnsgd1na2vs0mg"},{"bike_id":"fb231755-9e91-4299-80cf-0ada38d7fae9","system_id":"levelo_inurba_marseille","lat":43.314811,"lon":5.373103,"is_reserved":false,"is_disabled":false,"rental_uris":{"android":"levelo://app?vid=fb231755-9e91-4299-80cf-0ada38d7fae9","ios":"levelo://app?vid=fb231755-9e91-4299-80cf-0ada38d7fae9"},"vehicle_type_id":"4","last_reported":1719335270,"current_range_meters":16800,"station_id":"ce4bgt12rcd13ifvqcd0","pricing_plan_id":"cebpf4jnsgd1na2vs0mg"},{"bike_id":"30fa3cb2-dab4-4cf4-9c8a-b4eccbe51086","system_id":"levelo_inurba_marseille","lat":43.3149,"lon":5.37309,"is_reserved":false,"is_disabled":false,"rental_uris":{"android":"levelo://app?vid=30fa3cb2-dab4-4cf4-9c8a-b4eccbe51086","ios":"levelo://app?vid=30fa3cb2-dab4-4cf4-9c8a-b4eccbe51086"},"vehicle_type_id":"4","last_reported":1719335270,"current_range_meters":2400,"station_id":"ce4bgt12rcd13ifvqcd0","pricing_plan_id":"cebpf4jnsgd1na2vs0mg"},{"bike_id":"16503455-a094-486c-8544-24a812b99f89","system_id":"levelo_inurba_marseille","lat":43.31492,"lon":5.37311,"is_reserved":false,"is_disabled":false,"rental_uris":{"android":"levelo://app?vid=16503455-a094-486c-8544-24a812b99f89","ios":"levelo://app?vid=16503455-a094-486c-8544-24a812b99f89"},"vehicle_type_id":"4","last_reported":1719335270,"current_range_meters":9200,"station_id":"ce4bgt12rcd13ifvqcd0","pricing_plan_id":"cebpf4jnsgd1na2vs0mg"},{"bike_id":"457292a4-3566-41bb-930f-ef532406357a","system_id":"levelo_inurba_marseille","lat":43.3149,"lon":5.37315,"is_reserved":false,"is_disabled":false,"rental_uris":{"android":"levelo://app?vid=457292a4-3566-41bb-930f-ef532406357a","ios":"levelo://app?vid=457292a4-3566-41bb-930f-ef532406357a"},"vehicle_type_id":"4","last_reported":1719335270,"current_range_meters":23200,"station_id":"ce4bgt12rcd13ifvqcd0","pricing_plan_id":"cebpf4jnsgd1na2vs0mg"},{"bike_id":"a87348d5-dfb0-4676-a6f7-34e4e593166e","system_id":"levelo_inurba_marseille","lat":43.309034,"lon":5.371783,"is_reserved":false,"is_disabled":false,"rental_uris":{"android":"levelo://app?vid=a87348d5-dfb0-4676-a6f7-34e4e593166e","ios":"levelo://app?vid=a87348d5-dfb0-4676-a6f7-34e4e593166e"},"vehicle_type_id":"4","last_reported":1719335270,"current_range_meters":0,"station_id":"ce4bguh2rcd13ifvqckg","pricing_plan_id":"cebpf4jnsgd1na2vs0mg"},{"bike_id":"03c33d46-adbb-4c69-a1b8-c6d739af18a6","system_id":"levelo_inurba_marseille","lat":43.31497,"lon":5.37312,"is_reserved":false,"is_disabled":false,"rental_uris":{"android":"levelo://app?vid=03c33d46-adbb-4c69-a1b8-c6d739af18a6","ios":"levelo://app?vid=03c33d46-adbb-4c69-a1b8-c6d739af18a6"},"vehicle_type_id":"4","last_reported":1719335270,"current_range_meters":6000,"station_id":"ce4bgt12rcd13ifvqcd0","pricing_plan_id":"cebpf4jnsgd1na2vs0mg"},{"bike_id":"1d0eea39-bb23-420b-9f9e-394ccb786533","system_id":"levelo_inurba_marseille","lat":43.309039,"lon":5.371797,"is_reserved":false,"is_disabled":false,"rental_uris":{"android":"levelo://app?vid=1d0eea39-bb23-420b-9f9e-394ccb786533","ios":"levelo://app?vid=1d0eea39-bb23-420b-9f9e-394ccb786533"},"vehicle_type_id":"4","last_reported":1719335270,"current_range_meters":7600,"station_id":"ce4bguh2rcd13ifvqckg","pricing_plan_id":"cebpf4jnsgd1na2vs0mg"},{"bike_id":"eb6b1723-7b05-4d93-8737-9f8c23157aa0","system_id":"levelo_inurba_marseille","lat":43.305712,"lon":5.365641,"is_reserved":false,"is_disabled":false,"rental_uris":{"android":"levelo://app?vid=eb6b1723-7b05-4d93-8737-9f8c23157aa0","ios":"levelo://app?vid=eb6b1723-7b05-4d93-8737-9f8c23157aa0"},"vehicle_type_id":"4","last_reported":1719335270,"current_range_meters":12000,"station_id":"ce4bgs12rcd13ifvqcag","pricing_plan_id":"cebpf4jnsgd1na2vs0mg"},{"bike_id":"d7645299-5ff4-42c3-adb3-1e4be9b82124","system_id":"levelo_inurba_marseille","lat":43.30539,"lon":5.36522,"is_reserved":false,"is_disabled":false,"rental_uris":{"android":"levelo://app?vid=d7645299-5ff4-42c3-adb3-1e4be9b82124","ios":"levelo://app?vid=d7645299-5ff4-42c3-adb3-1e4be9b82124"},"vehicle_type_id":"4","last_reported":1719335270,"current_range_meters":0,"station_id":"ce4bgs12rcd13ifvqcag","pricing_plan_id":"cebpf4jnsgd1na2vs0mg"},{"bike_id":"b269a385-fc17-48b6-84cf-7e5d51196651","system_id":"levelo_inurba_marseille","lat":43.305714,"lon":5.365633,"is_reserved":false,"is_disabled":false,"rental_uris":{"android":"levelo://app?vid=b269a385-fc17-48b6-84cf-7e5d51196651","ios":"levelo://app?vid=b269a385-fc17-48b6-84cf-7e5d51196651"},"vehicle_type_id":"4","last_reported":1719335270,"current_range_meters":0,"station_id":"ce4bgs12rcd13ifvqcag","pricing_plan_id":"cebpf4jnsgd1na2vs0mg"},{"bike_id":"66c1dbd3-108f-49e0-8a0f-9a3483733876","system_id":"levelo_inurba_marseille","lat":43.305989,"lon":5.37225,"is_reserved":false,"is_disabled":false,"rental_uris":{"android":"levelo://app?vid=66c1dbd3-108f-49e0-8a0f-9a3483733876","ios":"levelo://app?vid=66c1dbd3-108f-49e0-8a0f-9a3483733876"},"vehicle_type_id":"4","last_reported":1719335270,"current_range_meters":3200,"station_id":"ce4bgqh2rcd13ifvqc4g","pricing_plan_id":"cebpf4jnsgd1na2vs0mg"},{"bike_id":"d2bc31d0-e05a-4caa-ba45-4835f9715bdb","system_id":"levelo_inurba_marseille","lat":43.305989,"lon":5.37225,"is_reserved":false,"is_disabled":false,"rental_uris":{"android":"levelo://app?vid=d2bc31d0-e05a-4caa-ba45-4835f9715bdb","ios":"levelo://app?vid=d2bc31d0-e05a-4caa-ba45-4835f9715bdb"},"vehicle_type_id":"4","last_reported":1719335270,"current_range_meters":20000,"station_id":"ce4bgqh2rcd13ifvqc4g","pricing_plan_id":"cebpf4jnsgd1na2vs0mg"},{"bike_id":"36c140fe-d18f-4ff5-be8f-386de33eddf0","system_id":"levelo_inurba_marseille","lat":43.311178,"lon":5.377647,"is_reserved":false,"is_disabled":false,"rental_uris":{"android":"levelo://app?vid=36c140fe-d18f-4ff5-be8f-386de33eddf0","ios":"levelo://app?vid=36c140fe-d18f-4ff5-be8f-386de33eddf0"},"vehicle_type_id":"4","last_reported":1719335270,"current_range_meters":28800,"station_id":"ce4bgt92rcd13ifvqcg0","pricing_plan_id":"cebpf4jnsgd1na2vs0mg"},{"bike_id":"4a186fa1-5f9e-4104-a409-f652096f3987","system_id":"levelo_inurba_marseille","lat":43.307835,"lon":5.376392,"is_reserved":false,"is_disabled":false,"rental_uris":{"android":"levelo://app?vid=4a186fa1-5f9e-4104-a409-f652096f3987","ios":"levelo://app?vid=4a186fa1-5f9e-4104-a409-f652096f3987"},"vehicle_type_id":"4","last_reported":1719335270,"current_range_meters":5600,"station_id":"ce4bgv92rcd13ifvqcq0","pricing_plan_id":"cebpf4jnsgd1na2vs0mg"},{"bike_id":"7d63b13a-8cf9-4214-9557-80c31cc4a830","system_id":"levelo_inurba_marseille","lat":43.30778,"lon":5.37651,"is_reserved":false,"is_disabled":false,"rental_uris":{"android":"levelo://app?vid=7d63b13a-8cf9-4214-9557-80c31cc4a830","ios":"levelo://app?vid=7d63b13a-8cf9-4214-9557-80c31cc4a830"},"vehicle_type_id":"4","last_reported":1719335270,"current_range_meters":400,"station_id":"ce4bgv92rcd13ifvqcq0","pricing_plan_id":"cebpf4jnsgd1na2vs0mg"},{"bike_id":"02fb7f1f-8af1-4d07-9fb6-e6370bc82c8e","system_id":"levelo_inurba_marseille","lat":43.30781,"lon":5.37654,"is_reserved":false,"is_disabled":false,"rental_uris":{"android":"levelo://app?vid=02fb7f1f-8af1-4d07-9fb6-e6370bc82c8e","ios":"levelo://app?vid=02fb7f1f-8af1-4d07-9fb6-e6370bc82c8e"},"vehicle_type_id":"4","last_reported":1719335270,"current_range_meters":21200,"station_id":"ce4bgv92rcd13ifvqcq0","pricing_plan_id":"cebpf4jnsgd1na2vs0mg"},{"bike_id":"2bbb5117-c361-439e-9070-abed429f1edc","system_id":"levelo_inurba_marseille","lat":43.30528,"lon":5.37334,"is_reserved":false,"is_disabled":false,"rental_uris":{"android":"levelo://app?vid=2bbb5117-c361-439e-9070-abed429f1edc","ios":"levelo://app?vid=2bbb5117-c361-439e-9070-abed429f1edc"},"vehicle_type_id":"4","last_reported":1719335270,"current_range_meters":0,"station_id":"","pricing_plan_id":"cebpf4jnsgd1na2vs0mg"},{"bike_id":"0d1165ba-bfc7-4a1a-991c-b834a5eb2b1b","system_id":"levelo_inurba_marseille","lat":43.301939,"lon":5.366286,"is_reserved":false,"is_disabled":false,"rental_uris":{"android":"levelo://app?vid=0d1165ba-bfc7-4a1a-991c-b834a5eb2b1b","ios":"levelo://app?vid=0d1165ba-bfc7-4a1a-991c-b834a5eb2b1b"},"vehicle_type_id":"4","last_reported":1719335270,"current_range_meters":20000,"station_id":"ce4bgrh2rcd13ifvqc8g","pricing_plan_id":"cebpf4jnsgd1na2vs0mg"},{"bike_id":"92774f0b-65b3-4131-aabc-5637b6538567","system_id":"levelo_inurba_marseille","lat":43.308012,"lon":5.381511,"is_reserved":false,"is_disabled":false,"rental_uris":{"android":"levelo://app?vid=92774f0b-65b3-4131-aabc-5637b6538567","ios":"levelo://app?vid=92774f0b-65b3-4131-aabc-5637b6538567"},"vehicle_type_id":"4","last_reported":1719335270,"current_range_meters":10800,"station_id":"ce4bgt12rcd13ifvqce0","pricing_plan_id":"cebpf4jnsgd1na2vs0mg"},{"bike_id":"11e8b5f4-3a31-4e5c-9e9d-c3c037b158a0","system_id":"levelo_inurba_marseille","lat":43.324771,"lon":5.36557,"is_reserved":false,"is_disabled":false,"rental_uris":{"android":"levelo://app?vid=11e8b5f4-3a31-4e5c-9e9d-c3c037b158a0","ios":"levelo://app?vid=11e8b5f4-3a31-4e5c-9e9d-c3c037b158a0"},"vehicle_type_id":"4","last_reported":1719335270,"current_range_meters":400,"station_id":"ce4bhs12rcd13ifvqhvg","pricing_plan_id":"cebpf4jnsgd1na2vs0mg"},{"bike_id":"7faf89ef-c7f4-4a1c-a781-8efb5b6e67e7","system_id":"levelo_inurba_marseille","lat":43.310804,"lon":5.38359,"is_reserved":false,"is_disabled":false,"rental_uris":{"android":"levelo://app?vid=7faf89ef-c7f4-4a1c-a781-8efb5b6e67e7","ios":"levelo://app?vid=7faf89ef-c7f4-4a1c-a781-8efb5b6e67e7"},"vehicle_type_id":"4","last_reported":1719335270,"current_range_meters":17600,"station_id":"ce4bgv92rcd13ifvqcr0","pricing_plan_id":"cebpf4jnsgd1na2vs0mg"},{"bike_id":"f21f2c11-68d8-4f1e-bcfd-77375d3ad7ba","system_id":"levelo_inurba_marseille","lat":43.302784,"lon":5.377158,"is_reserved":false,"is_disabled":false,"rental_uris":{"android":"levelo://app?vid=f21f2c11-68d8-4f1e-bcfd-77375d3ad7ba","ios":"levelo://app?vid=f21f2c11-68d8-4f1e-bcfd-77375d3ad7ba"},"vehicle_type_id":"4","last_reported":1719335270,"current_range_meters":14000,"station_id":"ce4bguh2rcd13ifvqcj0","pricing_plan_id":"cebpf4jnsgd1na2vs0mg"},{"bike_id":"ea51dfb6-f4f6-46e3-b610-d4ec93ae4361","system_id":"levelo_inurba_marseille","lat":43.30143,"lon":5.37413,"is_reserved":false,"is_disabled":false,"rental_uris":{"android":"levelo://app?vid=ea51dfb6-f4f6-46e3-b610-d4ec93ae4361","ios":"levelo://app?vid=ea51dfb6-f4f6-46e3-b610-d4ec93ae4361"},"vehicle_type_id":"4","last_reported":1719335270,"current_range_meters":22000,"station_id":"ce4bgs92rcd13ifvqcc0","pricing_plan_id":"cebpf4jnsgd1na2vs0mg"},{"bike_id":"a74843d6-b352-4235-904f-a3b2042f7359","system_id":"levelo_inurba_marseille","lat":43.301429,"lon":5.37413,"is_reserved":false,"is_disabled":false,"rental_uris":{"android":"levelo://app?vid=a74843d6-b352-4235-904f-a3b2042f7359","ios":"levelo://app?vid=a74843d6-b352-4235-904f-a3b2042f7359"},"vehicle_type_id":"4","last_reported":1719335270,"current_range_meters":18800,"station_id":"ce4bgs92rcd13ifvqcc0","pricing_plan_id":"cebpf4jnsgd1na2vs0mg"},{"bike_id":"7fdabcf8-c7de-4b53-bfa8-2c01b1018977","system_id":"levelo_inurba_marseille","lat":43.31992,"lon":5.38157,"is_reserved":false,"is_disabled":false,"rental_uris":{"android":"levelo://app?vid=7fdabcf8-c7de-4b53-bfa8-2c01b1018977","ios":"levelo://app?vid=7fdabcf8-c7de-4b53-bfa8-2c01b1018977"},"vehicle_type_id":"4","last_reported":1719335270,"current_range_meters":19200,"station_id":"ce4bhr12rcd13ifvqhpg","pricing_plan_id":"cebpf4jnsgd1na2vs0mg"},{"bike_id":"6088a69d-27f4-4d8d-92c1-5cf8e065bb23","system_id":"levelo_inurba_marseille","lat":43.31366,"lon":5.385043,"is_reserved":false,"is_disabled":false,"rental_uris":{"android":"levelo://app?vid=6088a69d-27f4-4d8d-92c1-5cf8e065bb23","ios":"levelo://app?vid=6088a69d-27f4-4d8d-92c1-5cf8e065bb23"},"vehicle_type_id":"4","last_reported":1719335270,"current_range_meters":14400,"station_id":"ce4bgt92rcd13ifvqcf0","pricing_plan_id":"cebpf4jnsgd1na2vs0mg"},{"bike_id":"f1e3c460-33ce-403a-bb03-8a7f5ddb53e3","system_id":"levelo_inurba_marseille","lat":43.299635,"lon":5.364245,"is_reserved":false,"is_disabled":false,"rental_uris":{"android":"levelo://app?vid=f1e3c460-33ce-403a-bb03-8a7f5ddb53e3","ios":"levelo://app?vid=f1e3c460-33ce-403a-bb03-8a7f5ddb53e3"},"vehicle_type_id":"4","last_reported":1719335270,"current_range_meters":22400,"station_id":"","pricing_plan_id":"cebpf4jnsgd1na2vs0mg"},{"bike_id":"db433b68-6088-4204-9732-c0ae8199bdd4","system_id":"levelo_inurba_marseille","lat":43.299724,"lon":5.371829,"is_reserved":false,"is_disabled":false,"rental_uris":{"android":"levelo://app?vid=db433b68-6088-4204-9732-c0ae8199bdd4","ios":"levelo://app?vid=db433b68-6088-4204-9732-c0ae8199bdd4"},"vehicle_type_id":"4","last_reported":1719335270,"current_range_meters":3600,"station_id":"ce4bgr92rcd13ifvqc7g","pricing_plan_id":"cebpf4jnsgd1na2vs0mg"},{"bike_id":"0ac34d10-96e1-4ac0-9782-10b118adb7b7","system_id":"levelo_inurba_marseille","lat":43.2988,"lon":5.36723,"is_reserved":false,"is_disabled":false,"rental_uris":{"android":"levelo://app?vid=0ac34d10-96e1-4ac0-9782-10b118adb7b7","ios":"levelo://app?vid=0ac34d10-96e1-4ac0-9782-10b118adb7b7"},"vehicle_type_id":"4","last_reported":1719335270,"current_range_meters":16000,"station_id":"","pricing_plan_id":"cebpf4jnsgd1na2vs0mg"},{"bike_id":"c0d7978a-72b5-4f8e-b26c-69c0863906fb","system_id":"levelo_inurba_marseille","lat":43.305364,"lon":5.384119,"is_reserved":false,"is_disabled":false,"rental_uris":{"android":"levelo://app?vid=c0d7978a-72b5-4f8e-b26c-69c0863906fb","ios":"levelo://app?vid=c0d7978a-72b5-4f8e-b26c-69c0863906fb"},"vehicle_type_id":"4","last_reported":1719335270,"current_range_meters":0,"station_id":"ce4bgg92rcd13ifvqb30","pricing_plan_id":"cebpf4jnsgd1na2vs0mg"},{"bike_id":"fd05f39a-a6e0-4b62-b239-d94ec479a510","system_id":"levelo_inurba_marseille","lat":43.305364,"lon":5.384119,"is_reserved":false,"is_disabled":false,"rental_uris":{"android":"levelo://app?vid=fd05f39a-a6e0-4b62-b239-d94ec479a510","ios":"levelo://app?vid=fd05f39a-a6e0-4b62-b239-d94ec479a510"},"vehicle_type_id":"4","last_reported":1719335270,"current_range_meters":3600,"station_id":"ce4bgg92rcd13ifvqb30","pricing_plan_id":"cebpf4jnsgd1na2vs0mg"},{"bike_id":"565bce40-e53a-4f6c-8623-303efb270ae6","system_id":"levelo_inurba_marseille","lat":43.30546,"lon":5.38431,"is_reserved":false,"is_disabled":false,"rental_uris":{"android":"levelo://app?vid=565bce40-e53a-4f6c-8623-303efb270ae6","ios":"levelo://app?vid=565bce40-e53a-4f6c-8623-303efb270ae6"},"vehicle_type_id":"4","last_reported":1719335270,"current_range_meters":8400,"station_id":"","pricing_plan_id":"cebpf4jnsgd1na2vs0mg"},{"bike_id":"7846cd6b-fa4d-4efb-980b-d2e6a6e7704f","system_id":"levelo_inurba_marseille","lat":43.311722,"lon":5.387247,"is_reserved":false,"is_disabled":false,"rental_uris":{"android":"levelo://app?vid=7846cd6b-fa4d-4efb-980b-d2e6a6e7704f","ios":"levelo://app?vid=7846cd6b-fa4d-4efb-980b-d2e6a6e7704f"},"vehicle_type_id":"4","last_reported":1719335270,"current_range_meters":25600,"station_id":"ce4bgv12rcd13ifvqcp0","pricing_plan_id":"cebpf4jnsgd1na2vs0mg"},{"bike_id":"e340f345-5eaa-4ab4-afd9-6ea1780f3885","system_id":"levelo_inurba_marseille","lat":43.311722,"lon":5.387247,"is_reserved":false,"is_disabled":false,"rental_uris":{"android":"levelo://app?vid=e340f345-5eaa-4ab4-afd9-6ea1780f3885","ios":"levelo://app?vid=e340f345-5eaa-4ab4-afd9-6ea1780f3885"},"vehicle_type_id":"4","last_reported":1719335270,"current_range_meters":31600,"station_id":"ce4bgv12rcd13ifvqcp0","pricing_plan_id":"cebpf4jnsgd1na2vs0mg"},{"bike_id":"c832b964-5d0b-46f5-8e11-735d97946ebc","system_id":"levelo_inurba_marseille","lat":43.31185,"lon":5.38718,"is_reserved":false,"is_disabled":false,"rental_uris":{"android":"levelo://app?vid=c832b964-5d0b-46f5-8e11-735d97946ebc","ios":"levelo://app?vid=c832b964-5d0b-46f5-8e11-735d97946ebc"},"vehicle_type_id":"4","last_reported":1719335270,"current_range_meters":1600,"station_id":"ce4bgv12rcd13ifvqcp0","pricing_plan_id":"cebpf4jnsgd1na2vs0mg"},{"bike_id":"219545e9-c50f-4466-b46c-975385f7a8ea","system_id":"levelo_inurba_marseille","lat":43.311722,"lon":5.387247,"is_reserved":false,"is_disabled":false,"rental_uris":{"android":"levelo://app?vid=219545e9-c50f-4466-b46c-975385f7a8ea","ios":"levelo://app?vid=219545e9-c50f-4466-b46c-975385f7a8ea"},"vehicle_type_id":"4","last_reported":1719335270,"current_range_meters":22000,"station_id":"ce4bgv12rcd13ifvqcp0","pricing_plan_id":"cebpf4jnsgd1na2vs0mg"},{"bike_id":"aa76b900-0c70-4a20-b760-8bb519d89e9a","system_id":"levelo_inurba_marseille","lat":43.299243,"lon":5.374807,"is_reserved":false,"is_disabled":false,"rental_uris":{"android":"levelo://app?vid=aa76b900-0c70-4a20-b760-8bb519d89e9a","ios":"levelo://app?vid=aa76b900-0c70-4a20-b760-8bb519d89e9a"},"vehicle_type_id":"4","last_reported":1719335270,"current_range_meters":15600,"station_id":"ce4bgjh2rcd13ifvqbg0","pricing_plan_id":"cebpf4jnsgd1na2vs0mg"},{"bike_id":"ef4e475d-5be1-4696-a4dc-64caaab9ca44","system_id":"levelo_inurba_marseille","lat":43.32291,"lon":5.3826,"is_reserved":false,"is_disabled":false,"rental_uris":{"android":"levelo://app?vid=ef4e475d-5be1-4696-a4dc-64caaab9ca44","ios":"levelo://app?vid=ef4e475d-5be1-4696-a4dc-64caaab9ca44"},"vehicle_type_id":"4","last_reported":1719335270,"current_range_meters":15600,"station_id":"ce4bhr12rcd13ifvqhqg","pricing_plan_id":"cebpf4jnsgd1na2vs0mg"},{"bike_id":"8a3dee68-befb-495c-8c53-779d24084da1","system_id":"levelo_inurba_marseille","lat":43.297035,"lon":5.365519,"is_reserved":false,"is_disabled":false,"rental_uris":{"android":"levelo://app?vid=8a3dee68-befb-495c-8c53-779d24084da1","ios":"levelo://app?vid=8a3dee68-befb-495c-8c53-779d24084da1"},"vehicle_type_id":"4","last_reported":1719335270,"current_range_meters":26800,"station_id":"ce4bgn12rcd13ifvqbt0","pricing_plan_id":"cebpf4jnsgd1na2vs0mg"},{"bike_id":"313c8adb-da43-4b0a-85bd-b3321a4eef54","system_id":"levelo_inurba_marseille","lat":43.2968,"lon":5.37291,"is_reserved":false,"is_disabled":false,"rental_uris":{"android":"levelo://app?vid=313c8adb-da43-4b0a-85bd-b3321a4eef54","ios":"levelo://app?vid=313c8adb-da43-4b0a-85bd-b3321a4eef54"},"vehicle_type_id":"4","last_reported":1719335270,"current_range_meters":27600,"station_id":"ce4bgk12rcd13ifvqbj0","pricing_plan_id":"cebpf4jnsgd1na2vs0mg"},{"bike_id":"b8940ca2-abfd-4a2c-aa9c-a35c2651301d","system_id":"levelo_inurba_marseille","lat":43.29573,"lon":5.367355,"is_reserved":false,"is_disabled":false,"rental_uris":{"android":"levelo://app?vid=b8940ca2-abfd-4a2c-aa9c-a35c2651301d","ios":"levelo://app?vid=b8940ca2-abfd-4a2c-aa9c-a35c2651301d"},"vehicle_type_id":"4","last_reported":1719335270,"current_range_meters":0,"station_id":"ce4bgph2rcd13ifvqc2g","pricing_plan_id":"cebpf4jnsgd1na2vs0mg"},{"bike_id":"ff9140fa-610d-43e7-b158-bc250470d625","system_id":"levelo_inurba_marseille","lat":43.29573,"lon":5.367355,"is_reserved":false,"is_disabled":false,"rental_uris":{"android":"levelo://app?vid=ff9140fa-610d-43e7-b158-bc250470d625","ios":"levelo://app?vid=ff9140fa-610d-43e7-b158-bc250470d625"},"vehicle_type_id":"4","last_reported":1719335270,"current_range_meters":13200,"station_id":"ce4bgph2rcd13ifvqc2g","pricing_plan_id":"cebpf4jnsgd1na2vs0mg"},{"bike_id":"9ca30940-867b-406e-a574-716b850f2ca9","system_id":"levelo_inurba_marseille","lat":43.296935,"lon":5.376544,"is_reserved":false,"is_disabled":false,"rental_uris":{"android":"levelo://app?vid=9ca30940-867b-406e-a574-716b850f2ca9","ios":"levelo://app?vid=9ca30940-867b-406e-a574-716b850f2ca9"},"vehicle_type_id":"4","last_reported":1719335270,"current_range_meters":0,"station_id":"ce4bgkh2rcd13ifvqbl0","pricing_plan_id":"cebpf4jnsgd1na2vs0mg"},{"bike_id":"e601dee1-ff2c-4a05-a02a-c05a2f33e069","system_id":"levelo_inurba_marseille","lat":43.309589,"lon":5.390258,"is_reserved":false,"is_disabled":false,"rental_uris":{"android":"levelo://app?vid=e601dee1-ff2c-4a05-a02a-c05a2f33e069","ios":"levelo://app?vid=e601dee1-ff2c-4a05-a02a-c05a2f33e069"},"vehicle_type_id":"4","last_reported":1719335270,"current_range_meters":11200,"station_id":"ce4bgup2rcd13ifvqco0","pricing_plan_id":"cebpf4jnsgd1na2vs0mg"},{"bike_id":"bf19a4d5-a1e4-4a52-b2f9-748a1037dfae","system_id":"levelo_inurba_marseille","lat":43.309589,"lon":5.390258,"is_reserved":false,"is_disabled":false,"rental_uris":{"android":"levelo://app?vid=bf19a4d5-a1e4-4a52-b2f9-748a1037dfae","ios":"levelo://app?vid=bf19a4d5-a1e4-4a52-b2f9-748a1037dfae"},"vehicle_type_id":"4","last_reported":1719335270,"current_range_meters":15200,"station_id":"ce4bgup2rcd13ifvqco0","pricing_plan_id":"cebpf4jnsgd1na2vs0mg"},{"bike_id":"ea280958-20eb-45a3-930d-28d35cfa4379","system_id":"levelo_inurba_marseille","lat":43.309589,"lon":5.390258,"is_reserved":false,"is_disabled":false,"rental_uris":{"android":"levelo://app?vid=ea280958-20eb-45a3-930d-28d35cfa4379","ios":"levelo://app?vid=ea280958-20eb-45a3-930d-28d35cfa4379"},"vehicle_type_id":"4","last_reported":1719335270,"current_range_meters":26800,"station_id":"ce4bgup2rcd13ifvqco0","pricing_plan_id":"cebpf4jnsgd1na2vs0mg"},{"bike_id":"e083813a-ba09-4b1a-b12f-52b1152418b8","system_id":"levelo_inurba_marseille","lat":43.309589,"lon":5.390258,"is_reserved":false,"is_disabled":false,"rental_uris":{"android":"levelo://app?vid=e083813a-ba09-4b1a-b12f-52b1152418b8","ios":"levelo://app?vid=e083813a-ba09-4b1a-b12f-52b1152418b8"},"vehicle_type_id":"4","last_reported":1719335270,"current_range_meters":1200,"station_id":"ce4bgup2rcd13ifvqco0","pricing_plan_id":"cebpf4jnsgd1na2vs0mg"},{"bike_id":"4a036337-3f21-48db-b7e5-13ec36c59a44","system_id":"levelo_inurba_marseille","lat":43.296921,"lon":5.376579,"is_reserved":false,"is_disabled":false,"rental_uris":{"android":"levelo://app?vid=4a036337-3f21-48db-b7e5-13ec36c59a44","ios":"levelo://app?vid=4a036337-3f21-48db-b7e5-13ec36c59a44"},"vehicle_type_id":"4","last_reported":1719335270,"current_range_meters":7600,"station_id":"ce4bgkh2rcd13ifvqbl0","pricing_plan_id":"cebpf4jnsgd1na2vs0mg"},{"bike_id":"eb2fc733-9121-41f9-ab85-74cebfc4cf92","system_id":"levelo_inurba_marseille","lat":43.317557,"lon":5.390173,"is_reserved":false,"is_disabled":false,"rental_uris":{"android":"levelo://app?vid=eb2fc733-9121-41f9-ab85-74cebfc4cf92","ios":"levelo://app?vid=eb2fc733-9121-41f9-ab85-74cebfc4cf92"},"vehicle_type_id":"4","last_reported":1719335270,"current_range_meters":400,"station_id":"ce4bhqp2rcd13ifvqhng","pricing_plan_id":"cebpf4jnsgd1na2vs0mg"},{"bike_id":"73146302-33d5-46fc-a915-631136e1e406","system_id":"levelo_inurba_marseille","lat":43.298037,"lon":5.381066,"is_reserved":false,"is_disabled":false,"rental_uris":{"android":"levelo://app?vid=73146302-33d5-46fc-a915-631136e1e406","ios":"levelo://app?vid=73146302-33d5-46fc-a915-631136e1e406"},"vehicle_type_id":"4","last_reported":1719335270,"current_range_meters":20400,"station_id":"ce4bgip2rcd13ifvqbb0","pricing_plan_id":"cebpf4jnsgd1na2vs0mg"},{"bike_id":"579ddbfc-9030-4f68-b9fc-5586b8d55a68","system_id":"levelo_inurba_marseille","lat":43.295748,"lon":5.37522,"is_reserved":false,"is_disabled":false,"rental_uris":{"android":"levelo://app?vid=579ddbfc-9030-4f68-b9fc-5586b8d55a68","ios":"levelo://app?vid=579ddbfc-9030-4f68-b9fc-5586b8d55a68"},"vehicle_type_id":"4","last_reported":1719335270,"current_range_meters":16800,"station_id":"ce4bgh92rcd13ifvqb50","pricing_plan_id":"cebpf4jnsgd1na2vs0mg"},{"bike_id":"750975d5-e092-4394-9021-24b9631c9b6e","system_id":"levelo_inurba_marseille","lat":43.295748,"lon":5.37522,"is_reserved":false,"is_disabled":false,"rental_uris":{"android":"levelo://app?vid=750975d5-e092-4394-9021-24b9631c9b6e","ios":"levelo://app?vid=750975d5-e092-4394-9021-24b9631c9b6e"},"vehicle_type_id":"4","last_reported":1719335270,"current_range_meters":2400,"station_id":"ce4bgh92rcd13ifvqb50","pricing_plan_id":"cebpf4jnsgd1na2vs0mg"},{"bike_id":"dca86544-f223-4899-adae-eea367e0f0dd","system_id":"levelo_inurba_marseille","lat":43.295748,"lon":5.37522,"is_reserved":false,"is_disabled":false,"rental_uris":{"android":"levelo://app?vid=dca86544-f223-4899-adae-eea367e0f0dd","ios":"levelo://app?vid=dca86544-f223-4899-adae-eea367e0f0dd"},"vehicle_type_id":"4","last_reported":1719335270,"current_range_meters":0,"station_id":"ce4bgh92rcd13ifvqb50","pricing_plan_id":"cebpf4jnsgd1na2vs0mg"},{"bike_id":"6eebe353-b58b-4e73-b7ed-5565362cf0f6","system_id":"levelo_inurba_marseille","lat":43.2962,"lon":5.37718,"is_reserved":false,"is_disabled":false,"rental_uris":{"android":"levelo://app?vid=6eebe353-b58b-4e73-b7ed-5565362cf0f6","ios":"levelo://app?vid=6eebe353-b58b-4e73-b7ed-5565362cf0f6"},"vehicle_type_id":"4","last_reported":1719335270,"current_range_meters":7200,"station_id":"ce4bgi92rcd13ifvqb90","pricing_plan_id":"cebpf4jnsgd1na2vs0mg"},{"bike_id":"e84f9fab-38e5-4beb-8ce3-c6295977df5d","system_id":"levelo_inurba_marseille","lat":43.299717,"lon":5.384845,"is_reserved":false,"is_disabled":false,"rental_uris":{"android":"levelo://app?vid=e84f9fab-38e5-4beb-8ce3-c6295977df5d","ios":"levelo://app?vid=e84f9fab-38e5-4beb-8ce3-c6295977df5d"},"vehicle_type_id":"4","last_reported":1719335270,"current_range_meters":4800,"station_id":"ce4bgj92rcd13ifvqbd0","pricing_plan_id":"cebpf4jnsgd1na2vs0mg"},{"bike_id":"d1b9022b-9184-4e99-9554-dcbb55cdd554","system_id":"levelo_inurba_marseille","lat":43.299707,"lon":5.384859,"is_reserved":false,"is_disabled":false,"rental_uris":{"android":"levelo://app?vid=d1b9022b-9184-4e99-9554-dcbb55cdd554","ios":"levelo://app?vid=d1b9022b-9184-4e99-9554-dcbb55cdd554"},"vehicle_type_id":"4","last_reported":1719335270,"current_range_meters":8800,"station_id":"ce4bgj92rcd13ifvqbd0","pricing_plan_id":"cebpf4jnsgd1na2vs0mg"},{"bike_id":"1acafe99-a41c-4b47-9eeb-7dfb9245b6ca","system_id":"levelo_inurba_marseille","lat":43.299717,"lon":5.384845,"is_reserved":false,"is_disabled":false,"rental_uris":{"android":"levelo://app?vid=1acafe99-a41c-4b47-9eeb-7dfb9245b6ca","ios":"levelo://app?vid=1acafe99-a41c-4b47-9eeb-7dfb9245b6ca"},"vehicle_type_id":"4","last_reported":1719335270,"current_range_meters":0,"station_id":"ce4bgj92rcd13ifvqbd0","pricing_plan_id":"cebpf4jnsgd1na2vs0mg"},{"bike_id":"8520dafd-c7ca-45bd-9836-5f52830bf5ad","system_id":"levelo_inurba_marseille","lat":43.299707,"lon":5.384859,"is_reserved":false,"is_disabled":false,"rental_uris":{"android":"levelo://app?vid=8520dafd-c7ca-45bd-9836-5f52830bf5ad","ios":"levelo://app?vid=8520dafd-c7ca-45bd-9836-5f52830bf5ad"},"vehicle_type_id":"4","last_reported":1719335270,"current_range_meters":19600,"station_id":"ce4bgj92rcd13ifvqbd0","pricing_plan_id":"cebpf4jnsgd1na2vs0mg"},{"bike_id":"15ce8352-6c0b-4f9d-83bc-aa912a329691","system_id":"levelo_inurba_marseille","lat":43.299724,"lon":5.384848,"is_reserved":false,"is_disabled":false,"rental_uris":{"android":"levelo://app?vid=15ce8352-6c0b-4f9d-83bc-aa912a329691","ios":"levelo://app?vid=15ce8352-6c0b-4f9d-83bc-aa912a329691"},"vehicle_type_id":"4","last_reported":1719335270,"current_range_meters":21200,"station_id":"ce4bgj92rcd13ifvqbd0","pricing_plan_id":"cebpf4jnsgd1na2vs0mg"},{"bike_id":"d877e269-2d96-4a29-a844-f1dd0fedb80e","system_id":"levelo_inurba_marseille","lat":43.299724,"lon":5.384848,"is_reserved":false,"is_disabled":false,"rental_uris":{"android":"levelo://app?vid=d877e269-2d96-4a29-a844-f1dd0fedb80e","ios":"levelo://app?vid=d877e269-2d96-4a29-a844-f1dd0fedb80e"},"vehicle_type_id":"4","last_reported":1719335270,"current_range_meters":1600,"station_id":"ce4bgj92rcd13ifvqbd0","pricing_plan_id":"cebpf4jnsgd1na2vs0mg"},{"bike_id":"93670782-fbea-4e96-b733-8b1de6968cc7","system_id":"levelo_inurba_marseille","lat":43.29504,"lon":5.375075,"is_reserved":false,"is_disabled":false,"rental_uris":{"android":"levelo://app?vid=93670782-fbea-4e96-b733-8b1de6968cc7","ios":"levelo://app?vid=93670782-fbea-4e96-b733-8b1de6968cc7"},"vehicle_type_id":"4","last_reported":1719335270,"current_range_meters":22400,"station_id":"","pricing_plan_id":"cebpf4jnsgd1na2vs0mg"},{"bike_id":"1fed3075-05fa-4cab-932c-07991ce3f704","system_id":"levelo_inurba_marseille","lat":43.295,"lon":5.37511,"is_reserved":false,"is_disabled":false,"rental_uris":{"android":"levelo://app?vid=1fed3075-05fa-4cab-932c-07991ce3f704","ios":"levelo://app?vid=1fed3075-05fa-4cab-932c-07991ce3f704"},"vehicle_type_id":"4","last_reported":1719335270,"current_range_meters":17600,"station_id":"","pricing_plan_id":"cebpf4jnsgd1na2vs0mg"},{"bike_id":"a98b7b32-4c56-479c-98cb-b4be2a9cee56","system_id":"levelo_inurba_marseille","lat":43.294691,"lon":5.37402,"is_reserved":false,"is_disabled":false,"rental_uris":{"android":"levelo://app?vid=a98b7b32-4c56-479c-98cb-b4be2a9cee56","ios":"levelo://app?vid=a98b7b32-4c56-479c-98cb-b4be2a9cee56"},"vehicle_type_id":"4","last_reported":1719335270,"current_range_meters":12400,"station_id":"","pricing_plan_id":"cebpf4jnsgd1na2vs0mg"},{"bike_id":"a298b1d4-5baa-4494-867a-8ca0d4de5a07","system_id":"levelo_inurba_marseille","lat":43.32369,"lon":5.38882,"is_reserved":false,"is_disabled":false,"rental_uris":{"android":"levelo://app?vid=a298b1d4-5baa-4494-867a-8ca0d4de5a07","ios":"levelo://app?vid=a298b1d4-5baa-4494-867a-8ca0d4de5a07"},"vehicle_type_id":"4","last_reported":1719335270,"current_range_meters":10400,"station_id":"ce4bhqp2rcd13ifvqhog","pricing_plan_id":"cebpf4jnsgd1na2vs0mg"},{"bike_id":"0d847c92-ecf9-4a86-b318-225aa8e3b2d4","system_id":"levelo_inurba_marseille","lat":43.32368,"lon":5.38883,"is_reserved":false,"is_disabled":false,"rental_uris":{"android":"levelo://app?vid=0d847c92-ecf9-4a86-b318-225aa8e3b2d4","ios":"levelo://app?vid=0d847c92-ecf9-4a86-b318-225aa8e3b2d4"},"vehicle_type_id":"4","last_reported":1719335270,"current_range_meters":800,"station_id":"ce4bhqp2rcd13ifvqhog","pricing_plan_id":"cebpf4jnsgd1na2vs0mg"},{"bike_id":"d4a8501d-1187-4ab9-929b-92525f88b3f2","system_id":"levelo_inurba_marseille","lat":43.32368,"lon":5.38886,"is_reserved":false,"is_disabled":false,"rental_uris":{"android":"levelo://app?vid=d4a8501d-1187-4ab9-929b-92525f88b3f2","ios":"levelo://app?vid=d4a8501d-1187-4ab9-929b-92525f88b3f2"},"vehicle_type_id":"4","last_reported":1719335270,"current_range_meters":11200,"station_id":"ce4bhqp2rcd13ifvqhog","pricing_plan_id":"cebpf4jnsgd1na2vs0mg"},{"bike_id":"ae9eaaba-ed40-485a-9809-72efdd5eed36","system_id":"levelo_inurba_marseille","lat":43.32365,"lon":5.38891,"is_reserved":false,"is_disabled":false,"rental_uris":{"android":"levelo://app?vid=ae9eaaba-ed40-485a-9809-72efdd5eed36","ios":"levelo://app?vid=ae9eaaba-ed40-485a-9809-72efdd5eed36"},"vehicle_type_id":"4","last_reported":1719335270,"current_range_meters":15600,"station_id":"ce4bhqp2rcd13ifvqhog","pricing_plan_id":"cebpf4jnsgd1na2vs0mg"},{"bike_id":"ac196284-48b1-49bf-aa29-00b2a77da4d4","system_id":"levelo_inurba_marseille","lat":43.30195,"lon":5.38938,"is_reserved":false,"is_disabled":false,"rental_uris":{"android":"levelo://app?vid=ac196284-48b1-49bf-aa29-00b2a77da4d4","ios":"levelo://app?vid=ac196284-48b1-49bf-aa29-00b2a77da4d4"},"vehicle_type_id":"4","last_reported":1719335270,"current_range_meters":13600,"station_id":"","pricing_plan_id":"cebpf4jnsgd1na2vs0mg"},{"bike_id":"812d7939-9142-4735-958d-b92ad614a948","system_id":"levelo_inurba_marseille","lat":43.29601,"lon":5.381084,"is_reserved":false,"is_disabled":false,"rental_uris":{"android":"levelo://app?vid=812d7939-9142-4735-958d-b92ad614a948","ios":"levelo://app?vid=812d7939-9142-4735-958d-b92ad614a948"},"vehicle_type_id":"4","last_reported":1719335270,"current_range_meters":22800,"station_id":"ce4bgl12rcd13ifvqbo0","pricing_plan_id":"cebpf4jnsgd1na2vs0mg"},{"bike_id":"6f1f1e0d-6d14-45b9-9a44-69fafee9618f","system_id":"levelo_inurba_marseille","lat":43.29602,"lon":5.381084,"is_reserved":false,"is_disabled":false,"rental_uris":{"android":"levelo://app?vid=6f1f1e0d-6d14-45b9-9a44-69fafee9618f","ios":"levelo://app?vid=6f1f1e0d-6d14-45b9-9a44-69fafee9618f"},"vehicle_type_id":"4","last_reported":1719335270,"current_range_meters":5600,"station_id":"ce4bgl12rcd13ifvqbo0","pricing_plan_id":"cebpf4jnsgd1na2vs0mg"},{"bike_id":"17b35e97-d142-4b94-8314-fe037b8da9ae","system_id":"levelo_inurba_marseille","lat":43.29314,"lon":5.37169,"is_reserved":false,"is_disabled":false,"rental_uris":{"android":"levelo://app?vid=17b35e97-d142-4b94-8314-fe037b8da9ae","ios":"levelo://app?vid=17b35e97-d142-4b94-8314-fe037b8da9ae"},"vehicle_type_id":"4","last_reported":1719335270,"current_range_meters":31200,"station_id":"ce4bgh92rcd13ifvqb40","pricing_plan_id":"cebpf4jnsgd1na2vs0mg"},{"bike_id":"19696aee-728f-4a46-a0ee-ad3893f3ce11","system_id":"levelo_inurba_marseille","lat":43.293249,"lon":5.371578,"is_reserved":false,"is_disabled":false,"rental_uris":{"android":"levelo://app?vid=19696aee-728f-4a46-a0ee-ad3893f3ce11","ios":"levelo://app?vid=19696aee-728f-4a46-a0ee-ad3893f3ce11"},"vehicle_type_id":"4","last_reported":1719335270,"current_range_meters":18400,"station_id":"ce4bgh92rcd13ifvqb40","pricing_plan_id":"cebpf4jnsgd1na2vs0mg"},{"bike_id":"3f182bb8-ea9f-4acc-867a-a8a4c8f085ea","system_id":"levelo_inurba_marseille","lat":43.293123,"lon":5.371865,"is_reserved":false,"is_disabled":false,"rental_uris":{"android":"levelo://app?vid=3f182bb8-ea9f-4acc-867a-a8a4c8f085ea","ios":"levelo://app?vid=3f182bb8-ea9f-4acc-867a-a8a4c8f085ea"},"vehicle_type_id":"4","last_reported":1719335270,"current_range_meters":28800,"station_id":"ce4bgh92rcd13ifvqb40","pricing_plan_id":"cebpf4jnsgd1na2vs0mg"},{"bike_id":"7a63a2fd-0c73-4297-91ba-971fcf317c01","system_id":"levelo_inurba_marseille","lat":43.2931,"lon":5.37176,"is_reserved":false,"is_disabled":false,"rental_uris":{"android":"levelo://app?vid=7a63a2fd-0c73-4297-91ba-971fcf317c01","ios":"levelo://app?vid=7a63a2fd-0c73-4297-91ba-971fcf317c01"},"vehicle_type_id":"4","last_reported":1719335270,"current_range_meters":2000,"station_id":"ce4bgh92rcd13ifvqb40","pricing_plan_id":"cebpf4jnsgd1na2vs0mg"},{"bike_id":"38ee518c-d3f1-4947-a586-4730100858a1","system_id":"levelo_inurba_marseille","lat":43.293109,"lon":5.371835,"is_reserved":false,"is_disabled":false,"rental_uris":{"android":"levelo://app?vid=38ee518c-d3f1-4947-a586-4730100858a1","ios":"levelo://app?vid=38ee518c-d3f1-4947-a586-4730100858a1"},"vehicle_type_id":"4","last_reported":1719335270,"current_range_meters":1600,"station_id":"ce4bgh92rcd13ifvqb40","pricing_plan_id":"cebpf4jnsgd1na2vs0mg"},{"bike_id":"318fdeca-6e81-44e2-b277-36047dee8fd7","system_id":"levelo_inurba_marseille","lat":43.29307,"lon":5.3716,"is_reserved":false,"is_disabled":false,"rental_uris":{"android":"levelo://app?vid=318fdeca-6e81-44e2-b277-36047dee8fd7","ios":"levelo://app?vid=318fdeca-6e81-44e2-b277-36047dee8fd7"},"vehicle_type_id":"4","last_reported":1719335270,"current_range_meters":4800,"station_id":"ce4bgih2rcd13ifvqba0","pricing_plan_id":"cebpf4jnsgd1na2vs0mg"},{"bike_id":"3a9b18e6-e0c7-4213-9715-cdff671787c8","system_id":"levelo_inurba_marseille","lat":43.2931,"lon":5.37185,"is_reserved":false,"is_disabled":false,"rental_uris":{"android":"levelo://app?vid=3a9b18e6-e0c7-4213-9715-cdff671787c8","ios":"levelo://app?vid=3a9b18e6-e0c7-4213-9715-cdff671787c8"},"vehicle_type_id":"4","last_reported":1719335270,"current_range_meters":16800,"station_id":"ce4bgh92rcd13ifvqb40","pricing_plan_id":"cebpf4jnsgd1na2vs0mg"},{"bike_id":"6d4b1fc4-5225-43ac-85b6-5ded52324338","system_id":"levelo_inurba_marseille","lat":43.293249,"lon":5.371578,"is_reserved":false,"is_disabled":false,"rental_uris":{"android":"levelo://app?vid=6d4b1fc4-5225-43ac-85b6-5ded52324338","ios":"levelo://app?vid=6d4b1fc4-5225-43ac-85b6-5ded52324338"},"vehicle_type_id":"4","last_reported":1719335270,"current_range_meters":22000,"station_id":"ce4bgh92rcd13ifvqb40","pricing_plan_id":"cebpf4jnsgd1na2vs0mg"},{"bike_id":"ed20c01e-c8a8-4a1d-8d0a-6d4535bf810c","system_id":"levelo_inurba_marseille","lat":43.29304,"lon":5.37152,"is_reserved":false,"is_disabled":false,"rental_uris":{"android":"levelo://app?vid=ed20c01e-c8a8-4a1d-8d0a-6d4535bf810c","ios":"levelo://app?vid=ed20c01e-c8a8-4a1d-8d0a-6d4535bf810c"},"vehicle_type_id":"4","last_reported":1719335270,"current_range_meters":2800,"station_id":"ce4bgh92rcd13ifvqb40","pricing_plan_id":"cebpf4jnsgd1na2vs0mg"},{"bike_id":"31789bd0-68c3-4ca7-87d5-ceec861b35a5","system_id":"levelo_inurba_marseille","lat":43.293259,"lon":5.371586,"is_reserved":false,"is_disabled":false,"rental_uris":{"android":"levelo://app?vid=31789bd0-68c3-4ca7-87d5-ceec861b35a5","ios":"levelo://app?vid=31789bd0-68c3-4ca7-87d5-ceec861b35a5"},"vehicle_type_id":"4","last_reported":1719335270,"current_range_meters":12400,"station_id":"ce4bgh92rcd13ifvqb40","pricing_plan_id":"cebpf4jnsgd1na2vs0mg"},{"bike_id":"b4073512-cd45-4ec5-9b44-e70e5b2f4c2b","system_id":"levelo_inurba_marseille","lat":43.293249,"lon":5.371578,"is_reserved":false,"is_disabled":false,"rental_uris":{"android":"levelo://app?vid=b4073512-cd45-4ec5-9b44-e70e5b2f4c2b","ios":"levelo://app?vid=b4073512-cd45-4ec5-9b44-e70e5b2f4c2b"},"vehicle_type_id":"4","last_reported":1719335270,"current_range_meters":10000,"station_id":"ce4bgh92rcd13ifvqb40","pricing_plan_id":"cebpf4jnsgd1na2vs0mg"},{"bike_id":"612100e0-4cb0-41ef-90ce-cc27b4daec48","system_id":"levelo_inurba_marseille","lat":43.293249,"lon":5.371578,"is_reserved":false,"is_disabled":false,"rental_uris":{"android":"levelo://app?vid=612100e0-4cb0-41ef-90ce-cc27b4daec48","ios":"levelo://app?vid=612100e0-4cb0-41ef-90ce-cc27b4daec48"},"vehicle_type_id":"4","last_reported":1719335270,"current_range_meters":25200,"station_id":"ce4bgh92rcd13ifvqb40","pricing_plan_id":"cebpf4jnsgd1na2vs0mg"},{"bike_id":"e7f61fe7-0721-4dec-b546-fa6125850421","system_id":"levelo_inurba_marseille","lat":43.292749,"lon":5.368402,"is_reserved":false,"is_disabled":false,"rental_uris":{"android":"levelo://app?vid=e7f61fe7-0721-4dec-b546-fa6125850421","ios":"levelo://app?vid=e7f61fe7-0721-4dec-b546-fa6125850421"},"vehicle_type_id":"4","last_reported":1719335270,"current_range_meters":2400,"station_id":"ce4bhbp2rcd13ifvqesg","pricing_plan_id":"cebpf4jnsgd1na2vs0mg"},{"bike_id":"eaa15253-4bd9-4409-8dbc-024122ddb652","system_id":"levelo_inurba_marseille","lat":43.29301,"lon":5.37149,"is_reserved":false,"is_disabled":false,"rental_uris":{"android":"levelo://app?vid=eaa15253-4bd9-4409-8dbc-024122ddb652","ios":"levelo://app?vid=eaa15253-4bd9-4409-8dbc-024122ddb652"},"vehicle_type_id":"4","last_reported":1719335270,"current_range_meters":4000,"station_id":"ce4bgh92rcd13ifvqb40","pricing_plan_id":"cebpf4jnsgd1na2vs0mg"},{"bike_id":"0b42fee5-1022-46bb-bcdc-a5b3fbc07c4e","system_id":"levelo_inurba_marseille","lat":43.29276,"lon":5.36839,"is_reserved":false,"is_disabled":false,"rental_uris":{"android":"levelo://app?vid=0b42fee5-1022-46bb-bcdc-a5b3fbc07c4e","ios":"levelo://app?vid=0b42fee5-1022-46bb-bcdc-a5b3fbc07c4e"},"vehicle_type_id":"4","last_reported":1719335270,"current_range_meters":1600,"station_id":"ce4bhbp2rcd13ifvqesg","pricing_plan_id":"cebpf4jnsgd1na2vs0mg"},{"bike_id":"2c693a0e-3b78-41d5-be1b-f526caeb3797","system_id":"levelo_inurba_marseille","lat":43.29274,"lon":5.36839,"is_reserved":false,"is_disabled":false,"rental_uris":{"android":"levelo://app?vid=2c693a0e-3b78-41d5-be1b-f526caeb3797","ios":"levelo://app?vid=2c693a0e-3b78-41d5-be1b-f526caeb3797"},"vehicle_type_id":"4","last_reported":1719335270,"current_range_meters":18000,"station_id":"ce4bhbp2rcd13ifvqesg","pricing_plan_id":"cebpf4jnsgd1na2vs0mg"},{"bike_id":"9711b6ae-b55d-4edc-b6f3-aa90e3efdda0","system_id":"levelo_inurba_marseille","lat":43.292749,"lon":5.368402,"is_reserved":false,"is_disabled":false,"rental_uris":{"android":"levelo://app?vid=9711b6ae-b55d-4edc-b6f3-aa90e3efdda0","ios":"levelo://app?vid=9711b6ae-b55d-4edc-b6f3-aa90e3efdda0"},"vehicle_type_id":"4","last_reported":1719335270,"current_range_meters":4800,"station_id":"ce4bhbp2rcd13ifvqesg","pricing_plan_id":"cebpf4jnsgd1na2vs0mg"},{"bike_id":"347c2272-6fa0-4bb0-ab7c-17bb4922dfc7","system_id":"levelo_inurba_marseille","lat":43.29272,"lon":5.36843,"is_reserved":false,"is_disabled":false,"rental_uris":{"android":"levelo://app?vid=347c2272-6fa0-4bb0-ab7c-17bb4922dfc7","ios":"levelo://app?vid=347c2272-6fa0-4bb0-ab7c-17bb4922dfc7"},"vehicle_type_id":"4","last_reported":1719335270,"current_range_meters":24800,"station_id":"ce4bhbp2rcd13ifvqesg","pricing_plan_id":"cebpf4jnsgd1na2vs0mg"},{"bike_id":"5b4a08b7-faa5-4ee9-bd7c-3a1c758c865b","system_id":"levelo_inurba_marseille","lat":43.292749,"lon":5.368402,"is_reserved":false,"is_disabled":false,"rental_uris":{"android":"levelo://app?vid=5b4a08b7-faa5-4ee9-bd7c-3a1c758c865b","ios":"levelo://app?vid=5b4a08b7-faa5-4ee9-bd7c-3a1c758c865b"},"vehicle_type_id":"4","last_reported":1719335270,"current_range_meters":16800,"station_id":"ce4bhbp2rcd13ifvqesg","pricing_plan_id":"cebpf4jnsgd1na2vs0mg"},{"bike_id":"0a841434-6333-48f1-94ed-3a6616a797f6","system_id":"levelo_inurba_marseille","lat":43.29271,"lon":5.36842,"is_reserved":false,"is_disabled":false,"rental_uris":{"android":"levelo://app?vid=0a841434-6333-48f1-94ed-3a6616a797f6","ios":"levelo://app?vid=0a841434-6333-48f1-94ed-3a6616a797f6"},"vehicle_type_id":"4","last_reported":1719335270,"current_range_meters":0,"station_id":"ce4bhbp2rcd13ifvqesg","pricing_plan_id":"cebpf4jnsgd1na2vs0mg"},{"bike_id":"72b1f23d-c4a6-4c76-b12f-0b58b200fc89","system_id":"levelo_inurba_marseille","lat":43.292749,"lon":5.368402,"is_reserved":false,"is_disabled":false,"rental_uris":{"android":"levelo://app?vid=72b1f23d-c4a6-4c76-b12f-0b58b200fc89","ios":"levelo://app?vid=72b1f23d-c4a6-4c76-b12f-0b58b200fc89"},"vehicle_type_id":"4","last_reported":1719335270,"current_range_meters":3200,"station_id":"ce4bhbp2rcd13ifvqesg","pricing_plan_id":"cebpf4jnsgd1na2vs0mg"},{"bike_id":"43adee73-7b0a-4848-87bd-63ec9b8880da","system_id":"levelo_inurba_marseille","lat":43.292749,"lon":5.368402,"is_reserved":false,"is_disabled":false,"rental_uris":{"android":"levelo://app?vid=43adee73-7b0a-4848-87bd-63ec9b8880da","ios":"levelo://app?vid=43adee73-7b0a-4848-87bd-63ec9b8880da"},"vehicle_type_id":"4","last_reported":1719335270,"current_range_meters":25200,"station_id":"ce4bhbp2rcd13ifvqesg","pricing_plan_id":"cebpf4jnsgd1na2vs0mg"},{"bike_id":"44eb21c0-39b0-48eb-a874-9260c2d4bc5e","system_id":"levelo_inurba_marseille","lat":43.2927,"lon":5.36842,"is_reserved":false,"is_disabled":false,"rental_uris":{"android":"levelo://app?vid=44eb21c0-39b0-48eb-a874-9260c2d4bc5e","ios":"levelo://app?vid=44eb21c0-39b0-48eb-a874-9260c2d4bc5e"},"vehicle_type_id":"4","last_reported":1719335270,"current_range_meters":8000,"station_id":"ce4bhbp2rcd13ifvqesg","pricing_plan_id":"cebpf4jnsgd1na2vs0mg"},{"bike_id":"e2688362-5149-4c53-865d-b5b3757442e4","system_id":"levelo_inurba_marseille","lat":43.292749,"lon":5.368402,"is_reserved":false,"is_disabled":false,"rental_uris":{"android":"levelo://app?vid=e2688362-5149-4c53-865d-b5b3757442e4","ios":"levelo://app?vid=e2688362-5149-4c53-865d-b5b3757442e4"},"vehicle_type_id":"4","last_reported":1719335270,"current_range_meters":0,"station_id":"ce4bhbp2rcd13ifvqesg","pricing_plan_id":"cebpf4jnsgd1na2vs0mg"},{"bike_id":"89be225e-a143-4203-a492-0736ddcf74db","system_id":"levelo_inurba_marseille","lat":43.292749,"lon":5.368402,"is_reserved":false,"is_disabled":false,"rental_uris":{"android":"levelo://app?vid=89be225e-a143-4203-a492-0736ddcf74db","ios":"levelo://app?vid=89be225e-a143-4203-a492-0736ddcf74db"},"vehicle_type_id":"4","last_reported":1719335270,"current_range_meters":12000,"station_id":"ce4bhbp2rcd13ifvqesg","pricing_plan_id":"cebpf4jnsgd1na2vs0mg"},{"bike_id":"ebf4e844-2240-41d8-be09-add8c6b1e6df","system_id":"levelo_inurba_marseille","lat":43.29309,"lon":5.37426,"is_reserved":false,"is_disabled":false,"rental_uris":{"android":"levelo://app?vid=ebf4e844-2240-41d8-be09-add8c6b1e6df","ios":"levelo://app?vid=ebf4e844-2240-41d8-be09-add8c6b1e6df"},"vehicle_type_id":"4","last_reported":1719335270,"current_range_meters":0,"station_id":"ce4bgi12rcd13ifvqb70","pricing_plan_id":"cebpf4jnsgd1na2vs0mg"},{"bike_id":"5ebbf846-6e83-49b1-816c-1dd3f3325d09","system_id":"levelo_inurba_marseille","lat":43.293009,"lon":5.374584,"is_reserved":false,"is_disabled":false,"rental_uris":{"android":"levelo://app?vid=5ebbf846-6e83-49b1-816c-1dd3f3325d09","ios":"levelo://app?vid=5ebbf846-6e83-49b1-816c-1dd3f3325d09"},"vehicle_type_id":"4","last_reported":1719335270,"current_range_meters":0,"station_id":"ce4bgi12rcd13ifvqb70","pricing_plan_id":"cebpf4jnsgd1na2vs0mg"},{"bike_id":"21a4c8cc-63ab-436e-9a6e-a8c0deaf8457","system_id":"levelo_inurba_marseille","lat":43.293043,"lon":5.37455,"is_reserved":false,"is_disabled":false,"rental_uris":{"android":"levelo://app?vid=21a4c8cc-63ab-436e-9a6e-a8c0deaf8457","ios":"levelo://app?vid=21a4c8cc-63ab-436e-9a6e-a8c0deaf8457"},"vehicle_type_id":"4","last_reported":1719335270,"current_range_meters":0,"station_id":"ce4bgi12rcd13ifvqb70","pricing_plan_id":"cebpf4jnsgd1na2vs0mg"},{"bike_id":"f98b2fe5-9d0c-431e-b37a-fa0a7b1f8fd8","system_id":"levelo_inurba_marseille","lat":43.293009,"lon":5.374584,"is_reserved":false,"is_disabled":false,"rental_uris":{"android":"levelo://app?vid=f98b2fe5-9d0c-431e-b37a-fa0a7b1f8fd8","ios":"levelo://app?vid=f98b2fe5-9d0c-431e-b37a-fa0a7b1f8fd8"},"vehicle_type_id":"4","last_reported":1719335270,"current_range_meters":18000,"station_id":"ce4bgi12rcd13ifvqb70","pricing_plan_id":"cebpf4jnsgd1na2vs0mg"},{"bike_id":"f1ab1fa4-3986-44bc-af10-2f0f58c91ec5","system_id":"levelo_inurba_marseille","lat":43.303031,"lon":5.392063,"is_reserved":false,"is_disabled":false,"rental_uris":{"android":"levelo://app?vid=f1ab1fa4-3986-44bc-af10-2f0f58c91ec5","ios":"levelo://app?vid=f1ab1fa4-3986-44bc-af10-2f0f58c91ec5"},"vehicle_type_id":"4","last_reported":1719335270,"current_range_meters":18800,"station_id":"","pricing_plan_id":"cebpf4jnsgd1na2vs0mg"},{"bike_id":"d4ae9392-ae71-469c-8bcd-956b5bcbba9d","system_id":"levelo_inurba_marseille","lat":43.302992,"lon":5.392136,"is_reserved":false,"is_disabled":false,"rental_uris":{"android":"levelo://app?vid=d4ae9392-ae71-469c-8bcd-956b5bcbba9d","ios":"levelo://app?vid=d4ae9392-ae71-469c-8bcd-956b5bcbba9d"},"vehicle_type_id":"4","last_reported":1719335270,"current_range_meters":27200,"station_id":"ce4bgkh2rcd13ifvqbk0","pricing_plan_id":"cebpf4jnsgd1na2vs0mg"},{"bike_id":"225c77de-c18d-4b5e-bfd5-864436125b2c","system_id":"levelo_inurba_marseille","lat":43.302992,"lon":5.392136,"is_reserved":false,"is_disabled":false,"rental_uris":{"android":"levelo://app?vid=225c77de-c18d-4b5e-bfd5-864436125b2c","ios":"levelo://app?vid=225c77de-c18d-4b5e-bfd5-864436125b2c"},"vehicle_type_id":"4","last_reported":1719335270,"current_range_meters":24000,"station_id":"ce4bgkh2rcd13ifvqbk0","pricing_plan_id":"cebpf4jnsgd1na2vs0mg"},{"bike_id":"ad58b7b7-aa08-4bbc-8b88-ae54cc9f2448","system_id":"levelo_inurba_marseille","lat":43.292311,"lon":5.360731,"is_reserved":false,"is_disabled":false,"rental_uris":{"android":"levelo://app?vid=ad58b7b7-aa08-4bbc-8b88-ae54cc9f2448","ios":"levelo://app?vid=ad58b7b7-aa08-4bbc-8b88-ae54cc9f2448"},"vehicle_type_id":"4","last_reported":1719335270,"current_range_meters":29600,"station_id":"ce4bhbh2rcd13ifvqeqg","pricing_plan_id":"cebpf4jnsgd1na2vs0mg"},{"bike_id":"7cbaa0fe-daaf-4bc0-b385-f0ca8411b44d","system_id":"levelo_inurba_marseille","lat":43.303002,"lon":5.392142,"is_reserved":false,"is_disabled":false,"rental_uris":{"android":"levelo://app?vid=7cbaa0fe-daaf-4bc0-b385-f0ca8411b44d","ios":"levelo://app?vid=7cbaa0fe-daaf-4bc0-b385-f0ca8411b44d"},"vehicle_type_id":"4","last_reported":1719335270,"current_range_meters":26000,"station_id":"ce4bgkh2rcd13ifvqbk0","pricing_plan_id":"cebpf4jnsgd1na2vs0mg"},{"bike_id":"56ef7f85-44b7-46dc-8aff-85bdd4a2a574","system_id":"levelo_inurba_marseille","lat":43.292311,"lon":5.360701,"is_reserved":false,"is_disabled":false,"rental_uris":{"android":"levelo://app?vid=56ef7f85-44b7-46dc-8aff-85bdd4a2a574","ios":"levelo://app?vid=56ef7f85-44b7-46dc-8aff-85bdd4a2a574"},"vehicle_type_id":"4","last_reported":1719335270,"current_range_meters":0,"station_id":"ce4bhbh2rcd13ifvqeqg","pricing_plan_id":"cebpf4jnsgd1na2vs0mg"},{"bike_id":"887c3af2-e956-4c4d-a0bd-0fe99c86c851","system_id":"levelo_inurba_marseille","lat":43.30085,"lon":5.390856,"is_reserved":false,"is_disabled":false,"rental_uris":{"android":"levelo://app?vid=887c3af2-e956-4c4d-a0bd-0fe99c86c851","ios":"levelo://app?vid=887c3af2-e956-4c4d-a0bd-0fe99c86c851"},"vehicle_type_id":"4","last_reported":1719335270,"current_range_meters":1200,"station_id":"ce4bh192rcd13ifvqdb0","pricing_plan_id":"cebpf4jnsgd1na2vs0mg"},{"bike_id":"93367a1a-c0ef-4897-9f68-e63334eb3eea","system_id":"levelo_inurba_marseille","lat":43.292311,"lon":5.360731,"is_reserved":false,"is_disabled":false,"rental_uris":{"android":"levelo://app?vid=93367a1a-c0ef-4897-9f68-e63334eb3eea","ios":"levelo://app?vid=93367a1a-c0ef-4897-9f68-e63334eb3eea"},"vehicle_type_id":"4","last_reported":1719335270,"current_range_meters":3200,"station_id":"ce4bhbh2rcd13ifvqeqg","pricing_plan_id":"cebpf4jnsgd1na2vs0mg"},{"bike_id":"18626853-63cc-4a56-ac17-b2b74b79acd5","system_id":"levelo_inurba_marseille","lat":43.300852,"lon":5.390859,"is_reserved":false,"is_disabled":false,"rental_uris":{"android":"levelo://app?vid=18626853-63cc-4a56-ac17-b2b74b79acd5","ios":"levelo://app?vid=18626853-63cc-4a56-ac17-b2b74b79acd5"},"vehicle_type_id":"4","last_reported":1719335270,"current_range_meters":14800,"station_id":"ce4bh192rcd13ifvqdb0","pricing_plan_id":"cebpf4jnsgd1na2vs0mg"},{"bike_id":"965be992-3b32-44bc-b0a7-9eccc1d1eaf2","system_id":"levelo_inurba_marseille","lat":43.30085,"lon":5.390856,"is_reserved":false,"is_disabled":false,"rental_uris":{"android":"levelo://app?vid=965be992-3b32-44bc-b0a7-9eccc1d1eaf2","ios":"levelo://app?vid=965be992-3b32-44bc-b0a7-9eccc1d1eaf2"},"vehicle_type_id":"4","last_reported":1719335270,"current_range_meters":30000,"station_id":"ce4bh192rcd13ifvqdb0","pricing_plan_id":"cebpf4jnsgd1na2vs0mg"},{"bike_id":"ba2b0e9b-fe23-4b84-a574-986f4e60cdde","system_id":"levelo_inurba_marseille","lat":43.298764,"lon":5.388973,"is_reserved":false,"is_disabled":false,"rental_uris":{"android":"levelo://app?vid=ba2b0e9b-fe23-4b84-a574-986f4e60cdde","ios":"levelo://app?vid=ba2b0e9b-fe23-4b84-a574-986f4e60cdde"},"vehicle_type_id":"4","last_reported":1719335270,"current_range_meters":19200,"station_id":"ce4bh392rcd13ifvqdl0","pricing_plan_id":"cebpf4jnsgd1na2vs0mg"},{"bike_id":"5416667e-bcaa-42c5-aeb2-bc9b92192ce0","system_id":"levelo_inurba_marseille","lat":43.29256,"lon":5.37631,"is_reserved":false,"is_disabled":false,"rental_uris":{"android":"levelo://app?vid=5416667e-bcaa-42c5-aeb2-bc9b92192ce0","ios":"levelo://app?vid=5416667e-bcaa-42c5-aeb2-bc9b92192ce0"},"vehicle_type_id":"4","last_reported":1719335270,"current_range_meters":21200,"station_id":"","pricing_plan_id":"cebpf4jnsgd1na2vs0mg"},{"bike_id":"8ed34262-22a7-4f1a-96b3-66cf8f0810be","system_id":"levelo_inurba_marseille","lat":43.304296,"lon":5.397513,"is_reserved":false,"is_disabled":false,"rental_uris":{"android":"levelo://app?vid=8ed34262-22a7-4f1a-96b3-66cf8f0810be","ios":"levelo://app?vid=8ed34262-22a7-4f1a-96b3-66cf8f0810be"},"vehicle_type_id":"4","last_reported":1719335270,"current_range_meters":3600,"station_id":"ce4bh092rcd13ifvqd20","pricing_plan_id":"cebpf4jnsgd1na2vs0mg"},{"bike_id":"d58c5196-88aa-44ff-a8cf-88812aea0c50","system_id":"levelo_inurba_marseille","lat":43.298764,"lon":5.388973,"is_reserved":false,"is_disabled":false,"rental_uris":{"android":"levelo://app?vid=d58c5196-88aa-44ff-a8cf-88812aea0c50","ios":"levelo://app?vid=d58c5196-88aa-44ff-a8cf-88812aea0c50"},"vehicle_type_id":"4","last_reported":1719335270,"current_range_meters":31600,"station_id":"ce4bh392rcd13ifvqdl0","pricing_plan_id":"cebpf4jnsgd1na2vs0mg"},{"bike_id":"8272fca7-fb3b-495b-8051-3c250d1e80f4","system_id":"levelo_inurba_marseille","lat":43.29869,"lon":5.38907,"is_reserved":false,"is_disabled":false,"rental_uris":{"android":"levelo://app?vid=8272fca7-fb3b-495b-8051-3c250d1e80f4","ios":"levelo://app?vid=8272fca7-fb3b-495b-8051-3c250d1e80f4"},"vehicle_type_id":"4","last_reported":1719335270,"current_range_meters":13600,"station_id":"ce4bh392rcd13ifvqdl0","pricing_plan_id":"cebpf4jnsgd1na2vs0mg"},{"bike_id":"c359594d-fee5-4804-82b5-876303351cad","system_id":"levelo_inurba_marseille","lat":43.298764,"lon":5.388973,"is_reserved":false,"is_disabled":false,"rental_uris":{"android":"levelo://app?vid=c359594d-fee5-4804-82b5-876303351cad","ios":"levelo://app?vid=c359594d-fee5-4804-82b5-876303351cad"},"vehicle_type_id":"4","last_reported":1719335270,"current_range_meters":31200,"station_id":"ce4bh392rcd13ifvqdl0","pricing_plan_id":"cebpf4jnsgd1na2vs0mg"},{"bike_id":"51ff91f6-46f2-4005-86df-7a31b0539922","system_id":"levelo_inurba_marseille","lat":43.29871,"lon":5.38918,"is_reserved":false,"is_disabled":false,"rental_uris":{"android":"levelo://app?vid=51ff91f6-46f2-4005-86df-7a31b0539922","ios":"levelo://app?vid=51ff91f6-46f2-4005-86df-7a31b0539922"},"vehicle_type_id":"4","last_reported":1719335270,"current_range_meters":31200,"station_id":"ce4bh392rcd13ifvqdl0","pricing_plan_id":"cebpf4jnsgd1na2vs0mg"},{"bike_id":"90fe6108-9442-477c-b77f-4bfb71fd0e11","system_id":"levelo_inurba_marseille","lat":43.313291,"lon":5.396838,"is_reserved":false,"is_disabled":false,"rental_uris":{"android":"levelo://app?vid=90fe6108-9442-477c-b77f-4bfb71fd0e11","ios":"levelo://app?vid=90fe6108-9442-477c-b77f-4bfb71fd0e11"},"vehicle_type_id":"4","last_reported":1719335270,"current_range_meters":10800,"station_id":"ce4bgvp2rcd13ifvqcu0","pricing_plan_id":"cebpf4jnsgd1na2vs0mg"},{"bike_id":"241d268b-390f-4307-bd2b-78328d230fc4","system_id":"levelo_inurba_marseille","lat":43.313291,"lon":5.396838,"is_reserved":false,"is_disabled":false,"rental_uris":{"android":"levelo://app?vid=241d268b-390f-4307-bd2b-78328d230fc4","ios":"levelo://app?vid=241d268b-390f-4307-bd2b-78328d230fc4"},"vehicle_type_id":"4","last_reported":1719335270,"current_range_meters":8800,"station_id":"ce4bgvp2rcd13ifvqcu0","pricing_plan_id":"cebpf4jnsgd1na2vs0mg"},{"bike_id":"87751a89-17e1-4658-ab05-da7e2b72efe1","system_id":"levelo_inurba_marseille","lat":43.309047,"lon":5.396551,"is_reserved":false,"is_disabled":false,"rental_uris":{"android":"levelo://app?vid=87751a89-17e1-4658-ab05-da7e2b72efe1","ios":"levelo://app?vid=87751a89-17e1-4658-ab05-da7e2b72efe1"},"vehicle_type_id":"4","last_reported":1719335270,"current_range_meters":22000,"station_id":"ce4bh012rcd13ifvqcv0","pricing_plan_id":"cebpf4jnsgd1na2vs0mg"},{"bike_id":"0f6d3c4c-be61-42d0-9ab7-ad6084829b7a","system_id":"levelo_inurba_marseille","lat":43.291837,"lon":5.3581,"is_reserved":false,"is_disabled":false,"rental_uris":{"android":"levelo://app?vid=0f6d3c4c-be61-42d0-9ab7-ad6084829b7a","ios":"levelo://app?vid=0f6d3c4c-be61-42d0-9ab7-ad6084829b7a"},"vehicle_type_id":"4","last_reported":1719335270,"current_range_meters":0,"station_id":"ce4bhb12rcd13ifvqel0","pricing_plan_id":"cebpf4jnsgd1na2vs0mg"},{"bike_id":"70d31664-56a8-4a46-be08-cc9bf231f226","system_id":"levelo_inurba_marseille","lat":43.309038,"lon":5.396546,"is_reserved":false,"is_disabled":false,"rental_uris":{"android":"levelo://app?vid=70d31664-56a8-4a46-be08-cc9bf231f226","ios":"levelo://app?vid=70d31664-56a8-4a46-be08-cc9bf231f226"},"vehicle_type_id":"4","last_reported":1719335270,"current_range_meters":12000,"station_id":"ce4bh012rcd13ifvqcv0","pricing_plan_id":"cebpf4jnsgd1na2vs0mg"},{"bike_id":"bd22e9be-049d-434e-a78b-928ab91d522f","system_id":"levelo_inurba_marseille","lat":43.309038,"lon":5.396546,"is_reserved":false,"is_disabled":false,"rental_uris":{"android":"levelo://app?vid=bd22e9be-049d-434e-a78b-928ab91d522f","ios":"levelo://app?vid=bd22e9be-049d-434e-a78b-928ab91d522f"},"vehicle_type_id":"4","last_reported":1719335270,"current_range_meters":15600,"station_id":"ce4bh012rcd13ifvqcv0","pricing_plan_id":"cebpf4jnsgd1na2vs0mg"},{"bike_id":"92939fce-a7b5-4c92-98c6-deafd4b42e62","system_id":"levelo_inurba_marseille","lat":43.29529,"lon":5.385581,"is_reserved":false,"is_disabled":false,"rental_uris":{"android":"levelo://app?vid=92939fce-a7b5-4c92-98c6-deafd4b42e62","ios":"levelo://app?vid=92939fce-a7b5-4c92-98c6-deafd4b42e62"},"vehicle_type_id":"4","last_reported":1719335270,"current_range_meters":28800,"station_id":"ce4bgih2rcd13ifvqba0","pricing_plan_id":"cebpf4jnsgd1na2vs0mg"},{"bike_id":"66a7ddac-f2b8-42c2-9e46-d677cc443f38","system_id":"levelo_inurba_marseille","lat":43.29534,"lon":5.38537,"is_reserved":false,"is_disabled":false,"rental_uris":{"android":"levelo://app?vid=66a7ddac-f2b8-42c2-9e46-d677cc443f38","ios":"levelo://app?vid=66a7ddac-f2b8-42c2-9e46-d677cc443f38"},"vehicle_type_id":"4","last_reported":1719335270,"current_range_meters":31200,"station_id":"ce4bgih2rcd13ifvqba0","pricing_plan_id":"cebpf4jnsgd1na2vs0mg"},{"bike_id":"189c28d2-0371-466b-90b3-55402406c0cc","system_id":"levelo_inurba_marseille","lat":43.309038,"lon":5.396546,"is_reserved":false,"is_disabled":false,"rental_uris":{"android":"levelo://app?vid=189c28d2-0371-466b-90b3-55402406c0cc","ios":"levelo://app?vid=189c28d2-0371-466b-90b3-55402406c0cc"},"vehicle_type_id":"4","last_reported":1719335270,"current_range_meters":5200,"station_id":"ce4bh012rcd13ifvqcv0","pricing_plan_id":"cebpf4jnsgd1na2vs0mg"},{"bike_id":"c0f2d5b3-00f8-4b9d-996d-101284100f30","system_id":"levelo_inurba_marseille","lat":43.29529,"lon":5.385581,"is_reserved":false,"is_disabled":false,"rental_uris":{"android":"levelo://app?vid=c0f2d5b3-00f8-4b9d-996d-101284100f30","ios":"levelo://app?vid=c0f2d5b3-00f8-4b9d-996d-101284100f30"},"vehicle_type_id":"4","last_reported":1719335270,"current_range_meters":26400,"station_id":"ce4bgih2rcd13ifvqba0","pricing_plan_id":"cebpf4jnsgd1na2vs0mg"},{"bike_id":"9285a4ec-1987-40c1-86c3-c9d733d9d421","system_id":"levelo_inurba_marseille","lat":43.29529,"lon":5.385581,"is_reserved":false,"is_disabled":false,"rental_uris":{"android":"levelo://app?vid=9285a4ec-1987-40c1-86c3-c9d733d9d421","ios":"levelo://app?vid=9285a4ec-1987-40c1-86c3-c9d733d9d421"},"vehicle_type_id":"4","last_reported":1719335270,"current_range_meters":18000,"station_id":"ce4bgih2rcd13ifvqba0","pricing_plan_id":"cebpf4jnsgd1na2vs0mg"},{"bike_id":"f9b3c938-c746-43e7-a948-58772d8b8296","system_id":"levelo_inurba_marseille","lat":43.29533,"lon":5.385425,"is_reserved":false,"is_disabled":false,"rental_uris":{"android":"levelo://app?vid=f9b3c938-c746-43e7-a948-58772d8b8296","ios":"levelo://app?vid=f9b3c938-c746-43e7-a948-58772d8b8296"},"vehicle_type_id":"4","last_reported":1719335270,"current_range_meters":31200,"station_id":"ce4bgih2rcd13ifvqba0","pricing_plan_id":"cebpf4jnsgd1na2vs0mg"},{"bike_id":"e9db8057-4510-44e8-9340-b5c2ab2cbf39","system_id":"levelo_inurba_marseille","lat":43.29529,"lon":5.385581,"is_reserved":false,"is_disabled":false,"rental_uris":{"android":"levelo://app?vid=e9db8057-4510-44e8-9340-b5c2ab2cbf39","ios":"levelo://app?vid=e9db8057-4510-44e8-9340-b5c2ab2cbf39"},"vehicle_type_id":"4","last_reported":1719335270,"current_range_meters":16800,"station_id":"ce4bgih2rcd13ifvqba0","pricing_plan_id":"cebpf4jnsgd1na2vs0mg"},{"bike_id":"15b33863-490c-4dea-84fb-4dd09cdc0584","system_id":"levelo_inurba_marseille","lat":43.29529,"lon":5.385581,"is_reserved":false,"is_disabled":false,"rental_uris":{"android":"levelo://app?vid=15b33863-490c-4dea-84fb-4dd09cdc0584","ios":"levelo://app?vid=15b33863-490c-4dea-84fb-4dd09cdc0584"},"vehicle_type_id":"4","last_reported":1719335270,"current_range_meters":30400,"station_id":"ce4bgih2rcd13ifvqba0","pricing_plan_id":"cebpf4jnsgd1na2vs0mg"},{"bike_id":"7bc5c628-29e7-4abb-8cb6-d7e6b19cb410","system_id":"levelo_inurba_marseille","lat":43.29529,"lon":5.385581,"is_reserved":false,"is_disabled":false,"rental_uris":{"android":"levelo://app?vid=7bc5c628-29e7-4abb-8cb6-d7e6b19cb410","ios":"levelo://app?vid=7bc5c628-29e7-4abb-8cb6-d7e6b19cb410"},"vehicle_type_id":"4","last_reported":1719335270,"current_range_meters":31200,"station_id":"ce4bgih2rcd13ifvqba0","pricing_plan_id":"cebpf4jnsgd1na2vs0mg"},{"bike_id":"fe5506d5-e109-481c-8140-5300819c5b34","system_id":"levelo_inurba_marseille","lat":43.29531,"lon":5.38544,"is_reserved":false,"is_disabled":false,"rental_uris":{"android":"levelo://app?vid=fe5506d5-e109-481c-8140-5300819c5b34","ios":"levelo://app?vid=fe5506d5-e109-481c-8140-5300819c5b34"},"vehicle_type_id":"4","last_reported":1719335270,"current_range_meters":18400,"station_id":"ce4bgih2rcd13ifvqba0","pricing_plan_id":"cebpf4jnsgd1na2vs0mg"},{"bike_id":"b940ba27-a643-4609-8d00-d2e3b5708038","system_id":"levelo_inurba_marseille","lat":43.29529,"lon":5.385581,"is_reserved":false,"is_disabled":false,"rental_uris":{"android":"levelo://app?vid=b940ba27-a643-4609-8d00-d2e3b5708038","ios":"levelo://app?vid=b940ba27-a643-4609-8d00-d2e3b5708038"},"vehicle_type_id":"4","last_reported":1719335270,"current_range_meters":13600,"station_id":"ce4bgih2rcd13ifvqba0","pricing_plan_id":"cebpf4jnsgd1na2vs0mg"},{"bike_id":"99902c2b-5d72-42f3-965a-75b2ddb851db","system_id":"levelo_inurba_marseille","lat":43.29529,"lon":5.385581,"is_reserved":false,"is_disabled":false,"rental_uris":{"android":"levelo://app?vid=99902c2b-5d72-42f3-965a-75b2ddb851db","ios":"levelo://app?vid=99902c2b-5d72-42f3-965a-75b2ddb851db"},"vehicle_type_id":"4","last_reported":1719335270,"current_range_meters":31600,"station_id":"ce4bgih2rcd13ifvqba0","pricing_plan_id":"cebpf4jnsgd1na2vs0mg"},{"bike_id":"bad4bdd3-1b8e-4dab-ad3b-f38749c7838e","system_id":"levelo_inurba_marseille","lat":43.29529,"lon":5.385581,"is_reserved":false,"is_disabled":false,"rental_uris":{"android":"levelo://app?vid=bad4bdd3-1b8e-4dab-ad3b-f38749c7838e","ios":"levelo://app?vid=bad4bdd3-1b8e-4dab-ad3b-f38749c7838e"},"vehicle_type_id":"4","last_reported":1719335270,"current_range_meters":31600,"station_id":"ce4bgih2rcd13ifvqba0","pricing_plan_id":"cebpf4jnsgd1na2vs0mg"},{"bike_id":"17a733a8-259c-4c68-9548-616cb4da38d1","system_id":"levelo_inurba_marseille","lat":43.290779,"lon":5.371482,"is_reserved":false,"is_disabled":false,"rental_uris":{"android":"levelo://app?vid=17a733a8-259c-4c68-9548-616cb4da38d1","ios":"levelo://app?vid=17a733a8-259c-4c68-9548-616cb4da38d1"},"vehicle_type_id":"4","last_reported":1719335270,"current_range_meters":6400,"station_id":"ce4bh5p2rcd13ifvqe4g","pricing_plan_id":"cebpf4jnsgd1na2vs0mg"},{"bike_id":"f34346e4-ef7c-420a-af67-07668581a31a","system_id":"levelo_inurba_marseille","lat":43.313291,"lon":5.396838,"is_reserved":false,"is_disabled":false,"rental_uris":{"android":"levelo://app?vid=f34346e4-ef7c-420a-af67-07668581a31a","ios":"levelo://app?vid=f34346e4-ef7c-420a-af67-07668581a31a"},"vehicle_type_id":"4","last_reported":1719335270,"current_range_meters":0,"station_id":"ce4bgvp2rcd13ifvqcu0","pricing_plan_id":"cebpf4jnsgd1na2vs0mg"},{"bike_id":"0ba2677c-3de9-4a82-bd59-7de61211a799","system_id":"levelo_inurba_marseille","lat":43.290779,"lon":5.371482,"is_reserved":false,"is_disabled":false,"rental_uris":{"android":"levelo://app?vid=0ba2677c-3de9-4a82-bd59-7de61211a799","ios":"levelo://app?vid=0ba2677c-3de9-4a82-bd59-7de61211a799"},"vehicle_type_id":"4","last_reported":1719335270,"current_range_meters":0,"station_id":"ce4bh5p2rcd13ifvqe4g","pricing_plan_id":"cebpf4jnsgd1na2vs0mg"},{"bike_id":"beeb5bb1-4619-4949-991e-77a338d76948","system_id":"levelo_inurba_marseille","lat":43.290779,"lon":5.371482,"is_reserved":false,"is_disabled":false,"rental_uris":{"android":"levelo://app?vid=beeb5bb1-4619-4949-991e-77a338d76948","ios":"levelo://app?vid=beeb5bb1-4619-4949-991e-77a338d76948"},"vehicle_type_id":"4","last_reported":1719335270,"current_range_meters":2000,"station_id":"ce4bh5p2rcd13ifvqe4g","pricing_plan_id":"cebpf4jnsgd1na2vs0mg"},{"bike_id":"f7a0a288-d785-49f0-b8b3-73f00c842370","system_id":"levelo_inurba_marseille","lat":43.302008,"lon":5.394694,"is_reserved":false,"is_disabled":false,"rental_uris":{"android":"levelo://app?vid=f7a0a288-d785-49f0-b8b3-73f00c842370","ios":"levelo://app?vid=f7a0a288-d785-49f0-b8b3-73f00c842370"},"vehicle_type_id":"4","last_reported":1719335270,"current_range_meters":30000,"station_id":"ce4bh0p2rcd13ifvqd70","pricing_plan_id":"cebpf4jnsgd1na2vs0mg"},{"bike_id":"253804b5-a958-47c7-95f9-64f7c3bdcdc9","system_id":"levelo_inurba_marseille","lat":43.290319,"lon":5.375732,"is_reserved":false,"is_disabled":false,"rental_uris":{"android":"levelo://app?vid=253804b5-a958-47c7-95f9-64f7c3bdcdc9","ios":"levelo://app?vid=253804b5-a958-47c7-95f9-64f7c3bdcdc9"},"vehicle_type_id":"4","last_reported":1719335270,"current_range_meters":28000,"station_id":"ce4bh692rcd13ifvqe90","pricing_plan_id":"cebpf4jnsgd1na2vs0mg"},{"bike_id":"bb6c2d59-e899-4215-aebc-753337fc6d5e","system_id":"levelo_inurba_marseille","lat":43.330442,"lon":5.389148,"is_reserved":false,"is_disabled":false,"rental_uris":{"android":"levelo://app?vid=bb6c2d59-e899-4215-aebc-753337fc6d5e","ios":"levelo://app?vid=bb6c2d59-e899-4215-aebc-753337fc6d5e"},"vehicle_type_id":"4","last_reported":1719335270,"current_range_meters":20400,"station_id":"ce4bhr92rcd13ifvqhrg","pricing_plan_id":"cebpf4jnsgd1na2vs0mg"},{"bike_id":"a54b1f91-1609-45b9-b995-68769ecbf8e2","system_id":"levelo_inurba_marseille","lat":43.294153,"lon":5.386305,"is_reserved":false,"is_disabled":false,"rental_uris":{"android":"levelo://app?vid=a54b1f91-1609-45b9-b995-68769ecbf8e2","ios":"levelo://app?vid=a54b1f91-1609-45b9-b995-68769ecbf8e2"},"vehicle_type_id":"4","last_reported":1719335270,"current_range_meters":19200,"station_id":"ce4bh2h2rcd13ifvqdh0","pricing_plan_id":"cebpf4jnsgd1na2vs0mg"},{"bike_id":"6a3e6d9a-ec8c-4d1f-93a9-326de5461d30","system_id":"levelo_inurba_marseille","lat":43.29422,"lon":5.38621,"is_reserved":false,"is_disabled":false,"rental_uris":{"android":"levelo://app?vid=6a3e6d9a-ec8c-4d1f-93a9-326de5461d30","ios":"levelo://app?vid=6a3e6d9a-ec8c-4d1f-93a9-326de5461d30"},"vehicle_type_id":"4","last_reported":1719335270,"current_range_meters":18800,"station_id":"ce4bh2h2rcd13ifvqdh0","pricing_plan_id":"cebpf4jnsgd1na2vs0mg"},{"bike_id":"45503322-3f58-40a9-a02a-5349cb015185","system_id":"levelo_inurba_marseille","lat":43.29424,"lon":5.38628,"is_reserved":false,"is_disabled":false,"rental_uris":{"android":"levelo://app?vid=45503322-3f58-40a9-a02a-5349cb015185","ios":"levelo://app?vid=45503322-3f58-40a9-a02a-5349cb015185"},"vehicle_type_id":"4","last_reported":1719335270,"current_range_meters":31200,"station_id":"ce4bh2h2rcd13ifvqdh0","pricing_plan_id":"cebpf4jnsgd1na2vs0mg"},{"bike_id":"804aa2cb-cb29-40cc-92ce-0267a52458ef","system_id":"levelo_inurba_marseille","lat":43.294153,"lon":5.386305,"is_reserved":false,"is_disabled":false,"rental_uris":{"android":"levelo://app?vid=804aa2cb-cb29-40cc-92ce-0267a52458ef","ios":"levelo://app?vid=804aa2cb-cb29-40cc-92ce-0267a52458ef"},"vehicle_type_id":"4","last_reported":1719335270,"current_range_meters":31200,"station_id":"ce4bh2h2rcd13ifvqdh0","pricing_plan_id":"cebpf4jnsgd1na2vs0mg"},{"bike_id":"99829441-c26b-43fe-bc2a-61293389e801","system_id":"levelo_inurba_marseille","lat":43.29418,"lon":5.38621,"is_reserved":false,"is_disabled":false,"rental_uris":{"android":"levelo://app?vid=99829441-c26b-43fe-bc2a-61293389e801","ios":"levelo://app?vid=99829441-c26b-43fe-bc2a-61293389e801"},"vehicle_type_id":"4","last_reported":1719335270,"current_range_meters":19600,"station_id":"ce4bh2h2rcd13ifvqdh0","pricing_plan_id":"cebpf4jnsgd1na2vs0mg"},{"bike_id":"cc161618-9082-46a7-a564-eaa14d69da31","system_id":"levelo_inurba_marseille","lat":43.29414,"lon":5.38618,"is_reserved":false,"is_disabled":false,"rental_uris":{"android":"levelo://app?vid=cc161618-9082-46a7-a564-eaa14d69da31","ios":"levelo://app?vid=cc161618-9082-46a7-a564-eaa14d69da31"},"vehicle_type_id":"4","last_reported":1719335270,"current_range_meters":13200,"station_id":"ce4bh2h2rcd13ifvqdh0","pricing_plan_id":"cebpf4jnsgd1na2vs0mg"},{"bike_id":"bf10040b-4ffc-44cf-8131-782ef3d92ef6","system_id":"levelo_inurba_marseille","lat":43.29415,"lon":5.38623,"is_reserved":false,"is_disabled":false,"rental_uris":{"android":"levelo://app?vid=bf10040b-4ffc-44cf-8131-782ef3d92ef6","ios":"levelo://app?vid=bf10040b-4ffc-44cf-8131-782ef3d92ef6"},"vehicle_type_id":"4","last_reported":1719335270,"current_range_meters":6800,"station_id":"ce4bh2h2rcd13ifvqdh0","pricing_plan_id":"cebpf4jnsgd1na2vs0mg"},{"bike_id":"e9c60849-f253-4060-8aa3-c6ce074ac667","system_id":"levelo_inurba_marseille","lat":43.289184,"lon":5.366408,"is_reserved":false,"is_disabled":false,"rental_uris":{"android":"levelo://app?vid=e9c60849-f253-4060-8aa3-c6ce074ac667","ios":"levelo://app?vid=e9c60849-f253-4060-8aa3-c6ce074ac667"},"vehicle_type_id":"4","last_reported":1719335270,"current_range_meters":0,"station_id":"ce4bhap2rcd13ifvqek0","pricing_plan_id":"cebpf4jnsgd1na2vs0mg"},{"bike_id":"696fecb6-80e1-4d05-b133-834b01d9df0a","system_id":"levelo_inurba_marseille","lat":43.29415,"lon":5.38625,"is_reserved":false,"is_disabled":false,"rental_uris":{"android":"levelo://app?vid=696fecb6-80e1-4d05-b133-834b01d9df0a","ios":"levelo://app?vid=696fecb6-80e1-4d05-b133-834b01d9df0a"},"vehicle_type_id":"4","last_reported":1719335270,"current_range_meters":22400,"station_id":"ce4bh2h2rcd13ifvqdh0","pricing_plan_id":"cebpf4jnsgd1na2vs0mg"},{"bike_id":"62e19a1b-57ce-4500-b9b4-5e759ee170fb","system_id":"levelo_inurba_marseille","lat":43.29416,"lon":5.38627,"is_reserved":false,"is_disabled":false,"rental_uris":{"android":"levelo://app?vid=62e19a1b-57ce-4500-b9b4-5e759ee170fb","ios":"levelo://app?vid=62e19a1b-57ce-4500-b9b4-5e759ee170fb"},"vehicle_type_id":"4","last_reported":1719335270,"current_range_meters":23600,"station_id":"ce4bh2h2rcd13ifvqdh0","pricing_plan_id":"cebpf4jnsgd1na2vs0mg"},{"bike_id":"e6955ab4-3191-4c8d-b943-ea39f18fad66","system_id":"levelo_inurba_marseille","lat":43.289184,"lon":5.366408,"is_reserved":false,"is_disabled":false,"rental_uris":{"android":"levelo://app?vid=e6955ab4-3191-4c8d-b943-ea39f18fad66","ios":"levelo://app?vid=e6955ab4-3191-4c8d-b943-ea39f18fad66"},"vehicle_type_id":"4","last_reported":1719335270,"current_range_meters":11200,"station_id":"ce4bhap2rcd13ifvqek0","pricing_plan_id":"cebpf4jnsgd1na2vs0mg"},{"bike_id":"d2393692-1a5b-42e8-993e-c9b2d2e219f4","system_id":"levelo_inurba_marseille","lat":43.289468,"lon":5.363719,"is_reserved":false,"is_disabled":false,"rental_uris":{"android":"levelo://app?vid=d2393692-1a5b-42e8-993e-c9b2d2e219f4","ios":"levelo://app?vid=d2393692-1a5b-42e8-993e-c9b2d2e219f4"},"vehicle_type_id":"4","last_reported":1719335270,"current_range_meters":5600,"station_id":"ce4bhc92rcd13ifvqetg","pricing_plan_id":"cebpf4jnsgd1na2vs0mg"},{"bike_id":"2e1712e8-57d9-402f-8aa1-ff15bf887e2b","system_id":"levelo_inurba_marseille","lat":43.29415,"lon":5.3863,"is_reserved":false,"is_disabled":false,"rental_uris":{"android":"levelo://app?vid=2e1712e8-57d9-402f-8aa1-ff15bf887e2b","ios":"levelo://app?vid=2e1712e8-57d9-402f-8aa1-ff15bf887e2b"},"vehicle_type_id":"4","last_reported":1719335270,"current_range_meters":6400,"station_id":"ce4bh2h2rcd13ifvqdh0","pricing_plan_id":"cebpf4jnsgd1na2vs0mg"},{"bike_id":"a844076e-188a-42aa-b6b1-3c6358805bed","system_id":"levelo_inurba_marseille","lat":43.289184,"lon":5.366408,"is_reserved":false,"is_disabled":false,"rental_uris":{"android":"levelo://app?vid=a844076e-188a-42aa-b6b1-3c6358805bed","ios":"levelo://app?vid=a844076e-188a-42aa-b6b1-3c6358805bed"},"vehicle_type_id":"4","last_reported":1719335270,"current_range_meters":0,"station_id":"ce4bhap2rcd13ifvqek0","pricing_plan_id":"cebpf4jnsgd1na2vs0mg"},{"bike_id":"a0a490fc-fc1a-463b-9203-13e866461dae","system_id":"levelo_inurba_marseille","lat":43.289184,"lon":5.366408,"is_reserved":false,"is_disabled":false,"rental_uris":{"android":"levelo://app?vid=a0a490fc-fc1a-463b-9203-13e866461dae","ios":"levelo://app?vid=a0a490fc-fc1a-463b-9203-13e866461dae"},"vehicle_type_id":"4","last_reported":1719335270,"current_range_meters":4400,"station_id":"ce4bhap2rcd13ifvqek0","pricing_plan_id":"cebpf4jnsgd1na2vs0mg"},{"bike_id":"5a1d2e9f-ae52-4334-89b5-d27714a7cf9d","system_id":"levelo_inurba_marseille","lat":43.29412,"lon":5.38628,"is_reserved":false,"is_disabled":false,"rental_uris":{"android":"levelo://app?vid=5a1d2e9f-ae52-4334-89b5-d27714a7cf9d","ios":"levelo://app?vid=5a1d2e9f-ae52-4334-89b5-d27714a7cf9d"},"vehicle_type_id":"4","last_reported":1719335270,"current_range_meters":26400,"station_id":"ce4bh2h2rcd13ifvqdh0","pricing_plan_id":"cebpf4jnsgd1na2vs0mg"},{"bike_id":"f76342ad-911c-49b4-af8a-80d51b117525","system_id":"levelo_inurba_marseille","lat":43.28938,"lon":5.36639,"is_reserved":false,"is_disabled":false,"rental_uris":{"android":"levelo://app?vid=f76342ad-911c-49b4-af8a-80d51b117525","ios":"levelo://app?vid=f76342ad-911c-49b4-af8a-80d51b117525"},"vehicle_type_id":"4","last_reported":1719335270,"current_range_meters":0,"station_id":"ce4bhap2rcd13ifvqek0","pricing_plan_id":"cebpf4jnsgd1na2vs0mg"},{"bike_id":"fcc19bd5-093c-4556-bd71-ab66ebbd34e1","system_id":"levelo_inurba_marseille","lat":43.294153,"lon":5.386305,"is_reserved":false,"is_disabled":false,"rental_uris":{"android":"levelo://app?vid=fcc19bd5-093c-4556-bd71-ab66ebbd34e1","ios":"levelo://app?vid=fcc19bd5-093c-4556-bd71-ab66ebbd34e1"},"vehicle_type_id":"4","last_reported":1719335270,"current_range_meters":28000,"station_id":"ce4bh2h2rcd13ifvqdh0","pricing_plan_id":"cebpf4jnsgd1na2vs0mg"},{"bike_id":"0cc4a107-bc54-4eaa-96eb-a642a9719eb2","system_id":"levelo_inurba_marseille","lat":43.28933,"lon":5.36637,"is_reserved":false,"is_disabled":false,"rental_uris":{"android":"levelo://app?vid=0cc4a107-bc54-4eaa-96eb-a642a9719eb2","ios":"levelo://app?vid=0cc4a107-bc54-4eaa-96eb-a642a9719eb2"},"vehicle_type_id":"4","last_reported":1719335270,"current_range_meters":2400,"station_id":"ce4bhap2rcd13ifvqek0","pricing_plan_id":"cebpf4jnsgd1na2vs0mg"},{"bike_id":"8d1c674c-919c-495a-90c3-0400a81e8b53","system_id":"levelo_inurba_marseille","lat":43.289184,"lon":5.366408,"is_reserved":false,"is_disabled":false,"rental_uris":{"android":"levelo://app?vid=8d1c674c-919c-495a-90c3-0400a81e8b53","ios":"levelo://app?vid=8d1c674c-919c-495a-90c3-0400a81e8b53"},"vehicle_type_id":"4","last_reported":1719335270,"current_range_meters":21600,"station_id":"ce4bhap2rcd13ifvqek0","pricing_plan_id":"cebpf4jnsgd1na2vs0mg"},{"bike_id":"7e29a1b6-b3a9-4134-82bf-46eced167b56","system_id":"levelo_inurba_marseille","lat":43.289468,"lon":5.363719,"is_reserved":false,"is_disabled":false,"rental_uris":{"android":"levelo://app?vid=7e29a1b6-b3a9-4134-82bf-46eced167b56","ios":"levelo://app?vid=7e29a1b6-b3a9-4134-82bf-46eced167b56"},"vehicle_type_id":"4","last_reported":1719335270,"current_range_meters":10800,"station_id":"ce4bhc92rcd13ifvqetg","pricing_plan_id":"cebpf4jnsgd1na2vs0mg"},{"bike_id":"c53fd037-e5ad-479e-a183-7ae294fef839","system_id":"levelo_inurba_marseille","lat":43.289468,"lon":5.363719,"is_reserved":false,"is_disabled":false,"rental_uris":{"android":"levelo://app?vid=c53fd037-e5ad-479e-a183-7ae294fef839","ios":"levelo://app?vid=c53fd037-e5ad-479e-a183-7ae294fef839"},"vehicle_type_id":"4","last_reported":1719335270,"current_range_meters":22800,"station_id":"ce4bhc92rcd13ifvqetg","pricing_plan_id":"cebpf4jnsgd1na2vs0mg"},{"bike_id":"f194b389-6b7e-4f66-aa4b-1fc32093ffd2","system_id":"levelo_inurba_marseille","lat":43.289307,"lon":5.38406,"is_reserved":false,"is_disabled":false,"rental_uris":{"android":"levelo://app?vid=f194b389-6b7e-4f66-aa4b-1fc32093ffd2","ios":"levelo://app?vid=f194b389-6b7e-4f66-aa4b-1fc32093ffd2"},"vehicle_type_id":"4","last_reported":1719335270,"current_range_meters":19200,"station_id":"ce4bh612rcd13ifvqe6g","pricing_plan_id":"cebpf4jnsgd1na2vs0mg"},{"bike_id":"2e2e8b67-a378-4867-b93b-017d14100a3c","system_id":"levelo_inurba_marseille","lat":43.292644,"lon":5.384257,"is_reserved":false,"is_disabled":false,"rental_uris":{"android":"levelo://app?vid=2e2e8b67-a378-4867-b93b-017d14100a3c","ios":"levelo://app?vid=2e2e8b67-a378-4867-b93b-017d14100a3c"},"vehicle_type_id":"4","last_reported":1719335270,"current_range_meters":22000,"station_id":"ce4bh692rcd13ifvqea0","pricing_plan_id":"cebpf4jnsgd1na2vs0mg"},{"bike_id":"8710d6a1-285b-494c-abb6-22acfa2189ce","system_id":"levelo_inurba_marseille","lat":43.304296,"lon":5.397513,"is_reserved":false,"is_disabled":false,"rental_uris":{"android":"levelo://app?vid=8710d6a1-285b-494c-abb6-22acfa2189ce","ios":"levelo://app?vid=8710d6a1-285b-494c-abb6-22acfa2189ce"},"vehicle_type_id":"4","last_reported":1719335270,"current_range_meters":8000,"station_id":"ce4bh092rcd13ifvqd20","pricing_plan_id":"cebpf4jnsgd1na2vs0mg"},{"bike_id":"2e4719a2-7b94-4fd3-a760-c38cfc60f0f0","system_id":"levelo_inurba_marseille","lat":43.292644,"lon":5.384257,"is_reserved":false,"is_disabled":false,"rental_uris":{"android":"levelo://app?vid=2e4719a2-7b94-4fd3-a760-c38cfc60f0f0","ios":"levelo://app?vid=2e4719a2-7b94-4fd3-a760-c38cfc60f0f0"},"vehicle_type_id":"4","last_reported":1719335270,"current_range_meters":22800,"station_id":"ce4bh692rcd13ifvqea0","pricing_plan_id":"cebpf4jnsgd1na2vs0mg"},{"bike_id":"0d72c05b-3383-476f-915a-b8b61a414ccf","system_id":"levelo_inurba_marseille","lat":43.29262,"lon":5.3842,"is_reserved":false,"is_disabled":false,"rental_uris":{"android":"levelo://app?vid=0d72c05b-3383-476f-915a-b8b61a414ccf","ios":"levelo://app?vid=0d72c05b-3383-476f-915a-b8b61a414ccf"},"vehicle_type_id":"4","last_reported":1719335270,"current_range_meters":2000,"station_id":"ce4bh692rcd13ifvqea0","pricing_plan_id":"cebpf4jnsgd1na2vs0mg"},{"bike_id":"fa37ae9b-9d96-47c1-bbb9-72a62219609f","system_id":"levelo_inurba_marseille","lat":43.304296,"lon":5.397513,"is_reserved":false,"is_disabled":false,"rental_uris":{"android":"levelo://app?vid=fa37ae9b-9d96-47c1-bbb9-72a62219609f","ios":"levelo://app?vid=fa37ae9b-9d96-47c1-bbb9-72a62219609f"},"vehicle_type_id":"4","last_reported":1719335270,"current_range_meters":14400,"station_id":"ce4bh092rcd13ifvqd20","pricing_plan_id":"cebpf4jnsgd1na2vs0mg"},{"bike_id":"b88e5527-7d3d-4512-ac5b-843c62359fc7","system_id":"levelo_inurba_marseille","lat":43.292644,"lon":5.384257,"is_reserved":false,"is_disabled":false,"rental_uris":{"android":"levelo://app?vid=b88e5527-7d3d-4512-ac5b-843c62359fc7","ios":"levelo://app?vid=b88e5527-7d3d-4512-ac5b-843c62359fc7"},"vehicle_type_id":"4","last_reported":1719335270,"current_range_meters":13200,"station_id":"ce4bh692rcd13ifvqea0","pricing_plan_id":"cebpf4jnsgd1na2vs0mg"},{"bike_id":"1f9f142c-3468-44d6-b172-2fe6a32a55a4","system_id":"levelo_inurba_marseille","lat":43.29259,"lon":5.38423,"is_reserved":false,"is_disabled":false,"rental_uris":{"android":"levelo://app?vid=1f9f142c-3468-44d6-b172-2fe6a32a55a4","ios":"levelo://app?vid=1f9f142c-3468-44d6-b172-2fe6a32a55a4"},"vehicle_type_id":"4","last_reported":1719335270,"current_range_meters":0,"station_id":"ce4bh692rcd13ifvqea0","pricing_plan_id":"cebpf4jnsgd1na2vs0mg"},{"bike_id":"445bdb98-fcbc-424c-bc8e-e1ca199a645e","system_id":"levelo_inurba_marseille","lat":43.29265,"lon":5.38437,"is_reserved":false,"is_disabled":false,"rental_uris":{"android":"levelo://app?vid=445bdb98-fcbc-424c-bc8e-e1ca199a645e","ios":"levelo://app?vid=445bdb98-fcbc-424c-bc8e-e1ca199a645e"},"vehicle_type_id":"4","last_reported":1719335270,"current_range_meters":10800,"station_id":"ce4bh692rcd13ifvqea0","pricing_plan_id":"cebpf4jnsgd1na2vs0mg"},{"bike_id":"b6aeac1d-ebe4-40d1-b6d1-cdbe261c20fe","system_id":"levelo_inurba_marseille","lat":43.292642,"lon":5.384254,"is_reserved":false,"is_disabled":false,"rental_uris":{"android":"levelo://app?vid=b6aeac1d-ebe4-40d1-b6d1-cdbe261c20fe","ios":"levelo://app?vid=b6aeac1d-ebe4-40d1-b6d1-cdbe261c20fe"},"vehicle_type_id":"4","last_reported":1719335270,"current_range_meters":31600,"station_id":"ce4bh692rcd13ifvqea0","pricing_plan_id":"cebpf4jnsgd1na2vs0mg"},{"bike_id":"8725d79a-42d3-4902-835d-bfeeb4d2c1ed","system_id":"levelo_inurba_marseille","lat":43.29261,"lon":5.38432,"is_reserved":false,"is_disabled":false,"rental_uris":{"android":"levelo://app?vid=8725d79a-42d3-4902-835d-bfeeb4d2c1ed","ios":"levelo://app?vid=8725d79a-42d3-4902-835d-bfeeb4d2c1ed"},"vehicle_type_id":"4","last_reported":1719335270,"current_range_meters":18400,"station_id":"ce4bh692rcd13ifvqea0","pricing_plan_id":"cebpf4jnsgd1na2vs0mg"},{"bike_id":"6992e3d2-e313-479f-9eb5-a8a6efc560dc","system_id":"levelo_inurba_marseille","lat":43.292644,"lon":5.384257,"is_reserved":false,"is_disabled":false,"rental_uris":{"android":"levelo://app?vid=6992e3d2-e313-479f-9eb5-a8a6efc560dc","ios":"levelo://app?vid=6992e3d2-e313-479f-9eb5-a8a6efc560dc"},"vehicle_type_id":"4","last_reported":1719335270,"current_range_meters":30000,"station_id":"ce4bh692rcd13ifvqea0","pricing_plan_id":"cebpf4jnsgd1na2vs0mg"},{"bike_id":"c58b8d25-8569-4bcc-a1ec-3dc0cd2465eb","system_id":"levelo_inurba_marseille","lat":43.292644,"lon":5.384257,"is_reserved":false,"is_disabled":false,"rental_uris":{"android":"levelo://app?vid=c58b8d25-8569-4bcc-a1ec-3dc0cd2465eb","ios":"levelo://app?vid=c58b8d25-8569-4bcc-a1ec-3dc0cd2465eb"},"vehicle_type_id":"4","last_reported":1719335270,"current_range_meters":20400,"station_id":"ce4bh692rcd13ifvqea0","pricing_plan_id":"cebpf4jnsgd1na2vs0mg"},{"bike_id":"ff67f628-afe9-4d29-8b25-14d4c5008312","system_id":"levelo_inurba_marseille","lat":43.292597,"lon":5.384327,"is_reserved":false,"is_disabled":false,"rental_uris":{"android":"levelo://app?vid=ff67f628-afe9-4d29-8b25-14d4c5008312","ios":"levelo://app?vid=ff67f628-afe9-4d29-8b25-14d4c5008312"},"vehicle_type_id":"4","last_reported":1719335270,"current_range_meters":2800,"station_id":"ce4bh692rcd13ifvqea0","pricing_plan_id":"cebpf4jnsgd1na2vs0mg"},{"bike_id":"393ef421-2de1-43e6-b234-b0493d226dea","system_id":"levelo_inurba_marseille","lat":43.29261,"lon":5.38436,"is_reserved":false,"is_disabled":false,"rental_uris":{"android":"levelo://app?vid=393ef421-2de1-43e6-b234-b0493d226dea","ios":"levelo://app?vid=393ef421-2de1-43e6-b234-b0493d226dea"},"vehicle_type_id":"4","last_reported":1719335270,"current_range_meters":25200,"station_id":"ce4bh692rcd13ifvqea0","pricing_plan_id":"cebpf4jnsgd1na2vs0mg"},{"bike_id":"da978ed5-215c-4f54-92b5-38f85d026a95","system_id":"levelo_inurba_marseille","lat":43.29257,"lon":5.38431,"is_reserved":false,"is_disabled":false,"rental_uris":{"android":"levelo://app?vid=da978ed5-215c-4f54-92b5-38f85d026a95","ios":"levelo://app?vid=da978ed5-215c-4f54-92b5-38f85d026a95"},"vehicle_type_id":"4","last_reported":1719335270,"current_range_meters":14000,"station_id":"ce4bh692rcd13ifvqea0","pricing_plan_id":"cebpf4jnsgd1na2vs0mg"},{"bike_id":"bf82ed66-b682-4934-828f-0ad588841303","system_id":"levelo_inurba_marseille","lat":43.2926,"lon":5.38439,"is_reserved":false,"is_disabled":false,"rental_uris":{"android":"levelo://app?vid=bf82ed66-b682-4934-828f-0ad588841303","ios":"levelo://app?vid=bf82ed66-b682-4934-828f-0ad588841303"},"vehicle_type_id":"4","last_reported":1719335270,"current_range_meters":7600,"station_id":"ce4bh692rcd13ifvqea0","pricing_plan_id":"cebpf4jnsgd1na2vs0mg"},{"bike_id":"3f78fd3b-e1de-41c1-a2ed-c8e05e2be5e5","system_id":"levelo_inurba_marseille","lat":43.295169,"lon":5.390426,"is_reserved":false,"is_disabled":false,"rental_uris":{"android":"levelo://app?vid=3f78fd3b-e1de-41c1-a2ed-c8e05e2be5e5","ios":"levelo://app?vid=3f78fd3b-e1de-41c1-a2ed-c8e05e2be5e5"},"vehicle_type_id":"4","last_reported":1719335270,"current_range_meters":8400,"station_id":"ce4bh3p2rcd13ifvqdp0","pricing_plan_id":"cebpf4jnsgd1na2vs0mg"},{"bike_id":"8c646d0b-2311-4405-9e05-aa1eaa83cc0c","system_id":"levelo_inurba_marseille","lat":43.29261,"lon":5.38447,"is_reserved":false,"is_disabled":false,"rental_uris":{"android":"levelo://app?vid=8c646d0b-2311-4405-9e05-aa1eaa83cc0c","ios":"levelo://app?vid=8c646d0b-2311-4405-9e05-aa1eaa83cc0c"},"vehicle_type_id":"4","last_reported":1719335270,"current_range_meters":20400,"station_id":"ce4bh692rcd13ifvqea0","pricing_plan_id":"cebpf4jnsgd1na2vs0mg"},{"bike_id":"a7e0c3a5-77c2-4eaf-95b3-d9af828ba46b","system_id":"levelo_inurba_marseille","lat":43.292644,"lon":5.384257,"is_reserved":false,"is_disabled":false,"rental_uris":{"android":"levelo://app?vid=a7e0c3a5-77c2-4eaf-95b3-d9af828ba46b","ios":"levelo://app?vid=a7e0c3a5-77c2-4eaf-95b3-d9af828ba46b"},"vehicle_type_id":"4","last_reported":1719335270,"current_range_meters":27200,"station_id":"ce4bh692rcd13ifvqea0","pricing_plan_id":"cebpf4jnsgd1na2vs0mg"},{"bike_id":"03652dbc-177e-475d-9653-9a3ae9b210d4","system_id":"levelo_inurba_marseille","lat":43.304296,"lon":5.397513,"is_reserved":false,"is_disabled":false,"rental_uris":{"android":"levelo://app?vid=03652dbc-177e-475d-9653-9a3ae9b210d4","ios":"levelo://app?vid=03652dbc-177e-475d-9653-9a3ae9b210d4"},"vehicle_type_id":"4","last_reported":1719335270,"current_range_meters":16400,"station_id":"ce4bh092rcd13ifvqd20","pricing_plan_id":"cebpf4jnsgd1na2vs0mg"},{"bike_id":"9b7ad5ab-a85a-410f-bd59-d65722c26205","system_id":"levelo_inurba_marseille","lat":43.292642,"lon":5.384254,"is_reserved":false,"is_disabled":false,"rental_uris":{"android":"levelo://app?vid=9b7ad5ab-a85a-410f-bd59-d65722c26205","ios":"levelo://app?vid=9b7ad5ab-a85a-410f-bd59-d65722c26205"},"vehicle_type_id":"4","last_reported":1719335270,"current_range_meters":31200,"station_id":"ce4bh692rcd13ifvqea0","pricing_plan_id":"cebpf4jnsgd1na2vs0mg"},{"bike_id":"e6ce4187-d24d-4926-abe4-315888f1cc03","system_id":"levelo_inurba_marseille","lat":43.292644,"lon":5.384257,"is_reserved":false,"is_disabled":false,"rental_uris":{"android":"levelo://app?vid=e6ce4187-d24d-4926-abe4-315888f1cc03","ios":"levelo://app?vid=e6ce4187-d24d-4926-abe4-315888f1cc03"},"vehicle_type_id":"4","last_reported":1719335270,"current_range_meters":15200,"station_id":"ce4bh692rcd13ifvqea0","pricing_plan_id":"cebpf4jnsgd1na2vs0mg"},{"bike_id":"94ce04b5-8652-4c2b-b954-d3a071a15858","system_id":"levelo_inurba_marseille","lat":43.2925,"lon":5.38446,"is_reserved":false,"is_disabled":false,"rental_uris":{"android":"levelo://app?vid=94ce04b5-8652-4c2b-b954-d3a071a15858","ios":"levelo://app?vid=94ce04b5-8652-4c2b-b954-d3a071a15858"},"vehicle_type_id":"4","last_reported":1719335270,"current_range_meters":26400,"station_id":"ce4bh692rcd13ifvqea0","pricing_plan_id":"cebpf4jnsgd1na2vs0mg"},{"bike_id":"83cc685d-044a-48ff-8b04-3331f4448ce7","system_id":"levelo_inurba_marseille","lat":43.29244,"lon":5.38441,"is_reserved":false,"is_disabled":false,"rental_uris":{"android":"levelo://app?vid=83cc685d-044a-48ff-8b04-3331f4448ce7","ios":"levelo://app?vid=83cc685d-044a-48ff-8b04-3331f4448ce7"},"vehicle_type_id":"4","last_reported":1719335270,"current_range_meters":30400,"station_id":"ce4bh692rcd13ifvqea0","pricing_plan_id":"cebpf4jnsgd1na2vs0mg"},{"bike_id":"2f5c835f-ef72-4f75-a5c6-0a9d993ea67f","system_id":"levelo_inurba_marseille","lat":43.29003,"lon":5.35612,"is_reserved":false,"is_disabled":false,"rental_uris":{"android":"levelo://app?vid=2f5c835f-ef72-4f75-a5c6-0a9d993ea67f","ios":"levelo://app?vid=2f5c835f-ef72-4f75-a5c6-0a9d993ea67f"},"vehicle_type_id":"4","last_reported":1719335270,"current_range_meters":5200,"station_id":"ce4bhb92rcd13ifvqen0","pricing_plan_id":"cebpf4jnsgd1na2vs0mg"},{"bike_id":"0aa7c8e9-dca9-49bc-a8c7-318d7ee4b8ae","system_id":"levelo_inurba_marseille","lat":43.29785,"lon":5.3932,"is_reserved":false,"is_disabled":false,"rental_uris":{"android":"levelo://app?vid=0aa7c8e9-dca9-49bc-a8c7-318d7ee4b8ae","ios":"levelo://app?vid=0aa7c8e9-dca9-49bc-a8c7-318d7ee4b8ae"},"vehicle_type_id":"4","last_reported":1719335270,"current_range_meters":3600,"station_id":"chh1huq6cuj3fo74tm60","pricing_plan_id":"cebpf4jnsgd1na2vs0mg"},{"bike_id":"34aa6017-395e-473c-bebf-506b249ee4cb","system_id":"levelo_inurba_marseille","lat":43.297853,"lon":5.393273,"is_reserved":false,"is_disabled":false,"rental_uris":{"android":"levelo://app?vid=34aa6017-395e-473c-bebf-506b249ee4cb","ios":"levelo://app?vid=34aa6017-395e-473c-bebf-506b249ee4cb"},"vehicle_type_id":"4","last_reported":1719335270,"current_range_meters":16000,"station_id":"chh1huq6cuj3fo74tm60","pricing_plan_id":"cebpf4jnsgd1na2vs0mg"},{"bike_id":"79dbaf14-a00b-4aaf-a931-8dbb47cb4e10","system_id":"levelo_inurba_marseille","lat":43.297815,"lon":5.393548,"is_reserved":false,"is_disabled":false,"rental_uris":{"android":"levelo://app?vid=79dbaf14-a00b-4aaf-a931-8dbb47cb4e10","ios":"levelo://app?vid=79dbaf14-a00b-4aaf-a931-8dbb47cb4e10"},"vehicle_type_id":"4","last_reported":1719335270,"current_range_meters":24800,"station_id":"chh1huq6cuj3fo74tm60","pricing_plan_id":"cebpf4jnsgd1na2vs0mg"},{"bike_id":"00a737c5-713c-4731-803f-8b4d28d979f0","system_id":"levelo_inurba_marseille","lat":43.295169,"lon":5.390426,"is_reserved":false,"is_disabled":false,"rental_uris":{"android":"levelo://app?vid=00a737c5-713c-4731-803f-8b4d28d979f0","ios":"levelo://app?vid=00a737c5-713c-4731-803f-8b4d28d979f0"},"vehicle_type_id":"4","last_reported":1719335270,"current_range_meters":16400,"station_id":"ce4bh3p2rcd13ifvqdp0","pricing_plan_id":"cebpf4jnsgd1na2vs0mg"},{"bike_id":"6b298698-2620-4678-883e-e25adfa75482","system_id":"levelo_inurba_marseille","lat":43.297868,"lon":5.393464,"is_reserved":false,"is_disabled":false,"rental_uris":{"android":"levelo://app?vid=6b298698-2620-4678-883e-e25adfa75482","ios":"levelo://app?vid=6b298698-2620-4678-883e-e25adfa75482"},"vehicle_type_id":"4","last_reported":1719335270,"current_range_meters":11200,"station_id":"chh1huq6cuj3fo74tm60","pricing_plan_id":"cebpf4jnsgd1na2vs0mg"},{"bike_id":"254dbed4-d5af-4141-a548-7fbcf2a87c34","system_id":"levelo_inurba_marseille","lat":43.295169,"lon":5.390426,"is_reserved":false,"is_disabled":false,"rental_uris":{"android":"levelo://app?vid=254dbed4-d5af-4141-a548-7fbcf2a87c34","ios":"levelo://app?vid=254dbed4-d5af-4141-a548-7fbcf2a87c34"},"vehicle_type_id":"4","last_reported":1719335270,"current_range_meters":18800,"station_id":"ce4bh3p2rcd13ifvqdp0","pricing_plan_id":"cebpf4jnsgd1na2vs0mg"},{"bike_id":"136e6d5c-b263-44c9-8962-68eae00af40c","system_id":"levelo_inurba_marseille","lat":43.295169,"lon":5.390426,"is_reserved":false,"is_disabled":false,"rental_uris":{"android":"levelo://app?vid=136e6d5c-b263-44c9-8962-68eae00af40c","ios":"levelo://app?vid=136e6d5c-b263-44c9-8962-68eae00af40c"},"vehicle_type_id":"4","last_reported":1719335270,"current_range_meters":4800,"station_id":"ce4bh3p2rcd13ifvqdp0","pricing_plan_id":"cebpf4jnsgd1na2vs0mg"},{"bike_id":"d504595b-24e9-4937-881d-c02c394ddf5d","system_id":"levelo_inurba_marseille","lat":43.295169,"lon":5.390426,"is_reserved":false,"is_disabled":false,"rental_uris":{"android":"levelo://app?vid=d504595b-24e9-4937-881d-c02c394ddf5d","ios":"levelo://app?vid=d504595b-24e9-4937-881d-c02c394ddf5d"},"vehicle_type_id":"4","last_reported":1719335270,"current_range_meters":12000,"station_id":"ce4bh3p2rcd13ifvqdp0","pricing_plan_id":"cebpf4jnsgd1na2vs0mg"},{"bike_id":"fb4a9c45-0edb-4a9b-a2c6-1939ce00bf76","system_id":"levelo_inurba_marseille","lat":43.295169,"lon":5.390426,"is_reserved":false,"is_disabled":false,"rental_uris":{"android":"levelo://app?vid=fb4a9c45-0edb-4a9b-a2c6-1939ce00bf76","ios":"levelo://app?vid=fb4a9c45-0edb-4a9b-a2c6-1939ce00bf76"},"vehicle_type_id":"4","last_reported":1719335270,"current_range_meters":12400,"station_id":"ce4bh3p2rcd13ifvqdp0","pricing_plan_id":"cebpf4jnsgd1na2vs0mg"},{"bike_id":"a6b39d1c-ecf2-4fb0-bd4f-3bc624bf138c","system_id":"levelo_inurba_marseille","lat":43.295169,"lon":5.390426,"is_reserved":false,"is_disabled":false,"rental_uris":{"android":"levelo://app?vid=a6b39d1c-ecf2-4fb0-bd4f-3bc624bf138c","ios":"levelo://app?vid=a6b39d1c-ecf2-4fb0-bd4f-3bc624bf138c"},"vehicle_type_id":"4","last_reported":1719335270,"current_range_meters":1200,"station_id":"ce4bh3p2rcd13ifvqdp0","pricing_plan_id":"cebpf4jnsgd1na2vs0mg"},{"bike_id":"0d1f0c71-188d-4f95-89e9-76023736f937","system_id":"levelo_inurba_marseille","lat":43.295169,"lon":5.390426,"is_reserved":false,"is_disabled":false,"rental_uris":{"android":"levelo://app?vid=0d1f0c71-188d-4f95-89e9-76023736f937","ios":"levelo://app?vid=0d1f0c71-188d-4f95-89e9-76023736f937"},"vehicle_type_id":"4","last_reported":1719335270,"current_range_meters":15200,"station_id":"ce4bh3p2rcd13ifvqdp0","pricing_plan_id":"cebpf4jnsgd1na2vs0mg"},{"bike_id":"2f48a673-d742-4eb5-ad34-4f7d39cee087","system_id":"levelo_inurba_marseille","lat":43.295169,"lon":5.390426,"is_reserved":false,"is_disabled":false,"rental_uris":{"android":"levelo://app?vid=2f48a673-d742-4eb5-ad34-4f7d39cee087","ios":"levelo://app?vid=2f48a673-d742-4eb5-ad34-4f7d39cee087"},"vehicle_type_id":"4","last_reported":1719335270,"current_range_meters":12400,"station_id":"ce4bh3p2rcd13ifvqdp0","pricing_plan_id":"cebpf4jnsgd1na2vs0mg"},{"bike_id":"66f55468-8c85-4d08-ba2d-8dd6b197b52d","system_id":"levelo_inurba_marseille","lat":43.295169,"lon":5.390426,"is_reserved":false,"is_disabled":false,"rental_uris":{"android":"levelo://app?vid=66f55468-8c85-4d08-ba2d-8dd6b197b52d","ios":"levelo://app?vid=66f55468-8c85-4d08-ba2d-8dd6b197b52d"},"vehicle_type_id":"4","last_reported":1719335270,"current_range_meters":30800,"station_id":"ce4bh3p2rcd13ifvqdp0","pricing_plan_id":"cebpf4jnsgd1na2vs0mg"},{"bike_id":"13e1f191-eac5-4a13-9b0d-74382d2ad727","system_id":"levelo_inurba_marseille","lat":43.33027,"lon":5.39048,"is_reserved":false,"is_disabled":false,"rental_uris":{"android":"levelo://app?vid=13e1f191-eac5-4a13-9b0d-74382d2ad727","ios":"levelo://app?vid=13e1f191-eac5-4a13-9b0d-74382d2ad727"},"vehicle_type_id":"4","last_reported":1719335270,"current_range_meters":19200,"station_id":"ce4bhr92rcd13ifvqhrg","pricing_plan_id":"cebpf4jnsgd1na2vs0mg"},{"bike_id":"01099864-d1b1-46ef-8834-9d38dac19df1","system_id":"levelo_inurba_marseille","lat":43.295169,"lon":5.390426,"is_reserved":false,"is_disabled":false,"rental_uris":{"android":"levelo://app?vid=01099864-d1b1-46ef-8834-9d38dac19df1","ios":"levelo://app?vid=01099864-d1b1-46ef-8834-9d38dac19df1"},"vehicle_type_id":"4","last_reported":1719335270,"current_range_meters":24800,"station_id":"ce4bh3p2rcd13ifvqdp0","pricing_plan_id":"cebpf4jnsgd1na2vs0mg"},{"bike_id":"69c26fce-113a-4c01-b54e-ee61c8bb8ef9","system_id":"levelo_inurba_marseille","lat":43.295169,"lon":5.390426,"is_reserved":false,"is_disabled":false,"rental_uris":{"android":"levelo://app?vid=69c26fce-113a-4c01-b54e-ee61c8bb8ef9","ios":"levelo://app?vid=69c26fce-113a-4c01-b54e-ee61c8bb8ef9"},"vehicle_type_id":"4","last_reported":1719335270,"current_range_meters":32000,"station_id":"ce4bh3p2rcd13ifvqdp0","pricing_plan_id":"cebpf4jnsgd1na2vs0mg"},{"bike_id":"26aa7f54-6684-4198-9e18-08a9bd78a92a","system_id":"levelo_inurba_marseille","lat":43.29023,"lon":5.38139,"is_reserved":false,"is_disabled":false,"rental_uris":{"android":"levelo://app?vid=26aa7f54-6684-4198-9e18-08a9bd78a92a","ios":"levelo://app?vid=26aa7f54-6684-4198-9e18-08a9bd78a92a"},"vehicle_type_id":"4","last_reported":1719335270,"current_range_meters":0,"station_id":"ce4bh4p2rcd13ifvqe1g","pricing_plan_id":"cebpf4jnsgd1na2vs0mg"},{"bike_id":"ae1ab126-d486-4528-a36c-a496fcf44ad0","system_id":"levelo_inurba_marseille","lat":43.28856,"lon":5.358371,"is_reserved":false,"is_disabled":false,"rental_uris":{"android":"levelo://app?vid=ae1ab126-d486-4528-a36c-a496fcf44ad0","ios":"levelo://app?vid=ae1ab126-d486-4528-a36c-a496fcf44ad0"},"vehicle_type_id":"4","last_reported":1719335270,"current_range_meters":4400,"station_id":"ce4bhb12rcd13ifvqem0","pricing_plan_id":"cebpf4jnsgd1na2vs0mg"},{"bike_id":"0930f2d4-0e8f-49b0-a887-d185bedf51b7","system_id":"levelo_inurba_marseille","lat":43.28856,"lon":5.358371,"is_reserved":false,"is_disabled":false,"rental_uris":{"android":"levelo://app?vid=0930f2d4-0e8f-49b0-a887-d185bedf51b7","ios":"levelo://app?vid=0930f2d4-0e8f-49b0-a887-d185bedf51b7"},"vehicle_type_id":"4","last_reported":1719335270,"current_range_meters":0,"station_id":"ce4bhb12rcd13ifvqem0","pricing_plan_id":"cebpf4jnsgd1na2vs0mg"},{"bike_id":"bb29ac70-8422-4f31-b1a9-0f501e69706b","system_id":"levelo_inurba_marseille","lat":43.28856,"lon":5.358371,"is_reserved":false,"is_disabled":false,"rental_uris":{"android":"levelo://app?vid=bb29ac70-8422-4f31-b1a9-0f501e69706b","ios":"levelo://app?vid=bb29ac70-8422-4f31-b1a9-0f501e69706b"},"vehicle_type_id":"4","last_reported":1719335270,"current_range_meters":14000,"station_id":"ce4bhb12rcd13ifvqem0","pricing_plan_id":"cebpf4jnsgd1na2vs0mg"},{"bike_id":"9b81675f-44cd-4cbe-9733-2d36a516d8f7","system_id":"levelo_inurba_marseille","lat":43.33731,"lon":5.37464,"is_reserved":false,"is_disabled":false,"rental_uris":{"android":"levelo://app?vid=9b81675f-44cd-4cbe-9733-2d36a516d8f7","ios":"levelo://app?vid=9b81675f-44cd-4cbe-9733-2d36a516d8f7"},"vehicle_type_id":"0","last_reported":1719335270,"current_range_meters":23600,"station_id":"","pricing_plan_id":"cebpf4jnsgd1na2vs0mg"},{"bike_id":"f987180d-160b-49a3-acd1-d70c132d352e","system_id":"levelo_inurba_marseille","lat":43.312609,"lon":5.401662,"is_reserved":false,"is_disabled":false,"rental_uris":{"android":"levelo://app?vid=f987180d-160b-49a3-acd1-d70c132d352e","ios":"levelo://app?vid=f987180d-160b-49a3-acd1-d70c132d352e"},"vehicle_type_id":"4","last_reported":1719335270,"current_range_meters":0,"station_id":"ce4bh092rcd13ifvqd30","pricing_plan_id":"cebpf4jnsgd1na2vs0mg"},{"bike_id":"bb65fb70-df82-47d8-b27f-438620895501","system_id":"levelo_inurba_marseille","lat":43.337364,"lon":5.374606,"is_reserved":false,"is_disabled":false,"rental_uris":{"android":"levelo://app?vid=bb65fb70-df82-47d8-b27f-438620895501","ios":"levelo://app?vid=bb65fb70-df82-47d8-b27f-438620895501"},"vehicle_type_id":"0","last_reported":1719335270,"current_range_meters":17200,"station_id":"","pricing_plan_id":"cebpf4jnsgd1na2vs0mg"},{"bike_id":"74f998d0-aa94-4ae8-baba-40ad2cfb5771","system_id":"levelo_inurba_marseille","lat":43.312609,"lon":5.401662,"is_reserved":false,"is_disabled":false,"rental_uris":{"android":"levelo://app?vid=74f998d0-aa94-4ae8-baba-40ad2cfb5771","ios":"levelo://app?vid=74f998d0-aa94-4ae8-baba-40ad2cfb5771"},"vehicle_type_id":"4","last_reported":1719335270,"current_range_meters":9600,"station_id":"ce4bh092rcd13ifvqd30","pricing_plan_id":"cebpf4jnsgd1na2vs0mg"},{"bike_id":"8043cc8a-f702-4e45-9523-d56dfd7ee432","system_id":"levelo_inurba_marseille","lat":43.337368,"lon":5.374678,"is_reserved":false,"is_disabled":false,"rental_uris":{"android":"levelo://app?vid=8043cc8a-f702-4e45-9523-d56dfd7ee432","ios":"levelo://app?vid=8043cc8a-f702-4e45-9523-d56dfd7ee432"},"vehicle_type_id":"0","last_reported":1719335270,"current_range_meters":22000,"station_id":"","pricing_plan_id":"cebpf4jnsgd1na2vs0mg"},{"bike_id":"c25a3696-e1cc-43ba-8656-23d4a118ee2e","system_id":"levelo_inurba_marseille","lat":43.337363,"lon":5.374729,"is_reserved":false,"is_disabled":false,"rental_uris":{"android":"levelo://app?vid=c25a3696-e1cc-43ba-8656-23d4a118ee2e","ios":"levelo://app?vid=c25a3696-e1cc-43ba-8656-23d4a118ee2e"},"vehicle_type_id":"4","last_reported":1719335270,"current_range_meters":23200,"station_id":"","pricing_plan_id":"cebpf4jnsgd1na2vs0mg"},