{"last_updated":1744369684,"ttl":60,"version":"2.2","data":{"bikes":[{"bike_id":"59699ffa-e1de-4f8a-a12b-10a53ef27908","system_id":"levelo_inurba_marseille","lat":43.2417,"lon":5.36395,"is_reserved":false,"is_disabled":false,"rental_uris":{"android":"levelo://app?vid=59699ffa-e1de-4f8a-a12b-10a53ef27908","ios":"levelo://app?vid=59699ffa-e1de-4f8a-a12b-10a53ef27908"},"vehicle_type_id":"4","last_reported":1744369684,"current_range_meters":2800,"station_id":"cpo36qri1sfpv3e86is0","pricing_plan_id":"cebpf4jnsgd1na2vs0mg"},{"bike_id":"7f0e3722-2c7d-467a-9c76-03252c01c3ed","system_id":"levelo_inurba_marseille","lat":43.30542,"lon":5.36553,"is_reserved":false,"is_disabled":false,"rental_uris":{"android":"levelo://app?vid=7f0e3722-2c7d-467a-9c76-03252c01c3ed","ios":"levelo://app?vid=7f0e3722-2c7d-467a-9c76-03252c01c3ed"},"vehicle_type_id":"4","last_reported":1744369684,"current_range_meters":2800,"station_id":"ce4bgs12rcd13ifvqcag","pricing_plan_id":"cebpf4jnsgd1na2vs0mg"},{"bike_id":"ce31e33a-cd1d-4667-808b-2966d3bac2d3","system_id":"levelo_inurba_marseille","lat":43.301094,"lon":5.383455,"is_reserved":false,"is_disabled":false,"rental_uris":{"android":"levelo://app?vid=ce31e33a-cd1d-4667-808b-2966d3bac2d3","ios":"levelo://app?vid=ce31e33a-cd1d-4667-808b-2966d3bac2d3"},"vehicle_type_id":"4","last_reported":1744369684,"current_range_meters":2000,"station_id":"ce4bgv12rcd13ifvqcp0","pricing_plan_id":"cebpf4jnsgd1na2vs0mg"},{"bike_id":"05f3e076-6e29-4def-b508-7528e34df3f4","system_id":"levelo_inurba_marseille","lat":43.30474,"lon":5.37904,"is_reserved":false,"is_disabled":false,"rental_uris":{"android":"levelo://app?vid=05f3e076-6e29-4def-b508-7528e34df3f4","ios":"levelo://app?vid=05f3e076-6e29-4def-b508-7528e34df3f4"},"vehicle_type_id":"4","last_reported":1744369684,"current_range_meters":2800,"station_id":"ce4bgup2rcd13ifvqcn0","pricing_plan_id":"cebpf4jnsgd1na2vs0mg"},{"bike_id":"1329e012-361a-46c5-b4e6-a8046ee4d798","system_id":"levelo_inurba_marseille","lat":43.31327,"lon":5.39689,"is_reserved":false,"is_disabled":false,"rental_uris":{"android":"levelo://app?vid=1329e012-361a-46c5-b4e6-a8046ee4d798","ios":"levelo://app?vid=1329e012-361a-46c5-b4e6-a8046ee4d798"},"vehicle_type_id":"4","last_reported":1744369684,"current_range_meters":2800,"station_id":"ce4bgvp2rcd13ifvqcu0","pricing_plan_id":"cebpf4jnsgd1na2vs0mg"},{"bike_id":"ba857fb6-cd73-4a9a-84ca-66e3b1cdc651","system_id":"levelo_inurba_marseille","lat":43.28663,"lon":5.36347,"is_reserved":false,"is_disabled":false,"rental_uris":{"android":"levelo://app?vid=ba857fb6-cd73-4a9a-84ca-66e3b1cdc651","ios":"levelo://app?vid=ba857fb6-cd73-4a9a-84ca-66e3b1cdc651"},"vehicle_type_id":"4","last_reported":1744369684,"current_range_meters":3200,"station_id":"ce4bhah2rcd13ifvqej0","pricing_plan_id":"cebpf4jnsgd1na2vs0mg"},{"bike_id":"30b58ca5-e62c-491a-9f76-183f7a4dfcd8","system_id":"levelo_inurba_marseille","lat":43.30459,"lon":5.37908,"is_reserved":false,"is_disabled":false,"rental_uris":{"android":"levelo://app?vid=30b58ca5-e62c-491a-9f76-183f7a4dfcd8","ios":"levelo://app?vid=30b58ca5-e62c-491a-9f76-183f7a4dfcd8"},"vehicle_type_id":"4","last_reported":1744369684,"current_range_meters":3600,"station_id":"ce4bgup2rcd13ifvqcn0","pricing_plan_id":"cebpf4jnsgd1na2vs0mg"},{"bike_id":"37582206-a34e-4509-97e7-b7f9dea34558","system_id":"levelo_inurba_marseille","lat":43.30889,"lon":5.37199,"is_reserved":false,"is_disabled":false,"rental_uris":{"android":"levelo://app?vid=37582206-a34e-4509-97e7-b7f9dea34558","ios":"levelo://app?vid=37582206-a34e-4509-97e7-b7f9dea34558"},"vehicle_type_id":"4","last_reported":1744369684,"current_range_meters":3600,"station_id":"ce4bguh2rcd13ifvqckg","pricing_plan_id":"cebpf4jnsgd1na2vs0mg"},{"bike_id":"0393c1d1-6e6c-425b-8cbe-80c35fffad0c","system_id":"levelo_inurba_marseille","lat":43.2872,"lon":5.37925,"is_reserved":false,"is_disabled":false,"rental_uris":{"android":"levelo://app?vid=0393c1d1-6e6c-425b-8cbe-80c35fffad0c","ios":"levelo://app?vid=0393c1d1-6e6c-425b-8cbe-80c35fffad0c"},"vehicle_type_id":"4","last_reported":1744369684,"current_range_meters":3600,"station_id":"ce4bh9p2rcd13ifvqec0","pricing_plan_id":"cebpf4jnsgd1na2vs0mg"},{"bike_id":"d99c0b99-fbd4-40ba-91b4-cfd3e7a09609","system_id":"levelo_inurba_marseille","lat":43.23155,"lon":5.43705,"is_reserved":false,"is_disabled":false,"rental_uris":{"android":"levelo://app?vid=d99c0b99-fbd4-40ba-91b4-cfd3e7a09609","ios":"levelo://app?vid=d99c0b99-fbd4-40ba-91b4-cfd3e7a09609"},"vehicle_type_id":"4","last_reported":1744369684,"current_range_meters":3600,"station_id":"ce4bhmp2rcd13ifvqgog","pricing_plan_id":"cebpf4jnsgd1na2vs0mg"},{"bike_id":"4bfe7b5b-7edd-4719-9b6e-a1d9fda85232","system_id":"levelo_inurba_marseille","lat":43.27953,"lon":5.41037,"is_reserved":false,"is_disabled":false,"rental_uris":{"android":"levelo://app?vid=4bfe7b5b-7edd-4719-9b6e-a1d9fda85232","ios":"levelo://app?vid=4bfe7b5b-7edd-4719-9b6e-a1d9fda85232"},"vehicle_type_id":"4","last_reported":1744369684,"current_range_meters":4400,"station_id":"ce4bhnp2rcd13ifvqh0g","pricing_plan_id":"cebpf4jnsgd1na2vs0mg"},{"bike_id":"0580cc94-b1b9-4742-962e-7669c227de40","system_id":"levelo_inurba_marseille","lat":43.26055,"lon":5.3939,"is_reserved":false,"is_disabled":false,"rental_uris":{"android":"levelo://app?vid=0580cc94-b1b9-4742-962e-7669c227de40","ios":"levelo://app?vid=0580cc94-b1b9-4742-962e-7669c227de40"},"vehicle_type_id":"4","last_reported":1744369684,"current_range_meters":4000,"station_id":"ce4bhh92rcd13ifvqfj0","pricing_plan_id":"cebpf4jnsgd1na2vs0mg"},{"bike_id":"2d8f21f7-0637-4647-98e5-00532e12440f","system_id":"levelo_inurba_marseille","lat":43.30307,"lon":5.36891,"is_reserved":false,"is_disabled":false,"rental_uris":{"android":"levelo://app?vid=2d8f21f7-0637-4647-98e5-00532e12440f","ios":"levelo://app?vid=2d8f21f7-0637-4647-98e5-00532e12440f"},"vehicle_type_id":"4","last_reported":1744369684,"current_range_meters":4400,"station_id":"ce4bgqh2rcd13ifvqc5g","pricing_plan_id":"cebpf4jnsgd1na2vs0mg"},{"bike_id":"83c132b1-a954-4d5a-a32d-9f99af4faa3c","system_id":"levelo_inurba_marseille","lat":43.30936,"lon":5.41528,"is_reserved":false,"is_disabled":false,"rental_uris":{"android":"levelo://app?vid=83c132b1-a954-4d5a-a32d-9f99af4faa3c","ios":"levelo://app?vid=83c132b1-a954-4d5a-a32d-9f99af4faa3c"},"vehicle_type_id":"4","last_reported":1744369684,"current_range_meters":4800,"station_id":"","pricing_plan_id":"cebpf4jnsgd1na2vs0mg"},{"bike_id":"c243072f-6bd2-4d94-ba83-04162cf2a05c","system_id":"levelo_inurba_marseille","lat":43.27192,"lon":5.40138,"is_reserved":false,"is_disabled":false,"rental_uris":{"android":"levelo://app?vid=c243072f-6bd2-4d94-ba83-04162cf2a05c","ios":"levelo://app?vid=c243072f-6bd2-4d94-ba83-04162cf2a05c"},"vehicle_type_id":"4","last_reported":1744369684,"current_range_meters":4800,"station_id":"","pricing_plan_id":"cebpf4jnsgd1na2vs0mg"},{"bike_id":"42644588-78be-46b9-9121-1119a7c91922","system_id":"levelo_inurba_marseille","lat":43.324958,"lon":5.365522,"is_reserved":false,"is_disabled":false,"rental_uris":{"android":"levelo://app?vid=42644588-78be-46b9-9121-1119a7c91922","ios":"levelo://app?vid=42644588-78be-46b9-9121-1119a7c91922"},"vehicle_type_id":"4","last_reported":1744369684,"current_range_meters":6000,"station_id":"ce4bhs12rcd13ifvqhvg","pricing_plan_id":"cebpf4jnsgd1na2vs0mg"},{"bike_id":"6db38dd8-9ac2-4b6e-91c4-9f21e11ee01b","system_id":"levelo_inurba_marseille","lat":43.27817,"lon":5.40687,"is_reserved":false,"is_disabled":false,"rental_uris":{"android":"levelo://app?vid=6db38dd8-9ac2-4b6e-91c4-9f21e11ee01b","ios":"levelo://app?vid=6db38dd8-9ac2-4b6e-91c4-9f21e11ee01b"},"vehicle_type_id":"4","last_reported":1744369684,"current_range_meters":6400,"station_id":"ce4bhnh2rcd13ifvqgtg","pricing_plan_id":"cebpf4jnsgd1na2vs0mg"},{"bike_id":"8e8277f0-2311-4fc1-b44b-f4b00a83dc15","system_id":"levelo_inurba_marseille","lat":43.27611,"lon":5.40947,"is_reserved":false,"is_disabled":false,"rental_uris":{"android":"levelo://app?vid=8e8277f0-2311-4fc1-b44b-f4b00a83dc15","ios":"levelo://app?vid=8e8277f0-2311-4fc1-b44b-f4b00a83dc15"},"vehicle_type_id":"4","last_reported":1744369684,"current_range_meters":6400,"station_id":"","pricing_plan_id":"cebpf4jnsgd1na2vs0mg"},{"bike_id":"41f2f1c5-a00a-48a8-b51a-f3e951ef5e54","system_id":"levelo_inurba_marseille","lat":43.23152,"lon":5.43724,"is_reserved":false,"is_disabled":false,"rental_uris":{"android":"levelo://app?vid=41f2f1c5-a00a-48a8-b51a-f3e951ef5e54","ios":"levelo://app?vid=41f2f1c5-a00a-48a8-b51a-f3e951ef5e54"},"vehicle_type_id":"4","last_reported":1744369684,"current_range_meters":6400,"station_id":"ce4bhmp2rcd13ifvqgog","pricing_plan_id":"cebpf4jnsgd1na2vs0mg"},{"bike_id":"0fb423c3-7ce5-456b-bfc1-c4c8f0e9c3fc","system_id":"levelo_inurba_marseille","lat":43.292,"lon":5.35812,"is_reserved":false,"is_disabled":false,"rental_uris":{"android":"levelo://app?vid=0fb423c3-7ce5-456b-bfc1-c4c8f0e9c3fc","ios":"levelo://app?vid=0fb423c3-7ce5-456b-bfc1-c4c8f0e9c3fc"},"vehicle_type_id":"4","last_reported":1744369684,"current_range_meters":6400,"station_id":"ce4bhb12rcd13ifvqel0","pricing_plan_id":"cebpf4jnsgd1na2vs0mg"},{"bike_id":"fc4148d1-a2e5-49df-af09-452711b307f6","system_id":"levelo_inurba_marseille","lat":43.24175,"lon":5.39723,"is_reserved":false,"is_disabled":false,"rental_uris":{"android":"levelo://app?vid=fc4148d1-a2e5-49df-af09-452711b307f6","ios":"levelo://app?vid=fc4148d1-a2e5-49df-af09-452711b307f6"},"vehicle_type_id":"4","last_reported":1744369684,"current_range_meters":6800,"station_id":"ce4bhn12rcd13ifvqgpg","pricing_plan_id":"cebpf4jnsgd1na2vs0mg"},{"bike_id":"4a3e0919-27c2-445a-a961-2bd3243a227d","system_id":"levelo_inurba_marseille","lat":43.31652,"lon":5.37323,"is_reserved":false,"is_disabled":false,"rental_uris":{"android":"levelo://app?vid=4a3e0919-27c2-445a-a961-2bd3243a227d","ios":"levelo://app?vid=4a3e0919-27c2-445a-a961-2bd3243a227d"},"vehicle_type_id":"4","last_reported":1744369684,"current_range_meters":6800,"station_id":"","pricing_plan_id":"cebpf4jnsgd1na2vs0mg"},{"bike_id":"d0a8e340-5ce5-445a-97dc-245aaf2fa477","system_id":"levelo_inurba_marseille","lat":43.32339,"lon":5.4063,"is_reserved":false,"is_disabled":true,"rental_uris":{"android":"levelo://app?vid=d0a8e340-5ce5-445a-97dc-245aaf2fa477","ios":"levelo://app?vid=d0a8e340-5ce5-445a-97dc-245aaf2fa477"},"vehicle_type_id":"4","last_reported":1744369684,"current_range_meters":6800,"station_id":"ce4bhq92rcd13ifvqhjg","pricing_plan_id":"cebpf4jnsgd1na2vs0mg"},{"bike_id":"5ea0bca2-d176-48c3-9ea7-76d109d64408","system_id":"levelo_inurba_marseille","lat":43.26061,"lon":5.39387,"is_reserved":false,"is_disabled":false,"rental_uris":{"android":"levelo://app?vid=5ea0bca2-d176-48c3-9ea7-76d109d64408","ios":"levelo://app?vid=5ea0bca2-d176-48c3-9ea7-76d109d64408"},"vehicle_type_id":"4","last_reported":1744369684,"current_range_meters":6800,"station_id":"ce4bhh92rcd13ifvqfj0","pricing_plan_id":"cebpf4jnsgd1na2vs0mg"},{"bike_id":"fb309676-6c9d-44a8-83c5-e06a50a82f1b","system_id":"levelo_inurba_marseille","lat":43.23193,"lon":5.35553,"is_reserved":false,"is_disabled":false,"rental_uris":{"android":"levelo://app?vid=fb309676-6c9d-44a8-83c5-e06a50a82f1b","ios":"levelo://app?vid=fb309676-6c9d-44a8-83c5-e06a50a82f1b"},"vehicle_type_id":"4","last_reported":1744369684,"current_range_meters":7200,"station_id":"ce4bhu92rcd13ifvqi70","pricing_plan_id":"cebpf4jnsgd1na2vs0mg"},{"bike_id":"e1246faf-fff6-4fc4-af6b-5a9505b75a49","system_id":"levelo_inurba_marseille","lat":43.26062,"lon":5.39394,"is_reserved":false,"is_disabled":false,"rental_uris":{"android":"levelo://app?vid=e1246faf-fff6-4fc4-af6b-5a9505b75a49","ios":"levelo://app?vid=e1246faf-fff6-4fc4-af6b-5a9505b75a49"},"vehicle_type_id":"4","last_reported":1744369684,"current_range_meters":7200,"station_id":"ce4bhh92rcd13ifvqfj0","pricing_plan_id":"cebpf4jnsgd1na2vs0mg"},{"bike_id":"a8497e0b-dd88-4df6-a3ab-504e358d64f5","system_id":"levelo_inurba_marseille","lat":43.29046,"lon":5.35909,"is_reserved":false,"is_disabled":false,"rental_uris":{"android":"levelo://app?vid=a8497e0b-dd88-4df6-a3ab-504e358d64f5","ios":"levelo://app?vid=a8497e0b-dd88-4df6-a3ab-504e358d64f5"},"vehicle_type_id":"4","last_reported":1744369684,"current_range_meters":8000,"station_id":"ce4bha92rcd13ifvqeg0","pricing_plan_id":"cebpf4jnsgd1na2vs0mg"},{"bike_id":"893ccd6e-2ced-4823-ae9b-a5b23d9f8df0","system_id":"levelo_inurba_marseille","lat":43.23153,"lon":5.43704,"is_reserved":false,"is_disabled":false,"rental_uris":{"android":"levelo://app?vid=893ccd6e-2ced-4823-ae9b-a5b23d9f8df0","ios":"levelo://app?vid=893ccd6e-2ced-4823-ae9b-a5b23d9f8df0"},"vehicle_type_id":"4","last_reported":1744369684,"current_range_meters":8400,"station_id":"ce4bhmp2rcd13ifvqgog","pricing_plan_id":"cebpf4jnsgd1na2vs0mg"},{"bike_id":"91a8b62a-eba6-4430-9bcc-1bb2cb3a3467","system_id":"levelo_inurba_marseille","lat":43.30459,"lon":5.37907,"is_reserved":false,"is_disabled":false,"rental_uris":{"android":"levelo://app?vid=91a8b62a-eba6-4430-9bcc-1bb2cb3a3467","ios":"levelo://app?vid=91a8b62a-eba6-4430-9bcc-1bb2cb3a3467"},"vehicle_type_id":"4","last_reported":1744369684,"current_range_meters":8400,"station_id":"ce4bgup2rcd13ifvqcn0","pricing_plan_id":"cebpf4jnsgd1na2vs0mg"},{"bike_id":"ae922ace-6a9c-48fb-bcbf-cfa52f89e736","system_id":"levelo_inurba_marseille","lat":43.27811,"lon":5.40714,"is_reserved":false,"is_disabled":false,"rental_uris":{"android":"levelo://app?vid=ae922ace-6a9c-48fb-bcbf-cfa52f89e736","ios":"levelo://app?vid=ae922ace-6a9c-48fb-bcbf-cfa52f89e736"},"vehicle_type_id":"4","last_reported":1744369684,"current_range_meters":8400,"station_id":"ce4bhnh2rcd13ifvqgtg","pricing_plan_id":"cebpf4jnsgd1na2vs0mg"},{"bike_id":"8ceb6f77-4ee0-4bf4-a957-d18d698e9125","system_id":"levelo_inurba_marseille","lat":43.2937,"lon":5.37847,"is_reserved":false,"is_disabled":false,"rental_uris":{"android":"levelo://app?vid=8ceb6f77-4ee0-4bf4-a957-d18d698e9125","ios":"levelo://app?vid=8ceb6f77-4ee0-4bf4-a957-d18d698e9125"},"vehicle_type_id":"4","last_reported":1744369684,"current_range_meters":8400,"station_id":"ce4bgjh2rcd13ifvqbf0","pricing_plan_id":"cebpf4jnsgd1na2vs0mg"},{"bike_id":"82522d85-616f-4b70-b6f0-591320032371","system_id":"levelo_inurba_marseille","lat":43.31725,"lon":5.42369,"is_reserved":false,"is_disabled":false,"rental_uris":{"android":"levelo://app?vid=82522d85-616f-4b70-b6f0-591320032371","ios":"levelo://app?vid=82522d85-616f-4b70-b6f0-591320032371"},"vehicle_type_id":"4","last_reported":1744369684,"current_range_meters":8400,"station_id":"ce4bhp92rcd13ifvqhbg","pricing_plan_id":"cebpf4jnsgd1na2vs0mg"},{"bike_id":"557c9d0c-87f0-40c3-b23e-8949bf405dda","system_id":"levelo_inurba_marseille","lat":43.29627,"lon":5.37713,"is_reserved":false,"is_disabled":false,"rental_uris":{"android":"levelo://app?vid=557c9d0c-87f0-40c3-b23e-8949bf405dda","ios":"levelo://app?vid=557c9d0c-87f0-40c3-b23e-8949bf405dda"},"vehicle_type_id":"4","last_reported":1744369684,"current_range_meters":8800,"station_id":"ce4bgi92rcd13ifvqb90","pricing_plan_id":"cebpf4jnsgd1na2vs0mg"},{"bike_id":"fa819d12-5ed5-46a2-9de0-341d6cd9fc46","system_id":"levelo_inurba_marseille","lat":43.29778,"lon":5.39341,"is_reserved":false,"is_disabled":false,"rental_uris":{"android":"levelo://app?vid=fa819d12-5ed5-46a2-9de0-341d6cd9fc46","ios":"levelo://app?vid=fa819d12-5ed5-46a2-9de0-341d6cd9fc46"},"vehicle_type_id":"4","last_reported":1744369684,"current_range_meters":8400,"station_id":"chh1huq6cuj3fo74tm60","pricing_plan_id":"cebpf4jnsgd1na2vs0mg"},{"bike_id":"362903b3-a9a0-4c09-9107-e3a97ffbaa7a","system_id":"levelo_inurba_marseille","lat":43.28615,"lon":5.35105,"is_reserved":false,"is_disabled":false,"rental_uris":{"android":"levelo://app?vid=362903b3-a9a0-4c09-9107-e3a97ffbaa7a","ios":"levelo://app?vid=362903b3-a9a0-4c09-9107-e3a97ffbaa7a"},"vehicle_type_id":"4","last_reported":1744369684,"current_range_meters":9200,"station_id":"ce4bhch2rcd13ifvqeug","pricing_plan_id":"cebpf4jnsgd1na2vs0mg"},{"bike_id":"6ef6912d-bc9b-4275-8227-dfb9dbf3a52a","system_id":"levelo_inurba_marseille","lat":43.30964,"lon":5.39034,"is_reserved":false,"is_disabled":false,"rental_uris":{"android":"levelo://app?vid=6ef6912d-bc9b-4275-8227-dfb9dbf3a52a","ios":"levelo://app?vid=6ef6912d-bc9b-4275-8227-dfb9dbf3a52a"},"vehicle_type_id":"4","last_reported":1744369684,"current_range_meters":9200,"station_id":"ce4bgup2rcd13ifvqco0","pricing_plan_id":"cebpf4jnsgd1na2vs0mg"},{"bike_id":"30e7be75-b0d9-4a9d-a98a-5c23f42adae2","system_id":"levelo_inurba_marseille","lat":43.23152,"lon":5.43696,"is_reserved":false,"is_disabled":false,"rental_uris":{"android":"levelo://app?vid=30e7be75-b0d9-4a9d-a98a-5c23f42adae2","ios":"levelo://app?vid=30e7be75-b0d9-4a9d-a98a-5c23f42adae2"},"vehicle_type_id":"4","last_reported":1744369684,"current_range_meters":9200,"station_id":"ce4bhmp2rcd13ifvqgog","pricing_plan_id":"cebpf4jnsgd1na2vs0mg"},{"bike_id":"b712c06e-c2ad-40f9-9828-0f07fcf19f4f","system_id":"levelo_inurba_marseille","lat":43.29514,"lon":5.39396,"is_reserved":false,"is_disabled":false,"rental_uris":{"android":"levelo://app?vid=b712c06e-c2ad-40f9-9828-0f07fcf19f4f","ios":"levelo://app?vid=b712c06e-c2ad-40f9-9828-0f07fcf19f4f"},"vehicle_type_id":"4","last_reported":1744369684,"current_range_meters":9600,"station_id":"ce4bh292rcd13ifvqdf0","pricing_plan_id":"cebpf4jnsgd1na2vs0mg"},{"bike_id":"3d2b8ff4-325c-49bf-b719-fc7495a3fb03","system_id":"levelo_inurba_marseille","lat":43.23178,"lon":5.43743,"is_reserved":false,"is_disabled":false,"rental_uris":{"android":"levelo://app?vid=3d2b8ff4-325c-49bf-b719-fc7495a3fb03","ios":"levelo://app?vid=3d2b8ff4-325c-49bf-b719-fc7495a3fb03"},"vehicle_type_id":"4","last_reported":1744369684,"current_range_meters":9600,"station_id":"ce4bhmp2rcd13ifvqgog","pricing_plan_id":"cebpf4jnsgd1na2vs0mg"},{"bike_id":"259dc655-7922-41be-8105-04293835955e","system_id":"levelo_inurba_marseille","lat":43.30312,"lon":5.36898,"is_reserved":false,"is_disabled":false,"rental_uris":{"android":"levelo://app?vid=259dc655-7922-41be-8105-04293835955e","ios":"levelo://app?vid=259dc655-7922-41be-8105-04293835955e"},"vehicle_type_id":"4","last_reported":1744369684,"current_range_meters":10000,"station_id":"ce4bgqh2rcd13ifvqc5g","pricing_plan_id":"cebpf4jnsgd1na2vs0mg"},{"bike_id":"e4584e81-d0ff-45d4-a366-ed824c8de9b6","system_id":"levelo_inurba_marseille","lat":43.23174,"lon":5.43719,"is_reserved":false,"is_disabled":true,"rental_uris":{"android":"levelo://app?vid=e4584e81-d0ff-45d4-a366-ed824c8de9b6","ios":"levelo://app?vid=e4584e81-d0ff-45d4-a366-ed824c8de9b6"},"vehicle_type_id":"4","last_reported":1744369684,"current_range_meters":10000,"station_id":"ce4bhmp2rcd13ifvqgog","pricing_plan_id":"cebpf4jnsgd1na2vs0mg"},{"bike_id":"6096d8e4-4720-4fb3-9e2d-c4f2bdfc9da1","system_id":"levelo_inurba_marseille","lat":43.29043,"lon":5.35923,"is_reserved":false,"is_disabled":false,"rental_uris":{"android":"levelo://app?vid=6096d8e4-4720-4fb3-9e2d-c4f2bdfc9da1","ios":"levelo://app?vid=6096d8e4-4720-4fb3-9e2d-c4f2bdfc9da1"},"vehicle_type_id":"4","last_reported":1744369684,"current_range_meters":10000,"station_id":"ce4bha92rcd13ifvqeg0","pricing_plan_id":"cebpf4jnsgd1na2vs0mg"},{"bike_id":"eab6cbfa-cb8e-47d7-b0d6-226ab7facec7","system_id":"levelo_inurba_marseille","lat":43.317135,"lon":5.424064,"is_reserved":false,"is_disabled":true,"rental_uris":{"android":"levelo://app?vid=eab6cbfa-cb8e-47d7-b0d6-226ab7facec7","ios":"levelo://app?vid=eab6cbfa-cb8e-47d7-b0d6-226ab7facec7"},"vehicle_type_id":"4","last_reported":1744369684,"current_range_meters":10000,"station_id":"ce4bhp92rcd13ifvqhbg","pricing_plan_id":"cebpf4jnsgd1na2vs0mg"},{"bike_id":"5eadc5bc-54ec-45c1-8cfd-4b63cd3d7646","system_id":"levelo_inurba_marseille","lat":43.29971,"lon":5.37181,"is_reserved":false,"is_disabled":false,"rental_uris":{"android":"levelo://app?vid=5eadc5bc-54ec-45c1-8cfd-4b63cd3d7646","ios":"levelo://app?vid=5eadc5bc-54ec-45c1-8cfd-4b63cd3d7646"},"vehicle_type_id":"4","last_reported":1744369684,"current_range_meters":10800,"station_id":"ce4bgr92rcd13ifvqc7g","pricing_plan_id":"cebpf4jnsgd1na2vs0mg"},{"bike_id":"f960aa00-83ad-493a-b0ad-c401b24799e7","system_id":"levelo_inurba_marseille","lat":43.24165,"lon":5.39735,"is_reserved":false,"is_disabled":false,"rental_uris":{"android":"levelo://app?vid=f960aa00-83ad-493a-b0ad-c401b24799e7","ios":"levelo://app?vid=f960aa00-83ad-493a-b0ad-c401b24799e7"},"vehicle_type_id":"4","last_reported":1744369684,"current_range_meters":10800,"station_id":"ce4bhn12rcd13ifvqgpg","pricing_plan_id":"cebpf4jnsgd1na2vs0mg"},{"bike_id":"4b62ceb0-3657-48c1-8c0f-5ef42bdc9c04","system_id":"levelo_inurba_marseille","lat":43.23061,"lon":5.35493,"is_reserved":false,"is_disabled":false,"rental_uris":{"android":"levelo://app?vid=4b62ceb0-3657-48c1-8c0f-5ef42bdc9c04","ios":"levelo://app?vid=4b62ceb0-3657-48c1-8c0f-5ef42bdc9c04"},"vehicle_type_id":"4","last_reported":1744369684,"current_range_meters":10800,"station_id":"cpo3342slgdg3j2ifvpg","pricing_plan_id":"cebpf4jnsgd1na2vs0mg"},{"bike_id":"0922821c-4e1d-4817-9469-860e55f8f0d1","system_id":"levelo_inurba_marseille","lat":43.225059,"lon":5.347836,"is_reserved":false,"is_disabled":false,"rental_uris":{"android":"levelo://app?vid=0922821c-4e1d-4817-9469-860e55f8f0d1","ios":"levelo://app?vid=0922821c-4e1d-4817-9469-860e55f8f0d1"},"vehicle_type_id":"4","last_reported":1744369684,"current_range_meters":10800,"station_id":"st_cvj5dfep6f1abm77gieg","pricing_plan_id":"cebpf4jnsgd1na2vs0mg"},{"bike_id":"168f80ff-fdd3-4713-893e-9ecc4c0ffecf","system_id":"levelo_inurba_marseille","lat":43.2293,"lon":5.35371,"is_reserved":false,"is_disabled":false,"rental_uris":{"android":"levelo://app?vid=168f80ff-fdd3-4713-893e-9ecc4c0ffecf","ios":"levelo://app?vid=168f80ff-fdd3-4713-893e-9ecc4c0ffecf"},"vehicle_type_id":"4","last_reported":1744369684,"current_range_meters":11200,"station_id":"cpo3532slgdg3j2ikp40","pricing_plan_id":"cebpf4jnsgd1na2vs0mg"},{"bike_id":"82d3762f-dbcd-4c6c-bd48-3e7c9a4f527d","system_id":"levelo_inurba_marseille","lat":43.29272,"lon":5.37603,"is_reserved":false,"is_disabled":false,"rental_uris":{"android":"levelo://app?vid=82d3762f-dbcd-4c6c-bd48-3e7c9a4f527d","ios":"levelo://app?vid=82d3762f-dbcd-4c6c-bd48-3e7c9a4f527d"},"vehicle_type_id":"4","last_reported":1744369684,"current_range_meters":11200,"station_id":"ce4bgi12rcd13ifvqb80","pricing_plan_id":"cebpf4jnsgd1na2vs0mg"},{"bike_id":"c266cdc4-c7b8-499b-9979-d13187952b82","system_id":"levelo_inurba_marseille","lat":43.26948,"lon":5.38917,"is_reserved":false,"is_disabled":false,"rental_uris":{"android":"levelo://app?vid=c266cdc4-c7b8-499b-9979-d13187952b82","ios":"levelo://app?vid=c266cdc4-c7b8-499b-9979-d13187952b82"},"vehicle_type_id":"4","last_reported":1744369684,"current_range_meters":11200,"station_id":"ce4bhhh2rcd13ifvqfl0","pricing_plan_id":"cebpf4jnsgd1na2vs0mg"},{"bike_id":"e425a4cf-f41f-4546-8247-5391fcf5a9be","system_id":"levelo_inurba_marseille","lat":43.27494,"lon":5.42446,"is_reserved":false,"is_disabled":false,"rental_uris":{"android":"levelo://app?vid=e425a4cf-f41f-4546-8247-5391fcf5a9be","ios":"levelo://app?vid=e425a4cf-f41f-4546-8247-5391fcf5a9be"},"vehicle_type_id":"4","last_reported":1744369684,"current_range_meters":11200,"station_id":"ce4bhn92rcd13ifvqgrg","pricing_plan_id":"cebpf4jnsgd1na2vs0mg"},{"bike_id":"805b21e3-7c58-4d2e-9325-347344dabc11","system_id":"levelo_inurba_marseille","lat":43.286774,"lon":5.383275,"is_reserved":false,"is_disabled":false,"rental_uris":{"android":"levelo://app?vid=805b21e3-7c58-4d2e-9325-347344dabc11","ios":"levelo://app?vid=805b21e3-7c58-4d2e-9325-347344dabc11"},"vehicle_type_id":"4","last_reported":1744369684,"current_range_meters":10800,"station_id":"ce4bhoh2rcd13ifvqh5g","pricing_plan_id":"cebpf4jnsgd1na2vs0mg"},{"bike_id":"4f3acd91-ce8e-4583-bef1-d80af5069254","system_id":"levelo_inurba_marseille","lat":43.24168,"lon":5.3974,"is_reserved":false,"is_disabled":false,"rental_uris":{"android":"levelo://app?vid=4f3acd91-ce8e-4583-bef1-d80af5069254","ios":"levelo://app?vid=4f3acd91-ce8e-4583-bef1-d80af5069254"},"vehicle_type_id":"4","last_reported":1744369684,"current_range_meters":11600,"station_id":"ce4bhn12rcd13ifvqgpg","pricing_plan_id":"cebpf4jnsgd1na2vs0mg"},{"bike_id":"94455896-0f19-4fae-bd72-9879f01fcd6e","system_id":"levelo_inurba_marseille","lat":43.29565,"lon":5.42237,"is_reserved":false,"is_disabled":true,"rental_uris":{"android":"levelo://app?vid=94455896-0f19-4fae-bd72-9879f01fcd6e","ios":"levelo://app?vid=94455896-0f19-4fae-bd72-9879f01fcd6e"},"vehicle_type_id":"4","last_reported":1744369684,"current_range_meters":12000,"station_id":"ce4bhph2rcd13ifvqhdg","pricing_plan_id":"cebpf4jnsgd1na2vs0mg"},{"bike_id":"e871eaf3-b81d-4a00-8c6c-ef53e2313c5d","system_id":"levelo_inurba_marseille","lat":43.27499,"lon":5.42449,"is_reserved":false,"is_disabled":false,"rental_uris":{"android":"levelo://app?vid=e871eaf3-b81d-4a00-8c6c-ef53e2313c5d","ios":"levelo://app?vid=e871eaf3-b81d-4a00-8c6c-ef53e2313c5d"},"vehicle_type_id":"4","last_reported":1744369684,"current_range_meters":12000,"station_id":"ce4bhn92rcd13ifvqgrg","pricing_plan_id":"cebpf4jnsgd1na2vs0mg"},{"bike_id":"6ae42d22-449e-430c-b887-6a8836aa2696","system_id":"levelo_inurba_marseille","lat":43.30543,"lon":5.36547,"is_reserved":false,"is_disabled":false,"rental_uris":{"android":"levelo://app?vid=6ae42d22-449e-430c-b887-6a8836aa2696","ios":"levelo://app?vid=6ae42d22-449e-430c-b887-6a8836aa2696"},"vehicle_type_id":"4","last_reported":1744369684,"current_range_meters":12400,"station_id":"ce4bgs12rcd13ifvqcag","pricing_plan_id":"cebpf4jnsgd1na2vs0mg"},{"bike_id":"51940112-a940-4055-83fb-81f0ae5cae02","system_id":"levelo_inurba_marseille","lat":43.23148,"lon":5.43705,"is_reserved":false,"is_disabled":false,"rental_uris":{"android":"levelo://app?vid=51940112-a940-4055-83fb-81f0ae5cae02","ios":"levelo://app?vid=51940112-a940-4055-83fb-81f0ae5cae02"},"vehicle_type_id":"4","last_reported":1744369684,"current_range_meters":12400,"station_id":"ce4bhmp2rcd13ifvqgog","pricing_plan_id":"cebpf4jnsgd1na2vs0mg"},{"bike_id":"33551090-e6d0-4b4b-819a-3dbf58b9aa84","system_id":"levelo_inurba_marseille","lat":43.2861,"lon":5.3511,"is_reserved":false,"is_disabled":false,"rental_uris":{"android":"levelo://app?vid=33551090-e6d0-4b4b-819a-3dbf58b9aa84","ios":"levelo://app?vid=33551090-e6d0-4b4b-819a-3dbf58b9aa84"},"vehicle_type_id":"4","last_reported":1744369684,"current_range_meters":12800,"station_id":"ce4bhch2rcd13ifvqeug","pricing_plan_id":"cebpf4jnsgd1na2vs0mg"},{"bike_id":"feb04d1c-c2bd-4d38-91ca-a0075a753750","system_id":"levelo_inurba_marseille","lat":43.284174,"lon":5.349823,"is_reserved":false,"is_disabled":false,"rental_uris":{"android":"levelo://app?vid=feb04d1c-c2bd-4d38-91ca-a0075a753750","ios":"levelo://app?vid=feb04d1c-c2bd-4d38-91ca-a0075a753750"},"vehicle_type_id":"4","last_reported":1744369684,"current_range_meters":12800,"station_id":"ce4bhbh2rcd13ifvqepg","pricing_plan_id":"cebpf4jnsgd1na2vs0mg"},{"bike_id":"f26abdb1-2952-45b3-b097-4b7fee90073a","system_id":"levelo_inurba_marseille","lat":43.30595,"lon":5.39353,"is_reserved":false,"is_disabled":false,"rental_uris":{"android":"levelo://app?vid=f26abdb1-2952-45b3-b097-4b7fee90073a","ios":"levelo://app?vid=f26abdb1-2952-45b3-b097-4b7fee90073a"},"vehicle_type_id":"4","last_reported":1744369684,"current_range_meters":12800,"station_id":"ce4bh0p2rcd13ifvqd80","pricing_plan_id":"cebpf4jnsgd1na2vs0mg"},{"bike_id":"463b41fd-37bb-48c0-a6e4-12f737a3d7cf","system_id":"levelo_inurba_marseille","lat":43.269444,"lon":5.402829,"is_reserved":false,"is_disabled":true,"rental_uris":{"android":"levelo://app?vid=463b41fd-37bb-48c0-a6e4-12f737a3d7cf","ios":"levelo://app?vid=463b41fd-37bb-48c0-a6e4-12f737a3d7cf"},"vehicle_type_id":"4","last_reported":1744369684,"current_range_meters":13600,"station_id":"cjm6bp8fraef2m0cb0m0","pricing_plan_id":"cebpf4jnsgd1na2vs0mg"},{"bike_id":"6ab35b31-bbf8-4853-a91d-ed7dcddcc22e","system_id":"levelo_inurba_marseille","lat":43.29686,"lon":5.3728,"is_reserved":false,"is_disabled":false,"rental_uris":{"android":"levelo://app?vid=6ab35b31-bbf8-4853-a91d-ed7dcddcc22e","ios":"levelo://app?vid=6ab35b31-bbf8-4853-a91d-ed7dcddcc22e"},"vehicle_type_id":"4","last_reported":1744369684,"current_range_meters":13600,"station_id":"ce4bgk12rcd13ifvqbj0","pricing_plan_id":"cebpf4jnsgd1na2vs0mg"},{"bike_id":"2d2e31a1-75bd-4ef3-8efc-056c6e4199ac","system_id":"levelo_inurba_marseille","lat":43.2861,"lon":5.35113,"is_reserved":false,"is_disabled":false,"rental_uris":{"android":"levelo://app?vid=2d2e31a1-75bd-4ef3-8efc-056c6e4199ac","ios":"levelo://app?vid=2d2e31a1-75bd-4ef3-8efc-056c6e4199ac"},"vehicle_type_id":"4","last_reported":1744369684,"current_range_meters":14000,"station_id":"ce4bhch2rcd13ifvqeug","pricing_plan_id":"cebpf4jnsgd1na2vs0mg"},{"bike_id":"44cd6a7b-797a-41ad-b946-2920cceb905f","system_id":"levelo_inurba_marseille","lat":43.28076,"lon":5.39658,"is_reserved":false,"is_disabled":false,"rental_uris":{"android":"levelo://app?vid=44cd6a7b-797a-41ad-b946-2920cceb905f","ios":"levelo://app?vid=44cd6a7b-797a-41ad-b946-2920cceb905f"},"vehicle_type_id":"4","last_reported":1744369684,"current_range_meters":14000,"station_id":"ce4bho12rcd13ifvqh2g","pricing_plan_id":"cebpf4jnsgd1na2vs0mg"},{"bike_id":"09b23838-ef8a-400d-9175-f211d64a4290","system_id":"levelo_inurba_marseille","lat":43.25699,"lon":5.41119,"is_reserved":false,"is_disabled":false,"rental_uris":{"android":"levelo://app?vid=09b23838-ef8a-400d-9175-f211d64a4290","ios":"levelo://app?vid=09b23838-ef8a-400d-9175-f211d64a4290"},"vehicle_type_id":"4","last_reported":1744369684,"current_range_meters":14000,"station_id":"ce4bhkp2rcd13ifvqgd0","pricing_plan_id":"cebpf4jnsgd1na2vs0mg"},{"bike_id":"8def42d5-7601-461e-b69f-dd41878701ec","system_id":"levelo_inurba_marseille","lat":43.30477,"lon":5.37895,"is_reserved":false,"is_disabled":false,"rental_uris":{"android":"levelo://app?vid=8def42d5-7601-461e-b69f-dd41878701ec","ios":"levelo://app?vid=8def42d5-7601-461e-b69f-dd41878701ec"},"vehicle_type_id":"4","last_reported":1744369684,"current_range_meters":14000,"station_id":"ce4bgup2rcd13ifvqcn0","pricing_plan_id":"cebpf4jnsgd1na2vs0mg"},{"bike_id":"c21ef8cb-943a-40ec-a3bf-b6806da85819","system_id":"levelo_inurba_marseille","lat":43.2846,"lon":5.35883,"is_reserved":false,"is_disabled":false,"rental_uris":{"android":"levelo://app?vid=c21ef8cb-943a-40ec-a3bf-b6806da85819","ios":"levelo://app?vid=c21ef8cb-943a-40ec-a3bf-b6806da85819"},"vehicle_type_id":"4","last_reported":1744369684,"current_range_meters":14000,"station_id":"ce4bhah2rcd13ifvqei0","pricing_plan_id":"cebpf4jnsgd1na2vs0mg"},{"bike_id":"b4ec3d9d-164e-486a-892d-58348f8d5b6f","system_id":"levelo_inurba_marseille","lat":43.3095,"lon":5.39032,"is_reserved":false,"is_disabled":false,"rental_uris":{"android":"levelo://app?vid=b4ec3d9d-164e-486a-892d-58348f8d5b6f","ios":"levelo://app?vid=b4ec3d9d-164e-486a-892d-58348f8d5b6f"},"vehicle_type_id":"4","last_reported":1744369684,"current_range_meters":14400,"station_id":"ce4bgup2rcd13ifvqco0","pricing_plan_id":"cebpf4jnsgd1na2vs0mg"},{"bike_id":"6eb8c57a-4190-4f8d-86a1-123baf9063f7","system_id":"levelo_inurba_marseille","lat":43.30552,"lon":5.36549,"is_reserved":false,"is_disabled":false,"rental_uris":{"android":"levelo://app?vid=6eb8c57a-4190-4f8d-86a1-123baf9063f7","ios":"levelo://app?vid=6eb8c57a-4190-4f8d-86a1-123baf9063f7"},"vehicle_type_id":"4","last_reported":1744369684,"current_range_meters":14400,"station_id":"ce4bgs12rcd13ifvqcag","pricing_plan_id":"cebpf4jnsgd1na2vs0mg"},{"bike_id":"f1849247-1a3b-4eef-b251-a7a4f51ab6d4","system_id":"levelo_inurba_marseille","lat":43.22931,"lon":5.35375,"is_reserved":false,"is_disabled":false,"rental_uris":{"android":"levelo://app?vid=f1849247-1a3b-4eef-b251-a7a4f51ab6d4","ios":"levelo://app?vid=f1849247-1a3b-4eef-b251-a7a4f51ab6d4"},"vehicle_type_id":"4","last_reported":1744369684,"current_range_meters":14400,"station_id":"cpo3532slgdg3j2ikp40","pricing_plan_id":"cebpf4jnsgd1na2vs0mg"},{"bike_id":"c71259c3-e3b7-4d5d-b9cd-280539bbe990","system_id":"levelo_inurba_marseille","lat":43.30302,"lon":5.36868,"is_reserved":false,"is_disabled":false,"rental_uris":{"android":"levelo://app?vid=c71259c3-e3b7-4d5d-b9cd-280539bbe990","ios":"levelo://app?vid=c71259c3-e3b7-4d5d-b9cd-280539bbe990"},"vehicle_type_id":"4","last_reported":1744369684,"current_range_meters":14400,"station_id":"ce4bgqh2rcd13ifvqc5g","pricing_plan_id":"cebpf4jnsgd1na2vs0mg"},{"bike_id":"05acc5aa-ec43-4674-8a0e-fe48da85bef3","system_id":"levelo_inurba_marseille","lat":43.3015,"lon":5.38097,"is_reserved":false,"is_disabled":false,"rental_uris":{"android":"levelo://app?vid=05acc5aa-ec43-4674-8a0e-fe48da85bef3","ios":"levelo://app?vid=05acc5aa-ec43-4674-8a0e-fe48da85bef3"},"vehicle_type_id":"4","last_reported":1744369684,"current_range_meters":14400,"station_id":"ce4bgjp2rcd13ifvqbh0","pricing_plan_id":"cebpf4jnsgd1na2vs0mg"},{"bike_id":"7ecb8ede-57ca-44aa-8298-85b1b4a01d10","system_id":"levelo_inurba_marseille","lat":43.25112,"lon":5.40339,"is_reserved":false,"is_disabled":false,"rental_uris":{"android":"levelo://app?vid=7ecb8ede-57ca-44aa-8298-85b1b4a01d10","ios":"levelo://app?vid=7ecb8ede-57ca-44aa-8298-85b1b4a01d10"},"vehicle_type_id":"4","last_reported":1744369684,"current_range_meters":14800,"station_id":"ce4bhlh2rcd13ifvqgig","pricing_plan_id":"cebpf4jnsgd1na2vs0mg"},{"bike_id":"b5c9c913-ccd1-4ac7-9beb-62dbe7b90b9a","system_id":"levelo_inurba_marseille","lat":43.2997,"lon":5.37159,"is_reserved":false,"is_disabled":false,"rental_uris":{"android":"levelo://app?vid=b5c9c913-ccd1-4ac7-9beb-62dbe7b90b9a","ios":"levelo://app?vid=b5c9c913-ccd1-4ac7-9beb-62dbe7b90b9a"},"vehicle_type_id":"4","last_reported":1744369684,"current_range_meters":14800,"station_id":"ce4bgr92rcd13ifvqc7g","pricing_plan_id":"cebpf4jnsgd1na2vs0mg"},{"bike_id":"4bcdcc82-d58d-4172-b626-a8c82408681c","system_id":"levelo_inurba_marseille","lat":43.31224,"lon":5.36853,"is_reserved":false,"is_disabled":true,"rental_uris":{"android":"levelo://app?vid=4bcdcc82-d58d-4172-b626-a8c82408681c","ios":"levelo://app?vid=4bcdcc82-d58d-4172-b626-a8c82408681c"},"vehicle_type_id":"4","last_reported":1744369684,"current_range_meters":14800,"station_id":"ce4bgl92rcd13ifvqbq0","pricing_plan_id":"cebpf4jnsgd1na2vs0mg"},{"bike_id":"b3d15aa1-72a7-4586-9239-713f2a344c92","system_id":"levelo_inurba_marseille","lat":43.25003,"lon":5.38925,"is_reserved":false,"is_disabled":false,"rental_uris":{"android":"levelo://app?vid=b3d15aa1-72a7-4586-9239-713f2a344c92","ios":"levelo://app?vid=b3d15aa1-72a7-4586-9239-713f2a344c92"},"vehicle_type_id":"4","last_reported":1744369684,"current_range_meters":15200,"station_id":"ce4bhgp2rcd13ifvqfd0","pricing_plan_id":"cebpf4jnsgd1na2vs0mg"},{"bike_id":"2ba24ca1-f9ca-431f-9eba-b0e65972a4cc","system_id":"levelo_inurba_marseille","lat":43.26933,"lon":5.38921,"is_reserved":false,"is_disabled":false,"rental_uris":{"android":"levelo://app?vid=2ba24ca1-f9ca-431f-9eba-b0e65972a4cc","ios":"levelo://app?vid=2ba24ca1-f9ca-431f-9eba-b0e65972a4cc"},"vehicle_type_id":"4","last_reported":1744369684,"current_range_meters":15200,"station_id":"ce4bhhh2rcd13ifvqfl0","pricing_plan_id":"cebpf4jnsgd1na2vs0mg"},{"bike_id":"549918be-d79a-4899-a870-6473907900ee","system_id":"levelo_inurba_marseille","lat":43.29857,"lon":5.362913,"is_reserved":false,"is_disabled":true,"rental_uris":{"android":"levelo://app?vid=549918be-d79a-4899-a870-6473907900ee","ios":"levelo://app?vid=549918be-d79a-4899-a870-6473907900ee"},"vehicle_type_id":"4","last_reported":1744369684,"current_range_meters":15200,"station_id":"ce4bgpp2rcd13ifvqc3g","pricing_plan_id":"cebpf4jnsgd1na2vs0mg"},{"bike_id":"1b28a96e-ff57-4bf5-85d0-8da089b3d3cd","system_id":"levelo_inurba_marseille","lat":43.26677,"lon":5.38266,"is_reserved":false,"is_disabled":false,"rental_uris":{"android":"levelo://app?vid=1b28a96e-ff57-4bf5-85d0-8da089b3d3cd","ios":"levelo://app?vid=1b28a96e-ff57-4bf5-85d0-8da089b3d3cd"},"vehicle_type_id":"4","last_reported":1744369684,"current_range_meters":15200,"station_id":"ce4bhg92rcd13ifvqf90","pricing_plan_id":"cebpf4jnsgd1na2vs0mg"},{"bike_id":"0a12228f-61f9-48c1-9f2f-bd8159dce7a6","system_id":"levelo_inurba_marseille","lat":43.2621,"lon":5.3747,"is_reserved":false,"is_disabled":true,"rental_uris":{"android":"levelo://app?vid=0a12228f-61f9-48c1-9f2f-bd8159dce7a6","ios":"levelo://app?vid=0a12228f-61f9-48c1-9f2f-bd8159dce7a6"},"vehicle_type_id":"4","last_reported":1744369684,"current_range_meters":15200,"station_id":"ce4bhgp2rcd13ifvqfc0","pricing_plan_id":"cebpf4jnsgd1na2vs0mg"},{"bike_id":"7b5424e8-1652-43a2-94ec-e9ecac8aa584","system_id":"levelo_inurba_marseille","lat":43.28027,"lon":5.3696,"is_reserved":false,"is_disabled":false,"rental_uris":{"android":"levelo://app?vid=7b5424e8-1652-43a2-94ec-e9ecac8aa584","ios":"levelo://app?vid=7b5424e8-1652-43a2-94ec-e9ecac8aa584"},"vehicle_type_id":"4","last_reported":1744369684,"current_range_meters":15200,"station_id":"ce4bha12rcd13ifvqef0","pricing_plan_id":"cebpf4jnsgd1na2vs0mg"},{"bike_id":"0ddf776c-d331-4742-a390-e261c54b7ae1","system_id":"levelo_inurba_marseille","lat":43.21177,"lon":5.35063,"is_reserved":false,"is_disabled":false,"rental_uris":{"android":"levelo://app?vid=0ddf776c-d331-4742-a390-e261c54b7ae1","ios":"levelo://app?vid=0ddf776c-d331-4742-a390-e261c54b7ae1"},"vehicle_type_id":"4","last_reported":1744369684,"current_range_meters":15200,"station_id":"st_cvj6sg6p6f1abm77japg","pricing_plan_id":"cebpf4jnsgd1na2vs0mg"},{"bike_id":"b9ffcab2-94df-47f4-ad6d-92c562ef16e1","system_id":"levelo_inurba_marseille","lat":43.27811,"lon":5.4071,"is_reserved":false,"is_disabled":false,"rental_uris":{"android":"levelo://app?vid=b9ffcab2-94df-47f4-ad6d-92c562ef16e1","ios":"levelo://app?vid=b9ffcab2-94df-47f4-ad6d-92c562ef16e1"},"vehicle_type_id":"4","last_reported":1744369684,"current_range_meters":15200,"station_id":"ce4bhnh2rcd13ifvqgtg","pricing_plan_id":"cebpf4jnsgd1na2vs0mg"},{"bike_id":"e3fa8457-1062-4167-b52d-88577e8bfef0","system_id":"levelo_inurba_marseille","lat":43.29005,"lon":5.35611,"is_reserved":false,"is_disabled":false,"rental_uris":{"android":"levelo://app?vid=e3fa8457-1062-4167-b52d-88577e8bfef0","ios":"levelo://app?vid=e3fa8457-1062-4167-b52d-88577e8bfef0"},"vehicle_type_id":"4","last_reported":1744369684,"current_range_meters":15200,"station_id":"ce4bhb92rcd13ifvqen0","pricing_plan_id":"cebpf4jnsgd1na2vs0mg"},{"bike_id":"7410619e-42cf-4083-a237-44aae0171a8b","system_id":"levelo_inurba_marseille","lat":43.30143,"lon":5.38076,"is_reserved":false,"is_disabled":false,"rental_uris":{"android":"levelo://app?vid=7410619e-42cf-4083-a237-44aae0171a8b","ios":"levelo://app?vid=7410619e-42cf-4083-a237-44aae0171a8b"},"vehicle_type_id":"4","last_reported":1744369684,"current_range_meters":16000,"station_id":"ce4bgjp2rcd13ifvqbh0","pricing_plan_id":"cebpf4jnsgd1na2vs0mg"},{"bike_id":"5f0f8288-68fd-470e-bcb6-af4241f1a925","system_id":"levelo_inurba_marseille","lat":43.28422,"lon":5.34993,"is_reserved":false,"is_disabled":false,"rental_uris":{"android":"levelo://app?vid=5f0f8288-68fd-470e-bcb6-af4241f1a925","ios":"levelo://app?vid=5f0f8288-68fd-470e-bcb6-af4241f1a925"},"vehicle_type_id":"4","last_reported":1744369684,"current_range_meters":16000,"station_id":"ce4bhbh2rcd13ifvqepg","pricing_plan_id":"cebpf4jnsgd1na2vs0mg"},{"bike_id":"ef291804-1477-432e-b153-82ea15725418","system_id":"levelo_inurba_marseille","lat":43.33742,"lon":5.37454,"is_reserved":false,"is_disabled":false,"rental_uris":{"android":"levelo://app?vid=ef291804-1477-432e-b153-82ea15725418","ios":"levelo://app?vid=ef291804-1477-432e-b153-82ea15725418"},"vehicle_type_id":"4","last_reported":1744369684,"current_range_meters":16000,"station_id":"","pricing_plan_id":"cebpf4jnsgd1na2vs0mg"},{"bike_id":"4c893399-b4ed-40ed-a49f-713da320f269","system_id":"levelo_inurba_marseille","lat":43.29861,"lon":5.37841,"is_reserved":false,"is_disabled":false,"rental_uris":{"android":"levelo://app?vid=4c893399-b4ed-40ed-a49f-713da320f269","ios":"levelo://app?vid=4c893399-b4ed-40ed-a49f-713da320f269"},"vehicle_type_id":"4","last_reported":1744369684,"current_range_meters":16000,"station_id":"","pricing_plan_id":"cebpf4jnsgd1na2vs0mg"},{"bike_id":"2bc77524-6534-4114-bc35-8f2e56b45ad0","system_id":"levelo_inurba_marseille","lat":43.21773,"lon":5.34592,"is_reserved":false,"is_disabled":true,"rental_uris":{"android":"levelo://app?vid=2bc77524-6534-4114-bc35-8f2e56b45ad0","ios":"levelo://app?vid=2bc77524-6534-4114-bc35-8f2e56b45ad0"},"vehicle_type_id":"4","last_reported":1744369684,"current_range_meters":16000,"station_id":"","pricing_plan_id":"cebpf4jnsgd1na2vs0mg"},{"bike_id":"5e5d5919-e11c-45c7-98c5-dab1eab23575","system_id":"levelo_inurba_marseille","lat":43.24174,"lon":5.39737,"is_reserved":false,"is_disabled":false,"rental_uris":{"android":"levelo://app?vid=5e5d5919-e11c-45c7-98c5-dab1eab23575","ios":"levelo://app?vid=5e5d5919-e11c-45c7-98c5-dab1eab23575"},"vehicle_type_id":"4","last_reported":1744369684,"current_range_meters":16000,"station_id":"ce4bhn12rcd13ifvqgpg","pricing_plan_id":"cebpf4jnsgd1na2vs0mg"},{"bike_id":"8c58f2fa-99e1-41f8-bf90-9c1648b679b1","system_id":"levelo_inurba_marseille","lat":43.27301,"lon":5.41415,"is_reserved":false,"is_disabled":false,"rental_uris":{"android":"levelo://app?vid=8c58f2fa-99e1-41f8-bf90-9c1648b679b1","ios":"levelo://app?vid=8c58f2fa-99e1-41f8-bf90-9c1648b679b1"},"vehicle_type_id":"4","last_reported":1744369684,"current_range_meters":16000,"station_id":"","pricing_plan_id":"cebpf4jnsgd1na2vs0mg"},{"bike_id":"56830533-4ee2-44ba-a0aa-f5a935a86a02","system_id":"levelo_inurba_marseille","lat":43.21753,"lon":5.34591,"is_reserved":false,"is_disabled":false,"rental_uris":{"android":"levelo://app?vid=56830533-4ee2-44ba-a0aa-f5a935a86a02","ios":"levelo://app?vid=56830533-4ee2-44ba-a0aa-f5a935a86a02"},"vehicle_type_id":"4","last_reported":1744369684,"current_range_meters":16000,"station_id":"","pricing_plan_id":"cebpf4jnsgd1na2vs0mg"},{"bike_id":"e1dca79c-a34d-4a5c-86cf-8f5456c2baf1","system_id":"levelo_inurba_marseille","lat":43.28459,"lon":5.35887,"is_reserved":false,"is_disabled":false,"rental_uris":{"android":"levelo://app?vid=e1dca79c-a34d-4a5c-86cf-8f5456c2baf1","ios":"levelo://app?vid=e1dca79c-a34d-4a5c-86cf-8f5456c2baf1"},"vehicle_type_id":"4","last_reported":1744369684,"current_range_meters":16400,"station_id":"ce4bhah2rcd13ifvqei0","pricing_plan_id":"cebpf4jnsgd1na2vs0mg"},{"bike_id":"904cfe42-1f5a-493e-8cbc-754547ad7f8f","system_id":"levelo_inurba_marseille","lat":43.27941,"lon":5.41044,"is_reserved":false,"is_disabled":false,"rental_uris":{"android":"levelo://app?vid=904cfe42-1f5a-493e-8cbc-754547ad7f8f","ios":"levelo://app?vid=904cfe42-1f5a-493e-8cbc-754547ad7f8f"},"vehicle_type_id":"4","last_reported":1744369684,"current_range_meters":16400,"station_id":"ce4bhnp2rcd13ifvqh0g","pricing_plan_id":"cebpf4jnsgd1na2vs0mg"},{"bike_id":"b23c94b8-d5d3-4e0b-8152-41fe9d7297e8","system_id":"levelo_inurba_marseille","lat":43.32356,"lon":5.3676,"is_reserved":false,"is_disabled":false,"rental_uris":{"android":"levelo://app?vid=b23c94b8-d5d3-4e0b-8152-41fe9d7297e8","ios":"levelo://app?vid=b23c94b8-d5d3-4e0b-8152-41fe9d7297e8"},"vehicle_type_id":"4","last_reported":1744369684,"current_range_meters":16800,"station_id":"ce4bhsh2rcd13ifvqi2g","pricing_plan_id":"cebpf4jnsgd1na2vs0mg"},{"bike_id":"54a7d26a-c5f8-4008-b945-bcc5a036c746","system_id":"levelo_inurba_marseille","lat":43.23324,"lon":5.36142,"is_reserved":false,"is_disabled":false,"rental_uris":{"android":"levelo://app?vid=54a7d26a-c5f8-4008-b945-bcc5a036c746","ios":"levelo://app?vid=54a7d26a-c5f8-4008-b945-bcc5a036c746"},"vehicle_type_id":"4","last_reported":1744369684,"current_range_meters":16800,"station_id":"","pricing_plan_id":"cebpf4jnsgd1na2vs0mg"},{"bike_id":"b2ce936b-391b-47f6-a1f9-02af9a4ea3b0","system_id":"levelo_inurba_marseille","lat":43.31368,"lon":5.36717,"is_reserved":false,"is_disabled":false,"rental_uris":{"android":"levelo://app?vid=b2ce936b-391b-47f6-a1f9-02af9a4ea3b0","ios":"levelo://app?vid=b2ce936b-391b-47f6-a1f9-02af9a4ea3b0"},"vehicle_type_id":"4","last_reported":1744369684,"current_range_meters":16800,"station_id":"ce4bgr92rcd13ifvqc6g","pricing_plan_id":"cebpf4jnsgd1na2vs0mg"},{"bike_id":"84b31b9a-3639-4a49-ba1b-b8657db4f117","system_id":"levelo_inurba_marseille","lat":43.3094,"lon":5.36847,"is_reserved":false,"is_disabled":false,"rental_uris":{"android":"levelo://app?vid=84b31b9a-3639-4a49-ba1b-b8657db4f117","ios":"levelo://app?vid=84b31b9a-3639-4a49-ba1b-b8657db4f117"},"vehicle_type_id":"4","last_reported":1744369684,"current_range_meters":16800,"station_id":"ce4bgn92rcd13ifvqbvg","pricing_plan_id":"cebpf4jnsgd1na2vs0mg"},{"bike_id":"2473096a-dfc1-4573-87fc-a0162a53cb4c","system_id":"levelo_inurba_marseille","lat":43.2864,"lon":5.35092,"is_reserved":false,"is_disabled":false,"rental_uris":{"android":"levelo://app?vid=2473096a-dfc1-4573-87fc-a0162a53cb4c","ios":"levelo://app?vid=2473096a-dfc1-4573-87fc-a0162a53cb4c"},"vehicle_type_id":"4","last_reported":1744369684,"current_range_meters":16800,"station_id":"ce4bhch2rcd13ifvqeug","pricing_plan_id":"cebpf4jnsgd1na2vs0mg"},{"bike_id":"94285f83-3b5d-462b-97b6-1d5eba6c8ae0","system_id":"levelo_inurba_marseille","lat":43.30477,"lon":5.37908,"is_reserved":false,"is_disabled":false,"rental_uris":{"android":"levelo://app?vid=94285f83-3b5d-462b-97b6-1d5eba6c8ae0","ios":"levelo://app?vid=94285f83-3b5d-462b-97b6-1d5eba6c8ae0"},"vehicle_type_id":"4","last_reported":1744369684,"current_range_meters":16800,"station_id":"ce4bgup2rcd13ifvqcn0","pricing_plan_id":"cebpf4jnsgd1na2vs0mg"},{"bike_id":"32ffbe3c-eb30-4b24-bd42-40b54b19f15a","system_id":"levelo_inurba_marseille","lat":43.27567,"lon":5.3841,"is_reserved":false,"is_disabled":false,"rental_uris":{"android":"levelo://app?vid=32ffbe3c-eb30-4b24-bd42-40b54b19f15a","ios":"levelo://app?vid=32ffbe3c-eb30-4b24-bd42-40b54b19f15a"},"vehicle_type_id":"4","last_reported":1744369684,"current_range_meters":16400,"station_id":"ce4bhh92rcd13ifvqfi0","pricing_plan_id":"cebpf4jnsgd1na2vs0mg"},{"bike_id":"225d6863-aa38-4728-bd70-4adeb2333af6","system_id":"levelo_inurba_marseille","lat":43.2737,"lon":5.36254,"is_reserved":false,"is_disabled":false,"rental_uris":{"android":"levelo://app?vid=225d6863-aa38-4728-bd70-4adeb2333af6","ios":"levelo://app?vid=225d6863-aa38-4728-bd70-4adeb2333af6"},"vehicle_type_id":"4","last_reported":1744369684,"current_range_meters":17200,"station_id":"ce4bhbh2rcd13ifvqeo0","pricing_plan_id":"cebpf4jnsgd1na2vs0mg"},{"bike_id":"874610fc-3b64-4457-99ae-ce0a442087ea","system_id":"levelo_inurba_marseille","lat":43.2418,"lon":5.39727,"is_reserved":false,"is_disabled":false,"rental_uris":{"android":"levelo://app?vid=874610fc-3b64-4457-99ae-ce0a442087ea","ios":"levelo://app?vid=874610fc-3b64-4457-99ae-ce0a442087ea"},"vehicle_type_id":"4","last_reported":1744369684,"current_range_meters":17200,"station_id":"ce4bhn12rcd13ifvqgpg","pricing_plan_id":"cebpf4jnsgd1na2vs0mg"},{"bike_id":"6e57f3de-03d0-46de-822c-30606a5abdac","system_id":"levelo_inurba_marseille","lat":43.3018,"lon":5.3663,"is_reserved":false,"is_disabled":false,"rental_uris":{"android":"levelo://app?vid=6e57f3de-03d0-46de-822c-30606a5abdac","ios":"levelo://app?vid=6e57f3de-03d0-46de-822c-30606a5abdac"},"vehicle_type_id":"4","last_reported":1744369684,"current_range_meters":17200,"station_id":"ce4bgrh2rcd13ifvqc8g","pricing_plan_id":"cebpf4jnsgd1na2vs0mg"},{"bike_id":"f3ac3ad5-eaaa-4c75-8166-e86136dde998","system_id":"levelo_inurba_marseille","lat":43.29786,"lon":5.3711,"is_reserved":false,"is_disabled":false,"rental_uris":{"android":"levelo://app?vid=f3ac3ad5-eaaa-4c75-8166-e86136dde998","ios":"levelo://app?vid=f3ac3ad5-eaaa-4c75-8166-e86136dde998"},"vehicle_type_id":"4","last_reported":1744369684,"current_range_meters":17200,"station_id":"ce4bgop2rcd13ifvqc1g","pricing_plan_id":"cebpf4jnsgd1na2vs0mg"},{"bike_id":"2d0c15f4-35d1-4c24-bad4-765d4924fce9","system_id":"levelo_inurba_marseille","lat":43.27368,"lon":5.36257,"is_reserved":false,"is_disabled":false,"rental_uris":{"android":"levelo://app?vid=2d0c15f4-35d1-4c24-bad4-765d4924fce9","ios":"levelo://app?vid=2d0c15f4-35d1-4c24-bad4-765d4924fce9"},"vehicle_type_id":"4","last_reported":1744369684,"current_range_meters":17200,"station_id":"ce4bhbh2rcd13ifvqeo0","pricing_plan_id":"cebpf4jnsgd1na2vs0mg"},{"bike_id":"b48b0445-3050-4e1f-ad90-a0d972a9e273","system_id":"levelo_inurba_marseille","lat":43.30327,"lon":5.40433,"is_reserved":false,"is_disabled":false,"rental_uris":{"android":"levelo://app?vid=b48b0445-3050-4e1f-ad90-a0d972a9e273","ios":"levelo://app?vid=b48b0445-3050-4e1f-ad90-a0d972a9e273"},"vehicle_type_id":"4","last_reported":1744369684,"current_range_meters":17200,"station_id":"ce4bh012rcd13ifvqd10","pricing_plan_id":"cebpf4jnsgd1na2vs0mg"},{"bike_id":"5b77a833-8185-45c2-9fe3-07eb40df54ca","system_id":"levelo_inurba_marseille","lat":43.33995,"lon":5.38057,"is_reserved":false,"is_disabled":false,"rental_uris":{"android":"levelo://app?vid=5b77a833-8185-45c2-9fe3-07eb40df54ca","ios":"levelo://app?vid=5b77a833-8185-45c2-9fe3-07eb40df54ca"},"vehicle_type_id":"4","last_reported":1744369684,"current_range_meters":17200,"station_id":"","pricing_plan_id":"cebpf4jnsgd1na2vs0mg"},{"bike_id":"7f56e7a9-1924-4eb4-a85e-5bfb5e39843d","system_id":"levelo_inurba_marseille","lat":43.32537,"lon":5.41431,"is_reserved":false,"is_disabled":false,"rental_uris":{"android":"levelo://app?vid=7f56e7a9-1924-4eb4-a85e-5bfb5e39843d","ios":"levelo://app?vid=7f56e7a9-1924-4eb4-a85e-5bfb5e39843d"},"vehicle_type_id":"4","last_reported":1744369684,"current_range_meters":17600,"station_id":"ce4bhq12rcd13ifvqhhg","pricing_plan_id":"cebpf4jnsgd1na2vs0mg"},{"bike_id":"5a4cbf2b-51f8-4f9a-b1fc-b00469a752b0","system_id":"levelo_inurba_marseille","lat":43.33726,"lon":5.39191,"is_reserved":false,"is_disabled":false,"rental_uris":{"android":"levelo://app?vid=5a4cbf2b-51f8-4f9a-b1fc-b00469a752b0","ios":"levelo://app?vid=5a4cbf2b-51f8-4f9a-b1fc-b00469a752b0"},"vehicle_type_id":"4","last_reported":1744369684,"current_range_meters":17600,"station_id":"ce4bhr92rcd13ifvqhsg","pricing_plan_id":"cebpf4jnsgd1na2vs0mg"},{"bike_id":"a8d58b11-8248-4134-a7a3-f9d05fc8b293","system_id":"levelo_inurba_marseille","lat":43.29553,"lon":5.42294,"is_reserved":false,"is_disabled":false,"rental_uris":{"android":"levelo://app?vid=a8d58b11-8248-4134-a7a3-f9d05fc8b293","ios":"levelo://app?vid=a8d58b11-8248-4134-a7a3-f9d05fc8b293"},"vehicle_type_id":"4","last_reported":1744369684,"current_range_meters":17600,"station_id":"ce4bhph2rcd13ifvqhdg","pricing_plan_id":"cebpf4jnsgd1na2vs0mg"},{"bike_id":"2e0fbe6d-1ffd-47c2-adab-ef0a87ab805f","system_id":"levelo_inurba_marseille","lat":43.29063,"lon":5.3715,"is_reserved":false,"is_disabled":true,"rental_uris":{"android":"levelo://app?vid=2e0fbe6d-1ffd-47c2-adab-ef0a87ab805f","ios":"levelo://app?vid=2e0fbe6d-1ffd-47c2-adab-ef0a87ab805f"},"vehicle_type_id":"4","last_reported":1744369684,"current_range_meters":17600,"station_id":"ce4bh5p2rcd13ifvqe4g","pricing_plan_id":"cebpf4jnsgd1na2vs0mg"},{"bike_id":"d1ec29d7-f0f7-463e-bf62-a85dac36cbbe","system_id":"levelo_inurba_marseille","lat":43.30163,"lon":5.38101,"is_reserved":false,"is_disabled":false,"rental_uris":{"android":"levelo://app?vid=d1ec29d7-f0f7-463e-bf62-a85dac36cbbe","ios":"levelo://app?vid=d1ec29d7-f0f7-463e-bf62-a85dac36cbbe"},"vehicle_type_id":"4","last_reported":1744369684,"current_range_meters":17600,"station_id":"ce4bgjp2rcd13ifvqbh0","pricing_plan_id":"cebpf4jnsgd1na2vs0mg"},{"bike_id":"a74a8487-ccc9-42f9-b6dc-832dab3cb9c8","system_id":"levelo_inurba_marseille","lat":43.2827,"lon":5.35064,"is_reserved":false,"is_disabled":false,"rental_uris":{"android":"levelo://app?vid=a74a8487-ccc9-42f9-b6dc-832dab3cb9c8","ios":"levelo://app?vid=a74a8487-ccc9-42f9-b6dc-832dab3cb9c8"},"vehicle_type_id":"4","last_reported":1744369684,"current_range_meters":17600,"station_id":"ce4bhbp2rcd13ifvqerg","pricing_plan_id":"cebpf4jnsgd1na2vs0mg"},{"bike_id":"371d418d-c195-436d-8dad-75b406c645e1","system_id":"levelo_inurba_marseille","lat":43.28265,"lon":5.35071,"is_reserved":false,"is_disabled":false,"rental_uris":{"android":"levelo://app?vid=371d418d-c195-436d-8dad-75b406c645e1","ios":"levelo://app?vid=371d418d-c195-436d-8dad-75b406c645e1"},"vehicle_type_id":"4","last_reported":1744369684,"current_range_meters":17600,"station_id":"ce4bhbp2rcd13ifvqerg","pricing_plan_id":"cebpf4jnsgd1na2vs0mg"},{"bike_id":"ef051e5f-9650-4fa0-a551-8f887ebdbaa8","system_id":"levelo_inurba_marseille","lat":43.2737,"lon":5.36252,"is_reserved":false,"is_disabled":false,"rental_uris":{"android":"levelo://app?vid=ef051e5f-9650-4fa0-a551-8f887ebdbaa8","ios":"levelo://app?vid=ef051e5f-9650-4fa0-a551-8f887ebdbaa8"},"vehicle_type_id":"4","last_reported":1744369684,"current_range_meters":17200,"station_id":"ce4bhbh2rcd13ifvqeo0","pricing_plan_id":"cebpf4jnsgd1na2vs0mg"},{"bike_id":"9a42562a-9aa0-456b-a04f-6d1eb00eb553","system_id":"levelo_inurba_marseille","lat":43.26558,"lon":5.37279,"is_reserved":false,"is_disabled":false,"rental_uris":{"android":"levelo://app?vid=9a42562a-9aa0-456b-a04f-6d1eb00eb553","ios":"levelo://app?vid=9a42562a-9aa0-456b-a04f-6d1eb00eb553"},"vehicle_type_id":"4","last_reported":1744369684,"current_range_meters":17600,"station_id":"ce4bhg12rcd13ifvqf70","pricing_plan_id":"cebpf4jnsgd1na2vs0mg"},{"bike_id":"0e7bf4ae-5aed-4055-a1f8-96debbb9847e","system_id":"levelo_inurba_marseille","lat":43.24171,"lon":5.36399,"is_reserved":false,"is_disabled":false,"rental_uris":{"android":"levelo://app?vid=0e7bf4ae-5aed-4055-a1f8-96debbb9847e","ios":"levelo://app?vid=0e7bf4ae-5aed-4055-a1f8-96debbb9847e"},"vehicle_type_id":"4","last_reported":1744369684,"current_range_meters":17600,"station_id":"cpo36qri1sfpv3e86is0","pricing_plan_id":"cebpf4jnsgd1na2vs0mg"},{"bike_id":"80f98af0-2f31-427f-aca2-71ca911dbdea","system_id":"levelo_inurba_marseille","lat":43.2781,"lon":5.40704,"is_reserved":false,"is_disabled":false,"rental_uris":{"android":"levelo://app?vid=80f98af0-2f31-427f-aca2-71ca911dbdea","ios":"levelo://app?vid=80f98af0-2f31-427f-aca2-71ca911dbdea"},"vehicle_type_id":"4","last_reported":1744369684,"current_range_meters":18000,"station_id":"ce4bhnh2rcd13ifvqgtg","pricing_plan_id":"cebpf4jnsgd1na2vs0mg"},{"bike_id":"7c4545c3-c1b1-465e-91cc-14a8c8097af0","system_id":"levelo_inurba_marseille","lat":43.30604,"lon":5.39357,"is_reserved":false,"is_disabled":true,"rental_uris":{"android":"levelo://app?vid=7c4545c3-c1b1-465e-91cc-14a8c8097af0","ios":"levelo://app?vid=7c4545c3-c1b1-465e-91cc-14a8c8097af0"},"vehicle_type_id":"4","last_reported":1744369684,"current_range_meters":18000,"station_id":"ce4bh0p2rcd13ifvqd80","pricing_plan_id":"cebpf4jnsgd1na2vs0mg"},{"bike_id":"7ff432ec-3be1-48f1-97d2-66a23a317c55","system_id":"levelo_inurba_marseille","lat":43.21191,"lon":5.35071,"is_reserved":false,"is_disabled":false,"rental_uris":{"android":"levelo://app?vid=7ff432ec-3be1-48f1-97d2-66a23a317c55","ios":"levelo://app?vid=7ff432ec-3be1-48f1-97d2-66a23a317c55"},"vehicle_type_id":"4","last_reported":1744369684,"current_range_meters":18000,"station_id":"st_cvj6sg6p6f1abm77japg","pricing_plan_id":"cebpf4jnsgd1na2vs0mg"},{"bike_id":"7a5c9c76-4e30-46ad-a0c8-64088d059970","system_id":"levelo_inurba_marseille","lat":43.2407,"lon":5.37729,"is_reserved":false,"is_disabled":false,"rental_uris":{"android":"levelo://app?vid=7a5c9c76-4e30-46ad-a0c8-64088d059970","ios":"levelo://app?vid=7a5c9c76-4e30-46ad-a0c8-64088d059970"},"vehicle_type_id":"4","last_reported":1744369684,"current_range_meters":18000,"station_id":"ce4bhnp2rcd13ifvqgvg","pricing_plan_id":"cebpf4jnsgd1na2vs0mg"},{"bike_id":"ea747d2a-66d8-4c91-9ba9-e534c94b4922","system_id":"levelo_inurba_marseille","lat":43.22911,"lon":5.35398,"is_reserved":false,"is_disabled":false,"rental_uris":{"android":"levelo://app?vid=ea747d2a-66d8-4c91-9ba9-e534c94b4922","ios":"levelo://app?vid=ea747d2a-66d8-4c91-9ba9-e534c94b4922"},"vehicle_type_id":"4","last_reported":1744369684,"current_range_meters":18000,"station_id":"cpo3532slgdg3j2ikp40","pricing_plan_id":"cebpf4jnsgd1na2vs0mg"},{"bike_id":"5ba68d68-988d-4e0d-82b5-6e5c047bd70c","system_id":"levelo_inurba_marseille","lat":43.22927,"lon":5.35383,"is_reserved":false,"is_disabled":false,"rental_uris":{"android":"levelo://app?vid=5ba68d68-988d-4e0d-82b5-6e5c047bd70c","ios":"levelo://app?vid=5ba68d68-988d-4e0d-82b5-6e5c047bd70c"},"vehicle_type_id":"4","last_reported":1744369684,"current_range_meters":18800,"station_id":"cpo3532slgdg3j2ikp40","pricing_plan_id":"cebpf4jnsgd1na2vs0mg"},{"bike_id":"8c9b7c5f-b635-4cdb-a4bf-9bb89e5f511b","system_id":"levelo_inurba_marseille","lat":43.28455,"lon":5.35884,"is_reserved":false,"is_disabled":false,"rental_uris":{"android":"levelo://app?vid=8c9b7c5f-b635-4cdb-a4bf-9bb89e5f511b","ios":"levelo://app?vid=8c9b7c5f-b635-4cdb-a4bf-9bb89e5f511b"},"vehicle_type_id":"4","last_reported":1744369684,"current_range_meters":18000,"station_id":"ce4bhah2rcd13ifvqei0","pricing_plan_id":"cebpf4jnsgd1na2vs0mg"},{"bike_id":"754619a5-d780-44fe-9ede-cee00907c36d","system_id":"levelo_inurba_marseille","lat":43.337444,"lon":5.374475,"is_reserved":false,"is_disabled":true,"rental_uris":{"android":"levelo://app?vid=754619a5-d780-44fe-9ede-cee00907c36d","ios":"levelo://app?vid=754619a5-d780-44fe-9ede-cee00907c36d"},"vehicle_type_id":"4","last_reported":1744369684,"current_range_meters":18800,"station_id":"","pricing_plan_id":"cebpf4jnsgd1na2vs0mg"},{"bike_id":"c115c5b3-bc00-478b-a015-da2f218e0e43","system_id":"levelo_inurba_marseille","lat":43.26206,"lon":5.37919,"is_reserved":false,"is_disabled":false,"rental_uris":{"android":"levelo://app?vid=c115c5b3-bc00-478b-a015-da2f218e0e43","ios":"levelo://app?vid=c115c5b3-bc00-478b-a015-da2f218e0e43"},"vehicle_type_id":"4","last_reported":1744369684,"current_range_meters":18800,"station_id":"ce4bhjp2rcd13ifvqg90","pricing_plan_id":"cebpf4jnsgd1na2vs0mg"},{"bike_id":"5d2b4ea6-403c-4f79-a357-2c4cf358dd95","system_id":"levelo_inurba_marseille","lat":43.28156,"lon":5.42643,"is_reserved":false,"is_disabled":false,"rental_uris":{"android":"levelo://app?vid=5d2b4ea6-403c-4f79-a357-2c4cf358dd95","ios":"levelo://app?vid=5d2b4ea6-403c-4f79-a357-2c4cf358dd95"},"vehicle_type_id":"4","last_reported":1744369684,"current_range_meters":18800,"station_id":"ce4bhnh2rcd13ifvqgug","pricing_plan_id":"cebpf4jnsgd1na2vs0mg"},{"bike_id":"90cddebc-2506-42ee-9df1-36a6154dff75","system_id":"levelo_inurba_marseille","lat":43.24164,"lon":5.36366,"is_reserved":false,"is_disabled":false,"rental_uris":{"android":"levelo://app?vid=90cddebc-2506-42ee-9df1-36a6154dff75","ios":"levelo://app?vid=90cddebc-2506-42ee-9df1-36a6154dff75"},"vehicle_type_id":"4","last_reported":1744369684,"current_range_meters":18800,"station_id":"cpo36qri1sfpv3e86is0","pricing_plan_id":"cebpf4jnsgd1na2vs0mg"},{"bike_id":"6da7ed18-5a5f-467e-8b00-c46a534110a8","system_id":"levelo_inurba_marseille","lat":43.30007,"lon":5.43581,"is_reserved":false,"is_disabled":false,"rental_uris":{"android":"levelo://app?vid=6da7ed18-5a5f-467e-8b00-c46a534110a8","ios":"levelo://app?vid=6da7ed18-5a5f-467e-8b00-c46a534110a8"},"vehicle_type_id":"4","last_reported":1744369684,"current_range_meters":19200,"station_id":"","pricing_plan_id":"cebpf4jnsgd1na2vs0mg"},{"bike_id":"c3821a9c-7588-4931-a42d-ffb6971fd988","system_id":"levelo_inurba_marseille","lat":43.28609,"lon":5.37059,"is_reserved":false,"is_disabled":false,"rental_uris":{"android":"levelo://app?vid=c3821a9c-7588-4931-a42d-ffb6971fd988","ios":"levelo://app?vid=c3821a9c-7588-4931-a42d-ffb6971fd988"},"vehicle_type_id":"4","last_reported":1744369684,"current_range_meters":19200,"station_id":"ce4bht12rcd13ifvqi60","pricing_plan_id":"cebpf4jnsgd1na2vs0mg"},{"bike_id":"eb489c2e-1675-434f-bbfa-6a9ed74fea49","system_id":"levelo_inurba_marseille","lat":43.21202,"lon":5.3506,"is_reserved":false,"is_disabled":false,"rental_uris":{"android":"levelo://app?vid=eb489c2e-1675-434f-bbfa-6a9ed74fea49","ios":"levelo://app?vid=eb489c2e-1675-434f-bbfa-6a9ed74fea49"},"vehicle_type_id":"4","last_reported":1744369684,"current_range_meters":19200,"station_id":"st_cvj6sg6p6f1abm77japg","pricing_plan_id":"cebpf4jnsgd1na2vs0mg"},{"bike_id":"343918fe-5464-403f-b2a2-6fa65a2fb3bf","system_id":"levelo_inurba_marseille","lat":43.28157,"lon":5.42644,"is_reserved":false,"is_disabled":false,"rental_uris":{"android":"levelo://app?vid=343918fe-5464-403f-b2a2-6fa65a2fb3bf","ios":"levelo://app?vid=343918fe-5464-403f-b2a2-6fa65a2fb3bf"},"vehicle_type_id":"4","last_reported":1744369684,"current_range_meters":19200,"station_id":"ce4bhnh2rcd13ifvqgug","pricing_plan_id":"cebpf4jnsgd1na2vs0mg"},{"bike_id":"663b2732-4e40-469c-b29d-1168df3c33a7","system_id":"levelo_inurba_marseille","lat":43.30899,"lon":5.36847,"is_reserved":false,"is_disabled":false,"rental_uris":{"android":"levelo://app?vid=663b2732-4e40-469c-b29d-1168df3c33a7","ios":"levelo://app?vid=663b2732-4e40-469c-b29d-1168df3c33a7"},"vehicle_type_id":"4","last_reported":1744369684,"current_range_meters":19200,"station_id":"ce4bgn92rcd13ifvqbvg","pricing_plan_id":"cebpf4jnsgd1na2vs0mg"},{"bike_id":"74750db6-ebfe-4e9c-ae15-f9b62c70900e","system_id":"levelo_inurba_marseille","lat":43.274205,"lon":5.362016,"is_reserved":false,"is_disabled":false,"rental_uris":{"android":"levelo://app?vid=74750db6-ebfe-4e9c-ae15-f9b62c70900e","ios":"levelo://app?vid=74750db6-ebfe-4e9c-ae15-f9b62c70900e"},"vehicle_type_id":"4","last_reported":1744369684,"current_range_meters":19600,"station_id":"ce4bhbh2rcd13ifvqeo0","pricing_plan_id":"cebpf4jnsgd1na2vs0mg"},{"bike_id":"15caa18c-ff16-46cf-9983-05ecc1cb9672","system_id":"levelo_inurba_marseille","lat":43.2464,"lon":5.38889,"is_reserved":false,"is_disabled":false,"rental_uris":{"android":"levelo://app?vid=15caa18c-ff16-46cf-9983-05ecc1cb9672","ios":"levelo://app?vid=15caa18c-ff16-46cf-9983-05ecc1cb9672"},"vehicle_type_id":"4","last_reported":1744369684,"current_range_meters":19600,"station_id":"ce4bho12rcd13ifvqh1g","pricing_plan_id":"cebpf4jnsgd1na2vs0mg"},{"bike_id":"e7d64116-368f-421d-902b-041b68f32a12","system_id":"levelo_inurba_marseille","lat":43.30629,"lon":5.36448,"is_reserved":false,"is_disabled":false,"rental_uris":{"android":"levelo://app?vid=e7d64116-368f-421d-902b-041b68f32a12","ios":"levelo://app?vid=e7d64116-368f-421d-902b-041b68f32a12"},"vehicle_type_id":"4","last_reported":1744369684,"current_range_meters":19600,"station_id":"ce4bgs12rcd13ifvqcag","pricing_plan_id":"cebpf4jnsgd1na2vs0mg"},{"bike_id":"11264377-8fd9-4084-bc33-69cc86342412","system_id":"levelo_inurba_marseille","lat":43.28847,"lon":5.35838,"is_reserved":false,"is_disabled":false,"rental_uris":{"android":"levelo://app?vid=11264377-8fd9-4084-bc33-69cc86342412","ios":"levelo://app?vid=11264377-8fd9-4084-bc33-69cc86342412"},"vehicle_type_id":"4","last_reported":1744369684,"current_range_meters":19600,"station_id":"ce4bhb12rcd13ifvqem0","pricing_plan_id":"cebpf4jnsgd1na2vs0mg"},{"bike_id":"97981288-c638-4306-9236-e77c56bbebba","system_id":"levelo_inurba_marseille","lat":43.294159,"lon":5.386185,"is_reserved":false,"is_disabled":false,"rental_uris":{"android":"levelo://app?vid=97981288-c638-4306-9236-e77c56bbebba","ios":"levelo://app?vid=97981288-c638-4306-9236-e77c56bbebba"},"vehicle_type_id":"4","last_reported":1744369684,"current_range_meters":19600,"station_id":"ce4bh4p2rcd13ifvqe1g","pricing_plan_id":"cebpf4jnsgd1na2vs0mg"},{"bike_id":"35731db3-6912-402e-a623-b72e3ccb4de5","system_id":"levelo_inurba_marseille","lat":43.2315,"lon":5.43707,"is_reserved":false,"is_disabled":false,"rental_uris":{"android":"levelo://app?vid=35731db3-6912-402e-a623-b72e3ccb4de5","ios":"levelo://app?vid=35731db3-6912-402e-a623-b72e3ccb4de5"},"vehicle_type_id":"4","last_reported":1744369684,"current_range_meters":19600,"station_id":"ce4bhmp2rcd13ifvqgog","pricing_plan_id":"cebpf4jnsgd1na2vs0mg"},{"bike_id":"f46a49ca-1b9d-47bc-aed6-4fa281bfffb1","system_id":"levelo_inurba_marseille","lat":43.30511,"lon":5.36536,"is_reserved":false,"is_disabled":false,"rental_uris":{"android":"levelo://app?vid=f46a49ca-1b9d-47bc-aed6-4fa281bfffb1","ios":"levelo://app?vid=f46a49ca-1b9d-47bc-aed6-4fa281bfffb1"},"vehicle_type_id":"4","last_reported":1744369684,"current_range_meters":19600,"station_id":"ce4bgs12rcd13ifvqcag","pricing_plan_id":"cebpf4jnsgd1na2vs0mg"},{"bike_id":"44ea3182-88eb-4a7d-bbc8-aa868967f1bc","system_id":"levelo_inurba_marseille","lat":43.3171,"lon":5.37172,"is_reserved":false,"is_disabled":true,"rental_uris":{"android":"levelo://app?vid=44ea3182-88eb-4a7d-bbc8-aa868967f1bc","ios":"levelo://app?vid=44ea3182-88eb-4a7d-bbc8-aa868967f1bc"},"vehicle_type_id":"4","last_reported":1744369684,"current_range_meters":19600,"station_id":"","pricing_plan_id":"cebpf4jnsgd1na2vs0mg"},{"bike_id":"a64d3554-b788-408c-9a92-84993ed7463a","system_id":"levelo_inurba_marseille","lat":43.29617,"lon":5.37152,"is_reserved":false,"is_disabled":false,"rental_uris":{"android":"levelo://app?vid=a64d3554-b788-408c-9a92-84993ed7463a","ios":"levelo://app?vid=a64d3554-b788-408c-9a92-84993ed7463a"},"vehicle_type_id":"4","last_reported":1744369684,"current_range_meters":19600,"station_id":"ce4bgnh2rcd13ifvqc0g","pricing_plan_id":"cebpf4jnsgd1na2vs0mg"},{"bike_id":"d447dcab-53dc-4f57-8bb2-4145811365b2","system_id":"levelo_inurba_marseille","lat":43.23159,"lon":5.43716,"is_reserved":false,"is_disabled":false,"rental_uris":{"android":"levelo://app?vid=d447dcab-53dc-4f57-8bb2-4145811365b2","ios":"levelo://app?vid=d447dcab-53dc-4f57-8bb2-4145811365b2"},"vehicle_type_id":"4","last_reported":1744369684,"current_range_meters":20000,"station_id":"ce4bhmp2rcd13ifvqgog","pricing_plan_id":"cebpf4jnsgd1na2vs0mg"},{"bike_id":"2c819e15-faf3-43de-91e5-542c784e73aa","system_id":"levelo_inurba_marseille","lat":43.295333,"lon":5.3749,"is_reserved":false,"is_disabled":true,"rental_uris":{"android":"levelo://app?vid=2c819e15-faf3-43de-91e5-542c784e73aa","ios":"levelo://app?vid=2c819e15-faf3-43de-91e5-542c784e73aa"},"vehicle_type_id":"4","last_reported":1744369684,"current_range_meters":20000,"station_id":"ce4bgkp2rcd13ifvqbmg","pricing_plan_id":"cebpf4jnsgd1na2vs0mg"},{"bike_id":"8871c6b4-0f9a-42dc-8056-049a2f9dc575","system_id":"levelo_inurba_marseille","lat":43.28346,"lon":5.38105,"is_reserved":false,"is_disabled":false,"rental_uris":{"android":"levelo://app?vid=8871c6b4-0f9a-42dc-8056-049a2f9dc575","ios":"levelo://app?vid=8871c6b4-0f9a-42dc-8056-049a2f9dc575"},"vehicle_type_id":"4","last_reported":1744369684,"current_range_meters":20000,"station_id":"ce4bgkp2rcd13ifvqbmg","pricing_plan_id":"cebpf4jnsgd1na2vs0mg"},{"bike_id":"7f12d860-29e3-4420-8c79-cb851628b038","system_id":"levelo_inurba_marseille","lat":43.2558,"lon":5.38227,"is_reserved":false,"is_disabled":false,"rental_uris":{"android":"levelo://app?vid=7f12d860-29e3-4420-8c79-cb851628b038","ios":"levelo://app?vid=7f12d860-29e3-4420-8c79-cb851628b038"},"vehicle_type_id":"4","last_reported":1744369684,"current_range_meters":20000,"station_id":"ce4bhih2rcd13ifvqfs0","pricing_plan_id":"cebpf4jnsgd1na2vs0mg"},{"bike_id":"6f4eb650-30ec-4e2b-830c-a1280f99b197","system_id":"levelo_inurba_marseille","lat":43.279694,"lon":5.387434,"is_reserved":false,"is_disabled":false,"rental_uris":{"android":"levelo://app?vid=6f4eb650-30ec-4e2b-830c-a1280f99b197","ios":"levelo://app?vid=6f4eb650-30ec-4e2b-830c-a1280f99b197"},"vehicle_type_id":"4","last_reported":1744369684,"current_range_meters":20000,"station_id":"ce4bhg12rcd13ifvqf80","pricing_plan_id":"cebpf4jnsgd1na2vs0mg"},{"bike_id":"d1d98232-da22-498f-ac7e-2c4af99e6285","system_id":"levelo_inurba_marseille","lat":43.242225,"lon":5.396898,"is_reserved":false,"is_disabled":false,"rental_uris":{"android":"levelo://app?vid=d1d98232-da22-498f-ac7e-2c4af99e6285","ios":"levelo://app?vid=d1d98232-da22-498f-ac7e-2c4af99e6285"},"vehicle_type_id":"4","last_reported":1744369684,"current_range_meters":20000,"station_id":"ce4bhn12rcd13ifvqgpg","pricing_plan_id":"cebpf4jnsgd1na2vs0mg"},{"bike_id":"a48794d7-87da-4a7d-96f1-ba008127de2e","system_id":"levelo_inurba_marseille","lat":43.29787,"lon":5.37103,"is_reserved":false,"is_disabled":false,"rental_uris":{"android":"levelo://app?vid=a48794d7-87da-4a7d-96f1-ba008127de2e","ios":"levelo://app?vid=a48794d7-87da-4a7d-96f1-ba008127de2e"},"vehicle_type_id":"4","last_reported":1744369684,"current_range_meters":20000,"station_id":"ce4bgop2rcd13ifvqc1g","pricing_plan_id":"cebpf4jnsgd1na2vs0mg"},{"bike_id":"223c83cf-d64d-436b-aac5-0441fdc52c5b","system_id":"levelo_inurba_marseille","lat":43.30497,"lon":5.37882,"is_reserved":false,"is_disabled":false,"rental_uris":{"android":"levelo://app?vid=223c83cf-d64d-436b-aac5-0441fdc52c5b","ios":"levelo://app?vid=223c83cf-d64d-436b-aac5-0441fdc52c5b"},"vehicle_type_id":"4","last_reported":1744369684,"current_range_meters":20400,"station_id":"ce4bgup2rcd13ifvqcn0","pricing_plan_id":"cebpf4jnsgd1na2vs0mg"},{"bike_id":"56ee33a8-9bc3-4b8e-8e0f-5ef7b6888730","system_id":"levelo_inurba_marseille","lat":43.25005,"lon":5.38912,"is_reserved":false,"is_disabled":false,"rental_uris":{"android":"levelo://app?vid=56ee33a8-9bc3-4b8e-8e0f-5ef7b6888730","ios":"levelo://app?vid=56ee33a8-9bc3-4b8e-8e0f-5ef7b6888730"},"vehicle_type_id":"4","last_reported":1744369684,"current_range_meters":20000,"station_id":"ce4bhgp2rcd13ifvqfd0","pricing_plan_id":"cebpf4jnsgd1na2vs0mg"},{"bike_id":"31b1d401-06b2-4d52-8fe6-5046e9f3bb17","system_id":"levelo_inurba_marseille","lat":43.27176,"lon":5.40991,"is_reserved":false,"is_disabled":false,"rental_uris":{"android":"levelo://app?vid=31b1d401-06b2-4d52-8fe6-5046e9f3bb17","ios":"levelo://app?vid=31b1d401-06b2-4d52-8fe6-5046e9f3bb17"},"vehicle_type_id":"4","last_reported":1744369684,"current_range_meters":20400,"station_id":"ce4bhl12rcd13ifvqgf0","pricing_plan_id":"cebpf4jnsgd1na2vs0mg"},{"bike_id":"a945cbf3-38e6-4aa3-9aa1-d414d6c834b5","system_id":"levelo_inurba_marseille","lat":43.31898,"lon":5.40729,"is_reserved":false,"is_disabled":true,"rental_uris":{"android":"levelo://app?vid=a945cbf3-38e6-4aa3-9aa1-d414d6c834b5","ios":"levelo://app?vid=a945cbf3-38e6-4aa3-9aa1-d414d6c834b5"},"vehicle_type_id":"4","last_reported":1744369684,"current_range_meters":20400,"station_id":"ce4bhq12rcd13ifvqhig","pricing_plan_id":"cebpf4jnsgd1na2vs0mg"},{"bike_id":"a6fb9ac6-0321-4123-b718-f7bd24b8337c","system_id":"levelo_inurba_marseille","lat":43.24185,"lon":5.39725,"is_reserved":false,"is_disabled":false,"rental_uris":{"android":"levelo://app?vid=a6fb9ac6-0321-4123-b718-f7bd24b8337c","ios":"levelo://app?vid=a6fb9ac6-0321-4123-b718-f7bd24b8337c"},"vehicle_type_id":"4","last_reported":1744369684,"current_range_meters":20800,"station_id":"ce4bhn12rcd13ifvqgpg","pricing_plan_id":"cebpf4jnsgd1na2vs0mg"},{"bike_id":"dd4f30ec-655f-42a0-9740-dc393c7cd628","system_id":"levelo_inurba_marseille","lat":43.31369,"lon":5.36703,"is_reserved":false,"is_disabled":false,"rental_uris":{"android":"levelo://app?vid=dd4f30ec-655f-42a0-9740-dc393c7cd628","ios":"levelo://app?vid=dd4f30ec-655f-42a0-9740-dc393c7cd628"},"vehicle_type_id":"4","last_reported":1744369684,"current_range_meters":20800,"station_id":"ce4bgr92rcd13ifvqc6g","pricing_plan_id":"cebpf4jnsgd1na2vs0mg"},{"bike_id":"a7c58a60-a5c5-4a4e-b362-dc7feaea63d7","system_id":"levelo_inurba_marseille","lat":43.31985,"lon":5.38141,"is_reserved":false,"is_disabled":true,"rental_uris":{"android":"levelo://app?vid=a7c58a60-a5c5-4a4e-b362-dc7feaea63d7","ios":"levelo://app?vid=a7c58a60-a5c5-4a4e-b362-dc7feaea63d7"},"vehicle_type_id":"4","last_reported":1744369684,"current_range_meters":20800,"station_id":"ce4bhr12rcd13ifvqhpg","pricing_plan_id":"cebpf4jnsgd1na2vs0mg"},{"bike_id":"7d6d6068-f729-418d-878e-2fb5130bb165","system_id":"levelo_inurba_marseille","lat":43.29793,"lon":5.40404,"is_reserved":false,"is_disabled":false,"rental_uris":{"android":"levelo://app?vid=7d6d6068-f729-418d-878e-2fb5130bb165","ios":"levelo://app?vid=7d6d6068-f729-418d-878e-2fb5130bb165"},"vehicle_type_id":"4","last_reported":1744369684,"current_range_meters":21600,"station_id":"ce4bh112rcd13ifvqd90","pricing_plan_id":"cebpf4jnsgd1na2vs0mg"},{"bike_id":"c38ccf3f-19b6-485a-9376-0637fb6ff4ad","system_id":"levelo_inurba_marseille","lat":43.30303,"lon":5.39208,"is_reserved":false,"is_disabled":false,"rental_uris":{"android":"levelo://app?vid=c38ccf3f-19b6-485a-9376-0637fb6ff4ad","ios":"levelo://app?vid=c38ccf3f-19b6-485a-9376-0637fb6ff4ad"},"vehicle_type_id":"4","last_reported":1744369684,"current_range_meters":21600,"station_id":"ce4bgkh2rcd13ifvqbk0","pricing_plan_id":"cebpf4jnsgd1na2vs0mg"},{"bike_id":"020e9999-d552-48d0-ae5f-b725af0dbea2","system_id":"levelo_inurba_marseille","lat":43.299119,"lon":5.437618,"is_reserved":false,"is_disabled":false,"rental_uris":{"android":"levelo://app?vid=020e9999-d552-48d0-ae5f-b725af0dbea2","ios":"levelo://app?vid=020e9999-d552-48d0-ae5f-b725af0dbea2"},"vehicle_type_id":"4","last_reported":1744369684,"current_range_meters":21600,"station_id":"","pricing_plan_id":"cebpf4jnsgd1na2vs0mg"},{"bike_id":"73e5ade4-de69-4d1d-804c-8d06133f6269","system_id":"levelo_inurba_marseille","lat":43.33714,"lon":5.39184,"is_reserved":false,"is_disabled":false,"rental_uris":{"android":"levelo://app?vid=73e5ade4-de69-4d1d-804c-8d06133f6269","ios":"levelo://app?vid=73e5ade4-de69-4d1d-804c-8d06133f6269"},"vehicle_type_id":"4","last_reported":1744369684,"current_range_meters":21600,"station_id":"ce4bhr92rcd13ifvqhsg","pricing_plan_id":"cebpf4jnsgd1na2vs0mg"},{"bike_id":"3236a17b-87bc-4827-b557-be034a694ecb","system_id":"levelo_inurba_marseille","lat":43.30569,"lon":5.36528,"is_reserved":false,"is_disabled":false,"rental_uris":{"android":"levelo://app?vid=3236a17b-87bc-4827-b557-be034a694ecb","ios":"levelo://app?vid=3236a17b-87bc-4827-b557-be034a694ecb"},"vehicle_type_id":"4","last_reported":1744369684,"current_range_meters":21600,"station_id":"ce4bgs12rcd13ifvqcag","pricing_plan_id":"cebpf4jnsgd1na2vs0mg"},{"bike_id":"62d8085d-f676-4479-9b3e-f68dd07ad199","system_id":"levelo_inurba_marseille","lat":43.26199,"lon":5.37925,"is_reserved":false,"is_disabled":false,"rental_uris":{"android":"levelo://app?vid=62d8085d-f676-4479-9b3e-f68dd07ad199","ios":"levelo://app?vid=62d8085d-f676-4479-9b3e-f68dd07ad199"},"vehicle_type_id":"4","last_reported":1744369684,"current_range_meters":22000,"station_id":"ce4bhjp2rcd13ifvqg90","pricing_plan_id":"cebpf4jnsgd1na2vs0mg"},{"bike_id":"26eb6a35-a9e5-472b-8fb1-17c896082701","system_id":"levelo_inurba_marseille","lat":43.21751,"lon":5.34595,"is_reserved":false,"is_disabled":false,"rental_uris":{"android":"levelo://app?vid=26eb6a35-a9e5-472b-8fb1-17c896082701","ios":"levelo://app?vid=26eb6a35-a9e5-472b-8fb1-17c896082701"},"vehicle_type_id":"4","last_reported":1744369684,"current_range_meters":22000,"station_id":"st_cvj6r9ubvosntc0bgbag","pricing_plan_id":"cebpf4jnsgd1na2vs0mg"},{"bike_id":"f59b59e1-0b84-400d-adb7-0621d9177a6d","system_id":"levelo_inurba_marseille","lat":43.3033,"lon":5.3691,"is_reserved":false,"is_disabled":true,"rental_uris":{"android":"levelo://app?vid=f59b59e1-0b84-400d-adb7-0621d9177a6d","ios":"levelo://app?vid=f59b59e1-0b84-400d-adb7-0621d9177a6d"},"vehicle_type_id":"4","last_reported":1744369684,"current_range_meters":22000,"station_id":"ce4bgqh2rcd13ifvqc5g","pricing_plan_id":"cebpf4jnsgd1na2vs0mg"},{"bike_id":"78cf8bdc-e9e8-4e9d-8e54-1c34720ce88e","system_id":"levelo_inurba_marseille","lat":43.23149,"lon":5.43711,"is_reserved":false,"is_disabled":false,"rental_uris":{"android":"levelo://app?vid=78cf8bdc-e9e8-4e9d-8e54-1c34720ce88e","ios":"levelo://app?vid=78cf8bdc-e9e8-4e9d-8e54-1c34720ce88e"},"vehicle_type_id":"4","last_reported":1744369684,"current_range_meters":22000,"station_id":"ce4bhmp2rcd13ifvqgog","pricing_plan_id":"cebpf4jnsgd1na2vs0mg"},{"bike_id":"bffed82f-cdd1-47cb-9e06-e189fcf89f81","system_id":"levelo_inurba_marseille","lat":43.260323,"lon":5.375387,"is_reserved":false,"is_disabled":false,"rental_uris":{"android":"levelo://app?vid=bffed82f-cdd1-47cb-9e06-e189fcf89f81","ios":"levelo://app?vid=bffed82f-cdd1-47cb-9e06-e189fcf89f81"},"vehicle_type_id":"4","last_reported":1744369684,"current_range_meters":22000,"station_id":"ce4bhgh2rcd13ifvqfa0","pricing_plan_id":"cebpf4jnsgd1na2vs0mg"},{"bike_id":"b712a796-5aa2-43d2-b14c-a8b80df9b22e","system_id":"levelo_inurba_marseille","lat":43.31681,"lon":5.40485,"is_reserved":false,"is_disabled":false,"rental_uris":{"android":"levelo://app?vid=b712a796-5aa2-43d2-b14c-a8b80df9b22e","ios":"levelo://app?vid=b712a796-5aa2-43d2-b14c-a8b80df9b22e"},"vehicle_type_id":"4","last_reported":1744369684,"current_range_meters":24000,"station_id":"ce4bh012rcd13ifvqd00","pricing_plan_id":"cebpf4jnsgd1na2vs0mg"},{"bike_id":"9aa80968-d1c1-45cf-bb8c-f2d6421dd1c0","system_id":"levelo_inurba_marseille","lat":43.28483,"lon":5.384154,"is_reserved":false,"is_disabled":false,"rental_uris":{"android":"levelo://app?vid=9aa80968-d1c1-45cf-bb8c-f2d6421dd1c0","ios":"levelo://app?vid=9aa80968-d1c1-45cf-bb8c-f2d6421dd1c0"},"vehicle_type_id":"4","last_reported":1744369684,"current_range_meters":22400,"station_id":"ce4bh192rcd13ifvqdd0","pricing_plan_id":"cebpf4jnsgd1na2vs0mg"},{"bike_id":"77b50a44-49a9-4d4a-b78d-61fd5ef9df4c","system_id":"levelo_inurba_marseille","lat":43.26802,"lon":5.40262,"is_reserved":false,"is_disabled":false,"rental_uris":{"android":"levelo://app?vid=77b50a44-49a9-4d4a-b78d-61fd5ef9df4c","ios":"levelo://app?vid=77b50a44-49a9-4d4a-b78d-61fd5ef9df4c"},"vehicle_type_id":"4","last_reported":1744369684,"current_range_meters":22400,"station_id":"ce501612rcd8frsf0b60","pricing_plan_id":"cebpf4jnsgd1na2vs0mg"},{"bike_id":"465bfd63-08ff-45b1-b2e6-e49b94d0b4ce","system_id":"levelo_inurba_marseille","lat":43.29004,"lon":5.35606,"is_reserved":false,"is_disabled":false,"rental_uris":{"android":"levelo://app?vid=465bfd63-08ff-45b1-b2e6-e49b94d0b4ce","ios":"levelo://app?vid=465bfd63-08ff-45b1-b2e6-e49b94d0b4ce"},"vehicle_type_id":"4","last_reported":1744369684,"current_range_meters":22400,"station_id":"ce4bhb92rcd13ifvqen0","pricing_plan_id":"cebpf4jnsgd1na2vs0mg"},{"bike_id":"503904d8-3cdc-4148-be20-2a17896f5cdc","system_id":"levelo_inurba_marseille","lat":43.29007,"lon":5.35615,"is_reserved":false,"is_disabled":false,"rental_uris":{"android":"levelo://app?vid=503904d8-3cdc-4148-be20-2a17896f5cdc","ios":"levelo://app?vid=503904d8-3cdc-4148-be20-2a17896f5cdc"},"vehicle_type_id":"4","last_reported":1744369684,"current_range_meters":22400,"station_id":"ce4bhb92rcd13ifvqen0","pricing_plan_id":"cebpf4jnsgd1na2vs0mg"},{"bike_id":"89f6c1b7-88ac-47fe-b6ef-a4457ea8fcfd","system_id":"levelo_inurba_marseille","lat":43.29302,"lon":5.3717,"is_reserved":false,"is_disabled":false,"rental_uris":{"android":"levelo://app?vid=89f6c1b7-88ac-47fe-b6ef-a4457ea8fcfd","ios":"levelo://app?vid=89f6c1b7-88ac-47fe-b6ef-a4457ea8fcfd"},"vehicle_type_id":"4","last_reported":1744369684,"current_range_meters":22400,"station_id":"ce4bgh92rcd13ifvqb40","pricing_plan_id":"cebpf4jnsgd1na2vs0mg"},{"bike_id":"0e3d1513-d160-41cc-9abf-0940ef9624c8","system_id":"levelo_inurba_marseille","lat":43.24073,"lon":5.37756,"is_reserved":false,"is_disabled":false,"rental_uris":{"android":"levelo://app?vid=0e3d1513-d160-41cc-9abf-0940ef9624c8","ios":"levelo://app?vid=0e3d1513-d160-41cc-9abf-0940ef9624c8"},"vehicle_type_id":"4","last_reported":1744369684,"current_range_meters":22400,"station_id":"ce4bhnp2rcd13ifvqgvg","pricing_plan_id":"cebpf4jnsgd1na2vs0mg"},{"bike_id":"d8b9884b-4022-4710-9f87-50e0dbfd421d","system_id":"levelo_inurba_marseille","lat":43.24161,"lon":5.36402,"is_reserved":false,"is_disabled":false,"rental_uris":{"android":"levelo://app?vid=d8b9884b-4022-4710-9f87-50e0dbfd421d","ios":"levelo://app?vid=d8b9884b-4022-4710-9f87-50e0dbfd421d"},"vehicle_type_id":"4","last_reported":1744369684,"current_range_meters":22400,"station_id":"cpo36qri1sfpv3e86is0","pricing_plan_id":"cebpf4jnsgd1na2vs0mg"},{"bike_id":"5c804942-7afc-42fa-b606-e7b7fce438ab","system_id":"levelo_inurba_marseille","lat":43.23189,"lon":5.39981,"is_reserved":false,"is_disabled":false,"rental_uris":{"android":"levelo://app?vid=5c804942-7afc-42fa-b606-e7b7fce438ab","ios":"levelo://app?vid=5c804942-7afc-42fa-b606-e7b7fce438ab"},"vehicle_type_id":"4","last_reported":1744369684,"current_range_meters":22000,"station_id":"ce4bhn12rcd13ifvqgqg","pricing_plan_id":"cebpf4jnsgd1na2vs0mg"},{"bike_id":"fc928680-ad0d-4f1d-bcb6-b6855949378d","system_id":"levelo_inurba_marseille","lat":43.29039,"lon":5.39958,"is_reserved":false,"is_disabled":true,"rental_uris":{"android":"levelo://app?vid=fc928680-ad0d-4f1d-bcb6-b6855949378d","ios":"levelo://app?vid=fc928680-ad0d-4f1d-bcb6-b6855949378d"},"vehicle_type_id":"4","last_reported":1744369684,"current_range_meters":22400,"station_id":"ce4bh392rcd13ifvqdm0","pricing_plan_id":"cebpf4jnsgd1na2vs0mg"},{"bike_id":"14e7f6d7-d829-40c7-8382-a4ea6bc65ef5","system_id":"levelo_inurba_marseille","lat":43.28418,"lon":5.34987,"is_reserved":false,"is_disabled":false,"rental_uris":{"android":"levelo://app?vid=14e7f6d7-d829-40c7-8382-a4ea6bc65ef5","ios":"levelo://app?vid=14e7f6d7-d829-40c7-8382-a4ea6bc65ef5"},"vehicle_type_id":"4","last_reported":1744369684,"current_range_meters":22400,"station_id":"ce4bhbh2rcd13ifvqepg","pricing_plan_id":"cebpf4jnsgd1na2vs0mg"},{"bike_id":"248c892e-7cff-4783-87e8-02356602b685","system_id":"levelo_inurba_marseille","lat":43.30152,"lon":5.38077,"is_reserved":false,"is_disabled":false,"rental_uris":{"android":"levelo://app?vid=248c892e-7cff-4783-87e8-02356602b685","ios":"levelo://app?vid=248c892e-7cff-4783-87e8-02356602b685"},"vehicle_type_id":"4","last_reported":1744369684,"current_range_meters":22800,"station_id":"ce4bgjp2rcd13ifvqbh0","pricing_plan_id":"cebpf4jnsgd1na2vs0mg"},{"bike_id":"aba1668e-8e89-435d-bdd7-e6e3ff1acf79","system_id":"levelo_inurba_marseille","lat":43.30536,"lon":5.36699,"is_reserved":false,"is_disabled":false,"rental_uris":{"android":"levelo://app?vid=aba1668e-8e89-435d-bdd7-e6e3ff1acf79","ios":"levelo://app?vid=aba1668e-8e89-435d-bdd7-e6e3ff1acf79"},"vehicle_type_id":"4","last_reported":1744369684,"current_range_meters":22800,"station_id":"ce4bgrp2rcd13ifvqc9g","pricing_plan_id":"cebpf4jnsgd1na2vs0mg"},{"bike_id":"2f8c3024-f7bd-4a1c-9d9e-a78f4b93a7db","system_id":"levelo_inurba_marseille","lat":43.29271,"lon":5.38437,"is_reserved":false,"is_disabled":false,"rental_uris":{"android":"levelo://app?vid=2f8c3024-f7bd-4a1c-9d9e-a78f4b93a7db","ios":"levelo://app?vid=2f8c3024-f7bd-4a1c-9d9e-a78f4b93a7db"},"vehicle_type_id":"4","last_reported":1744369684,"current_range_meters":22800,"station_id":"ce4bh692rcd13ifvqea0","pricing_plan_id":"cebpf4jnsgd1na2vs0mg"},{"bike_id":"bf66c301-d926-43bd-9e88-39153a42b273","system_id":"levelo_inurba_marseille","lat":43.23958,"lon":5.36631,"is_reserved":false,"is_disabled":false,"rental_uris":{"android":"levelo://app?vid=bf66c301-d926-43bd-9e88-39153a42b273","ios":"levelo://app?vid=bf66c301-d926-43bd-9e88-39153a42b273"},"vehicle_type_id":"4","last_reported":1744369684,"current_range_meters":22800,"station_id":"ce4bhi12rcd13ifvqfp0","pricing_plan_id":"cebpf4jnsgd1na2vs0mg"},{"bike_id":"013e0d1c-d8cc-4b35-9f0b-45eb8777dbdd","system_id":"levelo_inurba_marseille","lat":43.25122,"lon":5.40318,"is_reserved":false,"is_disabled":false,"rental_uris":{"android":"levelo://app?vid=013e0d1c-d8cc-4b35-9f0b-45eb8777dbdd","ios":"levelo://app?vid=013e0d1c-d8cc-4b35-9f0b-45eb8777dbdd"},"vehicle_type_id":"4","last_reported":1744369684,"current_range_meters":22800,"station_id":"ce4bhlh2rcd13ifvqgig","pricing_plan_id":"cebpf4jnsgd1na2vs0mg"},{"bike_id":"6ee9f4f4-2b89-4c8a-bb41-24b111547b04","system_id":"levelo_inurba_marseille","lat":43.31251,"lon":5.36826,"is_reserved":false,"is_disabled":false,"rental_uris":{"android":"levelo://app?vid=6ee9f4f4-2b89-4c8a-bb41-24b111547b04","ios":"levelo://app?vid=6ee9f4f4-2b89-4c8a-bb41-24b111547b04"},"vehicle_type_id":"4","last_reported":1744369684,"current_range_meters":22800,"station_id":"ce4bgl92rcd13ifvqbq0","pricing_plan_id":"cebpf4jnsgd1na2vs0mg"},{"bike_id":"1e57af46-6a48-41a5-87b7-613d14bc626b","system_id":"levelo_inurba_marseille","lat":43.24816,"lon":5.37444,"is_reserved":false,"is_disabled":false,"rental_uris":{"android":"levelo://app?vid=1e57af46-6a48-41a5-87b7-613d14bc626b","ios":"levelo://app?vid=1e57af46-6a48-41a5-87b7-613d14bc626b"},"vehicle_type_id":"4","last_reported":1744369684,"current_range_meters":22800,"station_id":"ce4bhgh2rcd13ifvqfb0","pricing_plan_id":"cebpf4jnsgd1na2vs0mg"},{"bike_id":"736a706b-62c3-4c3c-b32b-1f701131b7f5","system_id":"levelo_inurba_marseille","lat":43.266459,"lon":5.40837,"is_reserved":false,"is_disabled":false,"rental_uris":{"android":"levelo://app?vid=736a706b-62c3-4c3c-b32b-1f701131b7f5","ios":"levelo://app?vid=736a706b-62c3-4c3c-b32b-1f701131b7f5"},"vehicle_type_id":"4","last_reported":1744369684,"current_range_meters":23200,"station_id":"","pricing_plan_id":"cebpf4jnsgd1na2vs0mg"},{"bike_id":"296a62c9-4a02-49cb-badf-a43c1e211d55","system_id":"levelo_inurba_marseille","lat":43.29199,"lon":5.39315,"is_reserved":false,"is_disabled":false,"rental_uris":{"android":"levelo://app?vid=296a62c9-4a02-49cb-badf-a43c1e211d55","ios":"levelo://app?vid=296a62c9-4a02-49cb-badf-a43c1e211d55"},"vehicle_type_id":"4","last_reported":1744369684,"current_range_meters":23200,"station_id":"ce4bh192rcd13ifvqdd0","pricing_plan_id":"cebpf4jnsgd1na2vs0mg"},{"bike_id":"50fbaae2-8d57-40e2-867b-96fe9f08b8a3","system_id":"levelo_inurba_marseille","lat":43.292009,"lon":5.358039,"is_reserved":false,"is_disabled":false,"rental_uris":{"android":"levelo://app?vid=50fbaae2-8d57-40e2-867b-96fe9f08b8a3","ios":"levelo://app?vid=50fbaae2-8d57-40e2-867b-96fe9f08b8a3"},"vehicle_type_id":"4","last_reported":1744369684,"current_range_meters":23200,"station_id":"ce4bhb12rcd13ifvqel0","pricing_plan_id":"cebpf4jnsgd1na2vs0mg"},{"bike_id":"f39fc6fe-9545-4531-a181-be58d8427f0e","system_id":"levelo_inurba_marseille","lat":43.3136,"lon":5.38486,"is_reserved":false,"is_disabled":false,"rental_uris":{"android":"levelo://app?vid=f39fc6fe-9545-4531-a181-be58d8427f0e","ios":"levelo://app?vid=f39fc6fe-9545-4531-a181-be58d8427f0e"},"vehicle_type_id":"4","last_reported":1744369684,"current_range_meters":23200,"station_id":"ce4bgt92rcd13ifvqcf0","pricing_plan_id":"cebpf4jnsgd1na2vs0mg"},{"bike_id":"1db8d3a2-856b-481f-a177-d6f278343be5","system_id":"levelo_inurba_marseille","lat":43.26554,"lon":5.37287,"is_reserved":false,"is_disabled":false,"rental_uris":{"android":"levelo://app?vid=1db8d3a2-856b-481f-a177-d6f278343be5","ios":"levelo://app?vid=1db8d3a2-856b-481f-a177-d6f278343be5"},"vehicle_type_id":"4","last_reported":1744369684,"current_range_meters":23200,"station_id":"ce4bhg12rcd13ifvqf70","pricing_plan_id":"cebpf4jnsgd1na2vs0mg"},{"bike_id":"5591936e-ca63-41c7-89f3-9c9493c86f89","system_id":"levelo_inurba_marseille","lat":43.2414,"lon":5.36428,"is_reserved":false,"is_disabled":false,"rental_uris":{"android":"levelo://app?vid=5591936e-ca63-41c7-89f3-9c9493c86f89","ios":"levelo://app?vid=5591936e-ca63-41c7-89f3-9c9493c86f89"},"vehicle_type_id":"4","last_reported":1744369684,"current_range_meters":23200,"station_id":"cpo36qri1sfpv3e86is0","pricing_plan_id":"cebpf4jnsgd1na2vs0mg"},{"bike_id":"e9db9fb1-6d03-44e3-84ae-b2192c3b1899","system_id":"levelo_inurba_marseille","lat":43.24178,"lon":5.39724,"is_reserved":false,"is_disabled":false,"rental_uris":{"android":"levelo://app?vid=e9db9fb1-6d03-44e3-84ae-b2192c3b1899","ios":"levelo://app?vid=e9db9fb1-6d03-44e3-84ae-b2192c3b1899"},"vehicle_type_id":"4","last_reported":1744369684,"current_range_meters":24000,"station_id":"ce4bhn12rcd13ifvqgpg","pricing_plan_id":"cebpf4jnsgd1na2vs0mg"},{"bike_id":"93c3b566-c6a1-409c-b3f1-3a48dd7820da","system_id":"levelo_inurba_marseille","lat":43.2657,"lon":5.39008,"is_reserved":false,"is_disabled":false,"rental_uris":{"android":"levelo://app?vid=93c3b566-c6a1-409c-b3f1-3a48dd7820da","ios":"levelo://app?vid=93c3b566-c6a1-409c-b3f1-3a48dd7820da"},"vehicle_type_id":"4","last_reported":1744369684,"current_range_meters":24000,"station_id":"ce4bhe12rcd13ifvqf30","pricing_plan_id":"cebpf4jnsgd1na2vs0mg"},{"bike_id":"01a43558-613c-4e13-a11e-a83abd87344b","system_id":"levelo_inurba_marseille","lat":43.30139,"lon":5.3986,"is_reserved":false,"is_disabled":false,"rental_uris":{"android":"levelo://app?vid=01a43558-613c-4e13-a11e-a83abd87344b","ios":"levelo://app?vid=01a43558-613c-4e13-a11e-a83abd87344b"},"vehicle_type_id":"4","last_reported":1744369684,"current_range_meters":24000,"station_id":"ce4bh0h2rcd13ifvqd40","pricing_plan_id":"cebpf4jnsgd1na2vs0mg"},{"bike_id":"0cb9933a-d606-4316-9348-77da3d5f840b","system_id":"levelo_inurba_marseille","lat":43.21189,"lon":5.35065,"is_reserved":false,"is_disabled":false,"rental_uris":{"android":"levelo://app?vid=0cb9933a-d606-4316-9348-77da3d5f840b","ios":"levelo://app?vid=0cb9933a-d606-4316-9348-77da3d5f840b"},"vehicle_type_id":"4","last_reported":1744369684,"current_range_meters":24000,"station_id":"st_cvj6sg6p6f1abm77japg","pricing_plan_id":"cebpf4jnsgd1na2vs0mg"},{"bike_id":"292f23e7-1f49-4fbe-b33a-83368be40b14","system_id":"levelo_inurba_marseille","lat":43.28264,"lon":5.35057,"is_reserved":false,"is_disabled":false,"rental_uris":{"android":"levelo://app?vid=292f23e7-1f49-4fbe-b33a-83368be40b14","ios":"levelo://app?vid=292f23e7-1f49-4fbe-b33a-83368be40b14"},"vehicle_type_id":"4","last_reported":1744369684,"current_range_meters":24000,"station_id":"ce4bhbp2rcd13ifvqerg","pricing_plan_id":"cebpf4jnsgd1na2vs0mg"},{"bike_id":"adb927ac-b66b-48e7-a0c1-3ba131648a5b","system_id":"levelo_inurba_marseille","lat":43.26694,"lon":5.38267,"is_reserved":false,"is_disabled":false,"rental_uris":{"android":"levelo://app?vid=adb927ac-b66b-48e7-a0c1-3ba131648a5b","ios":"levelo://app?vid=adb927ac-b66b-48e7-a0c1-3ba131648a5b"},"vehicle_type_id":"4","last_reported":1744369684,"current_range_meters":24000,"station_id":"ce4bhg92rcd13ifvqf90","pricing_plan_id":"cebpf4jnsgd1na2vs0mg"},{"bike_id":"62adbdd5-faee-44a0-8a09-26cec4b791e1","system_id":"levelo_inurba_marseille","lat":43.255,"lon":5.37645,"is_reserved":false,"is_disabled":false,"rental_uris":{"android":"levelo://app?vid=62adbdd5-faee-44a0-8a09-26cec4b791e1","ios":"levelo://app?vid=62adbdd5-faee-44a0-8a09-26cec4b791e1"},"vehicle_type_id":"4","last_reported":1744369684,"current_range_meters":24000,"station_id":"ce4bhh12rcd13ifvqff0","pricing_plan_id":"cebpf4jnsgd1na2vs0mg"},{"bike_id":"5995f075-b253-4f47-a13c-4144938f3a2c","system_id":"levelo_inurba_marseille","lat":43.303161,"lon":5.392053,"is_reserved":false,"is_disabled":true,"rental_uris":{"android":"levelo://app?vid=5995f075-b253-4f47-a13c-4144938f3a2c","ios":"levelo://app?vid=5995f075-b253-4f47-a13c-4144938f3a2c"},"vehicle_type_id":"4","last_reported":1744369684,"current_range_meters":24000,"station_id":"ce4bgkh2rcd13ifvqbk0","pricing_plan_id":"cebpf4jnsgd1na2vs0mg"},{"bike_id":"ebc87748-5efc-4ef2-9623-8e44d80dc9d3","system_id":"levelo_inurba_marseille","lat":43.30201,"lon":5.36607,"is_reserved":false,"is_disabled":false,"rental_uris":{"android":"levelo://app?vid=ebc87748-5efc-4ef2-9623-8e44d80dc9d3","ios":"levelo://app?vid=ebc87748-5efc-4ef2-9623-8e44d80dc9d3"},"vehicle_type_id":"4","last_reported":1744369684,"current_range_meters":24000,"station_id":"ce4bgrh2rcd13ifvqc8g","pricing_plan_id":"cebpf4jnsgd1na2vs0mg"},{"bike_id":"c23be456-d4f4-470e-af72-0900c437eac7","system_id":"levelo_inurba_marseille","lat":43.2984,"lon":5.363,"is_reserved":false,"is_disabled":false,"rental_uris":{"android":"levelo://app?vid=c23be456-d4f4-470e-af72-0900c437eac7","ios":"levelo://app?vid=c23be456-d4f4-470e-af72-0900c437eac7"},"vehicle_type_id":"4","last_reported":1744369684,"current_range_meters":24000,"station_id":"ce4bgpp2rcd13ifvqc3g","pricing_plan_id":"cebpf4jnsgd1na2vs0mg"},{"bike_id":"35207d94-cdda-4a01-84af-6dfeededb498","system_id":"levelo_inurba_marseille","lat":43.305327,"lon":5.365491,"is_reserved":false,"is_disabled":false,"rental_uris":{"android":"levelo://app?vid=35207d94-cdda-4a01-84af-6dfeededb498","ios":"levelo://app?vid=35207d94-cdda-4a01-84af-6dfeededb498"},"vehicle_type_id":"4","last_reported":1744369684,"current_range_meters":24000,"station_id":"ce4bgpp2rcd13ifvqc3g","pricing_plan_id":"cebpf4jnsgd1na2vs0mg"},{"bike_id":"c6b58dfa-aae6-4b84-b256-ffb77d100d41","system_id":"levelo_inurba_marseille","lat":43.24174,"lon":5.39721,"is_reserved":false,"is_disabled":false,"rental_uris":{"android":"levelo://app?vid=c6b58dfa-aae6-4b84-b256-ffb77d100d41","ios":"levelo://app?vid=c6b58dfa-aae6-4b84-b256-ffb77d100d41"},"vehicle_type_id":"4","last_reported":1744369684,"current_range_meters":24000,"station_id":"ce4bhn12rcd13ifvqgpg","pricing_plan_id":"cebpf4jnsgd1na2vs0mg"},{"bike_id":"5cb9cea2-84f3-4694-bbb5-e038256ed69b","system_id":"levelo_inurba_marseille","lat":43.28278,"lon":5.35085,"is_reserved":false,"is_disabled":false,"rental_uris":{"android":"levelo://app?vid=5cb9cea2-84f3-4694-bbb5-e038256ed69b","ios":"levelo://app?vid=5cb9cea2-84f3-4694-bbb5-e038256ed69b"},"vehicle_type_id":"4","last_reported":1744369684,"current_range_meters":24400,"station_id":"ce4bhbp2rcd13ifvqerg","pricing_plan_id":"cebpf4jnsgd1na2vs0mg"},{"bike_id":"c6ac9063-0de1-420a-a9c7-c63657ead8bf","system_id":"levelo_inurba_marseille","lat":43.30944,"lon":5.39039,"is_reserved":false,"is_disabled":false,"rental_uris":{"android":"levelo://app?vid=c6ac9063-0de1-420a-a9c7-c63657ead8bf","ios":"levelo://app?vid=c6ac9063-0de1-420a-a9c7-c63657ead8bf"},"vehicle_type_id":"4","last_reported":1744369684,"current_range_meters":24400,"station_id":"ce4bgup2rcd13ifvqco0","pricing_plan_id":"cebpf4jnsgd1na2vs0mg"},{"bike_id":"b9ddc55a-afff-4b07-86b1-818918dc6f1f","system_id":"levelo_inurba_marseille","lat":43.3136,"lon":5.38508,"is_reserved":false,"is_disabled":true,"rental_uris":{"android":"levelo://app?vid=b9ddc55a-afff-4b07-86b1-818918dc6f1f","ios":"levelo://app?vid=b9ddc55a-afff-4b07-86b1-818918dc6f1f"},"vehicle_type_id":"4","last_reported":1744369684,"current_range_meters":24400,"station_id":"ce4bgt92rcd13ifvqcf0","pricing_plan_id":"cebpf4jnsgd1na2vs0mg"},{"bike_id":"e4cca1cb-9af9-4e3a-8098-ca1ea7aa4b1f","system_id":"levelo_inurba_marseille","lat":43.31364,"lon":5.36767,"is_reserved":false,"is_disabled":false,"rental_uris":{"android":"levelo://app?vid=e4cca1cb-9af9-4e3a-8098-ca1ea7aa4b1f","ios":"levelo://app?vid=e4cca1cb-9af9-4e3a-8098-ca1ea7aa4b1f"},"vehicle_type_id":"4","last_reported":1744369684,"current_range_meters":24400,"station_id":"","pricing_plan_id":"cebpf4jnsgd1na2vs0mg"},{"bike_id":"1337cee8-5dd2-470a-9736-734bd66f058f","system_id":"levelo_inurba_marseille","lat":43.26551,"lon":5.37282,"is_reserved":false,"is_disabled":false,"rental_uris":{"android":"levelo://app?vid=1337cee8-5dd2-470a-9736-734bd66f058f","ios":"levelo://app?vid=1337cee8-5dd2-470a-9736-734bd66f058f"},"vehicle_type_id":"4","last_reported":1744369684,"current_range_meters":24400,"station_id":"ce4bhg12rcd13ifvqf70","pricing_plan_id":"cebpf4jnsgd1na2vs0mg"},{"bike_id":"e33b3338-c3fb-4a12-bb23-f3bc7c5b7be6","system_id":"levelo_inurba_marseille","lat":43.26689,"lon":5.38253,"is_reserved":false,"is_disabled":false,"rental_uris":{"android":"levelo://app?vid=e33b3338-c3fb-4a12-bb23-f3bc7c5b7be6","ios":"levelo://app?vid=e33b3338-c3fb-4a12-bb23-f3bc7c5b7be6"},"vehicle_type_id":"4","last_reported":1744369684,"current_range_meters":24400,"station_id":"ce4bhg92rcd13ifvqf90","pricing_plan_id":"cebpf4jnsgd1na2vs0mg"},{"bike_id":"8330d58b-21d7-4082-bfc2-5da7ed65fc38","system_id":"levelo_inurba_marseille","lat":43.22934,"lon":5.35374,"is_reserved":false,"is_disabled":false,"rental_uris":{"android":"levelo://app?vid=8330d58b-21d7-4082-bfc2-5da7ed65fc38","ios":"levelo://app?vid=8330d58b-21d7-4082-bfc2-5da7ed65fc38"},"vehicle_type_id":"4","last_reported":1744369684,"current_range_meters":24400,"station_id":"cpo3532slgdg3j2ikp40","pricing_plan_id":"cebpf4jnsgd1na2vs0mg"},{"bike_id":"3bcb1a6a-4c5b-4e96-abfd-239c53d3084f","system_id":"levelo_inurba_marseille","lat":43.30598,"lon":5.37228,"is_reserved":false,"is_disabled":false,"rental_uris":{"android":"levelo://app?vid=3bcb1a6a-4c5b-4e96-abfd-239c53d3084f","ios":"levelo://app?vid=3bcb1a6a-4c5b-4e96-abfd-239c53d3084f"},"vehicle_type_id":"4","last_reported":1744369684,"current_range_meters":24400,"station_id":"ce4bgqh2rcd13ifvqc4g","pricing_plan_id":"cebpf4jnsgd1na2vs0mg"},{"bike_id":"079a3ff7-25cc-4679-a792-7d38f2db3dd0","system_id":"levelo_inurba_marseille","lat":43.302311,"lon":5.376416,"is_reserved":false,"is_disabled":false,"rental_uris":{"android":"levelo://app?vid=079a3ff7-25cc-4679-a792-7d38f2db3dd0","ios":"levelo://app?vid=079a3ff7-25cc-4679-a792-7d38f2db3dd0"},"vehicle_type_id":"4","last_reported":1744369684,"current_range_meters":24000,"station_id":"ce4bguh2rcd13ifvqcj0","pricing_plan_id":"cebpf4jnsgd1na2vs0mg"},{"bike_id":"998c02cc-4ff7-41ae-9eda-0bddda92b794","system_id":"levelo_inurba_marseille","lat":43.28411,"lon":5.34997,"is_reserved":false,"is_disabled":false,"rental_uris":{"android":"levelo://app?vid=998c02cc-4ff7-41ae-9eda-0bddda92b794","ios":"levelo://app?vid=998c02cc-4ff7-41ae-9eda-0bddda92b794"},"vehicle_type_id":"4","last_reported":1744369684,"current_range_meters":24400,"station_id":"ce4bhbh2rcd13ifvqepg","pricing_plan_id":"cebpf4jnsgd1na2vs0mg"},{"bike_id":"6abeb5be-e242-4ca8-a0f6-14a656dbab3a","system_id":"levelo_inurba_marseille","lat":43.27944,"lon":5.41037,"is_reserved":false,"is_disabled":false,"rental_uris":{"android":"levelo://app?vid=6abeb5be-e242-4ca8-a0f6-14a656dbab3a","ios":"levelo://app?vid=6abeb5be-e242-4ca8-a0f6-14a656dbab3a"},"vehicle_type_id":"4","last_reported":1744369684,"current_range_meters":24400,"station_id":"ce4bhnp2rcd13ifvqh0g","pricing_plan_id":"cebpf4jnsgd1na2vs0mg"},{"bike_id":"56063b86-e554-4cfc-a680-33242d45f1b0","system_id":"levelo_inurba_marseille","lat":43.30534,"lon":5.36542,"is_reserved":false,"is_disabled":false,"rental_uris":{"android":"levelo://app?vid=56063b86-e554-4cfc-a680-33242d45f1b0","ios":"levelo://app?vid=56063b86-e554-4cfc-a680-33242d45f1b0"},"vehicle_type_id":"4","last_reported":1744369684,"current_range_meters":24400,"station_id":"ce4bgs12rcd13ifvqcag","pricing_plan_id":"cebpf4jnsgd1na2vs0mg"},{"bike_id":"4060c619-b01a-494d-871c-d728ad893cb2","system_id":"levelo_inurba_marseille","lat":43.21744,"lon":5.34606,"is_reserved":false,"is_disabled":false,"rental_uris":{"android":"levelo://app?vid=4060c619-b01a-494d-871c-d728ad893cb2","ios":"levelo://app?vid=4060c619-b01a-494d-871c-d728ad893cb2"},"vehicle_type_id":"4","last_reported":1744369684,"current_range_meters":24400,"station_id":"","pricing_plan_id":"cebpf4jnsgd1na2vs0mg"},{"bike_id":"5fe2baf4-7ed3-49de-bcdb-570fb1ac59a7","system_id":"levelo_inurba_marseille","lat":43.26564,"lon":5.39011,"is_reserved":false,"is_disabled":false,"rental_uris":{"android":"levelo://app?vid=5fe2baf4-7ed3-49de-bcdb-570fb1ac59a7","ios":"levelo://app?vid=5fe2baf4-7ed3-49de-bcdb-570fb1ac59a7"},"vehicle_type_id":"4","last_reported":1744369684,"current_range_meters":24400,"station_id":"ce4bhe12rcd13ifvqf30","pricing_plan_id":"cebpf4jnsgd1na2vs0mg"},{"bike_id":"cedc111c-f4f2-47f7-9cda-e657fee7bd01","system_id":"levelo_inurba_marseille","lat":43.24175,"lon":5.36392,"is_reserved":false,"is_disabled":false,"rental_uris":{"android":"levelo://app?vid=cedc111c-f4f2-47f7-9cda-e657fee7bd01","ios":"levelo://app?vid=cedc111c-f4f2-47f7-9cda-e657fee7bd01"},"vehicle_type_id":"4","last_reported":1744369684,"current_range_meters":24400,"station_id":"cpo36qri1sfpv3e86is0","pricing_plan_id":"cebpf4jnsgd1na2vs0mg"},{"bike_id":"e010f852-6c55-4b9f-8d43-c5360db64a9b","system_id":"levelo_inurba_marseille","lat":43.26574,"lon":5.37292,"is_reserved":false,"is_disabled":true,"rental_uris":{"android":"levelo://app?vid=e010f852-6c55-4b9f-8d43-c5360db64a9b","ios":"levelo://app?vid=e010f852-6c55-4b9f-8d43-c5360db64a9b"},"vehicle_type_id":"4","last_reported":1744369684,"current_range_meters":24400,"station_id":"ce4bhg12rcd13ifvqf70","pricing_plan_id":"cebpf4jnsgd1na2vs0mg"},