{"last_updated":1729710412,"ttl":60,"version":"2.2","data":{"bikes":[{"bike_id":"1ba4fac4-2099-4987-b572-7bda99a09ac0","system_id":"levelo_inurba_marseille","lat":43.27623,"lon":5.36107,"is_reserved":false,"is_disabled":false,"rental_uris":{"android":"levelo://app?vid=1ba4fac4-2099-4987-b572-7bda99a09ac0","ios":"levelo://app?vid=1ba4fac4-2099-4987-b572-7bda99a09ac0"},"vehicle_type_id":"4","last_reported":1729710412,"current_range_meters":7200,"station_id":"ce4bgj92rcd13ifvqbe0","pricing_plan_id":"cebpf4jnsgd1na2vs0mg"},{"bike_id":"2f8114b4-de1e-44ec-a474-c32c53bd4f7d","system_id":"levelo_inurba_marseille","lat":43.28453,"lon":5.35892,"is_reserved":false,"is_disabled":false,"rental_uris":{"android":"levelo://app?vid=2f8114b4-de1e-44ec-a474-c32c53bd4f7d","ios":"levelo://app?vid=2f8114b4-de1e-44ec-a474-c32c53bd4f7d"},"vehicle_type_id":"4","last_reported":1729710412,"current_range_meters":25200,"station_id":"ce4bhah2rcd13ifvqei0","pricing_plan_id":"cebpf4jnsgd1na2vs0mg"},{"bike_id":"06ba7907-bee9-4e13-80e3-3d497a4c049e","system_id":"levelo_inurba_marseille","lat":43.292603,"lon":5.409078,"is_reserved":false,"is_disabled":false,"rental_uris":{"android":"levelo://app?vid=06ba7907-bee9-4e13-80e3-3d497a4c049e","ios":"levelo://app?vid=06ba7907-bee9-4e13-80e3-3d497a4c049e"},"vehicle_type_id":"4","last_reported":1729710412,"current_range_meters":28000,"station_id":"ce4bho92rcd13ifvqh4g","pricing_plan_id":"cebpf4jnsgd1na2vs0mg"},{"bike_id":"c344efd6-2c4a-47f7-948d-e935da3fb087","system_id":"levelo_inurba_marseille","lat":43.256287,"lon":5.393963,"is_reserved":false,"is_disabled":false,"rental_uris":{"android":"levelo://app?vid=c344efd6-2c4a-47f7-948d-e935da3fb087","ios":"levelo://app?vid=c344efd6-2c4a-47f7-948d-e935da3fb087"},"vehicle_type_id":"4","last_reported":1729710412,"current_range_meters":9200,"station_id":"ce4bhhp2rcd13ifvqfm0","pricing_plan_id":"cebpf4jnsgd1na2vs0mg"},{"bike_id":"6f1cf053-9538-4183-b8f9-5b4966984255","system_id":"levelo_inurba_marseille","lat":43.27179,"lon":5.40998,"is_reserved":false,"is_disabled":false,"rental_uris":{"android":"levelo://app?vid=6f1cf053-9538-4183-b8f9-5b4966984255","ios":"levelo://app?vid=6f1cf053-9538-4183-b8f9-5b4966984255"},"vehicle_type_id":"4","last_reported":1729710412,"current_range_meters":24800,"station_id":"ce4bhl12rcd13ifvqgf0","pricing_plan_id":"cebpf4jnsgd1na2vs0mg"},{"bike_id":"1356a2c1-2fd0-44e0-88cf-53c5c033126a","system_id":"levelo_inurba_marseille","lat":43.29796,"lon":5.40411,"is_reserved":false,"is_disabled":false,"rental_uris":{"android":"levelo://app?vid=1356a2c1-2fd0-44e0-88cf-53c5c033126a","ios":"levelo://app?vid=1356a2c1-2fd0-44e0-88cf-53c5c033126a"},"vehicle_type_id":"4","last_reported":1729710412,"current_range_meters":38000,"station_id":"ce4bh112rcd13ifvqd90","pricing_plan_id":"cebpf4jnsgd1na2vs0mg"},{"bike_id":"9a4dcf10-7370-40f8-b425-7efc649c3024","system_id":"levelo_inurba_marseille","lat":43.30933,"lon":5.40145,"is_reserved":false,"is_disabled":false,"rental_uris":{"android":"levelo://app?vid=9a4dcf10-7370-40f8-b425-7efc649c3024","ios":"levelo://app?vid=9a4dcf10-7370-40f8-b425-7efc649c3024"},"vehicle_type_id":"4","last_reported":1729710412,"current_range_meters":24000,"station_id":"ce4bgvp2rcd13ifvqct0","pricing_plan_id":"cebpf4jnsgd1na2vs0mg"},{"bike_id":"4944b194-a2fa-4d77-9fae-890f7d181050","system_id":"levelo_inurba_marseille","lat":43.30322,"lon":5.40442,"is_reserved":false,"is_disabled":false,"rental_uris":{"android":"levelo://app?vid=4944b194-a2fa-4d77-9fae-890f7d181050","ios":"levelo://app?vid=4944b194-a2fa-4d77-9fae-890f7d181050"},"vehicle_type_id":"4","last_reported":1729710412,"current_range_meters":38800,"station_id":"ce4bh012rcd13ifvqd10","pricing_plan_id":"cebpf4jnsgd1na2vs0mg"},{"bike_id":"e3ee6803-db32-484e-9995-7f3bb223124f","system_id":"levelo_inurba_marseille","lat":43.26784,"lon":5.39413,"is_reserved":false,"is_disabled":false,"rental_uris":{"android":"levelo://app?vid=e3ee6803-db32-484e-9995-7f3bb223124f","ios":"levelo://app?vid=e3ee6803-db32-484e-9995-7f3bb223124f"},"vehicle_type_id":"4","last_reported":1729710412,"current_range_meters":8800,"station_id":"ce4bhh12rcd13ifvqfg0","pricing_plan_id":"cebpf4jnsgd1na2vs0mg"},{"bike_id":"a488bc87-7eca-4f35-9a78-b649c4759303","system_id":"levelo_inurba_marseille","lat":43.28952,"lon":5.39141,"is_reserved":false,"is_disabled":false,"rental_uris":{"android":"levelo://app?vid=a488bc87-7eca-4f35-9a78-b649c4759303","ios":"levelo://app?vid=a488bc87-7eca-4f35-9a78-b649c4759303"},"vehicle_type_id":"4","last_reported":1729710412,"current_range_meters":30400,"station_id":"ce4bh2h2rcd13ifvqdh0","pricing_plan_id":"cebpf4jnsgd1na2vs0mg"},{"bike_id":"72d66fb8-f7a7-4fe3-a522-bd2bf6abb98f","system_id":"levelo_inurba_marseille","lat":43.29865,"lon":5.39736,"is_reserved":false,"is_disabled":false,"rental_uris":{"android":"levelo://app?vid=72d66fb8-f7a7-4fe3-a522-bd2bf6abb98f","ios":"levelo://app?vid=72d66fb8-f7a7-4fe3-a522-bd2bf6abb98f"},"vehicle_type_id":"4","last_reported":1729710412,"current_range_meters":40000,"station_id":"ce4bh0h2rcd13ifvqd50","pricing_plan_id":"cebpf4jnsgd1na2vs0mg"},{"bike_id":"87e0a197-0560-4c71-8e01-9fe943fd4adc","system_id":"levelo_inurba_marseille","lat":43.29414,"lon":5.38625,"is_reserved":false,"is_disabled":false,"rental_uris":{"android":"levelo://app?vid=87e0a197-0560-4c71-8e01-9fe943fd4adc","ios":"levelo://app?vid=87e0a197-0560-4c71-8e01-9fe943fd4adc"},"vehicle_type_id":"4","last_reported":1729710412,"current_range_meters":28000,"station_id":"ce4bh2h2rcd13ifvqdh0","pricing_plan_id":"cebpf4jnsgd1na2vs0mg"},{"bike_id":"1b5b514a-3ee9-4d07-b3f9-8c1f408811ed","system_id":"levelo_inurba_marseille","lat":43.28996,"lon":5.37419,"is_reserved":false,"is_disabled":false,"rental_uris":{"android":"levelo://app?vid=1b5b514a-3ee9-4d07-b3f9-8c1f408811ed","ios":"levelo://app?vid=1b5b514a-3ee9-4d07-b3f9-8c1f408811ed"},"vehicle_type_id":"4","last_reported":1729710412,"current_range_meters":20800,"station_id":"ce4bh692rcd13ifvqe90","pricing_plan_id":"cebpf4jnsgd1na2vs0mg"},{"bike_id":"cf618f94-b08f-4928-a159-d837b451193a","system_id":"levelo_inurba_marseille","lat":43.30425,"lon":5.3975,"is_reserved":false,"is_disabled":false,"rental_uris":{"android":"levelo://app?vid=cf618f94-b08f-4928-a159-d837b451193a","ios":"levelo://app?vid=cf618f94-b08f-4928-a159-d837b451193a"},"vehicle_type_id":"4","last_reported":1729710412,"current_range_meters":11200,"station_id":"ce4bh092rcd13ifvqd20","pricing_plan_id":"cebpf4jnsgd1na2vs0mg"},{"bike_id":"734fd407-60e7-4eeb-af58-4c79f94ac383","system_id":"levelo_inurba_marseille","lat":43.29027,"lon":5.38635,"is_reserved":false,"is_disabled":false,"rental_uris":{"android":"levelo://app?vid=734fd407-60e7-4eeb-af58-4c79f94ac383","ios":"levelo://app?vid=734fd407-60e7-4eeb-af58-4c79f94ac383"},"vehicle_type_id":"4","last_reported":1729710412,"current_range_meters":36400,"station_id":"ce4bh4p2rcd13ifvqe0g","pricing_plan_id":"cebpf4jnsgd1na2vs0mg"},{"bike_id":"64730b2c-63f8-49cb-8ebc-a5acb1efa9df","system_id":"levelo_inurba_marseille","lat":43.26212,"lon":5.3744,"is_reserved":false,"is_disabled":false,"rental_uris":{"android":"levelo://app?vid=64730b2c-63f8-49cb-8ebc-a5acb1efa9df","ios":"levelo://app?vid=64730b2c-63f8-49cb-8ebc-a5acb1efa9df"},"vehicle_type_id":"4","last_reported":1729710412,"current_range_meters":23200,"station_id":"ce4bhgp2rcd13ifvqfc0","pricing_plan_id":"cebpf4jnsgd1na2vs0mg"},{"bike_id":"cd392826-afe5-4373-872f-258ed05c5ba1","system_id":"levelo_inurba_marseille","lat":43.29257,"lon":5.40911,"is_reserved":false,"is_disabled":false,"rental_uris":{"android":"levelo://app?vid=cd392826-afe5-4373-872f-258ed05c5ba1","ios":"levelo://app?vid=cd392826-afe5-4373-872f-258ed05c5ba1"},"vehicle_type_id":"4","last_reported":1729710412,"current_range_meters":36800,"station_id":"ce4bh192rcd13ifvqdc0","pricing_plan_id":"cebpf4jnsgd1na2vs0mg"},{"bike_id":"629a1d83-8dd6-432a-a224-7069ae46cbb1","system_id":"levelo_inurba_marseille","lat":43.29421,"lon":5.38613,"is_reserved":false,"is_disabled":false,"rental_uris":{"android":"levelo://app?vid=629a1d83-8dd6-432a-a224-7069ae46cbb1","ios":"levelo://app?vid=629a1d83-8dd6-432a-a224-7069ae46cbb1"},"vehicle_type_id":"4","last_reported":1729710412,"current_range_meters":11200,"station_id":"ce4bh2h2rcd13ifvqdh0","pricing_plan_id":"cebpf4jnsgd1na2vs0mg"},{"bike_id":"c5ad0752-a972-4016-9973-b354d3723f34","system_id":"levelo_inurba_marseille","lat":43.30329,"lon":5.40434,"is_reserved":false,"is_disabled":false,"rental_uris":{"android":"levelo://app?vid=c5ad0752-a972-4016-9973-b354d3723f34","ios":"levelo://app?vid=c5ad0752-a972-4016-9973-b354d3723f34"},"vehicle_type_id":"4","last_reported":1729710412,"current_range_meters":33600,"station_id":"ce4bh012rcd13ifvqd10","pricing_plan_id":"cebpf4jnsgd1na2vs0mg"},{"bike_id":"a88ebcd2-56d8-4676-ad59-e423373b57b8","system_id":"levelo_inurba_marseille","lat":43.31367,"lon":5.38491,"is_reserved":false,"is_disabled":false,"rental_uris":{"android":"levelo://app?vid=a88ebcd2-56d8-4676-ad59-e423373b57b8","ios":"levelo://app?vid=a88ebcd2-56d8-4676-ad59-e423373b57b8"},"vehicle_type_id":"4","last_reported":1729710412,"current_range_meters":9600,"station_id":"ce4bgt92rcd13ifvqcf0","pricing_plan_id":"cebpf4jnsgd1na2vs0mg"},{"bike_id":"29714e1b-b2ca-4947-a281-4137ae0c9c7f","system_id":"levelo_inurba_marseille","lat":43.28462,"lon":5.35881,"is_reserved":false,"is_disabled":false,"rental_uris":{"android":"levelo://app?vid=29714e1b-b2ca-4947-a281-4137ae0c9c7f","ios":"levelo://app?vid=29714e1b-b2ca-4947-a281-4137ae0c9c7f"},"vehicle_type_id":"4","last_reported":1729710412,"current_range_meters":38800,"station_id":"ce4bhah2rcd13ifvqei0","pricing_plan_id":"cebpf4jnsgd1na2vs0mg"},{"bike_id":"2a30bbc1-454c-42f6-a499-6fb323b5a4a1","system_id":"levelo_inurba_marseille","lat":43.2953,"lon":5.3854,"is_reserved":false,"is_disabled":false,"rental_uris":{"android":"levelo://app?vid=2a30bbc1-454c-42f6-a499-6fb323b5a4a1","ios":"levelo://app?vid=2a30bbc1-454c-42f6-a499-6fb323b5a4a1"},"vehicle_type_id":"4","last_reported":1729710412,"current_range_meters":16000,"station_id":"ce4bgih2rcd13ifvqba0","pricing_plan_id":"cebpf4jnsgd1na2vs0mg"},{"bike_id":"c25b41f3-3e96-4fc2-a7e8-81a3359411d2","system_id":"levelo_inurba_marseille","lat":43.2846,"lon":5.35882,"is_reserved":false,"is_disabled":false,"rental_uris":{"android":"levelo://app?vid=c25b41f3-3e96-4fc2-a7e8-81a3359411d2","ios":"levelo://app?vid=c25b41f3-3e96-4fc2-a7e8-81a3359411d2"},"vehicle_type_id":"4","last_reported":1729710412,"current_range_meters":16000,"station_id":"ce4bhah2rcd13ifvqei0","pricing_plan_id":"cebpf4jnsgd1na2vs0mg"},{"bike_id":"fb69fb84-2214-4086-af0e-28a3a6b05ea2","system_id":"levelo_inurba_marseille","lat":43.29441,"lon":5.39745,"is_reserved":false,"is_disabled":false,"rental_uris":{"android":"levelo://app?vid=fb69fb84-2214-4086-af0e-28a3a6b05ea2","ios":"levelo://app?vid=fb69fb84-2214-4086-af0e-28a3a6b05ea2"},"vehicle_type_id":"4","last_reported":1729710412,"current_range_meters":39200,"station_id":"ce4bh3h2rcd13ifvqdo0","pricing_plan_id":"cebpf4jnsgd1na2vs0mg"},{"bike_id":"5c449356-4ac4-4d08-a405-c433fbe21a80","system_id":"levelo_inurba_marseille","lat":43.33737,"lon":5.37458,"is_reserved":false,"is_disabled":false,"rental_uris":{"android":"levelo://app?vid=5c449356-4ac4-4d08-a405-c433fbe21a80","ios":"levelo://app?vid=5c449356-4ac4-4d08-a405-c433fbe21a80"},"vehicle_type_id":"4","last_reported":1729710412,"current_range_meters":28000,"station_id":"","pricing_plan_id":"cebpf4jnsgd1na2vs0mg"},{"bike_id":"42ec5520-6b45-43f9-95a6-bcb6636d6dce","system_id":"levelo_inurba_marseille","lat":43.29417,"lon":5.38623,"is_reserved":false,"is_disabled":false,"rental_uris":{"android":"levelo://app?vid=42ec5520-6b45-43f9-95a6-bcb6636d6dce","ios":"levelo://app?vid=42ec5520-6b45-43f9-95a6-bcb6636d6dce"},"vehicle_type_id":"4","last_reported":1729710412,"current_range_meters":4000,"station_id":"ce4bh2h2rcd13ifvqdh0","pricing_plan_id":"cebpf4jnsgd1na2vs0mg"},{"bike_id":"c3894c98-d0d8-44d0-ac9b-285cedffa467","system_id":"levelo_inurba_marseille","lat":43.25582,"lon":5.38233,"is_reserved":false,"is_disabled":false,"rental_uris":{"android":"levelo://app?vid=c3894c98-d0d8-44d0-ac9b-285cedffa467","ios":"levelo://app?vid=c3894c98-d0d8-44d0-ac9b-285cedffa467"},"vehicle_type_id":"4","last_reported":1729710412,"current_range_meters":33200,"station_id":"ce4bhih2rcd13ifvqfs0","pricing_plan_id":"cebpf4jnsgd1na2vs0mg"},{"bike_id":"f0f74b19-d0c5-44c9-b91a-a0cc0a9a47d3","system_id":"levelo_inurba_marseille","lat":43.30419,"lon":5.39743,"is_reserved":false,"is_disabled":false,"rental_uris":{"android":"levelo://app?vid=f0f74b19-d0c5-44c9-b91a-a0cc0a9a47d3","ios":"levelo://app?vid=f0f74b19-d0c5-44c9-b91a-a0cc0a9a47d3"},"vehicle_type_id":"4","last_reported":1729710412,"current_range_meters":24000,"station_id":"ce4bh092rcd13ifvqd20","pricing_plan_id":"cebpf4jnsgd1na2vs0mg"},{"bike_id":"f105d8bd-368c-4b10-b977-6e50f3e70243","system_id":"levelo_inurba_marseille","lat":43.24546,"lon":5.39523,"is_reserved":false,"is_disabled":false,"rental_uris":{"android":"levelo://app?vid=f105d8bd-368c-4b10-b977-6e50f3e70243","ios":"levelo://app?vid=f105d8bd-368c-4b10-b977-6e50f3e70243"},"vehicle_type_id":"4","last_reported":1729710412,"current_range_meters":39200,"station_id":"ce4bhlp2rcd13ifvqgjg","pricing_plan_id":"cebpf4jnsgd1na2vs0mg"},{"bike_id":"4f833d76-920b-43a0-8a26-c849b0794c84","system_id":"levelo_inurba_marseille","lat":43.284576,"lon":5.383864,"is_reserved":false,"is_disabled":false,"rental_uris":{"android":"levelo://app?vid=4f833d76-920b-43a0-8a26-c849b0794c84","ios":"levelo://app?vid=4f833d76-920b-43a0-8a26-c849b0794c84"},"vehicle_type_id":"4","last_reported":1729710412,"current_range_meters":38800,"station_id":"ce4bh512rcd13ifvqe3g","pricing_plan_id":"cebpf4jnsgd1na2vs0mg"},{"bike_id":"9ea67ce7-67e3-4acc-8f8f-2cbb39b21a07","system_id":"levelo_inurba_marseille","lat":43.28456,"lon":5.35895,"is_reserved":false,"is_disabled":false,"rental_uris":{"android":"levelo://app?vid=9ea67ce7-67e3-4acc-8f8f-2cbb39b21a07","ios":"levelo://app?vid=9ea67ce7-67e3-4acc-8f8f-2cbb39b21a07"},"vehicle_type_id":"4","last_reported":1729710412,"current_range_meters":11600,"station_id":"ce4bhah2rcd13ifvqei0","pricing_plan_id":"cebpf4jnsgd1na2vs0mg"},{"bike_id":"74001895-f230-4e75-94d7-e23bdef761d3","system_id":"levelo_inurba_marseille","lat":43.246255,"lon":5.389196,"is_reserved":false,"is_disabled":false,"rental_uris":{"android":"levelo://app?vid=74001895-f230-4e75-94d7-e23bdef761d3","ios":"levelo://app?vid=74001895-f230-4e75-94d7-e23bdef761d3"},"vehicle_type_id":"4","last_reported":1729710412,"current_range_meters":38800,"station_id":"ce4bhg12rcd13ifvqf60","pricing_plan_id":"cebpf4jnsgd1na2vs0mg"},{"bike_id":"c769be1b-4262-45e1-ae17-91133a0a1d6c","system_id":"levelo_inurba_marseille","lat":43.3053,"lon":5.36659,"is_reserved":false,"is_disabled":false,"rental_uris":{"android":"levelo://app?vid=c769be1b-4262-45e1-ae17-91133a0a1d6c","ios":"levelo://app?vid=c769be1b-4262-45e1-ae17-91133a0a1d6c"},"vehicle_type_id":"4","last_reported":1729710412,"current_range_meters":10800,"station_id":"","pricing_plan_id":"cebpf4jnsgd1na2vs0mg"},{"bike_id":"3bb3af60-2bcb-42a1-bc08-61d8ea2cf744","system_id":"levelo_inurba_marseille","lat":43.30601,"lon":5.37241,"is_reserved":false,"is_disabled":false,"rental_uris":{"android":"levelo://app?vid=3bb3af60-2bcb-42a1-bc08-61d8ea2cf744","ios":"levelo://app?vid=3bb3af60-2bcb-42a1-bc08-61d8ea2cf744"},"vehicle_type_id":"4","last_reported":1729710412,"current_range_meters":28800,"station_id":"ce4bgqh2rcd13ifvqc4g","pricing_plan_id":"cebpf4jnsgd1na2vs0mg"},{"bike_id":"abbca22d-b2ce-4e37-867c-33df7523b59f","system_id":"levelo_inurba_marseille","lat":43.25828,"lon":5.39428,"is_reserved":false,"is_disabled":false,"rental_uris":{"android":"levelo://app?vid=abbca22d-b2ce-4e37-867c-33df7523b59f","ios":"levelo://app?vid=abbca22d-b2ce-4e37-867c-33df7523b59f"},"vehicle_type_id":"4","last_reported":1729710412,"current_range_meters":34800,"station_id":"ce4bhip2rcd13ifvqft0","pricing_plan_id":"cebpf4jnsgd1na2vs0mg"},{"bike_id":"bc5c01ce-da4e-4c78-92fa-ea7e88e27fff","system_id":"levelo_inurba_marseille","lat":43.2927,"lon":5.36844,"is_reserved":false,"is_disabled":false,"rental_uris":{"android":"levelo://app?vid=bc5c01ce-da4e-4c78-92fa-ea7e88e27fff","ios":"levelo://app?vid=bc5c01ce-da4e-4c78-92fa-ea7e88e27fff"},"vehicle_type_id":"4","last_reported":1729710412,"current_range_meters":20000,"station_id":"ce4bhbp2rcd13ifvqesg","pricing_plan_id":"cebpf4jnsgd1na2vs0mg"},{"bike_id":"5f226615-4855-4cd3-9a51-f145088067d3","system_id":"levelo_inurba_marseille","lat":43.29191,"lon":5.35801,"is_reserved":false,"is_disabled":false,"rental_uris":{"android":"levelo://app?vid=5f226615-4855-4cd3-9a51-f145088067d3","ios":"levelo://app?vid=5f226615-4855-4cd3-9a51-f145088067d3"},"vehicle_type_id":"4","last_reported":1729710412,"current_range_meters":38000,"station_id":"ce4bhb12rcd13ifvqel0","pricing_plan_id":"cebpf4jnsgd1na2vs0mg"},{"bike_id":"e4bb5729-dcc1-4118-b365-5c09c0df2343","system_id":"levelo_inurba_marseille","lat":43.28458,"lon":5.35893,"is_reserved":false,"is_disabled":false,"rental_uris":{"android":"levelo://app?vid=e4bb5729-dcc1-4118-b365-5c09c0df2343","ios":"levelo://app?vid=e4bb5729-dcc1-4118-b365-5c09c0df2343"},"vehicle_type_id":"4","last_reported":1729710412,"current_range_meters":38800,"station_id":"ce4bhah2rcd13ifvqei0","pricing_plan_id":"cebpf4jnsgd1na2vs0mg"},{"bike_id":"d02751ad-304f-4bf7-a306-56a377beb2e1","system_id":"levelo_inurba_marseille","lat":43.30137,"lon":5.39872,"is_reserved":false,"is_disabled":false,"rental_uris":{"android":"levelo://app?vid=d02751ad-304f-4bf7-a306-56a377beb2e1","ios":"levelo://app?vid=d02751ad-304f-4bf7-a306-56a377beb2e1"},"vehicle_type_id":"4","last_reported":1729710412,"current_range_meters":28400,"station_id":"ce4bh0h2rcd13ifvqd40","pricing_plan_id":"cebpf4jnsgd1na2vs0mg"},{"bike_id":"d1103c44-e8ca-4a46-9fe8-d6c96216480f","system_id":"levelo_inurba_marseille","lat":43.293,"lon":5.37465,"is_reserved":false,"is_disabled":false,"rental_uris":{"android":"levelo://app?vid=d1103c44-e8ca-4a46-9fe8-d6c96216480f","ios":"levelo://app?vid=d1103c44-e8ca-4a46-9fe8-d6c96216480f"},"vehicle_type_id":"4","last_reported":1729710412,"current_range_meters":6000,"station_id":"","pricing_plan_id":"cebpf4jnsgd1na2vs0mg"},{"bike_id":"d0171457-fba4-4659-9504-cca9b6ad2029","system_id":"levelo_inurba_marseille","lat":43.31081,"lon":5.38347,"is_reserved":false,"is_disabled":false,"rental_uris":{"android":"levelo://app?vid=d0171457-fba4-4659-9504-cca9b6ad2029","ios":"levelo://app?vid=d0171457-fba4-4659-9504-cca9b6ad2029"},"vehicle_type_id":"4","last_reported":1729710412,"current_range_meters":32800,"station_id":"","pricing_plan_id":"cebpf4jnsgd1na2vs0mg"},{"bike_id":"8d183ae3-8d17-4e6c-af7b-9e9258b01820","system_id":"levelo_inurba_marseille","lat":43.30932,"lon":5.40127,"is_reserved":false,"is_disabled":false,"rental_uris":{"android":"levelo://app?vid=8d183ae3-8d17-4e6c-af7b-9e9258b01820","ios":"levelo://app?vid=8d183ae3-8d17-4e6c-af7b-9e9258b01820"},"vehicle_type_id":"4","last_reported":1729710412,"current_range_meters":36000,"station_id":"ce4bgvp2rcd13ifvqct0","pricing_plan_id":"cebpf4jnsgd1na2vs0mg"},{"bike_id":"67127234-0fcf-4c9d-8ebb-0512bb11f3c1","system_id":"levelo_inurba_marseille","lat":43.30932,"lon":5.40142,"is_reserved":false,"is_disabled":false,"rental_uris":{"android":"levelo://app?vid=67127234-0fcf-4c9d-8ebb-0512bb11f3c1","ios":"levelo://app?vid=67127234-0fcf-4c9d-8ebb-0512bb11f3c1"},"vehicle_type_id":"4","last_reported":1729710412,"current_range_meters":32000,"station_id":"ce4bgvp2rcd13ifvqct0","pricing_plan_id":"cebpf4jnsgd1na2vs0mg"},{"bike_id":"25ccf467-a3d2-4534-8f73-9226cce3792c","system_id":"levelo_inurba_marseille","lat":43.255954,"lon":5.382457,"is_reserved":false,"is_disabled":false,"rental_uris":{"android":"levelo://app?vid=25ccf467-a3d2-4534-8f73-9226cce3792c","ios":"levelo://app?vid=25ccf467-a3d2-4534-8f73-9226cce3792c"},"vehicle_type_id":"4","last_reported":1729710412,"current_range_meters":28400,"station_id":"ce4bhih2rcd13ifvqfs0","pricing_plan_id":"cebpf4jnsgd1na2vs0mg"},{"bike_id":"c5ec67a1-3a6f-4a41-9c4b-ac52a7cec3f7","system_id":"levelo_inurba_marseille","lat":43.29169,"lon":5.37159,"is_reserved":false,"is_disabled":false,"rental_uris":{"android":"levelo://app?vid=c5ec67a1-3a6f-4a41-9c4b-ac52a7cec3f7","ios":"levelo://app?vid=c5ec67a1-3a6f-4a41-9c4b-ac52a7cec3f7"},"vehicle_type_id":"4","last_reported":1729710412,"current_range_meters":20800,"station_id":"ce4bha92rcd13ifvqeh0","pricing_plan_id":"cebpf4jnsgd1na2vs0mg"},{"bike_id":"21c69f73-fa6f-4348-bb45-cf4fd017e13d","system_id":"levelo_inurba_marseille","lat":43.29258,"lon":5.3844,"is_reserved":false,"is_disabled":false,"rental_uris":{"android":"levelo://app?vid=21c69f73-fa6f-4348-bb45-cf4fd017e13d","ios":"levelo://app?vid=21c69f73-fa6f-4348-bb45-cf4fd017e13d"},"vehicle_type_id":"4","last_reported":1729710412,"current_range_meters":8000,"station_id":"ce4bh692rcd13ifvqea0","pricing_plan_id":"cebpf4jnsgd1na2vs0mg"},{"bike_id":"4e3e4d6d-7c5d-48da-9b7a-62d0cdbfde54","system_id":"levelo_inurba_marseille","lat":43.29262,"lon":5.38443,"is_reserved":false,"is_disabled":false,"rental_uris":{"android":"levelo://app?vid=4e3e4d6d-7c5d-48da-9b7a-62d0cdbfde54","ios":"levelo://app?vid=4e3e4d6d-7c5d-48da-9b7a-62d0cdbfde54"},"vehicle_type_id":"4","last_reported":1729710412,"current_range_meters":4000,"station_id":"ce4bh692rcd13ifvqea0","pricing_plan_id":"cebpf4jnsgd1na2vs0mg"},{"bike_id":"92db86b2-c324-4bda-a984-f7bc024a59af","system_id":"levelo_inurba_marseille","lat":43.27906,"lon":5.38003,"is_reserved":false,"is_disabled":false,"rental_uris":{"android":"levelo://app?vid=92db86b2-c324-4bda-a984-f7bc024a59af","ios":"levelo://app?vid=92db86b2-c324-4bda-a984-f7bc024a59af"},"vehicle_type_id":"4","last_reported":1729710412,"current_range_meters":39200,"station_id":"ce4bhf92rcd13ifvqf50","pricing_plan_id":"cebpf4jnsgd1na2vs0mg"},{"bike_id":"ddc839c2-8c75-495b-88e1-82635d3d92dc","system_id":"levelo_inurba_marseille","lat":43.28276,"lon":5.35069,"is_reserved":false,"is_disabled":false,"rental_uris":{"android":"levelo://app?vid=ddc839c2-8c75-495b-88e1-82635d3d92dc","ios":"levelo://app?vid=ddc839c2-8c75-495b-88e1-82635d3d92dc"},"vehicle_type_id":"4","last_reported":1729710412,"current_range_meters":25600,"station_id":"ce4bhbp2rcd13ifvqerg","pricing_plan_id":"cebpf4jnsgd1na2vs0mg"},{"bike_id":"56ca28b0-7c2b-4c3c-bd9e-eff49780559d","system_id":"levelo_inurba_marseille","lat":43.26557,"lon":5.39001,"is_reserved":false,"is_disabled":false,"rental_uris":{"android":"levelo://app?vid=56ca28b0-7c2b-4c3c-bd9e-eff49780559d","ios":"levelo://app?vid=56ca28b0-7c2b-4c3c-bd9e-eff49780559d"},"vehicle_type_id":"4","last_reported":1729710412,"current_range_meters":19600,"station_id":"ce4bhe12rcd13ifvqf30","pricing_plan_id":"cebpf4jnsgd1na2vs0mg"},{"bike_id":"e17edb5d-777b-4e20-b7c8-8ce3d04dcecd","system_id":"levelo_inurba_marseille","lat":43.29968,"lon":5.38495,"is_reserved":false,"is_disabled":false,"rental_uris":{"android":"levelo://app?vid=e17edb5d-777b-4e20-b7c8-8ce3d04dcecd","ios":"levelo://app?vid=e17edb5d-777b-4e20-b7c8-8ce3d04dcecd"},"vehicle_type_id":"4","last_reported":1729710412,"current_range_meters":9200,"station_id":"ce4bguh2rcd13ifvqcj0","pricing_plan_id":"cebpf4jnsgd1na2vs0mg"},{"bike_id":"6f1b3a1a-a591-40a9-aae5-24b7e4d4bc0f","system_id":"levelo_inurba_marseille","lat":43.31219,"lon":5.36855,"is_reserved":false,"is_disabled":false,"rental_uris":{"android":"levelo://app?vid=6f1b3a1a-a591-40a9-aae5-24b7e4d4bc0f","ios":"levelo://app?vid=6f1b3a1a-a591-40a9-aae5-24b7e4d4bc0f"},"vehicle_type_id":"4","last_reported":1729710412,"current_range_meters":37600,"station_id":"ce4bgl92rcd13ifvqbq0","pricing_plan_id":"cebpf4jnsgd1na2vs0mg"},{"bike_id":"5df79437-8791-4a70-b062-6201aa1f4526","system_id":"levelo_inurba_marseille","lat":43.28847,"lon":5.35859,"is_reserved":false,"is_disabled":false,"rental_uris":{"android":"levelo://app?vid=5df79437-8791-4a70-b062-6201aa1f4526","ios":"levelo://app?vid=5df79437-8791-4a70-b062-6201aa1f4526"},"vehicle_type_id":"4","last_reported":1729710412,"current_range_meters":37600,"station_id":"ce4bhb12rcd13ifvqem0","pricing_plan_id":"cebpf4jnsgd1na2vs0mg"},{"bike_id":"4640c3cf-861b-4850-8ec2-0be8a63dabd0","system_id":"levelo_inurba_marseille","lat":43.29515,"lon":5.39037,"is_reserved":false,"is_disabled":false,"rental_uris":{"android":"levelo://app?vid=4640c3cf-861b-4850-8ec2-0be8a63dabd0","ios":"levelo://app?vid=4640c3cf-861b-4850-8ec2-0be8a63dabd0"},"vehicle_type_id":"4","last_reported":1729710412,"current_range_meters":16400,"station_id":"ce4bh3p2rcd13ifvqdp0","pricing_plan_id":"cebpf4jnsgd1na2vs0mg"},{"bike_id":"3e41417e-0b0c-4908-8670-c6d49ee292be","system_id":"levelo_inurba_marseille","lat":43.33759,"lon":5.37436,"is_reserved":false,"is_disabled":false,"rental_uris":{"android":"levelo://app?vid=3e41417e-0b0c-4908-8670-c6d49ee292be","ios":"levelo://app?vid=3e41417e-0b0c-4908-8670-c6d49ee292be"},"vehicle_type_id":"4","last_reported":1729710412,"current_range_meters":33200,"station_id":"","pricing_plan_id":"cebpf4jnsgd1na2vs0mg"},{"bike_id":"aad71c74-5686-42c5-a904-d1364d102a70","system_id":"levelo_inurba_marseille","lat":43.28348,"lon":5.38104,"is_reserved":false,"is_disabled":false,"rental_uris":{"android":"levelo://app?vid=aad71c74-5686-42c5-a904-d1364d102a70","ios":"levelo://app?vid=aad71c74-5686-42c5-a904-d1364d102a70"},"vehicle_type_id":"4","last_reported":1729710412,"current_range_meters":38800,"station_id":"ce4bh412rcd13ifvqdr0","pricing_plan_id":"cebpf4jnsgd1na2vs0mg"},{"bike_id":"025df8b3-3508-44fc-8e5b-f41c88d506da","system_id":"levelo_inurba_marseille","lat":43.32657,"lon":5.40996,"is_reserved":false,"is_disabled":false,"rental_uris":{"android":"levelo://app?vid=025df8b3-3508-44fc-8e5b-f41c88d506da","ios":"levelo://app?vid=025df8b3-3508-44fc-8e5b-f41c88d506da"},"vehicle_type_id":"4","last_reported":1729710412,"current_range_meters":38800,"station_id":"ce4bhpp2rcd13ifvqhgg","pricing_plan_id":"cebpf4jnsgd1na2vs0mg"},{"bike_id":"3997b4fd-2d02-4d47-a543-9eea358436f7","system_id":"levelo_inurba_marseille","lat":43.30935,"lon":5.40138,"is_reserved":false,"is_disabled":false,"rental_uris":{"android":"levelo://app?vid=3997b4fd-2d02-4d47-a543-9eea358436f7","ios":"levelo://app?vid=3997b4fd-2d02-4d47-a543-9eea358436f7"},"vehicle_type_id":"4","last_reported":1729710412,"current_range_meters":39200,"station_id":"ce4bgvp2rcd13ifvqct0","pricing_plan_id":"cebpf4jnsgd1na2vs0mg"},{"bike_id":"e024eb93-1388-4b38-b4ea-c427c9954604","system_id":"levelo_inurba_marseille","lat":43.2902,"lon":5.38636,"is_reserved":false,"is_disabled":false,"rental_uris":{"android":"levelo://app?vid=e024eb93-1388-4b38-b4ea-c427c9954604","ios":"levelo://app?vid=e024eb93-1388-4b38-b4ea-c427c9954604"},"vehicle_type_id":"4","last_reported":1729710412,"current_range_meters":38800,"station_id":"ce4bh4p2rcd13ifvqe0g","pricing_plan_id":"cebpf4jnsgd1na2vs0mg"},{"bike_id":"a7c8e50e-1189-4eaa-8af6-23e27e07487a","system_id":"levelo_inurba_marseille","lat":43.306761,"lon":5.394901,"is_reserved":false,"is_disabled":false,"rental_uris":{"android":"levelo://app?vid=a7c8e50e-1189-4eaa-8af6-23e27e07487a","ios":"levelo://app?vid=a7c8e50e-1189-4eaa-8af6-23e27e07487a"},"vehicle_type_id":"4","last_reported":1729710412,"current_range_meters":25200,"station_id":"ce4bh0p2rcd13ifvqd80","pricing_plan_id":"cebpf4jnsgd1na2vs0mg"},{"bike_id":"ab579630-a855-4e03-95d7-8ccc019621b0","system_id":"levelo_inurba_marseille","lat":43.28427,"lon":5.37517,"is_reserved":false,"is_disabled":false,"rental_uris":{"android":"levelo://app?vid=ab579630-a855-4e03-95d7-8ccc019621b0","ios":"levelo://app?vid=ab579630-a855-4e03-95d7-8ccc019621b0"},"vehicle_type_id":"4","last_reported":1729710412,"current_range_meters":20400,"station_id":"ce4bh412rcd13ifvqds0","pricing_plan_id":"cebpf4jnsgd1na2vs0mg"},{"bike_id":"34d7b4b9-29be-4a42-9af9-c305f91d0c16","system_id":"levelo_inurba_marseille","lat":43.29583,"lon":5.367586,"is_reserved":false,"is_disabled":false,"rental_uris":{"android":"levelo://app?vid=34d7b4b9-29be-4a42-9af9-c305f91d0c16","ios":"levelo://app?vid=34d7b4b9-29be-4a42-9af9-c305f91d0c16"},"vehicle_type_id":"4","last_reported":1729710412,"current_range_meters":9200,"station_id":"ce4bgph2rcd13ifvqc2g","pricing_plan_id":"cebpf4jnsgd1na2vs0mg"},{"bike_id":"b10b8397-82e9-4c37-a4ec-3625058afd10","system_id":"levelo_inurba_marseille","lat":43.30132,"lon":5.3878,"is_reserved":false,"is_disabled":false,"rental_uris":{"android":"levelo://app?vid=b10b8397-82e9-4c37-a4ec-3625058afd10","ios":"levelo://app?vid=b10b8397-82e9-4c37-a4ec-3625058afd10"},"vehicle_type_id":"4","last_reported":1729710412,"current_range_meters":22400,"station_id":"ce4bghh2rcd13ifvqb60","pricing_plan_id":"cebpf4jnsgd1na2vs0mg"},{"bike_id":"de607bcc-571f-4360-bf95-17eeed182c1b","system_id":"levelo_inurba_marseille","lat":43.31329,"lon":5.39693,"is_reserved":false,"is_disabled":false,"rental_uris":{"android":"levelo://app?vid=de607bcc-571f-4360-bf95-17eeed182c1b","ios":"levelo://app?vid=de607bcc-571f-4360-bf95-17eeed182c1b"},"vehicle_type_id":"4","last_reported":1729710412,"current_range_meters":16400,"station_id":"ce4bgvp2rcd13ifvqcu0","pricing_plan_id":"cebpf4jnsgd1na2vs0mg"},{"bike_id":"6a689503-084e-42e8-8bd8-fc4c83906d6a","system_id":"levelo_inurba_marseille","lat":43.26028,"lon":5.3755,"is_reserved":false,"is_disabled":false,"rental_uris":{"android":"levelo://app?vid=6a689503-084e-42e8-8bd8-fc4c83906d6a","ios":"levelo://app?vid=6a689503-084e-42e8-8bd8-fc4c83906d6a"},"vehicle_type_id":"4","last_reported":1729710412,"current_range_meters":38800,"station_id":"ce4bhgh2rcd13ifvqfa0","pricing_plan_id":"cebpf4jnsgd1na2vs0mg"},{"bike_id":"b724b091-06e0-4e72-9207-89e106533624","system_id":"levelo_inurba_marseille","lat":43.30639,"lon":5.40072,"is_reserved":false,"is_disabled":false,"rental_uris":{"android":"levelo://app?vid=b724b091-06e0-4e72-9207-89e106533624","ios":"levelo://app?vid=b724b091-06e0-4e72-9207-89e106533624"},"vehicle_type_id":"4","last_reported":1729710412,"current_range_meters":18800,"station_id":"ce4bh112rcd13ifvqda0","pricing_plan_id":"cebpf4jnsgd1na2vs0mg"},{"bike_id":"dd41a542-2c6e-46bd-a0da-747e959c848c","system_id":"levelo_inurba_marseille","lat":43.28402,"lon":5.37516,"is_reserved":false,"is_disabled":false,"rental_uris":{"android":"levelo://app?vid=dd41a542-2c6e-46bd-a0da-747e959c848c","ios":"levelo://app?vid=dd41a542-2c6e-46bd-a0da-747e959c848c"},"vehicle_type_id":"4","last_reported":1729710412,"current_range_meters":6800,"station_id":"ce4bh412rcd13ifvqds0","pricing_plan_id":"cebpf4jnsgd1na2vs0mg"},{"bike_id":"59c7c102-4b0c-445f-913f-835c7e1a75ed","system_id":"levelo_inurba_marseille","lat":43.3132,"lon":5.39698,"is_reserved":false,"is_disabled":false,"rental_uris":{"android":"levelo://app?vid=59c7c102-4b0c-445f-913f-835c7e1a75ed","ios":"levelo://app?vid=59c7c102-4b0c-445f-913f-835c7e1a75ed"},"vehicle_type_id":"4","last_reported":1729710412,"current_range_meters":35600,"station_id":"ce4bgvp2rcd13ifvqcu0","pricing_plan_id":"cebpf4jnsgd1na2vs0mg"},{"bike_id":"0763ae8f-8877-4439-9b68-f7facc0048ae","system_id":"levelo_inurba_marseille","lat":43.2318,"lon":5.39991,"is_reserved":false,"is_disabled":false,"rental_uris":{"android":"levelo://app?vid=0763ae8f-8877-4439-9b68-f7facc0048ae","ios":"levelo://app?vid=0763ae8f-8877-4439-9b68-f7facc0048ae"},"vehicle_type_id":"4","last_reported":1729710412,"current_range_meters":38800,"station_id":"ce4bhn12rcd13ifvqgqg","pricing_plan_id":"cebpf4jnsgd1na2vs0mg"},{"bike_id":"e2e27ec7-c0c5-4aef-a52c-3631bd4ac076","system_id":"levelo_inurba_marseille","lat":43.313648,"lon":5.384723,"is_reserved":false,"is_disabled":false,"rental_uris":{"android":"levelo://app?vid=e2e27ec7-c0c5-4aef-a52c-3631bd4ac076","ios":"levelo://app?vid=e2e27ec7-c0c5-4aef-a52c-3631bd4ac076"},"vehicle_type_id":"4","last_reported":1729710412,"current_range_meters":32400,"station_id":"ce4bgt92rcd13ifvqcf0","pricing_plan_id":"cebpf4jnsgd1na2vs0mg"},{"bike_id":"86773964-fbee-479e-ba09-b3d35fa05988","system_id":"levelo_inurba_marseille","lat":43.28713,"lon":5.37937,"is_reserved":false,"is_disabled":false,"rental_uris":{"android":"levelo://app?vid=86773964-fbee-479e-ba09-b3d35fa05988","ios":"levelo://app?vid=86773964-fbee-479e-ba09-b3d35fa05988"},"vehicle_type_id":"4","last_reported":1729710412,"current_range_meters":38800,"station_id":"ce4bh9p2rcd13ifvqec0","pricing_plan_id":"cebpf4jnsgd1na2vs0mg"},{"bike_id":"b66b306b-cbd4-45ba-a4d3-b25d8814d388","system_id":"levelo_inurba_marseille","lat":43.30212,"lon":5.39458,"is_reserved":false,"is_disabled":false,"rental_uris":{"android":"levelo://app?vid=b66b306b-cbd4-45ba-a4d3-b25d8814d388","ios":"levelo://app?vid=b66b306b-cbd4-45ba-a4d3-b25d8814d388"},"vehicle_type_id":"4","last_reported":1729710412,"current_range_meters":38800,"station_id":"ce4bh0p2rcd13ifvqd70","pricing_plan_id":"cebpf4jnsgd1na2vs0mg"},{"bike_id":"99037644-aebe-42bb-8fd5-b1e39f5a2973","system_id":"levelo_inurba_marseille","lat":43.27946,"lon":5.41052,"is_reserved":false,"is_disabled":false,"rental_uris":{"android":"levelo://app?vid=99037644-aebe-42bb-8fd5-b1e39f5a2973","ios":"levelo://app?vid=99037644-aebe-42bb-8fd5-b1e39f5a2973"},"vehicle_type_id":"4","last_reported":1729710412,"current_range_meters":16000,"station_id":"ce4bhnp2rcd13ifvqh0g","pricing_plan_id":"cebpf4jnsgd1na2vs0mg"},{"bike_id":"85333cb8-55d0-4a1a-9d75-50e19da35598","system_id":"levelo_inurba_marseille","lat":43.28936,"lon":5.36401,"is_reserved":false,"is_disabled":false,"rental_uris":{"android":"levelo://app?vid=85333cb8-55d0-4a1a-9d75-50e19da35598","ios":"levelo://app?vid=85333cb8-55d0-4a1a-9d75-50e19da35598"},"vehicle_type_id":"4","last_reported":1729710412,"current_range_meters":6800,"station_id":"ce4bhc92rcd13ifvqetg","pricing_plan_id":"cebpf4jnsgd1na2vs0mg"},{"bike_id":"9970aed7-cd06-42ad-b10c-f1af9bf47341","system_id":"levelo_inurba_marseille","lat":43.29599,"lon":5.38095,"is_reserved":false,"is_disabled":false,"rental_uris":{"android":"levelo://app?vid=9970aed7-cd06-42ad-b10c-f1af9bf47341","ios":"levelo://app?vid=9970aed7-cd06-42ad-b10c-f1af9bf47341"},"vehicle_type_id":"4","last_reported":1729710412,"current_range_meters":30800,"station_id":"ce4bgl12rcd13ifvqbo0","pricing_plan_id":"cebpf4jnsgd1na2vs0mg"},{"bike_id":"9ee832e9-77c8-4fb1-a604-9729f6240596","system_id":"levelo_inurba_marseille","lat":43.2942,"lon":5.38619,"is_reserved":false,"is_disabled":false,"rental_uris":{"android":"levelo://app?vid=9ee832e9-77c8-4fb1-a604-9729f6240596","ios":"levelo://app?vid=9ee832e9-77c8-4fb1-a604-9729f6240596"},"vehicle_type_id":"4","last_reported":1729710412,"current_range_meters":32800,"station_id":"ce4bh2h2rcd13ifvqdh0","pricing_plan_id":"cebpf4jnsgd1na2vs0mg"},{"bike_id":"f0c65a5f-0899-4ffa-929d-14e878b86fb1","system_id":"levelo_inurba_marseille","lat":43.34139,"lon":5.40901,"is_reserved":false,"is_disabled":false,"rental_uris":{"android":"levelo://app?vid=f0c65a5f-0899-4ffa-929d-14e878b86fb1","ios":"levelo://app?vid=f0c65a5f-0899-4ffa-929d-14e878b86fb1"},"vehicle_type_id":"4","last_reported":1729710412,"current_range_meters":30000,"station_id":"ce4bhqh2rcd13ifvqhlg","pricing_plan_id":"cebpf4jnsgd1na2vs0mg"},{"bike_id":"3564c271-a801-4151-a945-d6def11adb78","system_id":"levelo_inurba_marseille","lat":43.30294,"lon":5.39226,"is_reserved":false,"is_disabled":false,"rental_uris":{"android":"levelo://app?vid=3564c271-a801-4151-a945-d6def11adb78","ios":"levelo://app?vid=3564c271-a801-4151-a945-d6def11adb78"},"vehicle_type_id":"4","last_reported":1729710412,"current_range_meters":19200,"station_id":"ce4bgkh2rcd13ifvqbk0","pricing_plan_id":"cebpf4jnsgd1na2vs0mg"},{"bike_id":"2fae2540-9d40-4bb7-aad7-41b4173da4a2","system_id":"levelo_inurba_marseille","lat":43.2593,"lon":5.40914,"is_reserved":false,"is_disabled":false,"rental_uris":{"android":"levelo://app?vid=2fae2540-9d40-4bb7-aad7-41b4173da4a2","ios":"levelo://app?vid=2fae2540-9d40-4bb7-aad7-41b4173da4a2"},"vehicle_type_id":"4","last_reported":1729710412,"current_range_meters":6400,"station_id":"ce4bhm92rcd13ifvqglg","pricing_plan_id":"cebpf4jnsgd1na2vs0mg"},{"bike_id":"8954913f-7644-4ecb-b813-394ce043de22","system_id":"levelo_inurba_marseille","lat":43.287,"lon":5.37387,"is_reserved":false,"is_disabled":false,"rental_uris":{"android":"levelo://app?vid=8954913f-7644-4ecb-b813-394ce043de22","ios":"levelo://app?vid=8954913f-7644-4ecb-b813-394ce043de22"},"vehicle_type_id":"4","last_reported":1729710412,"current_range_meters":38800,"station_id":"ce4bh3p2rcd13ifvqdq0","pricing_plan_id":"cebpf4jnsgd1na2vs0mg"},{"bike_id":"14e7bc4b-45ae-4648-b7ec-6894b7286c5b","system_id":"levelo_inurba_marseille","lat":43.29417,"lon":5.38605,"is_reserved":false,"is_disabled":false,"rental_uris":{"android":"levelo://app?vid=14e7bc4b-45ae-4648-b7ec-6894b7286c5b","ios":"levelo://app?vid=14e7bc4b-45ae-4648-b7ec-6894b7286c5b"},"vehicle_type_id":"4","last_reported":1729710412,"current_range_meters":38800,"station_id":"ce4bh2h2rcd13ifvqdh0","pricing_plan_id":"cebpf4jnsgd1na2vs0mg"},{"bike_id":"03b51bda-7efc-4bad-93b6-1f39ed43f7d2","system_id":"levelo_inurba_marseille","lat":43.31361,"lon":5.38495,"is_reserved":false,"is_disabled":false,"rental_uris":{"android":"levelo://app?vid=03b51bda-7efc-4bad-93b6-1f39ed43f7d2","ios":"levelo://app?vid=03b51bda-7efc-4bad-93b6-1f39ed43f7d2"},"vehicle_type_id":"4","last_reported":1729710412,"current_range_meters":38800,"station_id":"ce4bgt92rcd13ifvqcf0","pricing_plan_id":"cebpf4jnsgd1na2vs0mg"},{"bike_id":"ac89fae2-193d-4e98-9cb4-c4f447a9e142","system_id":"levelo_inurba_marseille","lat":43.308868,"lon":5.396377,"is_reserved":false,"is_disabled":false,"rental_uris":{"android":"levelo://app?vid=ac89fae2-193d-4e98-9cb4-c4f447a9e142","ios":"levelo://app?vid=ac89fae2-193d-4e98-9cb4-c4f447a9e142"},"vehicle_type_id":"4","last_reported":1729710412,"current_range_meters":7200,"station_id":"ce4bh012rcd13ifvqcv0","pricing_plan_id":"cebpf4jnsgd1na2vs0mg"},{"bike_id":"6fb0e852-6847-4eba-8878-ad7ced9824c7","system_id":"levelo_inurba_marseille","lat":43.2979,"lon":5.39355,"is_reserved":false,"is_disabled":false,"rental_uris":{"android":"levelo://app?vid=6fb0e852-6847-4eba-8878-ad7ced9824c7","ios":"levelo://app?vid=6fb0e852-6847-4eba-8878-ad7ced9824c7"},"vehicle_type_id":"4","last_reported":1729710412,"current_range_meters":10800,"station_id":"chh1huq6cuj3fo74tm60","pricing_plan_id":"cebpf4jnsgd1na2vs0mg"},{"bike_id":"07a36340-9374-4939-8704-032e5d276e39","system_id":"levelo_inurba_marseille","lat":43.29502,"lon":5.37495,"is_reserved":false,"is_disabled":false,"rental_uris":{"android":"levelo://app?vid=07a36340-9374-4939-8704-032e5d276e39","ios":"levelo://app?vid=07a36340-9374-4939-8704-032e5d276e39"},"vehicle_type_id":"4","last_reported":1729710412,"current_range_meters":28800,"station_id":"ce4bgkp2rcd13ifvqbmg","pricing_plan_id":"cebpf4jnsgd1na2vs0mg"},{"bike_id":"26544c47-13ba-40a0-affa-6c9daa374698","system_id":"levelo_inurba_marseille","lat":43.29615,"lon":5.40602,"is_reserved":false,"is_disabled":false,"rental_uris":{"android":"levelo://app?vid=26544c47-13ba-40a0-affa-6c9daa374698","ios":"levelo://app?vid=26544c47-13ba-40a0-affa-6c9daa374698"},"vehicle_type_id":"4","last_reported":1729710412,"current_range_meters":39200,"station_id":"ce4bh0h2rcd13ifvqd60","pricing_plan_id":"cebpf4jnsgd1na2vs0mg"},{"bike_id":"08c82440-5acf-4f74-bf57-0561677a3aaa","system_id":"levelo_inurba_marseille","lat":43.28952,"lon":5.36641,"is_reserved":false,"is_disabled":false,"rental_uris":{"android":"levelo://app?vid=08c82440-5acf-4f74-bf57-0561677a3aaa","ios":"levelo://app?vid=08c82440-5acf-4f74-bf57-0561677a3aaa"},"vehicle_type_id":"4","last_reported":1729710412,"current_range_meters":38800,"station_id":"ce4bhap2rcd13ifvqek0","pricing_plan_id":"cebpf4jnsgd1na2vs0mg"},{"bike_id":"cc8a6da4-701c-4697-ae91-a5e1c505fac4","system_id":"levelo_inurba_marseille","lat":43.26943,"lon":5.40252,"is_reserved":false,"is_disabled":false,"rental_uris":{"android":"levelo://app?vid=cc8a6da4-701c-4697-ae91-a5e1c505fac4","ios":"levelo://app?vid=cc8a6da4-701c-4697-ae91-a5e1c505fac4"},"vehicle_type_id":"4","last_reported":1729710412,"current_range_meters":34800,"station_id":"cjm6bp8fraef2m0cb0m0","pricing_plan_id":"cebpf4jnsgd1na2vs0mg"},{"bike_id":"acf342d3-0e18-47a6-abae-3bcdb71d7add","system_id":"levelo_inurba_marseille","lat":43.24176,"lon":5.39722,"is_reserved":false,"is_disabled":false,"rental_uris":{"android":"levelo://app?vid=acf342d3-0e18-47a6-abae-3bcdb71d7add","ios":"levelo://app?vid=acf342d3-0e18-47a6-abae-3bcdb71d7add"},"vehicle_type_id":"4","last_reported":1729710412,"current_range_meters":9200,"station_id":"ce4bhn12rcd13ifvqgpg","pricing_plan_id":"cebpf4jnsgd1na2vs0mg"},{"bike_id":"51685599-8c83-4bcf-9b63-fd347674b6fc","system_id":"levelo_inurba_marseille","lat":43.28463,"lon":5.35887,"is_reserved":false,"is_disabled":false,"rental_uris":{"android":"levelo://app?vid=51685599-8c83-4bcf-9b63-fd347674b6fc","ios":"levelo://app?vid=51685599-8c83-4bcf-9b63-fd347674b6fc"},"vehicle_type_id":"4","last_reported":1729710412,"current_range_meters":20800,"station_id":"ce4bhah2rcd13ifvqei0","pricing_plan_id":"cebpf4jnsgd1na2vs0mg"},{"bike_id":"98a134a6-b72c-4fd4-9556-7a1d7ab3312c","system_id":"levelo_inurba_marseille","lat":43.28287,"lon":5.35076,"is_reserved":false,"is_disabled":false,"rental_uris":{"android":"levelo://app?vid=98a134a6-b72c-4fd4-9556-7a1d7ab3312c","ios":"levelo://app?vid=98a134a6-b72c-4fd4-9556-7a1d7ab3312c"},"vehicle_type_id":"4","last_reported":1729710412,"current_range_meters":37600,"station_id":"ce4bhbp2rcd13ifvqerg","pricing_plan_id":"cebpf4jnsgd1na2vs0mg"},{"bike_id":"9295d7ae-4a98-419c-9613-da805b1b020f","system_id":"levelo_inurba_marseille","lat":43.28693,"lon":5.39976,"is_reserved":false,"is_disabled":false,"rental_uris":{"android":"levelo://app?vid=9295d7ae-4a98-419c-9613-da805b1b020f","ios":"levelo://app?vid=9295d7ae-4a98-419c-9613-da805b1b020f"},"vehicle_type_id":"4","last_reported":1729710412,"current_range_meters":4000,"station_id":"ce4bho92rcd13ifvqh3g","pricing_plan_id":"cebpf4jnsgd1na2vs0mg"},{"bike_id":"a862e632-b591-4a82-b88c-0c185d2125b7","system_id":"levelo_inurba_marseille","lat":43.30932,"lon":5.4014,"is_reserved":false,"is_disabled":false,"rental_uris":{"android":"levelo://app?vid=a862e632-b591-4a82-b88c-0c185d2125b7","ios":"levelo://app?vid=a862e632-b591-4a82-b88c-0c185d2125b7"},"vehicle_type_id":"4","last_reported":1729710412,"current_range_meters":22800,"station_id":"ce4bgvp2rcd13ifvqct0","pricing_plan_id":"cebpf4jnsgd1na2vs0mg"},{"bike_id":"b55f2d34-cab8-46cb-98e7-247f3b9452de","system_id":"levelo_inurba_marseille","lat":43.3126,"lon":5.40172,"is_reserved":false,"is_disabled":false,"rental_uris":{"android":"levelo://app?vid=b55f2d34-cab8-46cb-98e7-247f3b9452de","ios":"levelo://app?vid=b55f2d34-cab8-46cb-98e7-247f3b9452de"},"vehicle_type_id":"4","last_reported":1729710412,"current_range_meters":6000,"station_id":"ce4bh092rcd13ifvqd30","pricing_plan_id":"cebpf4jnsgd1na2vs0mg"},{"bike_id":"b275ae89-d91c-453b-9d93-a3d2ae7c0bac","system_id":"levelo_inurba_marseille","lat":43.31332,"lon":5.39692,"is_reserved":false,"is_disabled":false,"rental_uris":{"android":"levelo://app?vid=b275ae89-d91c-453b-9d93-a3d2ae7c0bac","ios":"levelo://app?vid=b275ae89-d91c-453b-9d93-a3d2ae7c0bac"},"vehicle_type_id":"4","last_reported":1729710412,"current_range_meters":10000,"station_id":"ce4bgvp2rcd13ifvqcu0","pricing_plan_id":"cebpf4jnsgd1na2vs0mg"},{"bike_id":"39c8b112-9a49-4084-8901-d901b56d2fee","system_id":"levelo_inurba_marseille","lat":43.30646,"lon":5.38153,"is_reserved":false,"is_disabled":false,"rental_uris":{"android":"levelo://app?vid=39c8b112-9a49-4084-8901-d901b56d2fee","ios":"levelo://app?vid=39c8b112-9a49-4084-8901-d901b56d2fee"},"vehicle_type_id":"4","last_reported":1729710412,"current_range_meters":32000,"station_id":"","pricing_plan_id":"cebpf4jnsgd1na2vs0mg"},{"bike_id":"54b0d6de-aa43-4eb1-947b-e7a0648b49c6","system_id":"levelo_inurba_marseille","lat":43.28355,"lon":5.38098,"is_reserved":false,"is_disabled":false,"rental_uris":{"android":"levelo://app?vid=54b0d6de-aa43-4eb1-947b-e7a0648b49c6","ios":"levelo://app?vid=54b0d6de-aa43-4eb1-947b-e7a0648b49c6"},"vehicle_type_id":"4","last_reported":1729710412,"current_range_meters":31200,"station_id":"ce4bh412rcd13ifvqdr0","pricing_plan_id":"cebpf4jnsgd1na2vs0mg"},{"bike_id":"20ed56e1-1c13-434d-bd9a-a2dcc6e77ccc","system_id":"levelo_inurba_marseille","lat":43.29521,"lon":5.38552,"is_reserved":false,"is_disabled":false,"rental_uris":{"android":"levelo://app?vid=20ed56e1-1c13-434d-bd9a-a2dcc6e77ccc","ios":"levelo://app?vid=20ed56e1-1c13-434d-bd9a-a2dcc6e77ccc"},"vehicle_type_id":"4","last_reported":1729710412,"current_range_meters":20000,"station_id":"ce4bgih2rcd13ifvqba0","pricing_plan_id":"cebpf4jnsgd1na2vs0mg"},{"bike_id":"65c8ac53-59d9-4920-be86-9f724e47448d","system_id":"levelo_inurba_marseille","lat":43.29026,"lon":5.38638,"is_reserved":false,"is_disabled":false,"rental_uris":{"android":"levelo://app?vid=65c8ac53-59d9-4920-be86-9f724e47448d","ios":"levelo://app?vid=65c8ac53-59d9-4920-be86-9f724e47448d"},"vehicle_type_id":"4","last_reported":1729710412,"current_range_meters":38800,"station_id":"ce4bh4p2rcd13ifvqe0g","pricing_plan_id":"cebpf4jnsgd1na2vs0mg"},{"bike_id":"9429b0b7-a6da-4796-8219-366e9b50357c","system_id":"levelo_inurba_marseille","lat":43.32661,"lon":5.40988,"is_reserved":false,"is_disabled":false,"rental_uris":{"android":"levelo://app?vid=9429b0b7-a6da-4796-8219-366e9b50357c","ios":"levelo://app?vid=9429b0b7-a6da-4796-8219-366e9b50357c"},"vehicle_type_id":"4","last_reported":1729710412,"current_range_meters":36000,"station_id":"ce4bhpp2rcd13ifvqhgg","pricing_plan_id":"cebpf4jnsgd1na2vs0mg"},{"bike_id":"0878f0be-ee74-4e14-b961-a99e2658adc0","system_id":"levelo_inurba_marseille","lat":43.27068,"lon":5.42271,"is_reserved":false,"is_disabled":false,"rental_uris":{"android":"levelo://app?vid=0878f0be-ee74-4e14-b961-a99e2658adc0","ios":"levelo://app?vid=0878f0be-ee74-4e14-b961-a99e2658adc0"},"vehicle_type_id":"4","last_reported":1729710412,"current_range_meters":30400,"station_id":"ce4bhk92rcd13ifvqgb0","pricing_plan_id":"cebpf4jnsgd1na2vs0mg"},{"bike_id":"ab2b2e97-fc4a-407a-94ef-021818e1010a","system_id":"levelo_inurba_marseille","lat":43.308498,"lon":5.371862,"is_reserved":false,"is_disabled":false,"rental_uris":{"android":"levelo://app?vid=ab2b2e97-fc4a-407a-94ef-021818e1010a","ios":"levelo://app?vid=ab2b2e97-fc4a-407a-94ef-021818e1010a"},"vehicle_type_id":"4","last_reported":1729710412,"current_range_meters":8000,"station_id":"ce4bguh2rcd13ifvqckg","pricing_plan_id":"cebpf4jnsgd1na2vs0mg"},{"bike_id":"8c06ee21-531c-4c82-bbea-658ccbb49ed2","system_id":"levelo_inurba_marseille","lat":43.256085,"lon":5.382422,"is_reserved":false,"is_disabled":false,"rental_uris":{"android":"levelo://app?vid=8c06ee21-531c-4c82-bbea-658ccbb49ed2","ios":"levelo://app?vid=8c06ee21-531c-4c82-bbea-658ccbb49ed2"},"vehicle_type_id":"4","last_reported":1729710412,"current_range_meters":29600,"station_id":"ce4bhih2rcd13ifvqfs0","pricing_plan_id":"cebpf4jnsgd1na2vs0mg"},{"bike_id":"7cf3319a-12e0-48e0-b967-0086f781e2b6","system_id":"levelo_inurba_marseille","lat":43.30426,"lon":5.38884,"is_reserved":false,"is_disabled":false,"rental_uris":{"android":"levelo://app?vid=7cf3319a-12e0-48e0-b967-0086f781e2b6","ios":"levelo://app?vid=7cf3319a-12e0-48e0-b967-0086f781e2b6"},"vehicle_type_id":"4","last_reported":1729710412,"current_range_meters":35200,"station_id":"ce4bgk12rcd13ifvqbi0","pricing_plan_id":"cebpf4jnsgd1na2vs0mg"},{"bike_id":"10acd08e-2c97-4dd2-8024-94bf5f911bfa","system_id":"levelo_inurba_marseille","lat":43.29265,"lon":5.3844,"is_reserved":false,"is_disabled":false,"rental_uris":{"android":"levelo://app?vid=10acd08e-2c97-4dd2-8024-94bf5f911bfa","ios":"levelo://app?vid=10acd08e-2c97-4dd2-8024-94bf5f911bfa"},"vehicle_type_id":"4","last_reported":1729710412,"current_range_meters":28800,"station_id":"ce4bh692rcd13ifvqea0","pricing_plan_id":"cebpf4jnsgd1na2vs0mg"},{"bike_id":"ad50098e-f195-4482-93f0-88a3265e562c","system_id":"levelo_inurba_marseille","lat":43.30793,"lon":5.43524,"is_reserved":false,"is_disabled":false,"rental_uris":{"android":"levelo://app?vid=ad50098e-f195-4482-93f0-88a3265e562c","ios":"levelo://app?vid=ad50098e-f195-4482-93f0-88a3265e562c"},"vehicle_type_id":"4","last_reported":1729710412,"current_range_meters":5600,"station_id":"ce4bhph2rcd13ifvqheg","pricing_plan_id":"cebpf4jnsgd1na2vs0mg"},{"bike_id":"b6009546-ce92-430d-9340-380e2f265863","system_id":"levelo_inurba_marseille","lat":43.319977,"lon":5.381596,"is_reserved":false,"is_disabled":false,"rental_uris":{"android":"levelo://app?vid=b6009546-ce92-430d-9340-380e2f265863","ios":"levelo://app?vid=b6009546-ce92-430d-9340-380e2f265863"},"vehicle_type_id":"4","last_reported":1729710412,"current_range_meters":9200,"station_id":"ce4bhr12rcd13ifvqhpg","pricing_plan_id":"cebpf4jnsgd1na2vs0mg"},{"bike_id":"3f269d90-1a06-4f41-a8c6-63ceb83357ae","system_id":"levelo_inurba_marseille","lat":43.26802,"lon":5.40263,"is_reserved":false,"is_disabled":false,"rental_uris":{"android":"levelo://app?vid=3f269d90-1a06-4f41-a8c6-63ceb83357ae","ios":"levelo://app?vid=3f269d90-1a06-4f41-a8c6-63ceb83357ae"},"vehicle_type_id":"4","last_reported":1729710412,"current_range_meters":30400,"station_id":"ce501612rcd8frsf0b60","pricing_plan_id":"cebpf4jnsgd1na2vs0mg"},{"bike_id":"4852d38b-3417-405f-91b2-8cad7f5673b4","system_id":"levelo_inurba_marseille","lat":43.27168,"lon":5.40989,"is_reserved":false,"is_disabled":false,"rental_uris":{"android":"levelo://app?vid=4852d38b-3417-405f-91b2-8cad7f5673b4","ios":"levelo://app?vid=4852d38b-3417-405f-91b2-8cad7f5673b4"},"vehicle_type_id":"4","last_reported":1729710412,"current_range_meters":9200,"station_id":"ce4bhl12rcd13ifvqgf0","pricing_plan_id":"cebpf4jnsgd1na2vs0mg"},{"bike_id":"6afcaa1d-e7ea-4857-b6b7-702d82974a7a","system_id":"levelo_inurba_marseille","lat":43.29873,"lon":5.39728,"is_reserved":false,"is_disabled":false,"rental_uris":{"android":"levelo://app?vid=6afcaa1d-e7ea-4857-b6b7-702d82974a7a","ios":"levelo://app?vid=6afcaa1d-e7ea-4857-b6b7-702d82974a7a"},"vehicle_type_id":"4","last_reported":1729710412,"current_range_meters":40000,"station_id":"ce4bh0h2rcd13ifvqd50","pricing_plan_id":"cebpf4jnsgd1na2vs0mg"},{"bike_id":"7f0b8a0f-30bd-430d-9a2f-56fef58a8557","system_id":"levelo_inurba_marseille","lat":43.296,"lon":5.38099,"is_reserved":false,"is_disabled":false,"rental_uris":{"android":"levelo://app?vid=7f0b8a0f-30bd-430d-9a2f-56fef58a8557","ios":"levelo://app?vid=7f0b8a0f-30bd-430d-9a2f-56fef58a8557"},"vehicle_type_id":"4","last_reported":1729710412,"current_range_meters":14400,"station_id":"ce4bgl12rcd13ifvqbo0","pricing_plan_id":"cebpf4jnsgd1na2vs0mg"},{"bike_id":"94b68278-f3f5-4f33-b450-5fd42775275c","system_id":"levelo_inurba_marseille","lat":43.29525,"lon":5.38539,"is_reserved":false,"is_disabled":false,"rental_uris":{"android":"levelo://app?vid=94b68278-f3f5-4f33-b450-5fd42775275c","ios":"levelo://app?vid=94b68278-f3f5-4f33-b450-5fd42775275c"},"vehicle_type_id":"4","last_reported":1729710412,"current_range_meters":38400,"station_id":"ce4bgih2rcd13ifvqba0","pricing_plan_id":"cebpf4jnsgd1na2vs0mg"},{"bike_id":"233d0e69-040e-4bcf-9f09-68e4ee9d9d88","system_id":"levelo_inurba_marseille","lat":43.29419,"lon":5.38621,"is_reserved":false,"is_disabled":false,"rental_uris":{"android":"levelo://app?vid=233d0e69-040e-4bcf-9f09-68e4ee9d9d88","ios":"levelo://app?vid=233d0e69-040e-4bcf-9f09-68e4ee9d9d88"},"vehicle_type_id":"4","last_reported":1729710412,"current_range_meters":38800,"station_id":"ce4bh2h2rcd13ifvqdh0","pricing_plan_id":"cebpf4jnsgd1na2vs0mg"},{"bike_id":"cadd809f-3b14-460e-b146-cbad59327e47","system_id":"levelo_inurba_marseille","lat":43.28345,"lon":5.38109,"is_reserved":false,"is_disabled":false,"rental_uris":{"android":"levelo://app?vid=cadd809f-3b14-460e-b146-cbad59327e47","ios":"levelo://app?vid=cadd809f-3b14-460e-b146-cbad59327e47"},"vehicle_type_id":"4","last_reported":1729710412,"current_range_meters":33200,"station_id":"ce4bh412rcd13ifvqdr0","pricing_plan_id":"cebpf4jnsgd1na2vs0mg"},{"bike_id":"0e75f1d2-1216-461e-bcef-5f59c5cb8ecf","system_id":"levelo_inurba_marseille","lat":43.29525,"lon":5.39036,"is_reserved":false,"is_disabled":false,"rental_uris":{"android":"levelo://app?vid=0e75f1d2-1216-461e-bcef-5f59c5cb8ecf","ios":"levelo://app?vid=0e75f1d2-1216-461e-bcef-5f59c5cb8ecf"},"vehicle_type_id":"4","last_reported":1729710412,"current_range_meters":9200,"station_id":"ce4bh3p2rcd13ifvqdp0","pricing_plan_id":"cebpf4jnsgd1na2vs0mg"},{"bike_id":"c0c30924-c220-4805-944f-a096bbc0cd59","system_id":"levelo_inurba_marseille","lat":43.29849,"lon":5.36288,"is_reserved":false,"is_disabled":false,"rental_uris":{"android":"levelo://app?vid=c0c30924-c220-4805-944f-a096bbc0cd59","ios":"levelo://app?vid=c0c30924-c220-4805-944f-a096bbc0cd59"},"vehicle_type_id":"4","last_reported":1729710412,"current_range_meters":4000,"station_id":"ce4bguh2rcd13ifvqckg","pricing_plan_id":"cebpf4jnsgd1na2vs0mg"},{"bike_id":"47b019d6-87ab-4ccb-91b0-6caec524db8f","system_id":"levelo_inurba_marseille","lat":43.2465,"lon":5.3889,"is_reserved":false,"is_disabled":false,"rental_uris":{"android":"levelo://app?vid=47b019d6-87ab-4ccb-91b0-6caec524db8f","ios":"levelo://app?vid=47b019d6-87ab-4ccb-91b0-6caec524db8f"},"vehicle_type_id":"4","last_reported":1729710412,"current_range_meters":30400,"station_id":"ce4bhg12rcd13ifvqf60","pricing_plan_id":"cebpf4jnsgd1na2vs0mg"},{"bike_id":"ea8af30f-ad5d-4ac2-b4dc-557f6e82a3fa","system_id":"levelo_inurba_marseille","lat":43.25589,"lon":5.38241,"is_reserved":false,"is_disabled":false,"rental_uris":{"android":"levelo://app?vid=ea8af30f-ad5d-4ac2-b4dc-557f6e82a3fa","ios":"levelo://app?vid=ea8af30f-ad5d-4ac2-b4dc-557f6e82a3fa"},"vehicle_type_id":"4","last_reported":1729710412,"current_range_meters":27200,"station_id":"ce4bhih2rcd13ifvqfs0","pricing_plan_id":"cebpf4jnsgd1na2vs0mg"},{"bike_id":"bb9115c5-29cd-4ced-872a-93f67a1968ad","system_id":"levelo_inurba_marseille","lat":43.24649,"lon":5.38892,"is_reserved":false,"is_disabled":false,"rental_uris":{"android":"levelo://app?vid=bb9115c5-29cd-4ced-872a-93f67a1968ad","ios":"levelo://app?vid=bb9115c5-29cd-4ced-872a-93f67a1968ad"},"vehicle_type_id":"4","last_reported":1729710412,"current_range_meters":38800,"station_id":"ce4bhg12rcd13ifvqf60","pricing_plan_id":"cebpf4jnsgd1na2vs0mg"},{"bike_id":"bdb5f1e3-126d-499e-a835-1843a92a834a","system_id":"levelo_inurba_marseille","lat":43.27367,"lon":5.36254,"is_reserved":false,"is_disabled":false,"rental_uris":{"android":"levelo://app?vid=bdb5f1e3-126d-499e-a835-1843a92a834a","ios":"levelo://app?vid=bdb5f1e3-126d-499e-a835-1843a92a834a"},"vehicle_type_id":"4","last_reported":1729710412,"current_range_meters":38400,"station_id":"ce4bhbh2rcd13ifvqeo0","pricing_plan_id":"cebpf4jnsgd1na2vs0mg"},{"bike_id":"dd408a1b-ebf8-4821-97ae-2380768db906","system_id":"levelo_inurba_marseille","lat":43.29528,"lon":5.3854,"is_reserved":false,"is_disabled":false,"rental_uris":{"android":"levelo://app?vid=dd408a1b-ebf8-4821-97ae-2380768db906","ios":"levelo://app?vid=dd408a1b-ebf8-4821-97ae-2380768db906"},"vehicle_type_id":"4","last_reported":1729710412,"current_range_meters":37600,"station_id":"ce4bgih2rcd13ifvqba0","pricing_plan_id":"cebpf4jnsgd1na2vs0mg"},{"bike_id":"a2a909e3-047b-49dd-aa25-f0a0817cdb42","system_id":"levelo_inurba_marseille","lat":43.31358,"lon":5.38499,"is_reserved":false,"is_disabled":false,"rental_uris":{"android":"levelo://app?vid=a2a909e3-047b-49dd-aa25-f0a0817cdb42","ios":"levelo://app?vid=a2a909e3-047b-49dd-aa25-f0a0817cdb42"},"vehicle_type_id":"4","last_reported":1729710412,"current_range_meters":28800,"station_id":"ce4bgt92rcd13ifvqcf0","pricing_plan_id":"cebpf4jnsgd1na2vs0mg"},{"bike_id":"cbe3d68c-ec8d-4f16-82d6-f00825a8e6ee","system_id":"levelo_inurba_marseille","lat":43.27375,"lon":5.36223,"is_reserved":false,"is_disabled":false,"rental_uris":{"android":"levelo://app?vid=cbe3d68c-ec8d-4f16-82d6-f00825a8e6ee","ios":"levelo://app?vid=cbe3d68c-ec8d-4f16-82d6-f00825a8e6ee"},"vehicle_type_id":"4","last_reported":1729710412,"current_range_meters":25600,"station_id":"ce4bhbh2rcd13ifvqeo0","pricing_plan_id":"cebpf4jnsgd1na2vs0mg"},{"bike_id":"1799daef-05f3-419e-bbe3-51a6b4575a5c","system_id":"levelo_inurba_marseille","lat":43.28299,"lon":5.40855,"is_reserved":false,"is_disabled":false,"rental_uris":{"android":"levelo://app?vid=1799daef-05f3-419e-bbe3-51a6b4575a5c","ios":"levelo://app?vid=1799daef-05f3-419e-bbe3-51a6b4575a5c"},"vehicle_type_id":"4","last_reported":1729710412,"current_range_meters":10800,"station_id":"","pricing_plan_id":"cebpf4jnsgd1na2vs0mg"},{"bike_id":"fa58dc5b-4dde-4858-99e2-386274fca6d0","system_id":"levelo_inurba_marseille","lat":43.299771,"lon":5.384835,"is_reserved":false,"is_disabled":false,"rental_uris":{"android":"levelo://app?vid=fa58dc5b-4dde-4858-99e2-386274fca6d0","ios":"levelo://app?vid=fa58dc5b-4dde-4858-99e2-386274fca6d0"},"vehicle_type_id":"4","last_reported":1729710412,"current_range_meters":6400,"station_id":"ce4bgj92rcd13ifvqbd0","pricing_plan_id":"cebpf4jnsgd1na2vs0mg"},{"bike_id":"91794fb7-1be3-4a3c-b375-23a3157bdacd","system_id":"levelo_inurba_marseille","lat":43.29525,"lon":5.38552,"is_reserved":false,"is_disabled":false,"rental_uris":{"android":"levelo://app?vid=91794fb7-1be3-4a3c-b375-23a3157bdacd","ios":"levelo://app?vid=91794fb7-1be3-4a3c-b375-23a3157bdacd"},"vehicle_type_id":"4","last_reported":1729710412,"current_range_meters":21600,"station_id":"ce4bgih2rcd13ifvqba0","pricing_plan_id":"cebpf4jnsgd1na2vs0mg"},{"bike_id":"2e80b3a7-faba-486f-a3d5-d62f1c74b7c6","system_id":"levelo_inurba_marseille","lat":43.30185,"lon":5.36629,"is_reserved":false,"is_disabled":false,"rental_uris":{"android":"levelo://app?vid=2e80b3a7-faba-486f-a3d5-d62f1c74b7c6","ios":"levelo://app?vid=2e80b3a7-faba-486f-a3d5-d62f1c74b7c6"},"vehicle_type_id":"4","last_reported":1729710412,"current_range_meters":35200,"station_id":"ce4bgrh2rcd13ifvqc8g","pricing_plan_id":"cebpf4jnsgd1na2vs0mg"},{"bike_id":"6eb3a0bb-d2a3-49b8-a9bc-f12220a22dd0","system_id":"levelo_inurba_marseille","lat":43.29523,"lon":5.38545,"is_reserved":false,"is_disabled":false,"rental_uris":{"android":"levelo://app?vid=6eb3a0bb-d2a3-49b8-a9bc-f12220a22dd0","ios":"levelo://app?vid=6eb3a0bb-d2a3-49b8-a9bc-f12220a22dd0"},"vehicle_type_id":"4","last_reported":1729710412,"current_range_meters":25200,"station_id":"ce4bgih2rcd13ifvqba0","pricing_plan_id":"cebpf4jnsgd1na2vs0mg"},{"bike_id":"c3969c76-c484-480f-b0d7-5ac7166aeb01","system_id":"levelo_inurba_marseille","lat":43.29531,"lon":5.38537,"is_reserved":false,"is_disabled":false,"rental_uris":{"android":"levelo://app?vid=c3969c76-c484-480f-b0d7-5ac7166aeb01","ios":"levelo://app?vid=c3969c76-c484-480f-b0d7-5ac7166aeb01"},"vehicle_type_id":"4","last_reported":1729710412,"current_range_meters":19200,"station_id":"ce4bgih2rcd13ifvqba0","pricing_plan_id":"cebpf4jnsgd1na2vs0mg"},{"bike_id":"f54ec824-4a1a-4907-9eb9-6f7e89a75319","system_id":"levelo_inurba_marseille","lat":43.29533,"lon":5.38543,"is_reserved":false,"is_disabled":false,"rental_uris":{"android":"levelo://app?vid=f54ec824-4a1a-4907-9eb9-6f7e89a75319","ios":"levelo://app?vid=f54ec824-4a1a-4907-9eb9-6f7e89a75319"},"vehicle_type_id":"4","last_reported":1729710412,"current_range_meters":24800,"station_id":"ce4bgih2rcd13ifvqba0","pricing_plan_id":"cebpf4jnsgd1na2vs0mg"},{"bike_id":"5d45141c-ec72-49e6-a0ab-d91ad6cf4360","system_id":"levelo_inurba_marseille","lat":43.30932,"lon":5.40142,"is_reserved":false,"is_disabled":false,"rental_uris":{"android":"levelo://app?vid=5d45141c-ec72-49e6-a0ab-d91ad6cf4360","ios":"levelo://app?vid=5d45141c-ec72-49e6-a0ab-d91ad6cf4360"},"vehicle_type_id":"4","last_reported":1729710412,"current_range_meters":9200,"station_id":"ce4bgvp2rcd13ifvqct0","pricing_plan_id":"cebpf4jnsgd1na2vs0mg"},{"bike_id":"70c0db28-8045-42ba-a534-2532b86d3455","system_id":"levelo_inurba_marseille","lat":43.22932,"lon":5.35376,"is_reserved":false,"is_disabled":false,"rental_uris":{"android":"levelo://app?vid=70c0db28-8045-42ba-a534-2532b86d3455","ios":"levelo://app?vid=70c0db28-8045-42ba-a534-2532b86d3455"},"vehicle_type_id":"4","last_reported":1729710412,"current_range_meters":16000,"station_id":"cpo3532slgdg3j2ikp40","pricing_plan_id":"cebpf4jnsgd1na2vs0mg"},{"bike_id":"f4693878-a9ba-4159-a4b6-87b130c9621b","system_id":"levelo_inurba_marseille","lat":43.28337,"lon":5.3809,"is_reserved":false,"is_disabled":false,"rental_uris":{"android":"levelo://app?vid=f4693878-a9ba-4159-a4b6-87b130c9621b","ios":"levelo://app?vid=f4693878-a9ba-4159-a4b6-87b130c9621b"},"vehicle_type_id":"4","last_reported":1729710412,"current_range_meters":38800,"station_id":"ce4bh412rcd13ifvqdr0","pricing_plan_id":"cebpf4jnsgd1na2vs0mg"},{"bike_id":"f3ef829b-370a-4add-94d7-9379ba7f01fb","system_id":"levelo_inurba_marseille","lat":43.27833,"lon":5.39212,"is_reserved":false,"is_disabled":false,"rental_uris":{"android":"levelo://app?vid=f3ef829b-370a-4add-94d7-9379ba7f01fb","ios":"levelo://app?vid=f3ef829b-370a-4add-94d7-9379ba7f01fb"},"vehicle_type_id":"4","last_reported":1729710412,"current_range_meters":36000,"station_id":"ce4bhjp2rcd13ifvqga0","pricing_plan_id":"cebpf4jnsgd1na2vs0mg"},{"bike_id":"0f4e9e99-61f5-4d07-86a8-9a4ed416846a","system_id":"levelo_inurba_marseille","lat":43.29869,"lon":5.39743,"is_reserved":false,"is_disabled":false,"rental_uris":{"android":"levelo://app?vid=0f4e9e99-61f5-4d07-86a8-9a4ed416846a","ios":"levelo://app?vid=0f4e9e99-61f5-4d07-86a8-9a4ed416846a"},"vehicle_type_id":"4","last_reported":1729710412,"current_range_meters":16400,"station_id":"ce4bh0h2rcd13ifvqd50","pricing_plan_id":"cebpf4jnsgd1na2vs0mg"},{"bike_id":"445ce751-2860-4bcb-9607-528d08409547","system_id":"levelo_inurba_marseille","lat":43.29028,"lon":5.38641,"is_reserved":false,"is_disabled":false,"rental_uris":{"android":"levelo://app?vid=445ce751-2860-4bcb-9607-528d08409547","ios":"levelo://app?vid=445ce751-2860-4bcb-9607-528d08409547"},"vehicle_type_id":"4","last_reported":1729710412,"current_range_meters":2800,"station_id":"ce4bh4p2rcd13ifvqe0g","pricing_plan_id":"cebpf4jnsgd1na2vs0mg"},{"bike_id":"74227b49-1b11-4172-afdb-3b54b8f66925","system_id":"levelo_inurba_marseille","lat":43.30143,"lon":5.39859,"is_reserved":false,"is_disabled":false,"rental_uris":{"android":"levelo://app?vid=74227b49-1b11-4172-afdb-3b54b8f66925","ios":"levelo://app?vid=74227b49-1b11-4172-afdb-3b54b8f66925"},"vehicle_type_id":"4","last_reported":1729710412,"current_range_meters":36800,"station_id":"ce4bh0h2rcd13ifvqd40","pricing_plan_id":"cebpf4jnsgd1na2vs0mg"},{"bike_id":"ca345e80-462e-4ea3-951b-96a7f06662cf","system_id":"levelo_inurba_marseille","lat":43.32367,"lon":5.38881,"is_reserved":false,"is_disabled":false,"rental_uris":{"android":"levelo://app?vid=ca345e80-462e-4ea3-951b-96a7f06662cf","ios":"levelo://app?vid=ca345e80-462e-4ea3-951b-96a7f06662cf"},"vehicle_type_id":"4","last_reported":1729710412,"current_range_meters":34800,"station_id":"ce4bhqp2rcd13ifvqhog","pricing_plan_id":"cebpf4jnsgd1na2vs0mg"},{"bike_id":"6a27edd0-d752-45d8-8481-582b38c26f09","system_id":"levelo_inurba_marseille","lat":43.28408,"lon":5.3752,"is_reserved":false,"is_disabled":false,"rental_uris":{"android":"levelo://app?vid=6a27edd0-d752-45d8-8481-582b38c26f09","ios":"levelo://app?vid=6a27edd0-d752-45d8-8481-582b38c26f09"},"vehicle_type_id":"4","last_reported":1729710412,"current_range_meters":7200,"station_id":"ce4bh412rcd13ifvqds0","pricing_plan_id":"cebpf4jnsgd1na2vs0mg"},{"bike_id":"15f2c7fa-f6af-4996-96df-f77f67495ec5","system_id":"levelo_inurba_marseille","lat":43.28456,"lon":5.3589,"is_reserved":false,"is_disabled":false,"rental_uris":{"android":"levelo://app?vid=15f2c7fa-f6af-4996-96df-f77f67495ec5","ios":"levelo://app?vid=15f2c7fa-f6af-4996-96df-f77f67495ec5"},"vehicle_type_id":"4","last_reported":1729710412,"current_range_meters":32400,"station_id":"ce4bhah2rcd13ifvqei0","pricing_plan_id":"cebpf4jnsgd1na2vs0mg"},{"bike_id":"1c3687d1-db9e-4fd8-9171-226571834376","system_id":"levelo_inurba_marseille","lat":43.28155,"lon":5.4264,"is_reserved":false,"is_disabled":false,"rental_uris":{"android":"levelo://app?vid=1c3687d1-db9e-4fd8-9171-226571834376","ios":"levelo://app?vid=1c3687d1-db9e-4fd8-9171-226571834376"},"vehicle_type_id":"4","last_reported":1729710412,"current_range_meters":36400,"station_id":"ce4bhnh2rcd13ifvqgug","pricing_plan_id":"cebpf4jnsgd1na2vs0mg"},{"bike_id":"32140e32-f834-4995-a719-2df8e8b53dfd","system_id":"levelo_inurba_marseille","lat":43.29422,"lon":5.38613,"is_reserved":false,"is_disabled":false,"rental_uris":{"android":"levelo://app?vid=32140e32-f834-4995-a719-2df8e8b53dfd","ios":"levelo://app?vid=32140e32-f834-4995-a719-2df8e8b53dfd"},"vehicle_type_id":"4","last_reported":1729710412,"current_range_meters":36800,"station_id":"ce4bh2h2rcd13ifvqdh0","pricing_plan_id":"cebpf4jnsgd1na2vs0mg"},{"bike_id":"2db552ba-ba20-49d2-94e3-a16f4af6ae20","system_id":"levelo_inurba_marseille","lat":43.27173,"lon":5.40994,"is_reserved":false,"is_disabled":false,"rental_uris":{"android":"levelo://app?vid=2db552ba-ba20-49d2-94e3-a16f4af6ae20","ios":"levelo://app?vid=2db552ba-ba20-49d2-94e3-a16f4af6ae20"},"vehicle_type_id":"4","last_reported":1729710412,"current_range_meters":11200,"station_id":"ce4bhl12rcd13ifvqgf0","pricing_plan_id":"cebpf4jnsgd1na2vs0mg"},{"bike_id":"51555d17-a635-40c0-8c92-11978ec4b442","system_id":"levelo_inurba_marseille","lat":43.28574,"lon":5.39504,"is_reserved":false,"is_disabled":false,"rental_uris":{"android":"levelo://app?vid=51555d17-a635-40c0-8c92-11978ec4b442","ios":"levelo://app?vid=51555d17-a635-40c0-8c92-11978ec4b442"},"vehicle_type_id":"4","last_reported":1729710412,"current_range_meters":24000,"station_id":"ce4bh292rcd13ifvqdg0","pricing_plan_id":"cebpf4jnsgd1na2vs0mg"},{"bike_id":"68b76984-b436-4df6-9dde-3ef537ed18bc","system_id":"levelo_inurba_marseille","lat":43.29194,"lon":5.39331,"is_reserved":false,"is_disabled":false,"rental_uris":{"android":"levelo://app?vid=68b76984-b436-4df6-9dde-3ef537ed18bc","ios":"levelo://app?vid=68b76984-b436-4df6-9dde-3ef537ed18bc"},"vehicle_type_id":"4","last_reported":1729710412,"current_range_meters":38800,"station_id":"ce4bh192rcd13ifvqdd0","pricing_plan_id":"cebpf4jnsgd1na2vs0mg"},{"bike_id":"6d97386a-a881-4755-ae54-d8e9543f8345","system_id":"levelo_inurba_marseille","lat":43.24181,"lon":5.39729,"is_reserved":false,"is_disabled":false,"rental_uris":{"android":"levelo://app?vid=6d97386a-a881-4755-ae54-d8e9543f8345","ios":"levelo://app?vid=6d97386a-a881-4755-ae54-d8e9543f8345"},"vehicle_type_id":"4","last_reported":1729710412,"current_range_meters":3600,"station_id":"ce4bhn12rcd13ifvqgpg","pricing_plan_id":"cebpf4jnsgd1na2vs0mg"},{"bike_id":"e49ef59c-c6f6-4695-96ae-01a40266ab7a","system_id":"levelo_inurba_marseille","lat":43.25575,"lon":5.38224,"is_reserved":false,"is_disabled":false,"rental_uris":{"android":"levelo://app?vid=e49ef59c-c6f6-4695-96ae-01a40266ab7a","ios":"levelo://app?vid=e49ef59c-c6f6-4695-96ae-01a40266ab7a"},"vehicle_type_id":"4","last_reported":1729710412,"current_range_meters":13600,"station_id":"ce4bhih2rcd13ifvqfs0","pricing_plan_id":"cebpf4jnsgd1na2vs0mg"},{"bike_id":"b6cff5f5-219d-4a7e-8477-20b7422fa4b9","system_id":"levelo_inurba_marseille","lat":43.31327,"lon":5.3969,"is_reserved":false,"is_disabled":false,"rental_uris":{"android":"levelo://app?vid=b6cff5f5-219d-4a7e-8477-20b7422fa4b9","ios":"levelo://app?vid=b6cff5f5-219d-4a7e-8477-20b7422fa4b9"},"vehicle_type_id":"4","last_reported":1729710412,"current_range_meters":35600,"station_id":"ce4bgvp2rcd13ifvqcu0","pricing_plan_id":"cebpf4jnsgd1na2vs0mg"},{"bike_id":"26ebd71f-7bc7-4bad-bbb2-6d15881ecc4c","system_id":"levelo_inurba_marseille","lat":43.30663,"lon":5.39475,"is_reserved":false,"is_disabled":false,"rental_uris":{"android":"levelo://app?vid=26ebd71f-7bc7-4bad-bbb2-6d15881ecc4c","ios":"levelo://app?vid=26ebd71f-7bc7-4bad-bbb2-6d15881ecc4c"},"vehicle_type_id":"4","last_reported":1729710412,"current_range_meters":25200,"station_id":"","pricing_plan_id":"cebpf4jnsgd1na2vs0mg"},{"bike_id":"6ff7dfb9-d8af-461e-9639-4f36babf1919","system_id":"levelo_inurba_marseille","lat":43.279073,"lon":5.380104,"is_reserved":false,"is_disabled":false,"rental_uris":{"android":"levelo://app?vid=6ff7dfb9-d8af-461e-9639-4f36babf1919","ios":"levelo://app?vid=6ff7dfb9-d8af-461e-9639-4f36babf1919"},"vehicle_type_id":"4","last_reported":1729710412,"current_range_meters":36800,"station_id":"ce4bhf92rcd13ifvqf50","pricing_plan_id":"cebpf4jnsgd1na2vs0mg"},{"bike_id":"bc35f0b6-68b6-421f-ac9f-8460040e28e5","system_id":"levelo_inurba_marseille","lat":43.2902,"lon":5.38642,"is_reserved":false,"is_disabled":false,"rental_uris":{"android":"levelo://app?vid=bc35f0b6-68b6-421f-ac9f-8460040e28e5","ios":"levelo://app?vid=bc35f0b6-68b6-421f-ac9f-8460040e28e5"},"vehicle_type_id":"4","last_reported":1729710412,"current_range_meters":12400,"station_id":"ce4bh4p2rcd13ifvqe0g","pricing_plan_id":"cebpf4jnsgd1na2vs0mg"},{"bike_id":"6700ba95-4e2c-4ccf-9b17-ddb4027509c1","system_id":"levelo_inurba_marseille","lat":43.29041,"lon":5.35921,"is_reserved":false,"is_disabled":false,"rental_uris":{"android":"levelo://app?vid=6700ba95-4e2c-4ccf-9b17-ddb4027509c1","ios":"levelo://app?vid=6700ba95-4e2c-4ccf-9b17-ddb4027509c1"},"vehicle_type_id":"4","last_reported":1729710412,"current_range_meters":6800,"station_id":"ce4bha92rcd13ifvqeg0","pricing_plan_id":"cebpf4jnsgd1na2vs0mg"},{"bike_id":"b32bc23b-20bb-4e96-8564-40e088cd2f7e","system_id":"levelo_inurba_marseille","lat":43.32675,"lon":5.38847,"is_reserved":false,"is_disabled":false,"rental_uris":{"android":"levelo://app?vid=b32bc23b-20bb-4e96-8564-40e088cd2f7e","ios":"levelo://app?vid=b32bc23b-20bb-4e96-8564-40e088cd2f7e"},"vehicle_type_id":"4","last_reported":1729710412,"current_range_meters":30800,"station_id":"","pricing_plan_id":"cebpf4jnsgd1na2vs0mg"},{"bike_id":"c3945b60-e38d-4106-8f18-92c7f436cc4f","system_id":"levelo_inurba_marseille","lat":43.33759,"lon":5.37455,"is_reserved":false,"is_disabled":false,"rental_uris":{"android":"levelo://app?vid=c3945b60-e38d-4106-8f18-92c7f436cc4f","ios":"levelo://app?vid=c3945b60-e38d-4106-8f18-92c7f436cc4f"},"vehicle_type_id":"4","last_reported":1729710412,"current_range_meters":26000,"station_id":"","pricing_plan_id":"cebpf4jnsgd1na2vs0mg"},{"bike_id":"59d6598a-bda9-4cb6-a5d9-e592f50f44d4","system_id":"levelo_inurba_marseille","lat":43.27962,"lon":5.38724,"is_reserved":false,"is_disabled":false,"rental_uris":{"android":"levelo://app?vid=59d6598a-bda9-4cb6-a5d9-e592f50f44d4","ios":"levelo://app?vid=59d6598a-bda9-4cb6-a5d9-e592f50f44d4"},"vehicle_type_id":"4","last_reported":1729710412,"current_range_meters":30800,"station_id":"ce4bhg12rcd13ifvqf80","pricing_plan_id":"cebpf4jnsgd1na2vs0mg"},{"bike_id":"060f1b5d-5697-4542-b686-7d28fcb7f5db","system_id":"levelo_inurba_marseille","lat":43.28848,"lon":5.3585,"is_reserved":false,"is_disabled":false,"rental_uris":{"android":"levelo://app?vid=060f1b5d-5697-4542-b686-7d28fcb7f5db","ios":"levelo://app?vid=060f1b5d-5697-4542-b686-7d28fcb7f5db"},"vehicle_type_id":"4","last_reported":1729710412,"current_range_meters":4000,"station_id":"ce4bhb12rcd13ifvqem0","pricing_plan_id":"cebpf4jnsgd1na2vs0mg"},{"bike_id":"e2573369-29db-456f-87ab-87122d206fd9","system_id":"levelo_inurba_marseille","lat":43.283573,"lon":5.380989,"is_reserved":false,"is_disabled":false,"rental_uris":{"android":"levelo://app?vid=e2573369-29db-456f-87ab-87122d206fd9","ios":"levelo://app?vid=e2573369-29db-456f-87ab-87122d206fd9"},"vehicle_type_id":"4","last_reported":1729710412,"current_range_meters":3200,"station_id":"ce4bh412rcd13ifvqdr0","pricing_plan_id":"cebpf4jnsgd1na2vs0mg"},{"bike_id":"efcecaff-3621-4fbd-84b7-6816d8bda963","system_id":"levelo_inurba_marseille","lat":43.29037,"lon":5.37574,"is_reserved":false,"is_disabled":false,"rental_uris":{"android":"levelo://app?vid=efcecaff-3621-4fbd-84b7-6816d8bda963","ios":"levelo://app?vid=efcecaff-3621-4fbd-84b7-6816d8bda963"},"vehicle_type_id":"4","last_reported":1729710412,"current_range_meters":36000,"station_id":"ce4bh692rcd13ifvqe90","pricing_plan_id":"cebpf4jnsgd1na2vs0mg"},{"bike_id":"78018770-86ea-4404-8452-ce018255cd17","system_id":"levelo_inurba_marseille","lat":43.22936,"lon":5.3538,"is_reserved":false,"is_disabled":false,"rental_uris":{"android":"levelo://app?vid=78018770-86ea-4404-8452-ce018255cd17","ios":"levelo://app?vid=78018770-86ea-4404-8452-ce018255cd17"},"vehicle_type_id":"4","last_reported":1729710412,"current_range_meters":20400,"station_id":"cpo3532slgdg3j2ikp40","pricing_plan_id":"cebpf4jnsgd1na2vs0mg"},{"bike_id":"7bf2430c-ebc8-4a70-9e4d-0f8de6dba628","system_id":"levelo_inurba_marseille","lat":43.29307,"lon":5.37173,"is_reserved":false,"is_disabled":false,"rental_uris":{"android":"levelo://app?vid=7bf2430c-ebc8-4a70-9e4d-0f8de6dba628","ios":"levelo://app?vid=7bf2430c-ebc8-4a70-9e4d-0f8de6dba628"},"vehicle_type_id":"4","last_reported":1729710412,"current_range_meters":38000,"station_id":"ce4bgh92rcd13ifvqb40","pricing_plan_id":"cebpf4jnsgd1na2vs0mg"},{"bike_id":"44cc12f9-a957-454c-b9f3-515dfba8e0b9","system_id":"levelo_inurba_marseille","lat":43.28358,"lon":5.38108,"is_reserved":false,"is_disabled":false,"rental_uris":{"android":"levelo://app?vid=44cc12f9-a957-454c-b9f3-515dfba8e0b9","ios":"levelo://app?vid=44cc12f9-a957-454c-b9f3-515dfba8e0b9"},"vehicle_type_id":"4","last_reported":1729710412,"current_range_meters":8000,"station_id":"ce4bh412rcd13ifvqdr0","pricing_plan_id":"cebpf4jnsgd1na2vs0mg"},{"bike_id":"abf2f1e0-3be2-43e4-99b1-e4d71ea2cc24","system_id":"levelo_inurba_marseille","lat":43.27912,"lon":5.39575,"is_reserved":false,"is_disabled":false,"rental_uris":{"android":"levelo://app?vid=abf2f1e0-3be2-43e4-99b1-e4d71ea2cc24","ios":"levelo://app?vid=abf2f1e0-3be2-43e4-99b1-e4d71ea2cc24"},"vehicle_type_id":"4","last_reported":1729710412,"current_range_meters":33200,"station_id":"ce4bhf92rcd13ifvqf40","pricing_plan_id":"cebpf4jnsgd1na2vs0mg"},{"bike_id":"3665a759-e605-4644-ab7d-65a4baf894a4","system_id":"levelo_inurba_marseille","lat":43.27614,"lon":5.3611,"is_reserved":false,"is_disabled":false,"rental_uris":{"android":"levelo://app?vid=3665a759-e605-4644-ab7d-65a4baf894a4","ios":"levelo://app?vid=3665a759-e605-4644-ab7d-65a4baf894a4"},"vehicle_type_id":"4","last_reported":1729710412,"current_range_meters":4400,"station_id":"ce4bgj92rcd13ifvqbe0","pricing_plan_id":"cebpf4jnsgd1na2vs0mg"},{"bike_id":"651208fc-07c5-47b0-af33-c83183c188fa","system_id":"levelo_inurba_marseille","lat":43.24067,"lon":5.37763,"is_reserved":false,"is_disabled":false,"rental_uris":{"android":"levelo://app?vid=651208fc-07c5-47b0-af33-c83183c188fa","ios":"levelo://app?vid=651208fc-07c5-47b0-af33-c83183c188fa"},"vehicle_type_id":"4","last_reported":1729710412,"current_range_meters":38800,"station_id":"ce4bhnp2rcd13ifvqgvg","pricing_plan_id":"cebpf4jnsgd1na2vs0mg"},{"bike_id":"410767f7-613e-4130-985a-ac3d8b0be094","system_id":"levelo_inurba_marseille","lat":43.2953,"lon":5.38545,"is_reserved":false,"is_disabled":false,"rental_uris":{"android":"levelo://app?vid=410767f7-613e-4130-985a-ac3d8b0be094","ios":"levelo://app?vid=410767f7-613e-4130-985a-ac3d8b0be094"},"vehicle_type_id":"4","last_reported":1729710412,"current_range_meters":31200,"station_id":"ce4bgih2rcd13ifvqba0","pricing_plan_id":"cebpf4jnsgd1na2vs0mg"},{"bike_id":"cd4c3bbe-d2b7-402d-8f00-84732ca3ae6a","system_id":"levelo_inurba_marseille","lat":43.29259,"lon":5.3844,"is_reserved":false,"is_disabled":false,"rental_uris":{"android":"levelo://app?vid=cd4c3bbe-d2b7-402d-8f00-84732ca3ae6a","ios":"levelo://app?vid=cd4c3bbe-d2b7-402d-8f00-84732ca3ae6a"},"vehicle_type_id":"4","last_reported":1729710412,"current_range_meters":36000,"station_id":"ce4bh692rcd13ifvqea0","pricing_plan_id":"cebpf4jnsgd1na2vs0mg"},{"bike_id":"e0f591a5-4a49-47dc-9aa6-eb75178c5760","system_id":"levelo_inurba_marseille","lat":43.22936,"lon":5.35381,"is_reserved":false,"is_disabled":false,"rental_uris":{"android":"levelo://app?vid=e0f591a5-4a49-47dc-9aa6-eb75178c5760","ios":"levelo://app?vid=e0f591a5-4a49-47dc-9aa6-eb75178c5760"},"vehicle_type_id":"4","last_reported":1729710412,"current_range_meters":35600,"station_id":"cpo3532slgdg3j2ikp40","pricing_plan_id":"cebpf4jnsgd1na2vs0mg"},{"bike_id":"97eb095a-032a-43ab-979f-32dab2bfe1ef","system_id":"levelo_inurba_marseille","lat":43.32483,"lon":5.36563,"is_reserved":false,"is_disabled":false,"rental_uris":{"android":"levelo://app?vid=97eb095a-032a-43ab-979f-32dab2bfe1ef","ios":"levelo://app?vid=97eb095a-032a-43ab-979f-32dab2bfe1ef"},"vehicle_type_id":"4","last_reported":1729710412,"current_range_meters":22800,"station_id":"ce4bhs12rcd13ifvqhvg","pricing_plan_id":"cebpf4jnsgd1na2vs0mg"},{"bike_id":"3758e8e1-6774-4a6d-8d44-4f39d30cb7cf","system_id":"levelo_inurba_marseille","lat":43.22932,"lon":5.35373,"is_reserved":false,"is_disabled":false,"rental_uris":{"android":"levelo://app?vid=3758e8e1-6774-4a6d-8d44-4f39d30cb7cf","ios":"levelo://app?vid=3758e8e1-6774-4a6d-8d44-4f39d30cb7cf"},"vehicle_type_id":"4","last_reported":1729710412,"current_range_meters":36000,"station_id":"cpo3532slgdg3j2ikp40","pricing_plan_id":"cebpf4jnsgd1na2vs0mg"},{"bike_id":"1b241118-1172-421f-9582-81ec58de4fe9","system_id":"levelo_inurba_marseille","lat":43.23961,"lon":5.3663,"is_reserved":false,"is_disabled":false,"rental_uris":{"android":"levelo://app?vid=1b241118-1172-421f-9582-81ec58de4fe9","ios":"levelo://app?vid=1b241118-1172-421f-9582-81ec58de4fe9"},"vehicle_type_id":"4","last_reported":1729710412,"current_range_meters":18800,"station_id":"ce4bhi12rcd13ifvqfp0","pricing_plan_id":"cebpf4jnsgd1na2vs0mg"},{"bike_id":"5e21248b-af31-4d09-a0a4-65ccc269810c","system_id":"levelo_inurba_marseille","lat":43.2846,"lon":5.35895,"is_reserved":false,"is_disabled":false,"rental_uris":{"android":"levelo://app?vid=5e21248b-af31-4d09-a0a4-65ccc269810c","ios":"levelo://app?vid=5e21248b-af31-4d09-a0a4-65ccc269810c"},"vehicle_type_id":"4","last_reported":1729710412,"current_range_meters":28000,"station_id":"ce4bhah2rcd13ifvqei0","pricing_plan_id":"cebpf4jnsgd1na2vs0mg"},{"bike_id":"3b36c243-f23b-4beb-bb13-e38161a98509","system_id":"levelo_inurba_marseille","lat":43.30123,"lon":5.39868,"is_reserved":false,"is_disabled":false,"rental_uris":{"android":"levelo://app?vid=3b36c243-f23b-4beb-bb13-e38161a98509","ios":"levelo://app?vid=3b36c243-f23b-4beb-bb13-e38161a98509"},"vehicle_type_id":"4","last_reported":1729710412,"current_range_meters":30000,"station_id":"ce4bh0h2rcd13ifvqd40","pricing_plan_id":"cebpf4jnsgd1na2vs0mg"},{"bike_id":"30874172-f8b0-47de-b0d4-6ebffa113c84","system_id":"levelo_inurba_marseille","lat":43.23193,"lon":5.35551,"is_reserved":false,"is_disabled":false,"rental_uris":{"android":"levelo://app?vid=30874172-f8b0-47de-b0d4-6ebffa113c84","ios":"levelo://app?vid=30874172-f8b0-47de-b0d4-6ebffa113c84"},"vehicle_type_id":"4","last_reported":1729710412,"current_range_meters":39200,"station_id":"ce4bhu92rcd13ifvqi70","pricing_plan_id":"cebpf4jnsgd1na2vs0mg"},{"bike_id":"6817c166-9c4f-4fc5-9745-38a052f8916b","system_id":"levelo_inurba_marseille","lat":43.29303,"lon":5.3718,"is_reserved":false,"is_disabled":false,"rental_uris":{"android":"levelo://app?vid=6817c166-9c4f-4fc5-9745-38a052f8916b","ios":"levelo://app?vid=6817c166-9c4f-4fc5-9745-38a052f8916b"},"vehicle_type_id":"4","last_reported":1729710412,"current_range_meters":4000,"station_id":"ce4bgh92rcd13ifvqb40","pricing_plan_id":"cebpf4jnsgd1na2vs0mg"},{"bike_id":"b55ea397-7284-4350-9e1c-6726519c5849","system_id":"levelo_inurba_marseille","lat":43.26744,"lon":5.39283,"is_reserved":false,"is_disabled":false,"rental_uris":{"android":"levelo://app?vid=b55ea397-7284-4350-9e1c-6726519c5849","ios":"levelo://app?vid=b55ea397-7284-4350-9e1c-6726519c5849"},"vehicle_type_id":"4","last_reported":1729710412,"current_range_meters":6000,"station_id":"","pricing_plan_id":"cebpf4jnsgd1na2vs0mg"},{"bike_id":"9848f23e-9272-45f4-b325-ea1e89589b06","system_id":"levelo_inurba_marseille","lat":43.30133,"lon":5.39875,"is_reserved":false,"is_disabled":false,"rental_uris":{"android":"levelo://app?vid=9848f23e-9272-45f4-b325-ea1e89589b06","ios":"levelo://app?vid=9848f23e-9272-45f4-b325-ea1e89589b06"},"vehicle_type_id":"4","last_reported":1729710412,"current_range_meters":25200,"station_id":"ce4bh0h2rcd13ifvqd40","pricing_plan_id":"cebpf4jnsgd1na2vs0mg"},{"bike_id":"596e85de-bac7-4f2b-8a79-11e17bb51a3b","system_id":"levelo_inurba_marseille","lat":43.25079,"lon":5.39524,"is_reserved":false,"is_disabled":false,"rental_uris":{"android":"levelo://app?vid=596e85de-bac7-4f2b-8a79-11e17bb51a3b","ios":"levelo://app?vid=596e85de-bac7-4f2b-8a79-11e17bb51a3b"},"vehicle_type_id":"4","last_reported":1729710412,"current_range_meters":31200,"station_id":"ce4bhm12rcd13ifvqgkg","pricing_plan_id":"cebpf4jnsgd1na2vs0mg"},{"bike_id":"e4f42a47-6ba7-4109-bf1c-cedf107cbace","system_id":"levelo_inurba_marseille","lat":43.30459,"lon":5.40185,"is_reserved":false,"is_disabled":false,"rental_uris":{"android":"levelo://app?vid=e4f42a47-6ba7-4109-bf1c-cedf107cbace","ios":"levelo://app?vid=e4f42a47-6ba7-4109-bf1c-cedf107cbace"},"vehicle_type_id":"4","last_reported":1729710412,"current_range_meters":12000,"station_id":"","pricing_plan_id":"cebpf4jnsgd1na2vs0mg"},{"bike_id":"fed29e3d-ded9-4536-b5e9-762e6c2a1343","system_id":"levelo_inurba_marseille","lat":43.29953,"lon":5.39187,"is_reserved":false,"is_disabled":false,"rental_uris":{"android":"levelo://app?vid=fed29e3d-ded9-4536-b5e9-762e6c2a1343","ios":"levelo://app?vid=fed29e3d-ded9-4536-b5e9-762e6c2a1343"},"vehicle_type_id":"4","last_reported":1729710412,"current_range_meters":10800,"station_id":"ce4bghh2rcd13ifvqb60","pricing_plan_id":"cebpf4jnsgd1na2vs0mg"},{"bike_id":"4d934c20-af0a-4134-af24-ca947af692a7","system_id":"levelo_inurba_marseille","lat":43.31072,"lon":5.38345,"is_reserved":false,"is_disabled":false,"rental_uris":{"android":"levelo://app?vid=4d934c20-af0a-4134-af24-ca947af692a7","ios":"levelo://app?vid=4d934c20-af0a-4134-af24-ca947af692a7"},"vehicle_type_id":"4","last_reported":1729710412,"current_range_meters":29600,"station_id":"ce4bgv92rcd13ifvqcr0","pricing_plan_id":"cebpf4jnsgd1na2vs0mg"},{"bike_id":"409c7d05-8bd8-48e6-a031-312baafe8037","system_id":"levelo_inurba_marseille","lat":43.22934,"lon":5.35377,"is_reserved":false,"is_disabled":false,"rental_uris":{"android":"levelo://app?vid=409c7d05-8bd8-48e6-a031-312baafe8037","ios":"levelo://app?vid=409c7d05-8bd8-48e6-a031-312baafe8037"},"vehicle_type_id":"4","last_reported":1729710412,"current_range_meters":6800,"station_id":"cpo3532slgdg3j2ikp40","pricing_plan_id":"cebpf4jnsgd1na2vs0mg"},{"bike_id":"75785403-c74a-4e7f-93be-ce09638be4c9","system_id":"levelo_inurba_marseille","lat":43.29262,"lon":5.40913,"is_reserved":false,"is_disabled":false,"rental_uris":{"android":"levelo://app?vid=75785403-c74a-4e7f-93be-ce09638be4c9","ios":"levelo://app?vid=75785403-c74a-4e7f-93be-ce09638be4c9"},"vehicle_type_id":"4","last_reported":1729710412,"current_range_meters":38800,"station_id":"ce4bh192rcd13ifvqdc0","pricing_plan_id":"cebpf4jnsgd1na2vs0mg"},{"bike_id":"3797d2db-147e-4509-aa2d-3392a554ae87","system_id":"levelo_inurba_marseille","lat":43.29027,"lon":5.38636,"is_reserved":false,"is_disabled":false,"rental_uris":{"android":"levelo://app?vid=3797d2db-147e-4509-aa2d-3392a554ae87","ios":"levelo://app?vid=3797d2db-147e-4509-aa2d-3392a554ae87"},"vehicle_type_id":"4","last_reported":1729710412,"current_range_meters":12000,"station_id":"ce4bh4p2rcd13ifvqe0g","pricing_plan_id":"cebpf4jnsgd1na2vs0mg"},{"bike_id":"219cc90d-d038-45a9-b15d-07fa27af991a","system_id":"levelo_inurba_marseille","lat":43.3229,"lon":5.38269,"is_reserved":false,"is_disabled":false,"rental_uris":{"android":"levelo://app?vid=219cc90d-d038-45a9-b15d-07fa27af991a","ios":"levelo://app?vid=219cc90d-d038-45a9-b15d-07fa27af991a"},"vehicle_type_id":"4","last_reported":1729710412,"current_range_meters":15200,"station_id":"ce4bhr12rcd13ifvqhqg","pricing_plan_id":"cebpf4jnsgd1na2vs0mg"},{"bike_id":"0fc5d373-bc31-4e37-b029-3cc6d33d5314","system_id":"levelo_inurba_marseille","lat":43.29601,"lon":5.38107,"is_reserved":false,"is_disabled":false,"rental_uris":{"android":"levelo://app?vid=0fc5d373-bc31-4e37-b029-3cc6d33d5314","ios":"levelo://app?vid=0fc5d373-bc31-4e37-b029-3cc6d33d5314"},"vehicle_type_id":"4","last_reported":1729710412,"current_range_meters":22000,"station_id":"ce4bgl12rcd13ifvqbo0","pricing_plan_id":"cebpf4jnsgd1na2vs0mg"},{"bike_id":"31b2f4f2-73dd-4e55-98d1-5eadcc9793f8","system_id":"levelo_inurba_marseille","lat":43.29028,"lon":5.38646,"is_reserved":false,"is_disabled":false,"rental_uris":{"android":"levelo://app?vid=31b2f4f2-73dd-4e55-98d1-5eadcc9793f8","ios":"levelo://app?vid=31b2f4f2-73dd-4e55-98d1-5eadcc9793f8"},"vehicle_type_id":"4","last_reported":1729710412,"current_range_meters":19200,"station_id":"ce4bh4p2rcd13ifvqe0g","pricing_plan_id":"cebpf4jnsgd1na2vs0mg"},{"bike_id":"340bb97e-64bd-48e0-a24c-8b4ec44747bd","system_id":"levelo_inurba_marseille","lat":43.28075,"lon":5.39653,"is_reserved":false,"is_disabled":false,"rental_uris":{"android":"levelo://app?vid=340bb97e-64bd-48e0-a24c-8b4ec44747bd","ios":"levelo://app?vid=340bb97e-64bd-48e0-a24c-8b4ec44747bd"},"vehicle_type_id":"4","last_reported":1729710412,"current_range_meters":38800,"station_id":"ce4bho12rcd13ifvqh2g","pricing_plan_id":"cebpf4jnsgd1na2vs0mg"},{"bike_id":"c79cfc7b-3adc-419e-ab7d-f8a9d9e37199","system_id":"levelo_inurba_marseille","lat":43.30253,"lon":5.40057,"is_reserved":false,"is_disabled":false,"rental_uris":{"android":"levelo://app?vid=c79cfc7b-3adc-419e-ab7d-f8a9d9e37199","ios":"levelo://app?vid=c79cfc7b-3adc-419e-ab7d-f8a9d9e37199"},"vehicle_type_id":"4","last_reported":1729710412,"current_range_meters":38000,"station_id":"ce4bgvh2rcd13ifvqcs0","pricing_plan_id":"cebpf4jnsgd1na2vs0mg"},{"bike_id":"2c109cfd-11ce-4a57-b399-a693e66ef930","system_id":"levelo_inurba_marseille","lat":43.30117,"lon":5.39111,"is_reserved":false,"is_disabled":false,"rental_uris":{"android":"levelo://app?vid=2c109cfd-11ce-4a57-b399-a693e66ef930","ios":"levelo://app?vid=2c109cfd-11ce-4a57-b399-a693e66ef930"},"vehicle_type_id":"4","last_reported":1729710412,"current_range_meters":16000,"station_id":"ce4bh192rcd13ifvqdb0","pricing_plan_id":"cebpf4jnsgd1na2vs0mg"},{"bike_id":"d0f31240-e826-4ffe-9de3-bbeb0be32fd5","system_id":"levelo_inurba_marseille","lat":43.25818,"lon":5.39432,"is_reserved":false,"is_disabled":false,"rental_uris":{"android":"levelo://app?vid=d0f31240-e826-4ffe-9de3-bbeb0be32fd5","ios":"levelo://app?vid=d0f31240-e826-4ffe-9de3-bbeb0be32fd5"},"vehicle_type_id":"4","last_reported":1729710412,"current_range_meters":12400,"station_id":"ce4bhip2rcd13ifvqft0","pricing_plan_id":"cebpf4jnsgd1na2vs0mg"},{"bike_id":"cf5da54d-430e-4393-a7ba-7b64a2ab5eb9","system_id":"levelo_inurba_marseille","lat":43.31083,"lon":5.42433,"is_reserved":false,"is_disabled":false,"rental_uris":{"android":"levelo://app?vid=cf5da54d-430e-4393-a7ba-7b64a2ab5eb9","ios":"levelo://app?vid=cf5da54d-430e-4393-a7ba-7b64a2ab5eb9"},"vehicle_type_id":"4","last_reported":1729710412,"current_range_meters":4400,"station_id":"ce4bhp92rcd13ifvqhag","pricing_plan_id":"cebpf4jnsgd1na2vs0mg"},{"bike_id":"4ff8928f-f9c3-4616-86ad-fec1cc892029","system_id":"levelo_inurba_marseille","lat":43.26061,"lon":5.3939,"is_reserved":false,"is_disabled":false,"rental_uris":{"android":"levelo://app?vid=4ff8928f-f9c3-4616-86ad-fec1cc892029","ios":"levelo://app?vid=4ff8928f-f9c3-4616-86ad-fec1cc892029"},"vehicle_type_id":"4","last_reported":1729710412,"current_range_meters":38800,"station_id":"ce4bhh92rcd13ifvqfj0","pricing_plan_id":"cebpf4jnsgd1na2vs0mg"},{"bike_id":"4dd6b2a7-e097-434b-aaa6-e31904130667","system_id":"levelo_inurba_marseille","lat":43.29167,"lon":5.37168,"is_reserved":false,"is_disabled":false,"rental_uris":{"android":"levelo://app?vid=4dd6b2a7-e097-434b-aaa6-e31904130667","ios":"levelo://app?vid=4dd6b2a7-e097-434b-aaa6-e31904130667"},"vehicle_type_id":"4","last_reported":1729710412,"current_range_meters":18800,"station_id":"ce4bha92rcd13ifvqeh0","pricing_plan_id":"cebpf4jnsgd1na2vs0mg"},{"bike_id":"ea205d9d-1a39-4bfd-8fe4-2881e62196b8","system_id":"levelo_inurba_marseille","lat":43.28347,"lon":5.38114,"is_reserved":false,"is_disabled":false,"rental_uris":{"android":"levelo://app?vid=ea205d9d-1a39-4bfd-8fe4-2881e62196b8","ios":"levelo://app?vid=ea205d9d-1a39-4bfd-8fe4-2881e62196b8"},"vehicle_type_id":"4","last_reported":1729710412,"current_range_meters":38400,"station_id":"ce4bh412rcd13ifvqdr0","pricing_plan_id":"cebpf4jnsgd1na2vs0mg"},{"bike_id":"d55cb384-a40c-47ef-8484-d482606c2483","system_id":"levelo_inurba_marseille","lat":43.2953,"lon":5.38545,"is_reserved":false,"is_disabled":false,"rental_uris":{"android":"levelo://app?vid=d55cb384-a40c-47ef-8484-d482606c2483","ios":"levelo://app?vid=d55cb384-a40c-47ef-8484-d482606c2483"},"vehicle_type_id":"4","last_reported":1729710412,"current_range_meters":8400,"station_id":"ce4bgih2rcd13ifvqba0","pricing_plan_id":"cebpf4jnsgd1na2vs0mg"},{"bike_id":"87a3189b-05f7-44a6-8395-4e95fae8feb6","system_id":"levelo_inurba_marseille","lat":43.29021,"lon":5.38639,"is_reserved":false,"is_disabled":false,"rental_uris":{"android":"levelo://app?vid=87a3189b-05f7-44a6-8395-4e95fae8feb6","ios":"levelo://app?vid=87a3189b-05f7-44a6-8395-4e95fae8feb6"},"vehicle_type_id":"4","last_reported":1729710412,"current_range_meters":38800,"station_id":"ce4bh4p2rcd13ifvqe0g","pricing_plan_id":"cebpf4jnsgd1na2vs0mg"},{"bike_id":"959c807f-a5be-43da-a093-beff628a052e","system_id":"levelo_inurba_marseille","lat":43.26804,"lon":5.40272,"is_reserved":false,"is_disabled":false,"rental_uris":{"android":"levelo://app?vid=959c807f-a5be-43da-a093-beff628a052e","ios":"levelo://app?vid=959c807f-a5be-43da-a093-beff628a052e"},"vehicle_type_id":"4","last_reported":1729710412,"current_range_meters":25200,"station_id":"ce501612rcd8frsf0b60","pricing_plan_id":"cebpf4jnsgd1na2vs0mg"},{"bike_id":"995dedfc-6623-4e07-92b7-58785cc57a73","system_id":"levelo_inurba_marseille","lat":43.28659,"lon":5.36346,"is_reserved":false,"is_disabled":false,"rental_uris":{"android":"levelo://app?vid=995dedfc-6623-4e07-92b7-58785cc57a73","ios":"levelo://app?vid=995dedfc-6623-4e07-92b7-58785cc57a73"},"vehicle_type_id":"4","last_reported":1729710412,"current_range_meters":39200,"station_id":"ce4bhah2rcd13ifvqej0","pricing_plan_id":"cebpf4jnsgd1na2vs0mg"},{"bike_id":"137eb9fd-4759-4502-aa35-6180f3730dcf","system_id":"levelo_inurba_marseille","lat":43.28408,"lon":5.37521,"is_reserved":false,"is_disabled":false,"rental_uris":{"android":"levelo://app?vid=137eb9fd-4759-4502-aa35-6180f3730dcf","ios":"levelo://app?vid=137eb9fd-4759-4502-aa35-6180f3730dcf"},"vehicle_type_id":"4","last_reported":1729710412,"current_range_meters":10800,"station_id":"ce4bh412rcd13ifvqds0","pricing_plan_id":"cebpf4jnsgd1na2vs0mg"},{"bike_id":"df10868e-90ef-48b9-bd0c-8259eb55e871","system_id":"levelo_inurba_marseille","lat":43.27373,"lon":5.36254,"is_reserved":false,"is_disabled":false,"rental_uris":{"android":"levelo://app?vid=df10868e-90ef-48b9-bd0c-8259eb55e871","ios":"levelo://app?vid=df10868e-90ef-48b9-bd0c-8259eb55e871"},"vehicle_type_id":"4","last_reported":1729710412,"current_range_meters":17600,"station_id":"ce4bhbh2rcd13ifvqeo0","pricing_plan_id":"cebpf4jnsgd1na2vs0mg"},{"bike_id":"9cb07c11-34bd-4a44-a151-bd0677432832","system_id":"levelo_inurba_marseille","lat":43.30418,"lon":5.39746,"is_reserved":false,"is_disabled":false,"rental_uris":{"android":"levelo://app?vid=9cb07c11-34bd-4a44-a151-bd0677432832","ios":"levelo://app?vid=9cb07c11-34bd-4a44-a151-bd0677432832"},"vehicle_type_id":"4","last_reported":1729710412,"current_range_meters":38400,"station_id":"ce4bh092rcd13ifvqd20","pricing_plan_id":"cebpf4jnsgd1na2vs0mg"},{"bike_id":"3f91794d-5198-4459-8019-969034f427c9","system_id":"levelo_inurba_marseille","lat":43.30799,"lon":5.435265,"is_reserved":false,"is_disabled":false,"rental_uris":{"android":"levelo://app?vid=3f91794d-5198-4459-8019-969034f427c9","ios":"levelo://app?vid=3f91794d-5198-4459-8019-969034f427c9"},"vehicle_type_id":"4","last_reported":1729710412,"current_range_meters":35600,"station_id":"ce4bhph2rcd13ifvqheg","pricing_plan_id":"cebpf4jnsgd1na2vs0mg"},{"bike_id":"d936bdba-10cd-421a-811b-82cb01c720cd","system_id":"levelo_inurba_marseille","lat":43.25938,"lon":5.40906,"is_reserved":false,"is_disabled":false,"rental_uris":{"android":"levelo://app?vid=d936bdba-10cd-421a-811b-82cb01c720cd","ios":"levelo://app?vid=d936bdba-10cd-421a-811b-82cb01c720cd"},"vehicle_type_id":"4","last_reported":1729710412,"current_range_meters":16400,"station_id":"ce4bhm92rcd13ifvqglg","pricing_plan_id":"cebpf4jnsgd1na2vs0mg"},{"bike_id":"54a78bd3-66ec-4cd6-bc93-6b00c2f88ebc","system_id":"levelo_inurba_marseille","lat":43.29263,"lon":5.3844,"is_reserved":false,"is_disabled":false,"rental_uris":{"android":"levelo://app?vid=54a78bd3-66ec-4cd6-bc93-6b00c2f88ebc","ios":"levelo://app?vid=54a78bd3-66ec-4cd6-bc93-6b00c2f88ebc"},"vehicle_type_id":"4","last_reported":1729710412,"current_range_meters":16400,"station_id":"ce4bh692rcd13ifvqea0","pricing_plan_id":"cebpf4jnsgd1na2vs0mg"},{"bike_id":"7199f912-8b4e-44e1-84c1-7e856c03251e","system_id":"levelo_inurba_marseille","lat":43.30428,"lon":5.38886,"is_reserved":false,"is_disabled":false,"rental_uris":{"android":"levelo://app?vid=7199f912-8b4e-44e1-84c1-7e856c03251e","ios":"levelo://app?vid=7199f912-8b4e-44e1-84c1-7e856c03251e"},"vehicle_type_id":"4","last_reported":1729710412,"current_range_meters":28400,"station_id":"ce4bgk12rcd13ifvqbi0","pricing_plan_id":"cebpf4jnsgd1na2vs0mg"},{"bike_id":"ae170de4-f199-4189-bb19-cad401272757","system_id":"levelo_inurba_marseille","lat":43.26188,"lon":5.37449,"is_reserved":false,"is_disabled":false,"rental_uris":{"android":"levelo://app?vid=ae170de4-f199-4189-bb19-cad401272757","ios":"levelo://app?vid=ae170de4-f199-4189-bb19-cad401272757"},"vehicle_type_id":"4","last_reported":1729710412,"current_range_meters":38800,"station_id":"ce4bhgp2rcd13ifvqfc0","pricing_plan_id":"cebpf4jnsgd1na2vs0mg"},{"bike_id":"d0d8a773-d417-41b4-934b-69aa80015f89","system_id":"levelo_inurba_marseille","lat":43.29259,"lon":5.38445,"is_reserved":false,"is_disabled":false,"rental_uris":{"android":"levelo://app?vid=d0d8a773-d417-41b4-934b-69aa80015f89","ios":"levelo://app?vid=d0d8a773-d417-41b4-934b-69aa80015f89"},"vehicle_type_id":"4","last_reported":1729710412,"current_range_meters":38800,"station_id":"ce4bh692rcd13ifvqea0","pricing_plan_id":"cebpf4jnsgd1na2vs0mg"},{"bike_id":"37bdb6bd-4938-4ef5-8ca8-b7db9e0d6ae6","system_id":"levelo_inurba_marseille","lat":43.29013,"lon":5.3813,"is_reserved":false,"is_disabled":false,"rental_uris":{"android":"levelo://app?vid=37bdb6bd-4938-4ef5-8ca8-b7db9e0d6ae6","ios":"levelo://app?vid=37bdb6bd-4938-4ef5-8ca8-b7db9e0d6ae6"},"vehicle_type_id":"4","last_reported":1729710412,"current_range_meters":24400,"station_id":"ce4bh4p2rcd13ifvqe1g","pricing_plan_id":"cebpf4jnsgd1na2vs0mg"},{"bike_id":"b29fc46a-a467-44b7-9b1f-5d27678fc609","system_id":"levelo_inurba_marseille","lat":43.31877,"lon":5.40741,"is_reserved":false,"is_disabled":false,"rental_uris":{"android":"levelo://app?vid=b29fc46a-a467-44b7-9b1f-5d27678fc609","ios":"levelo://app?vid=b29fc46a-a467-44b7-9b1f-5d27678fc609"},"vehicle_type_id":"4","last_reported":1729710412,"current_range_meters":20400,"station_id":"ce4bhq12rcd13ifvqhig","pricing_plan_id":"cebpf4jnsgd1na2vs0mg"},{"bike_id":"86ebccb7-62a6-4dda-9d90-37ce49e931f9","system_id":"levelo_inurba_marseille","lat":43.2898,"lon":5.37826,"is_reserved":false,"is_disabled":false,"rental_uris":{"android":"levelo://app?vid=86ebccb7-62a6-4dda-9d90-37ce49e931f9","ios":"levelo://app?vid=86ebccb7-62a6-4dda-9d90-37ce49e931f9"},"vehicle_type_id":"4","last_reported":1729710412,"current_range_meters":39200,"station_id":"ce4bh9p2rcd13ifvqed0","pricing_plan_id":"cebpf4jnsgd1na2vs0mg"},{"bike_id":"e0616f23-ce3e-413f-902e-efb2b0f00a3a","system_id":"levelo_inurba_marseille","lat":43.337444,"lon":5.374475,"is_reserved":false,"is_disabled":false,"rental_uris":{"android":"levelo://app?vid=e0616f23-ce3e-413f-902e-efb2b0f00a3a","ios":"levelo://app?vid=e0616f23-ce3e-413f-902e-efb2b0f00a3a"},"vehicle_type_id":"4","last_reported":1729710412,"current_range_meters":16800,"station_id":"","pricing_plan_id":"cebpf4jnsgd1na2vs0mg"},{"bike_id":"16e5f610-fb9d-481a-a40a-18a6f571810f","system_id":"levelo_inurba_marseille","lat":43.30132,"lon":5.38787,"is_reserved":false,"is_disabled":false,"rental_uris":{"android":"levelo://app?vid=16e5f610-fb9d-481a-a40a-18a6f571810f","ios":"levelo://app?vid=16e5f610-fb9d-481a-a40a-18a6f571810f"},"vehicle_type_id":"4","last_reported":1729710412,"current_range_meters":15200,"station_id":"ce4bghh2rcd13ifvqb60","pricing_plan_id":"cebpf4jnsgd1na2vs0mg"},{"bike_id":"42024ff9-8f47-4502-8a8d-0e6c8529131e","system_id":"levelo_inurba_marseille","lat":43.292389,"lon":5.383804,"is_reserved":false,"is_disabled":false,"rental_uris":{"android":"levelo://app?vid=42024ff9-8f47-4502-8a8d-0e6c8529131e","ios":"levelo://app?vid=42024ff9-8f47-4502-8a8d-0e6c8529131e"},"vehicle_type_id":"4","last_reported":1729710412,"current_range_meters":38800,"station_id":"ce4bh692rcd13ifvqea0","pricing_plan_id":"cebpf4jnsgd1na2vs0mg"},{"bike_id":"d88dad7b-2032-4845-a6c8-3344cc282bef","system_id":"levelo_inurba_marseille","lat":43.29902,"lon":5.39802,"is_reserved":false,"is_disabled":false,"rental_uris":{"android":"levelo://app?vid=d88dad7b-2032-4845-a6c8-3344cc282bef","ios":"levelo://app?vid=d88dad7b-2032-4845-a6c8-3344cc282bef"},"vehicle_type_id":"4","last_reported":1729710412,"current_range_meters":19600,"station_id":"","pricing_plan_id":"cebpf4jnsgd1na2vs0mg"},{"bike_id":"a0374b60-68e0-4f7c-b821-2cbdb02f123f","system_id":"levelo_inurba_marseille","lat":43.26055,"lon":5.39398,"is_reserved":false,"is_disabled":false,"rental_uris":{"android":"levelo://app?vid=a0374b60-68e0-4f7c-b821-2cbdb02f123f","ios":"levelo://app?vid=a0374b60-68e0-4f7c-b821-2cbdb02f123f"},"vehicle_type_id":"4","last_reported":1729710412,"current_range_meters":39200,"station_id":"ce4bhh92rcd13ifvqfj0","pricing_plan_id":"cebpf4jnsgd1na2vs0mg"},{"bike_id":"e82cdd02-61d2-483e-b375-4cf45ed14e47","system_id":"levelo_inurba_marseille","lat":43.29412,"lon":5.38632,"is_reserved":false,"is_disabled":false,"rental_uris":{"android":"levelo://app?vid=e82cdd02-61d2-483e-b375-4cf45ed14e47","ios":"levelo://app?vid=e82cdd02-61d2-483e-b375-4cf45ed14e47"},"vehicle_type_id":"4","last_reported":1729710412,"current_range_meters":23200,"station_id":"ce4bh2h2rcd13ifvqdh0","pricing_plan_id":"cebpf4jnsgd1na2vs0mg"},{"bike_id":"7c9953ca-d353-472f-9a60-5d241a9b8e40","system_id":"levelo_inurba_marseille","lat":43.29418,"lon":5.38623,"is_reserved":false,"is_disabled":false,"rental_uris":{"android":"levelo://app?vid=7c9953ca-d353-472f-9a60-5d241a9b8e40","ios":"levelo://app?vid=7c9953ca-d353-472f-9a60-5d241a9b8e40"},"vehicle_type_id":"4","last_reported":1729710412,"current_range_meters":27200,"station_id":"ce4bh2h2rcd13ifvqdh0","pricing_plan_id":"cebpf4jnsgd1na2vs0mg"},{"bike_id":"3a1eedac-3d70-4c3e-8367-750a26e84378","system_id":"levelo_inurba_marseille","lat":43.3052,"lon":5.38431,"is_reserved":false,"is_disabled":false,"rental_uris":{"android":"levelo://app?vid=3a1eedac-3d70-4c3e-8367-750a26e84378","ios":"levelo://app?vid=3a1eedac-3d70-4c3e-8367-750a26e84378"},"vehicle_type_id":"4","last_reported":1729710412,"current_range_meters":31200,"station_id":"ce4bgg92rcd13ifvqb30","pricing_plan_id":"cebpf4jnsgd1na2vs0mg"},{"bike_id":"f4e76599-30d8-4da2-8d51-89b78d9477b0","system_id":"levelo_inurba_marseille","lat":43.25086,"lon":5.39524,"is_reserved":false,"is_disabled":false,"rental_uris":{"android":"levelo://app?vid=f4e76599-30d8-4da2-8d51-89b78d9477b0","ios":"levelo://app?vid=f4e76599-30d8-4da2-8d51-89b78d9477b0"},"vehicle_type_id":"4","last_reported":1729710412,"current_range_meters":2800,"station_id":"ce4bhm12rcd13ifvqgkg","pricing_plan_id":"cebpf4jnsgd1na2vs0mg"},