{"last_updated":1745842792,"ttl":60,"version":"2.2","data":{"bikes":[{"bike_id":"9e2ed24c-a8e8-4759-b396-7d820551a1cd","system_id":"levelo_inurba_marseille","lat":43.26135,"lon":5.38724,"is_reserved":false,"is_disabled":false,"rental_uris":{"android":"levelo://app?vid=9e2ed24c-a8e8-4759-b396-7d820551a1cd","ios":"levelo://app?vid=9e2ed24c-a8e8-4759-b396-7d820551a1cd"},"vehicle_type_id":"4","last_reported":1745842792,"current_range_meters":2800,"station_id":"","pricing_plan_id":"cebpf4jnsgd1na2vs0mg"},{"bike_id":"f7a94721-f51e-474f-878d-ba44d72027dc","system_id":"levelo_inurba_marseille","lat":43.22933,"lon":5.35377,"is_reserved":false,"is_disabled":false,"rental_uris":{"android":"levelo://app?vid=f7a94721-f51e-474f-878d-ba44d72027dc","ios":"levelo://app?vid=f7a94721-f51e-474f-878d-ba44d72027dc"},"vehicle_type_id":"4","last_reported":1745842792,"current_range_meters":3200,"station_id":"cpo3532slgdg3j2ikp40","pricing_plan_id":"cebpf4jnsgd1na2vs0mg"},{"bike_id":"2c13fbe1-c77f-45fd-97d6-37047b224d59","system_id":"levelo_inurba_marseille","lat":43.2923,"lon":5.36058,"is_reserved":false,"is_disabled":false,"rental_uris":{"android":"levelo://app?vid=2c13fbe1-c77f-45fd-97d6-37047b224d59","ios":"levelo://app?vid=2c13fbe1-c77f-45fd-97d6-37047b224d59"},"vehicle_type_id":"4","last_reported":1745842792,"current_range_meters":3200,"station_id":"ce4bhbh2rcd13ifvqeqg","pricing_plan_id":"cebpf4jnsgd1na2vs0mg"},{"bike_id":"07f8cc29-b86f-4696-ac39-20f0f7e0a392","system_id":"levelo_inurba_marseille","lat":43.23378,"lon":5.36054,"is_reserved":false,"is_disabled":false,"rental_uris":{"android":"levelo://app?vid=07f8cc29-b86f-4696-ac39-20f0f7e0a392","ios":"levelo://app?vid=07f8cc29-b86f-4696-ac39-20f0f7e0a392"},"vehicle_type_id":"4","last_reported":1745842792,"current_range_meters":3200,"station_id":"","pricing_plan_id":"cebpf4jnsgd1na2vs0mg"},{"bike_id":"b9c082f7-5a13-4f0f-b4b4-6c95f3f54dde","system_id":"levelo_inurba_marseille","lat":43.24065,"lon":5.37761,"is_reserved":false,"is_disabled":false,"rental_uris":{"android":"levelo://app?vid=b9c082f7-5a13-4f0f-b4b4-6c95f3f54dde","ios":"levelo://app?vid=b9c082f7-5a13-4f0f-b4b4-6c95f3f54dde"},"vehicle_type_id":"4","last_reported":1745842792,"current_range_meters":3600,"station_id":"ce4bhnp2rcd13ifvqgvg","pricing_plan_id":"cebpf4jnsgd1na2vs0mg"},{"bike_id":"14b4c073-5c7c-41e1-acca-1effa1c3ba26","system_id":"levelo_inurba_marseille","lat":43.27807,"lon":5.40715,"is_reserved":false,"is_disabled":false,"rental_uris":{"android":"levelo://app?vid=14b4c073-5c7c-41e1-acca-1effa1c3ba26","ios":"levelo://app?vid=14b4c073-5c7c-41e1-acca-1effa1c3ba26"},"vehicle_type_id":"4","last_reported":1745842792,"current_range_meters":3600,"station_id":"ce4bhnh2rcd13ifvqgtg","pricing_plan_id":"cebpf4jnsgd1na2vs0mg"},{"bike_id":"f1f0fa38-6b17-45b7-b1b2-d55d35aa0ee8","system_id":"levelo_inurba_marseille","lat":43.29235,"lon":5.36476,"is_reserved":false,"is_disabled":false,"rental_uris":{"android":"levelo://app?vid=f1f0fa38-6b17-45b7-b1b2-d55d35aa0ee8","ios":"levelo://app?vid=f1f0fa38-6b17-45b7-b1b2-d55d35aa0ee8"},"vehicle_type_id":"4","last_reported":1745842792,"current_range_meters":4000,"station_id":"","pricing_plan_id":"cebpf4jnsgd1na2vs0mg"},{"bike_id":"78b6f39c-ca69-4346-8e5a-5304cefdfb81","system_id":"levelo_inurba_marseille","lat":43.28701,"lon":5.39986,"is_reserved":false,"is_disabled":false,"rental_uris":{"android":"levelo://app?vid=78b6f39c-ca69-4346-8e5a-5304cefdfb81","ios":"levelo://app?vid=78b6f39c-ca69-4346-8e5a-5304cefdfb81"},"vehicle_type_id":"4","last_reported":1745842792,"current_range_meters":4000,"station_id":"ce4bho92rcd13ifvqh3g","pricing_plan_id":"cebpf4jnsgd1na2vs0mg"},{"bike_id":"8536161b-1f63-4995-91bf-1e211ce4795d","system_id":"levelo_inurba_marseille","lat":43.28477,"lon":5.3854,"is_reserved":false,"is_disabled":false,"rental_uris":{"android":"levelo://app?vid=8536161b-1f63-4995-91bf-1e211ce4795d","ios":"levelo://app?vid=8536161b-1f63-4995-91bf-1e211ce4795d"},"vehicle_type_id":"4","last_reported":1745842792,"current_range_meters":4000,"station_id":"ce4bh8p2rcd13ifvqeb0","pricing_plan_id":"cebpf4jnsgd1na2vs0mg"},{"bike_id":"9698920a-1bf7-43c9-8e2f-77f28055a742","system_id":"levelo_inurba_marseille","lat":43.23137,"lon":5.43712,"is_reserved":false,"is_disabled":false,"rental_uris":{"android":"levelo://app?vid=9698920a-1bf7-43c9-8e2f-77f28055a742","ios":"levelo://app?vid=9698920a-1bf7-43c9-8e2f-77f28055a742"},"vehicle_type_id":"4","last_reported":1745842792,"current_range_meters":4800,"station_id":"ce4bhmp2rcd13ifvqgog","pricing_plan_id":"cebpf4jnsgd1na2vs0mg"},{"bike_id":"a013a361-5d6d-4d99-b636-806e1c86ba48","system_id":"levelo_inurba_marseille","lat":43.22929,"lon":5.3537,"is_reserved":false,"is_disabled":false,"rental_uris":{"android":"levelo://app?vid=a013a361-5d6d-4d99-b636-806e1c86ba48","ios":"levelo://app?vid=a013a361-5d6d-4d99-b636-806e1c86ba48"},"vehicle_type_id":"4","last_reported":1745842792,"current_range_meters":4800,"station_id":"cpo3532slgdg3j2ikp40","pricing_plan_id":"cebpf4jnsgd1na2vs0mg"},{"bike_id":"ba8b3d19-29ca-4772-bb36-d20f20075f3f","system_id":"levelo_inurba_marseille","lat":43.31489,"lon":5.37308,"is_reserved":false,"is_disabled":false,"rental_uris":{"android":"levelo://app?vid=ba8b3d19-29ca-4772-bb36-d20f20075f3f","ios":"levelo://app?vid=ba8b3d19-29ca-4772-bb36-d20f20075f3f"},"vehicle_type_id":"4","last_reported":1745842792,"current_range_meters":4800,"station_id":"ce4bgt12rcd13ifvqcd0","pricing_plan_id":"cebpf4jnsgd1na2vs0mg"},{"bike_id":"be8eeb46-d261-4c18-8c4d-f6f86b0f1878","system_id":"levelo_inurba_marseille","lat":43.29795,"lon":5.38124,"is_reserved":false,"is_disabled":false,"rental_uris":{"android":"levelo://app?vid=be8eeb46-d261-4c18-8c4d-f6f86b0f1878","ios":"levelo://app?vid=be8eeb46-d261-4c18-8c4d-f6f86b0f1878"},"vehicle_type_id":"4","last_reported":1745842792,"current_range_meters":4800,"station_id":"ce4bgip2rcd13ifvqbb0","pricing_plan_id":"cebpf4jnsgd1na2vs0mg"},{"bike_id":"74677f28-3596-4c5b-98de-ba4120a70f9d","system_id":"levelo_inurba_marseille","lat":43.25618,"lon":5.41191,"is_reserved":false,"is_disabled":false,"rental_uris":{"android":"levelo://app?vid=74677f28-3596-4c5b-98de-ba4120a70f9d","ios":"levelo://app?vid=74677f28-3596-4c5b-98de-ba4120a70f9d"},"vehicle_type_id":"4","last_reported":1745842792,"current_range_meters":4800,"station_id":"","pricing_plan_id":"cebpf4jnsgd1na2vs0mg"},{"bike_id":"89088548-e69f-49b0-9414-ffd52528cfe4","system_id":"levelo_inurba_marseille","lat":43.30135,"lon":5.39866,"is_reserved":false,"is_disabled":false,"rental_uris":{"android":"levelo://app?vid=89088548-e69f-49b0-9414-ffd52528cfe4","ios":"levelo://app?vid=89088548-e69f-49b0-9414-ffd52528cfe4"},"vehicle_type_id":"4","last_reported":1745842792,"current_range_meters":5600,"station_id":"ce4bh0h2rcd13ifvqd40","pricing_plan_id":"cebpf4jnsgd1na2vs0mg"},{"bike_id":"978723df-de52-4e96-88d5-bf80259c0507","system_id":"levelo_inurba_marseille","lat":43.32366,"lon":5.36764,"is_reserved":false,"is_disabled":false,"rental_uris":{"android":"levelo://app?vid=978723df-de52-4e96-88d5-bf80259c0507","ios":"levelo://app?vid=978723df-de52-4e96-88d5-bf80259c0507"},"vehicle_type_id":"4","last_reported":1745842792,"current_range_meters":6000,"station_id":"ce4bhsh2rcd13ifvqi2g","pricing_plan_id":"cebpf4jnsgd1na2vs0mg"},{"bike_id":"1bd880bc-0b9d-4357-8991-ce787668c5d6","system_id":"levelo_inurba_marseille","lat":43.278181,"lon":5.407056,"is_reserved":false,"is_disabled":false,"rental_uris":{"android":"levelo://app?vid=1bd880bc-0b9d-4357-8991-ce787668c5d6","ios":"levelo://app?vid=1bd880bc-0b9d-4357-8991-ce787668c5d6"},"vehicle_type_id":"4","last_reported":1745842792,"current_range_meters":7200,"station_id":"","pricing_plan_id":"cebpf4jnsgd1na2vs0mg"},{"bike_id":"7f93e848-a784-4782-94d5-7c63be7fdabd","system_id":"levelo_inurba_marseille","lat":43.309524,"lon":5.390293,"is_reserved":false,"is_disabled":false,"rental_uris":{"android":"levelo://app?vid=7f93e848-a784-4782-94d5-7c63be7fdabd","ios":"levelo://app?vid=7f93e848-a784-4782-94d5-7c63be7fdabd"},"vehicle_type_id":"4","last_reported":1745842792,"current_range_meters":6000,"station_id":"","pricing_plan_id":"cebpf4jnsgd1na2vs0mg"},{"bike_id":"3d2089c1-5f9c-421f-999e-7a0dd805bd14","system_id":"levelo_inurba_marseille","lat":43.262268,"lon":5.404546,"is_reserved":false,"is_disabled":false,"rental_uris":{"android":"levelo://app?vid=3d2089c1-5f9c-421f-999e-7a0dd805bd14","ios":"levelo://app?vid=3d2089c1-5f9c-421f-999e-7a0dd805bd14"},"vehicle_type_id":"4","last_reported":1745842792,"current_range_meters":6000,"station_id":"ce4bhmh2rcd13ifvqgmg","pricing_plan_id":"cebpf4jnsgd1na2vs0mg"},{"bike_id":"87f123c4-0adc-4ba8-8649-74e2c508ef05","system_id":"levelo_inurba_marseille","lat":43.26555,"lon":5.37283,"is_reserved":false,"is_disabled":false,"rental_uris":{"android":"levelo://app?vid=87f123c4-0adc-4ba8-8649-74e2c508ef05","ios":"levelo://app?vid=87f123c4-0adc-4ba8-8649-74e2c508ef05"},"vehicle_type_id":"4","last_reported":1745842792,"current_range_meters":6400,"station_id":"ce4bhg12rcd13ifvqf70","pricing_plan_id":"cebpf4jnsgd1na2vs0mg"},{"bike_id":"d054f0ca-cbd1-43cb-b926-8ff95ffcd31c","system_id":"levelo_inurba_marseille","lat":43.27385,"lon":5.42387,"is_reserved":false,"is_disabled":false,"rental_uris":{"android":"levelo://app?vid=d054f0ca-cbd1-43cb-b926-8ff95ffcd31c","ios":"levelo://app?vid=d054f0ca-cbd1-43cb-b926-8ff95ffcd31c"},"vehicle_type_id":"4","last_reported":1745842792,"current_range_meters":6400,"station_id":"","pricing_plan_id":"cebpf4jnsgd1na2vs0mg"},{"bike_id":"1563699b-1948-4da0-9263-1d307a903635","system_id":"levelo_inurba_marseille","lat":43.30471,"lon":5.37905,"is_reserved":false,"is_disabled":false,"rental_uris":{"android":"levelo://app?vid=1563699b-1948-4da0-9263-1d307a903635","ios":"levelo://app?vid=1563699b-1948-4da0-9263-1d307a903635"},"vehicle_type_id":"4","last_reported":1745842792,"current_range_meters":6400,"station_id":"ce4bgup2rcd13ifvqcn0","pricing_plan_id":"cebpf4jnsgd1na2vs0mg"},{"bike_id":"78b9bb88-3a00-4760-8a43-e68743ab22f2","system_id":"levelo_inurba_marseille","lat":43.30303,"lon":5.36783,"is_reserved":false,"is_disabled":false,"rental_uris":{"android":"levelo://app?vid=78b9bb88-3a00-4760-8a43-e68743ab22f2","ios":"levelo://app?vid=78b9bb88-3a00-4760-8a43-e68743ab22f2"},"vehicle_type_id":"4","last_reported":1745842792,"current_range_meters":6400,"station_id":"","pricing_plan_id":"cebpf4jnsgd1na2vs0mg"},{"bike_id":"4c9a73de-c6b0-4b55-bed7-3a315915449f","system_id":"levelo_inurba_marseille","lat":43.24081,"lon":5.37709,"is_reserved":false,"is_disabled":false,"rental_uris":{"android":"levelo://app?vid=4c9a73de-c6b0-4b55-bed7-3a315915449f","ios":"levelo://app?vid=4c9a73de-c6b0-4b55-bed7-3a315915449f"},"vehicle_type_id":"4","last_reported":1745842792,"current_range_meters":6400,"station_id":"ce4bhnp2rcd13ifvqgvg","pricing_plan_id":"cebpf4jnsgd1na2vs0mg"},{"bike_id":"0990f078-628c-483e-922f-f573c3e34746","system_id":"levelo_inurba_marseille","lat":43.29521,"lon":5.38527,"is_reserved":false,"is_disabled":false,"rental_uris":{"android":"levelo://app?vid=0990f078-628c-483e-922f-f573c3e34746","ios":"levelo://app?vid=0990f078-628c-483e-922f-f573c3e34746"},"vehicle_type_id":"4","last_reported":1745842792,"current_range_meters":6800,"station_id":"ce4bgih2rcd13ifvqba0","pricing_plan_id":"cebpf4jnsgd1na2vs0mg"},{"bike_id":"ef5a622e-aa0a-4359-b3fd-ef466748c455","system_id":"levelo_inurba_marseille","lat":43.23192,"lon":5.35555,"is_reserved":false,"is_disabled":false,"rental_uris":{"android":"levelo://app?vid=ef5a622e-aa0a-4359-b3fd-ef466748c455","ios":"levelo://app?vid=ef5a622e-aa0a-4359-b3fd-ef466748c455"},"vehicle_type_id":"4","last_reported":1745842792,"current_range_meters":6800,"station_id":"ce4bhu92rcd13ifvqi70","pricing_plan_id":"cebpf4jnsgd1na2vs0mg"},{"bike_id":"b6eb96f2-8756-404f-a91f-13f23de0d93f","system_id":"levelo_inurba_marseille","lat":43.30243,"lon":5.40058,"is_reserved":false,"is_disabled":false,"rental_uris":{"android":"levelo://app?vid=b6eb96f2-8756-404f-a91f-13f23de0d93f","ios":"levelo://app?vid=b6eb96f2-8756-404f-a91f-13f23de0d93f"},"vehicle_type_id":"4","last_reported":1745842792,"current_range_meters":7200,"station_id":"ce4bgvh2rcd13ifvqcs0","pricing_plan_id":"cebpf4jnsgd1na2vs0mg"},{"bike_id":"50194e84-b348-4c7f-884f-81648311d7f1","system_id":"levelo_inurba_marseille","lat":43.31341,"lon":5.36705,"is_reserved":false,"is_disabled":false,"rental_uris":{"android":"levelo://app?vid=50194e84-b348-4c7f-884f-81648311d7f1","ios":"levelo://app?vid=50194e84-b348-4c7f-884f-81648311d7f1"},"vehicle_type_id":"4","last_reported":1745842792,"current_range_meters":6800,"station_id":"ce4bgr92rcd13ifvqc6g","pricing_plan_id":"cebpf4jnsgd1na2vs0mg"},{"bike_id":"5036d8c1-6202-466b-bcef-252a808644c9","system_id":"levelo_inurba_marseille","lat":43.32543,"lon":5.414278,"is_reserved":false,"is_disabled":false,"rental_uris":{"android":"levelo://app?vid=5036d8c1-6202-466b-bcef-252a808644c9","ios":"levelo://app?vid=5036d8c1-6202-466b-bcef-252a808644c9"},"vehicle_type_id":"4","last_reported":1745842792,"current_range_meters":7200,"station_id":"ce4bhq12rcd13ifvqhhg","pricing_plan_id":"cebpf4jnsgd1na2vs0mg"},{"bike_id":"668d8fe8-fb91-49f8-a06a-3464c75a5c03","system_id":"levelo_inurba_marseille","lat":43.25498,"lon":5.37648,"is_reserved":false,"is_disabled":false,"rental_uris":{"android":"levelo://app?vid=668d8fe8-fb91-49f8-a06a-3464c75a5c03","ios":"levelo://app?vid=668d8fe8-fb91-49f8-a06a-3464c75a5c03"},"vehicle_type_id":"4","last_reported":1745842792,"current_range_meters":7200,"station_id":"ce4bhh12rcd13ifvqff0","pricing_plan_id":"cebpf4jnsgd1na2vs0mg"},{"bike_id":"650d7a9e-2a85-4346-862d-6eec5b96e7b5","system_id":"levelo_inurba_marseille","lat":43.25022,"lon":5.3891,"is_reserved":false,"is_disabled":false,"rental_uris":{"android":"levelo://app?vid=650d7a9e-2a85-4346-862d-6eec5b96e7b5","ios":"levelo://app?vid=650d7a9e-2a85-4346-862d-6eec5b96e7b5"},"vehicle_type_id":"4","last_reported":1745842792,"current_range_meters":7200,"station_id":"ce4bhgp2rcd13ifvqfd0","pricing_plan_id":"cebpf4jnsgd1na2vs0mg"},{"bike_id":"50f63a40-4c55-4732-8033-358206d2ca45","system_id":"levelo_inurba_marseille","lat":43.31692,"lon":5.40465,"is_reserved":false,"is_disabled":false,"rental_uris":{"android":"levelo://app?vid=50f63a40-4c55-4732-8033-358206d2ca45","ios":"levelo://app?vid=50f63a40-4c55-4732-8033-358206d2ca45"},"vehicle_type_id":"4","last_reported":1745842792,"current_range_meters":8000,"station_id":"ce4bh012rcd13ifvqd00","pricing_plan_id":"cebpf4jnsgd1na2vs0mg"},{"bike_id":"3895874d-1b1d-4fb7-825c-2c8432d7ccc7","system_id":"levelo_inurba_marseille","lat":43.27942,"lon":5.41042,"is_reserved":false,"is_disabled":false,"rental_uris":{"android":"levelo://app?vid=3895874d-1b1d-4fb7-825c-2c8432d7ccc7","ios":"levelo://app?vid=3895874d-1b1d-4fb7-825c-2c8432d7ccc7"},"vehicle_type_id":"4","last_reported":1745842792,"current_range_meters":8000,"station_id":"ce4bhnp2rcd13ifvqh0g","pricing_plan_id":"cebpf4jnsgd1na2vs0mg"},{"bike_id":"1aaca99d-e0ba-4168-a494-f8c1726e3b64","system_id":"levelo_inurba_marseille","lat":43.31483,"lon":5.37306,"is_reserved":false,"is_disabled":false,"rental_uris":{"android":"levelo://app?vid=1aaca99d-e0ba-4168-a494-f8c1726e3b64","ios":"levelo://app?vid=1aaca99d-e0ba-4168-a494-f8c1726e3b64"},"vehicle_type_id":"4","last_reported":1745842792,"current_range_meters":8000,"station_id":"ce4bgt12rcd13ifvqcd0","pricing_plan_id":"cebpf4jnsgd1na2vs0mg"},{"bike_id":"2e921930-cf84-4373-a69a-337158f7d041","system_id":"levelo_inurba_marseille","lat":43.26569,"lon":5.39009,"is_reserved":false,"is_disabled":false,"rental_uris":{"android":"levelo://app?vid=2e921930-cf84-4373-a69a-337158f7d041","ios":"levelo://app?vid=2e921930-cf84-4373-a69a-337158f7d041"},"vehicle_type_id":"4","last_reported":1745842792,"current_range_meters":8400,"station_id":"ce4bhe12rcd13ifvqf30","pricing_plan_id":"cebpf4jnsgd1na2vs0mg"},{"bike_id":"51c1adc9-7cd7-4ffb-971e-7b36309eb47d","system_id":"levelo_inurba_marseille","lat":43.31059,"lon":5.36682,"is_reserved":false,"is_disabled":false,"rental_uris":{"android":"levelo://app?vid=51c1adc9-7cd7-4ffb-971e-7b36309eb47d","ios":"levelo://app?vid=51c1adc9-7cd7-4ffb-971e-7b36309eb47d"},"vehicle_type_id":"4","last_reported":1745842792,"current_range_meters":8400,"station_id":"","pricing_plan_id":"cebpf4jnsgd1na2vs0mg"},{"bike_id":"0f41dbe6-9ef4-4153-90ca-923a363cd5be","system_id":"levelo_inurba_marseille","lat":43.231461,"lon":5.437191,"is_reserved":false,"is_disabled":false,"rental_uris":{"android":"levelo://app?vid=0f41dbe6-9ef4-4153-90ca-923a363cd5be","ios":"levelo://app?vid=0f41dbe6-9ef4-4153-90ca-923a363cd5be"},"vehicle_type_id":"4","last_reported":1745842792,"current_range_meters":8800,"station_id":"ce4bhmp2rcd13ifvqgog","pricing_plan_id":"cebpf4jnsgd1na2vs0mg"},{"bike_id":"4f6f9062-67f1-4e5c-bced-a7956b91025b","system_id":"levelo_inurba_marseille","lat":43.32478,"lon":5.36566,"is_reserved":false,"is_disabled":false,"rental_uris":{"android":"levelo://app?vid=4f6f9062-67f1-4e5c-bced-a7956b91025b","ios":"levelo://app?vid=4f6f9062-67f1-4e5c-bced-a7956b91025b"},"vehicle_type_id":"4","last_reported":1745842792,"current_range_meters":8800,"station_id":"ce4bhs12rcd13ifvqhvg","pricing_plan_id":"cebpf4jnsgd1na2vs0mg"},{"bike_id":"fb12cdd8-7b07-43a7-a6ab-c16dd1106691","system_id":"levelo_inurba_marseille","lat":43.29708,"lon":5.36608,"is_reserved":false,"is_disabled":false,"rental_uris":{"android":"levelo://app?vid=fb12cdd8-7b07-43a7-a6ab-c16dd1106691","ios":"levelo://app?vid=fb12cdd8-7b07-43a7-a6ab-c16dd1106691"},"vehicle_type_id":"4","last_reported":1745842792,"current_range_meters":8800,"station_id":"ce4bgn12rcd13ifvqbt0","pricing_plan_id":"cebpf4jnsgd1na2vs0mg"},{"bike_id":"a4c8a335-745b-4d95-97e0-7bac3cb18549","system_id":"levelo_inurba_marseille","lat":43.28096,"lon":5.39855,"is_reserved":false,"is_disabled":false,"rental_uris":{"android":"levelo://app?vid=a4c8a335-745b-4d95-97e0-7bac3cb18549","ios":"levelo://app?vid=a4c8a335-745b-4d95-97e0-7bac3cb18549"},"vehicle_type_id":"4","last_reported":1745842792,"current_range_meters":8800,"station_id":"","pricing_plan_id":"cebpf4jnsgd1na2vs0mg"},{"bike_id":"c786e9cd-e55d-4fab-b425-b9934c3bc9bf","system_id":"levelo_inurba_marseille","lat":43.24074,"lon":5.37756,"is_reserved":false,"is_disabled":false,"rental_uris":{"android":"levelo://app?vid=c786e9cd-e55d-4fab-b425-b9934c3bc9bf","ios":"levelo://app?vid=c786e9cd-e55d-4fab-b425-b9934c3bc9bf"},"vehicle_type_id":"4","last_reported":1745842792,"current_range_meters":9200,"station_id":"ce4bhnp2rcd13ifvqgvg","pricing_plan_id":"cebpf4jnsgd1na2vs0mg"},{"bike_id":"153b412e-a27c-4282-b7fe-3b0ad2bed4c5","system_id":"levelo_inurba_marseille","lat":43.32368,"lon":5.36764,"is_reserved":false,"is_disabled":false,"rental_uris":{"android":"levelo://app?vid=153b412e-a27c-4282-b7fe-3b0ad2bed4c5","ios":"levelo://app?vid=153b412e-a27c-4282-b7fe-3b0ad2bed4c5"},"vehicle_type_id":"4","last_reported":1745842792,"current_range_meters":9200,"station_id":"ce4bhsh2rcd13ifvqi2g","pricing_plan_id":"cebpf4jnsgd1na2vs0mg"},{"bike_id":"3a05d63c-00f4-4688-b13f-480853e24130","system_id":"levelo_inurba_marseille","lat":43.25946,"lon":5.409,"is_reserved":false,"is_disabled":false,"rental_uris":{"android":"levelo://app?vid=3a05d63c-00f4-4688-b13f-480853e24130","ios":"levelo://app?vid=3a05d63c-00f4-4688-b13f-480853e24130"},"vehicle_type_id":"4","last_reported":1745842792,"current_range_meters":9200,"station_id":"ce4bhm92rcd13ifvqglg","pricing_plan_id":"cebpf4jnsgd1na2vs0mg"},{"bike_id":"db4904d9-47c5-4383-b0b9-668a5972ff0d","system_id":"levelo_inurba_marseille","lat":43.25116,"lon":5.40331,"is_reserved":false,"is_disabled":false,"rental_uris":{"android":"levelo://app?vid=db4904d9-47c5-4383-b0b9-668a5972ff0d","ios":"levelo://app?vid=db4904d9-47c5-4383-b0b9-668a5972ff0d"},"vehicle_type_id":"4","last_reported":1745842792,"current_range_meters":9200,"station_id":"ce4bhlh2rcd13ifvqgig","pricing_plan_id":"cebpf4jnsgd1na2vs0mg"},{"bike_id":"7f863785-f72f-48cf-8cae-74f557391806","system_id":"levelo_inurba_marseille","lat":43.246524,"lon":5.388924,"is_reserved":false,"is_disabled":false,"rental_uris":{"android":"levelo://app?vid=7f863785-f72f-48cf-8cae-74f557391806","ios":"levelo://app?vid=7f863785-f72f-48cf-8cae-74f557391806"},"vehicle_type_id":"4","last_reported":1745842792,"current_range_meters":9200,"station_id":"ce4bhg12rcd13ifvqf60","pricing_plan_id":"cebpf4jnsgd1na2vs0mg"},{"bike_id":"e5852571-6172-4e15-ae44-66c76900275a","system_id":"levelo_inurba_marseille","lat":43.32356,"lon":5.36758,"is_reserved":false,"is_disabled":false,"rental_uris":{"android":"levelo://app?vid=e5852571-6172-4e15-ae44-66c76900275a","ios":"levelo://app?vid=e5852571-6172-4e15-ae44-66c76900275a"},"vehicle_type_id":"4","last_reported":1745842792,"current_range_meters":9200,"station_id":"ce4bhsh2rcd13ifvqi2g","pricing_plan_id":"cebpf4jnsgd1na2vs0mg"},{"bike_id":"1a2122a8-61c4-474a-bcf1-d7674bc6278d","system_id":"levelo_inurba_marseille","lat":43.30904,"lon":5.36848,"is_reserved":false,"is_disabled":false,"rental_uris":{"android":"levelo://app?vid=1a2122a8-61c4-474a-bcf1-d7674bc6278d","ios":"levelo://app?vid=1a2122a8-61c4-474a-bcf1-d7674bc6278d"},"vehicle_type_id":"4","last_reported":1745842792,"current_range_meters":9200,"station_id":"ce4bgn92rcd13ifvqbvg","pricing_plan_id":"cebpf4jnsgd1na2vs0mg"},{"bike_id":"af4f0c69-e62d-4155-b1d1-a67b45271ae1","system_id":"levelo_inurba_marseille","lat":43.24727,"lon":5.41166,"is_reserved":false,"is_disabled":false,"rental_uris":{"android":"levelo://app?vid=af4f0c69-e62d-4155-b1d1-a67b45271ae1","ios":"levelo://app?vid=af4f0c69-e62d-4155-b1d1-a67b45271ae1"},"vehicle_type_id":"4","last_reported":1745842792,"current_range_meters":9600,"station_id":"","pricing_plan_id":"cebpf4jnsgd1na2vs0mg"},{"bike_id":"a6c80b0c-536c-4a45-884f-2e1d125500ab","system_id":"levelo_inurba_marseille","lat":43.22505,"lon":5.34791,"is_reserved":false,"is_disabled":false,"rental_uris":{"android":"levelo://app?vid=a6c80b0c-536c-4a45-884f-2e1d125500ab","ios":"levelo://app?vid=a6c80b0c-536c-4a45-884f-2e1d125500ab"},"vehicle_type_id":"4","last_reported":1745842792,"current_range_meters":9600,"station_id":"","pricing_plan_id":"cebpf4jnsgd1na2vs0mg"},{"bike_id":"3000339d-71ef-4e28-ae3e-2e2ede305e69","system_id":"levelo_inurba_marseille","lat":43.29171,"lon":5.37158,"is_reserved":false,"is_disabled":false,"rental_uris":{"android":"levelo://app?vid=3000339d-71ef-4e28-ae3e-2e2ede305e69","ios":"levelo://app?vid=3000339d-71ef-4e28-ae3e-2e2ede305e69"},"vehicle_type_id":"4","last_reported":1745842792,"current_range_meters":9200,"station_id":"ce4bha92rcd13ifvqeh0","pricing_plan_id":"cebpf4jnsgd1na2vs0mg"},{"bike_id":"7dcef9cc-9965-4449-b63e-a37e5809b375","system_id":"levelo_inurba_marseille","lat":43.254913,"lon":5.376438,"is_reserved":false,"is_disabled":false,"rental_uris":{"android":"levelo://app?vid=7dcef9cc-9965-4449-b63e-a37e5809b375","ios":"levelo://app?vid=7dcef9cc-9965-4449-b63e-a37e5809b375"},"vehicle_type_id":"4","last_reported":1745842792,"current_range_meters":9600,"station_id":"ce4bhh12rcd13ifvqff0","pricing_plan_id":"cebpf4jnsgd1na2vs0mg"},{"bike_id":"679a1104-bb2f-4313-81ae-490e909d7dd6","system_id":"levelo_inurba_marseille","lat":43.29605,"lon":5.37674,"is_reserved":false,"is_disabled":true,"rental_uris":{"android":"levelo://app?vid=679a1104-bb2f-4313-81ae-490e909d7dd6","ios":"levelo://app?vid=679a1104-bb2f-4313-81ae-490e909d7dd6"},"vehicle_type_id":"4","last_reported":1745842792,"current_range_meters":9600,"station_id":"ce4bgi92rcd13ifvqb90","pricing_plan_id":"cebpf4jnsgd1na2vs0mg"},{"bike_id":"57a41005-dba4-4995-a65d-3cc07a95ba9a","system_id":"levelo_inurba_marseille","lat":43.30202,"lon":5.3946,"is_reserved":false,"is_disabled":true,"rental_uris":{"android":"levelo://app?vid=57a41005-dba4-4995-a65d-3cc07a95ba9a","ios":"levelo://app?vid=57a41005-dba4-4995-a65d-3cc07a95ba9a"},"vehicle_type_id":"4","last_reported":1745842792,"current_range_meters":9600,"station_id":"ce4bh0p2rcd13ifvqd70","pricing_plan_id":"cebpf4jnsgd1na2vs0mg"},{"bike_id":"c0109a8d-072b-4181-b032-204a6263b71e","system_id":"levelo_inurba_marseille","lat":43.29038,"lon":5.37594,"is_reserved":false,"is_disabled":false,"rental_uris":{"android":"levelo://app?vid=c0109a8d-072b-4181-b032-204a6263b71e","ios":"levelo://app?vid=c0109a8d-072b-4181-b032-204a6263b71e"},"vehicle_type_id":"4","last_reported":1745842792,"current_range_meters":9600,"station_id":"ce4bh692rcd13ifvqe90","pricing_plan_id":"cebpf4jnsgd1na2vs0mg"},{"bike_id":"3ce8bfd2-1f4e-435c-9916-ad74d5458873","system_id":"levelo_inurba_marseille","lat":43.29413,"lon":5.38624,"is_reserved":false,"is_disabled":false,"rental_uris":{"android":"levelo://app?vid=3ce8bfd2-1f4e-435c-9916-ad74d5458873","ios":"levelo://app?vid=3ce8bfd2-1f4e-435c-9916-ad74d5458873"},"vehicle_type_id":"4","last_reported":1745842792,"current_range_meters":9600,"station_id":"ce4bh2h2rcd13ifvqdh0","pricing_plan_id":"cebpf4jnsgd1na2vs0mg"},{"bike_id":"789eb531-3de8-4422-aaa7-d9a7d5f2ab51","system_id":"levelo_inurba_marseille","lat":43.28697,"lon":5.39984,"is_reserved":false,"is_disabled":false,"rental_uris":{"android":"levelo://app?vid=789eb531-3de8-4422-aaa7-d9a7d5f2ab51","ios":"levelo://app?vid=789eb531-3de8-4422-aaa7-d9a7d5f2ab51"},"vehicle_type_id":"4","last_reported":1745842792,"current_range_meters":10000,"station_id":"ce4bho92rcd13ifvqh3g","pricing_plan_id":"cebpf4jnsgd1na2vs0mg"},{"bike_id":"4ed5222a-dcf9-4ee8-9034-66d4515f631e","system_id":"levelo_inurba_marseille","lat":43.2251,"lon":5.34787,"is_reserved":false,"is_disabled":false,"rental_uris":{"android":"levelo://app?vid=4ed5222a-dcf9-4ee8-9034-66d4515f631e","ios":"levelo://app?vid=4ed5222a-dcf9-4ee8-9034-66d4515f631e"},"vehicle_type_id":"4","last_reported":1745842792,"current_range_meters":10800,"station_id":"st_cvj5dfep6f1abm77gieg","pricing_plan_id":"cebpf4jnsgd1na2vs0mg"},{"bike_id":"f89720f1-aefb-4be2-a541-c6adf80c9886","system_id":"levelo_inurba_marseille","lat":43.28489,"lon":5.38417,"is_reserved":false,"is_disabled":false,"rental_uris":{"android":"levelo://app?vid=f89720f1-aefb-4be2-a541-c6adf80c9886","ios":"levelo://app?vid=f89720f1-aefb-4be2-a541-c6adf80c9886"},"vehicle_type_id":"4","last_reported":1745842792,"current_range_meters":10800,"station_id":"ce4bh512rcd13ifvqe3g","pricing_plan_id":"cebpf4jnsgd1na2vs0mg"},{"bike_id":"a7628684-e8b1-409f-b110-38600379b75e","system_id":"levelo_inurba_marseille","lat":43.31693,"lon":5.40443,"is_reserved":false,"is_disabled":false,"rental_uris":{"android":"levelo://app?vid=a7628684-e8b1-409f-b110-38600379b75e","ios":"levelo://app?vid=a7628684-e8b1-409f-b110-38600379b75e"},"vehicle_type_id":"4","last_reported":1745842792,"current_range_meters":10800,"station_id":"ce4bh012rcd13ifvqd00","pricing_plan_id":"cebpf4jnsgd1na2vs0mg"},{"bike_id":"c74aaeb1-c239-44d3-8bad-d5d2f20af25c","system_id":"levelo_inurba_marseille","lat":43.28935,"lon":5.3639,"is_reserved":false,"is_disabled":false,"rental_uris":{"android":"levelo://app?vid=c74aaeb1-c239-44d3-8bad-d5d2f20af25c","ios":"levelo://app?vid=c74aaeb1-c239-44d3-8bad-d5d2f20af25c"},"vehicle_type_id":"4","last_reported":1745842792,"current_range_meters":10800,"station_id":"ce4bhc92rcd13ifvqetg","pricing_plan_id":"cebpf4jnsgd1na2vs0mg"},{"bike_id":"d99beb95-24da-48b9-8811-7efc1c0bc981","system_id":"levelo_inurba_marseille","lat":43.225057,"lon":5.347787,"is_reserved":false,"is_disabled":false,"rental_uris":{"android":"levelo://app?vid=d99beb95-24da-48b9-8811-7efc1c0bc981","ios":"levelo://app?vid=d99beb95-24da-48b9-8811-7efc1c0bc981"},"vehicle_type_id":"4","last_reported":1745842792,"current_range_meters":10800,"station_id":"","pricing_plan_id":"cebpf4jnsgd1na2vs0mg"},{"bike_id":"726641cb-1547-428a-b483-66f5de6933f4","system_id":"levelo_inurba_marseille","lat":43.2896,"lon":5.36401,"is_reserved":false,"is_disabled":false,"rental_uris":{"android":"levelo://app?vid=726641cb-1547-428a-b483-66f5de6933f4","ios":"levelo://app?vid=726641cb-1547-428a-b483-66f5de6933f4"},"vehicle_type_id":"4","last_reported":1745842792,"current_range_meters":10800,"station_id":"ce4bhc92rcd13ifvqetg","pricing_plan_id":"cebpf4jnsgd1na2vs0mg"},{"bike_id":"9dbd364e-a0b2-4d9f-8ae7-e46f0edbfe5c","system_id":"levelo_inurba_marseille","lat":43.2119,"lon":5.35067,"is_reserved":false,"is_disabled":false,"rental_uris":{"android":"levelo://app?vid=9dbd364e-a0b2-4d9f-8ae7-e46f0edbfe5c","ios":"levelo://app?vid=9dbd364e-a0b2-4d9f-8ae7-e46f0edbfe5c"},"vehicle_type_id":"4","last_reported":1745842792,"current_range_meters":10800,"station_id":"st_cvj6sg6p6f1abm77japg","pricing_plan_id":"cebpf4jnsgd1na2vs0mg"},{"bike_id":"be496c9c-fee6-4dd3-8745-5e29592ed83c","system_id":"levelo_inurba_marseille","lat":43.32478,"lon":5.36562,"is_reserved":false,"is_disabled":false,"rental_uris":{"android":"levelo://app?vid=be496c9c-fee6-4dd3-8745-5e29592ed83c","ios":"levelo://app?vid=be496c9c-fee6-4dd3-8745-5e29592ed83c"},"vehicle_type_id":"4","last_reported":1745842792,"current_range_meters":10800,"station_id":"ce4bhs12rcd13ifvqhvg","pricing_plan_id":"cebpf4jnsgd1na2vs0mg"},{"bike_id":"5a033cb3-f96b-4c8b-ab06-3bdf0a7cc513","system_id":"levelo_inurba_marseille","lat":43.24073,"lon":5.37759,"is_reserved":false,"is_disabled":false,"rental_uris":{"android":"levelo://app?vid=5a033cb3-f96b-4c8b-ab06-3bdf0a7cc513","ios":"levelo://app?vid=5a033cb3-f96b-4c8b-ab06-3bdf0a7cc513"},"vehicle_type_id":"4","last_reported":1745842792,"current_range_meters":10800,"station_id":"ce4bhnp2rcd13ifvqgvg","pricing_plan_id":"cebpf4jnsgd1na2vs0mg"},{"bike_id":"0ebd7ce3-db77-4e55-bc3e-5f76d6066290","system_id":"levelo_inurba_marseille","lat":43.25936,"lon":5.40906,"is_reserved":false,"is_disabled":false,"rental_uris":{"android":"levelo://app?vid=0ebd7ce3-db77-4e55-bc3e-5f76d6066290","ios":"levelo://app?vid=0ebd7ce3-db77-4e55-bc3e-5f76d6066290"},"vehicle_type_id":"4","last_reported":1745842792,"current_range_meters":10800,"station_id":"ce4bhm92rcd13ifvqglg","pricing_plan_id":"cebpf4jnsgd1na2vs0mg"},{"bike_id":"69c7c3d6-547a-4f56-950a-097daaed6494","system_id":"levelo_inurba_marseille","lat":43.30902,"lon":5.36847,"is_reserved":false,"is_disabled":false,"rental_uris":{"android":"levelo://app?vid=69c7c3d6-547a-4f56-950a-097daaed6494","ios":"levelo://app?vid=69c7c3d6-547a-4f56-950a-097daaed6494"},"vehicle_type_id":"4","last_reported":1745842792,"current_range_meters":10800,"station_id":"ce4bgn92rcd13ifvqbvg","pricing_plan_id":"cebpf4jnsgd1na2vs0mg"},{"bike_id":"6d371176-aac3-483a-95b7-727a7fab27c1","system_id":"levelo_inurba_marseille","lat":43.30929,"lon":5.36856,"is_reserved":false,"is_disabled":false,"rental_uris":{"android":"levelo://app?vid=6d371176-aac3-483a-95b7-727a7fab27c1","ios":"levelo://app?vid=6d371176-aac3-483a-95b7-727a7fab27c1"},"vehicle_type_id":"4","last_reported":1745842792,"current_range_meters":11200,"station_id":"ce4bgn92rcd13ifvqbvg","pricing_plan_id":"cebpf4jnsgd1na2vs0mg"},{"bike_id":"18f4340b-20ce-47bc-806a-2b8d10bf6f6e","system_id":"levelo_inurba_marseille","lat":43.2979,"lon":5.38097,"is_reserved":false,"is_disabled":false,"rental_uris":{"android":"levelo://app?vid=18f4340b-20ce-47bc-806a-2b8d10bf6f6e","ios":"levelo://app?vid=18f4340b-20ce-47bc-806a-2b8d10bf6f6e"},"vehicle_type_id":"4","last_reported":1745842792,"current_range_meters":10800,"station_id":"ce4bgip2rcd13ifvqbb0","pricing_plan_id":"cebpf4jnsgd1na2vs0mg"},{"bike_id":"c1c2d6fd-c371-46d2-aed6-2571d1046e49","system_id":"levelo_inurba_marseille","lat":43.27616,"lon":5.36104,"is_reserved":false,"is_disabled":false,"rental_uris":{"android":"levelo://app?vid=c1c2d6fd-c371-46d2-aed6-2571d1046e49","ios":"levelo://app?vid=c1c2d6fd-c371-46d2-aed6-2571d1046e49"},"vehicle_type_id":"4","last_reported":1745842792,"current_range_meters":11200,"station_id":"ce4bgj92rcd13ifvqbe0","pricing_plan_id":"cebpf4jnsgd1na2vs0mg"},{"bike_id":"719866fa-58f1-47cb-8033-633d00d59dd6","system_id":"levelo_inurba_marseille","lat":43.32488,"lon":5.36564,"is_reserved":false,"is_disabled":false,"rental_uris":{"android":"levelo://app?vid=719866fa-58f1-47cb-8033-633d00d59dd6","ios":"levelo://app?vid=719866fa-58f1-47cb-8033-633d00d59dd6"},"vehicle_type_id":"4","last_reported":1745842792,"current_range_meters":11200,"station_id":"ce4bhs12rcd13ifvqhvg","pricing_plan_id":"cebpf4jnsgd1na2vs0mg"},{"bike_id":"a7a56339-930a-4dec-bf7b-e2aa5c53a05d","system_id":"levelo_inurba_marseille","lat":43.31296,"lon":5.36727,"is_reserved":false,"is_disabled":false,"rental_uris":{"android":"levelo://app?vid=a7a56339-930a-4dec-bf7b-e2aa5c53a05d","ios":"levelo://app?vid=a7a56339-930a-4dec-bf7b-e2aa5c53a05d"},"vehicle_type_id":"4","last_reported":1745842792,"current_range_meters":11600,"station_id":"ce4bgr92rcd13ifvqc6g","pricing_plan_id":"cebpf4jnsgd1na2vs0mg"},{"bike_id":"748dc265-2824-4c8a-9092-d9224448fe6d","system_id":"levelo_inurba_marseille","lat":43.31303,"lon":5.36705,"is_reserved":false,"is_disabled":false,"rental_uris":{"android":"levelo://app?vid=748dc265-2824-4c8a-9092-d9224448fe6d","ios":"levelo://app?vid=748dc265-2824-4c8a-9092-d9224448fe6d"},"vehicle_type_id":"4","last_reported":1745842792,"current_range_meters":11600,"station_id":"ce4bgr92rcd13ifvqc6g","pricing_plan_id":"cebpf4jnsgd1na2vs0mg"},{"bike_id":"b36efa90-8621-4753-94f2-43bdfa2a35d5","system_id":"levelo_inurba_marseille","lat":43.32652,"lon":5.40972,"is_reserved":false,"is_disabled":false,"rental_uris":{"android":"levelo://app?vid=b36efa90-8621-4753-94f2-43bdfa2a35d5","ios":"levelo://app?vid=b36efa90-8621-4753-94f2-43bdfa2a35d5"},"vehicle_type_id":"4","last_reported":1745842792,"current_range_meters":11600,"station_id":"ce4bhpp2rcd13ifvqhgg","pricing_plan_id":"cebpf4jnsgd1na2vs0mg"},{"bike_id":"05145c84-b9e3-47c2-91f6-efba0dd3a65c","system_id":"levelo_inurba_marseille","lat":43.25013,"lon":5.38908,"is_reserved":false,"is_disabled":true,"rental_uris":{"android":"levelo://app?vid=05145c84-b9e3-47c2-91f6-efba0dd3a65c","ios":"levelo://app?vid=05145c84-b9e3-47c2-91f6-efba0dd3a65c"},"vehicle_type_id":"4","last_reported":1745842792,"current_range_meters":11600,"station_id":"ce4bhgp2rcd13ifvqfd0","pricing_plan_id":"cebpf4jnsgd1na2vs0mg"},{"bike_id":"bd4dab1c-8291-4d65-9231-6b3450f4eeb7","system_id":"levelo_inurba_marseille","lat":43.29578,"lon":5.36741,"is_reserved":false,"is_disabled":false,"rental_uris":{"android":"levelo://app?vid=bd4dab1c-8291-4d65-9231-6b3450f4eeb7","ios":"levelo://app?vid=bd4dab1c-8291-4d65-9231-6b3450f4eeb7"},"vehicle_type_id":"4","last_reported":1745842792,"current_range_meters":11600,"station_id":"ce4bgph2rcd13ifvqc2g","pricing_plan_id":"cebpf4jnsgd1na2vs0mg"},{"bike_id":"694f216f-86ce-4521-8cd9-e646a6b9f2d5","system_id":"levelo_inurba_marseille","lat":43.30471,"lon":5.37895,"is_reserved":false,"is_disabled":false,"rental_uris":{"android":"levelo://app?vid=694f216f-86ce-4521-8cd9-e646a6b9f2d5","ios":"levelo://app?vid=694f216f-86ce-4521-8cd9-e646a6b9f2d5"},"vehicle_type_id":"4","last_reported":1745842792,"current_range_meters":12000,"station_id":"ce4bgup2rcd13ifvqcn0","pricing_plan_id":"cebpf4jnsgd1na2vs0mg"},{"bike_id":"2406a6f8-68ba-4312-84f6-48aaadd5034b","system_id":"levelo_inurba_marseille","lat":43.22495,"lon":5.34779,"is_reserved":false,"is_disabled":false,"rental_uris":{"android":"levelo://app?vid=2406a6f8-68ba-4312-84f6-48aaadd5034b","ios":"levelo://app?vid=2406a6f8-68ba-4312-84f6-48aaadd5034b"},"vehicle_type_id":"4","last_reported":1745842792,"current_range_meters":12400,"station_id":"","pricing_plan_id":"cebpf4jnsgd1na2vs0mg"},{"bike_id":"de53c2cc-a3c6-47d0-8bac-428e97e46602","system_id":"levelo_inurba_marseille","lat":43.32472,"lon":5.36559,"is_reserved":false,"is_disabled":false,"rental_uris":{"android":"levelo://app?vid=de53c2cc-a3c6-47d0-8bac-428e97e46602","ios":"levelo://app?vid=de53c2cc-a3c6-47d0-8bac-428e97e46602"},"vehicle_type_id":"4","last_reported":1745842792,"current_range_meters":12400,"station_id":"ce4bhs12rcd13ifvqhvg","pricing_plan_id":"cebpf4jnsgd1na2vs0mg"},{"bike_id":"29a529f8-42d2-4af5-9f68-5632920aa58d","system_id":"levelo_inurba_marseille","lat":43.30146,"lon":5.38083,"is_reserved":false,"is_disabled":true,"rental_uris":{"android":"levelo://app?vid=29a529f8-42d2-4af5-9f68-5632920aa58d","ios":"levelo://app?vid=29a529f8-42d2-4af5-9f68-5632920aa58d"},"vehicle_type_id":"4","last_reported":1745842792,"current_range_meters":12400,"station_id":"ce4bgjp2rcd13ifvqbh0","pricing_plan_id":"cebpf4jnsgd1na2vs0mg"},{"bike_id":"e29170cc-40f8-431f-bac4-cea97be3fdbc","system_id":"levelo_inurba_marseille","lat":43.24077,"lon":5.37757,"is_reserved":false,"is_disabled":false,"rental_uris":{"android":"levelo://app?vid=e29170cc-40f8-431f-bac4-cea97be3fdbc","ios":"levelo://app?vid=e29170cc-40f8-431f-bac4-cea97be3fdbc"},"vehicle_type_id":"4","last_reported":1745842792,"current_range_meters":12400,"station_id":"ce4bhnp2rcd13ifvqgvg","pricing_plan_id":"cebpf4jnsgd1na2vs0mg"},{"bike_id":"e5b4b90d-e268-4de2-98f4-f6d0513f8801","system_id":"levelo_inurba_marseille","lat":43.26547,"lon":5.42193,"is_reserved":false,"is_disabled":false,"rental_uris":{"android":"levelo://app?vid=e5b4b90d-e268-4de2-98f4-f6d0513f8801","ios":"levelo://app?vid=e5b4b90d-e268-4de2-98f4-f6d0513f8801"},"vehicle_type_id":"4","last_reported":1745842792,"current_range_meters":12400,"station_id":"","pricing_plan_id":"cebpf4jnsgd1na2vs0mg"},{"bike_id":"bc8b13ab-35fe-46ba-a35d-1d4f4cf26725","system_id":"levelo_inurba_marseille","lat":43.21744,"lon":5.34611,"is_reserved":false,"is_disabled":false,"rental_uris":{"android":"levelo://app?vid=bc8b13ab-35fe-46ba-a35d-1d4f4cf26725","ios":"levelo://app?vid=bc8b13ab-35fe-46ba-a35d-1d4f4cf26725"},"vehicle_type_id":"4","last_reported":1745842792,"current_range_meters":12800,"station_id":"st_cvj6r9ubvosntc0bgbag","pricing_plan_id":"cebpf4jnsgd1na2vs0mg"},{"bike_id":"b5d71a4e-171b-4679-bfd3-4eef63653576","system_id":"levelo_inurba_marseille","lat":43.27417,"lon":5.39409,"is_reserved":false,"is_disabled":false,"rental_uris":{"android":"levelo://app?vid=b5d71a4e-171b-4679-bfd3-4eef63653576","ios":"levelo://app?vid=b5d71a4e-171b-4679-bfd3-4eef63653576"},"vehicle_type_id":"4","last_reported":1745842792,"current_range_meters":12400,"station_id":"ce4bhdp2rcd13ifvqf20","pricing_plan_id":"cebpf4jnsgd1na2vs0mg"},{"bike_id":"82e5d5bc-bed4-4c28-ae88-9df7b051b58d","system_id":"levelo_inurba_marseille","lat":43.29305,"lon":5.37168,"is_reserved":false,"is_disabled":false,"rental_uris":{"android":"levelo://app?vid=82e5d5bc-bed4-4c28-ae88-9df7b051b58d","ios":"levelo://app?vid=82e5d5bc-bed4-4c28-ae88-9df7b051b58d"},"vehicle_type_id":"4","last_reported":1745842792,"current_range_meters":12800,"station_id":"ce4bgh92rcd13ifvqb40","pricing_plan_id":"cebpf4jnsgd1na2vs0mg"},{"bike_id":"e2325172-db38-4ee3-b71d-c17274294852","system_id":"levelo_inurba_marseille","lat":43.24391,"lon":5.37058,"is_reserved":false,"is_disabled":false,"rental_uris":{"android":"levelo://app?vid=e2325172-db38-4ee3-b71d-c17274294852","ios":"levelo://app?vid=e2325172-db38-4ee3-b71d-c17274294852"},"vehicle_type_id":"4","last_reported":1745842792,"current_range_meters":12800,"station_id":"ce4bhhh2rcd13ifvqfk0","pricing_plan_id":"cebpf4jnsgd1na2vs0mg"},{"bike_id":"1c9ef566-1aea-49e7-bcec-4f4a90f793b7","system_id":"levelo_inurba_marseille","lat":43.239626,"lon":5.366545,"is_reserved":false,"is_disabled":false,"rental_uris":{"android":"levelo://app?vid=1c9ef566-1aea-49e7-bcec-4f4a90f793b7","ios":"levelo://app?vid=1c9ef566-1aea-49e7-bcec-4f4a90f793b7"},"vehicle_type_id":"4","last_reported":1745842792,"current_range_meters":13600,"station_id":"ce4bhi12rcd13ifvqfp0","pricing_plan_id":"cebpf4jnsgd1na2vs0mg"},{"bike_id":"86c0598b-4818-471f-9a8b-081ecdc96572","system_id":"levelo_inurba_marseille","lat":43.25575,"lon":5.38231,"is_reserved":false,"is_disabled":false,"rental_uris":{"android":"levelo://app?vid=86c0598b-4818-471f-9a8b-081ecdc96572","ios":"levelo://app?vid=86c0598b-4818-471f-9a8b-081ecdc96572"},"vehicle_type_id":"4","last_reported":1745842792,"current_range_meters":13600,"station_id":"ce4bhih2rcd13ifvqfs0","pricing_plan_id":"cebpf4jnsgd1na2vs0mg"},{"bike_id":"3bee5c48-e362-4820-8acb-6b830321be74","system_id":"levelo_inurba_marseille","lat":43.23129,"lon":5.43721,"is_reserved":false,"is_disabled":false,"rental_uris":{"android":"levelo://app?vid=3bee5c48-e362-4820-8acb-6b830321be74","ios":"levelo://app?vid=3bee5c48-e362-4820-8acb-6b830321be74"},"vehicle_type_id":"4","last_reported":1745842792,"current_range_meters":13600,"station_id":"ce4bhmp2rcd13ifvqgog","pricing_plan_id":"cebpf4jnsgd1na2vs0mg"},{"bike_id":"f8527f98-9dba-4767-9c49-2ee5632fd2af","system_id":"levelo_inurba_marseille","lat":43.27831,"lon":5.40708,"is_reserved":false,"is_disabled":true,"rental_uris":{"android":"levelo://app?vid=f8527f98-9dba-4767-9c49-2ee5632fd2af","ios":"levelo://app?vid=f8527f98-9dba-4767-9c49-2ee5632fd2af"},"vehicle_type_id":"4","last_reported":1745842792,"current_range_meters":13600,"station_id":"ce4bhnh2rcd13ifvqgtg","pricing_plan_id":"cebpf4jnsgd1na2vs0mg"},{"bike_id":"f202635c-f432-45bb-8936-347170dc85ef","system_id":"levelo_inurba_marseille","lat":43.315016,"lon":5.372951,"is_reserved":false,"is_disabled":false,"rental_uris":{"android":"levelo://app?vid=f202635c-f432-45bb-8936-347170dc85ef","ios":"levelo://app?vid=f202635c-f432-45bb-8936-347170dc85ef"},"vehicle_type_id":"4","last_reported":1745842792,"current_range_meters":13600,"station_id":"ce4bgt12rcd13ifvqcd0","pricing_plan_id":"cebpf4jnsgd1na2vs0mg"},{"bike_id":"4679a050-8cdf-40b5-aea9-11df8c0196b7","system_id":"levelo_inurba_marseille","lat":43.28459,"lon":5.35888,"is_reserved":false,"is_disabled":false,"rental_uris":{"android":"levelo://app?vid=4679a050-8cdf-40b5-aea9-11df8c0196b7","ios":"levelo://app?vid=4679a050-8cdf-40b5-aea9-11df8c0196b7"},"vehicle_type_id":"4","last_reported":1745842792,"current_range_meters":13600,"station_id":"ce4bhah2rcd13ifvqei0","pricing_plan_id":"cebpf4jnsgd1na2vs0mg"},{"bike_id":"116eb15b-8269-4f77-8517-5d619b6d3586","system_id":"levelo_inurba_marseille","lat":43.27487,"lon":5.42438,"is_reserved":false,"is_disabled":false,"rental_uris":{"android":"levelo://app?vid=116eb15b-8269-4f77-8517-5d619b6d3586","ios":"levelo://app?vid=116eb15b-8269-4f77-8517-5d619b6d3586"},"vehicle_type_id":"4","last_reported":1745842792,"current_range_meters":13600,"station_id":"ce4bhn92rcd13ifvqgrg","pricing_plan_id":"cebpf4jnsgd1na2vs0mg"},{"bike_id":"bba05b6e-1455-45ff-9566-1cbe2a19ab54","system_id":"levelo_inurba_marseille","lat":43.23151,"lon":5.43712,"is_reserved":false,"is_disabled":false,"rental_uris":{"android":"levelo://app?vid=bba05b6e-1455-45ff-9566-1cbe2a19ab54","ios":"levelo://app?vid=bba05b6e-1455-45ff-9566-1cbe2a19ab54"},"vehicle_type_id":"4","last_reported":1745842792,"current_range_meters":13600,"station_id":"ce4bhmp2rcd13ifvqgog","pricing_plan_id":"cebpf4jnsgd1na2vs0mg"},{"bike_id":"ab4612c3-85f5-4cb4-9ce2-46373d9c1c69","system_id":"levelo_inurba_marseille","lat":43.25792,"lon":5.38585,"is_reserved":false,"is_disabled":false,"rental_uris":{"android":"levelo://app?vid=ab4612c3-85f5-4cb4-9ce2-46373d9c1c69","ios":"levelo://app?vid=ab4612c3-85f5-4cb4-9ce2-46373d9c1c69"},"vehicle_type_id":"4","last_reported":1745842792,"current_range_meters":14000,"station_id":"","pricing_plan_id":"cebpf4jnsgd1na2vs0mg"},{"bike_id":"b5767cca-0e93-4afc-aae1-18c8669860ad","system_id":"levelo_inurba_marseille","lat":43.21749,"lon":5.346,"is_reserved":false,"is_disabled":false,"rental_uris":{"android":"levelo://app?vid=b5767cca-0e93-4afc-aae1-18c8669860ad","ios":"levelo://app?vid=b5767cca-0e93-4afc-aae1-18c8669860ad"},"vehicle_type_id":"4","last_reported":1745842792,"current_range_meters":14000,"station_id":"st_cvj6r9ubvosntc0bgbag","pricing_plan_id":"cebpf4jnsgd1na2vs0mg"},{"bike_id":"5025e2e7-4b40-4be0-8828-579dc02656d9","system_id":"levelo_inurba_marseille","lat":43.28267,"lon":5.35071,"is_reserved":false,"is_disabled":true,"rental_uris":{"android":"levelo://app?vid=5025e2e7-4b40-4be0-8828-579dc02656d9","ios":"levelo://app?vid=5025e2e7-4b40-4be0-8828-579dc02656d9"},"vehicle_type_id":"4","last_reported":1745842792,"current_range_meters":14000,"station_id":"ce4bhbp2rcd13ifvqerg","pricing_plan_id":"cebpf4jnsgd1na2vs0mg"},{"bike_id":"bc7e4f7e-7a6d-45e1-8d13-50c3fa265a5f","system_id":"levelo_inurba_marseille","lat":43.21757,"lon":5.34599,"is_reserved":false,"is_disabled":false,"rental_uris":{"android":"levelo://app?vid=bc7e4f7e-7a6d-45e1-8d13-50c3fa265a5f","ios":"levelo://app?vid=bc7e4f7e-7a6d-45e1-8d13-50c3fa265a5f"},"vehicle_type_id":"4","last_reported":1745842792,"current_range_meters":14000,"station_id":"st_cvj6r9ubvosntc0bgbag","pricing_plan_id":"cebpf4jnsgd1na2vs0mg"},{"bike_id":"c2abe4c3-8495-491c-b683-5d21bdba58ed","system_id":"levelo_inurba_marseille","lat":43.28041,"lon":5.36941,"is_reserved":false,"is_disabled":false,"rental_uris":{"android":"levelo://app?vid=c2abe4c3-8495-491c-b683-5d21bdba58ed","ios":"levelo://app?vid=c2abe4c3-8495-491c-b683-5d21bdba58ed"},"vehicle_type_id":"4","last_reported":1745842792,"current_range_meters":14400,"station_id":"ce4bha12rcd13ifvqef0","pricing_plan_id":"cebpf4jnsgd1na2vs0mg"},{"bike_id":"8e89b03e-fbbb-4cf6-ad3c-3dd9e2b9963c","system_id":"levelo_inurba_marseille","lat":43.293,"lon":5.37151,"is_reserved":false,"is_disabled":false,"rental_uris":{"android":"levelo://app?vid=8e89b03e-fbbb-4cf6-ad3c-3dd9e2b9963c","ios":"levelo://app?vid=8e89b03e-fbbb-4cf6-ad3c-3dd9e2b9963c"},"vehicle_type_id":"4","last_reported":1745842792,"current_range_meters":14400,"station_id":"ce4bgh92rcd13ifvqb40","pricing_plan_id":"cebpf4jnsgd1na2vs0mg"},{"bike_id":"f3e6f7ea-0b61-4cf3-825e-ef2178c4a995","system_id":"levelo_inurba_marseille","lat":43.32107,"lon":5.36787,"is_reserved":false,"is_disabled":false,"rental_uris":{"android":"levelo://app?vid=f3e6f7ea-0b61-4cf3-825e-ef2178c4a995","ios":"levelo://app?vid=f3e6f7ea-0b61-4cf3-825e-ef2178c4a995"},"vehicle_type_id":"4","last_reported":1745842792,"current_range_meters":14400,"station_id":"ce4bhrh2rcd13ifvqhug","pricing_plan_id":"cebpf4jnsgd1na2vs0mg"},{"bike_id":"ad7b43b5-dd01-4cee-a543-ecc2b62e20eb","system_id":"levelo_inurba_marseille","lat":43.29893,"lon":5.43661,"is_reserved":false,"is_disabled":false,"rental_uris":{"android":"levelo://app?vid=ad7b43b5-dd01-4cee-a543-ecc2b62e20eb","ios":"levelo://app?vid=ad7b43b5-dd01-4cee-a543-ecc2b62e20eb"},"vehicle_type_id":"4","last_reported":1745842792,"current_range_meters":15200,"station_id":"ce4bhpp2rcd13ifvqhfg","pricing_plan_id":"cebpf4jnsgd1na2vs0mg"},{"bike_id":"ca547662-8975-4432-ae0c-3d506f07b131","system_id":"levelo_inurba_marseille","lat":43.29712,"lon":5.3659,"is_reserved":false,"is_disabled":false,"rental_uris":{"android":"levelo://app?vid=ca547662-8975-4432-ae0c-3d506f07b131","ios":"levelo://app?vid=ca547662-8975-4432-ae0c-3d506f07b131"},"vehicle_type_id":"4","last_reported":1745842792,"current_range_meters":15200,"station_id":"ce4bgn12rcd13ifvqbt0","pricing_plan_id":"cebpf4jnsgd1na2vs0mg"},{"bike_id":"0af3789b-c6b8-4fb0-ba19-0e4ac11b7160","system_id":"levelo_inurba_marseille","lat":43.31483,"lon":5.37304,"is_reserved":false,"is_disabled":false,"rental_uris":{"android":"levelo://app?vid=0af3789b-c6b8-4fb0-ba19-0e4ac11b7160","ios":"levelo://app?vid=0af3789b-c6b8-4fb0-ba19-0e4ac11b7160"},"vehicle_type_id":"4","last_reported":1745842792,"current_range_meters":15200,"station_id":"ce4bgt12rcd13ifvqcd0","pricing_plan_id":"cebpf4jnsgd1na2vs0mg"},{"bike_id":"8fdc1496-e73d-4476-8941-f45ea3d6a1fb","system_id":"levelo_inurba_marseille","lat":43.28708,"lon":5.39998,"is_reserved":false,"is_disabled":false,"rental_uris":{"android":"levelo://app?vid=8fdc1496-e73d-4476-8941-f45ea3d6a1fb","ios":"levelo://app?vid=8fdc1496-e73d-4476-8941-f45ea3d6a1fb"},"vehicle_type_id":"4","last_reported":1745842792,"current_range_meters":15200,"station_id":"ce4bho92rcd13ifvqh3g","pricing_plan_id":"cebpf4jnsgd1na2vs0mg"},{"bike_id":"343fdaa9-bc62-4ecc-8423-f42334c68865","system_id":"levelo_inurba_marseille","lat":43.28361,"lon":5.38644,"is_reserved":false,"is_disabled":false,"rental_uris":{"android":"levelo://app?vid=343fdaa9-bc62-4ecc-8423-f42334c68865","ios":"levelo://app?vid=343fdaa9-bc62-4ecc-8423-f42334c68865"},"vehicle_type_id":"4","last_reported":1745842792,"current_range_meters":14800,"station_id":"ce4bh492rcd13ifvqdvg","pricing_plan_id":"cebpf4jnsgd1na2vs0mg"},{"bike_id":"2e301011-885b-4cd7-89c6-b074eaf40bae","system_id":"levelo_inurba_marseille","lat":43.314961,"lon":5.373048,"is_reserved":false,"is_disabled":false,"rental_uris":{"android":"levelo://app?vid=2e301011-885b-4cd7-89c6-b074eaf40bae","ios":"levelo://app?vid=2e301011-885b-4cd7-89c6-b074eaf40bae"},"vehicle_type_id":"4","last_reported":1745842792,"current_range_meters":15200,"station_id":"ce4bgt12rcd13ifvqcd0","pricing_plan_id":"cebpf4jnsgd1na2vs0mg"},{"bike_id":"5d12ee4a-52f1-4f1a-af38-ad7a19a5a489","system_id":"levelo_inurba_marseille","lat":43.30543,"lon":5.36532,"is_reserved":false,"is_disabled":true,"rental_uris":{"android":"levelo://app?vid=5d12ee4a-52f1-4f1a-af38-ad7a19a5a489","ios":"levelo://app?vid=5d12ee4a-52f1-4f1a-af38-ad7a19a5a489"},"vehicle_type_id":"4","last_reported":1745842792,"current_range_meters":16000,"station_id":"ce4bgs12rcd13ifvqcag","pricing_plan_id":"cebpf4jnsgd1na2vs0mg"},{"bike_id":"6b88ae52-4470-4609-9540-2ec7e9358c2c","system_id":"levelo_inurba_marseille","lat":43.23966,"lon":5.36633,"is_reserved":false,"is_disabled":false,"rental_uris":{"android":"levelo://app?vid=6b88ae52-4470-4609-9540-2ec7e9358c2c","ios":"levelo://app?vid=6b88ae52-4470-4609-9540-2ec7e9358c2c"},"vehicle_type_id":"4","last_reported":1745842792,"current_range_meters":16000,"station_id":"ce4bhi12rcd13ifvqfp0","pricing_plan_id":"cebpf4jnsgd1na2vs0mg"},{"bike_id":"2f8b5277-aa00-4bad-ad82-1d61bcc04d85","system_id":"levelo_inurba_marseille","lat":43.309456,"lon":5.390266,"is_reserved":false,"is_disabled":false,"rental_uris":{"android":"levelo://app?vid=2f8b5277-aa00-4bad-ad82-1d61bcc04d85","ios":"levelo://app?vid=2f8b5277-aa00-4bad-ad82-1d61bcc04d85"},"vehicle_type_id":"4","last_reported":1745842792,"current_range_meters":16000,"station_id":"ce4bgup2rcd13ifvqco0","pricing_plan_id":"cebpf4jnsgd1na2vs0mg"},{"bike_id":"e4bf4b2e-acb9-45d9-8074-9f3bfb604d11","system_id":"levelo_inurba_marseille","lat":43.32354,"lon":5.36762,"is_reserved":false,"is_disabled":false,"rental_uris":{"android":"levelo://app?vid=e4bf4b2e-acb9-45d9-8074-9f3bfb604d11","ios":"levelo://app?vid=e4bf4b2e-acb9-45d9-8074-9f3bfb604d11"},"vehicle_type_id":"4","last_reported":1745842792,"current_range_meters":16000,"station_id":"ce4bhsh2rcd13ifvqi2g","pricing_plan_id":"cebpf4jnsgd1na2vs0mg"},{"bike_id":"e825c9fb-9ddb-46ce-98eb-87e0107dcdcb","system_id":"levelo_inurba_marseille","lat":43.27917,"lon":5.39578,"is_reserved":false,"is_disabled":false,"rental_uris":{"android":"levelo://app?vid=e825c9fb-9ddb-46ce-98eb-87e0107dcdcb","ios":"levelo://app?vid=e825c9fb-9ddb-46ce-98eb-87e0107dcdcb"},"vehicle_type_id":"4","last_reported":1745842792,"current_range_meters":16000,"station_id":"ce4bhf92rcd13ifvqf40","pricing_plan_id":"cebpf4jnsgd1na2vs0mg"},{"bike_id":"ab5cf777-e45b-497f-8a4d-127361cc6357","system_id":"levelo_inurba_marseille","lat":43.23152,"lon":5.43715,"is_reserved":false,"is_disabled":false,"rental_uris":{"android":"levelo://app?vid=ab5cf777-e45b-497f-8a4d-127361cc6357","ios":"levelo://app?vid=ab5cf777-e45b-497f-8a4d-127361cc6357"},"vehicle_type_id":"4","last_reported":1745842792,"current_range_meters":16000,"station_id":"ce4bhmp2rcd13ifvqgog","pricing_plan_id":"cebpf4jnsgd1na2vs0mg"},{"bike_id":"1cd67786-ba45-400b-8d66-4224d26636b2","system_id":"levelo_inurba_marseille","lat":43.27213,"lon":5.39171,"is_reserved":false,"is_disabled":false,"rental_uris":{"android":"levelo://app?vid=1cd67786-ba45-400b-8d66-4224d26636b2","ios":"levelo://app?vid=1cd67786-ba45-400b-8d66-4224d26636b2"},"vehicle_type_id":"4","last_reported":1745842792,"current_range_meters":12400,"station_id":"ce4bhhp2rcd13ifvqfm0","pricing_plan_id":"cebpf4jnsgd1na2vs0mg"},{"bike_id":"aec68e48-1826-4845-812c-b555a289adc5","system_id":"levelo_inurba_marseille","lat":43.23151,"lon":5.43727,"is_reserved":false,"is_disabled":false,"rental_uris":{"android":"levelo://app?vid=aec68e48-1826-4845-812c-b555a289adc5","ios":"levelo://app?vid=aec68e48-1826-4845-812c-b555a289adc5"},"vehicle_type_id":"4","last_reported":1745842792,"current_range_meters":16000,"station_id":"ce4bhmp2rcd13ifvqgog","pricing_plan_id":"cebpf4jnsgd1na2vs0mg"},{"bike_id":"d1716a98-9431-4e95-9d72-7eb00023378a","system_id":"levelo_inurba_marseille","lat":43.29514,"lon":5.37498,"is_reserved":false,"is_disabled":false,"rental_uris":{"android":"levelo://app?vid=d1716a98-9431-4e95-9d72-7eb00023378a","ios":"levelo://app?vid=d1716a98-9431-4e95-9d72-7eb00023378a"},"vehicle_type_id":"4","last_reported":1745842792,"current_range_meters":16000,"station_id":"ce4bgkp2rcd13ifvqbmg","pricing_plan_id":"cebpf4jnsgd1na2vs0mg"},{"bike_id":"5108d012-4cd8-48f2-b53a-5039845aed02","system_id":"levelo_inurba_marseille","lat":43.30332,"lon":5.40437,"is_reserved":false,"is_disabled":false,"rental_uris":{"android":"levelo://app?vid=5108d012-4cd8-48f2-b53a-5039845aed02","ios":"levelo://app?vid=5108d012-4cd8-48f2-b53a-5039845aed02"},"vehicle_type_id":"4","last_reported":1745842792,"current_range_meters":16400,"station_id":"ce4bh012rcd13ifvqd10","pricing_plan_id":"cebpf4jnsgd1na2vs0mg"},{"bike_id":"28894e81-ede6-4351-84e3-e6b48081a345","system_id":"levelo_inurba_marseille","lat":43.33439,"lon":5.40038,"is_reserved":false,"is_disabled":false,"rental_uris":{"android":"levelo://app?vid=28894e81-ede6-4351-84e3-e6b48081a345","ios":"levelo://app?vid=28894e81-ede6-4351-84e3-e6b48081a345"},"vehicle_type_id":"4","last_reported":1745842792,"current_range_meters":16400,"station_id":"","pricing_plan_id":"cebpf4jnsgd1na2vs0mg"},{"bike_id":"64b4a0f6-eb4e-4a58-a49c-c2fdffc72cda","system_id":"levelo_inurba_marseille","lat":43.27568,"lon":5.38384,"is_reserved":false,"is_disabled":true,"rental_uris":{"android":"levelo://app?vid=64b4a0f6-eb4e-4a58-a49c-c2fdffc72cda","ios":"levelo://app?vid=64b4a0f6-eb4e-4a58-a49c-c2fdffc72cda"},"vehicle_type_id":"4","last_reported":1745842792,"current_range_meters":16400,"station_id":"ce4bhh92rcd13ifvqfi0","pricing_plan_id":"cebpf4jnsgd1na2vs0mg"},{"bike_id":"f76667cd-c285-4da8-87c4-b475bc987884","system_id":"levelo_inurba_marseille","lat":43.26504,"lon":5.39537,"is_reserved":false,"is_disabled":false,"rental_uris":{"android":"levelo://app?vid=f76667cd-c285-4da8-87c4-b475bc987884","ios":"levelo://app?vid=f76667cd-c285-4da8-87c4-b475bc987884"},"vehicle_type_id":"4","last_reported":1745842792,"current_range_meters":16400,"station_id":"ce4bhi12rcd13ifvqfq0","pricing_plan_id":"cebpf4jnsgd1na2vs0mg"},{"bike_id":"29cc6b36-65a2-4157-a9c9-013bddb90a4e","system_id":"levelo_inurba_marseille","lat":43.31351,"lon":5.36705,"is_reserved":false,"is_disabled":false,"rental_uris":{"android":"levelo://app?vid=29cc6b36-65a2-4157-a9c9-013bddb90a4e","ios":"levelo://app?vid=29cc6b36-65a2-4157-a9c9-013bddb90a4e"},"vehicle_type_id":"4","last_reported":1745842792,"current_range_meters":16400,"station_id":"ce4bgr92rcd13ifvqc6g","pricing_plan_id":"cebpf4jnsgd1na2vs0mg"},{"bike_id":"b90aaaec-1919-489a-a121-a1c4052a212b","system_id":"levelo_inurba_marseille","lat":43.30889,"lon":5.39659,"is_reserved":false,"is_disabled":false,"rental_uris":{"android":"levelo://app?vid=b90aaaec-1919-489a-a121-a1c4052a212b","ios":"levelo://app?vid=b90aaaec-1919-489a-a121-a1c4052a212b"},"vehicle_type_id":"4","last_reported":1745842792,"current_range_meters":16400,"station_id":"ce4bh012rcd13ifvqcv0","pricing_plan_id":"cebpf4jnsgd1na2vs0mg"},{"bike_id":"4db94cee-cbb6-4d12-ae86-cb1bf8f28ad1","system_id":"levelo_inurba_marseille","lat":43.29065,"lon":5.37162,"is_reserved":false,"is_disabled":false,"rental_uris":{"android":"levelo://app?vid=4db94cee-cbb6-4d12-ae86-cb1bf8f28ad1","ios":"levelo://app?vid=4db94cee-cbb6-4d12-ae86-cb1bf8f28ad1"},"vehicle_type_id":"4","last_reported":1745842792,"current_range_meters":16400,"station_id":"ce4bh5p2rcd13ifvqe4g","pricing_plan_id":"cebpf4jnsgd1na2vs0mg"},{"bike_id":"045db907-8281-46fc-8ded-f9793ddf3b93","system_id":"levelo_inurba_marseille","lat":43.29263,"lon":5.37625,"is_reserved":false,"is_disabled":false,"rental_uris":{"android":"levelo://app?vid=045db907-8281-46fc-8ded-f9793ddf3b93","ios":"levelo://app?vid=045db907-8281-46fc-8ded-f9793ddf3b93"},"vehicle_type_id":"4","last_reported":1745842792,"current_range_meters":16400,"station_id":"ce4bgi12rcd13ifvqb80","pricing_plan_id":"cebpf4jnsgd1na2vs0mg"},{"bike_id":"85805f00-d01b-4d24-872a-b0c6b4f523d8","system_id":"levelo_inurba_marseille","lat":43.312262,"lon":5.368877,"is_reserved":false,"is_disabled":false,"rental_uris":{"android":"levelo://app?vid=85805f00-d01b-4d24-872a-b0c6b4f523d8","ios":"levelo://app?vid=85805f00-d01b-4d24-872a-b0c6b4f523d8"},"vehicle_type_id":"4","last_reported":1745842792,"current_range_meters":16800,"station_id":"ce4bgl92rcd13ifvqbq0","pricing_plan_id":"cebpf4jnsgd1na2vs0mg"},{"bike_id":"1c71dd62-5c1a-42e0-8da7-81eceebfb73e","system_id":"levelo_inurba_marseille","lat":43.21181,"lon":5.3508,"is_reserved":false,"is_disabled":false,"rental_uris":{"android":"levelo://app?vid=1c71dd62-5c1a-42e0-8da7-81eceebfb73e","ios":"levelo://app?vid=1c71dd62-5c1a-42e0-8da7-81eceebfb73e"},"vehicle_type_id":"4","last_reported":1745842792,"current_range_meters":16800,"station_id":"st_cvj6sg6p6f1abm77japg","pricing_plan_id":"cebpf4jnsgd1na2vs0mg"},{"bike_id":"b8390791-02ea-47cc-bfda-3bd1ffc50030","system_id":"levelo_inurba_marseille","lat":43.2595,"lon":5.40906,"is_reserved":false,"is_disabled":false,"rental_uris":{"android":"levelo://app?vid=b8390791-02ea-47cc-bfda-3bd1ffc50030","ios":"levelo://app?vid=b8390791-02ea-47cc-bfda-3bd1ffc50030"},"vehicle_type_id":"4","last_reported":1745842792,"current_range_meters":16800,"station_id":"ce4bhm92rcd13ifvqglg","pricing_plan_id":"cebpf4jnsgd1na2vs0mg"},{"bike_id":"b81b96bf-57a4-4db3-8f31-ae4dd78c3ff0","system_id":"levelo_inurba_marseille","lat":43.2827,"lon":5.3506,"is_reserved":false,"is_disabled":false,"rental_uris":{"android":"levelo://app?vid=b81b96bf-57a4-4db3-8f31-ae4dd78c3ff0","ios":"levelo://app?vid=b81b96bf-57a4-4db3-8f31-ae4dd78c3ff0"},"vehicle_type_id":"4","last_reported":1745842792,"current_range_meters":17200,"station_id":"ce4bhbp2rcd13ifvqerg","pricing_plan_id":"cebpf4jnsgd1na2vs0mg"},{"bike_id":"6bf54915-19ee-471d-8cf3-0dd619cee233","system_id":"levelo_inurba_marseille","lat":43.24074,"lon":5.3776,"is_reserved":false,"is_disabled":false,"rental_uris":{"android":"levelo://app?vid=6bf54915-19ee-471d-8cf3-0dd619cee233","ios":"levelo://app?vid=6bf54915-19ee-471d-8cf3-0dd619cee233"},"vehicle_type_id":"4","last_reported":1745842792,"current_range_meters":17200,"station_id":"ce4bhnp2rcd13ifvqgvg","pricing_plan_id":"cebpf4jnsgd1na2vs0mg"},{"bike_id":"9691f481-2e04-4dbd-8eeb-62e0fa37616c","system_id":"levelo_inurba_marseille","lat":43.25956,"lon":5.40892,"is_reserved":false,"is_disabled":false,"rental_uris":{"android":"levelo://app?vid=9691f481-2e04-4dbd-8eeb-62e0fa37616c","ios":"levelo://app?vid=9691f481-2e04-4dbd-8eeb-62e0fa37616c"},"vehicle_type_id":"4","last_reported":1745842792,"current_range_meters":17200,"station_id":"ce4bhm92rcd13ifvqglg","pricing_plan_id":"cebpf4jnsgd1na2vs0mg"},{"bike_id":"923f8501-7d40-44db-85bf-a51b2ea797ac","system_id":"levelo_inurba_marseille","lat":43.26948,"lon":5.40299,"is_reserved":false,"is_disabled":true,"rental_uris":{"android":"levelo://app?vid=923f8501-7d40-44db-85bf-a51b2ea797ac","ios":"levelo://app?vid=923f8501-7d40-44db-85bf-a51b2ea797ac"},"vehicle_type_id":"4","last_reported":1745842792,"current_range_meters":17200,"station_id":"cjm6bp8fraef2m0cb0m0","pricing_plan_id":"cebpf4jnsgd1na2vs0mg"},{"bike_id":"d760994a-ffb8-49ad-87fe-30598b99bf28","system_id":"levelo_inurba_marseille","lat":43.217451,"lon":5.34603,"is_reserved":false,"is_disabled":true,"rental_uris":{"android":"levelo://app?vid=d760994a-ffb8-49ad-87fe-30598b99bf28","ios":"levelo://app?vid=d760994a-ffb8-49ad-87fe-30598b99bf28"},"vehicle_type_id":"4","last_reported":1745842792,"current_range_meters":17200,"station_id":"st_cvj6r9ubvosntc0bgbag","pricing_plan_id":"cebpf4jnsgd1na2vs0mg"},{"bike_id":"446c9194-cdac-4a37-bdcf-29c015342e0e","system_id":"levelo_inurba_marseille","lat":43.32071,"lon":5.41546,"is_reserved":false,"is_disabled":false,"rental_uris":{"android":"levelo://app?vid=446c9194-cdac-4a37-bdcf-29c015342e0e","ios":"levelo://app?vid=446c9194-cdac-4a37-bdcf-29c015342e0e"},"vehicle_type_id":"4","last_reported":1745842792,"current_range_meters":16800,"station_id":"ce4bhq92rcd13ifvqhkg","pricing_plan_id":"cebpf4jnsgd1na2vs0mg"},{"bike_id":"9f6a75f5-b970-4a7f-b19c-5a22d1d8d28c","system_id":"levelo_inurba_marseille","lat":43.32547,"lon":5.41425,"is_reserved":false,"is_disabled":false,"rental_uris":{"android":"levelo://app?vid=9f6a75f5-b970-4a7f-b19c-5a22d1d8d28c","ios":"levelo://app?vid=9f6a75f5-b970-4a7f-b19c-5a22d1d8d28c"},"vehicle_type_id":"4","last_reported":1745842792,"current_range_meters":17200,"station_id":"ce4bhq12rcd13ifvqhhg","pricing_plan_id":"cebpf4jnsgd1na2vs0mg"},{"bike_id":"cfa8d634-d51e-4710-b1df-d77c085283a2","system_id":"levelo_inurba_marseille","lat":43.29621,"lon":5.37164,"is_reserved":false,"is_disabled":false,"rental_uris":{"android":"levelo://app?vid=cfa8d634-d51e-4710-b1df-d77c085283a2","ios":"levelo://app?vid=cfa8d634-d51e-4710-b1df-d77c085283a2"},"vehicle_type_id":"4","last_reported":1745842792,"current_range_meters":17200,"station_id":"ce4bgnh2rcd13ifvqc0g","pricing_plan_id":"cebpf4jnsgd1na2vs0mg"},{"bike_id":"c2ac1b4c-89a0-4853-92b9-e5f231bb0b21","system_id":"levelo_inurba_marseille","lat":43.28732,"lon":5.36074,"is_reserved":false,"is_disabled":false,"rental_uris":{"android":"levelo://app?vid=c2ac1b4c-89a0-4853-92b9-e5f231bb0b21","ios":"levelo://app?vid=c2ac1b4c-89a0-4853-92b9-e5f231bb0b21"},"vehicle_type_id":"4","last_reported":1745842792,"current_range_meters":17600,"station_id":"cki0cbj6b192h4jlfktg","pricing_plan_id":"cebpf4jnsgd1na2vs0mg"},{"bike_id":"1116269a-a32d-4915-8403-921d7f67e4a0","system_id":"levelo_inurba_marseille","lat":43.259392,"lon":5.409034,"is_reserved":false,"is_disabled":false,"rental_uris":{"android":"levelo://app?vid=1116269a-a32d-4915-8403-921d7f67e4a0","ios":"levelo://app?vid=1116269a-a32d-4915-8403-921d7f67e4a0"},"vehicle_type_id":"4","last_reported":1745842792,"current_range_meters":17600,"station_id":"ce4bhm92rcd13ifvqglg","pricing_plan_id":"cebpf4jnsgd1na2vs0mg"},{"bike_id":"3f585097-8942-486a-880e-651447dbfcbe","system_id":"levelo_inurba_marseille","lat":43.30922,"lon":5.36847,"is_reserved":false,"is_disabled":false,"rental_uris":{"android":"levelo://app?vid=3f585097-8942-486a-880e-651447dbfcbe","ios":"levelo://app?vid=3f585097-8942-486a-880e-651447dbfcbe"},"vehicle_type_id":"4","last_reported":1745842792,"current_range_meters":17600,"station_id":"ce4bgn92rcd13ifvqbvg","pricing_plan_id":"cebpf4jnsgd1na2vs0mg"},{"bike_id":"888538ce-4dc3-4f2e-8404-8ea4d633e1aa","system_id":"levelo_inurba_marseille","lat":43.26175,"lon":5.37462,"is_reserved":false,"is_disabled":true,"rental_uris":{"android":"levelo://app?vid=888538ce-4dc3-4f2e-8404-8ea4d633e1aa","ios":"levelo://app?vid=888538ce-4dc3-4f2e-8404-8ea4d633e1aa"},"vehicle_type_id":"4","last_reported":1745842792,"current_range_meters":17600,"station_id":"ce4bhgp2rcd13ifvqfc0","pricing_plan_id":"cebpf4jnsgd1na2vs0mg"},{"bike_id":"bf9e1390-c081-4182-b4a0-95ee125720e7","system_id":"levelo_inurba_marseille","lat":43.31499,"lon":5.37289,"is_reserved":false,"is_disabled":false,"rental_uris":{"android":"levelo://app?vid=bf9e1390-c081-4182-b4a0-95ee125720e7","ios":"levelo://app?vid=bf9e1390-c081-4182-b4a0-95ee125720e7"},"vehicle_type_id":"4","last_reported":1745842792,"current_range_meters":17600,"station_id":"ce4bgt12rcd13ifvqcd0","pricing_plan_id":"cebpf4jnsgd1na2vs0mg"},{"bike_id":"489415b8-9254-45c1-b00c-e7554d56755c","system_id":"levelo_inurba_marseille","lat":43.24519,"lon":5.41225,"is_reserved":false,"is_disabled":false,"rental_uris":{"android":"levelo://app?vid=489415b8-9254-45c1-b00c-e7554d56755c","ios":"levelo://app?vid=489415b8-9254-45c1-b00c-e7554d56755c"},"vehicle_type_id":"4","last_reported":1745842792,"current_range_meters":18000,"station_id":"","pricing_plan_id":"cebpf4jnsgd1na2vs0mg"},{"bike_id":"b4111744-6177-46a6-a592-6d5580111585","system_id":"levelo_inurba_marseille","lat":43.26063,"lon":5.39396,"is_reserved":false,"is_disabled":false,"rental_uris":{"android":"levelo://app?vid=b4111744-6177-46a6-a592-6d5580111585","ios":"levelo://app?vid=b4111744-6177-46a6-a592-6d5580111585"},"vehicle_type_id":"4","last_reported":1745842792,"current_range_meters":17600,"station_id":"ce4bhh92rcd13ifvqfj0","pricing_plan_id":"cebpf4jnsgd1na2vs0mg"},{"bike_id":"e479dd20-fb9a-4af0-9def-b194ec1dbe3b","system_id":"levelo_inurba_marseille","lat":43.296185,"lon":5.371665,"is_reserved":false,"is_disabled":false,"rental_uris":{"android":"levelo://app?vid=e479dd20-fb9a-4af0-9def-b194ec1dbe3b","ios":"levelo://app?vid=e479dd20-fb9a-4af0-9def-b194ec1dbe3b"},"vehicle_type_id":"4","last_reported":1745842792,"current_range_meters":18000,"station_id":"ce4bgnh2rcd13ifvqc0g","pricing_plan_id":"cebpf4jnsgd1na2vs0mg"},{"bike_id":"0328315d-8032-49d8-ac84-75c4624ed4f2","system_id":"levelo_inurba_marseille","lat":43.29174,"lon":5.37145,"is_reserved":false,"is_disabled":false,"rental_uris":{"android":"levelo://app?vid=0328315d-8032-49d8-ac84-75c4624ed4f2","ios":"levelo://app?vid=0328315d-8032-49d8-ac84-75c4624ed4f2"},"vehicle_type_id":"4","last_reported":1745842792,"current_range_meters":18000,"station_id":"ce4bha92rcd13ifvqeh0","pricing_plan_id":"cebpf4jnsgd1na2vs0mg"},{"bike_id":"dba69862-1791-420a-86d0-ac006b891eb2","system_id":"levelo_inurba_marseille","lat":43.295738,"lon":5.367352,"is_reserved":false,"is_disabled":false,"rental_uris":{"android":"levelo://app?vid=dba69862-1791-420a-86d0-ac006b891eb2","ios":"levelo://app?vid=dba69862-1791-420a-86d0-ac006b891eb2"},"vehicle_type_id":"4","last_reported":1745842792,"current_range_meters":18000,"station_id":"ce4bgph2rcd13ifvqc2g","pricing_plan_id":"cebpf4jnsgd1na2vs0mg"},{"bike_id":"1bd769a1-f6d1-4744-a831-7ff326253371","system_id":"levelo_inurba_marseille","lat":43.29037,"lon":5.37564,"is_reserved":false,"is_disabled":false,"rental_uris":{"android":"levelo://app?vid=1bd769a1-f6d1-4744-a831-7ff326253371","ios":"levelo://app?vid=1bd769a1-f6d1-4744-a831-7ff326253371"},"vehicle_type_id":"4","last_reported":1745842792,"current_range_meters":17600,"station_id":"ce4bh692rcd13ifvqe90","pricing_plan_id":"cebpf4jnsgd1na2vs0mg"},{"bike_id":"ae183d7e-6bd3-43db-9071-898b65213fc3","system_id":"levelo_inurba_marseille","lat":43.29391,"lon":5.37834,"is_reserved":false,"is_disabled":true,"rental_uris":{"android":"levelo://app?vid=ae183d7e-6bd3-43db-9071-898b65213fc3","ios":"levelo://app?vid=ae183d7e-6bd3-43db-9071-898b65213fc3"},"vehicle_type_id":"4","last_reported":1745842792,"current_range_meters":18000,"station_id":"ce4bgjh2rcd13ifvqbf0","pricing_plan_id":"cebpf4jnsgd1na2vs0mg"},{"bike_id":"800b85bf-1746-4c10-bbde-73148c4a262e","system_id":"levelo_inurba_marseille","lat":43.25715,"lon":5.41112,"is_reserved":false,"is_disabled":false,"rental_uris":{"android":"levelo://app?vid=800b85bf-1746-4c10-bbde-73148c4a262e","ios":"levelo://app?vid=800b85bf-1746-4c10-bbde-73148c4a262e"},"vehicle_type_id":"4","last_reported":1745842792,"current_range_meters":18000,"station_id":"ce4bhkp2rcd13ifvqgd0","pricing_plan_id":"cebpf4jnsgd1na2vs0mg"},{"bike_id":"e03aa7d0-45db-42e6-811a-92a069b87ce5","system_id":"levelo_inurba_marseille","lat":43.28264,"lon":5.35066,"is_reserved":false,"is_disabled":false,"rental_uris":{"android":"levelo://app?vid=e03aa7d0-45db-42e6-811a-92a069b87ce5","ios":"levelo://app?vid=e03aa7d0-45db-42e6-811a-92a069b87ce5"},"vehicle_type_id":"4","last_reported":1745842792,"current_range_meters":18000,"station_id":"ce4bhbp2rcd13ifvqerg","pricing_plan_id":"cebpf4jnsgd1na2vs0mg"},{"bike_id":"b79ad8b3-c47d-4ab9-bd7d-ce8dba96fd7a","system_id":"levelo_inurba_marseille","lat":43.23961,"lon":5.36633,"is_reserved":false,"is_disabled":false,"rental_uris":{"android":"levelo://app?vid=b79ad8b3-c47d-4ab9-bd7d-ce8dba96fd7a","ios":"levelo://app?vid=b79ad8b3-c47d-4ab9-bd7d-ce8dba96fd7a"},"vehicle_type_id":"4","last_reported":1745842792,"current_range_meters":18000,"station_id":"ce4bhi12rcd13ifvqfp0","pricing_plan_id":"cebpf4jnsgd1na2vs0mg"},{"bike_id":"af871265-528f-4ffb-ab2c-f5fdca4ecc8a","system_id":"levelo_inurba_marseille","lat":43.29303,"lon":5.37177,"is_reserved":false,"is_disabled":false,"rental_uris":{"android":"levelo://app?vid=af871265-528f-4ffb-ab2c-f5fdca4ecc8a","ios":"levelo://app?vid=af871265-528f-4ffb-ab2c-f5fdca4ecc8a"},"vehicle_type_id":"4","last_reported":1745842792,"current_range_meters":18000,"station_id":"ce4bgh92rcd13ifvqb40","pricing_plan_id":"cebpf4jnsgd1na2vs0mg"},{"bike_id":"23677c1d-ce39-4bfe-b783-5a3b2439f447","system_id":"levelo_inurba_marseille","lat":43.30539,"lon":5.36551,"is_reserved":false,"is_disabled":false,"rental_uris":{"android":"levelo://app?vid=23677c1d-ce39-4bfe-b783-5a3b2439f447","ios":"levelo://app?vid=23677c1d-ce39-4bfe-b783-5a3b2439f447"},"vehicle_type_id":"4","last_reported":1745842792,"current_range_meters":18800,"station_id":"ce4bgs12rcd13ifvqcag","pricing_plan_id":"cebpf4jnsgd1na2vs0mg"},{"bike_id":"e7d14f46-926b-4bfd-8ce6-cf6b70e58970","system_id":"levelo_inurba_marseille","lat":43.3026,"lon":5.40078,"is_reserved":false,"is_disabled":false,"rental_uris":{"android":"levelo://app?vid=e7d14f46-926b-4bfd-8ce6-cf6b70e58970","ios":"levelo://app?vid=e7d14f46-926b-4bfd-8ce6-cf6b70e58970"},"vehicle_type_id":"4","last_reported":1745842792,"current_range_meters":20000,"station_id":"ce4bgvh2rcd13ifvqcs0","pricing_plan_id":"cebpf4jnsgd1na2vs0mg"},{"bike_id":"d1f26c99-e1fe-4371-a436-715ad58592a1","system_id":"levelo_inurba_marseille","lat":43.30478,"lon":5.37901,"is_reserved":false,"is_disabled":false,"rental_uris":{"android":"levelo://app?vid=d1f26c99-e1fe-4371-a436-715ad58592a1","ios":"levelo://app?vid=d1f26c99-e1fe-4371-a436-715ad58592a1"},"vehicle_type_id":"4","last_reported":1745842792,"current_range_meters":19200,"station_id":"ce4bgup2rcd13ifvqcn0","pricing_plan_id":"cebpf4jnsgd1na2vs0mg"},{"bike_id":"e0b73d94-1427-4038-9d91-26bdf2f8f957","system_id":"levelo_inurba_marseille","lat":43.296192,"lon":5.371682,"is_reserved":false,"is_disabled":false,"rental_uris":{"android":"levelo://app?vid=e0b73d94-1427-4038-9d91-26bdf2f8f957","ios":"levelo://app?vid=e0b73d94-1427-4038-9d91-26bdf2f8f957"},"vehicle_type_id":"4","last_reported":1745842792,"current_range_meters":19200,"station_id":"ce4bgnh2rcd13ifvqc0g","pricing_plan_id":"cebpf4jnsgd1na2vs0mg"},{"bike_id":"a990f424-b727-4c59-a50a-2df309014924","system_id":"levelo_inurba_marseille","lat":43.32109,"lon":5.36775,"is_reserved":false,"is_disabled":false,"rental_uris":{"android":"levelo://app?vid=a990f424-b727-4c59-a50a-2df309014924","ios":"levelo://app?vid=a990f424-b727-4c59-a50a-2df309014924"},"vehicle_type_id":"4","last_reported":1745842792,"current_range_meters":19200,"station_id":"ce4bhrh2rcd13ifvqhug","pricing_plan_id":"cebpf4jnsgd1na2vs0mg"},{"bike_id":"7a606858-c276-4eeb-b2b1-6db27b5668c7","system_id":"levelo_inurba_marseille","lat":43.29259,"lon":5.37623,"is_reserved":false,"is_disabled":false,"rental_uris":{"android":"levelo://app?vid=7a606858-c276-4eeb-b2b1-6db27b5668c7","ios":"levelo://app?vid=7a606858-c276-4eeb-b2b1-6db27b5668c7"},"vehicle_type_id":"4","last_reported":1745842792,"current_range_meters":19600,"station_id":"ce4bgi12rcd13ifvqb80","pricing_plan_id":"cebpf4jnsgd1na2vs0mg"},{"bike_id":"c26fea33-9023-4156-8716-07f44ebece5c","system_id":"levelo_inurba_marseille","lat":43.29898,"lon":5.43666,"is_reserved":false,"is_disabled":false,"rental_uris":{"android":"levelo://app?vid=c26fea33-9023-4156-8716-07f44ebece5c","ios":"levelo://app?vid=c26fea33-9023-4156-8716-07f44ebece5c"},"vehicle_type_id":"4","last_reported":1745842792,"current_range_meters":19600,"station_id":"ce4bhpp2rcd13ifvqhfg","pricing_plan_id":"cebpf4jnsgd1na2vs0mg"},{"bike_id":"5b0b76de-1e70-419f-84f9-949cb416a7ff","system_id":"levelo_inurba_marseille","lat":43.29706,"lon":5.36604,"is_reserved":false,"is_disabled":false,"rental_uris":{"android":"levelo://app?vid=5b0b76de-1e70-419f-84f9-949cb416a7ff","ios":"levelo://app?vid=5b0b76de-1e70-419f-84f9-949cb416a7ff"},"vehicle_type_id":"4","last_reported":1745842792,"current_range_meters":19600,"station_id":"ce4bgn12rcd13ifvqbt0","pricing_plan_id":"cebpf4jnsgd1na2vs0mg"},{"bike_id":"22a650e2-af69-41e5-9501-328ced12ea90","system_id":"levelo_inurba_marseille","lat":43.27624,"lon":5.42217,"is_reserved":false,"is_disabled":false,"rental_uris":{"android":"levelo://app?vid=22a650e2-af69-41e5-9501-328ced12ea90","ios":"levelo://app?vid=22a650e2-af69-41e5-9501-328ced12ea90"},"vehicle_type_id":"4","last_reported":1745842792,"current_range_meters":19600,"station_id":"","pricing_plan_id":"cebpf4jnsgd1na2vs0mg"},{"bike_id":"139f5fa3-c85b-432b-8fcd-1f4295911ed7","system_id":"levelo_inurba_marseille","lat":43.24074,"lon":5.37762,"is_reserved":false,"is_disabled":false,"rental_uris":{"android":"levelo://app?vid=139f5fa3-c85b-432b-8fcd-1f4295911ed7","ios":"levelo://app?vid=139f5fa3-c85b-432b-8fcd-1f4295911ed7"},"vehicle_type_id":"4","last_reported":1745842792,"current_range_meters":19600,"station_id":"ce4bhnp2rcd13ifvqgvg","pricing_plan_id":"cebpf4jnsgd1na2vs0mg"},{"bike_id":"a56d1643-3541-4684-9fe9-f2df783fb0ee","system_id":"levelo_inurba_marseille","lat":43.28922,"lon":5.38399,"is_reserved":false,"is_disabled":false,"rental_uris":{"android":"levelo://app?vid=a56d1643-3541-4684-9fe9-f2df783fb0ee","ios":"levelo://app?vid=a56d1643-3541-4684-9fe9-f2df783fb0ee"},"vehicle_type_id":"4","last_reported":1745842792,"current_range_meters":19600,"station_id":"ce4bh612rcd13ifvqe6g","pricing_plan_id":"cebpf4jnsgd1na2vs0mg"},{"bike_id":"6494269d-8bd6-4f7f-99e3-4736b7262f3c","system_id":"levelo_inurba_marseille","lat":43.29916,"lon":5.37449,"is_reserved":false,"is_disabled":false,"rental_uris":{"android":"levelo://app?vid=6494269d-8bd6-4f7f-99e3-4736b7262f3c","ios":"levelo://app?vid=6494269d-8bd6-4f7f-99e3-4736b7262f3c"},"vehicle_type_id":"4","last_reported":1745842792,"current_range_meters":20000,"station_id":"ce4bgjh2rcd13ifvqbg0","pricing_plan_id":"cebpf4jnsgd1na2vs0mg"},{"bike_id":"bec2efc9-6128-40e6-ab69-bcc70a0e7cb1","system_id":"levelo_inurba_marseille","lat":43.30476,"lon":5.37905,"is_reserved":false,"is_disabled":false,"rental_uris":{"android":"levelo://app?vid=bec2efc9-6128-40e6-ab69-bcc70a0e7cb1","ios":"levelo://app?vid=bec2efc9-6128-40e6-ab69-bcc70a0e7cb1"},"vehicle_type_id":"4","last_reported":1745842792,"current_range_meters":20000,"station_id":"ce4bgup2rcd13ifvqcn0","pricing_plan_id":"cebpf4jnsgd1na2vs0mg"},{"bike_id":"c1691ddb-e581-4f44-82e5-e603a6e9d830","system_id":"levelo_inurba_marseille","lat":43.23148,"lon":5.437259,"is_reserved":false,"is_disabled":false,"rental_uris":{"android":"levelo://app?vid=c1691ddb-e581-4f44-82e5-e603a6e9d830","ios":"levelo://app?vid=c1691ddb-e581-4f44-82e5-e603a6e9d830"},"vehicle_type_id":"4","last_reported":1745842792,"current_range_meters":20000,"station_id":"ce4bhmp2rcd13ifvqgog","pricing_plan_id":"cebpf4jnsgd1na2vs0mg"},{"bike_id":"02ce4ffc-507f-4802-bc1b-a8e3a6bdc798","system_id":"levelo_inurba_marseille","lat":43.33597,"lon":5.41013,"is_reserved":false,"is_disabled":false,"rental_uris":{"android":"levelo://app?vid=02ce4ffc-507f-4802-bc1b-a8e3a6bdc798","ios":"levelo://app?vid=02ce4ffc-507f-4802-bc1b-a8e3a6bdc798"},"vehicle_type_id":"4","last_reported":1745842792,"current_range_meters":20000,"station_id":"ce4bhqh2rcd13ifvqhmg","pricing_plan_id":"cebpf4jnsgd1na2vs0mg"},{"bike_id":"d2d10d97-de08-40a4-a70b-570330c178b4","system_id":"levelo_inurba_marseille","lat":43.31225,"lon":5.36858,"is_reserved":false,"is_disabled":false,"rental_uris":{"android":"levelo://app?vid=d2d10d97-de08-40a4-a70b-570330c178b4","ios":"levelo://app?vid=d2d10d97-de08-40a4-a70b-570330c178b4"},"vehicle_type_id":"4","last_reported":1745842792,"current_range_meters":20000,"station_id":"ce4bgl92rcd13ifvqbq0","pricing_plan_id":"cebpf4jnsgd1na2vs0mg"},{"bike_id":"0486a02f-cbf1-495c-b3cc-03e6963f378f","system_id":"levelo_inurba_marseille","lat":43.303042,"lon":5.392109,"is_reserved":false,"is_disabled":false,"rental_uris":{"android":"levelo://app?vid=0486a02f-cbf1-495c-b3cc-03e6963f378f","ios":"levelo://app?vid=0486a02f-cbf1-495c-b3cc-03e6963f378f"},"vehicle_type_id":"4","last_reported":1745842792,"current_range_meters":20000,"station_id":"","pricing_plan_id":"cebpf4jnsgd1na2vs0mg"},{"bike_id":"f9bae932-6b3b-4f60-8710-d7633751c3dd","system_id":"levelo_inurba_marseille","lat":43.28437,"lon":5.39196,"is_reserved":false,"is_disabled":false,"rental_uris":{"android":"levelo://app?vid=f9bae932-6b3b-4f60-8710-d7633751c3dd","ios":"levelo://app?vid=f9bae932-6b3b-4f60-8710-d7633751c3dd"},"vehicle_type_id":"4","last_reported":1745842792,"current_range_meters":20000,"station_id":"ce4bhoh2rcd13ifvqh5g","pricing_plan_id":"cebpf4jnsgd1na2vs0mg"},{"bike_id":"28644bde-6651-4915-89b8-f10f2103487a","system_id":"levelo_inurba_marseille","lat":43.26589,"lon":5.39044,"is_reserved":false,"is_disabled":false,"rental_uris":{"android":"levelo://app?vid=28644bde-6651-4915-89b8-f10f2103487a","ios":"levelo://app?vid=28644bde-6651-4915-89b8-f10f2103487a"},"vehicle_type_id":"4","last_reported":1745842792,"current_range_meters":20400,"station_id":"ce4bhe12rcd13ifvqf30","pricing_plan_id":"cebpf4jnsgd1na2vs0mg"},{"bike_id":"4af51217-75a6-4c5f-a87f-075edc6510b0","system_id":"levelo_inurba_marseille","lat":43.24184,"lon":5.39704,"is_reserved":false,"is_disabled":false,"rental_uris":{"android":"levelo://app?vid=4af51217-75a6-4c5f-a87f-075edc6510b0","ios":"levelo://app?vid=4af51217-75a6-4c5f-a87f-075edc6510b0"},"vehicle_type_id":"4","last_reported":1745842792,"current_range_meters":20400,"station_id":"ce4bhn12rcd13ifvqgpg","pricing_plan_id":"cebpf4jnsgd1na2vs0mg"},{"bike_id":"0ad138ff-fa05-48e5-af5f-862fcf868671","system_id":"levelo_inurba_marseille","lat":43.23153,"lon":5.43708,"is_reserved":false,"is_disabled":false,"rental_uris":{"android":"levelo://app?vid=0ad138ff-fa05-48e5-af5f-862fcf868671","ios":"levelo://app?vid=0ad138ff-fa05-48e5-af5f-862fcf868671"},"vehicle_type_id":"4","last_reported":1745842792,"current_range_meters":20000,"station_id":"ce4bhmp2rcd13ifvqgog","pricing_plan_id":"cebpf4jnsgd1na2vs0mg"},{"bike_id":"16219226-9876-4ab6-8c0c-8046fc9cae28","system_id":"levelo_inurba_marseille","lat":43.29258,"lon":5.409,"is_reserved":false,"is_disabled":false,"rental_uris":{"android":"levelo://app?vid=16219226-9876-4ab6-8c0c-8046fc9cae28","ios":"levelo://app?vid=16219226-9876-4ab6-8c0c-8046fc9cae28"},"vehicle_type_id":"4","last_reported":1745842792,"current_range_meters":20400,"station_id":"ce4bh192rcd13ifvqdc0","pricing_plan_id":"cebpf4jnsgd1na2vs0mg"},{"bike_id":"f082baa5-6048-4cb9-940a-04a521153e08","system_id":"levelo_inurba_marseille","lat":43.296184,"lon":5.371615,"is_reserved":false,"is_disabled":false,"rental_uris":{"android":"levelo://app?vid=f082baa5-6048-4cb9-940a-04a521153e08","ios":"levelo://app?vid=f082baa5-6048-4cb9-940a-04a521153e08"},"vehicle_type_id":"4","last_reported":1745842792,"current_range_meters":20400,"station_id":"ce4bgnh2rcd13ifvqc0g","pricing_plan_id":"cebpf4jnsgd1na2vs0mg"},{"bike_id":"a33f8d98-814b-4bea-868c-6ab150f06d41","system_id":"levelo_inurba_marseille","lat":43.28924,"lon":5.38394,"is_reserved":false,"is_disabled":false,"rental_uris":{"android":"levelo://app?vid=a33f8d98-814b-4bea-868c-6ab150f06d41","ios":"levelo://app?vid=a33f8d98-814b-4bea-868c-6ab150f06d41"},"vehicle_type_id":"4","last_reported":1745842792,"current_range_meters":20000,"station_id":"ce4bh612rcd13ifvqe6g","pricing_plan_id":"cebpf4jnsgd1na2vs0mg"},{"bike_id":"55cd06cd-1594-4454-95b9-3314b9c3d467","system_id":"levelo_inurba_marseille","lat":43.25073,"lon":5.39527,"is_reserved":false,"is_disabled":false,"rental_uris":{"android":"levelo://app?vid=55cd06cd-1594-4454-95b9-3314b9c3d467","ios":"levelo://app?vid=55cd06cd-1594-4454-95b9-3314b9c3d467"},"vehicle_type_id":"4","last_reported":1745842792,"current_range_meters":20400,"station_id":"ce4bhm12rcd13ifvqgkg","pricing_plan_id":"cebpf4jnsgd1na2vs0mg"},{"bike_id":"f4312d7b-1e4d-44d7-9311-b804dbe9ec43","system_id":"levelo_inurba_marseille","lat":43.30917,"lon":5.36839,"is_reserved":false,"is_disabled":false,"rental_uris":{"android":"levelo://app?vid=f4312d7b-1e4d-44d7-9311-b804dbe9ec43","ios":"levelo://app?vid=f4312d7b-1e4d-44d7-9311-b804dbe9ec43"},"vehicle_type_id":"4","last_reported":1745842792,"current_range_meters":20400,"station_id":"ce4bgn92rcd13ifvqbvg","pricing_plan_id":"cebpf4jnsgd1na2vs0mg"},{"bike_id":"d86124e4-0d1f-44b0-a729-8adb106f68a7","system_id":"levelo_inurba_marseille","lat":43.30148,"lon":5.38074,"is_reserved":false,"is_disabled":false,"rental_uris":{"android":"levelo://app?vid=d86124e4-0d1f-44b0-a729-8adb106f68a7","ios":"levelo://app?vid=d86124e4-0d1f-44b0-a729-8adb106f68a7"},"vehicle_type_id":"4","last_reported":1745842792,"current_range_meters":21600,"station_id":"ce4bgjp2rcd13ifvqbh0","pricing_plan_id":"cebpf4jnsgd1na2vs0mg"},{"bike_id":"12166b79-af98-465e-a8eb-04caf85cd99c","system_id":"levelo_inurba_marseille","lat":43.24071,"lon":5.37762,"is_reserved":false,"is_disabled":false,"rental_uris":{"android":"levelo://app?vid=12166b79-af98-465e-a8eb-04caf85cd99c","ios":"levelo://app?vid=12166b79-af98-465e-a8eb-04caf85cd99c"},"vehicle_type_id":"4","last_reported":1745842792,"current_range_meters":20800,"station_id":"ce4bhnp2rcd13ifvqgvg","pricing_plan_id":"cebpf4jnsgd1na2vs0mg"},{"bike_id":"fe91386c-5c8b-4e97-8441-1312e6455598","system_id":"levelo_inurba_marseille","lat":43.27363,"lon":5.36244,"is_reserved":false,"is_disabled":false,"rental_uris":{"android":"levelo://app?vid=fe91386c-5c8b-4e97-8441-1312e6455598","ios":"levelo://app?vid=fe91386c-5c8b-4e97-8441-1312e6455598"},"vehicle_type_id":"4","last_reported":1745842792,"current_range_meters":20800,"station_id":"ce4bhbh2rcd13ifvqeo0","pricing_plan_id":"cebpf4jnsgd1na2vs0mg"},{"bike_id":"3a6c6b67-d104-4d25-bb63-15d080e60614","system_id":"levelo_inurba_marseille","lat":43.27621,"lon":5.36107,"is_reserved":false,"is_disabled":false,"rental_uris":{"android":"levelo://app?vid=3a6c6b67-d104-4d25-bb63-15d080e60614","ios":"levelo://app?vid=3a6c6b67-d104-4d25-bb63-15d080e60614"},"vehicle_type_id":"4","last_reported":1745842792,"current_range_meters":20400,"station_id":"ce4bgj92rcd13ifvqbe0","pricing_plan_id":"cebpf4jnsgd1na2vs0mg"},{"bike_id":"310bb477-a970-4673-afeb-91763474ba72","system_id":"levelo_inurba_marseille","lat":43.30914,"lon":5.3686,"is_reserved":false,"is_disabled":false,"rental_uris":{"android":"levelo://app?vid=310bb477-a970-4673-afeb-91763474ba72","ios":"levelo://app?vid=310bb477-a970-4673-afeb-91763474ba72"},"vehicle_type_id":"4","last_reported":1745842792,"current_range_meters":20800,"station_id":"ce4bgn92rcd13ifvqbvg","pricing_plan_id":"cebpf4jnsgd1na2vs0mg"},{"bike_id":"71ab20ca-2db7-4f71-82af-a4ffd5d3023e","system_id":"levelo_inurba_marseille","lat":43.27496,"lon":5.42448,"is_reserved":false,"is_disabled":false,"rental_uris":{"android":"levelo://app?vid=71ab20ca-2db7-4f71-82af-a4ffd5d3023e","ios":"levelo://app?vid=71ab20ca-2db7-4f71-82af-a4ffd5d3023e"},"vehicle_type_id":"4","last_reported":1745842792,"current_range_meters":16800,"station_id":"ce4bhn92rcd13ifvqgrg","pricing_plan_id":"cebpf4jnsgd1na2vs0mg"},{"bike_id":"6753eecb-7d97-4416-a820-c42c9398c3ce","system_id":"levelo_inurba_marseille","lat":43.33604,"lon":5.41018,"is_reserved":false,"is_disabled":false,"rental_uris":{"android":"levelo://app?vid=6753eecb-7d97-4416-a820-c42c9398c3ce","ios":"levelo://app?vid=6753eecb-7d97-4416-a820-c42c9398c3ce"},"vehicle_type_id":"4","last_reported":1745842792,"current_range_meters":21600,"station_id":"ce4bhqh2rcd13ifvqhmg","pricing_plan_id":"cebpf4jnsgd1na2vs0mg"},{"bike_id":"dd17d987-7785-4776-9918-cdbbf2012f94","system_id":"levelo_inurba_marseille","lat":43.29414,"lon":5.38625,"is_reserved":false,"is_disabled":false,"rental_uris":{"android":"levelo://app?vid=dd17d987-7785-4776-9918-cdbbf2012f94","ios":"levelo://app?vid=dd17d987-7785-4776-9918-cdbbf2012f94"},"vehicle_type_id":"4","last_reported":1745842792,"current_range_meters":21600,"station_id":"ce4bh2h2rcd13ifvqdh0","pricing_plan_id":"cebpf4jnsgd1na2vs0mg"},{"bike_id":"9048a988-1cb8-4aa3-ab23-aeb571c1efe3","system_id":"levelo_inurba_marseille","lat":43.24162,"lon":5.36406,"is_reserved":false,"is_disabled":false,"rental_uris":{"android":"levelo://app?vid=9048a988-1cb8-4aa3-ab23-aeb571c1efe3","ios":"levelo://app?vid=9048a988-1cb8-4aa3-ab23-aeb571c1efe3"},"vehicle_type_id":"4","last_reported":1745842792,"current_range_meters":21600,"station_id":"cpo36qri1sfpv3e86is0","pricing_plan_id":"cebpf4jnsgd1na2vs0mg"},{"bike_id":"1bb6a772-b962-46f5-b940-406259485f3d","system_id":"levelo_inurba_marseille","lat":43.29843,"lon":5.36266,"is_reserved":false,"is_disabled":false,"rental_uris":{"android":"levelo://app?vid=1bb6a772-b962-46f5-b940-406259485f3d","ios":"levelo://app?vid=1bb6a772-b962-46f5-b940-406259485f3d"},"vehicle_type_id":"4","last_reported":1745842792,"current_range_meters":20800,"station_id":"ce4bgpp2rcd13ifvqc3g","pricing_plan_id":"cebpf4jnsgd1na2vs0mg"},{"bike_id":"614acf72-bf4e-446f-b324-8fb5cce61214","system_id":"levelo_inurba_marseille","lat":43.25927,"lon":5.40883,"is_reserved":false,"is_disabled":false,"rental_uris":{"android":"levelo://app?vid=614acf72-bf4e-446f-b324-8fb5cce61214","ios":"levelo://app?vid=614acf72-bf4e-446f-b324-8fb5cce61214"},"vehicle_type_id":"4","last_reported":1745842792,"current_range_meters":22000,"station_id":"ce4bhm92rcd13ifvqglg","pricing_plan_id":"cebpf4jnsgd1na2vs0mg"},{"bike_id":"c73a6032-03f1-4682-aea8-70c82cf3d7a5","system_id":"levelo_inurba_marseille","lat":43.31687,"lon":5.40476,"is_reserved":false,"is_disabled":false,"rental_uris":{"android":"levelo://app?vid=c73a6032-03f1-4682-aea8-70c82cf3d7a5","ios":"levelo://app?vid=c73a6032-03f1-4682-aea8-70c82cf3d7a5"},"vehicle_type_id":"4","last_reported":1745842792,"current_range_meters":22000,"station_id":"ce4bh012rcd13ifvqd00","pricing_plan_id":"cebpf4jnsgd1na2vs0mg"},{"bike_id":"9b475ce7-490b-4df2-ab6e-abd675737091","system_id":"levelo_inurba_marseille","lat":43.29023,"lon":5.38643,"is_reserved":false,"is_disabled":false,"rental_uris":{"android":"levelo://app?vid=9b475ce7-490b-4df2-ab6e-abd675737091","ios":"levelo://app?vid=9b475ce7-490b-4df2-ab6e-abd675737091"},"vehicle_type_id":"4","last_reported":1745842792,"current_range_meters":22000,"station_id":"ce4bh4p2rcd13ifvqe0g","pricing_plan_id":"cebpf4jnsgd1na2vs0mg"},{"bike_id":"34ec6b58-0891-403f-90b9-0fb10fa4147b","system_id":"levelo_inurba_marseille","lat":43.26197,"lon":5.37932,"is_reserved":false,"is_disabled":false,"rental_uris":{"android":"levelo://app?vid=34ec6b58-0891-403f-90b9-0fb10fa4147b","ios":"levelo://app?vid=34ec6b58-0891-403f-90b9-0fb10fa4147b"},"vehicle_type_id":"4","last_reported":1745842792,"current_range_meters":22000,"station_id":"ce4bhjp2rcd13ifvqg90","pricing_plan_id":"cebpf4jnsgd1na2vs0mg"},{"bike_id":"16bc8ca3-1032-4d9c-9029-a17037e2d378","system_id":"levelo_inurba_marseille","lat":43.29634,"lon":5.37147,"is_reserved":false,"is_disabled":false,"rental_uris":{"android":"levelo://app?vid=16bc8ca3-1032-4d9c-9029-a17037e2d378","ios":"levelo://app?vid=16bc8ca3-1032-4d9c-9029-a17037e2d378"},"vehicle_type_id":"4","last_reported":1745842792,"current_range_meters":22000,"station_id":"ce4bgnh2rcd13ifvqc0g","pricing_plan_id":"cebpf4jnsgd1na2vs0mg"},{"bike_id":"901a1ca6-8edd-43aa-bf82-3e2de5eb34bd","system_id":"levelo_inurba_marseille","lat":43.30076,"lon":5.38604,"is_reserved":false,"is_disabled":true,"rental_uris":{"android":"levelo://app?vid=901a1ca6-8edd-43aa-bf82-3e2de5eb34bd","ios":"levelo://app?vid=901a1ca6-8edd-43aa-bf82-3e2de5eb34bd"},"vehicle_type_id":"4","last_reported":1745842792,"current_range_meters":22400,"station_id":"","pricing_plan_id":"cebpf4jnsgd1na2vs0mg"},{"bike_id":"40a6ef5e-8d13-4ef4-bc31-5def185fa671","system_id":"levelo_inurba_marseille","lat":43.30922,"lon":5.36861,"is_reserved":false,"is_disabled":false,"rental_uris":{"android":"levelo://app?vid=40a6ef5e-8d13-4ef4-bc31-5def185fa671","ios":"levelo://app?vid=40a6ef5e-8d13-4ef4-bc31-5def185fa671"},"vehicle_type_id":"4","last_reported":1745842792,"current_range_meters":22400,"station_id":"ce4bgn92rcd13ifvqbvg","pricing_plan_id":"cebpf4jnsgd1na2vs0mg"},{"bike_id":"5c18185d-8c7f-4d19-b7c7-cbb2435da47a","system_id":"levelo_inurba_marseille","lat":43.30596,"lon":5.39346,"is_reserved":false,"is_disabled":false,"rental_uris":{"android":"levelo://app?vid=5c18185d-8c7f-4d19-b7c7-cbb2435da47a","ios":"levelo://app?vid=5c18185d-8c7f-4d19-b7c7-cbb2435da47a"},"vehicle_type_id":"4","last_reported":1745842792,"current_range_meters":22400,"station_id":"ce4bh0p2rcd13ifvqd80","pricing_plan_id":"cebpf4jnsgd1na2vs0mg"},{"bike_id":"37496267-858c-49c2-83bb-8b5c69b72306","system_id":"levelo_inurba_marseille","lat":43.29175,"lon":5.37158,"is_reserved":false,"is_disabled":false,"rental_uris":{"android":"levelo://app?vid=37496267-858c-49c2-83bb-8b5c69b72306","ios":"levelo://app?vid=37496267-858c-49c2-83bb-8b5c69b72306"},"vehicle_type_id":"4","last_reported":1745842792,"current_range_meters":22400,"station_id":"ce4bha92rcd13ifvqeh0","pricing_plan_id":"cebpf4jnsgd1na2vs0mg"},{"bike_id":"0ebc0a8b-2cbb-47e4-aa55-2b756edf80f3","system_id":"levelo_inurba_marseille","lat":43.29037,"lon":5.37571,"is_reserved":false,"is_disabled":false,"rental_uris":{"android":"levelo://app?vid=0ebc0a8b-2cbb-47e4-aa55-2b756edf80f3","ios":"levelo://app?vid=0ebc0a8b-2cbb-47e4-aa55-2b756edf80f3"},"vehicle_type_id":"4","last_reported":1745842792,"current_range_meters":22400,"station_id":"ce4bh692rcd13ifvqe90","pricing_plan_id":"cebpf4jnsgd1na2vs0mg"},{"bike_id":"36f2821b-35d0-4c25-860d-5b8184dc64d3","system_id":"levelo_inurba_marseille","lat":43.29985,"lon":5.37187,"is_reserved":false,"is_disabled":false,"rental_uris":{"android":"levelo://app?vid=36f2821b-35d0-4c25-860d-5b8184dc64d3","ios":"levelo://app?vid=36f2821b-35d0-4c25-860d-5b8184dc64d3"},"vehicle_type_id":"4","last_reported":1745842792,"current_range_meters":22800,"station_id":"ce4bgr92rcd13ifvqc7g","pricing_plan_id":"cebpf4jnsgd1na2vs0mg"},{"bike_id":"2407d6f2-666d-4493-a19d-a30650054fb4","system_id":"levelo_inurba_marseille","lat":43.32558,"lon":5.41461,"is_reserved":false,"is_disabled":false,"rental_uris":{"android":"levelo://app?vid=2407d6f2-666d-4493-a19d-a30650054fb4","ios":"levelo://app?vid=2407d6f2-666d-4493-a19d-a30650054fb4"},"vehicle_type_id":"4","last_reported":1745842792,"current_range_meters":22800,"station_id":"ce4bhq12rcd13ifvqhhg","pricing_plan_id":"cebpf4jnsgd1na2vs0mg"},{"bike_id":"dbe66656-8f56-4679-a544-788f7991d131","system_id":"levelo_inurba_marseille","lat":43.29279,"lon":5.3685,"is_reserved":false,"is_disabled":false,"rental_uris":{"android":"levelo://app?vid=dbe66656-8f56-4679-a544-788f7991d131","ios":"levelo://app?vid=dbe66656-8f56-4679-a544-788f7991d131"},"vehicle_type_id":"4","last_reported":1745842792,"current_range_meters":22800,"station_id":"ce4bhbp2rcd13ifvqesg","pricing_plan_id":"cebpf4jnsgd1na2vs0mg"},{"bike_id":"baa5dcfb-69cc-4429-8b5a-1af60ad64019","system_id":"levelo_inurba_marseille","lat":43.28266,"lon":5.35062,"is_reserved":false,"is_disabled":false,"rental_uris":{"android":"levelo://app?vid=baa5dcfb-69cc-4429-8b5a-1af60ad64019","ios":"levelo://app?vid=baa5dcfb-69cc-4429-8b5a-1af60ad64019"},"vehicle_type_id":"4","last_reported":1745842792,"current_range_meters":22400,"station_id":"ce4bhbp2rcd13ifvqerg","pricing_plan_id":"cebpf4jnsgd1na2vs0mg"},{"bike_id":"64b0b85e-e248-47d1-83c3-1e2e43175edb","system_id":"levelo_inurba_marseille","lat":43.24059,"lon":5.37758,"is_reserved":false,"is_disabled":false,"rental_uris":{"android":"levelo://app?vid=64b0b85e-e248-47d1-83c3-1e2e43175edb","ios":"levelo://app?vid=64b0b85e-e248-47d1-83c3-1e2e43175edb"},"vehicle_type_id":"4","last_reported":1745842792,"current_range_meters":22800,"station_id":"ce4bhnp2rcd13ifvqgvg","pricing_plan_id":"cebpf4jnsgd1na2vs0mg"},{"bike_id":"3bb09355-468f-4737-98a0-4954ce957138","system_id":"levelo_inurba_marseille","lat":43.30543,"lon":5.3655,"is_reserved":false,"is_disabled":false,"rental_uris":{"android":"levelo://app?vid=3bb09355-468f-4737-98a0-4954ce957138","ios":"levelo://app?vid=3bb09355-468f-4737-98a0-4954ce957138"},"vehicle_type_id":"4","last_reported":1745842792,"current_range_meters":22800,"station_id":"ce4bgs12rcd13ifvqcag","pricing_plan_id":"cebpf4jnsgd1na2vs0mg"},{"bike_id":"f024310e-91c7-4e56-97a4-069e18947f40","system_id":"levelo_inurba_marseille","lat":43.31341,"lon":5.36709,"is_reserved":false,"is_disabled":false,"rental_uris":{"android":"levelo://app?vid=f024310e-91c7-4e56-97a4-069e18947f40","ios":"levelo://app?vid=f024310e-91c7-4e56-97a4-069e18947f40"},"vehicle_type_id":"4","last_reported":1745842792,"current_range_meters":22800,"station_id":"ce4bgr92rcd13ifvqc6g","pricing_plan_id":"cebpf4jnsgd1na2vs0mg"},{"bike_id":"b02df811-55e3-42e8-b0d7-37141a012db4","system_id":"levelo_inurba_marseille","lat":43.27936,"lon":5.41042,"is_reserved":false,"is_disabled":false,"rental_uris":{"android":"levelo://app?vid=b02df811-55e3-42e8-b0d7-37141a012db4","ios":"levelo://app?vid=b02df811-55e3-42e8-b0d7-37141a012db4"},"vehicle_type_id":"4","last_reported":1745842792,"current_range_meters":22800,"station_id":"ce4bhnp2rcd13ifvqh0g","pricing_plan_id":"cebpf4jnsgd1na2vs0mg"},{"bike_id":"b32566f0-dd77-4c42-b2d6-32412030238b","system_id":"levelo_inurba_marseille","lat":43.305511,"lon":5.365546,"is_reserved":false,"is_disabled":false,"rental_uris":{"android":"levelo://app?vid=b32566f0-dd77-4c42-b2d6-32412030238b","ios":"levelo://app?vid=b32566f0-dd77-4c42-b2d6-32412030238b"},"vehicle_type_id":"4","last_reported":1745842792,"current_range_meters":22800,"station_id":"ce4bgs12rcd13ifvqcag","pricing_plan_id":"cebpf4jnsgd1na2vs0mg"},{"bike_id":"d1b569fd-28a4-4014-a471-3c05e3a403a3","system_id":"levelo_inurba_marseille","lat":43.28614,"lon":5.37048,"is_reserved":false,"is_disabled":false,"rental_uris":{"android":"levelo://app?vid=d1b569fd-28a4-4014-a471-3c05e3a403a3","ios":"levelo://app?vid=d1b569fd-28a4-4014-a471-3c05e3a403a3"},"vehicle_type_id":"4","last_reported":1745842792,"current_range_meters":23200,"station_id":"ce4bht12rcd13ifvqi60","pricing_plan_id":"cebpf4jnsgd1na2vs0mg"},{"bike_id":"be53975d-c2a0-4e41-b5eb-c7b3aed0b16e","system_id":"levelo_inurba_marseille","lat":43.23145,"lon":5.43708,"is_reserved":false,"is_disabled":false,"rental_uris":{"android":"levelo://app?vid=be53975d-c2a0-4e41-b5eb-c7b3aed0b16e","ios":"levelo://app?vid=be53975d-c2a0-4e41-b5eb-c7b3aed0b16e"},"vehicle_type_id":"4","last_reported":1745842792,"current_range_meters":22800,"station_id":"ce4bhmp2rcd13ifvqgog","pricing_plan_id":"cebpf4jnsgd1na2vs0mg"},{"bike_id":"7cac85ab-5336-4ecb-a87b-28248930414b","system_id":"levelo_inurba_marseille","lat":43.2315,"lon":5.43696,"is_reserved":false,"is_disabled":false,"rental_uris":{"android":"levelo://app?vid=7cac85ab-5336-4ecb-a87b-28248930414b","ios":"levelo://app?vid=7cac85ab-5336-4ecb-a87b-28248930414b"},"vehicle_type_id":"4","last_reported":1745842792,"current_range_meters":23200,"station_id":"ce4bhmp2rcd13ifvqgog","pricing_plan_id":"cebpf4jnsgd1na2vs0mg"},{"bike_id":"0b6d2cfe-73e8-4373-97db-d9ec7a421efa","system_id":"levelo_inurba_marseille","lat":43.27421,"lon":5.39425,"is_reserved":false,"is_disabled":false,"rental_uris":{"android":"levelo://app?vid=0b6d2cfe-73e8-4373-97db-d9ec7a421efa","ios":"levelo://app?vid=0b6d2cfe-73e8-4373-97db-d9ec7a421efa"},"vehicle_type_id":"4","last_reported":1745842792,"current_range_meters":22400,"station_id":"ce4bhdp2rcd13ifvqf20","pricing_plan_id":"cebpf4jnsgd1na2vs0mg"},{"bike_id":"4f1cacea-7642-4db4-9dd5-e9e07d1fa168","system_id":"levelo_inurba_marseille","lat":43.28941,"lon":5.39619,"is_reserved":false,"is_disabled":false,"rental_uris":{"android":"levelo://app?vid=4f1cacea-7642-4db4-9dd5-e9e07d1fa168","ios":"levelo://app?vid=4f1cacea-7642-4db4-9dd5-e9e07d1fa168"},"vehicle_type_id":"4","last_reported":1745842792,"current_range_meters":23200,"station_id":"ce4bh3h2rcd13ifvqdn0","pricing_plan_id":"cebpf4jnsgd1na2vs0mg"},{"bike_id":"86116135-a5a5-4b0e-b398-9021ab7fa3aa","system_id":"levelo_inurba_marseille","lat":43.32413,"lon":5.36521,"is_reserved":false,"is_disabled":false,"rental_uris":{"android":"levelo://app?vid=86116135-a5a5-4b0e-b398-9021ab7fa3aa","ios":"levelo://app?vid=86116135-a5a5-4b0e-b398-9021ab7fa3aa"},"vehicle_type_id":"4","last_reported":1745842792,"current_range_meters":23200,"station_id":"","pricing_plan_id":"cebpf4jnsgd1na2vs0mg"},{"bike_id":"fce2c520-92d3-4d18-810b-8d643fc15a1a","system_id":"levelo_inurba_marseille","lat":43.23063,"lon":5.3549,"is_reserved":false,"is_disabled":false,"rental_uris":{"android":"levelo://app?vid=fce2c520-92d3-4d18-810b-8d643fc15a1a","ios":"levelo://app?vid=fce2c520-92d3-4d18-810b-8d643fc15a1a"},"vehicle_type_id":"4","last_reported":1745842792,"current_range_meters":23200,"station_id":"cpo3342slgdg3j2ifvpg","pricing_plan_id":"cebpf4jnsgd1na2vs0mg"},{"bike_id":"075eb742-e51b-4f19-8c99-612a54076c3e","system_id":"levelo_inurba_marseille","lat":43.23066,"lon":5.3549,"is_reserved":false,"is_disabled":false,"rental_uris":{"android":"levelo://app?vid=075eb742-e51b-4f19-8c99-612a54076c3e","ios":"levelo://app?vid=075eb742-e51b-4f19-8c99-612a54076c3e"},"vehicle_type_id":"4","last_reported":1745842792,"current_range_meters":23200,"station_id":"cpo3342slgdg3j2ifvpg","pricing_plan_id":"cebpf4jnsgd1na2vs0mg"},{"bike_id":"035cdc5a-c646-4c28-82dc-a8991c21d159","system_id":"levelo_inurba_marseille","lat":43.31468,"lon":5.37295,"is_reserved":false,"is_disabled":false,"rental_uris":{"android":"levelo://app?vid=035cdc5a-c646-4c28-82dc-a8991c21d159","ios":"levelo://app?vid=035cdc5a-c646-4c28-82dc-a8991c21d159"},"vehicle_type_id":"4","last_reported":1745842792,"current_range_meters":23200,"station_id":"ce4bgt12rcd13ifvqcd0","pricing_plan_id":"cebpf4jnsgd1na2vs0mg"},{"bike_id":"14156387-e351-49be-91dd-330aae2604d0","system_id":"levelo_inurba_marseille","lat":43.21751,"lon":5.34614,"is_reserved":false,"is_disabled":false,"rental_uris":{"android":"levelo://app?vid=14156387-e351-49be-91dd-330aae2604d0","ios":"levelo://app?vid=14156387-e351-49be-91dd-330aae2604d0"},"vehicle_type_id":"4","last_reported":1745842792,"current_range_meters":23200,"station_id":"st_cvj6r9ubvosntc0bgbag","pricing_plan_id":"cebpf4jnsgd1na2vs0mg"},{"bike_id":"537381da-ce11-4bd0-ac92-c70c6230f520","system_id":"levelo_inurba_marseille","lat":43.2781,"lon":5.40712,"is_reserved":false,"is_disabled":false,"rental_uris":{"android":"levelo://app?vid=537381da-ce11-4bd0-ac92-c70c6230f520","ios":"levelo://app?vid=537381da-ce11-4bd0-ac92-c70c6230f520"},"vehicle_type_id":"4","last_reported":1745842792,"current_range_meters":23200,"station_id":"ce4bhnh2rcd13ifvqgtg","pricing_plan_id":"cebpf4jnsgd1na2vs0mg"},{"bike_id":"7005a286-f19c-488b-863b-7c7a0b07fa75","system_id":"levelo_inurba_marseille","lat":43.30951,"lon":5.39039,"is_reserved":false,"is_disabled":false,"rental_uris":{"android":"levelo://app?vid=7005a286-f19c-488b-863b-7c7a0b07fa75","ios":"levelo://app?vid=7005a286-f19c-488b-863b-7c7a0b07fa75"},"vehicle_type_id":"4","last_reported":1745842792,"current_range_meters":20800,"station_id":"ce4bgup2rcd13ifvqco0","pricing_plan_id":"cebpf4jnsgd1na2vs0mg"},{"bike_id":"940b7320-b328-4afe-85a6-d4d069ced16a","system_id":"levelo_inurba_marseille","lat":43.30926,"lon":5.4014,"is_reserved":false,"is_disabled":true,"rental_uris":{"android":"levelo://app?vid=940b7320-b328-4afe-85a6-d4d069ced16a","ios":"levelo://app?vid=940b7320-b328-4afe-85a6-d4d069ced16a"},"vehicle_type_id":"4","last_reported":1745842792,"current_range_meters":24000,"station_id":"ce4bgvp2rcd13ifvqct0","pricing_plan_id":"cebpf4jnsgd1na2vs0mg"},{"bike_id":"c5ec2f16-a0cf-4cce-978b-c5061c81c44a","system_id":"levelo_inurba_marseille","lat":43.22664,"lon":5.348,"is_reserved":false,"is_disabled":false,"rental_uris":{"android":"levelo://app?vid=c5ec2f16-a0cf-4cce-978b-c5061c81c44a","ios":"levelo://app?vid=c5ec2f16-a0cf-4cce-978b-c5061c81c44a"},