{"last_updated":1746216691,"ttl":60,"version":"2.2","data":{"bikes":[{"bike_id":"6d739957-9c7e-482c-9e83-b18cffea4a7b","system_id":"levelo_inurba_marseille","lat":43.30381,"lon":5.41268,"is_reserved":false,"is_disabled":true,"rental_uris":{"android":"levelo://app?vid=6d739957-9c7e-482c-9e83-b18cffea4a7b","ios":"levelo://app?vid=6d739957-9c7e-482c-9e83-b18cffea4a7b"},"vehicle_type_id":"4","last_reported":1746216691,"current_range_meters":2800,"station_id":"ce4bhop2rcd13ifvqh8g","pricing_plan_id":"cebpf4jnsgd1na2vs0mg"},{"bike_id":"2d87f24b-bb92-4f5a-9c64-611905425c8d","system_id":"levelo_inurba_marseille","lat":43.23667,"lon":5.39143,"is_reserved":false,"is_disabled":false,"rental_uris":{"android":"levelo://app?vid=2d87f24b-bb92-4f5a-9c64-611905425c8d","ios":"levelo://app?vid=2d87f24b-bb92-4f5a-9c64-611905425c8d"},"vehicle_type_id":"4","last_reported":1746216691,"current_range_meters":2800,"station_id":"","pricing_plan_id":"cebpf4jnsgd1na2vs0mg"},{"bike_id":"6acf47d4-0a86-4b53-97b4-1bb8347f7f2b","system_id":"levelo_inurba_marseille","lat":43.264905,"lon":5.395445,"is_reserved":false,"is_disabled":true,"rental_uris":{"android":"levelo://app?vid=6acf47d4-0a86-4b53-97b4-1bb8347f7f2b","ios":"levelo://app?vid=6acf47d4-0a86-4b53-97b4-1bb8347f7f2b"},"vehicle_type_id":"4","last_reported":1746216691,"current_range_meters":3200,"station_id":"ce4bhi12rcd13ifvqfq0","pricing_plan_id":"cebpf4jnsgd1na2vs0mg"},{"bike_id":"3e00e8b2-ce59-49f3-9f59-f23eaa05ee1b","system_id":"levelo_inurba_marseille","lat":43.23963,"lon":5.36625,"is_reserved":false,"is_disabled":true,"rental_uris":{"android":"levelo://app?vid=3e00e8b2-ce59-49f3-9f59-f23eaa05ee1b","ios":"levelo://app?vid=3e00e8b2-ce59-49f3-9f59-f23eaa05ee1b"},"vehicle_type_id":"4","last_reported":1746216691,"current_range_meters":3200,"station_id":"ce4bhi12rcd13ifvqfp0","pricing_plan_id":"cebpf4jnsgd1na2vs0mg"},{"bike_id":"23792a52-a609-4f4a-99c6-2d148c6f6619","system_id":"levelo_inurba_marseille","lat":43.3043,"lon":5.38902,"is_reserved":false,"is_disabled":false,"rental_uris":{"android":"levelo://app?vid=23792a52-a609-4f4a-99c6-2d148c6f6619","ios":"levelo://app?vid=23792a52-a609-4f4a-99c6-2d148c6f6619"},"vehicle_type_id":"4","last_reported":1746216691,"current_range_meters":4000,"station_id":"ce4bgk12rcd13ifvqbi0","pricing_plan_id":"cebpf4jnsgd1na2vs0mg"},{"bike_id":"489be0ce-1d86-48f7-821e-777261b20d6f","system_id":"levelo_inurba_marseille","lat":43.26755,"lon":5.39428,"is_reserved":false,"is_disabled":true,"rental_uris":{"android":"levelo://app?vid=489be0ce-1d86-48f7-821e-777261b20d6f","ios":"levelo://app?vid=489be0ce-1d86-48f7-821e-777261b20d6f"},"vehicle_type_id":"4","last_reported":1746216691,"current_range_meters":4000,"station_id":"","pricing_plan_id":"cebpf4jnsgd1na2vs0mg"},{"bike_id":"cd3bd710-8799-400f-a8e3-07ddaa38c7d5","system_id":"levelo_inurba_marseille","lat":43.248083,"lon":5.37464,"is_reserved":false,"is_disabled":false,"rental_uris":{"android":"levelo://app?vid=cd3bd710-8799-400f-a8e3-07ddaa38c7d5","ios":"levelo://app?vid=cd3bd710-8799-400f-a8e3-07ddaa38c7d5"},"vehicle_type_id":"4","last_reported":1746216691,"current_range_meters":4000,"station_id":"ce4bhgh2rcd13ifvqfb0","pricing_plan_id":"cebpf4jnsgd1na2vs0mg"},{"bike_id":"06095532-b2b4-43eb-a94f-b0a288af9a00","system_id":"levelo_inurba_marseille","lat":43.24647,"lon":5.38892,"is_reserved":false,"is_disabled":false,"rental_uris":{"android":"levelo://app?vid=06095532-b2b4-43eb-a94f-b0a288af9a00","ios":"levelo://app?vid=06095532-b2b4-43eb-a94f-b0a288af9a00"},"vehicle_type_id":"4","last_reported":1746216691,"current_range_meters":4400,"station_id":"ce4bhg12rcd13ifvqf60","pricing_plan_id":"cebpf4jnsgd1na2vs0mg"},{"bike_id":"38058a79-3786-43ab-b43a-9966965d0e33","system_id":"levelo_inurba_marseille","lat":43.32106,"lon":5.36769,"is_reserved":false,"is_disabled":false,"rental_uris":{"android":"levelo://app?vid=38058a79-3786-43ab-b43a-9966965d0e33","ios":"levelo://app?vid=38058a79-3786-43ab-b43a-9966965d0e33"},"vehicle_type_id":"4","last_reported":1746216691,"current_range_meters":4400,"station_id":"ce4bhrh2rcd13ifvqhug","pricing_plan_id":"cebpf4jnsgd1na2vs0mg"},{"bike_id":"21b9e4bd-a3f5-4bcc-9f57-c352caf6731c","system_id":"levelo_inurba_marseille","lat":43.25097,"lon":5.39508,"is_reserved":false,"is_disabled":false,"rental_uris":{"android":"levelo://app?vid=21b9e4bd-a3f5-4bcc-9f57-c352caf6731c","ios":"levelo://app?vid=21b9e4bd-a3f5-4bcc-9f57-c352caf6731c"},"vehicle_type_id":"4","last_reported":1746216691,"current_range_meters":4800,"station_id":"ce4bhm12rcd13ifvqgkg","pricing_plan_id":"cebpf4jnsgd1na2vs0mg"},{"bike_id":"51ef9827-05d4-4f72-abc3-c6fec8c5a095","system_id":"levelo_inurba_marseille","lat":43.23134,"lon":5.4369,"is_reserved":false,"is_disabled":false,"rental_uris":{"android":"levelo://app?vid=51ef9827-05d4-4f72-abc3-c6fec8c5a095","ios":"levelo://app?vid=51ef9827-05d4-4f72-abc3-c6fec8c5a095"},"vehicle_type_id":"4","last_reported":1746216691,"current_range_meters":4800,"station_id":"ce4bhmp2rcd13ifvqgog","pricing_plan_id":"cebpf4jnsgd1na2vs0mg"},{"bike_id":"93d3e6af-ecb5-40af-9e45-9b8f322909ab","system_id":"levelo_inurba_marseille","lat":43.26489,"lon":5.39541,"is_reserved":false,"is_disabled":false,"rental_uris":{"android":"levelo://app?vid=93d3e6af-ecb5-40af-9e45-9b8f322909ab","ios":"levelo://app?vid=93d3e6af-ecb5-40af-9e45-9b8f322909ab"},"vehicle_type_id":"4","last_reported":1746216691,"current_range_meters":4800,"station_id":"ce4bhi12rcd13ifvqfq0","pricing_plan_id":"cebpf4jnsgd1na2vs0mg"},{"bike_id":"39fb05fe-e3be-4147-a9f3-c02a474160a2","system_id":"levelo_inurba_marseille","lat":43.24167,"lon":5.36414,"is_reserved":false,"is_disabled":true,"rental_uris":{"android":"levelo://app?vid=39fb05fe-e3be-4147-a9f3-c02a474160a2","ios":"levelo://app?vid=39fb05fe-e3be-4147-a9f3-c02a474160a2"},"vehicle_type_id":"4","last_reported":1746216691,"current_range_meters":4800,"station_id":"cpo36qri1sfpv3e86is0","pricing_plan_id":"cebpf4jnsgd1na2vs0mg"},{"bike_id":"18992423-beb3-4dd6-bbeb-f8535ecd6d41","system_id":"levelo_inurba_marseille","lat":43.29007,"lon":5.35608,"is_reserved":false,"is_disabled":false,"rental_uris":{"android":"levelo://app?vid=18992423-beb3-4dd6-bbeb-f8535ecd6d41","ios":"levelo://app?vid=18992423-beb3-4dd6-bbeb-f8535ecd6d41"},"vehicle_type_id":"4","last_reported":1746216691,"current_range_meters":5600,"station_id":"ce4bhb92rcd13ifvqen0","pricing_plan_id":"cebpf4jnsgd1na2vs0mg"},{"bike_id":"04b9db21-58b9-4279-b2a8-9517feea6159","system_id":"levelo_inurba_marseille","lat":43.27497,"lon":5.42451,"is_reserved":false,"is_disabled":false,"rental_uris":{"android":"levelo://app?vid=04b9db21-58b9-4279-b2a8-9517feea6159","ios":"levelo://app?vid=04b9db21-58b9-4279-b2a8-9517feea6159"},"vehicle_type_id":"4","last_reported":1746216691,"current_range_meters":5600,"station_id":"ce4bhn92rcd13ifvqgrg","pricing_plan_id":"cebpf4jnsgd1na2vs0mg"},{"bike_id":"546b47a9-36fb-4d2b-990c-950f98d916c5","system_id":"levelo_inurba_marseille","lat":43.26569,"lon":5.39032,"is_reserved":false,"is_disabled":false,"rental_uris":{"android":"levelo://app?vid=546b47a9-36fb-4d2b-990c-950f98d916c5","ios":"levelo://app?vid=546b47a9-36fb-4d2b-990c-950f98d916c5"},"vehicle_type_id":"4","last_reported":1746216691,"current_range_meters":5600,"station_id":"ce4bhe12rcd13ifvqf30","pricing_plan_id":"cebpf4jnsgd1na2vs0mg"},{"bike_id":"67d088b7-ce4c-43a7-adca-a86b93274dee","system_id":"levelo_inurba_marseille","lat":43.30803,"lon":5.4352,"is_reserved":false,"is_disabled":false,"rental_uris":{"android":"levelo://app?vid=67d088b7-ce4c-43a7-adca-a86b93274dee","ios":"levelo://app?vid=67d088b7-ce4c-43a7-adca-a86b93274dee"},"vehicle_type_id":"4","last_reported":1746216691,"current_range_meters":6000,"station_id":"ce4bhph2rcd13ifvqheg","pricing_plan_id":"cebpf4jnsgd1na2vs0mg"},{"bike_id":"3f468965-3635-47f7-bdaf-8282d59f1d1c","system_id":"levelo_inurba_marseille","lat":43.28105,"lon":5.37845,"is_reserved":false,"is_disabled":false,"rental_uris":{"android":"levelo://app?vid=3f468965-3635-47f7-bdaf-8282d59f1d1c","ios":"levelo://app?vid=3f468965-3635-47f7-bdaf-8282d59f1d1c"},"vehicle_type_id":"4","last_reported":1746216691,"current_range_meters":6400,"station_id":"ce4bha12rcd13ifvqee0","pricing_plan_id":"cebpf4jnsgd1na2vs0mg"},{"bike_id":"09f78ddc-9ad8-40aa-abde-8c032b983444","system_id":"levelo_inurba_marseille","lat":43.30804,"lon":5.43523,"is_reserved":false,"is_disabled":false,"rental_uris":{"android":"levelo://app?vid=09f78ddc-9ad8-40aa-abde-8c032b983444","ios":"levelo://app?vid=09f78ddc-9ad8-40aa-abde-8c032b983444"},"vehicle_type_id":"4","last_reported":1746216691,"current_range_meters":6400,"station_id":"ce4bhph2rcd13ifvqheg","pricing_plan_id":"cebpf4jnsgd1na2vs0mg"},{"bike_id":"441a6121-3953-47f7-b53e-8c3c1a1c32de","system_id":"levelo_inurba_marseille","lat":43.30355,"lon":5.41883,"is_reserved":false,"is_disabled":false,"rental_uris":{"android":"levelo://app?vid=441a6121-3953-47f7-b53e-8c3c1a1c32de","ios":"levelo://app?vid=441a6121-3953-47f7-b53e-8c3c1a1c32de"},"vehicle_type_id":"4","last_reported":1746216691,"current_range_meters":6400,"station_id":"ce4bhop2rcd13ifvqh7g","pricing_plan_id":"cebpf4jnsgd1na2vs0mg"},{"bike_id":"c0ffcb14-a852-4d94-9c71-749df554d2c9","system_id":"levelo_inurba_marseille","lat":43.30739,"lon":5.42436,"is_reserved":false,"is_disabled":false,"rental_uris":{"android":"levelo://app?vid=c0ffcb14-a852-4d94-9c71-749df554d2c9","ios":"levelo://app?vid=c0ffcb14-a852-4d94-9c71-749df554d2c9"},"vehicle_type_id":"4","last_reported":1746216691,"current_range_meters":6400,"station_id":"st_cvj6ca6bvosntc0bfgr0","pricing_plan_id":"cebpf4jnsgd1na2vs0mg"},{"bike_id":"2b3b7afa-599e-4e5e-8cc5-a655ec73fb9f","system_id":"levelo_inurba_marseille","lat":43.29791,"lon":5.39346,"is_reserved":false,"is_disabled":false,"rental_uris":{"android":"levelo://app?vid=2b3b7afa-599e-4e5e-8cc5-a655ec73fb9f","ios":"levelo://app?vid=2b3b7afa-599e-4e5e-8cc5-a655ec73fb9f"},"vehicle_type_id":"4","last_reported":1746216691,"current_range_meters":6400,"station_id":"chh1huq6cuj3fo74tm60","pricing_plan_id":"cebpf4jnsgd1na2vs0mg"},{"bike_id":"f73daf93-45c7-48c0-a61a-2d28ac89db8d","system_id":"levelo_inurba_marseille","lat":43.33948,"lon":5.42031,"is_reserved":false,"is_disabled":false,"rental_uris":{"android":"levelo://app?vid=f73daf93-45c7-48c0-a61a-2d28ac89db8d","ios":"levelo://app?vid=f73daf93-45c7-48c0-a61a-2d28ac89db8d"},"vehicle_type_id":"4","last_reported":1746216691,"current_range_meters":6800,"station_id":"","pricing_plan_id":"cebpf4jnsgd1na2vs0mg"},{"bike_id":"66adbd77-2de7-44b6-a76b-616e3783a171","system_id":"levelo_inurba_marseille","lat":43.27812,"lon":5.40705,"is_reserved":false,"is_disabled":false,"rental_uris":{"android":"levelo://app?vid=66adbd77-2de7-44b6-a76b-616e3783a171","ios":"levelo://app?vid=66adbd77-2de7-44b6-a76b-616e3783a171"},"vehicle_type_id":"4","last_reported":1746216691,"current_range_meters":6800,"station_id":"ce4bhnh2rcd13ifvqgtg","pricing_plan_id":"cebpf4jnsgd1na2vs0mg"},{"bike_id":"70e6f3a4-7d37-437c-8c68-e7e17a940af8","system_id":"levelo_inurba_marseille","lat":43.311005,"lon":5.377293,"is_reserved":false,"is_disabled":false,"rental_uris":{"android":"levelo://app?vid=70e6f3a4-7d37-437c-8c68-e7e17a940af8","ios":"levelo://app?vid=70e6f3a4-7d37-437c-8c68-e7e17a940af8"},"vehicle_type_id":"4","last_reported":1746216691,"current_range_meters":7200,"station_id":"ce4bgt92rcd13ifvqcg0","pricing_plan_id":"cebpf4jnsgd1na2vs0mg"},{"bike_id":"20a580d2-9b22-4ae9-a5dc-8717f71d1cbb","system_id":"levelo_inurba_marseille","lat":43.29258,"lon":5.38452,"is_reserved":false,"is_disabled":false,"rental_uris":{"android":"levelo://app?vid=20a580d2-9b22-4ae9-a5dc-8717f71d1cbb","ios":"levelo://app?vid=20a580d2-9b22-4ae9-a5dc-8717f71d1cbb"},"vehicle_type_id":"4","last_reported":1746216691,"current_range_meters":7200,"station_id":"ce4bh692rcd13ifvqea0","pricing_plan_id":"cebpf4jnsgd1na2vs0mg"},{"bike_id":"c47682b6-4522-450e-b4ee-a0d25257262a","system_id":"levelo_inurba_marseille","lat":43.32125,"lon":5.36762,"is_reserved":false,"is_disabled":false,"rental_uris":{"android":"levelo://app?vid=c47682b6-4522-450e-b4ee-a0d25257262a","ios":"levelo://app?vid=c47682b6-4522-450e-b4ee-a0d25257262a"},"vehicle_type_id":"4","last_reported":1746216691,"current_range_meters":7200,"station_id":"ce4bhrh2rcd13ifvqhug","pricing_plan_id":"cebpf4jnsgd1na2vs0mg"},{"bike_id":"7971fe93-5f1d-4a59-8508-b415e64fcb18","system_id":"levelo_inurba_marseille","lat":43.30967,"lon":5.37357,"is_reserved":false,"is_disabled":false,"rental_uris":{"android":"levelo://app?vid=7971fe93-5f1d-4a59-8508-b415e64fcb18","ios":"levelo://app?vid=7971fe93-5f1d-4a59-8508-b415e64fcb18"},"vehicle_type_id":"4","last_reported":1746216691,"current_range_meters":7200,"station_id":"","pricing_plan_id":"cebpf4jnsgd1na2vs0mg"},{"bike_id":"3f0d6c90-476d-4163-b047-10d0a5832853","system_id":"levelo_inurba_marseille","lat":43.278411,"lon":5.392199,"is_reserved":false,"is_disabled":false,"rental_uris":{"android":"levelo://app?vid=3f0d6c90-476d-4163-b047-10d0a5832853","ios":"levelo://app?vid=3f0d6c90-476d-4163-b047-10d0a5832853"},"vehicle_type_id":"4","last_reported":1746216691,"current_range_meters":7200,"station_id":"ce4bhjp2rcd13ifvqga0","pricing_plan_id":"cebpf4jnsgd1na2vs0mg"},{"bike_id":"f742e6ea-0b2d-4518-a093-0137b4027d1b","system_id":"levelo_inurba_marseille","lat":43.31181,"lon":5.38718,"is_reserved":false,"is_disabled":false,"rental_uris":{"android":"levelo://app?vid=f742e6ea-0b2d-4518-a093-0137b4027d1b","ios":"levelo://app?vid=f742e6ea-0b2d-4518-a093-0137b4027d1b"},"vehicle_type_id":"4","last_reported":1746216691,"current_range_meters":8000,"station_id":"ce4bgv12rcd13ifvqcp0","pricing_plan_id":"cebpf4jnsgd1na2vs0mg"},{"bike_id":"0d6c5100-7db5-44d0-b9d6-cf2b96014798","system_id":"levelo_inurba_marseille","lat":43.310056,"lon":5.374902,"is_reserved":false,"is_disabled":false,"rental_uris":{"android":"levelo://app?vid=0d6c5100-7db5-44d0-b9d6-cf2b96014798","ios":"levelo://app?vid=0d6c5100-7db5-44d0-b9d6-cf2b96014798"},"vehicle_type_id":"4","last_reported":1746216691,"current_range_meters":8000,"station_id":"","pricing_plan_id":"cebpf4jnsgd1na2vs0mg"},{"bike_id":"4a6851f9-34fb-48f6-8387-4b9c13325bed","system_id":"levelo_inurba_marseille","lat":43.32124,"lon":5.36806,"is_reserved":false,"is_disabled":false,"rental_uris":{"android":"levelo://app?vid=4a6851f9-34fb-48f6-8387-4b9c13325bed","ios":"levelo://app?vid=4a6851f9-34fb-48f6-8387-4b9c13325bed"},"vehicle_type_id":"4","last_reported":1746216691,"current_range_meters":8000,"station_id":"ce4bhrh2rcd13ifvqhug","pricing_plan_id":"cebpf4jnsgd1na2vs0mg"},{"bike_id":"ffaef5be-7d3e-42ac-8e0a-8dcd177dc194","system_id":"levelo_inurba_marseille","lat":43.29224,"lon":5.36068,"is_reserved":false,"is_disabled":false,"rental_uris":{"android":"levelo://app?vid=ffaef5be-7d3e-42ac-8e0a-8dcd177dc194","ios":"levelo://app?vid=ffaef5be-7d3e-42ac-8e0a-8dcd177dc194"},"vehicle_type_id":"4","last_reported":1746216691,"current_range_meters":8000,"station_id":"ce4bhbh2rcd13ifvqeqg","pricing_plan_id":"cebpf4jnsgd1na2vs0mg"},{"bike_id":"2be6c5ac-db75-4c9d-95c6-9c66882f14b8","system_id":"levelo_inurba_marseille","lat":43.27904,"lon":5.36302,"is_reserved":false,"is_disabled":false,"rental_uris":{"android":"levelo://app?vid=2be6c5ac-db75-4c9d-95c6-9c66882f14b8","ios":"levelo://app?vid=2be6c5ac-db75-4c9d-95c6-9c66882f14b8"},"vehicle_type_id":"4","last_reported":1746216691,"current_range_meters":8000,"station_id":"","pricing_plan_id":"cebpf4jnsgd1na2vs0mg"},{"bike_id":"ba1291bf-568d-477b-8e17-c284858000b8","system_id":"levelo_inurba_marseille","lat":43.33788,"lon":5.37451,"is_reserved":false,"is_disabled":false,"rental_uris":{"android":"levelo://app?vid=ba1291bf-568d-477b-8e17-c284858000b8","ios":"levelo://app?vid=ba1291bf-568d-477b-8e17-c284858000b8"},"vehicle_type_id":"4","last_reported":1746216691,"current_range_meters":8000,"station_id":"","pricing_plan_id":"cebpf4jnsgd1na2vs0mg"},{"bike_id":"12607ea4-d1f1-4145-a1d0-210e5c319cb8","system_id":"levelo_inurba_marseille","lat":43.25834,"lon":5.39449,"is_reserved":false,"is_disabled":false,"rental_uris":{"android":"levelo://app?vid=12607ea4-d1f1-4145-a1d0-210e5c319cb8","ios":"levelo://app?vid=12607ea4-d1f1-4145-a1d0-210e5c319cb8"},"vehicle_type_id":"4","last_reported":1746216691,"current_range_meters":8000,"station_id":"ce4bhip2rcd13ifvqft0","pricing_plan_id":"cebpf4jnsgd1na2vs0mg"},{"bike_id":"02d0bc8c-e756-4ce9-903c-d6c6e41b006c","system_id":"levelo_inurba_marseille","lat":43.307913,"lon":5.43529,"is_reserved":false,"is_disabled":false,"rental_uris":{"android":"levelo://app?vid=02d0bc8c-e756-4ce9-903c-d6c6e41b006c","ios":"levelo://app?vid=02d0bc8c-e756-4ce9-903c-d6c6e41b006c"},"vehicle_type_id":"4","last_reported":1746216691,"current_range_meters":8000,"station_id":"ce4bhph2rcd13ifvqheg","pricing_plan_id":"cebpf4jnsgd1na2vs0mg"},{"bike_id":"2b0b5f39-db55-4ec9-b807-272c5ffb0d46","system_id":"levelo_inurba_marseille","lat":43.31117,"lon":5.37765,"is_reserved":false,"is_disabled":false,"rental_uris":{"android":"levelo://app?vid=2b0b5f39-db55-4ec9-b807-272c5ffb0d46","ios":"levelo://app?vid=2b0b5f39-db55-4ec9-b807-272c5ffb0d46"},"vehicle_type_id":"4","last_reported":1746216691,"current_range_meters":8000,"station_id":"ce4bgt92rcd13ifvqcg0","pricing_plan_id":"cebpf4jnsgd1na2vs0mg"},{"bike_id":"77362644-cffa-4e1c-a39f-2397b918353a","system_id":"levelo_inurba_marseille","lat":43.30265,"lon":5.40074,"is_reserved":false,"is_disabled":false,"rental_uris":{"android":"levelo://app?vid=77362644-cffa-4e1c-a39f-2397b918353a","ios":"levelo://app?vid=77362644-cffa-4e1c-a39f-2397b918353a"},"vehicle_type_id":"4","last_reported":1746216691,"current_range_meters":8000,"station_id":"ce4bgvh2rcd13ifvqcs0","pricing_plan_id":"cebpf4jnsgd1na2vs0mg"},{"bike_id":"a9ea11fa-cb63-4daf-a224-a3d8eb66c115","system_id":"levelo_inurba_marseille","lat":43.295551,"lon":5.422864,"is_reserved":false,"is_disabled":false,"rental_uris":{"android":"levelo://app?vid=a9ea11fa-cb63-4daf-a224-a3d8eb66c115","ios":"levelo://app?vid=a9ea11fa-cb63-4daf-a224-a3d8eb66c115"},"vehicle_type_id":"4","last_reported":1746216691,"current_range_meters":8000,"station_id":"ce4bhph2rcd13ifvqhdg","pricing_plan_id":"cebpf4jnsgd1na2vs0mg"},{"bike_id":"73289123-e907-48db-87f0-d39762eb8c3a","system_id":"levelo_inurba_marseille","lat":43.28676,"lon":5.38654,"is_reserved":false,"is_disabled":false,"rental_uris":{"android":"levelo://app?vid=73289123-e907-48db-87f0-d39762eb8c3a","ios":"levelo://app?vid=73289123-e907-48db-87f0-d39762eb8c3a"},"vehicle_type_id":"4","last_reported":1746216691,"current_range_meters":8400,"station_id":"ce4bh492rcd13ifvqdug","pricing_plan_id":"cebpf4jnsgd1na2vs0mg"},{"bike_id":"345eff35-9353-49a0-8fab-f7b584bad7d0","system_id":"levelo_inurba_marseille","lat":43.26935,"lon":5.40197,"is_reserved":false,"is_disabled":false,"rental_uris":{"android":"levelo://app?vid=345eff35-9353-49a0-8fab-f7b584bad7d0","ios":"levelo://app?vid=345eff35-9353-49a0-8fab-f7b584bad7d0"},"vehicle_type_id":"4","last_reported":1746216691,"current_range_meters":8400,"station_id":"cjm6bp8fraef2m0cb0m0","pricing_plan_id":"cebpf4jnsgd1na2vs0mg"},{"bike_id":"81e80a60-feb5-4268-9314-c65f9c70c462","system_id":"levelo_inurba_marseille","lat":43.29027,"lon":5.38643,"is_reserved":false,"is_disabled":true,"rental_uris":{"android":"levelo://app?vid=81e80a60-feb5-4268-9314-c65f9c70c462","ios":"levelo://app?vid=81e80a60-feb5-4268-9314-c65f9c70c462"},"vehicle_type_id":"4","last_reported":1746216691,"current_range_meters":5600,"station_id":"ce4bh4p2rcd13ifvqe0g","pricing_plan_id":"cebpf4jnsgd1na2vs0mg"},{"bike_id":"9a6e0384-4e87-40c9-88ea-ddade03372a5","system_id":"levelo_inurba_marseille","lat":43.31119,"lon":5.37768,"is_reserved":false,"is_disabled":false,"rental_uris":{"android":"levelo://app?vid=9a6e0384-4e87-40c9-88ea-ddade03372a5","ios":"levelo://app?vid=9a6e0384-4e87-40c9-88ea-ddade03372a5"},"vehicle_type_id":"4","last_reported":1746216691,"current_range_meters":8400,"station_id":"ce4bgt92rcd13ifvqcg0","pricing_plan_id":"cebpf4jnsgd1na2vs0mg"},{"bike_id":"98edc23d-b8b5-4438-bc4e-1ff0235368ad","system_id":"levelo_inurba_marseille","lat":43.25,"lon":5.38932,"is_reserved":false,"is_disabled":false,"rental_uris":{"android":"levelo://app?vid=98edc23d-b8b5-4438-bc4e-1ff0235368ad","ios":"levelo://app?vid=98edc23d-b8b5-4438-bc4e-1ff0235368ad"},"vehicle_type_id":"4","last_reported":1746216691,"current_range_meters":8400,"station_id":"ce4bhgp2rcd13ifvqfd0","pricing_plan_id":"cebpf4jnsgd1na2vs0mg"},{"bike_id":"774fe30e-a97c-4ce4-9270-cbe93e96b2ce","system_id":"levelo_inurba_marseille","lat":43.26233,"lon":5.40449,"is_reserved":false,"is_disabled":false,"rental_uris":{"android":"levelo://app?vid=774fe30e-a97c-4ce4-9270-cbe93e96b2ce","ios":"levelo://app?vid=774fe30e-a97c-4ce4-9270-cbe93e96b2ce"},"vehicle_type_id":"4","last_reported":1746216691,"current_range_meters":8400,"station_id":"ce4bhmh2rcd13ifvqgmg","pricing_plan_id":"cebpf4jnsgd1na2vs0mg"},{"bike_id":"6892dacf-7fbf-4f02-8e7d-a7e9c376bae0","system_id":"levelo_inurba_marseille","lat":43.29565,"lon":5.4229,"is_reserved":false,"is_disabled":false,"rental_uris":{"android":"levelo://app?vid=6892dacf-7fbf-4f02-8e7d-a7e9c376bae0","ios":"levelo://app?vid=6892dacf-7fbf-4f02-8e7d-a7e9c376bae0"},"vehicle_type_id":"4","last_reported":1746216691,"current_range_meters":8800,"station_id":"ce4bhph2rcd13ifvqhdg","pricing_plan_id":"cebpf4jnsgd1na2vs0mg"},{"bike_id":"a39ec3ec-6d96-486a-b85e-80c7427a41eb","system_id":"levelo_inurba_marseille","lat":43.29558,"lon":5.42294,"is_reserved":false,"is_disabled":false,"rental_uris":{"android":"levelo://app?vid=a39ec3ec-6d96-486a-b85e-80c7427a41eb","ios":"levelo://app?vid=a39ec3ec-6d96-486a-b85e-80c7427a41eb"},"vehicle_type_id":"4","last_reported":1746216691,"current_range_meters":8800,"station_id":"ce4bhph2rcd13ifvqhdg","pricing_plan_id":"cebpf4jnsgd1na2vs0mg"},{"bike_id":"37300d66-daea-42ef-a953-49d9c7344a82","system_id":"levelo_inurba_marseille","lat":43.294181,"lon":5.386258,"is_reserved":false,"is_disabled":false,"rental_uris":{"android":"levelo://app?vid=37300d66-daea-42ef-a953-49d9c7344a82","ios":"levelo://app?vid=37300d66-daea-42ef-a953-49d9c7344a82"},"vehicle_type_id":"4","last_reported":1746216691,"current_range_meters":8400,"station_id":"ce4bh2h2rcd13ifvqdh0","pricing_plan_id":"cebpf4jnsgd1na2vs0mg"},{"bike_id":"fca5acbf-9a58-4c19-907b-7bd8f60beb5f","system_id":"levelo_inurba_marseille","lat":43.32102,"lon":5.36777,"is_reserved":false,"is_disabled":false,"rental_uris":{"android":"levelo://app?vid=fca5acbf-9a58-4c19-907b-7bd8f60beb5f","ios":"levelo://app?vid=fca5acbf-9a58-4c19-907b-7bd8f60beb5f"},"vehicle_type_id":"4","last_reported":1746216691,"current_range_meters":8800,"station_id":"ce4bhrh2rcd13ifvqhug","pricing_plan_id":"cebpf4jnsgd1na2vs0mg"},{"bike_id":"ea87f9fb-27de-433e-a835-e761c5db65bc","system_id":"levelo_inurba_marseille","lat":43.27072,"lon":5.42278,"is_reserved":false,"is_disabled":false,"rental_uris":{"android":"levelo://app?vid=ea87f9fb-27de-433e-a835-e761c5db65bc","ios":"levelo://app?vid=ea87f9fb-27de-433e-a835-e761c5db65bc"},"vehicle_type_id":"4","last_reported":1746216691,"current_range_meters":8800,"station_id":"ce4bhk92rcd13ifvqgb0","pricing_plan_id":"cebpf4jnsgd1na2vs0mg"},{"bike_id":"a17bc77c-9891-4abb-b13f-68d37aebf103","system_id":"levelo_inurba_marseille","lat":43.2903,"lon":5.38142,"is_reserved":false,"is_disabled":true,"rental_uris":{"android":"levelo://app?vid=a17bc77c-9891-4abb-b13f-68d37aebf103","ios":"levelo://app?vid=a17bc77c-9891-4abb-b13f-68d37aebf103"},"vehicle_type_id":"4","last_reported":1746216691,"current_range_meters":9200,"station_id":"ce4bh4p2rcd13ifvqe1g","pricing_plan_id":"cebpf4jnsgd1na2vs0mg"},{"bike_id":"4362d908-b606-4a37-899d-65587e78da6b","system_id":"levelo_inurba_marseille","lat":43.2693,"lon":5.40252,"is_reserved":false,"is_disabled":false,"rental_uris":{"android":"levelo://app?vid=4362d908-b606-4a37-899d-65587e78da6b","ios":"levelo://app?vid=4362d908-b606-4a37-899d-65587e78da6b"},"vehicle_type_id":"4","last_reported":1746216691,"current_range_meters":9200,"station_id":"cjm6bp8fraef2m0cb0m0","pricing_plan_id":"cebpf4jnsgd1na2vs0mg"},{"bike_id":"ad7b9ae4-9983-42fc-8cdc-30d005232021","system_id":"levelo_inurba_marseille","lat":43.24672,"lon":5.38145,"is_reserved":false,"is_disabled":false,"rental_uris":{"android":"levelo://app?vid=ad7b9ae4-9983-42fc-8cdc-30d005232021","ios":"levelo://app?vid=ad7b9ae4-9983-42fc-8cdc-30d005232021"},"vehicle_type_id":"4","last_reported":1746216691,"current_range_meters":9200,"station_id":"ce4bhih2rcd13ifvqfr0","pricing_plan_id":"cebpf4jnsgd1na2vs0mg"},{"bike_id":"29a83445-0753-40f4-8ed7-c02207f310e3","system_id":"levelo_inurba_marseille","lat":43.28327,"lon":5.38546,"is_reserved":false,"is_disabled":false,"rental_uris":{"android":"levelo://app?vid=29a83445-0753-40f4-8ed7-c02207f310e3","ios":"levelo://app?vid=29a83445-0753-40f4-8ed7-c02207f310e3"},"vehicle_type_id":"4","last_reported":1746216691,"current_range_meters":9200,"station_id":"","pricing_plan_id":"cebpf4jnsgd1na2vs0mg"},{"bike_id":"a68f2dde-2184-4ea1-a4e3-d539bf941ca1","system_id":"levelo_inurba_marseille","lat":43.29968,"lon":5.38508,"is_reserved":false,"is_disabled":false,"rental_uris":{"android":"levelo://app?vid=a68f2dde-2184-4ea1-a4e3-d539bf941ca1","ios":"levelo://app?vid=a68f2dde-2184-4ea1-a4e3-d539bf941ca1"},"vehicle_type_id":"4","last_reported":1746216691,"current_range_meters":9200,"station_id":"ce4bgj92rcd13ifvqbd0","pricing_plan_id":"cebpf4jnsgd1na2vs0mg"},{"bike_id":"1600c9da-b908-4757-bbb0-3f5bc73d8729","system_id":"levelo_inurba_marseille","lat":43.28622,"lon":5.37062,"is_reserved":false,"is_disabled":false,"rental_uris":{"android":"levelo://app?vid=1600c9da-b908-4757-bbb0-3f5bc73d8729","ios":"levelo://app?vid=1600c9da-b908-4757-bbb0-3f5bc73d8729"},"vehicle_type_id":"4","last_reported":1746216691,"current_range_meters":9200,"station_id":"ce4bht12rcd13ifvqi60","pricing_plan_id":"cebpf4jnsgd1na2vs0mg"},{"bike_id":"d60e6c02-ffba-4dbb-a8f1-b9cc149807d4","system_id":"levelo_inurba_marseille","lat":43.31753,"lon":5.39031,"is_reserved":false,"is_disabled":true,"rental_uris":{"android":"levelo://app?vid=d60e6c02-ffba-4dbb-a8f1-b9cc149807d4","ios":"levelo://app?vid=d60e6c02-ffba-4dbb-a8f1-b9cc149807d4"},"vehicle_type_id":"4","last_reported":1746216691,"current_range_meters":9200,"station_id":"ce4bhqp2rcd13ifvqhng","pricing_plan_id":"cebpf4jnsgd1na2vs0mg"},{"bike_id":"89077f1d-eed4-44ec-9fa9-24c5d263665a","system_id":"levelo_inurba_marseille","lat":43.30408,"lon":5.41276,"is_reserved":false,"is_disabled":false,"rental_uris":{"android":"levelo://app?vid=89077f1d-eed4-44ec-9fa9-24c5d263665a","ios":"levelo://app?vid=89077f1d-eed4-44ec-9fa9-24c5d263665a"},"vehicle_type_id":"4","last_reported":1746216691,"current_range_meters":9200,"station_id":"ce4bhop2rcd13ifvqh8g","pricing_plan_id":"cebpf4jnsgd1na2vs0mg"},{"bike_id":"ea6d9172-e87a-4135-9208-7967ef4b7422","system_id":"levelo_inurba_marseille","lat":43.27498,"lon":5.42453,"is_reserved":false,"is_disabled":false,"rental_uris":{"android":"levelo://app?vid=ea6d9172-e87a-4135-9208-7967ef4b7422","ios":"levelo://app?vid=ea6d9172-e87a-4135-9208-7967ef4b7422"},"vehicle_type_id":"4","last_reported":1746216691,"current_range_meters":9200,"station_id":"ce4bhn92rcd13ifvqgrg","pricing_plan_id":"cebpf4jnsgd1na2vs0mg"},{"bike_id":"0174a141-e111-49c0-b280-bdc0e65bf254","system_id":"levelo_inurba_marseille","lat":43.330536,"lon":5.390537,"is_reserved":false,"is_disabled":false,"rental_uris":{"android":"levelo://app?vid=0174a141-e111-49c0-b280-bdc0e65bf254","ios":"levelo://app?vid=0174a141-e111-49c0-b280-bdc0e65bf254"},"vehicle_type_id":"4","last_reported":1746216691,"current_range_meters":9200,"station_id":"ce4bhr92rcd13ifvqhrg","pricing_plan_id":"cebpf4jnsgd1na2vs0mg"},{"bike_id":"20e2b374-8a99-4a64-95fc-7d21b3342c9e","system_id":"levelo_inurba_marseille","lat":43.29267,"lon":5.38428,"is_reserved":false,"is_disabled":false,"rental_uris":{"android":"levelo://app?vid=20e2b374-8a99-4a64-95fc-7d21b3342c9e","ios":"levelo://app?vid=20e2b374-8a99-4a64-95fc-7d21b3342c9e"},"vehicle_type_id":"4","last_reported":1746216691,"current_range_meters":9200,"station_id":"ce4bh692rcd13ifvqea0","pricing_plan_id":"cebpf4jnsgd1na2vs0mg"},{"bike_id":"51b4126b-7948-446a-a667-4dd7fb6ee111","system_id":"levelo_inurba_marseille","lat":43.31743,"lon":5.39041,"is_reserved":false,"is_disabled":false,"rental_uris":{"android":"levelo://app?vid=51b4126b-7948-446a-a667-4dd7fb6ee111","ios":"levelo://app?vid=51b4126b-7948-446a-a667-4dd7fb6ee111"},"vehicle_type_id":"4","last_reported":1746216691,"current_range_meters":9600,"station_id":"ce4bhqp2rcd13ifvqhng","pricing_plan_id":"cebpf4jnsgd1na2vs0mg"},{"bike_id":"0c9a8767-a71f-4ef0-b390-c3b7e9c632a8","system_id":"levelo_inurba_marseille","lat":43.21189,"lon":5.35073,"is_reserved":false,"is_disabled":true,"rental_uris":{"android":"levelo://app?vid=0c9a8767-a71f-4ef0-b390-c3b7e9c632a8","ios":"levelo://app?vid=0c9a8767-a71f-4ef0-b390-c3b7e9c632a8"},"vehicle_type_id":"4","last_reported":1746216691,"current_range_meters":9600,"station_id":"","pricing_plan_id":"cebpf4jnsgd1na2vs0mg"},{"bike_id":"ab0a9fa0-5660-4ccc-8f75-4dca426bf90f","system_id":"levelo_inurba_marseille","lat":43.2925,"lon":5.38474,"is_reserved":false,"is_disabled":false,"rental_uris":{"android":"levelo://app?vid=ab0a9fa0-5660-4ccc-8f75-4dca426bf90f","ios":"levelo://app?vid=ab0a9fa0-5660-4ccc-8f75-4dca426bf90f"},"vehicle_type_id":"4","last_reported":1746216691,"current_range_meters":9600,"station_id":"ce4bh692rcd13ifvqea0","pricing_plan_id":"cebpf4jnsgd1na2vs0mg"},{"bike_id":"953594ec-94be-4ce7-95ca-987ddba7ab9c","system_id":"levelo_inurba_marseille","lat":43.2439,"lon":5.37063,"is_reserved":false,"is_disabled":false,"rental_uris":{"android":"levelo://app?vid=953594ec-94be-4ce7-95ca-987ddba7ab9c","ios":"levelo://app?vid=953594ec-94be-4ce7-95ca-987ddba7ab9c"},"vehicle_type_id":"4","last_reported":1746216691,"current_range_meters":9600,"station_id":"ce4bhhh2rcd13ifvqfk0","pricing_plan_id":"cebpf4jnsgd1na2vs0mg"},{"bike_id":"72d0829f-b7b2-41e2-9489-0e01ee85250d","system_id":"levelo_inurba_marseille","lat":43.23963,"lon":5.36629,"is_reserved":false,"is_disabled":false,"rental_uris":{"android":"levelo://app?vid=72d0829f-b7b2-41e2-9489-0e01ee85250d","ios":"levelo://app?vid=72d0829f-b7b2-41e2-9489-0e01ee85250d"},"vehicle_type_id":"4","last_reported":1746216691,"current_range_meters":9200,"station_id":"ce4bhi12rcd13ifvqfp0","pricing_plan_id":"cebpf4jnsgd1na2vs0mg"},{"bike_id":"bcdb9d2e-41b6-4501-810c-6146d2dfe2c6","system_id":"levelo_inurba_marseille","lat":43.29315,"lon":5.3722,"is_reserved":false,"is_disabled":true,"rental_uris":{"android":"levelo://app?vid=bcdb9d2e-41b6-4501-810c-6146d2dfe2c6","ios":"levelo://app?vid=bcdb9d2e-41b6-4501-810c-6146d2dfe2c6"},"vehicle_type_id":"4","last_reported":1746216691,"current_range_meters":9600,"station_id":"ce4bgh92rcd13ifvqb40","pricing_plan_id":"cebpf4jnsgd1na2vs0mg"},{"bike_id":"354f7438-aa30-4e53-8181-12e37a07905f","system_id":"levelo_inurba_marseille","lat":43.29706,"lon":5.37288,"is_reserved":false,"is_disabled":true,"rental_uris":{"android":"levelo://app?vid=354f7438-aa30-4e53-8181-12e37a07905f","ios":"levelo://app?vid=354f7438-aa30-4e53-8181-12e37a07905f"},"vehicle_type_id":"4","last_reported":1746216691,"current_range_meters":9600,"station_id":"ce4bgk12rcd13ifvqbj0","pricing_plan_id":"cebpf4jnsgd1na2vs0mg"},{"bike_id":"52653438-d935-4f61-a0a5-dc59b768eafc","system_id":"levelo_inurba_marseille","lat":43.32363,"lon":5.36764,"is_reserved":false,"is_disabled":false,"rental_uris":{"android":"levelo://app?vid=52653438-d935-4f61-a0a5-dc59b768eafc","ios":"levelo://app?vid=52653438-d935-4f61-a0a5-dc59b768eafc"},"vehicle_type_id":"4","last_reported":1746216691,"current_range_meters":9600,"station_id":"ce4bhsh2rcd13ifvqi2g","pricing_plan_id":"cebpf4jnsgd1na2vs0mg"},{"bike_id":"57da1fe8-45e4-4bfa-b800-58e17d66feed","system_id":"levelo_inurba_marseille","lat":43.239735,"lon":5.36629,"is_reserved":false,"is_disabled":false,"rental_uris":{"android":"levelo://app?vid=57da1fe8-45e4-4bfa-b800-58e17d66feed","ios":"levelo://app?vid=57da1fe8-45e4-4bfa-b800-58e17d66feed"},"vehicle_type_id":"4","last_reported":1746216691,"current_range_meters":9600,"station_id":"ce4bhi12rcd13ifvqfp0","pricing_plan_id":"cebpf4jnsgd1na2vs0mg"},{"bike_id":"9f5d1477-1a0b-4ab7-bf49-958ce5caccd6","system_id":"levelo_inurba_marseille","lat":43.29567,"lon":5.4228,"is_reserved":false,"is_disabled":false,"rental_uris":{"android":"levelo://app?vid=9f5d1477-1a0b-4ab7-bf49-958ce5caccd6","ios":"levelo://app?vid=9f5d1477-1a0b-4ab7-bf49-958ce5caccd6"},"vehicle_type_id":"4","last_reported":1746216691,"current_range_meters":9600,"station_id":"ce4bhph2rcd13ifvqhdg","pricing_plan_id":"cebpf4jnsgd1na2vs0mg"},{"bike_id":"965af663-7d0a-415e-8513-7ce511af894e","system_id":"levelo_inurba_marseille","lat":43.33022,"lon":5.3904,"is_reserved":false,"is_disabled":false,"rental_uris":{"android":"levelo://app?vid=965af663-7d0a-415e-8513-7ce511af894e","ios":"levelo://app?vid=965af663-7d0a-415e-8513-7ce511af894e"},"vehicle_type_id":"4","last_reported":1746216691,"current_range_meters":9200,"station_id":"ce4bhr92rcd13ifvqhrg","pricing_plan_id":"cebpf4jnsgd1na2vs0mg"},{"bike_id":"fc7b84dc-977d-4468-a9ce-7486780414b7","system_id":"levelo_inurba_marseille","lat":43.26942,"lon":5.40258,"is_reserved":false,"is_disabled":false,"rental_uris":{"android":"levelo://app?vid=fc7b84dc-977d-4468-a9ce-7486780414b7","ios":"levelo://app?vid=fc7b84dc-977d-4468-a9ce-7486780414b7"},"vehicle_type_id":"4","last_reported":1746216691,"current_range_meters":9600,"station_id":"cjm6bp8fraef2m0cb0m0","pricing_plan_id":"cebpf4jnsgd1na2vs0mg"},{"bike_id":"3694d090-d909-4d38-9eb1-31338c8af39e","system_id":"levelo_inurba_marseille","lat":43.26697,"lon":5.3827,"is_reserved":false,"is_disabled":true,"rental_uris":{"android":"levelo://app?vid=3694d090-d909-4d38-9eb1-31338c8af39e","ios":"levelo://app?vid=3694d090-d909-4d38-9eb1-31338c8af39e"},"vehicle_type_id":"4","last_reported":1746216691,"current_range_meters":10000,"station_id":"ce4bhg92rcd13ifvqf90","pricing_plan_id":"cebpf4jnsgd1na2vs0mg"},{"bike_id":"f43a7d13-67ca-476f-8c5f-8f975db46d80","system_id":"levelo_inurba_marseille","lat":43.28944,"lon":5.36639,"is_reserved":false,"is_disabled":false,"rental_uris":{"android":"levelo://app?vid=f43a7d13-67ca-476f-8c5f-8f975db46d80","ios":"levelo://app?vid=f43a7d13-67ca-476f-8c5f-8f975db46d80"},"vehicle_type_id":"4","last_reported":1746216691,"current_range_meters":10000,"station_id":"ce4bhap2rcd13ifvqek0","pricing_plan_id":"cebpf4jnsgd1na2vs0mg"},{"bike_id":"f785afdb-5c69-4532-9cfc-6fb8ffe29300","system_id":"levelo_inurba_marseille","lat":43.24664,"lon":5.38164,"is_reserved":false,"is_disabled":false,"rental_uris":{"android":"levelo://app?vid=f785afdb-5c69-4532-9cfc-6fb8ffe29300","ios":"levelo://app?vid=f785afdb-5c69-4532-9cfc-6fb8ffe29300"},"vehicle_type_id":"4","last_reported":1746216691,"current_range_meters":9600,"station_id":"ce4bhih2rcd13ifvqfr0","pricing_plan_id":"cebpf4jnsgd1na2vs0mg"},{"bike_id":"4361e22f-d218-4d30-b3b6-53e44735b0fe","system_id":"levelo_inurba_marseille","lat":43.298,"lon":5.38085,"is_reserved":false,"is_disabled":true,"rental_uris":{"android":"levelo://app?vid=4361e22f-d218-4d30-b3b6-53e44735b0fe","ios":"levelo://app?vid=4361e22f-d218-4d30-b3b6-53e44735b0fe"},"vehicle_type_id":"4","last_reported":1746216691,"current_range_meters":10800,"station_id":"ce4bgip2rcd13ifvqbb0","pricing_plan_id":"cebpf4jnsgd1na2vs0mg"},{"bike_id":"8a0058ae-d47a-4696-afcc-53a66a14ba3f","system_id":"levelo_inurba_marseille","lat":43.2992,"lon":5.43626,"is_reserved":false,"is_disabled":false,"rental_uris":{"android":"levelo://app?vid=8a0058ae-d47a-4696-afcc-53a66a14ba3f","ios":"levelo://app?vid=8a0058ae-d47a-4696-afcc-53a66a14ba3f"},"vehicle_type_id":"4","last_reported":1746216691,"current_range_meters":10800,"station_id":"ce4bhpp2rcd13ifvqhfg","pricing_plan_id":"cebpf4jnsgd1na2vs0mg"},{"bike_id":"8de101bb-7e71-4a42-93bc-9fd9ca86e7e0","system_id":"levelo_inurba_marseille","lat":43.24806,"lon":5.37459,"is_reserved":false,"is_disabled":false,"rental_uris":{"android":"levelo://app?vid=8de101bb-7e71-4a42-93bc-9fd9ca86e7e0","ios":"levelo://app?vid=8de101bb-7e71-4a42-93bc-9fd9ca86e7e0"},"vehicle_type_id":"4","last_reported":1746216691,"current_range_meters":10800,"station_id":"ce4bhgh2rcd13ifvqfb0","pricing_plan_id":"cebpf4jnsgd1na2vs0mg"},{"bike_id":"45f0b75c-8c43-465a-bb30-c73f63137519","system_id":"levelo_inurba_marseille","lat":43.2465,"lon":5.38888,"is_reserved":false,"is_disabled":false,"rental_uris":{"android":"levelo://app?vid=45f0b75c-8c43-465a-bb30-c73f63137519","ios":"levelo://app?vid=45f0b75c-8c43-465a-bb30-c73f63137519"},"vehicle_type_id":"4","last_reported":1746216691,"current_range_meters":10800,"station_id":"ce4bhg12rcd13ifvqf60","pricing_plan_id":"cebpf4jnsgd1na2vs0mg"},{"bike_id":"bd7597b7-eb6e-4f57-a7df-e0aef453e385","system_id":"levelo_inurba_marseille","lat":43.29564,"lon":5.422733,"is_reserved":false,"is_disabled":false,"rental_uris":{"android":"levelo://app?vid=bd7597b7-eb6e-4f57-a7df-e0aef453e385","ios":"levelo://app?vid=bd7597b7-eb6e-4f57-a7df-e0aef453e385"},"vehicle_type_id":"4","last_reported":1746216691,"current_range_meters":10800,"station_id":"ce4bhph2rcd13ifvqhdg","pricing_plan_id":"cebpf4jnsgd1na2vs0mg"},{"bike_id":"c765229c-3ef4-4057-857b-589cb3f3b934","system_id":"levelo_inurba_marseille","lat":43.29536,"lon":5.39396,"is_reserved":false,"is_disabled":false,"rental_uris":{"android":"levelo://app?vid=c765229c-3ef4-4057-857b-589cb3f3b934","ios":"levelo://app?vid=c765229c-3ef4-4057-857b-589cb3f3b934"},"vehicle_type_id":"4","last_reported":1746216691,"current_range_meters":10800,"station_id":"ce4bh292rcd13ifvqdf0","pricing_plan_id":"cebpf4jnsgd1na2vs0mg"},{"bike_id":"16cdc9f3-4055-4851-a9b0-88d45139b1bb","system_id":"levelo_inurba_marseille","lat":43.27208,"lon":5.39179,"is_reserved":false,"is_disabled":false,"rental_uris":{"android":"levelo://app?vid=16cdc9f3-4055-4851-a9b0-88d45139b1bb","ios":"levelo://app?vid=16cdc9f3-4055-4851-a9b0-88d45139b1bb"},"vehicle_type_id":"4","last_reported":1746216691,"current_range_meters":10800,"station_id":"ce4bhhp2rcd13ifvqfm0","pricing_plan_id":"cebpf4jnsgd1na2vs0mg"},{"bike_id":"6d74a9f5-3f03-4e8e-aa3b-29a84082925f","system_id":"levelo_inurba_marseille","lat":43.22929,"lon":5.35386,"is_reserved":false,"is_disabled":false,"rental_uris":{"android":"levelo://app?vid=6d74a9f5-3f03-4e8e-aa3b-29a84082925f","ios":"levelo://app?vid=6d74a9f5-3f03-4e8e-aa3b-29a84082925f"},"vehicle_type_id":"4","last_reported":1746216691,"current_range_meters":10800,"station_id":"cpo3532slgdg3j2ikp40","pricing_plan_id":"cebpf4jnsgd1na2vs0mg"},{"bike_id":"47c0cce4-dba6-4ebf-8afa-c71382bcb358","system_id":"levelo_inurba_marseille","lat":43.30799,"lon":5.4353,"is_reserved":false,"is_disabled":false,"rental_uris":{"android":"levelo://app?vid=47c0cce4-dba6-4ebf-8afa-c71382bcb358","ios":"levelo://app?vid=47c0cce4-dba6-4ebf-8afa-c71382bcb358"},"vehicle_type_id":"4","last_reported":1746216691,"current_range_meters":10800,"station_id":"ce4bhph2rcd13ifvqheg","pricing_plan_id":"cebpf4jnsgd1na2vs0mg"},{"bike_id":"f48f6a8a-46ce-4c79-8fb0-19652a738d42","system_id":"levelo_inurba_marseille","lat":43.36143,"lon":5.44213,"is_reserved":false,"is_disabled":false,"rental_uris":{"android":"levelo://app?vid=f48f6a8a-46ce-4c79-8fb0-19652a738d42","ios":"levelo://app?vid=f48f6a8a-46ce-4c79-8fb0-19652a738d42"},"vehicle_type_id":"4","last_reported":1746216691,"current_range_meters":11200,"station_id":"","pricing_plan_id":"cebpf4jnsgd1na2vs0mg"},{"bike_id":"a1ca96bf-c618-4846-a5a4-db3c92745600","system_id":"levelo_inurba_marseille","lat":43.29423,"lon":5.38626,"is_reserved":false,"is_disabled":false,"rental_uris":{"android":"levelo://app?vid=a1ca96bf-c618-4846-a5a4-db3c92745600","ios":"levelo://app?vid=a1ca96bf-c618-4846-a5a4-db3c92745600"},"vehicle_type_id":"4","last_reported":1746216691,"current_range_meters":11200,"station_id":"ce4bh2h2rcd13ifvqdh0","pricing_plan_id":"cebpf4jnsgd1na2vs0mg"},{"bike_id":"8a98d962-578d-444b-a5bb-91a62b69d98d","system_id":"levelo_inurba_marseille","lat":43.21213,"lon":5.35073,"is_reserved":false,"is_disabled":true,"rental_uris":{"android":"levelo://app?vid=8a98d962-578d-444b-a5bb-91a62b69d98d","ios":"levelo://app?vid=8a98d962-578d-444b-a5bb-91a62b69d98d"},"vehicle_type_id":"4","last_reported":1746216691,"current_range_meters":11200,"station_id":"st_cvj6sg6p6f1abm77japg","pricing_plan_id":"cebpf4jnsgd1na2vs0mg"},{"bike_id":"8dba6fcf-6c43-47eb-9b86-9d8e01dcfdf2","system_id":"levelo_inurba_marseille","lat":43.28939,"lon":5.38392,"is_reserved":false,"is_disabled":false,"rental_uris":{"android":"levelo://app?vid=8dba6fcf-6c43-47eb-9b86-9d8e01dcfdf2","ios":"levelo://app?vid=8dba6fcf-6c43-47eb-9b86-9d8e01dcfdf2"},"vehicle_type_id":"4","last_reported":1746216691,"current_range_meters":11200,"station_id":"ce4bh612rcd13ifvqe6g","pricing_plan_id":"cebpf4jnsgd1na2vs0mg"},{"bike_id":"5b094917-c175-4b9b-abeb-88fd43cf31ed","system_id":"levelo_inurba_marseille","lat":43.29588,"lon":5.422493,"is_reserved":false,"is_disabled":false,"rental_uris":{"android":"levelo://app?vid=5b094917-c175-4b9b-abeb-88fd43cf31ed","ios":"levelo://app?vid=5b094917-c175-4b9b-abeb-88fd43cf31ed"},"vehicle_type_id":"4","last_reported":1746216691,"current_range_meters":11200,"station_id":"","pricing_plan_id":"cebpf4jnsgd1na2vs0mg"},{"bike_id":"a52eb6ec-775f-4112-bc4a-46755dd166ad","system_id":"levelo_inurba_marseille","lat":43.2871,"lon":5.39993,"is_reserved":false,"is_disabled":false,"rental_uris":{"android":"levelo://app?vid=a52eb6ec-775f-4112-bc4a-46755dd166ad","ios":"levelo://app?vid=a52eb6ec-775f-4112-bc4a-46755dd166ad"},"vehicle_type_id":"4","last_reported":1746216691,"current_range_meters":11200,"station_id":"","pricing_plan_id":"cebpf4jnsgd1na2vs0mg"},{"bike_id":"ff878896-70b1-4fe5-8bfb-88e102a5e4f0","system_id":"levelo_inurba_marseille","lat":43.32103,"lon":5.36767,"is_reserved":false,"is_disabled":false,"rental_uris":{"android":"levelo://app?vid=ff878896-70b1-4fe5-8bfb-88e102a5e4f0","ios":"levelo://app?vid=ff878896-70b1-4fe5-8bfb-88e102a5e4f0"},"vehicle_type_id":"4","last_reported":1746216691,"current_range_meters":11200,"station_id":"ce4bhrh2rcd13ifvqhug","pricing_plan_id":"cebpf4jnsgd1na2vs0mg"},{"bike_id":"fb024913-926f-48ad-8bf5-ac7c16849402","system_id":"levelo_inurba_marseille","lat":43.26958,"lon":5.38637,"is_reserved":false,"is_disabled":false,"rental_uris":{"android":"levelo://app?vid=fb024913-926f-48ad-8bf5-ac7c16849402","ios":"levelo://app?vid=fb024913-926f-48ad-8bf5-ac7c16849402"},"vehicle_type_id":"4","last_reported":1746216691,"current_range_meters":11600,"station_id":"ce4bhh92rcd13ifvqfh0","pricing_plan_id":"cebpf4jnsgd1na2vs0mg"},{"bike_id":"400d39e8-47bf-4e16-8424-1f417ad48473","system_id":"levelo_inurba_marseille","lat":43.29413,"lon":5.38633,"is_reserved":false,"is_disabled":false,"rental_uris":{"android":"levelo://app?vid=400d39e8-47bf-4e16-8424-1f417ad48473","ios":"levelo://app?vid=400d39e8-47bf-4e16-8424-1f417ad48473"},"vehicle_type_id":"4","last_reported":1746216691,"current_range_meters":11600,"station_id":"ce4bh2h2rcd13ifvqdh0","pricing_plan_id":"cebpf4jnsgd1na2vs0mg"},{"bike_id":"e27ce41e-d31e-4411-a762-387f29d91877","system_id":"levelo_inurba_marseille","lat":43.29572,"lon":5.42284,"is_reserved":false,"is_disabled":false,"rental_uris":{"android":"levelo://app?vid=e27ce41e-d31e-4411-a762-387f29d91877","ios":"levelo://app?vid=e27ce41e-d31e-4411-a762-387f29d91877"},"vehicle_type_id":"4","last_reported":1746216691,"current_range_meters":11600,"station_id":"ce4bhph2rcd13ifvqhdg","pricing_plan_id":"cebpf4jnsgd1na2vs0mg"},{"bike_id":"5ae0c361-bde9-4e86-8433-482c28e24e9a","system_id":"levelo_inurba_marseille","lat":43.296033,"lon":5.380922,"is_reserved":false,"is_disabled":false,"rental_uris":{"android":"levelo://app?vid=5ae0c361-bde9-4e86-8433-482c28e24e9a","ios":"levelo://app?vid=5ae0c361-bde9-4e86-8433-482c28e24e9a"},"vehicle_type_id":"4","last_reported":1746216691,"current_range_meters":11200,"station_id":"ce4bgl12rcd13ifvqbo0","pricing_plan_id":"cebpf4jnsgd1na2vs0mg"},{"bike_id":"fb7187b6-5512-4051-ac8a-d675dc224434","system_id":"levelo_inurba_marseille","lat":43.29106,"lon":5.3817,"is_reserved":false,"is_disabled":false,"rental_uris":{"android":"levelo://app?vid=fb7187b6-5512-4051-ac8a-d675dc224434","ios":"levelo://app?vid=fb7187b6-5512-4051-ac8a-d675dc224434"},"vehicle_type_id":"4","last_reported":1746216691,"current_range_meters":11600,"station_id":"ce4bh512rcd13ifvqe2g","pricing_plan_id":"cebpf4jnsgd1na2vs0mg"},{"bike_id":"e8aceb21-fd69-4ea3-ac4c-34d47575906f","system_id":"levelo_inurba_marseille","lat":43.29037,"lon":5.39969,"is_reserved":false,"is_disabled":false,"rental_uris":{"android":"levelo://app?vid=e8aceb21-fd69-4ea3-ac4c-34d47575906f","ios":"levelo://app?vid=e8aceb21-fd69-4ea3-ac4c-34d47575906f"},"vehicle_type_id":"4","last_reported":1746216691,"current_range_meters":11600,"station_id":"ce4bh392rcd13ifvqdm0","pricing_plan_id":"cebpf4jnsgd1na2vs0mg"},{"bike_id":"ad7ca592-f236-4a6d-9431-e31ab8d26c7e","system_id":"levelo_inurba_marseille","lat":43.32362,"lon":5.36779,"is_reserved":false,"is_disabled":false,"rental_uris":{"android":"levelo://app?vid=ad7ca592-f236-4a6d-9431-e31ab8d26c7e","ios":"levelo://app?vid=ad7ca592-f236-4a6d-9431-e31ab8d26c7e"},"vehicle_type_id":"4","last_reported":1746216691,"current_range_meters":11600,"station_id":"ce4bhsh2rcd13ifvqi2g","pricing_plan_id":"cebpf4jnsgd1na2vs0mg"},{"bike_id":"2cce8745-f47d-491d-9776-93cf9f036027","system_id":"levelo_inurba_marseille","lat":43.308121,"lon":5.435299,"is_reserved":false,"is_disabled":false,"rental_uris":{"android":"levelo://app?vid=2cce8745-f47d-491d-9776-93cf9f036027","ios":"levelo://app?vid=2cce8745-f47d-491d-9776-93cf9f036027"},"vehicle_type_id":"4","last_reported":1746216691,"current_range_meters":11600,"station_id":"ce4bhph2rcd13ifvqheg","pricing_plan_id":"cebpf4jnsgd1na2vs0mg"},{"bike_id":"313f19ff-8c45-4a02-b367-c6a7c2d5e214","system_id":"levelo_inurba_marseille","lat":43.27505,"lon":5.42466,"is_reserved":false,"is_disabled":false,"rental_uris":{"android":"levelo://app?vid=313f19ff-8c45-4a02-b367-c6a7c2d5e214","ios":"levelo://app?vid=313f19ff-8c45-4a02-b367-c6a7c2d5e214"},"vehicle_type_id":"4","last_reported":1746216691,"current_range_meters":12000,"station_id":"ce4bhn92rcd13ifvqgrg","pricing_plan_id":"cebpf4jnsgd1na2vs0mg"},{"bike_id":"c9ce9927-940c-4564-9449-3b2ac6f30a01","system_id":"levelo_inurba_marseille","lat":43.24683,"lon":5.38152,"is_reserved":false,"is_disabled":false,"rental_uris":{"android":"levelo://app?vid=c9ce9927-940c-4564-9449-3b2ac6f30a01","ios":"levelo://app?vid=c9ce9927-940c-4564-9449-3b2ac6f30a01"},"vehicle_type_id":"4","last_reported":1746216691,"current_range_meters":12000,"station_id":"ce4bhih2rcd13ifvqfr0","pricing_plan_id":"cebpf4jnsgd1na2vs0mg"},{"bike_id":"90e0a6c9-452e-4a5d-937f-6174ded8e61a","system_id":"levelo_inurba_marseille","lat":43.323151,"lon":5.374318,"is_reserved":false,"is_disabled":true,"rental_uris":{"android":"levelo://app?vid=90e0a6c9-452e-4a5d-937f-6174ded8e61a","ios":"levelo://app?vid=90e0a6c9-452e-4a5d-937f-6174ded8e61a"},"vehicle_type_id":"4","last_reported":1746216691,"current_range_meters":12000,"station_id":"","pricing_plan_id":"cebpf4jnsgd1na2vs0mg"},{"bike_id":"f695776b-d012-4936-b078-57ba5f766346","system_id":"levelo_inurba_marseille","lat":43.31114,"lon":5.37763,"is_reserved":false,"is_disabled":false,"rental_uris":{"android":"levelo://app?vid=f695776b-d012-4936-b078-57ba5f766346","ios":"levelo://app?vid=f695776b-d012-4936-b078-57ba5f766346"},"vehicle_type_id":"4","last_reported":1746216691,"current_range_meters":12000,"station_id":"ce4bgt92rcd13ifvqcg0","pricing_plan_id":"cebpf4jnsgd1na2vs0mg"},{"bike_id":"8729c668-c419-4d6e-b88f-2811d2d18bfc","system_id":"levelo_inurba_marseille","lat":43.31291,"lon":5.36816,"is_reserved":false,"is_disabled":false,"rental_uris":{"android":"levelo://app?vid=8729c668-c419-4d6e-b88f-2811d2d18bfc","ios":"levelo://app?vid=8729c668-c419-4d6e-b88f-2811d2d18bfc"},"vehicle_type_id":"4","last_reported":1746216691,"current_range_meters":12000,"station_id":"ce4bgl92rcd13ifvqbq0","pricing_plan_id":"cebpf4jnsgd1na2vs0mg"},{"bike_id":"e0e163c0-b70c-478b-a240-966060226969","system_id":"levelo_inurba_marseille","lat":43.29256,"lon":5.3617,"is_reserved":false,"is_disabled":false,"rental_uris":{"android":"levelo://app?vid=e0e163c0-b70c-478b-a240-966060226969","ios":"levelo://app?vid=e0e163c0-b70c-478b-a240-966060226969"},"vehicle_type_id":"4","last_reported":1746216691,"current_range_meters":12000,"station_id":"","pricing_plan_id":"cebpf4jnsgd1na2vs0mg"},{"bike_id":"e2a1c63c-155f-4395-84fe-6e92aa8281b1","system_id":"levelo_inurba_marseille","lat":43.28857,"lon":5.3931,"is_reserved":false,"is_disabled":false,"rental_uris":{"android":"levelo://app?vid=e2a1c63c-155f-4395-84fe-6e92aa8281b1","ios":"levelo://app?vid=e2a1c63c-155f-4395-84fe-6e92aa8281b1"},"vehicle_type_id":"4","last_reported":1746216691,"current_range_meters":12000,"station_id":"ce4bh2p2rcd13ifvqdi0","pricing_plan_id":"cebpf4jnsgd1na2vs0mg"},{"bike_id":"3c60b227-1343-4a4a-bd63-48a0a36b04da","system_id":"levelo_inurba_marseille","lat":43.303123,"lon":5.40444,"is_reserved":false,"is_disabled":false,"rental_uris":{"android":"levelo://app?vid=3c60b227-1343-4a4a-bd63-48a0a36b04da","ios":"levelo://app?vid=3c60b227-1343-4a4a-bd63-48a0a36b04da"},"vehicle_type_id":"4","last_reported":1746216691,"current_range_meters":12400,"station_id":"ce4bh012rcd13ifvqd10","pricing_plan_id":"cebpf4jnsgd1na2vs0mg"},{"bike_id":"11eb33dc-2932-4668-8a51-1eda146ac377","system_id":"levelo_inurba_marseille","lat":43.31327,"lon":5.3969,"is_reserved":false,"is_disabled":false,"rental_uris":{"android":"levelo://app?vid=11eb33dc-2932-4668-8a51-1eda146ac377","ios":"levelo://app?vid=11eb33dc-2932-4668-8a51-1eda146ac377"},"vehicle_type_id":"4","last_reported":1746216691,"current_range_meters":15200,"station_id":"ce4bgvp2rcd13ifvqcu0","pricing_plan_id":"cebpf4jnsgd1na2vs0mg"},{"bike_id":"8d0c3142-76fb-4ecd-b00d-145d83ba3177","system_id":"levelo_inurba_marseille","lat":43.29627,"lon":5.405997,"is_reserved":false,"is_disabled":false,"rental_uris":{"android":"levelo://app?vid=8d0c3142-76fb-4ecd-b00d-145d83ba3177","ios":"levelo://app?vid=8d0c3142-76fb-4ecd-b00d-145d83ba3177"},"vehicle_type_id":"4","last_reported":1746216691,"current_range_meters":12400,"station_id":"ce4bh0h2rcd13ifvqd60","pricing_plan_id":"cebpf4jnsgd1na2vs0mg"},{"bike_id":"72029b00-1767-427f-ae65-686cc405abf2","system_id":"levelo_inurba_marseille","lat":43.2848,"lon":5.3759,"is_reserved":false,"is_disabled":false,"rental_uris":{"android":"levelo://app?vid=72029b00-1767-427f-ae65-686cc405abf2","ios":"levelo://app?vid=72029b00-1767-427f-ae65-686cc405abf2"},"vehicle_type_id":"4","last_reported":1746216691,"current_range_meters":12400,"station_id":"","pricing_plan_id":"cebpf4jnsgd1na2vs0mg"},{"bike_id":"6bcfafe9-e0dc-4830-a2ef-8fbcb15314a2","system_id":"levelo_inurba_marseille","lat":43.29557,"lon":5.42283,"is_reserved":false,"is_disabled":false,"rental_uris":{"android":"levelo://app?vid=6bcfafe9-e0dc-4830-a2ef-8fbcb15314a2","ios":"levelo://app?vid=6bcfafe9-e0dc-4830-a2ef-8fbcb15314a2"},"vehicle_type_id":"4","last_reported":1746216691,"current_range_meters":12400,"station_id":"ce4bhph2rcd13ifvqhdg","pricing_plan_id":"cebpf4jnsgd1na2vs0mg"},{"bike_id":"83190609-f466-4119-99b6-83a7cd7c0a78","system_id":"levelo_inurba_marseille","lat":43.31752,"lon":5.39013,"is_reserved":false,"is_disabled":false,"rental_uris":{"android":"levelo://app?vid=83190609-f466-4119-99b6-83a7cd7c0a78","ios":"levelo://app?vid=83190609-f466-4119-99b6-83a7cd7c0a78"},"vehicle_type_id":"4","last_reported":1746216691,"current_range_meters":12400,"station_id":"ce4bhqp2rcd13ifvqhng","pricing_plan_id":"cebpf4jnsgd1na2vs0mg"},{"bike_id":"1d7b6ae0-2914-4718-9359-9dc1b5a0be52","system_id":"levelo_inurba_marseille","lat":43.295773,"lon":5.422527,"is_reserved":false,"is_disabled":false,"rental_uris":{"android":"levelo://app?vid=1d7b6ae0-2914-4718-9359-9dc1b5a0be52","ios":"levelo://app?vid=1d7b6ae0-2914-4718-9359-9dc1b5a0be52"},"vehicle_type_id":"4","last_reported":1746216691,"current_range_meters":12400,"station_id":"ce4bhph2rcd13ifvqhdg","pricing_plan_id":"cebpf4jnsgd1na2vs0mg"},{"bike_id":"d0c99e1b-7079-4907-8cdd-1de266bb51e1","system_id":"levelo_inurba_marseille","lat":43.2481,"lon":5.37462,"is_reserved":false,"is_disabled":false,"rental_uris":{"android":"levelo://app?vid=d0c99e1b-7079-4907-8cdd-1de266bb51e1","ios":"levelo://app?vid=d0c99e1b-7079-4907-8cdd-1de266bb51e1"},"vehicle_type_id":"4","last_reported":1746216691,"current_range_meters":12400,"station_id":"ce4bhgh2rcd13ifvqfb0","pricing_plan_id":"cebpf4jnsgd1na2vs0mg"},{"bike_id":"9adfac2a-491e-4112-b03c-2c448baa3a91","system_id":"levelo_inurba_marseille","lat":43.260337,"lon":5.375503,"is_reserved":false,"is_disabled":true,"rental_uris":{"android":"levelo://app?vid=9adfac2a-491e-4112-b03c-2c448baa3a91","ios":"levelo://app?vid=9adfac2a-491e-4112-b03c-2c448baa3a91"},"vehicle_type_id":"4","last_reported":1746216691,"current_range_meters":12400,"station_id":"ce4bhgh2rcd13ifvqfa0","pricing_plan_id":"cebpf4jnsgd1na2vs0mg"},{"bike_id":"b3d12826-1f11-4492-8ea0-3cfc6417ebf6","system_id":"levelo_inurba_marseille","lat":43.29556,"lon":5.42277,"is_reserved":false,"is_disabled":false,"rental_uris":{"android":"levelo://app?vid=b3d12826-1f11-4492-8ea0-3cfc6417ebf6","ios":"levelo://app?vid=b3d12826-1f11-4492-8ea0-3cfc6417ebf6"},"vehicle_type_id":"4","last_reported":1746216691,"current_range_meters":12400,"station_id":"ce4bhph2rcd13ifvqhdg","pricing_plan_id":"cebpf4jnsgd1na2vs0mg"},{"bike_id":"60eff871-5dac-46d9-a00c-e7dc1143fb32","system_id":"levelo_inurba_marseille","lat":43.29423,"lon":5.38607,"is_reserved":false,"is_disabled":false,"rental_uris":{"android":"levelo://app?vid=60eff871-5dac-46d9-a00c-e7dc1143fb32","ios":"levelo://app?vid=60eff871-5dac-46d9-a00c-e7dc1143fb32"},"vehicle_type_id":"4","last_reported":1746216691,"current_range_meters":12800,"station_id":"ce4bh2h2rcd13ifvqdh0","pricing_plan_id":"cebpf4jnsgd1na2vs0mg"},{"bike_id":"d24e36e0-e0aa-458e-9dc1-1d3e91441d9d","system_id":"levelo_inurba_marseille","lat":43.29026,"lon":5.38643,"is_reserved":false,"is_disabled":true,"rental_uris":{"android":"levelo://app?vid=d24e36e0-e0aa-458e-9dc1-1d3e91441d9d","ios":"levelo://app?vid=d24e36e0-e0aa-458e-9dc1-1d3e91441d9d"},"vehicle_type_id":"4","last_reported":1746216691,"current_range_meters":12800,"station_id":"ce4bh4p2rcd13ifvqe0g","pricing_plan_id":"cebpf4jnsgd1na2vs0mg"},{"bike_id":"229cd906-be6c-45f6-a0db-4354ddf89084","system_id":"levelo_inurba_marseille","lat":43.30938,"lon":5.40154,"is_reserved":false,"is_disabled":false,"rental_uris":{"android":"levelo://app?vid=229cd906-be6c-45f6-a0db-4354ddf89084","ios":"levelo://app?vid=229cd906-be6c-45f6-a0db-4354ddf89084"},"vehicle_type_id":"4","last_reported":1746216691,"current_range_meters":12400,"station_id":"ce4bgvp2rcd13ifvqct0","pricing_plan_id":"cebpf4jnsgd1na2vs0mg"},{"bike_id":"130287e0-c9b4-488a-8c82-0384da04b883","system_id":"levelo_inurba_marseille","lat":43.27998,"lon":5.40031,"is_reserved":false,"is_disabled":false,"rental_uris":{"android":"levelo://app?vid=130287e0-c9b4-488a-8c82-0384da04b883","ios":"levelo://app?vid=130287e0-c9b4-488a-8c82-0384da04b883"},"vehicle_type_id":"4","last_reported":1746216691,"current_range_meters":12800,"station_id":"ce4bho92rcd13ifvqh4g","pricing_plan_id":"cebpf4jnsgd1na2vs0mg"},{"bike_id":"fe333a8d-2ba1-420a-9a43-0f3c33689891","system_id":"levelo_inurba_marseille","lat":43.246582,"lon":5.381657,"is_reserved":false,"is_disabled":false,"rental_uris":{"android":"levelo://app?vid=fe333a8d-2ba1-420a-9a43-0f3c33689891","ios":"levelo://app?vid=fe333a8d-2ba1-420a-9a43-0f3c33689891"},"vehicle_type_id":"4","last_reported":1746216691,"current_range_meters":12800,"station_id":"","pricing_plan_id":"cebpf4jnsgd1na2vs0mg"},{"bike_id":"684057bd-944d-43cc-b269-e74e002c84e4","system_id":"levelo_inurba_marseille","lat":43.271743,"lon":5.410007,"is_reserved":false,"is_disabled":false,"rental_uris":{"android":"levelo://app?vid=684057bd-944d-43cc-b269-e74e002c84e4","ios":"levelo://app?vid=684057bd-944d-43cc-b269-e74e002c84e4"},"vehicle_type_id":"4","last_reported":1746216691,"current_range_meters":12800,"station_id":"ce4bhl12rcd13ifvqgf0","pricing_plan_id":"cebpf4jnsgd1na2vs0mg"},{"bike_id":"90449480-049a-4b65-ad84-ecaf18171f53","system_id":"levelo_inurba_marseille","lat":43.29541,"lon":5.38544,"is_reserved":false,"is_disabled":false,"rental_uris":{"android":"levelo://app?vid=90449480-049a-4b65-ad84-ecaf18171f53","ios":"levelo://app?vid=90449480-049a-4b65-ad84-ecaf18171f53"},"vehicle_type_id":"4","last_reported":1746216691,"current_range_meters":12800,"station_id":"ce4bgih2rcd13ifvqba0","pricing_plan_id":"cebpf4jnsgd1na2vs0mg"},{"bike_id":"ca76511c-0575-4de8-805c-727efc630288","system_id":"levelo_inurba_marseille","lat":43.27319,"lon":5.39063,"is_reserved":false,"is_disabled":false,"rental_uris":{"android":"levelo://app?vid=ca76511c-0575-4de8-805c-727efc630288","ios":"levelo://app?vid=ca76511c-0575-4de8-805c-727efc630288"},"vehicle_type_id":"4","last_reported":1746216691,"current_range_meters":13600,"station_id":"ce4bhgp2rcd13ifvqfe0","pricing_plan_id":"cebpf4jnsgd1na2vs0mg"},{"bike_id":"8c785e52-1fc4-4793-b585-7f75200ca3e5","system_id":"levelo_inurba_marseille","lat":43.24393,"lon":5.37055,"is_reserved":false,"is_disabled":false,"rental_uris":{"android":"levelo://app?vid=8c785e52-1fc4-4793-b585-7f75200ca3e5","ios":"levelo://app?vid=8c785e52-1fc4-4793-b585-7f75200ca3e5"},"vehicle_type_id":"4","last_reported":1746216691,"current_range_meters":13600,"station_id":"ce4bhhh2rcd13ifvqfk0","pricing_plan_id":"cebpf4jnsgd1na2vs0mg"},{"bike_id":"5f4b68ad-e269-4339-95db-e2fcdff99664","system_id":"levelo_inurba_marseille","lat":43.24806,"lon":5.37455,"is_reserved":false,"is_disabled":false,"rental_uris":{"android":"levelo://app?vid=5f4b68ad-e269-4339-95db-e2fcdff99664","ios":"levelo://app?vid=5f4b68ad-e269-4339-95db-e2fcdff99664"},"vehicle_type_id":"4","last_reported":1746216691,"current_range_meters":13600,"station_id":"ce4bhgh2rcd13ifvqfb0","pricing_plan_id":"cebpf4jnsgd1na2vs0mg"},{"bike_id":"c6f85759-730d-4887-a8ec-98bdd7d04dbc","system_id":"levelo_inurba_marseille","lat":43.28368,"lon":5.38621,"is_reserved":false,"is_disabled":false,"rental_uris":{"android":"levelo://app?vid=c6f85759-730d-4887-a8ec-98bdd7d04dbc","ios":"levelo://app?vid=c6f85759-730d-4887-a8ec-98bdd7d04dbc"},"vehicle_type_id":"4","last_reported":1746216691,"current_range_meters":13600,"station_id":"ce4bh492rcd13ifvqdvg","pricing_plan_id":"cebpf4jnsgd1na2vs0mg"},{"bike_id":"ae753191-7418-4314-9cd9-2be1bad1794c","system_id":"levelo_inurba_marseille","lat":43.2957,"lon":5.37532,"is_reserved":false,"is_disabled":false,"rental_uris":{"android":"levelo://app?vid=ae753191-7418-4314-9cd9-2be1bad1794c","ios":"levelo://app?vid=ae753191-7418-4314-9cd9-2be1bad1794c"},"vehicle_type_id":"4","last_reported":1746216691,"current_range_meters":13600,"station_id":"ce4bgh92rcd13ifvqb50","pricing_plan_id":"cebpf4jnsgd1na2vs0mg"},{"bike_id":"d3ec4384-526b-4c45-bc2a-33b7e55c628e","system_id":"levelo_inurba_marseille","lat":43.26942,"lon":5.40264,"is_reserved":false,"is_disabled":false,"rental_uris":{"android":"levelo://app?vid=d3ec4384-526b-4c45-bc2a-33b7e55c628e","ios":"levelo://app?vid=d3ec4384-526b-4c45-bc2a-33b7e55c628e"},"vehicle_type_id":"4","last_reported":1746216691,"current_range_meters":13600,"station_id":"cjm6bp8fraef2m0cb0m0","pricing_plan_id":"cebpf4jnsgd1na2vs0mg"},{"bike_id":"f1974361-882d-499f-930b-7d230b3b5dd0","system_id":"levelo_inurba_marseille","lat":43.29414,"lon":5.38623,"is_reserved":false,"is_disabled":false,"rental_uris":{"android":"levelo://app?vid=f1974361-882d-499f-930b-7d230b3b5dd0","ios":"levelo://app?vid=f1974361-882d-499f-930b-7d230b3b5dd0"},"vehicle_type_id":"4","last_reported":1746216691,"current_range_meters":13600,"station_id":"ce4bh2h2rcd13ifvqdh0","pricing_plan_id":"cebpf4jnsgd1na2vs0mg"},{"bike_id":"dfb3396e-96f5-457c-af11-f6f27dad33e9","system_id":"levelo_inurba_marseille","lat":43.27206,"lon":5.364775,"is_reserved":false,"is_disabled":false,"rental_uris":{"android":"levelo://app?vid=dfb3396e-96f5-457c-af11-f6f27dad33e9","ios":"levelo://app?vid=dfb3396e-96f5-457c-af11-f6f27dad33e9"},"vehicle_type_id":"4","last_reported":1746216691,"current_range_meters":14000,"station_id":"","pricing_plan_id":"cebpf4jnsgd1na2vs0mg"},{"bike_id":"99fd3ba0-582d-4b8d-8dc7-df82f1ed93dd","system_id":"levelo_inurba_marseille","lat":43.28491,"lon":5.3841,"is_reserved":false,"is_disabled":false,"rental_uris":{"android":"levelo://app?vid=99fd3ba0-582d-4b8d-8dc7-df82f1ed93dd","ios":"levelo://app?vid=99fd3ba0-582d-4b8d-8dc7-df82f1ed93dd"},"vehicle_type_id":"4","last_reported":1746216691,"current_range_meters":14000,"station_id":"ce4bh512rcd13ifvqe3g","pricing_plan_id":"cebpf4jnsgd1na2vs0mg"},{"bike_id":"0c781955-535a-466a-b13d-9f8b47077e21","system_id":"levelo_inurba_marseille","lat":43.29592,"lon":5.38105,"is_reserved":false,"is_disabled":false,"rental_uris":{"android":"levelo://app?vid=0c781955-535a-466a-b13d-9f8b47077e21","ios":"levelo://app?vid=0c781955-535a-466a-b13d-9f8b47077e21"},"vehicle_type_id":"4","last_reported":1746216691,"current_range_meters":12800,"station_id":"ce4bgl12rcd13ifvqbo0","pricing_plan_id":"cebpf4jnsgd1na2vs0mg"},{"bike_id":"f1ffd2b9-91e9-4bf5-a319-6e95940b0de6","system_id":"levelo_inurba_marseille","lat":43.29572,"lon":5.4227,"is_reserved":false,"is_disabled":false,"rental_uris":{"android":"levelo://app?vid=f1ffd2b9-91e9-4bf5-a319-6e95940b0de6","ios":"levelo://app?vid=f1ffd2b9-91e9-4bf5-a319-6e95940b0de6"},"vehicle_type_id":"4","last_reported":1746216691,"current_range_meters":14000,"station_id":"ce4bhph2rcd13ifvqhdg","pricing_plan_id":"cebpf4jnsgd1na2vs0mg"},{"bike_id":"41863dd5-f4be-4475-9eee-b78d56631ac2","system_id":"levelo_inurba_marseille","lat":43.29869,"lon":5.39739,"is_reserved":false,"is_disabled":false,"rental_uris":{"android":"levelo://app?vid=41863dd5-f4be-4475-9eee-b78d56631ac2","ios":"levelo://app?vid=41863dd5-f4be-4475-9eee-b78d56631ac2"},"vehicle_type_id":"4","last_reported":1746216691,"current_range_meters":14000,"station_id":"ce4bh0h2rcd13ifvqd50","pricing_plan_id":"cebpf4jnsgd1na2vs0mg"},{"bike_id":"fd2c3c67-23a6-4380-b7ca-8f23c8f78921","system_id":"levelo_inurba_marseille","lat":43.32371,"lon":5.36772,"is_reserved":false,"is_disabled":false,"rental_uris":{"android":"levelo://app?vid=fd2c3c67-23a6-4380-b7ca-8f23c8f78921","ios":"levelo://app?vid=fd2c3c67-23a6-4380-b7ca-8f23c8f78921"},"vehicle_type_id":"4","last_reported":1746216691,"current_range_meters":14000,"station_id":"ce4bhsh2rcd13ifvqi2g","pricing_plan_id":"cebpf4jnsgd1na2vs0mg"},{"bike_id":"dd643f38-b311-422f-98eb-37fb114a9d01","system_id":"levelo_inurba_marseille","lat":43.29645,"lon":5.37682,"is_reserved":false,"is_disabled":true,"rental_uris":{"android":"levelo://app?vid=dd643f38-b311-422f-98eb-37fb114a9d01","ios":"levelo://app?vid=dd643f38-b311-422f-98eb-37fb114a9d01"},"vehicle_type_id":"4","last_reported":1746216691,"current_range_meters":14400,"station_id":"ce4bgi92rcd13ifvqb90","pricing_plan_id":"cebpf4jnsgd1na2vs0mg"},{"bike_id":"5c82f32d-72c2-4057-be0c-9594adda421f","system_id":"levelo_inurba_marseille","lat":43.29364,"lon":5.37851,"is_reserved":false,"is_disabled":false,"rental_uris":{"android":"levelo://app?vid=5c82f32d-72c2-4057-be0c-9594adda421f","ios":"levelo://app?vid=5c82f32d-72c2-4057-be0c-9594adda421f"},"vehicle_type_id":"4","last_reported":1746216691,"current_range_meters":14400,"station_id":"ce4bgjh2rcd13ifvqbf0","pricing_plan_id":"cebpf4jnsgd1na2vs0mg"},{"bike_id":"bc0dafd6-4814-4118-8f0e-203aaeca05f4","system_id":"levelo_inurba_marseille","lat":43.25873,"lon":5.39895,"is_reserved":false,"is_disabled":false,"rental_uris":{"android":"levelo://app?vid=bc0dafd6-4814-4118-8f0e-203aaeca05f4","ios":"levelo://app?vid=bc0dafd6-4814-4118-8f0e-203aaeca05f4"},"vehicle_type_id":"4","last_reported":1746216691,"current_range_meters":14400,"station_id":"ce4bhl92rcd13ifvqghg","pricing_plan_id":"cebpf4jnsgd1na2vs0mg"},{"bike_id":"42e2eaed-f16b-4ac4-9efe-ef318f00e509","system_id":"levelo_inurba_marseille","lat":43.23204,"lon":5.35558,"is_reserved":false,"is_disabled":false,"rental_uris":{"android":"levelo://app?vid=42e2eaed-f16b-4ac4-9efe-ef318f00e509","ios":"levelo://app?vid=42e2eaed-f16b-4ac4-9efe-ef318f00e509"},"vehicle_type_id":"4","last_reported":1746216691,"current_range_meters":14400,"station_id":"ce4bhu92rcd13ifvqi70","pricing_plan_id":"cebpf4jnsgd1na2vs0mg"},{"bike_id":"2fc7066a-3168-4b00-a4fc-ece640118f70","system_id":"levelo_inurba_marseille","lat":43.28475,"lon":5.37535,"is_reserved":false,"is_disabled":false,"rental_uris":{"android":"levelo://app?vid=2fc7066a-3168-4b00-a4fc-ece640118f70","ios":"levelo://app?vid=2fc7066a-3168-4b00-a4fc-ece640118f70"},"vehicle_type_id":"4","last_reported":1746216691,"current_range_meters":14400,"station_id":"","pricing_plan_id":"cebpf4jnsgd1na2vs0mg"},{"bike_id":"0f6e732c-f72f-4a32-a5ff-5c9380ca5485","system_id":"levelo_inurba_marseille","lat":43.2408,"lon":5.3775,"is_reserved":false,"is_disabled":false,"rental_uris":{"android":"levelo://app?vid=0f6e732c-f72f-4a32-a5ff-5c9380ca5485","ios":"levelo://app?vid=0f6e732c-f72f-4a32-a5ff-5c9380ca5485"},"vehicle_type_id":"4","last_reported":1746216691,"current_range_meters":14400,"station_id":"ce4bhnp2rcd13ifvqgvg","pricing_plan_id":"cebpf4jnsgd1na2vs0mg"},{"bike_id":"acd0b158-479c-4bcf-b303-a52a62ee0a5b","system_id":"levelo_inurba_marseille","lat":43.32113,"lon":5.3677,"is_reserved":false,"is_disabled":false,"rental_uris":{"android":"levelo://app?vid=acd0b158-479c-4bcf-b303-a52a62ee0a5b","ios":"levelo://app?vid=acd0b158-479c-4bcf-b303-a52a62ee0a5b"},"vehicle_type_id":"4","last_reported":1746216691,"current_range_meters":14400,"station_id":"ce4bhrh2rcd13ifvqhug","pricing_plan_id":"cebpf4jnsgd1na2vs0mg"},{"bike_id":"9fdd8a7d-4dc9-49a2-8582-4a18c15a9c28","system_id":"levelo_inurba_marseille","lat":43.284847,"lon":5.384174,"is_reserved":false,"is_disabled":false,"rental_uris":{"android":"levelo://app?vid=9fdd8a7d-4dc9-49a2-8582-4a18c15a9c28","ios":"levelo://app?vid=9fdd8a7d-4dc9-49a2-8582-4a18c15a9c28"},"vehicle_type_id":"4","last_reported":1746216691,"current_range_meters":14800,"station_id":"ce4bh512rcd13ifvqe3g","pricing_plan_id":"cebpf4jnsgd1na2vs0mg"},{"bike_id":"6c0e5220-ee62-4032-884d-af4df430249c","system_id":"levelo_inurba_marseille","lat":43.321,"lon":5.36784,"is_reserved":false,"is_disabled":false,"rental_uris":{"android":"levelo://app?vid=6c0e5220-ee62-4032-884d-af4df430249c","ios":"levelo://app?vid=6c0e5220-ee62-4032-884d-af4df430249c"},"vehicle_type_id":"4","last_reported":1746216691,"current_range_meters":14800,"station_id":"ce4bhrh2rcd13ifvqhug","pricing_plan_id":"cebpf4jnsgd1na2vs0mg"},{"bike_id":"ca5fabd5-2041-49f7-8efa-5b1e1a132dfc","system_id":"levelo_inurba_marseille","lat":43.32474,"lon":5.37359,"is_reserved":false,"is_disabled":false,"rental_uris":{"android":"levelo://app?vid=ca5fabd5-2041-49f7-8efa-5b1e1a132dfc","ios":"levelo://app?vid=ca5fabd5-2041-49f7-8efa-5b1e1a132dfc"},"vehicle_type_id":"4","last_reported":1746216691,"current_range_meters":14800,"station_id":"","pricing_plan_id":"cebpf4jnsgd1na2vs0mg"},{"bike_id":"0b2ef19c-899d-45d1-9dba-8c9a1e171105","system_id":"levelo_inurba_marseille","lat":43.269408,"lon":5.402478,"is_reserved":false,"is_disabled":false,"rental_uris":{"android":"levelo://app?vid=0b2ef19c-899d-45d1-9dba-8c9a1e171105","ios":"levelo://app?vid=0b2ef19c-899d-45d1-9dba-8c9a1e171105"},"vehicle_type_id":"4","last_reported":1746216691,"current_range_meters":15200,"station_id":"cjm6bp8fraef2m0cb0m0","pricing_plan_id":"cebpf4jnsgd1na2vs0mg"},{"bike_id":"0eba58f0-2d16-4fe3-82e7-53ab7b61bda3","system_id":"levelo_inurba_marseille","lat":43.29884,"lon":5.38916,"is_reserved":false,"is_disabled":false,"rental_uris":{"android":"levelo://app?vid=0eba58f0-2d16-4fe3-82e7-53ab7b61bda3","ios":"levelo://app?vid=0eba58f0-2d16-4fe3-82e7-53ab7b61bda3"},"vehicle_type_id":"4","last_reported":1746216691,"current_range_meters":15200,"station_id":"ce4bh392rcd13ifvqdl0","pricing_plan_id":"cebpf4jnsgd1na2vs0mg"},{"bike_id":"2fa6d941-7f1a-4e85-9b97-98141b282f87","system_id":"levelo_inurba_marseille","lat":43.26957,"lon":5.4023,"is_reserved":false,"is_disabled":false,"rental_uris":{"android":"levelo://app?vid=2fa6d941-7f1a-4e85-9b97-98141b282f87","ios":"levelo://app?vid=2fa6d941-7f1a-4e85-9b97-98141b282f87"},"vehicle_type_id":"4","last_reported":1746216691,"current_range_meters":15200,"station_id":"cjm6bp8fraef2m0cb0m0","pricing_plan_id":"cebpf4jnsgd1na2vs0mg"},{"bike_id":"570b486c-50df-4f1f-97df-caa86c0d419e","system_id":"levelo_inurba_marseille","lat":43.32905,"lon":5.3551,"is_reserved":false,"is_disabled":false,"rental_uris":{"android":"levelo://app?vid=570b486c-50df-4f1f-97df-caa86c0d419e","ios":"levelo://app?vid=570b486c-50df-4f1f-97df-caa86c0d419e"},"vehicle_type_id":"4","last_reported":1746216691,"current_range_meters":15200,"station_id":"","pricing_plan_id":"cebpf4jnsgd1na2vs0mg"},{"bike_id":"7f61934c-9cb9-4176-a54d-8a502361a16e","system_id":"levelo_inurba_marseille","lat":43.30305,"lon":5.40434,"is_reserved":false,"is_disabled":false,"rental_uris":{"android":"levelo://app?vid=7f61934c-9cb9-4176-a54d-8a502361a16e","ios":"levelo://app?vid=7f61934c-9cb9-4176-a54d-8a502361a16e"},"vehicle_type_id":"4","last_reported":1746216691,"current_range_meters":15200,"station_id":"ce4bh012rcd13ifvqd10","pricing_plan_id":"cebpf4jnsgd1na2vs0mg"},{"bike_id":"b35a5b99-b49b-4725-95ff-77c4a22221db","system_id":"levelo_inurba_marseille","lat":43.27493,"lon":5.42466,"is_reserved":false,"is_disabled":false,"rental_uris":{"android":"levelo://app?vid=b35a5b99-b49b-4725-95ff-77c4a22221db","ios":"levelo://app?vid=b35a5b99-b49b-4725-95ff-77c4a22221db"},"vehicle_type_id":"4","last_reported":1746216691,"current_range_meters":15200,"station_id":"ce4bhn92rcd13ifvqgrg","pricing_plan_id":"cebpf4jnsgd1na2vs0mg"},{"bike_id":"0c3fbeaa-55ff-4c7c-a66c-46f4ecc86aeb","system_id":"levelo_inurba_marseille","lat":43.21224,"lon":5.35071,"is_reserved":false,"is_disabled":true,"rental_uris":{"android":"levelo://app?vid=0c3fbeaa-55ff-4c7c-a66c-46f4ecc86aeb","ios":"levelo://app?vid=0c3fbeaa-55ff-4c7c-a66c-46f4ecc86aeb"},"vehicle_type_id":"4","last_reported":1746216691,"current_range_meters":15200,"station_id":"st_cvj6sg6p6f1abm77japg","pricing_plan_id":"cebpf4jnsgd1na2vs0mg"},{"bike_id":"944f71e1-5595-4798-833c-c7ebd783dc75","system_id":"levelo_inurba_marseille","lat":43.3088,"lon":5.39659,"is_reserved":false,"is_disabled":false,"rental_uris":{"android":"levelo://app?vid=944f71e1-5595-4798-833c-c7ebd783dc75","ios":"levelo://app?vid=944f71e1-5595-4798-833c-c7ebd783dc75"},"vehicle_type_id":"4","last_reported":1746216691,"current_range_meters":16000,"station_id":"ce4bh012rcd13ifvqcv0","pricing_plan_id":"cebpf4jnsgd1na2vs0mg"},{"bike_id":"acbb6641-2026-488f-9159-977ad264cf28","system_id":"levelo_inurba_marseille","lat":43.29428,"lon":5.38615,"is_reserved":false,"is_disabled":false,"rental_uris":{"android":"levelo://app?vid=acbb6641-2026-488f-9159-977ad264cf28","ios":"levelo://app?vid=acbb6641-2026-488f-9159-977ad264cf28"},"vehicle_type_id":"4","last_reported":1746216691,"current_range_meters":16000,"station_id":"ce4bh2h2rcd13ifvqdh0","pricing_plan_id":"cebpf4jnsgd1na2vs0mg"},{"bike_id":"19b7c37a-59ac-45f9-b5b3-37fa47725293","system_id":"levelo_inurba_marseille","lat":43.26559,"lon":5.37282,"is_reserved":false,"is_disabled":false,"rental_uris":{"android":"levelo://app?vid=19b7c37a-59ac-45f9-b5b3-37fa47725293","ios":"levelo://app?vid=19b7c37a-59ac-45f9-b5b3-37fa47725293"},"vehicle_type_id":"4","last_reported":1746216691,"current_range_meters":16000,"station_id":"ce4bhg12rcd13ifvqf70","pricing_plan_id":"cebpf4jnsgd1na2vs0mg"},{"bike_id":"b460f147-0f1d-4e55-9519-16392487807b","system_id":"levelo_inurba_marseille","lat":43.26805,"lon":5.40238,"is_reserved":false,"is_disabled":false,"rental_uris":{"android":"levelo://app?vid=b460f147-0f1d-4e55-9519-16392487807b","ios":"levelo://app?vid=b460f147-0f1d-4e55-9519-16392487807b"},"vehicle_type_id":"4","last_reported":1746216691,"current_range_meters":16000,"station_id":"ce501612rcd8frsf0b60","pricing_plan_id":"cebpf4jnsgd1na2vs0mg"},{"bike_id":"bf25e6fe-af75-4372-a17c-f913d8b8253a","system_id":"levelo_inurba_marseille","lat":43.29262,"lon":5.38438,"is_reserved":false,"is_disabled":false,"rental_uris":{"android":"levelo://app?vid=bf25e6fe-af75-4372-a17c-f913d8b8253a","ios":"levelo://app?vid=bf25e6fe-af75-4372-a17c-f913d8b8253a"},"vehicle_type_id":"4","last_reported":1746216691,"current_range_meters":16000,"station_id":"ce4bh692rcd13ifvqea0","pricing_plan_id":"cebpf4jnsgd1na2vs0mg"},{"bike_id":"4a54ad5b-f587-4e8b-ab54-8ec108d9f61e","system_id":"levelo_inurba_marseille","lat":43.2693,"lon":5.40264,"is_reserved":false,"is_disabled":false,"rental_uris":{"android":"levelo://app?vid=4a54ad5b-f587-4e8b-ab54-8ec108d9f61e","ios":"levelo://app?vid=4a54ad5b-f587-4e8b-ab54-8ec108d9f61e"},"vehicle_type_id":"4","last_reported":1746216691,"current_range_meters":16000,"station_id":"cjm6bp8fraef2m0cb0m0","pricing_plan_id":"cebpf4jnsgd1na2vs0mg"},{"bike_id":"956bd3c1-5e2a-4ce6-bbf6-1585922f1f1a","system_id":"levelo_inurba_marseille","lat":43.28438,"lon":5.392,"is_reserved":false,"is_disabled":false,"rental_uris":{"android":"levelo://app?vid=956bd3c1-5e2a-4ce6-bbf6-1585922f1f1a","ios":"levelo://app?vid=956bd3c1-5e2a-4ce6-bbf6-1585922f1f1a"},"vehicle_type_id":"4","last_reported":1746216691,"current_range_meters":16000,"station_id":"ce4bhoh2rcd13ifvqh5g","pricing_plan_id":"cebpf4jnsgd1na2vs0mg"},{"bike_id":"bd04a6e8-9e6f-44bb-b829-04e25c7be811","system_id":"levelo_inurba_marseille","lat":43.26938,"lon":5.40241,"is_reserved":false,"is_disabled":false,"rental_uris":{"android":"levelo://app?vid=bd04a6e8-9e6f-44bb-b829-04e25c7be811","ios":"levelo://app?vid=bd04a6e8-9e6f-44bb-b829-04e25c7be811"},"vehicle_type_id":"4","last_reported":1746216691,"current_range_meters":16000,"station_id":"cjm6bp8fraef2m0cb0m0","pricing_plan_id":"cebpf4jnsgd1na2vs0mg"},{"bike_id":"cd162cb3-c9dd-44dc-b38c-0136a29beca8","system_id":"levelo_inurba_marseille","lat":43.28938,"lon":5.39627,"is_reserved":false,"is_disabled":false,"rental_uris":{"android":"levelo://app?vid=cd162cb3-c9dd-44dc-b38c-0136a29beca8","ios":"levelo://app?vid=cd162cb3-c9dd-44dc-b38c-0136a29beca8"},"vehicle_type_id":"4","last_reported":1746216691,"current_range_meters":16000,"station_id":"ce4bh3h2rcd13ifvqdn0","pricing_plan_id":"cebpf4jnsgd1na2vs0mg"},{"bike_id":"eaf148a5-ec04-4704-983c-63904c415856","system_id":"levelo_inurba_marseille","lat":43.29641,"lon":5.40593,"is_reserved":false,"is_disabled":false,"rental_uris":{"android":"levelo://app?vid=eaf148a5-ec04-4704-983c-63904c415856","ios":"levelo://app?vid=eaf148a5-ec04-4704-983c-63904c415856"},"vehicle_type_id":"4","last_reported":1746216691,"current_range_meters":16000,"station_id":"ce4bh0h2rcd13ifvqd60","pricing_plan_id":"cebpf4jnsgd1na2vs0mg"},{"bike_id":"a9970ff7-db3f-474e-8538-3cbee491999a","system_id":"levelo_inurba_marseille","lat":43.29412,"lon":5.38633,"is_reserved":false,"is_disabled":false,"rental_uris":{"android":"levelo://app?vid=a9970ff7-db3f-474e-8538-3cbee491999a","ios":"levelo://app?vid=a9970ff7-db3f-474e-8538-3cbee491999a"},"vehicle_type_id":"4","last_reported":1746216691,"current_range_meters":16000,"station_id":"ce4bh2h2rcd13ifvqdh0","pricing_plan_id":"cebpf4jnsgd1na2vs0mg"},{"bike_id":"76377960-c146-4078-9045-18e299a351ad","system_id":"levelo_inurba_marseille","lat":43.23145,"lon":5.43701,"is_reserved":false,"is_disabled":false,"rental_uris":{"android":"levelo://app?vid=76377960-c146-4078-9045-18e299a351ad","ios":"levelo://app?vid=76377960-c146-4078-9045-18e299a351ad"},"vehicle_type_id":"4","last_reported":1746216691,"current_range_meters":16400,"station_id":"ce4bhmp2rcd13ifvqgog","pricing_plan_id":"cebpf4jnsgd1na2vs0mg"},{"bike_id":"81fd0306-dc43-448f-95c9-7e762d4a2e19","system_id":"levelo_inurba_marseille","lat":43.30135,"lon":5.38773,"is_reserved":false,"is_disabled":false,"rental_uris":{"android":"levelo://app?vid=81fd0306-dc43-448f-95c9-7e762d4a2e19","ios":"levelo://app?vid=81fd0306-dc43-448f-95c9-7e762d4a2e19"},"vehicle_type_id":"4","last_reported":1746216691,"current_range_meters":16400,"station_id":"ce4bghh2rcd13ifvqb60","pricing_plan_id":"cebpf4jnsgd1na2vs0mg"},{"bike_id":"fb80c1da-d845-467b-9c3b-2f591f4d56ae","system_id":"levelo_inurba_marseille","lat":43.323406,"lon":5.37422,"is_reserved":false,"is_disabled":false,"rental_uris":{"android":"levelo://app?vid=fb80c1da-d845-467b-9c3b-2f591f4d56ae","ios":"levelo://app?vid=fb80c1da-d845-467b-9c3b-2f591f4d56ae"},"vehicle_type_id":"4","last_reported":1746216691,"current_range_meters":16400,"station_id":"","pricing_plan_id":"cebpf4jnsgd1na2vs0mg"},{"bike_id":"4ae02176-31a4-48f7-825f-a587fefa23c2","system_id":"levelo_inurba_marseille","lat":43.30173,"lon":5.36629,"is_reserved":false,"is_disabled":true,"rental_uris":{"android":"levelo://app?vid=4ae02176-31a4-48f7-825f-a587fefa23c2","ios":"levelo://app?vid=4ae02176-31a4-48f7-825f-a587fefa23c2"},"vehicle_type_id":"4","last_reported":1746216691,"current_range_meters":16800,"station_id":"ce4bgrh2rcd13ifvqc8g","pricing_plan_id":"cebpf4jnsgd1na2vs0mg"},{"bike_id":"50e5c26a-5146-470c-9de9-86238c4e014f","system_id":"levelo_inurba_marseille","lat":43.31156,"lon":5.38736,"is_reserved":false,"is_disabled":false,"rental_uris":{"android":"levelo://app?vid=50e5c26a-5146-470c-9de9-86238c4e014f","ios":"levelo://app?vid=50e5c26a-5146-470c-9de9-86238c4e014f"},"vehicle_type_id":"4","last_reported":1746216691,"current_range_meters":16400,"station_id":"ce4bgv12rcd13ifvqcp0","pricing_plan_id":"cebpf4jnsgd1na2vs0mg"},{"bike_id":"715d4ccd-4d07-4967-8be3-b199930f65b6","system_id":"levelo_inurba_marseille","lat":43.31072,"lon":5.401,"is_reserved":false,"is_disabled":false,"rental_uris":{"android":"levelo://app?vid=715d4ccd-4d07-4967-8be3-b199930f65b6","ios":"levelo://app?vid=715d4ccd-4d07-4967-8be3-b199930f65b6"},"vehicle_type_id":"4","last_reported":1746216691,"current_range_meters":16400,"station_id":"","pricing_plan_id":"cebpf4jnsgd1na2vs0mg"},{"bike_id":"3eaf3c29-630f-4035-a601-654b302c32de","system_id":"levelo_inurba_marseille","lat":43.29882,"lon":5.38906,"is_reserved":false,"is_disabled":false,"rental_uris":{"android":"levelo://app?vid=3eaf3c29-630f-4035-a601-654b302c32de","ios":"levelo://app?vid=3eaf3c29-630f-4035-a601-654b302c32de"},"vehicle_type_id":"4","last_reported":1746216691,"current_range_meters":16400,"station_id":"ce4bh392rcd13ifvqdl0","pricing_plan_id":"cebpf4jnsgd1na2vs0mg"},{"bike_id":"086f0a98-8ee2-4a53-8260-7493ea285446","system_id":"levelo_inurba_marseille","lat":43.30213,"lon":5.39466,"is_reserved":false,"is_disabled":false,"rental_uris":{"android":"levelo://app?vid=086f0a98-8ee2-4a53-8260-7493ea285446","ios":"levelo://app?vid=086f0a98-8ee2-4a53-8260-7493ea285446"},"vehicle_type_id":"4","last_reported":1746216691,"current_range_meters":16400,"station_id":"ce4bh0p2rcd13ifvqd70","pricing_plan_id":"cebpf4jnsgd1na2vs0mg"},{"bike_id":"73f9f0e1-5d81-4c8d-a021-af842d2e57e7","system_id":"levelo_inurba_marseille","lat":43.29315,"lon":5.37172,"is_reserved":false,"is_disabled":false,"rental_uris":{"android":"levelo://app?vid=73f9f0e1-5d81-4c8d-a021-af842d2e57e7","ios":"levelo://app?vid=73f9f0e1-5d81-4c8d-a021-af842d2e57e7"},"vehicle_type_id":"4","last_reported":1746216691,"current_range_meters":16400,"station_id":"ce4bgh92rcd13ifvqb40","pricing_plan_id":"cebpf4jnsgd1na2vs0mg"},{"bike_id":"f7bd1b65-2b45-46d1-aed5-a9f53030d27e","system_id":"levelo_inurba_marseille","lat":43.29409,"lon":5.38627,"is_reserved":false,"is_disabled":false,"rental_uris":{"android":"levelo://app?vid=f7bd1b65-2b45-46d1-aed5-a9f53030d27e","ios":"levelo://app?vid=f7bd1b65-2b45-46d1-aed5-a9f53030d27e"},"vehicle_type_id":"4","last_reported":1746216691,"current_range_meters":16400,"station_id":"ce4bh2h2rcd13ifvqdh0","pricing_plan_id":"cebpf4jnsgd1na2vs0mg"},{"bike_id":"ff79280e-1855-4d0a-9416-0d33a2ce1c48","system_id":"levelo_inurba_marseille","lat":43.21167,"lon":5.35078,"is_reserved":false,"is_disabled":true,"rental_uris":{"android":"levelo://app?vid=ff79280e-1855-4d0a-9416-0d33a2ce1c48","ios":"levelo://app?vid=ff79280e-1855-4d0a-9416-0d33a2ce1c48"},"vehicle_type_id":"4","last_reported":1746216691,"current_range_meters":16800,"station_id":"","pricing_plan_id":"cebpf4jnsgd1na2vs0mg"},{"bike_id":"04dd3f61-6938-4f1a-a374-eaf3ebf58ffc","system_id":"levelo_inurba_marseille","lat":43.2909,"lon":5.38156,"is_reserved":false,"is_disabled":false,"rental_uris":{"android":"levelo://app?vid=04dd3f61-6938-4f1a-a374-eaf3ebf58ffc","ios":"levelo://app?vid=04dd3f61-6938-4f1a-a374-eaf3ebf58ffc"},"vehicle_type_id":"4","last_reported":1746216691,"current_range_meters":16800,"station_id":"ce4bh512rcd13ifvqe2g","pricing_plan_id":"cebpf4jnsgd1na2vs0mg"},{"bike_id":"a891b801-ad93-451d-ad31-160bd6912d84","system_id":"levelo_inurba_marseille","lat":43.30601,"lon":5.37228,"is_reserved":false,"is_disabled":false,"rental_uris":{"android":"levelo://app?vid=a891b801-ad93-451d-ad31-160bd6912d84","ios":"levelo://app?vid=a891b801-ad93-451d-ad31-160bd6912d84"},"vehicle_type_id":"4","last_reported":1746216691,"current_range_meters":16800,"station_id":"ce4bgqh2rcd13ifvqc4g","pricing_plan_id":"cebpf4jnsgd1na2vs0mg"},{"bike_id":"8234082d-4498-45da-9a5f-8e938f42803d","system_id":"levelo_inurba_marseille","lat":43.23185,"lon":5.35548,"is_reserved":false,"is_disabled":false,"rental_uris":{"android":"levelo://app?vid=8234082d-4498-45da-9a5f-8e938f42803d","ios":"levelo://app?vid=8234082d-4498-45da-9a5f-8e938f42803d"},"vehicle_type_id":"4","last_reported":1746216691,"current_range_meters":16800,"station_id":"ce4bhu92rcd13ifvqi70","pricing_plan_id":"cebpf4jnsgd1na2vs0mg"},{"bike_id":"7c6bf0a8-5235-4f54-93e3-2a7766c5530b","system_id":"levelo_inurba_marseille","lat":43.29263,"lon":5.38437,"is_reserved":false,"is_disabled":false,"rental_uris":{"android":"levelo://app?vid=7c6bf0a8-5235-4f54-93e3-2a7766c5530b","ios":"levelo://app?vid=7c6bf0a8-5235-4f54-93e3-2a7766c5530b"},"vehicle_type_id":"4","last_reported":1746216691,"current_range_meters":16800,"station_id":"ce4bh692rcd13ifvqea0","pricing_plan_id":"cebpf4jnsgd1na2vs0mg"},{"bike_id":"f3e79b60-88b0-4c65-a990-57bc82f4f265","system_id":"levelo_inurba_marseille","lat":43.24809,"lon":5.37451,"is_reserved":false,"is_disabled":false,"rental_uris":{"android":"levelo://app?vid=f3e79b60-88b0-4c65-a990-57bc82f4f265","ios":"levelo://app?vid=f3e79b60-88b0-4c65-a990-57bc82f4f265"},"vehicle_type_id":"4","last_reported":1746216691,"current_range_meters":16800,"station_id":"ce4bhgh2rcd13ifvqfb0","pricing_plan_id":"cebpf4jnsgd1na2vs0mg"},{"bike_id":"259675d8-cd98-4cc1-9aea-4ba10884c46f","system_id":"levelo_inurba_marseille","lat":43.26792,"lon":5.39415,"is_reserved":false,"is_disabled":false,"rental_uris":{"android":"levelo://app?vid=259675d8-cd98-4cc1-9aea-4ba10884c46f","ios":"levelo://app?vid=259675d8-cd98-4cc1-9aea-4ba10884c46f"},"vehicle_type_id":"4","last_reported":1746216691,"current_range_meters":16800,"station_id":"ce4bhh12rcd13ifvqfg0","pricing_plan_id":"cebpf4jnsgd1na2vs0mg"},{"bike_id":"a6ceb1bb-4bc7-4d7c-8027-f3b0af77f511","system_id":"levelo_inurba_marseille","lat":43.30913,"lon":5.40156,"is_reserved":false,"is_disabled":false,"rental_uris":{"android":"levelo://app?vid=a6ceb1bb-4bc7-4d7c-8027-f3b0af77f511","ios":"levelo://app?vid=a6ceb1bb-4bc7-4d7c-8027-f3b0af77f511"},"vehicle_type_id":"4","last_reported":1746216691,"current_range_meters":17200,"station_id":"ce4bgvp2rcd13ifvqct0","pricing_plan_id":"cebpf4jnsgd1na2vs0mg"},{"bike_id":"aedf206f-89f3-4f30-9da6-56fb7ff8915b","system_id":"levelo_inurba_marseille","lat":43.28081,"lon":5.40398,"is_reserved":false,"is_disabled":false,"rental_uris":{"android":"levelo://app?vid=aedf206f-89f3-4f30-9da6-56fb7ff8915b","ios":"levelo://app?vid=aedf206f-89f3-4f30-9da6-56fb7ff8915b"},"vehicle_type_id":"4","last_reported":1746216691,"current_range_meters":17200,"station_id":"","pricing_plan_id":"cebpf4jnsgd1na2vs0mg"},{"bike_id":"2e5fd212-7cb7-4084-bf02-3ec0ddd53fdc","system_id":"levelo_inurba_marseille","lat":43.27498,"lon":5.42451,"is_reserved":false,"is_disabled":false,"rental_uris":{"android":"levelo://app?vid=2e5fd212-7cb7-4084-bf02-3ec0ddd53fdc","ios":"levelo://app?vid=2e5fd212-7cb7-4084-bf02-3ec0ddd53fdc"},"vehicle_type_id":"4","last_reported":1746216691,"current_range_meters":17200,"station_id":"ce4bhn92rcd13ifvqgrg","pricing_plan_id":"cebpf4jnsgd1na2vs0mg"},{"bike_id":"701e5227-22ae-4915-aea9-f5edaf97a446","system_id":"levelo_inurba_marseille","lat":43.31758,"lon":5.39029,"is_reserved":false,"is_disabled":false,"rental_uris":{"android":"levelo://app?vid=701e5227-22ae-4915-aea9-f5edaf97a446","ios":"levelo://app?vid=701e5227-22ae-4915-aea9-f5edaf97a446"},"vehicle_type_id":"4","last_reported":1746216691,"current_range_meters":17200,"station_id":"ce4bhqp2rcd13ifvqhng","pricing_plan_id":"cebpf4jnsgd1na2vs0mg"},{"bike_id":"ad425008-8d22-4e90-9456-32b2cb008bf6","system_id":"levelo_inurba_marseille","lat":43.30135,"lon":5.38793,"is_reserved":false,"is_disabled":false,"rental_uris":{"android":"levelo://app?vid=ad425008-8d22-4e90-9456-32b2cb008bf6","ios":"levelo://app?vid=ad425008-8d22-4e90-9456-32b2cb008bf6"},"vehicle_type_id":"4","last_reported":1746216691,"current_range_meters":17200,"station_id":"ce4bghh2rcd13ifvqb60","pricing_plan_id":"cebpf4jnsgd1na2vs0mg"},{"bike_id":"f3047923-25d6-44c3-acad-47fdbdf1ec5c","system_id":"levelo_inurba_marseille","lat":43.28717,"lon":5.37957,"is_reserved":false,"is_disabled":false,"rental_uris":{"android":"levelo://app?vid=f3047923-25d6-44c3-acad-47fdbdf1ec5c","ios":"levelo://app?vid=f3047923-25d6-44c3-acad-47fdbdf1ec5c"},"vehicle_type_id":"4","last_reported":1746216691,"current_range_meters":17200,"station_id":"ce4bh9p2rcd13ifvqec0","pricing_plan_id":"cebpf4jnsgd1na2vs0mg"},{"bike_id":"3fa05eab-bd38-4e51-9d14-fab3387355a7","system_id":"levelo_inurba_marseille","lat":43.322917,"lon":5.38291,"is_reserved":false,"is_disabled":false,"rental_uris":{"android":"levelo://app?vid=3fa05eab-bd38-4e51-9d14-fab3387355a7","ios":"levelo://app?vid=3fa05eab-bd38-4e51-9d14-fab3387355a7"},"vehicle_type_id":"4","last_reported":1746216691,"current_range_meters":17200,"station_id":"ce4bhr12rcd13ifvqhqg","pricing_plan_id":"cebpf4jnsgd1na2vs0mg"},{"bike_id":"3d04bc46-d08d-4956-934e-ba5aaa578fd0","system_id":"levelo_inurba_marseille","lat":43.3211,"lon":5.36769,"is_reserved":false,"is_disabled":false,"rental_uris":{"android":"levelo://app?vid=3d04bc46-d08d-4956-934e-ba5aaa578fd0","ios":"levelo://app?vid=3d04bc46-d08d-4956-934e-ba5aaa578fd0"},"vehicle_type_id":"4","last_reported":1746216691,"current_range_meters":17200,"station_id":"ce4bhrh2rcd13ifvqhug","pricing_plan_id":"cebpf4jnsgd1na2vs0mg"},{"bike_id":"ac8fd75e-d018-42b5-a136-f0243783e7cf","system_id":"levelo_inurba_marseille","lat":43.2842,"lon":5.35003,"is_reserved":false,"is_disabled":false,"rental_uris":{"android":"levelo://app?vid=ac8fd75e-d018-42b5-a136-f0243783e7cf","ios":"levelo://app?vid=ac8fd75e-d018-42b5-a136-f0243783e7cf"},"vehicle_type_id":"4","last_reported":1746216691,"current_range_meters":17600,"station_id":"ce4bhbh2rcd13ifvqepg","pricing_plan_id":"cebpf4jnsgd1na2vs0mg"},{"bike_id":"4e2a580d-aa3f-4136-aa6c-85953affc1a2","system_id":"levelo_inurba_marseille","lat":43.24806,"lon":5.37451,"is_reserved":false,"is_disabled":false,"rental_uris":{"android":"levelo://app?vid=4e2a580d-aa3f-4136-aa6c-85953affc1a2","ios":"levelo://app?vid=4e2a580d-aa3f-4136-aa6c-85953affc1a2"},"vehicle_type_id":"4","last_reported":1746216691,"current_range_meters":17600,"station_id":"ce4bhgh2rcd13ifvqfb0","pricing_plan_id":"cebpf4jnsgd1na2vs0mg"},{"bike_id":"b960b3d9-efec-4356-b547-dd31cfa5d929","system_id":"levelo_inurba_marseille","lat":43.31755,"lon":5.39024,"is_reserved":false,"is_disabled":false,"rental_uris":{"android":"levelo://app?vid=b960b3d9-efec-4356-b547-dd31cfa5d929","ios":"levelo://app?vid=b960b3d9-efec-4356-b547-dd31cfa5d929"},"vehicle_type_id":"4","last_reported":1746216691,"current_range_meters":17600,"station_id":"ce4bhqp2rcd13ifvqhng","pricing_plan_id":"cebpf4jnsgd1na2vs0mg"},{"bike_id":"2872d3c1-4ba6-4718-a22b-82465f514cdd","system_id":"levelo_inurba_marseille","lat":43.29969,"lon":5.38492,"is_reserved":false,"is_disabled":true,"rental_uris":{"android":"levelo://app?vid=2872d3c1-4ba6-4718-a22b-82465f514cdd","ios":"levelo://app?vid=2872d3c1-4ba6-4718-a22b-82465f514cdd"},"vehicle_type_id":"4","last_reported":1746216691,"current_range_meters":17600,"station_id":"ce4bgj92rcd13ifvqbd0","pricing_plan_id":"cebpf4jnsgd1na2vs0mg"},{"bike_id":"558c4902-7d55-4c42-a78e-040a0546458a","system_id":"levelo_inurba_marseille","lat":43.29559,"lon":5.42298,"is_reserved":false,"is_disabled":false,"rental_uris":{"android":"levelo://app?vid=558c4902-7d55-4c42-a78e-040a0546458a","ios":"levelo://app?vid=558c4902-7d55-4c42-a78e-040a0546458a"},"vehicle_type_id":"4","last_reported":1746216691,"current_range_meters":17600,"station_id":"ce4bhph2rcd13ifvqhdg","pricing_plan_id":"cebpf4jnsgd1na2vs0mg"},{"bike_id":"318caed6-fcae-47cf-b012-b2df285bf79f","system_id":"levelo_inurba_marseille","lat":43.24665,"lon":5.38165,"is_reserved":false,"is_disabled":false,"rental_uris":{"android":"levelo://app?vid=318caed6-fcae-47cf-b012-b2df285bf79f","ios":"levelo://app?vid=318caed6-fcae-47cf-b012-b2df285bf79f"},"vehicle_type_id":"4","last_reported":1746216691,"current_range_meters":17600,"station_id":"ce4bhih2rcd13ifvqfr0","pricing_plan_id":"cebpf4jnsgd1na2vs0mg"},{"bike_id":"f3856500-c738-4fde-9ae8-266e0f29862e","system_id":"levelo_inurba_marseille","lat":43.278079,"lon":5.406922,"is_reserved":false,"is_disabled":false,"rental_uris":{"android":"levelo://app?vid=f3856500-c738-4fde-9ae8-266e0f29862e","ios":"levelo://app?vid=f3856500-c738-4fde-9ae8-266e0f29862e"},"vehicle_type_id":"4","last_reported":1746216691,"current_range_meters":17200,"station_id":"ce4bhnh2rcd13ifvqgtg","pricing_plan_id":"cebpf4jnsgd1na2vs0mg"},{"bike_id":"b8d6bd6b-e69d-4869-8d67-2bbec570ca30","system_id":"levelo_inurba_marseille","lat":43.284,"lon":5.37525,"is_reserved":false,"is_disabled":false,"rental_uris":{"android":"levelo://app?vid=b8d6bd6b-e69d-4869-8d67-2bbec570ca30","ios":"levelo://app?vid=b8d6bd6b-e69d-4869-8d67-2bbec570ca30"},"vehicle_type_id":"4","last_reported":1746216691,"current_range_meters":17600,"station_id":"ce4bh412rcd13ifvqds0","pricing_plan_id":"cebpf4jnsgd1na2vs0mg"},{"bike_id":"21a3226e-7eed-4fed-9998-a97aa7939176","system_id":"levelo_inurba_marseille","lat":43.27954,"lon":5.41037,"is_reserved":false,"is_disabled":false,"rental_uris":{"android":"levelo://app?vid=21a3226e-7eed-4fed-9998-a97aa7939176","ios":"levelo://app?vid=21a3226e-7eed-4fed-9998-a97aa7939176"},"vehicle_type_id":"4","last_reported":1746216691,"current_range_meters":18000,"station_id":"ce4bhnp2rcd13ifvqh0g","pricing_plan_id":"cebpf4jnsgd1na2vs0mg"},{"bike_id":"f8a66a72-85a0-49b1-a72f-b1e31f6d694d","system_id":"levelo_inurba_marseille","lat":43.31692,"lon":5.40466,"is_reserved":false,"is_disabled":false,"rental_uris":{"android":"levelo://app?vid=f8a66a72-85a0-49b1-a72f-b1e31f6d694d","ios":"levelo://app?vid=f8a66a72-85a0-49b1-a72f-b1e31f6d694d"},"vehicle_type_id":"4","last_reported":1746216691,"current_range_meters":18000,"station_id":"ce4bh012rcd13ifvqd00","pricing_plan_id":"cebpf4jnsgd1na2vs0mg"},{"bike_id":"fdfb6a91-4b62-45f4-9213-d61ecc4032c1","system_id":"levelo_inurba_marseille","lat":43.29989,"lon":5.40395,"is_reserved":false,"is_disabled":false,"rental_uris":{"android":"levelo://app?vid=fdfb6a91-4b62-45f4-9213-d61ecc4032c1","ios":"levelo://app?vid=fdfb6a91-4b62-45f4-9213-d61ecc4032c1"},"vehicle_type_id":"4","last_reported":1746216691,"current_range_meters":18000,"station_id":"","pricing_plan_id":"cebpf4jnsgd1na2vs0mg"},{"bike_id":"5ccadad1-2509-45d7-a562-6e654129f0aa","system_id":"levelo_inurba_marseille","lat":43.28568,"lon":5.394976,"is_reserved":false,"is_disabled":false,"rental_uris":{"android":"levelo://app?vid=5ccadad1-2509-45d7-a562-6e654129f0aa","ios":"levelo://app?vid=5ccadad1-2509-45d7-a562-6e654129f0aa"},"vehicle_type_id":"4","last_reported":1746216691,"current_range_meters":18000,"station_id":"ce4bh292rcd13ifvqdg0","pricing_plan_id":"cebpf4jnsgd1na2vs0mg"},{"bike_id":"e0ceefc0-61c9-406f-91eb-ef69db9dbe42","system_id":"levelo_inurba_marseille","lat":43.26105,"lon":5.41472,"is_reserved":false,"is_disabled":false,"rental_uris":{"android":"levelo://app?vid=e0ceefc0-61c9-406f-91eb-ef69db9dbe42","ios":"levelo://app?vid=e0ceefc0-61c9-406f-91eb-ef69db9dbe42"},"vehicle_type_id":"4","last_reported":1746216691,"current_range_meters":18800,"station_id":"","pricing_plan_id":"cebpf4jnsgd1na2vs0mg"},{"bike_id":"fa49263d-7d9d-49f3-b4d8-999935490889","system_id":"levelo_inurba_marseille","lat":43.29167,"lon":5.37165,"is_reserved":false,"is_disabled":false,"rental_uris":{"android":"levelo://app?vid=fa49263d-7d9d-49f3-b4d8-999935490889","ios":"levelo://app?vid=fa49263d-7d9d-49f3-b4d8-999935490889"},"vehicle_type_id":"4","last_reported":1746216691,"current_range_meters":18800,"station_id":"ce4bha92rcd13ifvqeh0","pricing_plan_id":"cebpf4jnsgd1na2vs0mg"},{"bike_id":"25c62e8a-6f18-49ec-84e3-c2d88fba5ea7","system_id":"levelo_inurba_marseille","lat":43.2953,"lon":5.38546,"is_reserved":false,"is_disabled":false,"rental_uris":{"android":"levelo://app?vid=25c62e8a-6f18-49ec-84e3-c2d88fba5ea7","ios":"levelo://app?vid=25c62e8a-6f18-49ec-84e3-c2d88fba5ea7"},"vehicle_type_id":"4","last_reported":1746216691,"current_range_meters":18800,"station_id":"ce4bgih2rcd13ifvqba0","pricing_plan_id":"cebpf4jnsgd1na2vs0mg"},{"bike_id":"2bb6a742-8392-44ba-a660-cb62073d888e","system_id":"levelo_inurba_marseille","lat":43.32101,"lon":5.36712,"is_reserved":false,"is_disabled":false,"rental_uris":{"android":"levelo://app?vid=2bb6a742-8392-44ba-a660-cb62073d888e","ios":"levelo://app?vid=2bb6a742-8392-44ba-a660-cb62073d888e"},"vehicle_type_id":"4","last_reported":1746216691,"current_range_meters":18800,"station_id":"ce4bhrh2rcd13ifvqhug","pricing_plan_id":"cebpf4jnsgd1na2vs0mg"},{"bike_id":"66196074-3e45-4cc0-942f-7d7fc45118d6","system_id":"levelo_inurba_marseille","lat":43.29416,"lon":5.38629,"is_reserved":false,"is_disabled":false,"rental_uris":{"android":"levelo://app?vid=66196074-3e45-4cc0-942f-7d7fc45118d6","ios":"levelo://app?vid=66196074-3e45-4cc0-942f-7d7fc45118d6"},"vehicle_type_id":"4","last_reported":1746216691,"current_range_meters":18800,"station_id":"ce4bh2h2rcd13ifvqdh0","pricing_plan_id":"cebpf4jnsgd1na2vs0mg"},{"bike_id":"ab27650d-990c-4f11-8c4c-72965d467572","system_id":"levelo_inurba_marseille","lat":43.29277,"lon":5.38433,"is_reserved":false,"is_disabled":false,"rental_uris":{"android":"levelo://app?vid=ab27650d-990c-4f11-8c4c-72965d467572","ios":"levelo://app?vid=ab27650d-990c-4f11-8c4c-72965d467572"},"vehicle_type_id":"4","last_reported":1746216691,"current_range_meters":18800,"station_id":"ce4bh692rcd13ifvqea0","pricing_plan_id":"cebpf4jnsgd1na2vs0mg"},{"bike_id":"133835ca-5016-45b8-b651-31e2cfe662f1","system_id":"levelo_inurba_marseille","lat":43.321126,"lon":5.367683,"is_reserved":false,"is_disabled":false,"rental_uris":{"android":"levelo://app?vid=133835ca-5016-45b8-b651-31e2cfe662f1","ios":"levelo://app?vid=133835ca-5016-45b8-b651-31e2cfe662f1"},"vehicle_type_id":"4","last_reported":1746216691,"current_range_meters":18800,"station_id":"ce4bhrh2rcd13ifvqhug","pricing_plan_id":"cebpf4jnsgd1na2vs0mg"},{"bike_id":"2edd2abc-53fb-4303-b1e2-682d67a72f61","system_id":"levelo_inurba_marseille","lat":43.31364,"lon":5.38479,"is_reserved":false,"is_disabled":false,"rental_uris":{"android":"levelo://app?vid=2edd2abc-53fb-4303-b1e2-682d67a72f61","ios":"levelo://app?vid=2edd2abc-53fb-4303-b1e2-682d67a72f61"},"vehicle_type_id":"4","last_reported":1746216691,"current_range_meters":18800,"station_id":"ce4bgt92rcd13ifvqcf0","pricing_plan_id":"cebpf4jnsgd1na2vs0mg"},{"bike_id":"f5e508c6-12d8-4c0f-83e4-9cf84b113019","system_id":"levelo_inurba_marseille","lat":43.24389,"lon":5.37062,"is_reserved":false,"is_disabled":false,"rental_uris":{"android":"levelo://app?vid=f5e508c6-12d8-4c0f-83e4-9cf84b113019","ios":"levelo://app?vid=f5e508c6-12d8-4c0f-83e4-9cf84b113019"},"vehicle_type_id":"4","last_reported":1746216691,"current_range_meters":19200,"station_id":"ce4bhhh2rcd13ifvqfk0","pricing_plan_id":"cebpf4jnsgd1na2vs0mg"},{"bike_id":"f9e6ac8a-d3aa-4f57-bdb5-3ce66ce2a3d9","system_id":"levelo_inurba_marseille","lat":43.294293,"lon":5.386216,"is_reserved":false,"is_disabled":false,"rental_uris":{"android":"levelo://app?vid=f9e6ac8a-d3aa-4f57-bdb5-3ce66ce2a3d9","ios":"levelo://app?vid=f9e6ac8a-d3aa-4f57-bdb5-3ce66ce2a3d9"},"vehicle_type_id":"4","last_reported":1746216691,"current_range_meters":19200,"station_id":"ce4bh2h2rcd13ifvqdh0","pricing_plan_id":"cebpf4jnsgd1na2vs0mg"},{"bike_id":"48fece27-19b4-40c0-a5a5-128630e207da","system_id":"levelo_inurba_marseille","lat":43.32128,"lon":5.36772,"is_reserved":false,"is_disabled":false,"rental_uris":{"android":"levelo://app?vid=48fece27-19b4-40c0-a5a5-128630e207da","ios":"levelo://app?vid=48fece27-19b4-40c0-a5a5-128630e207da"},"vehicle_type_id":"4","last_reported":1746216691,"current_range_meters":19200,"station_id":"ce4bhrh2rcd13ifvqhug","pricing_plan_id":"cebpf4jnsgd1na2vs0mg"},{"bike_id":"57aff548-2688-4a9d-a1bb-be21fef88096","system_id":"levelo_inurba_marseille","lat":43.29095,"lon":5.38147,"is_reserved":false,"is_disabled":false,"rental_uris":{"android":"levelo://app?vid=57aff548-2688-4a9d-a1bb-be21fef88096","ios":"levelo://app?vid=57aff548-2688-4a9d-a1bb-be21fef88096"},"vehicle_type_id":"4","last_reported":1746216691,"current_range_meters":19200,"station_id":"ce4bh512rcd13ifvqe2g","pricing_plan_id":"cebpf4jnsgd1na2vs0mg"},{"bike_id":"59b25313-45ab-4ac9-952f-d81b9a2111a5","system_id":"levelo_inurba_marseille","lat":43.29254,"lon":5.38472,"is_reserved":false,"is_disabled":false,"rental_uris":{"android":"levelo://app?vid=59b25313-45ab-4ac9-952f-d81b9a2111a5","ios":"levelo://app?vid=59b25313-45ab-4ac9-952f-d81b9a2111a5"},"vehicle_type_id":"4","last_reported":1746216691,"current_range_meters":19200,"station_id":"ce4bh692rcd13ifvqea0","pricing_plan_id":"cebpf4jnsgd1na2vs0mg"},{"bike_id":"dd3783d4-76d1-4635-a0a4-54c6e0f8bf76","system_id":"levelo_inurba_marseille","lat":43.29268,"lon":5.38435,"is_reserved":false,"is_disabled":false,"rental_uris":{"android":"levelo://app?vid=dd3783d4-76d1-4635-a0a4-54c6e0f8bf76","ios":"levelo://app?vid=dd3783d4-76d1-4635-a0a4-54c6e0f8bf76"},"vehicle_type_id":"4","last_reported":1746216691,"current_range_meters":19200,"station_id":"ce4bh692rcd13ifvqea0","pricing_plan_id":"cebpf4jnsgd1na2vs0mg"},{"bike_id":"0b336cd0-5236-4f3f-8adc-aa0160a8c4bf","system_id":"levelo_inurba_marseille","lat":43.29572,"lon":5.3753,"is_reserved":false,"is_disabled":false,"rental_uris":{"android":"levelo://app?vid=0b336cd0-5236-4f3f-8adc-aa0160a8c4bf","ios":"levelo://app?vid=0b336cd0-5236-4f3f-8adc-aa0160a8c4bf"},"vehicle_type_id":"4","last_reported":1746216691,"current_range_meters":19200,"station_id":"ce4bgh92rcd13ifvqb50","pricing_plan_id":"cebpf4jnsgd1na2vs0mg"},{"bike_id":"3c9d1a9b-1d3c-4fcb-a55d-58bbb83b0505","system_id":"levelo_inurba_marseille","lat":43.29529,"lon":5.38537,"is_reserved":false,"is_disabled":false,"rental_uris":{"android":"levelo://app?vid=3c9d1a9b-1d3c-4fcb-a55d-58bbb83b0505","ios":"levelo://app?vid=3c9d1a9b-1d3c-4fcb-a55d-58bbb83b0505"},"vehicle_type_id":"4","last_reported":1746216691,"current_range_meters":19200,"station_id":"ce4bgih2rcd13ifvqba0","pricing_plan_id":"cebpf4jnsgd1na2vs0mg"},{"bike_id":"229968da-7d33-4d19-ba22-3d72460da41f","system_id":"levelo_inurba_marseille","lat":43.29881,"lon":5.39732,"is_reserved":false,"is_disabled":false,"rental_uris":{"android":"levelo://app?vid=229968da-7d33-4d19-ba22-3d72460da41f","ios":"levelo://app?vid=229968da-7d33-4d19-ba22-3d72460da41f"},"vehicle_type_id":"4","last_reported":1746216691,"current_range_meters":19200,"station_id":"ce4bh0h2rcd13ifvqd50","pricing_plan_id":"cebpf4jnsgd1na2vs0mg"},