{"last_updated":1728900597,"ttl":60,"version":"2.2","data":{"bikes":[{"bike_id":"79d6d2a6-01c8-46e7-8618-793d521dfaaf","system_id":"levelo_inurba_marseille","lat":43.23144,"lon":5.43725,"is_reserved":false,"is_disabled":false,"rental_uris":{"android":"levelo://app?vid=79d6d2a6-01c8-46e7-8618-793d521dfaaf","ios":"levelo://app?vid=79d6d2a6-01c8-46e7-8618-793d521dfaaf"},"vehicle_type_id":"4","last_reported":1728900597,"current_range_meters":10000,"station_id":"ce4bhmp2rcd13ifvqgog","pricing_plan_id":"cebpf4jnsgd1na2vs0mg"},{"bike_id":"d9a92d49-75fa-47ec-be2d-525eb43beb0f","system_id":"levelo_inurba_marseille","lat":43.3122,"lon":5.36858,"is_reserved":false,"is_disabled":false,"rental_uris":{"android":"levelo://app?vid=d9a92d49-75fa-47ec-be2d-525eb43beb0f","ios":"levelo://app?vid=d9a92d49-75fa-47ec-be2d-525eb43beb0f"},"vehicle_type_id":"4","last_reported":1728900597,"current_range_meters":4800,"station_id":"ce4bgl92rcd13ifvqbq0","pricing_plan_id":"cebpf4jnsgd1na2vs0mg"},{"bike_id":"3f32c684-5ee0-465d-a31b-d82508958537","system_id":"levelo_inurba_marseille","lat":43.296893,"lon":5.367419,"is_reserved":false,"is_disabled":false,"rental_uris":{"android":"levelo://app?vid=3f32c684-5ee0-465d-a31b-d82508958537","ios":"levelo://app?vid=3f32c684-5ee0-465d-a31b-d82508958537"},"vehicle_type_id":"4","last_reported":1728900597,"current_range_meters":38400,"station_id":"ce4bgn12rcd13ifvqbt0","pricing_plan_id":"cebpf4jnsgd1na2vs0mg"},{"bike_id":"08ccb5af-b902-4e80-a336-12e3a0fd6271","system_id":"levelo_inurba_marseille","lat":43.23179,"lon":5.3999,"is_reserved":false,"is_disabled":false,"rental_uris":{"android":"levelo://app?vid=08ccb5af-b902-4e80-a336-12e3a0fd6271","ios":"levelo://app?vid=08ccb5af-b902-4e80-a336-12e3a0fd6271"},"vehicle_type_id":"4","last_reported":1728900597,"current_range_meters":32000,"station_id":"ce4bhn12rcd13ifvqgqg","pricing_plan_id":"cebpf4jnsgd1na2vs0mg"},{"bike_id":"9e5a236d-82d8-49d2-972d-d807fcdc38e0","system_id":"levelo_inurba_marseille","lat":43.23176,"lon":5.39991,"is_reserved":false,"is_disabled":false,"rental_uris":{"android":"levelo://app?vid=9e5a236d-82d8-49d2-972d-d807fcdc38e0","ios":"levelo://app?vid=9e5a236d-82d8-49d2-972d-d807fcdc38e0"},"vehicle_type_id":"4","last_reported":1728900597,"current_range_meters":15200,"station_id":"ce4bhn12rcd13ifvqgqg","pricing_plan_id":"cebpf4jnsgd1na2vs0mg"},{"bike_id":"599c09fe-085f-4c4d-bcb2-98da69515aba","system_id":"levelo_inurba_marseille","lat":43.23055,"lon":5.3549,"is_reserved":false,"is_disabled":false,"rental_uris":{"android":"levelo://app?vid=599c09fe-085f-4c4d-bcb2-98da69515aba","ios":"levelo://app?vid=599c09fe-085f-4c4d-bcb2-98da69515aba"},"vehicle_type_id":"4","last_reported":1728900597,"current_range_meters":37600,"station_id":"cpo3342slgdg3j2ifvpg","pricing_plan_id":"cebpf4jnsgd1na2vs0mg"},{"bike_id":"30d0f7be-90d9-4fbd-927d-7d57a22f0ceb","system_id":"levelo_inurba_marseille","lat":43.28608,"lon":5.37053,"is_reserved":false,"is_disabled":false,"rental_uris":{"android":"levelo://app?vid=30d0f7be-90d9-4fbd-927d-7d57a22f0ceb","ios":"levelo://app?vid=30d0f7be-90d9-4fbd-927d-7d57a22f0ceb"},"vehicle_type_id":"4","last_reported":1728900597,"current_range_meters":7200,"station_id":"ce4bht12rcd13ifvqi60","pricing_plan_id":"cebpf4jnsgd1na2vs0mg"},{"bike_id":"ca781b40-e6ed-4260-9efb-ee7e5d16980f","system_id":"levelo_inurba_marseille","lat":43.2962,"lon":5.37151,"is_reserved":false,"is_disabled":false,"rental_uris":{"android":"levelo://app?vid=ca781b40-e6ed-4260-9efb-ee7e5d16980f","ios":"levelo://app?vid=ca781b40-e6ed-4260-9efb-ee7e5d16980f"},"vehicle_type_id":"4","last_reported":1728900597,"current_range_meters":15200,"station_id":"ce4bgnh2rcd13ifvqc0g","pricing_plan_id":"cebpf4jnsgd1na2vs0mg"},{"bike_id":"dc7f4af5-abdd-4a39-a1ba-d549194eaee2","system_id":"levelo_inurba_marseille","lat":43.30598,"lon":5.37209,"is_reserved":false,"is_disabled":false,"rental_uris":{"android":"levelo://app?vid=dc7f4af5-abdd-4a39-a1ba-d549194eaee2","ios":"levelo://app?vid=dc7f4af5-abdd-4a39-a1ba-d549194eaee2"},"vehicle_type_id":"4","last_reported":1728900597,"current_range_meters":38800,"station_id":"ce4bgqh2rcd13ifvqc4g","pricing_plan_id":"cebpf4jnsgd1na2vs0mg"},{"bike_id":"b3cb1ebe-adff-4053-9fe9-5e84838ab48c","system_id":"levelo_inurba_marseille","lat":43.29305,"lon":5.37166,"is_reserved":false,"is_disabled":false,"rental_uris":{"android":"levelo://app?vid=b3cb1ebe-adff-4053-9fe9-5e84838ab48c","ios":"levelo://app?vid=b3cb1ebe-adff-4053-9fe9-5e84838ab48c"},"vehicle_type_id":"4","last_reported":1728900597,"current_range_meters":28800,"station_id":"ce4bgh92rcd13ifvqb40","pricing_plan_id":"cebpf4jnsgd1na2vs0mg"},{"bike_id":"b75fc22a-c482-4d66-b27e-ecaca34e95ad","system_id":"levelo_inurba_marseille","lat":43.29007,"lon":5.38138,"is_reserved":false,"is_disabled":false,"rental_uris":{"android":"levelo://app?vid=b75fc22a-c482-4d66-b27e-ecaca34e95ad","ios":"levelo://app?vid=b75fc22a-c482-4d66-b27e-ecaca34e95ad"},"vehicle_type_id":"4","last_reported":1728900597,"current_range_meters":9200,"station_id":"ce4bh4p2rcd13ifvqe1g","pricing_plan_id":"cebpf4jnsgd1na2vs0mg"},{"bike_id":"b4e873fc-62ac-4167-9a72-fd904eba3378","system_id":"levelo_inurba_marseille","lat":43.31569,"lon":5.38057,"is_reserved":false,"is_disabled":false,"rental_uris":{"android":"levelo://app?vid=b4e873fc-62ac-4167-9a72-fd904eba3378","ios":"levelo://app?vid=b4e873fc-62ac-4167-9a72-fd904eba3378"},"vehicle_type_id":"4","last_reported":1728900597,"current_range_meters":33200,"station_id":"ce4bhsp2rcd13ifvqi50","pricing_plan_id":"cebpf4jnsgd1na2vs0mg"},{"bike_id":"7f247da2-faef-43da-820a-833b5cf6c484","system_id":"levelo_inurba_marseille","lat":43.26192,"lon":5.37455,"is_reserved":false,"is_disabled":false,"rental_uris":{"android":"levelo://app?vid=7f247da2-faef-43da-820a-833b5cf6c484","ios":"levelo://app?vid=7f247da2-faef-43da-820a-833b5cf6c484"},"vehicle_type_id":"4","last_reported":1728900597,"current_range_meters":36400,"station_id":"ce4bhgp2rcd13ifvqfc0","pricing_plan_id":"cebpf4jnsgd1na2vs0mg"},{"bike_id":"6b0f4a35-c6ae-4bae-b986-bcdae458746d","system_id":"levelo_inurba_marseille","lat":43.30276,"lon":5.37698,"is_reserved":false,"is_disabled":false,"rental_uris":{"android":"levelo://app?vid=6b0f4a35-c6ae-4bae-b986-bcdae458746d","ios":"levelo://app?vid=6b0f4a35-c6ae-4bae-b986-bcdae458746d"},"vehicle_type_id":"4","last_reported":1728900597,"current_range_meters":36800,"station_id":"ce4bguh2rcd13ifvqcj0","pricing_plan_id":"cebpf4jnsgd1na2vs0mg"},{"bike_id":"3157b5d6-44fa-497a-85fb-fc0c62c4d8ba","system_id":"levelo_inurba_marseille","lat":43.27172,"lon":5.40994,"is_reserved":false,"is_disabled":false,"rental_uris":{"android":"levelo://app?vid=3157b5d6-44fa-497a-85fb-fc0c62c4d8ba","ios":"levelo://app?vid=3157b5d6-44fa-497a-85fb-fc0c62c4d8ba"},"vehicle_type_id":"4","last_reported":1728900597,"current_range_meters":28000,"station_id":"ce4bhl12rcd13ifvqgf0","pricing_plan_id":"cebpf4jnsgd1na2vs0mg"},{"bike_id":"87e62f03-4fbf-4da8-9ac5-3d6e9e85942a","system_id":"levelo_inurba_marseille","lat":43.2971,"lon":5.36624,"is_reserved":false,"is_disabled":false,"rental_uris":{"android":"levelo://app?vid=87e62f03-4fbf-4da8-9ac5-3d6e9e85942a","ios":"levelo://app?vid=87e62f03-4fbf-4da8-9ac5-3d6e9e85942a"},"vehicle_type_id":"4","last_reported":1728900597,"current_range_meters":20800,"station_id":"ce4bgn12rcd13ifvqbt0","pricing_plan_id":"cebpf4jnsgd1na2vs0mg"},{"bike_id":"ed0bb268-d2f8-4216-b366-216482759bb8","system_id":"levelo_inurba_marseille","lat":43.30948,"lon":5.39031,"is_reserved":false,"is_disabled":false,"rental_uris":{"android":"levelo://app?vid=ed0bb268-d2f8-4216-b366-216482759bb8","ios":"levelo://app?vid=ed0bb268-d2f8-4216-b366-216482759bb8"},"vehicle_type_id":"4","last_reported":1728900597,"current_range_meters":7200,"station_id":"ce4bgup2rcd13ifvqco0","pricing_plan_id":"cebpf4jnsgd1na2vs0mg"},{"bike_id":"1577fecb-cfb2-4506-83a8-2cd8ebbde5be","system_id":"levelo_inurba_marseille","lat":43.29914,"lon":5.37468,"is_reserved":false,"is_disabled":false,"rental_uris":{"android":"levelo://app?vid=1577fecb-cfb2-4506-83a8-2cd8ebbde5be","ios":"levelo://app?vid=1577fecb-cfb2-4506-83a8-2cd8ebbde5be"},"vehicle_type_id":"4","last_reported":1728900597,"current_range_meters":2800,"station_id":"","pricing_plan_id":"cebpf4jnsgd1na2vs0mg"},{"bike_id":"5af62819-b055-4a1b-94c8-64b488b977de","system_id":"levelo_inurba_marseille","lat":43.28838,"lon":5.3586,"is_reserved":false,"is_disabled":false,"rental_uris":{"android":"levelo://app?vid=5af62819-b055-4a1b-94c8-64b488b977de","ios":"levelo://app?vid=5af62819-b055-4a1b-94c8-64b488b977de"},"vehicle_type_id":"4","last_reported":1728900597,"current_range_meters":27200,"station_id":"ce4bhb12rcd13ifvqem0","pricing_plan_id":"cebpf4jnsgd1na2vs0mg"},{"bike_id":"a4609be2-e81d-4484-8d65-642911fb66d4","system_id":"levelo_inurba_marseille","lat":43.28664,"lon":5.3636,"is_reserved":false,"is_disabled":false,"rental_uris":{"android":"levelo://app?vid=a4609be2-e81d-4484-8d65-642911fb66d4","ios":"levelo://app?vid=a4609be2-e81d-4484-8d65-642911fb66d4"},"vehicle_type_id":"4","last_reported":1728900597,"current_range_meters":39200,"station_id":"ce4bhah2rcd13ifvqej0","pricing_plan_id":"cebpf4jnsgd1na2vs0mg"},{"bike_id":"ebcb7d14-ae1e-4ddc-982a-4aadf7782bfe","system_id":"levelo_inurba_marseille","lat":43.30271,"lon":5.37707,"is_reserved":false,"is_disabled":false,"rental_uris":{"android":"levelo://app?vid=ebcb7d14-ae1e-4ddc-982a-4aadf7782bfe","ios":"levelo://app?vid=ebcb7d14-ae1e-4ddc-982a-4aadf7782bfe"},"vehicle_type_id":"4","last_reported":1728900597,"current_range_meters":13600,"station_id":"ce4bguh2rcd13ifvqcj0","pricing_plan_id":"cebpf4jnsgd1na2vs0mg"},{"bike_id":"52d80703-9151-495c-b418-6348f8f9173d","system_id":"levelo_inurba_marseille","lat":43.27838,"lon":5.39206,"is_reserved":false,"is_disabled":false,"rental_uris":{"android":"levelo://app?vid=52d80703-9151-495c-b418-6348f8f9173d","ios":"levelo://app?vid=52d80703-9151-495c-b418-6348f8f9173d"},"vehicle_type_id":"4","last_reported":1728900597,"current_range_meters":28000,"station_id":"ce4bhjp2rcd13ifvqga0","pricing_plan_id":"cebpf4jnsgd1na2vs0mg"},{"bike_id":"f99c518c-0540-46bf-a94b-5743aeff6ede","system_id":"levelo_inurba_marseille","lat":43.33755,"lon":5.37436,"is_reserved":false,"is_disabled":false,"rental_uris":{"android":"levelo://app?vid=f99c518c-0540-46bf-a94b-5743aeff6ede","ios":"levelo://app?vid=f99c518c-0540-46bf-a94b-5743aeff6ede"},"vehicle_type_id":"4","last_reported":1728900597,"current_range_meters":37600,"station_id":"","pricing_plan_id":"cebpf4jnsgd1na2vs0mg"},{"bike_id":"9e66ae3b-10f8-4cda-8ea9-bc01fbcfb211","system_id":"levelo_inurba_marseille","lat":43.27202,"lon":5.39175,"is_reserved":false,"is_disabled":false,"rental_uris":{"android":"levelo://app?vid=9e66ae3b-10f8-4cda-8ea9-bc01fbcfb211","ios":"levelo://app?vid=9e66ae3b-10f8-4cda-8ea9-bc01fbcfb211"},"vehicle_type_id":"4","last_reported":1728900597,"current_range_meters":36800,"station_id":"ce4bhhp2rcd13ifvqfm0","pricing_plan_id":"cebpf4jnsgd1na2vs0mg"},{"bike_id":"6241cb41-1661-4596-8c6d-d1ceb7df3af9","system_id":"levelo_inurba_marseille","lat":43.34145,"lon":5.4091,"is_reserved":false,"is_disabled":false,"rental_uris":{"android":"levelo://app?vid=6241cb41-1661-4596-8c6d-d1ceb7df3af9","ios":"levelo://app?vid=6241cb41-1661-4596-8c6d-d1ceb7df3af9"},"vehicle_type_id":"4","last_reported":1728900597,"current_range_meters":38800,"station_id":"ce4bhqh2rcd13ifvqhlg","pricing_plan_id":"cebpf4jnsgd1na2vs0mg"},{"bike_id":"6b2daff3-9851-4dff-9081-e0ec010599e4","system_id":"levelo_inurba_marseille","lat":43.314515,"lon":5.37384,"is_reserved":false,"is_disabled":false,"rental_uris":{"android":"levelo://app?vid=6b2daff3-9851-4dff-9081-e0ec010599e4","ios":"levelo://app?vid=6b2daff3-9851-4dff-9081-e0ec010599e4"},"vehicle_type_id":"4","last_reported":1728900597,"current_range_meters":28400,"station_id":"","pricing_plan_id":"cebpf4jnsgd1na2vs0mg"},{"bike_id":"610f1ba5-1af1-4052-8331-ade5cfc94332","system_id":"levelo_inurba_marseille","lat":43.27985,"lon":5.41661,"is_reserved":false,"is_disabled":false,"rental_uris":{"android":"levelo://app?vid=610f1ba5-1af1-4052-8331-ade5cfc94332","ios":"levelo://app?vid=610f1ba5-1af1-4052-8331-ade5cfc94332"},"vehicle_type_id":"4","last_reported":1728900597,"current_range_meters":4000,"station_id":"ce4bho12rcd13ifvqh1g","pricing_plan_id":"cebpf4jnsgd1na2vs0mg"},{"bike_id":"283c3885-68a8-4e1f-96ed-a564d33260a4","system_id":"levelo_inurba_marseille","lat":43.2781,"lon":5.40714,"is_reserved":false,"is_disabled":false,"rental_uris":{"android":"levelo://app?vid=283c3885-68a8-4e1f-96ed-a564d33260a4","ios":"levelo://app?vid=283c3885-68a8-4e1f-96ed-a564d33260a4"},"vehicle_type_id":"4","last_reported":1728900597,"current_range_meters":11600,"station_id":"ce4bhnh2rcd13ifvqgtg","pricing_plan_id":"cebpf4jnsgd1na2vs0mg"},{"bike_id":"6431fef1-1266-43e8-a441-7a24aacfc87e","system_id":"levelo_inurba_marseille","lat":43.33181,"lon":5.413463,"is_reserved":false,"is_disabled":false,"rental_uris":{"android":"levelo://app?vid=6431fef1-1266-43e8-a441-7a24aacfc87e","ios":"levelo://app?vid=6431fef1-1266-43e8-a441-7a24aacfc87e"},"vehicle_type_id":"4","last_reported":1728900597,"current_range_meters":32800,"station_id":"ce4bhq12rcd13ifvqhig","pricing_plan_id":"cebpf4jnsgd1na2vs0mg"},{"bike_id":"8613c145-39a0-41b0-adad-9ccfa1be764e","system_id":"levelo_inurba_marseille","lat":43.30952,"lon":5.39046,"is_reserved":false,"is_disabled":false,"rental_uris":{"android":"levelo://app?vid=8613c145-39a0-41b0-adad-9ccfa1be764e","ios":"levelo://app?vid=8613c145-39a0-41b0-adad-9ccfa1be764e"},"vehicle_type_id":"4","last_reported":1728900597,"current_range_meters":20800,"station_id":"ce4bgup2rcd13ifvqco0","pricing_plan_id":"cebpf4jnsgd1na2vs0mg"},{"bike_id":"93c4ce65-9db6-43cf-b7e2-9341457b8699","system_id":"levelo_inurba_marseille","lat":43.30096,"lon":5.3907,"is_reserved":false,"is_disabled":false,"rental_uris":{"android":"levelo://app?vid=93c4ce65-9db6-43cf-b7e2-9341457b8699","ios":"levelo://app?vid=93c4ce65-9db6-43cf-b7e2-9341457b8699"},"vehicle_type_id":"4","last_reported":1728900597,"current_range_meters":35600,"station_id":"ce4bh192rcd13ifvqdb0","pricing_plan_id":"cebpf4jnsgd1na2vs0mg"},{"bike_id":"a4deb783-daf2-4aaa-be89-37d97aa8f080","system_id":"levelo_inurba_marseille","lat":43.28701,"lon":5.3999,"is_reserved":false,"is_disabled":false,"rental_uris":{"android":"levelo://app?vid=a4deb783-daf2-4aaa-be89-37d97aa8f080","ios":"levelo://app?vid=a4deb783-daf2-4aaa-be89-37d97aa8f080"},"vehicle_type_id":"4","last_reported":1728900597,"current_range_meters":25600,"station_id":"ce4bho92rcd13ifvqh3g","pricing_plan_id":"cebpf4jnsgd1na2vs0mg"},{"bike_id":"2651f8e5-e279-4329-be5c-b2437cbbb1f0","system_id":"levelo_inurba_marseille","lat":43.28612,"lon":5.37063,"is_reserved":false,"is_disabled":false,"rental_uris":{"android":"levelo://app?vid=2651f8e5-e279-4329-be5c-b2437cbbb1f0","ios":"levelo://app?vid=2651f8e5-e279-4329-be5c-b2437cbbb1f0"},"vehicle_type_id":"4","last_reported":1728900597,"current_range_meters":40000,"station_id":"ce4bht12rcd13ifvqi60","pricing_plan_id":"cebpf4jnsgd1na2vs0mg"},{"bike_id":"6b9e0f5c-b58f-4b65-900b-82b2b35d6fa7","system_id":"levelo_inurba_marseille","lat":43.2755,"lon":5.38436,"is_reserved":false,"is_disabled":false,"rental_uris":{"android":"levelo://app?vid=6b9e0f5c-b58f-4b65-900b-82b2b35d6fa7","ios":"levelo://app?vid=6b9e0f5c-b58f-4b65-900b-82b2b35d6fa7"},"vehicle_type_id":"4","last_reported":1728900597,"current_range_meters":36000,"station_id":"ce4bhh92rcd13ifvqfi0","pricing_plan_id":"cebpf4jnsgd1na2vs0mg"},{"bike_id":"f1b56db5-5bc9-4eab-a4e9-b357269475c1","system_id":"levelo_inurba_marseille","lat":43.297083,"lon":5.365987,"is_reserved":false,"is_disabled":false,"rental_uris":{"android":"levelo://app?vid=f1b56db5-5bc9-4eab-a4e9-b357269475c1","ios":"levelo://app?vid=f1b56db5-5bc9-4eab-a4e9-b357269475c1"},"vehicle_type_id":"4","last_reported":1728900597,"current_range_meters":9600,"station_id":"ce4bgn12rcd13ifvqbt0","pricing_plan_id":"cebpf4jnsgd1na2vs0mg"},{"bike_id":"c8784b34-b33f-4dd1-b0cf-204c2a506eb7","system_id":"levelo_inurba_marseille","lat":43.27807,"lon":5.4071,"is_reserved":false,"is_disabled":false,"rental_uris":{"android":"levelo://app?vid=c8784b34-b33f-4dd1-b0cf-204c2a506eb7","ios":"levelo://app?vid=c8784b34-b33f-4dd1-b0cf-204c2a506eb7"},"vehicle_type_id":"4","last_reported":1728900597,"current_range_meters":25200,"station_id":"ce4bhnh2rcd13ifvqgtg","pricing_plan_id":"cebpf4jnsgd1na2vs0mg"},{"bike_id":"f501b8a4-3cf6-44c2-882e-960d67b61d66","system_id":"levelo_inurba_marseille","lat":43.26681,"lon":5.3826,"is_reserved":false,"is_disabled":false,"rental_uris":{"android":"levelo://app?vid=f501b8a4-3cf6-44c2-882e-960d67b61d66","ios":"levelo://app?vid=f501b8a4-3cf6-44c2-882e-960d67b61d66"},"vehicle_type_id":"4","last_reported":1728900597,"current_range_meters":8000,"station_id":"ce4bhg92rcd13ifvqf90","pricing_plan_id":"cebpf4jnsgd1na2vs0mg"},{"bike_id":"f475ae68-9159-46af-a59b-b833b4655776","system_id":"levelo_inurba_marseille","lat":43.3053,"lon":5.367,"is_reserved":false,"is_disabled":false,"rental_uris":{"android":"levelo://app?vid=f475ae68-9159-46af-a59b-b833b4655776","ios":"levelo://app?vid=f475ae68-9159-46af-a59b-b833b4655776"},"vehicle_type_id":"4","last_reported":1728900597,"current_range_meters":17200,"station_id":"ce4bgrp2rcd13ifvqc9g","pricing_plan_id":"cebpf4jnsgd1na2vs0mg"},{"bike_id":"cea2cb90-f1f3-44ff-adbd-1739e33a1d70","system_id":"levelo_inurba_marseille","lat":43.29689,"lon":5.37296,"is_reserved":false,"is_disabled":false,"rental_uris":{"android":"levelo://app?vid=cea2cb90-f1f3-44ff-adbd-1739e33a1d70","ios":"levelo://app?vid=cea2cb90-f1f3-44ff-adbd-1739e33a1d70"},"vehicle_type_id":"4","last_reported":1728900597,"current_range_meters":28400,"station_id":"ce4bgk12rcd13ifvqbj0","pricing_plan_id":"cebpf4jnsgd1na2vs0mg"},{"bike_id":"f43dd86a-6022-4883-ac51-7e253c608bfe","system_id":"levelo_inurba_marseille","lat":43.29028,"lon":5.38124,"is_reserved":false,"is_disabled":false,"rental_uris":{"android":"levelo://app?vid=f43dd86a-6022-4883-ac51-7e253c608bfe","ios":"levelo://app?vid=f43dd86a-6022-4883-ac51-7e253c608bfe"},"vehicle_type_id":"4","last_reported":1728900597,"current_range_meters":22000,"station_id":"ce4bh4p2rcd13ifvqe1g","pricing_plan_id":"cebpf4jnsgd1na2vs0mg"},{"bike_id":"844bf2ea-d3f6-47e6-bdf5-1e1909814a7d","system_id":"levelo_inurba_marseille","lat":43.30557,"lon":5.36542,"is_reserved":false,"is_disabled":false,"rental_uris":{"android":"levelo://app?vid=844bf2ea-d3f6-47e6-bdf5-1e1909814a7d","ios":"levelo://app?vid=844bf2ea-d3f6-47e6-bdf5-1e1909814a7d"},"vehicle_type_id":"4","last_reported":1728900597,"current_range_meters":39200,"station_id":"ce4bgs12rcd13ifvqcag","pricing_plan_id":"cebpf4jnsgd1na2vs0mg"},{"bike_id":"00df6dff-e62c-4178-894c-798338a7c07a","system_id":"levelo_inurba_marseille","lat":43.24387,"lon":5.37051,"is_reserved":false,"is_disabled":false,"rental_uris":{"android":"levelo://app?vid=00df6dff-e62c-4178-894c-798338a7c07a","ios":"levelo://app?vid=00df6dff-e62c-4178-894c-798338a7c07a"},"vehicle_type_id":"4","last_reported":1728900597,"current_range_meters":30000,"station_id":"ce4bhhh2rcd13ifvqfk0","pricing_plan_id":"cebpf4jnsgd1na2vs0mg"},{"bike_id":"e91a309e-c8b6-417e-b8c2-38f330b63722","system_id":"levelo_inurba_marseille","lat":43.29933,"lon":5.37453,"is_reserved":false,"is_disabled":false,"rental_uris":{"android":"levelo://app?vid=e91a309e-c8b6-417e-b8c2-38f330b63722","ios":"levelo://app?vid=e91a309e-c8b6-417e-b8c2-38f330b63722"},"vehicle_type_id":"4","last_reported":1728900597,"current_range_meters":38000,"station_id":"ce4bgjh2rcd13ifvqbg0","pricing_plan_id":"cebpf4jnsgd1na2vs0mg"},{"bike_id":"5026dbf1-037a-427c-a6bf-5644f90830b8","system_id":"levelo_inurba_marseille","lat":43.29895,"lon":5.43669,"is_reserved":false,"is_disabled":false,"rental_uris":{"android":"levelo://app?vid=5026dbf1-037a-427c-a6bf-5644f90830b8","ios":"levelo://app?vid=5026dbf1-037a-427c-a6bf-5644f90830b8"},"vehicle_type_id":"4","last_reported":1728900597,"current_range_meters":32400,"station_id":"ce4bhpp2rcd13ifvqhfg","pricing_plan_id":"cebpf4jnsgd1na2vs0mg"},{"bike_id":"4355f064-bf24-4192-98d3-02d0a1a75f4f","system_id":"levelo_inurba_marseille","lat":43.29584,"lon":5.36735,"is_reserved":false,"is_disabled":false,"rental_uris":{"android":"levelo://app?vid=4355f064-bf24-4192-98d3-02d0a1a75f4f","ios":"levelo://app?vid=4355f064-bf24-4192-98d3-02d0a1a75f4f"},"vehicle_type_id":"4","last_reported":1728900597,"current_range_meters":38800,"station_id":"ce4bgph2rcd13ifvqc2g","pricing_plan_id":"cebpf4jnsgd1na2vs0mg"},{"bike_id":"77f10b94-2efd-4a08-b54a-0c1ac27142e9","system_id":"levelo_inurba_marseille","lat":43.28369,"lon":5.38616,"is_reserved":false,"is_disabled":false,"rental_uris":{"android":"levelo://app?vid=77f10b94-2efd-4a08-b54a-0c1ac27142e9","ios":"levelo://app?vid=77f10b94-2efd-4a08-b54a-0c1ac27142e9"},"vehicle_type_id":"4","last_reported":1728900597,"current_range_meters":24000,"station_id":"ce4bh492rcd13ifvqdvg","pricing_plan_id":"cebpf4jnsgd1na2vs0mg"},{"bike_id":"6ce73df6-8fdf-448a-8d89-a897b7d19ace","system_id":"levelo_inurba_marseille","lat":43.33765,"lon":5.3744,"is_reserved":false,"is_disabled":false,"rental_uris":{"android":"levelo://app?vid=6ce73df6-8fdf-448a-8d89-a897b7d19ace","ios":"levelo://app?vid=6ce73df6-8fdf-448a-8d89-a897b7d19ace"},"vehicle_type_id":"4","last_reported":1728900597,"current_range_meters":36400,"station_id":"","pricing_plan_id":"cebpf4jnsgd1na2vs0mg"},{"bike_id":"20b89c9f-f785-4c3c-9ba9-e68c2b2392a3","system_id":"levelo_inurba_marseille","lat":43.29069,"lon":5.37166,"is_reserved":false,"is_disabled":false,"rental_uris":{"android":"levelo://app?vid=20b89c9f-f785-4c3c-9ba9-e68c2b2392a3","ios":"levelo://app?vid=20b89c9f-f785-4c3c-9ba9-e68c2b2392a3"},"vehicle_type_id":"4","last_reported":1728900597,"current_range_meters":22800,"station_id":"ce4bh5p2rcd13ifvqe4g","pricing_plan_id":"cebpf4jnsgd1na2vs0mg"},{"bike_id":"3f099fc0-88ed-4f32-90bf-e285b5f4868b","system_id":"levelo_inurba_marseille","lat":43.31326,"lon":5.39688,"is_reserved":false,"is_disabled":false,"rental_uris":{"android":"levelo://app?vid=3f099fc0-88ed-4f32-90bf-e285b5f4868b","ios":"levelo://app?vid=3f099fc0-88ed-4f32-90bf-e285b5f4868b"},"vehicle_type_id":"4","last_reported":1728900597,"current_range_meters":16400,"station_id":"ce4bgvp2rcd13ifvqcu0","pricing_plan_id":"cebpf4jnsgd1na2vs0mg"},{"bike_id":"79b56f75-98c1-485b-b9f1-0c03f3ebac42","system_id":"levelo_inurba_marseille","lat":43.30303,"lon":5.36906,"is_reserved":false,"is_disabled":false,"rental_uris":{"android":"levelo://app?vid=79b56f75-98c1-485b-b9f1-0c03f3ebac42","ios":"levelo://app?vid=79b56f75-98c1-485b-b9f1-0c03f3ebac42"},"vehicle_type_id":"4","last_reported":1728900597,"current_range_meters":33200,"station_id":"ce4bgqh2rcd13ifvqc5g","pricing_plan_id":"cebpf4jnsgd1na2vs0mg"},{"bike_id":"1d7794a0-e8c7-4184-9894-33fa45d88c88","system_id":"levelo_inurba_marseille","lat":43.29568,"lon":5.39975,"is_reserved":false,"is_disabled":false,"rental_uris":{"android":"levelo://app?vid=1d7794a0-e8c7-4184-9894-33fa45d88c88","ios":"levelo://app?vid=1d7794a0-e8c7-4184-9894-33fa45d88c88"},"vehicle_type_id":"4","last_reported":1728900597,"current_range_meters":39200,"station_id":"ce4bh312rcd13ifvqdj0","pricing_plan_id":"cebpf4jnsgd1na2vs0mg"},{"bike_id":"bf06ca0a-714b-4273-b538-1cc80176d935","system_id":"levelo_inurba_marseille","lat":43.29973,"lon":5.37182,"is_reserved":false,"is_disabled":false,"rental_uris":{"android":"levelo://app?vid=bf06ca0a-714b-4273-b538-1cc80176d935","ios":"levelo://app?vid=bf06ca0a-714b-4273-b538-1cc80176d935"},"vehicle_type_id":"4","last_reported":1728900597,"current_range_meters":40000,"station_id":"ce4bgr92rcd13ifvqc7g","pricing_plan_id":"cebpf4jnsgd1na2vs0mg"},{"bike_id":"ef0e5abb-1b3c-41d6-9c8e-9033ea01ddbc","system_id":"levelo_inurba_marseille","lat":43.23194,"lon":5.35543,"is_reserved":false,"is_disabled":false,"rental_uris":{"android":"levelo://app?vid=ef0e5abb-1b3c-41d6-9c8e-9033ea01ddbc","ios":"levelo://app?vid=ef0e5abb-1b3c-41d6-9c8e-9033ea01ddbc"},"vehicle_type_id":"4","last_reported":1728900597,"current_range_meters":10800,"station_id":"ce4bhu92rcd13ifvqi70","pricing_plan_id":"cebpf4jnsgd1na2vs0mg"},{"bike_id":"66471258-7762-4932-b8c6-fc21463bfb7a","system_id":"levelo_inurba_marseille","lat":43.287384,"lon":5.361232,"is_reserved":false,"is_disabled":false,"rental_uris":{"android":"levelo://app?vid=66471258-7762-4932-b8c6-fc21463bfb7a","ios":"levelo://app?vid=66471258-7762-4932-b8c6-fc21463bfb7a"},"vehicle_type_id":"4","last_reported":1728900597,"current_range_meters":32800,"station_id":"cki0cbj6b192h4jlfktg","pricing_plan_id":"cebpf4jnsgd1na2vs0mg"},{"bike_id":"233576a3-4715-4cd3-97ec-ea1dacf20ca7","system_id":"levelo_inurba_marseille","lat":43.299662,"lon":5.371592,"is_reserved":false,"is_disabled":false,"rental_uris":{"android":"levelo://app?vid=233576a3-4715-4cd3-97ec-ea1dacf20ca7","ios":"levelo://app?vid=233576a3-4715-4cd3-97ec-ea1dacf20ca7"},"vehicle_type_id":"4","last_reported":1728900597,"current_range_meters":40000,"station_id":"ce4bgr92rcd13ifvqc7g","pricing_plan_id":"cebpf4jnsgd1na2vs0mg"},{"bike_id":"7d5756d3-66f2-43ac-912f-facfe85dc416","system_id":"levelo_inurba_marseille","lat":43.34138,"lon":5.40902,"is_reserved":false,"is_disabled":false,"rental_uris":{"android":"levelo://app?vid=7d5756d3-66f2-43ac-912f-facfe85dc416","ios":"levelo://app?vid=7d5756d3-66f2-43ac-912f-facfe85dc416"},"vehicle_type_id":"4","last_reported":1728900597,"current_range_meters":32400,"station_id":"ce4bhqh2rcd13ifvqhlg","pricing_plan_id":"cebpf4jnsgd1na2vs0mg"},{"bike_id":"f628470c-65a5-4616-a6ae-d18af5dd64ce","system_id":"levelo_inurba_marseille","lat":43.30139,"lon":5.37417,"is_reserved":false,"is_disabled":false,"rental_uris":{"android":"levelo://app?vid=f628470c-65a5-4616-a6ae-d18af5dd64ce","ios":"levelo://app?vid=f628470c-65a5-4616-a6ae-d18af5dd64ce"},"vehicle_type_id":"4","last_reported":1728900597,"current_range_meters":36800,"station_id":"ce4bgs92rcd13ifvqcc0","pricing_plan_id":"cebpf4jnsgd1na2vs0mg"},{"bike_id":"afb9c6c6-fe06-4f36-80d1-cb9563b6058e","system_id":"levelo_inurba_marseille","lat":43.23958,"lon":5.36642,"is_reserved":false,"is_disabled":false,"rental_uris":{"android":"levelo://app?vid=afb9c6c6-fe06-4f36-80d1-cb9563b6058e","ios":"levelo://app?vid=afb9c6c6-fe06-4f36-80d1-cb9563b6058e"},"vehicle_type_id":"4","last_reported":1728900597,"current_range_meters":40000,"station_id":"ce4bhi12rcd13ifvqfp0","pricing_plan_id":"cebpf4jnsgd1na2vs0mg"},{"bike_id":"26ef0f82-778d-44d7-ad89-5daefc08a1a4","system_id":"levelo_inurba_marseille","lat":43.31453,"lon":5.37367,"is_reserved":false,"is_disabled":false,"rental_uris":{"android":"levelo://app?vid=26ef0f82-778d-44d7-ad89-5daefc08a1a4","ios":"levelo://app?vid=26ef0f82-778d-44d7-ad89-5daefc08a1a4"},"vehicle_type_id":"4","last_reported":1728900597,"current_range_meters":16400,"station_id":"","pricing_plan_id":"cebpf4jnsgd1na2vs0mg"},{"bike_id":"97f339d9-f590-4400-9c77-7132e88e81cb","system_id":"levelo_inurba_marseille","lat":43.28078,"lon":5.39661,"is_reserved":false,"is_disabled":false,"rental_uris":{"android":"levelo://app?vid=97f339d9-f590-4400-9c77-7132e88e81cb","ios":"levelo://app?vid=97f339d9-f590-4400-9c77-7132e88e81cb"},"vehicle_type_id":"4","last_reported":1728900597,"current_range_meters":38400,"station_id":"ce4bho12rcd13ifvqh2g","pricing_plan_id":"cebpf4jnsgd1na2vs0mg"},{"bike_id":"3deb9fb5-5094-4e50-a842-a804442267d9","system_id":"levelo_inurba_marseille","lat":43.286255,"lon":5.399031,"is_reserved":false,"is_disabled":false,"rental_uris":{"android":"levelo://app?vid=3deb9fb5-5094-4e50-a842-a804442267d9","ios":"levelo://app?vid=3deb9fb5-5094-4e50-a842-a804442267d9"},"vehicle_type_id":"4","last_reported":1728900597,"current_range_meters":27200,"station_id":"ce4bho92rcd13ifvqh4g","pricing_plan_id":"cebpf4jnsgd1na2vs0mg"},{"bike_id":"dd56f152-3d24-4964-8294-96aaf213e366","system_id":"levelo_inurba_marseille","lat":43.292851,"lon":5.368404,"is_reserved":false,"is_disabled":false,"rental_uris":{"android":"levelo://app?vid=dd56f152-3d24-4964-8294-96aaf213e366","ios":"levelo://app?vid=dd56f152-3d24-4964-8294-96aaf213e366"},"vehicle_type_id":"4","last_reported":1728900597,"current_range_meters":15200,"station_id":"","pricing_plan_id":"cebpf4jnsgd1na2vs0mg"},{"bike_id":"6775debe-3572-4de6-be18-c3de80cd7673","system_id":"levelo_inurba_marseille","lat":43.28715,"lon":5.36095,"is_reserved":false,"is_disabled":false,"rental_uris":{"android":"levelo://app?vid=6775debe-3572-4de6-be18-c3de80cd7673","ios":"levelo://app?vid=6775debe-3572-4de6-be18-c3de80cd7673"},"vehicle_type_id":"4","last_reported":1728900597,"current_range_meters":36400,"station_id":"cki0cbj6b192h4jlfktg","pricing_plan_id":"cebpf4jnsgd1na2vs0mg"},{"bike_id":"de3f175e-8d0c-4cef-9b65-fe1c56f9f845","system_id":"levelo_inurba_marseille","lat":43.27419,"lon":5.39424,"is_reserved":false,"is_disabled":false,"rental_uris":{"android":"levelo://app?vid=de3f175e-8d0c-4cef-9b65-fe1c56f9f845","ios":"levelo://app?vid=de3f175e-8d0c-4cef-9b65-fe1c56f9f845"},"vehicle_type_id":"4","last_reported":1728900597,"current_range_meters":25600,"station_id":"ce4bhdp2rcd13ifvqf20","pricing_plan_id":"cebpf4jnsgd1na2vs0mg"},{"bike_id":"25ed2710-8c35-44e6-81fd-8fc7cf6b54a8","system_id":"levelo_inurba_marseille","lat":43.274948,"lon":5.424466,"is_reserved":false,"is_disabled":false,"rental_uris":{"android":"levelo://app?vid=25ed2710-8c35-44e6-81fd-8fc7cf6b54a8","ios":"levelo://app?vid=25ed2710-8c35-44e6-81fd-8fc7cf6b54a8"},"vehicle_type_id":"4","last_reported":1728900597,"current_range_meters":17200,"station_id":"ce4bhn92rcd13ifvqgrg","pricing_plan_id":"cebpf4jnsgd1na2vs0mg"},{"bike_id":"71d3f488-c925-46a2-93e5-07e6faaba818","system_id":"levelo_inurba_marseille","lat":43.30537,"lon":5.36535,"is_reserved":false,"is_disabled":false,"rental_uris":{"android":"levelo://app?vid=71d3f488-c925-46a2-93e5-07e6faaba818","ios":"levelo://app?vid=71d3f488-c925-46a2-93e5-07e6faaba818"},"vehicle_type_id":"4","last_reported":1728900597,"current_range_meters":39200,"station_id":"ce4bgs12rcd13ifvqcag","pricing_plan_id":"cebpf4jnsgd1na2vs0mg"},{"bike_id":"b9b18d1e-08b0-4d2d-ae4b-c6ff6e5bb0fe","system_id":"levelo_inurba_marseille","lat":43.29647,"lon":5.37258,"is_reserved":false,"is_disabled":false,"rental_uris":{"android":"levelo://app?vid=b9b18d1e-08b0-4d2d-ae4b-c6ff6e5bb0fe","ios":"levelo://app?vid=b9b18d1e-08b0-4d2d-ae4b-c6ff6e5bb0fe"},"vehicle_type_id":"4","last_reported":1728900597,"current_range_meters":11200,"station_id":"ce4bgk12rcd13ifvqbj0","pricing_plan_id":"cebpf4jnsgd1na2vs0mg"},{"bike_id":"aea1d7d9-ad77-4f63-b2e5-d880d881127f","system_id":"levelo_inurba_marseille","lat":43.3425,"lon":5.44571,"is_reserved":false,"is_disabled":false,"rental_uris":{"android":"levelo://app?vid=aea1d7d9-ad77-4f63-b2e5-d880d881127f","ios":"levelo://app?vid=aea1d7d9-ad77-4f63-b2e5-d880d881127f"},"vehicle_type_id":"4","last_reported":1728900597,"current_range_meters":28400,"station_id":"","pricing_plan_id":"cebpf4jnsgd1na2vs0mg"},{"bike_id":"2e3584bd-e026-49e2-ad1b-15dd53441bf4","system_id":"levelo_inurba_marseille","lat":43.29621,"lon":5.37725,"is_reserved":false,"is_disabled":false,"rental_uris":{"android":"levelo://app?vid=2e3584bd-e026-49e2-ad1b-15dd53441bf4","ios":"levelo://app?vid=2e3584bd-e026-49e2-ad1b-15dd53441bf4"},"vehicle_type_id":"4","last_reported":1728900597,"current_range_meters":18000,"station_id":"ce4bgi92rcd13ifvqb90","pricing_plan_id":"cebpf4jnsgd1na2vs0mg"},{"bike_id":"c3b02345-8b86-4cb1-934d-641acf65d5ea","system_id":"levelo_inurba_marseille","lat":43.23151,"lon":5.43705,"is_reserved":false,"is_disabled":false,"rental_uris":{"android":"levelo://app?vid=c3b02345-8b86-4cb1-934d-641acf65d5ea","ios":"levelo://app?vid=c3b02345-8b86-4cb1-934d-641acf65d5ea"},"vehicle_type_id":"4","last_reported":1728900597,"current_range_meters":4800,"station_id":"ce4bhmp2rcd13ifvqgog","pricing_plan_id":"cebpf4jnsgd1na2vs0mg"},{"bike_id":"bccd9c74-8aba-474c-9101-4f818ec40cad","system_id":"levelo_inurba_marseille","lat":43.23145,"lon":5.43701,"is_reserved":false,"is_disabled":false,"rental_uris":{"android":"levelo://app?vid=bccd9c74-8aba-474c-9101-4f818ec40cad","ios":"levelo://app?vid=bccd9c74-8aba-474c-9101-4f818ec40cad"},"vehicle_type_id":"4","last_reported":1728900597,"current_range_meters":38800,"station_id":"ce4bhmp2rcd13ifvqgog","pricing_plan_id":"cebpf4jnsgd1na2vs0mg"},{"bike_id":"64d319f2-164b-4ef6-a30c-055db2ee446a","system_id":"levelo_inurba_marseille","lat":43.28453,"lon":5.35881,"is_reserved":false,"is_disabled":false,"rental_uris":{"android":"levelo://app?vid=64d319f2-164b-4ef6-a30c-055db2ee446a","ios":"levelo://app?vid=64d319f2-164b-4ef6-a30c-055db2ee446a"},"vehicle_type_id":"4","last_reported":1728900597,"current_range_meters":12400,"station_id":"ce4bhah2rcd13ifvqei0","pricing_plan_id":"cebpf4jnsgd1na2vs0mg"},{"bike_id":"573085a1-6bc4-4d1f-8597-f5df4843a1c7","system_id":"levelo_inurba_marseille","lat":43.34142,"lon":5.40899,"is_reserved":false,"is_disabled":false,"rental_uris":{"android":"levelo://app?vid=573085a1-6bc4-4d1f-8597-f5df4843a1c7","ios":"levelo://app?vid=573085a1-6bc4-4d1f-8597-f5df4843a1c7"},"vehicle_type_id":"4","last_reported":1728900597,"current_range_meters":13600,"station_id":"ce4bhqh2rcd13ifvqhlg","pricing_plan_id":"cebpf4jnsgd1na2vs0mg"},{"bike_id":"58009b60-7791-40b6-ba91-ff25080f847e","system_id":"levelo_inurba_marseille","lat":43.30084,"lon":5.39072,"is_reserved":false,"is_disabled":false,"rental_uris":{"android":"levelo://app?vid=58009b60-7791-40b6-ba91-ff25080f847e","ios":"levelo://app?vid=58009b60-7791-40b6-ba91-ff25080f847e"},"vehicle_type_id":"4","last_reported":1728900597,"current_range_meters":36800,"station_id":"ce4bh192rcd13ifvqdb0","pricing_plan_id":"cebpf4jnsgd1na2vs0mg"},{"bike_id":"744d7d46-a030-452d-827a-600610e2a098","system_id":"levelo_inurba_marseille","lat":43.23177,"lon":5.39996,"is_reserved":false,"is_disabled":false,"rental_uris":{"android":"levelo://app?vid=744d7d46-a030-452d-827a-600610e2a098","ios":"levelo://app?vid=744d7d46-a030-452d-827a-600610e2a098"},"vehicle_type_id":"4","last_reported":1728900597,"current_range_meters":28800,"station_id":"ce4bhn12rcd13ifvqgqg","pricing_plan_id":"cebpf4jnsgd1na2vs0mg"},{"bike_id":"e5f91dc3-0e40-408f-8509-b0735e863443","system_id":"levelo_inurba_marseille","lat":43.29846,"lon":5.36277,"is_reserved":false,"is_disabled":false,"rental_uris":{"android":"levelo://app?vid=e5f91dc3-0e40-408f-8509-b0735e863443","ios":"levelo://app?vid=e5f91dc3-0e40-408f-8509-b0735e863443"},"vehicle_type_id":"4","last_reported":1728900597,"current_range_meters":37600,"station_id":"ce4bgpp2rcd13ifvqc3g","pricing_plan_id":"cebpf4jnsgd1na2vs0mg"},{"bike_id":"00af7d0a-b01d-4bbd-b814-e57b6ac268d2","system_id":"levelo_inurba_marseille","lat":43.29356,"lon":5.40183,"is_reserved":false,"is_disabled":false,"rental_uris":{"android":"levelo://app?vid=00af7d0a-b01d-4bbd-b814-e57b6ac268d2","ios":"levelo://app?vid=00af7d0a-b01d-4bbd-b814-e57b6ac268d2"},"vehicle_type_id":"4","last_reported":1728900597,"current_range_meters":34000,"station_id":"","pricing_plan_id":"cebpf4jnsgd1na2vs0mg"},{"bike_id":"38734178-8e9c-4131-8f5e-63e81371c04d","system_id":"levelo_inurba_marseille","lat":43.28695,"lon":5.39974,"is_reserved":false,"is_disabled":false,"rental_uris":{"android":"levelo://app?vid=38734178-8e9c-4131-8f5e-63e81371c04d","ios":"levelo://app?vid=38734178-8e9c-4131-8f5e-63e81371c04d"},"vehicle_type_id":"4","last_reported":1728900597,"current_range_meters":38000,"station_id":"ce4bho92rcd13ifvqh3g","pricing_plan_id":"cebpf4jnsgd1na2vs0mg"},{"bike_id":"4ad9c84c-685e-4f1a-b238-9f190cafcbe4","system_id":"levelo_inurba_marseille","lat":43.30139,"lon":5.37413,"is_reserved":false,"is_disabled":false,"rental_uris":{"android":"levelo://app?vid=4ad9c84c-685e-4f1a-b238-9f190cafcbe4","ios":"levelo://app?vid=4ad9c84c-685e-4f1a-b238-9f190cafcbe4"},"vehicle_type_id":"4","last_reported":1728900597,"current_range_meters":20400,"station_id":"ce4bgs92rcd13ifvqcc0","pricing_plan_id":"cebpf4jnsgd1na2vs0mg"},{"bike_id":"b0e0e5c8-9525-466f-a475-84c2d8425be8","system_id":"levelo_inurba_marseille","lat":43.23146,"lon":5.43712,"is_reserved":false,"is_disabled":false,"rental_uris":{"android":"levelo://app?vid=b0e0e5c8-9525-466f-a475-84c2d8425be8","ios":"levelo://app?vid=b0e0e5c8-9525-466f-a475-84c2d8425be8"},"vehicle_type_id":"4","last_reported":1728900597,"current_range_meters":39200,"station_id":"ce4bhmp2rcd13ifvqgog","pricing_plan_id":"cebpf4jnsgd1na2vs0mg"},{"bike_id":"621b7c4e-8aa0-41dd-814b-66770078b276","system_id":"levelo_inurba_marseille","lat":43.33714,"lon":5.39174,"is_reserved":false,"is_disabled":false,"rental_uris":{"android":"levelo://app?vid=621b7c4e-8aa0-41dd-814b-66770078b276","ios":"levelo://app?vid=621b7c4e-8aa0-41dd-814b-66770078b276"},"vehicle_type_id":"4","last_reported":1728900597,"current_range_meters":37600,"station_id":"ce4bhr92rcd13ifvqhsg","pricing_plan_id":"cebpf4jnsgd1na2vs0mg"},{"bike_id":"2134320a-afe2-4859-bf45-5f050b5d237e","system_id":"levelo_inurba_marseille","lat":43.30536,"lon":5.36525,"is_reserved":false,"is_disabled":false,"rental_uris":{"android":"levelo://app?vid=2134320a-afe2-4859-bf45-5f050b5d237e","ios":"levelo://app?vid=2134320a-afe2-4859-bf45-5f050b5d237e"},"vehicle_type_id":"4","last_reported":1728900597,"current_range_meters":39200,"station_id":"ce4bgs12rcd13ifvqcag","pricing_plan_id":"cebpf4jnsgd1na2vs0mg"},{"bike_id":"2c8fda79-abc7-49ed-bf0c-3a6e44352058","system_id":"levelo_inurba_marseille","lat":43.28455,"lon":5.35891,"is_reserved":false,"is_disabled":false,"rental_uris":{"android":"levelo://app?vid=2c8fda79-abc7-49ed-bf0c-3a6e44352058","ios":"levelo://app?vid=2c8fda79-abc7-49ed-bf0c-3a6e44352058"},"vehicle_type_id":"4","last_reported":1728900597,"current_range_meters":24400,"station_id":"ce4bhah2rcd13ifvqei0","pricing_plan_id":"cebpf4jnsgd1na2vs0mg"},{"bike_id":"92535a26-ca0d-4c7c-b88c-c1ef2c6bc72a","system_id":"levelo_inurba_marseille","lat":43.30605,"lon":5.37225,"is_reserved":false,"is_disabled":false,"rental_uris":{"android":"levelo://app?vid=92535a26-ca0d-4c7c-b88c-c1ef2c6bc72a","ios":"levelo://app?vid=92535a26-ca0d-4c7c-b88c-c1ef2c6bc72a"},"vehicle_type_id":"4","last_reported":1728900597,"current_range_meters":19600,"station_id":"ce4bgqh2rcd13ifvqc4g","pricing_plan_id":"cebpf4jnsgd1na2vs0mg"},{"bike_id":"82f5a5ca-9bc6-445c-8be3-a4b934c82848","system_id":"levelo_inurba_marseille","lat":43.29714,"lon":5.36593,"is_reserved":false,"is_disabled":false,"rental_uris":{"android":"levelo://app?vid=82f5a5ca-9bc6-445c-8be3-a4b934c82848","ios":"levelo://app?vid=82f5a5ca-9bc6-445c-8be3-a4b934c82848"},"vehicle_type_id":"4","last_reported":1728900597,"current_range_meters":16400,"station_id":"ce4bgn12rcd13ifvqbt0","pricing_plan_id":"cebpf4jnsgd1na2vs0mg"},{"bike_id":"c7df82cd-4916-4357-a406-f924f1db17a5","system_id":"levelo_inurba_marseille","lat":43.27019,"lon":5.40094,"is_reserved":false,"is_disabled":false,"rental_uris":{"android":"levelo://app?vid=c7df82cd-4916-4357-a406-f924f1db17a5","ios":"levelo://app?vid=c7df82cd-4916-4357-a406-f924f1db17a5"},"vehicle_type_id":"4","last_reported":1728900597,"current_range_meters":24400,"station_id":"ce4bgj12rcd13ifvqbc0","pricing_plan_id":"cebpf4jnsgd1na2vs0mg"},{"bike_id":"ef426c6b-ec60-486f-ab53-17beaa54bb57","system_id":"levelo_inurba_marseille","lat":43.30311,"lon":5.36892,"is_reserved":false,"is_disabled":false,"rental_uris":{"android":"levelo://app?vid=ef426c6b-ec60-486f-ab53-17beaa54bb57","ios":"levelo://app?vid=ef426c6b-ec60-486f-ab53-17beaa54bb57"},"vehicle_type_id":"4","last_reported":1728900597,"current_range_meters":39200,"station_id":"ce4bgqh2rcd13ifvqc5g","pricing_plan_id":"cebpf4jnsgd1na2vs0mg"},{"bike_id":"06304739-6c70-454a-bd9f-9067160cb69e","system_id":"levelo_inurba_marseille","lat":43.30146,"lon":5.37409,"is_reserved":false,"is_disabled":false,"rental_uris":{"android":"levelo://app?vid=06304739-6c70-454a-bd9f-9067160cb69e","ios":"levelo://app?vid=06304739-6c70-454a-bd9f-9067160cb69e"},"vehicle_type_id":"4","last_reported":1728900597,"current_range_meters":24800,"station_id":"ce4bgs92rcd13ifvqcc0","pricing_plan_id":"cebpf4jnsgd1na2vs0mg"},{"bike_id":"e084f833-022f-4cea-bf4e-fc335d17dd46","system_id":"levelo_inurba_marseille","lat":43.30537,"lon":5.36536,"is_reserved":false,"is_disabled":false,"rental_uris":{"android":"levelo://app?vid=e084f833-022f-4cea-bf4e-fc335d17dd46","ios":"levelo://app?vid=e084f833-022f-4cea-bf4e-fc335d17dd46"},"vehicle_type_id":"4","last_reported":1728900597,"current_range_meters":35200,"station_id":"ce4bgs12rcd13ifvqcag","pricing_plan_id":"cebpf4jnsgd1na2vs0mg"},{"bike_id":"a07b6a56-5896-40dc-8808-e8d13409c4c1","system_id":"levelo_inurba_marseille","lat":43.30545,"lon":5.36533,"is_reserved":false,"is_disabled":false,"rental_uris":{"android":"levelo://app?vid=a07b6a56-5896-40dc-8808-e8d13409c4c1","ios":"levelo://app?vid=a07b6a56-5896-40dc-8808-e8d13409c4c1"},"vehicle_type_id":"4","last_reported":1728900597,"current_range_meters":9200,"station_id":"ce4bgs12rcd13ifvqcag","pricing_plan_id":"cebpf4jnsgd1na2vs0mg"},{"bike_id":"b6e970f8-433d-44f4-a412-2b67a836145e","system_id":"levelo_inurba_marseille","lat":43.25827,"lon":5.39434,"is_reserved":false,"is_disabled":false,"rental_uris":{"android":"levelo://app?vid=b6e970f8-433d-44f4-a412-2b67a836145e","ios":"levelo://app?vid=b6e970f8-433d-44f4-a412-2b67a836145e"},"vehicle_type_id":"4","last_reported":1728900597,"current_range_meters":29600,"station_id":"ce4bhip2rcd13ifvqft0","pricing_plan_id":"cebpf4jnsgd1na2vs0mg"},{"bike_id":"12f7ce8b-504e-42b9-86bd-1eb3048f0e4f","system_id":"levelo_inurba_marseille","lat":43.30158,"lon":5.38079,"is_reserved":false,"is_disabled":false,"rental_uris":{"android":"levelo://app?vid=12f7ce8b-504e-42b9-86bd-1eb3048f0e4f","ios":"levelo://app?vid=12f7ce8b-504e-42b9-86bd-1eb3048f0e4f"},"vehicle_type_id":"4","last_reported":1728900597,"current_range_meters":28000,"station_id":"ce4bgjp2rcd13ifvqbh0","pricing_plan_id":"cebpf4jnsgd1na2vs0mg"},{"bike_id":"f12908d0-ba3c-4c85-8ac2-b2356c599b6e","system_id":"levelo_inurba_marseille","lat":43.24648,"lon":5.38893,"is_reserved":false,"is_disabled":false,"rental_uris":{"android":"levelo://app?vid=f12908d0-ba3c-4c85-8ac2-b2356c599b6e","ios":"levelo://app?vid=f12908d0-ba3c-4c85-8ac2-b2356c599b6e"},"vehicle_type_id":"4","last_reported":1728900597,"current_range_meters":40000,"station_id":"ce4bhg12rcd13ifvqf60","pricing_plan_id":"cebpf4jnsgd1na2vs0mg"},{"bike_id":"ab010cfe-247e-4175-80b0-b79856da378c","system_id":"levelo_inurba_marseille","lat":43.30086,"lon":5.39084,"is_reserved":false,"is_disabled":false,"rental_uris":{"android":"levelo://app?vid=ab010cfe-247e-4175-80b0-b79856da378c","ios":"levelo://app?vid=ab010cfe-247e-4175-80b0-b79856da378c"},"vehicle_type_id":"4","last_reported":1728900597,"current_range_meters":39200,"station_id":"ce4bh192rcd13ifvqdb0","pricing_plan_id":"cebpf4jnsgd1na2vs0mg"},{"bike_id":"dfaf032e-4a53-4b47-a8b7-aef4208e9aa5","system_id":"levelo_inurba_marseille","lat":43.30188,"lon":5.36611,"is_reserved":false,"is_disabled":false,"rental_uris":{"android":"levelo://app?vid=dfaf032e-4a53-4b47-a8b7-aef4208e9aa5","ios":"levelo://app?vid=dfaf032e-4a53-4b47-a8b7-aef4208e9aa5"},"vehicle_type_id":"4","last_reported":1728900597,"current_range_meters":32400,"station_id":"ce4bgrh2rcd13ifvqc8g","pricing_plan_id":"cebpf4jnsgd1na2vs0mg"},{"bike_id":"6d45e2e1-f520-4d39-b919-7453d5eb68a9","system_id":"levelo_inurba_marseille","lat":43.3014,"lon":5.37406,"is_reserved":false,"is_disabled":false,"rental_uris":{"android":"levelo://app?vid=6d45e2e1-f520-4d39-b919-7453d5eb68a9","ios":"levelo://app?vid=6d45e2e1-f520-4d39-b919-7453d5eb68a9"},"vehicle_type_id":"4","last_reported":1728900597,"current_range_meters":22800,"station_id":"ce4bgs92rcd13ifvqcc0","pricing_plan_id":"cebpf4jnsgd1na2vs0mg"},{"bike_id":"6009a167-5183-456f-9505-c052c3abe86b","system_id":"levelo_inurba_marseille","lat":43.27213,"lon":5.39179,"is_reserved":false,"is_disabled":false,"rental_uris":{"android":"levelo://app?vid=6009a167-5183-456f-9505-c052c3abe86b","ios":"levelo://app?vid=6009a167-5183-456f-9505-c052c3abe86b"},"vehicle_type_id":"4","last_reported":1728900597,"current_range_meters":33600,"station_id":"ce4bhhp2rcd13ifvqfm0","pricing_plan_id":"cebpf4jnsgd1na2vs0mg"},{"bike_id":"ce15096a-034f-4a1e-8e59-441745631fbe","system_id":"levelo_inurba_marseille","lat":43.25857,"lon":5.39905,"is_reserved":false,"is_disabled":false,"rental_uris":{"android":"levelo://app?vid=ce15096a-034f-4a1e-8e59-441745631fbe","ios":"levelo://app?vid=ce15096a-034f-4a1e-8e59-441745631fbe"},"vehicle_type_id":"4","last_reported":1728900597,"current_range_meters":36000,"station_id":"ce4bhl92rcd13ifvqghg","pricing_plan_id":"cebpf4jnsgd1na2vs0mg"},{"bike_id":"ad9c5125-2869-46bb-aaef-342aebc9bc00","system_id":"levelo_inurba_marseille","lat":43.31109,"lon":5.38064,"is_reserved":false,"is_disabled":false,"rental_uris":{"android":"levelo://app?vid=ad9c5125-2869-46bb-aaef-342aebc9bc00","ios":"levelo://app?vid=ad9c5125-2869-46bb-aaef-342aebc9bc00"},"vehicle_type_id":"4","last_reported":1728900597,"current_range_meters":20000,"station_id":"ce4bgt92rcd13ifvqcf0","pricing_plan_id":"cebpf4jnsgd1na2vs0mg"},{"bike_id":"3f26715f-c82a-46e8-8b0e-15523624ffc7","system_id":"levelo_inurba_marseille","lat":43.23194,"lon":5.3555,"is_reserved":false,"is_disabled":false,"rental_uris":{"android":"levelo://app?vid=3f26715f-c82a-46e8-8b0e-15523624ffc7","ios":"levelo://app?vid=3f26715f-c82a-46e8-8b0e-15523624ffc7"},"vehicle_type_id":"4","last_reported":1728900597,"current_range_meters":8800,"station_id":"ce4bhu92rcd13ifvqi70","pricing_plan_id":"cebpf4jnsgd1na2vs0mg"},{"bike_id":"38a41a3f-6e56-4eb4-a7fd-256765f769ee","system_id":"levelo_inurba_marseille","lat":43.24647,"lon":5.38896,"is_reserved":false,"is_disabled":false,"rental_uris":{"android":"levelo://app?vid=38a41a3f-6e56-4eb4-a7fd-256765f769ee","ios":"levelo://app?vid=38a41a3f-6e56-4eb4-a7fd-256765f769ee"},"vehicle_type_id":"4","last_reported":1728900597,"current_range_meters":39200,"station_id":"ce4bhg12rcd13ifvqf60","pricing_plan_id":"cebpf4jnsgd1na2vs0mg"},{"bike_id":"69563718-4bc2-40ef-855e-a5d3318b6758","system_id":"levelo_inurba_marseille","lat":43.28148,"lon":5.42638,"is_reserved":false,"is_disabled":false,"rental_uris":{"android":"levelo://app?vid=69563718-4bc2-40ef-855e-a5d3318b6758","ios":"levelo://app?vid=69563718-4bc2-40ef-855e-a5d3318b6758"},"vehicle_type_id":"4","last_reported":1728900597,"current_range_meters":38800,"station_id":"ce4bhnh2rcd13ifvqgug","pricing_plan_id":"cebpf4jnsgd1na2vs0mg"},{"bike_id":"91bf7418-d30b-4703-8999-0f5cc334e406","system_id":"levelo_inurba_marseille","lat":43.26199,"lon":5.40452,"is_reserved":false,"is_disabled":false,"rental_uris":{"android":"levelo://app?vid=91bf7418-d30b-4703-8999-0f5cc334e406","ios":"levelo://app?vid=91bf7418-d30b-4703-8999-0f5cc334e406"},"vehicle_type_id":"4","last_reported":1728900597,"current_range_meters":6400,"station_id":"","pricing_plan_id":"cebpf4jnsgd1na2vs0mg"},{"bike_id":"4e747bb6-c184-47b3-a03f-68a35476c63d","system_id":"levelo_inurba_marseille","lat":43.2668,"lon":5.38271,"is_reserved":false,"is_disabled":false,"rental_uris":{"android":"levelo://app?vid=4e747bb6-c184-47b3-a03f-68a35476c63d","ios":"levelo://app?vid=4e747bb6-c184-47b3-a03f-68a35476c63d"},"vehicle_type_id":"4","last_reported":1728900597,"current_range_meters":2800,"station_id":"ce4bhg92rcd13ifvqf90","pricing_plan_id":"cebpf4jnsgd1na2vs0mg"},{"bike_id":"7d77f729-90ca-4a5e-9ca6-88301f21e21e","system_id":"levelo_inurba_marseille","lat":43.3054,"lon":5.36536,"is_reserved":false,"is_disabled":false,"rental_uris":{"android":"levelo://app?vid=7d77f729-90ca-4a5e-9ca6-88301f21e21e","ios":"levelo://app?vid=7d77f729-90ca-4a5e-9ca6-88301f21e21e"},"vehicle_type_id":"4","last_reported":1728900597,"current_range_meters":35600,"station_id":"ce4bgs12rcd13ifvqcag","pricing_plan_id":"cebpf4jnsgd1na2vs0mg"},{"bike_id":"1bd954b5-82cc-4ed8-81c9-6fee4b9e034c","system_id":"levelo_inurba_marseille","lat":43.30146,"lon":5.381,"is_reserved":false,"is_disabled":false,"rental_uris":{"android":"levelo://app?vid=1bd954b5-82cc-4ed8-81c9-6fee4b9e034c","ios":"levelo://app?vid=1bd954b5-82cc-4ed8-81c9-6fee4b9e034c"},"vehicle_type_id":"4","last_reported":1728900597,"current_range_meters":37600,"station_id":"ce4bgjp2rcd13ifvqbh0","pricing_plan_id":"cebpf4jnsgd1na2vs0mg"},{"bike_id":"b87ff837-bbe3-4126-8cc0-3098bdbd3f11","system_id":"levelo_inurba_marseille","lat":43.30946,"lon":5.39037,"is_reserved":false,"is_disabled":false,"rental_uris":{"android":"levelo://app?vid=b87ff837-bbe3-4126-8cc0-3098bdbd3f11","ios":"levelo://app?vid=b87ff837-bbe3-4126-8cc0-3098bdbd3f11"},"vehicle_type_id":"4","last_reported":1728900597,"current_range_meters":30000,"station_id":"ce4bgup2rcd13ifvqco0","pricing_plan_id":"cebpf4jnsgd1na2vs0mg"},{"bike_id":"8a2e522c-2a2b-46ee-81fb-5a0c93037d27","system_id":"levelo_inurba_marseille","lat":43.30604,"lon":5.37218,"is_reserved":false,"is_disabled":false,"rental_uris":{"android":"levelo://app?vid=8a2e522c-2a2b-46ee-81fb-5a0c93037d27","ios":"levelo://app?vid=8a2e522c-2a2b-46ee-81fb-5a0c93037d27"},"vehicle_type_id":"4","last_reported":1728900597,"current_range_meters":22400,"station_id":"ce4bgqh2rcd13ifvqc4g","pricing_plan_id":"cebpf4jnsgd1na2vs0mg"},{"bike_id":"8ca29574-9c4e-419a-960f-c58f3029dc24","system_id":"levelo_inurba_marseille","lat":43.29373,"lon":5.3786,"is_reserved":false,"is_disabled":false,"rental_uris":{"android":"levelo://app?vid=8ca29574-9c4e-419a-960f-c58f3029dc24","ios":"levelo://app?vid=8ca29574-9c4e-419a-960f-c58f3029dc24"},"vehicle_type_id":"4","last_reported":1728900597,"current_range_meters":38000,"station_id":"ce4bgjh2rcd13ifvqbf0","pricing_plan_id":"cebpf4jnsgd1na2vs0mg"},{"bike_id":"cf3da4d6-824a-46a6-b865-ab6e77b247b9","system_id":"levelo_inurba_marseille","lat":43.30143,"lon":5.37414,"is_reserved":false,"is_disabled":false,"rental_uris":{"android":"levelo://app?vid=cf3da4d6-824a-46a6-b865-ab6e77b247b9","ios":"levelo://app?vid=cf3da4d6-824a-46a6-b865-ab6e77b247b9"},"vehicle_type_id":"4","last_reported":1728900597,"current_range_meters":38400,"station_id":"ce4bgs92rcd13ifvqcc0","pricing_plan_id":"cebpf4jnsgd1na2vs0mg"},{"bike_id":"11702197-bd9c-4164-8c2e-badf381d0ff3","system_id":"levelo_inurba_marseille","lat":43.33757,"lon":5.37462,"is_reserved":false,"is_disabled":false,"rental_uris":{"android":"levelo://app?vid=11702197-bd9c-4164-8c2e-badf381d0ff3","ios":"levelo://app?vid=11702197-bd9c-4164-8c2e-badf381d0ff3"},"vehicle_type_id":"4","last_reported":1728900597,"current_range_meters":38800,"station_id":"","pricing_plan_id":"cebpf4jnsgd1na2vs0mg"},{"bike_id":"5ae6444a-8fd0-4022-8378-f9e3a29a7aad","system_id":"levelo_inurba_marseille","lat":43.23149,"lon":5.43715,"is_reserved":false,"is_disabled":false,"rental_uris":{"android":"levelo://app?vid=5ae6444a-8fd0-4022-8378-f9e3a29a7aad","ios":"levelo://app?vid=5ae6444a-8fd0-4022-8378-f9e3a29a7aad"},"vehicle_type_id":"4","last_reported":1728900597,"current_range_meters":25200,"station_id":"ce4bhmp2rcd13ifvqgog","pricing_plan_id":"cebpf4jnsgd1na2vs0mg"},{"bike_id":"01f304e1-50a7-4aaa-b3a4-945379252092","system_id":"levelo_inurba_marseille","lat":43.23959,"lon":5.36642,"is_reserved":false,"is_disabled":false,"rental_uris":{"android":"levelo://app?vid=01f304e1-50a7-4aaa-b3a4-945379252092","ios":"levelo://app?vid=01f304e1-50a7-4aaa-b3a4-945379252092"},"vehicle_type_id":"4","last_reported":1728900597,"current_range_meters":30400,"station_id":"ce4bhi12rcd13ifvqfp0","pricing_plan_id":"cebpf4jnsgd1na2vs0mg"},{"bike_id":"dee3f50f-c93b-45b4-8e4a-dbdb45f55e9d","system_id":"levelo_inurba_marseille","lat":43.29554,"lon":5.42291,"is_reserved":false,"is_disabled":false,"rental_uris":{"android":"levelo://app?vid=dee3f50f-c93b-45b4-8e4a-dbdb45f55e9d","ios":"levelo://app?vid=dee3f50f-c93b-45b4-8e4a-dbdb45f55e9d"},"vehicle_type_id":"4","last_reported":1728900597,"current_range_meters":9600,"station_id":"ce4bhph2rcd13ifvqhdg","pricing_plan_id":"cebpf4jnsgd1na2vs0mg"},{"bike_id":"4028ca6a-8032-412a-b69c-cb37e429838c","system_id":"levelo_inurba_marseille","lat":43.30142,"lon":5.37409,"is_reserved":false,"is_disabled":false,"rental_uris":{"android":"levelo://app?vid=4028ca6a-8032-412a-b69c-cb37e429838c","ios":"levelo://app?vid=4028ca6a-8032-412a-b69c-cb37e429838c"},"vehicle_type_id":"4","last_reported":1728900597,"current_range_meters":14000,"station_id":"ce4bgs92rcd13ifvqcc0","pricing_plan_id":"cebpf4jnsgd1na2vs0mg"},{"bike_id":"ad9d520b-2f12-4b07-b7a8-4789bcdc9bd8","system_id":"levelo_inurba_marseille","lat":43.30147,"lon":5.38078,"is_reserved":false,"is_disabled":false,"rental_uris":{"android":"levelo://app?vid=ad9d520b-2f12-4b07-b7a8-4789bcdc9bd8","ios":"levelo://app?vid=ad9d520b-2f12-4b07-b7a8-4789bcdc9bd8"},"vehicle_type_id":"4","last_reported":1728900597,"current_range_meters":24800,"station_id":"ce4bgjp2rcd13ifvqbh0","pricing_plan_id":"cebpf4jnsgd1na2vs0mg"},{"bike_id":"1cf9c25a-76c8-45d9-b14c-8c61958763f5","system_id":"levelo_inurba_marseille","lat":43.24661,"lon":5.38163,"is_reserved":false,"is_disabled":false,"rental_uris":{"android":"levelo://app?vid=1cf9c25a-76c8-45d9-b14c-8c61958763f5","ios":"levelo://app?vid=1cf9c25a-76c8-45d9-b14c-8c61958763f5"},"vehicle_type_id":"4","last_reported":1728900597,"current_range_meters":24000,"station_id":"ce4bhih2rcd13ifvqfr0","pricing_plan_id":"cebpf4jnsgd1na2vs0mg"},{"bike_id":"402e2b18-2493-4b09-a5dd-0f549fefaf7a","system_id":"levelo_inurba_marseille","lat":43.24162,"lon":5.364,"is_reserved":false,"is_disabled":false,"rental_uris":{"android":"levelo://app?vid=402e2b18-2493-4b09-a5dd-0f549fefaf7a","ios":"levelo://app?vid=402e2b18-2493-4b09-a5dd-0f549fefaf7a"},"vehicle_type_id":"4","last_reported":1728900597,"current_range_meters":38400,"station_id":"cpo36qri1sfpv3e86is0","pricing_plan_id":"cebpf4jnsgd1na2vs0mg"},{"bike_id":"1ad5dfa3-d762-40cc-b591-496713398aa4","system_id":"levelo_inurba_marseille","lat":43.29611,"lon":5.37734,"is_reserved":false,"is_disabled":false,"rental_uris":{"android":"levelo://app?vid=1ad5dfa3-d762-40cc-b591-496713398aa4","ios":"levelo://app?vid=1ad5dfa3-d762-40cc-b591-496713398aa4"},"vehicle_type_id":"4","last_reported":1728900597,"current_range_meters":38400,"station_id":"ce4bgi92rcd13ifvqb90","pricing_plan_id":"cebpf4jnsgd1na2vs0mg"},{"bike_id":"aac457a4-9103-424d-9bf7-79cdc9fa81f4","system_id":"levelo_inurba_marseille","lat":43.29873,"lon":5.39732,"is_reserved":false,"is_disabled":false,"rental_uris":{"android":"levelo://app?vid=aac457a4-9103-424d-9bf7-79cdc9fa81f4","ios":"levelo://app?vid=aac457a4-9103-424d-9bf7-79cdc9fa81f4"},"vehicle_type_id":"4","last_reported":1728900597,"current_range_meters":38800,"station_id":"ce4bh0h2rcd13ifvqd50","pricing_plan_id":"cebpf4jnsgd1na2vs0mg"},{"bike_id":"19b1d78e-a9a1-406a-824a-ba0dc0242570","system_id":"levelo_inurba_marseille","lat":43.27937,"lon":5.41047,"is_reserved":false,"is_disabled":false,"rental_uris":{"android":"levelo://app?vid=19b1d78e-a9a1-406a-824a-ba0dc0242570","ios":"levelo://app?vid=19b1d78e-a9a1-406a-824a-ba0dc0242570"},"vehicle_type_id":"4","last_reported":1728900597,"current_range_meters":27200,"station_id":"ce4bhnp2rcd13ifvqh0g","pricing_plan_id":"cebpf4jnsgd1na2vs0mg"},{"bike_id":"d8a5ada8-5849-431a-a869-d042f252d905","system_id":"levelo_inurba_marseille","lat":43.23192,"lon":5.35554,"is_reserved":false,"is_disabled":false,"rental_uris":{"android":"levelo://app?vid=d8a5ada8-5849-431a-a869-d042f252d905","ios":"levelo://app?vid=d8a5ada8-5849-431a-a869-d042f252d905"},"vehicle_type_id":"4","last_reported":1728900597,"current_range_meters":30800,"station_id":"ce4bhu92rcd13ifvqi70","pricing_plan_id":"cebpf4jnsgd1na2vs0mg"},{"bike_id":"5bc9b78b-9615-45c0-a888-79c429dfa74a","system_id":"levelo_inurba_marseille","lat":43.33724,"lon":5.39177,"is_reserved":false,"is_disabled":false,"rental_uris":{"android":"levelo://app?vid=5bc9b78b-9615-45c0-a888-79c429dfa74a","ios":"levelo://app?vid=5bc9b78b-9615-45c0-a888-79c429dfa74a"},"vehicle_type_id":"4","last_reported":1728900597,"current_range_meters":11200,"station_id":"ce4bhr92rcd13ifvqhsg","pricing_plan_id":"cebpf4jnsgd1na2vs0mg"},{"bike_id":"06177914-bad9-4fdf-8510-a7e01ec14354","system_id":"levelo_inurba_marseille","lat":43.269034,"lon":5.386262,"is_reserved":false,"is_disabled":false,"rental_uris":{"android":"levelo://app?vid=06177914-bad9-4fdf-8510-a7e01ec14354","ios":"levelo://app?vid=06177914-bad9-4fdf-8510-a7e01ec14354"},"vehicle_type_id":"4","last_reported":1728900597,"current_range_meters":35200,"station_id":"ce4bh612rcd13ifvqe6g","pricing_plan_id":"cebpf4jnsgd1na2vs0mg"},{"bike_id":"c3fda03c-5321-40b9-87c1-403fbee73d95","system_id":"levelo_inurba_marseille","lat":43.287058,"lon":5.399898,"is_reserved":false,"is_disabled":false,"rental_uris":{"android":"levelo://app?vid=c3fda03c-5321-40b9-87c1-403fbee73d95","ios":"levelo://app?vid=c3fda03c-5321-40b9-87c1-403fbee73d95"},"vehicle_type_id":"4","last_reported":1728900597,"current_range_meters":8800,"station_id":"ce4bho92rcd13ifvqh3g","pricing_plan_id":"cebpf4jnsgd1na2vs0mg"},{"bike_id":"9f90f898-47e9-4312-9116-6317d0388181","system_id":"levelo_inurba_marseille","lat":43.299643,"lon":5.384864,"is_reserved":false,"is_disabled":false,"rental_uris":{"android":"levelo://app?vid=9f90f898-47e9-4312-9116-6317d0388181","ios":"levelo://app?vid=9f90f898-47e9-4312-9116-6317d0388181"},"vehicle_type_id":"4","last_reported":1728900597,"current_range_meters":20000,"station_id":"ce4bgj92rcd13ifvqbd0","pricing_plan_id":"cebpf4jnsgd1na2vs0mg"},{"bike_id":"199fe7c1-8636-4300-8bcd-0d660239ac5f","system_id":"levelo_inurba_marseille","lat":43.24649,"lon":5.38896,"is_reserved":false,"is_disabled":false,"rental_uris":{"android":"levelo://app?vid=199fe7c1-8636-4300-8bcd-0d660239ac5f","ios":"levelo://app?vid=199fe7c1-8636-4300-8bcd-0d660239ac5f"},"vehicle_type_id":"4","last_reported":1728900597,"current_range_meters":24000,"station_id":"ce4bhg12rcd13ifvqf60","pricing_plan_id":"cebpf4jnsgd1na2vs0mg"},{"bike_id":"33c8cb8f-4d93-4ca1-b394-19ac08e7af57","system_id":"levelo_inurba_marseille","lat":43.26208,"lon":5.37445,"is_reserved":false,"is_disabled":false,"rental_uris":{"android":"levelo://app?vid=33c8cb8f-4d93-4ca1-b394-19ac08e7af57","ios":"levelo://app?vid=33c8cb8f-4d93-4ca1-b394-19ac08e7af57"},"vehicle_type_id":"4","last_reported":1728900597,"current_range_meters":35200,"station_id":"ce4bhgp2rcd13ifvqfc0","pricing_plan_id":"cebpf4jnsgd1na2vs0mg"},{"bike_id":"8e79ae3e-178d-4e39-bcf5-6669ebf576d6","system_id":"levelo_inurba_marseille","lat":43.29581,"lon":5.37499,"is_reserved":false,"is_disabled":false,"rental_uris":{"android":"levelo://app?vid=8e79ae3e-178d-4e39-bcf5-6669ebf576d6","ios":"levelo://app?vid=8e79ae3e-178d-4e39-bcf5-6669ebf576d6"},"vehicle_type_id":"4","last_reported":1728900597,"current_range_meters":10800,"station_id":"ce4bgh92rcd13ifvqb50","pricing_plan_id":"cebpf4jnsgd1na2vs0mg"},{"bike_id":"dc5f317f-b2d0-4a32-9392-ed507e0764b4","system_id":"levelo_inurba_marseille","lat":43.28603,"lon":5.37063,"is_reserved":false,"is_disabled":false,"rental_uris":{"android":"levelo://app?vid=dc5f317f-b2d0-4a32-9392-ed507e0764b4","ios":"levelo://app?vid=dc5f317f-b2d0-4a32-9392-ed507e0764b4"},"vehicle_type_id":"4","last_reported":1728900597,"current_range_meters":32000,"station_id":"ce4bht12rcd13ifvqi60","pricing_plan_id":"cebpf4jnsgd1na2vs0mg"},{"bike_id":"d79b8e32-1629-4e68-b9e1-a2658a2be07f","system_id":"levelo_inurba_marseille","lat":43.26059,"lon":5.39396,"is_reserved":false,"is_disabled":false,"rental_uris":{"android":"levelo://app?vid=d79b8e32-1629-4e68-b9e1-a2658a2be07f","ios":"levelo://app?vid=d79b8e32-1629-4e68-b9e1-a2658a2be07f"},"vehicle_type_id":"4","last_reported":1728900597,"current_range_meters":39200,"station_id":"ce4bhh92rcd13ifvqfj0","pricing_plan_id":"cebpf4jnsgd1na2vs0mg"},{"bike_id":"1d3557ec-f0a4-4375-958e-9798cf3afe40","system_id":"levelo_inurba_marseille","lat":43.31707,"lon":5.37727,"is_reserved":false,"is_disabled":false,"rental_uris":{"android":"levelo://app?vid=1d3557ec-f0a4-4375-958e-9798cf3afe40","ios":"levelo://app?vid=1d3557ec-f0a4-4375-958e-9798cf3afe40"},"vehicle_type_id":"4","last_reported":1728900597,"current_range_meters":27600,"station_id":"ce4bgth2rcd13ifvqch0","pricing_plan_id":"cebpf4jnsgd1na2vs0mg"},{"bike_id":"4a45a353-79a4-41a8-bac9-e9223aef720d","system_id":"levelo_inurba_marseille","lat":43.30181,"lon":5.36622,"is_reserved":false,"is_disabled":false,"rental_uris":{"android":"levelo://app?vid=4a45a353-79a4-41a8-bac9-e9223aef720d","ios":"levelo://app?vid=4a45a353-79a4-41a8-bac9-e9223aef720d"},"vehicle_type_id":"4","last_reported":1728900597,"current_range_meters":37600,"station_id":"ce4bgrh2rcd13ifvqc8g","pricing_plan_id":"cebpf4jnsgd1na2vs0mg"},{"bike_id":"729b5747-2745-44f4-8e45-767e543cac8a","system_id":"levelo_inurba_marseille","lat":43.33034,"lon":5.38936,"is_reserved":false,"is_disabled":false,"rental_uris":{"android":"levelo://app?vid=729b5747-2745-44f4-8e45-767e543cac8a","ios":"levelo://app?vid=729b5747-2745-44f4-8e45-767e543cac8a"},"vehicle_type_id":"4","last_reported":1728900597,"current_range_meters":34000,"station_id":"","pricing_plan_id":"cebpf4jnsgd1na2vs0mg"},{"bike_id":"d0facd29-1c77-48bd-847f-df739d5c6e0e","system_id":"levelo_inurba_marseille","lat":43.2997,"lon":5.3849,"is_reserved":false,"is_disabled":false,"rental_uris":{"android":"levelo://app?vid=d0facd29-1c77-48bd-847f-df739d5c6e0e","ios":"levelo://app?vid=d0facd29-1c77-48bd-847f-df739d5c6e0e"},"vehicle_type_id":"4","last_reported":1728900597,"current_range_meters":20400,"station_id":"ce4bgj92rcd13ifvqbd0","pricing_plan_id":"cebpf4jnsgd1na2vs0mg"},{"bike_id":"7d2ed4c9-1b2a-4e33-b71d-124bf455a204","system_id":"levelo_inurba_marseille","lat":43.33722,"lon":5.3744,"is_reserved":false,"is_disabled":false,"rental_uris":{"android":"levelo://app?vid=7d2ed4c9-1b2a-4e33-b71d-124bf455a204","ios":"levelo://app?vid=7d2ed4c9-1b2a-4e33-b71d-124bf455a204"},"vehicle_type_id":"4","last_reported":1728900597,"current_range_meters":38800,"station_id":"","pricing_plan_id":"cebpf4jnsgd1na2vs0mg"},{"bike_id":"46fc1db5-bdd6-4713-9ba1-444190443c8b","system_id":"levelo_inurba_marseille","lat":43.30538,"lon":5.36544,"is_reserved":false,"is_disabled":false,"rental_uris":{"android":"levelo://app?vid=46fc1db5-bdd6-4713-9ba1-444190443c8b","ios":"levelo://app?vid=46fc1db5-bdd6-4713-9ba1-444190443c8b"},"vehicle_type_id":"4","last_reported":1728900597,"current_range_meters":22800,"station_id":"ce4bgs12rcd13ifvqcag","pricing_plan_id":"cebpf4jnsgd1na2vs0mg"},{"bike_id":"9ee0f26e-35ed-4be2-b0a1-30c879a77e41","system_id":"levelo_inurba_marseille","lat":43.27053,"lon":5.40261,"is_reserved":false,"is_disabled":false,"rental_uris":{"android":"levelo://app?vid=9ee0f26e-35ed-4be2-b0a1-30c879a77e41","ios":"levelo://app?vid=9ee0f26e-35ed-4be2-b0a1-30c879a77e41"},"vehicle_type_id":"4","last_reported":1728900597,"current_range_meters":25200,"station_id":"ce4bhk92rcd13ifvqgc0","pricing_plan_id":"cebpf4jnsgd1na2vs0mg"},{"bike_id":"09c68a5f-0d71-4297-b983-b41453a9b1ae","system_id":"levelo_inurba_marseille","lat":43.34136,"lon":5.40911,"is_reserved":false,"is_disabled":false,"rental_uris":{"android":"levelo://app?vid=09c68a5f-0d71-4297-b983-b41453a9b1ae","ios":"levelo://app?vid=09c68a5f-0d71-4297-b983-b41453a9b1ae"},"vehicle_type_id":"4","last_reported":1728900597,"current_range_meters":39200,"station_id":"ce4bhqh2rcd13ifvqhlg","pricing_plan_id":"cebpf4jnsgd1na2vs0mg"},{"bike_id":"14995dfe-209b-4590-9be0-850c18c5a8af","system_id":"levelo_inurba_marseille","lat":43.24081,"lon":5.37747,"is_reserved":false,"is_disabled":false,"rental_uris":{"android":"levelo://app?vid=14995dfe-209b-4590-9be0-850c18c5a8af","ios":"levelo://app?vid=14995dfe-209b-4590-9be0-850c18c5a8af"},"vehicle_type_id":"4","last_reported":1728900597,"current_range_meters":30800,"station_id":"ce4bhnp2rcd13ifvqgvg","pricing_plan_id":"cebpf4jnsgd1na2vs0mg"},{"bike_id":"684473bd-6e6e-45b0-94db-b3e70cb41371","system_id":"levelo_inurba_marseille","lat":43.28417,"lon":5.37516,"is_reserved":false,"is_disabled":false,"rental_uris":{"android":"levelo://app?vid=684473bd-6e6e-45b0-94db-b3e70cb41371","ios":"levelo://app?vid=684473bd-6e6e-45b0-94db-b3e70cb41371"},"vehicle_type_id":"4","last_reported":1728900597,"current_range_meters":24800,"station_id":"ce4bh412rcd13ifvqds0","pricing_plan_id":"cebpf4jnsgd1na2vs0mg"},{"bike_id":"59e2498c-54d2-4f8d-bca8-817cb5a8e41a","system_id":"levelo_inurba_marseille","lat":43.28153,"lon":5.42643,"is_reserved":false,"is_disabled":false,"rental_uris":{"android":"levelo://app?vid=59e2498c-54d2-4f8d-bca8-817cb5a8e41a","ios":"levelo://app?vid=59e2498c-54d2-4f8d-bca8-817cb5a8e41a"},"vehicle_type_id":"4","last_reported":1728900597,"current_range_meters":6400,"station_id":"ce4bhnh2rcd13ifvqgug","pricing_plan_id":"cebpf4jnsgd1na2vs0mg"},{"bike_id":"aa82eaaf-5813-46a8-bbbd-713d69304143","system_id":"levelo_inurba_marseille","lat":43.31996,"lon":5.38158,"is_reserved":false,"is_disabled":false,"rental_uris":{"android":"levelo://app?vid=aa82eaaf-5813-46a8-bbbd-713d69304143","ios":"levelo://app?vid=aa82eaaf-5813-46a8-bbbd-713d69304143"},"vehicle_type_id":"4","last_reported":1728900597,"current_range_meters":11200,"station_id":"ce4bhr12rcd13ifvqhpg","pricing_plan_id":"cebpf4jnsgd1na2vs0mg"},{"bike_id":"9c51286d-9bc1-4462-bb96-fd77d911114d","system_id":"levelo_inurba_marseille","lat":43.23148,"lon":5.43718,"is_reserved":false,"is_disabled":false,"rental_uris":{"android":"levelo://app?vid=9c51286d-9bc1-4462-bb96-fd77d911114d","ios":"levelo://app?vid=9c51286d-9bc1-4462-bb96-fd77d911114d"},"vehicle_type_id":"4","last_reported":1728900597,"current_range_meters":36400,"station_id":"ce4bhmp2rcd13ifvqgog","pricing_plan_id":"cebpf4jnsgd1na2vs0mg"},{"bike_id":"95abc3db-257e-43e0-b89c-14c03075b7a0","system_id":"levelo_inurba_marseille","lat":43.28154,"lon":5.4265,"is_reserved":false,"is_disabled":false,"rental_uris":{"android":"levelo://app?vid=95abc3db-257e-43e0-b89c-14c03075b7a0","ios":"levelo://app?vid=95abc3db-257e-43e0-b89c-14c03075b7a0"},"vehicle_type_id":"4","last_reported":1728900597,"current_range_meters":39200,"station_id":"ce4bhnh2rcd13ifvqgug","pricing_plan_id":"cebpf4jnsgd1na2vs0mg"},{"bike_id":"58821253-536d-48f0-9016-f878c99d9361","system_id":"levelo_inurba_marseille","lat":43.23055,"lon":5.35491,"is_reserved":false,"is_disabled":false,"rental_uris":{"android":"levelo://app?vid=58821253-536d-48f0-9016-f878c99d9361","ios":"levelo://app?vid=58821253-536d-48f0-9016-f878c99d9361"},"vehicle_type_id":"4","last_reported":1728900597,"current_range_meters":38000,"station_id":"cpo3342slgdg3j2ifvpg","pricing_plan_id":"cebpf4jnsgd1na2vs0mg"},{"bike_id":"9e557752-17c7-4264-a3ad-c69c3addc72b","system_id":"levelo_inurba_marseille","lat":43.25938,"lon":5.40905,"is_reserved":false,"is_disabled":false,"rental_uris":{"android":"levelo://app?vid=9e557752-17c7-4264-a3ad-c69c3addc72b","ios":"levelo://app?vid=9e557752-17c7-4264-a3ad-c69c3addc72b"},"vehicle_type_id":"4","last_reported":1728900597,"current_range_meters":24400,"station_id":"ce4bhm92rcd13ifvqglg","pricing_plan_id":"cebpf4jnsgd1na2vs0mg"},{"bike_id":"b8470661-5778-428f-b7f8-1eba52a61d8d","system_id":"levelo_inurba_marseille","lat":43.29618,"lon":5.37162,"is_reserved":false,"is_disabled":false,"rental_uris":{"android":"levelo://app?vid=b8470661-5778-428f-b7f8-1eba52a61d8d","ios":"levelo://app?vid=b8470661-5778-428f-b7f8-1eba52a61d8d"},"vehicle_type_id":"4","last_reported":1728900597,"current_range_meters":29600,"station_id":"ce4bgnh2rcd13ifvqc0g","pricing_plan_id":"cebpf4jnsgd1na2vs0mg"},{"bike_id":"78f35ddc-131c-45ee-9086-19c333fef5da","system_id":"levelo_inurba_marseille","lat":43.28942,"lon":5.36394,"is_reserved":false,"is_disabled":false,"rental_uris":{"android":"levelo://app?vid=78f35ddc-131c-45ee-9086-19c333fef5da","ios":"levelo://app?vid=78f35ddc-131c-45ee-9086-19c333fef5da"},"vehicle_type_id":"4","last_reported":1728900597,"current_range_meters":25600,"station_id":"ce4bhc92rcd13ifvqetg","pricing_plan_id":"cebpf4jnsgd1na2vs0mg"},{"bike_id":"aada38c0-0c9e-4ae0-a393-7b74af886203","system_id":"levelo_inurba_marseille","lat":43.31358,"lon":5.38487,"is_reserved":false,"is_disabled":false,"rental_uris":{"android":"levelo://app?vid=aada38c0-0c9e-4ae0-a393-7b74af886203","ios":"levelo://app?vid=aada38c0-0c9e-4ae0-a393-7b74af886203"},"vehicle_type_id":"4","last_reported":1728900597,"current_range_meters":32000,"station_id":"ce4bgt92rcd13ifvqcf0","pricing_plan_id":"cebpf4jnsgd1na2vs0mg"},{"bike_id":"7c095d3c-604a-4602-b927-64e3a8b70e01","system_id":"levelo_inurba_marseille","lat":43.29032,"lon":5.37567,"is_reserved":false,"is_disabled":false,"rental_uris":{"android":"levelo://app?vid=7c095d3c-604a-4602-b927-64e3a8b70e01","ios":"levelo://app?vid=7c095d3c-604a-4602-b927-64e3a8b70e01"},"vehicle_type_id":"4","last_reported":1728900597,"current_range_meters":31200,"station_id":"ce4bh692rcd13ifvqe90","pricing_plan_id":"cebpf4jnsgd1na2vs0mg"},{"bike_id":"cdde71fa-933f-47ef-8a23-39142a076aea","system_id":"levelo_inurba_marseille","lat":43.29551,"lon":5.42283,"is_reserved":false,"is_disabled":false,"rental_uris":{"android":"levelo://app?vid=cdde71fa-933f-47ef-8a23-39142a076aea","ios":"levelo://app?vid=cdde71fa-933f-47ef-8a23-39142a076aea"},"vehicle_type_id":"4","last_reported":1728900597,"current_range_meters":36800,"station_id":"ce4bhph2rcd13ifvqhdg","pricing_plan_id":"cebpf4jnsgd1na2vs0mg"},{"bike_id":"aae33064-4853-4bd5-9ae9-1d2a4ee45368","system_id":"levelo_inurba_marseille","lat":43.24166,"lon":5.36402,"is_reserved":false,"is_disabled":false,"rental_uris":{"android":"levelo://app?vid=aae33064-4853-4bd5-9ae9-1d2a4ee45368","ios":"levelo://app?vid=aae33064-4853-4bd5-9ae9-1d2a4ee45368"},"vehicle_type_id":"4","last_reported":1728900597,"current_range_meters":31200,"station_id":"cpo36qri1sfpv3e86is0","pricing_plan_id":"cebpf4jnsgd1na2vs0mg"},{"bike_id":"3ebc8614-7122-4477-a27c-b50ee26fcca2","system_id":"levelo_inurba_marseille","lat":43.23193,"lon":5.35545,"is_reserved":false,"is_disabled":false,"rental_uris":{"android":"levelo://app?vid=3ebc8614-7122-4477-a27c-b50ee26fcca2","ios":"levelo://app?vid=3ebc8614-7122-4477-a27c-b50ee26fcca2"},"vehicle_type_id":"4","last_reported":1728900597,"current_range_meters":4000,"station_id":"ce4bhu92rcd13ifvqi70","pricing_plan_id":"cebpf4jnsgd1na2vs0mg"},{"bike_id":"aad69708-28ac-43e6-945e-619f5a7c6bfd","system_id":"levelo_inurba_marseille","lat":43.33781,"lon":5.37443,"is_reserved":false,"is_disabled":false,"rental_uris":{"android":"levelo://app?vid=aad69708-28ac-43e6-945e-619f5a7c6bfd","ios":"levelo://app?vid=aad69708-28ac-43e6-945e-619f5a7c6bfd"},"vehicle_type_id":"4","last_reported":1728900597,"current_range_meters":29600,"station_id":"","pricing_plan_id":"cebpf4jnsgd1na2vs0mg"},{"bike_id":"fdd134d9-cb0c-4b9e-9621-faa0284f21aa","system_id":"levelo_inurba_marseille","lat":43.29893,"lon":5.43669,"is_reserved":false,"is_disabled":false,"rental_uris":{"android":"levelo://app?vid=fdd134d9-cb0c-4b9e-9621-faa0284f21aa","ios":"levelo://app?vid=fdd134d9-cb0c-4b9e-9621-faa0284f21aa"},"vehicle_type_id":"4","last_reported":1728900597,"current_range_meters":30800,"station_id":"ce4bhpp2rcd13ifvqhfg","pricing_plan_id":"cebpf4jnsgd1na2vs0mg"},{"bike_id":"1d652868-46d3-41f3-8b5d-77f54158e2c2","system_id":"levelo_inurba_marseille","lat":43.28614,"lon":5.35103,"is_reserved":false,"is_disabled":false,"rental_uris":{"android":"levelo://app?vid=1d652868-46d3-41f3-8b5d-77f54158e2c2","ios":"levelo://app?vid=1d652868-46d3-41f3-8b5d-77f54158e2c2"},"vehicle_type_id":"4","last_reported":1728900597,"current_range_meters":21600,"station_id":"ce4bhch2rcd13ifvqeug","pricing_plan_id":"cebpf4jnsgd1na2vs0mg"},{"bike_id":"31488c8d-386c-4bd0-91a4-f402bbd7bff5","system_id":"levelo_inurba_marseille","lat":43.29704,"lon":5.3769,"is_reserved":false,"is_disabled":false,"rental_uris":{"android":"levelo://app?vid=31488c8d-386c-4bd0-91a4-f402bbd7bff5","ios":"levelo://app?vid=31488c8d-386c-4bd0-91a4-f402bbd7bff5"},"vehicle_type_id":"4","last_reported":1728900597,"current_range_meters":28800,"station_id":"ce4bgkh2rcd13ifvqbl0","pricing_plan_id":"cebpf4jnsgd1na2vs0mg"},{"bike_id":"4a3a48a1-2504-4052-9f2f-cd518035a423","system_id":"levelo_inurba_marseille","lat":43.28483,"lon":5.38566,"is_reserved":false,"is_disabled":false,"rental_uris":{"android":"levelo://app?vid=4a3a48a1-2504-4052-9f2f-cd518035a423","ios":"levelo://app?vid=4a3a48a1-2504-4052-9f2f-cd518035a423"},"vehicle_type_id":"4","last_reported":1728900597,"current_range_meters":4400,"station_id":"ce4bh8p2rcd13ifvqeb0","pricing_plan_id":"cebpf4jnsgd1na2vs0mg"},{"bike_id":"db0d0fce-dbaa-4f90-bcdb-161e28b76351","system_id":"levelo_inurba_marseille","lat":43.33761,"lon":5.37438,"is_reserved":false,"is_disabled":false,"rental_uris":{"android":"levelo://app?vid=db0d0fce-dbaa-4f90-bcdb-161e28b76351","ios":"levelo://app?vid=db0d0fce-dbaa-4f90-bcdb-161e28b76351"},"vehicle_type_id":"4","last_reported":1728900597,"current_range_meters":38400,"station_id":"","pricing_plan_id":"cebpf4jnsgd1na2vs0mg"},{"bike_id":"fe567e6b-c9f8-4a9b-8aeb-d58094cf2d9d","system_id":"levelo_inurba_marseille","lat":43.30148,"lon":5.37409,"is_reserved":false,"is_disabled":false,"rental_uris":{"android":"levelo://app?vid=fe567e6b-c9f8-4a9b-8aeb-d58094cf2d9d","ios":"levelo://app?vid=fe567e6b-c9f8-4a9b-8aeb-d58094cf2d9d"},"vehicle_type_id":"4","last_reported":1728900597,"current_range_meters":20400,"station_id":"ce4bgs92rcd13ifvqcc0","pricing_plan_id":"cebpf4jnsgd1na2vs0mg"},{"bike_id":"8864b227-5a50-4cd3-8d60-0f2ced5f9a7a","system_id":"levelo_inurba_marseille","lat":43.28456,"lon":5.35889,"is_reserved":false,"is_disabled":false,"rental_uris":{"android":"levelo://app?vid=8864b227-5a50-4cd3-8d60-0f2ced5f9a7a","ios":"levelo://app?vid=8864b227-5a50-4cd3-8d60-0f2ced5f9a7a"},"vehicle_type_id":"4","last_reported":1728900597,"current_range_meters":36400,"station_id":"ce4bhah2rcd13ifvqei0","pricing_plan_id":"cebpf4jnsgd1na2vs0mg"},{"bike_id":"35983d65-e7a5-415a-b102-7f0aac4b39f7","system_id":"levelo_inurba_marseille","lat":43.23191,"lon":5.35554,"is_reserved":false,"is_disabled":false,"rental_uris":{"android":"levelo://app?vid=35983d65-e7a5-415a-b102-7f0aac4b39f7","ios":"levelo://app?vid=35983d65-e7a5-415a-b102-7f0aac4b39f7"},"vehicle_type_id":"4","last_reported":1728900597,"current_range_meters":38000,"station_id":"ce4bhu92rcd13ifvqi70","pricing_plan_id":"cebpf4jnsgd1na2vs0mg"},{"bike_id":"85811681-5063-4b00-ac7e-34bf992e363d","system_id":"levelo_inurba_marseille","lat":43.31217,"lon":5.36869,"is_reserved":false,"is_disabled":false,"rental_uris":{"android":"levelo://app?vid=85811681-5063-4b00-ac7e-34bf992e363d","ios":"levelo://app?vid=85811681-5063-4b00-ac7e-34bf992e363d"},"vehicle_type_id":"4","last_reported":1728900597,"current_range_meters":36400,"station_id":"ce4bgl92rcd13ifvqbq0","pricing_plan_id":"cebpf4jnsgd1na2vs0mg"},{"bike_id":"f6d92f87-4f4a-4b60-9286-0e1a98763458","system_id":"levelo_inurba_marseille","lat":43.26933,"lon":5.3892,"is_reserved":false,"is_disabled":false,"rental_uris":{"android":"levelo://app?vid=f6d92f87-4f4a-4b60-9286-0e1a98763458","ios":"levelo://app?vid=f6d92f87-4f4a-4b60-9286-0e1a98763458"},"vehicle_type_id":"4","last_reported":1728900597,"current_range_meters":38800,"station_id":"ce4bhhh2rcd13ifvqfl0","pricing_plan_id":"cebpf4jnsgd1na2vs0mg"},{"bike_id":"81b3b8c9-fa1b-49bf-8d7b-5c4711bbdedb","system_id":"levelo_inurba_marseille","lat":43.30182,"lon":5.36616,"is_reserved":false,"is_disabled":false,"rental_uris":{"android":"levelo://app?vid=81b3b8c9-fa1b-49bf-8d7b-5c4711bbdedb","ios":"levelo://app?vid=81b3b8c9-fa1b-49bf-8d7b-5c4711bbdedb"},"vehicle_type_id":"4","last_reported":1728900597,"current_range_meters":40000,"station_id":"ce4bgrh2rcd13ifvqc8g","pricing_plan_id":"cebpf4jnsgd1na2vs0mg"},{"bike_id":"1ea618d6-2b90-4a0c-b462-6fc22d02503d","system_id":"levelo_inurba_marseille","lat":43.28147,"lon":5.42634,"is_reserved":false,"is_disabled":false,"rental_uris":{"android":"levelo://app?vid=1ea618d6-2b90-4a0c-b462-6fc22d02503d","ios":"levelo://app?vid=1ea618d6-2b90-4a0c-b462-6fc22d02503d"},"vehicle_type_id":"4","last_reported":1728900597,"current_range_meters":15200,"station_id":"ce4bhnh2rcd13ifvqgug","pricing_plan_id":"cebpf4jnsgd1na2vs0mg"},{"bike_id":"96ca8c9d-9fd7-4c44-a7b9-2b71a35fc9ee","system_id":"levelo_inurba_marseille","lat":43.24082,"lon":5.37749,"is_reserved":false,"is_disabled":false,"rental_uris":{"android":"levelo://app?vid=96ca8c9d-9fd7-4c44-a7b9-2b71a35fc9ee","ios":"levelo://app?vid=96ca8c9d-9fd7-4c44-a7b9-2b71a35fc9ee"},"vehicle_type_id":"4","last_reported":1728900597,"current_range_meters":24800,"station_id":"ce4bhnp2rcd13ifvqgvg","pricing_plan_id":"cebpf4jnsgd1na2vs0mg"},{"bike_id":"1f2b4fc4-9a61-4dc0-bf67-865901a2f6eb","system_id":"levelo_inurba_marseille","lat":43.30533,"lon":5.38428,"is_reserved":false,"is_disabled":false,"rental_uris":{"android":"levelo://app?vid=1f2b4fc4-9a61-4dc0-bf67-865901a2f6eb","ios":"levelo://app?vid=1f2b4fc4-9a61-4dc0-bf67-865901a2f6eb"},"vehicle_type_id":"4","last_reported":1728900597,"current_range_meters":32000,"station_id":"ce4bgg92rcd13ifvqb30","pricing_plan_id":"cebpf4jnsgd1na2vs0mg"},{"bike_id":"27311a75-ebb6-43d6-9fb5-f3ba72a10e0e","system_id":"levelo_inurba_marseille","lat":43.29907,"lon":5.43666,"is_reserved":false,"is_disabled":false,"rental_uris":{"android":"levelo://app?vid=27311a75-ebb6-43d6-9fb5-f3ba72a10e0e","ios":"levelo://app?vid=27311a75-ebb6-43d6-9fb5-f3ba72a10e0e"},"vehicle_type_id":"4","last_reported":1728900597,"current_range_meters":16000,"station_id":"ce4bhpp2rcd13ifvqhfg","pricing_plan_id":"cebpf4jnsgd1na2vs0mg"},{"bike_id":"56c64ebb-0dbf-4dd0-b910-54f5e671ab0c","system_id":"levelo_inurba_marseille","lat":43.24801,"lon":5.37458,"is_reserved":false,"is_disabled":false,"rental_uris":{"android":"levelo://app?vid=56c64ebb-0dbf-4dd0-b910-54f5e671ab0c","ios":"levelo://app?vid=56c64ebb-0dbf-4dd0-b910-54f5e671ab0c"},"vehicle_type_id":"4","last_reported":1728900597,"current_range_meters":36800,"station_id":"ce4bhgh2rcd13ifvqfb0","pricing_plan_id":"cebpf4jnsgd1na2vs0mg"},{"bike_id":"c2deb5ec-3835-41fe-98d1-1f32dbaeb6a2","system_id":"levelo_inurba_marseille","lat":43.28719,"lon":5.36096,"is_reserved":false,"is_disabled":false,"rental_uris":{"android":"levelo://app?vid=c2deb5ec-3835-41fe-98d1-1f32dbaeb6a2","ios":"levelo://app?vid=c2deb5ec-3835-41fe-98d1-1f32dbaeb6a2"},"vehicle_type_id":"4","last_reported":1728900597,"current_range_meters":32800,"station_id":"cki0cbj6b192h4jlfktg","pricing_plan_id":"cebpf4jnsgd1na2vs0mg"},{"bike_id":"6f55c53c-3800-44ae-a1cf-bc5df1af9b39","system_id":"levelo_inurba_marseille","lat":43.30525,"lon":5.36708,"is_reserved":false,"is_disabled":false,"rental_uris":{"android":"levelo://app?vid=6f55c53c-3800-44ae-a1cf-bc5df1af9b39","ios":"levelo://app?vid=6f55c53c-3800-44ae-a1cf-bc5df1af9b39"},"vehicle_type_id":"4","last_reported":1728900597,"current_range_meters":30400,"station_id":"ce4bgrp2rcd13ifvqc9g","pricing_plan_id":"cebpf4jnsgd1na2vs0mg"},{"bike_id":"674a2a28-cf85-4d95-a619-930b81cfd421","system_id":"levelo_inurba_marseille","lat":43.23147,"lon":5.4371,"is_reserved":false,"is_disabled":false,"rental_uris":{"android":"levelo://app?vid=674a2a28-cf85-4d95-a619-930b81cfd421","ios":"levelo://app?vid=674a2a28-cf85-4d95-a619-930b81cfd421"},"vehicle_type_id":"4","last_reported":1728900597,"current_range_meters":26000,"station_id":"ce4bhmp2rcd13ifvqgog","pricing_plan_id":"cebpf4jnsgd1na2vs0mg"},{"bike_id":"4f9339fe-d202-4292-bda3-7e729061526c","system_id":"levelo_inurba_marseille","lat":43.27176,"lon":5.40996,"is_reserved":false,"is_disabled":false,"rental_uris":{"android":"levelo://app?vid=4f9339fe-d202-4292-bda3-7e729061526c","ios":"levelo://app?vid=4f9339fe-d202-4292-bda3-7e729061526c"},"vehicle_type_id":"4","last_reported":1728900597,"current_range_meters":16800,"station_id":"ce4bhl12rcd13ifvqgf0","pricing_plan_id":"cebpf4jnsgd1na2vs0mg"},{"bike_id":"551a20ed-cb9d-4a60-adf6-4348d5c063e9","system_id":"levelo_inurba_marseille","lat":43.23152,"lon":5.43703,"is_reserved":false,"is_disabled":false,"rental_uris":{"android":"levelo://app?vid=551a20ed-cb9d-4a60-adf6-4348d5c063e9","ios":"levelo://app?vid=551a20ed-cb9d-4a60-adf6-4348d5c063e9"},"vehicle_type_id":"4","last_reported":1728900597,"current_range_meters":16800,"station_id":"ce4bhmp2rcd13ifvqgog","pricing_plan_id":"cebpf4jnsgd1na2vs0mg"},{"bike_id":"87e5b82b-1978-49bf-92bf-413ec779c074","system_id":"levelo_inurba_marseille","lat":43.3018,"lon":5.36616,"is_reserved":false,"is_disabled":false,"rental_uris":{"android":"levelo://app?vid=87e5b82b-1978-49bf-92bf-413ec779c074","ios":"levelo://app?vid=87e5b82b-1978-49bf-92bf-413ec779c074"},"vehicle_type_id":"4","last_reported":1728900597,"current_range_meters":27200,"station_id":"ce4bgrh2rcd13ifvqc8g","pricing_plan_id":"cebpf4jnsgd1na2vs0mg"},{"bike_id":"adb8b798-366e-4229-a12c-f4dea4d23dc5","system_id":"levelo_inurba_marseille","lat":43.28732,"lon":5.36092,"is_reserved":false,"is_disabled":false,"rental_uris":{"android":"levelo://app?vid=adb8b798-366e-4229-a12c-f4dea4d23dc5","ios":"levelo://app?vid=adb8b798-366e-4229-a12c-f4dea4d23dc5"},"vehicle_type_id":"4","last_reported":1728900597,"current_range_meters":33600,"station_id":"cki0cbj6b192h4jlfktg","pricing_plan_id":"cebpf4jnsgd1na2vs0mg"},{"bike_id":"03412e9f-e5af-44a8-940e-a098b1ec2875","system_id":"levelo_inurba_marseille","lat":43.22936,"lon":5.35378,"is_reserved":false,"is_disabled":false,"rental_uris":{"android":"levelo://app?vid=03412e9f-e5af-44a8-940e-a098b1ec2875","ios":"levelo://app?vid=03412e9f-e5af-44a8-940e-a098b1ec2875"},"vehicle_type_id":"4","last_reported":1728900597,"current_range_meters":36800,"station_id":"cpo3532slgdg3j2ikp40","pricing_plan_id":"cebpf4jnsgd1na2vs0mg"},{"bike_id":"2514c3e8-0adf-47af-b777-02db04bae87e","system_id":"levelo_inurba_marseille","lat":43.28608,"lon":5.37063,"is_reserved":false,"is_disabled":false,"rental_uris":{"android":"levelo://app?vid=2514c3e8-0adf-47af-b777-02db04bae87e","ios":"levelo://app?vid=2514c3e8-0adf-47af-b777-02db04bae87e"},"vehicle_type_id":"4","last_reported":1728900597,"current_range_meters":39200,"station_id":"ce4bht12rcd13ifvqi60","pricing_plan_id":"cebpf4jnsgd1na2vs0mg"},{"bike_id":"50318d90-2168-4373-9d50-f39e5ad7003a","system_id":"levelo_inurba_marseille","lat":43.33771,"lon":5.37426,"is_reserved":false,"is_disabled":false,"rental_uris":{"android":"levelo://app?vid=50318d90-2168-4373-9d50-f39e5ad7003a","ios":"levelo://app?vid=50318d90-2168-4373-9d50-f39e5ad7003a"},"vehicle_type_id":"4","last_reported":1728900597,"current_range_meters":36400,"station_id":"","pricing_plan_id":"cebpf4jnsgd1na2vs0mg"},{"bike_id":"c41c8497-36db-4779-a2b0-2199784e604c","system_id":"levelo_inurba_marseille","lat":43.27806,"lon":5.40702,"is_reserved":false,"is_disabled":false,"rental_uris":{"android":"levelo://app?vid=c41c8497-36db-4779-a2b0-2199784e604c","ios":"levelo://app?vid=c41c8497-36db-4779-a2b0-2199784e604c"},"vehicle_type_id":"4","last_reported":1728900597,"current_range_meters":40000,"station_id":"ce4bhnh2rcd13ifvqgtg","pricing_plan_id":"cebpf4jnsgd1na2vs0mg"},{"bike_id":"5d76c7d2-8dda-4754-ad37-53cce9e36808","system_id":"levelo_inurba_marseille","lat":43.23193,"lon":5.35554,"is_reserved":false,"is_disabled":false,"rental_uris":{"android":"levelo://app?vid=5d76c7d2-8dda-4754-ad37-53cce9e36808","ios":"levelo://app?vid=5d76c7d2-8dda-4754-ad37-53cce9e36808"},"vehicle_type_id":"4","last_reported":1728900597,"current_range_meters":30000,"station_id":"ce4bhu92rcd13ifvqi70","pricing_plan_id":"cebpf4jnsgd1na2vs0mg"},{"bike_id":"484b5a03-169f-4f9c-8212-fc344897719a","system_id":"levelo_inurba_marseille","lat":43.308,"lon":5.43522,"is_reserved":false,"is_disabled":false,"rental_uris":{"android":"levelo://app?vid=484b5a03-169f-4f9c-8212-fc344897719a","ios":"levelo://app?vid=484b5a03-169f-4f9c-8212-fc344897719a"},"vehicle_type_id":"4","last_reported":1728900597,"current_range_meters":8000,"station_id":"ce4bhph2rcd13ifvqheg","pricing_plan_id":"cebpf4jnsgd1na2vs0mg"},{"bike_id":"7000ee87-3240-46f2-b126-d1bae5a1918b","system_id":"levelo_inurba_marseille","lat":43.27993,"lon":5.40016,"is_reserved":false,"is_disabled":false,"rental_uris":{"android":"levelo://app?vid=7000ee87-3240-46f2-b126-d1bae5a1918b","ios":"levelo://app?vid=7000ee87-3240-46f2-b126-d1bae5a1918b"},"vehicle_type_id":"4","last_reported":1728900597,"current_range_meters":28000,"station_id":"ce4bho92rcd13ifvqh4g","pricing_plan_id":"cebpf4jnsgd1na2vs0mg"},{"bike_id":"0f63c3d8-6b6c-4a01-8438-15c5cf5d524c","system_id":"levelo_inurba_marseille","lat":43.28472,"lon":5.38418,"is_reserved":false,"is_disabled":false,"rental_uris":{"android":"levelo://app?vid=0f63c3d8-6b6c-4a01-8438-15c5cf5d524c","ios":"levelo://app?vid=0f63c3d8-6b6c-4a01-8438-15c5cf5d524c"},"vehicle_type_id":"4","last_reported":1728900597,"current_range_meters":39200,"station_id":"ce4bh512rcd13ifvqe3g","pricing_plan_id":"cebpf4jnsgd1na2vs0mg"},{"bike_id":"cba59919-95e6-42ff-83c9-6bcf45674d60","system_id":"levelo_inurba_marseille","lat":43.32336,"lon":5.38328,"is_reserved":false,"is_disabled":false,"rental_uris":{"android":"levelo://app?vid=cba59919-95e6-42ff-83c9-6bcf45674d60","ios":"levelo://app?vid=cba59919-95e6-42ff-83c9-6bcf45674d60"},"vehicle_type_id":"4","last_reported":1728900597,"current_range_meters":35600,"station_id":"","pricing_plan_id":"cebpf4jnsgd1na2vs0mg"},{"bike_id":"85562e0c-6e65-40ec-82d1-2f4aa69e9a86","system_id":"levelo_inurba_marseille","lat":43.23151,"lon":5.43701,"is_reserved":false,"is_disabled":false,"rental_uris":{"android":"levelo://app?vid=85562e0c-6e65-40ec-82d1-2f4aa69e9a86","ios":"levelo://app?vid=85562e0c-6e65-40ec-82d1-2f4aa69e9a86"},"vehicle_type_id":"4","last_reported":1728900597,"current_range_meters":22000,"station_id":"ce4bhmp2rcd13ifvqgog","pricing_plan_id":"cebpf4jnsgd1na2vs0mg"},{"bike_id":"92a29d71-48b4-4930-9f60-84bf16af29a6","system_id":"levelo_inurba_marseille","lat":43.26027,"lon":5.37548,"is_reserved":false,"is_disabled":false,"rental_uris":{"android":"levelo://app?vid=92a29d71-48b4-4930-9f60-84bf16af29a6","ios":"levelo://app?vid=92a29d71-48b4-4930-9f60-84bf16af29a6"},"vehicle_type_id":"4","last_reported":1728900597,"current_range_meters":38400,"station_id":"ce4bhgh2rcd13ifvqfa0","pricing_plan_id":"cebpf4jnsgd1na2vs0mg"},{"bike_id":"019fc47b-2524-4815-9033-a37b368957da","system_id":"levelo_inurba_marseille","lat":43.24548,"lon":5.39527,"is_reserved":false,"is_disabled":false,"rental_uris":{"android":"levelo://app?vid=019fc47b-2524-4815-9033-a37b368957da","ios":"levelo://app?vid=019fc47b-2524-4815-9033-a37b368957da"},"vehicle_type_id":"4","last_reported":1728900597,"current_range_meters":33600,"station_id":"ce4bhlp2rcd13ifvqgjg","pricing_plan_id":"cebpf4jnsgd1na2vs0mg"},{"bike_id":"fff1b94f-1529-479d-84a1-1c0c949b8b28","system_id":"levelo_inurba_marseille","lat":43.305593,"lon":5.3654,"is_reserved":false,"is_disabled":false,"rental_uris":{"android":"levelo://app?vid=fff1b94f-1529-479d-84a1-1c0c949b8b28","ios":"levelo://app?vid=fff1b94f-1529-479d-84a1-1c0c949b8b28"},"vehicle_type_id":"4","last_reported":1728900597,"current_range_meters":40000,"station_id":"ce4bgs12rcd13ifvqcag","pricing_plan_id":"cebpf4jnsgd1na2vs0mg"},{"bike_id":"a467464a-3cf2-4a0d-b34d-eb155a9ba689","system_id":"levelo_inurba_marseille","lat":43.30543,"lon":5.36538,"is_reserved":false,"is_disabled":false,"rental_uris":{"android":"levelo://app?vid=a467464a-3cf2-4a0d-b34d-eb155a9ba689","ios":"levelo://app?vid=a467464a-3cf2-4a0d-b34d-eb155a9ba689"},"vehicle_type_id":"4","last_reported":1728900597,"current_range_meters":39200,"station_id":"ce4bgs12rcd13ifvqcag","pricing_plan_id":"cebpf4jnsgd1na2vs0mg"},{"bike_id":"620cbee8-c89a-4c1c-96e3-c5d8933cdf50","system_id":"levelo_inurba_marseille","lat":43.33732,"lon":5.37451,"is_reserved":false,"is_disabled":false,"rental_uris":{"android":"levelo://app?vid=620cbee8-c89a-4c1c-96e3-c5d8933cdf50","ios":"levelo://app?vid=620cbee8-c89a-4c1c-96e3-c5d8933cdf50"},"vehicle_type_id":"4","last_reported":1728900597,"current_range_meters":38000,"station_id":"","pricing_plan_id":"cebpf4jnsgd1na2vs0mg"},{"bike_id":"d2592a48-f67f-4f17-a11d-67d783650295","system_id":"levelo_inurba_marseille","lat":43.261993,"lon":5.379323,"is_reserved":false,"is_disabled":false,"rental_uris":{"android":"levelo://app?vid=d2592a48-f67f-4f17-a11d-67d783650295","ios":"levelo://app?vid=d2592a48-f67f-4f17-a11d-67d783650295"},"vehicle_type_id":"4","last_reported":1728900597,"current_range_meters":11200,"station_id":"ce4bgjh2rcd13ifvqbg0","pricing_plan_id":"cebpf4jnsgd1na2vs0mg"},{"bike_id":"703614ed-9d46-4511-af00-f1b9e51caa4e","system_id":"levelo_inurba_marseille","lat":43.28094,"lon":5.37834,"is_reserved":false,"is_disabled":false,"rental_uris":{"android":"levelo://app?vid=703614ed-9d46-4511-af00-f1b9e51caa4e","ios":"levelo://app?vid=703614ed-9d46-4511-af00-f1b9e51caa4e"},"vehicle_type_id":"4","last_reported":1728900597,"current_range_meters":30000,"station_id":"ce4bha12rcd13ifvqee0","pricing_plan_id":"cebpf4jnsgd1na2vs0mg"},{"bike_id":"88fb0e4e-e700-4551-862f-d7b81cceb7ee","system_id":"levelo_inurba_marseille","lat":43.30145,"lon":5.38077,"is_reserved":false,"is_disabled":false,"rental_uris":{"android":"levelo://app?vid=88fb0e4e-e700-4551-862f-d7b81cceb7ee","ios":"levelo://app?vid=88fb0e4e-e700-4551-862f-d7b81cceb7ee"},"vehicle_type_id":"4","last_reported":1728900597,"current_range_meters":27200,"station_id":"ce4bgjp2rcd13ifvqbh0","pricing_plan_id":"cebpf4jnsgd1na2vs0mg"},{"bike_id":"863511eb-36e4-4567-89d1-e1f3149b3364","system_id":"levelo_inurba_marseille","lat":43.2655,"lon":5.37287,"is_reserved":false,"is_disabled":false,"rental_uris":{"android":"levelo://app?vid=863511eb-36e4-4567-89d1-e1f3149b3364","ios":"levelo://app?vid=863511eb-36e4-4567-89d1-e1f3149b3364"},"vehicle_type_id":"4","last_reported":1728900597,"current_range_meters":38400,"station_id":"ce4bhg12rcd13ifvqf70","pricing_plan_id":"cebpf4jnsgd1na2vs0mg"},{"bike_id":"dae4a4c6-add2-4a8e-a168-e570d01c84f8","system_id":"levelo_inurba_marseille","lat":43.28441,"lon":5.35878,"is_reserved":false,"is_disabled":false,"rental_uris":{"android":"levelo://app?vid=dae4a4c6-add2-4a8e-a168-e570d01c84f8","ios":"levelo://app?vid=dae4a4c6-add2-4a8e-a168-e570d01c84f8"},"vehicle_type_id":"4","last_reported":1728900597,"current_range_meters":25200,"station_id":"ce4bhah2rcd13ifvqei0","pricing_plan_id":"cebpf4jnsgd1na2vs0mg"},{"bike_id":"f87c2e9c-f0cd-4ad3-83d0-e1cfea0711a0","system_id":"levelo_inurba_marseille","lat":43.26803,"lon":5.40266,"is_reserved":false,"is_disabled":false,"rental_uris":{"android":"levelo://app?vid=f87c2e9c-f0cd-4ad3-83d0-e1cfea0711a0","ios":"levelo://app?vid=f87c2e9c-f0cd-4ad3-83d0-e1cfea0711a0"},"vehicle_type_id":"4","last_reported":1728900597,"current_range_meters":39200,"station_id":"ce501612rcd8frsf0b60","pricing_plan_id":"cebpf4jnsgd1na2vs0mg"},{"bike_id":"4677b78e-9629-4da7-a448-0a6f0febcb1d","system_id":"levelo_inurba_marseille","lat":43.25002,"lon":5.38923,"is_reserved":false,"is_disabled":false,"rental_uris":{"android":"levelo://app?vid=4677b78e-9629-4da7-a448-0a6f0febcb1d","ios":"levelo://app?vid=4677b78e-9629-4da7-a448-0a6f0febcb1d"},"vehicle_type_id":"4","last_reported":1728900597,"current_range_meters":38800,"station_id":"ce4bhgp2rcd13ifvqfd0","pricing_plan_id":"cebpf4jnsgd1na2vs0mg"},{"bike_id":"69012571-6ea9-4dd2-840f-435ce828391e","system_id":"levelo_inurba_marseille","lat":43.29884,"lon":5.39745,"is_reserved":false,"is_disabled":false,"rental_uris":{"android":"levelo://app?vid=69012571-6ea9-4dd2-840f-435ce828391e","ios":"levelo://app?vid=69012571-6ea9-4dd2-840f-435ce828391e"},"vehicle_type_id":"4","last_reported":1728900597,"current_range_meters":38800,"station_id":"ce4bh0h2rcd13ifvqd50","pricing_plan_id":"cebpf4jnsgd1na2vs0mg"},{"bike_id":"1b1f170c-9699-4c4d-b551-c66d858dd345","system_id":"levelo_inurba_marseille","lat":43.31115,"lon":5.37774,"is_reserved":false,"is_disabled":false,"rental_uris":{"android":"levelo://app?vid=1b1f170c-9699-4c4d-b551-c66d858dd345","ios":"levelo://app?vid=1b1f170c-9699-4c4d-b551-c66d858dd345"},"vehicle_type_id":"4","last_reported":1728900597,"current_range_meters":6400,"station_id":"ce4bgt92rcd13ifvqcg0","pricing_plan_id":"cebpf4jnsgd1na2vs0mg"},{"bike_id":"519c32cb-8940-418c-8e74-b3ffe2174797","system_id":"levelo_inurba_marseille","lat":43.24388,"lon":5.37052,"is_reserved":false,"is_disabled":false,"rental_uris":{"android":"levelo://app?vid=519c32cb-8940-418c-8e74-b3ffe2174797","ios":"levelo://app?vid=519c32cb-8940-418c-8e74-b3ffe2174797"},"vehicle_type_id":"4","last_reported":1728900597,"current_range_meters":36800,"station_id":"ce4bhhh2rcd13ifvqfk0","pricing_plan_id":"cebpf4jnsgd1na2vs0mg"},{"bike_id":"5bd7ef04-ea8a-45be-9fde-cb0c32839683","system_id":"levelo_inurba_marseille","lat":43.24642,"lon":5.38894,"is_reserved":false,"is_disabled":false,"rental_uris":{"android":"levelo://app?vid=5bd7ef04-ea8a-45be-9fde-cb0c32839683","ios":"levelo://app?vid=5bd7ef04-ea8a-45be-9fde-cb0c32839683"},"vehicle_type_id":"4","last_reported":1728900597,"current_range_meters":30000,"station_id":"ce4bhg12rcd13ifvqf60","pricing_plan_id":"cebpf4jnsgd1na2vs0mg"},{"bike_id":"5f6b7b31-0958-42fc-9a31-083314cc7b77","system_id":"levelo_inurba_marseille","lat":43.31203,"lon":5.36866,"is_reserved":false,"is_disabled":false,"rental_uris":{"android":"levelo://app?vid=5f6b7b31-0958-42fc-9a31-083314cc7b77","ios":"levelo://app?vid=5f6b7b31-0958-42fc-9a31-083314cc7b77"},"vehicle_type_id":"4","last_reported":1728900597,"current_range_meters":40000,"station_id":"ce4bgl92rcd13ifvqbq0","pricing_plan_id":"cebpf4jnsgd1na2vs0mg"},{"bike_id":"1f96e6d9-8ac5-4b58-8505-ccb19b132f74","system_id":"levelo_inurba_marseille","lat":43.34145,"lon":5.40898,"is_reserved":false,"is_disabled":false,"rental_uris":{"android":"levelo://app?vid=1f96e6d9-8ac5-4b58-8505-ccb19b132f74","ios":"levelo://app?vid=1f96e6d9-8ac5-4b58-8505-ccb19b132f74"},"vehicle_type_id":"4","last_reported":1728900597,"current_range_meters":37600,"station_id":"ce4bhqh2rcd13ifvqhlg","pricing_plan_id":"cebpf4jnsgd1na2vs0mg"},{"bike_id":"34568016-19c4-49fe-926d-48385c06829d","system_id":"levelo_inurba_marseille","lat":43.29786,"lon":5.381,"is_reserved":false,"is_disabled":false,"rental_uris":{"android":"levelo://app?vid=34568016-19c4-49fe-926d-48385c06829d","ios":"levelo://app?vid=34568016-19c4-49fe-926d-48385c06829d"},"vehicle_type_id":"4","last_reported":1728900597,"current_range_meters":39200,"station_id":"ce4bgip2rcd13ifvqbb0","pricing_plan_id":"cebpf4jnsgd1na2vs0mg"},{"bike_id":"f60c700a-092c-44b9-a653-4a5c736bd902","system_id":"levelo_inurba_marseille","lat":43.27051,"lon":5.4026,"is_reserved":false,"is_disabled":false,"rental_uris":{"android":"levelo://app?vid=f60c700a-092c-44b9-a653-4a5c736bd902","ios":"levelo://app?vid=f60c700a-092c-44b9-a653-4a5c736bd902"},"vehicle_type_id":"4","last_reported":1728900597,"current_range_meters":27600,"station_id":"ce4bhk92rcd13ifvqgc0","pricing_plan_id":"cebpf4jnsgd1na2vs0mg"},{"bike_id":"9d960984-c801-496e-bb50-c485ac295345","system_id":"levelo_inurba_marseille","lat":43.30353,"lon":5.41881,"is_reserved":false,"is_disabled":false,"rental_uris":{"android":"levelo://app?vid=9d960984-c801-496e-bb50-c485ac295345","ios":"levelo://app?vid=9d960984-c801-496e-bb50-c485ac295345"},"vehicle_type_id":"4","last_reported":1728900597,"current_range_meters":22800,"station_id":"ce4bhop2rcd13ifvqh7g","pricing_plan_id":"cebpf4jnsgd1na2vs0mg"},{"bike_id":"847e8d98-7600-4ece-b162-a548b73facac","system_id":"levelo_inurba_marseille","lat":43.27994,"lon":5.40022,"is_reserved":false,"is_disabled":false,"rental_uris":{"android":"levelo://app?vid=847e8d98-7600-4ece-b162-a548b73facac","ios":"levelo://app?vid=847e8d98-7600-4ece-b162-a548b73facac"},"vehicle_type_id":"4","last_reported":1728900597,"current_range_meters":38800,"station_id":"ce4bho92rcd13ifvqh4g","pricing_plan_id":"cebpf4jnsgd1na2vs0mg"},{"bike_id":"84b0f6bd-e05d-4957-9ce0-eefb1b5fb5d2","system_id":"levelo_inurba_marseille","lat":43.25909,"lon":5.394908,"is_reserved":false,"is_disabled":false,"rental_uris":{"android":"levelo://app?vid=84b0f6bd-e05d-4957-9ce0-eefb1b5fb5d2","ios":"levelo://app?vid=84b0f6bd-e05d-4957-9ce0-eefb1b5fb5d2"},"vehicle_type_id":"4","last_reported":1728900597,"current_range_meters":36800,"station_id":"","pricing_plan_id":"cebpf4jnsgd1na2vs0mg"},{"bike_id":"0cc79c14-2714-4b9f-ab7a-1836965cf5c3","system_id":"levelo_inurba_marseille","lat":43.23194,"lon":5.35554,"is_reserved":false,"is_disabled":false,"rental_uris":{"android":"levelo://app?vid=0cc79c14-2714-4b9f-ab7a-1836965cf5c3","ios":"levelo://app?vid=0cc79c14-2714-4b9f-ab7a-1836965cf5c3"},"vehicle_type_id":"4","last_reported":1728900597,"current_range_meters":38000,"station_id":"ce4bhu92rcd13ifvqi70","pricing_plan_id":"cebpf4jnsgd1na2vs0mg"},{"bike_id":"530322b1-92a4-42ba-bf6a-ab2ad64d0aab","system_id":"levelo_inurba_marseille","lat":43.298,"lon":5.38097,"is_reserved":false,"is_disabled":false,"rental_uris":{"android":"levelo://app?vid=530322b1-92a4-42ba-bf6a-ab2ad64d0aab","ios":"levelo://app?vid=530322b1-92a4-42ba-bf6a-ab2ad64d0aab"},"vehicle_type_id":"4","last_reported":1728900597,"current_range_meters":38800,"station_id":"ce4bgip2rcd13ifvqbb0","pricing_plan_id":"cebpf4jnsgd1na2vs0mg"},{"bike_id":"2e2eb544-597d-43c7-80e3-f49f74279469","system_id":"levelo_inurba_marseille","lat":43.32484,"lon":5.36561,"is_reserved":false,"is_disabled":false,"rental_uris":{"android":"levelo://app?vid=2e2eb544-597d-43c7-80e3-f49f74279469","ios":"levelo://app?vid=2e2eb544-597d-43c7-80e3-f49f74279469"},"vehicle_type_id":"4","last_reported":1728900597,"current_range_meters":39200,"station_id":"ce4bhs12rcd13ifvqhvg","pricing_plan_id":"cebpf4jnsgd1na2vs0mg"},{"bike_id":"7b1ca5d7-14b9-4847-b3c9-7a817a26f936","system_id":"levelo_inurba_marseille","lat":43.3027,"lon":5.37703,"is_reserved":false,"is_disabled":false,"rental_uris":{"android":"levelo://app?vid=7b1ca5d7-14b9-4847-b3c9-7a817a26f936","ios":"levelo://app?vid=7b1ca5d7-14b9-4847-b3c9-7a817a26f936"},"vehicle_type_id":"4","last_reported":1728900597,"current_range_meters":38800,"station_id":"ce4bguh2rcd13ifvqcj0","pricing_plan_id":"cebpf4jnsgd1na2vs0mg"},{"bike_id":"cd254e59-bac1-4588-a8f4-1be3b690e208","system_id":"levelo_inurba_marseille","lat":43.2827,"lon":5.35054,"is_reserved":false,"is_disabled":false,"rental_uris":{"android":"levelo://app?vid=cd254e59-bac1-4588-a8f4-1be3b690e208","ios":"levelo://app?vid=cd254e59-bac1-4588-a8f4-1be3b690e208"},"vehicle_type_id":"4","last_reported":1728900597,"current_range_meters":28800,"station_id":"ce4bhbp2rcd13ifvqerg","pricing_plan_id":"cebpf4jnsgd1na2vs0mg"},{"bike_id":"050670eb-673b-4c90-860e-a3a18a5c2072","system_id":"levelo_inurba_marseille","lat":43.2992,"lon":5.37465,"is_reserved":false,"is_disabled":false,"rental_uris":{"android":"levelo://app?vid=050670eb-673b-4c90-860e-a3a18a5c2072","ios":"levelo://app?vid=050670eb-673b-4c90-860e-a3a18a5c2072"},"vehicle_type_id":"4","last_reported":1728900597,"current_range_meters":39200,"station_id":"ce4bgjh2rcd13ifvqbg0","pricing_plan_id":"cebpf4jnsgd1na2vs0mg"},{"bike_id":"8302a110-448b-45cc-8b9d-5cba8f9b0cea","system_id":"levelo_inurba_marseille","lat":43.26212,"lon":5.37439,"is_reserved":false,"is_disabled":false,"rental_uris":{"android":"levelo://app?vid=8302a110-448b-45cc-8b9d-5cba8f9b0cea","ios":"levelo://app?vid=8302a110-448b-45cc-8b9d-5cba8f9b0cea"},"vehicle_type_id":"4","last_reported":1728900597,"current_range_meters":28000,"station_id":"ce4bhgp2rcd13ifvqfc0","pricing_plan_id":"cebpf4jnsgd1na2vs0mg"},{"bike_id":"99222104-04be-4636-8222-4586012a9f49","system_id":"levelo_inurba_marseille","lat":43.3372,"lon":5.39181,"is_reserved":false,"is_disabled":false,"rental_uris":{"android":"levelo://app?vid=99222104-04be-4636-8222-4586012a9f49","ios":"levelo://app?vid=99222104-04be-4636-8222-4586012a9f49"},"vehicle_type_id":"4","last_reported":1728900597,"current_range_meters":36800,"station_id":"ce4bhr92rcd13ifvqhsg","pricing_plan_id":"cebpf4jnsgd1na2vs0mg"},