{"last_updated":1748632077,"ttl":60,"version":"2.2","data":{"bikes":[{"bike_id":"55d42eeb-6b71-4987-a0f2-3d758b10d43e","system_id":"levelo_inurba_marseille","lat":43.33771,"lon":5.37424,"is_reserved":false,"is_disabled":true,"rental_uris":{"android":"levelo://app?vid=55d42eeb-6b71-4987-a0f2-3d758b10d43e","ios":"levelo://app?vid=55d42eeb-6b71-4987-a0f2-3d758b10d43e"},"vehicle_type_id":"4","last_reported":1748632077,"current_range_meters":0,"station_id":"","pricing_plan_id":"cebpf4jnsgd1na2vs0mg"},{"bike_id":"b7fe4621-b706-42f0-9085-4811142f84e8","system_id":"levelo_inurba_marseille","lat":43.337499,"lon":5.374469,"is_reserved":false,"is_disabled":true,"rental_uris":{"android":"levelo://app?vid=b7fe4621-b706-42f0-9085-4811142f84e8","ios":"levelo://app?vid=b7fe4621-b706-42f0-9085-4811142f84e8"},"vehicle_type_id":"4","last_reported":1748632077,"current_range_meters":0,"station_id":"","pricing_plan_id":"cebpf4jnsgd1na2vs0mg"},{"bike_id":"9a189ee8-27ed-444b-b171-f705371af28f","system_id":"levelo_inurba_marseille","lat":43.28259,"lon":5.34915,"is_reserved":false,"is_disabled":true,"rental_uris":{"android":"levelo://app?vid=9a189ee8-27ed-444b-b171-f705371af28f","ios":"levelo://app?vid=9a189ee8-27ed-444b-b171-f705371af28f"},"vehicle_type_id":"4","last_reported":1748632077,"current_range_meters":0,"station_id":"","pricing_plan_id":"cebpf4jnsgd1na2vs0mg"},{"bike_id":"ad402f0f-3192-410c-afac-8cf064a40c6d","system_id":"levelo_inurba_marseille","lat":43.337444,"lon":5.374475,"is_reserved":false,"is_disabled":true,"rental_uris":{"android":"levelo://app?vid=ad402f0f-3192-410c-afac-8cf064a40c6d","ios":"levelo://app?vid=ad402f0f-3192-410c-afac-8cf064a40c6d"},"vehicle_type_id":"4","last_reported":1748632077,"current_range_meters":0,"station_id":"","pricing_plan_id":"cebpf4jnsgd1na2vs0mg"},{"bike_id":"d90baf97-e6b3-4c48-bcd2-63bc44243da4","system_id":"levelo_inurba_marseille","lat":43.216573,"lon":5.342961,"is_reserved":false,"is_disabled":true,"rental_uris":{"android":"levelo://app?vid=d90baf97-e6b3-4c48-bcd2-63bc44243da4","ios":"levelo://app?vid=d90baf97-e6b3-4c48-bcd2-63bc44243da4"},"vehicle_type_id":"4","last_reported":1748632077,"current_range_meters":0,"station_id":"","pricing_plan_id":"cebpf4jnsgd1na2vs0mg"},{"bike_id":"e8d8ddad-17f0-4297-b743-7c17818146e6","system_id":"levelo_inurba_marseille","lat":43.28209,"lon":5.42974,"is_reserved":false,"is_disabled":true,"rental_uris":{"android":"levelo://app?vid=e8d8ddad-17f0-4297-b743-7c17818146e6","ios":"levelo://app?vid=e8d8ddad-17f0-4297-b743-7c17818146e6"},"vehicle_type_id":"4","last_reported":1748632077,"current_range_meters":0,"station_id":"","pricing_plan_id":"cebpf4jnsgd1na2vs0mg"},{"bike_id":"cd92f5c2-5bcc-49cf-a853-08cba9374a91","system_id":"levelo_inurba_marseille","lat":43.26562,"lon":5.40327,"is_reserved":false,"is_disabled":true,"rental_uris":{"android":"levelo://app?vid=cd92f5c2-5bcc-49cf-a853-08cba9374a91","ios":"levelo://app?vid=cd92f5c2-5bcc-49cf-a853-08cba9374a91"},"vehicle_type_id":"4","last_reported":1748632077,"current_range_meters":0,"station_id":"","pricing_plan_id":"cebpf4jnsgd1na2vs0mg"},{"bike_id":"80dc1064-d63f-4a22-ad21-d8abd70986c0","system_id":"levelo_inurba_marseille","lat":43.33811,"lon":5.37503,"is_reserved":false,"is_disabled":true,"rental_uris":{"android":"levelo://app?vid=80dc1064-d63f-4a22-ad21-d8abd70986c0","ios":"levelo://app?vid=80dc1064-d63f-4a22-ad21-d8abd70986c0"},"vehicle_type_id":"4","last_reported":1748632077,"current_range_meters":0,"station_id":"","pricing_plan_id":"cebpf4jnsgd1na2vs0mg"},{"bike_id":"fcbedf31-ab26-42ed-9a7e-5f9e97aa9a93","system_id":"levelo_inurba_marseille","lat":43.29559,"lon":5.38253,"is_reserved":false,"is_disabled":true,"rental_uris":{"android":"levelo://app?vid=fcbedf31-ab26-42ed-9a7e-5f9e97aa9a93","ios":"levelo://app?vid=fcbedf31-ab26-42ed-9a7e-5f9e97aa9a93"},"vehicle_type_id":"4","last_reported":1748632077,"current_range_meters":0,"station_id":"","pricing_plan_id":"cebpf4jnsgd1na2vs0mg"},{"bike_id":"e85986f7-78ee-45ca-a51c-ad41979e478c","system_id":"levelo_inurba_marseille","lat":43.295166,"lon":5.375107,"is_reserved":false,"is_disabled":true,"rental_uris":{"android":"levelo://app?vid=e85986f7-78ee-45ca-a51c-ad41979e478c","ios":"levelo://app?vid=e85986f7-78ee-45ca-a51c-ad41979e478c"},"vehicle_type_id":"4","last_reported":1748632077,"current_range_meters":0,"station_id":"","pricing_plan_id":"cebpf4jnsgd1na2vs0mg"},{"bike_id":"74c1e076-13a8-4361-a537-f1cad05da938","system_id":"levelo_inurba_marseille","lat":43.23904,"lon":5.36267,"is_reserved":false,"is_disabled":true,"rental_uris":{"android":"levelo://app?vid=74c1e076-13a8-4361-a537-f1cad05da938","ios":"levelo://app?vid=74c1e076-13a8-4361-a537-f1cad05da938"},"vehicle_type_id":"4","last_reported":1748632077,"current_range_meters":0,"station_id":"","pricing_plan_id":"cebpf4jnsgd1na2vs0mg"},{"bike_id":"e4c29532-f07a-4102-b0ae-61730aa1af99","system_id":"levelo_inurba_marseille","lat":43.30801,"lon":5.37178,"is_reserved":false,"is_disabled":true,"rental_uris":{"android":"levelo://app?vid=e4c29532-f07a-4102-b0ae-61730aa1af99","ios":"levelo://app?vid=e4c29532-f07a-4102-b0ae-61730aa1af99"},"vehicle_type_id":"4","last_reported":1748632077,"current_range_meters":0,"station_id":"","pricing_plan_id":"cebpf4jnsgd1na2vs0mg"},{"bike_id":"eb3bb230-9268-4bed-ac7a-063820714a1a","system_id":"levelo_inurba_marseille","lat":43.30136,"lon":5.38766,"is_reserved":false,"is_disabled":true,"rental_uris":{"android":"levelo://app?vid=eb3bb230-9268-4bed-ac7a-063820714a1a","ios":"levelo://app?vid=eb3bb230-9268-4bed-ac7a-063820714a1a"},"vehicle_type_id":"4","last_reported":1748632077,"current_range_meters":0,"station_id":"ce4bghh2rcd13ifvqb60","pricing_plan_id":"cebpf4jnsgd1na2vs0mg"},{"bike_id":"ce39b05d-e1e0-404a-afb7-13181d7718b6","system_id":"levelo_inurba_marseille","lat":43.29925,"lon":5.36532,"is_reserved":false,"is_disabled":true,"rental_uris":{"android":"levelo://app?vid=ce39b05d-e1e0-404a-afb7-13181d7718b6","ios":"levelo://app?vid=ce39b05d-e1e0-404a-afb7-13181d7718b6"},"vehicle_type_id":"4","last_reported":1748632077,"current_range_meters":0,"station_id":"ce4bgm92rcd13ifvqbr0","pricing_plan_id":"cebpf4jnsgd1na2vs0mg"},{"bike_id":"adf5674a-1ce4-4d3d-bcca-42dccbee5ee8","system_id":"levelo_inurba_marseille","lat":43.296273,"lon":5.371635,"is_reserved":false,"is_disabled":true,"rental_uris":{"android":"levelo://app?vid=adf5674a-1ce4-4d3d-bcca-42dccbee5ee8","ios":"levelo://app?vid=adf5674a-1ce4-4d3d-bcca-42dccbee5ee8"},"vehicle_type_id":"4","last_reported":1748632077,"current_range_meters":0,"station_id":"ce4bgnh2rcd13ifvqc0g","pricing_plan_id":"cebpf4jnsgd1na2vs0mg"},{"bike_id":"1982defd-166d-4255-89b9-40e6a677a3ca","system_id":"levelo_inurba_marseille","lat":43.30435,"lon":5.37865,"is_reserved":false,"is_disabled":true,"rental_uris":{"android":"levelo://app?vid=1982defd-166d-4255-89b9-40e6a677a3ca","ios":"levelo://app?vid=1982defd-166d-4255-89b9-40e6a677a3ca"},"vehicle_type_id":"4","last_reported":1748632077,"current_range_meters":0,"station_id":"ce4bgup2rcd13ifvqcn0","pricing_plan_id":"cebpf4jnsgd1na2vs0mg"},{"bike_id":"8680238d-5a73-40fb-94ab-3e12e600ef18","system_id":"levelo_inurba_marseille","lat":43.29418,"lon":5.38618,"is_reserved":false,"is_disabled":true,"rental_uris":{"android":"levelo://app?vid=8680238d-5a73-40fb-94ab-3e12e600ef18","ios":"levelo://app?vid=8680238d-5a73-40fb-94ab-3e12e600ef18"},"vehicle_type_id":"4","last_reported":1748632077,"current_range_meters":0,"station_id":"ce4bh2h2rcd13ifvqdh0","pricing_plan_id":"cebpf4jnsgd1na2vs0mg"},{"bike_id":"21a33fae-b1f6-495d-ace0-37a0c49901d8","system_id":"levelo_inurba_marseille","lat":43.29258,"lon":5.38461,"is_reserved":false,"is_disabled":true,"rental_uris":{"android":"levelo://app?vid=21a33fae-b1f6-495d-ace0-37a0c49901d8","ios":"levelo://app?vid=21a33fae-b1f6-495d-ace0-37a0c49901d8"},"vehicle_type_id":"4","last_reported":1748632077,"current_range_meters":0,"station_id":"ce4bh692rcd13ifvqea0","pricing_plan_id":"cebpf4jnsgd1na2vs0mg"},{"bike_id":"6d6c7b40-7870-4be7-8ca0-fa7df2d91c32","system_id":"levelo_inurba_marseille","lat":43.29258,"lon":5.36851,"is_reserved":false,"is_disabled":true,"rental_uris":{"android":"levelo://app?vid=6d6c7b40-7870-4be7-8ca0-fa7df2d91c32","ios":"levelo://app?vid=6d6c7b40-7870-4be7-8ca0-fa7df2d91c32"},"vehicle_type_id":"4","last_reported":1748632077,"current_range_meters":0,"station_id":"ce4bhbp2rcd13ifvqesg","pricing_plan_id":"cebpf4jnsgd1na2vs0mg"},{"bike_id":"92a74fb3-dd86-48bc-8e57-d8b8aa3034ec","system_id":"levelo_inurba_marseille","lat":43.26213,"lon":5.37441,"is_reserved":false,"is_disabled":true,"rental_uris":{"android":"levelo://app?vid=92a74fb3-dd86-48bc-8e57-d8b8aa3034ec","ios":"levelo://app?vid=92a74fb3-dd86-48bc-8e57-d8b8aa3034ec"},"vehicle_type_id":"4","last_reported":1748632077,"current_range_meters":0,"station_id":"ce4bhgp2rcd13ifvqfc0","pricing_plan_id":"cebpf4jnsgd1na2vs0mg"},{"bike_id":"e7b88e8d-5c0a-4937-a626-1e7438965597","system_id":"levelo_inurba_marseille","lat":43.27681,"lon":5.38866,"is_reserved":false,"is_disabled":true,"rental_uris":{"android":"levelo://app?vid=e7b88e8d-5c0a-4937-a626-1e7438965597","ios":"levelo://app?vid=e7b88e8d-5c0a-4937-a626-1e7438965597"},"vehicle_type_id":"4","last_reported":1748632077,"current_range_meters":0,"station_id":"ce4bhi12rcd13ifvqfo0","pricing_plan_id":"cebpf4jnsgd1na2vs0mg"},{"bike_id":"ff65314b-c6d7-4480-ae07-5fd9dfc89f84","system_id":"levelo_inurba_marseille","lat":43.27108,"lon":5.42289,"is_reserved":false,"is_disabled":true,"rental_uris":{"android":"levelo://app?vid=ff65314b-c6d7-4480-ae07-5fd9dfc89f84","ios":"levelo://app?vid=ff65314b-c6d7-4480-ae07-5fd9dfc89f84"},"vehicle_type_id":"4","last_reported":1748632077,"current_range_meters":0,"station_id":"ce4bhk92rcd13ifvqgb0","pricing_plan_id":"cebpf4jnsgd1na2vs0mg"},{"bike_id":"fca5f651-1a5a-4966-a0ab-16e45ecd2a2f","system_id":"levelo_inurba_marseille","lat":43.23193,"lon":5.35559,"is_reserved":false,"is_disabled":true,"rental_uris":{"android":"levelo://app?vid=fca5f651-1a5a-4966-a0ab-16e45ecd2a2f","ios":"levelo://app?vid=fca5f651-1a5a-4966-a0ab-16e45ecd2a2f"},"vehicle_type_id":"4","last_reported":1748632077,"current_range_meters":0,"station_id":"ce4bhu92rcd13ifvqi70","pricing_plan_id":"cebpf4jnsgd1na2vs0mg"},{"bike_id":"ab9c9983-bf72-44ed-ad75-a96b382dad3c","system_id":"levelo_inurba_marseille","lat":43.21734,"lon":5.34604,"is_reserved":false,"is_disabled":true,"rental_uris":{"android":"levelo://app?vid=ab9c9983-bf72-44ed-ad75-a96b382dad3c","ios":"levelo://app?vid=ab9c9983-bf72-44ed-ad75-a96b382dad3c"},"vehicle_type_id":"4","last_reported":1748632077,"current_range_meters":0,"station_id":"st_cvj6r9ubvosntc0bgbag","pricing_plan_id":"cebpf4jnsgd1na2vs0mg"},{"bike_id":"edcb0dfe-bdaa-4cf7-84cb-f40080951379","system_id":"levelo_inurba_marseille","lat":43.21741,"lon":5.34599,"is_reserved":false,"is_disabled":true,"rental_uris":{"android":"levelo://app?vid=edcb0dfe-bdaa-4cf7-84cb-f40080951379","ios":"levelo://app?vid=edcb0dfe-bdaa-4cf7-84cb-f40080951379"},"vehicle_type_id":"4","last_reported":1748632077,"current_range_meters":0,"station_id":"st_cvj6r9ubvosntc0bgbag","pricing_plan_id":"cebpf4jnsgd1na2vs0mg"},{"bike_id":"773c1455-d022-4f8e-8c6e-cf957b22d221","system_id":"levelo_inurba_marseille","lat":43.21752,"lon":5.34596,"is_reserved":false,"is_disabled":true,"rental_uris":{"android":"levelo://app?vid=773c1455-d022-4f8e-8c6e-cf957b22d221","ios":"levelo://app?vid=773c1455-d022-4f8e-8c6e-cf957b22d221"},"vehicle_type_id":"4","last_reported":1748632077,"current_range_meters":400,"station_id":"st_cvj6r9ubvosntc0bgbag","pricing_plan_id":"cebpf4jnsgd1na2vs0mg"},{"bike_id":"81b387ed-df00-421f-a884-b285fc03bc66","system_id":"levelo_inurba_marseille","lat":43.29531,"lon":5.38551,"is_reserved":false,"is_disabled":true,"rental_uris":{"android":"levelo://app?vid=81b387ed-df00-421f-a884-b285fc03bc66","ios":"levelo://app?vid=81b387ed-df00-421f-a884-b285fc03bc66"},"vehicle_type_id":"4","last_reported":1748632077,"current_range_meters":800,"station_id":"ce4bgih2rcd13ifvqba0","pricing_plan_id":"cebpf4jnsgd1na2vs0mg"},{"bike_id":"194b9d0f-99e8-4bd9-910f-927c746cc31a","system_id":"levelo_inurba_marseille","lat":43.29281,"lon":5.40117,"is_reserved":false,"is_disabled":true,"rental_uris":{"android":"levelo://app?vid=194b9d0f-99e8-4bd9-910f-927c746cc31a","ios":"levelo://app?vid=194b9d0f-99e8-4bd9-910f-927c746cc31a"},"vehicle_type_id":"4","last_reported":1748632077,"current_range_meters":800,"station_id":"ce4bh312rcd13ifvqdk0","pricing_plan_id":"cebpf4jnsgd1na2vs0mg"},{"bike_id":"a4fc0f00-cc8f-4878-8d8a-462138d32572","system_id":"levelo_inurba_marseille","lat":43.27198,"lon":5.3921,"is_reserved":false,"is_disabled":true,"rental_uris":{"android":"levelo://app?vid=a4fc0f00-cc8f-4878-8d8a-462138d32572","ios":"levelo://app?vid=a4fc0f00-cc8f-4878-8d8a-462138d32572"},"vehicle_type_id":"4","last_reported":1748632077,"current_range_meters":800,"station_id":"ce4bhhp2rcd13ifvqfm0","pricing_plan_id":"cebpf4jnsgd1na2vs0mg"},{"bike_id":"d9973f9d-953a-453b-994f-c84e36b48551","system_id":"levelo_inurba_marseille","lat":43.25106,"lon":5.40322,"is_reserved":false,"is_disabled":true,"rental_uris":{"android":"levelo://app?vid=d9973f9d-953a-453b-994f-c84e36b48551","ios":"levelo://app?vid=d9973f9d-953a-453b-994f-c84e36b48551"},"vehicle_type_id":"4","last_reported":1748632077,"current_range_meters":800,"station_id":"ce4bhlh2rcd13ifvqgig","pricing_plan_id":"cebpf4jnsgd1na2vs0mg"},{"bike_id":"8b5d33f8-a3c5-47ae-a1ac-c1c145627af5","system_id":"levelo_inurba_marseille","lat":43.22924,"lon":5.35392,"is_reserved":false,"is_disabled":true,"rental_uris":{"android":"levelo://app?vid=8b5d33f8-a3c5-47ae-a1ac-c1c145627af5","ios":"levelo://app?vid=8b5d33f8-a3c5-47ae-a1ac-c1c145627af5"},"vehicle_type_id":"4","last_reported":1748632077,"current_range_meters":800,"station_id":"cpo3532slgdg3j2ikp40","pricing_plan_id":"cebpf4jnsgd1na2vs0mg"},{"bike_id":"db111e29-c7bc-419e-9b00-20231fbec330","system_id":"levelo_inurba_marseille","lat":43.21757,"lon":5.34599,"is_reserved":false,"is_disabled":true,"rental_uris":{"android":"levelo://app?vid=db111e29-c7bc-419e-9b00-20231fbec330","ios":"levelo://app?vid=db111e29-c7bc-419e-9b00-20231fbec330"},"vehicle_type_id":"4","last_reported":1748632077,"current_range_meters":800,"station_id":"st_cvj6r9ubvosntc0bgbag","pricing_plan_id":"cebpf4jnsgd1na2vs0mg"},{"bike_id":"24204c04-5d8c-4ac1-bc38-3e364dee5b7a","system_id":"levelo_inurba_marseille","lat":43.30246,"lon":5.41311,"is_reserved":false,"is_disabled":true,"rental_uris":{"android":"levelo://app?vid=24204c04-5d8c-4ac1-bc38-3e364dee5b7a","ios":"levelo://app?vid=24204c04-5d8c-4ac1-bc38-3e364dee5b7a"},"vehicle_type_id":"4","last_reported":1748632077,"current_range_meters":1200,"station_id":"","pricing_plan_id":"cebpf4jnsgd1na2vs0mg"},{"bike_id":"77e04ab8-b44f-40dc-908e-e5838eb58075","system_id":"levelo_inurba_marseille","lat":43.23555,"lon":5.360305,"is_reserved":false,"is_disabled":true,"rental_uris":{"android":"levelo://app?vid=77e04ab8-b44f-40dc-908e-e5838eb58075","ios":"levelo://app?vid=77e04ab8-b44f-40dc-908e-e5838eb58075"},"vehicle_type_id":"4","last_reported":1748632077,"current_range_meters":1200,"station_id":"","pricing_plan_id":"cebpf4jnsgd1na2vs0mg"},{"bike_id":"5d77a131-7a8d-47f3-9980-586c94d0a818","system_id":"levelo_inurba_marseille","lat":43.29844,"lon":5.36278,"is_reserved":false,"is_disabled":true,"rental_uris":{"android":"levelo://app?vid=5d77a131-7a8d-47f3-9980-586c94d0a818","ios":"levelo://app?vid=5d77a131-7a8d-47f3-9980-586c94d0a818"},"vehicle_type_id":"4","last_reported":1748632077,"current_range_meters":1200,"station_id":"ce4bgpp2rcd13ifvqc3g","pricing_plan_id":"cebpf4jnsgd1na2vs0mg"},{"bike_id":"7aea0fe1-3504-469b-90a2-a45cce1a89a6","system_id":"levelo_inurba_marseille","lat":43.3149,"lon":5.37302,"is_reserved":false,"is_disabled":true,"rental_uris":{"android":"levelo://app?vid=7aea0fe1-3504-469b-90a2-a45cce1a89a6","ios":"levelo://app?vid=7aea0fe1-3504-469b-90a2-a45cce1a89a6"},"vehicle_type_id":"4","last_reported":1748632077,"current_range_meters":1200,"station_id":"ce4bgt12rcd13ifvqcd0","pricing_plan_id":"cebpf4jnsgd1na2vs0mg"},{"bike_id":"30c8721b-4b64-48d5-b953-592ea2576bee","system_id":"levelo_inurba_marseille","lat":43.31118,"lon":5.37774,"is_reserved":false,"is_disabled":true,"rental_uris":{"android":"levelo://app?vid=30c8721b-4b64-48d5-b953-592ea2576bee","ios":"levelo://app?vid=30c8721b-4b64-48d5-b953-592ea2576bee"},"vehicle_type_id":"4","last_reported":1748632077,"current_range_meters":1200,"station_id":"ce4bgt92rcd13ifvqcg0","pricing_plan_id":"cebpf4jnsgd1na2vs0mg"},{"bike_id":"c3ebae26-4479-4594-bc55-06360613ab8e","system_id":"levelo_inurba_marseille","lat":43.30925,"lon":5.40147,"is_reserved":false,"is_disabled":true,"rental_uris":{"android":"levelo://app?vid=c3ebae26-4479-4594-bc55-06360613ab8e","ios":"levelo://app?vid=c3ebae26-4479-4594-bc55-06360613ab8e"},"vehicle_type_id":"4","last_reported":1748632077,"current_range_meters":1200,"station_id":"ce4bgvp2rcd13ifvqct0","pricing_plan_id":"cebpf4jnsgd1na2vs0mg"},{"bike_id":"ee470d52-ec91-4f5e-b0be-474c6cb7547b","system_id":"levelo_inurba_marseille","lat":43.24806,"lon":5.37457,"is_reserved":false,"is_disabled":true,"rental_uris":{"android":"levelo://app?vid=ee470d52-ec91-4f5e-b0be-474c6cb7547b","ios":"levelo://app?vid=ee470d52-ec91-4f5e-b0be-474c6cb7547b"},"vehicle_type_id":"4","last_reported":1748632077,"current_range_meters":1200,"station_id":"ce4bhgh2rcd13ifvqfb0","pricing_plan_id":"cebpf4jnsgd1na2vs0mg"},{"bike_id":"2c4497bb-70c9-47f3-b160-4e66e28c260d","system_id":"levelo_inurba_marseille","lat":43.26211,"lon":5.37443,"is_reserved":false,"is_disabled":true,"rental_uris":{"android":"levelo://app?vid=2c4497bb-70c9-47f3-b160-4e66e28c260d","ios":"levelo://app?vid=2c4497bb-70c9-47f3-b160-4e66e28c260d"},"vehicle_type_id":"4","last_reported":1748632077,"current_range_meters":1200,"station_id":"ce4bhgp2rcd13ifvqfc0","pricing_plan_id":"cebpf4jnsgd1na2vs0mg"},{"bike_id":"c583cc07-6878-478c-93ba-ee04d045cb45","system_id":"levelo_inurba_marseille","lat":43.26205,"lon":5.37942,"is_reserved":false,"is_disabled":true,"rental_uris":{"android":"levelo://app?vid=c583cc07-6878-478c-93ba-ee04d045cb45","ios":"levelo://app?vid=c583cc07-6878-478c-93ba-ee04d045cb45"},"vehicle_type_id":"4","last_reported":1748632077,"current_range_meters":1200,"station_id":"ce4bhjp2rcd13ifvqg90","pricing_plan_id":"cebpf4jnsgd1na2vs0mg"},{"bike_id":"9d2d75de-6f79-4c98-a794-66bda20110b0","system_id":"levelo_inurba_marseille","lat":43.23059,"lon":5.355,"is_reserved":false,"is_disabled":true,"rental_uris":{"android":"levelo://app?vid=9d2d75de-6f79-4c98-a794-66bda20110b0","ios":"levelo://app?vid=9d2d75de-6f79-4c98-a794-66bda20110b0"},"vehicle_type_id":"4","last_reported":1748632077,"current_range_meters":1200,"station_id":"cpo3342slgdg3j2ifvpg","pricing_plan_id":"cebpf4jnsgd1na2vs0mg"},{"bike_id":"5278b434-6c84-40e9-b526-dac962bdf780","system_id":"levelo_inurba_marseille","lat":43.23493,"lon":5.36034,"is_reserved":false,"is_disabled":true,"rental_uris":{"android":"levelo://app?vid=5278b434-6c84-40e9-b526-dac962bdf780","ios":"levelo://app?vid=5278b434-6c84-40e9-b526-dac962bdf780"},"vehicle_type_id":"4","last_reported":1748632077,"current_range_meters":1600,"station_id":"","pricing_plan_id":"cebpf4jnsgd1na2vs0mg"},{"bike_id":"e43c7476-68f1-40ee-a9ca-35be4a8d1ecc","system_id":"levelo_inurba_marseille","lat":43.27239,"lon":5.391657,"is_reserved":false,"is_disabled":true,"rental_uris":{"android":"levelo://app?vid=e43c7476-68f1-40ee-a9ca-35be4a8d1ecc","ios":"levelo://app?vid=e43c7476-68f1-40ee-a9ca-35be4a8d1ecc"},"vehicle_type_id":"4","last_reported":1748632077,"current_range_meters":1600,"station_id":"ce4bhhp2rcd13ifvqfm0","pricing_plan_id":"cebpf4jnsgd1na2vs0mg"},{"bike_id":"f8a2967e-210a-4696-beb6-5fc49d941171","system_id":"levelo_inurba_marseille","lat":43.284088,"lon":5.37504,"is_reserved":false,"is_disabled":true,"rental_uris":{"android":"levelo://app?vid=f8a2967e-210a-4696-beb6-5fc49d941171","ios":"levelo://app?vid=f8a2967e-210a-4696-beb6-5fc49d941171"},"vehicle_type_id":"4","last_reported":1748632077,"current_range_meters":2000,"station_id":"","pricing_plan_id":"cebpf4jnsgd1na2vs0mg"},{"bike_id":"660518f4-1847-4b36-8410-9858e20e272f","system_id":"levelo_inurba_marseille","lat":43.26769,"lon":5.38937,"is_reserved":false,"is_disabled":true,"rental_uris":{"android":"levelo://app?vid=660518f4-1847-4b36-8410-9858e20e272f","ios":"levelo://app?vid=660518f4-1847-4b36-8410-9858e20e272f"},"vehicle_type_id":"4","last_reported":1748632077,"current_range_meters":2000,"station_id":"","pricing_plan_id":"cebpf4jnsgd1na2vs0mg"},{"bike_id":"897cca03-43cc-40ed-b3d6-58175ab7a86d","system_id":"levelo_inurba_marseille","lat":43.28585,"lon":5.37034,"is_reserved":false,"is_disabled":true,"rental_uris":{"android":"levelo://app?vid=897cca03-43cc-40ed-b3d6-58175ab7a86d","ios":"levelo://app?vid=897cca03-43cc-40ed-b3d6-58175ab7a86d"},"vehicle_type_id":"4","last_reported":1748632077,"current_range_meters":2000,"station_id":"","pricing_plan_id":"cebpf4jnsgd1na2vs0mg"},{"bike_id":"e07824a2-bc45-496e-be03-82bf4549aa82","system_id":"levelo_inurba_marseille","lat":43.2968,"lon":5.37587,"is_reserved":false,"is_disabled":true,"rental_uris":{"android":"levelo://app?vid=e07824a2-bc45-496e-be03-82bf4549aa82","ios":"levelo://app?vid=e07824a2-bc45-496e-be03-82bf4549aa82"},"vehicle_type_id":"4","last_reported":1748632077,"current_range_meters":2000,"station_id":"","pricing_plan_id":"cebpf4jnsgd1na2vs0mg"},{"bike_id":"64b8e2a1-c419-4ebb-9ab9-dee31f2244c1","system_id":"levelo_inurba_marseille","lat":43.30925,"lon":5.40143,"is_reserved":false,"is_disabled":true,"rental_uris":{"android":"levelo://app?vid=64b8e2a1-c419-4ebb-9ab9-dee31f2244c1","ios":"levelo://app?vid=64b8e2a1-c419-4ebb-9ab9-dee31f2244c1"},"vehicle_type_id":"4","last_reported":1748632077,"current_range_meters":2000,"station_id":"ce4bgvp2rcd13ifvqct0","pricing_plan_id":"cebpf4jnsgd1na2vs0mg"},{"bike_id":"be05bab9-f13f-44b7-a989-aaec15d4bae8","system_id":"levelo_inurba_marseille","lat":43.28623,"lon":5.35108,"is_reserved":false,"is_disabled":true,"rental_uris":{"android":"levelo://app?vid=be05bab9-f13f-44b7-a989-aaec15d4bae8","ios":"levelo://app?vid=be05bab9-f13f-44b7-a989-aaec15d4bae8"},"vehicle_type_id":"4","last_reported":1748632077,"current_range_meters":2000,"station_id":"ce4bhch2rcd13ifvqeug","pricing_plan_id":"cebpf4jnsgd1na2vs0mg"},{"bike_id":"c8371029-f848-406b-9e41-37b50a8274ab","system_id":"levelo_inurba_marseille","lat":43.2315,"lon":5.43715,"is_reserved":false,"is_disabled":true,"rental_uris":{"android":"levelo://app?vid=c8371029-f848-406b-9e41-37b50a8274ab","ios":"levelo://app?vid=c8371029-f848-406b-9e41-37b50a8274ab"},"vehicle_type_id":"4","last_reported":1748632077,"current_range_meters":2000,"station_id":"ce4bhmp2rcd13ifvqgog","pricing_plan_id":"cebpf4jnsgd1na2vs0mg"},{"bike_id":"39c8c2be-4fd3-4cde-bb86-0428333dcaa5","system_id":"levelo_inurba_marseille","lat":43.29508,"lon":5.37515,"is_reserved":false,"is_disabled":false,"rental_uris":{"android":"levelo://app?vid=39c8c2be-4fd3-4cde-bb86-0428333dcaa5","ios":"levelo://app?vid=39c8c2be-4fd3-4cde-bb86-0428333dcaa5"},"vehicle_type_id":"4","last_reported":1748632077,"current_range_meters":2800,"station_id":"ce4bgkp2rcd13ifvqbmg","pricing_plan_id":"cebpf4jnsgd1na2vs0mg"},{"bike_id":"54d9dc44-8da9-462a-8809-7ebac3d92cb9","system_id":"levelo_inurba_marseille","lat":43.28355,"lon":5.38103,"is_reserved":false,"is_disabled":true,"rental_uris":{"android":"levelo://app?vid=54d9dc44-8da9-462a-8809-7ebac3d92cb9","ios":"levelo://app?vid=54d9dc44-8da9-462a-8809-7ebac3d92cb9"},"vehicle_type_id":"4","last_reported":1748632077,"current_range_meters":2800,"station_id":"ce4bh412rcd13ifvqdr0","pricing_plan_id":"cebpf4jnsgd1na2vs0mg"},{"bike_id":"58717d0e-a141-479d-9cb8-204e8e6d20d9","system_id":"levelo_inurba_marseille","lat":43.26543,"lon":5.37286,"is_reserved":false,"is_disabled":false,"rental_uris":{"android":"levelo://app?vid=58717d0e-a141-479d-9cb8-204e8e6d20d9","ios":"levelo://app?vid=58717d0e-a141-479d-9cb8-204e8e6d20d9"},"vehicle_type_id":"4","last_reported":1748632077,"current_range_meters":2800,"station_id":"ce4bhg12rcd13ifvqf70","pricing_plan_id":"cebpf4jnsgd1na2vs0mg"},{"bike_id":"83f23ec5-aad6-46ad-8015-db9e5393a30e","system_id":"levelo_inurba_marseille","lat":43.27959,"lon":5.38718,"is_reserved":false,"is_disabled":false,"rental_uris":{"android":"levelo://app?vid=83f23ec5-aad6-46ad-8015-db9e5393a30e","ios":"levelo://app?vid=83f23ec5-aad6-46ad-8015-db9e5393a30e"},"vehicle_type_id":"4","last_reported":1748632077,"current_range_meters":2800,"station_id":"ce4bhg12rcd13ifvqf80","pricing_plan_id":"cebpf4jnsgd1na2vs0mg"},{"bike_id":"11488d7f-9a5a-40e9-9e9f-1f2826d925f5","system_id":"levelo_inurba_marseille","lat":43.29527,"lon":5.38545,"is_reserved":false,"is_disabled":false,"rental_uris":{"android":"levelo://app?vid=11488d7f-9a5a-40e9-9e9f-1f2826d925f5","ios":"levelo://app?vid=11488d7f-9a5a-40e9-9e9f-1f2826d925f5"},"vehicle_type_id":"4","last_reported":1748632077,"current_range_meters":3200,"station_id":"ce4bgih2rcd13ifvqba0","pricing_plan_id":"cebpf4jnsgd1na2vs0mg"},{"bike_id":"5c14eb8e-4265-48fa-a67e-69b2f01b77b2","system_id":"levelo_inurba_marseille","lat":43.30335,"lon":5.40429,"is_reserved":false,"is_disabled":false,"rental_uris":{"android":"levelo://app?vid=5c14eb8e-4265-48fa-a67e-69b2f01b77b2","ios":"levelo://app?vid=5c14eb8e-4265-48fa-a67e-69b2f01b77b2"},"vehicle_type_id":"4","last_reported":1748632077,"current_range_meters":3200,"station_id":"ce4bh012rcd13ifvqd10","pricing_plan_id":"cebpf4jnsgd1na2vs0mg"},{"bike_id":"284112f5-ba0a-43b2-bae7-695e061b43bd","system_id":"levelo_inurba_marseille","lat":43.30419,"lon":5.39743,"is_reserved":false,"is_disabled":false,"rental_uris":{"android":"levelo://app?vid=284112f5-ba0a-43b2-bae7-695e061b43bd","ios":"levelo://app?vid=284112f5-ba0a-43b2-bae7-695e061b43bd"},"vehicle_type_id":"4","last_reported":1748632077,"current_range_meters":3200,"station_id":"ce4bh092rcd13ifvqd20","pricing_plan_id":"cebpf4jnsgd1na2vs0mg"},{"bike_id":"f90f3a12-9113-4719-a469-ac396732e039","system_id":"levelo_inurba_marseille","lat":43.26209,"lon":5.37442,"is_reserved":false,"is_disabled":false,"rental_uris":{"android":"levelo://app?vid=f90f3a12-9113-4719-a469-ac396732e039","ios":"levelo://app?vid=f90f3a12-9113-4719-a469-ac396732e039"},"vehicle_type_id":"4","last_reported":1748632077,"current_range_meters":3200,"station_id":"ce4bhgp2rcd13ifvqfc0","pricing_plan_id":"cebpf4jnsgd1na2vs0mg"},{"bike_id":"f553321f-2109-49e7-9dba-77912cf368b8","system_id":"levelo_inurba_marseille","lat":43.24382,"lon":5.37064,"is_reserved":false,"is_disabled":false,"rental_uris":{"android":"levelo://app?vid=f553321f-2109-49e7-9dba-77912cf368b8","ios":"levelo://app?vid=f553321f-2109-49e7-9dba-77912cf368b8"},"vehicle_type_id":"4","last_reported":1748632077,"current_range_meters":3200,"station_id":"ce4bhhh2rcd13ifvqfk0","pricing_plan_id":"cebpf4jnsgd1na2vs0mg"},{"bike_id":"c101c8b2-eb6d-47ab-93a3-0f23cbc06623","system_id":"levelo_inurba_marseille","lat":43.23155,"lon":5.43705,"is_reserved":false,"is_disabled":false,"rental_uris":{"android":"levelo://app?vid=c101c8b2-eb6d-47ab-93a3-0f23cbc06623","ios":"levelo://app?vid=c101c8b2-eb6d-47ab-93a3-0f23cbc06623"},"vehicle_type_id":"4","last_reported":1748632077,"current_range_meters":3200,"station_id":"ce4bhmp2rcd13ifvqgog","pricing_plan_id":"cebpf4jnsgd1na2vs0mg"},{"bike_id":"d4d44586-29f6-48c5-b39d-b23bfd54427c","system_id":"levelo_inurba_marseille","lat":43.22503,"lon":5.34772,"is_reserved":false,"is_disabled":false,"rental_uris":{"android":"levelo://app?vid=d4d44586-29f6-48c5-b39d-b23bfd54427c","ios":"levelo://app?vid=d4d44586-29f6-48c5-b39d-b23bfd54427c"},"vehicle_type_id":"4","last_reported":1748632077,"current_range_meters":3200,"station_id":"st_cvj5dfep6f1abm77gieg","pricing_plan_id":"cebpf4jnsgd1na2vs0mg"},{"bike_id":"7c6e48ab-b87e-4e89-9339-a1a2992e6797","system_id":"levelo_inurba_marseille","lat":43.26117,"lon":5.41463,"is_reserved":false,"is_disabled":false,"rental_uris":{"android":"levelo://app?vid=7c6e48ab-b87e-4e89-9339-a1a2992e6797","ios":"levelo://app?vid=7c6e48ab-b87e-4e89-9339-a1a2992e6797"},"vehicle_type_id":"4","last_reported":1748632077,"current_range_meters":3600,"station_id":"","pricing_plan_id":"cebpf4jnsgd1na2vs0mg"},{"bike_id":"3a6a3076-0b3a-4ca7-a046-bec724dd0735","system_id":"levelo_inurba_marseille","lat":43.29605,"lon":5.38099,"is_reserved":false,"is_disabled":false,"rental_uris":{"android":"levelo://app?vid=3a6a3076-0b3a-4ca7-a046-bec724dd0735","ios":"levelo://app?vid=3a6a3076-0b3a-4ca7-a046-bec724dd0735"},"vehicle_type_id":"4","last_reported":1748632077,"current_range_meters":3600,"station_id":"ce4bgl12rcd13ifvqbo0","pricing_plan_id":"cebpf4jnsgd1na2vs0mg"},{"bike_id":"f0d7a9f8-31d9-4752-9bdb-d641c4cb04d1","system_id":"levelo_inurba_marseille","lat":43.3013,"lon":5.398581,"is_reserved":false,"is_disabled":false,"rental_uris":{"android":"levelo://app?vid=f0d7a9f8-31d9-4752-9bdb-d641c4cb04d1","ios":"levelo://app?vid=f0d7a9f8-31d9-4752-9bdb-d641c4cb04d1"},"vehicle_type_id":"4","last_reported":1748632077,"current_range_meters":3600,"station_id":"ce4bh0h2rcd13ifvqd40","pricing_plan_id":"cebpf4jnsgd1na2vs0mg"},{"bike_id":"61092621-62aa-4aff-8174-4168b7662ff7","system_id":"levelo_inurba_marseille","lat":43.29419,"lon":5.38628,"is_reserved":false,"is_disabled":false,"rental_uris":{"android":"levelo://app?vid=61092621-62aa-4aff-8174-4168b7662ff7","ios":"levelo://app?vid=61092621-62aa-4aff-8174-4168b7662ff7"},"vehicle_type_id":"4","last_reported":1748632077,"current_range_meters":3600,"station_id":"ce4bh2h2rcd13ifvqdh0","pricing_plan_id":"cebpf4jnsgd1na2vs0mg"},{"bike_id":"7a3cead6-2a76-4ffa-958c-888f97466d77","system_id":"levelo_inurba_marseille","lat":43.28609,"lon":5.37063,"is_reserved":false,"is_disabled":false,"rental_uris":{"android":"levelo://app?vid=7a3cead6-2a76-4ffa-958c-888f97466d77","ios":"levelo://app?vid=7a3cead6-2a76-4ffa-958c-888f97466d77"},"vehicle_type_id":"4","last_reported":1748632077,"current_range_meters":3600,"station_id":"ce4bht12rcd13ifvqi60","pricing_plan_id":"cebpf4jnsgd1na2vs0mg"},{"bike_id":"93222ebe-437b-49ba-b05e-139fa3159770","system_id":"levelo_inurba_marseille","lat":43.22887,"lon":5.3537,"is_reserved":false,"is_disabled":false,"rental_uris":{"android":"levelo://app?vid=93222ebe-437b-49ba-b05e-139fa3159770","ios":"levelo://app?vid=93222ebe-437b-49ba-b05e-139fa3159770"},"vehicle_type_id":"4","last_reported":1748632077,"current_range_meters":3600,"station_id":"cpo3532slgdg3j2ikp40","pricing_plan_id":"cebpf4jnsgd1na2vs0mg"},{"bike_id":"61f89bc7-b25a-42a7-82bf-fa98e2b9a655","system_id":"levelo_inurba_marseille","lat":43.292572,"lon":5.384423,"is_reserved":false,"is_disabled":false,"rental_uris":{"android":"levelo://app?vid=61f89bc7-b25a-42a7-82bf-fa98e2b9a655","ios":"levelo://app?vid=61f89bc7-b25a-42a7-82bf-fa98e2b9a655"},"vehicle_type_id":"4","last_reported":1748632077,"current_range_meters":4000,"station_id":"","pricing_plan_id":"cebpf4jnsgd1na2vs0mg"},{"bike_id":"697d924a-ea53-411b-88e3-ed7542c4178d","system_id":"levelo_inurba_marseille","lat":43.33777,"lon":5.37485,"is_reserved":false,"is_disabled":false,"rental_uris":{"android":"levelo://app?vid=697d924a-ea53-411b-88e3-ed7542c4178d","ios":"levelo://app?vid=697d924a-ea53-411b-88e3-ed7542c4178d"},"vehicle_type_id":"4","last_reported":1748632077,"current_range_meters":4000,"station_id":"","pricing_plan_id":"cebpf4jnsgd1na2vs0mg"},{"bike_id":"1343c01e-b52c-494a-9609-b9752f778ba6","system_id":"levelo_inurba_marseille","lat":43.28272,"lon":5.39042,"is_reserved":false,"is_disabled":false,"rental_uris":{"android":"levelo://app?vid=1343c01e-b52c-494a-9609-b9752f778ba6","ios":"levelo://app?vid=1343c01e-b52c-494a-9609-b9752f778ba6"},"vehicle_type_id":"4","last_reported":1748632077,"current_range_meters":4000,"station_id":"","pricing_plan_id":"cebpf4jnsgd1na2vs0mg"},{"bike_id":"b22e3ea6-6d8c-418e-8f4f-41f0cab38774","system_id":"levelo_inurba_marseille","lat":43.29592,"lon":5.38112,"is_reserved":false,"is_disabled":false,"rental_uris":{"android":"levelo://app?vid=b22e3ea6-6d8c-418e-8f4f-41f0cab38774","ios":"levelo://app?vid=b22e3ea6-6d8c-418e-8f4f-41f0cab38774"},"vehicle_type_id":"4","last_reported":1748632077,"current_range_meters":4000,"station_id":"ce4bgl12rcd13ifvqbo0","pricing_plan_id":"cebpf4jnsgd1na2vs0mg"},{"bike_id":"eb6f7b70-b554-4f0b-9071-c468db80e368","system_id":"levelo_inurba_marseille","lat":43.24006,"lon":5.36273,"is_reserved":false,"is_disabled":false,"rental_uris":{"android":"levelo://app?vid=eb6f7b70-b554-4f0b-9071-c468db80e368","ios":"levelo://app?vid=eb6f7b70-b554-4f0b-9071-c468db80e368"},"vehicle_type_id":"4","last_reported":1748632077,"current_range_meters":4400,"station_id":"","pricing_plan_id":"cebpf4jnsgd1na2vs0mg"},{"bike_id":"3b5c8637-0806-42a2-8999-ae5c31d93c38","system_id":"levelo_inurba_marseille","lat":43.29036,"lon":5.38649,"is_reserved":false,"is_disabled":false,"rental_uris":{"android":"levelo://app?vid=3b5c8637-0806-42a2-8999-ae5c31d93c38","ios":"levelo://app?vid=3b5c8637-0806-42a2-8999-ae5c31d93c38"},"vehicle_type_id":"4","last_reported":1748632077,"current_range_meters":4400,"station_id":"ce4bh4p2rcd13ifvqe0g","pricing_plan_id":"cebpf4jnsgd1na2vs0mg"},{"bike_id":"6ecf7e0d-f85c-420f-bd84-c9711f71d4db","system_id":"levelo_inurba_marseille","lat":43.27209,"lon":5.39186,"is_reserved":false,"is_disabled":false,"rental_uris":{"android":"levelo://app?vid=6ecf7e0d-f85c-420f-bd84-c9711f71d4db","ios":"levelo://app?vid=6ecf7e0d-f85c-420f-bd84-c9711f71d4db"},"vehicle_type_id":"4","last_reported":1748632077,"current_range_meters":4400,"station_id":"ce4bhhp2rcd13ifvqfm0","pricing_plan_id":"cebpf4jnsgd1na2vs0mg"},{"bike_id":"83f58932-5e4f-4759-9290-dfe976998719","system_id":"levelo_inurba_marseille","lat":43.231913,"lon":5.355524,"is_reserved":false,"is_disabled":false,"rental_uris":{"android":"levelo://app?vid=83f58932-5e4f-4759-9290-dfe976998719","ios":"levelo://app?vid=83f58932-5e4f-4759-9290-dfe976998719"},"vehicle_type_id":"4","last_reported":1748632077,"current_range_meters":4400,"station_id":"ce4bhr12rcd13ifvqhqg","pricing_plan_id":"cebpf4jnsgd1na2vs0mg"},{"bike_id":"188c9a92-eca5-4a12-ba2d-12f9275c27c6","system_id":"levelo_inurba_marseille","lat":43.29227,"lon":5.36475,"is_reserved":false,"is_disabled":false,"rental_uris":{"android":"levelo://app?vid=188c9a92-eca5-4a12-ba2d-12f9275c27c6","ios":"levelo://app?vid=188c9a92-eca5-4a12-ba2d-12f9275c27c6"},"vehicle_type_id":"4","last_reported":1748632077,"current_range_meters":4800,"station_id":"","pricing_plan_id":"cebpf4jnsgd1na2vs0mg"},{"bike_id":"54226f8f-311f-4626-845f-3e89c247f36f","system_id":"levelo_inurba_marseille","lat":43.30798,"lon":5.3816,"is_reserved":false,"is_disabled":false,"rental_uris":{"android":"levelo://app?vid=54226f8f-311f-4626-845f-3e89c247f36f","ios":"levelo://app?vid=54226f8f-311f-4626-845f-3e89c247f36f"},"vehicle_type_id":"4","last_reported":1748632077,"current_range_meters":4800,"station_id":"ce4bgt12rcd13ifvqce0","pricing_plan_id":"cebpf4jnsgd1na2vs0mg"},{"bike_id":"13a9dcc8-08ca-4b66-9a0f-d79768815109","system_id":"levelo_inurba_marseille","lat":43.31691,"lon":5.40473,"is_reserved":false,"is_disabled":false,"rental_uris":{"android":"levelo://app?vid=13a9dcc8-08ca-4b66-9a0f-d79768815109","ios":"levelo://app?vid=13a9dcc8-08ca-4b66-9a0f-d79768815109"},"vehicle_type_id":"4","last_reported":1748632077,"current_range_meters":4800,"station_id":"ce4bh012rcd13ifvqd00","pricing_plan_id":"cebpf4jnsgd1na2vs0mg"},{"bike_id":"1de48014-4f58-46b5-bbae-39a1f6bd64fe","system_id":"levelo_inurba_marseille","lat":43.284802,"lon":5.384165,"is_reserved":false,"is_disabled":false,"rental_uris":{"android":"levelo://app?vid=1de48014-4f58-46b5-bbae-39a1f6bd64fe","ios":"levelo://app?vid=1de48014-4f58-46b5-bbae-39a1f6bd64fe"},"vehicle_type_id":"4","last_reported":1748632077,"current_range_meters":4800,"station_id":"ce4bh512rcd13ifvqe3g","pricing_plan_id":"cebpf4jnsgd1na2vs0mg"},{"bike_id":"8a903db7-4a36-4b22-97da-7d1d164b5ecb","system_id":"levelo_inurba_marseille","lat":43.27835,"lon":5.39219,"is_reserved":false,"is_disabled":false,"rental_uris":{"android":"levelo://app?vid=8a903db7-4a36-4b22-97da-7d1d164b5ecb","ios":"levelo://app?vid=8a903db7-4a36-4b22-97da-7d1d164b5ecb"},"vehicle_type_id":"4","last_reported":1748632077,"current_range_meters":4800,"station_id":"ce4bhjp2rcd13ifvqga0","pricing_plan_id":"cebpf4jnsgd1na2vs0mg"},{"bike_id":"060d7186-f33c-4994-89bd-f87df1ce83ff","system_id":"levelo_inurba_marseille","lat":43.31754,"lon":5.37611,"is_reserved":false,"is_disabled":false,"rental_uris":{"android":"levelo://app?vid=060d7186-f33c-4994-89bd-f87df1ce83ff","ios":"levelo://app?vid=060d7186-f33c-4994-89bd-f87df1ce83ff"},"vehicle_type_id":"4","last_reported":1748632077,"current_range_meters":5600,"station_id":"","pricing_plan_id":"cebpf4jnsgd1na2vs0mg"},{"bike_id":"31a71e33-22f3-466e-b571-a00e5e467f0f","system_id":"levelo_inurba_marseille","lat":43.295185,"lon":5.37506,"is_reserved":false,"is_disabled":false,"rental_uris":{"android":"levelo://app?vid=31a71e33-22f3-466e-b571-a00e5e467f0f","ios":"levelo://app?vid=31a71e33-22f3-466e-b571-a00e5e467f0f"},"vehicle_type_id":"4","last_reported":1748632077,"current_range_meters":5600,"station_id":"ce4bgkp2rcd13ifvqbmg","pricing_plan_id":"cebpf4jnsgd1na2vs0mg"},{"bike_id":"8d9f69c4-ca71-4dc5-bc9b-be08d92bb43f","system_id":"levelo_inurba_marseille","lat":43.28728,"lon":5.36115,"is_reserved":false,"is_disabled":false,"rental_uris":{"android":"levelo://app?vid=8d9f69c4-ca71-4dc5-bc9b-be08d92bb43f","ios":"levelo://app?vid=8d9f69c4-ca71-4dc5-bc9b-be08d92bb43f"},"vehicle_type_id":"4","last_reported":1748632077,"current_range_meters":5600,"station_id":"cki0cbj6b192h4jlfktg","pricing_plan_id":"cebpf4jnsgd1na2vs0mg"},{"bike_id":"299bc464-0062-40b9-b8fd-94e53cb49a69","system_id":"levelo_inurba_marseille","lat":43.29641,"lon":5.36229,"is_reserved":false,"is_disabled":false,"rental_uris":{"android":"levelo://app?vid=299bc464-0062-40b9-b8fd-94e53cb49a69","ios":"levelo://app?vid=299bc464-0062-40b9-b8fd-94e53cb49a69"},"vehicle_type_id":"4","last_reported":1748632077,"current_range_meters":6000,"station_id":"","pricing_plan_id":"cebpf4jnsgd1na2vs0mg"},{"bike_id":"d6a10717-f459-4fd7-a950-cb4ec4044f72","system_id":"levelo_inurba_marseille","lat":43.24819,"lon":5.4037,"is_reserved":false,"is_disabled":false,"rental_uris":{"android":"levelo://app?vid=d6a10717-f459-4fd7-a950-cb4ec4044f72","ios":"levelo://app?vid=d6a10717-f459-4fd7-a950-cb4ec4044f72"},"vehicle_type_id":"4","last_reported":1748632077,"current_range_meters":6000,"station_id":"","pricing_plan_id":"cebpf4jnsgd1na2vs0mg"},{"bike_id":"90812aa2-9a22-4276-bd32-c85fe386d211","system_id":"levelo_inurba_marseille","lat":43.262299,"lon":5.374609,"is_reserved":false,"is_disabled":false,"rental_uris":{"android":"levelo://app?vid=90812aa2-9a22-4276-bd32-c85fe386d211","ios":"levelo://app?vid=90812aa2-9a22-4276-bd32-c85fe386d211"},"vehicle_type_id":"4","last_reported":1748632077,"current_range_meters":6000,"station_id":"ce4bh9p2rcd13ifvqed0","pricing_plan_id":"cebpf4jnsgd1na2vs0mg"},{"bike_id":"36240f0a-66a2-43ec-8330-1f3a9d08cc7e","system_id":"levelo_inurba_marseille","lat":43.238997,"lon":5.362573,"is_reserved":false,"is_disabled":false,"rental_uris":{"android":"levelo://app?vid=36240f0a-66a2-43ec-8330-1f3a9d08cc7e","ios":"levelo://app?vid=36240f0a-66a2-43ec-8330-1f3a9d08cc7e"},"vehicle_type_id":"4","last_reported":1748632077,"current_range_meters":6400,"station_id":"","pricing_plan_id":"cebpf4jnsgd1na2vs0mg"},{"bike_id":"71f0bb49-77a8-4ef4-91d1-051b135d405a","system_id":"levelo_inurba_marseille","lat":43.31924,"lon":5.37474,"is_reserved":false,"is_disabled":false,"rental_uris":{"android":"levelo://app?vid=71f0bb49-77a8-4ef4-91d1-051b135d405a","ios":"levelo://app?vid=71f0bb49-77a8-4ef4-91d1-051b135d405a"},"vehicle_type_id":"4","last_reported":1748632077,"current_range_meters":6400,"station_id":"","pricing_plan_id":"cebpf4jnsgd1na2vs0mg"},{"bike_id":"93b50bfc-4de4-45e7-89ef-33c7ca6ed47a","system_id":"levelo_inurba_marseille","lat":43.29297,"lon":5.37464,"is_reserved":false,"is_disabled":false,"rental_uris":{"android":"levelo://app?vid=93b50bfc-4de4-45e7-89ef-33c7ca6ed47a","ios":"levelo://app?vid=93b50bfc-4de4-45e7-89ef-33c7ca6ed47a"},"vehicle_type_id":"4","last_reported":1748632077,"current_range_meters":6400,"station_id":"ce4bgi12rcd13ifvqb70","pricing_plan_id":"cebpf4jnsgd1na2vs0mg"},{"bike_id":"bbb2d7fa-4fea-45cc-92c7-b1f8fb614697","system_id":"levelo_inurba_marseille","lat":43.26569,"lon":5.3728,"is_reserved":false,"is_disabled":false,"rental_uris":{"android":"levelo://app?vid=bbb2d7fa-4fea-45cc-92c7-b1f8fb614697","ios":"levelo://app?vid=bbb2d7fa-4fea-45cc-92c7-b1f8fb614697"},"vehicle_type_id":"4","last_reported":1748632077,"current_range_meters":6400,"station_id":"ce4bhg12rcd13ifvqf70","pricing_plan_id":"cebpf4jnsgd1na2vs0mg"},{"bike_id":"f5ac6b20-b039-4c96-83d6-cc4617e0fc0a","system_id":"levelo_inurba_marseille","lat":43.26214,"lon":5.3744,"is_reserved":false,"is_disabled":false,"rental_uris":{"android":"levelo://app?vid=f5ac6b20-b039-4c96-83d6-cc4617e0fc0a","ios":"levelo://app?vid=f5ac6b20-b039-4c96-83d6-cc4617e0fc0a"},"vehicle_type_id":"4","last_reported":1748632077,"current_range_meters":6400,"station_id":"ce4bhgp2rcd13ifvqfc0","pricing_plan_id":"cebpf4jnsgd1na2vs0mg"},{"bike_id":"c4d3e260-c3d1-4525-9247-3d7601c76fcc","system_id":"levelo_inurba_marseille","lat":43.231517,"lon":5.43725,"is_reserved":false,"is_disabled":false,"rental_uris":{"android":"levelo://app?vid=c4d3e260-c3d1-4525-9247-3d7601c76fcc","ios":"levelo://app?vid=c4d3e260-c3d1-4525-9247-3d7601c76fcc"},"vehicle_type_id":"4","last_reported":1748632077,"current_range_meters":6400,"station_id":"ce4bhmp2rcd13ifvqgog","pricing_plan_id":"cebpf4jnsgd1na2vs0mg"},{"bike_id":"6f6bfa7f-3c80-4f17-9f83-302c57e0fef8","system_id":"levelo_inurba_marseille","lat":43.23185,"lon":5.39978,"is_reserved":false,"is_disabled":false,"rental_uris":{"android":"levelo://app?vid=6f6bfa7f-3c80-4f17-9f83-302c57e0fef8","ios":"levelo://app?vid=6f6bfa7f-3c80-4f17-9f83-302c57e0fef8"},"vehicle_type_id":"4","last_reported":1748632077,"current_range_meters":6400,"station_id":"ce4bhn12rcd13ifvqgqg","pricing_plan_id":"cebpf4jnsgd1na2vs0mg"},{"bike_id":"4160c04e-6224-4afc-9e8d-45504191af1c","system_id":"levelo_inurba_marseille","lat":43.22936,"lon":5.35386,"is_reserved":false,"is_disabled":false,"rental_uris":{"android":"levelo://app?vid=4160c04e-6224-4afc-9e8d-45504191af1c","ios":"levelo://app?vid=4160c04e-6224-4afc-9e8d-45504191af1c"},"vehicle_type_id":"4","last_reported":1748632077,"current_range_meters":6400,"station_id":"cpo3532slgdg3j2ikp40","pricing_plan_id":"cebpf4jnsgd1na2vs0mg"},{"bike_id":"f222414d-2b9d-4e3a-9749-fa062d3386d7","system_id":"levelo_inurba_marseille","lat":43.29421,"lon":5.38623,"is_reserved":false,"is_disabled":false,"rental_uris":{"android":"levelo://app?vid=f222414d-2b9d-4e3a-9749-fa062d3386d7","ios":"levelo://app?vid=f222414d-2b9d-4e3a-9749-fa062d3386d7"},"vehicle_type_id":"4","last_reported":1748632077,"current_range_meters":6800,"station_id":"ce4bh2h2rcd13ifvqdh0","pricing_plan_id":"cebpf4jnsgd1na2vs0mg"},{"bike_id":"e41918ce-099d-4ad8-bc7e-ceca3b265d3c","system_id":"levelo_inurba_marseille","lat":43.29418,"lon":5.38628,"is_reserved":false,"is_disabled":false,"rental_uris":{"android":"levelo://app?vid=e41918ce-099d-4ad8-bc7e-ceca3b265d3c","ios":"levelo://app?vid=e41918ce-099d-4ad8-bc7e-ceca3b265d3c"},"vehicle_type_id":"4","last_reported":1748632077,"current_range_meters":6800,"station_id":"ce4bh2h2rcd13ifvqdh0","pricing_plan_id":"cebpf4jnsgd1na2vs0mg"},{"bike_id":"9b066c3e-fa43-4ff4-8b2e-3e8854d33d28","system_id":"levelo_inurba_marseille","lat":43.295386,"lon":5.390272,"is_reserved":false,"is_disabled":false,"rental_uris":{"android":"levelo://app?vid=9b066c3e-fa43-4ff4-8b2e-3e8854d33d28","ios":"levelo://app?vid=9b066c3e-fa43-4ff4-8b2e-3e8854d33d28"},"vehicle_type_id":"4","last_reported":1748632077,"current_range_meters":6800,"station_id":"ce4bh3p2rcd13ifvqdp0","pricing_plan_id":"cebpf4jnsgd1na2vs0mg"},{"bike_id":"b52a3df2-025a-4bfd-8da0-c020402ea3cc","system_id":"levelo_inurba_marseille","lat":43.265722,"lon":5.38983,"is_reserved":false,"is_disabled":false,"rental_uris":{"android":"levelo://app?vid=b52a3df2-025a-4bfd-8da0-c020402ea3cc","ios":"levelo://app?vid=b52a3df2-025a-4bfd-8da0-c020402ea3cc"},"vehicle_type_id":"4","last_reported":1748632077,"current_range_meters":6800,"station_id":"ce4bhe12rcd13ifvqf30","pricing_plan_id":"cebpf4jnsgd1na2vs0mg"},{"bike_id":"ec03c972-86a5-4f83-9a23-a36e2370f163","system_id":"levelo_inurba_marseille","lat":43.27645,"lon":5.38914,"is_reserved":false,"is_disabled":false,"rental_uris":{"android":"levelo://app?vid=ec03c972-86a5-4f83-9a23-a36e2370f163","ios":"levelo://app?vid=ec03c972-86a5-4f83-9a23-a36e2370f163"},"vehicle_type_id":"4","last_reported":1748632077,"current_range_meters":6800,"station_id":"ce4bhi12rcd13ifvqfo0","pricing_plan_id":"cebpf4jnsgd1na2vs0mg"},{"bike_id":"15053d73-806d-434c-924a-c125dafc6af8","system_id":"levelo_inurba_marseille","lat":43.2962,"lon":5.37152,"is_reserved":false,"is_disabled":false,"rental_uris":{"android":"levelo://app?vid=15053d73-806d-434c-924a-c125dafc6af8","ios":"levelo://app?vid=15053d73-806d-434c-924a-c125dafc6af8"},"vehicle_type_id":"4","last_reported":1748632077,"current_range_meters":7200,"station_id":"ce4bgnh2rcd13ifvqc0g","pricing_plan_id":"cebpf4jnsgd1na2vs0mg"},{"bike_id":"036af8fe-93a3-4ca7-9ce2-db9b5b0dfbd1","system_id":"levelo_inurba_marseille","lat":43.31165,"lon":5.38727,"is_reserved":false,"is_disabled":false,"rental_uris":{"android":"levelo://app?vid=036af8fe-93a3-4ca7-9ce2-db9b5b0dfbd1","ios":"levelo://app?vid=036af8fe-93a3-4ca7-9ce2-db9b5b0dfbd1"},"vehicle_type_id":"4","last_reported":1748632077,"current_range_meters":7200,"station_id":"ce4bgv12rcd13ifvqcp0","pricing_plan_id":"cebpf4jnsgd1na2vs0mg"},{"bike_id":"0ee8a1e5-15ae-4643-ba93-64e6b91c92f2","system_id":"levelo_inurba_marseille","lat":43.26559,"lon":5.37304,"is_reserved":false,"is_disabled":false,"rental_uris":{"android":"levelo://app?vid=0ee8a1e5-15ae-4643-ba93-64e6b91c92f2","ios":"levelo://app?vid=0ee8a1e5-15ae-4643-ba93-64e6b91c92f2"},"vehicle_type_id":"4","last_reported":1748632077,"current_range_meters":7200,"station_id":"ce4bhg12rcd13ifvqf70","pricing_plan_id":"cebpf4jnsgd1na2vs0mg"},{"bike_id":"faba0b30-2934-486a-9c76-7d6fc86dac34","system_id":"levelo_inurba_marseille","lat":43.26776,"lon":5.39421,"is_reserved":false,"is_disabled":false,"rental_uris":{"android":"levelo://app?vid=faba0b30-2934-486a-9c76-7d6fc86dac34","ios":"levelo://app?vid=faba0b30-2934-486a-9c76-7d6fc86dac34"},"vehicle_type_id":"4","last_reported":1748632077,"current_range_meters":7200,"station_id":"ce4bhh12rcd13ifvqfg0","pricing_plan_id":"cebpf4jnsgd1na2vs0mg"},{"bike_id":"161ccf12-51e5-431e-acaa-3166efd5d61c","system_id":"levelo_inurba_marseille","lat":43.28164,"lon":5.42645,"is_reserved":false,"is_disabled":false,"rental_uris":{"android":"levelo://app?vid=161ccf12-51e5-431e-acaa-3166efd5d61c","ios":"levelo://app?vid=161ccf12-51e5-431e-acaa-3166efd5d61c"},"vehicle_type_id":"4","last_reported":1748632077,"current_range_meters":7200,"station_id":"ce4bhnh2rcd13ifvqgug","pricing_plan_id":"cebpf4jnsgd1na2vs0mg"},{"bike_id":"baa3c0ea-c4ce-4792-9c16-2d4480e4bc2b","system_id":"levelo_inurba_marseille","lat":43.29551,"lon":5.42283,"is_reserved":false,"is_disabled":false,"rental_uris":{"android":"levelo://app?vid=baa3c0ea-c4ce-4792-9c16-2d4480e4bc2b","ios":"levelo://app?vid=baa3c0ea-c4ce-4792-9c16-2d4480e4bc2b"},"vehicle_type_id":"4","last_reported":1748632077,"current_range_meters":7200,"station_id":"ce4bhph2rcd13ifvqhdg","pricing_plan_id":"cebpf4jnsgd1na2vs0mg"},{"bike_id":"399f0b75-adf4-445e-8e71-50ae86dfa498","system_id":"levelo_inurba_marseille","lat":43.31527,"lon":5.38034,"is_reserved":false,"is_disabled":false,"rental_uris":{"android":"levelo://app?vid=399f0b75-adf4-445e-8e71-50ae86dfa498","ios":"levelo://app?vid=399f0b75-adf4-445e-8e71-50ae86dfa498"},"vehicle_type_id":"4","last_reported":1748632077,"current_range_meters":7200,"station_id":"ce4bhsp2rcd13ifvqi50","pricing_plan_id":"cebpf4jnsgd1na2vs0mg"},{"bike_id":"d16f5222-3d1e-4d65-a992-1bc93f719178","system_id":"levelo_inurba_marseille","lat":43.30325,"lon":5.36587,"is_reserved":false,"is_disabled":false,"rental_uris":{"android":"levelo://app?vid=d16f5222-3d1e-4d65-a992-1bc93f719178","ios":"levelo://app?vid=d16f5222-3d1e-4d65-a992-1bc93f719178"},"vehicle_type_id":"4","last_reported":1748632077,"current_range_meters":8000,"station_id":"","pricing_plan_id":"cebpf4jnsgd1na2vs0mg"},{"bike_id":"00f77637-c960-45d0-b516-a2f6a0285858","system_id":"levelo_inurba_marseille","lat":43.29749,"lon":5.38521,"is_reserved":false,"is_disabled":false,"rental_uris":{"android":"levelo://app?vid=00f77637-c960-45d0-b516-a2f6a0285858","ios":"levelo://app?vid=00f77637-c960-45d0-b516-a2f6a0285858"},"vehicle_type_id":"4","last_reported":1748632077,"current_range_meters":8000,"station_id":"","pricing_plan_id":"cebpf4jnsgd1na2vs0mg"},{"bike_id":"f5733814-9732-4748-bcc9-3b2fac8e1564","system_id":"levelo_inurba_marseille","lat":43.31256,"lon":5.37829,"is_reserved":false,"is_disabled":false,"rental_uris":{"android":"levelo://app?vid=f5733814-9732-4748-bcc9-3b2fac8e1564","ios":"levelo://app?vid=f5733814-9732-4748-bcc9-3b2fac8e1564"},"vehicle_type_id":"4","last_reported":1748632077,"current_range_meters":8000,"station_id":"","pricing_plan_id":"cebpf4jnsgd1na2vs0mg"},{"bike_id":"8043de55-9f43-462f-9134-1ea748b2a04c","system_id":"levelo_inurba_marseille","lat":43.295303,"lon":5.3854,"is_reserved":false,"is_disabled":false,"rental_uris":{"android":"levelo://app?vid=8043de55-9f43-462f-9134-1ea748b2a04c","ios":"levelo://app?vid=8043de55-9f43-462f-9134-1ea748b2a04c"},"vehicle_type_id":"4","last_reported":1748632077,"current_range_meters":8000,"station_id":"ce4bgih2rcd13ifvqba0","pricing_plan_id":"cebpf4jnsgd1na2vs0mg"},{"bike_id":"845d484d-c9a1-4569-b825-1a324b828b4d","system_id":"levelo_inurba_marseille","lat":43.30959,"lon":5.39019,"is_reserved":false,"is_disabled":false,"rental_uris":{"android":"levelo://app?vid=845d484d-c9a1-4569-b825-1a324b828b4d","ios":"levelo://app?vid=845d484d-c9a1-4569-b825-1a324b828b4d"},"vehicle_type_id":"4","last_reported":1748632077,"current_range_meters":8000,"station_id":"ce4bgup2rcd13ifvqco0","pricing_plan_id":"cebpf4jnsgd1na2vs0mg"},{"bike_id":"0f980c5c-24a2-41e6-ad8e-664628425d49","system_id":"levelo_inurba_marseille","lat":43.31171,"lon":5.38701,"is_reserved":false,"is_disabled":false,"rental_uris":{"android":"levelo://app?vid=0f980c5c-24a2-41e6-ad8e-664628425d49","ios":"levelo://app?vid=0f980c5c-24a2-41e6-ad8e-664628425d49"},"vehicle_type_id":"4","last_reported":1748632077,"current_range_meters":8000,"station_id":"ce4bgv12rcd13ifvqcp0","pricing_plan_id":"cebpf4jnsgd1na2vs0mg"},{"bike_id":"136b017b-3130-46e3-bacd-edf4b09d8945","system_id":"levelo_inurba_marseille","lat":43.28622,"lon":5.351,"is_reserved":false,"is_disabled":false,"rental_uris":{"android":"levelo://app?vid=136b017b-3130-46e3-bacd-edf4b09d8945","ios":"levelo://app?vid=136b017b-3130-46e3-bacd-edf4b09d8945"},"vehicle_type_id":"4","last_reported":1748632077,"current_range_meters":8000,"station_id":"ce4bhch2rcd13ifvqeug","pricing_plan_id":"cebpf4jnsgd1na2vs0mg"},{"bike_id":"407e5a45-16ab-470f-bd11-310fec85bedc","system_id":"levelo_inurba_marseille","lat":43.26561,"lon":5.37285,"is_reserved":false,"is_disabled":false,"rental_uris":{"android":"levelo://app?vid=407e5a45-16ab-470f-bd11-310fec85bedc","ios":"levelo://app?vid=407e5a45-16ab-470f-bd11-310fec85bedc"},"vehicle_type_id":"4","last_reported":1748632077,"current_range_meters":8000,"station_id":"ce4bhg12rcd13ifvqf70","pricing_plan_id":"cebpf4jnsgd1na2vs0mg"},{"bike_id":"a426f99b-d34a-41bf-bbda-59f7dfd6939b","system_id":"levelo_inurba_marseille","lat":43.255796,"lon":5.382262,"is_reserved":false,"is_disabled":false,"rental_uris":{"android":"levelo://app?vid=a426f99b-d34a-41bf-bbda-59f7dfd6939b","ios":"levelo://app?vid=a426f99b-d34a-41bf-bbda-59f7dfd6939b"},"vehicle_type_id":"4","last_reported":1748632077,"current_range_meters":8000,"station_id":"ce501612rcd8frsf0b60","pricing_plan_id":"cebpf4jnsgd1na2vs0mg"},{"bike_id":"da5921cd-e75b-4ce7-b109-06c28f720590","system_id":"levelo_inurba_marseille","lat":43.28737,"lon":5.36172,"is_reserved":false,"is_disabled":false,"rental_uris":{"android":"levelo://app?vid=da5921cd-e75b-4ce7-b109-06c28f720590","ios":"levelo://app?vid=da5921cd-e75b-4ce7-b109-06c28f720590"},"vehicle_type_id":"4","last_reported":1748632077,"current_range_meters":8400,"station_id":"","pricing_plan_id":"cebpf4jnsgd1na2vs0mg"},{"bike_id":"544abdfa-b4d6-4c3e-8a04-4e2476db1de5","system_id":"levelo_inurba_marseille","lat":43.29888,"lon":5.36874,"is_reserved":false,"is_disabled":false,"rental_uris":{"android":"levelo://app?vid=544abdfa-b4d6-4c3e-8a04-4e2476db1de5","ios":"levelo://app?vid=544abdfa-b4d6-4c3e-8a04-4e2476db1de5"},"vehicle_type_id":"4","last_reported":1748632077,"current_range_meters":8400,"station_id":"","pricing_plan_id":"cebpf4jnsgd1na2vs0mg"},{"bike_id":"a69c5064-55ac-40fa-a02e-700ee3dac888","system_id":"levelo_inurba_marseille","lat":43.26559,"lon":5.4031,"is_reserved":false,"is_disabled":false,"rental_uris":{"android":"levelo://app?vid=a69c5064-55ac-40fa-a02e-700ee3dac888","ios":"levelo://app?vid=a69c5064-55ac-40fa-a02e-700ee3dac888"},"vehicle_type_id":"4","last_reported":1748632077,"current_range_meters":8400,"station_id":"","pricing_plan_id":"cebpf4jnsgd1na2vs0mg"},{"bike_id":"83a65fef-4fc5-4295-b12f-82183d187ee0","system_id":"levelo_inurba_marseille","lat":43.27246,"lon":5.36244,"is_reserved":false,"is_disabled":false,"rental_uris":{"android":"levelo://app?vid=83a65fef-4fc5-4295-b12f-82183d187ee0","ios":"levelo://app?vid=83a65fef-4fc5-4295-b12f-82183d187ee0"},"vehicle_type_id":"4","last_reported":1748632077,"current_range_meters":8400,"station_id":"","pricing_plan_id":"cebpf4jnsgd1na2vs0mg"},{"bike_id":"0ab66a65-9c7d-49fb-b135-6a06c9135de1","system_id":"levelo_inurba_marseille","lat":43.30954,"lon":5.39031,"is_reserved":false,"is_disabled":false,"rental_uris":{"android":"levelo://app?vid=0ab66a65-9c7d-49fb-b135-6a06c9135de1","ios":"levelo://app?vid=0ab66a65-9c7d-49fb-b135-6a06c9135de1"},"vehicle_type_id":"4","last_reported":1748632077,"current_range_meters":8800,"station_id":"ce4bgup2rcd13ifvqco0","pricing_plan_id":"cebpf4jnsgd1na2vs0mg"},{"bike_id":"25323262-7305-4ef9-9539-04799178d07a","system_id":"levelo_inurba_marseille","lat":43.30624,"lon":5.40068,"is_reserved":false,"is_disabled":false,"rental_uris":{"android":"levelo://app?vid=25323262-7305-4ef9-9539-04799178d07a","ios":"levelo://app?vid=25323262-7305-4ef9-9539-04799178d07a"},"vehicle_type_id":"4","last_reported":1748632077,"current_range_meters":8800,"station_id":"ce4bh112rcd13ifvqda0","pricing_plan_id":"cebpf4jnsgd1na2vs0mg"},{"bike_id":"a31656a4-5217-4c2d-91ea-e636b7cf9b1f","system_id":"levelo_inurba_marseille","lat":43.285189,"lon":5.38431,"is_reserved":false,"is_disabled":false,"rental_uris":{"android":"levelo://app?vid=a31656a4-5217-4c2d-91ea-e636b7cf9b1f","ios":"levelo://app?vid=a31656a4-5217-4c2d-91ea-e636b7cf9b1f"},"vehicle_type_id":"4","last_reported":1748632077,"current_range_meters":8800,"station_id":"ce4bh512rcd13ifvqe3g","pricing_plan_id":"cebpf4jnsgd1na2vs0mg"},{"bike_id":"f84072f6-0d4b-4710-aa00-b30e361df5ed","system_id":"levelo_inurba_marseille","lat":43.29041,"lon":5.37548,"is_reserved":false,"is_disabled":false,"rental_uris":{"android":"levelo://app?vid=f84072f6-0d4b-4710-aa00-b30e361df5ed","ios":"levelo://app?vid=f84072f6-0d4b-4710-aa00-b30e361df5ed"},"vehicle_type_id":"4","last_reported":1748632077,"current_range_meters":8800,"station_id":"ce4bh692rcd13ifvqe90","pricing_plan_id":"cebpf4jnsgd1na2vs0mg"},{"bike_id":"53a8e4a7-9124-4d4c-8bba-577f19133006","system_id":"levelo_inurba_marseille","lat":43.28727,"lon":5.37929,"is_reserved":false,"is_disabled":false,"rental_uris":{"android":"levelo://app?vid=53a8e4a7-9124-4d4c-8bba-577f19133006","ios":"levelo://app?vid=53a8e4a7-9124-4d4c-8bba-577f19133006"},"vehicle_type_id":"4","last_reported":1748632077,"current_range_meters":8800,"station_id":"ce4bh9p2rcd13ifvqec0","pricing_plan_id":"cebpf4jnsgd1na2vs0mg"},{"bike_id":"812e76d0-141c-4cd9-88e9-2fea0f98c9bd","system_id":"levelo_inurba_marseille","lat":43.28618,"lon":5.35099,"is_reserved":false,"is_disabled":false,"rental_uris":{"android":"levelo://app?vid=812e76d0-141c-4cd9-88e9-2fea0f98c9bd","ios":"levelo://app?vid=812e76d0-141c-4cd9-88e9-2fea0f98c9bd"},"vehicle_type_id":"4","last_reported":1748632077,"current_range_meters":8800,"station_id":"ce4bhch2rcd13ifvqeug","pricing_plan_id":"cebpf4jnsgd1na2vs0mg"},{"bike_id":"ac43a83f-9e80-4309-a793-7c510cca4828","system_id":"levelo_inurba_marseille","lat":43.23969,"lon":5.36629,"is_reserved":false,"is_disabled":false,"rental_uris":{"android":"levelo://app?vid=ac43a83f-9e80-4309-a793-7c510cca4828","ios":"levelo://app?vid=ac43a83f-9e80-4309-a793-7c510cca4828"},"vehicle_type_id":"4","last_reported":1748632077,"current_range_meters":8800,"station_id":"ce4bhi12rcd13ifvqfp0","pricing_plan_id":"cebpf4jnsgd1na2vs0mg"},{"bike_id":"0280afc4-d6c7-45d5-9976-1c2b5d2fedd2","system_id":"levelo_inurba_marseille","lat":43.25104,"lon":5.40331,"is_reserved":false,"is_disabled":false,"rental_uris":{"android":"levelo://app?vid=0280afc4-d6c7-45d5-9976-1c2b5d2fedd2","ios":"levelo://app?vid=0280afc4-d6c7-45d5-9976-1c2b5d2fedd2"},"vehicle_type_id":"4","last_reported":1748632077,"current_range_meters":8800,"station_id":"ce4bhlh2rcd13ifvqgig","pricing_plan_id":"cebpf4jnsgd1na2vs0mg"},{"bike_id":"f78cc853-94fc-4b7f-b345-980d57485950","system_id":"levelo_inurba_marseille","lat":43.28617,"lon":5.37052,"is_reserved":false,"is_disabled":false,"rental_uris":{"android":"levelo://app?vid=f78cc853-94fc-4b7f-b345-980d57485950","ios":"levelo://app?vid=f78cc853-94fc-4b7f-b345-980d57485950"},"vehicle_type_id":"4","last_reported":1748632077,"current_range_meters":8800,"station_id":"ce4bht12rcd13ifvqi60","pricing_plan_id":"cebpf4jnsgd1na2vs0mg"},{"bike_id":"8345fba8-f53d-4169-9265-3aeb7405da51","system_id":"levelo_inurba_marseille","lat":43.2979,"lon":5.37937,"is_reserved":false,"is_disabled":false,"rental_uris":{"android":"levelo://app?vid=8345fba8-f53d-4169-9265-3aeb7405da51","ios":"levelo://app?vid=8345fba8-f53d-4169-9265-3aeb7405da51"},"vehicle_type_id":"4","last_reported":1748632077,"current_range_meters":9200,"station_id":"","pricing_plan_id":"cebpf4jnsgd1na2vs0mg"},{"bike_id":"0b974758-1368-4c0c-9708-2e73268325b9","system_id":"levelo_inurba_marseille","lat":43.30656,"lon":5.40058,"is_reserved":false,"is_disabled":false,"rental_uris":{"android":"levelo://app?vid=0b974758-1368-4c0c-9708-2e73268325b9","ios":"levelo://app?vid=0b974758-1368-4c0c-9708-2e73268325b9"},"vehicle_type_id":"4","last_reported":1748632077,"current_range_meters":9200,"station_id":"ce4bh112rcd13ifvqda0","pricing_plan_id":"cebpf4jnsgd1na2vs0mg"},{"bike_id":"64b2ae76-7836-40e2-ae3a-6b302f2af50f","system_id":"levelo_inurba_marseille","lat":43.29421,"lon":5.38627,"is_reserved":false,"is_disabled":false,"rental_uris":{"android":"levelo://app?vid=64b2ae76-7836-40e2-ae3a-6b302f2af50f","ios":"levelo://app?vid=64b2ae76-7836-40e2-ae3a-6b302f2af50f"},"vehicle_type_id":"4","last_reported":1748632077,"current_range_meters":9200,"station_id":"ce4bh2h2rcd13ifvqdh0","pricing_plan_id":"cebpf4jnsgd1na2vs0mg"},{"bike_id":"fbf62787-a3c6-4f23-83c5-9f8471a73f2d","system_id":"levelo_inurba_marseille","lat":43.26559,"lon":5.37289,"is_reserved":false,"is_disabled":false,"rental_uris":{"android":"levelo://app?vid=fbf62787-a3c6-4f23-83c5-9f8471a73f2d","ios":"levelo://app?vid=fbf62787-a3c6-4f23-83c5-9f8471a73f2d"},"vehicle_type_id":"4","last_reported":1748632077,"current_range_meters":9200,"station_id":"ce4bhg12rcd13ifvqf70","pricing_plan_id":"cebpf4jnsgd1na2vs0mg"},{"bike_id":"df89b9cf-95f1-48b4-9635-dd6899d1ada8","system_id":"levelo_inurba_marseille","lat":43.317575,"lon":5.390223,"is_reserved":false,"is_disabled":false,"rental_uris":{"android":"levelo://app?vid=df89b9cf-95f1-48b4-9635-dd6899d1ada8","ios":"levelo://app?vid=df89b9cf-95f1-48b4-9635-dd6899d1ada8"},"vehicle_type_id":"4","last_reported":1748632077,"current_range_meters":9200,"station_id":"ce4bhqp2rcd13ifvqhng","pricing_plan_id":"cebpf4jnsgd1na2vs0mg"},{"bike_id":"0cf7da65-c403-4a18-b2ed-d289ab85ccc9","system_id":"levelo_inurba_marseille","lat":43.33025,"lon":5.39037,"is_reserved":false,"is_disabled":false,"rental_uris":{"android":"levelo://app?vid=0cf7da65-c403-4a18-b2ed-d289ab85ccc9","ios":"levelo://app?vid=0cf7da65-c403-4a18-b2ed-d289ab85ccc9"},"vehicle_type_id":"4","last_reported":1748632077,"current_range_meters":9200,"station_id":"ce4bhr92rcd13ifvqhrg","pricing_plan_id":"cebpf4jnsgd1na2vs0mg"},{"bike_id":"a807c8dd-75ce-4f49-b322-50ddd08ec8d0","system_id":"levelo_inurba_marseille","lat":43.34757,"lon":5.373159,"is_reserved":false,"is_disabled":false,"rental_uris":{"android":"levelo://app?vid=a807c8dd-75ce-4f49-b322-50ddd08ec8d0","ios":"levelo://app?vid=a807c8dd-75ce-4f49-b322-50ddd08ec8d0"},"vehicle_type_id":"4","last_reported":1748632077,"current_range_meters":9600,"station_id":"","pricing_plan_id":"cebpf4jnsgd1na2vs0mg"},{"bike_id":"5d522be7-c0fa-4bc5-9d75-575f56efc970","system_id":"levelo_inurba_marseille","lat":43.2953,"lon":5.39405,"is_reserved":false,"is_disabled":false,"rental_uris":{"android":"levelo://app?vid=5d522be7-c0fa-4bc5-9d75-575f56efc970","ios":"levelo://app?vid=5d522be7-c0fa-4bc5-9d75-575f56efc970"},"vehicle_type_id":"4","last_reported":1748632077,"current_range_meters":9600,"station_id":"ce4bh292rcd13ifvqdf0","pricing_plan_id":"cebpf4jnsgd1na2vs0mg"},{"bike_id":"e39fb636-c848-4b11-b04e-e552837a94cb","system_id":"levelo_inurba_marseille","lat":43.292603,"lon":5.384353,"is_reserved":false,"is_disabled":false,"rental_uris":{"android":"levelo://app?vid=e39fb636-c848-4b11-b04e-e552837a94cb","ios":"levelo://app?vid=e39fb636-c848-4b11-b04e-e552837a94cb"},"vehicle_type_id":"4","last_reported":1748632077,"current_range_meters":9600,"station_id":"ce4bh692rcd13ifvqea0","pricing_plan_id":"cebpf4jnsgd1na2vs0mg"},{"bike_id":"bddca6a4-cca0-41aa-ac81-4ecc89db5f94","system_id":"levelo_inurba_marseille","lat":43.29278,"lon":5.36844,"is_reserved":false,"is_disabled":false,"rental_uris":{"android":"levelo://app?vid=bddca6a4-cca0-41aa-ac81-4ecc89db5f94","ios":"levelo://app?vid=bddca6a4-cca0-41aa-ac81-4ecc89db5f94"},"vehicle_type_id":"4","last_reported":1748632077,"current_range_meters":9600,"station_id":"ce4bhbp2rcd13ifvqesg","pricing_plan_id":"cebpf4jnsgd1na2vs0mg"},{"bike_id":"fe0e0aab-c84d-4e36-a4c6-6bf7f57a8f05","system_id":"levelo_inurba_marseille","lat":43.26567,"lon":5.37304,"is_reserved":false,"is_disabled":false,"rental_uris":{"android":"levelo://app?vid=fe0e0aab-c84d-4e36-a4c6-6bf7f57a8f05","ios":"levelo://app?vid=fe0e0aab-c84d-4e36-a4c6-6bf7f57a8f05"},"vehicle_type_id":"4","last_reported":1748632077,"current_range_meters":9600,"station_id":"ce4bhg12rcd13ifvqf70","pricing_plan_id":"cebpf4jnsgd1na2vs0mg"},{"bike_id":"10506cb7-ecd1-4b9a-8a8d-ad241d961b8c","system_id":"levelo_inurba_marseille","lat":43.23198,"lon":5.35542,"is_reserved":false,"is_disabled":false,"rental_uris":{"android":"levelo://app?vid=10506cb7-ecd1-4b9a-8a8d-ad241d961b8c","ios":"levelo://app?vid=10506cb7-ecd1-4b9a-8a8d-ad241d961b8c"},"vehicle_type_id":"4","last_reported":1748632077,"current_range_meters":9600,"station_id":"ce4bhu92rcd13ifvqi70","pricing_plan_id":"cebpf4jnsgd1na2vs0mg"},{"bike_id":"41b5affa-add7-44e2-9ff2-e4bc2c2d8897","system_id":"levelo_inurba_marseille","lat":43.29541,"lon":5.38539,"is_reserved":false,"is_disabled":false,"rental_uris":{"android":"levelo://app?vid=41b5affa-add7-44e2-9ff2-e4bc2c2d8897","ios":"levelo://app?vid=41b5affa-add7-44e2-9ff2-e4bc2c2d8897"},"vehicle_type_id":"4","last_reported":1748632077,"current_range_meters":10000,"station_id":"ce4bgih2rcd13ifvqba0","pricing_plan_id":"cebpf4jnsgd1na2vs0mg"},{"bike_id":"4d301deb-3b9e-42d0-a6be-2897eadc289f","system_id":"levelo_inurba_marseille","lat":43.2978,"lon":5.37101,"is_reserved":false,"is_disabled":false,"rental_uris":{"android":"levelo://app?vid=4d301deb-3b9e-42d0-a6be-2897eadc289f","ios":"levelo://app?vid=4d301deb-3b9e-42d0-a6be-2897eadc289f"},"vehicle_type_id":"4","last_reported":1748632077,"current_range_meters":10000,"station_id":"ce4bgop2rcd13ifvqc1g","pricing_plan_id":"cebpf4jnsgd1na2vs0mg"},{"bike_id":"8dbdc5e1-39a1-4080-8142-c23ebe1e7e18","system_id":"levelo_inurba_marseille","lat":43.30189,"lon":5.36611,"is_reserved":false,"is_disabled":false,"rental_uris":{"android":"levelo://app?vid=8dbdc5e1-39a1-4080-8142-c23ebe1e7e18","ios":"levelo://app?vid=8dbdc5e1-39a1-4080-8142-c23ebe1e7e18"},"vehicle_type_id":"4","last_reported":1748632077,"current_range_meters":10000,"station_id":"ce4bgrh2rcd13ifvqc8g","pricing_plan_id":"cebpf4jnsgd1na2vs0mg"},{"bike_id":"1521e29a-fbdc-4847-8804-e4a99f807e86","system_id":"levelo_inurba_marseille","lat":43.304706,"lon":5.379143,"is_reserved":false,"is_disabled":false,"rental_uris":{"android":"levelo://app?vid=1521e29a-fbdc-4847-8804-e4a99f807e86","ios":"levelo://app?vid=1521e29a-fbdc-4847-8804-e4a99f807e86"},"vehicle_type_id":"4","last_reported":1748632077,"current_range_meters":10000,"station_id":"ce4bgup2rcd13ifvqcn0","pricing_plan_id":"cebpf4jnsgd1na2vs0mg"},{"bike_id":"b9986bcd-d935-43b4-9761-6db0c42f4dd8","system_id":"levelo_inurba_marseille","lat":43.31686,"lon":5.4047,"is_reserved":false,"is_disabled":false,"rental_uris":{"android":"levelo://app?vid=b9986bcd-d935-43b4-9761-6db0c42f4dd8","ios":"levelo://app?vid=b9986bcd-d935-43b4-9761-6db0c42f4dd8"},"vehicle_type_id":"4","last_reported":1748632077,"current_range_meters":10000,"station_id":"ce4bh012rcd13ifvqd00","pricing_plan_id":"cebpf4jnsgd1na2vs0mg"},{"bike_id":"e75c54e2-a90c-4106-8c64-de85d7c75322","system_id":"levelo_inurba_marseille","lat":43.26185,"lon":5.37453,"is_reserved":false,"is_disabled":false,"rental_uris":{"android":"levelo://app?vid=e75c54e2-a90c-4106-8c64-de85d7c75322","ios":"levelo://app?vid=e75c54e2-a90c-4106-8c64-de85d7c75322"},"vehicle_type_id":"4","last_reported":1748632077,"current_range_meters":10000,"station_id":"ce4bhgp2rcd13ifvqfc0","pricing_plan_id":"cebpf4jnsgd1na2vs0mg"},{"bike_id":"c0b8799f-a231-418a-a71c-36988c271d22","system_id":"levelo_inurba_marseille","lat":43.27071,"lon":5.42277,"is_reserved":false,"is_disabled":false,"rental_uris":{"android":"levelo://app?vid=c0b8799f-a231-418a-a71c-36988c271d22","ios":"levelo://app?vid=c0b8799f-a231-418a-a71c-36988c271d22"},"vehicle_type_id":"4","last_reported":1748632077,"current_range_meters":10000,"station_id":"ce4bhk92rcd13ifvqgb0","pricing_plan_id":"cebpf4jnsgd1na2vs0mg"},{"bike_id":"31c89d19-ab76-4cd1-885c-2ffa107b2ce0","system_id":"levelo_inurba_marseille","lat":43.27046,"lon":5.40279,"is_reserved":false,"is_disabled":false,"rental_uris":{"android":"levelo://app?vid=31c89d19-ab76-4cd1-885c-2ffa107b2ce0","ios":"levelo://app?vid=31c89d19-ab76-4cd1-885c-2ffa107b2ce0"},"vehicle_type_id":"4","last_reported":1748632077,"current_range_meters":10000,"station_id":"ce4bhk92rcd13ifvqgc0","pricing_plan_id":"cebpf4jnsgd1na2vs0mg"},{"bike_id":"8588c8cd-2f4b-429a-923c-fc0a25cd8d5a","system_id":"levelo_inurba_marseille","lat":43.2815,"lon":5.42652,"is_reserved":false,"is_disabled":false,"rental_uris":{"android":"levelo://app?vid=8588c8cd-2f4b-429a-923c-fc0a25cd8d5a","ios":"levelo://app?vid=8588c8cd-2f4b-429a-923c-fc0a25cd8d5a"},"vehicle_type_id":"4","last_reported":1748632077,"current_range_meters":10000,"station_id":"ce4bhnh2rcd13ifvqgug","pricing_plan_id":"cebpf4jnsgd1na2vs0mg"},{"bike_id":"e29482c7-5a0e-4a29-aa3b-ee0d775eff1a","system_id":"levelo_inurba_marseille","lat":43.28616,"lon":5.37058,"is_reserved":false,"is_disabled":false,"rental_uris":{"android":"levelo://app?vid=e29482c7-5a0e-4a29-aa3b-ee0d775eff1a","ios":"levelo://app?vid=e29482c7-5a0e-4a29-aa3b-ee0d775eff1a"},"vehicle_type_id":"4","last_reported":1748632077,"current_range_meters":10000,"station_id":"ce4bht12rcd13ifvqi60","pricing_plan_id":"cebpf4jnsgd1na2vs0mg"},{"bike_id":"7243d7c8-02f5-4392-89cf-8c360e846d55","system_id":"levelo_inurba_marseille","lat":43.252748,"lon":5.378411,"is_reserved":false,"is_disabled":false,"rental_uris":{"android":"levelo://app?vid=7243d7c8-02f5-4392-89cf-8c360e846d55","ios":"levelo://app?vid=7243d7c8-02f5-4392-89cf-8c360e846d55"},"vehicle_type_id":"4","last_reported":1748632077,"current_range_meters":10800,"station_id":"","pricing_plan_id":"cebpf4jnsgd1na2vs0mg"},{"bike_id":"bf3adaa5-e5a0-429a-8f69-97a21c18ae4c","system_id":"levelo_inurba_marseille","lat":43.29008,"lon":5.35611,"is_reserved":false,"is_disabled":false,"rental_uris":{"android":"levelo://app?vid=bf3adaa5-e5a0-429a-8f69-97a21c18ae4c","ios":"levelo://app?vid=bf3adaa5-e5a0-429a-8f69-97a21c18ae4c"},"vehicle_type_id":"4","last_reported":1748632077,"current_range_meters":10800,"station_id":"ce4bhb92rcd13ifvqen0","pricing_plan_id":"cebpf4jnsgd1na2vs0mg"},{"bike_id":"11d5a3c3-b5c3-45ee-9c59-63e06770cf8b","system_id":"levelo_inurba_marseille","lat":43.25114,"lon":5.40328,"is_reserved":false,"is_disabled":false,"rental_uris":{"android":"levelo://app?vid=11d5a3c3-b5c3-45ee-9c59-63e06770cf8b","ios":"levelo://app?vid=11d5a3c3-b5c3-45ee-9c59-63e06770cf8b"},"vehicle_type_id":"4","last_reported":1748632077,"current_range_meters":10800,"station_id":"ce4bhlh2rcd13ifvqgig","pricing_plan_id":"cebpf4jnsgd1na2vs0mg"},{"bike_id":"31bcbb93-a820-4754-b55f-1b969a195009","system_id":"levelo_inurba_marseille","lat":43.29535,"lon":5.38541,"is_reserved":false,"is_disabled":false,"rental_uris":{"android":"levelo://app?vid=31bcbb93-a820-4754-b55f-1b969a195009","ios":"levelo://app?vid=31bcbb93-a820-4754-b55f-1b969a195009"},"vehicle_type_id":"4","last_reported":1748632077,"current_range_meters":11200,"station_id":"ce4bgih2rcd13ifvqba0","pricing_plan_id":"cebpf4jnsgd1na2vs0mg"},{"bike_id":"d87283bc-335e-4f1f-9492-4498125299e9","system_id":"levelo_inurba_marseille","lat":43.294,"lon":5.38643,"is_reserved":false,"is_disabled":false,"rental_uris":{"android":"levelo://app?vid=d87283bc-335e-4f1f-9492-4498125299e9","ios":"levelo://app?vid=d87283bc-335e-4f1f-9492-4498125299e9"},"vehicle_type_id":"4","last_reported":1748632077,"current_range_meters":11200,"station_id":"ce4bh2h2rcd13ifvqdh0","pricing_plan_id":"cebpf4jnsgd1na2vs0mg"},{"bike_id":"6cab2d10-7f2c-4dac-ba3d-4f103803cc6a","system_id":"levelo_inurba_marseille","lat":43.28913,"lon":5.38405,"is_reserved":false,"is_disabled":false,"rental_uris":{"android":"levelo://app?vid=6cab2d10-7f2c-4dac-ba3d-4f103803cc6a","ios":"levelo://app?vid=6cab2d10-7f2c-4dac-ba3d-4f103803cc6a"},"vehicle_type_id":"4","last_reported":1748632077,"current_range_meters":11200,"station_id":"ce4bh612rcd13ifvqe6g","pricing_plan_id":"cebpf4jnsgd1na2vs0mg"},{"bike_id":"c98cc574-ce2f-4455-8268-7fd77eda473d","system_id":"levelo_inurba_marseille","lat":43.28723,"lon":5.37926,"is_reserved":false,"is_disabled":false,"rental_uris":{"android":"levelo://app?vid=c98cc574-ce2f-4455-8268-7fd77eda473d","ios":"levelo://app?vid=c98cc574-ce2f-4455-8268-7fd77eda473d"},"vehicle_type_id":"4","last_reported":1748632077,"current_range_meters":11200,"station_id":"ce4bh9p2rcd13ifvqec0","pricing_plan_id":"cebpf4jnsgd1na2vs0mg"},{"bike_id":"c5955212-23b9-47a9-8fed-0e2d976ea049","system_id":"levelo_inurba_marseille","lat":43.26564,"lon":5.37282,"is_reserved":false,"is_disabled":false,"rental_uris":{"android":"levelo://app?vid=c5955212-23b9-47a9-8fed-0e2d976ea049","ios":"levelo://app?vid=c5955212-23b9-47a9-8fed-0e2d976ea049"},"vehicle_type_id":"4","last_reported":1748632077,"current_range_meters":11200,"station_id":"ce4bhg12rcd13ifvqf70","pricing_plan_id":"cebpf4jnsgd1na2vs0mg"},{"bike_id":"c13b6f95-98ca-40c2-9a8c-1d9f88a81c51","system_id":"levelo_inurba_marseille","lat":43.26555,"lon":5.37287,"is_reserved":false,"is_disabled":false,"rental_uris":{"android":"levelo://app?vid=c13b6f95-98ca-40c2-9a8c-1d9f88a81c51","ios":"levelo://app?vid=c13b6f95-98ca-40c2-9a8c-1d9f88a81c51"},"vehicle_type_id":"4","last_reported":1748632077,"current_range_meters":11200,"station_id":"ce4bhg12rcd13ifvqf70","pricing_plan_id":"cebpf4jnsgd1na2vs0mg"},{"bike_id":"c2febff3-eb34-4aa6-8571-ac2168a5f8c1","system_id":"levelo_inurba_marseille","lat":43.28159,"lon":5.42616,"is_reserved":false,"is_disabled":false,"rental_uris":{"android":"levelo://app?vid=c2febff3-eb34-4aa6-8571-ac2168a5f8c1","ios":"levelo://app?vid=c2febff3-eb34-4aa6-8571-ac2168a5f8c1"},"vehicle_type_id":"4","last_reported":1748632077,"current_range_meters":11200,"station_id":"ce4bhnh2rcd13ifvqgug","pricing_plan_id":"cebpf4jnsgd1na2vs0mg"},{"bike_id":"d42b65af-38ed-48b1-9f62-d79f47c848dd","system_id":"levelo_inurba_marseille","lat":43.24071,"lon":5.37767,"is_reserved":false,"is_disabled":false,"rental_uris":{"android":"levelo://app?vid=d42b65af-38ed-48b1-9f62-d79f47c848dd","ios":"levelo://app?vid=d42b65af-38ed-48b1-9f62-d79f47c848dd"},"vehicle_type_id":"4","last_reported":1748632077,"current_range_meters":11200,"station_id":"ce4bhnp2rcd13ifvqgvg","pricing_plan_id":"cebpf4jnsgd1na2vs0mg"},{"bike_id":"f10dc4d6-c8c6-42ab-85d3-8db645894596","system_id":"levelo_inurba_marseille","lat":43.27951,"lon":5.41029,"is_reserved":false,"is_disabled":false,"rental_uris":{"android":"levelo://app?vid=f10dc4d6-c8c6-42ab-85d3-8db645894596","ios":"levelo://app?vid=f10dc4d6-c8c6-42ab-85d3-8db645894596"},"vehicle_type_id":"4","last_reported":1748632077,"current_range_meters":11200,"station_id":"ce4bhnp2rcd13ifvqh0g","pricing_plan_id":"cebpf4jnsgd1na2vs0mg"},{"bike_id":"224bd8e6-5aa6-43c3-9b35-d938c57a99b5","system_id":"levelo_inurba_marseille","lat":43.2656,"lon":5.37312,"is_reserved":false,"is_disabled":false,"rental_uris":{"android":"levelo://app?vid=224bd8e6-5aa6-43c3-9b35-d938c57a99b5","ios":"levelo://app?vid=224bd8e6-5aa6-43c3-9b35-d938c57a99b5"},"vehicle_type_id":"4","last_reported":1748632077,"current_range_meters":11600,"station_id":"ce4bhg12rcd13ifvqf70","pricing_plan_id":"cebpf4jnsgd1na2vs0mg"},{"bike_id":"4e5bc681-7c1e-49e5-ad35-d83b80630d5f","system_id":"levelo_inurba_marseille","lat":43.26191,"lon":5.37446,"is_reserved":false,"is_disabled":false,"rental_uris":{"android":"levelo://app?vid=4e5bc681-7c1e-49e5-ad35-d83b80630d5f","ios":"levelo://app?vid=4e5bc681-7c1e-49e5-ad35-d83b80630d5f"},"vehicle_type_id":"4","last_reported":1748632077,"current_range_meters":11600,"station_id":"ce4bhgp2rcd13ifvqfc0","pricing_plan_id":"cebpf4jnsgd1na2vs0mg"},{"bike_id":"082d056a-3e78-417f-ab12-227e2313ff93","system_id":"levelo_inurba_marseille","lat":43.27214,"lon":5.39173,"is_reserved":false,"is_disabled":false,"rental_uris":{"android":"levelo://app?vid=082d056a-3e78-417f-ab12-227e2313ff93","ios":"levelo://app?vid=082d056a-3e78-417f-ab12-227e2313ff93"},"vehicle_type_id":"4","last_reported":1748632077,"current_range_meters":11600,"station_id":"ce4bhhp2rcd13ifvqfm0","pricing_plan_id":"cebpf4jnsgd1na2vs0mg"},{"bike_id":"9ee87dbe-3990-4764-9a6b-2020fac42886","system_id":"levelo_inurba_marseille","lat":43.32122,"lon":5.3677,"is_reserved":false,"is_disabled":false,"rental_uris":{"android":"levelo://app?vid=9ee87dbe-3990-4764-9a6b-2020fac42886","ios":"levelo://app?vid=9ee87dbe-3990-4764-9a6b-2020fac42886"},"vehicle_type_id":"4","last_reported":1748632077,"current_range_meters":11600,"station_id":"ce4bhrh2rcd13ifvqhug","pricing_plan_id":"cebpf4jnsgd1na2vs0mg"},{"bike_id":"c3156a68-e856-4b03-a031-0f27e467b5b3","system_id":"levelo_inurba_marseille","lat":43.3136,"lon":5.38488,"is_reserved":false,"is_disabled":false,"rental_uris":{"android":"levelo://app?vid=c3156a68-e856-4b03-a031-0f27e467b5b3","ios":"levelo://app?vid=c3156a68-e856-4b03-a031-0f27e467b5b3"},"vehicle_type_id":"4","last_reported":1748632077,"current_range_meters":12000,"station_id":"ce4bgt92rcd13ifvqcf0","pricing_plan_id":"cebpf4jnsgd1na2vs0mg"},{"bike_id":"64a3d9b3-30f8-4a8c-b831-0d99a9fae7a2","system_id":"levelo_inurba_marseille","lat":43.31707,"lon":5.40483,"is_reserved":false,"is_disabled":false,"rental_uris":{"android":"levelo://app?vid=64a3d9b3-30f8-4a8c-b831-0d99a9fae7a2","ios":"levelo://app?vid=64a3d9b3-30f8-4a8c-b831-0d99a9fae7a2"},"vehicle_type_id":"4","last_reported":1748632077,"current_range_meters":12000,"station_id":"ce4bh012rcd13ifvqd00","pricing_plan_id":"cebpf4jnsgd1na2vs0mg"},{"bike_id":"bac667cf-137e-4ea7-b037-7ebd6a2ad77c","system_id":"levelo_inurba_marseille","lat":43.28254,"lon":5.35097,"is_reserved":false,"is_disabled":false,"rental_uris":{"android":"levelo://app?vid=bac667cf-137e-4ea7-b037-7ebd6a2ad77c","ios":"levelo://app?vid=bac667cf-137e-4ea7-b037-7ebd6a2ad77c"},"vehicle_type_id":"4","last_reported":1748632077,"current_range_meters":12000,"station_id":"ce4bhbp2rcd13ifvqerg","pricing_plan_id":"cebpf4jnsgd1na2vs0mg"},{"bike_id":"29c55428-bec9-4cfa-98e0-59633bc7f3fb","system_id":"levelo_inurba_marseille","lat":43.2659,"lon":5.39001,"is_reserved":false,"is_disabled":false,"rental_uris":{"android":"levelo://app?vid=29c55428-bec9-4cfa-98e0-59633bc7f3fb","ios":"levelo://app?vid=29c55428-bec9-4cfa-98e0-59633bc7f3fb"},"vehicle_type_id":"4","last_reported":1748632077,"current_range_meters":12000,"station_id":"ce4bhe12rcd13ifvqf30","pricing_plan_id":"cebpf4jnsgd1na2vs0mg"},{"bike_id":"410f313c-f4ba-4606-879b-9db442194d93","system_id":"levelo_inurba_marseille","lat":43.2456,"lon":5.39521,"is_reserved":false,"is_disabled":false,"rental_uris":{"android":"levelo://app?vid=410f313c-f4ba-4606-879b-9db442194d93","ios":"levelo://app?vid=410f313c-f4ba-4606-879b-9db442194d93"},"vehicle_type_id":"4","last_reported":1748632077,"current_range_meters":12000,"station_id":"ce4bhlp2rcd13ifvqgjg","pricing_plan_id":"cebpf4jnsgd1na2vs0mg"},{"bike_id":"6b9bcff0-171d-4c1a-b5be-6f1982ded5c1","system_id":"levelo_inurba_marseille","lat":43.295527,"lon":5.42288,"is_reserved":false,"is_disabled":false,"rental_uris":{"android":"levelo://app?vid=6b9bcff0-171d-4c1a-b5be-6f1982ded5c1","ios":"levelo://app?vid=6b9bcff0-171d-4c1a-b5be-6f1982ded5c1"},"vehicle_type_id":"4","last_reported":1748632077,"current_range_meters":12000,"station_id":"ce4bhph2rcd13ifvqhdg","pricing_plan_id":"cebpf4jnsgd1na2vs0mg"},{"bike_id":"12a72bb7-baa1-4b3e-ad1a-8dd53992e6eb","system_id":"levelo_inurba_marseille","lat":43.3179,"lon":5.39007,"is_reserved":false,"is_disabled":false,"rental_uris":{"android":"levelo://app?vid=12a72bb7-baa1-4b3e-ad1a-8dd53992e6eb","ios":"levelo://app?vid=12a72bb7-baa1-4b3e-ad1a-8dd53992e6eb"},"vehicle_type_id":"4","last_reported":1748632077,"current_range_meters":12000,"station_id":"ce4bhqp2rcd13ifvqhng","pricing_plan_id":"cebpf4jnsgd1na2vs0mg"},{"bike_id":"56c77a5f-e4f9-4faf-9444-d8e929345c1e","system_id":"levelo_inurba_marseille","lat":43.29307,"lon":5.37182,"is_reserved":false,"is_disabled":false,"rental_uris":{"android":"levelo://app?vid=56c77a5f-e4f9-4faf-9444-d8e929345c1e","ios":"levelo://app?vid=56c77a5f-e4f9-4faf-9444-d8e929345c1e"},"vehicle_type_id":"4","last_reported":1748632077,"current_range_meters":12400,"station_id":"ce4bgh92rcd13ifvqb40","pricing_plan_id":"cebpf4jnsgd1na2vs0mg"},{"bike_id":"e3f4a748-d432-4598-9895-6507bad78d39","system_id":"levelo_inurba_marseille","lat":43.30784,"lon":5.3766,"is_reserved":false,"is_disabled":false,"rental_uris":{"android":"levelo://app?vid=e3f4a748-d432-4598-9895-6507bad78d39","ios":"levelo://app?vid=e3f4a748-d432-4598-9895-6507bad78d39"},"vehicle_type_id":"4","last_reported":1748632077,"current_range_meters":12400,"station_id":"ce4bgv92rcd13ifvqcq0","pricing_plan_id":"cebpf4jnsgd1na2vs0mg"},{"bike_id":"8c8c9872-1883-43f1-ad88-2dad80c8157b","system_id":"levelo_inurba_marseille","lat":43.29534,"lon":5.394,"is_reserved":false,"is_disabled":false,"rental_uris":{"android":"levelo://app?vid=8c8c9872-1883-43f1-ad88-2dad80c8157b","ios":"levelo://app?vid=8c8c9872-1883-43f1-ad88-2dad80c8157b"},"vehicle_type_id":"4","last_reported":1748632077,"current_range_meters":12400,"station_id":"ce4bh292rcd13ifvqdf0","pricing_plan_id":"cebpf4jnsgd1na2vs0mg"},{"bike_id":"dae0e31c-fb23-4e60-a4a4-a88ff7af261f","system_id":"levelo_inurba_marseille","lat":43.29264,"lon":5.3846,"is_reserved":false,"is_disabled":false,"rental_uris":{"android":"levelo://app?vid=dae0e31c-fb23-4e60-a4a4-a88ff7af261f","ios":"levelo://app?vid=dae0e31c-fb23-4e60-a4a4-a88ff7af261f"},"vehicle_type_id":"4","last_reported":1748632077,"current_range_meters":12400,"station_id":"ce4bh692rcd13ifvqea0","pricing_plan_id":"cebpf4jnsgd1na2vs0mg"},{"bike_id":"5cd577b5-ac60-4bbf-a3ac-e38006af6f77","system_id":"levelo_inurba_marseille","lat":43.29228,"lon":5.36041,"is_reserved":false,"is_disabled":false,"rental_uris":{"android":"levelo://app?vid=5cd577b5-ac60-4bbf-a3ac-e38006af6f77","ios":"levelo://app?vid=5cd577b5-ac60-4bbf-a3ac-e38006af6f77"},"vehicle_type_id":"4","last_reported":1748632077,"current_range_meters":12400,"station_id":"ce4bhbh2rcd13ifvqeqg","pricing_plan_id":"cebpf4jnsgd1na2vs0mg"},{"bike_id":"237bedd6-639b-4da9-86cd-2a73d690c6f7","system_id":"levelo_inurba_marseille","lat":43.26023,"lon":5.37549,"is_reserved":false,"is_disabled":false,"rental_uris":{"android":"levelo://app?vid=237bedd6-639b-4da9-86cd-2a73d690c6f7","ios":"levelo://app?vid=237bedd6-639b-4da9-86cd-2a73d690c6f7"},"vehicle_type_id":"4","last_reported":1748632077,"current_range_meters":12400,"station_id":"ce4bhgh2rcd13ifvqfa0","pricing_plan_id":"cebpf4jnsgd1na2vs0mg"},{"bike_id":"dd34afa2-f665-4263-85a8-7de7dbd3a196","system_id":"levelo_inurba_marseille","lat":43.27574,"lon":5.39738,"is_reserved":false,"is_disabled":false,"rental_uris":{"android":"levelo://app?vid=dd34afa2-f665-4263-85a8-7de7dbd3a196","ios":"levelo://app?vid=dd34afa2-f665-4263-85a8-7de7dbd3a196"},"vehicle_type_id":"4","last_reported":1748632077,"current_range_meters":12800,"station_id":"","pricing_plan_id":"cebpf4jnsgd1na2vs0mg"},{"bike_id":"990df701-79a7-41ec-b963-3693dc590a87","system_id":"levelo_inurba_marseille","lat":43.301905,"lon":5.379185,"is_reserved":false,"is_disabled":false,"rental_uris":{"android":"levelo://app?vid=990df701-79a7-41ec-b963-3693dc590a87","ios":"levelo://app?vid=990df701-79a7-41ec-b963-3693dc590a87"},"vehicle_type_id":"4","last_reported":1748632077,"current_range_meters":12800,"station_id":"","pricing_plan_id":"cebpf4jnsgd1na2vs0mg"},{"bike_id":"7322276a-0795-4cd4-9248-5c6b383798c3","system_id":"levelo_inurba_marseille","lat":43.29316,"lon":5.37166,"is_reserved":false,"is_disabled":false,"rental_uris":{"android":"levelo://app?vid=7322276a-0795-4cd4-9248-5c6b383798c3","ios":"levelo://app?vid=7322276a-0795-4cd4-9248-5c6b383798c3"},"vehicle_type_id":"4","last_reported":1748632077,"current_range_meters":12800,"station_id":"ce4bgh92rcd13ifvqb40","pricing_plan_id":"cebpf4jnsgd1na2vs0mg"},{"bike_id":"27a52cdb-9ef9-46c1-8498-9d9de0eb4bce","system_id":"levelo_inurba_marseille","lat":43.29419,"lon":5.38618,"is_reserved":false,"is_disabled":false,"rental_uris":{"android":"levelo://app?vid=27a52cdb-9ef9-46c1-8498-9d9de0eb4bce","ios":"levelo://app?vid=27a52cdb-9ef9-46c1-8498-9d9de0eb4bce"},"vehicle_type_id":"4","last_reported":1748632077,"current_range_meters":12800,"station_id":"ce4bh2h2rcd13ifvqdh0","pricing_plan_id":"cebpf4jnsgd1na2vs0mg"},{"bike_id":"b18036e4-cdbb-441f-a4f1-99c9cdbece34","system_id":"levelo_inurba_marseille","lat":43.29501,"lon":5.39082,"is_reserved":false,"is_disabled":false,"rental_uris":{"android":"levelo://app?vid=b18036e4-cdbb-441f-a4f1-99c9cdbece34","ios":"levelo://app?vid=b18036e4-cdbb-441f-a4f1-99c9cdbece34"},"vehicle_type_id":"4","last_reported":1748632077,"current_range_meters":12800,"station_id":"ce4bh3p2rcd13ifvqdp0","pricing_plan_id":"cebpf4jnsgd1na2vs0mg"},{"bike_id":"6d111cf5-58d5-44a1-b14f-5aa67d04bb9b","system_id":"levelo_inurba_marseille","lat":43.29276,"lon":5.36843,"is_reserved":false,"is_disabled":false,"rental_uris":{"android":"levelo://app?vid=6d111cf5-58d5-44a1-b14f-5aa67d04bb9b","ios":"levelo://app?vid=6d111cf5-58d5-44a1-b14f-5aa67d04bb9b"},"vehicle_type_id":"4","last_reported":1748632077,"current_range_meters":12800,"station_id":"ce4bhbp2rcd13ifvqesg","pricing_plan_id":"cebpf4jnsgd1na2vs0mg"},{"bike_id":"19ca125b-08f3-4625-9733-b63fa2d56703","system_id":"levelo_inurba_marseille","lat":43.29578,"lon":5.3674,"is_reserved":false,"is_disabled":false,"rental_uris":{"android":"levelo://app?vid=19ca125b-08f3-4625-9733-b63fa2d56703","ios":"levelo://app?vid=19ca125b-08f3-4625-9733-b63fa2d56703"},"vehicle_type_id":"4","last_reported":1748632077,"current_range_meters":13600,"station_id":"ce4bgph2rcd13ifvqc2g","pricing_plan_id":"cebpf4jnsgd1na2vs0mg"},{"bike_id":"5bdb6eab-05cf-4a9c-bed3-3bdb78c5a077","system_id":"levelo_inurba_marseille","lat":43.30887,"lon":5.39628,"is_reserved":false,"is_disabled":false,"rental_uris":{"android":"levelo://app?vid=5bdb6eab-05cf-4a9c-bed3-3bdb78c5a077","ios":"levelo://app?vid=5bdb6eab-05cf-4a9c-bed3-3bdb78c5a077"},"vehicle_type_id":"4","last_reported":1748632077,"current_range_meters":13600,"station_id":"ce4bh012rcd13ifvqcv0","pricing_plan_id":"cebpf4jnsgd1na2vs0mg"},{"bike_id":"41ddfa9a-ab1a-4379-9a7a-f21fa9bedc25","system_id":"levelo_inurba_marseille","lat":43.29416,"lon":5.38633,"is_reserved":false,"is_disabled":false,"rental_uris":{"android":"levelo://app?vid=41ddfa9a-ab1a-4379-9a7a-f21fa9bedc25","ios":"levelo://app?vid=41ddfa9a-ab1a-4379-9a7a-f21fa9bedc25"},"vehicle_type_id":"4","last_reported":1748632077,"current_range_meters":13600,"station_id":"ce4bh2h2rcd13ifvqdh0","pricing_plan_id":"cebpf4jnsgd1na2vs0mg"},{"bike_id":"73832477-cfc9-4147-bb02-20b003d2bd30","system_id":"levelo_inurba_marseille","lat":43.28851,"lon":5.39312,"is_reserved":false,"is_disabled":false,"rental_uris":{"android":"levelo://app?vid=73832477-cfc9-4147-bb02-20b003d2bd30","ios":"levelo://app?vid=73832477-cfc9-4147-bb02-20b003d2bd30"},"vehicle_type_id":"4","last_reported":1748632077,"current_range_meters":13600,"station_id":"ce4bh2p2rcd13ifvqdi0","pricing_plan_id":"cebpf4jnsgd1na2vs0mg"},{"bike_id":"472e026e-3124-4d00-8455-c82e1d86dfb5","system_id":"levelo_inurba_marseille","lat":43.29275,"lon":5.36855,"is_reserved":false,"is_disabled":false,"rental_uris":{"android":"levelo://app?vid=472e026e-3124-4d00-8455-c82e1d86dfb5","ios":"levelo://app?vid=472e026e-3124-4d00-8455-c82e1d86dfb5"},"vehicle_type_id":"4","last_reported":1748632077,"current_range_meters":13600,"station_id":"ce4bhbp2rcd13ifvqesg","pricing_plan_id":"cebpf4jnsgd1na2vs0mg"},{"bike_id":"b89f0258-4f0c-4ca1-aebb-6aa33679c09a","system_id":"levelo_inurba_marseille","lat":43.26213,"lon":5.37438,"is_reserved":false,"is_disabled":false,"rental_uris":{"android":"levelo://app?vid=b89f0258-4f0c-4ca1-aebb-6aa33679c09a","ios":"levelo://app?vid=b89f0258-4f0c-4ca1-aebb-6aa33679c09a"},"vehicle_type_id":"4","last_reported":1748632077,"current_range_meters":13600,"station_id":"ce4bhgp2rcd13ifvqfc0","pricing_plan_id":"cebpf4jnsgd1na2vs0mg"},{"bike_id":"da885012-af0f-4074-b112-9f2a1b24e384","system_id":"levelo_inurba_marseille","lat":43.250977,"lon":5.403249,"is_reserved":false,"is_disabled":false,"rental_uris":{"android":"levelo://app?vid=da885012-af0f-4074-b112-9f2a1b24e384","ios":"levelo://app?vid=da885012-af0f-4074-b112-9f2a1b24e384"},"vehicle_type_id":"4","last_reported":1748632077,"current_range_meters":13600,"station_id":"ce4bhlh2rcd13ifvqgig","pricing_plan_id":"cebpf4jnsgd1na2vs0mg"},{"bike_id":"03976688-07dd-4c46-b124-e49004387be0","system_id":"levelo_inurba_marseille","lat":43.28733,"lon":5.36077,"is_reserved":false,"is_disabled":false,"rental_uris":{"android":"levelo://app?vid=03976688-07dd-4c46-b124-e49004387be0","ios":"levelo://app?vid=03976688-07dd-4c46-b124-e49004387be0"},"vehicle_type_id":"4","last_reported":1748632077,"current_range_meters":13600,"station_id":"cki0cbj6b192h4jlfktg","pricing_plan_id":"cebpf4jnsgd1na2vs0mg"},{"bike_id":"d6d1ada7-d095-4848-a9c7-71d520f6d868","system_id":"levelo_inurba_marseille","lat":43.299666,"lon":5.384894,"is_reserved":false,"is_disabled":false,"rental_uris":{"android":"levelo://app?vid=d6d1ada7-d095-4848-a9c7-71d520f6d868","ios":"levelo://app?vid=d6d1ada7-d095-4848-a9c7-71d520f6d868"},"vehicle_type_id":"4","last_reported":1748632077,"current_range_meters":14000,"station_id":"","pricing_plan_id":"cebpf4jnsgd1na2vs0mg"},{"bike_id":"6eb4a761-5638-4131-904d-2752d26bb95a","system_id":"levelo_inurba_marseille","lat":43.30146,"lon":5.37415,"is_reserved":false,"is_disabled":false,"rental_uris":{"android":"levelo://app?vid=6eb4a761-5638-4131-904d-2752d26bb95a","ios":"levelo://app?vid=6eb4a761-5638-4131-904d-2752d26bb95a"},"vehicle_type_id":"4","last_reported":1748632077,"current_range_meters":14000,"station_id":"ce4bgs92rcd13ifvqcc0","pricing_plan_id":"cebpf4jnsgd1na2vs0mg"},{"bike_id":"dead1b9f-5187-4e2a-bc63-ea94975147a3","system_id":"levelo_inurba_marseille","lat":43.3014,"lon":5.39847,"is_reserved":false,"is_disabled":false,"rental_uris":{"android":"levelo://app?vid=dead1b9f-5187-4e2a-bc63-ea94975147a3","ios":"levelo://app?vid=dead1b9f-5187-4e2a-bc63-ea94975147a3"},"vehicle_type_id":"4","last_reported":1748632077,"current_range_meters":14000,"station_id":"ce4bh0h2rcd13ifvqd40","pricing_plan_id":"cebpf4jnsgd1na2vs0mg"},{"bike_id":"96554521-a156-468a-8f37-c6a7a91d4984","system_id":"levelo_inurba_marseille","lat":43.29253,"lon":5.38462,"is_reserved":false,"is_disabled":false,"rental_uris":{"android":"levelo://app?vid=96554521-a156-468a-8f37-c6a7a91d4984","ios":"levelo://app?vid=96554521-a156-468a-8f37-c6a7a91d4984"},"vehicle_type_id":"4","last_reported":1748632077,"current_range_meters":14000,"station_id":"ce4bh692rcd13ifvqea0","pricing_plan_id":"cebpf4jnsgd1na2vs0mg"},{"bike_id":"e53d43de-6314-4e33-86ea-9443af7ada1f","system_id":"levelo_inurba_marseille","lat":43.29281,"lon":5.38439,"is_reserved":false,"is_disabled":false,"rental_uris":{"android":"levelo://app?vid=e53d43de-6314-4e33-86ea-9443af7ada1f","ios":"levelo://app?vid=e53d43de-6314-4e33-86ea-9443af7ada1f"},"vehicle_type_id":"4","last_reported":1748632077,"current_range_meters":14000,"station_id":"ce4bh692rcd13ifvqea0","pricing_plan_id":"cebpf4jnsgd1na2vs0mg"},{"bike_id":"c354ccdf-ba61-4562-9fea-bfd24cbead19","system_id":"levelo_inurba_marseille","lat":43.28648,"lon":5.36378,"is_reserved":false,"is_disabled":false,"rental_uris":{"android":"levelo://app?vid=c354ccdf-ba61-4562-9fea-bfd24cbead19","ios":"levelo://app?vid=c354ccdf-ba61-4562-9fea-bfd24cbead19"},"vehicle_type_id":"4","last_reported":1748632077,"current_range_meters":14000,"station_id":"ce4bhah2rcd13ifvqej0","pricing_plan_id":"cebpf4jnsgd1na2vs0mg"},{"bike_id":"77526fd7-cf67-40dc-ba74-3ec70f03e5f8","system_id":"levelo_inurba_marseille","lat":43.2791,"lon":5.38018,"is_reserved":false,"is_disabled":false,"rental_uris":{"android":"levelo://app?vid=77526fd7-cf67-40dc-ba74-3ec70f03e5f8","ios":"levelo://app?vid=77526fd7-cf67-40dc-ba74-3ec70f03e5f8"},"vehicle_type_id":"4","last_reported":1748632077,"current_range_meters":14000,"station_id":"ce4bhf92rcd13ifvqf50","pricing_plan_id":"cebpf4jnsgd1na2vs0mg"},{"bike_id":"71930e17-fe3c-443f-b621-4d725e50390f","system_id":"levelo_inurba_marseille","lat":43.33659,"lon":5.39138,"is_reserved":false,"is_disabled":false,"rental_uris":{"android":"levelo://app?vid=71930e17-fe3c-443f-b621-4d725e50390f","ios":"levelo://app?vid=71930e17-fe3c-443f-b621-4d725e50390f"},"vehicle_type_id":"4","last_reported":1748632077,"current_range_meters":14400,"station_id":"","pricing_plan_id":"cebpf4jnsgd1na2vs0mg"},{"bike_id":"d174e179-6107-44d5-8f27-11a8eefc6f93","system_id":"levelo_inurba_marseille","lat":43.2937,"lon":5.37839,"is_reserved":false,"is_disabled":false,"rental_uris":{"android":"levelo://app?vid=d174e179-6107-44d5-8f27-11a8eefc6f93","ios":"levelo://app?vid=d174e179-6107-44d5-8f27-11a8eefc6f93"},"vehicle_type_id":"4","last_reported":1748632077,"current_range_meters":14400,"station_id":"ce4bgjh2rcd13ifvqbf0","pricing_plan_id":"cebpf4jnsgd1na2vs0mg"},{"bike_id":"dcccd63e-c10b-4424-a64b-109794cb2916","system_id":"levelo_inurba_marseille","lat":43.29427,"lon":5.3862,"is_reserved":false,"is_disabled":false,"rental_uris":{"android":"levelo://app?vid=dcccd63e-c10b-4424-a64b-109794cb2916","ios":"levelo://app?vid=dcccd63e-c10b-4424-a64b-109794cb2916"},"vehicle_type_id":"4","last_reported":1748632077,"current_range_meters":14400,"station_id":"ce4bh2h2rcd13ifvqdh0","pricing_plan_id":"cebpf4jnsgd1na2vs0mg"},{"bike_id":"0ffd8cc7-98ea-4410-adcb-da5016d214cc","system_id":"levelo_inurba_marseille","lat":43.27675,"lon":5.3889,"is_reserved":false,"is_disabled":false,"rental_uris":{"android":"levelo://app?vid=0ffd8cc7-98ea-4410-adcb-da5016d214cc","ios":"levelo://app?vid=0ffd8cc7-98ea-4410-adcb-da5016d214cc"},"vehicle_type_id":"4","last_reported":1748632077,"current_range_meters":14400,"station_id":"ce4bhi12rcd13ifvqfo0","pricing_plan_id":"cebpf4jnsgd1na2vs0mg"},{"bike_id":"7330b40d-aef1-42a3-9294-a8c9048131a4","system_id":"levelo_inurba_marseille","lat":43.2408,"lon":5.37708,"is_reserved":false,"is_disabled":false,"rental_uris":{"android":"levelo://app?vid=7330b40d-aef1-42a3-9294-a8c9048131a4","ios":"levelo://app?vid=7330b40d-aef1-42a3-9294-a8c9048131a4"},"vehicle_type_id":"4","last_reported":1748632077,"current_range_meters":14400,"station_id":"ce4bhnp2rcd13ifvqgvg","pricing_plan_id":"cebpf4jnsgd1na2vs0mg"},{"bike_id":"dcac3f7e-ac89-4f51-9065-db434d572e88","system_id":"levelo_inurba_marseille","lat":43.29533,"lon":5.38546,"is_reserved":false,"is_disabled":false,"rental_uris":{"android":"levelo://app?vid=dcac3f7e-ac89-4f51-9065-db434d572e88","ios":"levelo://app?vid=dcac3f7e-ac89-4f51-9065-db434d572e88"},"vehicle_type_id":"4","last_reported":1748632077,"current_range_meters":14800,"station_id":"ce4bgih2rcd13ifvqba0","pricing_plan_id":"cebpf4jnsgd1na2vs0mg"},{"bike_id":"4a3dc0d3-a0a0-4e41-84b8-383945c3f089","system_id":"levelo_inurba_marseille","lat":43.30907,"lon":5.36847,"is_reserved":false,"is_disabled":false,"rental_uris":{"android":"levelo://app?vid=4a3dc0d3-a0a0-4e41-84b8-383945c3f089","ios":"levelo://app?vid=4a3dc0d3-a0a0-4e41-84b8-383945c3f089"},"vehicle_type_id":"4","last_reported":1748632077,"current_range_meters":14800,"station_id":"ce4bgn92rcd13ifvqbvg","pricing_plan_id":"cebpf4jnsgd1na2vs0mg"},{"bike_id":"05c2db4f-29ec-4799-87cb-26093d65c7c4","system_id":"levelo_inurba_marseille","lat":43.2511,"lon":5.4033,"is_reserved":false,"is_disabled":false,"rental_uris":{"android":"levelo://app?vid=05c2db4f-29ec-4799-87cb-26093d65c7c4","ios":"levelo://app?vid=05c2db4f-29ec-4799-87cb-26093d65c7c4"},"vehicle_type_id":"4","last_reported":1748632077,"current_range_meters":14800,"station_id":"ce4bhlh2rcd13ifvqgig","pricing_plan_id":"cebpf4jnsgd1na2vs0mg"},{"bike_id":"3fe9d552-f3fb-4b0a-963f-25b4199eaee8","system_id":"levelo_inurba_marseille","lat":43.292938,"lon":5.374665,"is_reserved":false,"is_disabled":false,"rental_uris":{"android":"levelo://app?vid=3fe9d552-f3fb-4b0a-963f-25b4199eaee8","ios":"levelo://app?vid=3fe9d552-f3fb-4b0a-963f-25b4199eaee8"},"vehicle_type_id":"4","last_reported":1748632077,"current_range_meters":15200,"station_id":"ce4bgi12rcd13ifvqb70","pricing_plan_id":"cebpf4jnsgd1na2vs0mg"},{"bike_id":"de74c41f-ddfb-4084-9f9b-1a59e54b1ec8","system_id":"levelo_inurba_marseille","lat":43.29531,"lon":5.37492,"is_reserved":false,"is_disabled":false,"rental_uris":{"android":"levelo://app?vid=de74c41f-ddfb-4084-9f9b-1a59e54b1ec8","ios":"levelo://app?vid=de74c41f-ddfb-4084-9f9b-1a59e54b1ec8"},"vehicle_type_id":"4","last_reported":1748632077,"current_range_meters":15200,"station_id":"ce4bgkp2rcd13ifvqbmg","pricing_plan_id":"cebpf4jnsgd1na2vs0mg"},{"bike_id":"100edce8-0227-46cc-afe0-12899099f87e","system_id":"levelo_inurba_marseille","lat":43.2971,"lon":5.36595,"is_reserved":false,"is_disabled":false,"rental_uris":{"android":"levelo://app?vid=100edce8-0227-46cc-afe0-12899099f87e","ios":"levelo://app?vid=100edce8-0227-46cc-afe0-12899099f87e"},"vehicle_type_id":"4","last_reported":1748632077,"current_range_meters":15200,"station_id":"ce4bgn12rcd13ifvqbt0","pricing_plan_id":"cebpf4jnsgd1na2vs0mg"},{"bike_id":"427e3e0d-50d9-4211-9e56-4accbc035a2d","system_id":"levelo_inurba_marseille","lat":43.29725,"lon":5.36616,"is_reserved":false,"is_disabled":false,"rental_uris":{"android":"levelo://app?vid=427e3e0d-50d9-4211-9e56-4accbc035a2d","ios":"levelo://app?vid=427e3e0d-50d9-4211-9e56-4accbc035a2d"},"vehicle_type_id":"4","last_reported":1748632077,"current_range_meters":15200,"station_id":"ce4bgn12rcd13ifvqbt0","pricing_plan_id":"cebpf4jnsgd1na2vs0mg"},{"bike_id":"6f3de591-57d6-4994-b3a7-97a45840e56e","system_id":"levelo_inurba_marseille","lat":43.29623,"lon":5.3717,"is_reserved":false,"is_disabled":false,"rental_uris":{"android":"levelo://app?vid=6f3de591-57d6-4994-b3a7-97a45840e56e","ios":"levelo://app?vid=6f3de591-57d6-4994-b3a7-97a45840e56e"},"vehicle_type_id":"4","last_reported":1748632077,"current_range_meters":15200,"station_id":"ce4bgnh2rcd13ifvqc0g","pricing_plan_id":"cebpf4jnsgd1na2vs0mg"},{"bike_id":"6a955532-e4ff-4e7b-a8b4-b760583cab0c","system_id":"levelo_inurba_marseille","lat":43.29029,"lon":5.38624,"is_reserved":false,"is_disabled":false,"rental_uris":{"android":"levelo://app?vid=6a955532-e4ff-4e7b-a8b4-b760583cab0c","ios":"levelo://app?vid=6a955532-e4ff-4e7b-a8b4-b760583cab0c"},"vehicle_type_id":"4","last_reported":1748632077,"current_range_meters":15200,"station_id":"ce4bh4p2rcd13ifvqe0g","pricing_plan_id":"cebpf4jnsgd1na2vs0mg"},{"bike_id":"491ff35a-0a43-464c-8bae-6aec532c7742","system_id":"levelo_inurba_marseille","lat":43.2603,"lon":5.37548,"is_reserved":false,"is_disabled":false,"rental_uris":{"android":"levelo://app?vid=491ff35a-0a43-464c-8bae-6aec532c7742","ios":"levelo://app?vid=491ff35a-0a43-464c-8bae-6aec532c7742"},"vehicle_type_id":"4","last_reported":1748632077,"current_range_meters":15200,"station_id":"ce4bhgh2rcd13ifvqfa0","pricing_plan_id":"cebpf4jnsgd1na2vs0mg"},{"bike_id":"c7577b4d-3061-4c46-86a8-ee23dc44d22c","system_id":"levelo_inurba_marseille","lat":43.24074,"lon":5.37761,"is_reserved":false,"is_disabled":false,"rental_uris":{"android":"levelo://app?vid=c7577b4d-3061-4c46-86a8-ee23dc44d22c","ios":"levelo://app?vid=c7577b4d-3061-4c46-86a8-ee23dc44d22c"},"vehicle_type_id":"4","last_reported":1748632077,"current_range_meters":15200,"station_id":"ce4bhnp2rcd13ifvqgvg","pricing_plan_id":"cebpf4jnsgd1na2vs0mg"},{"bike_id":"495d3d4f-fe36-4133-8b6c-942fc4d537bf","system_id":"levelo_inurba_marseille","lat":43.29552,"lon":5.38239,"is_reserved":false,"is_disabled":false,"rental_uris":{"android":"levelo://app?vid=495d3d4f-fe36-4133-8b6c-942fc4d537bf","ios":"levelo://app?vid=495d3d4f-fe36-4133-8b6c-942fc4d537bf"},"vehicle_type_id":"4","last_reported":1748632077,"current_range_meters":16000,"station_id":"","pricing_plan_id":"cebpf4jnsgd1na2vs0mg"},{"bike_id":"bccd8d41-8903-4c23-a968-d9270b784b17","system_id":"levelo_inurba_marseille","lat":43.28127,"lon":5.39008,"is_reserved":false,"is_disabled":false,"rental_uris":{"android":"levelo://app?vid=bccd8d41-8903-4c23-a968-d9270b784b17","ios":"levelo://app?vid=bccd8d41-8903-4c23-a968-d9270b784b17"},"vehicle_type_id":"4","last_reported":1748632077,"current_range_meters":16000,"station_id":"","pricing_plan_id":"cebpf4jnsgd1na2vs0mg"},{"bike_id":"eeabf505-4c22-4f66-bd30-0d4a1d940de3","system_id":"levelo_inurba_marseille","lat":43.2963,"lon":5.3709,"is_reserved":false,"is_disabled":false,"rental_uris":{"android":"levelo://app?vid=eeabf505-4c22-4f66-bd30-0d4a1d940de3","ios":"levelo://app?vid=eeabf505-4c22-4f66-bd30-0d4a1d940de3"},"vehicle_type_id":"4","last_reported":1748632077,"current_range_meters":16000,"station_id":"","pricing_plan_id":"cebpf4jnsgd1na2vs0mg"},{"bike_id":"a32f49c9-8f5b-4018-9bb4-ceafc2aea614","system_id":"levelo_inurba_marseille","lat":43.29572,"lon":5.37502,"is_reserved":false,"is_disabled":false,"rental_uris":{"android":"levelo://app?vid=a32f49c9-8f5b-4018-9bb4-ceafc2aea614","ios":"levelo://app?vid=a32f49c9-8f5b-4018-9bb4-ceafc2aea614"},"vehicle_type_id":"4","last_reported":1748632077,"current_range_meters":16000,"station_id":"ce4bgh92rcd13ifvqb50","pricing_plan_id":"cebpf4jnsgd1na2vs0mg"},