{"last_updated":1701507968,"ttl":30,"version":"2.2","data":{"bikes":[{"bike_id":"08e39174-3b40-4bf4-b750-7bdcdab4e57a","system_id":"levelo_inurba_marseille","lat":43.313165,"lon":5.367265,"is_reserved":false,"is_disabled":false,"rental_uris":{"android":"levelo://app?vid=08e39174-3b40-4bf4-b750-7bdcdab4e57a","ios":"levelo://app?vid=08e39174-3b40-4bf4-b750-7bdcdab4e57a"},"vehicle_type_id":"4","last_reported":1701507968,"current_range_meters":0,"station_id":"ce4bgr92rcd13ifvqc6g","pricing_plan_id":"free"},{"bike_id":"e98eb580-0759-4230-ad80-44e61349e9e0","system_id":"levelo_inurba_marseille","lat":43.305712,"lon":5.365641,"is_reserved":false,"is_disabled":false,"rental_uris":{"android":"levelo://app?vid=e98eb580-0759-4230-ad80-44e61349e9e0","ios":"levelo://app?vid=e98eb580-0759-4230-ad80-44e61349e9e0"},"vehicle_type_id":"4","last_reported":1701507968,"current_range_meters":24400,"station_id":"ce4bgs12rcd13ifvqcag","pricing_plan_id":"free"},{"bike_id":"df8ed9dd-5083-493f-bcd3-d33b6c6564b9","system_id":"levelo_inurba_marseille","lat":43.305712,"lon":5.365641,"is_reserved":false,"is_disabled":false,"rental_uris":{"android":"levelo://app?vid=df8ed9dd-5083-493f-bcd3-d33b6c6564b9","ios":"levelo://app?vid=df8ed9dd-5083-493f-bcd3-d33b6c6564b9"},"vehicle_type_id":"4","last_reported":1701507968,"current_range_meters":28400,"station_id":"ce4bgs12rcd13ifvqcag","pricing_plan_id":"free"},{"bike_id":"8e2b412b-aad9-42bf-ad73-a1e7f7ef83f0","system_id":"levelo_inurba_marseille","lat":43.305712,"lon":5.365641,"is_reserved":false,"is_disabled":false,"rental_uris":{"android":"levelo://app?vid=8e2b412b-aad9-42bf-ad73-a1e7f7ef83f0","ios":"levelo://app?vid=8e2b412b-aad9-42bf-ad73-a1e7f7ef83f0"},"vehicle_type_id":"4","last_reported":1701507968,"current_range_meters":27200,"station_id":"ce4bgs12rcd13ifvqcag","pricing_plan_id":"free"},{"bike_id":"7861355c-7e57-494b-aa47-577a1dd19de3","system_id":"levelo_inurba_marseille","lat":43.305706,"lon":5.365654,"is_reserved":false,"is_disabled":false,"rental_uris":{"android":"levelo://app?vid=7861355c-7e57-494b-aa47-577a1dd19de3","ios":"levelo://app?vid=7861355c-7e57-494b-aa47-577a1dd19de3"},"vehicle_type_id":"4","last_reported":1701507968,"current_range_meters":29200,"station_id":"ce4bgs12rcd13ifvqcag","pricing_plan_id":"free"},{"bike_id":"f62b84be-11b6-423f-af76-cf1a18df68c7","system_id":"levelo_inurba_marseille","lat":43.305706,"lon":5.365654,"is_reserved":false,"is_disabled":false,"rental_uris":{"android":"levelo://app?vid=f62b84be-11b6-423f-af76-cf1a18df68c7","ios":"levelo://app?vid=f62b84be-11b6-423f-af76-cf1a18df68c7"},"vehicle_type_id":"4","last_reported":1701507968,"current_range_meters":23600,"station_id":"ce4bgs12rcd13ifvqcag","pricing_plan_id":"free"},{"bike_id":"347eb81c-09d8-487c-a10f-4aeed7e4697e","system_id":"levelo_inurba_marseille","lat":43.305706,"lon":5.365654,"is_reserved":false,"is_disabled":false,"rental_uris":{"android":"levelo://app?vid=347eb81c-09d8-487c-a10f-4aeed7e4697e","ios":"levelo://app?vid=347eb81c-09d8-487c-a10f-4aeed7e4697e"},"vehicle_type_id":"4","last_reported":1701507968,"current_range_meters":31600,"station_id":"ce4bgs12rcd13ifvqcag","pricing_plan_id":"free"},{"bike_id":"4e6f5d1c-bd9e-419c-aabb-bb75f9aefa42","system_id":"levelo_inurba_marseille","lat":43.305714,"lon":5.365633,"is_reserved":false,"is_disabled":false,"rental_uris":{"android":"levelo://app?vid=4e6f5d1c-bd9e-419c-aabb-bb75f9aefa42","ios":"levelo://app?vid=4e6f5d1c-bd9e-419c-aabb-bb75f9aefa42"},"vehicle_type_id":"4","last_reported":1701507968,"current_range_meters":26400,"station_id":"ce4bgs12rcd13ifvqcag","pricing_plan_id":"free"},{"bike_id":"3956f250-55c9-43e4-b380-b14acf0b0031","system_id":"levelo_inurba_marseille","lat":43.305706,"lon":5.365654,"is_reserved":false,"is_disabled":false,"rental_uris":{"android":"levelo://app?vid=3956f250-55c9-43e4-b380-b14acf0b0031","ios":"levelo://app?vid=3956f250-55c9-43e4-b380-b14acf0b0031"},"vehicle_type_id":"4","last_reported":1701507968,"current_range_meters":22400,"station_id":"ce4bgs12rcd13ifvqcag","pricing_plan_id":"free"},{"bike_id":"e7bd8103-096e-4179-a87d-71e961ce1d7a","system_id":"levelo_inurba_marseille","lat":43.305706,"lon":5.365654,"is_reserved":false,"is_disabled":false,"rental_uris":{"android":"levelo://app?vid=e7bd8103-096e-4179-a87d-71e961ce1d7a","ios":"levelo://app?vid=e7bd8103-096e-4179-a87d-71e961ce1d7a"},"vehicle_type_id":"4","last_reported":1701507968,"current_range_meters":26000,"station_id":"ce4bgs12rcd13ifvqcag","pricing_plan_id":"free"},{"bike_id":"5f6920cf-a217-4255-a435-4d7e9b1286fc","system_id":"levelo_inurba_marseille","lat":43.305706,"lon":5.365654,"is_reserved":false,"is_disabled":false,"rental_uris":{"android":"levelo://app?vid=5f6920cf-a217-4255-a435-4d7e9b1286fc","ios":"levelo://app?vid=5f6920cf-a217-4255-a435-4d7e9b1286fc"},"vehicle_type_id":"4","last_reported":1701507968,"current_range_meters":20400,"station_id":"ce4bgs12rcd13ifvqcag","pricing_plan_id":"free"},{"bike_id":"94f6c913-8bf4-4879-bafb-44767fcbc1a8","system_id":"levelo_inurba_marseille","lat":43.305706,"lon":5.365654,"is_reserved":false,"is_disabled":false,"rental_uris":{"android":"levelo://app?vid=94f6c913-8bf4-4879-bafb-44767fcbc1a8","ios":"levelo://app?vid=94f6c913-8bf4-4879-bafb-44767fcbc1a8"},"vehicle_type_id":"4","last_reported":1701507968,"current_range_meters":22000,"station_id":"ce4bgs12rcd13ifvqcag","pricing_plan_id":"free"},{"bike_id":"9725572e-c4fc-4fab-b0f1-fadf586fa7a5","system_id":"levelo_inurba_marseille","lat":43.305706,"lon":5.365654,"is_reserved":false,"is_disabled":false,"rental_uris":{"android":"levelo://app?vid=9725572e-c4fc-4fab-b0f1-fadf586fa7a5","ios":"levelo://app?vid=9725572e-c4fc-4fab-b0f1-fadf586fa7a5"},"vehicle_type_id":"4","last_reported":1701507968,"current_range_meters":15200,"station_id":"ce4bgs12rcd13ifvqcag","pricing_plan_id":"free"},{"bike_id":"cfd3bb51-5657-4943-be4a-4ca2f802bb01","system_id":"levelo_inurba_marseille","lat":43.308156,"lon":5.376631,"is_reserved":false,"is_disabled":false,"rental_uris":{"android":"levelo://app?vid=cfd3bb51-5657-4943-be4a-4ca2f802bb01","ios":"levelo://app?vid=cfd3bb51-5657-4943-be4a-4ca2f802bb01"},"vehicle_type_id":"4","last_reported":1701507968,"current_range_meters":11600,"station_id":"ce4bgv92rcd13ifvqcq0","pricing_plan_id":"free"},{"bike_id":"ab1a45bc-5c86-4dc9-86c5-b3cdd9eb5b1a","system_id":"levelo_inurba_marseille","lat":43.32035,"lon":5.372,"is_reserved":false,"is_disabled":false,"rental_uris":{"android":"levelo://app?vid=ab1a45bc-5c86-4dc9-86c5-b3cdd9eb5b1a","ios":"levelo://app?vid=ab1a45bc-5c86-4dc9-86c5-b3cdd9eb5b1a"},"vehicle_type_id":"4","last_reported":1701507968,"current_range_meters":0,"station_id":"","pricing_plan_id":"free"},{"bike_id":"f427a2c3-6e4a-446b-ae2f-9be8aa7f4122","system_id":"levelo_inurba_marseille","lat":43.31719,"lon":5.376813,"is_reserved":false,"is_disabled":false,"rental_uris":{"android":"levelo://app?vid=f427a2c3-6e4a-446b-ae2f-9be8aa7f4122","ios":"levelo://app?vid=f427a2c3-6e4a-446b-ae2f-9be8aa7f4122"},"vehicle_type_id":"4","last_reported":1701507968,"current_range_meters":0,"station_id":"","pricing_plan_id":"free"},{"bike_id":"e913f328-1e31-4c22-bd87-f809ea246de4","system_id":"levelo_inurba_marseille","lat":43.317168,"lon":5.376883,"is_reserved":false,"is_disabled":false,"rental_uris":{"android":"levelo://app?vid=e913f328-1e31-4c22-bd87-f809ea246de4","ios":"levelo://app?vid=e913f328-1e31-4c22-bd87-f809ea246de4"},"vehicle_type_id":"4","last_reported":1701507968,"current_range_meters":800,"station_id":"","pricing_plan_id":"free"},{"bike_id":"6347e083-648a-4823-9e56-6c63431da41b","system_id":"levelo_inurba_marseille","lat":43.307945,"lon":5.376487,"is_reserved":false,"is_disabled":false,"rental_uris":{"android":"levelo://app?vid=6347e083-648a-4823-9e56-6c63431da41b","ios":"levelo://app?vid=6347e083-648a-4823-9e56-6c63431da41b"},"vehicle_type_id":"4","last_reported":1701507968,"current_range_meters":26800,"station_id":"ce4bgv92rcd13ifvqcq0","pricing_plan_id":"free"},{"bike_id":"016cf6d8-febc-4a39-b584-d99d4927b6d7","system_id":"levelo_inurba_marseille","lat":43.307945,"lon":5.376487,"is_reserved":false,"is_disabled":false,"rental_uris":{"android":"levelo://app?vid=016cf6d8-febc-4a39-b584-d99d4927b6d7","ios":"levelo://app?vid=016cf6d8-febc-4a39-b584-d99d4927b6d7"},"vehicle_type_id":"4","last_reported":1701507968,"current_range_meters":28400,"station_id":"ce4bgv92rcd13ifvqcq0","pricing_plan_id":"free"},{"bike_id":"fb6fd937-527b-4585-9058-0dfdc6436ac8","system_id":"levelo_inurba_marseille","lat":43.31351,"lon":5.37909,"is_reserved":false,"is_disabled":false,"rental_uris":{"android":"levelo://app?vid=fb6fd937-527b-4585-9058-0dfdc6436ac8","ios":"levelo://app?vid=fb6fd937-527b-4585-9058-0dfdc6436ac8"},"vehicle_type_id":"4","last_reported":1701507968,"current_range_meters":22400,"station_id":"","pricing_plan_id":"free"},{"bike_id":"92d8af04-b91c-4fe9-87f2-3d7cc202feb7","system_id":"levelo_inurba_marseille","lat":43.317075,"lon":5.377367,"is_reserved":false,"is_disabled":false,"rental_uris":{"android":"levelo://app?vid=92d8af04-b91c-4fe9-87f2-3d7cc202feb7","ios":"levelo://app?vid=92d8af04-b91c-4fe9-87f2-3d7cc202feb7"},"vehicle_type_id":"4","last_reported":1701507968,"current_range_meters":24800,"station_id":"ce4bgth2rcd13ifvqch0","pricing_plan_id":"free"},{"bike_id":"194ff67d-738d-48c1-a517-c6d5095fe7b4","system_id":"levelo_inurba_marseille","lat":43.31534,"lon":5.38035,"is_reserved":false,"is_disabled":false,"rental_uris":{"android":"levelo://app?vid=194ff67d-738d-48c1-a517-c6d5095fe7b4","ios":"levelo://app?vid=194ff67d-738d-48c1-a517-c6d5095fe7b4"},"vehicle_type_id":"4","last_reported":1701507968,"current_range_meters":17200,"station_id":"ce4bhsp2rcd13ifvqi50","pricing_plan_id":"free"},{"bike_id":"c6d52433-ae1f-4f2e-bf9c-c4fbac3abb8d","system_id":"levelo_inurba_marseille","lat":43.304606,"lon":5.379026,"is_reserved":false,"is_disabled":false,"rental_uris":{"android":"levelo://app?vid=c6d52433-ae1f-4f2e-bf9c-c4fbac3abb8d","ios":"levelo://app?vid=c6d52433-ae1f-4f2e-bf9c-c4fbac3abb8d"},"vehicle_type_id":"4","last_reported":1701507968,"current_range_meters":15600,"station_id":"ce4bgup2rcd13ifvqcn0","pricing_plan_id":"free"},{"bike_id":"12e46c86-a00b-4037-b5f1-6a4e3adac05c","system_id":"levelo_inurba_marseille","lat":43.304606,"lon":5.379026,"is_reserved":false,"is_disabled":false,"rental_uris":{"android":"levelo://app?vid=12e46c86-a00b-4037-b5f1-6a4e3adac05c","ios":"levelo://app?vid=12e46c86-a00b-4037-b5f1-6a4e3adac05c"},"vehicle_type_id":"4","last_reported":1701507968,"current_range_meters":29200,"station_id":"ce4bgup2rcd13ifvqcn0","pricing_plan_id":"free"},{"bike_id":"2ff25ca5-3fef-4a73-93ed-394e693ea104","system_id":"levelo_inurba_marseille","lat":43.304606,"lon":5.379026,"is_reserved":false,"is_disabled":false,"rental_uris":{"android":"levelo://app?vid=2ff25ca5-3fef-4a73-93ed-394e693ea104","ios":"levelo://app?vid=2ff25ca5-3fef-4a73-93ed-394e693ea104"},"vehicle_type_id":"4","last_reported":1701507968,"current_range_meters":1200,"station_id":"ce4bgup2rcd13ifvqcn0","pricing_plan_id":"free"},{"bike_id":"6c0095e5-a092-47ca-a0e6-d87953fd4acb","system_id":"levelo_inurba_marseille","lat":43.304606,"lon":5.379026,"is_reserved":false,"is_disabled":false,"rental_uris":{"android":"levelo://app?vid=6c0095e5-a092-47ca-a0e6-d87953fd4acb","ios":"levelo://app?vid=6c0095e5-a092-47ca-a0e6-d87953fd4acb"},"vehicle_type_id":"4","last_reported":1701507968,"current_range_meters":29600,"station_id":"ce4bgup2rcd13ifvqcn0","pricing_plan_id":"free"},{"bike_id":"4db04a8a-898b-43af-9076-dad275973f6d","system_id":"levelo_inurba_marseille","lat":43.304606,"lon":5.379026,"is_reserved":false,"is_disabled":false,"rental_uris":{"android":"levelo://app?vid=4db04a8a-898b-43af-9076-dad275973f6d","ios":"levelo://app?vid=4db04a8a-898b-43af-9076-dad275973f6d"},"vehicle_type_id":"4","last_reported":1701507968,"current_range_meters":23200,"station_id":"ce4bgup2rcd13ifvqcn0","pricing_plan_id":"free"},{"bike_id":"e56c4c03-d6ac-416d-8380-bbaf7fb49559","system_id":"levelo_inurba_marseille","lat":43.324771,"lon":5.36557,"is_reserved":false,"is_disabled":false,"rental_uris":{"android":"levelo://app?vid=e56c4c03-d6ac-416d-8380-bbaf7fb49559","ios":"levelo://app?vid=e56c4c03-d6ac-416d-8380-bbaf7fb49559"},"vehicle_type_id":"4","last_reported":1701507968,"current_range_meters":3200,"station_id":"ce4bhs12rcd13ifvqhvg","pricing_plan_id":"free"},{"bike_id":"a6475a8a-11b3-4af0-85f3-fd2cabbfdd22","system_id":"levelo_inurba_marseille","lat":43.32477,"lon":5.36561,"is_reserved":false,"is_disabled":false,"rental_uris":{"android":"levelo://app?vid=a6475a8a-11b3-4af0-85f3-fd2cabbfdd22","ios":"levelo://app?vid=a6475a8a-11b3-4af0-85f3-fd2cabbfdd22"},"vehicle_type_id":"4","last_reported":1701507968,"current_range_meters":19200,"station_id":"ce4bhs12rcd13ifvqhvg","pricing_plan_id":"free"},{"bike_id":"19dcde97-826d-4c77-b8cf-d90ba7f775b0","system_id":"levelo_inurba_marseille","lat":43.324771,"lon":5.36557,"is_reserved":false,"is_disabled":false,"rental_uris":{"android":"levelo://app?vid=19dcde97-826d-4c77-b8cf-d90ba7f775b0","ios":"levelo://app?vid=19dcde97-826d-4c77-b8cf-d90ba7f775b0"},"vehicle_type_id":"4","last_reported":1701507968,"current_range_meters":14800,"station_id":"ce4bhs12rcd13ifvqhvg","pricing_plan_id":"free"},{"bike_id":"865922e2-4ed6-41ca-9641-11930deb907b","system_id":"levelo_inurba_marseille","lat":43.304777,"lon":5.379519,"is_reserved":false,"is_disabled":false,"rental_uris":{"android":"levelo://app?vid=865922e2-4ed6-41ca-9641-11930deb907b","ios":"levelo://app?vid=865922e2-4ed6-41ca-9641-11930deb907b"},"vehicle_type_id":"4","last_reported":1701507968,"current_range_meters":21600,"station_id":"","pricing_plan_id":"free"},{"bike_id":"2275aca5-3158-4c2c-8022-ca5d2714bc86","system_id":"levelo_inurba_marseille","lat":43.319997,"lon":5.381594,"is_reserved":false,"is_disabled":false,"rental_uris":{"android":"levelo://app?vid=2275aca5-3158-4c2c-8022-ca5d2714bc86","ios":"levelo://app?vid=2275aca5-3158-4c2c-8022-ca5d2714bc86"},"vehicle_type_id":"4","last_reported":1701507968,"current_range_meters":16000,"station_id":"ce4bhr12rcd13ifvqhpg","pricing_plan_id":"free"},{"bike_id":"9fdb7f97-586d-42d2-befd-15216ba2e422","system_id":"levelo_inurba_marseille","lat":43.31183,"lon":5.38523,"is_reserved":false,"is_disabled":false,"rental_uris":{"android":"levelo://app?vid=9fdb7f97-586d-42d2-befd-15216ba2e422","ios":"levelo://app?vid=9fdb7f97-586d-42d2-befd-15216ba2e422"},"vehicle_type_id":"4","last_reported":1701507968,"current_range_meters":2000,"station_id":"","pricing_plan_id":"free"},{"bike_id":"2f4e6653-3a6f-4bd4-85b9-b376ad79fb3f","system_id":"levelo_inurba_marseille","lat":43.299222,"lon":5.365554,"is_reserved":false,"is_disabled":false,"rental_uris":{"android":"levelo://app?vid=2f4e6653-3a6f-4bd4-85b9-b376ad79fb3f","ios":"levelo://app?vid=2f4e6653-3a6f-4bd4-85b9-b376ad79fb3f"},"vehicle_type_id":"4","last_reported":1701507968,"current_range_meters":12800,"station_id":"ce4bgm92rcd13ifvqbr0","pricing_plan_id":"free"},{"bike_id":"748d12ab-8e09-4ecd-b2d2-cbe0ea9624f6","system_id":"levelo_inurba_marseille","lat":43.298518,"lon":5.367573,"is_reserved":false,"is_disabled":false,"rental_uris":{"android":"levelo://app?vid=748d12ab-8e09-4ecd-b2d2-cbe0ea9624f6","ios":"levelo://app?vid=748d12ab-8e09-4ecd-b2d2-cbe0ea9624f6"},"vehicle_type_id":"4","last_reported":1701507968,"current_range_meters":7200,"station_id":"","pricing_plan_id":"free"},{"bike_id":"1fba1fc4-b335-4573-9e41-e2aa5a8b1308","system_id":"levelo_inurba_marseille","lat":43.298433,"lon":5.362774,"is_reserved":false,"is_disabled":false,"rental_uris":{"android":"levelo://app?vid=1fba1fc4-b335-4573-9e41-e2aa5a8b1308","ios":"levelo://app?vid=1fba1fc4-b335-4573-9e41-e2aa5a8b1308"},"vehicle_type_id":"4","last_reported":1701507968,"current_range_meters":29200,"station_id":"ce4bgpp2rcd13ifvqc3g","pricing_plan_id":"free"},{"bike_id":"fb861d31-3608-471e-bcf7-f64a2c81bd8a","system_id":"levelo_inurba_marseille","lat":43.297794,"lon":5.370888,"is_reserved":false,"is_disabled":false,"rental_uris":{"android":"levelo://app?vid=fb861d31-3608-471e-bcf7-f64a2c81bd8a","ios":"levelo://app?vid=fb861d31-3608-471e-bcf7-f64a2c81bd8a"},"vehicle_type_id":"4","last_reported":1701507968,"current_range_meters":31200,"station_id":"ce4bgop2rcd13ifvqc1g","pricing_plan_id":"free"},{"bike_id":"2c2e612b-e22a-43c3-8516-b163fa19a19f","system_id":"levelo_inurba_marseille","lat":43.297794,"lon":5.370888,"is_reserved":false,"is_disabled":false,"rental_uris":{"android":"levelo://app?vid=2c2e612b-e22a-43c3-8516-b163fa19a19f","ios":"levelo://app?vid=2c2e612b-e22a-43c3-8516-b163fa19a19f"},"vehicle_type_id":"4","last_reported":1701507968,"current_range_meters":23600,"station_id":"ce4bgop2rcd13ifvqc1g","pricing_plan_id":"free"},{"bike_id":"65073be3-64d5-4947-9113-fd11101b78dd","system_id":"levelo_inurba_marseille","lat":43.322872,"lon":5.382756,"is_reserved":false,"is_disabled":false,"rental_uris":{"android":"levelo://app?vid=65073be3-64d5-4947-9113-fd11101b78dd","ios":"levelo://app?vid=65073be3-64d5-4947-9113-fd11101b78dd"},"vehicle_type_id":"4","last_reported":1701507968,"current_range_meters":9600,"station_id":"ce4bhr12rcd13ifvqhqg","pricing_plan_id":"free"},{"bike_id":"3c6eacad-63e8-42f7-9988-09cf64b64dd8","system_id":"levelo_inurba_marseille","lat":43.328371,"lon":5.366909,"is_reserved":false,"is_disabled":false,"rental_uris":{"android":"levelo://app?vid=3c6eacad-63e8-42f7-9988-09cf64b64dd8","ios":"levelo://app?vid=3c6eacad-63e8-42f7-9988-09cf64b64dd8"},"vehicle_type_id":"4","last_reported":1701507968,"current_range_meters":8800,"station_id":"ce4bhs92rcd13ifvqi0g","pricing_plan_id":"free"},{"bike_id":"c0284961-478e-4ccd-b43e-321d6e4c5580","system_id":"levelo_inurba_marseille","lat":43.328371,"lon":5.366909,"is_reserved":false,"is_disabled":false,"rental_uris":{"android":"levelo://app?vid=c0284961-478e-4ccd-b43e-321d6e4c5580","ios":"levelo://app?vid=c0284961-478e-4ccd-b43e-321d6e4c5580"},"vehicle_type_id":"4","last_reported":1701507968,"current_range_meters":4000,"station_id":"ce4bhs92rcd13ifvqi0g","pricing_plan_id":"free"},{"bike_id":"863e68e6-f678-4404-9035-1f0c001016cb","system_id":"levelo_inurba_marseille","lat":43.328313,"lon":5.366824,"is_reserved":false,"is_disabled":false,"rental_uris":{"android":"levelo://app?vid=863e68e6-f678-4404-9035-1f0c001016cb","ios":"levelo://app?vid=863e68e6-f678-4404-9035-1f0c001016cb"},"vehicle_type_id":"4","last_reported":1701507968,"current_range_meters":18000,"station_id":"ce4bhs92rcd13ifvqi0g","pricing_plan_id":"free"},{"bike_id":"7adcd94b-08f9-46ef-9183-0420f8c39d35","system_id":"levelo_inurba_marseille","lat":43.32832,"lon":5.36679,"is_reserved":false,"is_disabled":false,"rental_uris":{"android":"levelo://app?vid=7adcd94b-08f9-46ef-9183-0420f8c39d35","ios":"levelo://app?vid=7adcd94b-08f9-46ef-9183-0420f8c39d35"},"vehicle_type_id":"4","last_reported":1701507968,"current_range_meters":26800,"station_id":"ce4bhs92rcd13ifvqi0g","pricing_plan_id":"free"},{"bike_id":"5c26bdfb-7b7c-43fb-8a01-250128a1a6f8","system_id":"levelo_inurba_marseille","lat":43.32833,"lon":5.36688,"is_reserved":false,"is_disabled":false,"rental_uris":{"android":"levelo://app?vid=5c26bdfb-7b7c-43fb-8a01-250128a1a6f8","ios":"levelo://app?vid=5c26bdfb-7b7c-43fb-8a01-250128a1a6f8"},"vehicle_type_id":"4","last_reported":1701507968,"current_range_meters":22000,"station_id":"ce4bhs92rcd13ifvqi0g","pricing_plan_id":"free"},{"bike_id":"1f137912-3cce-4df3-a7b0-1a450085508f","system_id":"levelo_inurba_marseille","lat":43.296921,"lon":5.376579,"is_reserved":false,"is_disabled":false,"rental_uris":{"android":"levelo://app?vid=1f137912-3cce-4df3-a7b0-1a450085508f","ios":"levelo://app?vid=1f137912-3cce-4df3-a7b0-1a450085508f"},"vehicle_type_id":"4","last_reported":1701507968,"current_range_meters":24000,"station_id":"ce4bgkh2rcd13ifvqbl0","pricing_plan_id":"free"},{"bike_id":"eaa0e7e7-2390-47fa-909b-7b240952cbef","system_id":"levelo_inurba_marseille","lat":43.316352,"lon":5.38961,"is_reserved":false,"is_disabled":false,"rental_uris":{"android":"levelo://app?vid=eaa0e7e7-2390-47fa-909b-7b240952cbef","ios":"levelo://app?vid=eaa0e7e7-2390-47fa-909b-7b240952cbef"},"vehicle_type_id":"4","last_reported":1701507968,"current_range_meters":18000,"station_id":"","pricing_plan_id":"free"},{"bike_id":"a7903466-e576-4964-9bfd-b1775e336901","system_id":"levelo_inurba_marseille","lat":43.296131,"lon":5.370791,"is_reserved":false,"is_disabled":false,"rental_uris":{"android":"levelo://app?vid=a7903466-e576-4964-9bfd-b1775e336901","ios":"levelo://app?vid=a7903466-e576-4964-9bfd-b1775e336901"},"vehicle_type_id":"4","last_reported":1701507968,"current_range_meters":26000,"station_id":"ce4bgnh2rcd13ifvqc0g","pricing_plan_id":"free"},{"bike_id":"87bb9ed2-4fc9-4aa1-973f-9b72bd37b569","system_id":"levelo_inurba_marseille","lat":43.296921,"lon":5.376579,"is_reserved":false,"is_disabled":false,"rental_uris":{"android":"levelo://app?vid=87bb9ed2-4fc9-4aa1-973f-9b72bd37b569","ios":"levelo://app?vid=87bb9ed2-4fc9-4aa1-973f-9b72bd37b569"},"vehicle_type_id":"4","last_reported":1701507968,"current_range_meters":24000,"station_id":"ce4bgkh2rcd13ifvqbl0","pricing_plan_id":"free"},{"bike_id":"4ab56e35-1c8b-4b29-a68f-364b1a11812c","system_id":"levelo_inurba_marseille","lat":43.309589,"lon":5.390258,"is_reserved":false,"is_disabled":false,"rental_uris":{"android":"levelo://app?vid=4ab56e35-1c8b-4b29-a68f-364b1a11812c","ios":"levelo://app?vid=4ab56e35-1c8b-4b29-a68f-364b1a11812c"},"vehicle_type_id":"4","last_reported":1701507968,"current_range_meters":27200,"station_id":"ce4bgup2rcd13ifvqco0","pricing_plan_id":"free"},{"bike_id":"dcddcb43-c617-427e-99b3-2d9e73eaec53","system_id":"levelo_inurba_marseille","lat":43.317557,"lon":5.390173,"is_reserved":false,"is_disabled":false,"rental_uris":{"android":"levelo://app?vid=dcddcb43-c617-427e-99b3-2d9e73eaec53","ios":"levelo://app?vid=dcddcb43-c617-427e-99b3-2d9e73eaec53"},"vehicle_type_id":"4","last_reported":1701507968,"current_range_meters":26000,"station_id":"ce4bhqp2rcd13ifvqhng","pricing_plan_id":"free"},{"bike_id":"20750967-dbe2-4832-8f1e-eeab7a5d74d9","system_id":"levelo_inurba_marseille","lat":43.317557,"lon":5.390173,"is_reserved":false,"is_disabled":false,"rental_uris":{"android":"levelo://app?vid=20750967-dbe2-4832-8f1e-eeab7a5d74d9","ios":"levelo://app?vid=20750967-dbe2-4832-8f1e-eeab7a5d74d9"},"vehicle_type_id":"4","last_reported":1701507968,"current_range_meters":18400,"station_id":"ce4bhqp2rcd13ifvqhng","pricing_plan_id":"free"},{"bike_id":"979dadd9-7311-4f07-8cc6-0a81ab74a09b","system_id":"levelo_inurba_marseille","lat":43.295748,"lon":5.37522,"is_reserved":false,"is_disabled":false,"rental_uris":{"android":"levelo://app?vid=979dadd9-7311-4f07-8cc6-0a81ab74a09b","ios":"levelo://app?vid=979dadd9-7311-4f07-8cc6-0a81ab74a09b"},"vehicle_type_id":"4","last_reported":1701507968,"current_range_meters":30400,"station_id":"ce4bgh92rcd13ifvqb50","pricing_plan_id":"free"},{"bike_id":"2811c474-1c17-4692-8ee3-f1cca98e4286","system_id":"levelo_inurba_marseille","lat":43.295748,"lon":5.37522,"is_reserved":false,"is_disabled":false,"rental_uris":{"android":"levelo://app?vid=2811c474-1c17-4692-8ee3-f1cca98e4286","ios":"levelo://app?vid=2811c474-1c17-4692-8ee3-f1cca98e4286"},"vehicle_type_id":"4","last_reported":1701507968,"current_range_meters":26000,"station_id":"ce4bgh92rcd13ifvqb50","pricing_plan_id":"free"},{"bike_id":"13ca97e5-82b5-4e06-8d78-e9793b7e594e","system_id":"levelo_inurba_marseille","lat":43.297142,"lon":5.379705,"is_reserved":false,"is_disabled":false,"rental_uris":{"android":"levelo://app?vid=13ca97e5-82b5-4e06-8d78-e9793b7e594e","ios":"levelo://app?vid=13ca97e5-82b5-4e06-8d78-e9793b7e594e"},"vehicle_type_id":"4","last_reported":1701507968,"current_range_meters":20000,"station_id":"","pricing_plan_id":"free"},{"bike_id":"2824a2e4-9418-4bba-b368-e23eadee3bc5","system_id":"levelo_inurba_marseille","lat":43.296263,"lon":5.377094,"is_reserved":false,"is_disabled":false,"rental_uris":{"android":"levelo://app?vid=2824a2e4-9418-4bba-b368-e23eadee3bc5","ios":"levelo://app?vid=2824a2e4-9418-4bba-b368-e23eadee3bc5"},"vehicle_type_id":"4","last_reported":1701507968,"current_range_meters":15600,"station_id":"ce4bgi92rcd13ifvqb90","pricing_plan_id":"free"},{"bike_id":"0f48cb4f-04b9-4e61-9637-7821855e64f6","system_id":"levelo_inurba_marseille","lat":43.296263,"lon":5.377094,"is_reserved":false,"is_disabled":false,"rental_uris":{"android":"levelo://app?vid=0f48cb4f-04b9-4e61-9637-7821855e64f6","ios":"levelo://app?vid=0f48cb4f-04b9-4e61-9637-7821855e64f6"},"vehicle_type_id":"4","last_reported":1701507968,"current_range_meters":12400,"station_id":"ce4bgi92rcd13ifvqb90","pricing_plan_id":"free"},{"bike_id":"059301c7-04a7-4f80-bfbc-bff731e00c38","system_id":"levelo_inurba_marseille","lat":43.299717,"lon":5.384845,"is_reserved":false,"is_disabled":false,"rental_uris":{"android":"levelo://app?vid=059301c7-04a7-4f80-bfbc-bff731e00c38","ios":"levelo://app?vid=059301c7-04a7-4f80-bfbc-bff731e00c38"},"vehicle_type_id":"4","last_reported":1701507968,"current_range_meters":23600,"station_id":"ce4bgj92rcd13ifvqbd0","pricing_plan_id":"free"},{"bike_id":"22cd44cb-0716-4ef8-8a1b-3a5854a8d623","system_id":"levelo_inurba_marseille","lat":43.295748,"lon":5.37522,"is_reserved":false,"is_disabled":false,"rental_uris":{"android":"levelo://app?vid=22cd44cb-0716-4ef8-8a1b-3a5854a8d623","ios":"levelo://app?vid=22cd44cb-0716-4ef8-8a1b-3a5854a8d623"},"vehicle_type_id":"4","last_reported":1701507968,"current_range_meters":25600,"station_id":"ce4bgh92rcd13ifvqb50","pricing_plan_id":"free"},{"bike_id":"460c72c6-c4f9-4e9e-87b8-44f389b236f7","system_id":"levelo_inurba_marseille","lat":43.293824,"lon":5.378559,"is_reserved":false,"is_disabled":false,"rental_uris":{"android":"levelo://app?vid=460c72c6-c4f9-4e9e-87b8-44f389b236f7","ios":"levelo://app?vid=460c72c6-c4f9-4e9e-87b8-44f389b236f7"},"vehicle_type_id":"4","last_reported":1701507968,"current_range_meters":30000,"station_id":"ce4bgjh2rcd13ifvqbf0","pricing_plan_id":"free"},{"bike_id":"3b2265a5-7a58-41f1-88c0-d3561a059996","system_id":"levelo_inurba_marseille","lat":43.2936,"lon":5.37835,"is_reserved":false,"is_disabled":false,"rental_uris":{"android":"levelo://app?vid=3b2265a5-7a58-41f1-88c0-d3561a059996","ios":"levelo://app?vid=3b2265a5-7a58-41f1-88c0-d3561a059996"},"vehicle_type_id":"4","last_reported":1701507968,"current_range_meters":30000,"station_id":"ce4bgjh2rcd13ifvqbf0","pricing_plan_id":"free"},{"bike_id":"b4439dd6-11ae-4845-8dc3-e4eb94a13a97","system_id":"levelo_inurba_marseille","lat":43.292311,"lon":5.360731,"is_reserved":false,"is_disabled":false,"rental_uris":{"android":"levelo://app?vid=b4439dd6-11ae-4845-8dc3-e4eb94a13a97","ios":"levelo://app?vid=b4439dd6-11ae-4845-8dc3-e4eb94a13a97"},"vehicle_type_id":"4","last_reported":1701507968,"current_range_meters":31200,"station_id":"ce4bhbh2rcd13ifvqeqg","pricing_plan_id":"free"},{"bike_id":"87282010-caf5-46f2-9056-258c815ae16d","system_id":"levelo_inurba_marseille","lat":43.292311,"lon":5.360731,"is_reserved":false,"is_disabled":false,"rental_uris":{"android":"levelo://app?vid=87282010-caf5-46f2-9056-258c815ae16d","ios":"levelo://app?vid=87282010-caf5-46f2-9056-258c815ae16d"},"vehicle_type_id":"4","last_reported":1701507968,"current_range_meters":7600,"station_id":"ce4bhbh2rcd13ifvqeqg","pricing_plan_id":"free"},{"bike_id":"fd4fabfb-cfda-487b-9876-ab2b7c4e5f5f","system_id":"levelo_inurba_marseille","lat":43.291671,"lon":5.371575,"is_reserved":false,"is_disabled":false,"rental_uris":{"android":"levelo://app?vid=fd4fabfb-cfda-487b-9876-ab2b7c4e5f5f","ios":"levelo://app?vid=fd4fabfb-cfda-487b-9876-ab2b7c4e5f5f"},"vehicle_type_id":"4","last_reported":1701507968,"current_range_meters":24800,"station_id":"ce4bha92rcd13ifvqeh0","pricing_plan_id":"free"},{"bike_id":"5dabdd09-04ae-4859-9fef-8af0155f469c","system_id":"levelo_inurba_marseille","lat":43.291994,"lon":5.357886,"is_reserved":false,"is_disabled":false,"rental_uris":{"android":"levelo://app?vid=5dabdd09-04ae-4859-9fef-8af0155f469c","ios":"levelo://app?vid=5dabdd09-04ae-4859-9fef-8af0155f469c"},"vehicle_type_id":"4","last_reported":1701507968,"current_range_meters":28400,"station_id":"ce4bhb12rcd13ifvqel0","pricing_plan_id":"free"},{"bike_id":"7e508489-a64b-4ab9-a61e-d6e5d50ef7ce","system_id":"levelo_inurba_marseille","lat":43.291949,"lon":5.357941,"is_reserved":false,"is_disabled":false,"rental_uris":{"android":"levelo://app?vid=7e508489-a64b-4ab9-a61e-d6e5d50ef7ce","ios":"levelo://app?vid=7e508489-a64b-4ab9-a61e-d6e5d50ef7ce"},"vehicle_type_id":"4","last_reported":1701507968,"current_range_meters":2000,"station_id":"ce4bhb12rcd13ifvqel0","pricing_plan_id":"free"},{"bike_id":"1503ba8e-e5ce-4487-86d1-caed0535f80d","system_id":"levelo_inurba_marseille","lat":43.291994,"lon":5.357886,"is_reserved":false,"is_disabled":false,"rental_uris":{"android":"levelo://app?vid=1503ba8e-e5ce-4487-86d1-caed0535f80d","ios":"levelo://app?vid=1503ba8e-e5ce-4487-86d1-caed0535f80d"},"vehicle_type_id":"4","last_reported":1701507968,"current_range_meters":20400,"station_id":"ce4bhb12rcd13ifvqel0","pricing_plan_id":"free"},{"bike_id":"700ac40b-2de4-461d-8b70-3b628142f894","system_id":"levelo_inurba_marseille","lat":43.291937,"lon":5.357812,"is_reserved":false,"is_disabled":false,"rental_uris":{"android":"levelo://app?vid=700ac40b-2de4-461d-8b70-3b628142f894","ios":"levelo://app?vid=700ac40b-2de4-461d-8b70-3b628142f894"},"vehicle_type_id":"4","last_reported":1701507968,"current_range_meters":8800,"station_id":"ce4bhb12rcd13ifvqel0","pricing_plan_id":"free"},{"bike_id":"5831ff6c-d241-4b6c-baa2-b3a661864f44","system_id":"levelo_inurba_marseille","lat":43.290327,"lon":5.375711,"is_reserved":false,"is_disabled":false,"rental_uris":{"android":"levelo://app?vid=5831ff6c-d241-4b6c-baa2-b3a661864f44","ios":"levelo://app?vid=5831ff6c-d241-4b6c-baa2-b3a661864f44"},"vehicle_type_id":"4","last_reported":1701507968,"current_range_meters":26800,"station_id":"ce4bh692rcd13ifvqe90","pricing_plan_id":"free"},{"bike_id":"7467637e-e433-4a84-9030-7b3260573b36","system_id":"levelo_inurba_marseille","lat":43.290327,"lon":5.375711,"is_reserved":false,"is_disabled":false,"rental_uris":{"android":"levelo://app?vid=7467637e-e433-4a84-9030-7b3260573b36","ios":"levelo://app?vid=7467637e-e433-4a84-9030-7b3260573b36"},"vehicle_type_id":"4","last_reported":1701507968,"current_range_meters":25200,"station_id":"ce4bh692rcd13ifvqe90","pricing_plan_id":"free"},{"bike_id":"c24a97fc-8bf7-4b0c-b2be-450d22e1d98b","system_id":"levelo_inurba_marseille","lat":43.294162,"lon":5.386292,"is_reserved":false,"is_disabled":false,"rental_uris":{"android":"levelo://app?vid=c24a97fc-8bf7-4b0c-b2be-450d22e1d98b","ios":"levelo://app?vid=c24a97fc-8bf7-4b0c-b2be-450d22e1d98b"},"vehicle_type_id":"4","last_reported":1701507968,"current_range_meters":22800,"station_id":"ce4bh2h2rcd13ifvqdh0","pricing_plan_id":"free"},{"bike_id":"c58b39fe-f050-44d5-bbe7-4abcb7249795","system_id":"levelo_inurba_marseille","lat":43.291541,"lon":5.380542,"is_reserved":false,"is_disabled":false,"rental_uris":{"android":"levelo://app?vid=c58b39fe-f050-44d5-bbe7-4abcb7249795","ios":"levelo://app?vid=c58b39fe-f050-44d5-bbe7-4abcb7249795"},"vehicle_type_id":"4","last_reported":1701507968,"current_range_meters":15200,"station_id":"ce4bhn92rcd13ifvqgrg","pricing_plan_id":"free"},{"bike_id":"e2d188e9-a452-466b-bc0c-4226b66d3c7a","system_id":"levelo_inurba_marseille","lat":43.292644,"lon":5.384257,"is_reserved":false,"is_disabled":false,"rental_uris":{"android":"levelo://app?vid=e2d188e9-a452-466b-bc0c-4226b66d3c7a","ios":"levelo://app?vid=e2d188e9-a452-466b-bc0c-4226b66d3c7a"},"vehicle_type_id":"4","last_reported":1701507968,"current_range_meters":28800,"station_id":"ce4bh692rcd13ifvqea0","pricing_plan_id":"free"},{"bike_id":"b9a5847e-4a04-4589-8aea-614712de6d8f","system_id":"levelo_inurba_marseille","lat":43.292644,"lon":5.384257,"is_reserved":false,"is_disabled":false,"rental_uris":{"android":"levelo://app?vid=b9a5847e-4a04-4589-8aea-614712de6d8f","ios":"levelo://app?vid=b9a5847e-4a04-4589-8aea-614712de6d8f"},"vehicle_type_id":"4","last_reported":1701507968,"current_range_meters":22800,"station_id":"ce4bh692rcd13ifvqea0","pricing_plan_id":"free"},{"bike_id":"ea0a5799-7aa9-4ed2-bc79-8b2eb1a165b9","system_id":"levelo_inurba_marseille","lat":43.290103,"lon":5.356114,"is_reserved":false,"is_disabled":false,"rental_uris":{"android":"levelo://app?vid=ea0a5799-7aa9-4ed2-bc79-8b2eb1a165b9","ios":"levelo://app?vid=ea0a5799-7aa9-4ed2-bc79-8b2eb1a165b9"},"vehicle_type_id":"4","last_reported":1701507968,"current_range_meters":10000,"station_id":"ce4bhb92rcd13ifvqen0","pricing_plan_id":"free"},{"bike_id":"b38135b0-bb14-4c25-bf29-b49d406cc922","system_id":"levelo_inurba_marseille","lat":43.33043,"lon":5.38921,"is_reserved":false,"is_disabled":false,"rental_uris":{"android":"levelo://app?vid=b38135b0-bb14-4c25-bf29-b49d406cc922","ios":"levelo://app?vid=b38135b0-bb14-4c25-bf29-b49d406cc922"},"vehicle_type_id":"4","last_reported":1701507968,"current_range_meters":1600,"station_id":"ce4bhr92rcd13ifvqhrg","pricing_plan_id":"free"},{"bike_id":"7a6762eb-d7bc-4214-b172-ae44b4a4c395","system_id":"levelo_inurba_marseille","lat":43.290103,"lon":5.356114,"is_reserved":false,"is_disabled":false,"rental_uris":{"android":"levelo://app?vid=7a6762eb-d7bc-4214-b172-ae44b4a4c395","ios":"levelo://app?vid=7a6762eb-d7bc-4214-b172-ae44b4a4c395"},"vehicle_type_id":"4","last_reported":1701507968,"current_range_meters":31600,"station_id":"ce4bhb92rcd13ifvqen0","pricing_plan_id":"free"},{"bike_id":"a6468dd2-6632-46da-be39-0cc8552c84c7","system_id":"levelo_inurba_marseille","lat":43.33042,"lon":5.38925,"is_reserved":false,"is_disabled":false,"rental_uris":{"android":"levelo://app?vid=a6468dd2-6632-46da-be39-0cc8552c84c7","ios":"levelo://app?vid=a6468dd2-6632-46da-be39-0cc8552c84c7"},"vehicle_type_id":"4","last_reported":1701507968,"current_range_meters":29600,"station_id":"ce4bhr92rcd13ifvqhrg","pricing_plan_id":"free"},{"bike_id":"c1fe0415-c7bb-4e36-a9a2-8aa8ee12d44e","system_id":"levelo_inurba_marseille","lat":43.297815,"lon":5.393548,"is_reserved":false,"is_disabled":false,"rental_uris":{"android":"levelo://app?vid=c1fe0415-c7bb-4e36-a9a2-8aa8ee12d44e","ios":"levelo://app?vid=c1fe0415-c7bb-4e36-a9a2-8aa8ee12d44e"},"vehicle_type_id":"4","last_reported":1701507968,"current_range_meters":20000,"station_id":"chh1huq6cuj3fo74tm60","pricing_plan_id":"free"},{"bike_id":"a6169d29-2cb0-4452-84f0-44111733e2cb","system_id":"levelo_inurba_marseille","lat":43.289743,"lon":5.378304,"is_reserved":false,"is_disabled":false,"rental_uris":{"android":"levelo://app?vid=a6169d29-2cb0-4452-84f0-44111733e2cb","ios":"levelo://app?vid=a6169d29-2cb0-4452-84f0-44111733e2cb"},"vehicle_type_id":"4","last_reported":1701507968,"current_range_meters":30000,"station_id":"ce4bh9p2rcd13ifvqed0","pricing_plan_id":"free"},{"bike_id":"dd06d97c-c441-4bca-9e32-15fd0ebed003","system_id":"levelo_inurba_marseille","lat":43.309371,"lon":5.401449,"is_reserved":false,"is_disabled":false,"rental_uris":{"android":"levelo://app?vid=dd06d97c-c441-4bca-9e32-15fd0ebed003","ios":"levelo://app?vid=dd06d97c-c441-4bca-9e32-15fd0ebed003"},"vehicle_type_id":"4","last_reported":1701507968,"current_range_meters":6000,"station_id":"ce4bgvp2rcd13ifvqct0","pricing_plan_id":"free"},{"bike_id":"dc03c4db-7fa1-40b2-b6c4-6e2c35355c9e","system_id":"levelo_inurba_marseille","lat":43.231919,"lon":5.355532,"is_reserved":false,"is_disabled":false,"rental_uris":{"android":"levelo://app?vid=dc03c4db-7fa1-40b2-b6c4-6e2c35355c9e","ios":"levelo://app?vid=dc03c4db-7fa1-40b2-b6c4-6e2c35355c9e"},"vehicle_type_id":"4","last_reported":1701507968,"current_range_meters":20000,"station_id":"ce4bhu92rcd13ifvqi70","pricing_plan_id":"free"},{"bike_id":"475b9bb8-5294-42be-84d0-831304032cbf","system_id":"levelo_inurba_marseille","lat":43.306412,"lon":5.401035,"is_reserved":false,"is_disabled":false,"rental_uris":{"android":"levelo://app?vid=475b9bb8-5294-42be-84d0-831304032cbf","ios":"levelo://app?vid=475b9bb8-5294-42be-84d0-831304032cbf"},"vehicle_type_id":"4","last_reported":1701507968,"current_range_meters":5600,"station_id":"ce4bh112rcd13ifvqda0","pricing_plan_id":"free"},{"bike_id":"6e924cfe-5d69-4b32-98e9-21e265e2b3f9","system_id":"levelo_inurba_marseille","lat":43.301117,"lon":5.398795,"is_reserved":false,"is_disabled":false,"rental_uris":{"android":"levelo://app?vid=6e924cfe-5d69-4b32-98e9-21e265e2b3f9","ios":"levelo://app?vid=6e924cfe-5d69-4b32-98e9-21e265e2b3f9"},"vehicle_type_id":"4","last_reported":1701507968,"current_range_meters":17600,"station_id":"ce4bh0h2rcd13ifvqd40","pricing_plan_id":"free"},{"bike_id":"8c9debd4-54f2-458f-98e7-06ea0124e87e","system_id":"levelo_inurba_marseille","lat":43.30137,"lon":5.3987,"is_reserved":false,"is_disabled":false,"rental_uris":{"android":"levelo://app?vid=8c9debd4-54f2-458f-98e7-06ea0124e87e","ios":"levelo://app?vid=8c9debd4-54f2-458f-98e7-06ea0124e87e"},"vehicle_type_id":"4","last_reported":1701507968,"current_range_meters":17600,"station_id":"ce4bh0h2rcd13ifvqd40","pricing_plan_id":"free"},{"bike_id":"298f5c73-b86d-4391-8072-f0024d9f8415","system_id":"levelo_inurba_marseille","lat":43.295196,"lon":5.39397,"is_reserved":false,"is_disabled":false,"rental_uris":{"android":"levelo://app?vid=298f5c73-b86d-4391-8072-f0024d9f8415","ios":"levelo://app?vid=298f5c73-b86d-4391-8072-f0024d9f8415"},"vehicle_type_id":"4","last_reported":1701507968,"current_range_meters":3600,"station_id":"ce4bh292rcd13ifvqdf0","pricing_plan_id":"free"},{"bike_id":"40d71a1c-9368-46b6-b34b-556e2569eb08","system_id":"levelo_inurba_marseille","lat":43.29034,"lon":5.38647,"is_reserved":false,"is_disabled":false,"rental_uris":{"android":"levelo://app?vid=40d71a1c-9368-46b6-b34b-556e2569eb08","ios":"levelo://app?vid=40d71a1c-9368-46b6-b34b-556e2569eb08"},"vehicle_type_id":"4","last_reported":1701507968,"current_range_meters":24800,"station_id":"ce4bh4p2rcd13ifvqe0g","pricing_plan_id":"free"},{"bike_id":"6eb8f6e0-6e8f-4f2e-8275-7e34ab91e865","system_id":"levelo_inurba_marseille","lat":43.30247,"lon":5.40074,"is_reserved":false,"is_disabled":false,"rental_uris":{"android":"levelo://app?vid=6eb8f6e0-6e8f-4f2e-8275-7e34ab91e865","ios":"levelo://app?vid=6eb8f6e0-6e8f-4f2e-8275-7e34ab91e865"},"vehicle_type_id":"4","last_reported":1701507968,"current_range_meters":23600,"station_id":"ce4bgvh2rcd13ifvqcs0","pricing_plan_id":"free"},{"bike_id":"5ffc400f-750d-4d9b-b5a6-2cfaafcfe2c6","system_id":"levelo_inurba_marseille","lat":43.286039,"lon":5.370679,"is_reserved":false,"is_disabled":false,"rental_uris":{"android":"levelo://app?vid=5ffc400f-750d-4d9b-b5a6-2cfaafcfe2c6","ios":"levelo://app?vid=5ffc400f-750d-4d9b-b5a6-2cfaafcfe2c6"},"vehicle_type_id":"4","last_reported":1701507968,"current_range_meters":18800,"station_id":"ce4bht12rcd13ifvqi60","pricing_plan_id":"free"},{"bike_id":"40b013a4-8905-48ea-afb9-3ba70bd67899","system_id":"levelo_inurba_marseille","lat":43.28607,"lon":5.3707,"is_reserved":false,"is_disabled":false,"rental_uris":{"android":"levelo://app?vid=40b013a4-8905-48ea-afb9-3ba70bd67899","ios":"levelo://app?vid=40b013a4-8905-48ea-afb9-3ba70bd67899"},"vehicle_type_id":"4","last_reported":1701507968,"current_range_meters":5200,"station_id":"ce4bht12rcd13ifvqi60","pricing_plan_id":"free"},{"bike_id":"b8d094eb-a1e1-4b3b-ac7e-e2cbe4c9297f","system_id":"levelo_inurba_marseille","lat":43.316517,"lon":5.404375,"is_reserved":false,"is_disabled":false,"rental_uris":{"android":"levelo://app?vid=b8d094eb-a1e1-4b3b-ac7e-e2cbe4c9297f","ios":"levelo://app?vid=b8d094eb-a1e1-4b3b-ac7e-e2cbe4c9297f"},"vehicle_type_id":"4","last_reported":1701507968,"current_range_meters":14400,"station_id":"ce4bh012rcd13ifvqd00","pricing_plan_id":"free"},{"bike_id":"d602a3d1-e3f7-4a70-9183-9c49798f1d01","system_id":"levelo_inurba_marseille","lat":43.284538,"lon":5.358657,"is_reserved":false,"is_disabled":false,"rental_uris":{"android":"levelo://app?vid=d602a3d1-e3f7-4a70-9183-9c49798f1d01","ios":"levelo://app?vid=d602a3d1-e3f7-4a70-9183-9c49798f1d01"},"vehicle_type_id":"4","last_reported":1701507968,"current_range_meters":31200,"station_id":"ce4bhah2rcd13ifvqei0","pricing_plan_id":"free"},{"bike_id":"0d5d7ab8-9ae7-432f-9189-bf46aad59761","system_id":"levelo_inurba_marseille","lat":43.319179,"lon":5.407725,"is_reserved":false,"is_disabled":false,"rental_uris":{"android":"levelo://app?vid=0d5d7ab8-9ae7-432f-9189-bf46aad59761","ios":"levelo://app?vid=0d5d7ab8-9ae7-432f-9189-bf46aad59761"},"vehicle_type_id":"4","last_reported":1701507968,"current_range_meters":31200,"station_id":"ce4bhq12rcd13ifvqhig","pricing_plan_id":"free"},{"bike_id":"f99fc4d8-709b-4cee-a32c-2cdd6f1e8b1e","system_id":"levelo_inurba_marseille","lat":43.337168,"lon":5.391825,"is_reserved":false,"is_disabled":false,"rental_uris":{"android":"levelo://app?vid=f99fc4d8-709b-4cee-a32c-2cdd6f1e8b1e","ios":"levelo://app?vid=f99fc4d8-709b-4cee-a32c-2cdd6f1e8b1e"},"vehicle_type_id":"4","last_reported":1701507968,"current_range_meters":26400,"station_id":"ce4bhr92rcd13ifvqhsg","pricing_plan_id":"free"},{"bike_id":"4714f7cd-5ff4-41d0-870b-3e9261538b58","system_id":"levelo_inurba_marseille","lat":43.323464,"lon":5.406297,"is_reserved":false,"is_disabled":false,"rental_uris":{"android":"levelo://app?vid=4714f7cd-5ff4-41d0-870b-3e9261538b58","ios":"levelo://app?vid=4714f7cd-5ff4-41d0-870b-3e9261538b58"},"vehicle_type_id":"4","last_reported":1701507968,"current_range_meters":28000,"station_id":"ce4bhq92rcd13ifvqhjg","pricing_plan_id":"free"},{"bike_id":"7f458fab-3a0c-4609-8310-733ff5bbba57","system_id":"levelo_inurba_marseille","lat":43.33717,"lon":5.391857,"is_reserved":false,"is_disabled":false,"rental_uris":{"android":"levelo://app?vid=7f458fab-3a0c-4609-8310-733ff5bbba57","ios":"levelo://app?vid=7f458fab-3a0c-4609-8310-733ff5bbba57"},"vehicle_type_id":"4","last_reported":1701507968,"current_range_meters":30400,"station_id":"ce4bhr92rcd13ifvqhsg","pricing_plan_id":"free"},{"bike_id":"4092b413-a8f0-49fd-8cc3-69bf3f509a40","system_id":"levelo_inurba_marseille","lat":43.32339,"lon":5.40634,"is_reserved":false,"is_disabled":false,"rental_uris":{"android":"levelo://app?vid=4092b413-a8f0-49fd-8cc3-69bf3f509a40","ios":"levelo://app?vid=4092b413-a8f0-49fd-8cc3-69bf3f509a40"},"vehicle_type_id":"4","last_reported":1701507968,"current_range_meters":11200,"station_id":"ce4bhq92rcd13ifvqhjg","pricing_plan_id":"free"},{"bike_id":"3b66b449-bce7-4907-9e31-803b97fe0ead","system_id":"levelo_inurba_marseille","lat":43.284787,"lon":5.384116,"is_reserved":false,"is_disabled":false,"rental_uris":{"android":"levelo://app?vid=3b66b449-bce7-4907-9e31-803b97fe0ead","ios":"levelo://app?vid=3b66b449-bce7-4907-9e31-803b97fe0ead"},"vehicle_type_id":"4","last_reported":1701507968,"current_range_meters":27600,"station_id":"ce4bh512rcd13ifvqe3g","pricing_plan_id":"free"},{"bike_id":"59ecd103-e3f3-4aed-90f6-56acddc28524","system_id":"levelo_inurba_marseille","lat":43.289363,"lon":5.396322,"is_reserved":false,"is_disabled":false,"rental_uris":{"android":"levelo://app?vid=59ecd103-e3f3-4aed-90f6-56acddc28524","ios":"levelo://app?vid=59ecd103-e3f3-4aed-90f6-56acddc28524"},"vehicle_type_id":"4","last_reported":1701507968,"current_range_meters":27200,"station_id":"ce4bh3h2rcd13ifvqdn0","pricing_plan_id":"free"},{"bike_id":"5670302a-b8bd-4fd9-aa8a-ed551354a4b9","system_id":"levelo_inurba_marseille","lat":43.282754,"lon":5.350519,"is_reserved":false,"is_disabled":false,"rental_uris":{"android":"levelo://app?vid=5670302a-b8bd-4fd9-aa8a-ed551354a4b9","ios":"levelo://app?vid=5670302a-b8bd-4fd9-aa8a-ed551354a4b9"},"vehicle_type_id":"4","last_reported":1701507968,"current_range_meters":22000,"station_id":"ce4bhbp2rcd13ifvqerg","pricing_plan_id":"free"},{"bike_id":"40083ea1-2522-4500-b841-8ab6bb3f0d0c","system_id":"levelo_inurba_marseille","lat":43.282754,"lon":5.350519,"is_reserved":false,"is_disabled":false,"rental_uris":{"android":"levelo://app?vid=40083ea1-2522-4500-b841-8ab6bb3f0d0c","ios":"levelo://app?vid=40083ea1-2522-4500-b841-8ab6bb3f0d0c"},"vehicle_type_id":"4","last_reported":1701507968,"current_range_meters":16400,"station_id":"ce4bhbp2rcd13ifvqerg","pricing_plan_id":"free"},{"bike_id":"c0e2fc9f-ba89-4f16-aad4-e724ae738cf0","system_id":"levelo_inurba_marseille","lat":43.28039,"lon":5.369297,"is_reserved":false,"is_disabled":false,"rental_uris":{"android":"levelo://app?vid=c0e2fc9f-ba89-4f16-aad4-e724ae738cf0","ios":"levelo://app?vid=c0e2fc9f-ba89-4f16-aad4-e724ae738cf0"},"vehicle_type_id":"4","last_reported":1701507968,"current_range_meters":29200,"station_id":"ce4bha12rcd13ifvqef0","pricing_plan_id":"free"},{"bike_id":"384e313f-492c-4d83-a1a6-c31122558ed0","system_id":"levelo_inurba_marseille","lat":43.280382,"lon":5.369291,"is_reserved":false,"is_disabled":false,"rental_uris":{"android":"levelo://app?vid=384e313f-492c-4d83-a1a6-c31122558ed0","ios":"levelo://app?vid=384e313f-492c-4d83-a1a6-c31122558ed0"},"vehicle_type_id":"4","last_reported":1701507968,"current_range_meters":29200,"station_id":"ce4bha12rcd13ifvqef0","pricing_plan_id":"free"},{"bike_id":"da9c69a8-f034-4bc4-bd6f-19169039de2b","system_id":"levelo_inurba_marseille","lat":43.280382,"lon":5.369291,"is_reserved":false,"is_disabled":false,"rental_uris":{"android":"levelo://app?vid=da9c69a8-f034-4bc4-bd6f-19169039de2b","ios":"levelo://app?vid=da9c69a8-f034-4bc4-bd6f-19169039de2b"},"vehicle_type_id":"4","last_reported":1701507968,"current_range_meters":26800,"station_id":"ce4bha12rcd13ifvqef0","pricing_plan_id":"free"},{"bike_id":"bea45b44-d7c8-4fa2-9699-9366bee49d9f","system_id":"levelo_inurba_marseille","lat":43.29041,"lon":5.399634,"is_reserved":false,"is_disabled":false,"rental_uris":{"android":"levelo://app?vid=bea45b44-d7c8-4fa2-9699-9366bee49d9f","ios":"levelo://app?vid=bea45b44-d7c8-4fa2-9699-9366bee49d9f"},"vehicle_type_id":"4","last_reported":1701507968,"current_range_meters":30000,"station_id":"ce4bh392rcd13ifvqdm0","pricing_plan_id":"free"},{"bike_id":"92b05863-d7cf-4990-af3e-9332e782bc00","system_id":"levelo_inurba_marseille","lat":43.285742,"lon":5.395004,"is_reserved":false,"is_disabled":false,"rental_uris":{"android":"levelo://app?vid=92b05863-d7cf-4990-af3e-9332e782bc00","ios":"levelo://app?vid=92b05863-d7cf-4990-af3e-9332e782bc00"},"vehicle_type_id":"4","last_reported":1701507968,"current_range_meters":29600,"station_id":"ce4bh292rcd13ifvqdg0","pricing_plan_id":"free"},{"bike_id":"d2e46f76-891a-45d8-b95b-615141a167ed","system_id":"levelo_inurba_marseille","lat":43.28573,"lon":5.394992,"is_reserved":false,"is_disabled":false,"rental_uris":{"android":"levelo://app?vid=d2e46f76-891a-45d8-b95b-615141a167ed","ios":"levelo://app?vid=d2e46f76-891a-45d8-b95b-615141a167ed"},"vehicle_type_id":"4","last_reported":1701507968,"current_range_meters":20800,"station_id":"ce4bh292rcd13ifvqdg0","pricing_plan_id":"free"},{"bike_id":"44b01b27-bfd5-491f-9e75-6434d7fa44f1","system_id":"levelo_inurba_marseille","lat":43.28713,"lon":5.39991,"is_reserved":false,"is_disabled":false,"rental_uris":{"android":"levelo://app?vid=44b01b27-bfd5-491f-9e75-6434d7fa44f1","ios":"levelo://app?vid=44b01b27-bfd5-491f-9e75-6434d7fa44f1"},"vehicle_type_id":"4","last_reported":1701507968,"current_range_meters":24400,"station_id":"ce4bho92rcd13ifvqh3g","pricing_plan_id":"free"},{"bike_id":"c4cd0b9d-0c41-4d84-aa06-fab71e60a157","system_id":"levelo_inurba_marseille","lat":43.287154,"lon":5.399979,"is_reserved":false,"is_disabled":false,"rental_uris":{"android":"levelo://app?vid=c4cd0b9d-0c41-4d84-aa06-fab71e60a157","ios":"levelo://app?vid=c4cd0b9d-0c41-4d84-aa06-fab71e60a157"},"vehicle_type_id":"4","last_reported":1701507968,"current_range_meters":30400,"station_id":"ce4bho92rcd13ifvqh3g","pricing_plan_id":"free"},{"bike_id":"2a48ec58-a18d-49d2-9fda-72b787fa06c4","system_id":"levelo_inurba_marseille","lat":43.28698,"lon":5.3998,"is_reserved":false,"is_disabled":false,"rental_uris":{"android":"levelo://app?vid=2a48ec58-a18d-49d2-9fda-72b787fa06c4","ios":"levelo://app?vid=2a48ec58-a18d-49d2-9fda-72b787fa06c4"},"vehicle_type_id":"4","last_reported":1701507968,"current_range_meters":0,"station_id":"","pricing_plan_id":"free"},{"bike_id":"4315f364-d466-45d1-af0f-f4f03c19bc92","system_id":"levelo_inurba_marseille","lat":43.320045,"lon":5.415048,"is_reserved":false,"is_disabled":false,"rental_uris":{"android":"levelo://app?vid=4315f364-d466-45d1-af0f-f4f03c19bc92","ios":"levelo://app?vid=4315f364-d466-45d1-af0f-f4f03c19bc92"},"vehicle_type_id":"4","last_reported":1701507968,"current_range_meters":26400,"station_id":"ce4bhq92rcd13ifvqhkg","pricing_plan_id":"free"},{"bike_id":"3952f81c-a1aa-4d58-a7f0-b89bc3bcb0f8","system_id":"levelo_inurba_marseille","lat":43.292571,"lon":5.409107,"is_reserved":false,"is_disabled":false,"rental_uris":{"android":"levelo://app?vid=3952f81c-a1aa-4d58-a7f0-b89bc3bcb0f8","ios":"levelo://app?vid=3952f81c-a1aa-4d58-a7f0-b89bc3bcb0f8"},"vehicle_type_id":"4","last_reported":1701507968,"current_range_meters":21200,"station_id":"ce4bh192rcd13ifvqdc0","pricing_plan_id":"free"},{"bike_id":"81c3d2e1-d711-4403-8a56-f859e0dd931b","system_id":"levelo_inurba_marseille","lat":43.292647,"lon":5.409162,"is_reserved":false,"is_disabled":false,"rental_uris":{"android":"levelo://app?vid=81c3d2e1-d711-4403-8a56-f859e0dd931b","ios":"levelo://app?vid=81c3d2e1-d711-4403-8a56-f859e0dd931b"},"vehicle_type_id":"4","last_reported":1701507968,"current_range_meters":20800,"station_id":"","pricing_plan_id":"free"},{"bike_id":"a6d5863c-49f4-43c9-a227-e9384f60b0ce","system_id":"levelo_inurba_marseille","lat":43.27617,"lon":5.36117,"is_reserved":false,"is_disabled":false,"rental_uris":{"android":"levelo://app?vid=a6d5863c-49f4-43c9-a227-e9384f60b0ce","ios":"levelo://app?vid=a6d5863c-49f4-43c9-a227-e9384f60b0ce"},"vehicle_type_id":"4","last_reported":1701507968,"current_range_meters":18800,"station_id":"ce4bgj92rcd13ifvqbe0","pricing_plan_id":"free"},{"bike_id":"662d7ac0-b60c-4589-b775-59c466096683","system_id":"levelo_inurba_marseille","lat":43.325233,"lon":5.414318,"is_reserved":false,"is_disabled":false,"rental_uris":{"android":"levelo://app?vid=662d7ac0-b60c-4589-b775-59c466096683","ios":"levelo://app?vid=662d7ac0-b60c-4589-b775-59c466096683"},"vehicle_type_id":"4","last_reported":1701507968,"current_range_meters":31200,"station_id":"ce4bhq12rcd13ifvqhhg","pricing_plan_id":"free"},{"bike_id":"7d9634e8-abcf-408e-8084-5157e9409a15","system_id":"levelo_inurba_marseille","lat":43.27611,"lon":5.36108,"is_reserved":false,"is_disabled":false,"rental_uris":{"android":"levelo://app?vid=7d9634e8-abcf-408e-8084-5157e9409a15","ios":"levelo://app?vid=7d9634e8-abcf-408e-8084-5157e9409a15"},"vehicle_type_id":"4","last_reported":1701507968,"current_range_meters":2800,"station_id":"ce4bgj92rcd13ifvqbe0","pricing_plan_id":"free"},{"bike_id":"0e213d99-3509-4b22-8ea3-187711179b82","system_id":"levelo_inurba_marseille","lat":43.325233,"lon":5.414318,"is_reserved":false,"is_disabled":false,"rental_uris":{"android":"levelo://app?vid=0e213d99-3509-4b22-8ea3-187711179b82","ios":"levelo://app?vid=0e213d99-3509-4b22-8ea3-187711179b82"},"vehicle_type_id":"4","last_reported":1701507968,"current_range_meters":14000,"station_id":"ce4bhq12rcd13ifvqhhg","pricing_plan_id":"free"},{"bike_id":"bcdb50df-13be-4393-adc8-1a79a4e56c43","system_id":"levelo_inurba_marseille","lat":43.28619,"lon":5.40406,"is_reserved":false,"is_disabled":false,"rental_uris":{"android":"levelo://app?vid=bcdb50df-13be-4393-adc8-1a79a4e56c43","ios":"levelo://app?vid=bcdb50df-13be-4393-adc8-1a79a4e56c43"},"vehicle_type_id":"4","last_reported":1701507968,"current_range_meters":0,"station_id":"","pricing_plan_id":"free"},{"bike_id":"1c095cc6-2762-47e3-abf7-38a65ee9552b","system_id":"levelo_inurba_marseille","lat":43.280784,"lon":5.396622,"is_reserved":false,"is_disabled":false,"rental_uris":{"android":"levelo://app?vid=1c095cc6-2762-47e3-abf7-38a65ee9552b","ios":"levelo://app?vid=1c095cc6-2762-47e3-abf7-38a65ee9552b"},"vehicle_type_id":"4","last_reported":1701507968,"current_range_meters":28800,"station_id":"ce4bho12rcd13ifvqh2g","pricing_plan_id":"free"},{"bike_id":"81a5be6e-dd2f-4e19-8c88-cd8e3951d68c","system_id":"levelo_inurba_marseille","lat":43.303837,"lon":5.418724,"is_reserved":false,"is_disabled":false,"rental_uris":{"android":"levelo://app?vid=81a5be6e-dd2f-4e19-8c88-cd8e3951d68c","ios":"levelo://app?vid=81a5be6e-dd2f-4e19-8c88-cd8e3951d68c"},"vehicle_type_id":"4","last_reported":1701507968,"current_range_meters":25200,"station_id":"ce4bhop2rcd13ifvqh7g","pricing_plan_id":"free"},{"bike_id":"dad9420d-36bf-47cb-8906-3c62e7ceb4b7","system_id":"levelo_inurba_marseille","lat":43.30359,"lon":5.41887,"is_reserved":false,"is_disabled":false,"rental_uris":{"android":"levelo://app?vid=dad9420d-36bf-47cb-8906-3c62e7ceb4b7","ios":"levelo://app?vid=dad9420d-36bf-47cb-8906-3c62e7ceb4b7"},"vehicle_type_id":"4","last_reported":1701507968,"current_range_meters":17200,"station_id":"ce4bhop2rcd13ifvqh7g","pricing_plan_id":"free"},{"bike_id":"e59ae75b-2cd4-46b4-80c4-6ae5542bf9cc","system_id":"levelo_inurba_marseille","lat":43.278399,"lon":5.392139,"is_reserved":false,"is_disabled":false,"rental_uris":{"android":"levelo://app?vid=e59ae75b-2cd4-46b4-80c4-6ae5542bf9cc","ios":"levelo://app?vid=e59ae75b-2cd4-46b4-80c4-6ae5542bf9cc"},"vehicle_type_id":"4","last_reported":1701507968,"current_range_meters":6400,"station_id":"ce4bhjp2rcd13ifvqga0","pricing_plan_id":"free"},{"bike_id":"8d5b7dc0-21af-4888-b2ec-f9982db8ee3c","system_id":"levelo_inurba_marseille","lat":43.278401,"lon":5.392152,"is_reserved":false,"is_disabled":false,"rental_uris":{"android":"levelo://app?vid=8d5b7dc0-21af-4888-b2ec-f9982db8ee3c","ios":"levelo://app?vid=8d5b7dc0-21af-4888-b2ec-f9982db8ee3c"},"vehicle_type_id":"4","last_reported":1701507968,"current_range_meters":15600,"station_id":"ce4bhjp2rcd13ifvqga0","pricing_plan_id":"free"},{"bike_id":"975d9307-3328-456b-998b-a9c7d3275461","system_id":"levelo_inurba_marseille","lat":43.336148,"lon":5.410349,"is_reserved":false,"is_disabled":false,"rental_uris":{"android":"levelo://app?vid=975d9307-3328-456b-998b-a9c7d3275461","ios":"levelo://app?vid=975d9307-3328-456b-998b-a9c7d3275461"},"vehicle_type_id":"4","last_reported":1701507968,"current_range_meters":27200,"station_id":"ce4bhqh2rcd13ifvqhmg","pricing_plan_id":"free"},{"bike_id":"8206dba6-19cf-46fa-8275-3c22df5b4764","system_id":"levelo_inurba_marseille","lat":43.33598,"lon":5.4103,"is_reserved":false,"is_disabled":false,"rental_uris":{"android":"levelo://app?vid=8206dba6-19cf-46fa-8275-3c22df5b4764","ios":"levelo://app?vid=8206dba6-19cf-46fa-8275-3c22df5b4764"},"vehicle_type_id":"4","last_reported":1701507968,"current_range_meters":13600,"station_id":"ce4bhqh2rcd13ifvqhmg","pricing_plan_id":"free"},{"bike_id":"e42ce7d8-bbf9-46ae-a19b-1f85aea0f865","system_id":"levelo_inurba_marseille","lat":43.33612,"lon":5.410321,"is_reserved":false,"is_disabled":false,"rental_uris":{"android":"levelo://app?vid=e42ce7d8-bbf9-46ae-a19b-1f85aea0f865","ios":"levelo://app?vid=e42ce7d8-bbf9-46ae-a19b-1f85aea0f865"},"vehicle_type_id":"4","last_reported":1701507968,"current_range_meters":24000,"station_id":"ce4bhqh2rcd13ifvqhmg","pricing_plan_id":"free"},{"bike_id":"451e5711-912b-4e6f-ba92-14f20d0093e3","system_id":"levelo_inurba_marseille","lat":43.33612,"lon":5.410321,"is_reserved":false,"is_disabled":false,"rental_uris":{"android":"levelo://app?vid=451e5711-912b-4e6f-ba92-14f20d0093e3","ios":"levelo://app?vid=451e5711-912b-4e6f-ba92-14f20d0093e3"},"vehicle_type_id":"4","last_reported":1701507968,"current_range_meters":21200,"station_id":"ce4bhqh2rcd13ifvqhmg","pricing_plan_id":"free"},{"bike_id":"f6aae63c-1a78-45b5-858c-7885e945d550","system_id":"levelo_inurba_marseille","lat":43.276769,"lon":5.388787,"is_reserved":false,"is_disabled":false,"rental_uris":{"android":"levelo://app?vid=f6aae63c-1a78-45b5-858c-7885e945d550","ios":"levelo://app?vid=f6aae63c-1a78-45b5-858c-7885e945d550"},"vehicle_type_id":"4","last_reported":1701507968,"current_range_meters":24800,"station_id":"ce4bhi12rcd13ifvqfo0","pricing_plan_id":"free"},{"bike_id":"95195a09-f7b1-4b90-a5ee-61ba8befc5ba","system_id":"levelo_inurba_marseille","lat":43.273613,"lon":5.362705,"is_reserved":false,"is_disabled":false,"rental_uris":{"android":"levelo://app?vid=95195a09-f7b1-4b90-a5ee-61ba8befc5ba","ios":"levelo://app?vid=95195a09-f7b1-4b90-a5ee-61ba8befc5ba"},"vehicle_type_id":"4","last_reported":1701507968,"current_range_meters":11600,"station_id":"ce4bhbh2rcd13ifvqeo0","pricing_plan_id":"free"},{"bike_id":"0256d9f5-c275-485b-a67b-c6d8e2bee501","system_id":"levelo_inurba_marseille","lat":43.317121,"lon":5.423936,"is_reserved":false,"is_disabled":false,"rental_uris":{"android":"levelo://app?vid=0256d9f5-c275-485b-a67b-c6d8e2bee501","ios":"levelo://app?vid=0256d9f5-c275-485b-a67b-c6d8e2bee501"},"vehicle_type_id":"4","last_reported":1701507968,"current_range_meters":29200,"station_id":"ce4bhp92rcd13ifvqhbg","pricing_plan_id":"free"},{"bike_id":"4aa97cd1-6a39-4439-81f1-99ae1420ed06","system_id":"levelo_inurba_marseille","lat":43.310785,"lon":5.424305,"is_reserved":false,"is_disabled":false,"rental_uris":{"android":"levelo://app?vid=4aa97cd1-6a39-4439-81f1-99ae1420ed06","ios":"levelo://app?vid=4aa97cd1-6a39-4439-81f1-99ae1420ed06"},"vehicle_type_id":"4","last_reported":1701507968,"current_range_meters":28800,"station_id":"ce4bhp92rcd13ifvqhag","pricing_plan_id":"free"},{"bike_id":"894f6494-585b-4b1b-a39f-39b137cf17d0","system_id":"levelo_inurba_marseille","lat":43.310785,"lon":5.424305,"is_reserved":false,"is_disabled":false,"rental_uris":{"android":"levelo://app?vid=894f6494-585b-4b1b-a39f-39b137cf17d0","ios":"levelo://app?vid=894f6494-585b-4b1b-a39f-39b137cf17d0"},"vehicle_type_id":"4","last_reported":1701507968,"current_range_meters":10400,"station_id":"ce4bhp92rcd13ifvqhag","pricing_plan_id":"free"},{"bike_id":"ec8cda27-8133-4ca8-abd6-6a978c40f976","system_id":"levelo_inurba_marseille","lat":43.34141,"lon":5.40898,"is_reserved":false,"is_disabled":false,"rental_uris":{"android":"levelo://app?vid=ec8cda27-8133-4ca8-abd6-6a978c40f976","ios":"levelo://app?vid=ec8cda27-8133-4ca8-abd6-6a978c40f976"},"vehicle_type_id":"4","last_reported":1701507968,"current_range_meters":31200,"station_id":"ce4bhqh2rcd13ifvqhlg","pricing_plan_id":"free"},{"bike_id":"7729778a-d587-4a31-9e2a-fc6f9d799c22","system_id":"levelo_inurba_marseille","lat":43.340804,"lon":5.410219,"is_reserved":false,"is_disabled":false,"rental_uris":{"android":"levelo://app?vid=7729778a-d587-4a31-9e2a-fc6f9d799c22","ios":"levelo://app?vid=7729778a-d587-4a31-9e2a-fc6f9d799c22"},"vehicle_type_id":"4","last_reported":1701507968,"current_range_meters":30000,"station_id":"ce4bhqh2rcd13ifvqhlg","pricing_plan_id":"free"},{"bike_id":"ad02872c-8cb7-49d6-84c8-a2a206cd2787","system_id":"levelo_inurba_marseille","lat":43.273129,"lon":5.390725,"is_reserved":false,"is_disabled":false,"rental_uris":{"android":"levelo://app?vid=ad02872c-8cb7-49d6-84c8-a2a206cd2787","ios":"levelo://app?vid=ad02872c-8cb7-49d6-84c8-a2a206cd2787"},"vehicle_type_id":"4","last_reported":1701507968,"current_range_meters":5200,"station_id":"ce4bhgp2rcd13ifvqfe0","pricing_plan_id":"free"},{"bike_id":"c0c04cc4-a717-4722-a246-757fbde82c2e","system_id":"levelo_inurba_marseille","lat":43.273129,"lon":5.390725,"is_reserved":false,"is_disabled":false,"rental_uris":{"android":"levelo://app?vid=c0c04cc4-a717-4722-a246-757fbde82c2e","ios":"levelo://app?vid=c0c04cc4-a717-4722-a246-757fbde82c2e"},"vehicle_type_id":"4","last_reported":1701507968,"current_range_meters":28000,"station_id":"ce4bhgp2rcd13ifvqfe0","pricing_plan_id":"free"},{"bike_id":"a3527c32-1fa7-4ebe-9b65-a997c7b104de","system_id":"levelo_inurba_marseille","lat":43.30415,"lon":5.42538,"is_reserved":false,"is_disabled":false,"rental_uris":{"android":"levelo://app?vid=a3527c32-1fa7-4ebe-9b65-a997c7b104de","ios":"levelo://app?vid=a3527c32-1fa7-4ebe-9b65-a997c7b104de"},"vehicle_type_id":"4","last_reported":1701507968,"current_range_meters":15200,"station_id":"ce4bhoh2rcd13ifvqh6g","pricing_plan_id":"free"},{"bike_id":"7ed57e64-d5e4-414f-8eb1-b422e851258b","system_id":"levelo_inurba_marseille","lat":43.295523,"lon":5.422926,"is_reserved":false,"is_disabled":false,"rental_uris":{"android":"levelo://app?vid=7ed57e64-d5e4-414f-8eb1-b422e851258b","ios":"levelo://app?vid=7ed57e64-d5e4-414f-8eb1-b422e851258b"},"vehicle_type_id":"4","last_reported":1701507968,"current_range_meters":26000,"station_id":"ce4bhph2rcd13ifvqhdg","pricing_plan_id":"free"},{"bike_id":"6c4af35b-4eb6-487d-9998-7284bf4ee870","system_id":"levelo_inurba_marseille","lat":43.272116,"lon":5.391763,"is_reserved":false,"is_disabled":false,"rental_uris":{"android":"levelo://app?vid=6c4af35b-4eb6-487d-9998-7284bf4ee870","ios":"levelo://app?vid=6c4af35b-4eb6-487d-9998-7284bf4ee870"},"vehicle_type_id":"4","last_reported":1701507968,"current_range_meters":28400,"station_id":"ce4bhhp2rcd13ifvqfm0","pricing_plan_id":"free"},{"bike_id":"8595e7a1-0577-4743-b551-59079f587447","system_id":"levelo_inurba_marseille","lat":43.272116,"lon":5.391747,"is_reserved":false,"is_disabled":false,"rental_uris":{"android":"levelo://app?vid=8595e7a1-0577-4743-b551-59079f587447","ios":"levelo://app?vid=8595e7a1-0577-4743-b551-59079f587447"},"vehicle_type_id":"4","last_reported":1701507968,"current_range_meters":29600,"station_id":"ce4bhhp2rcd13ifvqfm0","pricing_plan_id":"free"},{"bike_id":"db13f07f-13f9-4127-9e9c-d4cf81f10461","system_id":"levelo_inurba_marseille","lat":43.272124,"lon":5.391768,"is_reserved":false,"is_disabled":false,"rental_uris":{"android":"levelo://app?vid=db13f07f-13f9-4127-9e9c-d4cf81f10461","ios":"levelo://app?vid=db13f07f-13f9-4127-9e9c-d4cf81f10461"},"vehicle_type_id":"4","last_reported":1701507968,"current_range_meters":27200,"station_id":"ce4bhhp2rcd13ifvqfm0","pricing_plan_id":"free"},{"bike_id":"59a182fc-2067-4418-9c31-0e6533f2930e","system_id":"levelo_inurba_marseille","lat":43.272116,"lon":5.391763,"is_reserved":false,"is_disabled":false,"rental_uris":{"android":"levelo://app?vid=59a182fc-2067-4418-9c31-0e6533f2930e","ios":"levelo://app?vid=59a182fc-2067-4418-9c31-0e6533f2930e"},"vehicle_type_id":"4","last_reported":1701507968,"current_range_meters":1200,"station_id":"ce4bhhp2rcd13ifvqfm0","pricing_plan_id":"free"},{"bike_id":"ad66177f-ee9b-4a1a-8539-11b1148aab7c","system_id":"levelo_inurba_marseille","lat":43.272118,"lon":5.391758,"is_reserved":false,"is_disabled":false,"rental_uris":{"android":"levelo://app?vid=ad66177f-ee9b-4a1a-8539-11b1148aab7c","ios":"levelo://app?vid=ad66177f-ee9b-4a1a-8539-11b1148aab7c"},"vehicle_type_id":"4","last_reported":1701507968,"current_range_meters":26400,"station_id":"ce4bhhp2rcd13ifvqfm0","pricing_plan_id":"free"},{"bike_id":"6f506726-5bca-4c85-a641-94fffd3a16f1","system_id":"levelo_inurba_marseille","lat":43.272124,"lon":5.391768,"is_reserved":false,"is_disabled":false,"rental_uris":{"android":"levelo://app?vid=6f506726-5bca-4c85-a641-94fffd3a16f1","ios":"levelo://app?vid=6f506726-5bca-4c85-a641-94fffd3a16f1"},"vehicle_type_id":"4","last_reported":1701507968,"current_range_meters":12000,"station_id":"ce4bhhp2rcd13ifvqfm0","pricing_plan_id":"free"},{"bike_id":"d53cf1bc-8c90-4a7c-a189-f2f1b4c40a36","system_id":"levelo_inurba_marseille","lat":43.272118,"lon":5.391758,"is_reserved":false,"is_disabled":false,"rental_uris":{"android":"levelo://app?vid=d53cf1bc-8c90-4a7c-a189-f2f1b4c40a36","ios":"levelo://app?vid=d53cf1bc-8c90-4a7c-a189-f2f1b4c40a36"},"vehicle_type_id":"4","last_reported":1701507968,"current_range_meters":24000,"station_id":"ce4bhhp2rcd13ifvqfm0","pricing_plan_id":"free"},{"bike_id":"d783046e-c430-4080-a3fa-5cedff0852f8","system_id":"levelo_inurba_marseille","lat":43.278128,"lon":5.407195,"is_reserved":false,"is_disabled":false,"rental_uris":{"android":"levelo://app?vid=d783046e-c430-4080-a3fa-5cedff0852f8","ios":"levelo://app?vid=d783046e-c430-4080-a3fa-5cedff0852f8"},"vehicle_type_id":"4","last_reported":1701507968,"current_range_meters":31200,"station_id":"ce4bhnh2rcd13ifvqgtg","pricing_plan_id":"free"},{"bike_id":"8f1e9276-e925-46eb-98ea-bf6d3c957ca3","system_id":"levelo_inurba_marseille","lat":43.269467,"lon":5.386439,"is_reserved":false,"is_disabled":false,"rental_uris":{"android":"levelo://app?vid=8f1e9276-e925-46eb-98ea-bf6d3c957ca3","ios":"levelo://app?vid=8f1e9276-e925-46eb-98ea-bf6d3c957ca3"},"vehicle_type_id":"4","last_reported":1701507968,"current_range_meters":25600,"station_id":"ce4bhh92rcd13ifvqfh0","pricing_plan_id":"free"},{"bike_id":"5bf020ad-6595-41e6-bd36-29a3f420324d","system_id":"levelo_inurba_marseille","lat":43.279387,"lon":5.410408,"is_reserved":false,"is_disabled":false,"rental_uris":{"android":"levelo://app?vid=5bf020ad-6595-41e6-bd36-29a3f420324d","ios":"levelo://app?vid=5bf020ad-6595-41e6-bd36-29a3f420324d"},"vehicle_type_id":"4","last_reported":1701507968,"current_range_meters":31200,"station_id":"ce4bhnp2rcd13ifvqh0g","pricing_plan_id":"free"},{"bike_id":"180df309-c06c-4fb9-81a5-e60d64dcd238","system_id":"levelo_inurba_marseille","lat":43.279465,"lon":5.410561,"is_reserved":false,"is_disabled":false,"rental_uris":{"android":"levelo://app?vid=180df309-c06c-4fb9-81a5-e60d64dcd238","ios":"levelo://app?vid=180df309-c06c-4fb9-81a5-e60d64dcd238"},"vehicle_type_id":"4","last_reported":1701507968,"current_range_meters":21200,"station_id":"ce4bhnp2rcd13ifvqh0g","pricing_plan_id":"free"},{"bike_id":"43088efb-217b-4e64-8c5d-be3c1718bfaf","system_id":"levelo_inurba_marseille","lat":43.269319,"lon":5.389397,"is_reserved":false,"is_disabled":false,"rental_uris":{"android":"levelo://app?vid=43088efb-217b-4e64-8c5d-be3c1718bfaf","ios":"levelo://app?vid=43088efb-217b-4e64-8c5d-be3c1718bfaf"},"vehicle_type_id":"4","last_reported":1701507968,"current_range_meters":28800,"station_id":"ce4bhhh2rcd13ifvqfl0","pricing_plan_id":"free"},{"bike_id":"198b0497-264e-488f-8b7a-b64a16e04083","system_id":"levelo_inurba_marseille","lat":43.269319,"lon":5.389397,"is_reserved":false,"is_disabled":false,"rental_uris":{"android":"levelo://app?vid=198b0497-264e-488f-8b7a-b64a16e04083","ios":"levelo://app?vid=198b0497-264e-488f-8b7a-b64a16e04083"},"vehicle_type_id":"4","last_reported":1701507968,"current_range_meters":30000,"station_id":"ce4bhhh2rcd13ifvqfl0","pricing_plan_id":"free"},{"bike_id":"406f5a08-0534-41ff-985d-f1db6075c287","system_id":"levelo_inurba_marseille","lat":43.26555,"lon":5.37287,"is_reserved":false,"is_disabled":false,"rental_uris":{"android":"levelo://app?vid=406f5a08-0534-41ff-985d-f1db6075c287","ios":"levelo://app?vid=406f5a08-0534-41ff-985d-f1db6075c287"},"vehicle_type_id":"4","last_reported":1701507968,"current_range_meters":4800,"station_id":"ce4bhg12rcd13ifvqf70","pricing_plan_id":"free"},{"bike_id":"8a5a972f-0927-4808-b102-cafd69087f2d","system_id":"levelo_inurba_marseille","lat":43.27986,"lon":5.41666,"is_reserved":false,"is_disabled":false,"rental_uris":{"android":"levelo://app?vid=8a5a972f-0927-4808-b102-cafd69087f2d","ios":"levelo://app?vid=8a5a972f-0927-4808-b102-cafd69087f2d"},"vehicle_type_id":"4","last_reported":1701507968,"current_range_meters":12400,"station_id":"ce4bho12rcd13ifvqh1g","pricing_plan_id":"free"},{"bike_id":"18adcb81-7855-4acd-af0c-def611567ce2","system_id":"levelo_inurba_marseille","lat":43.308051,"lon":5.43527,"is_reserved":false,"is_disabled":false,"rental_uris":{"android":"levelo://app?vid=18adcb81-7855-4acd-af0c-def611567ce2","ios":"levelo://app?vid=18adcb81-7855-4acd-af0c-def611567ce2"},"vehicle_type_id":"4","last_reported":1701507968,"current_range_meters":30400,"station_id":"ce4bhph2rcd13ifvqheg","pricing_plan_id":"free"},{"bike_id":"55b33a5c-1177-4dd9-b3a0-e993463bd4e2","system_id":"levelo_inurba_marseille","lat":43.308051,"lon":5.43527,"is_reserved":false,"is_disabled":false,"rental_uris":{"android":"levelo://app?vid=55b33a5c-1177-4dd9-b3a0-e993463bd4e2","ios":"levelo://app?vid=55b33a5c-1177-4dd9-b3a0-e993463bd4e2"},"vehicle_type_id":"4","last_reported":1701507968,"current_range_meters":31200,"station_id":"ce4bhph2rcd13ifvqheg","pricing_plan_id":"free"},{"bike_id":"3566be00-75b6-403d-b6df-62c4cf4d0f7c","system_id":"levelo_inurba_marseille","lat":43.26949,"lon":5.40262,"is_reserved":false,"is_disabled":false,"rental_uris":{"android":"levelo://app?vid=3566be00-75b6-403d-b6df-62c4cf4d0f7c","ios":"levelo://app?vid=3566be00-75b6-403d-b6df-62c4cf4d0f7c"},"vehicle_type_id":"4","last_reported":1701507968,"current_range_meters":25600,"station_id":"cjm6bp8fraef2m0cb0m0","pricing_plan_id":"free"},{"bike_id":"ccf841c2-3d99-4afd-bef8-1b0155d9ff32","system_id":"levelo_inurba_marseille","lat":43.261782,"lon":5.374515,"is_reserved":false,"is_disabled":false,"rental_uris":{"android":"levelo://app?vid=ccf841c2-3d99-4afd-bef8-1b0155d9ff32","ios":"levelo://app?vid=ccf841c2-3d99-4afd-bef8-1b0155d9ff32"},"vehicle_type_id":"4","last_reported":1701507968,"current_range_meters":22400,"station_id":"ce4bhgp2rcd13ifvqfc0","pricing_plan_id":"free"},{"bike_id":"8b48c445-ed85-4c42-b8d4-c8cf47b5ce76","system_id":"levelo_inurba_marseille","lat":43.261782,"lon":5.374515,"is_reserved":false,"is_disabled":false,"rental_uris":{"android":"levelo://app?vid=8b48c445-ed85-4c42-b8d4-c8cf47b5ce76","ios":"levelo://app?vid=8b48c445-ed85-4c42-b8d4-c8cf47b5ce76"},"vehicle_type_id":"4","last_reported":1701507968,"current_range_meters":31200,"station_id":"ce4bhgp2rcd13ifvqfc0","pricing_plan_id":"free"},{"bike_id":"d1abb8d9-8bc1-4925-97a8-53168b877965","system_id":"levelo_inurba_marseille","lat":43.261782,"lon":5.374515,"is_reserved":false,"is_disabled":false,"rental_uris":{"android":"levelo://app?vid=d1abb8d9-8bc1-4925-97a8-53168b877965","ios":"levelo://app?vid=d1abb8d9-8bc1-4925-97a8-53168b877965"},"vehicle_type_id":"4","last_reported":1701507968,"current_range_meters":29200,"station_id":"ce4bhgp2rcd13ifvqfc0","pricing_plan_id":"free"},{"bike_id":"68a05b6f-7066-41f1-9bbc-21fcc92d1742","system_id":"levelo_inurba_marseille","lat":43.261782,"lon":5.374515,"is_reserved":false,"is_disabled":false,"rental_uris":{"android":"levelo://app?vid=68a05b6f-7066-41f1-9bbc-21fcc92d1742","ios":"levelo://app?vid=68a05b6f-7066-41f1-9bbc-21fcc92d1742"},"vehicle_type_id":"4","last_reported":1701507968,"current_range_meters":22800,"station_id":"ce4bhgp2rcd13ifvqfc0","pricing_plan_id":"free"},{"bike_id":"d1930883-b590-499a-acab-d344087715c7","system_id":"levelo_inurba_marseille","lat":43.261782,"lon":5.374515,"is_reserved":false,"is_disabled":false,"rental_uris":{"android":"levelo://app?vid=d1930883-b590-499a-acab-d344087715c7","ios":"levelo://app?vid=d1930883-b590-499a-acab-d344087715c7"},"vehicle_type_id":"4","last_reported":1701507968,"current_range_meters":21200,"station_id":"ce4bhgp2rcd13ifvqfc0","pricing_plan_id":"free"},{"bike_id":"cf20c175-6988-4473-8c7d-b67449351266","system_id":"levelo_inurba_marseille","lat":43.317104,"lon":5.436818,"is_reserved":false,"is_disabled":false,"rental_uris":{"android":"levelo://app?vid=cf20c175-6988-4473-8c7d-b67449351266","ios":"levelo://app?vid=cf20c175-6988-4473-8c7d-b67449351266"},"vehicle_type_id":"4","last_reported":1701507968,"current_range_meters":30400,"station_id":"ce4bhp92rcd13ifvqhcg","pricing_plan_id":"free"},{"bike_id":"c71160fc-c7b7-4c0b-8b7c-da5014dcb825","system_id":"levelo_inurba_marseille","lat":43.317104,"lon":5.436818,"is_reserved":false,"is_disabled":false,"rental_uris":{"android":"levelo://app?vid=c71160fc-c7b7-4c0b-8b7c-da5014dcb825","ios":"levelo://app?vid=c71160fc-c7b7-4c0b-8b7c-da5014dcb825"},"vehicle_type_id":"4","last_reported":1701507968,"current_range_meters":30800,"station_id":"ce4bhp92rcd13ifvqhcg","pricing_plan_id":"free"},{"bike_id":"40d6555c-e521-4435-af50-938332f22f22","system_id":"levelo_inurba_marseille","lat":43.31704,"lon":5.43712,"is_reserved":false,"is_disabled":false,"rental_uris":{"android":"levelo://app?vid=40d6555c-e521-4435-af50-938332f22f22","ios":"levelo://app?vid=40d6555c-e521-4435-af50-938332f22f22"},"vehicle_type_id":"4","last_reported":1701507968,"current_range_meters":14400,"station_id":"ce4bhp92rcd13ifvqhcg","pricing_plan_id":"free"},{"bike_id":"f9cac9a5-67a1-4158-a2a6-203ab176f26c","system_id":"levelo_inurba_marseille","lat":43.27183,"lon":5.40989,"is_reserved":false,"is_disabled":false,"rental_uris":{"android":"levelo://app?vid=f9cac9a5-67a1-4158-a2a6-203ab176f26c","ios":"levelo://app?vid=f9cac9a5-67a1-4158-a2a6-203ab176f26c"},"vehicle_type_id":"4","last_reported":1701507968,"current_range_meters":31200,"station_id":"ce4bhl12rcd13ifvqgf0","pricing_plan_id":"free"},{"bike_id":"e023fcae-9e32-401b-a85c-78f48248b0bc","system_id":"levelo_inurba_marseille","lat":43.271368,"lon":5.40928,"is_reserved":false,"is_disabled":false,"rental_uris":{"android":"levelo://app?vid=e023fcae-9e32-401b-a85c-78f48248b0bc","ios":"levelo://app?vid=e023fcae-9e32-401b-a85c-78f48248b0bc"},"vehicle_type_id":"4","last_reported":1701507968,"current_range_meters":31600,"station_id":"ce4bhl12rcd13ifvqgf0","pricing_plan_id":"free"},{"bike_id":"2ba9db67-bc08-4181-91bc-5b87bbc9227d","system_id":"levelo_inurba_marseille","lat":43.26202,"lon":5.379299,"is_reserved":false,"is_disabled":false,"rental_uris":{"android":"levelo://app?vid=2ba9db67-bc08-4181-91bc-5b87bbc9227d","ios":"levelo://app?vid=2ba9db67-bc08-4181-91bc-5b87bbc9227d"},"vehicle_type_id":"4","last_reported":1701507968,"current_range_meters":29600,"station_id":"ce4bhjp2rcd13ifvqg90","pricing_plan_id":"free"},{"bike_id":"62f6648c-6f6e-407f-b8b6-e2d8c5cf7299","system_id":"levelo_inurba_marseille","lat":43.271368,"lon":5.40928,"is_reserved":false,"is_disabled":false,"rental_uris":{"android":"levelo://app?vid=62f6648c-6f6e-407f-b8b6-e2d8c5cf7299","ios":"levelo://app?vid=62f6648c-6f6e-407f-b8b6-e2d8c5cf7299"},"vehicle_type_id":"4","last_reported":1701507968,"current_range_meters":17200,"station_id":"ce4bhl12rcd13ifvqgf0","pricing_plan_id":"free"},{"bike_id":"be554e14-baf6-4d39-bbf3-064c681b17e0","system_id":"levelo_inurba_marseille","lat":43.267959,"lon":5.402687,"is_reserved":false,"is_disabled":false,"rental_uris":{"android":"levelo://app?vid=be554e14-baf6-4d39-bbf3-064c681b17e0","ios":"levelo://app?vid=be554e14-baf6-4d39-bbf3-064c681b17e0"},"vehicle_type_id":"4","last_reported":1701507968,"current_range_meters":28400,"station_id":"ce501612rcd8frsf0b60","pricing_plan_id":"free"},{"bike_id":"a265f57d-2203-4406-8278-bc194922c399","system_id":"levelo_inurba_marseille","lat":43.28155,"lon":5.42636,"is_reserved":false,"is_disabled":false,"rental_uris":{"android":"levelo://app?vid=a265f57d-2203-4406-8278-bc194922c399","ios":"levelo://app?vid=a265f57d-2203-4406-8278-bc194922c399"},"vehicle_type_id":"4","last_reported":1701507968,"current_range_meters":28800,"station_id":"ce4bhnh2rcd13ifvqgug","pricing_plan_id":"free"},{"bike_id":"b802834e-51f4-41a4-96cb-c31681473515","system_id":"levelo_inurba_marseille","lat":43.281511,"lon":5.42645,"is_reserved":false,"is_disabled":false,"rental_uris":{"android":"levelo://app?vid=b802834e-51f4-41a4-96cb-c31681473515","ios":"levelo://app?vid=b802834e-51f4-41a4-96cb-c31681473515"},"vehicle_type_id":"4","last_reported":1701507968,"current_range_meters":30000,"station_id":"ce4bhnh2rcd13ifvqgug","pricing_plan_id":"free"},{"bike_id":"3de40b48-7293-4590-b1e4-a9c54e991d0a","system_id":"levelo_inurba_marseille","lat":43.28154,"lon":5.42648,"is_reserved":false,"is_disabled":false,"rental_uris":{"android":"levelo://app?vid=3de40b48-7293-4590-b1e4-a9c54e991d0a","ios":"levelo://app?vid=3de40b48-7293-4590-b1e4-a9c54e991d0a"},"vehicle_type_id":"4","last_reported":1701507968,"current_range_meters":15600,"station_id":"ce4bhnh2rcd13ifvqgug","pricing_plan_id":"free"},{"bike_id":"3532a786-7312-4db1-88be-2e5e8a274941","system_id":"levelo_inurba_marseille","lat":43.281549,"lon":5.426528,"is_reserved":false,"is_disabled":false,"rental_uris":{"android":"levelo://app?vid=3532a786-7312-4db1-88be-2e5e8a274941","ios":"levelo://app?vid=3532a786-7312-4db1-88be-2e5e8a274941"},"vehicle_type_id":"4","last_reported":1701507968,"current_range_meters":24400,"station_id":"ce4bhnh2rcd13ifvqgug","pricing_plan_id":"free"},{"bike_id":"d3df04f1-aa36-401c-b9f0-16ea3bba87de","system_id":"levelo_inurba_marseille","lat":43.28155,"lon":5.42653,"is_reserved":false,"is_disabled":false,"rental_uris":{"android":"levelo://app?vid=d3df04f1-aa36-401c-b9f0-16ea3bba87de","ios":"levelo://app?vid=d3df04f1-aa36-401c-b9f0-16ea3bba87de"},"vehicle_type_id":"4","last_reported":1701507968,"current_range_meters":14000,"station_id":"ce4bhnh2rcd13ifvqgug","pricing_plan_id":"free"},{"bike_id":"81f4f34a-8d36-4c09-961e-e42c57ef3483","system_id":"levelo_inurba_marseille","lat":43.28148,"lon":5.42649,"is_reserved":false,"is_disabled":false,"rental_uris":{"android":"levelo://app?vid=81f4f34a-8d36-4c09-961e-e42c57ef3483","ios":"levelo://app?vid=81f4f34a-8d36-4c09-961e-e42c57ef3483"},"vehicle_type_id":"4","last_reported":1701507968,"current_range_meters":400,"station_id":"ce4bhnh2rcd13ifvqgug","pricing_plan_id":"free"},{"bike_id":"7cc9499f-917c-4e58-9b7d-14ec101a41f1","system_id":"levelo_inurba_marseille","lat":43.2607,"lon":5.393983,"is_reserved":false,"is_disabled":false,"rental_uris":{"android":"levelo://app?vid=7cc9499f-917c-4e58-9b7d-14ec101a41f1","ios":"levelo://app?vid=7cc9499f-917c-4e58-9b7d-14ec101a41f1"},"vehicle_type_id":"4","last_reported":1701507968,"current_range_meters":24000,"station_id":"ce4bhh92rcd13ifvqfj0","pricing_plan_id":"free"},{"bike_id":"871d36fc-f73b-4a94-9cea-c66cb1c15fd1","system_id":"levelo_inurba_marseille","lat":43.2607,"lon":5.393983,"is_reserved":false,"is_disabled":false,"rental_uris":{"android":"levelo://app?vid=871d36fc-f73b-4a94-9cea-c66cb1c15fd1","ios":"levelo://app?vid=871d36fc-f73b-4a94-9cea-c66cb1c15fd1"},"vehicle_type_id":"4","last_reported":1701507968,"current_range_meters":20000,"station_id":"ce4bhh92rcd13ifvqfj0","pricing_plan_id":"free"},{"bike_id":"a11d4f74-80a0-4f6c-a0a0-23c43cd9392b","system_id":"levelo_inurba_marseille","lat":43.275028,"lon":5.424534,"is_reserved":false,"is_disabled":false,"rental_uris":{"android":"levelo://app?vid=a11d4f74-80a0-4f6c-a0a0-23c43cd9392b","ios":"levelo://app?vid=a11d4f74-80a0-4f6c-a0a0-23c43cd9392b"},"vehicle_type_id":"4","last_reported":1701507968,"current_range_meters":19600,"station_id":"ce4bhn92rcd13ifvqgrg","pricing_plan_id":"free"},{"bike_id":"710b3daf-bf5f-41e4-82c6-d8fd52027520","system_id":"levelo_inurba_marseille","lat":43.275028,"lon":5.424534,"is_reserved":false,"is_disabled":false,"rental_uris":{"android":"levelo://app?vid=710b3daf-bf5f-41e4-82c6-d8fd52027520","ios":"levelo://app?vid=710b3daf-bf5f-41e4-82c6-d8fd52027520"},"vehicle_type_id":"4","last_reported":1701507968,"current_range_meters":24800,"station_id":"ce4bhn92rcd13ifvqgrg","pricing_plan_id":"free"},{"bike_id":"5465ab4d-f99f-48b0-9201-2349ea9fec71","system_id":"levelo_inurba_marseille","lat":43.275028,"lon":5.424534,"is_reserved":false,"is_disabled":false,"rental_uris":{"android":"levelo://app?vid=5465ab4d-f99f-48b0-9201-2349ea9fec71","ios":"levelo://app?vid=5465ab4d-f99f-48b0-9201-2349ea9fec71"},"vehicle_type_id":"4","last_reported":1701507968,"current_range_meters":18800,"station_id":"ce4bhn92rcd13ifvqgrg","pricing_plan_id":"free"},{"bike_id":"722f553f-699e-469b-be0e-77b6de97bebc","system_id":"levelo_inurba_marseille","lat":43.275028,"lon":5.424534,"is_reserved":false,"is_disabled":false,"rental_uris":{"android":"levelo://app?vid=722f553f-699e-469b-be0e-77b6de97bebc","ios":"levelo://app?vid=722f553f-699e-469b-be0e-77b6de97bebc"},"vehicle_type_id":"4","last_reported":1701507968,"current_range_meters":2400,"station_id":"ce4bhn92rcd13ifvqgrg","pricing_plan_id":"free"},{"bike_id":"994caf70-8e1f-40de-af4c-a7ce43a6b2d4","system_id":"levelo_inurba_marseille","lat":43.275028,"lon":5.424534,"is_reserved":false,"is_disabled":false,"rental_uris":{"android":"levelo://app?vid=994caf70-8e1f-40de-af4c-a7ce43a6b2d4","ios":"levelo://app?vid=994caf70-8e1f-40de-af4c-a7ce43a6b2d4"},"vehicle_type_id":"4","last_reported":1701507968,"current_range_meters":31600,"station_id":"ce4bhn92rcd13ifvqgrg","pricing_plan_id":"free"},{"bike_id":"bca0fa38-5660-402d-8eb6-c035f953ba94","system_id":"levelo_inurba_marseille","lat":43.2608,"lon":5.39768,"is_reserved":false,"is_disabled":false,"rental_uris":{"android":"levelo://app?vid=bca0fa38-5660-402d-8eb6-c035f953ba94","ios":"levelo://app?vid=bca0fa38-5660-402d-8eb6-c035f953ba94"},"vehicle_type_id":"4","last_reported":1701507968,"current_range_meters":12000,"station_id":"","pricing_plan_id":"free"},{"bike_id":"bcbaa63e-900e-4166-8d83-d6f28426bdc8","system_id":"levelo_inurba_marseille","lat":43.25577,"lon":5.38232,"is_reserved":false,"is_disabled":false,"rental_uris":{"android":"levelo://app?vid=bcbaa63e-900e-4166-8d83-d6f28426bdc8","ios":"levelo://app?vid=bcbaa63e-900e-4166-8d83-d6f28426bdc8"},"vehicle_type_id":"4","last_reported":1701507968,"current_range_meters":19200,"station_id":"ce4bhih2rcd13ifvqfs0","pricing_plan_id":"free"},{"bike_id":"ff9ba92e-f8fb-4a62-b39c-7d6deea29a74","system_id":"levelo_inurba_marseille","lat":43.25574,"lon":5.38234,"is_reserved":false,"is_disabled":false,"rental_uris":{"android":"levelo://app?vid=ff9ba92e-f8fb-4a62-b39c-7d6deea29a74","ios":"levelo://app?vid=ff9ba92e-f8fb-4a62-b39c-7d6deea29a74"},"vehicle_type_id":"4","last_reported":1701507968,"current_range_meters":7600,"station_id":"ce4bhih2rcd13ifvqfs0","pricing_plan_id":"free"},{"bike_id":"5f957d95-e4f6-4778-bd7f-a7990ab59efd","system_id":"levelo_inurba_marseille","lat":43.254947,"lon":5.376454,"is_reserved":false,"is_disabled":false,"rental_uris":{"android":"levelo://app?vid=5f957d95-e4f6-4778-bd7f-a7990ab59efd","ios":"levelo://app?vid=5f957d95-e4f6-4778-bd7f-a7990ab59efd"},"vehicle_type_id":"4","last_reported":1701507968,"current_range_meters":31200,"station_id":"ce4bhh12rcd13ifvqff0","pricing_plan_id":"free"},{"bike_id":"12312d76-b3d1-4c51-91c3-2f6a3a7bf61e","system_id":"levelo_inurba_marseille","lat":43.254947,"lon":5.376454,"is_reserved":false,"is_disabled":false,"rental_uris":{"android":"levelo://app?vid=12312d76-b3d1-4c51-91c3-2f6a3a7bf61e","ios":"levelo://app?vid=12312d76-b3d1-4c51-91c3-2f6a3a7bf61e"},"vehicle_type_id":"4","last_reported":1701507968,"current_range_meters":20800,"station_id":"ce4bhh12rcd13ifvqff0","pricing_plan_id":"free"},{"bike_id":"86c1bbfb-43d0-485a-8564-32eb4d98fae5","system_id":"levelo_inurba_marseille","lat":43.254947,"lon":5.376454,"is_reserved":false,"is_disabled":false,"rental_uris":{"android":"levelo://app?vid=86c1bbfb-43d0-485a-8564-32eb4d98fae5","ios":"levelo://app?vid=86c1bbfb-43d0-485a-8564-32eb4d98fae5"},"vehicle_type_id":"4","last_reported":1701507968,"current_range_meters":25200,"station_id":"ce4bhh12rcd13ifvqff0","pricing_plan_id":"free"},{"bike_id":"6b55de0b-bf22-4d3b-bb7b-9bfacee3cb65","system_id":"levelo_inurba_marseille","lat":43.270721,"lon":5.422764,"is_reserved":false,"is_disabled":false,"rental_uris":{"android":"levelo://app?vid=6b55de0b-bf22-4d3b-bb7b-9bfacee3cb65","ios":"levelo://app?vid=6b55de0b-bf22-4d3b-bb7b-9bfacee3cb65"},"vehicle_type_id":"4","last_reported":1701507968,"current_range_meters":31200,"station_id":"ce4bhk92rcd13ifvqgb0","pricing_plan_id":"free"},{"bike_id":"292a6f9a-7610-4701-bedc-5c382c13353c","system_id":"levelo_inurba_marseille","lat":43.27067,"lon":5.42272,"is_reserved":false,"is_disabled":false,"rental_uris":{"android":"levelo://app?vid=292a6f9a-7610-4701-bedc-5c382c13353c","ios":"levelo://app?vid=292a6f9a-7610-4701-bedc-5c382c13353c"},"vehicle_type_id":"4","last_reported":1701507968,"current_range_meters":18000,"station_id":"ce4bhk92rcd13ifvqgb0","pricing_plan_id":"free"},{"bike_id":"56de3f0e-b18c-485a-8c58-e4c4956ba711","system_id":"levelo_inurba_marseille","lat":43.270721,"lon":5.422764,"is_reserved":false,"is_disabled":false,"rental_uris":{"android":"levelo://app?vid=56de3f0e-b18c-485a-8c58-e4c4956ba711","ios":"levelo://app?vid=56de3f0e-b18c-485a-8c58-e4c4956ba711"},"vehicle_type_id":"4","last_reported":1701507968,"current_range_meters":31200,"station_id":"ce4bhk92rcd13ifvqgb0","pricing_plan_id":"free"},{"bike_id":"13d41cfa-759c-4a72-a18b-0525b390fe5c","system_id":"levelo_inurba_marseille","lat":43.270721,"lon":5.422764,"is_reserved":false,"is_disabled":false,"rental_uris":{"android":"levelo://app?vid=13d41cfa-759c-4a72-a18b-0525b390fe5c","ios":"levelo://app?vid=13d41cfa-759c-4a72-a18b-0525b390fe5c"},"vehicle_type_id":"4","last_reported":1701507968,"current_range_meters":31200,"station_id":"ce4bhk92rcd13ifvqgb0","pricing_plan_id":"free"},{"bike_id":"e9983c04-8ba2-4199-91ff-f23b5efe00a0","system_id":"levelo_inurba_marseille","lat":43.258658,"lon":5.398935,"is_reserved":false,"is_disabled":false,"rental_uris":{"android":"levelo://app?vid=e9983c04-8ba2-4199-91ff-f23b5efe00a0","ios":"levelo://app?vid=e9983c04-8ba2-4199-91ff-f23b5efe00a0"},"vehicle_type_id":"4","last_reported":1701507968,"current_range_meters":28800,"station_id":"ce4bhl92rcd13ifvqghg","pricing_plan_id":"free"},{"bike_id":"acce3b6b-c95f-46c6-b4b6-edf03f7be051","system_id":"levelo_inurba_marseille","lat":43.258658,"lon":5.398935,"is_reserved":false,"is_disabled":false,"rental_uris":{"android":"levelo://app?vid=acce3b6b-c95f-46c6-b4b6-edf03f7be051","ios":"levelo://app?vid=acce3b6b-c95f-46c6-b4b6-edf03f7be051"},"vehicle_type_id":"4","last_reported":1701507968,"current_range_meters":31600,"station_id":"ce4bhl92rcd13ifvqghg","pricing_plan_id":"free"},{"bike_id":"68fbda5d-5144-450e-a41d-17c7fc221bd0","system_id":"levelo_inurba_marseille","lat":43.258658,"lon":5.398935,"is_reserved":false,"is_disabled":false,"rental_uris":{"android":"levelo://app?vid=68fbda5d-5144-450e-a41d-17c7fc221bd0","ios":"levelo://app?vid=68fbda5d-5144-450e-a41d-17c7fc221bd0"},"vehicle_type_id":"4","last_reported":1701507968,"current_range_meters":30800,"station_id":"ce4bhl92rcd13ifvqghg","pricing_plan_id":"free"},{"bike_id":"d66c0fdb-df4a-47e6-92d7-19705d3322ce","system_id":"levelo_inurba_marseille","lat":43.258658,"lon":5.398935,"is_reserved":false,"is_disabled":false,"rental_uris":{"android":"levelo://app?vid=d66c0fdb-df4a-47e6-92d7-19705d3322ce","ios":"levelo://app?vid=d66c0fdb-df4a-47e6-92d7-19705d3322ce"},"vehicle_type_id":"4","last_reported":1701507968,"current_range_meters":30800,"station_id":"ce4bhl92rcd13ifvqghg","pricing_plan_id":"free"},{"bike_id":"99ee76bf-253b-45b6-98c6-870f3c2c3282","system_id":"levelo_inurba_marseille","lat":43.257079,"lon":5.411051,"is_reserved":false,"is_disabled":false,"rental_uris":{"android":"levelo://app?vid=99ee76bf-253b-45b6-98c6-870f3c2c3282","ios":"levelo://app?vid=99ee76bf-253b-45b6-98c6-870f3c2c3282"},"vehicle_type_id":"4","last_reported":1701507968,"current_range_meters":24800,"station_id":"ce4bhkp2rcd13ifvqgd0","pricing_plan_id":"free"},{"bike_id":"4ac6d9fe-c346-4df3-8dff-a415974401dd","system_id":"levelo_inurba_marseille","lat":43.2479,"lon":5.374457,"is_reserved":false,"is_disabled":false,"rental_uris":{"android":"levelo://app?vid=4ac6d9fe-c346-4df3-8dff-a415974401dd","ios":"levelo://app?vid=4ac6d9fe-c346-4df3-8dff-a415974401dd"},"vehicle_type_id":"4","last_reported":1701507968,"current_range_meters":28400,"station_id":"ce4bhgh2rcd13ifvqfb0","pricing_plan_id":"free"},{"bike_id":"299a91cc-575e-4138-bd9a-ea3370e1ebf7","system_id":"levelo_inurba_marseille","lat":43.250966,"lon":5.395186,"is_reserved":false,"is_disabled":false,"rental_uris":{"android":"levelo://app?vid=299a91cc-575e-4138-bd9a-ea3370e1ebf7","ios":"levelo://app?vid=299a91cc-575e-4138-bd9a-ea3370e1ebf7"},"vehicle_type_id":"4","last_reported":1701507968,"current_range_meters":19600,"station_id":"ce4bhm12rcd13ifvqgkg","pricing_plan_id":"free"},{"bike_id":"ecd44699-276b-409e-87eb-8d1cbf3d99f2","system_id":"levelo_inurba_marseille","lat":43.24659,"lon":5.38162,"is_reserved":false,"is_disabled":false,"rental_uris":{"android":"levelo://app?vid=ecd44699-276b-409e-87eb-8d1cbf3d99f2","ios":"levelo://app?vid=ecd44699-276b-409e-87eb-8d1cbf3d99f2"},"vehicle_type_id":"4","last_reported":1701507968,"current_range_meters":15600,"station_id":"ce4bhih2rcd13ifvqfr0","pricing_plan_id":"free"},{"bike_id":"9c3c2aff-34e2-4935-8c89-34b60a0fa8f2","system_id":"levelo_inurba_marseille","lat":43.25102,"lon":5.403214,"is_reserved":false,"is_disabled":false,"rental_uris":{"android":"levelo://app?vid=9c3c2aff-34e2-4935-8c89-34b60a0fa8f2","ios":"levelo://app?vid=9c3c2aff-34e2-4935-8c89-34b60a0fa8f2"},"vehicle_type_id":"4","last_reported":1701507968,"current_range_meters":27200,"station_id":"ce4bhlh2rcd13ifvqgig","pricing_plan_id":"free"},{"bike_id":"95e593f5-5177-489b-821c-e4e1ea8ae353","system_id":"levelo_inurba_marseille","lat":43.24392,"lon":5.37073,"is_reserved":false,"is_disabled":false,"rental_uris":{"android":"levelo://app?vid=95e593f5-5177-489b-821c-e4e1ea8ae353","ios":"levelo://app?vid=95e593f5-5177-489b-821c-e4e1ea8ae353"},"vehicle_type_id":"4","last_reported":1701507968,"current_range_meters":17600,"station_id":"ce4bhhh2rcd13ifvqfk0","pricing_plan_id":"free"},{"bike_id":"5154980c-980b-4903-b93f-c9a9da401da6","system_id":"levelo_inurba_marseille","lat":43.243884,"lon":5.370737,"is_reserved":false,"is_disabled":false,"rental_uris":{"android":"levelo://app?vid=5154980c-980b-4903-b93f-c9a9da401da6","ios":"levelo://app?vid=5154980c-980b-4903-b93f-c9a9da401da6"},"vehicle_type_id":"4","last_reported":1701507968,"current_range_meters":13200,"station_id":"ce4bhhh2rcd13ifvqfk0","pricing_plan_id":"free"},{"bike_id":"0c00f1f7-91b0-4c50-948b-6ce70c0f8465","system_id":"levelo_inurba_marseille","lat":43.243884,"lon":5.370736,"is_reserved":false,"is_disabled":false,"rental_uris":{"android":"levelo://app?vid=0c00f1f7-91b0-4c50-948b-6ce70c0f8465","ios":"levelo://app?vid=0c00f1f7-91b0-4c50-948b-6ce70c0f8465"},"vehicle_type_id":"4","last_reported":1701507968,"current_range_meters":27600,"station_id":"ce4bhhh2rcd13ifvqfk0","pricing_plan_id":"free"},{"bike_id":"270a09c5-ec76-4940-aaa6-fb1bb475614a","system_id":"levelo_inurba_marseille","lat":43.245581,"lon":5.395069,"is_reserved":false,"is_disabled":false,"rental_uris":{"android":"levelo://app?vid=270a09c5-ec76-4940-aaa6-fb1bb475614a","ios":"levelo://app?vid=270a09c5-ec76-4940-aaa6-fb1bb475614a"},"vehicle_type_id":"4","last_reported":1701507968,"current_range_meters":31200,"station_id":"ce4bhlp2rcd13ifvqgjg","pricing_plan_id":"free"},{"bike_id":"ce3539e6-0a8a-466e-93ab-dcbaadf21596","system_id":"levelo_inurba_marseille","lat":43.245581,"lon":5.395069,"is_reserved":false,"is_disabled":false,"rental_uris":{"android":"levelo://app?vid=ce3539e6-0a8a-466e-93ab-dcbaadf21596","ios":"levelo://app?vid=ce3539e6-0a8a-466e-93ab-dcbaadf21596"},"vehicle_type_id":"4","last_reported":1701507968,"current_range_meters":31200,"station_id":"ce4bhlp2rcd13ifvqgjg","pricing_plan_id":"free"},{"bike_id":"a5b80185-335f-4a68-81e9-a2a2d538b03a","system_id":"levelo_inurba_marseille","lat":43.24539,"lon":5.3952,"is_reserved":false,"is_disabled":false,"rental_uris":{"android":"levelo://app?vid=a5b80185-335f-4a68-81e9-a2a2d538b03a","ios":"levelo://app?vid=a5b80185-335f-4a68-81e9-a2a2d538b03a"},"vehicle_type_id":"4","last_reported":1701507968,"current_range_meters":23200,"station_id":"ce4bhlp2rcd13ifvqgjg","pricing_plan_id":"free"},{"bike_id":"07ba852d-3fe7-4a67-9b3c-ee88cd49b892","system_id":"levelo_inurba_marseille","lat":43.24073,"lon":5.37755,"is_reserved":false,"is_disabled":false,"rental_uris":{"android":"levelo://app?vid=07ba852d-3fe7-4a67-9b3c-ee88cd49b892","ios":"levelo://app?vid=07ba852d-3fe7-4a67-9b3c-ee88cd49b892"},"vehicle_type_id":"4","last_reported":1701507968,"current_range_meters":28000,"station_id":"ce4bhnp2rcd13ifvqgvg","pricing_plan_id":"free"},{"bike_id":"590fe643-f4e7-48f0-835f-d9ecfd72be27","system_id":"levelo_inurba_marseille","lat":43.240623,"lon":5.377642,"is_reserved":false,"is_disabled":false,"rental_uris":{"android":"levelo://app?vid=590fe643-f4e7-48f0-835f-d9ecfd72be27","ios":"levelo://app?vid=590fe643-f4e7-48f0-835f-d9ecfd72be27"},"vehicle_type_id":"4","last_reported":1701507968,"current_range_meters":28800,"station_id":"ce4bhnp2rcd13ifvqgvg","pricing_plan_id":"free"},{"bike_id":"96737cbc-eb65-48fb-9d54-403f8f4a0ff4","system_id":"levelo_inurba_marseille","lat":43.240623,"lon":5.377642,"is_reserved":false,"is_disabled":false,"rental_uris":{"android":"levelo://app?vid=96737cbc-eb65-48fb-9d54-403f8f4a0ff4","ios":"levelo://app?vid=96737cbc-eb65-48fb-9d54-403f8f4a0ff4"},"vehicle_type_id":"4","last_reported":1701507968,"current_range_meters":22400,"station_id":"ce4bhnp2rcd13ifvqgvg","pricing_plan_id":"free"},{"bike_id":"f093fa9a-f7aa-44d2-b5e3-a1f52283c98b","system_id":"levelo_inurba_marseille","lat":43.239588,"lon":5.366238,"is_reserved":false,"is_disabled":false,"rental_uris":{"android":"levelo://app?vid=f093fa9a-f7aa-44d2-b5e3-a1f52283c98b","ios":"levelo://app?vid=f093fa9a-f7aa-44d2-b5e3-a1f52283c98b"},"vehicle_type_id":"4","last_reported":1701507968,"current_range_meters":27200,"station_id":"ce4bhi12rcd13ifvqfp0","pricing_plan_id":"free"},{"bike_id":"1f1cd73c-5adc-486c-b9ea-c1ca9f9dd829","system_id":"levelo_inurba_marseille","lat":43.239588,"lon":5.366238,"is_reserved":false,"is_disabled":false,"rental_uris":{"android":"levelo://app?vid=1f1cd73c-5adc-486c-b9ea-c1ca9f9dd829","ios":"levelo://app?vid=1f1cd73c-5adc-486c-b9ea-c1ca9f9dd829"},"vehicle_type_id":"4","last_reported":1701507968,"current_range_meters":22000,"station_id":"ce4bhi12rcd13ifvqfp0","pricing_plan_id":"free"},{"bike_id":"7d61c010-33dd-4cf0-ac9e-02dc52eb4961","system_id":"levelo_inurba_marseille","lat":43.23962,"lon":5.36637,"is_reserved":false,"is_disabled":false,"rental_uris":{"android":"levelo://app?vid=7d61c010-33dd-4cf0-ac9e-02dc52eb4961","ios":"levelo://app?vid=7d61c010-33dd-4cf0-ac9e-02dc52eb4961"},"vehicle_type_id":"4","last_reported":1701507968,"current_range_meters":21200,"station_id":"ce4bhi12rcd13ifvqfp0","pricing_plan_id":"free"},{"bike_id":"dfcfb16b-188c-4640-9387-e576512ba81f","system_id":"levelo_inurba_marseille","lat":43.23957,"lon":5.36632,"is_reserved":false,"is_disabled":false,"rental_uris":{"android":"levelo://app?vid=dfcfb16b-188c-4640-9387-e576512ba81f","ios":"levelo://app?vid=dfcfb16b-188c-4640-9387-e576512ba81f"},"vehicle_type_id":"4","last_reported":1701507968,"current_range_meters":2000,"station_id":"ce4bhi12rcd13ifvqfp0","pricing_plan_id":"free"},{"bike_id":"b101f295-ac85-402a-8afe-c635c176f114","system_id":"levelo_inurba_marseille","lat":43.285248,"lon":5.460485,"is_reserved":false,"is_disabled":false,"rental_uris":{"android":"levelo://app?vid=b101f295-ac85-402a-8afe-c635c176f114","ios":"levelo://app?vid=b101f295-ac85-402a-8afe-c635c176f114"},"vehicle_type_id":"4","last_reported":1701507968,"current_range_meters":24400,"station_id":"","pricing_plan_id":"free"},{"bike_id":"6b7e9c5d-ac08-44c4-808d-17da2b849f0a","system_id":"levelo_inurba_marseille","lat":43.2418,"lon":5.39724,"is_reserved":false,"is_disabled":false,"rental_uris":{"android":"levelo://app?vid=6b7e9c5d-ac08-44c4-808d-17da2b849f0a","ios":"levelo://app?vid=6b7e9c5d-ac08-44c4-808d-17da2b849f0a"},"vehicle_type_id":"4","last_reported":1701507968,"current_range_meters":14000,"station_id":"ce4bhn12rcd13ifvqgpg","pricing_plan_id":"free"},{"bike_id":"7292cb98-02c1-4dbf-be0f-631ba6e41bf4","system_id":"levelo_inurba_marseille","lat":43.241782,"lon":5.397261,"is_reserved":false,"is_disabled":false,"rental_uris":{"android":"levelo://app?vid=7292cb98-02c1-4dbf-be0f-631ba6e41bf4","ios":"levelo://app?vid=7292cb98-02c1-4dbf-be0f-631ba6e41bf4"},"vehicle_type_id":"4","last_reported":1701507968,"current_range_meters":29600,"station_id":"ce4bhn12rcd13ifvqgpg","pricing_plan_id":"free"},{"bike_id":"8d32c52d-9c9c-458e-b295-d4c6432bf0b1","system_id":"levelo_inurba_marseille","lat":43.232,"lon":5.35547,"is_reserved":false,"is_disabled":false,"rental_uris":{"android":"levelo://app?vid=8d32c52d-9c9c-458e-b295-d4c6432bf0b1","ios":"levelo://app?vid=8d32c52d-9c9c-458e-b295-d4c6432bf0b1"},"vehicle_type_id":"4","last_reported":1701507968,"current_range_meters":10800,"station_id":"ce4bhu92rcd13ifvqi70","pricing_plan_id":"free"},{"bike_id":"6462fbc5-ceb8-47e3-b56d-fc1e69bef19f","system_id":"levelo_inurba_marseille","lat":43.231919,"lon":5.355532,"is_reserved":false,"is_disabled":false,"rental_uris":{"android":"levelo://app?vid=6462fbc5-ceb8-47e3-b56d-fc1e69bef19f","ios":"levelo://app?vid=6462fbc5-ceb8-47e3-b56d-fc1e69bef19f"},"vehicle_type_id":"4","last_reported":1701507968,"current_range_meters":30000,"station_id":"ce4bhu92rcd13ifvqi70","pricing_plan_id":"free"},{"bike_id":"6382809b-45d0-4ad2-8be7-697249f82077","system_id":"levelo_inurba_marseille","lat":43.231919,"lon":5.355532,"is_reserved":false,"is_disabled":false,"rental_uris":{"android":"levelo://app?vid=6382809b-45d0-4ad2-8be7-697249f82077","ios":"levelo://app?vid=6382809b-45d0-4ad2-8be7-697249f82077"},"vehicle_type_id":"4","last_reported":1701507968,"current_range_meters":31200,"station_id":"ce4bhu92rcd13ifvqi70","pricing_plan_id":"free"},{"bike_id":"c07b0be8-3ec1-4f51-b661-de25758a5a36","system_id":"levelo_inurba_marseille","lat":43.231919,"lon":5.355532,"is_reserved":false,"is_disabled":false,"rental_uris":{"android":"levelo://app?vid=c07b0be8-3ec1-4f51-b661-de25758a5a36","ios":"levelo://app?vid=c07b0be8-3ec1-4f51-b661-de25758a5a36"},"vehicle_type_id":"4","last_reported":1701507968,"current_range_meters":16000,"station_id":"ce4bhu92rcd13ifvqi70","pricing_plan_id":"free"},{"bike_id":"9dc97c96-8e15-4d34-bc42-2b10dd83e9f4","system_id":"levelo_inurba_marseille","lat":43.231978,"lon":5.355449,"is_reserved":false,"is_disabled":false,"rental_uris":{"android":"levelo://app?vid=9dc97c96-8e15-4d34-bc42-2b10dd83e9f4","ios":"levelo://app?vid=9dc97c96-8e15-4d34-bc42-2b10dd83e9f4"},"vehicle_type_id":"4","last_reported":1701507968,"current_range_meters":20000,"station_id":"ce4bhu92rcd13ifvqi70","pricing_plan_id":"free"},{"bike_id":"cf3102c4-88e0-4a41-86b7-69a76932d3e6","system_id":"levelo_inurba_marseille","lat":43.231923,"lon":5.355545,"is_reserved":false,"is_disabled":false,"rental_uris":{"android":"levelo://app?vid=cf3102c4-88e0-4a41-86b7-69a76932d3e6","ios":"levelo://app?vid=cf3102c4-88e0-4a41-86b7-69a76932d3e6"},"vehicle_type_id":"4","last_reported":1701507968,"current_range_meters":31200,"station_id":"ce4bhu92rcd13ifvqi70","pricing_plan_id":"free"},{"bike_id":"d0b35396-6769-42d4-8160-8b44cb829902","system_id":"levelo_inurba_marseille","lat":43.231793,"lon":5.400044,"is_reserved":false,"is_disabled":false,"rental_uris":{"android":"levelo://app?vid=d0b35396-6769-42d4-8160-8b44cb829902","ios":"levelo://app?vid=d0b35396-6769-42d4-8160-8b44cb829902"},"vehicle_type_id":"4","last_reported":1701507968,"current_range_meters":31200,"station_id":"ce4bhn12rcd13ifvqgqg","pricing_plan_id":"free"},{"bike_id":"6f9eda0b-be7b-4f08-be1f-e177c6168928","system_id":"levelo_inurba_marseille","lat":43.231794,"lon":5.400052,"is_reserved":false,"is_disabled":false,"rental_uris":{"android":"levelo://app?vid=6f9eda0b-be7b-4f08-be1f-e177c6168928","ios":"levelo://app?vid=6f9eda0b-be7b-4f08-be1f-e177c6168928"},"vehicle_type_id":"4","last_reported":1701507968,"current_range_meters":27600,"station_id":"ce4bhn12rcd13ifvqgqg","pricing_plan_id":"free"},{"bike_id":"6bd9f065-50d9-4657-9ca0-a006f413d305","system_id":"levelo_inurba_marseille","lat":43.231794,"lon":5.400052,"is_reserved":false,"is_disabled":false,"rental_uris":{"android":"levelo://app?vid=6bd9f065-50d9-4657-9ca0-a006f413d305","ios":"levelo://app?vid=6bd9f065-50d9-4657-9ca0-a006f413d305"},"vehicle_type_id":"4","last_reported":1701507968,"current_range_meters":31600,"station_id":"ce4bhn12rcd13ifvqgqg","pricing_plan_id":"free"},{"bike_id":"22bd98e3-c33f-4c44-ae2b-f96729d36f4f","system_id":"levelo_inurba_marseille","lat":43.23189,"lon":5.39989,"is_reserved":false,"is_disabled":false,"rental_uris":{"android":"levelo://app?vid=22bd98e3-c33f-4c44-ae2b-f96729d36f4f","ios":"levelo://app?vid=22bd98e3-c33f-4c44-ae2b-f96729d36f4f"},"vehicle_type_id":"4","last_reported":1701507968,"current_range_meters":29200,"station_id":"ce4bhn12rcd13ifvqgqg","pricing_plan_id":"free"},