{"last_updated":1693595056,"ttl":30,"version":"2.2","data":{"bikes":[{"bike_id":"8223ed73-6276-46a4-98a2-974a1df0fe65","system_id":"levelo_inurba_marseille","lat":43.312239,"lon":5.368562,"is_reserved":false,"is_disabled":false,"rental_uris":{"android":"levelo://app?vid=8223ed73-6276-46a4-98a2-974a1df0fe65","ios":"levelo://app?vid=8223ed73-6276-46a4-98a2-974a1df0fe65"},"vehicle_type_id":"4","last_reported":1693595056,"current_range_meters":17600,"station_id":"ce4bgl92rcd13ifvqbq0","pricing_plan_id":"free"},{"bike_id":"edd8a4c6-44e8-4b9d-a38a-8265b2800530","system_id":"levelo_inurba_marseille","lat":43.312239,"lon":5.368562,"is_reserved":false,"is_disabled":false,"rental_uris":{"android":"levelo://app?vid=edd8a4c6-44e8-4b9d-a38a-8265b2800530","ios":"levelo://app?vid=edd8a4c6-44e8-4b9d-a38a-8265b2800530"},"vehicle_type_id":"4","last_reported":1693595056,"current_range_meters":4800,"station_id":"ce4bgl92rcd13ifvqbq0","pricing_plan_id":"free"},{"bike_id":"8214a226-41f9-4a56-9195-1a396a23c9de","system_id":"levelo_inurba_marseille","lat":43.312239,"lon":5.368562,"is_reserved":false,"is_disabled":false,"rental_uris":{"android":"levelo://app?vid=8214a226-41f9-4a56-9195-1a396a23c9de","ios":"levelo://app?vid=8214a226-41f9-4a56-9195-1a396a23c9de"},"vehicle_type_id":"4","last_reported":1693595056,"current_range_meters":10800,"station_id":"ce4bgl92rcd13ifvqbq0","pricing_plan_id":"free"},{"bike_id":"5ed28289-ea79-4387-9621-1c159a9a3ac6","system_id":"levelo_inurba_marseille","lat":43.309076,"lon":5.368465,"is_reserved":false,"is_disabled":false,"rental_uris":{"android":"levelo://app?vid=5ed28289-ea79-4387-9621-1c159a9a3ac6","ios":"levelo://app?vid=5ed28289-ea79-4387-9621-1c159a9a3ac6"},"vehicle_type_id":"4","last_reported":1693595056,"current_range_meters":28400,"station_id":"ce4bgn92rcd13ifvqbvg","pricing_plan_id":"free"},{"bike_id":"d2be997d-44d2-40a5-bb20-02aeaaf65fa5","system_id":"levelo_inurba_marseille","lat":43.314811,"lon":5.373104,"is_reserved":false,"is_disabled":false,"rental_uris":{"android":"levelo://app?vid=d2be997d-44d2-40a5-bb20-02aeaaf65fa5","ios":"levelo://app?vid=d2be997d-44d2-40a5-bb20-02aeaaf65fa5"},"vehicle_type_id":"4","last_reported":1693595056,"current_range_meters":31200,"station_id":"ce4bgt12rcd13ifvqcd0","pricing_plan_id":"free"},{"bike_id":"b9c80131-3804-42de-9a32-cef1624f4e4c","system_id":"levelo_inurba_marseille","lat":43.30669,"lon":5.36823,"is_reserved":false,"is_disabled":false,"rental_uris":{"android":"levelo://app?vid=b9c80131-3804-42de-9a32-cef1624f4e4c","ios":"levelo://app?vid=b9c80131-3804-42de-9a32-cef1624f4e4c"},"vehicle_type_id":"4","last_reported":1693595056,"current_range_meters":7600,"station_id":"","pricing_plan_id":"free"},{"bike_id":"b65f9fdf-44ad-4abc-ab71-0d62d74fd0dc","system_id":"levelo_inurba_marseille","lat":43.305368,"lon":5.367343,"is_reserved":false,"is_disabled":false,"rental_uris":{"android":"levelo://app?vid=b65f9fdf-44ad-4abc-ab71-0d62d74fd0dc","ios":"levelo://app?vid=b65f9fdf-44ad-4abc-ab71-0d62d74fd0dc"},"vehicle_type_id":"4","last_reported":1693595056,"current_range_meters":14400,"station_id":"ce4bgrp2rcd13ifvqc9g","pricing_plan_id":"free"},{"bike_id":"213bf7fb-509c-4a5d-a5f5-fd8ade763a1a","system_id":"levelo_inurba_marseille","lat":43.305989,"lon":5.37225,"is_reserved":false,"is_disabled":false,"rental_uris":{"android":"levelo://app?vid=213bf7fb-509c-4a5d-a5f5-fd8ade763a1a","ios":"levelo://app?vid=213bf7fb-509c-4a5d-a5f5-fd8ade763a1a"},"vehicle_type_id":"4","last_reported":1693595056,"current_range_meters":16000,"station_id":"ce4bgqh2rcd13ifvqc4g","pricing_plan_id":"free"},{"bike_id":"91a2612c-3865-48b4-9050-0a0ede693d35","system_id":"levelo_inurba_marseille","lat":43.305989,"lon":5.37225,"is_reserved":false,"is_disabled":false,"rental_uris":{"android":"levelo://app?vid=91a2612c-3865-48b4-9050-0a0ede693d35","ios":"levelo://app?vid=91a2612c-3865-48b4-9050-0a0ede693d35"},"vehicle_type_id":"4","last_reported":1693595056,"current_range_meters":9600,"station_id":"ce4bgqh2rcd13ifvqc4g","pricing_plan_id":"free"},{"bike_id":"0fe14439-f5fb-4611-be00-cccecea170c2","system_id":"levelo_inurba_marseille","lat":43.305989,"lon":5.37225,"is_reserved":false,"is_disabled":false,"rental_uris":{"android":"levelo://app?vid=0fe14439-f5fb-4611-be00-cccecea170c2","ios":"levelo://app?vid=0fe14439-f5fb-4611-be00-cccecea170c2"},"vehicle_type_id":"4","last_reported":1693595056,"current_range_meters":27600,"station_id":"ce4bgqh2rcd13ifvqc4g","pricing_plan_id":"free"},{"bike_id":"92a4824f-9834-47b0-be34-1737abbd33fc","system_id":"levelo_inurba_marseille","lat":43.305989,"lon":5.37225,"is_reserved":false,"is_disabled":false,"rental_uris":{"android":"levelo://app?vid=92a4824f-9834-47b0-be34-1737abbd33fc","ios":"levelo://app?vid=92a4824f-9834-47b0-be34-1737abbd33fc"},"vehicle_type_id":"4","last_reported":1693595056,"current_range_meters":27600,"station_id":"ce4bgqh2rcd13ifvqc4g","pricing_plan_id":"free"},{"bike_id":"b2bb8ee1-953c-4e20-825c-2a8290b24960","system_id":"levelo_inurba_marseille","lat":43.311125,"lon":5.377624,"is_reserved":false,"is_disabled":false,"rental_uris":{"android":"levelo://app?vid=b2bb8ee1-953c-4e20-825c-2a8290b24960","ios":"levelo://app?vid=b2bb8ee1-953c-4e20-825c-2a8290b24960"},"vehicle_type_id":"4","last_reported":1693595056,"current_range_meters":0,"station_id":"ce4bgt92rcd13ifvqcg0","pricing_plan_id":"free"},{"bike_id":"478e5943-5bdf-46ce-b102-8c9dcf2b43b7","system_id":"levelo_inurba_marseille","lat":43.32029,"lon":5.37113,"is_reserved":false,"is_disabled":false,"rental_uris":{"android":"levelo://app?vid=478e5943-5bdf-46ce-b102-8c9dcf2b43b7","ios":"levelo://app?vid=478e5943-5bdf-46ce-b102-8c9dcf2b43b7"},"vehicle_type_id":"4","last_reported":1693595056,"current_range_meters":11200,"station_id":"","pricing_plan_id":"free"},{"bike_id":"b1637fee-f770-43c1-8fbb-27221feb94a8","system_id":"levelo_inurba_marseille","lat":43.311722,"lon":5.387247,"is_reserved":false,"is_disabled":false,"rental_uris":{"android":"levelo://app?vid=b1637fee-f770-43c1-8fbb-27221feb94a8","ios":"levelo://app?vid=b1637fee-f770-43c1-8fbb-27221feb94a8"},"vehicle_type_id":"4","last_reported":1693595056,"current_range_meters":20000,"station_id":"ce4bgv12rcd13ifvqcp0","pricing_plan_id":"free"},{"bike_id":"33e78a11-855d-4e2d-aca1-cc003f12dd7d","system_id":"levelo_inurba_marseille","lat":43.30776,"lon":5.37662,"is_reserved":false,"is_disabled":false,"rental_uris":{"android":"levelo://app?vid=33e78a11-855d-4e2d-aca1-cc003f12dd7d","ios":"levelo://app?vid=33e78a11-855d-4e2d-aca1-cc003f12dd7d"},"vehicle_type_id":"4","last_reported":1693595056,"current_range_meters":6800,"station_id":"ce4bgv92rcd13ifvqcq0","pricing_plan_id":"free"},{"bike_id":"ce04bffc-032e-4965-8488-822ed3741e29","system_id":"levelo_inurba_marseille","lat":43.317075,"lon":5.377367,"is_reserved":false,"is_disabled":false,"rental_uris":{"android":"levelo://app?vid=ce04bffc-032e-4965-8488-822ed3741e29","ios":"levelo://app?vid=ce04bffc-032e-4965-8488-822ed3741e29"},"vehicle_type_id":"4","last_reported":1693595056,"current_range_meters":20800,"station_id":"ce4bgth2rcd13ifvqch0","pricing_plan_id":"free"},{"bike_id":"18631c9a-3749-48e0-9aa2-0539ad196b81","system_id":"levelo_inurba_marseille","lat":43.317075,"lon":5.377367,"is_reserved":false,"is_disabled":false,"rental_uris":{"android":"levelo://app?vid=18631c9a-3749-48e0-9aa2-0539ad196b81","ios":"levelo://app?vid=18631c9a-3749-48e0-9aa2-0539ad196b81"},"vehicle_type_id":"4","last_reported":1693595056,"current_range_meters":28800,"station_id":"ce4bgth2rcd13ifvqch0","pricing_plan_id":"free"},{"bike_id":"cd2430b5-d827-457f-a12a-f29afa394529","system_id":"levelo_inurba_marseille","lat":43.317075,"lon":5.377367,"is_reserved":false,"is_disabled":false,"rental_uris":{"android":"levelo://app?vid=cd2430b5-d827-457f-a12a-f29afa394529","ios":"levelo://app?vid=cd2430b5-d827-457f-a12a-f29afa394529"},"vehicle_type_id":"4","last_reported":1693595056,"current_range_meters":21600,"station_id":"ce4bgth2rcd13ifvqch0","pricing_plan_id":"free"},{"bike_id":"937ed58c-a9e7-448f-b7e3-ef5da7e4f275","system_id":"levelo_inurba_marseille","lat":43.30311,"lon":5.36915,"is_reserved":false,"is_disabled":false,"rental_uris":{"android":"levelo://app?vid=937ed58c-a9e7-448f-b7e3-ef5da7e4f275","ios":"levelo://app?vid=937ed58c-a9e7-448f-b7e3-ef5da7e4f275"},"vehicle_type_id":"4","last_reported":1693595056,"current_range_meters":18400,"station_id":"ce4bgqh2rcd13ifvqc5g","pricing_plan_id":"free"},{"bike_id":"85d850f2-5d10-49d9-9efc-e7c2ebedc0c7","system_id":"levelo_inurba_marseille","lat":43.303046,"lon":5.368981,"is_reserved":false,"is_disabled":false,"rental_uris":{"android":"levelo://app?vid=85d850f2-5d10-49d9-9efc-e7c2ebedc0c7","ios":"levelo://app?vid=85d850f2-5d10-49d9-9efc-e7c2ebedc0c7"},"vehicle_type_id":"4","last_reported":1693595056,"current_range_meters":12000,"station_id":"ce4bgqh2rcd13ifvqc5g","pricing_plan_id":"free"},{"bike_id":"d9b712a6-d75b-4c00-adb2-6afde3787aaa","system_id":"levelo_inurba_marseille","lat":43.302784,"lon":5.377158,"is_reserved":false,"is_disabled":false,"rental_uris":{"android":"levelo://app?vid=d9b712a6-d75b-4c00-adb2-6afde3787aaa","ios":"levelo://app?vid=d9b712a6-d75b-4c00-adb2-6afde3787aaa"},"vehicle_type_id":"4","last_reported":1693595056,"current_range_meters":0,"station_id":"ce4bguh2rcd13ifvqcj0","pricing_plan_id":"free"},{"bike_id":"2bd134b1-96de-42aa-95f7-3807397c6722","system_id":"levelo_inurba_marseille","lat":43.315293,"lon":5.380349,"is_reserved":false,"is_disabled":false,"rental_uris":{"android":"levelo://app?vid=2bd134b1-96de-42aa-95f7-3807397c6722","ios":"levelo://app?vid=2bd134b1-96de-42aa-95f7-3807397c6722"},"vehicle_type_id":"4","last_reported":1693595056,"current_range_meters":10800,"station_id":"ce4bhsp2rcd13ifvqi50","pricing_plan_id":"free"},{"bike_id":"9dbfb0b2-a7cf-4105-b5e7-5cc01e87f170","system_id":"levelo_inurba_marseille","lat":43.315293,"lon":5.380349,"is_reserved":false,"is_disabled":false,"rental_uris":{"android":"levelo://app?vid=9dbfb0b2-a7cf-4105-b5e7-5cc01e87f170","ios":"levelo://app?vid=9dbfb0b2-a7cf-4105-b5e7-5cc01e87f170"},"vehicle_type_id":"4","last_reported":1693595056,"current_range_meters":29600,"station_id":"ce4bhsp2rcd13ifvqi50","pricing_plan_id":"free"},{"bike_id":"75c32b39-e860-4996-b3e1-d897b9a3a3cb","system_id":"levelo_inurba_marseille","lat":43.301939,"lon":5.366286,"is_reserved":false,"is_disabled":false,"rental_uris":{"android":"levelo://app?vid=75c32b39-e860-4996-b3e1-d897b9a3a3cb","ios":"levelo://app?vid=75c32b39-e860-4996-b3e1-d897b9a3a3cb"},"vehicle_type_id":"4","last_reported":1693595056,"current_range_meters":12800,"station_id":"ce4bgrh2rcd13ifvqc8g","pricing_plan_id":"free"},{"bike_id":"20b7f9e0-6542-4a68-a14d-fe73f013f36d","system_id":"levelo_inurba_marseille","lat":43.301939,"lon":5.366286,"is_reserved":false,"is_disabled":false,"rental_uris":{"android":"levelo://app?vid=20b7f9e0-6542-4a68-a14d-fe73f013f36d","ios":"levelo://app?vid=20b7f9e0-6542-4a68-a14d-fe73f013f36d"},"vehicle_type_id":"4","last_reported":1693595056,"current_range_meters":5200,"station_id":"ce4bgrh2rcd13ifvqc8g","pricing_plan_id":"free"},{"bike_id":"aadd2831-4387-4257-bbe5-124cc36e4a79","system_id":"levelo_inurba_marseille","lat":43.30812,"lon":5.3819,"is_reserved":false,"is_disabled":false,"rental_uris":{"android":"levelo://app?vid=aadd2831-4387-4257-bbe5-124cc36e4a79","ios":"levelo://app?vid=aadd2831-4387-4257-bbe5-124cc36e4a79"},"vehicle_type_id":"4","last_reported":1693595056,"current_range_meters":8400,"station_id":"","pricing_plan_id":"free"},{"bike_id":"5b7daec2-7f85-4388-9c4f-d674f110da8a","system_id":"levelo_inurba_marseille","lat":43.304606,"lon":5.379026,"is_reserved":false,"is_disabled":false,"rental_uris":{"android":"levelo://app?vid=5b7daec2-7f85-4388-9c4f-d674f110da8a","ios":"levelo://app?vid=5b7daec2-7f85-4388-9c4f-d674f110da8a"},"vehicle_type_id":"4","last_reported":1693595056,"current_range_meters":29600,"station_id":"ce4bgup2rcd13ifvqcn0","pricing_plan_id":"free"},{"bike_id":"9bea51f9-ea43-4b31-8db7-dddbb2670e77","system_id":"levelo_inurba_marseille","lat":43.304606,"lon":5.379026,"is_reserved":false,"is_disabled":false,"rental_uris":{"android":"levelo://app?vid=9bea51f9-ea43-4b31-8db7-dddbb2670e77","ios":"levelo://app?vid=9bea51f9-ea43-4b31-8db7-dddbb2670e77"},"vehicle_type_id":"4","last_reported":1693595056,"current_range_meters":31200,"station_id":"ce4bgup2rcd13ifvqcn0","pricing_plan_id":"free"},{"bike_id":"205b30b1-12e0-4ef2-b780-c6ea5e3421b7","system_id":"levelo_inurba_marseille","lat":43.304606,"lon":5.379026,"is_reserved":false,"is_disabled":false,"rental_uris":{"android":"levelo://app?vid=205b30b1-12e0-4ef2-b780-c6ea5e3421b7","ios":"levelo://app?vid=205b30b1-12e0-4ef2-b780-c6ea5e3421b7"},"vehicle_type_id":"4","last_reported":1693595056,"current_range_meters":31200,"station_id":"ce4bgup2rcd13ifvqcn0","pricing_plan_id":"free"},{"bike_id":"75d2267b-7dfe-4a08-9fd5-3edd9a60258e","system_id":"levelo_inurba_marseille","lat":43.304606,"lon":5.379026,"is_reserved":false,"is_disabled":false,"rental_uris":{"android":"levelo://app?vid=75d2267b-7dfe-4a08-9fd5-3edd9a60258e","ios":"levelo://app?vid=75d2267b-7dfe-4a08-9fd5-3edd9a60258e"},"vehicle_type_id":"4","last_reported":1693595056,"current_range_meters":0,"station_id":"ce4bgup2rcd13ifvqcn0","pricing_plan_id":"free"},{"bike_id":"0a39c2b1-92e6-4b9d-8d0b-145263e5cc1c","system_id":"levelo_inurba_marseille","lat":43.304606,"lon":5.379026,"is_reserved":false,"is_disabled":false,"rental_uris":{"android":"levelo://app?vid=0a39c2b1-92e6-4b9d-8d0b-145263e5cc1c","ios":"levelo://app?vid=0a39c2b1-92e6-4b9d-8d0b-145263e5cc1c"},"vehicle_type_id":"4","last_reported":1693595056,"current_range_meters":31200,"station_id":"ce4bgup2rcd13ifvqcn0","pricing_plan_id":"free"},{"bike_id":"61999990-2905-4ddd-aa1c-1be0193c5955","system_id":"levelo_inurba_marseille","lat":43.304606,"lon":5.379026,"is_reserved":false,"is_disabled":false,"rental_uris":{"android":"levelo://app?vid=61999990-2905-4ddd-aa1c-1be0193c5955","ios":"levelo://app?vid=61999990-2905-4ddd-aa1c-1be0193c5955"},"vehicle_type_id":"4","last_reported":1693595056,"current_range_meters":0,"station_id":"ce4bgup2rcd13ifvqcn0","pricing_plan_id":"free"},{"bike_id":"830a0826-d90e-41ff-b3d7-34d1914d3314","system_id":"levelo_inurba_marseille","lat":43.304606,"lon":5.379026,"is_reserved":false,"is_disabled":false,"rental_uris":{"android":"levelo://app?vid=830a0826-d90e-41ff-b3d7-34d1914d3314","ios":"levelo://app?vid=830a0826-d90e-41ff-b3d7-34d1914d3314"},"vehicle_type_id":"4","last_reported":1693595056,"current_range_meters":30400,"station_id":"ce4bgup2rcd13ifvqcn0","pricing_plan_id":"free"},{"bike_id":"0001b3d2-25bf-4f08-b495-ee1f2b6dcde6","system_id":"levelo_inurba_marseille","lat":43.304606,"lon":5.379026,"is_reserved":false,"is_disabled":false,"rental_uris":{"android":"levelo://app?vid=0001b3d2-25bf-4f08-b495-ee1f2b6dcde6","ios":"levelo://app?vid=0001b3d2-25bf-4f08-b495-ee1f2b6dcde6"},"vehicle_type_id":"4","last_reported":1693595056,"current_range_meters":16000,"station_id":"ce4bgup2rcd13ifvqcn0","pricing_plan_id":"free"},{"bike_id":"dbf03ef2-74c8-4e39-9d91-b728525d07cb","system_id":"levelo_inurba_marseille","lat":43.302784,"lon":5.377158,"is_reserved":false,"is_disabled":false,"rental_uris":{"android":"levelo://app?vid=dbf03ef2-74c8-4e39-9d91-b728525d07cb","ios":"levelo://app?vid=dbf03ef2-74c8-4e39-9d91-b728525d07cb"},"vehicle_type_id":"4","last_reported":1693595056,"current_range_meters":25200,"station_id":"ce4bguh2rcd13ifvqcj0","pricing_plan_id":"free"},{"bike_id":"1e0f211e-028a-46cb-9a0d-9899ac904750","system_id":"levelo_inurba_marseille","lat":43.319935,"lon":5.381699,"is_reserved":false,"is_disabled":false,"rental_uris":{"android":"levelo://app?vid=1e0f211e-028a-46cb-9a0d-9899ac904750","ios":"levelo://app?vid=1e0f211e-028a-46cb-9a0d-9899ac904750"},"vehicle_type_id":"4","last_reported":1693595056,"current_range_meters":28800,"station_id":"ce4bhr12rcd13ifvqhpg","pricing_plan_id":"free"},{"bike_id":"d13e2fc0-5196-41d3-8d49-bf9314309b08","system_id":"levelo_inurba_marseille","lat":43.319935,"lon":5.381699,"is_reserved":false,"is_disabled":false,"rental_uris":{"android":"levelo://app?vid=d13e2fc0-5196-41d3-8d49-bf9314309b08","ios":"levelo://app?vid=d13e2fc0-5196-41d3-8d49-bf9314309b08"},"vehicle_type_id":"4","last_reported":1693595056,"current_range_meters":31200,"station_id":"ce4bhr12rcd13ifvqhpg","pricing_plan_id":"free"},{"bike_id":"c0aa06d4-ea1c-42f1-82e3-b4b98c641344","system_id":"levelo_inurba_marseille","lat":43.319935,"lon":5.381699,"is_reserved":false,"is_disabled":false,"rental_uris":{"android":"levelo://app?vid=c0aa06d4-ea1c-42f1-82e3-b4b98c641344","ios":"levelo://app?vid=c0aa06d4-ea1c-42f1-82e3-b4b98c641344"},"vehicle_type_id":"4","last_reported":1693595056,"current_range_meters":23600,"station_id":"ce4bhr12rcd13ifvqhpg","pricing_plan_id":"free"},{"bike_id":"cc28612f-b913-4e07-81a1-e8a4df49747b","system_id":"levelo_inurba_marseille","lat":43.31988,"lon":5.38141,"is_reserved":false,"is_disabled":false,"rental_uris":{"android":"levelo://app?vid=cc28612f-b913-4e07-81a1-e8a4df49747b","ios":"levelo://app?vid=cc28612f-b913-4e07-81a1-e8a4df49747b"},"vehicle_type_id":"4","last_reported":1693595056,"current_range_meters":16800,"station_id":"ce4bhr12rcd13ifvqhpg","pricing_plan_id":"free"},{"bike_id":"77cc4a87-903a-4ac8-836f-05d771ccc1e4","system_id":"levelo_inurba_marseille","lat":43.319935,"lon":5.381699,"is_reserved":false,"is_disabled":false,"rental_uris":{"android":"levelo://app?vid=77cc4a87-903a-4ac8-836f-05d771ccc1e4","ios":"levelo://app?vid=77cc4a87-903a-4ac8-836f-05d771ccc1e4"},"vehicle_type_id":"4","last_reported":1693595056,"current_range_meters":26800,"station_id":"ce4bhr12rcd13ifvqhpg","pricing_plan_id":"free"},{"bike_id":"3ce12e8d-2187-433e-90ea-725012bee47a","system_id":"levelo_inurba_marseille","lat":43.31995,"lon":5.38138,"is_reserved":false,"is_disabled":false,"rental_uris":{"android":"levelo://app?vid=3ce12e8d-2187-433e-90ea-725012bee47a","ios":"levelo://app?vid=3ce12e8d-2187-433e-90ea-725012bee47a"},"vehicle_type_id":"4","last_reported":1693595056,"current_range_meters":26400,"station_id":"ce4bhr12rcd13ifvqhpg","pricing_plan_id":"free"},{"bike_id":"b6abff1c-f097-4297-b7f5-e905b62cd8ab","system_id":"levelo_inurba_marseille","lat":43.31993,"lon":5.38144,"is_reserved":false,"is_disabled":false,"rental_uris":{"android":"levelo://app?vid=b6abff1c-f097-4297-b7f5-e905b62cd8ab","ios":"levelo://app?vid=b6abff1c-f097-4297-b7f5-e905b62cd8ab"},"vehicle_type_id":"4","last_reported":1693595056,"current_range_meters":19200,"station_id":"ce4bhr12rcd13ifvqhpg","pricing_plan_id":"free"},{"bike_id":"dd413ac5-3b4c-4e50-9e44-9ae3af6e8752","system_id":"levelo_inurba_marseille","lat":43.319935,"lon":5.381699,"is_reserved":false,"is_disabled":false,"rental_uris":{"android":"levelo://app?vid=dd413ac5-3b4c-4e50-9e44-9ae3af6e8752","ios":"levelo://app?vid=dd413ac5-3b4c-4e50-9e44-9ae3af6e8752"},"vehicle_type_id":"4","last_reported":1693595056,"current_range_meters":26400,"station_id":"ce4bhr12rcd13ifvqhpg","pricing_plan_id":"free"},{"bike_id":"5f4dae25-e0d4-4b94-95b2-bd6c940579c5","system_id":"levelo_inurba_marseille","lat":43.313571,"lon":5.384829,"is_reserved":false,"is_disabled":false,"rental_uris":{"android":"levelo://app?vid=5f4dae25-e0d4-4b94-95b2-bd6c940579c5","ios":"levelo://app?vid=5f4dae25-e0d4-4b94-95b2-bd6c940579c5"},"vehicle_type_id":"4","last_reported":1693595056,"current_range_meters":23200,"station_id":"ce4bgt92rcd13ifvqcf0","pricing_plan_id":"free"},{"bike_id":"4ae58d25-f777-459d-8748-105368245b55","system_id":"levelo_inurba_marseille","lat":43.313571,"lon":5.384829,"is_reserved":false,"is_disabled":false,"rental_uris":{"android":"levelo://app?vid=4ae58d25-f777-459d-8748-105368245b55","ios":"levelo://app?vid=4ae58d25-f777-459d-8748-105368245b55"},"vehicle_type_id":"4","last_reported":1693595056,"current_range_meters":8800,"station_id":"ce4bgt92rcd13ifvqcf0","pricing_plan_id":"free"},{"bike_id":"e455d5ad-8e3e-4953-941e-10358971435d","system_id":"levelo_inurba_marseille","lat":43.29936,"lon":5.36553,"is_reserved":false,"is_disabled":false,"rental_uris":{"android":"levelo://app?vid=e455d5ad-8e3e-4953-941e-10358971435d","ios":"levelo://app?vid=e455d5ad-8e3e-4953-941e-10358971435d"},"vehicle_type_id":"4","last_reported":1693595056,"current_range_meters":18800,"station_id":"ce4bgm92rcd13ifvqbr0","pricing_plan_id":"free"},{"bike_id":"0a4b4168-489a-4008-bb43-51c16068be28","system_id":"levelo_inurba_marseille","lat":43.29972,"lon":5.37172,"is_reserved":false,"is_disabled":false,"rental_uris":{"android":"levelo://app?vid=0a4b4168-489a-4008-bb43-51c16068be28","ios":"levelo://app?vid=0a4b4168-489a-4008-bb43-51c16068be28"},"vehicle_type_id":"4","last_reported":1693595056,"current_range_meters":9600,"station_id":"ce4bgr92rcd13ifvqc7g","pricing_plan_id":"free"},{"bike_id":"eb606411-a0a3-405f-96a2-df04e5ce9790","system_id":"levelo_inurba_marseille","lat":43.29972,"lon":5.37178,"is_reserved":false,"is_disabled":false,"rental_uris":{"android":"levelo://app?vid=eb606411-a0a3-405f-96a2-df04e5ce9790","ios":"levelo://app?vid=eb606411-a0a3-405f-96a2-df04e5ce9790"},"vehicle_type_id":"4","last_reported":1693595056,"current_range_meters":0,"station_id":"ce4bgr92rcd13ifvqc7g","pricing_plan_id":"free"},{"bike_id":"223b6b35-7962-4c8a-b9a8-3dff4500c0bf","system_id":"levelo_inurba_marseille","lat":43.299724,"lon":5.371829,"is_reserved":false,"is_disabled":false,"rental_uris":{"android":"levelo://app?vid=223b6b35-7962-4c8a-b9a8-3dff4500c0bf","ios":"levelo://app?vid=223b6b35-7962-4c8a-b9a8-3dff4500c0bf"},"vehicle_type_id":"4","last_reported":1693595056,"current_range_meters":0,"station_id":"ce4bgr92rcd13ifvqc7g","pricing_plan_id":"free"},{"bike_id":"708aa624-6ef4-4265-aa6b-8829276be885","system_id":"levelo_inurba_marseille","lat":43.305483,"lon":5.38414,"is_reserved":false,"is_disabled":false,"rental_uris":{"android":"levelo://app?vid=708aa624-6ef4-4265-aa6b-8829276be885","ios":"levelo://app?vid=708aa624-6ef4-4265-aa6b-8829276be885"},"vehicle_type_id":"4","last_reported":1693595056,"current_range_meters":5200,"station_id":"ce4bgg92rcd13ifvqb30","pricing_plan_id":"free"},{"bike_id":"a87f39e3-ec14-4ae5-8d88-04cdc17060fa","system_id":"levelo_inurba_marseille","lat":43.30538,"lon":5.38411,"is_reserved":false,"is_disabled":false,"rental_uris":{"android":"levelo://app?vid=a87f39e3-ec14-4ae5-8d88-04cdc17060fa","ios":"levelo://app?vid=a87f39e3-ec14-4ae5-8d88-04cdc17060fa"},"vehicle_type_id":"4","last_reported":1693595056,"current_range_meters":23200,"station_id":"ce4bgg92rcd13ifvqb30","pricing_plan_id":"free"},{"bike_id":"4ade4f25-81eb-4790-8b82-da5cbe4a7854","system_id":"levelo_inurba_marseille","lat":43.305364,"lon":5.384119,"is_reserved":false,"is_disabled":false,"rental_uris":{"android":"levelo://app?vid=4ade4f25-81eb-4790-8b82-da5cbe4a7854","ios":"levelo://app?vid=4ade4f25-81eb-4790-8b82-da5cbe4a7854"},"vehicle_type_id":"4","last_reported":1693595056,"current_range_meters":20800,"station_id":"ce4bgg92rcd13ifvqb30","pricing_plan_id":"free"},{"bike_id":"21cd57b9-a334-4416-9d9f-2594c7826529","system_id":"levelo_inurba_marseille","lat":43.305391,"lon":5.384222,"is_reserved":false,"is_disabled":false,"rental_uris":{"android":"levelo://app?vid=21cd57b9-a334-4416-9d9f-2594c7826529","ios":"levelo://app?vid=21cd57b9-a334-4416-9d9f-2594c7826529"},"vehicle_type_id":"4","last_reported":1693595056,"current_range_meters":12000,"station_id":"ce4bgg92rcd13ifvqb30","pricing_plan_id":"free"},{"bike_id":"c4e6e45b-b3cc-4a96-8aed-b60c8954e213","system_id":"levelo_inurba_marseille","lat":43.29923,"lon":5.37483,"is_reserved":false,"is_disabled":false,"rental_uris":{"android":"levelo://app?vid=c4e6e45b-b3cc-4a96-8aed-b60c8954e213","ios":"levelo://app?vid=c4e6e45b-b3cc-4a96-8aed-b60c8954e213"},"vehicle_type_id":"4","last_reported":1693595056,"current_range_meters":800,"station_id":"","pricing_plan_id":"free"},{"bike_id":"2f9e2def-2173-4eb4-a460-9a385f59debe","system_id":"levelo_inurba_marseille","lat":43.299243,"lon":5.37481,"is_reserved":false,"is_disabled":false,"rental_uris":{"android":"levelo://app?vid=2f9e2def-2173-4eb4-a460-9a385f59debe","ios":"levelo://app?vid=2f9e2def-2173-4eb4-a460-9a385f59debe"},"vehicle_type_id":"4","last_reported":1693595056,"current_range_meters":31600,"station_id":"ce4bgjh2rcd13ifvqbg0","pricing_plan_id":"free"},{"bike_id":"b2e8338d-3ca9-42f1-ab8c-a3b85a421810","system_id":"levelo_inurba_marseille","lat":43.311722,"lon":5.387247,"is_reserved":false,"is_disabled":false,"rental_uris":{"android":"levelo://app?vid=b2e8338d-3ca9-42f1-ab8c-a3b85a421810","ios":"levelo://app?vid=b2e8338d-3ca9-42f1-ab8c-a3b85a421810"},"vehicle_type_id":"4","last_reported":1693595056,"current_range_meters":26800,"station_id":"ce4bgv12rcd13ifvqcp0","pricing_plan_id":"free"},{"bike_id":"27e1b2f2-13ce-4f0d-ae11-867c202da577","system_id":"levelo_inurba_marseille","lat":43.311722,"lon":5.387247,"is_reserved":false,"is_disabled":false,"rental_uris":{"android":"levelo://app?vid=27e1b2f2-13ce-4f0d-ae11-867c202da577","ios":"levelo://app?vid=27e1b2f2-13ce-4f0d-ae11-867c202da577"},"vehicle_type_id":"4","last_reported":1693595056,"current_range_meters":6400,"station_id":"ce4bgv12rcd13ifvqcp0","pricing_plan_id":"free"},{"bike_id":"836ee4b7-ecc3-4a0d-8603-b32b6febec90","system_id":"levelo_inurba_marseille","lat":43.311722,"lon":5.387247,"is_reserved":false,"is_disabled":false,"rental_uris":{"android":"levelo://app?vid=836ee4b7-ecc3-4a0d-8603-b32b6febec90","ios":"levelo://app?vid=836ee4b7-ecc3-4a0d-8603-b32b6febec90"},"vehicle_type_id":"4","last_reported":1693595056,"current_range_meters":6000,"station_id":"ce4bgv12rcd13ifvqcp0","pricing_plan_id":"free"},{"bike_id":"7907798f-9429-4e10-ad1e-c23347674211","system_id":"levelo_inurba_marseille","lat":43.311722,"lon":5.387247,"is_reserved":false,"is_disabled":false,"rental_uris":{"android":"levelo://app?vid=7907798f-9429-4e10-ad1e-c23347674211","ios":"levelo://app?vid=7907798f-9429-4e10-ad1e-c23347674211"},"vehicle_type_id":"4","last_reported":1693595056,"current_range_meters":10800,"station_id":"ce4bgv12rcd13ifvqcp0","pricing_plan_id":"free"},{"bike_id":"924d6452-f7f7-4baa-af9a-49926af70474","system_id":"levelo_inurba_marseille","lat":43.297794,"lon":5.370888,"is_reserved":false,"is_disabled":false,"rental_uris":{"android":"levelo://app?vid=924d6452-f7f7-4baa-af9a-49926af70474","ios":"levelo://app?vid=924d6452-f7f7-4baa-af9a-49926af70474"},"vehicle_type_id":"4","last_reported":1693595056,"current_range_meters":28400,"station_id":"ce4bgop2rcd13ifvqc1g","pricing_plan_id":"free"},{"bike_id":"725154fd-5a8f-46ee-aba1-0359dd04bbeb","system_id":"levelo_inurba_marseille","lat":43.297794,"lon":5.370888,"is_reserved":false,"is_disabled":false,"rental_uris":{"android":"levelo://app?vid=725154fd-5a8f-46ee-aba1-0359dd04bbeb","ios":"levelo://app?vid=725154fd-5a8f-46ee-aba1-0359dd04bbeb"},"vehicle_type_id":"4","last_reported":1693595056,"current_range_meters":800,"station_id":"ce4bgop2rcd13ifvqc1g","pricing_plan_id":"free"},{"bike_id":"8143ebd5-c5c5-467f-a353-1c0066f90341","system_id":"levelo_inurba_marseille","lat":43.29786,"lon":5.37098,"is_reserved":false,"is_disabled":false,"rental_uris":{"android":"levelo://app?vid=8143ebd5-c5c5-467f-a353-1c0066f90341","ios":"levelo://app?vid=8143ebd5-c5c5-467f-a353-1c0066f90341"},"vehicle_type_id":"4","last_reported":1693595056,"current_range_meters":31200,"station_id":"ce4bgop2rcd13ifvqc1g","pricing_plan_id":"free"},{"bike_id":"cb73745f-a307-47d3-b363-611105e99268","system_id":"levelo_inurba_marseille","lat":43.297774,"lon":5.370875,"is_reserved":false,"is_disabled":false,"rental_uris":{"android":"levelo://app?vid=cb73745f-a307-47d3-b363-611105e99268","ios":"levelo://app?vid=cb73745f-a307-47d3-b363-611105e99268"},"vehicle_type_id":"4","last_reported":1693595056,"current_range_meters":4800,"station_id":"ce4bgop2rcd13ifvqc1g","pricing_plan_id":"free"},{"bike_id":"bc8f34a2-0447-439b-8108-9a4250aef71a","system_id":"levelo_inurba_marseille","lat":43.32285,"lon":5.38271,"is_reserved":false,"is_disabled":false,"rental_uris":{"android":"levelo://app?vid=bc8f34a2-0447-439b-8108-9a4250aef71a","ios":"levelo://app?vid=bc8f34a2-0447-439b-8108-9a4250aef71a"},"vehicle_type_id":"4","last_reported":1693595056,"current_range_meters":30000,"station_id":"ce4bhr12rcd13ifvqhqg","pricing_plan_id":"free"},{"bike_id":"61aecc97-3e80-4a49-8c3e-0135b524d154","system_id":"levelo_inurba_marseille","lat":43.32289,"lon":5.38268,"is_reserved":false,"is_disabled":false,"rental_uris":{"android":"levelo://app?vid=61aecc97-3e80-4a49-8c3e-0135b524d154","ios":"levelo://app?vid=61aecc97-3e80-4a49-8c3e-0135b524d154"},"vehicle_type_id":"4","last_reported":1693595056,"current_range_meters":20000,"station_id":"ce4bhr12rcd13ifvqhqg","pricing_plan_id":"free"},{"bike_id":"3d2a691c-74eb-4958-aebd-9ebc95f3d8a8","system_id":"levelo_inurba_marseille","lat":43.322872,"lon":5.382756,"is_reserved":false,"is_disabled":false,"rental_uris":{"android":"levelo://app?vid=3d2a691c-74eb-4958-aebd-9ebc95f3d8a8","ios":"levelo://app?vid=3d2a691c-74eb-4958-aebd-9ebc95f3d8a8"},"vehicle_type_id":"4","last_reported":1693595056,"current_range_meters":13600,"station_id":"ce4bhr12rcd13ifvqhqg","pricing_plan_id":"free"},{"bike_id":"c29114e8-dc25-4be3-832f-1611beb9061c","system_id":"levelo_inurba_marseille","lat":43.32287,"lon":5.38272,"is_reserved":false,"is_disabled":false,"rental_uris":{"android":"levelo://app?vid=c29114e8-dc25-4be3-832f-1611beb9061c","ios":"levelo://app?vid=c29114e8-dc25-4be3-832f-1611beb9061c"},"vehicle_type_id":"4","last_reported":1693595056,"current_range_meters":26000,"station_id":"ce4bhr12rcd13ifvqhqg","pricing_plan_id":"free"},{"bike_id":"3fba6104-c348-41d8-b3a4-91f35b76193a","system_id":"levelo_inurba_marseille","lat":43.297774,"lon":5.370875,"is_reserved":false,"is_disabled":false,"rental_uris":{"android":"levelo://app?vid=3fba6104-c348-41d8-b3a4-91f35b76193a","ios":"levelo://app?vid=3fba6104-c348-41d8-b3a4-91f35b76193a"},"vehicle_type_id":"4","last_reported":1693595056,"current_range_meters":7600,"station_id":"ce4bgop2rcd13ifvqc1g","pricing_plan_id":"free"},{"bike_id":"88c4a93e-f84a-4492-9ca8-7095f26ad20a","system_id":"levelo_inurba_marseille","lat":43.322872,"lon":5.382756,"is_reserved":false,"is_disabled":false,"rental_uris":{"android":"levelo://app?vid=88c4a93e-f84a-4492-9ca8-7095f26ad20a","ios":"levelo://app?vid=88c4a93e-f84a-4492-9ca8-7095f26ad20a"},"vehicle_type_id":"4","last_reported":1693595056,"current_range_meters":14000,"station_id":"ce4bhr12rcd13ifvqhqg","pricing_plan_id":"free"},{"bike_id":"13ee029c-63d7-4677-91a3-21f869f75f97","system_id":"levelo_inurba_marseille","lat":43.328371,"lon":5.366912,"is_reserved":false,"is_disabled":false,"rental_uris":{"android":"levelo://app?vid=13ee029c-63d7-4677-91a3-21f869f75f97","ios":"levelo://app?vid=13ee029c-63d7-4677-91a3-21f869f75f97"},"vehicle_type_id":"4","last_reported":1693595056,"current_range_meters":2000,"station_id":"ce4bhs92rcd13ifvqi0g","pricing_plan_id":"free"},{"bike_id":"aeae2ec4-0fe8-46f4-ae39-3d0e1a1944d6","system_id":"levelo_inurba_marseille","lat":43.328371,"lon":5.366912,"is_reserved":false,"is_disabled":false,"rental_uris":{"android":"levelo://app?vid=aeae2ec4-0fe8-46f4-ae39-3d0e1a1944d6","ios":"levelo://app?vid=aeae2ec4-0fe8-46f4-ae39-3d0e1a1944d6"},"vehicle_type_id":"4","last_reported":1693595056,"current_range_meters":26800,"station_id":"ce4bhs92rcd13ifvqi0g","pricing_plan_id":"free"},{"bike_id":"509ae45e-3683-4f5e-b0e3-062a9c43c9bf","system_id":"levelo_inurba_marseille","lat":43.3283,"lon":5.36679,"is_reserved":false,"is_disabled":false,"rental_uris":{"android":"levelo://app?vid=509ae45e-3683-4f5e-b0e3-062a9c43c9bf","ios":"levelo://app?vid=509ae45e-3683-4f5e-b0e3-062a9c43c9bf"},"vehicle_type_id":"4","last_reported":1693595056,"current_range_meters":2400,"station_id":"ce4bhs92rcd13ifvqi0g","pricing_plan_id":"free"},{"bike_id":"3de0ebeb-800b-45b0-9be0-5b0f6d30f8b1","system_id":"levelo_inurba_marseille","lat":43.297163,"lon":5.365866,"is_reserved":false,"is_disabled":false,"rental_uris":{"android":"levelo://app?vid=3de0ebeb-800b-45b0-9be0-5b0f6d30f8b1","ios":"levelo://app?vid=3de0ebeb-800b-45b0-9be0-5b0f6d30f8b1"},"vehicle_type_id":"4","last_reported":1693595056,"current_range_meters":18400,"station_id":"ce4bgn12rcd13ifvqbt0","pricing_plan_id":"free"},{"bike_id":"bd0bd295-6ecc-40c4-a4d0-89f645593756","system_id":"levelo_inurba_marseille","lat":43.297163,"lon":5.365866,"is_reserved":false,"is_disabled":false,"rental_uris":{"android":"levelo://app?vid=bd0bd295-6ecc-40c4-a4d0-89f645593756","ios":"levelo://app?vid=bd0bd295-6ecc-40c4-a4d0-89f645593756"},"vehicle_type_id":"4","last_reported":1693595056,"current_range_meters":21600,"station_id":"ce4bgn12rcd13ifvqbt0","pricing_plan_id":"free"},{"bike_id":"dd789220-e7b5-42c1-b9dc-dc4243148021","system_id":"levelo_inurba_marseille","lat":43.297163,"lon":5.365866,"is_reserved":false,"is_disabled":false,"rental_uris":{"android":"levelo://app?vid=dd789220-e7b5-42c1-b9dc-dc4243148021","ios":"levelo://app?vid=dd789220-e7b5-42c1-b9dc-dc4243148021"},"vehicle_type_id":"4","last_reported":1693595056,"current_range_meters":32000,"station_id":"ce4bgn12rcd13ifvqbt0","pricing_plan_id":"free"},{"bike_id":"00c157ca-a5a8-49d0-a5fe-1a6e7f7f8a87","system_id":"levelo_inurba_marseille","lat":43.2968,"lon":5.37291,"is_reserved":false,"is_disabled":false,"rental_uris":{"android":"levelo://app?vid=00c157ca-a5a8-49d0-a5fe-1a6e7f7f8a87","ios":"levelo://app?vid=00c157ca-a5a8-49d0-a5fe-1a6e7f7f8a87"},"vehicle_type_id":"4","last_reported":1693595056,"current_range_meters":18000,"station_id":"ce4bgk12rcd13ifvqbj0","pricing_plan_id":"free"},{"bike_id":"10d32cd1-8307-45ca-ad3e-2653e5514234","system_id":"levelo_inurba_marseille","lat":43.2964,"lon":5.37123,"is_reserved":false,"is_disabled":false,"rental_uris":{"android":"levelo://app?vid=10d32cd1-8307-45ca-ad3e-2653e5514234","ios":"levelo://app?vid=10d32cd1-8307-45ca-ad3e-2653e5514234"},"vehicle_type_id":"4","last_reported":1693595056,"current_range_meters":0,"station_id":"","pricing_plan_id":"free"},{"bike_id":"65d934c8-ea94-404c-b991-a012f59c0b64","system_id":"levelo_inurba_marseille","lat":43.296129,"lon":5.370777,"is_reserved":false,"is_disabled":false,"rental_uris":{"android":"levelo://app?vid=65d934c8-ea94-404c-b991-a012f59c0b64","ios":"levelo://app?vid=65d934c8-ea94-404c-b991-a012f59c0b64"},"vehicle_type_id":"4","last_reported":1693595056,"current_range_meters":26400,"station_id":"ce4bgnh2rcd13ifvqc0g","pricing_plan_id":"free"},{"bike_id":"d3139180-8ba9-4c91-b6e4-8baae3c22113","system_id":"levelo_inurba_marseille","lat":43.296131,"lon":5.370773,"is_reserved":false,"is_disabled":false,"rental_uris":{"android":"levelo://app?vid=d3139180-8ba9-4c91-b6e4-8baae3c22113","ios":"levelo://app?vid=d3139180-8ba9-4c91-b6e4-8baae3c22113"},"vehicle_type_id":"4","last_reported":1693595056,"current_range_meters":32000,"station_id":"ce4bgnh2rcd13ifvqc0g","pricing_plan_id":"free"},{"bike_id":"a6263ba9-d201-48ca-8917-79faff7c024a","system_id":"levelo_inurba_marseille","lat":43.296921,"lon":5.376579,"is_reserved":false,"is_disabled":false,"rental_uris":{"android":"levelo://app?vid=a6263ba9-d201-48ca-8917-79faff7c024a","ios":"levelo://app?vid=a6263ba9-d201-48ca-8917-79faff7c024a"},"vehicle_type_id":"4","last_reported":1693595056,"current_range_meters":28000,"station_id":"ce4bgkh2rcd13ifvqbl0","pricing_plan_id":"free"},{"bike_id":"eb539361-761c-49a4-bc64-9688333cc02e","system_id":"levelo_inurba_marseille","lat":43.309589,"lon":5.390258,"is_reserved":false,"is_disabled":false,"rental_uris":{"android":"levelo://app?vid=eb539361-761c-49a4-bc64-9688333cc02e","ios":"levelo://app?vid=eb539361-761c-49a4-bc64-9688333cc02e"},"vehicle_type_id":"4","last_reported":1693595056,"current_range_meters":13200,"station_id":"ce4bgup2rcd13ifvqco0","pricing_plan_id":"free"},{"bike_id":"88dbf378-ec90-4519-a400-42ff6fe9ab28","system_id":"levelo_inurba_marseille","lat":43.30951,"lon":5.39024,"is_reserved":false,"is_disabled":false,"rental_uris":{"android":"levelo://app?vid=88dbf378-ec90-4519-a400-42ff6fe9ab28","ios":"levelo://app?vid=88dbf378-ec90-4519-a400-42ff6fe9ab28"},"vehicle_type_id":"4","last_reported":1693595056,"current_range_meters":400,"station_id":"ce4bgup2rcd13ifvqco0","pricing_plan_id":"free"},{"bike_id":"9ee7b5b4-9d8d-42ac-b8f4-92526e4653aa","system_id":"levelo_inurba_marseille","lat":43.30962,"lon":5.39028,"is_reserved":false,"is_disabled":false,"rental_uris":{"android":"levelo://app?vid=9ee7b5b4-9d8d-42ac-b8f4-92526e4653aa","ios":"levelo://app?vid=9ee7b5b4-9d8d-42ac-b8f4-92526e4653aa"},"vehicle_type_id":"4","last_reported":1693595056,"current_range_meters":31200,"station_id":"ce4bgup2rcd13ifvqco0","pricing_plan_id":"free"},{"bike_id":"412f1aee-4539-4e25-84be-d5b59763f2f8","system_id":"levelo_inurba_marseille","lat":43.30948,"lon":5.39025,"is_reserved":false,"is_disabled":false,"rental_uris":{"android":"levelo://app?vid=412f1aee-4539-4e25-84be-d5b59763f2f8","ios":"levelo://app?vid=412f1aee-4539-4e25-84be-d5b59763f2f8"},"vehicle_type_id":"4","last_reported":1693595056,"current_range_meters":0,"station_id":"ce4bgup2rcd13ifvqco0","pricing_plan_id":"free"},{"bike_id":"cfce367f-b539-4abb-b2f6-1d34ec38beac","system_id":"levelo_inurba_marseille","lat":43.309589,"lon":5.390258,"is_reserved":false,"is_disabled":false,"rental_uris":{"android":"levelo://app?vid=cfce367f-b539-4abb-b2f6-1d34ec38beac","ios":"levelo://app?vid=cfce367f-b539-4abb-b2f6-1d34ec38beac"},"vehicle_type_id":"4","last_reported":1693595056,"current_range_meters":0,"station_id":"ce4bgup2rcd13ifvqco0","pricing_plan_id":"free"},{"bike_id":"bd8ee5b0-8919-468c-b648-85a911512627","system_id":"levelo_inurba_marseille","lat":43.309589,"lon":5.390258,"is_reserved":false,"is_disabled":false,"rental_uris":{"android":"levelo://app?vid=bd8ee5b0-8919-468c-b648-85a911512627","ios":"levelo://app?vid=bd8ee5b0-8919-468c-b648-85a911512627"},"vehicle_type_id":"4","last_reported":1693595056,"current_range_meters":22400,"station_id":"ce4bgup2rcd13ifvqco0","pricing_plan_id":"free"},{"bike_id":"a986c416-aa0d-447d-9e1b-9cb4b03a12f8","system_id":"levelo_inurba_marseille","lat":43.309589,"lon":5.390258,"is_reserved":false,"is_disabled":false,"rental_uris":{"android":"levelo://app?vid=a986c416-aa0d-447d-9e1b-9cb4b03a12f8","ios":"levelo://app?vid=a986c416-aa0d-447d-9e1b-9cb4b03a12f8"},"vehicle_type_id":"4","last_reported":1693595056,"current_range_meters":8400,"station_id":"ce4bgup2rcd13ifvqco0","pricing_plan_id":"free"},{"bike_id":"0aa9eb35-7a3f-482d-97dc-6fa1d23af6d2","system_id":"levelo_inurba_marseille","lat":43.309589,"lon":5.390258,"is_reserved":false,"is_disabled":false,"rental_uris":{"android":"levelo://app?vid=0aa9eb35-7a3f-482d-97dc-6fa1d23af6d2","ios":"levelo://app?vid=0aa9eb35-7a3f-482d-97dc-6fa1d23af6d2"},"vehicle_type_id":"4","last_reported":1693595056,"current_range_meters":10400,"station_id":"ce4bgup2rcd13ifvqco0","pricing_plan_id":"free"},{"bike_id":"bfa17b4e-9fb3-4aff-82c1-4d5ce35e01fa","system_id":"levelo_inurba_marseille","lat":43.309589,"lon":5.390258,"is_reserved":false,"is_disabled":false,"rental_uris":{"android":"levelo://app?vid=bfa17b4e-9fb3-4aff-82c1-4d5ce35e01fa","ios":"levelo://app?vid=bfa17b4e-9fb3-4aff-82c1-4d5ce35e01fa"},"vehicle_type_id":"4","last_reported":1693595056,"current_range_meters":10000,"station_id":"ce4bgup2rcd13ifvqco0","pricing_plan_id":"free"},{"bike_id":"3089806e-cb19-4b3c-a915-4f3952c345c1","system_id":"levelo_inurba_marseille","lat":43.309589,"lon":5.390258,"is_reserved":false,"is_disabled":false,"rental_uris":{"android":"levelo://app?vid=3089806e-cb19-4b3c-a915-4f3952c345c1","ios":"levelo://app?vid=3089806e-cb19-4b3c-a915-4f3952c345c1"},"vehicle_type_id":"4","last_reported":1693595056,"current_range_meters":2000,"station_id":"ce4bgup2rcd13ifvqco0","pricing_plan_id":"free"},{"bike_id":"f99d2b46-cbf2-496e-a5b3-f0583a89f274","system_id":"levelo_inurba_marseille","lat":43.30956,"lon":5.3903,"is_reserved":false,"is_disabled":false,"rental_uris":{"android":"levelo://app?vid=f99d2b46-cbf2-496e-a5b3-f0583a89f274","ios":"levelo://app?vid=f99d2b46-cbf2-496e-a5b3-f0583a89f274"},"vehicle_type_id":"4","last_reported":1693595056,"current_range_meters":6400,"station_id":"ce4bgup2rcd13ifvqco0","pricing_plan_id":"free"},{"bike_id":"ca425522-56a2-4cc8-8f07-5e7e4c0b5846","system_id":"levelo_inurba_marseille","lat":43.309589,"lon":5.390258,"is_reserved":false,"is_disabled":false,"rental_uris":{"android":"levelo://app?vid=ca425522-56a2-4cc8-8f07-5e7e4c0b5846","ios":"levelo://app?vid=ca425522-56a2-4cc8-8f07-5e7e4c0b5846"},"vehicle_type_id":"4","last_reported":1693595056,"current_range_meters":16000,"station_id":"ce4bgup2rcd13ifvqco0","pricing_plan_id":"free"},{"bike_id":"3461b4c0-8677-45c6-9e66-4d777b35de32","system_id":"levelo_inurba_marseille","lat":43.30956,"lon":5.39031,"is_reserved":false,"is_disabled":false,"rental_uris":{"android":"levelo://app?vid=3461b4c0-8677-45c6-9e66-4d777b35de32","ios":"levelo://app?vid=3461b4c0-8677-45c6-9e66-4d777b35de32"},"vehicle_type_id":"4","last_reported":1693595056,"current_range_meters":7600,"station_id":"ce4bgup2rcd13ifvqco0","pricing_plan_id":"free"},{"bike_id":"47aea273-49fa-4220-a2a1-cdea554722b5","system_id":"levelo_inurba_marseille","lat":43.30946,"lon":5.39029,"is_reserved":false,"is_disabled":false,"rental_uris":{"android":"levelo://app?vid=47aea273-49fa-4220-a2a1-cdea554722b5","ios":"levelo://app?vid=47aea273-49fa-4220-a2a1-cdea554722b5"},"vehicle_type_id":"4","last_reported":1693595056,"current_range_meters":26800,"station_id":"ce4bgup2rcd13ifvqco0","pricing_plan_id":"free"},{"bike_id":"02d7d09e-c48d-45bb-a090-3f7efb092853","system_id":"levelo_inurba_marseille","lat":43.30958,"lon":5.39033,"is_reserved":false,"is_disabled":false,"rental_uris":{"android":"levelo://app?vid=02d7d09e-c48d-45bb-a090-3f7efb092853","ios":"levelo://app?vid=02d7d09e-c48d-45bb-a090-3f7efb092853"},"vehicle_type_id":"4","last_reported":1693595056,"current_range_meters":17200,"station_id":"ce4bgup2rcd13ifvqco0","pricing_plan_id":"free"},{"bike_id":"824a5153-66b5-4a98-b547-3f5e3d93b921","system_id":"levelo_inurba_marseille","lat":43.309589,"lon":5.390258,"is_reserved":false,"is_disabled":false,"rental_uris":{"android":"levelo://app?vid=824a5153-66b5-4a98-b547-3f5e3d93b921","ios":"levelo://app?vid=824a5153-66b5-4a98-b547-3f5e3d93b921"},"vehicle_type_id":"4","last_reported":1693595056,"current_range_meters":12000,"station_id":"ce4bgup2rcd13ifvqco0","pricing_plan_id":"free"},{"bike_id":"7d481d78-7da7-4cd0-9141-1ef971372069","system_id":"levelo_inurba_marseille","lat":43.30952,"lon":5.39034,"is_reserved":false,"is_disabled":false,"rental_uris":{"android":"levelo://app?vid=7d481d78-7da7-4cd0-9141-1ef971372069","ios":"levelo://app?vid=7d481d78-7da7-4cd0-9141-1ef971372069"},"vehicle_type_id":"4","last_reported":1693595056,"current_range_meters":13600,"station_id":"ce4bgup2rcd13ifvqco0","pricing_plan_id":"free"},{"bike_id":"f7adcce5-6680-4ff1-96a4-a5c4a4a46057","system_id":"levelo_inurba_marseille","lat":43.309589,"lon":5.390258,"is_reserved":false,"is_disabled":false,"rental_uris":{"android":"levelo://app?vid=f7adcce5-6680-4ff1-96a4-a5c4a4a46057","ios":"levelo://app?vid=f7adcce5-6680-4ff1-96a4-a5c4a4a46057"},"vehicle_type_id":"4","last_reported":1693595056,"current_range_meters":19600,"station_id":"ce4bgup2rcd13ifvqco0","pricing_plan_id":"free"},{"bike_id":"e6b3466c-f750-459a-91d0-a2713551c3a1","system_id":"levelo_inurba_marseille","lat":43.309589,"lon":5.390258,"is_reserved":false,"is_disabled":false,"rental_uris":{"android":"levelo://app?vid=e6b3466c-f750-459a-91d0-a2713551c3a1","ios":"levelo://app?vid=e6b3466c-f750-459a-91d0-a2713551c3a1"},"vehicle_type_id":"4","last_reported":1693595056,"current_range_meters":13200,"station_id":"ce4bgup2rcd13ifvqco0","pricing_plan_id":"free"},{"bike_id":"74603b1d-5a06-445b-bae1-cbfb427aa90e","system_id":"levelo_inurba_marseille","lat":43.309589,"lon":5.390258,"is_reserved":false,"is_disabled":false,"rental_uris":{"android":"levelo://app?vid=74603b1d-5a06-445b-bae1-cbfb427aa90e","ios":"levelo://app?vid=74603b1d-5a06-445b-bae1-cbfb427aa90e"},"vehicle_type_id":"4","last_reported":1693595056,"current_range_meters":31200,"station_id":"ce4bgup2rcd13ifvqco0","pricing_plan_id":"free"},{"bike_id":"b82b79d0-dbe4-43fb-bcd1-7501457914d0","system_id":"levelo_inurba_marseille","lat":43.309589,"lon":5.390258,"is_reserved":false,"is_disabled":false,"rental_uris":{"android":"levelo://app?vid=b82b79d0-dbe4-43fb-bcd1-7501457914d0","ios":"levelo://app?vid=b82b79d0-dbe4-43fb-bcd1-7501457914d0"},"vehicle_type_id":"4","last_reported":1693595056,"current_range_meters":2000,"station_id":"ce4bgup2rcd13ifvqco0","pricing_plan_id":"free"},{"bike_id":"af51b089-c834-4333-a5ab-6860ea370ca5","system_id":"levelo_inurba_marseille","lat":43.30957,"lon":5.39041,"is_reserved":false,"is_disabled":false,"rental_uris":{"android":"levelo://app?vid=af51b089-c834-4333-a5ab-6860ea370ca5","ios":"levelo://app?vid=af51b089-c834-4333-a5ab-6860ea370ca5"},"vehicle_type_id":"4","last_reported":1693595056,"current_range_meters":8800,"station_id":"ce4bgup2rcd13ifvqco0","pricing_plan_id":"free"},{"bike_id":"588ba0bb-cd97-4057-a1a6-440ce5c30f14","system_id":"levelo_inurba_marseille","lat":43.309589,"lon":5.390258,"is_reserved":false,"is_disabled":false,"rental_uris":{"android":"levelo://app?vid=588ba0bb-cd97-4057-a1a6-440ce5c30f14","ios":"levelo://app?vid=588ba0bb-cd97-4057-a1a6-440ce5c30f14"},"vehicle_type_id":"4","last_reported":1693595056,"current_range_meters":19200,"station_id":"ce4bgup2rcd13ifvqco0","pricing_plan_id":"free"},{"bike_id":"d34f70d6-4967-4b6f-b011-87b316708a8b","system_id":"levelo_inurba_marseille","lat":43.309589,"lon":5.390258,"is_reserved":false,"is_disabled":false,"rental_uris":{"android":"levelo://app?vid=d34f70d6-4967-4b6f-b011-87b316708a8b","ios":"levelo://app?vid=d34f70d6-4967-4b6f-b011-87b316708a8b"},"vehicle_type_id":"4","last_reported":1693595056,"current_range_meters":19600,"station_id":"ce4bgup2rcd13ifvqco0","pricing_plan_id":"free"},{"bike_id":"c821e34f-8692-4125-b850-d4744425baf6","system_id":"levelo_inurba_marseille","lat":43.309589,"lon":5.390258,"is_reserved":false,"is_disabled":false,"rental_uris":{"android":"levelo://app?vid=c821e34f-8692-4125-b850-d4744425baf6","ios":"levelo://app?vid=c821e34f-8692-4125-b850-d4744425baf6"},"vehicle_type_id":"4","last_reported":1693595056,"current_range_meters":1600,"station_id":"ce4bgup2rcd13ifvqco0","pricing_plan_id":"free"},{"bike_id":"82acabdf-ee1e-4436-b0ee-908eb1d71b44","system_id":"levelo_inurba_marseille","lat":43.30953,"lon":5.39044,"is_reserved":false,"is_disabled":false,"rental_uris":{"android":"levelo://app?vid=82acabdf-ee1e-4436-b0ee-908eb1d71b44","ios":"levelo://app?vid=82acabdf-ee1e-4436-b0ee-908eb1d71b44"},"vehicle_type_id":"4","last_reported":1693595056,"current_range_meters":25200,"station_id":"","pricing_plan_id":"free"},{"bike_id":"147144be-c18f-4579-9cce-21f3433a0e8c","system_id":"levelo_inurba_marseille","lat":43.309589,"lon":5.390258,"is_reserved":false,"is_disabled":false,"rental_uris":{"android":"levelo://app?vid=147144be-c18f-4579-9cce-21f3433a0e8c","ios":"levelo://app?vid=147144be-c18f-4579-9cce-21f3433a0e8c"},"vehicle_type_id":"4","last_reported":1693595056,"current_range_meters":10000,"station_id":"ce4bgup2rcd13ifvqco0","pricing_plan_id":"free"},{"bike_id":"a6a21b1c-9610-43c9-9344-f1839e0842bd","system_id":"levelo_inurba_marseille","lat":43.30947,"lon":5.39043,"is_reserved":false,"is_disabled":false,"rental_uris":{"android":"levelo://app?vid=a6a21b1c-9610-43c9-9344-f1839e0842bd","ios":"levelo://app?vid=a6a21b1c-9610-43c9-9344-f1839e0842bd"},"vehicle_type_id":"4","last_reported":1693595056,"current_range_meters":16000,"station_id":"ce4bgup2rcd13ifvqco0","pricing_plan_id":"free"},{"bike_id":"b1d5e77b-d88e-4446-83aa-2fc90bbea47c","system_id":"levelo_inurba_marseille","lat":43.309589,"lon":5.390258,"is_reserved":false,"is_disabled":false,"rental_uris":{"android":"levelo://app?vid=b1d5e77b-d88e-4446-83aa-2fc90bbea47c","ios":"levelo://app?vid=b1d5e77b-d88e-4446-83aa-2fc90bbea47c"},"vehicle_type_id":"4","last_reported":1693595056,"current_range_meters":8400,"station_id":"ce4bgup2rcd13ifvqco0","pricing_plan_id":"free"},{"bike_id":"2c93ce6f-c5e1-4ec9-9941-ebb7469bb8f2","system_id":"levelo_inurba_marseille","lat":43.31763,"lon":5.39005,"is_reserved":false,"is_disabled":false,"rental_uris":{"android":"levelo://app?vid=2c93ce6f-c5e1-4ec9-9941-ebb7469bb8f2","ios":"levelo://app?vid=2c93ce6f-c5e1-4ec9-9941-ebb7469bb8f2"},"vehicle_type_id":"4","last_reported":1693595056,"current_range_meters":19200,"station_id":"ce4bhqp2rcd13ifvqhng","pricing_plan_id":"free"},{"bike_id":"1b5b4211-83a3-483e-9cdf-2b196fba5adb","system_id":"levelo_inurba_marseille","lat":43.317557,"lon":5.390173,"is_reserved":false,"is_disabled":false,"rental_uris":{"android":"levelo://app?vid=1b5b4211-83a3-483e-9cdf-2b196fba5adb","ios":"levelo://app?vid=1b5b4211-83a3-483e-9cdf-2b196fba5adb"},"vehicle_type_id":"4","last_reported":1693595056,"current_range_meters":23200,"station_id":"ce4bhqp2rcd13ifvqhng","pricing_plan_id":"free"},{"bike_id":"06ca0788-b293-460b-8895-d61bb1299aa4","system_id":"levelo_inurba_marseille","lat":43.317557,"lon":5.390173,"is_reserved":false,"is_disabled":false,"rental_uris":{"android":"levelo://app?vid=06ca0788-b293-460b-8895-d61bb1299aa4","ios":"levelo://app?vid=06ca0788-b293-460b-8895-d61bb1299aa4"},"vehicle_type_id":"4","last_reported":1693595056,"current_range_meters":29200,"station_id":"ce4bhqp2rcd13ifvqhng","pricing_plan_id":"free"},{"bike_id":"60c26bea-b6ea-44c2-8838-59b00d1bf8b2","system_id":"levelo_inurba_marseille","lat":43.317557,"lon":5.390173,"is_reserved":false,"is_disabled":false,"rental_uris":{"android":"levelo://app?vid=60c26bea-b6ea-44c2-8838-59b00d1bf8b2","ios":"levelo://app?vid=60c26bea-b6ea-44c2-8838-59b00d1bf8b2"},"vehicle_type_id":"4","last_reported":1693595056,"current_range_meters":31600,"station_id":"ce4bhqp2rcd13ifvqhng","pricing_plan_id":"free"},{"bike_id":"88d9d596-f438-4684-ae9f-d2d3fa8d2d69","system_id":"levelo_inurba_marseille","lat":43.317557,"lon":5.390173,"is_reserved":false,"is_disabled":false,"rental_uris":{"android":"levelo://app?vid=88d9d596-f438-4684-ae9f-d2d3fa8d2d69","ios":"levelo://app?vid=88d9d596-f438-4684-ae9f-d2d3fa8d2d69"},"vehicle_type_id":"4","last_reported":1693595056,"current_range_meters":28800,"station_id":"ce4bhqp2rcd13ifvqhng","pricing_plan_id":"free"},{"bike_id":"93a3695c-51b1-411c-a1c4-cdb271a31bf2","system_id":"levelo_inurba_marseille","lat":43.31764,"lon":5.39015,"is_reserved":false,"is_disabled":false,"rental_uris":{"android":"levelo://app?vid=93a3695c-51b1-411c-a1c4-cdb271a31bf2","ios":"levelo://app?vid=93a3695c-51b1-411c-a1c4-cdb271a31bf2"},"vehicle_type_id":"4","last_reported":1693595056,"current_range_meters":8000,"station_id":"ce4bhqp2rcd13ifvqhng","pricing_plan_id":"free"},{"bike_id":"86d37462-6f2c-4ee1-b5e1-16f3e9285866","system_id":"levelo_inurba_marseille","lat":43.31755,"lon":5.39023,"is_reserved":false,"is_disabled":false,"rental_uris":{"android":"levelo://app?vid=86d37462-6f2c-4ee1-b5e1-16f3e9285866","ios":"levelo://app?vid=86d37462-6f2c-4ee1-b5e1-16f3e9285866"},"vehicle_type_id":"4","last_reported":1693595056,"current_range_meters":19600,"station_id":"ce4bhqp2rcd13ifvqhng","pricing_plan_id":"free"},{"bike_id":"2d38d843-9501-4a8b-8d1e-e53e054245cc","system_id":"levelo_inurba_marseille","lat":43.29702,"lon":5.37811,"is_reserved":false,"is_disabled":false,"rental_uris":{"android":"levelo://app?vid=2d38d843-9501-4a8b-8d1e-e53e054245cc","ios":"levelo://app?vid=2d38d843-9501-4a8b-8d1e-e53e054245cc"},"vehicle_type_id":"4","last_reported":1693595056,"current_range_meters":31200,"station_id":"","pricing_plan_id":"free"},{"bike_id":"155389bd-954b-4b79-aff1-786bbecbae44","system_id":"levelo_inurba_marseille","lat":43.298037,"lon":5.381066,"is_reserved":false,"is_disabled":false,"rental_uris":{"android":"levelo://app?vid=155389bd-954b-4b79-aff1-786bbecbae44","ios":"levelo://app?vid=155389bd-954b-4b79-aff1-786bbecbae44"},"vehicle_type_id":"4","last_reported":1693595056,"current_range_meters":16400,"station_id":"ce4bgip2rcd13ifvqbb0","pricing_plan_id":"free"},{"bike_id":"cb22f326-0c91-4af2-945b-0560c3f9070c","system_id":"levelo_inurba_marseille","lat":43.29785,"lon":5.38095,"is_reserved":false,"is_disabled":false,"rental_uris":{"android":"levelo://app?vid=cb22f326-0c91-4af2-945b-0560c3f9070c","ios":"levelo://app?vid=cb22f326-0c91-4af2-945b-0560c3f9070c"},"vehicle_type_id":"4","last_reported":1693595056,"current_range_meters":21200,"station_id":"ce4bgip2rcd13ifvqbb0","pricing_plan_id":"free"},{"bike_id":"17b6eb61-09b5-4f3e-bd78-ff4ea769e69d","system_id":"levelo_inurba_marseille","lat":43.295748,"lon":5.37522,"is_reserved":false,"is_disabled":false,"rental_uris":{"android":"levelo://app?vid=17b6eb61-09b5-4f3e-bd78-ff4ea769e69d","ios":"levelo://app?vid=17b6eb61-09b5-4f3e-bd78-ff4ea769e69d"},"vehicle_type_id":"4","last_reported":1693595056,"current_range_meters":16800,"station_id":"ce4bgh92rcd13ifvqb50","pricing_plan_id":"free"},{"bike_id":"77136d04-977f-468d-b4b1-78082aef1c08","system_id":"levelo_inurba_marseille","lat":43.30424,"lon":5.38883,"is_reserved":false,"is_disabled":false,"rental_uris":{"android":"levelo://app?vid=77136d04-977f-468d-b4b1-78082aef1c08","ios":"levelo://app?vid=77136d04-977f-468d-b4b1-78082aef1c08"},"vehicle_type_id":"4","last_reported":1693595056,"current_range_meters":13600,"station_id":"ce4bgk12rcd13ifvqbi0","pricing_plan_id":"free"},{"bike_id":"268b8c2e-b81a-4ddf-9e6d-82f30de65040","system_id":"levelo_inurba_marseille","lat":43.304274,"lon":5.388873,"is_reserved":false,"is_disabled":false,"rental_uris":{"android":"levelo://app?vid=268b8c2e-b81a-4ddf-9e6d-82f30de65040","ios":"levelo://app?vid=268b8c2e-b81a-4ddf-9e6d-82f30de65040"},"vehicle_type_id":"4","last_reported":1693595056,"current_range_meters":13600,"station_id":"ce4bgk12rcd13ifvqbi0","pricing_plan_id":"free"},{"bike_id":"1e11c57d-bf34-4a38-a0c6-b6a10c6b10c8","system_id":"levelo_inurba_marseille","lat":43.295748,"lon":5.37522,"is_reserved":false,"is_disabled":false,"rental_uris":{"android":"levelo://app?vid=1e11c57d-bf34-4a38-a0c6-b6a10c6b10c8","ios":"levelo://app?vid=1e11c57d-bf34-4a38-a0c6-b6a10c6b10c8"},"vehicle_type_id":"4","last_reported":1693595056,"current_range_meters":6400,"station_id":"ce4bgh92rcd13ifvqb50","pricing_plan_id":"free"},{"bike_id":"033e8f93-589b-42ed-a292-97e21995cf24","system_id":"levelo_inurba_marseille","lat":43.29626,"lon":5.37715,"is_reserved":false,"is_disabled":false,"rental_uris":{"android":"levelo://app?vid=033e8f93-589b-42ed-a292-97e21995cf24","ios":"levelo://app?vid=033e8f93-589b-42ed-a292-97e21995cf24"},"vehicle_type_id":"4","last_reported":1693595056,"current_range_meters":6800,"station_id":"ce4bgi92rcd13ifvqb90","pricing_plan_id":"free"},{"bike_id":"14d1fa76-22d5-4000-978b-8a79765bf1b4","system_id":"levelo_inurba_marseille","lat":43.29569,"lon":5.3752,"is_reserved":false,"is_disabled":false,"rental_uris":{"android":"levelo://app?vid=14d1fa76-22d5-4000-978b-8a79765bf1b4","ios":"levelo://app?vid=14d1fa76-22d5-4000-978b-8a79765bf1b4"},"vehicle_type_id":"4","last_reported":1693595056,"current_range_meters":20400,"station_id":"ce4bgh92rcd13ifvqb50","pricing_plan_id":"free"},{"bike_id":"75895f86-02b8-4f67-9e17-6afcb69a812b","system_id":"levelo_inurba_marseille","lat":43.304274,"lon":5.388873,"is_reserved":false,"is_disabled":false,"rental_uris":{"android":"levelo://app?vid=75895f86-02b8-4f67-9e17-6afcb69a812b","ios":"levelo://app?vid=75895f86-02b8-4f67-9e17-6afcb69a812b"},"vehicle_type_id":"4","last_reported":1693595056,"current_range_meters":0,"station_id":"ce4bgk12rcd13ifvqbi0","pricing_plan_id":"free"},{"bike_id":"5810e9c4-06ed-454d-b78b-82ae30324dcc","system_id":"levelo_inurba_marseille","lat":43.304274,"lon":5.388873,"is_reserved":false,"is_disabled":false,"rental_uris":{"android":"levelo://app?vid=5810e9c4-06ed-454d-b78b-82ae30324dcc","ios":"levelo://app?vid=5810e9c4-06ed-454d-b78b-82ae30324dcc"},"vehicle_type_id":"4","last_reported":1693595056,"current_range_meters":15600,"station_id":"ce4bgk12rcd13ifvqbi0","pricing_plan_id":"free"},{"bike_id":"bf9f933f-e9e4-41ad-b24c-1a9d27fc51ad","system_id":"levelo_inurba_marseille","lat":43.295748,"lon":5.37522,"is_reserved":false,"is_disabled":false,"rental_uris":{"android":"levelo://app?vid=bf9f933f-e9e4-41ad-b24c-1a9d27fc51ad","ios":"levelo://app?vid=bf9f933f-e9e4-41ad-b24c-1a9d27fc51ad"},"vehicle_type_id":"4","last_reported":1693595056,"current_range_meters":20000,"station_id":"ce4bgh92rcd13ifvqb50","pricing_plan_id":"free"},{"bike_id":"b6cfad34-5d80-42f0-b619-482f08427015","system_id":"levelo_inurba_marseille","lat":43.295748,"lon":5.37522,"is_reserved":false,"is_disabled":false,"rental_uris":{"android":"levelo://app?vid=b6cfad34-5d80-42f0-b619-482f08427015","ios":"levelo://app?vid=b6cfad34-5d80-42f0-b619-482f08427015"},"vehicle_type_id":"4","last_reported":1693595056,"current_range_meters":1600,"station_id":"ce4bgh92rcd13ifvqb50","pricing_plan_id":"free"},{"bike_id":"baa5510e-c529-4b6d-916e-83edb18f4e71","system_id":"levelo_inurba_marseille","lat":43.304278,"lon":5.388868,"is_reserved":false,"is_disabled":false,"rental_uris":{"android":"levelo://app?vid=baa5510e-c529-4b6d-916e-83edb18f4e71","ios":"levelo://app?vid=baa5510e-c529-4b6d-916e-83edb18f4e71"},"vehicle_type_id":"4","last_reported":1693595056,"current_range_meters":6400,"station_id":"ce4bgk12rcd13ifvqbi0","pricing_plan_id":"free"},{"bike_id":"88771210-256a-428c-9523-735b3bb6707b","system_id":"levelo_inurba_marseille","lat":43.295279,"lon":5.375048,"is_reserved":false,"is_disabled":false,"rental_uris":{"android":"levelo://app?vid=88771210-256a-428c-9523-735b3bb6707b","ios":"levelo://app?vid=88771210-256a-428c-9523-735b3bb6707b"},"vehicle_type_id":"4","last_reported":1693595056,"current_range_meters":24400,"station_id":"ce4bgkp2rcd13ifvqbmg","pricing_plan_id":"free"},{"bike_id":"3c9e6aae-9d9e-4bfc-b499-f6f8b3a5c663","system_id":"levelo_inurba_marseille","lat":43.295748,"lon":5.37522,"is_reserved":false,"is_disabled":false,"rental_uris":{"android":"levelo://app?vid=3c9e6aae-9d9e-4bfc-b499-f6f8b3a5c663","ios":"levelo://app?vid=3c9e6aae-9d9e-4bfc-b499-f6f8b3a5c663"},"vehicle_type_id":"4","last_reported":1693595056,"current_range_meters":16000,"station_id":"ce4bgh92rcd13ifvqb50","pricing_plan_id":"free"},{"bike_id":"3760e8d3-15c4-4822-83f0-e31a46dbffe6","system_id":"levelo_inurba_marseille","lat":43.295279,"lon":5.375048,"is_reserved":false,"is_disabled":false,"rental_uris":{"android":"levelo://app?vid=3760e8d3-15c4-4822-83f0-e31a46dbffe6","ios":"levelo://app?vid=3760e8d3-15c4-4822-83f0-e31a46dbffe6"},"vehicle_type_id":"4","last_reported":1693595056,"current_range_meters":0,"station_id":"ce4bgkp2rcd13ifvqbmg","pricing_plan_id":"free"},{"bike_id":"a52c3816-d33a-4733-9e2b-d156b8922a76","system_id":"levelo_inurba_marseille","lat":43.295279,"lon":5.375048,"is_reserved":false,"is_disabled":false,"rental_uris":{"android":"levelo://app?vid=a52c3816-d33a-4733-9e2b-d156b8922a76","ios":"levelo://app?vid=a52c3816-d33a-4733-9e2b-d156b8922a76"},"vehicle_type_id":"4","last_reported":1693595056,"current_range_meters":11200,"station_id":"ce4bgkp2rcd13ifvqbmg","pricing_plan_id":"free"},{"bike_id":"7f5b15f2-d758-4965-a5e4-0794da18d67c","system_id":"levelo_inurba_marseille","lat":43.299707,"lon":5.384859,"is_reserved":false,"is_disabled":false,"rental_uris":{"android":"levelo://app?vid=7f5b15f2-d758-4965-a5e4-0794da18d67c","ios":"levelo://app?vid=7f5b15f2-d758-4965-a5e4-0794da18d67c"},"vehicle_type_id":"4","last_reported":1693595056,"current_range_meters":16400,"station_id":"ce4bgj92rcd13ifvqbd0","pricing_plan_id":"free"},{"bike_id":"12149317-b575-4576-a1b8-ae85bb34f5d2","system_id":"levelo_inurba_marseille","lat":43.292311,"lon":5.360731,"is_reserved":false,"is_disabled":false,"rental_uris":{"android":"levelo://app?vid=12149317-b575-4576-a1b8-ae85bb34f5d2","ios":"levelo://app?vid=12149317-b575-4576-a1b8-ae85bb34f5d2"},"vehicle_type_id":"4","last_reported":1693595056,"current_range_meters":0,"station_id":"ce4bhbh2rcd13ifvqeqg","pricing_plan_id":"free"},{"bike_id":"f703e3f7-bee5-4dcc-8c28-803aaba0a963","system_id":"levelo_inurba_marseille","lat":43.29974,"lon":5.38497,"is_reserved":false,"is_disabled":false,"rental_uris":{"android":"levelo://app?vid=f703e3f7-bee5-4dcc-8c28-803aaba0a963","ios":"levelo://app?vid=f703e3f7-bee5-4dcc-8c28-803aaba0a963"},"vehicle_type_id":"4","last_reported":1693595056,"current_range_meters":11200,"station_id":"ce4bgj92rcd13ifvqbd0","pricing_plan_id":"free"},{"bike_id":"ca518faa-3302-4682-8a76-e5cfa9ad80ba","system_id":"levelo_inurba_marseille","lat":43.299724,"lon":5.384848,"is_reserved":false,"is_disabled":false,"rental_uris":{"android":"levelo://app?vid=ca518faa-3302-4682-8a76-e5cfa9ad80ba","ios":"levelo://app?vid=ca518faa-3302-4682-8a76-e5cfa9ad80ba"},"vehicle_type_id":"4","last_reported":1693595056,"current_range_meters":12400,"station_id":"ce4bgj92rcd13ifvqbd0","pricing_plan_id":"free"},{"bike_id":"3f78c66f-2518-497e-a6e8-d5b25ed7d2fe","system_id":"levelo_inurba_marseille","lat":43.299717,"lon":5.384845,"is_reserved":false,"is_disabled":false,"rental_uris":{"android":"levelo://app?vid=3f78c66f-2518-497e-a6e8-d5b25ed7d2fe","ios":"levelo://app?vid=3f78c66f-2518-497e-a6e8-d5b25ed7d2fe"},"vehicle_type_id":"4","last_reported":1693595056,"current_range_meters":29200,"station_id":"ce4bgj92rcd13ifvqbd0","pricing_plan_id":"free"},{"bike_id":"f761f20f-3c58-4320-ade6-86f89ade129a","system_id":"levelo_inurba_marseille","lat":43.299717,"lon":5.384845,"is_reserved":false,"is_disabled":false,"rental_uris":{"android":"levelo://app?vid=f761f20f-3c58-4320-ade6-86f89ade129a","ios":"levelo://app?vid=f761f20f-3c58-4320-ade6-86f89ade129a"},"vehicle_type_id":"4","last_reported":1693595056,"current_range_meters":400,"station_id":"ce4bgj92rcd13ifvqbd0","pricing_plan_id":"free"},{"bike_id":"2787b3a9-a734-430f-93c3-9cdac1c5480a","system_id":"levelo_inurba_marseille","lat":43.311722,"lon":5.387247,"is_reserved":false,"is_disabled":false,"rental_uris":{"android":"levelo://app?vid=2787b3a9-a734-430f-93c3-9cdac1c5480a","ios":"levelo://app?vid=2787b3a9-a734-430f-93c3-9cdac1c5480a"},"vehicle_type_id":"4","last_reported":1693595056,"current_range_meters":400,"station_id":"ce4bgv12rcd13ifvqcp0","pricing_plan_id":"free"},{"bike_id":"c80dec75-9f2a-4022-a594-a86811d89819","system_id":"levelo_inurba_marseille","lat":43.292644,"lon":5.384257,"is_reserved":false,"is_disabled":false,"rental_uris":{"android":"levelo://app?vid=c80dec75-9f2a-4022-a594-a86811d89819","ios":"levelo://app?vid=c80dec75-9f2a-4022-a594-a86811d89819"},"vehicle_type_id":"4","last_reported":1693595056,"current_range_meters":12000,"station_id":"ce4bh692rcd13ifvqea0","pricing_plan_id":"free"},{"bike_id":"9180c84f-0f25-4355-8dec-d34711128242","system_id":"levelo_inurba_marseille","lat":43.32364,"lon":5.38878,"is_reserved":false,"is_disabled":false,"rental_uris":{"android":"levelo://app?vid=9180c84f-0f25-4355-8dec-d34711128242","ios":"levelo://app?vid=9180c84f-0f25-4355-8dec-d34711128242"},"vehicle_type_id":"4","last_reported":1693595056,"current_range_meters":24000,"station_id":"ce4bhqp2rcd13ifvqhog","pricing_plan_id":"free"},{"bike_id":"06edc62d-4336-4e5a-9dcf-00fb1209f18a","system_id":"levelo_inurba_marseille","lat":43.32361,"lon":5.38881,"is_reserved":false,"is_disabled":false,"rental_uris":{"android":"levelo://app?vid=06edc62d-4336-4e5a-9dcf-00fb1209f18a","ios":"levelo://app?vid=06edc62d-4336-4e5a-9dcf-00fb1209f18a"},"vehicle_type_id":"4","last_reported":1693595056,"current_range_meters":31200,"station_id":"ce4bhqp2rcd13ifvqhog","pricing_plan_id":"free"},{"bike_id":"8181e861-4f28-43e6-b352-b668aa565979","system_id":"levelo_inurba_marseille","lat":43.32366,"lon":5.38878,"is_reserved":false,"is_disabled":false,"rental_uris":{"android":"levelo://app?vid=8181e861-4f28-43e6-b352-b668aa565979","ios":"levelo://app?vid=8181e861-4f28-43e6-b352-b668aa565979"},"vehicle_type_id":"4","last_reported":1693595056,"current_range_meters":30000,"station_id":"ce4bhqp2rcd13ifvqhog","pricing_plan_id":"free"},{"bike_id":"ff25b2c0-9288-4710-aefe-153e38ec535b","system_id":"levelo_inurba_marseille","lat":43.32364,"lon":5.38881,"is_reserved":false,"is_disabled":false,"rental_uris":{"android":"levelo://app?vid=ff25b2c0-9288-4710-aefe-153e38ec535b","ios":"levelo://app?vid=ff25b2c0-9288-4710-aefe-153e38ec535b"},"vehicle_type_id":"4","last_reported":1693595056,"current_range_meters":21200,"station_id":"ce4bhqp2rcd13ifvqhog","pricing_plan_id":"free"},{"bike_id":"75dd2d9b-e11c-4209-90bf-8c81a9698c47","system_id":"levelo_inurba_marseille","lat":43.32365,"lon":5.38882,"is_reserved":false,"is_disabled":false,"rental_uris":{"android":"levelo://app?vid=75dd2d9b-e11c-4209-90bf-8c81a9698c47","ios":"levelo://app?vid=75dd2d9b-e11c-4209-90bf-8c81a9698c47"},"vehicle_type_id":"4","last_reported":1693595056,"current_range_meters":30000,"station_id":"ce4bhqp2rcd13ifvqhog","pricing_plan_id":"free"},{"bike_id":"04bd86b5-0561-4cf7-b54e-88dfd8a933b3","system_id":"levelo_inurba_marseille","lat":43.32365,"lon":5.38883,"is_reserved":false,"is_disabled":false,"rental_uris":{"android":"levelo://app?vid=04bd86b5-0561-4cf7-b54e-88dfd8a933b3","ios":"levelo://app?vid=04bd86b5-0561-4cf7-b54e-88dfd8a933b3"},"vehicle_type_id":"4","last_reported":1693595056,"current_range_meters":30000,"station_id":"ce4bhqp2rcd13ifvqhog","pricing_plan_id":"free"},{"bike_id":"80c123b5-6d3f-41b7-81ac-5af17e4f7470","system_id":"levelo_inurba_marseille","lat":43.32366,"lon":5.38884,"is_reserved":false,"is_disabled":false,"rental_uris":{"android":"levelo://app?vid=80c123b5-6d3f-41b7-81ac-5af17e4f7470","ios":"levelo://app?vid=80c123b5-6d3f-41b7-81ac-5af17e4f7470"},"vehicle_type_id":"4","last_reported":1693595056,"current_range_meters":400,"station_id":"ce4bhqp2rcd13ifvqhog","pricing_plan_id":"free"},{"bike_id":"899db4cf-53c9-490f-9588-c2dabe0e6d13","system_id":"levelo_inurba_marseille","lat":43.32367,"lon":5.388836,"is_reserved":false,"is_disabled":false,"rental_uris":{"android":"levelo://app?vid=899db4cf-53c9-490f-9588-c2dabe0e6d13","ios":"levelo://app?vid=899db4cf-53c9-490f-9588-c2dabe0e6d13"},"vehicle_type_id":"4","last_reported":1693595056,"current_range_meters":5600,"station_id":"ce4bhqp2rcd13ifvqhog","pricing_plan_id":"free"},{"bike_id":"7aa77db7-e41f-44d4-b53f-fb7edd03bc3e","system_id":"levelo_inurba_marseille","lat":43.29602,"lon":5.381084,"is_reserved":false,"is_disabled":false,"rental_uris":{"android":"levelo://app?vid=7aa77db7-e41f-44d4-b53f-fb7edd03bc3e","ios":"levelo://app?vid=7aa77db7-e41f-44d4-b53f-fb7edd03bc3e"},"vehicle_type_id":"4","last_reported":1693595056,"current_range_meters":26400,"station_id":"ce4bgl12rcd13ifvqbo0","pricing_plan_id":"free"},{"bike_id":"11bc524c-a082-48ac-86f5-9bd8ceea3835","system_id":"levelo_inurba_marseille","lat":43.30559,"lon":5.39205,"is_reserved":false,"is_disabled":false,"rental_uris":{"android":"levelo://app?vid=11bc524c-a082-48ac-86f5-9bd8ceea3835","ios":"levelo://app?vid=11bc524c-a082-48ac-86f5-9bd8ceea3835"},"vehicle_type_id":"4","last_reported":1693595056,"current_range_meters":24800,"station_id":"","pricing_plan_id":"free"},{"bike_id":"af378848-4ab5-4a0c-a75c-c290cd6c3483","system_id":"levelo_inurba_marseille","lat":43.32459,"lon":5.38946,"is_reserved":false,"is_disabled":false,"rental_uris":{"android":"levelo://app?vid=af378848-4ab5-4a0c-a75c-c290cd6c3483","ios":"levelo://app?vid=af378848-4ab5-4a0c-a75c-c290cd6c3483"},"vehicle_type_id":"4","last_reported":1693595056,"current_range_meters":2400,"station_id":"","pricing_plan_id":"free"},{"bike_id":"45043905-43e7-4fb1-a16b-9aca8ca93080","system_id":"levelo_inurba_marseille","lat":43.29302,"lon":5.37455,"is_reserved":false,"is_disabled":false,"rental_uris":{"android":"levelo://app?vid=45043905-43e7-4fb1-a16b-9aca8ca93080","ios":"levelo://app?vid=45043905-43e7-4fb1-a16b-9aca8ca93080"},"vehicle_type_id":"4","last_reported":1693595056,"current_range_meters":13200,"station_id":"ce4bgi12rcd13ifvqb70","pricing_plan_id":"free"},{"bike_id":"ab90b695-87f2-402a-a821-9567b8892277","system_id":"levelo_inurba_marseille","lat":43.30085,"lon":5.390856,"is_reserved":false,"is_disabled":false,"rental_uris":{"android":"levelo://app?vid=ab90b695-87f2-402a-a821-9567b8892277","ios":"levelo://app?vid=ab90b695-87f2-402a-a821-9567b8892277"},"vehicle_type_id":"4","last_reported":1693595056,"current_range_meters":8000,"station_id":"ce4bh192rcd13ifvqdb0","pricing_plan_id":"free"},{"bike_id":"a9b394da-a743-4fb2-b9a8-1059d46b3d16","system_id":"levelo_inurba_marseille","lat":43.30597,"lon":5.39356,"is_reserved":false,"is_disabled":false,"rental_uris":{"android":"levelo://app?vid=a9b394da-a743-4fb2-b9a8-1059d46b3d16","ios":"levelo://app?vid=a9b394da-a743-4fb2-b9a8-1059d46b3d16"},"vehicle_type_id":"4","last_reported":1693595056,"current_range_meters":22000,"station_id":"ce4bh0p2rcd13ifvqd80","pricing_plan_id":"free"},{"bike_id":"ce8a719b-39d7-400e-9b08-14423aa4f416","system_id":"levelo_inurba_marseille","lat":43.305994,"lon":5.393687,"is_reserved":false,"is_disabled":false,"rental_uris":{"android":"levelo://app?vid=ce8a719b-39d7-400e-9b08-14423aa4f416","ios":"levelo://app?vid=ce8a719b-39d7-400e-9b08-14423aa4f416"},"vehicle_type_id":"4","last_reported":1693595056,"current_range_meters":6800,"station_id":"ce4bh0p2rcd13ifvqd80","pricing_plan_id":"free"},{"bike_id":"0724f352-a262-45b7-9b71-9a09ff17d945","system_id":"levelo_inurba_marseille","lat":43.303002,"lon":5.392142,"is_reserved":false,"is_disabled":false,"rental_uris":{"android":"levelo://app?vid=0724f352-a262-45b7-9b71-9a09ff17d945","ios":"levelo://app?vid=0724f352-a262-45b7-9b71-9a09ff17d945"},"vehicle_type_id":"4","last_reported":1693595056,"current_range_meters":26000,"station_id":"ce4bgkh2rcd13ifvqbk0","pricing_plan_id":"free"},{"bike_id":"38fef587-7cc5-4800-b069-87b8f296a10a","system_id":"levelo_inurba_marseille","lat":43.30307,"lon":5.39209,"is_reserved":false,"is_disabled":false,"rental_uris":{"android":"levelo://app?vid=38fef587-7cc5-4800-b069-87b8f296a10a","ios":"levelo://app?vid=38fef587-7cc5-4800-b069-87b8f296a10a"},"vehicle_type_id":"4","last_reported":1693595056,"current_range_meters":23200,"station_id":"ce4bgkh2rcd13ifvqbk0","pricing_plan_id":"free"},{"bike_id":"59d4a7cc-c4d8-47e1-a63f-2e26b5d209c3","system_id":"levelo_inurba_marseille","lat":43.2936,"lon":5.37835,"is_reserved":false,"is_disabled":false,"rental_uris":{"android":"levelo://app?vid=59d4a7cc-c4d8-47e1-a63f-2e26b5d209c3","ios":"levelo://app?vid=59d4a7cc-c4d8-47e1-a63f-2e26b5d209c3"},"vehicle_type_id":"4","last_reported":1693595056,"current_range_meters":31200,"station_id":"ce4bgjh2rcd13ifvqbf0","pricing_plan_id":"free"},{"bike_id":"e31d600b-2f21-4371-a2ae-dc8a24734864","system_id":"levelo_inurba_marseille","lat":43.2936,"lon":5.37835,"is_reserved":false,"is_disabled":false,"rental_uris":{"android":"levelo://app?vid=e31d600b-2f21-4371-a2ae-dc8a24734864","ios":"levelo://app?vid=e31d600b-2f21-4371-a2ae-dc8a24734864"},"vehicle_type_id":"4","last_reported":1693595056,"current_range_meters":6400,"station_id":"ce4bgjh2rcd13ifvqbf0","pricing_plan_id":"free"},{"bike_id":"b127cb02-a67f-4944-955b-2653cb69db42","system_id":"levelo_inurba_marseille","lat":43.29142,"lon":5.36689,"is_reserved":false,"is_disabled":false,"rental_uris":{"android":"levelo://app?vid=b127cb02-a67f-4944-955b-2653cb69db42","ios":"levelo://app?vid=b127cb02-a67f-4944-955b-2653cb69db42"},"vehicle_type_id":"4","last_reported":1693595056,"current_range_meters":24800,"station_id":"ce4bhc92rcd13ifvqetg","pricing_plan_id":"free"},{"bike_id":"55e4669d-98fa-4ea2-ae84-95d5d5e1a42d","system_id":"levelo_inurba_marseille","lat":43.298764,"lon":5.388973,"is_reserved":false,"is_disabled":false,"rental_uris":{"android":"levelo://app?vid=55e4669d-98fa-4ea2-ae84-95d5d5e1a42d","ios":"levelo://app?vid=55e4669d-98fa-4ea2-ae84-95d5d5e1a42d"},"vehicle_type_id":"4","last_reported":1693595056,"current_range_meters":26400,"station_id":"ce4bh392rcd13ifvqdl0","pricing_plan_id":"free"},{"bike_id":"0c5e4fc4-533d-490f-8c2d-5f426c338f27","system_id":"levelo_inurba_marseille","lat":43.313468,"lon":5.396789,"is_reserved":false,"is_disabled":false,"rental_uris":{"android":"levelo://app?vid=0c5e4fc4-533d-490f-8c2d-5f426c338f27","ios":"levelo://app?vid=0c5e4fc4-533d-490f-8c2d-5f426c338f27"},"vehicle_type_id":"4","last_reported":1693595056,"current_range_meters":2000,"station_id":"ce4bgvp2rcd13ifvqcu0","pricing_plan_id":"free"},{"bike_id":"30fc9009-b326-4e28-8566-fe2414e1816a","system_id":"levelo_inurba_marseille","lat":43.291994,"lon":5.357886,"is_reserved":false,"is_disabled":false,"rental_uris":{"android":"levelo://app?vid=30fc9009-b326-4e28-8566-fe2414e1816a","ios":"levelo://app?vid=30fc9009-b326-4e28-8566-fe2414e1816a"},"vehicle_type_id":"4","last_reported":1693595056,"current_range_meters":31200,"station_id":"ce4bhb12rcd13ifvqel0","pricing_plan_id":"free"},{"bike_id":"210451a7-243e-4271-8ee9-2b571b3c07b8","system_id":"levelo_inurba_marseille","lat":43.31333,"lon":5.396865,"is_reserved":false,"is_disabled":false,"rental_uris":{"android":"levelo://app?vid=210451a7-243e-4271-8ee9-2b571b3c07b8","ios":"levelo://app?vid=210451a7-243e-4271-8ee9-2b571b3c07b8"},"vehicle_type_id":"4","last_reported":1693595056,"current_range_meters":15600,"station_id":"ce4bgvp2rcd13ifvqcu0","pricing_plan_id":"free"},{"bike_id":"ee7b75ff-b1b7-4965-a139-7fd200d2a06e","system_id":"levelo_inurba_marseille","lat":43.31325,"lon":5.39688,"is_reserved":false,"is_disabled":false,"rental_uris":{"android":"levelo://app?vid=ee7b75ff-b1b7-4965-a139-7fd200d2a06e","ios":"levelo://app?vid=ee7b75ff-b1b7-4965-a139-7fd200d2a06e"},"vehicle_type_id":"4","last_reported":1693595056,"current_range_meters":7200,"station_id":"ce4bgvp2rcd13ifvqcu0","pricing_plan_id":"free"},{"bike_id":"73c2e0c0-a939-4bc3-943a-e52094180bff","system_id":"levelo_inurba_marseille","lat":43.291994,"lon":5.357886,"is_reserved":false,"is_disabled":false,"rental_uris":{"android":"levelo://app?vid=73c2e0c0-a939-4bc3-943a-e52094180bff","ios":"levelo://app?vid=73c2e0c0-a939-4bc3-943a-e52094180bff"},"vehicle_type_id":"4","last_reported":1693595056,"current_range_meters":22000,"station_id":"ce4bhb12rcd13ifvqel0","pricing_plan_id":"free"},{"bike_id":"253324a0-8e51-4b02-a62c-d67e6655a9b6","system_id":"levelo_inurba_marseille","lat":43.31322,"lon":5.3969,"is_reserved":false,"is_disabled":false,"rental_uris":{"android":"levelo://app?vid=253324a0-8e51-4b02-a62c-d67e6655a9b6","ios":"levelo://app?vid=253324a0-8e51-4b02-a62c-d67e6655a9b6"},"vehicle_type_id":"4","last_reported":1693595056,"current_range_meters":0,"station_id":"ce4bgvp2rcd13ifvqcu0","pricing_plan_id":"free"},{"bike_id":"2d071a18-5574-4b5a-9ca3-038b5a7f8932","system_id":"levelo_inurba_marseille","lat":43.313291,"lon":5.396838,"is_reserved":false,"is_disabled":false,"rental_uris":{"android":"levelo://app?vid=2d071a18-5574-4b5a-9ca3-038b5a7f8932","ios":"levelo://app?vid=2d071a18-5574-4b5a-9ca3-038b5a7f8932"},"vehicle_type_id":"4","last_reported":1693595056,"current_range_meters":10000,"station_id":"ce4bgvp2rcd13ifvqcu0","pricing_plan_id":"free"},{"bike_id":"df6b6cb5-15fa-489e-b6d7-6583a0a639d3","system_id":"levelo_inurba_marseille","lat":43.31326,"lon":5.39692,"is_reserved":false,"is_disabled":false,"rental_uris":{"android":"levelo://app?vid=df6b6cb5-15fa-489e-b6d7-6583a0a639d3","ios":"levelo://app?vid=df6b6cb5-15fa-489e-b6d7-6583a0a639d3"},"vehicle_type_id":"4","last_reported":1693595056,"current_range_meters":14000,"station_id":"ce4bgvp2rcd13ifvqcu0","pricing_plan_id":"free"},{"bike_id":"6d431db5-a3ee-4172-99a0-f77125fae1bc","system_id":"levelo_inurba_marseille","lat":43.29529,"lon":5.385581,"is_reserved":false,"is_disabled":false,"rental_uris":{"android":"levelo://app?vid=6d431db5-a3ee-4172-99a0-f77125fae1bc","ios":"levelo://app?vid=6d431db5-a3ee-4172-99a0-f77125fae1bc"},"vehicle_type_id":"4","last_reported":1693595056,"current_range_meters":4800,"station_id":"ce4bgih2rcd13ifvqba0","pricing_plan_id":"free"},{"bike_id":"59039588-674d-4233-a46f-b9fae01a9697","system_id":"levelo_inurba_marseille","lat":43.29529,"lon":5.385581,"is_reserved":false,"is_disabled":false,"rental_uris":{"android":"levelo://app?vid=59039588-674d-4233-a46f-b9fae01a9697","ios":"levelo://app?vid=59039588-674d-4233-a46f-b9fae01a9697"},"vehicle_type_id":"4","last_reported":1693595056,"current_range_meters":400,"station_id":"ce4bgih2rcd13ifvqba0","pricing_plan_id":"free"},{"bike_id":"3cb2be96-4fb6-4349-9975-bbad87c69e73","system_id":"levelo_inurba_marseille","lat":43.29529,"lon":5.385581,"is_reserved":false,"is_disabled":false,"rental_uris":{"android":"levelo://app?vid=3cb2be96-4fb6-4349-9975-bbad87c69e73","ios":"levelo://app?vid=3cb2be96-4fb6-4349-9975-bbad87c69e73"},"vehicle_type_id":"4","last_reported":1693595056,"current_range_meters":11600,"station_id":"ce4bgih2rcd13ifvqba0","pricing_plan_id":"free"},{"bike_id":"8e7445aa-4380-4afd-9587-9366f27bac25","system_id":"levelo_inurba_marseille","lat":43.2953,"lon":5.38542,"is_reserved":false,"is_disabled":false,"rental_uris":{"android":"levelo://app?vid=8e7445aa-4380-4afd-9587-9366f27bac25","ios":"levelo://app?vid=8e7445aa-4380-4afd-9587-9366f27bac25"},"vehicle_type_id":"4","last_reported":1693595056,"current_range_meters":19600,"station_id":"ce4bgih2rcd13ifvqba0","pricing_plan_id":"free"},{"bike_id":"0d962e12-b732-4464-bc89-f40845207671","system_id":"levelo_inurba_marseille","lat":43.33221,"lon":5.38114,"is_reserved":false,"is_disabled":false,"rental_uris":{"android":"levelo://app?vid=0d962e12-b732-4464-bc89-f40845207671","ios":"levelo://app?vid=0d962e12-b732-4464-bc89-f40845207671"},"vehicle_type_id":"4","last_reported":1693595056,"current_range_meters":10000,"station_id":"","pricing_plan_id":"free"},{"bike_id":"5d71c570-0b53-4e2a-b5f5-b80854820506","system_id":"levelo_inurba_marseille","lat":43.29529,"lon":5.385581,"is_reserved":false,"is_disabled":false,"rental_uris":{"android":"levelo://app?vid=5d71c570-0b53-4e2a-b5f5-b80854820506","ios":"levelo://app?vid=5d71c570-0b53-4e2a-b5f5-b80854820506"},"vehicle_type_id":"4","last_reported":1693595056,"current_range_meters":29200,"station_id":"ce4bgih2rcd13ifvqba0","pricing_plan_id":"free"},{"bike_id":"97fa4800-3c2a-4ab7-9b62-18dbf81a251a","system_id":"levelo_inurba_marseille","lat":43.29529,"lon":5.385581,"is_reserved":false,"is_disabled":false,"rental_uris":{"android":"levelo://app?vid=97fa4800-3c2a-4ab7-9b62-18dbf81a251a","ios":"levelo://app?vid=97fa4800-3c2a-4ab7-9b62-18dbf81a251a"},"vehicle_type_id":"4","last_reported":1693595056,"current_range_meters":18800,"station_id":"ce4bgih2rcd13ifvqba0","pricing_plan_id":"free"},{"bike_id":"53ce5600-d1f2-48c9-b55b-c23534ff95af","system_id":"levelo_inurba_marseille","lat":43.302008,"lon":5.394694,"is_reserved":false,"is_disabled":false,"rental_uris":{"android":"levelo://app?vid=53ce5600-d1f2-48c9-b55b-c23534ff95af","ios":"levelo://app?vid=53ce5600-d1f2-48c9-b55b-c23534ff95af"},"vehicle_type_id":"4","last_reported":1693595056,"current_range_meters":7200,"station_id":"ce4bh0p2rcd13ifvqd70","pricing_plan_id":"free"},{"bike_id":"05bf879c-acfe-435c-b601-beb38fe74966","system_id":"levelo_inurba_marseille","lat":43.29422,"lon":5.38617,"is_reserved":false,"is_disabled":false,"rental_uris":{"android":"levelo://app?vid=05bf879c-acfe-435c-b601-beb38fe74966","ios":"levelo://app?vid=05bf879c-acfe-435c-b601-beb38fe74966"},"vehicle_type_id":"4","last_reported":1693595056,"current_range_meters":16000,"station_id":"ce4bh2h2rcd13ifvqdh0","pricing_plan_id":"free"},{"bike_id":"1f8f3004-cd75-4e2a-b1cd-d0210032cedd","system_id":"levelo_inurba_marseille","lat":43.29422,"lon":5.3862,"is_reserved":false,"is_disabled":false,"rental_uris":{"android":"levelo://app?vid=1f8f3004-cd75-4e2a-b1cd-d0210032cedd","ios":"levelo://app?vid=1f8f3004-cd75-4e2a-b1cd-d0210032cedd"},"vehicle_type_id":"4","last_reported":1693595056,"current_range_meters":8000,"station_id":"ce4bh2h2rcd13ifvqdh0","pricing_plan_id":"free"},{"bike_id":"56c9e8fc-f529-4115-b74f-b1aa508fed5d","system_id":"levelo_inurba_marseille","lat":43.29421,"lon":5.38628,"is_reserved":false,"is_disabled":false,"rental_uris":{"android":"levelo://app?vid=56c9e8fc-f529-4115-b74f-b1aa508fed5d","ios":"levelo://app?vid=56c9e8fc-f529-4115-b74f-b1aa508fed5d"},"vehicle_type_id":"4","last_reported":1693595056,"current_range_meters":29200,"station_id":"ce4bh2h2rcd13ifvqdh0","pricing_plan_id":"free"},{"bike_id":"58a501c1-0ca1-4fbc-afa5-b85fd6541329","system_id":"levelo_inurba_marseille","lat":43.29417,"lon":5.38621,"is_reserved":false,"is_disabled":false,"rental_uris":{"android":"levelo://app?vid=58a501c1-0ca1-4fbc-afa5-b85fd6541329","ios":"levelo://app?vid=58a501c1-0ca1-4fbc-afa5-b85fd6541329"},"vehicle_type_id":"4","last_reported":1693595056,"current_range_meters":30400,"station_id":"ce4bh2h2rcd13ifvqdh0","pricing_plan_id":"free"},{"bike_id":"bcacf829-299f-461b-ab6b-faff43b418f5","system_id":"levelo_inurba_marseille","lat":43.29415,"lon":5.38624,"is_reserved":false,"is_disabled":false,"rental_uris":{"android":"levelo://app?vid=bcacf829-299f-461b-ab6b-faff43b418f5","ios":"levelo://app?vid=bcacf829-299f-461b-ab6b-faff43b418f5"},"vehicle_type_id":"4","last_reported":1693595056,"current_range_meters":1600,"station_id":"ce4bh2h2rcd13ifvqdh0","pricing_plan_id":"free"},{"bike_id":"68c34268-bf16-43ef-b787-d2f05887b80f","system_id":"levelo_inurba_marseille","lat":43.29414,"lon":5.38626,"is_reserved":false,"is_disabled":false,"rental_uris":{"android":"levelo://app?vid=68c34268-bf16-43ef-b787-d2f05887b80f","ios":"levelo://app?vid=68c34268-bf16-43ef-b787-d2f05887b80f"},"vehicle_type_id":"4","last_reported":1693595056,"current_range_meters":4000,"station_id":"ce4bh2h2rcd13ifvqdh0","pricing_plan_id":"free"},{"bike_id":"adde2fe5-f8a3-4a16-9a32-e7e59e60312e","system_id":"levelo_inurba_marseille","lat":43.29417,"lon":5.38632,"is_reserved":false,"is_disabled":false,"rental_uris":{"android":"levelo://app?vid=adde2fe5-f8a3-4a16-9a32-e7e59e60312e","ios":"levelo://app?vid=adde2fe5-f8a3-4a16-9a32-e7e59e60312e"},"vehicle_type_id":"4","last_reported":1693595056,"current_range_meters":19200,"station_id":"ce4bh2h2rcd13ifvqdh0","pricing_plan_id":"free"},{"bike_id":"6898eece-d8a0-4229-864d-ea44e84db71a","system_id":"levelo_inurba_marseille","lat":43.29413,"lon":5.38626,"is_reserved":false,"is_disabled":false,"rental_uris":{"android":"levelo://app?vid=6898eece-d8a0-4229-864d-ea44e84db71a","ios":"levelo://app?vid=6898eece-d8a0-4229-864d-ea44e84db71a"},"vehicle_type_id":"4","last_reported":1693595056,"current_range_meters":26800,"station_id":"ce4bh2h2rcd13ifvqdh0","pricing_plan_id":"free"},{"bike_id":"2f93318d-a393-4e93-88c9-60d3ec241b0e","system_id":"levelo_inurba_marseille","lat":43.289184,"lon":5.366408,"is_reserved":false,"is_disabled":false,"rental_uris":{"android":"levelo://app?vid=2f93318d-a393-4e93-88c9-60d3ec241b0e","ios":"levelo://app?vid=2f93318d-a393-4e93-88c9-60d3ec241b0e"},"vehicle_type_id":"4","last_reported":1693595056,"current_range_meters":31200,"station_id":"ce4bhap2rcd13ifvqek0","pricing_plan_id":"free"},{"bike_id":"fe6046d0-bfdc-42de-a8cb-67b29f3e597f","system_id":"levelo_inurba_marseille","lat":43.292642,"lon":5.384254,"is_reserved":false,"is_disabled":false,"rental_uris":{"android":"levelo://app?vid=fe6046d0-bfdc-42de-a8cb-67b29f3e597f","ios":"levelo://app?vid=fe6046d0-bfdc-42de-a8cb-67b29f3e597f"},"vehicle_type_id":"4","last_reported":1693595056,"current_range_meters":1200,"station_id":"ce4bh692rcd13ifvqea0","pricing_plan_id":"free"},{"bike_id":"6da74a4d-48a2-4d0d-8852-698b67965a75","system_id":"levelo_inurba_marseille","lat":43.292644,"lon":5.384257,"is_reserved":false,"is_disabled":false,"rental_uris":{"android":"levelo://app?vid=6da74a4d-48a2-4d0d-8852-698b67965a75","ios":"levelo://app?vid=6da74a4d-48a2-4d0d-8852-698b67965a75"},"vehicle_type_id":"4","last_reported":1693595056,"current_range_meters":15600,"station_id":"ce4bh692rcd13ifvqea0","pricing_plan_id":"free"},{"bike_id":"0bf8b034-4faa-49c5-ae21-476e1bee26d7","system_id":"levelo_inurba_marseille","lat":43.304274,"lon":5.397513,"is_reserved":false,"is_disabled":false,"rental_uris":{"android":"levelo://app?vid=0bf8b034-4faa-49c5-ae21-476e1bee26d7","ios":"levelo://app?vid=0bf8b034-4faa-49c5-ae21-476e1bee26d7"},"vehicle_type_id":"4","last_reported":1693595056,"current_range_meters":9200,"station_id":"ce4bh092rcd13ifvqd20","pricing_plan_id":"free"},{"bike_id":"3e7d44c5-a7cf-4f75-b64f-038179c25d9c","system_id":"levelo_inurba_marseille","lat":43.304296,"lon":5.397513,"is_reserved":false,"is_disabled":false,"rental_uris":{"android":"levelo://app?vid=3e7d44c5-a7cf-4f75-b64f-038179c25d9c","ios":"levelo://app?vid=3e7d44c5-a7cf-4f75-b64f-038179c25d9c"},"vehicle_type_id":"4","last_reported":1693595056,"current_range_meters":2800,"station_id":"ce4bh092rcd13ifvqd20","pricing_plan_id":"free"},{"bike_id":"421018e0-23bf-425c-aa8b-e47ab340e271","system_id":"levelo_inurba_marseille","lat":43.292642,"lon":5.384254,"is_reserved":false,"is_disabled":false,"rental_uris":{"android":"levelo://app?vid=421018e0-23bf-425c-aa8b-e47ab340e271","ios":"levelo://app?vid=421018e0-23bf-425c-aa8b-e47ab340e271"},"vehicle_type_id":"4","last_reported":1693595056,"current_range_meters":2000,"station_id":"ce4bh692rcd13ifvqea0","pricing_plan_id":"free"},{"bike_id":"2d71ac5c-4ad5-48c0-816f-350043543497","system_id":"levelo_inurba_marseille","lat":43.304296,"lon":5.397513,"is_reserved":false,"is_disabled":false,"rental_uris":{"android":"levelo://app?vid=2d71ac5c-4ad5-48c0-816f-350043543497","ios":"levelo://app?vid=2d71ac5c-4ad5-48c0-816f-350043543497"},"vehicle_type_id":"4","last_reported":1693595056,"current_range_meters":19200,"station_id":"ce4bh092rcd13ifvqd20","pricing_plan_id":"free"},{"bike_id":"378bcb72-f095-4a47-9ecd-21b6b7b081ef","system_id":"levelo_inurba_marseille","lat":43.292642,"lon":5.384254,"is_reserved":false,"is_disabled":false,"rental_uris":{"android":"levelo://app?vid=378bcb72-f095-4a47-9ecd-21b6b7b081ef","ios":"levelo://app?vid=378bcb72-f095-4a47-9ecd-21b6b7b081ef"},"vehicle_type_id":"4","last_reported":1693595056,"current_range_meters":1600,"station_id":"ce4bh692rcd13ifvqea0","pricing_plan_id":"free"},{"bike_id":"afef8a81-214b-4702-8354-14445cf04fb9","system_id":"levelo_inurba_marseille","lat":43.29265,"lon":5.38442,"is_reserved":false,"is_disabled":false,"rental_uris":{"android":"levelo://app?vid=afef8a81-214b-4702-8354-14445cf04fb9","ios":"levelo://app?vid=afef8a81-214b-4702-8354-14445cf04fb9"},"vehicle_type_id":"4","last_reported":1693595056,"current_range_meters":27200,"station_id":"ce4bh692rcd13ifvqea0","pricing_plan_id":"free"},{"bike_id":"0e5b390e-8b0e-4f77-b5e0-faa7c38e78f7","system_id":"levelo_inurba_marseille","lat":43.29265,"lon":5.38442,"is_reserved":false,"is_disabled":false,"rental_uris":{"android":"levelo://app?vid=0e5b390e-8b0e-4f77-b5e0-faa7c38e78f7","ios":"levelo://app?vid=0e5b390e-8b0e-4f77-b5e0-faa7c38e78f7"},"vehicle_type_id":"4","last_reported":1693595056,"current_range_meters":7200,"station_id":"ce4bh692rcd13ifvqea0","pricing_plan_id":"free"},{"bike_id":"dc14ed53-0af7-42cc-ab12-e486e52d9a8a","system_id":"levelo_inurba_marseille","lat":43.29265,"lon":5.38443,"is_reserved":false,"is_disabled":false,"rental_uris":{"android":"levelo://app?vid=dc14ed53-0af7-42cc-ab12-e486e52d9a8a","ios":"levelo://app?vid=dc14ed53-0af7-42cc-ab12-e486e52d9a8a"},"vehicle_type_id":"4","last_reported":1693595056,"current_range_meters":26800,"station_id":"ce4bh692rcd13ifvqea0","pricing_plan_id":"free"},{"bike_id":"6e0a2f94-eaca-4fae-9318-35a8ee2643d9","system_id":"levelo_inurba_marseille","lat":43.292644,"lon":5.384257,"is_reserved":false,"is_disabled":false,"rental_uris":{"android":"levelo://app?vid=6e0a2f94-eaca-4fae-9318-35a8ee2643d9","ios":"levelo://app?vid=6e0a2f94-eaca-4fae-9318-35a8ee2643d9"},"vehicle_type_id":"4","last_reported":1693595056,"current_range_meters":1200,"station_id":"ce4bh692rcd13ifvqea0","pricing_plan_id":"free"},{"bike_id":"b395d563-f533-4fd1-9389-2d73adc711a5","system_id":"levelo_inurba_marseille","lat":43.292644,"lon":5.384257,"is_reserved":false,"is_disabled":false,"rental_uris":{"android":"levelo://app?vid=b395d563-f533-4fd1-9389-2d73adc711a5","ios":"levelo://app?vid=b395d563-f533-4fd1-9389-2d73adc711a5"},"vehicle_type_id":"4","last_reported":1693595056,"current_range_meters":15600,"station_id":"ce4bh692rcd13ifvqea0","pricing_plan_id":"free"},{"bike_id":"511e8e5e-69b7-463c-a905-4fa4227b6fe2","system_id":"levelo_inurba_marseille","lat":43.29259,"lon":5.38437,"is_reserved":false,"is_disabled":false,"rental_uris":{"android":"levelo://app?vid=511e8e5e-69b7-463c-a905-4fa4227b6fe2","ios":"levelo://app?vid=511e8e5e-69b7-463c-a905-4fa4227b6fe2"},"vehicle_type_id":"4","last_reported":1693595056,"current_range_meters":6800,"station_id":"ce4bh692rcd13ifvqea0","pricing_plan_id":"free"},{"bike_id":"6ea99cb3-d610-46c8-a870-6244dfa124c0","system_id":"levelo_inurba_marseille","lat":43.292644,"lon":5.384257,"is_reserved":false,"is_disabled":false,"rental_uris":{"android":"levelo://app?vid=6ea99cb3-d610-46c8-a870-6244dfa124c0","ios":"levelo://app?vid=6ea99cb3-d610-46c8-a870-6244dfa124c0"},"vehicle_type_id":"4","last_reported":1693595056,"current_range_meters":0,"station_id":"ce4bh692rcd13ifvqea0","pricing_plan_id":"free"},{"bike_id":"0f984e05-70a2-44bd-896b-c46098531b69","system_id":"levelo_inurba_marseille","lat":43.292584,"lon":5.384424,"is_reserved":false,"is_disabled":false,"rental_uris":{"android":"levelo://app?vid=0f984e05-70a2-44bd-896b-c46098531b69","ios":"levelo://app?vid=0f984e05-70a2-44bd-896b-c46098531b69"},"vehicle_type_id":"4","last_reported":1693595056,"current_range_meters":14000,"station_id":"","pricing_plan_id":"free"},{"bike_id":"c1b0850d-0a53-4da0-9f6b-a9a94f67666e","system_id":"levelo_inurba_marseille","lat":43.33045,"lon":5.38909,"is_reserved":false,"is_disabled":false,"rental_uris":{"android":"levelo://app?vid=c1b0850d-0a53-4da0-9f6b-a9a94f67666e","ios":"levelo://app?vid=c1b0850d-0a53-4da0-9f6b-a9a94f67666e"},"vehicle_type_id":"4","last_reported":1693595056,"current_range_meters":24800,"station_id":"ce4bhr92rcd13ifvqhrg","pricing_plan_id":"free"},{"bike_id":"3e0449ec-e32f-417c-946f-951095c26cc1","system_id":"levelo_inurba_marseille","lat":43.33044,"lon":5.38911,"is_reserved":false,"is_disabled":false,"rental_uris":{"android":"levelo://app?vid=3e0449ec-e32f-417c-946f-951095c26cc1","ios":"levelo://app?vid=3e0449ec-e32f-417c-946f-951095c26cc1"},"vehicle_type_id":"4","last_reported":1693595056,"current_range_meters":9200,"station_id":"ce4bhr92rcd13ifvqhrg","pricing_plan_id":"free"},{"bike_id":"276df892-9a2a-40a9-929d-29c6fe2dac65","system_id":"levelo_inurba_marseille","lat":43.33045,"lon":5.3891,"is_reserved":false,"is_disabled":false,"rental_uris":{"android":"levelo://app?vid=276df892-9a2a-40a9-929d-29c6fe2dac65","ios":"levelo://app?vid=276df892-9a2a-40a9-929d-29c6fe2dac65"},"vehicle_type_id":"4","last_reported":1693595056,"current_range_meters":26000,"station_id":"ce4bhr92rcd13ifvqhrg","pricing_plan_id":"free"},{"bike_id":"978b0ff4-c9df-43ed-a4e7-ec9b1854c595","system_id":"levelo_inurba_marseille","lat":43.33047,"lon":5.38909,"is_reserved":false,"is_disabled":false,"rental_uris":{"android":"levelo://app?vid=978b0ff4-c9df-43ed-a4e7-ec9b1854c595","ios":"levelo://app?vid=978b0ff4-c9df-43ed-a4e7-ec9b1854c595"},"vehicle_type_id":"4","last_reported":1693595056,"current_range_meters":20000,"station_id":"ce4bhr92rcd13ifvqhrg","pricing_plan_id":"free"},{"bike_id":"d346ead7-ea15-4af0-898b-f25c067a214a","system_id":"levelo_inurba_marseille","lat":43.33042,"lon":5.38917,"is_reserved":false,"is_disabled":false,"rental_uris":{"android":"levelo://app?vid=d346ead7-ea15-4af0-898b-f25c067a214a","ios":"levelo://app?vid=d346ead7-ea15-4af0-898b-f25c067a214a"},"vehicle_type_id":"4","last_reported":1693595056,"current_range_meters":19200,"station_id":"ce4bhr92rcd13ifvqhrg","pricing_plan_id":"free"},{"bike_id":"97bd55a4-42e4-4fe4-b814-e15741181f07","system_id":"levelo_inurba_marseille","lat":43.33045,"lon":5.38914,"is_reserved":false,"is_disabled":false,"rental_uris":{"android":"levelo://app?vid=97bd55a4-42e4-4fe4-b814-e15741181f07","ios":"levelo://app?vid=97bd55a4-42e4-4fe4-b814-e15741181f07"},"vehicle_type_id":"4","last_reported":1693595056,"current_range_meters":5200,"station_id":"ce4bhr92rcd13ifvqhrg","pricing_plan_id":"free"},{"bike_id":"8077604d-b9d4-4aae-b42f-6a79c8cc4721","system_id":"levelo_inurba_marseille","lat":43.33043,"lon":5.38919,"is_reserved":false,"is_disabled":false,"rental_uris":{"android":"levelo://app?vid=8077604d-b9d4-4aae-b42f-6a79c8cc4721","ios":"levelo://app?vid=8077604d-b9d4-4aae-b42f-6a79c8cc4721"},"vehicle_type_id":"4","last_reported":1693595056,"current_range_meters":28000,"station_id":"ce4bhr92rcd13ifvqhrg","pricing_plan_id":"free"},{"bike_id":"d9b7cf73-e139-46ed-8d02-84759924fdf4","system_id":"levelo_inurba_marseille","lat":43.33044,"lon":5.38918,"is_reserved":false,"is_disabled":false,"rental_uris":{"android":"levelo://app?vid=d9b7cf73-e139-46ed-8d02-84759924fdf4","ios":"levelo://app?vid=d9b7cf73-e139-46ed-8d02-84759924fdf4"},"vehicle_type_id":"4","last_reported":1693595056,"current_range_meters":10400,"station_id":"ce4bhr92rcd13ifvqhrg","pricing_plan_id":"free"},{"bike_id":"10a8b87c-9464-45fb-affc-beff0fff9410","system_id":"levelo_inurba_marseille","lat":43.33047,"lon":5.38914,"is_reserved":false,"is_disabled":false,"rental_uris":{"android":"levelo://app?vid=10a8b87c-9464-45fb-affc-beff0fff9410","ios":"levelo://app?vid=10a8b87c-9464-45fb-affc-beff0fff9410"},"vehicle_type_id":"4","last_reported":1693595056,"current_range_meters":3600,"station_id":"ce4bhr92rcd13ifvqhrg","pricing_plan_id":"free"},{"bike_id":"2cdba739-ebc5-413a-8a24-35edd08d69ea","system_id":"levelo_inurba_marseille","lat":43.33048,"lon":5.38913,"is_reserved":false,"is_disabled":false,"rental_uris":{"android":"levelo://app?vid=2cdba739-ebc5-413a-8a24-35edd08d69ea","ios":"levelo://app?vid=2cdba739-ebc5-413a-8a24-35edd08d69ea"},"vehicle_type_id":"4","last_reported":1693595056,"current_range_meters":20400,"station_id":"ce4bhr92rcd13ifvqhrg","pricing_plan_id":"free"},{"bike_id":"1895038e-acdb-4d35-aa35-e1291f23a30a","system_id":"levelo_inurba_marseille","lat":43.290104,"lon":5.356111,"is_reserved":false,"is_disabled":false,"rental_uris":{"android":"levelo://app?vid=1895038e-acdb-4d35-aa35-e1291f23a30a","ios":"levelo://app?vid=1895038e-acdb-4d35-aa35-e1291f23a30a"},"vehicle_type_id":"4","last_reported":1693595056,"current_range_meters":31200,"station_id":"ce4bhb92rcd13ifvqen0","pricing_plan_id":"free"},{"bike_id":"028b16b4-c861-455c-93e2-214442c48086","system_id":"levelo_inurba_marseille","lat":43.290103,"lon":5.356114,"is_reserved":false,"is_disabled":false,"rental_uris":{"android":"levelo://app?vid=028b16b4-c861-455c-93e2-214442c48086","ios":"levelo://app?vid=028b16b4-c861-455c-93e2-214442c48086"},"vehicle_type_id":"4","last_reported":1693595056,"current_range_meters":30400,"station_id":"ce4bhb92rcd13ifvqen0","pricing_plan_id":"free"},{"bike_id":"b1b7bd71-88e9-474a-b13c-18de59446e46","system_id":"levelo_inurba_marseille","lat":43.290995,"lon":5.381361,"is_reserved":false,"is_disabled":false,"rental_uris":{"android":"levelo://app?vid=b1b7bd71-88e9-474a-b13c-18de59446e46","ios":"levelo://app?vid=b1b7bd71-88e9-474a-b13c-18de59446e46"},"vehicle_type_id":"4","last_reported":1693595056,"current_range_meters":20400,"station_id":"ce4bh512rcd13ifvqe2g","pricing_plan_id":"free"},{"bike_id":"f49b76a2-15c0-4133-a40a-3ab04db909f1","system_id":"levelo_inurba_marseille","lat":43.28984,"lon":5.37832,"is_reserved":false,"is_disabled":false,"rental_uris":{"android":"levelo://app?vid=f49b76a2-15c0-4133-a40a-3ab04db909f1","ios":"levelo://app?vid=f49b76a2-15c0-4133-a40a-3ab04db909f1"},"vehicle_type_id":"4","last_reported":1693595056,"current_range_meters":1200,"station_id":"ce4bh9p2rcd13ifvqed0","pricing_plan_id":"free"},{"bike_id":"34a64752-14e5-4b5f-aed2-0956198ae81a","system_id":"levelo_inurba_marseille","lat":43.289741,"lon":5.378306,"is_reserved":false,"is_disabled":false,"rental_uris":{"android":"levelo://app?vid=34a64752-14e5-4b5f-aed2-0956198ae81a","ios":"levelo://app?vid=34a64752-14e5-4b5f-aed2-0956198ae81a"},"vehicle_type_id":"4","last_reported":1693595056,"current_range_meters":13200,"station_id":"ce4bh9p2rcd13ifvqed0","pricing_plan_id":"free"},{"bike_id":"a9f99b54-3c7d-44cb-920c-98b86f0136de","system_id":"levelo_inurba_marseille","lat":43.295169,"lon":5.390426,"is_reserved":false,"is_disabled":false,"rental_uris":{"android":"levelo://app?vid=a9f99b54-3c7d-44cb-920c-98b86f0136de","ios":"levelo://app?vid=a9f99b54-3c7d-44cb-920c-98b86f0136de"},"vehicle_type_id":"4","last_reported":1693595056,"current_range_meters":16800,"station_id":"ce4bh3p2rcd13ifvqdp0","pricing_plan_id":"free"},{"bike_id":"9e1de630-91be-4adb-8d21-f92eaa0e17da","system_id":"levelo_inurba_marseille","lat":43.30921,"lon":5.40141,"is_reserved":false,"is_disabled":false,"rental_uris":{"android":"levelo://app?vid=9e1de630-91be-4adb-8d21-f92eaa0e17da","ios":"levelo://app?vid=9e1de630-91be-4adb-8d21-f92eaa0e17da"},"vehicle_type_id":"4","last_reported":1693595056,"current_range_meters":16800,"station_id":"ce4bgvp2rcd13ifvqct0","pricing_plan_id":"free"},{"bike_id":"5e0b65a3-4830-4efe-8df2-f90e6871cc74","system_id":"levelo_inurba_marseille","lat":43.30642,"lon":5.401031,"is_reserved":false,"is_disabled":false,"rental_uris":{"android":"levelo://app?vid=5e0b65a3-4830-4efe-8df2-f90e6871cc74","ios":"levelo://app?vid=5e0b65a3-4830-4efe-8df2-f90e6871cc74"},"vehicle_type_id":"4","last_reported":1693595056,"current_range_meters":28800,"station_id":"ce4bh112rcd13ifvqda0","pricing_plan_id":"free"},{"bike_id":"312c84a7-7ace-4b6c-9bac-64a1313be538","system_id":"levelo_inurba_marseille","lat":43.33754,"lon":5.37464,"is_reserved":false,"is_disabled":false,"rental_uris":{"android":"levelo://app?vid=312c84a7-7ace-4b6c-9bac-64a1313be538","ios":"levelo://app?vid=312c84a7-7ace-4b6c-9bac-64a1313be538"},"vehicle_type_id":"4","last_reported":1693595056,"current_range_meters":28000,"station_id":"","pricing_plan_id":"free"},{"bike_id":"965eeaa0-00fb-4a2b-a1c9-ff3807df7722","system_id":"levelo_inurba_marseille","lat":43.301117,"lon":5.398795,"is_reserved":false,"is_disabled":false,"rental_uris":{"android":"levelo://app?vid=965eeaa0-00fb-4a2b-a1c9-ff3807df7722","ios":"levelo://app?vid=965eeaa0-00fb-4a2b-a1c9-ff3807df7722"},"vehicle_type_id":"4","last_reported":1693595056,"current_range_meters":800,"station_id":"ce4bh0h2rcd13ifvqd40","pricing_plan_id":"free"},{"bike_id":"a2b00cc5-db5d-4b5d-b95e-f68aa4acf9f2","system_id":"levelo_inurba_marseille","lat":43.28706,"lon":5.37378,"is_reserved":false,"is_disabled":false,"rental_uris":{"android":"levelo://app?vid=a2b00cc5-db5d-4b5d-b95e-f68aa4acf9f2","ios":"levelo://app?vid=a2b00cc5-db5d-4b5d-b95e-f68aa4acf9f2"},"vehicle_type_id":"4","last_reported":1693595056,"current_range_meters":0,"station_id":"ce4bh3p2rcd13ifvqdq0","pricing_plan_id":"free"},{"bike_id":"27dda481-f6fa-460e-b8e1-321ada06fec3","system_id":"levelo_inurba_marseille","lat":43.286961,"lon":5.373785,"is_reserved":false,"is_disabled":false,"rental_uris":{"android":"levelo://app?vid=27dda481-f6fa-460e-b8e1-321ada06fec3","ios":"levelo://app?vid=27dda481-f6fa-460e-b8e1-321ada06fec3"},"vehicle_type_id":"4","last_reported":1693595056,"current_range_meters":29200,"station_id":"ce4bh3p2rcd13ifvqdq0","pricing_plan_id":"free"},{"bike_id":"75199276-b705-4ad7-b6a9-49aeaa84628a","system_id":"levelo_inurba_marseille","lat":43.286591,"lon":5.363346,"is_reserved":false,"is_disabled":false,"rental_uris":{"android":"levelo://app?vid=75199276-b705-4ad7-b6a9-49aeaa84628a","ios":"levelo://app?vid=75199276-b705-4ad7-b6a9-49aeaa84628a"},"vehicle_type_id":"4","last_reported":1693595056,"current_range_meters":29600,"station_id":"ce4bhah2rcd13ifvqej0","pricing_plan_id":"free"},{"bike_id":"2365150f-73ab-4507-aea4-76016e6109c8","system_id":"levelo_inurba_marseille","lat":43.2866,"lon":5.36349,"is_reserved":false,"is_disabled":false,"rental_uris":{"android":"levelo://app?vid=2365150f-73ab-4507-aea4-76016e6109c8","ios":"levelo://app?vid=2365150f-73ab-4507-aea4-76016e6109c8"},