{"last_updated":1741291843,"ttl":60,"version":"2.2","data":{"bikes":[{"bike_id":"be8f2f0b-bfa2-4b7d-b9be-c3ab89c4dae0","system_id":"levelo_inurba_marseille","lat":43.29887,"lon":5.43632,"is_reserved":false,"is_disabled":false,"rental_uris":{"android":"levelo://app?vid=be8f2f0b-bfa2-4b7d-b9be-c3ab89c4dae0","ios":"levelo://app?vid=be8f2f0b-bfa2-4b7d-b9be-c3ab89c4dae0"},"vehicle_type_id":"4","last_reported":1741291843,"current_range_meters":2800,"station_id":"ce4bhpp2rcd13ifvqhfg","pricing_plan_id":"cebpf4jnsgd1na2vs0mg"},{"bike_id":"9413c010-0cd1-41b8-bfec-86f00033f12c","system_id":"levelo_inurba_marseille","lat":43.31221,"lon":5.4166,"is_reserved":false,"is_disabled":false,"rental_uris":{"android":"levelo://app?vid=9413c010-0cd1-41b8-bfec-86f00033f12c","ios":"levelo://app?vid=9413c010-0cd1-41b8-bfec-86f00033f12c"},"vehicle_type_id":"4","last_reported":1741291843,"current_range_meters":2800,"station_id":"","pricing_plan_id":"cebpf4jnsgd1na2vs0mg"},{"bike_id":"6d963bf5-438a-4f1b-877b-794bfc4bb2bc","system_id":"levelo_inurba_marseille","lat":43.27893,"lon":5.3541,"is_reserved":false,"is_disabled":false,"rental_uris":{"android":"levelo://app?vid=6d963bf5-438a-4f1b-877b-794bfc4bb2bc","ios":"levelo://app?vid=6d963bf5-438a-4f1b-877b-794bfc4bb2bc"},"vehicle_type_id":"4","last_reported":1741291843,"current_range_meters":3200,"station_id":"","pricing_plan_id":"cebpf4jnsgd1na2vs0mg"},{"bike_id":"ebf8161a-cab7-4028-b35f-3388767cbc46","system_id":"levelo_inurba_marseille","lat":43.23084,"lon":5.35495,"is_reserved":false,"is_disabled":false,"rental_uris":{"android":"levelo://app?vid=ebf8161a-cab7-4028-b35f-3388767cbc46","ios":"levelo://app?vid=ebf8161a-cab7-4028-b35f-3388767cbc46"},"vehicle_type_id":"4","last_reported":1741291843,"current_range_meters":3200,"station_id":"cpo3342slgdg3j2ifvpg","pricing_plan_id":"cebpf4jnsgd1na2vs0mg"},{"bike_id":"032b57b7-7848-4a1a-b986-b3f5c7e4b261","system_id":"levelo_inurba_marseille","lat":43.31245,"lon":5.36853,"is_reserved":false,"is_disabled":false,"rental_uris":{"android":"levelo://app?vid=032b57b7-7848-4a1a-b986-b3f5c7e4b261","ios":"levelo://app?vid=032b57b7-7848-4a1a-b986-b3f5c7e4b261"},"vehicle_type_id":"4","last_reported":1741291843,"current_range_meters":3600,"station_id":"ce4bgl92rcd13ifvqbq0","pricing_plan_id":"cebpf4jnsgd1na2vs0mg"},{"bike_id":"bf342717-63c0-499a-a753-35e922ba7de5","system_id":"levelo_inurba_marseille","lat":43.25006,"lon":5.38923,"is_reserved":false,"is_disabled":false,"rental_uris":{"android":"levelo://app?vid=bf342717-63c0-499a-a753-35e922ba7de5","ios":"levelo://app?vid=bf342717-63c0-499a-a753-35e922ba7de5"},"vehicle_type_id":"4","last_reported":1741291843,"current_range_meters":3600,"station_id":"ce4bhgp2rcd13ifvqfd0","pricing_plan_id":"cebpf4jnsgd1na2vs0mg"},{"bike_id":"5335ccc2-c2fe-4324-aa16-1eec29e362db","system_id":"levelo_inurba_marseille","lat":43.2938,"lon":5.38214,"is_reserved":false,"is_disabled":false,"rental_uris":{"android":"levelo://app?vid=5335ccc2-c2fe-4324-aa16-1eec29e362db","ios":"levelo://app?vid=5335ccc2-c2fe-4324-aa16-1eec29e362db"},"vehicle_type_id":"4","last_reported":1741291843,"current_range_meters":4000,"station_id":"","pricing_plan_id":"cebpf4jnsgd1na2vs0mg"},{"bike_id":"030085c6-037d-4de4-b06f-79952f3babe0","system_id":"levelo_inurba_marseille","lat":43.27903,"lon":5.40945,"is_reserved":false,"is_disabled":false,"rental_uris":{"android":"levelo://app?vid=030085c6-037d-4de4-b06f-79952f3babe0","ios":"levelo://app?vid=030085c6-037d-4de4-b06f-79952f3babe0"},"vehicle_type_id":"4","last_reported":1741291843,"current_range_meters":4000,"station_id":"","pricing_plan_id":"cebpf4jnsgd1na2vs0mg"},{"bike_id":"6189731a-6ad3-4dd8-81b0-37923a566591","system_id":"levelo_inurba_marseille","lat":43.26067,"lon":5.394,"is_reserved":false,"is_disabled":false,"rental_uris":{"android":"levelo://app?vid=6189731a-6ad3-4dd8-81b0-37923a566591","ios":"levelo://app?vid=6189731a-6ad3-4dd8-81b0-37923a566591"},"vehicle_type_id":"4","last_reported":1741291843,"current_range_meters":3200,"station_id":"ce4bhh92rcd13ifvqfj0","pricing_plan_id":"cebpf4jnsgd1na2vs0mg"},{"bike_id":"c2abc49b-6aad-4fe9-95bc-fe25ddd54526","system_id":"levelo_inurba_marseille","lat":43.281571,"lon":5.426472,"is_reserved":false,"is_disabled":false,"rental_uris":{"android":"levelo://app?vid=c2abc49b-6aad-4fe9-95bc-fe25ddd54526","ios":"levelo://app?vid=c2abc49b-6aad-4fe9-95bc-fe25ddd54526"},"vehicle_type_id":"4","last_reported":1741291843,"current_range_meters":4000,"station_id":"ce4bhnh2rcd13ifvqgug","pricing_plan_id":"cebpf4jnsgd1na2vs0mg"},{"bike_id":"bc8ff6b1-5f31-4a54-acbd-69a780d68c90","system_id":"levelo_inurba_marseille","lat":43.33014,"lon":5.39038,"is_reserved":false,"is_disabled":false,"rental_uris":{"android":"levelo://app?vid=bc8ff6b1-5f31-4a54-acbd-69a780d68c90","ios":"levelo://app?vid=bc8ff6b1-5f31-4a54-acbd-69a780d68c90"},"vehicle_type_id":"4","last_reported":1741291843,"current_range_meters":4000,"station_id":"ce4bhr92rcd13ifvqhrg","pricing_plan_id":"cebpf4jnsgd1na2vs0mg"},{"bike_id":"2d9eb859-04d7-42d9-b764-2d1cdec1d0f4","system_id":"levelo_inurba_marseille","lat":43.27847,"lon":5.40723,"is_reserved":false,"is_disabled":false,"rental_uris":{"android":"levelo://app?vid=2d9eb859-04d7-42d9-b764-2d1cdec1d0f4","ios":"levelo://app?vid=2d9eb859-04d7-42d9-b764-2d1cdec1d0f4"},"vehicle_type_id":"4","last_reported":1741291843,"current_range_meters":4000,"station_id":"ce4bhnh2rcd13ifvqgtg","pricing_plan_id":"cebpf4jnsgd1na2vs0mg"},{"bike_id":"e2c1e9d4-fd3e-4a94-81e3-074fc7a53216","system_id":"levelo_inurba_marseille","lat":43.31685,"lon":5.40473,"is_reserved":false,"is_disabled":false,"rental_uris":{"android":"levelo://app?vid=e2c1e9d4-fd3e-4a94-81e3-074fc7a53216","ios":"levelo://app?vid=e2c1e9d4-fd3e-4a94-81e3-074fc7a53216"},"vehicle_type_id":"4","last_reported":1741291843,"current_range_meters":4000,"station_id":"ce4bh012rcd13ifvqd00","pricing_plan_id":"cebpf4jnsgd1na2vs0mg"},{"bike_id":"e53b034d-3f41-4601-aad2-04df68568dda","system_id":"levelo_inurba_marseille","lat":43.28926,"lon":5.38389,"is_reserved":false,"is_disabled":false,"rental_uris":{"android":"levelo://app?vid=e53b034d-3f41-4601-aad2-04df68568dda","ios":"levelo://app?vid=e53b034d-3f41-4601-aad2-04df68568dda"},"vehicle_type_id":"4","last_reported":1741291843,"current_range_meters":4400,"station_id":"ce4bhah2rcd13ifvqej0","pricing_plan_id":"cebpf4jnsgd1na2vs0mg"},{"bike_id":"4b114bd7-ad42-4cc0-8abd-91b8c7f82a20","system_id":"levelo_inurba_marseille","lat":43.30531,"lon":5.36721,"is_reserved":false,"is_disabled":false,"rental_uris":{"android":"levelo://app?vid=4b114bd7-ad42-4cc0-8abd-91b8c7f82a20","ios":"levelo://app?vid=4b114bd7-ad42-4cc0-8abd-91b8c7f82a20"},"vehicle_type_id":"4","last_reported":1741291843,"current_range_meters":4400,"station_id":"ce4bgrp2rcd13ifvqc9g","pricing_plan_id":"cebpf4jnsgd1na2vs0mg"},{"bike_id":"1e6f8bdb-377e-4b0e-bd37-3073e5ac8881","system_id":"levelo_inurba_marseille","lat":43.249207,"lon":5.402068,"is_reserved":false,"is_disabled":false,"rental_uris":{"android":"levelo://app?vid=1e6f8bdb-377e-4b0e-bd37-3073e5ac8881","ios":"levelo://app?vid=1e6f8bdb-377e-4b0e-bd37-3073e5ac8881"},"vehicle_type_id":"4","last_reported":1741291843,"current_range_meters":4800,"station_id":"ce4bhlh2rcd13ifvqgig","pricing_plan_id":"cebpf4jnsgd1na2vs0mg"},{"bike_id":"2edcfac7-ee44-416e-a372-3762e063cf3a","system_id":"levelo_inurba_marseille","lat":43.27824,"lon":5.39197,"is_reserved":false,"is_disabled":false,"rental_uris":{"android":"levelo://app?vid=2edcfac7-ee44-416e-a372-3762e063cf3a","ios":"levelo://app?vid=2edcfac7-ee44-416e-a372-3762e063cf3a"},"vehicle_type_id":"4","last_reported":1741291843,"current_range_meters":4800,"station_id":"ce4bhjp2rcd13ifvqga0","pricing_plan_id":"cebpf4jnsgd1na2vs0mg"},{"bike_id":"c3229395-66af-44e0-a4c6-8e13f3390ebf","system_id":"levelo_inurba_marseille","lat":43.30802,"lon":5.43519,"is_reserved":false,"is_disabled":false,"rental_uris":{"android":"levelo://app?vid=c3229395-66af-44e0-a4c6-8e13f3390ebf","ios":"levelo://app?vid=c3229395-66af-44e0-a4c6-8e13f3390ebf"},"vehicle_type_id":"4","last_reported":1741291843,"current_range_meters":5600,"station_id":"ce4bhph2rcd13ifvqheg","pricing_plan_id":"cebpf4jnsgd1na2vs0mg"},{"bike_id":"f732301c-5814-4217-889c-43168a540117","system_id":"levelo_inurba_marseille","lat":43.25581,"lon":5.38238,"is_reserved":false,"is_disabled":false,"rental_uris":{"android":"levelo://app?vid=f732301c-5814-4217-889c-43168a540117","ios":"levelo://app?vid=f732301c-5814-4217-889c-43168a540117"},"vehicle_type_id":"4","last_reported":1741291843,"current_range_meters":5600,"station_id":"ce4bhih2rcd13ifvqfs0","pricing_plan_id":"cebpf4jnsgd1na2vs0mg"},{"bike_id":"ee534a5e-8078-4c21-aac0-0384fd32dca7","system_id":"levelo_inurba_marseille","lat":43.29204,"lon":5.36028,"is_reserved":false,"is_disabled":false,"rental_uris":{"android":"levelo://app?vid=ee534a5e-8078-4c21-aac0-0384fd32dca7","ios":"levelo://app?vid=ee534a5e-8078-4c21-aac0-0384fd32dca7"},"vehicle_type_id":"4","last_reported":1741291843,"current_range_meters":6000,"station_id":"ce4bhbh2rcd13ifvqeqg","pricing_plan_id":"cebpf4jnsgd1na2vs0mg"},{"bike_id":"49af381c-03c2-4987-a33c-943eed36c3de","system_id":"levelo_inurba_marseille","lat":43.22951,"lon":5.35414,"is_reserved":false,"is_disabled":false,"rental_uris":{"android":"levelo://app?vid=49af381c-03c2-4987-a33c-943eed36c3de","ios":"levelo://app?vid=49af381c-03c2-4987-a33c-943eed36c3de"},"vehicle_type_id":"4","last_reported":1741291843,"current_range_meters":6000,"station_id":"cpo3532slgdg3j2ikp40","pricing_plan_id":"cebpf4jnsgd1na2vs0mg"},{"bike_id":"85619d78-08e2-4af5-a784-af1a433afa2f","system_id":"levelo_inurba_marseille","lat":43.24103,"lon":5.37779,"is_reserved":false,"is_disabled":false,"rental_uris":{"android":"levelo://app?vid=85619d78-08e2-4af5-a784-af1a433afa2f","ios":"levelo://app?vid=85619d78-08e2-4af5-a784-af1a433afa2f"},"vehicle_type_id":"4","last_reported":1741291843,"current_range_meters":6000,"station_id":"ce4bhnp2rcd13ifvqgvg","pricing_plan_id":"cebpf4jnsgd1na2vs0mg"},{"bike_id":"e114ceab-4b21-42b6-9fae-4f2c1b25c044","system_id":"levelo_inurba_marseille","lat":43.28751,"lon":5.37838,"is_reserved":false,"is_disabled":false,"rental_uris":{"android":"levelo://app?vid=e114ceab-4b21-42b6-9fae-4f2c1b25c044","ios":"levelo://app?vid=e114ceab-4b21-42b6-9fae-4f2c1b25c044"},"vehicle_type_id":"4","last_reported":1741291843,"current_range_meters":6000,"station_id":"","pricing_plan_id":"cebpf4jnsgd1na2vs0mg"},{"bike_id":"5daee713-b231-4100-a1f4-fa774a23de02","system_id":"levelo_inurba_marseille","lat":43.2418,"lon":5.39724,"is_reserved":false,"is_disabled":false,"rental_uris":{"android":"levelo://app?vid=5daee713-b231-4100-a1f4-fa774a23de02","ios":"levelo://app?vid=5daee713-b231-4100-a1f4-fa774a23de02"},"vehicle_type_id":"4","last_reported":1741291843,"current_range_meters":6400,"station_id":"ce4bhn12rcd13ifvqgpg","pricing_plan_id":"cebpf4jnsgd1na2vs0mg"},{"bike_id":"375a5e76-de17-4dd1-93c1-1b58725f19fc","system_id":"levelo_inurba_marseille","lat":43.27808,"lon":5.40714,"is_reserved":false,"is_disabled":false,"rental_uris":{"android":"levelo://app?vid=375a5e76-de17-4dd1-93c1-1b58725f19fc","ios":"levelo://app?vid=375a5e76-de17-4dd1-93c1-1b58725f19fc"},"vehicle_type_id":"4","last_reported":1741291843,"current_range_meters":6400,"station_id":"ce4bhnh2rcd13ifvqgtg","pricing_plan_id":"cebpf4jnsgd1na2vs0mg"},{"bike_id":"70ff43ab-8811-446f-b3b6-dc37bbe30e55","system_id":"levelo_inurba_marseille","lat":43.25492,"lon":5.37657,"is_reserved":false,"is_disabled":false,"rental_uris":{"android":"levelo://app?vid=70ff43ab-8811-446f-b3b6-dc37bbe30e55","ios":"levelo://app?vid=70ff43ab-8811-446f-b3b6-dc37bbe30e55"},"vehicle_type_id":"4","last_reported":1741291843,"current_range_meters":6400,"station_id":"ce4bhh12rcd13ifvqff0","pricing_plan_id":"cebpf4jnsgd1na2vs0mg"},{"bike_id":"ea81972b-8597-4685-9797-12c32ca52780","system_id":"levelo_inurba_marseille","lat":43.31173,"lon":5.36836,"is_reserved":false,"is_disabled":false,"rental_uris":{"android":"levelo://app?vid=ea81972b-8597-4685-9797-12c32ca52780","ios":"levelo://app?vid=ea81972b-8597-4685-9797-12c32ca52780"},"vehicle_type_id":"4","last_reported":1741291843,"current_range_meters":6400,"station_id":"ce4bgl92rcd13ifvqbq0","pricing_plan_id":"cebpf4jnsgd1na2vs0mg"},{"bike_id":"b97b5fa0-43ac-49ee-a0f6-7758a77ce9d2","system_id":"levelo_inurba_marseille","lat":43.2795,"lon":5.4105,"is_reserved":false,"is_disabled":false,"rental_uris":{"android":"levelo://app?vid=b97b5fa0-43ac-49ee-a0f6-7758a77ce9d2","ios":"levelo://app?vid=b97b5fa0-43ac-49ee-a0f6-7758a77ce9d2"},"vehicle_type_id":"4","last_reported":1741291843,"current_range_meters":6400,"station_id":"ce4bhnp2rcd13ifvqh0g","pricing_plan_id":"cebpf4jnsgd1na2vs0mg"},{"bike_id":"3fffc9cd-f418-41de-9fba-0cc23722d684","system_id":"levelo_inurba_marseille","lat":43.23068,"lon":5.35491,"is_reserved":false,"is_disabled":false,"rental_uris":{"android":"levelo://app?vid=3fffc9cd-f418-41de-9fba-0cc23722d684","ios":"levelo://app?vid=3fffc9cd-f418-41de-9fba-0cc23722d684"},"vehicle_type_id":"4","last_reported":1741291843,"current_range_meters":6400,"station_id":"cpo3342slgdg3j2ifvpg","pricing_plan_id":"cebpf4jnsgd1na2vs0mg"},{"bike_id":"12a0f8a0-f887-4da5-868b-03d02ec00711","system_id":"levelo_inurba_marseille","lat":43.31399,"lon":5.3848,"is_reserved":false,"is_disabled":false,"rental_uris":{"android":"levelo://app?vid=12a0f8a0-f887-4da5-868b-03d02ec00711","ios":"levelo://app?vid=12a0f8a0-f887-4da5-868b-03d02ec00711"},"vehicle_type_id":"4","last_reported":1741291843,"current_range_meters":6400,"station_id":"ce4bgt92rcd13ifvqcf0","pricing_plan_id":"cebpf4jnsgd1na2vs0mg"},{"bike_id":"740df627-5ddd-4847-9d55-a8f5b4da2f4e","system_id":"levelo_inurba_marseille","lat":43.31627,"lon":5.40561,"is_reserved":false,"is_disabled":false,"rental_uris":{"android":"levelo://app?vid=740df627-5ddd-4847-9d55-a8f5b4da2f4e","ios":"levelo://app?vid=740df627-5ddd-4847-9d55-a8f5b4da2f4e"},"vehicle_type_id":"4","last_reported":1741291843,"current_range_meters":6400,"station_id":"","pricing_plan_id":"cebpf4jnsgd1na2vs0mg"},{"bike_id":"fadc5597-2f44-411e-bbc9-b698e9edf980","system_id":"levelo_inurba_marseille","lat":43.27933,"lon":5.41047,"is_reserved":false,"is_disabled":false,"rental_uris":{"android":"levelo://app?vid=fadc5597-2f44-411e-bbc9-b698e9edf980","ios":"levelo://app?vid=fadc5597-2f44-411e-bbc9-b698e9edf980"},"vehicle_type_id":"4","last_reported":1741291843,"current_range_meters":6400,"station_id":"ce4bhnp2rcd13ifvqh0g","pricing_plan_id":"cebpf4jnsgd1na2vs0mg"},{"bike_id":"84c0387d-ebf5-4e07-ba71-8e36c90f9a0f","system_id":"levelo_inurba_marseille","lat":43.29712,"lon":5.37708,"is_reserved":false,"is_disabled":false,"rental_uris":{"android":"levelo://app?vid=84c0387d-ebf5-4e07-ba71-8e36c90f9a0f","ios":"levelo://app?vid=84c0387d-ebf5-4e07-ba71-8e36c90f9a0f"},"vehicle_type_id":"4","last_reported":1741291843,"current_range_meters":6000,"station_id":"ce4bgkh2rcd13ifvqbl0","pricing_plan_id":"cebpf4jnsgd1na2vs0mg"},{"bike_id":"b0b5c115-e7b0-4f98-b875-a0a9a4fec19f","system_id":"levelo_inurba_marseille","lat":43.27945,"lon":5.41044,"is_reserved":false,"is_disabled":false,"rental_uris":{"android":"levelo://app?vid=b0b5c115-e7b0-4f98-b875-a0a9a4fec19f","ios":"levelo://app?vid=b0b5c115-e7b0-4f98-b875-a0a9a4fec19f"},"vehicle_type_id":"4","last_reported":1741291843,"current_range_meters":6400,"station_id":"ce4bhnp2rcd13ifvqh0g","pricing_plan_id":"cebpf4jnsgd1na2vs0mg"},{"bike_id":"4780d75a-ea78-4889-9be5-abee8640617a","system_id":"levelo_inurba_marseille","lat":43.28076,"lon":5.39662,"is_reserved":false,"is_disabled":false,"rental_uris":{"android":"levelo://app?vid=4780d75a-ea78-4889-9be5-abee8640617a","ios":"levelo://app?vid=4780d75a-ea78-4889-9be5-abee8640617a"},"vehicle_type_id":"4","last_reported":1741291843,"current_range_meters":6800,"station_id":"ce4bho12rcd13ifvqh2g","pricing_plan_id":"cebpf4jnsgd1na2vs0mg"},{"bike_id":"36f98dfb-f6f1-408b-a1f8-22e3384c601d","system_id":"levelo_inurba_marseille","lat":43.29084,"lon":5.37178,"is_reserved":false,"is_disabled":false,"rental_uris":{"android":"levelo://app?vid=36f98dfb-f6f1-408b-a1f8-22e3384c601d","ios":"levelo://app?vid=36f98dfb-f6f1-408b-a1f8-22e3384c601d"},"vehicle_type_id":"4","last_reported":1741291843,"current_range_meters":6800,"station_id":"ce4bh5p2rcd13ifvqe4g","pricing_plan_id":"cebpf4jnsgd1na2vs0mg"},{"bike_id":"50ef45ed-3c4c-476d-bdb8-f0f24a94b687","system_id":"levelo_inurba_marseille","lat":43.2466,"lon":5.38161,"is_reserved":false,"is_disabled":false,"rental_uris":{"android":"levelo://app?vid=50ef45ed-3c4c-476d-bdb8-f0f24a94b687","ios":"levelo://app?vid=50ef45ed-3c4c-476d-bdb8-f0f24a94b687"},"vehicle_type_id":"4","last_reported":1741291843,"current_range_meters":6800,"station_id":"ce4bhih2rcd13ifvqfr0","pricing_plan_id":"cebpf4jnsgd1na2vs0mg"},{"bike_id":"03c3dc7c-8ee4-444d-b4cb-ba42a05873bd","system_id":"levelo_inurba_marseille","lat":43.22925,"lon":5.35379,"is_reserved":false,"is_disabled":false,"rental_uris":{"android":"levelo://app?vid=03c3dc7c-8ee4-444d-b4cb-ba42a05873bd","ios":"levelo://app?vid=03c3dc7c-8ee4-444d-b4cb-ba42a05873bd"},"vehicle_type_id":"4","last_reported":1741291843,"current_range_meters":6800,"station_id":"cpo3532slgdg3j2ikp40","pricing_plan_id":"cebpf4jnsgd1na2vs0mg"},{"bike_id":"de754493-593d-484d-850a-eaba979f3d3f","system_id":"levelo_inurba_marseille","lat":43.27953,"lon":5.4104,"is_reserved":false,"is_disabled":false,"rental_uris":{"android":"levelo://app?vid=de754493-593d-484d-850a-eaba979f3d3f","ios":"levelo://app?vid=de754493-593d-484d-850a-eaba979f3d3f"},"vehicle_type_id":"4","last_reported":1741291843,"current_range_meters":6800,"station_id":"ce4bhnp2rcd13ifvqh0g","pricing_plan_id":"cebpf4jnsgd1na2vs0mg"},{"bike_id":"a182f3ee-bf5c-4927-a4f9-0a3a288734d5","system_id":"levelo_inurba_marseille","lat":43.29681,"lon":5.37297,"is_reserved":false,"is_disabled":false,"rental_uris":{"android":"levelo://app?vid=a182f3ee-bf5c-4927-a4f9-0a3a288734d5","ios":"levelo://app?vid=a182f3ee-bf5c-4927-a4f9-0a3a288734d5"},"vehicle_type_id":"4","last_reported":1741291843,"current_range_meters":6800,"station_id":"ce4bgk12rcd13ifvqbj0","pricing_plan_id":"cebpf4jnsgd1na2vs0mg"},{"bike_id":"ef1c6476-0bb3-4831-9572-073cce61b9c8","system_id":"levelo_inurba_marseille","lat":43.27665,"lon":5.38898,"is_reserved":false,"is_disabled":false,"rental_uris":{"android":"levelo://app?vid=ef1c6476-0bb3-4831-9572-073cce61b9c8","ios":"levelo://app?vid=ef1c6476-0bb3-4831-9572-073cce61b9c8"},"vehicle_type_id":"4","last_reported":1741291843,"current_range_meters":6800,"station_id":"ce4bhi12rcd13ifvqfo0","pricing_plan_id":"cebpf4jnsgd1na2vs0mg"},{"bike_id":"48be3c18-589c-4708-8ab4-90ce9c9983a1","system_id":"levelo_inurba_marseille","lat":43.2408,"lon":5.377487,"is_reserved":false,"is_disabled":false,"rental_uris":{"android":"levelo://app?vid=48be3c18-589c-4708-8ab4-90ce9c9983a1","ios":"levelo://app?vid=48be3c18-589c-4708-8ab4-90ce9c9983a1"},"vehicle_type_id":"4","last_reported":1741291843,"current_range_meters":6800,"station_id":"ce4bhnp2rcd13ifvqgvg","pricing_plan_id":"cebpf4jnsgd1na2vs0mg"},{"bike_id":"30b8be40-3d2e-4f7d-a831-74ba3450c49d","system_id":"levelo_inurba_marseille","lat":43.26066,"lon":5.39401,"is_reserved":false,"is_disabled":false,"rental_uris":{"android":"levelo://app?vid=30b8be40-3d2e-4f7d-a831-74ba3450c49d","ios":"levelo://app?vid=30b8be40-3d2e-4f7d-a831-74ba3450c49d"},"vehicle_type_id":"4","last_reported":1741291843,"current_range_meters":6800,"station_id":"ce4bhh92rcd13ifvqfj0","pricing_plan_id":"cebpf4jnsgd1na2vs0mg"},{"bike_id":"b128a848-1fbe-452d-aa99-802041786fec","system_id":"levelo_inurba_marseille","lat":43.29548,"lon":5.42248,"is_reserved":false,"is_disabled":false,"rental_uris":{"android":"levelo://app?vid=b128a848-1fbe-452d-aa99-802041786fec","ios":"levelo://app?vid=b128a848-1fbe-452d-aa99-802041786fec"},"vehicle_type_id":"4","last_reported":1741291843,"current_range_meters":7200,"station_id":"ce4bhph2rcd13ifvqhdg","pricing_plan_id":"cebpf4jnsgd1na2vs0mg"},{"bike_id":"77ae1912-8e6f-489b-99a2-9bc231f96cf9","system_id":"levelo_inurba_marseille","lat":43.25571,"lon":5.38233,"is_reserved":false,"is_disabled":false,"rental_uris":{"android":"levelo://app?vid=77ae1912-8e6f-489b-99a2-9bc231f96cf9","ios":"levelo://app?vid=77ae1912-8e6f-489b-99a2-9bc231f96cf9"},"vehicle_type_id":"4","last_reported":1741291843,"current_range_meters":7200,"station_id":"ce4bhih2rcd13ifvqfs0","pricing_plan_id":"cebpf4jnsgd1na2vs0mg"},{"bike_id":"bd012427-fc8f-4fad-a296-ffd84f9acf1e","system_id":"levelo_inurba_marseille","lat":43.31053,"lon":5.38345,"is_reserved":false,"is_disabled":false,"rental_uris":{"android":"levelo://app?vid=bd012427-fc8f-4fad-a296-ffd84f9acf1e","ios":"levelo://app?vid=bd012427-fc8f-4fad-a296-ffd84f9acf1e"},"vehicle_type_id":"4","last_reported":1741291843,"current_range_meters":7200,"station_id":"ce4bgv92rcd13ifvqcr0","pricing_plan_id":"cebpf4jnsgd1na2vs0mg"},{"bike_id":"cbd6b5ca-aa68-4936-b979-fbeb8435abec","system_id":"levelo_inurba_marseille","lat":43.27918,"lon":5.39587,"is_reserved":false,"is_disabled":false,"rental_uris":{"android":"levelo://app?vid=cbd6b5ca-aa68-4936-b979-fbeb8435abec","ios":"levelo://app?vid=cbd6b5ca-aa68-4936-b979-fbeb8435abec"},"vehicle_type_id":"4","last_reported":1741291843,"current_range_meters":7200,"station_id":"ce4bhf92rcd13ifvqf40","pricing_plan_id":"cebpf4jnsgd1na2vs0mg"},{"bike_id":"bc8207bd-f2d8-41da-86c8-3be9cd4914ec","system_id":"levelo_inurba_marseille","lat":43.29879,"lon":5.37396,"is_reserved":false,"is_disabled":false,"rental_uris":{"android":"levelo://app?vid=bc8207bd-f2d8-41da-86c8-3be9cd4914ec","ios":"levelo://app?vid=bc8207bd-f2d8-41da-86c8-3be9cd4914ec"},"vehicle_type_id":"4","last_reported":1741291843,"current_range_meters":2800,"station_id":"ce4bgrp2rcd13ifvqc9g","pricing_plan_id":"cebpf4jnsgd1na2vs0mg"},{"bike_id":"ee9f9117-bade-4e69-98c5-4610a17100ea","system_id":"levelo_inurba_marseille","lat":43.27819,"lon":5.40719,"is_reserved":false,"is_disabled":false,"rental_uris":{"android":"levelo://app?vid=ee9f9117-bade-4e69-98c5-4610a17100ea","ios":"levelo://app?vid=ee9f9117-bade-4e69-98c5-4610a17100ea"},"vehicle_type_id":"4","last_reported":1741291843,"current_range_meters":7200,"station_id":"ce4bhnh2rcd13ifvqgtg","pricing_plan_id":"cebpf4jnsgd1na2vs0mg"},{"bike_id":"6055d6b6-b351-41fa-94d5-880dfc9846d8","system_id":"levelo_inurba_marseille","lat":43.23207,"lon":5.35546,"is_reserved":false,"is_disabled":false,"rental_uris":{"android":"levelo://app?vid=6055d6b6-b351-41fa-94d5-880dfc9846d8","ios":"levelo://app?vid=6055d6b6-b351-41fa-94d5-880dfc9846d8"},"vehicle_type_id":"4","last_reported":1741291843,"current_range_meters":7200,"station_id":"ce4bhu92rcd13ifvqi70","pricing_plan_id":"cebpf4jnsgd1na2vs0mg"},{"bike_id":"190dd6cb-533e-4681-a747-9e41c3808569","system_id":"levelo_inurba_marseille","lat":43.28725,"lon":5.36102,"is_reserved":false,"is_disabled":false,"rental_uris":{"android":"levelo://app?vid=190dd6cb-533e-4681-a747-9e41c3808569","ios":"levelo://app?vid=190dd6cb-533e-4681-a747-9e41c3808569"},"vehicle_type_id":"4","last_reported":1741291843,"current_range_meters":7200,"station_id":"cki0cbj6b192h4jlfktg","pricing_plan_id":"cebpf4jnsgd1na2vs0mg"},{"bike_id":"7719d5a1-560d-49d9-a276-2a0a35b94d52","system_id":"levelo_inurba_marseille","lat":43.32668,"lon":5.41015,"is_reserved":false,"is_disabled":false,"rental_uris":{"android":"levelo://app?vid=7719d5a1-560d-49d9-a276-2a0a35b94d52","ios":"levelo://app?vid=7719d5a1-560d-49d9-a276-2a0a35b94d52"},"vehicle_type_id":"4","last_reported":1741291843,"current_range_meters":7200,"station_id":"ce4bhpp2rcd13ifvqhgg","pricing_plan_id":"cebpf4jnsgd1na2vs0mg"},{"bike_id":"9bfe4e82-241b-4620-b471-d226beb88b23","system_id":"levelo_inurba_marseille","lat":43.22947,"lon":5.35375,"is_reserved":false,"is_disabled":false,"rental_uris":{"android":"levelo://app?vid=9bfe4e82-241b-4620-b471-d226beb88b23","ios":"levelo://app?vid=9bfe4e82-241b-4620-b471-d226beb88b23"},"vehicle_type_id":"4","last_reported":1741291843,"current_range_meters":7200,"station_id":"cpo3532slgdg3j2ikp40","pricing_plan_id":"cebpf4jnsgd1na2vs0mg"},{"bike_id":"62c52161-1680-4a22-9aae-9b948699d9ee","system_id":"levelo_inurba_marseille","lat":43.24078,"lon":5.37759,"is_reserved":false,"is_disabled":false,"rental_uris":{"android":"levelo://app?vid=62c52161-1680-4a22-9aae-9b948699d9ee","ios":"levelo://app?vid=62c52161-1680-4a22-9aae-9b948699d9ee"},"vehicle_type_id":"4","last_reported":1741291843,"current_range_meters":7200,"station_id":"ce4bhnp2rcd13ifvqgvg","pricing_plan_id":"cebpf4jnsgd1na2vs0mg"},{"bike_id":"64e6d7c7-6964-4f42-9f4d-1ffd80e5e48d","system_id":"levelo_inurba_marseille","lat":43.24169,"lon":5.36403,"is_reserved":false,"is_disabled":false,"rental_uris":{"android":"levelo://app?vid=64e6d7c7-6964-4f42-9f4d-1ffd80e5e48d","ios":"levelo://app?vid=64e6d7c7-6964-4f42-9f4d-1ffd80e5e48d"},"vehicle_type_id":"4","last_reported":1741291843,"current_range_meters":7200,"station_id":"cpo36qri1sfpv3e86is0","pricing_plan_id":"cebpf4jnsgd1na2vs0mg"},{"bike_id":"7b3dc7b9-ed95-4fac-b8db-fb164e0e0a08","system_id":"levelo_inurba_marseille","lat":43.27491,"lon":5.42413,"is_reserved":false,"is_disabled":true,"rental_uris":{"android":"levelo://app?vid=7b3dc7b9-ed95-4fac-b8db-fb164e0e0a08","ios":"levelo://app?vid=7b3dc7b9-ed95-4fac-b8db-fb164e0e0a08"},"vehicle_type_id":"4","last_reported":1741291843,"current_range_meters":7200,"station_id":"ce4bhn92rcd13ifvqgrg","pricing_plan_id":"cebpf4jnsgd1na2vs0mg"},{"bike_id":"853154b5-8925-42f6-b73b-a83a6335302f","system_id":"levelo_inurba_marseille","lat":43.2871,"lon":5.36097,"is_reserved":false,"is_disabled":false,"rental_uris":{"android":"levelo://app?vid=853154b5-8925-42f6-b73b-a83a6335302f","ios":"levelo://app?vid=853154b5-8925-42f6-b73b-a83a6335302f"},"vehicle_type_id":"4","last_reported":1741291843,"current_range_meters":8000,"station_id":"cki0cbj6b192h4jlfktg","pricing_plan_id":"cebpf4jnsgd1na2vs0mg"},{"bike_id":"b0c50bd3-91e3-421a-b21b-813b3034663a","system_id":"levelo_inurba_marseille","lat":43.30489,"lon":5.3717,"is_reserved":false,"is_disabled":false,"rental_uris":{"android":"levelo://app?vid=b0c50bd3-91e3-421a-b21b-813b3034663a","ios":"levelo://app?vid=b0c50bd3-91e3-421a-b21b-813b3034663a"},"vehicle_type_id":"4","last_reported":1741291843,"current_range_meters":8000,"station_id":"","pricing_plan_id":"cebpf4jnsgd1na2vs0mg"},{"bike_id":"fdde8103-1f2a-4455-bcfa-e1d74ecb0194","system_id":"levelo_inurba_marseille","lat":43.27823,"lon":5.40729,"is_reserved":false,"is_disabled":false,"rental_uris":{"android":"levelo://app?vid=fdde8103-1f2a-4455-bcfa-e1d74ecb0194","ios":"levelo://app?vid=fdde8103-1f2a-4455-bcfa-e1d74ecb0194"},"vehicle_type_id":"4","last_reported":1741291843,"current_range_meters":8000,"station_id":"ce4bhnh2rcd13ifvqgtg","pricing_plan_id":"cebpf4jnsgd1na2vs0mg"},{"bike_id":"d2fd960f-0af3-4bf9-bd6a-b0c4aa4544af","system_id":"levelo_inurba_marseille","lat":43.23203,"lon":5.39978,"is_reserved":false,"is_disabled":false,"rental_uris":{"android":"levelo://app?vid=d2fd960f-0af3-4bf9-bd6a-b0c4aa4544af","ios":"levelo://app?vid=d2fd960f-0af3-4bf9-bd6a-b0c4aa4544af"},"vehicle_type_id":"4","last_reported":1741291843,"current_range_meters":8000,"station_id":"ce4bhn12rcd13ifvqgqg","pricing_plan_id":"cebpf4jnsgd1na2vs0mg"},{"bike_id":"7bdf6528-cded-4e31-bdcd-05e5503236cb","system_id":"levelo_inurba_marseille","lat":43.30813,"lon":5.43523,"is_reserved":false,"is_disabled":false,"rental_uris":{"android":"levelo://app?vid=7bdf6528-cded-4e31-bdcd-05e5503236cb","ios":"levelo://app?vid=7bdf6528-cded-4e31-bdcd-05e5503236cb"},"vehicle_type_id":"4","last_reported":1741291843,"current_range_meters":8000,"station_id":"ce4bhph2rcd13ifvqheg","pricing_plan_id":"cebpf4jnsgd1na2vs0mg"},{"bike_id":"2050ec47-9fe3-474c-ad6e-b80ada48c5a4","system_id":"levelo_inurba_marseille","lat":43.29846,"lon":5.3628,"is_reserved":false,"is_disabled":false,"rental_uris":{"android":"levelo://app?vid=2050ec47-9fe3-474c-ad6e-b80ada48c5a4","ios":"levelo://app?vid=2050ec47-9fe3-474c-ad6e-b80ada48c5a4"},"vehicle_type_id":"4","last_reported":1741291843,"current_range_meters":7200,"station_id":"ce4bgpp2rcd13ifvqc3g","pricing_plan_id":"cebpf4jnsgd1na2vs0mg"},{"bike_id":"c02718d2-20cf-4c51-b231-08ba621c84d3","system_id":"levelo_inurba_marseille","lat":43.27811,"lon":5.4072,"is_reserved":false,"is_disabled":false,"rental_uris":{"android":"levelo://app?vid=c02718d2-20cf-4c51-b231-08ba621c84d3","ios":"levelo://app?vid=c02718d2-20cf-4c51-b231-08ba621c84d3"},"vehicle_type_id":"4","last_reported":1741291843,"current_range_meters":8000,"station_id":"ce4bhnh2rcd13ifvqgtg","pricing_plan_id":"cebpf4jnsgd1na2vs0mg"},{"bike_id":"59095bbd-c425-4d07-b0bd-c052728cb537","system_id":"levelo_inurba_marseille","lat":43.30129,"lon":5.39868,"is_reserved":false,"is_disabled":false,"rental_uris":{"android":"levelo://app?vid=59095bbd-c425-4d07-b0bd-c052728cb537","ios":"levelo://app?vid=59095bbd-c425-4d07-b0bd-c052728cb537"},"vehicle_type_id":"4","last_reported":1741291843,"current_range_meters":8000,"station_id":"ce4bh0h2rcd13ifvqd40","pricing_plan_id":"cebpf4jnsgd1na2vs0mg"},{"bike_id":"e0c0bec3-454a-410d-a60f-3aed516ec149","system_id":"levelo_inurba_marseille","lat":43.23218,"lon":5.35529,"is_reserved":false,"is_disabled":false,"rental_uris":{"android":"levelo://app?vid=e0c0bec3-454a-410d-a60f-3aed516ec149","ios":"levelo://app?vid=e0c0bec3-454a-410d-a60f-3aed516ec149"},"vehicle_type_id":"4","last_reported":1741291843,"current_range_meters":8400,"station_id":"ce4bhu92rcd13ifvqi70","pricing_plan_id":"cebpf4jnsgd1na2vs0mg"},{"bike_id":"f9fc3450-00c1-46c4-a8f0-75d5054525a7","system_id":"levelo_inurba_marseille","lat":43.239597,"lon":5.366337,"is_reserved":false,"is_disabled":false,"rental_uris":{"android":"levelo://app?vid=f9fc3450-00c1-46c4-a8f0-75d5054525a7","ios":"levelo://app?vid=f9fc3450-00c1-46c4-a8f0-75d5054525a7"},"vehicle_type_id":"4","last_reported":1741291843,"current_range_meters":8400,"station_id":"ce4bhi12rcd13ifvqfp0","pricing_plan_id":"cebpf4jnsgd1na2vs0mg"},{"bike_id":"7fc4c930-26da-4834-83c2-27074e7648d6","system_id":"levelo_inurba_marseille","lat":43.2845,"lon":5.35889,"is_reserved":false,"is_disabled":false,"rental_uris":{"android":"levelo://app?vid=7fc4c930-26da-4834-83c2-27074e7648d6","ios":"levelo://app?vid=7fc4c930-26da-4834-83c2-27074e7648d6"},"vehicle_type_id":"4","last_reported":1741291843,"current_range_meters":8400,"station_id":"ce4bhah2rcd13ifvqei0","pricing_plan_id":"cebpf4jnsgd1na2vs0mg"},{"bike_id":"f5d6ba10-dbed-4b5d-bfc6-d2252c454306","system_id":"levelo_inurba_marseille","lat":43.29377,"lon":5.40073,"is_reserved":false,"is_disabled":false,"rental_uris":{"android":"levelo://app?vid=f5d6ba10-dbed-4b5d-bfc6-d2252c454306","ios":"levelo://app?vid=f5d6ba10-dbed-4b5d-bfc6-d2252c454306"},"vehicle_type_id":"4","last_reported":1741291843,"current_range_meters":8400,"station_id":"ce4bhgp2rcd13ifvqfe0","pricing_plan_id":"cebpf4jnsgd1na2vs0mg"},{"bike_id":"d7a5d08e-79ec-4432-b725-515b67d87ba1","system_id":"levelo_inurba_marseille","lat":43.23211,"lon":5.39998,"is_reserved":false,"is_disabled":false,"rental_uris":{"android":"levelo://app?vid=d7a5d08e-79ec-4432-b725-515b67d87ba1","ios":"levelo://app?vid=d7a5d08e-79ec-4432-b725-515b67d87ba1"},"vehicle_type_id":"4","last_reported":1741291843,"current_range_meters":8400,"station_id":"ce4bhn12rcd13ifvqgqg","pricing_plan_id":"cebpf4jnsgd1na2vs0mg"},{"bike_id":"524470ee-5afb-4f8a-b4b1-91fa19aa2b60","system_id":"levelo_inurba_marseille","lat":43.24557,"lon":5.39522,"is_reserved":false,"is_disabled":true,"rental_uris":{"android":"levelo://app?vid=524470ee-5afb-4f8a-b4b1-91fa19aa2b60","ios":"levelo://app?vid=524470ee-5afb-4f8a-b4b1-91fa19aa2b60"},"vehicle_type_id":"4","last_reported":1741291843,"current_range_meters":8400,"station_id":"ce4bhlp2rcd13ifvqgjg","pricing_plan_id":"cebpf4jnsgd1na2vs0mg"},{"bike_id":"5af61498-409e-43d3-89df-f9b8bc9f1f5e","system_id":"levelo_inurba_marseille","lat":43.23189,"lon":5.39982,"is_reserved":false,"is_disabled":false,"rental_uris":{"android":"levelo://app?vid=5af61498-409e-43d3-89df-f9b8bc9f1f5e","ios":"levelo://app?vid=5af61498-409e-43d3-89df-f9b8bc9f1f5e"},"vehicle_type_id":"4","last_reported":1741291843,"current_range_meters":8400,"station_id":"ce4bhn12rcd13ifvqgqg","pricing_plan_id":"cebpf4jnsgd1na2vs0mg"},{"bike_id":"fd58e227-be2e-4eff-a5f3-1890c8f37b75","system_id":"levelo_inurba_marseille","lat":43.25096,"lon":5.40332,"is_reserved":false,"is_disabled":false,"rental_uris":{"android":"levelo://app?vid=fd58e227-be2e-4eff-a5f3-1890c8f37b75","ios":"levelo://app?vid=fd58e227-be2e-4eff-a5f3-1890c8f37b75"},"vehicle_type_id":"4","last_reported":1741291843,"current_range_meters":8800,"station_id":"ce4bhlh2rcd13ifvqgig","pricing_plan_id":"cebpf4jnsgd1na2vs0mg"},{"bike_id":"ef97e956-481c-4cc7-9a35-76bd87314731","system_id":"levelo_inurba_marseille","lat":43.3108,"lon":5.3836,"is_reserved":false,"is_disabled":false,"rental_uris":{"android":"levelo://app?vid=ef97e956-481c-4cc7-9a35-76bd87314731","ios":"levelo://app?vid=ef97e956-481c-4cc7-9a35-76bd87314731"},"vehicle_type_id":"4","last_reported":1741291843,"current_range_meters":8800,"station_id":"ce4bgv92rcd13ifvqcr0","pricing_plan_id":"cebpf4jnsgd1na2vs0mg"},{"bike_id":"fd570e3e-777b-4122-9306-c335bf003eb6","system_id":"levelo_inurba_marseille","lat":43.23187,"lon":5.39981,"is_reserved":false,"is_disabled":false,"rental_uris":{"android":"levelo://app?vid=fd570e3e-777b-4122-9306-c335bf003eb6","ios":"levelo://app?vid=fd570e3e-777b-4122-9306-c335bf003eb6"},"vehicle_type_id":"4","last_reported":1741291843,"current_range_meters":8800,"station_id":"ce4bhn12rcd13ifvqgqg","pricing_plan_id":"cebpf4jnsgd1na2vs0mg"},{"bike_id":"7f1905bf-da4d-4f13-af14-c5d46804e585","system_id":"levelo_inurba_marseille","lat":43.23222,"lon":5.35594,"is_reserved":false,"is_disabled":false,"rental_uris":{"android":"levelo://app?vid=7f1905bf-da4d-4f13-af14-c5d46804e585","ios":"levelo://app?vid=7f1905bf-da4d-4f13-af14-c5d46804e585"},"vehicle_type_id":"4","last_reported":1741291843,"current_range_meters":8800,"station_id":"ce4bhu92rcd13ifvqi70","pricing_plan_id":"cebpf4jnsgd1na2vs0mg"},{"bike_id":"edabaed4-d10a-4194-89d4-67c882bd8b0f","system_id":"levelo_inurba_marseille","lat":43.29235,"lon":5.36083,"is_reserved":false,"is_disabled":false,"rental_uris":{"android":"levelo://app?vid=edabaed4-d10a-4194-89d4-67c882bd8b0f","ios":"levelo://app?vid=edabaed4-d10a-4194-89d4-67c882bd8b0f"},"vehicle_type_id":"4","last_reported":1741291843,"current_range_meters":8800,"station_id":"ce4bhbh2rcd13ifvqeqg","pricing_plan_id":"cebpf4jnsgd1na2vs0mg"},{"bike_id":"c5d9a748-fb84-4751-9008-dc4467d9ed9a","system_id":"levelo_inurba_marseille","lat":43.23216,"lon":5.35539,"is_reserved":false,"is_disabled":false,"rental_uris":{"android":"levelo://app?vid=c5d9a748-fb84-4751-9008-dc4467d9ed9a","ios":"levelo://app?vid=c5d9a748-fb84-4751-9008-dc4467d9ed9a"},"vehicle_type_id":"4","last_reported":1741291843,"current_range_meters":8800,"station_id":"ce4bhu92rcd13ifvqi70","pricing_plan_id":"cebpf4jnsgd1na2vs0mg"},{"bike_id":"6152b505-bdaa-4154-9904-8e28b1c35e0b","system_id":"levelo_inurba_marseille","lat":43.27816,"lon":5.40713,"is_reserved":false,"is_disabled":false,"rental_uris":{"android":"levelo://app?vid=6152b505-bdaa-4154-9904-8e28b1c35e0b","ios":"levelo://app?vid=6152b505-bdaa-4154-9904-8e28b1c35e0b"},"vehicle_type_id":"4","last_reported":1741291843,"current_range_meters":8800,"station_id":"ce4bhnh2rcd13ifvqgtg","pricing_plan_id":"cebpf4jnsgd1na2vs0mg"},{"bike_id":"81220ab9-fb8e-4638-a084-692a6595df85","system_id":"levelo_inurba_marseille","lat":43.26188,"lon":5.42074,"is_reserved":false,"is_disabled":false,"rental_uris":{"android":"levelo://app?vid=81220ab9-fb8e-4638-a084-692a6595df85","ios":"levelo://app?vid=81220ab9-fb8e-4638-a084-692a6595df85"},"vehicle_type_id":"4","last_reported":1741291843,"current_range_meters":8800,"station_id":"","pricing_plan_id":"cebpf4jnsgd1na2vs0mg"},{"bike_id":"e32e5309-5cf3-4586-ab57-38cd5f2cf148","system_id":"levelo_inurba_marseille","lat":43.24398,"lon":5.37074,"is_reserved":false,"is_disabled":false,"rental_uris":{"android":"levelo://app?vid=e32e5309-5cf3-4586-ab57-38cd5f2cf148","ios":"levelo://app?vid=e32e5309-5cf3-4586-ab57-38cd5f2cf148"},"vehicle_type_id":"4","last_reported":1741291843,"current_range_meters":8800,"station_id":"ce4bhhh2rcd13ifvqfk0","pricing_plan_id":"cebpf4jnsgd1na2vs0mg"},{"bike_id":"3c5e0350-07a6-4d3d-b526-00ffb41b6d3e","system_id":"levelo_inurba_marseille","lat":43.27941,"lon":5.41061,"is_reserved":false,"is_disabled":false,"rental_uris":{"android":"levelo://app?vid=3c5e0350-07a6-4d3d-b526-00ffb41b6d3e","ios":"levelo://app?vid=3c5e0350-07a6-4d3d-b526-00ffb41b6d3e"},"vehicle_type_id":"4","last_reported":1741291843,"current_range_meters":9200,"station_id":"ce4bhnp2rcd13ifvqh0g","pricing_plan_id":"cebpf4jnsgd1na2vs0mg"},{"bike_id":"915b7735-4cab-40c5-9411-3076bdbf4c7d","system_id":"levelo_inurba_marseille","lat":43.29903,"lon":5.43669,"is_reserved":false,"is_disabled":false,"rental_uris":{"android":"levelo://app?vid=915b7735-4cab-40c5-9411-3076bdbf4c7d","ios":"levelo://app?vid=915b7735-4cab-40c5-9411-3076bdbf4c7d"},"vehicle_type_id":"4","last_reported":1741291843,"current_range_meters":9200,"station_id":"ce4bhpp2rcd13ifvqhfg","pricing_plan_id":"cebpf4jnsgd1na2vs0mg"},{"bike_id":"2dab8d37-98be-4df8-8105-ded97f798ead","system_id":"levelo_inurba_marseille","lat":43.32057,"lon":5.41535,"is_reserved":false,"is_disabled":false,"rental_uris":{"android":"levelo://app?vid=2dab8d37-98be-4df8-8105-ded97f798ead","ios":"levelo://app?vid=2dab8d37-98be-4df8-8105-ded97f798ead"},"vehicle_type_id":"4","last_reported":1741291843,"current_range_meters":8800,"station_id":"ce4bhq92rcd13ifvqhkg","pricing_plan_id":"cebpf4jnsgd1na2vs0mg"},{"bike_id":"24fed381-61cf-4846-9932-4e6bdd4afd57","system_id":"levelo_inurba_marseille","lat":43.27648,"lon":5.36118,"is_reserved":false,"is_disabled":false,"rental_uris":{"android":"levelo://app?vid=24fed381-61cf-4846-9932-4e6bdd4afd57","ios":"levelo://app?vid=24fed381-61cf-4846-9932-4e6bdd4afd57"},"vehicle_type_id":"4","last_reported":1741291843,"current_range_meters":9200,"station_id":"ce4bgj92rcd13ifvqbe0","pricing_plan_id":"cebpf4jnsgd1na2vs0mg"},{"bike_id":"32d1f900-0344-4b56-aaa5-564d19ec802c","system_id":"levelo_inurba_marseille","lat":43.27935,"lon":5.41036,"is_reserved":false,"is_disabled":false,"rental_uris":{"android":"levelo://app?vid=32d1f900-0344-4b56-aaa5-564d19ec802c","ios":"levelo://app?vid=32d1f900-0344-4b56-aaa5-564d19ec802c"},"vehicle_type_id":"4","last_reported":1741291843,"current_range_meters":9200,"station_id":"ce4bhnp2rcd13ifvqh0g","pricing_plan_id":"cebpf4jnsgd1na2vs0mg"},{"bike_id":"17d2b12d-6f47-4afd-8618-75b4f08fae1e","system_id":"levelo_inurba_marseille","lat":43.29006,"lon":5.35611,"is_reserved":false,"is_disabled":false,"rental_uris":{"android":"levelo://app?vid=17d2b12d-6f47-4afd-8618-75b4f08fae1e","ios":"levelo://app?vid=17d2b12d-6f47-4afd-8618-75b4f08fae1e"},"vehicle_type_id":"4","last_reported":1741291843,"current_range_meters":9200,"station_id":"ce4bhb92rcd13ifvqen0","pricing_plan_id":"cebpf4jnsgd1na2vs0mg"},{"bike_id":"a6a152b5-8aab-4c82-b82d-e07034bbdf6f","system_id":"levelo_inurba_marseille","lat":43.2989,"lon":5.43652,"is_reserved":false,"is_disabled":false,"rental_uris":{"android":"levelo://app?vid=a6a152b5-8aab-4c82-b82d-e07034bbdf6f","ios":"levelo://app?vid=a6a152b5-8aab-4c82-b82d-e07034bbdf6f"},"vehicle_type_id":"4","last_reported":1741291843,"current_range_meters":9600,"station_id":"ce4bhpp2rcd13ifvqhfg","pricing_plan_id":"cebpf4jnsgd1na2vs0mg"},{"bike_id":"c28f4cb7-95df-4866-866d-7d4dfba92055","system_id":"levelo_inurba_marseille","lat":43.278237,"lon":5.40733,"is_reserved":false,"is_disabled":false,"rental_uris":{"android":"levelo://app?vid=c28f4cb7-95df-4866-866d-7d4dfba92055","ios":"levelo://app?vid=c28f4cb7-95df-4866-866d-7d4dfba92055"},"vehicle_type_id":"4","last_reported":1741291843,"current_range_meters":9600,"station_id":"ce4bhnh2rcd13ifvqgtg","pricing_plan_id":"cebpf4jnsgd1na2vs0mg"},{"bike_id":"c262f8cf-6400-4efd-af91-c8aabadab203","system_id":"levelo_inurba_marseille","lat":43.23213,"lon":5.39982,"is_reserved":false,"is_disabled":false,"rental_uris":{"android":"levelo://app?vid=c262f8cf-6400-4efd-af91-c8aabadab203","ios":"levelo://app?vid=c262f8cf-6400-4efd-af91-c8aabadab203"},"vehicle_type_id":"4","last_reported":1741291843,"current_range_meters":9600,"station_id":"ce4bhn12rcd13ifvqgqg","pricing_plan_id":"cebpf4jnsgd1na2vs0mg"},{"bike_id":"c58b2025-a93c-46eb-bab5-b07b18f81d8b","system_id":"levelo_inurba_marseille","lat":43.29783,"lon":5.371,"is_reserved":false,"is_disabled":false,"rental_uris":{"android":"levelo://app?vid=c58b2025-a93c-46eb-bab5-b07b18f81d8b","ios":"levelo://app?vid=c58b2025-a93c-46eb-bab5-b07b18f81d8b"},"vehicle_type_id":"4","last_reported":1741291843,"current_range_meters":9600,"station_id":"ce4bgop2rcd13ifvqc1g","pricing_plan_id":"cebpf4jnsgd1na2vs0mg"},{"bike_id":"1b34c58c-f011-43f3-baac-47c6cf7523c0","system_id":"levelo_inurba_marseille","lat":43.29931,"lon":5.43664,"is_reserved":false,"is_disabled":false,"rental_uris":{"android":"levelo://app?vid=1b34c58c-f011-43f3-baac-47c6cf7523c0","ios":"levelo://app?vid=1b34c58c-f011-43f3-baac-47c6cf7523c0"},"vehicle_type_id":"4","last_reported":1741291843,"current_range_meters":9600,"station_id":"ce4bhpp2rcd13ifvqhfg","pricing_plan_id":"cebpf4jnsgd1na2vs0mg"},{"bike_id":"ac35eafe-694d-4f2e-8a01-27a84122fe0b","system_id":"levelo_inurba_marseille","lat":43.313613,"lon":5.3881,"is_reserved":false,"is_disabled":false,"rental_uris":{"android":"levelo://app?vid=ac35eafe-694d-4f2e-8a01-27a84122fe0b","ios":"levelo://app?vid=ac35eafe-694d-4f2e-8a01-27a84122fe0b"},"vehicle_type_id":"4","last_reported":1741291843,"current_range_meters":9600,"station_id":"","pricing_plan_id":"cebpf4jnsgd1na2vs0mg"},{"bike_id":"97f1eea6-3516-427e-91e4-558b0368955b","system_id":"levelo_inurba_marseille","lat":43.29867,"lon":5.38906,"is_reserved":false,"is_disabled":false,"rental_uris":{"android":"levelo://app?vid=97f1eea6-3516-427e-91e4-558b0368955b","ios":"levelo://app?vid=97f1eea6-3516-427e-91e4-558b0368955b"},"vehicle_type_id":"4","last_reported":1741291843,"current_range_meters":9600,"station_id":"ce4bh392rcd13ifvqdl0","pricing_plan_id":"cebpf4jnsgd1na2vs0mg"},{"bike_id":"f927a9c8-5d84-472f-b8fd-88f2fc3bc3e6","system_id":"levelo_inurba_marseille","lat":43.29934,"lon":5.43632,"is_reserved":false,"is_disabled":false,"rental_uris":{"android":"levelo://app?vid=f927a9c8-5d84-472f-b8fd-88f2fc3bc3e6","ios":"levelo://app?vid=f927a9c8-5d84-472f-b8fd-88f2fc3bc3e6"},"vehicle_type_id":"4","last_reported":1741291843,"current_range_meters":10000,"station_id":"ce4bhpp2rcd13ifvqhfg","pricing_plan_id":"cebpf4jnsgd1na2vs0mg"},{"bike_id":"c0c0e7d1-0979-4a5e-8d52-e763072835a3","system_id":"levelo_inurba_marseille","lat":43.26822,"lon":5.4027,"is_reserved":false,"is_disabled":false,"rental_uris":{"android":"levelo://app?vid=c0c0e7d1-0979-4a5e-8d52-e763072835a3","ios":"levelo://app?vid=c0c0e7d1-0979-4a5e-8d52-e763072835a3"},"vehicle_type_id":"4","last_reported":1741291843,"current_range_meters":9600,"station_id":"ce501612rcd8frsf0b60","pricing_plan_id":"cebpf4jnsgd1na2vs0mg"},{"bike_id":"fc015b68-0e75-44d3-9c95-c4808cb32a5b","system_id":"levelo_inurba_marseille","lat":43.29577,"lon":5.4227,"is_reserved":false,"is_disabled":false,"rental_uris":{"android":"levelo://app?vid=fc015b68-0e75-44d3-9c95-c4808cb32a5b","ios":"levelo://app?vid=fc015b68-0e75-44d3-9c95-c4808cb32a5b"},"vehicle_type_id":"4","last_reported":1741291843,"current_range_meters":9600,"station_id":"ce4bhph2rcd13ifvqhdg","pricing_plan_id":"cebpf4jnsgd1na2vs0mg"},{"bike_id":"0aed1368-9058-4cd7-9d7a-1842c9f2c003","system_id":"levelo_inurba_marseille","lat":43.29547,"lon":5.42275,"is_reserved":false,"is_disabled":false,"rental_uris":{"android":"levelo://app?vid=0aed1368-9058-4cd7-9d7a-1842c9f2c003","ios":"levelo://app?vid=0aed1368-9058-4cd7-9d7a-1842c9f2c003"},"vehicle_type_id":"4","last_reported":1741291843,"current_range_meters":10000,"station_id":"ce4bhph2rcd13ifvqhdg","pricing_plan_id":"cebpf4jnsgd1na2vs0mg"},{"bike_id":"6991ed74-9cf7-4f16-bd92-a9c66ba6f12d","system_id":"levelo_inurba_marseille","lat":43.29208,"lon":5.36077,"is_reserved":false,"is_disabled":false,"rental_uris":{"android":"levelo://app?vid=6991ed74-9cf7-4f16-bd92-a9c66ba6f12d","ios":"levelo://app?vid=6991ed74-9cf7-4f16-bd92-a9c66ba6f12d"},"vehicle_type_id":"4","last_reported":1741291843,"current_range_meters":9600,"station_id":"ce4bhbh2rcd13ifvqeqg","pricing_plan_id":"cebpf4jnsgd1na2vs0mg"},{"bike_id":"ced7820d-f394-440a-8e85-ce362b340d0a","system_id":"levelo_inurba_marseille","lat":43.28928,"lon":5.36405,"is_reserved":false,"is_disabled":false,"rental_uris":{"android":"levelo://app?vid=ced7820d-f394-440a-8e85-ce362b340d0a","ios":"levelo://app?vid=ced7820d-f394-440a-8e85-ce362b340d0a"},"vehicle_type_id":"4","last_reported":1741291843,"current_range_meters":9600,"station_id":"ce4bhc92rcd13ifvqetg","pricing_plan_id":"cebpf4jnsgd1na2vs0mg"},{"bike_id":"29601f96-058d-4078-a803-e6cf76cf7545","system_id":"levelo_inurba_marseille","lat":43.29116,"lon":5.3858,"is_reserved":false,"is_disabled":true,"rental_uris":{"android":"levelo://app?vid=29601f96-058d-4078-a803-e6cf76cf7545","ios":"levelo://app?vid=29601f96-058d-4078-a803-e6cf76cf7545"},"vehicle_type_id":"4","last_reported":1741291843,"current_range_meters":9600,"station_id":"","pricing_plan_id":"cebpf4jnsgd1na2vs0mg"},{"bike_id":"b2c94af5-bdff-4efc-819d-12cc6aa4c843","system_id":"levelo_inurba_marseille","lat":43.24097,"lon":5.37773,"is_reserved":false,"is_disabled":false,"rental_uris":{"android":"levelo://app?vid=b2c94af5-bdff-4efc-819d-12cc6aa4c843","ios":"levelo://app?vid=b2c94af5-bdff-4efc-819d-12cc6aa4c843"},"vehicle_type_id":"4","last_reported":1741291843,"current_range_meters":10000,"station_id":"ce4bhnp2rcd13ifvqgvg","pricing_plan_id":"cebpf4jnsgd1na2vs0mg"},{"bike_id":"d9b4e821-0c42-42c8-b88c-ec7f1d7ab942","system_id":"levelo_inurba_marseille","lat":43.24089,"lon":5.37735,"is_reserved":false,"is_disabled":false,"rental_uris":{"android":"levelo://app?vid=d9b4e821-0c42-42c8-b88c-ec7f1d7ab942","ios":"levelo://app?vid=d9b4e821-0c42-42c8-b88c-ec7f1d7ab942"},"vehicle_type_id":"4","last_reported":1741291843,"current_range_meters":10000,"station_id":"ce4bhnp2rcd13ifvqgvg","pricing_plan_id":"cebpf4jnsgd1na2vs0mg"},{"bike_id":"6016bdb3-4e9f-416b-88df-1ab71f5d0176","system_id":"levelo_inurba_marseille","lat":43.31333,"lon":5.3969,"is_reserved":false,"is_disabled":false,"rental_uris":{"android":"levelo://app?vid=6016bdb3-4e9f-416b-88df-1ab71f5d0176","ios":"levelo://app?vid=6016bdb3-4e9f-416b-88df-1ab71f5d0176"},"vehicle_type_id":"4","last_reported":1741291843,"current_range_meters":10000,"station_id":"ce4bgvp2rcd13ifvqcu0","pricing_plan_id":"cebpf4jnsgd1na2vs0mg"},{"bike_id":"e6974836-95c1-42aa-8242-455133048dfc","system_id":"levelo_inurba_marseille","lat":43.27824,"lon":5.40702,"is_reserved":false,"is_disabled":false,"rental_uris":{"android":"levelo://app?vid=e6974836-95c1-42aa-8242-455133048dfc","ios":"levelo://app?vid=e6974836-95c1-42aa-8242-455133048dfc"},"vehicle_type_id":"4","last_reported":1741291843,"current_range_meters":10000,"station_id":"ce4bhnh2rcd13ifvqgtg","pricing_plan_id":"cebpf4jnsgd1na2vs0mg"},{"bike_id":"3aa22fb2-7f93-4262-a8a5-dd9227458754","system_id":"levelo_inurba_marseille","lat":43.29192,"lon":5.35805,"is_reserved":false,"is_disabled":false,"rental_uris":{"android":"levelo://app?vid=3aa22fb2-7f93-4262-a8a5-dd9227458754","ios":"levelo://app?vid=3aa22fb2-7f93-4262-a8a5-dd9227458754"},"vehicle_type_id":"4","last_reported":1741291843,"current_range_meters":10000,"station_id":"ce4bhb12rcd13ifvqel0","pricing_plan_id":"cebpf4jnsgd1na2vs0mg"},{"bike_id":"679c7f74-4ce0-477f-9136-7002a38ab6b0","system_id":"levelo_inurba_marseille","lat":43.32701,"lon":5.41005,"is_reserved":false,"is_disabled":false,"rental_uris":{"android":"levelo://app?vid=679c7f74-4ce0-477f-9136-7002a38ab6b0","ios":"levelo://app?vid=679c7f74-4ce0-477f-9136-7002a38ab6b0"},"vehicle_type_id":"4","last_reported":1741291843,"current_range_meters":10000,"station_id":"ce4bhpp2rcd13ifvqhgg","pricing_plan_id":"cebpf4jnsgd1na2vs0mg"},{"bike_id":"d0d1b861-fc7b-4e26-bf94-3473241b8993","system_id":"levelo_inurba_marseille","lat":43.23173,"lon":5.39989,"is_reserved":false,"is_disabled":false,"rental_uris":{"android":"levelo://app?vid=d0d1b861-fc7b-4e26-bf94-3473241b8993","ios":"levelo://app?vid=d0d1b861-fc7b-4e26-bf94-3473241b8993"},"vehicle_type_id":"4","last_reported":1741291843,"current_range_meters":10000,"station_id":"ce4bhn12rcd13ifvqgqg","pricing_plan_id":"cebpf4jnsgd1na2vs0mg"},{"bike_id":"0e90f4f5-e529-4169-8fe2-0c2d000db9d7","system_id":"levelo_inurba_marseille","lat":43.25579,"lon":5.38237,"is_reserved":false,"is_disabled":false,"rental_uris":{"android":"levelo://app?vid=0e90f4f5-e529-4169-8fe2-0c2d000db9d7","ios":"levelo://app?vid=0e90f4f5-e529-4169-8fe2-0c2d000db9d7"},"vehicle_type_id":"4","last_reported":1741291843,"current_range_meters":10000,"station_id":"ce4bhih2rcd13ifvqfs0","pricing_plan_id":"cebpf4jnsgd1na2vs0mg"},{"bike_id":"2e465f2c-1791-4f63-9cf1-d363ad936f7f","system_id":"levelo_inurba_marseille","lat":43.28611,"lon":5.351,"is_reserved":false,"is_disabled":true,"rental_uris":{"android":"levelo://app?vid=2e465f2c-1791-4f63-9cf1-d363ad936f7f","ios":"levelo://app?vid=2e465f2c-1791-4f63-9cf1-d363ad936f7f"},"vehicle_type_id":"4","last_reported":1741291843,"current_range_meters":10000,"station_id":"ce4bhch2rcd13ifvqeug","pricing_plan_id":"cebpf4jnsgd1na2vs0mg"},{"bike_id":"25fd5fe4-1af0-4912-bea8-438bace2c16e","system_id":"levelo_inurba_marseille","lat":43.29614,"lon":5.37155,"is_reserved":false,"is_disabled":false,"rental_uris":{"android":"levelo://app?vid=25fd5fe4-1af0-4912-bea8-438bace2c16e","ios":"levelo://app?vid=25fd5fe4-1af0-4912-bea8-438bace2c16e"},"vehicle_type_id":"4","last_reported":1741291843,"current_range_meters":9600,"station_id":"ce4bgnh2rcd13ifvqc0g","pricing_plan_id":"cebpf4jnsgd1na2vs0mg"},{"bike_id":"f41ece07-3961-401b-b037-8302350d16d6","system_id":"levelo_inurba_marseille","lat":43.31362,"lon":5.38502,"is_reserved":false,"is_disabled":false,"rental_uris":{"android":"levelo://app?vid=f41ece07-3961-401b-b037-8302350d16d6","ios":"levelo://app?vid=f41ece07-3961-401b-b037-8302350d16d6"},"vehicle_type_id":"4","last_reported":1741291843,"current_range_meters":10800,"station_id":"ce4bgt92rcd13ifvqcf0","pricing_plan_id":"cebpf4jnsgd1na2vs0mg"},{"bike_id":"0236009d-b83e-4481-b97e-6a8e1f189885","system_id":"levelo_inurba_marseille","lat":43.29804,"lon":5.38156,"is_reserved":false,"is_disabled":false,"rental_uris":{"android":"levelo://app?vid=0236009d-b83e-4481-b97e-6a8e1f189885","ios":"levelo://app?vid=0236009d-b83e-4481-b97e-6a8e1f189885"},"vehicle_type_id":"4","last_reported":1741291843,"current_range_meters":10800,"station_id":"ce4bgip2rcd13ifvqbb0","pricing_plan_id":"cebpf4jnsgd1na2vs0mg"},{"bike_id":"4e71c0f9-d48c-46c2-82e0-124f3e2a9638","system_id":"levelo_inurba_marseille","lat":43.24667,"lon":5.3814,"is_reserved":false,"is_disabled":false,"rental_uris":{"android":"levelo://app?vid=4e71c0f9-d48c-46c2-82e0-124f3e2a9638","ios":"levelo://app?vid=4e71c0f9-d48c-46c2-82e0-124f3e2a9638"},"vehicle_type_id":"4","last_reported":1741291843,"current_range_meters":10800,"station_id":"ce4bhih2rcd13ifvqfr0","pricing_plan_id":"cebpf4jnsgd1na2vs0mg"},{"bike_id":"ff3228ef-c722-4531-aa41-dd0456ac2a39","system_id":"levelo_inurba_marseille","lat":43.23202,"lon":5.39977,"is_reserved":false,"is_disabled":false,"rental_uris":{"android":"levelo://app?vid=ff3228ef-c722-4531-aa41-dd0456ac2a39","ios":"levelo://app?vid=ff3228ef-c722-4531-aa41-dd0456ac2a39"},"vehicle_type_id":"4","last_reported":1741291843,"current_range_meters":10800,"station_id":"ce4bhn12rcd13ifvqgqg","pricing_plan_id":"cebpf4jnsgd1na2vs0mg"},{"bike_id":"347c53d6-db16-4ef5-8e36-2948eccc705e","system_id":"levelo_inurba_marseille","lat":43.30797,"lon":5.4352,"is_reserved":false,"is_disabled":false,"rental_uris":{"android":"levelo://app?vid=347c53d6-db16-4ef5-8e36-2948eccc705e","ios":"levelo://app?vid=347c53d6-db16-4ef5-8e36-2948eccc705e"},"vehicle_type_id":"4","last_reported":1741291843,"current_range_meters":10800,"station_id":"ce4bhph2rcd13ifvqheg","pricing_plan_id":"cebpf4jnsgd1na2vs0mg"},{"bike_id":"4bb8ec19-fa9e-4bc2-9ced-8316005f4173","system_id":"levelo_inurba_marseille","lat":43.2792,"lon":5.39575,"is_reserved":false,"is_disabled":true,"rental_uris":{"android":"levelo://app?vid=4bb8ec19-fa9e-4bc2-9ced-8316005f4173","ios":"levelo://app?vid=4bb8ec19-fa9e-4bc2-9ced-8316005f4173"},"vehicle_type_id":"4","last_reported":1741291843,"current_range_meters":10800,"station_id":"ce4bhf92rcd13ifvqf40","pricing_plan_id":"cebpf4jnsgd1na2vs0mg"},{"bike_id":"72b2c94b-f07a-43ce-9b67-7b7b6c9a789a","system_id":"levelo_inurba_marseille","lat":43.3082,"lon":5.4353,"is_reserved":false,"is_disabled":false,"rental_uris":{"android":"levelo://app?vid=72b2c94b-f07a-43ce-9b67-7b7b6c9a789a","ios":"levelo://app?vid=72b2c94b-f07a-43ce-9b67-7b7b6c9a789a"},"vehicle_type_id":"4","last_reported":1741291843,"current_range_meters":10800,"station_id":"ce4bhph2rcd13ifvqheg","pricing_plan_id":"cebpf4jnsgd1na2vs0mg"},{"bike_id":"357f6b0d-7429-4870-b5b1-c540923d954d","system_id":"levelo_inurba_marseille","lat":43.23085,"lon":5.35483,"is_reserved":false,"is_disabled":false,"rental_uris":{"android":"levelo://app?vid=357f6b0d-7429-4870-b5b1-c540923d954d","ios":"levelo://app?vid=357f6b0d-7429-4870-b5b1-c540923d954d"},"vehicle_type_id":"4","last_reported":1741291843,"current_range_meters":10800,"station_id":"cpo3342slgdg3j2ifvpg","pricing_plan_id":"cebpf4jnsgd1na2vs0mg"},{"bike_id":"d59c85a3-67d1-4c83-ac32-d5acd5742e38","system_id":"levelo_inurba_marseille","lat":43.3116,"lon":5.38719,"is_reserved":false,"is_disabled":false,"rental_uris":{"android":"levelo://app?vid=d59c85a3-67d1-4c83-ac32-d5acd5742e38","ios":"levelo://app?vid=d59c85a3-67d1-4c83-ac32-d5acd5742e38"},"vehicle_type_id":"4","last_reported":1741291843,"current_range_meters":10800,"station_id":"ce4bgv12rcd13ifvqcp0","pricing_plan_id":"cebpf4jnsgd1na2vs0mg"},{"bike_id":"c1656396-75d3-4710-ae02-7b97f2b7b124","system_id":"levelo_inurba_marseille","lat":43.28101,"lon":5.378465,"is_reserved":false,"is_disabled":false,"rental_uris":{"android":"levelo://app?vid=c1656396-75d3-4710-ae02-7b97f2b7b124","ios":"levelo://app?vid=c1656396-75d3-4710-ae02-7b97f2b7b124"},"vehicle_type_id":"4","last_reported":1741291843,"current_range_meters":10800,"station_id":"ce4bha12rcd13ifvqee0","pricing_plan_id":"cebpf4jnsgd1na2vs0mg"},{"bike_id":"af75fed2-4595-4d49-b027-8a0d0bac651b","system_id":"levelo_inurba_marseille","lat":43.31351,"lon":5.38495,"is_reserved":false,"is_disabled":false,"rental_uris":{"android":"levelo://app?vid=af75fed2-4595-4d49-b027-8a0d0bac651b","ios":"levelo://app?vid=af75fed2-4595-4d49-b027-8a0d0bac651b"},"vehicle_type_id":"4","last_reported":1741291843,"current_range_meters":10800,"station_id":"ce4bgt92rcd13ifvqcf0","pricing_plan_id":"cebpf4jnsgd1na2vs0mg"},{"bike_id":"ff7bf805-56be-4b38-8b82-9ba57a872519","system_id":"levelo_inurba_marseille","lat":43.28172,"lon":5.42649,"is_reserved":false,"is_disabled":false,"rental_uris":{"android":"levelo://app?vid=ff7bf805-56be-4b38-8b82-9ba57a872519","ios":"levelo://app?vid=ff7bf805-56be-4b38-8b82-9ba57a872519"},"vehicle_type_id":"4","last_reported":1741291843,"current_range_meters":11200,"station_id":"ce4bhnh2rcd13ifvqgug","pricing_plan_id":"cebpf4jnsgd1na2vs0mg"},{"bike_id":"1af06a54-186f-41e3-aed8-aac5c8365245","system_id":"levelo_inurba_marseille","lat":43.275689,"lon":5.384348,"is_reserved":false,"is_disabled":false,"rental_uris":{"android":"levelo://app?vid=1af06a54-186f-41e3-aed8-aac5c8365245","ios":"levelo://app?vid=1af06a54-186f-41e3-aed8-aac5c8365245"},"vehicle_type_id":"4","last_reported":1741291843,"current_range_meters":11200,"station_id":"ce4bhjp2rcd13ifvqg90","pricing_plan_id":"cebpf4jnsgd1na2vs0mg"},{"bike_id":"f643bbf3-f968-40f0-874f-e3a9ce3cba57","system_id":"levelo_inurba_marseille","lat":43.28732,"lon":5.3609,"is_reserved":false,"is_disabled":false,"rental_uris":{"android":"levelo://app?vid=f643bbf3-f968-40f0-874f-e3a9ce3cba57","ios":"levelo://app?vid=f643bbf3-f968-40f0-874f-e3a9ce3cba57"},"vehicle_type_id":"4","last_reported":1741291843,"current_range_meters":11200,"station_id":"cki0cbj6b192h4jlfktg","pricing_plan_id":"cebpf4jnsgd1na2vs0mg"},{"bike_id":"ca12585f-73af-4492-8c7b-b40081c4d639","system_id":"levelo_inurba_marseille","lat":43.30607,"lon":5.37136,"is_reserved":false,"is_disabled":false,"rental_uris":{"android":"levelo://app?vid=ca12585f-73af-4492-8c7b-b40081c4d639","ios":"levelo://app?vid=ca12585f-73af-4492-8c7b-b40081c4d639"},"vehicle_type_id":"4","last_reported":1741291843,"current_range_meters":11200,"station_id":"","pricing_plan_id":"cebpf4jnsgd1na2vs0mg"},{"bike_id":"c1ef0e1a-f14a-49dc-9142-24a0f46d9e6e","system_id":"levelo_inurba_marseille","lat":43.28421,"lon":5.34979,"is_reserved":false,"is_disabled":false,"rental_uris":{"android":"levelo://app?vid=c1ef0e1a-f14a-49dc-9142-24a0f46d9e6e","ios":"levelo://app?vid=c1ef0e1a-f14a-49dc-9142-24a0f46d9e6e"},"vehicle_type_id":"4","last_reported":1741291843,"current_range_meters":11200,"station_id":"ce4bhbh2rcd13ifvqepg","pricing_plan_id":"cebpf4jnsgd1na2vs0mg"},{"bike_id":"d7899a1c-6eb5-4d14-a39c-eae49ad3b796","system_id":"levelo_inurba_marseille","lat":43.31382,"lon":5.38506,"is_reserved":false,"is_disabled":false,"rental_uris":{"android":"levelo://app?vid=d7899a1c-6eb5-4d14-a39c-eae49ad3b796","ios":"levelo://app?vid=d7899a1c-6eb5-4d14-a39c-eae49ad3b796"},"vehicle_type_id":"4","last_reported":1741291843,"current_range_meters":11600,"station_id":"ce4bgt92rcd13ifvqcf0","pricing_plan_id":"cebpf4jnsgd1na2vs0mg"},{"bike_id":"549f0e20-712f-455b-8868-0f3f9588d3f7","system_id":"levelo_inurba_marseille","lat":43.2319,"lon":5.39987,"is_reserved":false,"is_disabled":false,"rental_uris":{"android":"levelo://app?vid=549f0e20-712f-455b-8868-0f3f9588d3f7","ios":"levelo://app?vid=549f0e20-712f-455b-8868-0f3f9588d3f7"},"vehicle_type_id":"4","last_reported":1741291843,"current_range_meters":11600,"station_id":"ce4bhn12rcd13ifvqgqg","pricing_plan_id":"cebpf4jnsgd1na2vs0mg"},{"bike_id":"d015e1e7-8b4f-4898-a841-104d62c0d9ad","system_id":"levelo_inurba_marseille","lat":43.23184,"lon":5.39983,"is_reserved":false,"is_disabled":false,"rental_uris":{"android":"levelo://app?vid=d015e1e7-8b4f-4898-a841-104d62c0d9ad","ios":"levelo://app?vid=d015e1e7-8b4f-4898-a841-104d62c0d9ad"},"vehicle_type_id":"4","last_reported":1741291843,"current_range_meters":11600,"station_id":"ce4bhn12rcd13ifvqgqg","pricing_plan_id":"cebpf4jnsgd1na2vs0mg"},{"bike_id":"9c23e767-94a8-4c3d-bb5e-2b50ea85910b","system_id":"levelo_inurba_marseille","lat":43.29527,"lon":5.39041,"is_reserved":false,"is_disabled":false,"rental_uris":{"android":"levelo://app?vid=9c23e767-94a8-4c3d-bb5e-2b50ea85910b","ios":"levelo://app?vid=9c23e767-94a8-4c3d-bb5e-2b50ea85910b"},"vehicle_type_id":"4","last_reported":1741291843,"current_range_meters":12000,"station_id":"ce4bh3p2rcd13ifvqdp0","pricing_plan_id":"cebpf4jnsgd1na2vs0mg"},{"bike_id":"4c4f40ce-b677-4958-a34a-41f58f94190b","system_id":"levelo_inurba_marseille","lat":43.23206,"lon":5.39977,"is_reserved":false,"is_disabled":false,"rental_uris":{"android":"levelo://app?vid=4c4f40ce-b677-4958-a34a-41f58f94190b","ios":"levelo://app?vid=4c4f40ce-b677-4958-a34a-41f58f94190b"},"vehicle_type_id":"4","last_reported":1741291843,"current_range_meters":12000,"station_id":"ce4bhn12rcd13ifvqgqg","pricing_plan_id":"cebpf4jnsgd1na2vs0mg"},{"bike_id":"9f0f0224-b72b-4ee3-a38d-b5ba80204629","system_id":"levelo_inurba_marseille","lat":43.23209,"lon":5.3557,"is_reserved":false,"is_disabled":false,"rental_uris":{"android":"levelo://app?vid=9f0f0224-b72b-4ee3-a38d-b5ba80204629","ios":"levelo://app?vid=9f0f0224-b72b-4ee3-a38d-b5ba80204629"},"vehicle_type_id":"4","last_reported":1741291843,"current_range_meters":12000,"station_id":"ce4bhu92rcd13ifvqi70","pricing_plan_id":"cebpf4jnsgd1na2vs0mg"},{"bike_id":"47b1c164-33c7-4340-b460-373aba354cd3","system_id":"levelo_inurba_marseille","lat":43.31058,"lon":5.38351,"is_reserved":false,"is_disabled":false,"rental_uris":{"android":"levelo://app?vid=47b1c164-33c7-4340-b460-373aba354cd3","ios":"levelo://app?vid=47b1c164-33c7-4340-b460-373aba354cd3"},"vehicle_type_id":"4","last_reported":1741291843,"current_range_meters":12400,"station_id":"ce4bgv92rcd13ifvqcr0","pricing_plan_id":"cebpf4jnsgd1na2vs0mg"},{"bike_id":"c07a759d-d403-48e3-8d2a-075a9eb6bf6c","system_id":"levelo_inurba_marseille","lat":43.32682,"lon":5.41016,"is_reserved":false,"is_disabled":false,"rental_uris":{"android":"levelo://app?vid=c07a759d-d403-48e3-8d2a-075a9eb6bf6c","ios":"levelo://app?vid=c07a759d-d403-48e3-8d2a-075a9eb6bf6c"},"vehicle_type_id":"4","last_reported":1741291843,"current_range_meters":12000,"station_id":"ce4bhpp2rcd13ifvqhgg","pricing_plan_id":"cebpf4jnsgd1na2vs0mg"},{"bike_id":"657e2d9d-897c-4dac-9809-30bdf58caf31","system_id":"levelo_inurba_marseille","lat":43.30425,"lon":5.41289,"is_reserved":false,"is_disabled":false,"rental_uris":{"android":"levelo://app?vid=657e2d9d-897c-4dac-9809-30bdf58caf31","ios":"levelo://app?vid=657e2d9d-897c-4dac-9809-30bdf58caf31"},"vehicle_type_id":"4","last_reported":1741291843,"current_range_meters":12000,"station_id":"ce4bhop2rcd13ifvqh8g","pricing_plan_id":"cebpf4jnsgd1na2vs0mg"},{"bike_id":"bde4d0c6-6a90-4bb6-9ecb-078c266c4f92","system_id":"levelo_inurba_marseille","lat":43.28107,"lon":5.37843,"is_reserved":false,"is_disabled":false,"rental_uris":{"android":"levelo://app?vid=bde4d0c6-6a90-4bb6-9ecb-078c266c4f92","ios":"levelo://app?vid=bde4d0c6-6a90-4bb6-9ecb-078c266c4f92"},"vehicle_type_id":"4","last_reported":1741291843,"current_range_meters":12000,"station_id":"ce4bha12rcd13ifvqee0","pricing_plan_id":"cebpf4jnsgd1na2vs0mg"},{"bike_id":"450fec99-cedd-4c3b-a355-1b95b571f4ec","system_id":"levelo_inurba_marseille","lat":43.27957,"lon":5.41038,"is_reserved":false,"is_disabled":false,"rental_uris":{"android":"levelo://app?vid=450fec99-cedd-4c3b-a355-1b95b571f4ec","ios":"levelo://app?vid=450fec99-cedd-4c3b-a355-1b95b571f4ec"},"vehicle_type_id":"4","last_reported":1741291843,"current_range_meters":12400,"station_id":"ce4bhnp2rcd13ifvqh0g","pricing_plan_id":"cebpf4jnsgd1na2vs0mg"},{"bike_id":"c16ccb51-1ff7-4b93-8e4d-d5c1c6809677","system_id":"levelo_inurba_marseille","lat":43.30418,"lon":5.41293,"is_reserved":false,"is_disabled":false,"rental_uris":{"android":"levelo://app?vid=c16ccb51-1ff7-4b93-8e4d-d5c1c6809677","ios":"levelo://app?vid=c16ccb51-1ff7-4b93-8e4d-d5c1c6809677"},"vehicle_type_id":"4","last_reported":1741291843,"current_range_meters":12400,"station_id":"ce4bhop2rcd13ifvqh8g","pricing_plan_id":"cebpf4jnsgd1na2vs0mg"},{"bike_id":"b419817c-6efe-43dc-9f66-c05d55efb6e2","system_id":"levelo_inurba_marseille","lat":43.23966,"lon":5.36635,"is_reserved":false,"is_disabled":false,"rental_uris":{"android":"levelo://app?vid=b419817c-6efe-43dc-9f66-c05d55efb6e2","ios":"levelo://app?vid=b419817c-6efe-43dc-9f66-c05d55efb6e2"},"vehicle_type_id":"4","last_reported":1741291843,"current_range_meters":12000,"station_id":"ce4bhi12rcd13ifvqfp0","pricing_plan_id":"cebpf4jnsgd1na2vs0mg"},{"bike_id":"44e487c7-a9a1-4c53-9a2f-b3ad2cf1f00b","system_id":"levelo_inurba_marseille","lat":43.24809,"lon":5.37458,"is_reserved":false,"is_disabled":false,"rental_uris":{"android":"levelo://app?vid=44e487c7-a9a1-4c53-9a2f-b3ad2cf1f00b","ios":"levelo://app?vid=44e487c7-a9a1-4c53-9a2f-b3ad2cf1f00b"},"vehicle_type_id":"4","last_reported":1741291843,"current_range_meters":12000,"station_id":"ce4bhgh2rcd13ifvqfb0","pricing_plan_id":"cebpf4jnsgd1na2vs0mg"},{"bike_id":"4760bdbb-a3b8-4d0e-802e-23f19b218543","system_id":"levelo_inurba_marseille","lat":43.29794,"lon":5.38115,"is_reserved":false,"is_disabled":false,"rental_uris":{"android":"levelo://app?vid=4760bdbb-a3b8-4d0e-802e-23f19b218543","ios":"levelo://app?vid=4760bdbb-a3b8-4d0e-802e-23f19b218543"},"vehicle_type_id":"4","last_reported":1741291843,"current_range_meters":12400,"station_id":"ce4bgip2rcd13ifvqbb0","pricing_plan_id":"cebpf4jnsgd1na2vs0mg"},{"bike_id":"be9b83a6-6264-4fb1-973d-988ca67efbc5","system_id":"levelo_inurba_marseille","lat":43.2896,"lon":5.36618,"is_reserved":false,"is_disabled":false,"rental_uris":{"android":"levelo://app?vid=be9b83a6-6264-4fb1-973d-988ca67efbc5","ios":"levelo://app?vid=be9b83a6-6264-4fb1-973d-988ca67efbc5"},"vehicle_type_id":"4","last_reported":1741291843,"current_range_meters":12400,"station_id":"ce4bhap2rcd13ifvqek0","pricing_plan_id":"cebpf4jnsgd1na2vs0mg"},{"bike_id":"7e9b8cad-8a44-4534-b5d5-c8d089b534b2","system_id":"levelo_inurba_marseille","lat":43.29149,"lon":5.38497,"is_reserved":false,"is_disabled":false,"rental_uris":{"android":"levelo://app?vid=7e9b8cad-8a44-4534-b5d5-c8d089b534b2","ios":"levelo://app?vid=7e9b8cad-8a44-4534-b5d5-c8d089b534b2"},"vehicle_type_id":"4","last_reported":1741291843,"current_range_meters":12400,"station_id":"","pricing_plan_id":"cebpf4jnsgd1na2vs0mg"},{"bike_id":"2a9676a5-dd59-44c9-8604-4134cb455cc8","system_id":"levelo_inurba_marseille","lat":43.28453,"lon":5.35895,"is_reserved":false,"is_disabled":false,"rental_uris":{"android":"levelo://app?vid=2a9676a5-dd59-44c9-8604-4134cb455cc8","ios":"levelo://app?vid=2a9676a5-dd59-44c9-8604-4134cb455cc8"},"vehicle_type_id":"4","last_reported":1741291843,"current_range_meters":12400,"station_id":"ce4bhah2rcd13ifvqei0","pricing_plan_id":"cebpf4jnsgd1na2vs0mg"},{"bike_id":"227f812f-10c8-47ca-b2c3-3eaa752b9a2d","system_id":"levelo_inurba_marseille","lat":43.30884,"lon":5.39646,"is_reserved":false,"is_disabled":false,"rental_uris":{"android":"levelo://app?vid=227f812f-10c8-47ca-b2c3-3eaa752b9a2d","ios":"levelo://app?vid=227f812f-10c8-47ca-b2c3-3eaa752b9a2d"},"vehicle_type_id":"4","last_reported":1741291843,"current_range_meters":12800,"station_id":"ce4bh012rcd13ifvqcv0","pricing_plan_id":"cebpf4jnsgd1na2vs0mg"},{"bike_id":"49a752f3-9985-4360-a13c-98c3cb8b8d26","system_id":"levelo_inurba_marseille","lat":43.28698,"lon":5.3635,"is_reserved":false,"is_disabled":false,"rental_uris":{"android":"levelo://app?vid=49a752f3-9985-4360-a13c-98c3cb8b8d26","ios":"levelo://app?vid=49a752f3-9985-4360-a13c-98c3cb8b8d26"},"vehicle_type_id":"4","last_reported":1741291843,"current_range_meters":12400,"station_id":"ce4bhah2rcd13ifvqej0","pricing_plan_id":"cebpf4jnsgd1na2vs0mg"},{"bike_id":"34aa14cc-09e2-478d-a4d8-f2c0b44526ae","system_id":"levelo_inurba_marseille","lat":43.26228,"lon":5.40447,"is_reserved":false,"is_disabled":false,"rental_uris":{"android":"levelo://app?vid=34aa14cc-09e2-478d-a4d8-f2c0b44526ae","ios":"levelo://app?vid=34aa14cc-09e2-478d-a4d8-f2c0b44526ae"},"vehicle_type_id":"4","last_reported":1741291843,"current_range_meters":12800,"station_id":"ce4bhmh2rcd13ifvqgmg","pricing_plan_id":"cebpf4jnsgd1na2vs0mg"},{"bike_id":"2b1de8ba-6297-479a-97e0-c4ffcb43060b","system_id":"levelo_inurba_marseille","lat":43.23187,"lon":5.39991,"is_reserved":false,"is_disabled":false,"rental_uris":{"android":"levelo://app?vid=2b1de8ba-6297-479a-97e0-c4ffcb43060b","ios":"levelo://app?vid=2b1de8ba-6297-479a-97e0-c4ffcb43060b"},"vehicle_type_id":"4","last_reported":1741291843,"current_range_meters":12800,"station_id":"ce4bhn12rcd13ifvqgqg","pricing_plan_id":"cebpf4jnsgd1na2vs0mg"},{"bike_id":"16b01717-2ca3-4307-8047-d1c2c98a6c61","system_id":"levelo_inurba_marseille","lat":43.2942,"lon":5.3862,"is_reserved":false,"is_disabled":false,"rental_uris":{"android":"levelo://app?vid=16b01717-2ca3-4307-8047-d1c2c98a6c61","ios":"levelo://app?vid=16b01717-2ca3-4307-8047-d1c2c98a6c61"},"vehicle_type_id":"4","last_reported":1741291843,"current_range_meters":12800,"station_id":"ce4bh2h2rcd13ifvqdh0","pricing_plan_id":"cebpf4jnsgd1na2vs0mg"},{"bike_id":"e1b133e5-1e38-43f1-98ca-09441b485a5f","system_id":"levelo_inurba_marseille","lat":43.25597,"lon":5.38228,"is_reserved":false,"is_disabled":false,"rental_uris":{"android":"levelo://app?vid=e1b133e5-1e38-43f1-98ca-09441b485a5f","ios":"levelo://app?vid=e1b133e5-1e38-43f1-98ca-09441b485a5f"},"vehicle_type_id":"4","last_reported":1741291843,"current_range_meters":12800,"station_id":"ce4bhih2rcd13ifvqfs0","pricing_plan_id":"cebpf4jnsgd1na2vs0mg"},{"bike_id":"753c3868-b740-440a-b4b0-83d6a6a96476","system_id":"levelo_inurba_marseille","lat":43.2925,"lon":5.38449,"is_reserved":false,"is_disabled":false,"rental_uris":{"android":"levelo://app?vid=753c3868-b740-440a-b4b0-83d6a6a96476","ios":"levelo://app?vid=753c3868-b740-440a-b4b0-83d6a6a96476"},"vehicle_type_id":"4","last_reported":1741291843,"current_range_meters":12800,"station_id":"ce4bh692rcd13ifvqea0","pricing_plan_id":"cebpf4jnsgd1na2vs0mg"},{"bike_id":"3aee71a7-e479-43e8-a4bf-6b6d0f74e218","system_id":"levelo_inurba_marseille","lat":43.29265,"lon":5.37623,"is_reserved":false,"is_disabled":false,"rental_uris":{"android":"levelo://app?vid=3aee71a7-e479-43e8-a4bf-6b6d0f74e218","ios":"levelo://app?vid=3aee71a7-e479-43e8-a4bf-6b6d0f74e218"},"vehicle_type_id":"4","last_reported":1741291843,"current_range_meters":13600,"station_id":"ce4bgi12rcd13ifvqb80","pricing_plan_id":"cebpf4jnsgd1na2vs0mg"},{"bike_id":"6813769b-3a6f-4713-af02-ebbb93dcc205","system_id":"levelo_inurba_marseille","lat":43.31056,"lon":5.38348,"is_reserved":false,"is_disabled":false,"rental_uris":{"android":"levelo://app?vid=6813769b-3a6f-4713-af02-ebbb93dcc205","ios":"levelo://app?vid=6813769b-3a6f-4713-af02-ebbb93dcc205"},"vehicle_type_id":"4","last_reported":1741291843,"current_range_meters":13600,"station_id":"ce4bgv92rcd13ifvqcr0","pricing_plan_id":"cebpf4jnsgd1na2vs0mg"},{"bike_id":"b13ccbee-f8ac-4762-a3a1-561782d8d5f5","system_id":"levelo_inurba_marseille","lat":43.27948,"lon":5.41053,"is_reserved":false,"is_disabled":false,"rental_uris":{"android":"levelo://app?vid=b13ccbee-f8ac-4762-a3a1-561782d8d5f5","ios":"levelo://app?vid=b13ccbee-f8ac-4762-a3a1-561782d8d5f5"},"vehicle_type_id":"4","last_reported":1741291843,"current_range_meters":13600,"station_id":"ce4bhnp2rcd13ifvqh0g","pricing_plan_id":"cebpf4jnsgd1na2vs0mg"},{"bike_id":"764f3258-213a-4186-b4ff-850e4e5fe869","system_id":"levelo_inurba_marseille","lat":43.304188,"lon":5.412784,"is_reserved":false,"is_disabled":false,"rental_uris":{"android":"levelo://app?vid=764f3258-213a-4186-b4ff-850e4e5fe869","ios":"levelo://app?vid=764f3258-213a-4186-b4ff-850e4e5fe869"},"vehicle_type_id":"4","last_reported":1741291843,"current_range_meters":13600,"station_id":"ce4bhop2rcd13ifvqh8g","pricing_plan_id":"cebpf4jnsgd1na2vs0mg"},{"bike_id":"03341ac4-86bb-44de-bc88-ab4a56fc83d3","system_id":"levelo_inurba_marseille","lat":43.28049,"lon":5.36949,"is_reserved":false,"is_disabled":false,"rental_uris":{"android":"levelo://app?vid=03341ac4-86bb-44de-bc88-ab4a56fc83d3","ios":"levelo://app?vid=03341ac4-86bb-44de-bc88-ab4a56fc83d3"},"vehicle_type_id":"4","last_reported":1741291843,"current_range_meters":13600,"station_id":"ce4bha12rcd13ifvqef0","pricing_plan_id":"cebpf4jnsgd1na2vs0mg"},{"bike_id":"82190c40-6456-41cb-a906-2edbbf524887","system_id":"levelo_inurba_marseille","lat":43.29804,"lon":5.38094,"is_reserved":false,"is_disabled":false,"rental_uris":{"android":"levelo://app?vid=82190c40-6456-41cb-a906-2edbbf524887","ios":"levelo://app?vid=82190c40-6456-41cb-a906-2edbbf524887"},"vehicle_type_id":"4","last_reported":1741291843,"current_range_meters":13600,"station_id":"ce4bgip2rcd13ifvqbb0","pricing_plan_id":"cebpf4jnsgd1na2vs0mg"},{"bike_id":"8bd4b128-b85d-4e21-ad3f-ceffde0e548c","system_id":"levelo_inurba_marseille","lat":43.31342,"lon":5.39739,"is_reserved":false,"is_disabled":false,"rental_uris":{"android":"levelo://app?vid=8bd4b128-b85d-4e21-ad3f-ceffde0e548c","ios":"levelo://app?vid=8bd4b128-b85d-4e21-ad3f-ceffde0e548c"},"vehicle_type_id":"4","last_reported":1741291843,"current_range_meters":14000,"station_id":"ce4bgvp2rcd13ifvqcu0","pricing_plan_id":"cebpf4jnsgd1na2vs0mg"},{"bike_id":"2bf9485e-de87-466c-a213-313681c6760e","system_id":"levelo_inurba_marseille","lat":43.28179,"lon":5.42636,"is_reserved":false,"is_disabled":false,"rental_uris":{"android":"levelo://app?vid=2bf9485e-de87-466c-a213-313681c6760e","ios":"levelo://app?vid=2bf9485e-de87-466c-a213-313681c6760e"},"vehicle_type_id":"4","last_reported":1741291843,"current_range_meters":14000,"station_id":"ce4bhnh2rcd13ifvqgug","pricing_plan_id":"cebpf4jnsgd1na2vs0mg"},{"bike_id":"dd3abf70-42be-4bcd-9a27-0d105eb2a172","system_id":"levelo_inurba_marseille","lat":43.31063,"lon":5.38343,"is_reserved":false,"is_disabled":false,"rental_uris":{"android":"levelo://app?vid=dd3abf70-42be-4bcd-9a27-0d105eb2a172","ios":"levelo://app?vid=dd3abf70-42be-4bcd-9a27-0d105eb2a172"},"vehicle_type_id":"4","last_reported":1741291843,"current_range_meters":14000,"station_id":"ce4bgv92rcd13ifvqcr0","pricing_plan_id":"cebpf4jnsgd1na2vs0mg"},{"bike_id":"dd1656d4-1155-44af-98eb-e63022b2f728","system_id":"levelo_inurba_marseille","lat":43.31344,"lon":5.39702,"is_reserved":false,"is_disabled":false,"rental_uris":{"android":"levelo://app?vid=dd1656d4-1155-44af-98eb-e63022b2f728","ios":"levelo://app?vid=dd1656d4-1155-44af-98eb-e63022b2f728"},"vehicle_type_id":"4","last_reported":1741291843,"current_range_meters":14000,"station_id":"ce4bgvp2rcd13ifvqcu0","pricing_plan_id":"cebpf4jnsgd1na2vs0mg"},{"bike_id":"424763cc-a0bf-4af1-8d08-423b0473b3a9","system_id":"levelo_inurba_marseille","lat":43.2961,"lon":5.3751,"is_reserved":false,"is_disabled":true,"rental_uris":{"android":"levelo://app?vid=424763cc-a0bf-4af1-8d08-423b0473b3a9","ios":"levelo://app?vid=424763cc-a0bf-4af1-8d08-423b0473b3a9"},"vehicle_type_id":"4","last_reported":1741291843,"current_range_meters":14000,"station_id":"ce4bgh92rcd13ifvqb50","pricing_plan_id":"cebpf4jnsgd1na2vs0mg"},{"bike_id":"985324b2-53ea-4df0-8c32-5d6941d2d733","system_id":"levelo_inurba_marseille","lat":43.25571,"lon":5.38238,"is_reserved":false,"is_disabled":false,"rental_uris":{"android":"levelo://app?vid=985324b2-53ea-4df0-8c32-5d6941d2d733","ios":"levelo://app?vid=985324b2-53ea-4df0-8c32-5d6941d2d733"},"vehicle_type_id":"4","last_reported":1741291843,"current_range_meters":14000,"station_id":"ce4bhih2rcd13ifvqfs0","pricing_plan_id":"cebpf4jnsgd1na2vs0mg"},{"bike_id":"46cc9b13-e53d-45c3-b03a-e66964b78e31","system_id":"levelo_inurba_marseille","lat":43.28608,"lon":5.35094,"is_reserved":false,"is_disabled":false,"rental_uris":{"android":"levelo://app?vid=46cc9b13-e53d-45c3-b03a-e66964b78e31","ios":"levelo://app?vid=46cc9b13-e53d-45c3-b03a-e66964b78e31"},"vehicle_type_id":"4","last_reported":1741291843,"current_range_meters":14000,"station_id":"ce4bhch2rcd13ifvqeug","pricing_plan_id":"cebpf4jnsgd1na2vs0mg"},{"bike_id":"ccb57549-30fb-4ab4-936e-96b9d2747577","system_id":"levelo_inurba_marseille","lat":43.28679,"lon":5.37403,"is_reserved":false,"is_disabled":false,"rental_uris":{"android":"levelo://app?vid=ccb57549-30fb-4ab4-936e-96b9d2747577","ios":"levelo://app?vid=ccb57549-30fb-4ab4-936e-96b9d2747577"},"vehicle_type_id":"4","last_reported":1741291843,"current_range_meters":14000,"station_id":"ce4bh3p2rcd13ifvqdq0","pricing_plan_id":"cebpf4jnsgd1na2vs0mg"},{"bike_id":"2d31bd33-7bbc-485d-a4dd-59c0e816926e","system_id":"levelo_inurba_marseille","lat":43.25829,"lon":5.39407,"is_reserved":false,"is_disabled":false,"rental_uris":{"android":"levelo://app?vid=2d31bd33-7bbc-485d-a4dd-59c0e816926e","ios":"levelo://app?vid=2d31bd33-7bbc-485d-a4dd-59c0e816926e"},"vehicle_type_id":"4","last_reported":1741291843,"current_range_meters":14400,"station_id":"ce4bhip2rcd13ifvqft0","pricing_plan_id":"cebpf4jnsgd1na2vs0mg"},{"bike_id":"cf54ceba-f181-4498-acae-d29bdddc99d4","system_id":"levelo_inurba_marseille","lat":43.29307,"lon":5.37468,"is_reserved":false,"is_disabled":false,"rental_uris":{"android":"levelo://app?vid=cf54ceba-f181-4498-acae-d29bdddc99d4","ios":"levelo://app?vid=cf54ceba-f181-4498-acae-d29bdddc99d4"},"vehicle_type_id":"4","last_reported":1741291843,"current_range_meters":14000,"station_id":"ce4bgi12rcd13ifvqb70","pricing_plan_id":"cebpf4jnsgd1na2vs0mg"},{"bike_id":"5657d731-d688-4ca8-8429-b9c071f5f731","system_id":"levelo_inurba_marseille","lat":43.28457,"lon":5.35888,"is_reserved":false,"is_disabled":false,"rental_uris":{"android":"levelo://app?vid=5657d731-d688-4ca8-8429-b9c071f5f731","ios":"levelo://app?vid=5657d731-d688-4ca8-8429-b9c071f5f731"},"vehicle_type_id":"4","last_reported":1741291843,"current_range_meters":14400,"station_id":"ce4bhah2rcd13ifvqei0","pricing_plan_id":"cebpf4jnsgd1na2vs0mg"},{"bike_id":"a7ffa1c1-cafd-429e-af73-f71dc5d800fc","system_id":"levelo_inurba_marseille","lat":43.29519,"lon":5.39404,"is_reserved":false,"is_disabled":false,"rental_uris":{"android":"levelo://app?vid=a7ffa1c1-cafd-429e-af73-f71dc5d800fc","ios":"levelo://app?vid=a7ffa1c1-cafd-429e-af73-f71dc5d800fc"},"vehicle_type_id":"4","last_reported":1741291843,"current_range_meters":14400,"station_id":"ce4bh292rcd13ifvqdf0","pricing_plan_id":"cebpf4jnsgd1na2vs0mg"},{"bike_id":"fb2aaadd-b5c4-4d4c-8957-33aacd34c61f","system_id":"levelo_inurba_marseille","lat":43.27621,"lon":5.36106,"is_reserved":false,"is_disabled":false,"rental_uris":{"android":"levelo://app?vid=fb2aaadd-b5c4-4d4c-8957-33aacd34c61f","ios":"levelo://app?vid=fb2aaadd-b5c4-4d4c-8957-33aacd34c61f"},"vehicle_type_id":"4","last_reported":1741291843,"current_range_meters":14400,"station_id":"ce4bgj92rcd13ifvqbe0","pricing_plan_id":"cebpf4jnsgd1na2vs0mg"},{"bike_id":"c4bbadb3-d3a5-40a9-aaca-5185e2d15ace","system_id":"levelo_inurba_marseille","lat":43.28281,"lon":5.35063,"is_reserved":false,"is_disabled":false,"rental_uris":{"android":"levelo://app?vid=c4bbadb3-d3a5-40a9-aaca-5185e2d15ace","ios":"levelo://app?vid=c4bbadb3-d3a5-40a9-aaca-5185e2d15ace"},"vehicle_type_id":"4","last_reported":1741291843,"current_range_meters":14400,"station_id":"ce4bhbp2rcd13ifvqerg","pricing_plan_id":"cebpf4jnsgd1na2vs0mg"},{"bike_id":"23fd01b3-a5b9-4def-8318-003ef97cf778","system_id":"levelo_inurba_marseille","lat":43.330327,"lon":5.390203,"is_reserved":false,"is_disabled":false,"rental_uris":{"android":"levelo://app?vid=23fd01b3-a5b9-4def-8318-003ef97cf778","ios":"levelo://app?vid=23fd01b3-a5b9-4def-8318-003ef97cf778"},"vehicle_type_id":"4","last_reported":1741291843,"current_range_meters":14400,"station_id":"ce4bhr92rcd13ifvqhrg","pricing_plan_id":"cebpf4jnsgd1na2vs0mg"},{"bike_id":"6a1366c1-41ed-4dda-b62f-b12cda709bc4","system_id":"levelo_inurba_marseille","lat":43.32371,"lon":5.3886,"is_reserved":false,"is_disabled":false,"rental_uris":{"android":"levelo://app?vid=6a1366c1-41ed-4dda-b62f-b12cda709bc4","ios":"levelo://app?vid=6a1366c1-41ed-4dda-b62f-b12cda709bc4"},"vehicle_type_id":"4","last_reported":1741291843,"current_range_meters":14800,"station_id":"ce4bhqp2rcd13ifvqhog","pricing_plan_id":"cebpf4jnsgd1na2vs0mg"},{"bike_id":"88d55705-11a3-4e8d-984b-1fcdc0cb6706","system_id":"levelo_inurba_marseille","lat":43.28985,"lon":5.36441,"is_reserved":false,"is_disabled":false,"rental_uris":{"android":"levelo://app?vid=88d55705-11a3-4e8d-984b-1fcdc0cb6706","ios":"levelo://app?vid=88d55705-11a3-4e8d-984b-1fcdc0cb6706"},"vehicle_type_id":"4","last_reported":1741291843,"current_range_meters":14800,"station_id":"ce4bhc92rcd13ifvqetg","pricing_plan_id":"cebpf4jnsgd1na2vs0mg"},{"bike_id":"daa48c53-c5de-46aa-94fc-655cbd710c8c","system_id":"levelo_inurba_marseille","lat":43.22955,"lon":5.35356,"is_reserved":false,"is_disabled":false,"rental_uris":{"android":"levelo://app?vid=daa48c53-c5de-46aa-94fc-655cbd710c8c","ios":"levelo://app?vid=daa48c53-c5de-46aa-94fc-655cbd710c8c"},"vehicle_type_id":"4","last_reported":1741291843,"current_range_meters":14800,"station_id":"cpo3532slgdg3j2ikp40","pricing_plan_id":"cebpf4jnsgd1na2vs0mg"},{"bike_id":"1d6ddc6e-0e3c-4fe4-b3c6-1c28e7de3681","system_id":"levelo_inurba_marseille","lat":43.23179,"lon":5.39997,"is_reserved":false,"is_disabled":false,"rental_uris":{"android":"levelo://app?vid=1d6ddc6e-0e3c-4fe4-b3c6-1c28e7de3681","ios":"levelo://app?vid=1d6ddc6e-0e3c-4fe4-b3c6-1c28e7de3681"},"vehicle_type_id":"4","last_reported":1741291843,"current_range_meters":15200,"station_id":"ce4bhn12rcd13ifvqgqg","pricing_plan_id":"cebpf4jnsgd1na2vs0mg"},{"bike_id":"75814dd5-07d3-4c24-b590-1ae64109e719","system_id":"levelo_inurba_marseille","lat":43.29038,"lon":5.38641,"is_reserved":false,"is_disabled":false,"rental_uris":{"android":"levelo://app?vid=75814dd5-07d3-4c24-b590-1ae64109e719","ios":"levelo://app?vid=75814dd5-07d3-4c24-b590-1ae64109e719"},"vehicle_type_id":"4","last_reported":1741291843,"current_range_meters":15200,"station_id":"ce4bh4p2rcd13ifvqe0g","pricing_plan_id":"cebpf4jnsgd1na2vs0mg"},{"bike_id":"34c87f97-f33c-42e0-9244-2d2c5cd2c708","system_id":"levelo_inurba_marseille","lat":43.31883,"lon":5.40732,"is_reserved":false,"is_disabled":false,"rental_uris":{"android":"levelo://app?vid=34c87f97-f33c-42e0-9244-2d2c5cd2c708","ios":"levelo://app?vid=34c87f97-f33c-42e0-9244-2d2c5cd2c708"},"vehicle_type_id":"4","last_reported":1741291843,"current_range_meters":14800,"station_id":"ce4bhq12rcd13ifvqhig","pricing_plan_id":"cebpf4jnsgd1na2vs0mg"},{"bike_id":"1febbc94-cf8a-4a7e-900e-1f2ddb4b67c0","system_id":"levelo_inurba_marseille","lat":43.32334,"lon":5.4062,"is_reserved":false,"is_disabled":false,"rental_uris":{"android":"levelo://app?vid=1febbc94-cf8a-4a7e-900e-1f2ddb4b67c0","ios":"levelo://app?vid=1febbc94-cf8a-4a7e-900e-1f2ddb4b67c0"},"vehicle_type_id":"4","last_reported":1741291843,"current_range_meters":15200,"station_id":"ce4bhq92rcd13ifvqhjg","pricing_plan_id":"cebpf4jnsgd1na2vs0mg"},{"bike_id":"e0e8520a-b423-44f9-8f44-f921dcc4c382","system_id":"levelo_inurba_marseille","lat":43.30885,"lon":5.39655,"is_reserved":false,"is_disabled":false,"rental_uris":{"android":"levelo://app?vid=e0e8520a-b423-44f9-8f44-f921dcc4c382","ios":"levelo://app?vid=e0e8520a-b423-44f9-8f44-f921dcc4c382"},"vehicle_type_id":"4","last_reported":1741291843,"current_range_meters":15200,"station_id":"ce4bh012rcd13ifvqcv0","pricing_plan_id":"cebpf4jnsgd1na2vs0mg"},{"bike_id":"489e6562-3997-483a-a06d-1864a5cf1801","system_id":"levelo_inurba_marseille","lat":43.31479,"lon":5.37303,"is_reserved":false,"is_disabled":false,"rental_uris":{"android":"levelo://app?vid=489e6562-3997-483a-a06d-1864a5cf1801","ios":"levelo://app?vid=489e6562-3997-483a-a06d-1864a5cf1801"},"vehicle_type_id":"4","last_reported":1741291843,"current_range_meters":16000,"station_id":"ce4bgt12rcd13ifvqcd0","pricing_plan_id":"cebpf4jnsgd1na2vs0mg"},{"bike_id":"99644652-5c73-416b-b0b7-17829ba04b60","system_id":"levelo_inurba_marseille","lat":43.29416,"lon":5.38615,"is_reserved":false,"is_disabled":false,"rental_uris":{"android":"levelo://app?vid=99644652-5c73-416b-b0b7-17829ba04b60","ios":"levelo://app?vid=99644652-5c73-416b-b0b7-17829ba04b60"},"vehicle_type_id":"4","last_reported":1741291843,"current_range_meters":15200,"station_id":"ce4bh2h2rcd13ifvqdh0","pricing_plan_id":"cebpf4jnsgd1na2vs0mg"},{"bike_id":"becf5e38-2c56-4fce-862d-4abc9e5b3435","system_id":"levelo_inurba_marseille","lat":43.25162,"lon":5.40351,"is_reserved":false,"is_disabled":false,"rental_uris":{"android":"levelo://app?vid=becf5e38-2c56-4fce-862d-4abc9e5b3435","ios":"levelo://app?vid=becf5e38-2c56-4fce-862d-4abc9e5b3435"},"vehicle_type_id":"4","last_reported":1741291843,"current_range_meters":15200,"station_id":"","pricing_plan_id":"cebpf4jnsgd1na2vs0mg"},{"bike_id":"d0a9e0b6-7460-48af-b167-fa241d6b44c3","system_id":"levelo_inurba_marseille","lat":43.32104,"lon":5.36769,"is_reserved":false,"is_disabled":false,"rental_uris":{"android":"levelo://app?vid=d0a9e0b6-7460-48af-b167-fa241d6b44c3","ios":"levelo://app?vid=d0a9e0b6-7460-48af-b167-fa241d6b44c3"},"vehicle_type_id":"4","last_reported":1741291843,"current_range_meters":15200,"station_id":"ce4bhrh2rcd13ifvqhug","pricing_plan_id":"cebpf4jnsgd1na2vs0mg"},{"bike_id":"84e08939-1d3c-40f9-9f06-3f4762cc7f07","system_id":"levelo_inurba_marseille","lat":43.24534,"lon":5.39512,"is_reserved":false,"is_disabled":false,"rental_uris":{"android":"levelo://app?vid=84e08939-1d3c-40f9-9f06-3f4762cc7f07","ios":"levelo://app?vid=84e08939-1d3c-40f9-9f06-3f4762cc7f07"},"vehicle_type_id":"4","last_reported":1741291843,"current_range_meters":16000,"station_id":"ce4bhlp2rcd13ifvqgjg","pricing_plan_id":"cebpf4jnsgd1na2vs0mg"},{"bike_id":"816ec87c-26ba-415b-b02d-d75b22feb9ab","system_id":"levelo_inurba_marseille","lat":43.28628,"lon":5.35099,"is_reserved":false,"is_disabled":false,"rental_uris":{"android":"levelo://app?vid=816ec87c-26ba-415b-b02d-d75b22feb9ab","ios":"levelo://app?vid=816ec87c-26ba-415b-b02d-d75b22feb9ab"},"vehicle_type_id":"4","last_reported":1741291843,"current_range_meters":16000,"station_id":"ce4bhch2rcd13ifvqeug","pricing_plan_id":"cebpf4jnsgd1na2vs0mg"},{"bike_id":"6d7e0450-89ad-4e81-9f4f-61db2e3e009a","system_id":"levelo_inurba_marseille","lat":43.29916,"lon":5.43665,"is_reserved":false,"is_disabled":false,"rental_uris":{"android":"levelo://app?vid=6d7e0450-89ad-4e81-9f4f-61db2e3e009a","ios":"levelo://app?vid=6d7e0450-89ad-4e81-9f4f-61db2e3e009a"},"vehicle_type_id":"4","last_reported":1741291843,"current_range_meters":16000,"station_id":"ce4bhpp2rcd13ifvqhfg","pricing_plan_id":"cebpf4jnsgd1na2vs0mg"},{"bike_id":"03a0979f-66fc-48a8-b3c2-f7eda9a4baac","system_id":"levelo_inurba_marseille","lat":43.29886,"lon":5.38892,"is_reserved":false,"is_disabled":false,"rental_uris":{"android":"levelo://app?vid=03a0979f-66fc-48a8-b3c2-f7eda9a4baac","ios":"levelo://app?vid=03a0979f-66fc-48a8-b3c2-f7eda9a4baac"},"vehicle_type_id":"4","last_reported":1741291843,"current_range_meters":15200,"station_id":"ce4bh392rcd13ifvqdl0","pricing_plan_id":"cebpf4jnsgd1na2vs0mg"},{"bike_id":"c05e10c0-ab92-4e55-b3d6-0f34ded537e1","system_id":"levelo_inurba_marseille","lat":43.2465,"lon":5.38878,"is_reserved":false,"is_disabled":false,"rental_uris":{"android":"levelo://app?vid=c05e10c0-ab92-4e55-b3d6-0f34ded537e1","ios":"levelo://app?vid=c05e10c0-ab92-4e55-b3d6-0f34ded537e1"},"vehicle_type_id":"4","last_reported":1741291843,"current_range_meters":16000,"station_id":"ce4bhg12rcd13ifvqf60","pricing_plan_id":"cebpf4jnsgd1na2vs0mg"},{"bike_id":"61598fb2-9b4c-4de8-8bc7-17c20d45b5ab","system_id":"levelo_inurba_marseille","lat":43.29426,"lon":5.38628,"is_reserved":false,"is_disabled":false,"rental_uris":{"android":"levelo://app?vid=61598fb2-9b4c-4de8-8bc7-17c20d45b5ab","ios":"levelo://app?vid=61598fb2-9b4c-4de8-8bc7-17c20d45b5ab"},"vehicle_type_id":"4","last_reported":1741291843,"current_range_meters":16000,"station_id":"ce4bh2h2rcd13ifvqdh0","pricing_plan_id":"cebpf4jnsgd1na2vs0mg"},{"bike_id":"ebf5266f-187e-47a4-8951-f62cd73015cf","system_id":"levelo_inurba_marseille","lat":43.309198,"lon":5.368527,"is_reserved":false,"is_disabled":false,"rental_uris":{"android":"levelo://app?vid=ebf5266f-187e-47a4-8951-f62cd73015cf","ios":"levelo://app?vid=ebf5266f-187e-47a4-8951-f62cd73015cf"},"vehicle_type_id":"4","last_reported":1741291843,"current_range_meters":16800,"station_id":"ce4bhap2rcd13ifvqek0","pricing_plan_id":"cebpf4jnsgd1na2vs0mg"},{"bike_id":"e2c9a10f-d165-47fa-bcc3-3b72ae9367ad","system_id":"levelo_inurba_marseille","lat":43.23183,"lon":5.40003,"is_reserved":false,"is_disabled":false,"rental_uris":{"android":"levelo://app?vid=e2c9a10f-d165-47fa-bcc3-3b72ae9367ad","ios":"levelo://app?vid=e2c9a10f-d165-47fa-bcc3-3b72ae9367ad"},"vehicle_type_id":"4","last_reported":1741291843,"current_range_meters":16400,"station_id":"ce4bhn12rcd13ifvqgqg","pricing_plan_id":"cebpf4jnsgd1na2vs0mg"},{"bike_id":"cc669f9b-4f4c-45ed-8061-f9c3d4fad60c","system_id":"levelo_inurba_marseille","lat":43.31164,"lon":5.38715,"is_reserved":false,"is_disabled":false,"rental_uris":{"android":"levelo://app?vid=cc669f9b-4f4c-45ed-8061-f9c3d4fad60c","ios":"levelo://app?vid=cc669f9b-4f4c-45ed-8061-f9c3d4fad60c"},"vehicle_type_id":"4","last_reported":1741291843,"current_range_meters":16400,"station_id":"ce4bgv12rcd13ifvqcp0","pricing_plan_id":"cebpf4jnsgd1na2vs0mg"},{"bike_id":"eaad2985-b5d2-4ecf-baaa-a4bd36656e5d","system_id":"levelo_inurba_marseille","lat":43.29424,"lon":5.3862,"is_reserved":false,"is_disabled":false,"rental_uris":{"android":"levelo://app?vid=eaad2985-b5d2-4ecf-baaa-a4bd36656e5d","ios":"levelo://app?vid=eaad2985-b5d2-4ecf-baaa-a4bd36656e5d"},"vehicle_type_id":"4","last_reported":1741291843,"current_range_meters":16400,"station_id":"ce4bh2h2rcd13ifvqdh0","pricing_plan_id":"cebpf4jnsgd1na2vs0mg"},{"bike_id":"ae094a47-faca-4705-85c5-e9ea839b3dd0","system_id":"levelo_inurba_marseille","lat":43.28655,"lon":5.36357,"is_reserved":false,"is_disabled":false,"rental_uris":{"android":"levelo://app?vid=ae094a47-faca-4705-85c5-e9ea839b3dd0","ios":"levelo://app?vid=ae094a47-faca-4705-85c5-e9ea839b3dd0"},"vehicle_type_id":"4","last_reported":1741291843,"current_range_meters":16400,"station_id":"ce4bhah2rcd13ifvqej0","pricing_plan_id":"cebpf4jnsgd1na2vs0mg"},{"bike_id":"84e678c5-96d2-4175-b607-ab5a9697894a","system_id":"levelo_inurba_marseille","lat":43.31253,"lon":5.3682,"is_reserved":false,"is_disabled":true,"rental_uris":{"android":"levelo://app?vid=84e678c5-96d2-4175-b607-ab5a9697894a","ios":"levelo://app?vid=84e678c5-96d2-4175-b607-ab5a9697894a"},"vehicle_type_id":"4","last_reported":1741291843,"current_range_meters":16400,"station_id":"ce4bgl92rcd13ifvqbq0","pricing_plan_id":"cebpf4jnsgd1na2vs0mg"},{"bike_id":"0510f9b6-6537-45a4-9d77-40cebf699f92","system_id":"levelo_inurba_marseille","lat":43.28166,"lon":5.42672,"is_reserved":false,"is_disabled":false,"rental_uris":{"android":"levelo://app?vid=0510f9b6-6537-45a4-9d77-40cebf699f92","ios":"levelo://app?vid=0510f9b6-6537-45a4-9d77-40cebf699f92"},"vehicle_type_id":"4","last_reported":1741291843,"current_range_meters":16400,"station_id":"ce4bhnh2rcd13ifvqgug","pricing_plan_id":"cebpf4jnsgd1na2vs0mg"},{"bike_id":"26dfcbdd-b5c1-4f5d-8d82-4cd3fa98082b","system_id":"levelo_inurba_marseille","lat":43.29422,"lon":5.38623,"is_reserved":false,"is_disabled":false,"rental_uris":{"android":"levelo://app?vid=26dfcbdd-b5c1-4f5d-8d82-4cd3fa98082b","ios":"levelo://app?vid=26dfcbdd-b5c1-4f5d-8d82-4cd3fa98082b"},"vehicle_type_id":"4","last_reported":1741291843,"current_range_meters":16400,"station_id":"ce4bh2h2rcd13ifvqdh0","pricing_plan_id":"cebpf4jnsgd1na2vs0mg"},{"bike_id":"563c9629-05cf-49ef-8ac6-4e5ef18e4f1d","system_id":"levelo_inurba_marseille","lat":43.25078,"lon":5.39504,"is_reserved":false,"is_disabled":false,"rental_uris":{"android":"levelo://app?vid=563c9629-05cf-49ef-8ac6-4e5ef18e4f1d","ios":"levelo://app?vid=563c9629-05cf-49ef-8ac6-4e5ef18e4f1d"},"vehicle_type_id":"4","last_reported":1741291843,"current_range_meters":16400,"station_id":"ce4bhm12rcd13ifvqgkg","pricing_plan_id":"cebpf4jnsgd1na2vs0mg"},{"bike_id":"448175e3-31c8-47da-81c6-b5fb03c52f34","system_id":"levelo_inurba_marseille","lat":43.28946,"lon":5.36627,"is_reserved":false,"is_disabled":false,"rental_uris":{"android":"levelo://app?vid=448175e3-31c8-47da-81c6-b5fb03c52f34","ios":"levelo://app?vid=448175e3-31c8-47da-81c6-b5fb03c52f34"},"vehicle_type_id":"4","last_reported":1741291843,"current_range_meters":16400,"station_id":"ce4bhap2rcd13ifvqek0","pricing_plan_id":"cebpf4jnsgd1na2vs0mg"},{"bike_id":"c67d6675-0538-4597-b725-fbd5f4726d8c","system_id":"levelo_inurba_marseille","lat":43.25115,"lon":5.40316,"is_reserved":false,"is_disabled":false,"rental_uris":{"android":"levelo://app?vid=c67d6675-0538-4597-b725-fbd5f4726d8c","ios":"levelo://app?vid=c67d6675-0538-4597-b725-fbd5f4726d8c"},"vehicle_type_id":"4","last_reported":1741291843,"current_range_meters":16400,"station_id":"ce4bhlh2rcd13ifvqgig","pricing_plan_id":"cebpf4jnsgd1na2vs0mg"},{"bike_id":"29920178-f2e2-4727-b7d6-7f2f5df15acf","system_id":"levelo_inurba_marseille","lat":43.26053,"lon":5.41735,"is_reserved":false,"is_disabled":false,"rental_uris":{"android":"levelo://app?vid=29920178-f2e2-4727-b7d6-7f2f5df15acf","ios":"levelo://app?vid=29920178-f2e2-4727-b7d6-7f2f5df15acf"},"vehicle_type_id":"4","last_reported":1741291843,"current_range_meters":16400,"station_id":"","pricing_plan_id":"cebpf4jnsgd1na2vs0mg"},{"bike_id":"77b7a702-0cba-44b1-b1b0-d2c3255d3da5","system_id":"levelo_inurba_marseille","lat":43.29615,"lon":5.38113,"is_reserved":false,"is_disabled":false,"rental_uris":{"android":"levelo://app?vid=77b7a702-0cba-44b1-b1b0-d2c3255d3da5","ios":"levelo://app?vid=77b7a702-0cba-44b1-b1b0-d2c3255d3da5"},"vehicle_type_id":"4","last_reported":1741291843,"current_range_meters":16400,"station_id":"ce4bgl12rcd13ifvqbo0","pricing_plan_id":"cebpf4jnsgd1na2vs0mg"},{"bike_id":"9efbff90-6380-4e58-8359-a0c4a1eca8c5","system_id":"levelo_inurba_marseille","lat":43.323624,"lon":5.38871,"is_reserved":false,"is_disabled":false,"rental_uris":{"android":"levelo://app?vid=9efbff90-6380-4e58-8359-a0c4a1eca8c5","ios":"levelo://app?vid=9efbff90-6380-4e58-8359-a0c4a1eca8c5"},"vehicle_type_id":"4","last_reported":1741291843,"current_range_meters":16400,"station_id":"ce4bhqp2rcd13ifvqhog","pricing_plan_id":"cebpf4jnsgd1na2vs0mg"},{"bike_id":"55d80b73-4290-4f19-9456-cebaed296fd1","system_id":"levelo_inurba_marseille","lat":43.27078,"lon":5.42268,"is_reserved":false,"is_disabled":false,"rental_uris":{"android":"levelo://app?vid=55d80b73-4290-4f19-9456-cebaed296fd1","ios":"levelo://app?vid=55d80b73-4290-4f19-9456-cebaed296fd1"},"vehicle_type_id":"4","last_reported":1741291843,"current_range_meters":16400,"station_id":"ce4bhk92rcd13ifvqgb0","pricing_plan_id":"cebpf4jnsgd1na2vs0mg"},{"bike_id":"e0995ac7-6a2c-41e2-8d17-663e7de17028","system_id":"levelo_inurba_marseille","lat":43.27089,"lon":5.42277,"is_reserved":false,"is_disabled":false,"rental_uris":{"android":"levelo://app?vid=e0995ac7-6a2c-41e2-8d17-663e7de17028","ios":"levelo://app?vid=e0995ac7-6a2c-41e2-8d17-663e7de17028"},"vehicle_type_id":"4","last_reported":1741291843,"current_range_meters":16400,"station_id":"ce4bhk92rcd13ifvqgb0","pricing_plan_id":"cebpf4jnsgd1na2vs0mg"},{"bike_id":"0ba32d75-ebe3-4c7d-929b-10761b334268","system_id":"levelo_inurba_marseille","lat":43.29265,"lon":5.38444,"is_reserved":false,"is_disabled":false,"rental_uris":{"android":"levelo://app?vid=0ba32d75-ebe3-4c7d-929b-10761b334268","ios":"levelo://app?vid=0ba32d75-ebe3-4c7d-929b-10761b334268"},"vehicle_type_id":"4","last_reported":1741291843,"current_range_meters":16400,"station_id":"ce4bh692rcd13ifvqea0","pricing_plan_id":"cebpf4jnsgd1na2vs0mg"},{"bike_id":"95a4ee13-4d54-429d-b678-25bfffe660bf","system_id":"levelo_inurba_marseille","lat":43.28921,"lon":5.36398,"is_reserved":false,"is_disabled":false,"rental_uris":{"android":"levelo://app?vid=95a4ee13-4d54-429d-b678-25bfffe660bf","ios":"levelo://app?vid=95a4ee13-4d54-429d-b678-25bfffe660bf"},"vehicle_type_id":"4","last_reported":1741291843,"current_range_meters":16800,"station_id":"ce4bhc92rcd13ifvqetg","pricing_plan_id":"cebpf4jnsgd1na2vs0mg"},{"bike_id":"8495ea94-8913-4fd4-93bf-d7ec0a8cbe57","system_id":"levelo_inurba_marseille","lat":43.31071,"lon":5.38347,"is_reserved":false,"is_disabled":false,"rental_uris":{"android":"levelo://app?vid=8495ea94-8913-4fd4-93bf-d7ec0a8cbe57","ios":"levelo://app?vid=8495ea94-8913-4fd4-93bf-d7ec0a8cbe57"},"vehicle_type_id":"4","last_reported":1741291843,"current_range_meters":16800,"station_id":"ce4bgv92rcd13ifvqcr0","pricing_plan_id":"cebpf4jnsgd1na2vs0mg"},{"bike_id":"dcb68344-77ae-496d-9538-d51546bf24fe","system_id":"levelo_inurba_marseille","lat":43.3063,"lon":5.40085,"is_reserved":false,"is_disabled":false,"rental_uris":{"android":"levelo://app?vid=dcb68344-77ae-496d-9538-d51546bf24fe","ios":"levelo://app?vid=dcb68344-77ae-496d-9538-d51546bf24fe"},"vehicle_type_id":"4","last_reported":1741291843,"current_range_meters":16400,"station_id":"ce4bh112rcd13ifvqda0","pricing_plan_id":"cebpf4jnsgd1na2vs0mg"},{"bike_id":"aadaa07e-0b05-425f-a930-f27bd7b4fe4f","system_id":"levelo_inurba_marseille","lat":43.28452,"lon":5.39205,"is_reserved":false,"is_disabled":false,"rental_uris":{"android":"levelo://app?vid=aadaa07e-0b05-425f-a930-f27bd7b4fe4f","ios":"levelo://app?vid=aadaa07e-0b05-425f-a930-f27bd7b4fe4f"},"vehicle_type_id":"4","last_reported":1741291843,"current_range_meters":16800,"station_id":"ce4bhoh2rcd13ifvqh5g","pricing_plan_id":"cebpf4jnsgd1na2vs0mg"},{"bike_id":"9f81a8d7-3e2b-4007-9464-c777fd8529ba","system_id":"levelo_inurba_marseille","lat":43.33027,"lon":5.39044,"is_reserved":false,"is_disabled":true,"rental_uris":{"android":"levelo://app?vid=9f81a8d7-3e2b-4007-9464-c777fd8529ba","ios":"levelo://app?vid=9f81a8d7-3e2b-4007-9464-c777fd8529ba"},"vehicle_type_id":"4","last_reported":1741291843,"current_range_meters":16800,"station_id":"ce4bhr92rcd13ifvqhrg","pricing_plan_id":"cebpf4jnsgd1na2vs0mg"},{"bike_id":"8d203f57-3343-4bc0-8a9c-79d1c1be1625","system_id":"levelo_inurba_marseille","lat":43.26847,"lon":5.40256,"is_reserved":false,"is_disabled":false,"rental_uris":{"android":"levelo://app?vid=8d203f57-3343-4bc0-8a9c-79d1c1be1625","ios":"levelo://app?vid=8d203f57-3343-4bc0-8a9c-79d1c1be1625"},"vehicle_type_id":"4","last_reported":1741291843,"current_range_meters":16800,"station_id":"","pricing_plan_id":"cebpf4jnsgd1na2vs0mg"},{"bike_id":"b6f36978-39d4-4b7f-9cb4-d3c235f51993","system_id":"levelo_inurba_marseille","lat":43.22928,"lon":5.35373,"is_reserved":false,"is_disabled":false,"rental_uris":{"android":"levelo://app?vid=b6f36978-39d4-4b7f-9cb4-d3c235f51993","ios":"levelo://app?vid=b6f36978-39d4-4b7f-9cb4-d3c235f51993"},"vehicle_type_id":"4","last_reported":1741291843,"current_range_meters":16800,"station_id":"cpo3532slgdg3j2ikp40","pricing_plan_id":"cebpf4jnsgd1na2vs0mg"},{"bike_id":"2ede08b9-0b2b-4772-aa5d-3c795aee5d59","system_id":"levelo_inurba_marseille","lat":43.26088,"lon":5.39393,"is_reserved":false,"is_disabled":false,"rental_uris":{"android":"levelo://app?vid=2ede08b9-0b2b-4772-aa5d-3c795aee5d59","ios":"levelo://app?vid=2ede08b9-0b2b-4772-aa5d-3c795aee5d59"},"vehicle_type_id":"4","last_reported":1741291843,"current_range_meters":16800,"station_id":"ce4bhh92rcd13ifvqfj0","pricing_plan_id":"cebpf4jnsgd1na2vs0mg"},{"bike_id":"cef11fda-347f-4d13-b6e0-9686af449a5d","system_id":"levelo_inurba_marseille","lat":43.29618,"lon":5.38083,"is_reserved":false,"is_disabled":false,"rental_uris":{"android":"levelo://app?vid=cef11fda-347f-4d13-b6e0-9686af449a5d","ios":"levelo://app?vid=cef11fda-347f-4d13-b6e0-9686af449a5d"},"vehicle_type_id":"4","last_reported":1741291843,"current_range_meters":16800,"station_id":"ce4bgl12rcd13ifvqbo0","pricing_plan_id":"cebpf4jnsgd1na2vs0mg"},{"bike_id":"62c4c10f-4cee-4f4d-a248-1e792569408d","system_id":"levelo_inurba_marseille","lat":43.312463,"lon":5.402233,"is_reserved":false,"is_disabled":false,"rental_uris":{"android":"levelo://app?vid=62c4c10f-4cee-4f4d-a248-1e792569408d","ios":"levelo://app?vid=62c4c10f-4cee-4f4d-a248-1e792569408d"},"vehicle_type_id":"4","last_reported":1741291843,"current_range_meters":16800,"station_id":"ce4bh092rcd13ifvqd30","pricing_plan_id":"cebpf4jnsgd1na2vs0mg"},{"bike_id":"f7952dd2-c24a-4d7d-a1a7-9cb40fd11b1c","system_id":"levelo_inurba_marseille","lat":43.30897,"lon":5.39654,"is_reserved":false,"is_disabled":false,"rental_uris":{"android":"levelo://app?vid=f7952dd2-c24a-4d7d-a1a7-9cb40fd11b1c","ios":"levelo://app?vid=f7952dd2-c24a-4d7d-a1a7-9cb40fd11b1c"},"vehicle_type_id":"4","last_reported":1741291843,"current_range_meters":19600,"station_id":"ce4bh012rcd13ifvqcv0","pricing_plan_id":"cebpf4jnsgd1na2vs0mg"},{"bike_id":"3c94b931-3649-4c69-bf1c-99f8fd15e284","system_id":"levelo_inurba_marseille","lat":43.32501,"lon":5.36585,"is_reserved":false,"is_disabled":false,"rental_uris":{"android":"levelo://app?vid=3c94b931-3649-4c69-bf1c-99f8fd15e284","ios":"levelo://app?vid=3c94b931-3649-4c69-bf1c-99f8fd15e284"},"vehicle_type_id":"4","last_reported":1741291843,"current_range_meters":17200,"station_id":"ce4bhs12rcd13ifvqhvg","pricing_plan_id":"cebpf4jnsgd1na2vs0mg"},