{"last_updated":1758863391,"ttl":60,"version":"2.2","data":{"bikes":[{"bike_id":"7c0482c3-9253-4d1b-b4f3-be55cdb7721d","system_id":"levelo_inurba_marseille","lat":43.33757,"lon":5.37466,"is_reserved":false,"is_disabled":false,"rental_uris":{"android":"levelo://app?vid=7c0482c3-9253-4d1b-b4f3-be55cdb7721d","ios":"levelo://app?vid=7c0482c3-9253-4d1b-b4f3-be55cdb7721d"},"vehicle_type_id":"4","last_reported":1758863391,"current_range_meters":2800,"station_id":"","pricing_plan_id":"cebpf4jnsgd1na2vs0mg"},{"bike_id":"7096a245-d73d-46d8-916d-82f7455f434f","system_id":"levelo_inurba_marseille","lat":43.24073,"lon":5.37789,"is_reserved":false,"is_disabled":false,"rental_uris":{"android":"levelo://app?vid=7096a245-d73d-46d8-916d-82f7455f434f","ios":"levelo://app?vid=7096a245-d73d-46d8-916d-82f7455f434f"},"vehicle_type_id":"4","last_reported":1758863391,"current_range_meters":2800,"station_id":"ce4bhnp2rcd13ifvqgvg","pricing_plan_id":"cebpf4jnsgd1na2vs0mg"},{"bike_id":"cb3d83dd-8277-415b-bc5d-a118e1200728","system_id":"levelo_inurba_marseille","lat":43.30103,"lon":5.41027,"is_reserved":false,"is_disabled":false,"rental_uris":{"android":"levelo://app?vid=cb3d83dd-8277-415b-bc5d-a118e1200728","ios":"levelo://app?vid=cb3d83dd-8277-415b-bc5d-a118e1200728"},"vehicle_type_id":"4","last_reported":1758863391,"current_range_meters":2800,"station_id":"","pricing_plan_id":"cebpf4jnsgd1na2vs0mg"},{"bike_id":"dfa2e0eb-c01c-40f5-bdf0-94cf19dc56f0","system_id":"levelo_inurba_marseille","lat":43.251,"lon":5.39536,"is_reserved":false,"is_disabled":true,"rental_uris":{"android":"levelo://app?vid=dfa2e0eb-c01c-40f5-bdf0-94cf19dc56f0","ios":"levelo://app?vid=dfa2e0eb-c01c-40f5-bdf0-94cf19dc56f0"},"vehicle_type_id":"4","last_reported":1758863391,"current_range_meters":2800,"station_id":"ce4bhm12rcd13ifvqgkg","pricing_plan_id":"cebpf4jnsgd1na2vs0mg"},{"bike_id":"b0fabb2c-8242-46ac-b882-98d508aaed05","system_id":"levelo_inurba_marseille","lat":43.29463,"lon":5.39758,"is_reserved":false,"is_disabled":false,"rental_uris":{"android":"levelo://app?vid=b0fabb2c-8242-46ac-b882-98d508aaed05","ios":"levelo://app?vid=b0fabb2c-8242-46ac-b882-98d508aaed05"},"vehicle_type_id":"4","last_reported":1758863391,"current_range_meters":3200,"station_id":"ce4bh3h2rcd13ifvqdo0","pricing_plan_id":"cebpf4jnsgd1na2vs0mg"},{"bike_id":"f91cf1e6-63d7-4c97-a6be-fcd1443e04fb","system_id":"levelo_inurba_marseille","lat":43.2308,"lon":5.35499,"is_reserved":false,"is_disabled":false,"rental_uris":{"android":"levelo://app?vid=f91cf1e6-63d7-4c97-a6be-fcd1443e04fb","ios":"levelo://app?vid=f91cf1e6-63d7-4c97-a6be-fcd1443e04fb"},"vehicle_type_id":"4","last_reported":1758863391,"current_range_meters":3200,"station_id":"cpo3342slgdg3j2ifvpg","pricing_plan_id":"cebpf4jnsgd1na2vs0mg"},{"bike_id":"7a0d4943-33c2-4d81-9678-94525d26d325","system_id":"levelo_inurba_marseille","lat":43.25586,"lon":5.38232,"is_reserved":false,"is_disabled":false,"rental_uris":{"android":"levelo://app?vid=7a0d4943-33c2-4d81-9678-94525d26d325","ios":"levelo://app?vid=7a0d4943-33c2-4d81-9678-94525d26d325"},"vehicle_type_id":"4","last_reported":1758863391,"current_range_meters":3200,"station_id":"ce4bhih2rcd13ifvqfs0","pricing_plan_id":"cebpf4jnsgd1na2vs0mg"},{"bike_id":"9c4a7bdb-c552-4dfd-8efb-40b9e0b0b147","system_id":"levelo_inurba_marseille","lat":43.309264,"lon":5.367351,"is_reserved":false,"is_disabled":false,"rental_uris":{"android":"levelo://app?vid=9c4a7bdb-c552-4dfd-8efb-40b9e0b0b147","ios":"levelo://app?vid=9c4a7bdb-c552-4dfd-8efb-40b9e0b0b147"},"vehicle_type_id":"4","last_reported":1758863391,"current_range_meters":3600,"station_id":"","pricing_plan_id":"cebpf4jnsgd1na2vs0mg"},{"bike_id":"fb095ffa-84f1-43ec-b992-c5d80649bfe8","system_id":"levelo_inurba_marseille","lat":43.30596,"lon":5.39354,"is_reserved":false,"is_disabled":false,"rental_uris":{"android":"levelo://app?vid=fb095ffa-84f1-43ec-b992-c5d80649bfe8","ios":"levelo://app?vid=fb095ffa-84f1-43ec-b992-c5d80649bfe8"},"vehicle_type_id":"4","last_reported":1758863391,"current_range_meters":3600,"station_id":"ce4bh0p2rcd13ifvqd80","pricing_plan_id":"cebpf4jnsgd1na2vs0mg"},{"bike_id":"c88ddbd8-e687-469d-b97a-63b521bd45ae","system_id":"levelo_inurba_marseille","lat":43.248086,"lon":5.374582,"is_reserved":false,"is_disabled":false,"rental_uris":{"android":"levelo://app?vid=c88ddbd8-e687-469d-b97a-63b521bd45ae","ios":"levelo://app?vid=c88ddbd8-e687-469d-b97a-63b521bd45ae"},"vehicle_type_id":"4","last_reported":1758863391,"current_range_meters":3600,"station_id":"ce4bhgh2rcd13ifvqfb0","pricing_plan_id":"cebpf4jnsgd1na2vs0mg"},{"bike_id":"0990be76-87e4-41c2-8f82-e98391728ad8","system_id":"levelo_inurba_marseille","lat":43.27378,"lon":5.3626,"is_reserved":false,"is_disabled":false,"rental_uris":{"android":"levelo://app?vid=0990be76-87e4-41c2-8f82-e98391728ad8","ios":"levelo://app?vid=0990be76-87e4-41c2-8f82-e98391728ad8"},"vehicle_type_id":"4","last_reported":1758863391,"current_range_meters":3600,"station_id":"ce4bhbh2rcd13ifvqeo0","pricing_plan_id":"cebpf4jnsgd1na2vs0mg"},{"bike_id":"c80e1f6e-41df-47e3-91cd-de5847cd5136","system_id":"levelo_inurba_marseille","lat":43.32329,"lon":5.39301,"is_reserved":false,"is_disabled":true,"rental_uris":{"android":"levelo://app?vid=c80e1f6e-41df-47e3-91cd-de5847cd5136","ios":"levelo://app?vid=c80e1f6e-41df-47e3-91cd-de5847cd5136"},"vehicle_type_id":"4","last_reported":1758863391,"current_range_meters":4000,"station_id":"","pricing_plan_id":"cebpf4jnsgd1na2vs0mg"},{"bike_id":"136a707a-b224-4c44-8119-f846f7b7d0a7","system_id":"levelo_inurba_marseille","lat":43.29516,"lon":5.37375,"is_reserved":false,"is_disabled":false,"rental_uris":{"android":"levelo://app?vid=136a707a-b224-4c44-8119-f846f7b7d0a7","ios":"levelo://app?vid=136a707a-b224-4c44-8119-f846f7b7d0a7"},"vehicle_type_id":"4","last_reported":1758863391,"current_range_meters":4400,"station_id":"","pricing_plan_id":"cebpf4jnsgd1na2vs0mg"},{"bike_id":"4e737411-53ce-4bdf-9802-c3bc30d9bc94","system_id":"levelo_inurba_marseille","lat":43.2955,"lon":5.40627,"is_reserved":false,"is_disabled":false,"rental_uris":{"android":"levelo://app?vid=4e737411-53ce-4bdf-9802-c3bc30d9bc94","ios":"levelo://app?vid=4e737411-53ce-4bdf-9802-c3bc30d9bc94"},"vehicle_type_id":"4","last_reported":1758863391,"current_range_meters":4400,"station_id":"","pricing_plan_id":"cebpf4jnsgd1na2vs0mg"},{"bike_id":"b7676a62-3913-48a2-ae70-46cc2010a2c2","system_id":"levelo_inurba_marseille","lat":43.296,"lon":5.37736,"is_reserved":false,"is_disabled":false,"rental_uris":{"android":"levelo://app?vid=b7676a62-3913-48a2-ae70-46cc2010a2c2","ios":"levelo://app?vid=b7676a62-3913-48a2-ae70-46cc2010a2c2"},"vehicle_type_id":"4","last_reported":1758863391,"current_range_meters":4400,"station_id":"ce4bgi92rcd13ifvqb90","pricing_plan_id":"cebpf4jnsgd1na2vs0mg"},{"bike_id":"80e91e78-2259-4497-aaea-0b5ca7a5c674","system_id":"levelo_inurba_marseille","lat":43.30607,"lon":5.39347,"is_reserved":false,"is_disabled":false,"rental_uris":{"android":"levelo://app?vid=80e91e78-2259-4497-aaea-0b5ca7a5c674","ios":"levelo://app?vid=80e91e78-2259-4497-aaea-0b5ca7a5c674"},"vehicle_type_id":"4","last_reported":1758863391,"current_range_meters":4800,"station_id":"ce4bh0p2rcd13ifvqd80","pricing_plan_id":"cebpf4jnsgd1na2vs0mg"},{"bike_id":"7371f81b-8969-41b8-8018-dcb62ea4ffe3","system_id":"levelo_inurba_marseille","lat":43.2973,"lon":5.37696,"is_reserved":false,"is_disabled":false,"rental_uris":{"android":"levelo://app?vid=7371f81b-8969-41b8-8018-dcb62ea4ffe3","ios":"levelo://app?vid=7371f81b-8969-41b8-8018-dcb62ea4ffe3"},"vehicle_type_id":"4","last_reported":1758863391,"current_range_meters":4800,"station_id":"ce4bgkh2rcd13ifvqbl0","pricing_plan_id":"cebpf4jnsgd1na2vs0mg"},{"bike_id":"127a2772-9d59-4564-9afc-f6ddd422b53d","system_id":"levelo_inurba_marseille","lat":43.3046,"lon":5.3791,"is_reserved":false,"is_disabled":false,"rental_uris":{"android":"levelo://app?vid=127a2772-9d59-4564-9afc-f6ddd422b53d","ios":"levelo://app?vid=127a2772-9d59-4564-9afc-f6ddd422b53d"},"vehicle_type_id":"4","last_reported":1758863391,"current_range_meters":4800,"station_id":"ce4bgup2rcd13ifvqcn0","pricing_plan_id":"cebpf4jnsgd1na2vs0mg"},{"bike_id":"58bcb43d-c000-4e3e-b004-30450f57645b","system_id":"levelo_inurba_marseille","lat":43.29527,"lon":5.37448,"is_reserved":false,"is_disabled":false,"rental_uris":{"android":"levelo://app?vid=58bcb43d-c000-4e3e-b004-30450f57645b","ios":"levelo://app?vid=58bcb43d-c000-4e3e-b004-30450f57645b"},"vehicle_type_id":"4","last_reported":1758863391,"current_range_meters":4800,"station_id":"","pricing_plan_id":"cebpf4jnsgd1na2vs0mg"},{"bike_id":"438ead59-de14-4fa0-a61d-03a70a4122ae","system_id":"levelo_inurba_marseille","lat":43.97269,"lon":4.89111,"is_reserved":false,"is_disabled":true,"rental_uris":{"android":"levelo://app?vid=438ead59-de14-4fa0-a61d-03a70a4122ae","ios":"levelo://app?vid=438ead59-de14-4fa0-a61d-03a70a4122ae"},"vehicle_type_id":"4","last_reported":1758863391,"current_range_meters":4800,"station_id":"","pricing_plan_id":"cebpf4jnsgd1na2vs0mg"},{"bike_id":"d1bf5877-7433-4026-a1ea-b36c24e54045","system_id":"levelo_inurba_marseille","lat":43.211944,"lon":5.350717,"is_reserved":false,"is_disabled":false,"rental_uris":{"android":"levelo://app?vid=d1bf5877-7433-4026-a1ea-b36c24e54045","ios":"levelo://app?vid=d1bf5877-7433-4026-a1ea-b36c24e54045"},"vehicle_type_id":"4","last_reported":1758863391,"current_range_meters":5600,"station_id":"","pricing_plan_id":"cebpf4jnsgd1na2vs0mg"},{"bike_id":"2609a7f0-0058-4c97-96f5-49b71462094e","system_id":"levelo_inurba_marseille","lat":43.30543,"lon":5.36701,"is_reserved":false,"is_disabled":true,"rental_uris":{"android":"levelo://app?vid=2609a7f0-0058-4c97-96f5-49b71462094e","ios":"levelo://app?vid=2609a7f0-0058-4c97-96f5-49b71462094e"},"vehicle_type_id":"4","last_reported":1758863391,"current_range_meters":6000,"station_id":"ce4bgrp2rcd13ifvqc9g","pricing_plan_id":"cebpf4jnsgd1na2vs0mg"},{"bike_id":"c575721f-de31-4f0e-9dbf-4833e1affcb4","system_id":"levelo_inurba_marseille","lat":43.24064,"lon":5.37758,"is_reserved":false,"is_disabled":false,"rental_uris":{"android":"levelo://app?vid=c575721f-de31-4f0e-9dbf-4833e1affcb4","ios":"levelo://app?vid=c575721f-de31-4f0e-9dbf-4833e1affcb4"},"vehicle_type_id":"4","last_reported":1758863391,"current_range_meters":6400,"station_id":"ce4bhnp2rcd13ifvqgvg","pricing_plan_id":"cebpf4jnsgd1na2vs0mg"},{"bike_id":"6cd537e0-dbfc-4f59-b3b3-22491905826b","system_id":"levelo_inurba_marseille","lat":43.24638,"lon":5.38926,"is_reserved":false,"is_disabled":false,"rental_uris":{"android":"levelo://app?vid=6cd537e0-dbfc-4f59-b3b3-22491905826b","ios":"levelo://app?vid=6cd537e0-dbfc-4f59-b3b3-22491905826b"},"vehicle_type_id":"4","last_reported":1758863391,"current_range_meters":6400,"station_id":"ce4bhg12rcd13ifvqf60","pricing_plan_id":"cebpf4jnsgd1na2vs0mg"},{"bike_id":"94b2f036-4ca4-4693-89f2-72df2150ee98","system_id":"levelo_inurba_marseille","lat":43.258265,"lon":5.394374,"is_reserved":false,"is_disabled":true,"rental_uris":{"android":"levelo://app?vid=94b2f036-4ca4-4693-89f2-72df2150ee98","ios":"levelo://app?vid=94b2f036-4ca4-4693-89f2-72df2150ee98"},"vehicle_type_id":"4","last_reported":1758863391,"current_range_meters":6400,"station_id":"ce4bhip2rcd13ifvqft0","pricing_plan_id":"cebpf4jnsgd1na2vs0mg"},{"bike_id":"3bd489e5-2659-4c74-b36b-70a17cc86db1","system_id":"levelo_inurba_marseille","lat":43.23373,"lon":5.36023,"is_reserved":false,"is_disabled":false,"rental_uris":{"android":"levelo://app?vid=3bd489e5-2659-4c74-b36b-70a17cc86db1","ios":"levelo://app?vid=3bd489e5-2659-4c74-b36b-70a17cc86db1"},"vehicle_type_id":"4","last_reported":1758863391,"current_range_meters":6800,"station_id":"","pricing_plan_id":"cebpf4jnsgd1na2vs0mg"},{"bike_id":"48e5cf01-aef8-477f-b258-6fa57de46682","system_id":"levelo_inurba_marseille","lat":43.24081,"lon":5.37744,"is_reserved":false,"is_disabled":false,"rental_uris":{"android":"levelo://app?vid=48e5cf01-aef8-477f-b258-6fa57de46682","ios":"levelo://app?vid=48e5cf01-aef8-477f-b258-6fa57de46682"},"vehicle_type_id":"4","last_reported":1758863391,"current_range_meters":6800,"station_id":"ce4bhnp2rcd13ifvqgvg","pricing_plan_id":"cebpf4jnsgd1na2vs0mg"},{"bike_id":"8f0b7c19-ad72-4ce6-a501-64157b99929e","system_id":"levelo_inurba_marseille","lat":43.317104,"lon":5.436995,"is_reserved":false,"is_disabled":false,"rental_uris":{"android":"levelo://app?vid=8f0b7c19-ad72-4ce6-a501-64157b99929e","ios":"levelo://app?vid=8f0b7c19-ad72-4ce6-a501-64157b99929e"},"vehicle_type_id":"4","last_reported":1758863391,"current_range_meters":6800,"station_id":"ce4bhp92rcd13ifvqhcg","pricing_plan_id":"cebpf4jnsgd1na2vs0mg"},{"bike_id":"cc505a19-f55b-41e5-83cb-0ac7aee95a1e","system_id":"levelo_inurba_marseille","lat":43.31081,"lon":5.383453,"is_reserved":false,"is_disabled":true,"rental_uris":{"android":"levelo://app?vid=cc505a19-f55b-41e5-83cb-0ac7aee95a1e","ios":"levelo://app?vid=cc505a19-f55b-41e5-83cb-0ac7aee95a1e"},"vehicle_type_id":"4","last_reported":1758863391,"current_range_meters":6800,"station_id":"ce4bgv92rcd13ifvqcr0","pricing_plan_id":"cebpf4jnsgd1na2vs0mg"},{"bike_id":"ddd8c0a7-a7ac-4c34-b48b-0710c492a44c","system_id":"levelo_inurba_marseille","lat":43.32281,"lon":5.39381,"is_reserved":false,"is_disabled":true,"rental_uris":{"android":"levelo://app?vid=ddd8c0a7-a7ac-4c34-b48b-0710c492a44c","ios":"levelo://app?vid=ddd8c0a7-a7ac-4c34-b48b-0710c492a44c"},"vehicle_type_id":"4","last_reported":1758863391,"current_range_meters":6800,"station_id":"","pricing_plan_id":"cebpf4jnsgd1na2vs0mg"},{"bike_id":"33fe9c2b-57c8-4c7c-bb8f-39f7fdc5dc1f","system_id":"levelo_inurba_marseille","lat":43.22932,"lon":5.35381,"is_reserved":false,"is_disabled":false,"rental_uris":{"android":"levelo://app?vid=33fe9c2b-57c8-4c7c-bb8f-39f7fdc5dc1f","ios":"levelo://app?vid=33fe9c2b-57c8-4c7c-bb8f-39f7fdc5dc1f"},"vehicle_type_id":"4","last_reported":1758863391,"current_range_meters":7200,"station_id":"cpo3532slgdg3j2ikp40","pricing_plan_id":"cebpf4jnsgd1na2vs0mg"},{"bike_id":"4df577b4-4ac9-4fd5-8138-760b86769185","system_id":"levelo_inurba_marseille","lat":43.30429,"lon":5.39746,"is_reserved":false,"is_disabled":false,"rental_uris":{"android":"levelo://app?vid=4df577b4-4ac9-4fd5-8138-760b86769185","ios":"levelo://app?vid=4df577b4-4ac9-4fd5-8138-760b86769185"},"vehicle_type_id":"4","last_reported":1758863391,"current_range_meters":7200,"station_id":"ce4bh092rcd13ifvqd20","pricing_plan_id":"cebpf4jnsgd1na2vs0mg"},{"bike_id":"aa912dfc-ff7a-4778-b3bf-4f6557f9c6ae","system_id":"levelo_inurba_marseille","lat":43.28688,"lon":5.37407,"is_reserved":false,"is_disabled":false,"rental_uris":{"android":"levelo://app?vid=aa912dfc-ff7a-4778-b3bf-4f6557f9c6ae","ios":"levelo://app?vid=aa912dfc-ff7a-4778-b3bf-4f6557f9c6ae"},"vehicle_type_id":"4","last_reported":1758863391,"current_range_meters":7200,"station_id":"ce4bh3p2rcd13ifvqdq0","pricing_plan_id":"cebpf4jnsgd1na2vs0mg"},{"bike_id":"3a83ddcd-ce03-4ed4-a7fa-b273c2464f02","system_id":"levelo_inurba_marseille","lat":43.27964,"lon":5.36339,"is_reserved":false,"is_disabled":false,"rental_uris":{"android":"levelo://app?vid=3a83ddcd-ce03-4ed4-a7fa-b273c2464f02","ios":"levelo://app?vid=3a83ddcd-ce03-4ed4-a7fa-b273c2464f02"},"vehicle_type_id":"4","last_reported":1758863391,"current_range_meters":7200,"station_id":"","pricing_plan_id":"cebpf4jnsgd1na2vs0mg"},{"bike_id":"833eefe9-c992-46e3-b21c-7713cf863f9b","system_id":"levelo_inurba_marseille","lat":43.28452,"lon":5.35897,"is_reserved":false,"is_disabled":false,"rental_uris":{"android":"levelo://app?vid=833eefe9-c992-46e3-b21c-7713cf863f9b","ios":"levelo://app?vid=833eefe9-c992-46e3-b21c-7713cf863f9b"},"vehicle_type_id":"4","last_reported":1758863391,"current_range_meters":8000,"station_id":"ce4bhah2rcd13ifvqei0","pricing_plan_id":"cebpf4jnsgd1na2vs0mg"},{"bike_id":"cfa462e1-a746-48ae-b405-0b9474d89333","system_id":"levelo_inurba_marseille","lat":43.289838,"lon":5.363879,"is_reserved":false,"is_disabled":false,"rental_uris":{"android":"levelo://app?vid=cfa462e1-a746-48ae-b405-0b9474d89333","ios":"levelo://app?vid=cfa462e1-a746-48ae-b405-0b9474d89333"},"vehicle_type_id":"4","last_reported":1758863391,"current_range_meters":8000,"station_id":"","pricing_plan_id":"cebpf4jnsgd1na2vs0mg"},{"bike_id":"e2c8aef4-0ba6-4bcb-b871-c10dee945fb9","system_id":"levelo_inurba_marseille","lat":43.30614,"lon":5.39355,"is_reserved":false,"is_disabled":false,"rental_uris":{"android":"levelo://app?vid=e2c8aef4-0ba6-4bcb-b871-c10dee945fb9","ios":"levelo://app?vid=e2c8aef4-0ba6-4bcb-b871-c10dee945fb9"},"vehicle_type_id":"4","last_reported":1758863391,"current_range_meters":8000,"station_id":"ce4bh0p2rcd13ifvqd80","pricing_plan_id":"cebpf4jnsgd1na2vs0mg"},{"bike_id":"4035ffcf-62d8-4fb0-89da-8d7b6b41ef29","system_id":"levelo_inurba_marseille","lat":43.29432,"lon":5.39758,"is_reserved":false,"is_disabled":true,"rental_uris":{"android":"levelo://app?vid=4035ffcf-62d8-4fb0-89da-8d7b6b41ef29","ios":"levelo://app?vid=4035ffcf-62d8-4fb0-89da-8d7b6b41ef29"},"vehicle_type_id":"4","last_reported":1758863391,"current_range_meters":8000,"station_id":"ce4bh3h2rcd13ifvqdo0","pricing_plan_id":"cebpf4jnsgd1na2vs0mg"},{"bike_id":"117acf13-6b03-4ee3-b4a5-edb1f47e11bc","system_id":"levelo_inurba_marseille","lat":43.26832,"lon":5.38708,"is_reserved":false,"is_disabled":true,"rental_uris":{"android":"levelo://app?vid=117acf13-6b03-4ee3-b4a5-edb1f47e11bc","ios":"levelo://app?vid=117acf13-6b03-4ee3-b4a5-edb1f47e11bc"},"vehicle_type_id":"4","last_reported":1758863391,"current_range_meters":8000,"station_id":"","pricing_plan_id":"cebpf4jnsgd1na2vs0mg"},{"bike_id":"1300af60-fb92-43f5-b1c8-6deca14799f5","system_id":"levelo_inurba_marseille","lat":43.30639,"lon":5.40088,"is_reserved":false,"is_disabled":false,"rental_uris":{"android":"levelo://app?vid=1300af60-fb92-43f5-b1c8-6deca14799f5","ios":"levelo://app?vid=1300af60-fb92-43f5-b1c8-6deca14799f5"},"vehicle_type_id":"4","last_reported":1758863391,"current_range_meters":8400,"station_id":"ce4bh112rcd13ifvqda0","pricing_plan_id":"cebpf4jnsgd1na2vs0mg"},{"bike_id":"d8f15d80-2a42-4eab-b390-64e7bce72f69","system_id":"levelo_inurba_marseille","lat":43.269346,"lon":5.386076,"is_reserved":false,"is_disabled":false,"rental_uris":{"android":"levelo://app?vid=d8f15d80-2a42-4eab-b390-64e7bce72f69","ios":"levelo://app?vid=d8f15d80-2a42-4eab-b390-64e7bce72f69"},"vehicle_type_id":"4","last_reported":1758863391,"current_range_meters":8400,"station_id":"ce4bhh92rcd13ifvqfh0","pricing_plan_id":"cebpf4jnsgd1na2vs0mg"},{"bike_id":"e8797cee-761d-4164-9155-c9187d4c7bd9","system_id":"levelo_inurba_marseille","lat":43.28672,"lon":5.40003,"is_reserved":false,"is_disabled":false,"rental_uris":{"android":"levelo://app?vid=e8797cee-761d-4164-9155-c9187d4c7bd9","ios":"levelo://app?vid=e8797cee-761d-4164-9155-c9187d4c7bd9"},"vehicle_type_id":"4","last_reported":1758863391,"current_range_meters":8400,"station_id":"ce4bho92rcd13ifvqh3g","pricing_plan_id":"cebpf4jnsgd1na2vs0mg"},{"bike_id":"a294ec25-f643-41e6-b75e-f26534f372ee","system_id":"levelo_inurba_marseille","lat":43.29192,"lon":5.38833,"is_reserved":false,"is_disabled":false,"rental_uris":{"android":"levelo://app?vid=a294ec25-f643-41e6-b75e-f26534f372ee","ios":"levelo://app?vid=a294ec25-f643-41e6-b75e-f26534f372ee"},"vehicle_type_id":"4","last_reported":1758863391,"current_range_meters":8400,"station_id":"","pricing_plan_id":"cebpf4jnsgd1na2vs0mg"},{"bike_id":"379911e0-a8b9-4b05-96ac-c75be54d3c45","system_id":"levelo_inurba_marseille","lat":43.28863,"lon":5.42515,"is_reserved":false,"is_disabled":false,"rental_uris":{"android":"levelo://app?vid=379911e0-a8b9-4b05-96ac-c75be54d3c45","ios":"levelo://app?vid=379911e0-a8b9-4b05-96ac-c75be54d3c45"},"vehicle_type_id":"4","last_reported":1758863391,"current_range_meters":8400,"station_id":"","pricing_plan_id":"cebpf4jnsgd1na2vs0mg"},{"bike_id":"d5632eaf-207f-4351-be9c-95c58bc9c538","system_id":"levelo_inurba_marseille","lat":43.2954,"lon":5.37499,"is_reserved":false,"is_disabled":true,"rental_uris":{"android":"levelo://app?vid=d5632eaf-207f-4351-be9c-95c58bc9c538","ios":"levelo://app?vid=d5632eaf-207f-4351-be9c-95c58bc9c538"},"vehicle_type_id":"4","last_reported":1758863391,"current_range_meters":8800,"station_id":"ce4bgkp2rcd13ifvqbmg","pricing_plan_id":"cebpf4jnsgd1na2vs0mg"},{"bike_id":"8eae954c-dab6-4303-94f5-569e1c483f62","system_id":"levelo_inurba_marseille","lat":43.29446,"lon":5.40763,"is_reserved":false,"is_disabled":false,"rental_uris":{"android":"levelo://app?vid=8eae954c-dab6-4303-94f5-569e1c483f62","ios":"levelo://app?vid=8eae954c-dab6-4303-94f5-569e1c483f62"},"vehicle_type_id":"4","last_reported":1758863391,"current_range_meters":8800,"station_id":"","pricing_plan_id":"cebpf4jnsgd1na2vs0mg"},{"bike_id":"8065287f-cf1b-475c-8e3c-fd6340985d95","system_id":"levelo_inurba_marseille","lat":43.28408,"lon":5.37524,"is_reserved":false,"is_disabled":false,"rental_uris":{"android":"levelo://app?vid=8065287f-cf1b-475c-8e3c-fd6340985d95","ios":"levelo://app?vid=8065287f-cf1b-475c-8e3c-fd6340985d95"},"vehicle_type_id":"4","last_reported":1758863391,"current_range_meters":8800,"station_id":"ce4bh412rcd13ifvqds0","pricing_plan_id":"cebpf4jnsgd1na2vs0mg"},{"bike_id":"e0451567-ead7-4a4f-8c97-c067dfb85452","system_id":"levelo_inurba_marseille","lat":43.30923,"lon":5.4016,"is_reserved":false,"is_disabled":true,"rental_uris":{"android":"levelo://app?vid=e0451567-ead7-4a4f-8c97-c067dfb85452","ios":"levelo://app?vid=e0451567-ead7-4a4f-8c97-c067dfb85452"},"vehicle_type_id":"4","last_reported":1758863391,"current_range_meters":8800,"station_id":"ce4bgvp2rcd13ifvqct0","pricing_plan_id":"cebpf4jnsgd1na2vs0mg"},{"bike_id":"a36f8c8d-332f-467a-958d-7a5121743d34","system_id":"levelo_inurba_marseille","lat":43.2864,"lon":5.35093,"is_reserved":false,"is_disabled":false,"rental_uris":{"android":"levelo://app?vid=a36f8c8d-332f-467a-958d-7a5121743d34","ios":"levelo://app?vid=a36f8c8d-332f-467a-958d-7a5121743d34"},"vehicle_type_id":"4","last_reported":1758863391,"current_range_meters":8800,"station_id":"ce4bhch2rcd13ifvqeug","pricing_plan_id":"cebpf4jnsgd1na2vs0mg"},{"bike_id":"7b5d279d-19e6-4c91-9c3b-3c0bd0e166d5","system_id":"levelo_inurba_marseille","lat":43.32336,"lon":5.40625,"is_reserved":false,"is_disabled":false,"rental_uris":{"android":"levelo://app?vid=7b5d279d-19e6-4c91-9c3b-3c0bd0e166d5","ios":"levelo://app?vid=7b5d279d-19e6-4c91-9c3b-3c0bd0e166d5"},"vehicle_type_id":"4","last_reported":1758863391,"current_range_meters":8800,"station_id":"ce4bhq92rcd13ifvqhjg","pricing_plan_id":"cebpf4jnsgd1na2vs0mg"},{"bike_id":"8584eb3e-f7b4-4300-97fe-005a37d8d75b","system_id":"levelo_inurba_marseille","lat":43.36776,"lon":5.36338,"is_reserved":false,"is_disabled":false,"rental_uris":{"android":"levelo://app?vid=8584eb3e-f7b4-4300-97fe-005a37d8d75b","ios":"levelo://app?vid=8584eb3e-f7b4-4300-97fe-005a37d8d75b"},"vehicle_type_id":"4","last_reported":1758863391,"current_range_meters":8800,"station_id":"","pricing_plan_id":"cebpf4jnsgd1na2vs0mg"},{"bike_id":"82378344-e10b-4648-9e14-2cd0461e159b","system_id":"levelo_inurba_marseille","lat":43.298436,"lon":5.362694,"is_reserved":false,"is_disabled":false,"rental_uris":{"android":"levelo://app?vid=82378344-e10b-4648-9e14-2cd0461e159b","ios":"levelo://app?vid=82378344-e10b-4648-9e14-2cd0461e159b"},"vehicle_type_id":"4","last_reported":1758863391,"current_range_meters":9200,"station_id":"ce4bgpp2rcd13ifvqc3g","pricing_plan_id":"cebpf4jnsgd1na2vs0mg"},{"bike_id":"7096101a-2b1f-4b2b-b1d2-b3c992cd3685","system_id":"levelo_inurba_marseille","lat":43.307427,"lon":5.424493,"is_reserved":false,"is_disabled":true,"rental_uris":{"android":"levelo://app?vid=7096101a-2b1f-4b2b-b1d2-b3c992cd3685","ios":"levelo://app?vid=7096101a-2b1f-4b2b-b1d2-b3c992cd3685"},"vehicle_type_id":"4","last_reported":1758863391,"current_range_meters":9200,"station_id":"st_cvj6ca6bvosntc0bfgr0","pricing_plan_id":"cebpf4jnsgd1na2vs0mg"},{"bike_id":"bdec3261-de13-477f-818b-7af8ae1d1f6a","system_id":"levelo_inurba_marseille","lat":43.239653,"lon":5.37678,"is_reserved":false,"is_disabled":false,"rental_uris":{"android":"levelo://app?vid=bdec3261-de13-477f-818b-7af8ae1d1f6a","ios":"levelo://app?vid=bdec3261-de13-477f-818b-7af8ae1d1f6a"},"vehicle_type_id":"4","last_reported":1758863391,"current_range_meters":9200,"station_id":"","pricing_plan_id":"cebpf4jnsgd1na2vs0mg"},{"bike_id":"003515e8-8117-44bb-979d-5f47e8d50fda","system_id":"levelo_inurba_marseille","lat":43.30647,"lon":5.37597,"is_reserved":false,"is_disabled":false,"rental_uris":{"android":"levelo://app?vid=003515e8-8117-44bb-979d-5f47e8d50fda","ios":"levelo://app?vid=003515e8-8117-44bb-979d-5f47e8d50fda"},"vehicle_type_id":"4","last_reported":1758863391,"current_range_meters":9600,"station_id":"","pricing_plan_id":"cebpf4jnsgd1na2vs0mg"},{"bike_id":"b8f57efd-79df-49ff-950f-08d0874d290f","system_id":"levelo_inurba_marseille","lat":43.28445,"lon":5.39184,"is_reserved":false,"is_disabled":false,"rental_uris":{"android":"levelo://app?vid=b8f57efd-79df-49ff-950f-08d0874d290f","ios":"levelo://app?vid=b8f57efd-79df-49ff-950f-08d0874d290f"},"vehicle_type_id":"4","last_reported":1758863391,"current_range_meters":9600,"station_id":"ce4bhoh2rcd13ifvqh5g","pricing_plan_id":"cebpf4jnsgd1na2vs0mg"},{"bike_id":"2bd2a176-8590-4e06-8b8c-a96b49b7b36a","system_id":"levelo_inurba_marseille","lat":43.242409,"lon":5.41085,"is_reserved":false,"is_disabled":false,"rental_uris":{"android":"levelo://app?vid=2bd2a176-8590-4e06-8b8c-a96b49b7b36a","ios":"levelo://app?vid=2bd2a176-8590-4e06-8b8c-a96b49b7b36a"},"vehicle_type_id":"4","last_reported":1758863391,"current_range_meters":9600,"station_id":"","pricing_plan_id":"cebpf4jnsgd1na2vs0mg"},{"bike_id":"8fe6899c-f678-4f46-be40-9ca7596a0783","system_id":"levelo_inurba_marseille","lat":43.28924,"lon":5.38394,"is_reserved":false,"is_disabled":true,"rental_uris":{"android":"levelo://app?vid=8fe6899c-f678-4f46-be40-9ca7596a0783","ios":"levelo://app?vid=8fe6899c-f678-4f46-be40-9ca7596a0783"},"vehicle_type_id":"4","last_reported":1758863391,"current_range_meters":9600,"station_id":"ce4bh612rcd13ifvqe6g","pricing_plan_id":"cebpf4jnsgd1na2vs0mg"},{"bike_id":"d7f9e1df-8b0f-4a8d-ad58-d349030d8c25","system_id":"levelo_inurba_marseille","lat":43.29653,"lon":5.37881,"is_reserved":false,"is_disabled":false,"rental_uris":{"android":"levelo://app?vid=d7f9e1df-8b0f-4a8d-ad58-d349030d8c25","ios":"levelo://app?vid=d7f9e1df-8b0f-4a8d-ad58-d349030d8c25"},"vehicle_type_id":"4","last_reported":1758863391,"current_range_meters":9600,"station_id":"","pricing_plan_id":"cebpf4jnsgd1na2vs0mg"},{"bike_id":"444b984c-fe14-49d9-aea8-393afcf3dac6","system_id":"levelo_inurba_marseille","lat":43.23187,"lon":5.39987,"is_reserved":false,"is_disabled":false,"rental_uris":{"android":"levelo://app?vid=444b984c-fe14-49d9-aea8-393afcf3dac6","ios":"levelo://app?vid=444b984c-fe14-49d9-aea8-393afcf3dac6"},"vehicle_type_id":"4","last_reported":1758863391,"current_range_meters":9600,"station_id":"ce4bhn12rcd13ifvqgqg","pricing_plan_id":"cebpf4jnsgd1na2vs0mg"},{"bike_id":"fc71c58a-0998-4ad7-adf3-f0dcb9e5585b","system_id":"levelo_inurba_marseille","lat":43.23189,"lon":5.39986,"is_reserved":false,"is_disabled":false,"rental_uris":{"android":"levelo://app?vid=fc71c58a-0998-4ad7-adf3-f0dcb9e5585b","ios":"levelo://app?vid=fc71c58a-0998-4ad7-adf3-f0dcb9e5585b"},"vehicle_type_id":"4","last_reported":1758863391,"current_range_meters":9600,"station_id":"ce4bhn12rcd13ifvqgqg","pricing_plan_id":"cebpf4jnsgd1na2vs0mg"},{"bike_id":"1dc7f111-b63a-4e12-b705-dbf428b5deda","system_id":"levelo_inurba_marseille","lat":43.30174,"lon":5.38082,"is_reserved":false,"is_disabled":false,"rental_uris":{"android":"levelo://app?vid=1dc7f111-b63a-4e12-b705-dbf428b5deda","ios":"levelo://app?vid=1dc7f111-b63a-4e12-b705-dbf428b5deda"},"vehicle_type_id":"4","last_reported":1758863391,"current_range_meters":9600,"station_id":"ce4bgjp2rcd13ifvqbh0","pricing_plan_id":"cebpf4jnsgd1na2vs0mg"},{"bike_id":"212de2eb-8bbc-413c-b204-9fe1facd76e8","system_id":"levelo_inurba_marseille","lat":43.31301,"lon":5.37818,"is_reserved":false,"is_disabled":false,"rental_uris":{"android":"levelo://app?vid=212de2eb-8bbc-413c-b204-9fe1facd76e8","ios":"levelo://app?vid=212de2eb-8bbc-413c-b204-9fe1facd76e8"},"vehicle_type_id":"4","last_reported":1758863391,"current_range_meters":9600,"station_id":"","pricing_plan_id":"cebpf4jnsgd1na2vs0mg"},{"bike_id":"cb3139a4-f2d1-4c6a-bb07-a858c1fa1910","system_id":"levelo_inurba_marseille","lat":43.26563,"lon":5.39026,"is_reserved":false,"is_disabled":false,"rental_uris":{"android":"levelo://app?vid=cb3139a4-f2d1-4c6a-bb07-a858c1fa1910","ios":"levelo://app?vid=cb3139a4-f2d1-4c6a-bb07-a858c1fa1910"},"vehicle_type_id":"4","last_reported":1758863391,"current_range_meters":9600,"station_id":"ce4bhe12rcd13ifvqf30","pricing_plan_id":"cebpf4jnsgd1na2vs0mg"},{"bike_id":"402b573d-229b-4b0e-977a-075c271e85c6","system_id":"levelo_inurba_marseille","lat":43.288666,"lon":5.425194,"is_reserved":false,"is_disabled":false,"rental_uris":{"android":"levelo://app?vid=402b573d-229b-4b0e-977a-075c271e85c6","ios":"levelo://app?vid=402b573d-229b-4b0e-977a-075c271e85c6"},"vehicle_type_id":"4","last_reported":1758863391,"current_range_meters":10000,"station_id":"","pricing_plan_id":"cebpf4jnsgd1na2vs0mg"},{"bike_id":"5d386be3-e9d7-4db3-bda9-9ed5fc575891","system_id":"levelo_inurba_marseille","lat":43.304613,"lon":5.379079,"is_reserved":false,"is_disabled":false,"rental_uris":{"android":"levelo://app?vid=5d386be3-e9d7-4db3-bda9-9ed5fc575891","ios":"levelo://app?vid=5d386be3-e9d7-4db3-bda9-9ed5fc575891"},"vehicle_type_id":"4","last_reported":1758863391,"current_range_meters":10000,"station_id":"ce4bgup2rcd13ifvqcn0","pricing_plan_id":"cebpf4jnsgd1na2vs0mg"},{"bike_id":"3731e4b4-e57b-4ad8-affe-801decac42ca","system_id":"levelo_inurba_marseille","lat":43.24976,"lon":5.40471,"is_reserved":false,"is_disabled":true,"rental_uris":{"android":"levelo://app?vid=3731e4b4-e57b-4ad8-affe-801decac42ca","ios":"levelo://app?vid=3731e4b4-e57b-4ad8-affe-801decac42ca"},"vehicle_type_id":"4","last_reported":1758863391,"current_range_meters":10000,"station_id":"st_d2ngiaodas8pm72gd1h0","pricing_plan_id":"cebpf4jnsgd1na2vs0mg"},{"bike_id":"d31d856a-933d-49cf-948f-ce03657dfc74","system_id":"levelo_inurba_marseille","lat":43.28427,"lon":5.35,"is_reserved":false,"is_disabled":false,"rental_uris":{"android":"levelo://app?vid=d31d856a-933d-49cf-948f-ce03657dfc74","ios":"levelo://app?vid=d31d856a-933d-49cf-948f-ce03657dfc74"},"vehicle_type_id":"4","last_reported":1758863391,"current_range_meters":10000,"station_id":"ce4bhbh2rcd13ifvqepg","pricing_plan_id":"cebpf4jnsgd1na2vs0mg"},{"bike_id":"0dc063e4-d991-441f-9964-108d31fb7b3e","system_id":"levelo_inurba_marseille","lat":43.28461,"lon":5.35906,"is_reserved":false,"is_disabled":false,"rental_uris":{"android":"levelo://app?vid=0dc063e4-d991-441f-9964-108d31fb7b3e","ios":"levelo://app?vid=0dc063e4-d991-441f-9964-108d31fb7b3e"},"vehicle_type_id":"4","last_reported":1758863391,"current_range_meters":10000,"station_id":"ce4bhah2rcd13ifvqei0","pricing_plan_id":"cebpf4jnsgd1na2vs0mg"},{"bike_id":"7ffd16fe-e13b-40cc-a3d7-f9bcb37e0c5d","system_id":"levelo_inurba_marseille","lat":43.2669,"lon":5.3828,"is_reserved":false,"is_disabled":true,"rental_uris":{"android":"levelo://app?vid=7ffd16fe-e13b-40cc-a3d7-f9bcb37e0c5d","ios":"levelo://app?vid=7ffd16fe-e13b-40cc-a3d7-f9bcb37e0c5d"},"vehicle_type_id":"4","last_reported":1758863391,"current_range_meters":10000,"station_id":"ce4bhg92rcd13ifvqf90","pricing_plan_id":"cebpf4jnsgd1na2vs0mg"},{"bike_id":"593bcc8e-42f4-4f9b-972e-8b23dc6598be","system_id":"levelo_inurba_marseille","lat":43.28486,"lon":5.3842,"is_reserved":false,"is_disabled":false,"rental_uris":{"android":"levelo://app?vid=593bcc8e-42f4-4f9b-972e-8b23dc6598be","ios":"levelo://app?vid=593bcc8e-42f4-4f9b-972e-8b23dc6598be"},"vehicle_type_id":"4","last_reported":1758863391,"current_range_meters":10800,"station_id":"ce4bh512rcd13ifvqe3g","pricing_plan_id":"cebpf4jnsgd1na2vs0mg"},{"bike_id":"f897d300-643c-4c7a-951b-f56d70ef23ca","system_id":"levelo_inurba_marseille","lat":43.303265,"lon":5.390783,"is_reserved":false,"is_disabled":false,"rental_uris":{"android":"levelo://app?vid=f897d300-643c-4c7a-951b-f56d70ef23ca","ios":"levelo://app?vid=f897d300-643c-4c7a-951b-f56d70ef23ca"},"vehicle_type_id":"4","last_reported":1758863391,"current_range_meters":10800,"station_id":"","pricing_plan_id":"cebpf4jnsgd1na2vs0mg"},{"bike_id":"e5303607-da03-4ac7-b81e-b332ede84cf7","system_id":"levelo_inurba_marseille","lat":43.31312,"lon":5.37819,"is_reserved":false,"is_disabled":false,"rental_uris":{"android":"levelo://app?vid=e5303607-da03-4ac7-b81e-b332ede84cf7","ios":"levelo://app?vid=e5303607-da03-4ac7-b81e-b332ede84cf7"},"vehicle_type_id":"4","last_reported":1758863391,"current_range_meters":10800,"station_id":"","pricing_plan_id":"cebpf4jnsgd1na2vs0mg"},{"bike_id":"fac26b36-2b85-4b83-911f-e9c845daf834","system_id":"levelo_inurba_marseille","lat":43.28101,"lon":5.37847,"is_reserved":false,"is_disabled":false,"rental_uris":{"android":"levelo://app?vid=fac26b36-2b85-4b83-911f-e9c845daf834","ios":"levelo://app?vid=fac26b36-2b85-4b83-911f-e9c845daf834"},"vehicle_type_id":"4","last_reported":1758863391,"current_range_meters":11200,"station_id":"ce4bha12rcd13ifvqee0","pricing_plan_id":"cebpf4jnsgd1na2vs0mg"},{"bike_id":"1c35bf83-ebdb-4c44-ba8d-eb30d817a599","system_id":"levelo_inurba_marseille","lat":43.304251,"lon":5.39741,"is_reserved":false,"is_disabled":true,"rental_uris":{"android":"levelo://app?vid=1c35bf83-ebdb-4c44-ba8d-eb30d817a599","ios":"levelo://app?vid=1c35bf83-ebdb-4c44-ba8d-eb30d817a599"},"vehicle_type_id":"4","last_reported":1758863391,"current_range_meters":11200,"station_id":"","pricing_plan_id":"cebpf4jnsgd1na2vs0mg"},{"bike_id":"98ecb364-c7c7-4818-bb1f-234bf1bfdeed","system_id":"levelo_inurba_marseille","lat":43.30612,"lon":5.39385,"is_reserved":false,"is_disabled":false,"rental_uris":{"android":"levelo://app?vid=98ecb364-c7c7-4818-bb1f-234bf1bfdeed","ios":"levelo://app?vid=98ecb364-c7c7-4818-bb1f-234bf1bfdeed"},"vehicle_type_id":"4","last_reported":1758863391,"current_range_meters":11600,"station_id":"ce4bh0p2rcd13ifvqd80","pricing_plan_id":"cebpf4jnsgd1na2vs0mg"},{"bike_id":"d4ff37ac-4b54-432d-a5da-4c0f4f93531f","system_id":"levelo_inurba_marseille","lat":43.24169,"lon":5.36405,"is_reserved":false,"is_disabled":false,"rental_uris":{"android":"levelo://app?vid=d4ff37ac-4b54-432d-a5da-4c0f4f93531f","ios":"levelo://app?vid=d4ff37ac-4b54-432d-a5da-4c0f4f93531f"},"vehicle_type_id":"4","last_reported":1758863391,"current_range_meters":11600,"station_id":"cpo36qri1sfpv3e86is0","pricing_plan_id":"cebpf4jnsgd1na2vs0mg"},{"bike_id":"0d54f249-b891-4504-a5ff-687b2a4870e6","system_id":"levelo_inurba_marseille","lat":43.286245,"lon":5.350929,"is_reserved":false,"is_disabled":false,"rental_uris":{"android":"levelo://app?vid=0d54f249-b891-4504-a5ff-687b2a4870e6","ios":"levelo://app?vid=0d54f249-b891-4504-a5ff-687b2a4870e6"},"vehicle_type_id":"4","last_reported":1758863391,"current_range_meters":11600,"station_id":"ce4bhch2rcd13ifvqeug","pricing_plan_id":"cebpf4jnsgd1na2vs0mg"},{"bike_id":"f5a888db-229a-4246-81ee-0ff2a1bcfdfa","system_id":"levelo_inurba_marseille","lat":43.22929,"lon":5.35371,"is_reserved":false,"is_disabled":false,"rental_uris":{"android":"levelo://app?vid=f5a888db-229a-4246-81ee-0ff2a1bcfdfa","ios":"levelo://app?vid=f5a888db-229a-4246-81ee-0ff2a1bcfdfa"},"vehicle_type_id":"4","last_reported":1758863391,"current_range_meters":11600,"station_id":"cpo3532slgdg3j2ikp40","pricing_plan_id":"cebpf4jnsgd1na2vs0mg"},{"bike_id":"11a160ff-b883-4187-aac8-caac1341135a","system_id":"levelo_inurba_marseille","lat":43.24944,"lon":5.40503,"is_reserved":false,"is_disabled":false,"rental_uris":{"android":"levelo://app?vid=11a160ff-b883-4187-aac8-caac1341135a","ios":"levelo://app?vid=11a160ff-b883-4187-aac8-caac1341135a"},"vehicle_type_id":"4","last_reported":1758863391,"current_range_meters":11600,"station_id":"st_d2ngiaodas8pm72gd1h0","pricing_plan_id":"cebpf4jnsgd1na2vs0mg"},{"bike_id":"c7f6a08b-c655-4213-b2ba-7d02e7f382fe","system_id":"levelo_inurba_marseille","lat":43.27988,"lon":5.39483,"is_reserved":false,"is_disabled":false,"rental_uris":{"android":"levelo://app?vid=c7f6a08b-c655-4213-b2ba-7d02e7f382fe","ios":"levelo://app?vid=c7f6a08b-c655-4213-b2ba-7d02e7f382fe"},"vehicle_type_id":"4","last_reported":1758863391,"current_range_meters":11600,"station_id":"","pricing_plan_id":"cebpf4jnsgd1na2vs0mg"},{"bike_id":"97a5ee76-2e0a-479d-a727-d5a9ad8fecb2","system_id":"levelo_inurba_marseille","lat":43.22933,"lon":5.35385,"is_reserved":false,"is_disabled":false,"rental_uris":{"android":"levelo://app?vid=97a5ee76-2e0a-479d-a727-d5a9ad8fecb2","ios":"levelo://app?vid=97a5ee76-2e0a-479d-a727-d5a9ad8fecb2"},"vehicle_type_id":"4","last_reported":1758863391,"current_range_meters":12000,"station_id":"cpo3532slgdg3j2ikp40","pricing_plan_id":"cebpf4jnsgd1na2vs0mg"},{"bike_id":"c6b3e536-9745-4760-93b7-a9b7697329d8","system_id":"levelo_inurba_marseille","lat":43.28425,"lon":5.35002,"is_reserved":false,"is_disabled":false,"rental_uris":{"android":"levelo://app?vid=c6b3e536-9745-4760-93b7-a9b7697329d8","ios":"levelo://app?vid=c6b3e536-9745-4760-93b7-a9b7697329d8"},"vehicle_type_id":"4","last_reported":1758863391,"current_range_meters":12000,"station_id":"ce4bhbh2rcd13ifvqepg","pricing_plan_id":"cebpf4jnsgd1na2vs0mg"},{"bike_id":"d734f0f7-bb82-4cbc-9571-824c32d91d22","system_id":"levelo_inurba_marseille","lat":43.24168,"lon":5.36412,"is_reserved":false,"is_disabled":false,"rental_uris":{"android":"levelo://app?vid=d734f0f7-bb82-4cbc-9571-824c32d91d22","ios":"levelo://app?vid=d734f0f7-bb82-4cbc-9571-824c32d91d22"},"vehicle_type_id":"4","last_reported":1758863391,"current_range_meters":12000,"station_id":"cpo36qri1sfpv3e86is0","pricing_plan_id":"cebpf4jnsgd1na2vs0mg"},{"bike_id":"98efe1d4-5e12-4758-9cf8-62538feaa509","system_id":"levelo_inurba_marseille","lat":43.282195,"lon":5.3905,"is_reserved":false,"is_disabled":false,"rental_uris":{"android":"levelo://app?vid=98efe1d4-5e12-4758-9cf8-62538feaa509","ios":"levelo://app?vid=98efe1d4-5e12-4758-9cf8-62538feaa509"},"vehicle_type_id":"4","last_reported":1758863391,"current_range_meters":12000,"station_id":"ce4bhn92rcd13ifvqgsg","pricing_plan_id":"cebpf4jnsgd1na2vs0mg"},{"bike_id":"97bfabe2-678f-4469-8156-b2c689b4137d","system_id":"levelo_inurba_marseille","lat":43.3199,"lon":5.38132,"is_reserved":false,"is_disabled":false,"rental_uris":{"android":"levelo://app?vid=97bfabe2-678f-4469-8156-b2c689b4137d","ios":"levelo://app?vid=97bfabe2-678f-4469-8156-b2c689b4137d"},"vehicle_type_id":"4","last_reported":1758863391,"current_range_meters":12400,"station_id":"ce4bhr12rcd13ifvqhpg","pricing_plan_id":"cebpf4jnsgd1na2vs0mg"},{"bike_id":"232f7f05-11b0-4e83-87a0-d64195604901","system_id":"levelo_inurba_marseille","lat":43.27996,"lon":5.41664,"is_reserved":false,"is_disabled":false,"rental_uris":{"android":"levelo://app?vid=232f7f05-11b0-4e83-87a0-d64195604901","ios":"levelo://app?vid=232f7f05-11b0-4e83-87a0-d64195604901"},"vehicle_type_id":"4","last_reported":1758863391,"current_range_meters":12400,"station_id":"ce4bho12rcd13ifvqh1g","pricing_plan_id":"cebpf4jnsgd1na2vs0mg"},{"bike_id":"1c27f7d4-507d-43e2-b324-44f5e35dee72","system_id":"levelo_inurba_marseille","lat":43.323027,"lon":5.393517,"is_reserved":false,"is_disabled":false,"rental_uris":{"android":"levelo://app?vid=1c27f7d4-507d-43e2-b324-44f5e35dee72","ios":"levelo://app?vid=1c27f7d4-507d-43e2-b324-44f5e35dee72"},"vehicle_type_id":"4","last_reported":1758863391,"current_range_meters":12400,"station_id":"","pricing_plan_id":"cebpf4jnsgd1na2vs0mg"},{"bike_id":"c31c58ee-4e29-4ce3-bf0a-25ae5cf57cfc","system_id":"levelo_inurba_marseille","lat":43.24966,"lon":5.40475,"is_reserved":false,"is_disabled":false,"rental_uris":{"android":"levelo://app?vid=c31c58ee-4e29-4ce3-bf0a-25ae5cf57cfc","ios":"levelo://app?vid=c31c58ee-4e29-4ce3-bf0a-25ae5cf57cfc"},"vehicle_type_id":"4","last_reported":1758863391,"current_range_meters":12400,"station_id":"st_d2ngiaodas8pm72gd1h0","pricing_plan_id":"cebpf4jnsgd1na2vs0mg"},{"bike_id":"041cd397-24ab-4e04-af23-07b961e161f4","system_id":"levelo_inurba_marseille","lat":43.337444,"lon":5.374475,"is_reserved":false,"is_disabled":false,"rental_uris":{"android":"levelo://app?vid=041cd397-24ab-4e04-af23-07b961e161f4","ios":"levelo://app?vid=041cd397-24ab-4e04-af23-07b961e161f4"},"vehicle_type_id":"4","last_reported":1758863391,"current_range_meters":12400,"station_id":"","pricing_plan_id":"cebpf4jnsgd1na2vs0mg"},{"bike_id":"39e6b2d7-e7bc-4366-8a01-87bc46855564","system_id":"levelo_inurba_marseille","lat":43.321,"lon":5.3681,"is_reserved":false,"is_disabled":false,"rental_uris":{"android":"levelo://app?vid=39e6b2d7-e7bc-4366-8a01-87bc46855564","ios":"levelo://app?vid=39e6b2d7-e7bc-4366-8a01-87bc46855564"},"vehicle_type_id":"4","last_reported":1758863391,"current_range_meters":12400,"station_id":"ce4bhrh2rcd13ifvqhug","pricing_plan_id":"cebpf4jnsgd1na2vs0mg"},{"bike_id":"b6ff3672-4e7c-404c-ab2a-bd902cf95e14","system_id":"levelo_inurba_marseille","lat":43.26855,"lon":5.40669,"is_reserved":false,"is_disabled":false,"rental_uris":{"android":"levelo://app?vid=b6ff3672-4e7c-404c-ab2a-bd902cf95e14","ios":"levelo://app?vid=b6ff3672-4e7c-404c-ab2a-bd902cf95e14"},"vehicle_type_id":"4","last_reported":1758863391,"current_range_meters":12400,"station_id":"","pricing_plan_id":"cebpf4jnsgd1na2vs0mg"},{"bike_id":"61323196-3cc6-4d31-9116-1050b01caf69","system_id":"levelo_inurba_marseille","lat":43.2408,"lon":5.37743,"is_reserved":false,"is_disabled":false,"rental_uris":{"android":"levelo://app?vid=61323196-3cc6-4d31-9116-1050b01caf69","ios":"levelo://app?vid=61323196-3cc6-4d31-9116-1050b01caf69"},"vehicle_type_id":"4","last_reported":1758863391,"current_range_meters":12800,"station_id":"ce4bhnp2rcd13ifvqgvg","pricing_plan_id":"cebpf4jnsgd1na2vs0mg"},{"bike_id":"b0934032-3d3c-44e1-985e-e72b8cee3491","system_id":"levelo_inurba_marseille","lat":43.24643,"lon":5.43142,"is_reserved":false,"is_disabled":false,"rental_uris":{"android":"levelo://app?vid=b0934032-3d3c-44e1-985e-e72b8cee3491","ios":"levelo://app?vid=b0934032-3d3c-44e1-985e-e72b8cee3491"},"vehicle_type_id":"4","last_reported":1758863391,"current_range_meters":12800,"station_id":"st_d2m6c4gdas8pm72e190g","pricing_plan_id":"cebpf4jnsgd1na2vs0mg"},{"bike_id":"41900b66-a1fe-443c-ba44-f919efc993d3","system_id":"levelo_inurba_marseille","lat":43.30398,"lon":5.42522,"is_reserved":false,"is_disabled":false,"rental_uris":{"android":"levelo://app?vid=41900b66-a1fe-443c-ba44-f919efc993d3","ios":"levelo://app?vid=41900b66-a1fe-443c-ba44-f919efc993d3"},"vehicle_type_id":"4","last_reported":1758863391,"current_range_meters":12800,"station_id":"ce4bhoh2rcd13ifvqh6g","pricing_plan_id":"cebpf4jnsgd1na2vs0mg"},{"bike_id":"9811e1f7-6003-4f66-9587-6fdbbe85e0ed","system_id":"levelo_inurba_marseille","lat":43.29559,"lon":5.423,"is_reserved":false,"is_disabled":false,"rental_uris":{"android":"levelo://app?vid=9811e1f7-6003-4f66-9587-6fdbbe85e0ed","ios":"levelo://app?vid=9811e1f7-6003-4f66-9587-6fdbbe85e0ed"},"vehicle_type_id":"4","last_reported":1758863391,"current_range_meters":12800,"station_id":"ce4bhph2rcd13ifvqhdg","pricing_plan_id":"cebpf4jnsgd1na2vs0mg"},{"bike_id":"f9af076b-c426-46f0-97f6-f6a5a530c8e2","system_id":"levelo_inurba_marseille","lat":43.33014,"lon":5.39533,"is_reserved":false,"is_disabled":true,"rental_uris":{"android":"levelo://app?vid=f9af076b-c426-46f0-97f6-f6a5a530c8e2","ios":"levelo://app?vid=f9af076b-c426-46f0-97f6-f6a5a530c8e2"},"vehicle_type_id":"4","last_reported":1758863391,"current_range_meters":12800,"station_id":"","pricing_plan_id":"cebpf4jnsgd1na2vs0mg"},{"bike_id":"0ef81889-2d7f-4e70-b480-0b08f55cbfba","system_id":"levelo_inurba_marseille","lat":43.308515,"lon":5.368345,"is_reserved":false,"is_disabled":false,"rental_uris":{"android":"levelo://app?vid=0ef81889-2d7f-4e70-b480-0b08f55cbfba","ios":"levelo://app?vid=0ef81889-2d7f-4e70-b480-0b08f55cbfba"},"vehicle_type_id":"4","last_reported":1758863391,"current_range_meters":12800,"station_id":"","pricing_plan_id":"cebpf4jnsgd1na2vs0mg"},{"bike_id":"358b5bd0-bd1a-4b9c-b0d1-08dbb5ab85b3","system_id":"levelo_inurba_marseille","lat":43.27068,"lon":5.40238,"is_reserved":false,"is_disabled":false,"rental_uris":{"android":"levelo://app?vid=358b5bd0-bd1a-4b9c-b0d1-08dbb5ab85b3","ios":"levelo://app?vid=358b5bd0-bd1a-4b9c-b0d1-08dbb5ab85b3"},"vehicle_type_id":"4","last_reported":1758863391,"current_range_meters":13600,"station_id":"ce4bhk92rcd13ifvqgc0","pricing_plan_id":"cebpf4jnsgd1na2vs0mg"},{"bike_id":"f3c5f598-e12d-4211-b749-11b51d760ccb","system_id":"levelo_inurba_marseille","lat":43.30154,"lon":5.38089,"is_reserved":false,"is_disabled":false,"rental_uris":{"android":"levelo://app?vid=f3c5f598-e12d-4211-b749-11b51d760ccb","ios":"levelo://app?vid=f3c5f598-e12d-4211-b749-11b51d760ccb"},"vehicle_type_id":"4","last_reported":1758863391,"current_range_meters":13600,"station_id":"ce4bgjp2rcd13ifvqbh0","pricing_plan_id":"cebpf4jnsgd1na2vs0mg"},{"bike_id":"99ad9571-cd3b-442e-839b-c75e906c45be","system_id":"levelo_inurba_marseille","lat":43.30669,"lon":5.40074,"is_reserved":false,"is_disabled":false,"rental_uris":{"android":"levelo://app?vid=99ad9571-cd3b-442e-839b-c75e906c45be","ios":"levelo://app?vid=99ad9571-cd3b-442e-839b-c75e906c45be"},"vehicle_type_id":"4","last_reported":1758863391,"current_range_meters":13600,"station_id":"ce4bh112rcd13ifvqda0","pricing_plan_id":"cebpf4jnsgd1na2vs0mg"},{"bike_id":"fe00f682-cca5-427d-a71d-4e3cd090cf19","system_id":"levelo_inurba_marseille","lat":43.24075,"lon":5.37753,"is_reserved":false,"is_disabled":false,"rental_uris":{"android":"levelo://app?vid=fe00f682-cca5-427d-a71d-4e3cd090cf19","ios":"levelo://app?vid=fe00f682-cca5-427d-a71d-4e3cd090cf19"},"vehicle_type_id":"4","last_reported":1758863391,"current_range_meters":13600,"station_id":"ce4bhnp2rcd13ifvqgvg","pricing_plan_id":"cebpf4jnsgd1na2vs0mg"},{"bike_id":"5e0d4c51-5a96-48aa-ba9f-d553bd0035d9","system_id":"levelo_inurba_marseille","lat":43.31313,"lon":5.39713,"is_reserved":false,"is_disabled":false,"rental_uris":{"android":"levelo://app?vid=5e0d4c51-5a96-48aa-ba9f-d553bd0035d9","ios":"levelo://app?vid=5e0d4c51-5a96-48aa-ba9f-d553bd0035d9"},"vehicle_type_id":"4","last_reported":1758863391,"current_range_meters":13600,"station_id":"ce4bgvp2rcd13ifvqcu0","pricing_plan_id":"cebpf4jnsgd1na2vs0mg"},{"bike_id":"c37a4fa9-8929-4812-9e52-967878d66fa4","system_id":"levelo_inurba_marseille","lat":43.278211,"lon":5.40726,"is_reserved":false,"is_disabled":false,"rental_uris":{"android":"levelo://app?vid=c37a4fa9-8929-4812-9e52-967878d66fa4","ios":"levelo://app?vid=c37a4fa9-8929-4812-9e52-967878d66fa4"},"vehicle_type_id":"4","last_reported":1758863391,"current_range_meters":13600,"station_id":"ce4bhnh2rcd13ifvqgtg","pricing_plan_id":"cebpf4jnsgd1na2vs0mg"},{"bike_id":"4861d500-0933-4400-977e-022a40961908","system_id":"levelo_inurba_marseille","lat":43.317112,"lon":5.437027,"is_reserved":false,"is_disabled":false,"rental_uris":{"android":"levelo://app?vid=4861d500-0933-4400-977e-022a40961908","ios":"levelo://app?vid=4861d500-0933-4400-977e-022a40961908"},"vehicle_type_id":"4","last_reported":1758863391,"current_range_meters":14000,"station_id":"ce4bhp92rcd13ifvqhcg","pricing_plan_id":"cebpf4jnsgd1na2vs0mg"},{"bike_id":"fa5dfbf7-619d-48ac-ba12-d32ef757eea0","system_id":"levelo_inurba_marseille","lat":43.27321,"lon":5.39094,"is_reserved":false,"is_disabled":true,"rental_uris":{"android":"levelo://app?vid=fa5dfbf7-619d-48ac-ba12-d32ef757eea0","ios":"levelo://app?vid=fa5dfbf7-619d-48ac-ba12-d32ef757eea0"},"vehicle_type_id":"4","last_reported":1758863391,"current_range_meters":14000,"station_id":"ce4bhgp2rcd13ifvqfe0","pricing_plan_id":"cebpf4jnsgd1na2vs0mg"},{"bike_id":"b01b5bc6-6834-41fb-be97-f5b6fb7e9ec8","system_id":"levelo_inurba_marseille","lat":43.26313,"lon":5.39825,"is_reserved":false,"is_disabled":false,"rental_uris":{"android":"levelo://app?vid=b01b5bc6-6834-41fb-be97-f5b6fb7e9ec8","ios":"levelo://app?vid=b01b5bc6-6834-41fb-be97-f5b6fb7e9ec8"},"vehicle_type_id":"4","last_reported":1758863391,"current_range_meters":14000,"station_id":"","pricing_plan_id":"cebpf4jnsgd1na2vs0mg"},{"bike_id":"7232b12f-f7c2-4431-a1f7-cdc115eec78b","system_id":"levelo_inurba_marseille","lat":43.301492,"lon":5.380814,"is_reserved":false,"is_disabled":false,"rental_uris":{"android":"levelo://app?vid=7232b12f-f7c2-4431-a1f7-cdc115eec78b","ios":"levelo://app?vid=7232b12f-f7c2-4431-a1f7-cdc115eec78b"},"vehicle_type_id":"4","last_reported":1758863391,"current_range_meters":14000,"station_id":"ce4bgjp2rcd13ifvqbh0","pricing_plan_id":"cebpf4jnsgd1na2vs0mg"},{"bike_id":"ccabd35a-a691-4eed-acd2-dce907f56433","system_id":"levelo_inurba_marseille","lat":43.32355,"lon":5.40631,"is_reserved":false,"is_disabled":false,"rental_uris":{"android":"levelo://app?vid=ccabd35a-a691-4eed-acd2-dce907f56433","ios":"levelo://app?vid=ccabd35a-a691-4eed-acd2-dce907f56433"},"vehicle_type_id":"4","last_reported":1758863391,"current_range_meters":14000,"station_id":"ce4bhq92rcd13ifvqhjg","pricing_plan_id":"cebpf4jnsgd1na2vs0mg"},{"bike_id":"aff141d9-c694-43b4-9dab-000275e582bc","system_id":"levelo_inurba_marseille","lat":43.28486,"lon":5.38545,"is_reserved":false,"is_disabled":false,"rental_uris":{"android":"levelo://app?vid=aff141d9-c694-43b4-9dab-000275e582bc","ios":"levelo://app?vid=aff141d9-c694-43b4-9dab-000275e582bc"},"vehicle_type_id":"4","last_reported":1758863391,"current_range_meters":14000,"station_id":"ce4bh8p2rcd13ifvqeb0","pricing_plan_id":"cebpf4jnsgd1na2vs0mg"},{"bike_id":"a57b3feb-2354-42fe-87fd-e8fcee3a0260","system_id":"levelo_inurba_marseille","lat":43.26953,"lon":5.40241,"is_reserved":false,"is_disabled":false,"rental_uris":{"android":"levelo://app?vid=a57b3feb-2354-42fe-87fd-e8fcee3a0260","ios":"levelo://app?vid=a57b3feb-2354-42fe-87fd-e8fcee3a0260"},"vehicle_type_id":"4","last_reported":1758863391,"current_range_meters":14000,"station_id":"","pricing_plan_id":"cebpf4jnsgd1na2vs0mg"},{"bike_id":"75611fb7-df45-4d9f-9db0-a181136cc424","system_id":"levelo_inurba_marseille","lat":43.217711,"lon":5.346155,"is_reserved":false,"is_disabled":true,"rental_uris":{"android":"levelo://app?vid=75611fb7-df45-4d9f-9db0-a181136cc424","ios":"levelo://app?vid=75611fb7-df45-4d9f-9db0-a181136cc424"},"vehicle_type_id":"4","last_reported":1758863391,"current_range_meters":14400,"station_id":"st_cvj6r9ubvosntc0bgbag","pricing_plan_id":"cebpf4jnsgd1na2vs0mg"},{"bike_id":"9cd75594-b890-43d5-b5c5-ed9453840b17","system_id":"levelo_inurba_marseille","lat":43.30298,"lon":5.39207,"is_reserved":false,"is_disabled":false,"rental_uris":{"android":"levelo://app?vid=9cd75594-b890-43d5-b5c5-ed9453840b17","ios":"levelo://app?vid=9cd75594-b890-43d5-b5c5-ed9453840b17"},"vehicle_type_id":"4","last_reported":1758863391,"current_range_meters":14000,"station_id":"ce4bgkh2rcd13ifvqbk0","pricing_plan_id":"cebpf4jnsgd1na2vs0mg"},{"bike_id":"b4f47bc1-4d12-4541-a757-a859819c9d1c","system_id":"levelo_inurba_marseille","lat":43.276802,"lon":5.388803,"is_reserved":false,"is_disabled":true,"rental_uris":{"android":"levelo://app?vid=b4f47bc1-4d12-4541-a757-a859819c9d1c","ios":"levelo://app?vid=b4f47bc1-4d12-4541-a757-a859819c9d1c"},"vehicle_type_id":"4","last_reported":1758863391,"current_range_meters":14400,"station_id":"","pricing_plan_id":"cebpf4jnsgd1na2vs0mg"},{"bike_id":"057bba5a-4cb8-4c26-a0ba-cfb7049bca00","system_id":"levelo_inurba_marseille","lat":43.28149,"lon":5.42638,"is_reserved":false,"is_disabled":false,"rental_uris":{"android":"levelo://app?vid=057bba5a-4cb8-4c26-a0ba-cfb7049bca00","ios":"levelo://app?vid=057bba5a-4cb8-4c26-a0ba-cfb7049bca00"},"vehicle_type_id":"4","last_reported":1758863391,"current_range_meters":14400,"station_id":"ce4bhnh2rcd13ifvqgug","pricing_plan_id":"cebpf4jnsgd1na2vs0mg"},{"bike_id":"13be0879-670b-43f4-8fc1-8fbc1c4ccf9c","system_id":"levelo_inurba_marseille","lat":43.28416,"lon":5.34983,"is_reserved":false,"is_disabled":false,"rental_uris":{"android":"levelo://app?vid=13be0879-670b-43f4-8fc1-8fbc1c4ccf9c","ios":"levelo://app?vid=13be0879-670b-43f4-8fc1-8fbc1c4ccf9c"},"vehicle_type_id":"4","last_reported":1758863391,"current_range_meters":14400,"station_id":"ce4bhbh2rcd13ifvqepg","pricing_plan_id":"cebpf4jnsgd1na2vs0mg"},{"bike_id":"377142cb-267c-494b-99d9-6fe238c4e676","system_id":"levelo_inurba_marseille","lat":43.30987,"lon":5.40798,"is_reserved":false,"is_disabled":false,"rental_uris":{"android":"levelo://app?vid=377142cb-267c-494b-99d9-6fe238c4e676","ios":"levelo://app?vid=377142cb-267c-494b-99d9-6fe238c4e676"},"vehicle_type_id":"4","last_reported":1758863391,"current_range_meters":14400,"station_id":"","pricing_plan_id":"cebpf4jnsgd1na2vs0mg"},{"bike_id":"df649d25-1f44-4471-8cdd-9566da8ef9b9","system_id":"levelo_inurba_marseille","lat":43.32164,"lon":5.38782,"is_reserved":false,"is_disabled":false,"rental_uris":{"android":"levelo://app?vid=df649d25-1f44-4471-8cdd-9566da8ef9b9","ios":"levelo://app?vid=df649d25-1f44-4471-8cdd-9566da8ef9b9"},"vehicle_type_id":"4","last_reported":1758863391,"current_range_meters":14800,"station_id":"","pricing_plan_id":"cebpf4jnsgd1na2vs0mg"},{"bike_id":"6a5edbe2-66a8-4cc0-87c0-11d5220ca8c5","system_id":"levelo_inurba_marseille","lat":43.24173,"lon":5.3638,"is_reserved":false,"is_disabled":false,"rental_uris":{"android":"levelo://app?vid=6a5edbe2-66a8-4cc0-87c0-11d5220ca8c5","ios":"levelo://app?vid=6a5edbe2-66a8-4cc0-87c0-11d5220ca8c5"},"vehicle_type_id":"4","last_reported":1758863391,"current_range_meters":14800,"station_id":"cpo36qri1sfpv3e86is0","pricing_plan_id":"cebpf4jnsgd1na2vs0mg"},{"bike_id":"6f97756d-103a-472e-9ee0-e1b6357d8727","system_id":"levelo_inurba_marseille","lat":43.30858,"lon":5.39678,"is_reserved":false,"is_disabled":false,"rental_uris":{"android":"levelo://app?vid=6f97756d-103a-472e-9ee0-e1b6357d8727","ios":"levelo://app?vid=6f97756d-103a-472e-9ee0-e1b6357d8727"},"vehicle_type_id":"4","last_reported":1758863391,"current_range_meters":14800,"station_id":"","pricing_plan_id":"cebpf4jnsgd1na2vs0mg"},{"bike_id":"280349c2-7d75-4732-844a-272770d12d07","system_id":"levelo_inurba_marseille","lat":43.24952,"lon":5.40494,"is_reserved":false,"is_disabled":false,"rental_uris":{"android":"levelo://app?vid=280349c2-7d75-4732-844a-272770d12d07","ios":"levelo://app?vid=280349c2-7d75-4732-844a-272770d12d07"},"vehicle_type_id":"4","last_reported":1758863391,"current_range_meters":14800,"station_id":"st_d2ngiaodas8pm72gd1h0","pricing_plan_id":"cebpf4jnsgd1na2vs0mg"},{"bike_id":"b2219950-bb22-4648-9ba4-18cd9cf365ce","system_id":"levelo_inurba_marseille","lat":43.25111,"lon":5.39513,"is_reserved":false,"is_disabled":false,"rental_uris":{"android":"levelo://app?vid=b2219950-bb22-4648-9ba4-18cd9cf365ce","ios":"levelo://app?vid=b2219950-bb22-4648-9ba4-18cd9cf365ce"},"vehicle_type_id":"4","last_reported":1758863391,"current_range_meters":14800,"station_id":"ce4bhm12rcd13ifvqgkg","pricing_plan_id":"cebpf4jnsgd1na2vs0mg"},{"bike_id":"1a2d7582-f94e-4cbf-a752-678640f59992","system_id":"levelo_inurba_marseille","lat":43.28345,"lon":5.38114,"is_reserved":false,"is_disabled":false,"rental_uris":{"android":"levelo://app?vid=1a2d7582-f94e-4cbf-a752-678640f59992","ios":"levelo://app?vid=1a2d7582-f94e-4cbf-a752-678640f59992"},"vehicle_type_id":"4","last_reported":1758863391,"current_range_meters":14800,"station_id":"ce4bh412rcd13ifvqdr0","pricing_plan_id":"cebpf4jnsgd1na2vs0mg"},{"bike_id":"262dc574-a1cb-4c72-8c4c-82b40860fa6d","system_id":"levelo_inurba_marseille","lat":43.29936,"lon":5.3747,"is_reserved":false,"is_disabled":true,"rental_uris":{"android":"levelo://app?vid=262dc574-a1cb-4c72-8c4c-82b40860fa6d","ios":"levelo://app?vid=262dc574-a1cb-4c72-8c4c-82b40860fa6d"},"vehicle_type_id":"4","last_reported":1758863391,"current_range_meters":14800,"station_id":"ce4bgjh2rcd13ifvqbg0","pricing_plan_id":"cebpf4jnsgd1na2vs0mg"},{"bike_id":"8baeac13-7e80-456d-83aa-12e0372d0df5","system_id":"levelo_inurba_marseille","lat":43.32474,"lon":5.37549,"is_reserved":false,"is_disabled":false,"rental_uris":{"android":"levelo://app?vid=8baeac13-7e80-456d-83aa-12e0372d0df5","ios":"levelo://app?vid=8baeac13-7e80-456d-83aa-12e0372d0df5"},"vehicle_type_id":"4","last_reported":1758863391,"current_range_meters":14800,"station_id":"","pricing_plan_id":"cebpf4jnsgd1na2vs0mg"},{"bike_id":"327c041e-5c9e-4b0d-a97c-a2dbaab036ae","system_id":"levelo_inurba_marseille","lat":43.32813,"lon":5.4113,"is_reserved":false,"is_disabled":false,"rental_uris":{"android":"levelo://app?vid=327c041e-5c9e-4b0d-a97c-a2dbaab036ae","ios":"levelo://app?vid=327c041e-5c9e-4b0d-a97c-a2dbaab036ae"},"vehicle_type_id":"4","last_reported":1758863391,"current_range_meters":15200,"station_id":"","pricing_plan_id":"cebpf4jnsgd1na2vs0mg"},{"bike_id":"ddfc760f-fcb9-4a30-a293-16cfa589da65","system_id":"levelo_inurba_marseille","lat":43.27842,"lon":5.40671,"is_reserved":false,"is_disabled":false,"rental_uris":{"android":"levelo://app?vid=ddfc760f-fcb9-4a30-a293-16cfa589da65","ios":"levelo://app?vid=ddfc760f-fcb9-4a30-a293-16cfa589da65"},"vehicle_type_id":"4","last_reported":1758863391,"current_range_meters":15200,"station_id":"","pricing_plan_id":"cebpf4jnsgd1na2vs0mg"},{"bike_id":"bb4dbffa-d5e5-4e4b-8d73-657c84f7e60b","system_id":"levelo_inurba_marseille","lat":43.24992,"lon":5.38935,"is_reserved":false,"is_disabled":false,"rental_uris":{"android":"levelo://app?vid=bb4dbffa-d5e5-4e4b-8d73-657c84f7e60b","ios":"levelo://app?vid=bb4dbffa-d5e5-4e4b-8d73-657c84f7e60b"},"vehicle_type_id":"4","last_reported":1758863391,"current_range_meters":15200,"station_id":"ce4bhgp2rcd13ifvqfd0","pricing_plan_id":"cebpf4jnsgd1na2vs0mg"},{"bike_id":"08fe2b08-b3fa-43f8-ae73-04061f76318d","system_id":"levelo_inurba_marseille","lat":43.305552,"lon":5.365395,"is_reserved":false,"is_disabled":false,"rental_uris":{"android":"levelo://app?vid=08fe2b08-b3fa-43f8-ae73-04061f76318d","ios":"levelo://app?vid=08fe2b08-b3fa-43f8-ae73-04061f76318d"},"vehicle_type_id":"4","last_reported":1758863391,"current_range_meters":15200,"station_id":"","pricing_plan_id":"cebpf4jnsgd1na2vs0mg"},{"bike_id":"c110996d-22e7-4035-9eef-b37954d27511","system_id":"levelo_inurba_marseille","lat":43.23195,"lon":5.35555,"is_reserved":false,"is_disabled":false,"rental_uris":{"android":"levelo://app?vid=c110996d-22e7-4035-9eef-b37954d27511","ios":"levelo://app?vid=c110996d-22e7-4035-9eef-b37954d27511"},"vehicle_type_id":"4","last_reported":1758863391,"current_range_meters":15200,"station_id":"ce4bhu92rcd13ifvqi70","pricing_plan_id":"cebpf4jnsgd1na2vs0mg"},{"bike_id":"1d5d14cf-15e7-4470-bff9-613bb9abe120","system_id":"levelo_inurba_marseille","lat":43.33495,"lon":5.42076,"is_reserved":false,"is_disabled":false,"rental_uris":{"android":"levelo://app?vid=1d5d14cf-15e7-4470-bff9-613bb9abe120","ios":"levelo://app?vid=1d5d14cf-15e7-4470-bff9-613bb9abe120"},"vehicle_type_id":"4","last_reported":1758863391,"current_range_meters":15200,"station_id":"","pricing_plan_id":"cebpf4jnsgd1na2vs0mg"},{"bike_id":"208d8654-3228-40c7-b9c8-8618c2e5fa52","system_id":"levelo_inurba_marseille","lat":43.28651,"lon":5.38286,"is_reserved":false,"is_disabled":false,"rental_uris":{"android":"levelo://app?vid=208d8654-3228-40c7-b9c8-8618c2e5fa52","ios":"levelo://app?vid=208d8654-3228-40c7-b9c8-8618c2e5fa52"},"vehicle_type_id":"4","last_reported":1758863391,"current_range_meters":15200,"station_id":"","pricing_plan_id":"cebpf4jnsgd1na2vs0mg"},{"bike_id":"10b8d871-07e9-4114-9eb9-6bcce40e7beb","system_id":"levelo_inurba_marseille","lat":43.27045,"lon":5.392226,"is_reserved":false,"is_disabled":false,"rental_uris":{"android":"levelo://app?vid=10b8d871-07e9-4114-9eb9-6bcce40e7beb","ios":"levelo://app?vid=10b8d871-07e9-4114-9eb9-6bcce40e7beb"},"vehicle_type_id":"4","last_reported":1758863391,"current_range_meters":15200,"station_id":"ce4bhe12rcd13ifvqf30","pricing_plan_id":"cebpf4jnsgd1na2vs0mg"},{"bike_id":"5d944089-7d4d-485d-8e5e-fe9c9b3dd7de","system_id":"levelo_inurba_marseille","lat":43.2255,"lon":5.41639,"is_reserved":false,"is_disabled":false,"rental_uris":{"android":"levelo://app?vid=5d944089-7d4d-485d-8e5e-fe9c9b3dd7de","ios":"levelo://app?vid=5d944089-7d4d-485d-8e5e-fe9c9b3dd7de"},"vehicle_type_id":"4","last_reported":1758863391,"current_range_meters":15200,"station_id":"st_d2o4gvlbi1j2169b742g","pricing_plan_id":"cebpf4jnsgd1na2vs0mg"},{"bike_id":"163edcb6-bf91-479a-b98e-14bf72d0fd66","system_id":"levelo_inurba_marseille","lat":43.30466,"lon":5.37911,"is_reserved":false,"is_disabled":false,"rental_uris":{"android":"levelo://app?vid=163edcb6-bf91-479a-b98e-14bf72d0fd66","ios":"levelo://app?vid=163edcb6-bf91-479a-b98e-14bf72d0fd66"},"vehicle_type_id":"4","last_reported":1758863391,"current_range_meters":16000,"station_id":"ce4bgup2rcd13ifvqcn0","pricing_plan_id":"cebpf4jnsgd1na2vs0mg"},{"bike_id":"08292ac0-f4a0-4778-9703-5ac015ee1e3a","system_id":"levelo_inurba_marseille","lat":43.24626,"lon":5.43148,"is_reserved":false,"is_disabled":false,"rental_uris":{"android":"levelo://app?vid=08292ac0-f4a0-4778-9703-5ac015ee1e3a","ios":"levelo://app?vid=08292ac0-f4a0-4778-9703-5ac015ee1e3a"},"vehicle_type_id":"4","last_reported":1758863391,"current_range_meters":16000,"station_id":"st_d2m6c4gdas8pm72e190g","pricing_plan_id":"cebpf4jnsgd1na2vs0mg"},{"bike_id":"6ee917b5-7410-457c-9b85-88c720c02d38","system_id":"levelo_inurba_marseille","lat":43.30153,"lon":5.3809,"is_reserved":false,"is_disabled":false,"rental_uris":{"android":"levelo://app?vid=6ee917b5-7410-457c-9b85-88c720c02d38","ios":"levelo://app?vid=6ee917b5-7410-457c-9b85-88c720c02d38"},"vehicle_type_id":"4","last_reported":1758863391,"current_range_meters":16000,"station_id":"ce4bgjp2rcd13ifvqbh0","pricing_plan_id":"cebpf4jnsgd1na2vs0mg"},{"bike_id":"7d386e92-0637-4894-be92-264d6a72c11e","system_id":"levelo_inurba_marseille","lat":43.28425,"lon":5.35,"is_reserved":false,"is_disabled":false,"rental_uris":{"android":"levelo://app?vid=7d386e92-0637-4894-be92-264d6a72c11e","ios":"levelo://app?vid=7d386e92-0637-4894-be92-264d6a72c11e"},"vehicle_type_id":"4","last_reported":1758863391,"current_range_meters":16000,"station_id":"ce4bhbh2rcd13ifvqepg","pricing_plan_id":"cebpf4jnsgd1na2vs0mg"},{"bike_id":"4aa14a85-ae13-4984-9397-29881084539d","system_id":"levelo_inurba_marseille","lat":43.31115,"lon":5.37776,"is_reserved":false,"is_disabled":false,"rental_uris":{"android":"levelo://app?vid=4aa14a85-ae13-4984-9397-29881084539d","ios":"levelo://app?vid=4aa14a85-ae13-4984-9397-29881084539d"},"vehicle_type_id":"4","last_reported":1758863391,"current_range_meters":16000,"station_id":"ce4bgt92rcd13ifvqcg0","pricing_plan_id":"cebpf4jnsgd1na2vs0mg"},{"bike_id":"a8ce7b19-cf75-4418-abe6-f8b489742469","system_id":"levelo_inurba_marseille","lat":43.31994,"lon":5.38147,"is_reserved":false,"is_disabled":false,"rental_uris":{"android":"levelo://app?vid=a8ce7b19-cf75-4418-abe6-f8b489742469","ios":"levelo://app?vid=a8ce7b19-cf75-4418-abe6-f8b489742469"},"vehicle_type_id":"4","last_reported":1758863391,"current_range_meters":16000,"station_id":"ce4bhr12rcd13ifvqhpg","pricing_plan_id":"cebpf4jnsgd1na2vs0mg"},{"bike_id":"6ff62d79-81a4-487f-8694-4fb22f54a494","system_id":"levelo_inurba_marseille","lat":43.324778,"lon":5.391771,"is_reserved":false,"is_disabled":false,"rental_uris":{"android":"levelo://app?vid=6ff62d79-81a4-487f-8694-4fb22f54a494","ios":"levelo://app?vid=6ff62d79-81a4-487f-8694-4fb22f54a494"},"vehicle_type_id":"4","last_reported":1758863391,"current_range_meters":16000,"station_id":"","pricing_plan_id":"cebpf4jnsgd1na2vs0mg"},{"bike_id":"fc030496-0ba8-4422-b8c1-0200450056d7","system_id":"levelo_inurba_marseille","lat":43.270709,"lon":5.422778,"is_reserved":false,"is_disabled":false,"rental_uris":{"android":"levelo://app?vid=fc030496-0ba8-4422-b8c1-0200450056d7","ios":"levelo://app?vid=fc030496-0ba8-4422-b8c1-0200450056d7"},"vehicle_type_id":"4","last_reported":1758863391,"current_range_meters":16000,"station_id":"ce4bhk92rcd13ifvqgb0","pricing_plan_id":"cebpf4jnsgd1na2vs0mg"},{"bike_id":"ee6fd5ba-0d32-4f71-aa20-6717bb3bccdd","system_id":"levelo_inurba_marseille","lat":43.305866,"lon":5.393534,"is_reserved":false,"is_disabled":false,"rental_uris":{"android":"levelo://app?vid=ee6fd5ba-0d32-4f71-aa20-6717bb3bccdd","ios":"levelo://app?vid=ee6fd5ba-0d32-4f71-aa20-6717bb3bccdd"},"vehicle_type_id":"4","last_reported":1758863391,"current_range_meters":16000,"station_id":"ce4bh0p2rcd13ifvqd80","pricing_plan_id":"cebpf4jnsgd1na2vs0mg"},{"bike_id":"c428f80b-bd6a-4e94-a7c9-eacff36a382d","system_id":"levelo_inurba_marseille","lat":43.28841,"lon":5.35876,"is_reserved":false,"is_disabled":false,"rental_uris":{"android":"levelo://app?vid=c428f80b-bd6a-4e94-a7c9-eacff36a382d","ios":"levelo://app?vid=c428f80b-bd6a-4e94-a7c9-eacff36a382d"},"vehicle_type_id":"4","last_reported":1758863391,"current_range_meters":16000,"station_id":"ce4bhb12rcd13ifvqem0","pricing_plan_id":"cebpf4jnsgd1na2vs0mg"},{"bike_id":"3f6b9bfb-64f4-45b4-b513-a44204aa7d08","system_id":"levelo_inurba_marseille","lat":43.23197,"lon":5.39986,"is_reserved":false,"is_disabled":false,"rental_uris":{"android":"levelo://app?vid=3f6b9bfb-64f4-45b4-b513-a44204aa7d08","ios":"levelo://app?vid=3f6b9bfb-64f4-45b4-b513-a44204aa7d08"},"vehicle_type_id":"4","last_reported":1758863391,"current_range_meters":16400,"station_id":"ce4bhn12rcd13ifvqgqg","pricing_plan_id":"cebpf4jnsgd1na2vs0mg"},{"bike_id":"467b4306-5fd8-484e-9a4b-cf8eb50151ba","system_id":"levelo_inurba_marseille","lat":43.32267,"lon":5.38259,"is_reserved":false,"is_disabled":false,"rental_uris":{"android":"levelo://app?vid=467b4306-5fd8-484e-9a4b-cf8eb50151ba","ios":"levelo://app?vid=467b4306-5fd8-484e-9a4b-cf8eb50151ba"},"vehicle_type_id":"4","last_reported":1758863391,"current_range_meters":16400,"station_id":"ce4bhr12rcd13ifvqhqg","pricing_plan_id":"cebpf4jnsgd1na2vs0mg"},{"bike_id":"423da9fd-8512-4987-9b11-031ee92e45f6","system_id":"levelo_inurba_marseille","lat":43.24663,"lon":5.38173,"is_reserved":false,"is_disabled":false,"rental_uris":{"android":"levelo://app?vid=423da9fd-8512-4987-9b11-031ee92e45f6","ios":"levelo://app?vid=423da9fd-8512-4987-9b11-031ee92e45f6"},"vehicle_type_id":"4","last_reported":1758863391,"current_range_meters":16400,"station_id":"ce4bhih2rcd13ifvqfr0","pricing_plan_id":"cebpf4jnsgd1na2vs0mg"},{"bike_id":"2f21c966-7d37-442a-8e27-8939d88c2d2b","system_id":"levelo_inurba_marseille","lat":43.31113,"lon":5.37789,"is_reserved":false,"is_disabled":false,"rental_uris":{"android":"levelo://app?vid=2f21c966-7d37-442a-8e27-8939d88c2d2b","ios":"levelo://app?vid=2f21c966-7d37-442a-8e27-8939d88c2d2b"},"vehicle_type_id":"4","last_reported":1758863391,"current_range_meters":16400,"station_id":"ce4bgt92rcd13ifvqcg0","pricing_plan_id":"cebpf4jnsgd1na2vs0mg"},{"bike_id":"47b9cece-62de-43f0-80d8-9147224e7ea6","system_id":"levelo_inurba_marseille","lat":43.30164,"lon":5.3808,"is_reserved":false,"is_disabled":false,"rental_uris":{"android":"levelo://app?vid=47b9cece-62de-43f0-80d8-9147224e7ea6","ios":"levelo://app?vid=47b9cece-62de-43f0-80d8-9147224e7ea6"},"vehicle_type_id":"4","last_reported":1758863391,"current_range_meters":16400,"station_id":"ce4bgjp2rcd13ifvqbh0","pricing_plan_id":"cebpf4jnsgd1na2vs0mg"},{"bike_id":"9a4f92ed-e086-4038-a651-bbe0613f80bd","system_id":"levelo_inurba_marseille","lat":43.22572,"lon":5.41623,"is_reserved":false,"is_disabled":false,"rental_uris":{"android":"levelo://app?vid=9a4f92ed-e086-4038-a651-bbe0613f80bd","ios":"levelo://app?vid=9a4f92ed-e086-4038-a651-bbe0613f80bd"},"vehicle_type_id":"4","last_reported":1758863391,"current_range_meters":16400,"station_id":"st_d2o4gvlbi1j2169b742g","pricing_plan_id":"cebpf4jnsgd1na2vs0mg"},{"bike_id":"ece36685-817e-47c1-b130-8af29913096b","system_id":"levelo_inurba_marseille","lat":43.292835,"lon":5.401144,"is_reserved":false,"is_disabled":false,"rental_uris":{"android":"levelo://app?vid=ece36685-817e-47c1-b130-8af29913096b","ios":"levelo://app?vid=ece36685-817e-47c1-b130-8af29913096b"},"vehicle_type_id":"4","last_reported":1758863391,"current_range_meters":16400,"station_id":"","pricing_plan_id":"cebpf4jnsgd1na2vs0mg"},{"bike_id":"37ecf219-142b-424d-a540-aaddf3ba94ba","system_id":"levelo_inurba_marseille","lat":43.28414,"lon":5.37521,"is_reserved":false,"is_disabled":false,"rental_uris":{"android":"levelo://app?vid=37ecf219-142b-424d-a540-aaddf3ba94ba","ios":"levelo://app?vid=37ecf219-142b-424d-a540-aaddf3ba94ba"},"vehicle_type_id":"4","last_reported":1758863391,"current_range_meters":16400,"station_id":"ce4bh412rcd13ifvqds0","pricing_plan_id":"cebpf4jnsgd1na2vs0mg"},{"bike_id":"c42002d1-cbd7-45d3-8c8d-84ee03d010f1","system_id":"levelo_inurba_marseille","lat":43.28866,"lon":5.42511,"is_reserved":false,"is_disabled":false,"rental_uris":{"android":"levelo://app?vid=c42002d1-cbd7-45d3-8c8d-84ee03d010f1","ios":"levelo://app?vid=c42002d1-cbd7-45d3-8c8d-84ee03d010f1"},"vehicle_type_id":"4","last_reported":1758863391,"current_range_meters":16400,"station_id":"","pricing_plan_id":"cebpf4jnsgd1na2vs0mg"},{"bike_id":"ca5b8071-3505-4e43-9710-fe6ca0bbf864","system_id":"levelo_inurba_marseille","lat":43.26571,"lon":5.40355,"is_reserved":false,"is_disabled":false,"rental_uris":{"android":"levelo://app?vid=ca5b8071-3505-4e43-9710-fe6ca0bbf864","ios":"levelo://app?vid=ca5b8071-3505-4e43-9710-fe6ca0bbf864"},"vehicle_type_id":"4","last_reported":1758863391,"current_range_meters":16400,"station_id":"ce4bhmp2rcd13ifvqgng","pricing_plan_id":"cebpf4jnsgd1na2vs0mg"},{"bike_id":"b2fc922b-ff47-4f68-9531-9abaa818a9ad","system_id":"levelo_inurba_marseille","lat":43.24947,"lon":5.40488,"is_reserved":false,"is_disabled":false,"rental_uris":{"android":"levelo://app?vid=b2fc922b-ff47-4f68-9531-9abaa818a9ad","ios":"levelo://app?vid=b2fc922b-ff47-4f68-9531-9abaa818a9ad"},"vehicle_type_id":"4","last_reported":1758863391,"current_range_meters":16400,"station_id":"st_d2ngiaodas8pm72gd1h0","pricing_plan_id":"cebpf4jnsgd1na2vs0mg"},{"bike_id":"c981586d-0e51-4620-83e3-680b9c73b4e8","system_id":"levelo_inurba_marseille","lat":43.29569,"lon":5.39972,"is_reserved":false,"is_disabled":false,"rental_uris":{"android":"levelo://app?vid=c981586d-0e51-4620-83e3-680b9c73b4e8","ios":"levelo://app?vid=c981586d-0e51-4620-83e3-680b9c73b4e8"},"vehicle_type_id":"4","last_reported":1758863391,"current_range_meters":16400,"station_id":"ce4bh312rcd13ifvqdj0","pricing_plan_id":"cebpf4jnsgd1na2vs0mg"},{"bike_id":"0de847a2-59aa-4ed3-a6f3-b8ab4a32ef36","system_id":"levelo_inurba_marseille","lat":43.29571,"lon":5.39979,"is_reserved":false,"is_disabled":false,"rental_uris":{"android":"levelo://app?vid=0de847a2-59aa-4ed3-a6f3-b8ab4a32ef36","ios":"levelo://app?vid=0de847a2-59aa-4ed3-a6f3-b8ab4a32ef36"},"vehicle_type_id":"4","last_reported":1758863391,"current_range_meters":16400,"station_id":"ce4bh312rcd13ifvqdj0","pricing_plan_id":"cebpf4jnsgd1na2vs0mg"},{"bike_id":"647d31be-c59f-4e15-9e30-6448c2e2351e","system_id":"levelo_inurba_marseille","lat":43.28847,"lon":5.35839,"is_reserved":false,"is_disabled":false,"rental_uris":{"android":"levelo://app?vid=647d31be-c59f-4e15-9e30-6448c2e2351e","ios":"levelo://app?vid=647d31be-c59f-4e15-9e30-6448c2e2351e"},"vehicle_type_id":"4","last_reported":1758863391,"current_range_meters":16400,"station_id":"ce4bhb12rcd13ifvqem0","pricing_plan_id":"cebpf4jnsgd1na2vs0mg"},{"bike_id":"175ed984-4779-4b98-920a-039ca300eaa4","system_id":"levelo_inurba_marseille","lat":43.273,"lon":5.40826,"is_reserved":false,"is_disabled":false,"rental_uris":{"android":"levelo://app?vid=175ed984-4779-4b98-920a-039ca300eaa4","ios":"levelo://app?vid=175ed984-4779-4b98-920a-039ca300eaa4"},"vehicle_type_id":"4","last_reported":1758863391,"current_range_meters":16800,"station_id":"","pricing_plan_id":"cebpf4jnsgd1na2vs0mg"},{"bike_id":"1f06a3e3-12af-42ce-879d-764cd221ec77","system_id":"levelo_inurba_marseille","lat":43.28108,"lon":5.3783,"is_reserved":false,"is_disabled":false,"rental_uris":{"android":"levelo://app?vid=1f06a3e3-12af-42ce-879d-764cd221ec77","ios":"levelo://app?vid=1f06a3e3-12af-42ce-879d-764cd221ec77"},"vehicle_type_id":"4","last_reported":1758863391,"current_range_meters":16800,"station_id":"ce4bha12rcd13ifvqee0","pricing_plan_id":"cebpf4jnsgd1na2vs0mg"},{"bike_id":"03d0b2ac-e3dd-4bbc-936c-40e7e3a2fb57","system_id":"levelo_inurba_marseille","lat":43.261965,"lon":5.374449,"is_reserved":false,"is_disabled":false,"rental_uris":{"android":"levelo://app?vid=03d0b2ac-e3dd-4bbc-936c-40e7e3a2fb57","ios":"levelo://app?vid=03d0b2ac-e3dd-4bbc-936c-40e7e3a2fb57"},"vehicle_type_id":"4","last_reported":1758863391,"current_range_meters":16800,"station_id":"ce4bhgp2rcd13ifvqfc0","pricing_plan_id":"cebpf4jnsgd1na2vs0mg"},{"bike_id":"353d16a4-65e9-4896-ad53-df82bb14ace3","system_id":"levelo_inurba_marseille","lat":43.284279,"lon":5.349851,"is_reserved":false,"is_disabled":false,"rental_uris":{"android":"levelo://app?vid=353d16a4-65e9-4896-ad53-df82bb14ace3","ios":"levelo://app?vid=353d16a4-65e9-4896-ad53-df82bb14ace3"},"vehicle_type_id":"4","last_reported":1758863391,"current_range_meters":16800,"station_id":"ce4bhbh2rcd13ifvqepg","pricing_plan_id":"cebpf4jnsgd1na2vs0mg"},{"bike_id":"3f788679-5ed2-4d65-b228-944ec647b681","system_id":"levelo_inurba_marseille","lat":43.262295,"lon":5.40445,"is_reserved":false,"is_disabled":false,"rental_uris":{"android":"levelo://app?vid=3f788679-5ed2-4d65-b228-944ec647b681","ios":"levelo://app?vid=3f788679-5ed2-4d65-b228-944ec647b681"},"vehicle_type_id":"4","last_reported":1758863391,"current_range_meters":16800,"station_id":"ce4bhmh2rcd13ifvqgmg","pricing_plan_id":"cebpf4jnsgd1na2vs0mg"},{"bike_id":"85782661-163d-4a8b-b5a4-1f0a766faaa2","system_id":"levelo_inurba_marseille","lat":43.246359,"lon":5.431436,"is_reserved":false,"is_disabled":false,"rental_uris":{"android":"levelo://app?vid=85782661-163d-4a8b-b5a4-1f0a766faaa2","ios":"levelo://app?vid=85782661-163d-4a8b-b5a4-1f0a766faaa2"},"vehicle_type_id":"4","last_reported":1758863391,"current_range_meters":16800,"station_id":"st_d2m6c4gdas8pm72e190g","pricing_plan_id":"cebpf4jnsgd1na2vs0mg"},{"bike_id":"46a648bf-42a5-4fc5-b881-b77e8e43b612","system_id":"levelo_inurba_marseille","lat":43.22925,"lon":5.3539,"is_reserved":false,"is_disabled":false,"rental_uris":{"android":"levelo://app?vid=46a648bf-42a5-4fc5-b881-b77e8e43b612","ios":"levelo://app?vid=46a648bf-42a5-4fc5-b881-b77e8e43b612"},"vehicle_type_id":"4","last_reported":1758863391,"current_range_meters":16800,"station_id":"cpo3532slgdg3j2ikp40","pricing_plan_id":"cebpf4jnsgd1na2vs0mg"},{"bike_id":"b0e9c894-5414-4237-b0c8-32f0e91cae29","system_id":"levelo_inurba_marseille","lat":43.315402,"lon":5.380302,"is_reserved":false,"is_disabled":false,"rental_uris":{"android":"levelo://app?vid=b0e9c894-5414-4237-b0c8-32f0e91cae29","ios":"levelo://app?vid=b0e9c894-5414-4237-b0c8-32f0e91cae29"},"vehicle_type_id":"4","last_reported":1758863391,"current_range_meters":16800,"station_id":"ce4bhsp2rcd13ifvqi50","pricing_plan_id":"cebpf4jnsgd1na2vs0mg"},{"bike_id":"63d52c35-c9c9-44eb-9780-1b2f9145123b","system_id":"levelo_inurba_marseille","lat":43.29627,"lon":5.377037,"is_reserved":false,"is_disabled":false,"rental_uris":{"android":"levelo://app?vid=63d52c35-c9c9-44eb-9780-1b2f9145123b","ios":"levelo://app?vid=63d52c35-c9c9-44eb-9780-1b2f9145123b"},"vehicle_type_id":"4","last_reported":1758863391,"current_range_meters":17200,"station_id":"","pricing_plan_id":"cebpf4jnsgd1na2vs0mg"},{"bike_id":"47197d17-a903-48d9-a5ca-da961df1da03","system_id":"levelo_inurba_marseille","lat":43.28096,"lon":5.378594,"is_reserved":false,"is_disabled":false,"rental_uris":{"android":"levelo://app?vid=47197d17-a903-48d9-a5ca-da961df1da03","ios":"levelo://app?vid=47197d17-a903-48d9-a5ca-da961df1da03"},"vehicle_type_id":"4","last_reported":1758863391,"current_range_meters":17200,"station_id":"ce4bha12rcd13ifvqee0","pricing_plan_id":"cebpf4jnsgd1na2vs0mg"},{"bike_id":"4a134abe-eeb4-464d-9784-77fc57760245","system_id":"levelo_inurba_marseille","lat":43.29455,"lon":5.39752,"is_reserved":false,"is_disabled":false,"rental_uris":{"android":"levelo://app?vid=4a134abe-eeb4-464d-9784-77fc57760245","ios":"levelo://app?vid=4a134abe-eeb4-464d-9784-77fc57760245"},"vehicle_type_id":"4","last_reported":1758863391,"current_range_meters":17200,"station_id":"ce4bhmp2rcd13ifvqgng","pricing_plan_id":"cebpf4jnsgd1na2vs0mg"},{"bike_id":"5f19f95f-adbe-402f-a3d0-1447b125f9d6","system_id":"levelo_inurba_marseille","lat":43.24808,"lon":5.37447,"is_reserved":false,"is_disabled":false,"rental_uris":{"android":"levelo://app?vid=5f19f95f-adbe-402f-a3d0-1447b125f9d6","ios":"levelo://app?vid=5f19f95f-adbe-402f-a3d0-1447b125f9d6"},"vehicle_type_id":"4","last_reported":1758863391,"current_range_meters":17200,"station_id":"ce4bhgh2rcd13ifvqfb0","pricing_plan_id":"cebpf4jnsgd1na2vs0mg"},{"bike_id":"fee74e98-eb52-4f66-a612-109c75f34aa6","system_id":"levelo_inurba_marseille","lat":43.29599,"lon":5.37948,"is_reserved":false,"is_disabled":false,"rental_uris":{"android":"levelo://app?vid=fee74e98-eb52-4f66-a612-109c75f34aa6","ios":"levelo://app?vid=fee74e98-eb52-4f66-a612-109c75f34aa6"},"vehicle_type_id":"4","last_reported":1758863391,"current_range_meters":17200,"station_id":"","pricing_plan_id":"cebpf4jnsgd1na2vs0mg"},{"bike_id":"2a416e7a-1803-402e-9523-74bfe690bd54","system_id":"levelo_inurba_marseille","lat":43.32365,"lon":5.36767,"is_reserved":false,"is_disabled":false,"rental_uris":{"android":"levelo://app?vid=2a416e7a-1803-402e-9523-74bfe690bd54","ios":"levelo://app?vid=2a416e7a-1803-402e-9523-74bfe690bd54"},"vehicle_type_id":"4","last_reported":1758863391,"current_range_meters":17200,"station_id":"ce4bhsh2rcd13ifvqi2g","pricing_plan_id":"cebpf4jnsgd1na2vs0mg"},{"bike_id":"c973dbb4-81a7-4731-a850-2666ddbc48bd","system_id":"levelo_inurba_marseille","lat":43.281619,"lon":5.426406,"is_reserved":false,"is_disabled":false,"rental_uris":{"android":"levelo://app?vid=c973dbb4-81a7-4731-a850-2666ddbc48bd","ios":"levelo://app?vid=c973dbb4-81a7-4731-a850-2666ddbc48bd"},"vehicle_type_id":"4","last_reported":1758863391,"current_range_meters":17600,"station_id":"ce4bhnh2rcd13ifvqgug","pricing_plan_id":"cebpf4jnsgd1na2vs0mg"},{"bike_id":"43d3e43e-b792-4604-865a-4db1d5f5a46a","system_id":"levelo_inurba_marseille","lat":43.25114,"lon":5.39538,"is_reserved":false,"is_disabled":true,"rental_uris":{"android":"levelo://app?vid=43d3e43e-b792-4604-865a-4db1d5f5a46a","ios":"levelo://app?vid=43d3e43e-b792-4604-865a-4db1d5f5a46a"},"vehicle_type_id":"4","last_reported":1758863391,"current_range_meters":17600,"station_id":"ce4bhm12rcd13ifvqgkg","pricing_plan_id":"cebpf4jnsgd1na2vs0mg"},{"bike_id":"7f09bc43-02a6-468a-9182-731c83281b4a","system_id":"levelo_inurba_marseille","lat":43.26372,"lon":5.37515,"is_reserved":false,"is_disabled":false,"rental_uris":{"android":"levelo://app?vid=7f09bc43-02a6-468a-9182-731c83281b4a","ios":"levelo://app?vid=7f09bc43-02a6-468a-9182-731c83281b4a"},"vehicle_type_id":"4","last_reported":1758863391,"current_range_meters":17600,"station_id":"","pricing_plan_id":"cebpf4jnsgd1na2vs0mg"},{"bike_id":"01bf55f2-4ac6-46f6-8504-3267bf31e1a6","system_id":"levelo_inurba_marseille","lat":43.2973,"lon":5.381787,"is_reserved":false,"is_disabled":false,"rental_uris":{"android":"levelo://app?vid=01bf55f2-4ac6-46f6-8504-3267bf31e1a6","ios":"levelo://app?vid=01bf55f2-4ac6-46f6-8504-3267bf31e1a6"},"vehicle_type_id":"4","last_reported":1758863391,"current_range_meters":17600,"station_id":"","pricing_plan_id":"cebpf4jnsgd1na2vs0mg"},{"bike_id":"8cf842e4-76c1-4a82-ad31-66529da65dba","system_id":"levelo_inurba_marseille","lat":43.26683,"lon":5.40248,"is_reserved":false,"is_disabled":false,"rental_uris":{"android":"levelo://app?vid=8cf842e4-76c1-4a82-ad31-66529da65dba","ios":"levelo://app?vid=8cf842e4-76c1-4a82-ad31-66529da65dba"},"vehicle_type_id":"4","last_reported":1758863391,"current_range_meters":18000,"station_id":"","pricing_plan_id":"cebpf4jnsgd1na2vs0mg"},{"bike_id":"ff80ace9-5bb1-4400-92db-811f67417271","system_id":"levelo_inurba_marseille","lat":43.24962,"lon":5.40487,"is_reserved":false,"is_disabled":false,"rental_uris":{"android":"levelo://app?vid=ff80ace9-5bb1-4400-92db-811f67417271","ios":"levelo://app?vid=ff80ace9-5bb1-4400-92db-811f67417271"},"vehicle_type_id":"4","last_reported":1758863391,"current_range_meters":18000,"station_id":"st_d2ngiaodas8pm72gd1h0","pricing_plan_id":"cebpf4jnsgd1na2vs0mg"},{"bike_id":"3a722ba8-3e34-4960-a75b-22d080f8c311","system_id":"levelo_inurba_marseille","lat":43.24069,"lon":5.37763,"is_reserved":false,"is_disabled":false,"rental_uris":{"android":"levelo://app?vid=3a722ba8-3e34-4960-a75b-22d080f8c311","ios":"levelo://app?vid=3a722ba8-3e34-4960-a75b-22d080f8c311"},"vehicle_type_id":"4","last_reported":1758863391,"current_range_meters":18000,"station_id":"ce4bhnp2rcd13ifvqgvg","pricing_plan_id":"cebpf4jnsgd1na2vs0mg"},{"bike_id":"74e80d7c-036c-4d08-a82d-3904c5e3b031","system_id":"levelo_inurba_marseille","lat":43.282804,"lon":5.350606,"is_reserved":false,"is_disabled":true,"rental_uris":{"android":"levelo://app?vid=74e80d7c-036c-4d08-a82d-3904c5e3b031","ios":"levelo://app?vid=74e80d7c-036c-4d08-a82d-3904c5e3b031"},"vehicle_type_id":"4","last_reported":1758863391,"current_range_meters":18000,"station_id":"ce4bhbp2rcd13ifvqerg","pricing_plan_id":"cebpf4jnsgd1na2vs0mg"},{"bike_id":"89486d6a-f02f-43a3-a0ba-1059b6b1fec2","system_id":"levelo_inurba_marseille","lat":43.343223,"lon":5.377898,"is_reserved":false,"is_disabled":false,"rental_uris":{"android":"levelo://app?vid=89486d6a-f02f-43a3-a0ba-1059b6b1fec2","ios":"levelo://app?vid=89486d6a-f02f-43a3-a0ba-1059b6b1fec2"},"vehicle_type_id":"4","last_reported":1758863391,"current_range_meters":18000,"station_id":"","pricing_plan_id":"cebpf4jnsgd1na2vs0mg"},{"bike_id":"ee925a9c-c600-454e-8837-0da5956fd25f","system_id":"levelo_inurba_marseille","lat":43.22942,"lon":5.35374,"is_reserved":false,"is_disabled":false,"rental_uris":{"android":"levelo://app?vid=ee925a9c-c600-454e-8837-0da5956fd25f","ios":"levelo://app?vid=ee925a9c-c600-454e-8837-0da5956fd25f"},"vehicle_type_id":"4","last_reported":1758863391,"current_range_meters":18000,"station_id":"cpo3532slgdg3j2ikp40","pricing_plan_id":"cebpf4jnsgd1na2vs0mg"},{"bike_id":"ce2c6b53-ed7f-4e12-9d39-39a99138228d","system_id":"levelo_inurba_marseille","lat":43.31677,"lon":5.37786,"is_reserved":false,"is_disabled":false,"rental_uris":{"android":"levelo://app?vid=ce2c6b53-ed7f-4e12-9d39-39a99138228d","ios":"levelo://app?vid=ce2c6b53-ed7f-4e12-9d39-39a99138228d"},"vehicle_type_id":"4","last_reported":1758863391,"current_range_meters":18800,"station_id":"","pricing_plan_id":"cebpf4jnsgd1na2vs0mg"},{"bike_id":"5485fad7-d15a-45f6-8bc1-5d2ccfcd0842","system_id":"levelo_inurba_marseille","lat":43.2885,"lon":5.39333,"is_reserved":false,"is_disabled":false,"rental_uris":{"android":"levelo://app?vid=5485fad7-d15a-45f6-8bc1-5d2ccfcd0842","ios":"levelo://app?vid=5485fad7-d15a-45f6-8bc1-5d2ccfcd0842"},"vehicle_type_id":"4","last_reported":1758863391,"current_range_meters":18800,"station_id":"ce4bh2p2rcd13ifvqdi0","pricing_plan_id":"cebpf4jnsgd1na2vs0mg"},{"bike_id":"934ea1ec-b7f6-49a1-9efa-287317d4eb22","system_id":"levelo_inurba_marseille","lat":43.29048,"lon":5.35914,"is_reserved":false,"is_disabled":false,"rental_uris":{"android":"levelo://app?vid=934ea1ec-b7f6-49a1-9efa-287317d4eb22","ios":"levelo://app?vid=934ea1ec-b7f6-49a1-9efa-287317d4eb22"},"vehicle_type_id":"4","last_reported":1758863391,"current_range_meters":18800,"station_id":"","pricing_plan_id":"cebpf4jnsgd1na2vs0mg"},{"bike_id":"2f213d6e-1e75-4005-b170-6c3cb20c20f9","system_id":"levelo_inurba_marseille","lat":43.2502,"lon":5.38925,"is_reserved":false,"is_disabled":true,"rental_uris":{"android":"levelo://app?vid=2f213d6e-1e75-4005-b170-6c3cb20c20f9","ios":"levelo://app?vid=2f213d6e-1e75-4005-b170-6c3cb20c20f9"},"vehicle_type_id":"4","last_reported":1758863391,"current_range_meters":18800,"station_id":"ce4bhgp2rcd13ifvqfd0","pricing_plan_id":"cebpf4jnsgd1na2vs0mg"},{"bike_id":"c8817fa0-4357-4b02-9938-730530c7fb72","system_id":"levelo_inurba_marseille","lat":43.30503,"lon":5.37893,"is_reserved":false,"is_disabled":false,"rental_uris":{"android":"levelo://app?vid=c8817fa0-4357-4b02-9938-730530c7fb72","ios":"levelo://app?vid=c8817fa0-4357-4b02-9938-730530c7fb72"},"vehicle_type_id":"4","last_reported":1758863391,"current_range_meters":18800,"station_id":"ce4bgup2rcd13ifvqcn0","pricing_plan_id":"cebpf4jnsgd1na2vs0mg"},{"bike_id":"2c93f710-fff3-45d7-bf87-f9fc4d6dae8e","system_id":"levelo_inurba_marseille","lat":43.28455,"lon":5.35899,"is_reserved":false,"is_disabled":false,"rental_uris":{"android":"levelo://app?vid=2c93f710-fff3-45d7-bf87-f9fc4d6dae8e","ios":"levelo://app?vid=2c93f710-fff3-45d7-bf87-f9fc4d6dae8e"},"vehicle_type_id":"4","last_reported":1758863391,"current_range_meters":18800,"station_id":"ce4bhah2rcd13ifvqei0","pricing_plan_id":"cebpf4jnsgd1na2vs0mg"},{"bike_id":"80bdba63-46f3-4274-b0d9-d9711409b6a8","system_id":"levelo_inurba_marseille","lat":43.270752,"lon":5.402497,"is_reserved":false,"is_disabled":false,"rental_uris":{"android":"levelo://app?vid=80bdba63-46f3-4274-b0d9-d9711409b6a8","ios":"levelo://app?vid=80bdba63-46f3-4274-b0d9-d9711409b6a8"},"vehicle_type_id":"4","last_reported":1758863391,"current_range_meters":18800,"station_id":"","pricing_plan_id":"cebpf4jnsgd1na2vs0mg"},{"bike_id":"a09d7f69-3ec6-4f22-b4e1-b143584e4f2e","system_id":"levelo_inurba_marseille","lat":43.248076,"lon":5.374517,"is_reserved":false,"is_disabled":false,"rental_uris":{"android":"levelo://app?vid=a09d7f69-3ec6-4f22-b4e1-b143584e4f2e","ios":"levelo://app?vid=a09d7f69-3ec6-4f22-b4e1-b143584e4f2e"},"vehicle_type_id":"4","last_reported":1758863391,"current_range_meters":18800,"station_id":"ce4bhgh2rcd13ifvqfb0","pricing_plan_id":"cebpf4jnsgd1na2vs0mg"},{"bike_id":"1e848915-c1bc-4427-ae90-12be0710dba3","system_id":"levelo_inurba_marseille","lat":43.296329,"lon":5.405993,"is_reserved":false,"is_disabled":false,"rental_uris":{"android":"levelo://app?vid=1e848915-c1bc-4427-ae90-12be0710dba3","ios":"levelo://app?vid=1e848915-c1bc-4427-ae90-12be0710dba3"},"vehicle_type_id":"4","last_reported":1758863391,"current_range_meters":18800,"station_id":"ce4bh0h2rcd13ifvqd60","pricing_plan_id":"cebpf4jnsgd1na2vs0mg"},{"bike_id":"cdfcb4e2-2dc2-4d43-89a8-9d45ec4c9fa2","system_id":"levelo_inurba_marseille","lat":43.265612,"lon":5.372889,"is_reserved":false,"is_disabled":false,"rental_uris":{"android":"levelo://app?vid=cdfcb4e2-2dc2-4d43-89a8-9d45ec4c9fa2","ios":"levelo://app?vid=cdfcb4e2-2dc2-4d43-89a8-9d45ec4c9fa2"},"vehicle_type_id":"4","last_reported":1758863391,"current_range_meters":19200,"station_id":"ce4bhg12rcd13ifvqf70","pricing_plan_id":"cebpf4jnsgd1na2vs0mg"},{"bike_id":"649c9013-c16c-44c4-aca5-85ff6eb6a511","system_id":"levelo_inurba_marseille","lat":43.24946,"lon":5.40496,"is_reserved":false,"is_disabled":false,"rental_uris":{"android":"levelo://app?vid=649c9013-c16c-44c4-aca5-85ff6eb6a511","ios":"levelo://app?vid=649c9013-c16c-44c4-aca5-85ff6eb6a511"},"vehicle_type_id":"4","last_reported":1758863391,"current_range_meters":19200,"station_id":"st_d2ngiaodas8pm72gd1h0","pricing_plan_id":"cebpf4jnsgd1na2vs0mg"},{"bike_id":"bb81d282-6c0f-4589-a020-4d7a19ec5137","system_id":"levelo_inurba_marseille","lat":43.31165,"lon":5.39372,"is_reserved":false,"is_disabled":false,"rental_uris":{"android":"levelo://app?vid=bb81d282-6c0f-4589-a020-4d7a19ec5137","ios":"levelo://app?vid=bb81d282-6c0f-4589-a020-4d7a19ec5137"},"vehicle_type_id":"4","last_reported":1758863391,"current_range_meters":19200,"station_id":"","pricing_plan_id":"cebpf4jnsgd1na2vs0mg"},{"bike_id":"b0eec731-bec4-49a1-9a65-484355548735","system_id":"levelo_inurba_marseille","lat":43.28463,"lon":5.35902,"is_reserved":false,"is_disabled":false,"rental_uris":{"android":"levelo://app?vid=b0eec731-bec4-49a1-9a65-484355548735","ios":"levelo://app?vid=b0eec731-bec4-49a1-9a65-484355548735"},"vehicle_type_id":"4","last_reported":1758863391,"current_range_meters":19200,"station_id":"ce4bhah2rcd13ifvqei0","pricing_plan_id":"cebpf4jnsgd1na2vs0mg"},{"bike_id":"475aa728-b294-4f47-b218-f9dcee2d9b45","system_id":"levelo_inurba_marseille","lat":43.253284,"lon":5.421649,"is_reserved":false,"is_disabled":false,"rental_uris":{"android":"levelo://app?vid=475aa728-b294-4f47-b218-f9dcee2d9b45","ios":"levelo://app?vid=475aa728-b294-4f47-b218-f9dcee2d9b45"},"vehicle_type_id":"4","last_reported":1758863391,"current_range_meters":19200,"station_id":"st_d2m65c5bi1j21697t3ng","pricing_plan_id":"cebpf4jnsgd1na2vs0mg"},{"bike_id":"5393e408-2f70-40e3-a247-1b6315f01c4e","system_id":"levelo_inurba_marseille","lat":43.26952,"lon":5.38631,"is_reserved":false,"is_disabled":true,"rental_uris":{"android":"levelo://app?vid=5393e408-2f70-40e3-a247-1b6315f01c4e","ios":"levelo://app?vid=5393e408-2f70-40e3-a247-1b6315f01c4e"},"vehicle_type_id":"4","last_reported":1758863391,"current_range_meters":19200,"station_id":"ce4bhh92rcd13ifvqfh0","pricing_plan_id":"cebpf4jnsgd1na2vs0mg"},{"bike_id":"376153f4-4eff-4b93-b991-b01cb0dc1dcf","system_id":"levelo_inurba_marseille","lat":43.305956,"lon":5.393562,"is_reserved":false,"is_disabled":false,"rental_uris":{"android":"levelo://app?vid=376153f4-4eff-4b93-b991-b01cb0dc1dcf","ios":"levelo://app?vid=376153f4-4eff-4b93-b991-b01cb0dc1dcf"},"vehicle_type_id":"4","last_reported":1758863391,"current_range_meters":19200,"station_id":"ce4bh0p2rcd13ifvqd80","pricing_plan_id":"cebpf4jnsgd1na2vs0mg"},{"bike_id":"03350417-1098-4d6c-b8fe-9e64358744bf","system_id":"levelo_inurba_marseille","lat":43.31067,"lon":5.37587,"is_reserved":false,"is_disabled":false,"rental_uris":{"android":"levelo://app?vid=03350417-1098-4d6c-b8fe-9e64358744bf","ios":"levelo://app?vid=03350417-1098-4d6c-b8fe-9e64358744bf"},"vehicle_type_id":"4","last_reported":1758863391,"current_range_meters":19200,"station_id":"","pricing_plan_id":"cebpf4jnsgd1na2vs0mg"},{"bike_id":"89ee2103-4913-40e6-aadf-8f023e4cfa22","system_id":"levelo_inurba_marseille","lat":43.23197,"lon":5.35551,"is_reserved":false,"is_disabled":false,"rental_uris":{"android":"levelo://app?vid=89ee2103-4913-40e6-aadf-8f023e4cfa22","ios":"levelo://app?vid=89ee2103-4913-40e6-aadf-8f023e4cfa22"},"vehicle_type_id":"4","last_reported":1758863391,"current_range_meters":19600,"station_id":"ce4bhu92rcd13ifvqi70","pricing_plan_id":"cebpf4jnsgd1na2vs0mg"},{"bike_id":"6866e71a-5dcd-42be-ac63-bb674d3e10c2","system_id":"levelo_inurba_marseille","lat":43.24073,"lon":5.377607,"is_reserved":false,"is_disabled":false,"rental_uris":{"android":"levelo://app?vid=6866e71a-5dcd-42be-ac63-bb674d3e10c2","ios":"levelo://app?vid=6866e71a-5dcd-42be-ac63-bb674d3e10c2"},"vehicle_type_id":"4","last_reported":1758863391,"current_range_meters":19600,"station_id":"ce4bhnp2rcd13ifvqgvg","pricing_plan_id":"cebpf4jnsgd1na2vs0mg"},{"bike_id":"5bb42022-0e19-48bc-a5b4-218bb1d7482e","system_id":"levelo_inurba_marseille","lat":43.312666,"lon":5.377439,"is_reserved":false,"is_disabled":false,"rental_uris":{"android":"levelo://app?vid=5bb42022-0e19-48bc-a5b4-218bb1d7482e","ios":"levelo://app?vid=5bb42022-0e19-48bc-a5b4-218bb1d7482e"},"vehicle_type_id":"4","last_reported":1758863391,"current_range_meters":19600,"station_id":"","pricing_plan_id":"cebpf4jnsgd1na2vs0mg"},{"bike_id":"b964b9cc-d123-442c-ac2b-f007e1763040","system_id":"levelo_inurba_marseille","lat":43.30197,"lon":5.38053,"is_reserved":false,"is_disabled":false,"rental_uris":{"android":"levelo://app?vid=b964b9cc-d123-442c-ac2b-f007e1763040","ios":"levelo://app?vid=b964b9cc-d123-442c-ac2b-f007e1763040"},"vehicle_type_id":"4","last_reported":1758863391,"current_range_meters":20000,"station_id":"","pricing_plan_id":"cebpf4jnsgd1na2vs0mg"},{"bike_id":"139e86e9-7939-42cd-8240-f91c956f87e1","system_id":"levelo_inurba_marseille","lat":43.31486,"lon":5.37325,"is_reserved":false,"is_disabled":false,"rental_uris":{"android":"levelo://app?vid=139e86e9-7939-42cd-8240-f91c956f87e1","ios":"levelo://app?vid=139e86e9-7939-42cd-8240-f91c956f87e1"},"vehicle_type_id":"4","last_reported":1758863391,"current_range_meters":20000,"station_id":"ce4bgt12rcd13ifvqcd0","pricing_plan_id":"cebpf4jnsgd1na2vs0mg"},{"bike_id":"2af88743-6880-415a-92ca-75251641c27a","system_id":"levelo_inurba_marseille","lat":43.293055,"lon":5.375851,"is_reserved":false,"is_disabled":true,"rental_uris":{"android":"levelo://app?vid=2af88743-6880-415a-92ca-75251641c27a","ios":"levelo://app?vid=2af88743-6880-415a-92ca-75251641c27a"},"vehicle_type_id":"4","last_reported":1758863391,"current_range_meters":20000,"station_id":"ce4bgi12rcd13ifvqb80","pricing_plan_id":"cebpf4jnsgd1na2vs0mg"},{"bike_id":"41148679-0bdd-4740-9413-83180e0d9716","system_id":"levelo_inurba_marseille","lat":43.29927,"lon":5.37466,"is_reserved":false,"is_disabled":false,"rental_uris":{"android":"levelo://app?vid=41148679-0bdd-4740-9413-83180e0d9716","ios":"levelo://app?vid=41148679-0bdd-4740-9413-83180e0d9716"},"vehicle_type_id":"4","last_reported":1758863391,"current_range_meters":20000,"station_id":"ce4bgjh2rcd13ifvqbg0","pricing_plan_id":"cebpf4jnsgd1na2vs0mg"},{"bike_id":"7e1c88cd-8ef0-48fd-b7ab-2afdd3b5194f","system_id":"levelo_inurba_marseille","lat":43.31116,"lon":5.37774,"is_reserved":false,"is_disabled":false,"rental_uris":{"android":"levelo://app?vid=7e1c88cd-8ef0-48fd-b7ab-2afdd3b5194f","ios":"levelo://app?vid=7e1c88cd-8ef0-48fd-b7ab-2afdd3b5194f"},"vehicle_type_id":"4","last_reported":1758863391,"current_range_meters":20000,"station_id":"ce4bgt92rcd13ifvqcg0","pricing_plan_id":"cebpf4jnsgd1na2vs0mg"},{"bike_id":"3ebd312a-92fe-474b-8648-76694fe4e13f","system_id":"levelo_inurba_marseille","lat":43.26577,"lon":5.4033,"is_reserved":false,"is_disabled":false,"rental_uris":{"android":"levelo://app?vid=3ebd312a-92fe-474b-8648-76694fe4e13f","ios":"levelo://app?vid=3ebd312a-92fe-474b-8648-76694fe4e13f"},"vehicle_type_id":"4","last_reported":1758863391,"current_range_meters":20000,"station_id":"ce4bhmp2rcd13ifvqgng","pricing_plan_id":"cebpf4jnsgd1na2vs0mg"},{"bike_id":"95bc115f-af04-4b2f-a355-0b2454c21925","system_id":"levelo_inurba_marseille","lat":43.31121,"lon":5.37749,"is_reserved":false,"is_disabled":false,"rental_uris":{"android":"levelo://app?vid=95bc115f-af04-4b2f-a355-0b2454c21925","ios":"levelo://app?vid=95bc115f-af04-4b2f-a355-0b2454c21925"},"vehicle_type_id":"4","last_reported":1758863391,"current_range_meters":20000,"station_id":"ce4bgt92rcd13ifvqcg0","pricing_plan_id":"cebpf4jnsgd1na2vs0mg"},{"bike_id":"01f45480-95a4-4e5b-8360-a4f6ffe40fb0","system_id":"levelo_inurba_marseille","lat":43.29776,"lon":5.3712,"is_reserved":false,"is_disabled":true,"rental_uris":{"android":"levelo://app?vid=01f45480-95a4-4e5b-8360-a4f6ffe40fb0","ios":"levelo://app?vid=01f45480-95a4-4e5b-8360-a4f6ffe40fb0"},"vehicle_type_id":"4","last_reported":1758863391,"current_range_meters":20000,"station_id":"ce4bgop2rcd13ifvqc1g","pricing_plan_id":"cebpf4jnsgd1na2vs0mg"},{"bike_id":"9feae468-b8bd-422a-8fcb-2d68fc5ee82c","system_id":"levelo_inurba_marseille","lat":43.33495,"lon":5.41888,"is_reserved":false,"is_disabled":false,"rental_uris":{"android":"levelo://app?vid=9feae468-b8bd-422a-8fcb-2d68fc5ee82c","ios":"levelo://app?vid=9feae468-b8bd-422a-8fcb-2d68fc5ee82c"},"vehicle_type_id":"4","last_reported":1758863391,"current_range_meters":20400,"station_id":"","pricing_plan_id":"cebpf4jnsgd1na2vs0mg"},{"bike_id":"0385a851-106a-442d-8e0b-e3341c884902","system_id":"levelo_inurba_marseille","lat":43.23163,"lon":5.43715,"is_reserved":false,"is_disabled":false,"rental_uris":{"android":"levelo://app?vid=0385a851-106a-442d-8e0b-e3341c884902","ios":"levelo://app?vid=0385a851-106a-442d-8e0b-e3341c884902"},"vehicle_type_id":"4","last_reported":1758863391,"current_range_meters":20400,"station_id":"ce4bhmp2rcd13ifvqgog","pricing_plan_id":"cebpf4jnsgd1na2vs0mg"},{"bike_id":"484bd3e6-b0c1-4fae-b8dd-62bfbd3e1eea","system_id":"levelo_inurba_marseille","lat":43.33606,"lon":5.41026,"is_reserved":false,"is_disabled":false,"rental_uris":{"android":"levelo://app?vid=484bd3e6-b0c1-4fae-b8dd-62bfbd3e1eea","ios":"levelo://app?vid=484bd3e6-b0c1-4fae-b8dd-62bfbd3e1eea"},"vehicle_type_id":"4","last_reported":1758863391,"current_range_meters":20400,"station_id":"ce4bhqh2rcd13ifvqhmg","pricing_plan_id":"cebpf4jnsgd1na2vs0mg"},{"bike_id":"0983bc59-6bab-4490-9d5e-7882acc678d9","system_id":"levelo_inurba_marseille","lat":43.27931,"lon":5.38077,"is_reserved":false,"is_disabled":false,"rental_uris":{"android":"levelo://app?vid=0983bc59-6bab-4490-9d5e-7882acc678d9","ios":"levelo://app?vid=0983bc59-6bab-4490-9d5e-7882acc678d9"},"vehicle_type_id":"4","last_reported":1758863391,"current_range_meters":20400,"station_id":"","pricing_plan_id":"cebpf4jnsgd1na2vs0mg"},{"bike_id":"d2e79481-d4f6-4cc5-bf0d-89eaf549248f","system_id":"levelo_inurba_marseille","lat":43.2849,"lon":5.38421,"is_reserved":false,"is_disabled":false,"rental_uris":{"android":"levelo://app?vid=d2e79481-d4f6-4cc5-bf0d-89eaf549248f","ios":"levelo://app?vid=d2e79481-d4f6-4cc5-bf0d-89eaf549248f"},"vehicle_type_id":"4","last_reported":1758863391,"current_range_meters":20400,"station_id":"ce4bh512rcd13ifvqe3g","pricing_plan_id":"cebpf4jnsgd1na2vs0mg"},{"bike_id":"9781be90-ba61-46d6-b074-2cd5e3210009","system_id":"levelo_inurba_marseille","lat":43.32345,"lon":5.40613,"is_reserved":false,"is_disabled":false,"rental_uris":{"android":"levelo://app?vid=9781be90-ba61-46d6-b074-2cd5e3210009","ios":"levelo://app?vid=9781be90-ba61-46d6-b074-2cd5e3210009"},"vehicle_type_id":"4","last_reported":1758863391,"current_range_meters":20400,"station_id":"ce4bhq92rcd13ifvqhjg","pricing_plan_id":"cebpf4jnsgd1na2vs0mg"},{"bike_id":"56dac832-2562-497e-b41a-2c49b008174f","system_id":"levelo_inurba_marseille","lat":43.2481,"lon":5.37462,"is_reserved":false,"is_disabled":false,"rental_uris":{"android":"levelo://app?vid=56dac832-2562-497e-b41a-2c49b008174f","ios":"levelo://app?vid=56dac832-2562-497e-b41a-2c49b008174f"},"vehicle_type_id":"4","last_reported":1758863391,"current_range_meters":20400,"station_id":"ce4bhgh2rcd13ifvqfb0","pricing_plan_id":"cebpf4jnsgd1na2vs0mg"},{"bike_id":"87927dad-1a85-410c-96af-b9c0eb72cb9f","system_id":"levelo_inurba_marseille","lat":43.30644,"lon":5.40065,"is_reserved":false,"is_disabled":false,"rental_uris":{"android":"levelo://app?vid=87927dad-1a85-410c-96af-b9c0eb72cb9f","ios":"levelo://app?vid=87927dad-1a85-410c-96af-b9c0eb72cb9f"},"vehicle_type_id":"4","last_reported":1758863391,"current_range_meters":20400,"station_id":"ce4bh112rcd13ifvqda0","pricing_plan_id":"cebpf4jnsgd1na2vs0mg"},{"bike_id":"ecdb8b78-2d6b-4160-be66-d0eb70ae5e1d","system_id":"levelo_inurba_marseille","lat":43.27199,"lon":5.41025,"is_reserved":false,"is_disabled":true,"rental_uris":{"android":"levelo://app?vid=ecdb8b78-2d6b-4160-be66-d0eb70ae5e1d","ios":"levelo://app?vid=ecdb8b78-2d6b-4160-be66-d0eb70ae5e1d"},"vehicle_type_id":"4","last_reported":1758863391,"current_range_meters":20400,"station_id":"ce4bhl12rcd13ifvqgf0","pricing_plan_id":"cebpf4jnsgd1na2vs0mg"},{"bike_id":"43c4416c-ecc1-43dc-b0a7-262cad37780e","system_id":"levelo_inurba_marseille","lat":43.30929,"lon":5.40181,"is_reserved":false,"is_disabled":false,"rental_uris":{"android":"levelo://app?vid=43c4416c-ecc1-43dc-b0a7-262cad37780e","ios":"levelo://app?vid=43c4416c-ecc1-43dc-b0a7-262cad37780e"},"vehicle_type_id":"4","last_reported":1758863391,"current_range_meters":20400,"station_id":"ce4bgvp2rcd13ifvqct0","pricing_plan_id":"cebpf4jnsgd1na2vs0mg"},{"bike_id":"7aabf6b2-cb01-4144-8232-dc29147ee92d","system_id":"levelo_inurba_marseille","lat":43.23177,"lon":5.39991,"is_reserved":false,"is_disabled":false,"rental_uris":{"android":"levelo://app?vid=7aabf6b2-cb01-4144-8232-dc29147ee92d","ios":"levelo://app?vid=7aabf6b2-cb01-4144-8232-dc29147ee92d"},"vehicle_type_id":"4","last_reported":1758863391,"current_range_meters":20400,"station_id":"ce4bhn12rcd13ifvqgqg","pricing_plan_id":"cebpf4jnsgd1na2vs0mg"},