{"last_updated":1779144470,"ttl":60,"version":"2.2","data":{"bikes":[{"bike_id":"7d641315-6110-49cb-a9dd-d637ff032de1","system_id":"levelo_inurba_marseille","lat":43.337444,"lon":5.374475,"is_reserved":false,"is_disabled":false,"rental_uris":{"android":"levelo://app?vid=7d641315-6110-49cb-a9dd-d637ff032de1","ios":"levelo://app?vid=7d641315-6110-49cb-a9dd-d637ff032de1"},"vehicle_type_id":"4","last_reported":1779144471,"current_range_meters":0,"station_id":"","pricing_plan_id":"cebpf4jnsgd1na2vs0mg"},{"bike_id":"2cd48a35-42f5-4905-a545-77ef65266664","system_id":"levelo_inurba_marseille","lat":43.29664,"lon":5.37769,"is_reserved":false,"is_disabled":true,"rental_uris":{"android":"levelo://app?vid=2cd48a35-42f5-4905-a545-77ef65266664","ios":"levelo://app?vid=2cd48a35-42f5-4905-a545-77ef65266664"},"vehicle_type_id":"4","last_reported":1779144471,"current_range_meters":2800,"station_id":"","pricing_plan_id":"cebpf4jnsgd1na2vs0mg"},{"bike_id":"c547d0f9-1bed-4a36-b1b9-44cb58b773bf","system_id":"levelo_inurba_marseille","lat":43.30109,"lon":5.39085,"is_reserved":false,"is_disabled":false,"rental_uris":{"android":"levelo://app?vid=c547d0f9-1bed-4a36-b1b9-44cb58b773bf","ios":"levelo://app?vid=c547d0f9-1bed-4a36-b1b9-44cb58b773bf"},"vehicle_type_id":"4","last_reported":1779144471,"current_range_meters":2800,"station_id":"ce4bh192rcd13ifvqdb0","pricing_plan_id":"cebpf4jnsgd1na2vs0mg"},{"bike_id":"2a532049-15e0-4ecd-9270-049752599d16","system_id":"levelo_inurba_marseille","lat":43.29886,"lon":5.38897,"is_reserved":false,"is_disabled":true,"rental_uris":{"android":"levelo://app?vid=2a532049-15e0-4ecd-9270-049752599d16","ios":"levelo://app?vid=2a532049-15e0-4ecd-9270-049752599d16"},"vehicle_type_id":"4","last_reported":1779144471,"current_range_meters":2800,"station_id":"ce4bh392rcd13ifvqdl0","pricing_plan_id":"cebpf4jnsgd1na2vs0mg"},{"bike_id":"7e48ab24-d6a0-4993-ab3f-ffcb95e57467","system_id":"levelo_inurba_marseille","lat":43.2982,"lon":5.41993,"is_reserved":false,"is_disabled":false,"rental_uris":{"android":"levelo://app?vid=7e48ab24-d6a0-4993-ab3f-ffcb95e57467","ios":"levelo://app?vid=7e48ab24-d6a0-4993-ab3f-ffcb95e57467"},"vehicle_type_id":"4","last_reported":1779144471,"current_range_meters":2800,"station_id":"","pricing_plan_id":"cebpf4jnsgd1na2vs0mg"},{"bike_id":"bb719097-49f9-4ef8-b021-ede068d8c8f6","system_id":"levelo_inurba_marseille","lat":43.25835,"lon":5.39432,"is_reserved":false,"is_disabled":false,"rental_uris":{"android":"levelo://app?vid=bb719097-49f9-4ef8-b021-ede068d8c8f6","ios":"levelo://app?vid=bb719097-49f9-4ef8-b021-ede068d8c8f6"},"vehicle_type_id":"4","last_reported":1779144471,"current_range_meters":2800,"station_id":"ce4bhip2rcd13ifvqft0","pricing_plan_id":"cebpf4jnsgd1na2vs0mg"},{"bike_id":"cdee817c-caa2-4adb-8af4-205c5b59b01a","system_id":"levelo_inurba_marseille","lat":43.24952,"lon":5.40523,"is_reserved":false,"is_disabled":false,"rental_uris":{"android":"levelo://app?vid=cdee817c-caa2-4adb-8af4-205c5b59b01a","ios":"levelo://app?vid=cdee817c-caa2-4adb-8af4-205c5b59b01a"},"vehicle_type_id":"4","last_reported":1779144471,"current_range_meters":2800,"station_id":"st_d2ngiaodas8pm72gd1h0","pricing_plan_id":"cebpf4jnsgd1na2vs0mg"},{"bike_id":"2acf6cbb-6fde-447b-b2bb-3d0a9fcfa8f6","system_id":"levelo_inurba_marseille","lat":43.29794,"lon":5.39355,"is_reserved":false,"is_disabled":false,"rental_uris":{"android":"levelo://app?vid=2acf6cbb-6fde-447b-b2bb-3d0a9fcfa8f6","ios":"levelo://app?vid=2acf6cbb-6fde-447b-b2bb-3d0a9fcfa8f6"},"vehicle_type_id":"4","last_reported":1779144471,"current_range_meters":3200,"station_id":"chh1huq6cuj3fo74tm60","pricing_plan_id":"cebpf4jnsgd1na2vs0mg"},{"bike_id":"4feeb0f1-9905-4845-86c7-e9af4964b610","system_id":"levelo_inurba_marseille","lat":43.29736,"lon":5.37684,"is_reserved":false,"is_disabled":false,"rental_uris":{"android":"levelo://app?vid=4feeb0f1-9905-4845-86c7-e9af4964b610","ios":"levelo://app?vid=4feeb0f1-9905-4845-86c7-e9af4964b610"},"vehicle_type_id":"4","last_reported":1779144471,"current_range_meters":3200,"station_id":"ce4bgkh2rcd13ifvqbl0","pricing_plan_id":"cebpf4jnsgd1na2vs0mg"},{"bike_id":"7df43883-c1e0-4da1-a102-d45e33555e9a","system_id":"levelo_inurba_marseille","lat":43.30199,"lon":5.39939,"is_reserved":false,"is_disabled":false,"rental_uris":{"android":"levelo://app?vid=7df43883-c1e0-4da1-a102-d45e33555e9a","ios":"levelo://app?vid=7df43883-c1e0-4da1-a102-d45e33555e9a"},"vehicle_type_id":"4","last_reported":1779144471,"current_range_meters":3200,"station_id":"","pricing_plan_id":"cebpf4jnsgd1na2vs0mg"},{"bike_id":"5f4ddabc-9267-4f5c-b393-db6fd6acaf7d","system_id":"levelo_inurba_marseille","lat":43.25112,"lon":5.40296,"is_reserved":false,"is_disabled":true,"rental_uris":{"android":"levelo://app?vid=5f4ddabc-9267-4f5c-b393-db6fd6acaf7d","ios":"levelo://app?vid=5f4ddabc-9267-4f5c-b393-db6fd6acaf7d"},"vehicle_type_id":"4","last_reported":1779144471,"current_range_meters":3200,"station_id":"ce4bhlh2rcd13ifvqgig","pricing_plan_id":"cebpf4jnsgd1na2vs0mg"},{"bike_id":"4a3d82be-0006-44ab-a43c-dc1d6f1b1e8f","system_id":"levelo_inurba_marseille","lat":43.31767,"lon":5.38993,"is_reserved":false,"is_disabled":false,"rental_uris":{"android":"levelo://app?vid=4a3d82be-0006-44ab-a43c-dc1d6f1b1e8f","ios":"levelo://app?vid=4a3d82be-0006-44ab-a43c-dc1d6f1b1e8f"},"vehicle_type_id":"4","last_reported":1779144471,"current_range_meters":3200,"station_id":"ce4bhqp2rcd13ifvqhng","pricing_plan_id":"cebpf4jnsgd1na2vs0mg"},{"bike_id":"0a557a53-5e2a-4f58-a5bd-c17c32c1c9c4","system_id":"levelo_inurba_marseille","lat":43.29208,"lon":5.36054,"is_reserved":false,"is_disabled":true,"rental_uris":{"android":"levelo://app?vid=0a557a53-5e2a-4f58-a5bd-c17c32c1c9c4","ios":"levelo://app?vid=0a557a53-5e2a-4f58-a5bd-c17c32c1c9c4"},"vehicle_type_id":"4","last_reported":1779144471,"current_range_meters":3200,"station_id":"ce4bhbh2rcd13ifvqeqg","pricing_plan_id":"cebpf4jnsgd1na2vs0mg"},{"bike_id":"e6a80555-6ae0-44c1-99a1-fdcc80bb51a3","system_id":"levelo_inurba_marseille","lat":43.29508,"lon":5.42312,"is_reserved":false,"is_disabled":false,"rental_uris":{"android":"levelo://app?vid=e6a80555-6ae0-44c1-99a1-fdcc80bb51a3","ios":"levelo://app?vid=e6a80555-6ae0-44c1-99a1-fdcc80bb51a3"},"vehicle_type_id":"4","last_reported":1779144471,"current_range_meters":3200,"station_id":"","pricing_plan_id":"cebpf4jnsgd1na2vs0mg"},{"bike_id":"9bb94f8d-4bf5-49c3-9aab-5f956045678e","system_id":"levelo_inurba_marseille","lat":43.28363,"lon":5.3813,"is_reserved":false,"is_disabled":false,"rental_uris":{"android":"levelo://app?vid=9bb94f8d-4bf5-49c3-9aab-5f956045678e","ios":"levelo://app?vid=9bb94f8d-4bf5-49c3-9aab-5f956045678e"},"vehicle_type_id":"4","last_reported":1779144471,"current_range_meters":3200,"station_id":"ce4bh412rcd13ifvqdr0","pricing_plan_id":"cebpf4jnsgd1na2vs0mg"},{"bike_id":"26246e34-f8d2-433a-a9ec-8eab31a3135c","system_id":"levelo_inurba_marseille","lat":43.29217,"lon":5.36056,"is_reserved":false,"is_disabled":false,"rental_uris":{"android":"levelo://app?vid=26246e34-f8d2-433a-a9ec-8eab31a3135c","ios":"levelo://app?vid=26246e34-f8d2-433a-a9ec-8eab31a3135c"},"vehicle_type_id":"4","last_reported":1779144471,"current_range_meters":3200,"station_id":"ce4bhbh2rcd13ifvqeqg","pricing_plan_id":"cebpf4jnsgd1na2vs0mg"},{"bike_id":"b91d7374-8e56-4e76-95fb-2da619659bd1","system_id":"levelo_inurba_marseille","lat":43.2447,"lon":5.42533,"is_reserved":false,"is_disabled":false,"rental_uris":{"android":"levelo://app?vid=b91d7374-8e56-4e76-95fb-2da619659bd1","ios":"levelo://app?vid=b91d7374-8e56-4e76-95fb-2da619659bd1"},"vehicle_type_id":"4","last_reported":1779144471,"current_range_meters":3600,"station_id":"st_d4a3vfp97mjs738cd8kg","pricing_plan_id":"cebpf4jnsgd1na2vs0mg"},{"bike_id":"97ef0eaa-07a1-41e5-96b2-af004dd36978","system_id":"levelo_inurba_marseille","lat":43.288593,"lon":5.42519,"is_reserved":false,"is_disabled":true,"rental_uris":{"android":"levelo://app?vid=97ef0eaa-07a1-41e5-96b2-af004dd36978","ios":"levelo://app?vid=97ef0eaa-07a1-41e5-96b2-af004dd36978"},"vehicle_type_id":"4","last_reported":1779144471,"current_range_meters":3600,"station_id":"st_d3b462108ojc7389ooeg","pricing_plan_id":"cebpf4jnsgd1na2vs0mg"},{"bike_id":"55fd0741-f693-4c0e-bc61-157606e04439","system_id":"levelo_inurba_marseille","lat":43.32532,"lon":5.39885,"is_reserved":false,"is_disabled":false,"rental_uris":{"android":"levelo://app?vid=55fd0741-f693-4c0e-bc61-157606e04439","ios":"levelo://app?vid=55fd0741-f693-4c0e-bc61-157606e04439"},"vehicle_type_id":"4","last_reported":1779144471,"current_range_meters":3600,"station_id":"","pricing_plan_id":"cebpf4jnsgd1na2vs0mg"},{"bike_id":"6870a2fc-cbce-49a0-b12b-cd85b833122a","system_id":"levelo_inurba_marseille","lat":43.26922,"lon":5.38889,"is_reserved":false,"is_disabled":true,"rental_uris":{"android":"levelo://app?vid=6870a2fc-cbce-49a0-b12b-cd85b833122a","ios":"levelo://app?vid=6870a2fc-cbce-49a0-b12b-cd85b833122a"},"vehicle_type_id":"4","last_reported":1779144471,"current_range_meters":3600,"station_id":"ce4bhhh2rcd13ifvqfl0","pricing_plan_id":"cebpf4jnsgd1na2vs0mg"},{"bike_id":"9d18dc58-248c-49c8-a233-5fa2af77daec","system_id":"levelo_inurba_marseille","lat":43.28636,"lon":5.37814,"is_reserved":false,"is_disabled":false,"rental_uris":{"android":"levelo://app?vid=9d18dc58-248c-49c8-a233-5fa2af77daec","ios":"levelo://app?vid=9d18dc58-248c-49c8-a233-5fa2af77daec"},"vehicle_type_id":"4","last_reported":1779144471,"current_range_meters":3600,"station_id":"","pricing_plan_id":"cebpf4jnsgd1na2vs0mg"},{"bike_id":"40b3a112-5397-4abc-9de1-3dd792605a70","system_id":"levelo_inurba_marseille","lat":43.32349,"lon":5.36715,"is_reserved":false,"is_disabled":false,"rental_uris":{"android":"levelo://app?vid=40b3a112-5397-4abc-9de1-3dd792605a70","ios":"levelo://app?vid=40b3a112-5397-4abc-9de1-3dd792605a70"},"vehicle_type_id":"4","last_reported":1779144471,"current_range_meters":3600,"station_id":"ce4bhsh2rcd13ifvqi2g","pricing_plan_id":"cebpf4jnsgd1na2vs0mg"},{"bike_id":"59b2432e-f424-4c75-ba04-57a073a9c3ce","system_id":"levelo_inurba_marseille","lat":43.31386,"lon":5.44134,"is_reserved":false,"is_disabled":false,"rental_uris":{"android":"levelo://app?vid=59b2432e-f424-4c75-ba04-57a073a9c3ce","ios":"levelo://app?vid=59b2432e-f424-4c75-ba04-57a073a9c3ce"},"vehicle_type_id":"4","last_reported":1779144471,"current_range_meters":3600,"station_id":"","pricing_plan_id":"cebpf4jnsgd1na2vs0mg"},{"bike_id":"ca8deebd-3892-4cd3-95b9-93993366f63e","system_id":"levelo_inurba_marseille","lat":43.2625,"lon":5.40409,"is_reserved":false,"is_disabled":true,"rental_uris":{"android":"levelo://app?vid=ca8deebd-3892-4cd3-95b9-93993366f63e","ios":"levelo://app?vid=ca8deebd-3892-4cd3-95b9-93993366f63e"},"vehicle_type_id":"4","last_reported":1779144471,"current_range_meters":3600,"station_id":"ce4bhmh2rcd13ifvqgmg","pricing_plan_id":"cebpf4jnsgd1na2vs0mg"},{"bike_id":"e6cc49d1-e7bb-4c14-9c61-50b5557fed59","system_id":"levelo_inurba_marseille","lat":43.30691,"lon":5.40621,"is_reserved":false,"is_disabled":false,"rental_uris":{"android":"levelo://app?vid=e6cc49d1-e7bb-4c14-9c61-50b5557fed59","ios":"levelo://app?vid=e6cc49d1-e7bb-4c14-9c61-50b5557fed59"},"vehicle_type_id":"4","last_reported":1779144471,"current_range_meters":3600,"station_id":"","pricing_plan_id":"cebpf4jnsgd1na2vs0mg"},{"bike_id":"d54107ca-05f2-45fc-9fae-e2d4c6c24d36","system_id":"levelo_inurba_marseille","lat":43.23189,"lon":5.39986,"is_reserved":false,"is_disabled":false,"rental_uris":{"android":"levelo://app?vid=d54107ca-05f2-45fc-9fae-e2d4c6c24d36","ios":"levelo://app?vid=d54107ca-05f2-45fc-9fae-e2d4c6c24d36"},"vehicle_type_id":"4","last_reported":1779144471,"current_range_meters":4000,"station_id":"ce4bhn12rcd13ifvqgqg","pricing_plan_id":"cebpf4jnsgd1na2vs0mg"},{"bike_id":"9e4605bd-fb5f-4dea-85c6-6d392142aaa8","system_id":"levelo_inurba_marseille","lat":43.29708,"lon":5.41654,"is_reserved":false,"is_disabled":false,"rental_uris":{"android":"levelo://app?vid=9e4605bd-fb5f-4dea-85c6-6d392142aaa8","ios":"levelo://app?vid=9e4605bd-fb5f-4dea-85c6-6d392142aaa8"},"vehicle_type_id":"4","last_reported":1779144471,"current_range_meters":4000,"station_id":"","pricing_plan_id":"cebpf4jnsgd1na2vs0mg"},{"bike_id":"76483057-aa19-441c-af55-216e6ef2b5ac","system_id":"levelo_inurba_marseille","lat":43.22575,"lon":5.4163,"is_reserved":false,"is_disabled":false,"rental_uris":{"android":"levelo://app?vid=76483057-aa19-441c-af55-216e6ef2b5ac","ios":"levelo://app?vid=76483057-aa19-441c-af55-216e6ef2b5ac"},"vehicle_type_id":"4","last_reported":1779144471,"current_range_meters":4000,"station_id":"st_d2o4gvlbi1j2169b742g","pricing_plan_id":"cebpf4jnsgd1na2vs0mg"},{"bike_id":"a9d8acd3-7977-4cee-928c-f1f51f9d119e","system_id":"levelo_inurba_marseille","lat":43.23969,"lon":5.36618,"is_reserved":false,"is_disabled":false,"rental_uris":{"android":"levelo://app?vid=a9d8acd3-7977-4cee-928c-f1f51f9d119e","ios":"levelo://app?vid=a9d8acd3-7977-4cee-928c-f1f51f9d119e"},"vehicle_type_id":"4","last_reported":1779144471,"current_range_meters":4000,"station_id":"ce4bhi12rcd13ifvqfp0","pricing_plan_id":"cebpf4jnsgd1na2vs0mg"},{"bike_id":"5867e456-6dee-462c-ab29-62035705adc7","system_id":"levelo_inurba_marseille","lat":43.26225,"lon":5.3876,"is_reserved":false,"is_disabled":false,"rental_uris":{"android":"levelo://app?vid=5867e456-6dee-462c-ab29-62035705adc7","ios":"levelo://app?vid=5867e456-6dee-462c-ab29-62035705adc7"},"vehicle_type_id":"4","last_reported":1779144471,"current_range_meters":4000,"station_id":"","pricing_plan_id":"cebpf4jnsgd1na2vs0mg"},{"bike_id":"d3ef7364-0836-4b24-9843-1fcf1783e802","system_id":"levelo_inurba_marseille","lat":43.29895,"lon":5.43653,"is_reserved":false,"is_disabled":false,"rental_uris":{"android":"levelo://app?vid=d3ef7364-0836-4b24-9843-1fcf1783e802","ios":"levelo://app?vid=d3ef7364-0836-4b24-9843-1fcf1783e802"},"vehicle_type_id":"4","last_reported":1779144471,"current_range_meters":4000,"station_id":"ce4bhpp2rcd13ifvqhfg","pricing_plan_id":"cebpf4jnsgd1na2vs0mg"},{"bike_id":"7b6b191c-2196-4eff-a204-e6551d1afb89","system_id":"levelo_inurba_marseille","lat":43.27072,"lon":5.38302,"is_reserved":false,"is_disabled":false,"rental_uris":{"android":"levelo://app?vid=7b6b191c-2196-4eff-a204-e6551d1afb89","ios":"levelo://app?vid=7b6b191c-2196-4eff-a204-e6551d1afb89"},"vehicle_type_id":"4","last_reported":1779144471,"current_range_meters":4400,"station_id":"st_d3n2fo6cfp8s73cte1j0","pricing_plan_id":"cebpf4jnsgd1na2vs0mg"},{"bike_id":"1c52c94e-8317-4744-9d99-003bb6cdb15f","system_id":"levelo_inurba_marseille","lat":43.31702,"lon":5.40427,"is_reserved":false,"is_disabled":false,"rental_uris":{"android":"levelo://app?vid=1c52c94e-8317-4744-9d99-003bb6cdb15f","ios":"levelo://app?vid=1c52c94e-8317-4744-9d99-003bb6cdb15f"},"vehicle_type_id":"4","last_reported":1779144471,"current_range_meters":4400,"station_id":"ce4bh012rcd13ifvqd00","pricing_plan_id":"cebpf4jnsgd1na2vs0mg"},{"bike_id":"6f02c462-5be8-4fd9-bd86-49563918d3d3","system_id":"levelo_inurba_marseille","lat":43.31895,"lon":5.36802,"is_reserved":false,"is_disabled":false,"rental_uris":{"android":"levelo://app?vid=6f02c462-5be8-4fd9-bd86-49563918d3d3","ios":"levelo://app?vid=6f02c462-5be8-4fd9-bd86-49563918d3d3"},"vehicle_type_id":"4","last_reported":1779144471,"current_range_meters":4400,"station_id":"st_d6o2h0d0559c73evc1b0","pricing_plan_id":"cebpf4jnsgd1na2vs0mg"},{"bike_id":"f61ce9fe-ca8e-435e-98bd-c91c3d17c4ad","system_id":"levelo_inurba_marseille","lat":43.29073,"lon":5.37174,"is_reserved":false,"is_disabled":false,"rental_uris":{"android":"levelo://app?vid=f61ce9fe-ca8e-435e-98bd-c91c3d17c4ad","ios":"levelo://app?vid=f61ce9fe-ca8e-435e-98bd-c91c3d17c4ad"},"vehicle_type_id":"4","last_reported":1779144471,"current_range_meters":4400,"station_id":"ce4bh5p2rcd13ifvqe4g","pricing_plan_id":"cebpf4jnsgd1na2vs0mg"},{"bike_id":"9cb9e01c-edb2-41a3-917d-7146f7531c7d","system_id":"levelo_inurba_marseille","lat":43.31754,"lon":5.39009,"is_reserved":false,"is_disabled":false,"rental_uris":{"android":"levelo://app?vid=9cb9e01c-edb2-41a3-917d-7146f7531c7d","ios":"levelo://app?vid=9cb9e01c-edb2-41a3-917d-7146f7531c7d"},"vehicle_type_id":"4","last_reported":1779144471,"current_range_meters":4400,"station_id":"ce4bhqp2rcd13ifvqhng","pricing_plan_id":"cebpf4jnsgd1na2vs0mg"},{"bike_id":"dbf0138b-cfc1-48d4-ae4a-9c45a76e73b1","system_id":"levelo_inurba_marseille","lat":43.31445,"lon":5.37306,"is_reserved":false,"is_disabled":false,"rental_uris":{"android":"levelo://app?vid=dbf0138b-cfc1-48d4-ae4a-9c45a76e73b1","ios":"levelo://app?vid=dbf0138b-cfc1-48d4-ae4a-9c45a76e73b1"},"vehicle_type_id":"4","last_reported":1779144471,"current_range_meters":4400,"station_id":"ce4bgt12rcd13ifvqcd0","pricing_plan_id":"cebpf4jnsgd1na2vs0mg"},{"bike_id":"88324fb6-4d29-461b-96a4-b082411df7ed","system_id":"levelo_inurba_marseille","lat":43.28646,"lon":5.38667,"is_reserved":false,"is_disabled":false,"rental_uris":{"android":"levelo://app?vid=88324fb6-4d29-461b-96a4-b082411df7ed","ios":"levelo://app?vid=88324fb6-4d29-461b-96a4-b082411df7ed"},"vehicle_type_id":"4","last_reported":1779144471,"current_range_meters":4400,"station_id":"ce4bh492rcd13ifvqdug","pricing_plan_id":"cebpf4jnsgd1na2vs0mg"},{"bike_id":"2166a7c0-ce28-433d-8db1-513af363283b","system_id":"levelo_inurba_marseille","lat":43.28485,"lon":5.38419,"is_reserved":false,"is_disabled":false,"rental_uris":{"android":"levelo://app?vid=2166a7c0-ce28-433d-8db1-513af363283b","ios":"levelo://app?vid=2166a7c0-ce28-433d-8db1-513af363283b"},"vehicle_type_id":"4","last_reported":1779144471,"current_range_meters":4400,"station_id":"ce4bh512rcd13ifvqe3g","pricing_plan_id":"cebpf4jnsgd1na2vs0mg"},{"bike_id":"462b788c-6301-44ac-95e3-03eeaa9ea279","system_id":"levelo_inurba_marseille","lat":43.31053,"lon":5.37142,"is_reserved":false,"is_disabled":false,"rental_uris":{"android":"levelo://app?vid=462b788c-6301-44ac-95e3-03eeaa9ea279","ios":"levelo://app?vid=462b788c-6301-44ac-95e3-03eeaa9ea279"},"vehicle_type_id":"4","last_reported":1779144471,"current_range_meters":4400,"station_id":"st_d4kl2rp97mjs73e7tdfg","pricing_plan_id":"cebpf4jnsgd1na2vs0mg"},{"bike_id":"c3f0931a-b98e-4ec6-aa39-67278fb8aaff","system_id":"levelo_inurba_marseille","lat":43.31885,"lon":5.36762,"is_reserved":false,"is_disabled":false,"rental_uris":{"android":"levelo://app?vid=c3f0931a-b98e-4ec6-aa39-67278fb8aaff","ios":"levelo://app?vid=c3f0931a-b98e-4ec6-aa39-67278fb8aaff"},"vehicle_type_id":"4","last_reported":1779144471,"current_range_meters":4800,"station_id":"st_d6o2h0d0559c73evc1b0","pricing_plan_id":"cebpf4jnsgd1na2vs0mg"},{"bike_id":"f46dc198-f447-4b28-8d13-72a1d78dd32a","system_id":"levelo_inurba_marseille","lat":43.29006,"lon":5.3547,"is_reserved":false,"is_disabled":false,"rental_uris":{"android":"levelo://app?vid=f46dc198-f447-4b28-8d13-72a1d78dd32a","ios":"levelo://app?vid=f46dc198-f447-4b28-8d13-72a1d78dd32a"},"vehicle_type_id":"4","last_reported":1779144471,"current_range_meters":4800,"station_id":"","pricing_plan_id":"cebpf4jnsgd1na2vs0mg"},{"bike_id":"31ff2bc9-defb-4580-a7b6-ec23763942fe","system_id":"levelo_inurba_marseille","lat":43.23761,"lon":5.36623,"is_reserved":false,"is_disabled":false,"rental_uris":{"android":"levelo://app?vid=31ff2bc9-defb-4580-a7b6-ec23763942fe","ios":"levelo://app?vid=31ff2bc9-defb-4580-a7b6-ec23763942fe"},"vehicle_type_id":"4","last_reported":1779144471,"current_range_meters":4800,"station_id":"st_d3nk18o9ro0c73en2l3g","pricing_plan_id":"cebpf4jnsgd1na2vs0mg"},{"bike_id":"c4c56dca-3c1e-48c7-b5bd-d8adea2c4f5c","system_id":"levelo_inurba_marseille","lat":43.27041,"lon":5.42273,"is_reserved":false,"is_disabled":false,"rental_uris":{"android":"levelo://app?vid=c4c56dca-3c1e-48c7-b5bd-d8adea2c4f5c","ios":"levelo://app?vid=c4c56dca-3c1e-48c7-b5bd-d8adea2c4f5c"},"vehicle_type_id":"4","last_reported":1779144471,"current_range_meters":4800,"station_id":"ce4bhk92rcd13ifvqgb0","pricing_plan_id":"cebpf4jnsgd1na2vs0mg"},{"bike_id":"2501e45f-08e5-4e1e-b1d6-4597fc74d164","system_id":"levelo_inurba_marseille","lat":43.3088,"lon":5.37195,"is_reserved":false,"is_disabled":false,"rental_uris":{"android":"levelo://app?vid=2501e45f-08e5-4e1e-b1d6-4597fc74d164","ios":"levelo://app?vid=2501e45f-08e5-4e1e-b1d6-4597fc74d164"},"vehicle_type_id":"4","last_reported":1779144471,"current_range_meters":4800,"station_id":"ce4bguh2rcd13ifvqckg","pricing_plan_id":"cebpf4jnsgd1na2vs0mg"},{"bike_id":"39a3ea2d-cf66-4e8d-a6d9-63731ee71959","system_id":"levelo_inurba_marseille","lat":43.26207,"lon":5.37927,"is_reserved":false,"is_disabled":false,"rental_uris":{"android":"levelo://app?vid=39a3ea2d-cf66-4e8d-a6d9-63731ee71959","ios":"levelo://app?vid=39a3ea2d-cf66-4e8d-a6d9-63731ee71959"},"vehicle_type_id":"4","last_reported":1779144471,"current_range_meters":4800,"station_id":"ce4bhjp2rcd13ifvqg90","pricing_plan_id":"cebpf4jnsgd1na2vs0mg"},{"bike_id":"da66c6ce-3d3c-40b4-8a30-8668c058cfe8","system_id":"levelo_inurba_marseille","lat":43.24698,"lon":5.38184,"is_reserved":false,"is_disabled":false,"rental_uris":{"android":"levelo://app?vid=da66c6ce-3d3c-40b4-8a30-8668c058cfe8","ios":"levelo://app?vid=da66c6ce-3d3c-40b4-8a30-8668c058cfe8"},"vehicle_type_id":"4","last_reported":1779144471,"current_range_meters":4800,"station_id":"ce4bhih2rcd13ifvqfr0","pricing_plan_id":"cebpf4jnsgd1na2vs0mg"},{"bike_id":"e5d3f8e5-7fc2-4063-b550-2d1f9611ba34","system_id":"levelo_inurba_marseille","lat":43.21196,"lon":5.35059,"is_reserved":false,"is_disabled":true,"rental_uris":{"android":"levelo://app?vid=e5d3f8e5-7fc2-4063-b550-2d1f9611ba34","ios":"levelo://app?vid=e5d3f8e5-7fc2-4063-b550-2d1f9611ba34"},"vehicle_type_id":"4","last_reported":1779144471,"current_range_meters":4800,"station_id":"st_cvj6sg6p6f1abm77japg","pricing_plan_id":"cebpf4jnsgd1na2vs0mg"},{"bike_id":"56611aee-4a97-497f-a541-b301e0a4b4f4","system_id":"levelo_inurba_marseille","lat":43.33248,"lon":5.40625,"is_reserved":false,"is_disabled":false,"rental_uris":{"android":"levelo://app?vid=56611aee-4a97-497f-a541-b301e0a4b4f4","ios":"levelo://app?vid=56611aee-4a97-497f-a541-b301e0a4b4f4"},"vehicle_type_id":"4","last_reported":1779144471,"current_range_meters":4800,"station_id":"","pricing_plan_id":"cebpf4jnsgd1na2vs0mg"},{"bike_id":"edf7f005-3eb2-4c08-b6ac-b5fdcbf77bce","system_id":"levelo_inurba_marseille","lat":43.28665,"lon":5.36337,"is_reserved":false,"is_disabled":false,"rental_uris":{"android":"levelo://app?vid=edf7f005-3eb2-4c08-b6ac-b5fdcbf77bce","ios":"levelo://app?vid=edf7f005-3eb2-4c08-b6ac-b5fdcbf77bce"},"vehicle_type_id":"4","last_reported":1779144471,"current_range_meters":4800,"station_id":"ce4bhah2rcd13ifvqej0","pricing_plan_id":"cebpf4jnsgd1na2vs0mg"},{"bike_id":"627051ca-ceab-4958-842c-b7590911776e","system_id":"levelo_inurba_marseille","lat":43.32388,"lon":5.36734,"is_reserved":false,"is_disabled":false,"rental_uris":{"android":"levelo://app?vid=627051ca-ceab-4958-842c-b7590911776e","ios":"levelo://app?vid=627051ca-ceab-4958-842c-b7590911776e"},"vehicle_type_id":"4","last_reported":1779144471,"current_range_meters":4800,"station_id":"","pricing_plan_id":"cebpf4jnsgd1na2vs0mg"},{"bike_id":"9fdcbe47-e271-4e8a-a5f4-2b31fe40ea31","system_id":"levelo_inurba_marseille","lat":43.2861,"lon":5.35097,"is_reserved":false,"is_disabled":false,"rental_uris":{"android":"levelo://app?vid=9fdcbe47-e271-4e8a-a5f4-2b31fe40ea31","ios":"levelo://app?vid=9fdcbe47-e271-4e8a-a5f4-2b31fe40ea31"},"vehicle_type_id":"4","last_reported":1779144471,"current_range_meters":4800,"station_id":"ce4bhch2rcd13ifvqeug","pricing_plan_id":"cebpf4jnsgd1na2vs0mg"},{"bike_id":"5064e4d1-a4b8-4d4d-9cf4-b90eda56c5de","system_id":"levelo_inurba_marseille","lat":43.33555,"lon":5.3747,"is_reserved":false,"is_disabled":false,"rental_uris":{"android":"levelo://app?vid=5064e4d1-a4b8-4d4d-9cf4-b90eda56c5de","ios":"levelo://app?vid=5064e4d1-a4b8-4d4d-9cf4-b90eda56c5de"},"vehicle_type_id":"4","last_reported":1779144471,"current_range_meters":4800,"station_id":"st_d46tts09ee8s73dlu43g","pricing_plan_id":"cebpf4jnsgd1na2vs0mg"},{"bike_id":"71cc849b-6867-4b3f-9dc7-18039e41f45b","system_id":"levelo_inurba_marseille","lat":43.29066,"lon":5.35872,"is_reserved":false,"is_disabled":false,"rental_uris":{"android":"levelo://app?vid=71cc849b-6867-4b3f-9dc7-18039e41f45b","ios":"levelo://app?vid=71cc849b-6867-4b3f-9dc7-18039e41f45b"},"vehicle_type_id":"4","last_reported":1779144471,"current_range_meters":4800,"station_id":"ce4bha92rcd13ifvqeg0","pricing_plan_id":"cebpf4jnsgd1na2vs0mg"},{"bike_id":"81953542-9173-4123-87e9-c66001a3f47d","system_id":"levelo_inurba_marseille","lat":43.24684,"lon":5.38158,"is_reserved":false,"is_disabled":false,"rental_uris":{"android":"levelo://app?vid=81953542-9173-4123-87e9-c66001a3f47d","ios":"levelo://app?vid=81953542-9173-4123-87e9-c66001a3f47d"},"vehicle_type_id":"4","last_reported":1779144471,"current_range_meters":5600,"station_id":"ce4bhih2rcd13ifvqfr0","pricing_plan_id":"cebpf4jnsgd1na2vs0mg"},{"bike_id":"185113fd-b3bd-49f2-9b2e-dfb619e0d36f","system_id":"levelo_inurba_marseille","lat":43.24172,"lon":5.39723,"is_reserved":false,"is_disabled":false,"rental_uris":{"android":"levelo://app?vid=185113fd-b3bd-49f2-9b2e-dfb619e0d36f","ios":"levelo://app?vid=185113fd-b3bd-49f2-9b2e-dfb619e0d36f"},"vehicle_type_id":"4","last_reported":1779144471,"current_range_meters":5600,"station_id":"ce4bhn12rcd13ifvqgpg","pricing_plan_id":"cebpf4jnsgd1na2vs0mg"},{"bike_id":"1c2eb4d1-e613-4047-a77c-317fbe0accea","system_id":"levelo_inurba_marseille","lat":43.29245,"lon":5.38449,"is_reserved":false,"is_disabled":true,"rental_uris":{"android":"levelo://app?vid=1c2eb4d1-e613-4047-a77c-317fbe0accea","ios":"levelo://app?vid=1c2eb4d1-e613-4047-a77c-317fbe0accea"},"vehicle_type_id":"4","last_reported":1779144471,"current_range_meters":5600,"station_id":"ce4bh692rcd13ifvqea0","pricing_plan_id":"cebpf4jnsgd1na2vs0mg"},{"bike_id":"5321f702-e2b0-42bf-9d68-0a4a7c9f661f","system_id":"levelo_inurba_marseille","lat":43.25565,"lon":5.38243,"is_reserved":false,"is_disabled":false,"rental_uris":{"android":"levelo://app?vid=5321f702-e2b0-42bf-9d68-0a4a7c9f661f","ios":"levelo://app?vid=5321f702-e2b0-42bf-9d68-0a4a7c9f661f"},"vehicle_type_id":"4","last_reported":1779144471,"current_range_meters":5600,"station_id":"ce4bhih2rcd13ifvqfs0","pricing_plan_id":"cebpf4jnsgd1na2vs0mg"},{"bike_id":"ab3e477c-861a-436a-9f70-5c6894fa4863","system_id":"levelo_inurba_marseille","lat":43.29203,"lon":5.35802,"is_reserved":false,"is_disabled":false,"rental_uris":{"android":"levelo://app?vid=ab3e477c-861a-436a-9f70-5c6894fa4863","ios":"levelo://app?vid=ab3e477c-861a-436a-9f70-5c6894fa4863"},"vehicle_type_id":"4","last_reported":1779144471,"current_range_meters":5600,"station_id":"ce4bhb12rcd13ifvqel0","pricing_plan_id":"cebpf4jnsgd1na2vs0mg"},{"bike_id":"4de22d2a-42b5-4340-9a15-d6954e69ec3b","system_id":"levelo_inurba_marseille","lat":43.25458,"lon":5.37703,"is_reserved":false,"is_disabled":false,"rental_uris":{"android":"levelo://app?vid=4de22d2a-42b5-4340-9a15-d6954e69ec3b","ios":"levelo://app?vid=4de22d2a-42b5-4340-9a15-d6954e69ec3b"},"vehicle_type_id":"4","last_reported":1779144471,"current_range_meters":5600,"station_id":"","pricing_plan_id":"cebpf4jnsgd1na2vs0mg"},{"bike_id":"46117692-980b-4971-bcf1-25795253a6b1","system_id":"levelo_inurba_marseille","lat":43.28616,"lon":5.37066,"is_reserved":false,"is_disabled":false,"rental_uris":{"android":"levelo://app?vid=46117692-980b-4971-bcf1-25795253a6b1","ios":"levelo://app?vid=46117692-980b-4971-bcf1-25795253a6b1"},"vehicle_type_id":"4","last_reported":1779144471,"current_range_meters":5600,"station_id":"ce4bht12rcd13ifvqi60","pricing_plan_id":"cebpf4jnsgd1na2vs0mg"},{"bike_id":"99aecca2-734a-4156-bce7-510fb04b7066","system_id":"levelo_inurba_marseille","lat":43.30956,"lon":5.39042,"is_reserved":false,"is_disabled":false,"rental_uris":{"android":"levelo://app?vid=99aecca2-734a-4156-bce7-510fb04b7066","ios":"levelo://app?vid=99aecca2-734a-4156-bce7-510fb04b7066"},"vehicle_type_id":"4","last_reported":1779144471,"current_range_meters":5600,"station_id":"ce4bgup2rcd13ifvqco0","pricing_plan_id":"cebpf4jnsgd1na2vs0mg"},{"bike_id":"42707d6f-4581-4bd7-a210-c1a06576b84d","system_id":"levelo_inurba_marseille","lat":43.2656,"lon":5.40329,"is_reserved":false,"is_disabled":false,"rental_uris":{"android":"levelo://app?vid=42707d6f-4581-4bd7-a210-c1a06576b84d","ios":"levelo://app?vid=42707d6f-4581-4bd7-a210-c1a06576b84d"},"vehicle_type_id":"4","last_reported":1779144471,"current_range_meters":5600,"station_id":"ce4bhmp2rcd13ifvqgng","pricing_plan_id":"cebpf4jnsgd1na2vs0mg"},{"bike_id":"f0155b3f-a757-41e6-a885-d929684d0a3c","system_id":"levelo_inurba_marseille","lat":43.30588,"lon":5.36569,"is_reserved":false,"is_disabled":false,"rental_uris":{"android":"levelo://app?vid=f0155b3f-a757-41e6-a885-d929684d0a3c","ios":"levelo://app?vid=f0155b3f-a757-41e6-a885-d929684d0a3c"},"vehicle_type_id":"4","last_reported":1779144471,"current_range_meters":5600,"station_id":"ce4bgs12rcd13ifvqcag","pricing_plan_id":"cebpf4jnsgd1na2vs0mg"},{"bike_id":"f335c029-01d7-40ba-b2d2-8c1aabc10fe1","system_id":"levelo_inurba_marseille","lat":43.29281,"lon":5.4011,"is_reserved":false,"is_disabled":false,"rental_uris":{"android":"levelo://app?vid=f335c029-01d7-40ba-b2d2-8c1aabc10fe1","ios":"levelo://app?vid=f335c029-01d7-40ba-b2d2-8c1aabc10fe1"},"vehicle_type_id":"4","last_reported":1779144471,"current_range_meters":5600,"station_id":"ce4bh312rcd13ifvqdk0","pricing_plan_id":"cebpf4jnsgd1na2vs0mg"},{"bike_id":"4fd2a38d-1eb3-433f-8004-d4fc072db0ca","system_id":"levelo_inurba_marseille","lat":43.29874,"lon":5.39725,"is_reserved":false,"is_disabled":false,"rental_uris":{"android":"levelo://app?vid=4fd2a38d-1eb3-433f-8004-d4fc072db0ca","ios":"levelo://app?vid=4fd2a38d-1eb3-433f-8004-d4fc072db0ca"},"vehicle_type_id":"4","last_reported":1779144471,"current_range_meters":5600,"station_id":"ce4bh0h2rcd13ifvqd50","pricing_plan_id":"cebpf4jnsgd1na2vs0mg"},{"bike_id":"80cc7be8-e95e-4d57-afd7-767e38f6fffc","system_id":"levelo_inurba_marseille","lat":43.29756,"lon":5.42762,"is_reserved":false,"is_disabled":false,"rental_uris":{"android":"levelo://app?vid=80cc7be8-e95e-4d57-afd7-767e38f6fffc","ios":"levelo://app?vid=80cc7be8-e95e-4d57-afd7-767e38f6fffc"},"vehicle_type_id":"4","last_reported":1779144471,"current_range_meters":5600,"station_id":"st_d3md5207bmas73dh9klg","pricing_plan_id":"cebpf4jnsgd1na2vs0mg"},{"bike_id":"461d5e9b-3596-4d6e-a192-ffe757923bcc","system_id":"levelo_inurba_marseille","lat":43.26371,"lon":5.41088,"is_reserved":false,"is_disabled":false,"rental_uris":{"android":"levelo://app?vid=461d5e9b-3596-4d6e-a192-ffe757923bcc","ios":"levelo://app?vid=461d5e9b-3596-4d6e-a192-ffe757923bcc"},"vehicle_type_id":"4","last_reported":1779144471,"current_range_meters":5600,"station_id":"st_d4e5ca6na9uc73bfl5fg","pricing_plan_id":"cebpf4jnsgd1na2vs0mg"},{"bike_id":"b9ca77f1-80fa-475b-9a37-ec72feacc5df","system_id":"levelo_inurba_marseille","lat":43.29799,"lon":5.44054,"is_reserved":false,"is_disabled":false,"rental_uris":{"android":"levelo://app?vid=b9ca77f1-80fa-475b-9a37-ec72feacc5df","ios":"levelo://app?vid=b9ca77f1-80fa-475b-9a37-ec72feacc5df"},"vehicle_type_id":"4","last_reported":1779144471,"current_range_meters":6000,"station_id":"st_d3jp68qikq2c7381ktn0","pricing_plan_id":"cebpf4jnsgd1na2vs0mg"},{"bike_id":"88ebb790-6b2b-4fcd-9b52-484e5a30bff5","system_id":"levelo_inurba_marseille","lat":43.28405,"lon":5.37521,"is_reserved":false,"is_disabled":false,"rental_uris":{"android":"levelo://app?vid=88ebb790-6b2b-4fcd-9b52-484e5a30bff5","ios":"levelo://app?vid=88ebb790-6b2b-4fcd-9b52-484e5a30bff5"},"vehicle_type_id":"4","last_reported":1779144471,"current_range_meters":6000,"station_id":"ce4bh412rcd13ifvqds0","pricing_plan_id":"cebpf4jnsgd1na2vs0mg"},{"bike_id":"9e2fe2f7-d6df-4ab9-966a-e0a262530a00","system_id":"levelo_inurba_marseille","lat":43.248,"lon":5.3745,"is_reserved":false,"is_disabled":false,"rental_uris":{"android":"levelo://app?vid=9e2fe2f7-d6df-4ab9-966a-e0a262530a00","ios":"levelo://app?vid=9e2fe2f7-d6df-4ab9-966a-e0a262530a00"},"vehicle_type_id":"4","last_reported":1779144471,"current_range_meters":6000,"station_id":"ce4bhgh2rcd13ifvqfb0","pricing_plan_id":"cebpf4jnsgd1na2vs0mg"},{"bike_id":"3f7e1ed9-1b6d-4bbe-8e61-40251501c157","system_id":"levelo_inurba_marseille","lat":43.30416,"lon":5.41269,"is_reserved":false,"is_disabled":false,"rental_uris":{"android":"levelo://app?vid=3f7e1ed9-1b6d-4bbe-8e61-40251501c157","ios":"levelo://app?vid=3f7e1ed9-1b6d-4bbe-8e61-40251501c157"},"vehicle_type_id":"4","last_reported":1779144471,"current_range_meters":6000,"station_id":"ce4bhop2rcd13ifvqh8g","pricing_plan_id":"cebpf4jnsgd1na2vs0mg"},{"bike_id":"e499a2f1-ef57-4168-8d3c-c77563195234","system_id":"levelo_inurba_marseille","lat":43.28659,"lon":5.38668,"is_reserved":false,"is_disabled":false,"rental_uris":{"android":"levelo://app?vid=e499a2f1-ef57-4168-8d3c-c77563195234","ios":"levelo://app?vid=e499a2f1-ef57-4168-8d3c-c77563195234"},"vehicle_type_id":"4","last_reported":1779144471,"current_range_meters":6000,"station_id":"ce4bh492rcd13ifvqdug","pricing_plan_id":"cebpf4jnsgd1na2vs0mg"},{"bike_id":"6af654b7-7a8b-457b-ad58-fba21b09801a","system_id":"levelo_inurba_marseille","lat":43.32117,"lon":5.36782,"is_reserved":false,"is_disabled":false,"rental_uris":{"android":"levelo://app?vid=6af654b7-7a8b-457b-ad58-fba21b09801a","ios":"levelo://app?vid=6af654b7-7a8b-457b-ad58-fba21b09801a"},"vehicle_type_id":"4","last_reported":1779144471,"current_range_meters":6000,"station_id":"ce4bhrh2rcd13ifvqhug","pricing_plan_id":"cebpf4jnsgd1na2vs0mg"},{"bike_id":"46e5ee1b-6e75-4db8-88e1-e8ff6d5292d7","system_id":"levelo_inurba_marseille","lat":43.23085,"lon":5.39489,"is_reserved":false,"is_disabled":false,"rental_uris":{"android":"levelo://app?vid=46e5ee1b-6e75-4db8-88e1-e8ff6d5292d7","ios":"levelo://app?vid=46e5ee1b-6e75-4db8-88e1-e8ff6d5292d7"},"vehicle_type_id":"4","last_reported":1779144471,"current_range_meters":6000,"station_id":"","pricing_plan_id":"cebpf4jnsgd1na2vs0mg"},{"bike_id":"527c40e5-badc-4281-b4c8-e1f5629d912c","system_id":"levelo_inurba_marseille","lat":43.25109,"lon":5.3953,"is_reserved":false,"is_disabled":false,"rental_uris":{"android":"levelo://app?vid=527c40e5-badc-4281-b4c8-e1f5629d912c","ios":"levelo://app?vid=527c40e5-badc-4281-b4c8-e1f5629d912c"},"vehicle_type_id":"4","last_reported":1779144471,"current_range_meters":6000,"station_id":"ce4bhm12rcd13ifvqgkg","pricing_plan_id":"cebpf4jnsgd1na2vs0mg"},{"bike_id":"fe9b1e06-377d-4a4a-86dd-69d87bbb6487","system_id":"levelo_inurba_marseille","lat":43.27336,"lon":5.39065,"is_reserved":false,"is_disabled":false,"rental_uris":{"android":"levelo://app?vid=fe9b1e06-377d-4a4a-86dd-69d87bbb6487","ios":"levelo://app?vid=fe9b1e06-377d-4a4a-86dd-69d87bbb6487"},"vehicle_type_id":"4","last_reported":1779144471,"current_range_meters":6000,"station_id":"ce4bhgp2rcd13ifvqfe0","pricing_plan_id":"cebpf4jnsgd1na2vs0mg"},{"bike_id":"26591e34-5557-4c47-85c1-c0340780f77e","system_id":"levelo_inurba_marseille","lat":43.24533,"lon":5.39537,"is_reserved":false,"is_disabled":false,"rental_uris":{"android":"levelo://app?vid=26591e34-5557-4c47-85c1-c0340780f77e","ios":"levelo://app?vid=26591e34-5557-4c47-85c1-c0340780f77e"},"vehicle_type_id":"4","last_reported":1779144471,"current_range_meters":6000,"station_id":"ce4bhlp2rcd13ifvqgjg","pricing_plan_id":"cebpf4jnsgd1na2vs0mg"},{"bike_id":"5a1c8a28-d79f-4b07-a4d8-bce75ba2c426","system_id":"levelo_inurba_marseille","lat":43.25854,"lon":5.39902,"is_reserved":false,"is_disabled":true,"rental_uris":{"android":"levelo://app?vid=5a1c8a28-d79f-4b07-a4d8-bce75ba2c426","ios":"levelo://app?vid=5a1c8a28-d79f-4b07-a4d8-bce75ba2c426"},"vehicle_type_id":"4","last_reported":1779144471,"current_range_meters":6400,"station_id":"ce4bhl92rcd13ifvqghg","pricing_plan_id":"cebpf4jnsgd1na2vs0mg"},{"bike_id":"139da8c0-4a36-4fe0-a828-69f137ae30da","system_id":"levelo_inurba_marseille","lat":43.25528,"lon":5.37677,"is_reserved":false,"is_disabled":true,"rental_uris":{"android":"levelo://app?vid=139da8c0-4a36-4fe0-a828-69f137ae30da","ios":"levelo://app?vid=139da8c0-4a36-4fe0-a828-69f137ae30da"},"vehicle_type_id":"4","last_reported":1779144471,"current_range_meters":6400,"station_id":"ce4bhh12rcd13ifvqff0","pricing_plan_id":"cebpf4jnsgd1na2vs0mg"},{"bike_id":"8f6fb70f-9962-4c14-afae-9cd42b60f2ca","system_id":"levelo_inurba_marseille","lat":43.2678,"lon":5.39415,"is_reserved":false,"is_disabled":true,"rental_uris":{"android":"levelo://app?vid=8f6fb70f-9962-4c14-afae-9cd42b60f2ca","ios":"levelo://app?vid=8f6fb70f-9962-4c14-afae-9cd42b60f2ca"},"vehicle_type_id":"4","last_reported":1779144471,"current_range_meters":6400,"station_id":"ce4bhh12rcd13ifvqfg0","pricing_plan_id":"cebpf4jnsgd1na2vs0mg"},{"bike_id":"373f9222-30d0-4160-9fc0-3f4cc13ad446","system_id":"levelo_inurba_marseille","lat":43.21748,"lon":5.34632,"is_reserved":false,"is_disabled":false,"rental_uris":{"android":"levelo://app?vid=373f9222-30d0-4160-9fc0-3f4cc13ad446","ios":"levelo://app?vid=373f9222-30d0-4160-9fc0-3f4cc13ad446"},"vehicle_type_id":"4","last_reported":1779144471,"current_range_meters":6400,"station_id":"st_cvj6r9ubvosntc0bgbag","pricing_plan_id":"cebpf4jnsgd1na2vs0mg"},{"bike_id":"85aa1070-8927-41d8-ab11-aae95609209a","system_id":"levelo_inurba_marseille","lat":43.28446,"lon":5.35899,"is_reserved":false,"is_disabled":false,"rental_uris":{"android":"levelo://app?vid=85aa1070-8927-41d8-ab11-aae95609209a","ios":"levelo://app?vid=85aa1070-8927-41d8-ab11-aae95609209a"},"vehicle_type_id":"4","last_reported":1779144471,"current_range_meters":6400,"station_id":"ce4bhah2rcd13ifvqei0","pricing_plan_id":"cebpf4jnsgd1na2vs0mg"},{"bike_id":"80b13410-2b38-4065-9ee7-6899f603dc75","system_id":"levelo_inurba_marseille","lat":43.28719,"lon":5.36082,"is_reserved":false,"is_disabled":false,"rental_uris":{"android":"levelo://app?vid=80b13410-2b38-4065-9ee7-6899f603dc75","ios":"levelo://app?vid=80b13410-2b38-4065-9ee7-6899f603dc75"},"vehicle_type_id":"4","last_reported":1779144471,"current_range_meters":6400,"station_id":"cki0cbj6b192h4jlfktg","pricing_plan_id":"cebpf4jnsgd1na2vs0mg"},{"bike_id":"f730d25a-84e3-42c5-a939-51609cebefcd","system_id":"levelo_inurba_marseille","lat":43.28705,"lon":5.46685,"is_reserved":false,"is_disabled":false,"rental_uris":{"android":"levelo://app?vid=f730d25a-84e3-42c5-a939-51609cebefcd","ios":"levelo://app?vid=f730d25a-84e3-42c5-a939-51609cebefcd"},"vehicle_type_id":"4","last_reported":1779144471,"current_range_meters":6400,"station_id":"st_d6tc3vkotcvc738tfjhg","pricing_plan_id":"cebpf4jnsgd1na2vs0mg"},{"bike_id":"913b4782-ecaf-49ee-b1ea-1a73be00cddd","system_id":"levelo_inurba_marseille","lat":43.26042,"lon":5.394,"is_reserved":false,"is_disabled":false,"rental_uris":{"android":"levelo://app?vid=913b4782-ecaf-49ee-b1ea-1a73be00cddd","ios":"levelo://app?vid=913b4782-ecaf-49ee-b1ea-1a73be00cddd"},"vehicle_type_id":"4","last_reported":1779144471,"current_range_meters":6400,"station_id":"ce4bhh92rcd13ifvqfj0","pricing_plan_id":"cebpf4jnsgd1na2vs0mg"},{"bike_id":"8b40f371-b5b3-4fc4-8d18-2cb1fc4066c3","system_id":"levelo_inurba_marseille","lat":43.28929,"lon":5.38379,"is_reserved":false,"is_disabled":true,"rental_uris":{"android":"levelo://app?vid=8b40f371-b5b3-4fc4-8d18-2cb1fc4066c3","ios":"levelo://app?vid=8b40f371-b5b3-4fc4-8d18-2cb1fc4066c3"},"vehicle_type_id":"4","last_reported":1779144471,"current_range_meters":6400,"station_id":"ce4bh612rcd13ifvqe6g","pricing_plan_id":"cebpf4jnsgd1na2vs0mg"},{"bike_id":"1e83bb69-67d4-4436-a694-2a70fa6c12ea","system_id":"levelo_inurba_marseille","lat":43.24667,"lon":5.38155,"is_reserved":false,"is_disabled":false,"rental_uris":{"android":"levelo://app?vid=1e83bb69-67d4-4436-a694-2a70fa6c12ea","ios":"levelo://app?vid=1e83bb69-67d4-4436-a694-2a70fa6c12ea"},"vehicle_type_id":"4","last_reported":1779144471,"current_range_meters":6400,"station_id":"ce4bhih2rcd13ifvqfr0","pricing_plan_id":"cebpf4jnsgd1na2vs0mg"},{"bike_id":"92d1f52a-2b5f-46f0-a31e-967db06a4663","system_id":"levelo_inurba_marseille","lat":43.23384,"lon":5.4121,"is_reserved":false,"is_disabled":true,"rental_uris":{"android":"levelo://app?vid=92d1f52a-2b5f-46f0-a31e-967db06a4663","ios":"levelo://app?vid=92d1f52a-2b5f-46f0-a31e-967db06a4663"},"vehicle_type_id":"4","last_reported":1779144471,"current_range_meters":6400,"station_id":"st_d75pvndhf9lc73cqq3eg","pricing_plan_id":"cebpf4jnsgd1na2vs0mg"},{"bike_id":"8655fdd0-b9ff-4c4b-a8e4-7080f35b0493","system_id":"levelo_inurba_marseille","lat":43.31325,"lon":5.39691,"is_reserved":false,"is_disabled":false,"rental_uris":{"android":"levelo://app?vid=8655fdd0-b9ff-4c4b-a8e4-7080f35b0493","ios":"levelo://app?vid=8655fdd0-b9ff-4c4b-a8e4-7080f35b0493"},"vehicle_type_id":"4","last_reported":1779144471,"current_range_meters":6400,"station_id":"ce4bgvp2rcd13ifvqcu0","pricing_plan_id":"cebpf4jnsgd1na2vs0mg"},{"bike_id":"3467f6e8-d4b1-4c81-83eb-9bfd2f1ebb8f","system_id":"levelo_inurba_marseille","lat":43.28002,"lon":5.40013,"is_reserved":false,"is_disabled":false,"rental_uris":{"android":"levelo://app?vid=3467f6e8-d4b1-4c81-83eb-9bfd2f1ebb8f","ios":"levelo://app?vid=3467f6e8-d4b1-4c81-83eb-9bfd2f1ebb8f"},"vehicle_type_id":"4","last_reported":1779144471,"current_range_meters":6400,"station_id":"ce4bho92rcd13ifvqh4g","pricing_plan_id":"cebpf4jnsgd1na2vs0mg"},{"bike_id":"32a331e7-e577-4f3e-8e78-93860127baf5","system_id":"levelo_inurba_marseille","lat":43.2439,"lon":5.37052,"is_reserved":false,"is_disabled":false,"rental_uris":{"android":"levelo://app?vid=32a331e7-e577-4f3e-8e78-93860127baf5","ios":"levelo://app?vid=32a331e7-e577-4f3e-8e78-93860127baf5"},"vehicle_type_id":"4","last_reported":1779144471,"current_range_meters":6800,"station_id":"ce4bhhh2rcd13ifvqfk0","pricing_plan_id":"cebpf4jnsgd1na2vs0mg"},{"bike_id":"f953e7df-9a8f-4f8e-8e56-6a5db7d34d82","system_id":"levelo_inurba_marseille","lat":43.269189,"lon":5.380411,"is_reserved":false,"is_disabled":false,"rental_uris":{"android":"levelo://app?vid=f953e7df-9a8f-4f8e-8e56-6a5db7d34d82","ios":"levelo://app?vid=f953e7df-9a8f-4f8e-8e56-6a5db7d34d82"},"vehicle_type_id":"4","last_reported":1779144471,"current_range_meters":6800,"station_id":"","pricing_plan_id":"cebpf4jnsgd1na2vs0mg"},{"bike_id":"d330ebaf-89a2-4938-8fb2-a03c97594a54","system_id":"levelo_inurba_marseille","lat":43.28995,"lon":5.37614,"is_reserved":false,"is_disabled":false,"rental_uris":{"android":"levelo://app?vid=d330ebaf-89a2-4938-8fb2-a03c97594a54","ios":"levelo://app?vid=d330ebaf-89a2-4938-8fb2-a03c97594a54"},"vehicle_type_id":"4","last_reported":1779144471,"current_range_meters":6800,"station_id":"","pricing_plan_id":"cebpf4jnsgd1na2vs0mg"},{"bike_id":"2eee5c56-15d0-42b7-a294-a32ebf5dafc7","system_id":"levelo_inurba_marseille","lat":43.2969,"lon":5.36614,"is_reserved":false,"is_disabled":false,"rental_uris":{"android":"levelo://app?vid=2eee5c56-15d0-42b7-a294-a32ebf5dafc7","ios":"levelo://app?vid=2eee5c56-15d0-42b7-a294-a32ebf5dafc7"},"vehicle_type_id":"4","last_reported":1779144471,"current_range_meters":6800,"station_id":"ce4bgn12rcd13ifvqbt0","pricing_plan_id":"cebpf4jnsgd1na2vs0mg"},{"bike_id":"1f8259a9-7e55-4812-b53f-6d999496a759","system_id":"levelo_inurba_marseille","lat":43.28699,"lon":5.46692,"is_reserved":false,"is_disabled":false,"rental_uris":{"android":"levelo://app?vid=1f8259a9-7e55-4812-b53f-6d999496a759","ios":"levelo://app?vid=1f8259a9-7e55-4812-b53f-6d999496a759"},"vehicle_type_id":"4","last_reported":1779144471,"current_range_meters":6800,"station_id":"st_d6tc3vkotcvc738tfjhg","pricing_plan_id":"cebpf4jnsgd1na2vs0mg"},{"bike_id":"6ea6c320-3fde-4b3f-983f-c4ea28652a4e","system_id":"levelo_inurba_marseille","lat":43.2255,"lon":5.41619,"is_reserved":false,"is_disabled":false,"rental_uris":{"android":"levelo://app?vid=6ea6c320-3fde-4b3f-983f-c4ea28652a4e","ios":"levelo://app?vid=6ea6c320-3fde-4b3f-983f-c4ea28652a4e"},"vehicle_type_id":"4","last_reported":1779144471,"current_range_meters":6800,"station_id":"st_d2o4gvlbi1j2169b742g","pricing_plan_id":"cebpf4jnsgd1na2vs0mg"},{"bike_id":"17ba3c19-387f-4e2e-b73c-a02294ccdd28","system_id":"levelo_inurba_marseille","lat":43.22557,"lon":5.41632,"is_reserved":false,"is_disabled":false,"rental_uris":{"android":"levelo://app?vid=17ba3c19-387f-4e2e-b73c-a02294ccdd28","ios":"levelo://app?vid=17ba3c19-387f-4e2e-b73c-a02294ccdd28"},"vehicle_type_id":"4","last_reported":1779144471,"current_range_meters":6800,"station_id":"st_d2o4gvlbi1j2169b742g","pricing_plan_id":"cebpf4jnsgd1na2vs0mg"},{"bike_id":"8f3af7fc-2bf8-4325-97eb-54f330bbc6f4","system_id":"levelo_inurba_marseille","lat":43.24174,"lon":5.36402,"is_reserved":false,"is_disabled":false,"rental_uris":{"android":"levelo://app?vid=8f3af7fc-2bf8-4325-97eb-54f330bbc6f4","ios":"levelo://app?vid=8f3af7fc-2bf8-4325-97eb-54f330bbc6f4"},"vehicle_type_id":"4","last_reported":1779144471,"current_range_meters":6800,"station_id":"cpo36qri1sfpv3e86is0","pricing_plan_id":"cebpf4jnsgd1na2vs0mg"},{"bike_id":"428a210f-87f7-428f-9ac4-76d179596d35","system_id":"levelo_inurba_marseille","lat":43.28577,"lon":5.39499,"is_reserved":false,"is_disabled":true,"rental_uris":{"android":"levelo://app?vid=428a210f-87f7-428f-9ac4-76d179596d35","ios":"levelo://app?vid=428a210f-87f7-428f-9ac4-76d179596d35"},"vehicle_type_id":"4","last_reported":1779144471,"current_range_meters":6800,"station_id":"ce4bh292rcd13ifvqdg0","pricing_plan_id":"cebpf4jnsgd1na2vs0mg"},{"bike_id":"4ac8ff19-3b11-40d5-9853-fe542b6b1dff","system_id":"levelo_inurba_marseille","lat":43.29436,"lon":5.3976,"is_reserved":false,"is_disabled":false,"rental_uris":{"android":"levelo://app?vid=4ac8ff19-3b11-40d5-9853-fe542b6b1dff","ios":"levelo://app?vid=4ac8ff19-3b11-40d5-9853-fe542b6b1dff"},"vehicle_type_id":"4","last_reported":1779144471,"current_range_meters":6800,"station_id":"ce4bh3h2rcd13ifvqdo0","pricing_plan_id":"cebpf4jnsgd1na2vs0mg"},{"bike_id":"21500814-6683-446e-8685-c501c2e51c66","system_id":"levelo_inurba_marseille","lat":43.30888,"lon":5.37201,"is_reserved":false,"is_disabled":false,"rental_uris":{"android":"levelo://app?vid=21500814-6683-446e-8685-c501c2e51c66","ios":"levelo://app?vid=21500814-6683-446e-8685-c501c2e51c66"},"vehicle_type_id":"4","last_reported":1779144471,"current_range_meters":6800,"station_id":"ce4bguh2rcd13ifvqckg","pricing_plan_id":"cebpf4jnsgd1na2vs0mg"},{"bike_id":"87734c19-e7b5-4722-9118-7ad40bbc200d","system_id":"levelo_inurba_marseille","lat":43.3104,"lon":5.3716,"is_reserved":false,"is_disabled":false,"rental_uris":{"android":"levelo://app?vid=87734c19-e7b5-4722-9118-7ad40bbc200d","ios":"levelo://app?vid=87734c19-e7b5-4722-9118-7ad40bbc200d"},"vehicle_type_id":"4","last_reported":1779144471,"current_range_meters":6800,"station_id":"st_d4kl2rp97mjs73e7tdfg","pricing_plan_id":"cebpf4jnsgd1na2vs0mg"},{"bike_id":"fecbad9b-de34-45b5-aec9-0d12e826acd8","system_id":"levelo_inurba_marseille","lat":43.21187,"lon":5.35071,"is_reserved":false,"is_disabled":true,"rental_uris":{"android":"levelo://app?vid=fecbad9b-de34-45b5-aec9-0d12e826acd8","ios":"levelo://app?vid=fecbad9b-de34-45b5-aec9-0d12e826acd8"},"vehicle_type_id":"4","last_reported":1779144471,"current_range_meters":6800,"station_id":"st_cvj6sg6p6f1abm77japg","pricing_plan_id":"cebpf4jnsgd1na2vs0mg"},{"bike_id":"b3e47a10-789b-4113-b169-face25d448d0","system_id":"levelo_inurba_marseille","lat":43.28727,"lon":5.46706,"is_reserved":false,"is_disabled":false,"rental_uris":{"android":"levelo://app?vid=b3e47a10-789b-4113-b169-face25d448d0","ios":"levelo://app?vid=b3e47a10-789b-4113-b169-face25d448d0"},"vehicle_type_id":"4","last_reported":1779144471,"current_range_meters":6800,"station_id":"st_d6tc3vkotcvc738tfjhg","pricing_plan_id":"cebpf4jnsgd1na2vs0mg"},{"bike_id":"67298b0d-96b3-4d14-87eb-fc9a2dd8b027","system_id":"levelo_inurba_marseille","lat":43.25123,"lon":5.40309,"is_reserved":false,"is_disabled":false,"rental_uris":{"android":"levelo://app?vid=67298b0d-96b3-4d14-87eb-fc9a2dd8b027","ios":"levelo://app?vid=67298b0d-96b3-4d14-87eb-fc9a2dd8b027"},"vehicle_type_id":"4","last_reported":1779144471,"current_range_meters":6800,"station_id":"ce4bhkp2rcd13ifvqgd0","pricing_plan_id":"cebpf4jnsgd1na2vs0mg"},{"bike_id":"5d76ac2d-dba9-436a-9804-f75dcc3a73f8","system_id":"levelo_inurba_marseille","lat":43.3081,"lon":5.38146,"is_reserved":false,"is_disabled":false,"rental_uris":{"android":"levelo://app?vid=5d76ac2d-dba9-436a-9804-f75dcc3a73f8","ios":"levelo://app?vid=5d76ac2d-dba9-436a-9804-f75dcc3a73f8"},"vehicle_type_id":"4","last_reported":1779144471,"current_range_meters":6800,"station_id":"ce4bgt12rcd13ifvqce0","pricing_plan_id":"cebpf4jnsgd1na2vs0mg"},{"bike_id":"3ba5e129-ee15-4e70-b2c9-b0ec3fafe875","system_id":"levelo_inurba_marseille","lat":43.29523,"lon":5.39404,"is_reserved":false,"is_disabled":false,"rental_uris":{"android":"levelo://app?vid=3ba5e129-ee15-4e70-b2c9-b0ec3fafe875","ios":"levelo://app?vid=3ba5e129-ee15-4e70-b2c9-b0ec3fafe875"},"vehicle_type_id":"4","last_reported":1779144471,"current_range_meters":6800,"station_id":"ce4bh292rcd13ifvqdf0","pricing_plan_id":"cebpf4jnsgd1na2vs0mg"},{"bike_id":"b27287c5-907b-4d58-ab2f-fd6bb99bea76","system_id":"levelo_inurba_marseille","lat":43.25129,"lon":5.40323,"is_reserved":false,"is_disabled":false,"rental_uris":{"android":"levelo://app?vid=b27287c5-907b-4d58-ab2f-fd6bb99bea76","ios":"levelo://app?vid=b27287c5-907b-4d58-ab2f-fd6bb99bea76"},"vehicle_type_id":"4","last_reported":1779144471,"current_range_meters":7200,"station_id":"ce4bhlh2rcd13ifvqgig","pricing_plan_id":"cebpf4jnsgd1na2vs0mg"},{"bike_id":"118f25d8-0255-44ef-8a35-47bb481bb8b6","system_id":"levelo_inurba_marseille","lat":43.24393,"lon":5.37076,"is_reserved":false,"is_disabled":true,"rental_uris":{"android":"levelo://app?vid=118f25d8-0255-44ef-8a35-47bb481bb8b6","ios":"levelo://app?vid=118f25d8-0255-44ef-8a35-47bb481bb8b6"},"vehicle_type_id":"4","last_reported":1779144471,"current_range_meters":7200,"station_id":"ce4bhhh2rcd13ifvqfk0","pricing_plan_id":"cebpf4jnsgd1na2vs0mg"},{"bike_id":"b7097421-a56a-4622-9da5-ded6bbb1b7ae","system_id":"levelo_inurba_marseille","lat":43.30886,"lon":5.39641,"is_reserved":false,"is_disabled":false,"rental_uris":{"android":"levelo://app?vid=b7097421-a56a-4622-9da5-ded6bbb1b7ae","ios":"levelo://app?vid=b7097421-a56a-4622-9da5-ded6bbb1b7ae"},"vehicle_type_id":"4","last_reported":1779144471,"current_range_meters":7200,"station_id":"ce4bh012rcd13ifvqcv0","pricing_plan_id":"cebpf4jnsgd1na2vs0mg"},{"bike_id":"addcdd95-92f1-4085-b077-e57d382466cb","system_id":"levelo_inurba_marseille","lat":43.29004,"lon":5.35602,"is_reserved":false,"is_disabled":true,"rental_uris":{"android":"levelo://app?vid=addcdd95-92f1-4085-b077-e57d382466cb","ios":"levelo://app?vid=addcdd95-92f1-4085-b077-e57d382466cb"},"vehicle_type_id":"4","last_reported":1779144471,"current_range_meters":7200,"station_id":"ce4bhb92rcd13ifvqen0","pricing_plan_id":"cebpf4jnsgd1na2vs0mg"},{"bike_id":"2d03e62f-ba8b-4d0b-92f6-555161cc53ff","system_id":"levelo_inurba_marseille","lat":43.29706,"lon":5.4134,"is_reserved":false,"is_disabled":false,"rental_uris":{"android":"levelo://app?vid=2d03e62f-ba8b-4d0b-92f6-555161cc53ff","ios":"levelo://app?vid=2d03e62f-ba8b-4d0b-92f6-555161cc53ff"},"vehicle_type_id":"4","last_reported":1779144471,"current_range_meters":7200,"station_id":"ce4bhi12rcd13ifvqfp0","pricing_plan_id":"cebpf4jnsgd1na2vs0mg"},{"bike_id":"58c98de5-8c45-44bc-b9d2-d73286c3efe5","system_id":"levelo_inurba_marseille","lat":43.28168,"lon":5.42619,"is_reserved":false,"is_disabled":false,"rental_uris":{"android":"levelo://app?vid=58c98de5-8c45-44bc-b9d2-d73286c3efe5","ios":"levelo://app?vid=58c98de5-8c45-44bc-b9d2-d73286c3efe5"},"vehicle_type_id":"4","last_reported":1779144471,"current_range_meters":7200,"station_id":"ce4bhnh2rcd13ifvqgug","pricing_plan_id":"cebpf4jnsgd1na2vs0mg"},{"bike_id":"5eb11d83-2461-40c2-9484-0a35868d2011","system_id":"levelo_inurba_marseille","lat":43.29742,"lon":5.42742,"is_reserved":false,"is_disabled":true,"rental_uris":{"android":"levelo://app?vid=5eb11d83-2461-40c2-9484-0a35868d2011","ios":"levelo://app?vid=5eb11d83-2461-40c2-9484-0a35868d2011"},"vehicle_type_id":"4","last_reported":1779144471,"current_range_meters":7200,"station_id":"st_d3md5207bmas73dh9klg","pricing_plan_id":"cebpf4jnsgd1na2vs0mg"},{"bike_id":"ee4c4f1c-528d-4985-bf57-398fb25d0967","system_id":"levelo_inurba_marseille","lat":43.3199,"lon":5.38145,"is_reserved":false,"is_disabled":false,"rental_uris":{"android":"levelo://app?vid=ee4c4f1c-528d-4985-bf57-398fb25d0967","ios":"levelo://app?vid=ee4c4f1c-528d-4985-bf57-398fb25d0967"},"vehicle_type_id":"4","last_reported":1779144471,"current_range_meters":7200,"station_id":"ce4bhr12rcd13ifvqhpg","pricing_plan_id":"cebpf4jnsgd1na2vs0mg"},{"bike_id":"547402e8-4b98-430e-8a04-6a3e568275ce","system_id":"levelo_inurba_marseille","lat":43.26958,"lon":5.38613,"is_reserved":false,"is_disabled":false,"rental_uris":{"android":"levelo://app?vid=547402e8-4b98-430e-8a04-6a3e568275ce","ios":"levelo://app?vid=547402e8-4b98-430e-8a04-6a3e568275ce"},"vehicle_type_id":"4","last_reported":1779144471,"current_range_meters":7200,"station_id":"ce4bhh92rcd13ifvqfh0","pricing_plan_id":"cebpf4jnsgd1na2vs0mg"},{"bike_id":"55bc82df-e573-45c7-a6cf-359973b3643c","system_id":"levelo_inurba_marseille","lat":43.27981,"lon":5.41636,"is_reserved":false,"is_disabled":false,"rental_uris":{"android":"levelo://app?vid=55bc82df-e573-45c7-a6cf-359973b3643c","ios":"levelo://app?vid=55bc82df-e573-45c7-a6cf-359973b3643c"},"vehicle_type_id":"4","last_reported":1779144471,"current_range_meters":7200,"station_id":"ce4bho12rcd13ifvqh1g","pricing_plan_id":"cebpf4jnsgd1na2vs0mg"},{"bike_id":"32002178-684c-43e8-9be6-799731394bbf","system_id":"levelo_inurba_marseille","lat":43.28606,"lon":5.3706,"is_reserved":false,"is_disabled":false,"rental_uris":{"android":"levelo://app?vid=32002178-684c-43e8-9be6-799731394bbf","ios":"levelo://app?vid=32002178-684c-43e8-9be6-799731394bbf"},"vehicle_type_id":"4","last_reported":1779144471,"current_range_meters":7200,"station_id":"ce4bht12rcd13ifvqi60","pricing_plan_id":"cebpf4jnsgd1na2vs0mg"},{"bike_id":"6bd314e1-ab15-4455-b889-55d1f77e4075","system_id":"levelo_inurba_marseille","lat":43.28614,"lon":5.35107,"is_reserved":false,"is_disabled":false,"rental_uris":{"android":"levelo://app?vid=6bd314e1-ab15-4455-b889-55d1f77e4075","ios":"levelo://app?vid=6bd314e1-ab15-4455-b889-55d1f77e4075"},"vehicle_type_id":"4","last_reported":1779144471,"current_range_meters":7200,"station_id":"ce4bhch2rcd13ifvqeug","pricing_plan_id":"cebpf4jnsgd1na2vs0mg"},{"bike_id":"497e6644-8987-41b1-81ab-505bc931c380","system_id":"levelo_inurba_marseille","lat":43.24959,"lon":5.405,"is_reserved":false,"is_disabled":false,"rental_uris":{"android":"levelo://app?vid=497e6644-8987-41b1-81ab-505bc931c380","ios":"levelo://app?vid=497e6644-8987-41b1-81ab-505bc931c380"},"vehicle_type_id":"4","last_reported":1779144471,"current_range_meters":7200,"station_id":"st_d2ngiaodas8pm72gd1h0","pricing_plan_id":"cebpf4jnsgd1na2vs0mg"},{"bike_id":"a739f6f6-8343-4c4c-be8c-5f6e7deabd5f","system_id":"levelo_inurba_marseille","lat":43.26216,"lon":5.37433,"is_reserved":false,"is_disabled":false,"rental_uris":{"android":"levelo://app?vid=a739f6f6-8343-4c4c-be8c-5f6e7deabd5f","ios":"levelo://app?vid=a739f6f6-8343-4c4c-be8c-5f6e7deabd5f"},"vehicle_type_id":"4","last_reported":1779144471,"current_range_meters":7200,"station_id":"ce4bhgp2rcd13ifvqfc0","pricing_plan_id":"cebpf4jnsgd1na2vs0mg"},{"bike_id":"dc16d907-1362-4b3a-9410-43b0effbb837","system_id":"levelo_inurba_marseille","lat":43.30548,"lon":5.38409,"is_reserved":false,"is_disabled":false,"rental_uris":{"android":"levelo://app?vid=dc16d907-1362-4b3a-9410-43b0effbb837","ios":"levelo://app?vid=dc16d907-1362-4b3a-9410-43b0effbb837"},"vehicle_type_id":"4","last_reported":1779144471,"current_range_meters":7200,"station_id":"ce4bgg92rcd13ifvqb30","pricing_plan_id":"cebpf4jnsgd1na2vs0mg"},{"bike_id":"6a4190a9-60c1-474d-b36b-bd9f7c409216","system_id":"levelo_inurba_marseille","lat":43.30344,"lon":5.42509,"is_reserved":false,"is_disabled":false,"rental_uris":{"android":"levelo://app?vid=6a4190a9-60c1-474d-b36b-bd9f7c409216","ios":"levelo://app?vid=6a4190a9-60c1-474d-b36b-bd9f7c409216"},"vehicle_type_id":"4","last_reported":1779144471,"current_range_meters":7200,"station_id":"","pricing_plan_id":"cebpf4jnsgd1na2vs0mg"},{"bike_id":"76822842-6de5-44db-bee3-28d0eed2902b","system_id":"levelo_inurba_marseille","lat":43.2293,"lon":5.3537,"is_reserved":false,"is_disabled":false,"rental_uris":{"android":"levelo://app?vid=76822842-6de5-44db-bee3-28d0eed2902b","ios":"levelo://app?vid=76822842-6de5-44db-bee3-28d0eed2902b"},"vehicle_type_id":"4","last_reported":1779144471,"current_range_meters":7200,"station_id":"cpo3532slgdg3j2ikp40","pricing_plan_id":"cebpf4jnsgd1na2vs0mg"},{"bike_id":"de3b1317-4623-49c4-aaa5-aa900fb27b7c","system_id":"levelo_inurba_marseille","lat":43.30127,"lon":5.43121,"is_reserved":false,"is_disabled":false,"rental_uris":{"android":"levelo://app?vid=de3b1317-4623-49c4-aaa5-aa900fb27b7c","ios":"levelo://app?vid=de3b1317-4623-49c4-aaa5-aa900fb27b7c"},"vehicle_type_id":"4","last_reported":1779144471,"current_range_meters":7200,"station_id":"st_d3js3co5814s73ftftug","pricing_plan_id":"cebpf4jnsgd1na2vs0mg"},{"bike_id":"4a170901-2cdd-442d-aa21-d97612b5b3ec","system_id":"levelo_inurba_marseille","lat":43.28631,"lon":5.35087,"is_reserved":false,"is_disabled":false,"rental_uris":{"android":"levelo://app?vid=4a170901-2cdd-442d-aa21-d97612b5b3ec","ios":"levelo://app?vid=4a170901-2cdd-442d-aa21-d97612b5b3ec"},"vehicle_type_id":"4","last_reported":1779144471,"current_range_meters":7200,"station_id":"ce4bhch2rcd13ifvqeug","pricing_plan_id":"cebpf4jnsgd1na2vs0mg"},{"bike_id":"dc27e7ad-1be6-4511-9bac-8564c7ad3758","system_id":"levelo_inurba_marseille","lat":43.28859,"lon":5.39336,"is_reserved":false,"is_disabled":false,"rental_uris":{"android":"levelo://app?vid=dc27e7ad-1be6-4511-9bac-8564c7ad3758","ios":"levelo://app?vid=dc27e7ad-1be6-4511-9bac-8564c7ad3758"},"vehicle_type_id":"4","last_reported":1779144471,"current_range_meters":7200,"station_id":"ce4bh2p2rcd13ifvqdi0","pricing_plan_id":"cebpf4jnsgd1na2vs0mg"},{"bike_id":"bc056627-1c3f-4ad6-af07-b39b6b219bea","system_id":"levelo_inurba_marseille","lat":43.2866,"lon":5.36354,"is_reserved":false,"is_disabled":false,"rental_uris":{"android":"levelo://app?vid=bc056627-1c3f-4ad6-af07-b39b6b219bea","ios":"levelo://app?vid=bc056627-1c3f-4ad6-af07-b39b6b219bea"},"vehicle_type_id":"4","last_reported":1779144471,"current_range_meters":7200,"station_id":"ce4bhah2rcd13ifvqej0","pricing_plan_id":"cebpf4jnsgd1na2vs0mg"},{"bike_id":"da8cd255-0bd6-4dcc-b728-1feff34853cc","system_id":"levelo_inurba_marseille","lat":43.28455,"lon":5.35879,"is_reserved":false,"is_disabled":false,"rental_uris":{"android":"levelo://app?vid=da8cd255-0bd6-4dcc-b728-1feff34853cc","ios":"levelo://app?vid=da8cd255-0bd6-4dcc-b728-1feff34853cc"},"vehicle_type_id":"4","last_reported":1779144471,"current_range_meters":7200,"station_id":"ce4bhah2rcd13ifvqei0","pricing_plan_id":"cebpf4jnsgd1na2vs0mg"},{"bike_id":"de0075fb-deb1-4c13-b239-1af36e9430dd","system_id":"levelo_inurba_marseille","lat":43.31323,"lon":5.39687,"is_reserved":false,"is_disabled":false,"rental_uris":{"android":"levelo://app?vid=de0075fb-deb1-4c13-b239-1af36e9430dd","ios":"levelo://app?vid=de0075fb-deb1-4c13-b239-1af36e9430dd"},"vehicle_type_id":"4","last_reported":1779144471,"current_range_meters":8000,"station_id":"ce4bgvp2rcd13ifvqcu0","pricing_plan_id":"cebpf4jnsgd1na2vs0mg"},{"bike_id":"92d2aad7-69f3-4a25-95ec-202d9b4f3dd1","system_id":"levelo_inurba_marseille","lat":43.31342,"lon":5.39664,"is_reserved":false,"is_disabled":false,"rental_uris":{"android":"levelo://app?vid=92d2aad7-69f3-4a25-95ec-202d9b4f3dd1","ios":"levelo://app?vid=92d2aad7-69f3-4a25-95ec-202d9b4f3dd1"},"vehicle_type_id":"4","last_reported":1779144471,"current_range_meters":8000,"station_id":"ce4bgvp2rcd13ifvqcu0","pricing_plan_id":"cebpf4jnsgd1na2vs0mg"},{"bike_id":"ca4f6bf2-59b9-4fb8-9cc3-7ba12b36fa60","system_id":"levelo_inurba_marseille","lat":43.29591,"lon":5.40566,"is_reserved":false,"is_disabled":false,"rental_uris":{"android":"levelo://app?vid=ca4f6bf2-59b9-4fb8-9cc3-7ba12b36fa60","ios":"levelo://app?vid=ca4f6bf2-59b9-4fb8-9cc3-7ba12b36fa60"},"vehicle_type_id":"4","last_reported":1779144471,"current_range_meters":8000,"station_id":"ce4bh0h2rcd13ifvqd60","pricing_plan_id":"cebpf4jnsgd1na2vs0mg"},{"bike_id":"6e790415-aecf-44aa-a8ca-f8ab84aae953","system_id":"levelo_inurba_marseille","lat":43.28072,"lon":5.39667,"is_reserved":false,"is_disabled":false,"rental_uris":{"android":"levelo://app?vid=6e790415-aecf-44aa-a8ca-f8ab84aae953","ios":"levelo://app?vid=6e790415-aecf-44aa-a8ca-f8ab84aae953"},"vehicle_type_id":"4","last_reported":1779144471,"current_range_meters":8000,"station_id":"ce4bho12rcd13ifvqh2g","pricing_plan_id":"cebpf4jnsgd1na2vs0mg"},{"bike_id":"33f6bd40-8c36-40f9-b5d2-a5da8192d483","system_id":"levelo_inurba_marseille","lat":43.29966,"lon":5.38475,"is_reserved":false,"is_disabled":false,"rental_uris":{"android":"levelo://app?vid=33f6bd40-8c36-40f9-b5d2-a5da8192d483","ios":"levelo://app?vid=33f6bd40-8c36-40f9-b5d2-a5da8192d483"},"vehicle_type_id":"4","last_reported":1779144471,"current_range_meters":8000,"station_id":"ce4bgj92rcd13ifvqbd0","pricing_plan_id":"cebpf4jnsgd1na2vs0mg"},{"bike_id":"5e265005-9551-4579-b283-b599febcb750","system_id":"levelo_inurba_marseille","lat":43.23183,"lon":5.39978,"is_reserved":false,"is_disabled":false,"rental_uris":{"android":"levelo://app?vid=5e265005-9551-4579-b283-b599febcb750","ios":"levelo://app?vid=5e265005-9551-4579-b283-b599febcb750"},"vehicle_type_id":"4","last_reported":1779144471,"current_range_meters":8000,"station_id":"ce4bhn12rcd13ifvqgqg","pricing_plan_id":"cebpf4jnsgd1na2vs0mg"},{"bike_id":"e6f19690-add7-4afb-aabb-6b8519815447","system_id":"levelo_inurba_marseille","lat":43.30523,"lon":5.38475,"is_reserved":false,"is_disabled":false,"rental_uris":{"android":"levelo://app?vid=e6f19690-add7-4afb-aabb-6b8519815447","ios":"levelo://app?vid=e6f19690-add7-4afb-aabb-6b8519815447"},"vehicle_type_id":"4","last_reported":1779144471,"current_range_meters":8000,"station_id":"","pricing_plan_id":"cebpf4jnsgd1na2vs0mg"},{"bike_id":"5d4dc8e3-e1c8-4f4d-afda-06dc4c7d444e","system_id":"levelo_inurba_marseille","lat":43.26066,"lon":5.39379,"is_reserved":false,"is_disabled":false,"rental_uris":{"android":"levelo://app?vid=5d4dc8e3-e1c8-4f4d-afda-06dc4c7d444e","ios":"levelo://app?vid=5d4dc8e3-e1c8-4f4d-afda-06dc4c7d444e"},"vehicle_type_id":"4","last_reported":1779144471,"current_range_meters":8000,"station_id":"ce4bhh92rcd13ifvqfj0","pricing_plan_id":"cebpf4jnsgd1na2vs0mg"},{"bike_id":"15363b54-e214-4b72-9d88-6d6f824039df","system_id":"levelo_inurba_marseille","lat":43.2637,"lon":5.4108,"is_reserved":false,"is_disabled":false,"rental_uris":{"android":"levelo://app?vid=15363b54-e214-4b72-9d88-6d6f824039df","ios":"levelo://app?vid=15363b54-e214-4b72-9d88-6d6f824039df"},"vehicle_type_id":"4","last_reported":1779144471,"current_range_meters":8000,"station_id":"st_d4e5ca6na9uc73bfl5fg","pricing_plan_id":"cebpf4jnsgd1na2vs0mg"},{"bike_id":"1e7eeb6e-f6c4-4208-9356-8e94a37f45b8","system_id":"levelo_inurba_marseille","lat":43.29454,"lon":5.39761,"is_reserved":false,"is_disabled":true,"rental_uris":{"android":"levelo://app?vid=1e7eeb6e-f6c4-4208-9356-8e94a37f45b8","ios":"levelo://app?vid=1e7eeb6e-f6c4-4208-9356-8e94a37f45b8"},"vehicle_type_id":"4","last_reported":1779144471,"current_range_meters":8000,"station_id":"ce4bh3h2rcd13ifvqdo0","pricing_plan_id":"cebpf4jnsgd1na2vs0mg"},{"bike_id":"c0d467e6-6fef-4d21-8af4-af3c30cfe717","system_id":"levelo_inurba_marseille","lat":43.29807,"lon":5.36506,"is_reserved":false,"is_disabled":false,"rental_uris":{"android":"levelo://app?vid=c0d467e6-6fef-4d21-8af4-af3c30cfe717","ios":"levelo://app?vid=c0d467e6-6fef-4d21-8af4-af3c30cfe717"},"vehicle_type_id":"4","last_reported":1779144471,"current_range_meters":8000,"station_id":"","pricing_plan_id":"cebpf4jnsgd1na2vs0mg"},{"bike_id":"ac4e8799-8ff6-4ce5-9431-c9eefa641e01","system_id":"levelo_inurba_marseille","lat":43.29567,"lon":5.39972,"is_reserved":false,"is_disabled":false,"rental_uris":{"android":"levelo://app?vid=ac4e8799-8ff6-4ce5-9431-c9eefa641e01","ios":"levelo://app?vid=ac4e8799-8ff6-4ce5-9431-c9eefa641e01"},"vehicle_type_id":"4","last_reported":1779144471,"current_range_meters":8000,"station_id":"ce4bh312rcd13ifvqdj0","pricing_plan_id":"cebpf4jnsgd1na2vs0mg"},{"bike_id":"71688001-db4c-4822-91b8-2ea11131a9b1","system_id":"levelo_inurba_marseille","lat":43.28944,"lon":5.36605,"is_reserved":false,"is_disabled":false,"rental_uris":{"android":"levelo://app?vid=71688001-db4c-4822-91b8-2ea11131a9b1","ios":"levelo://app?vid=71688001-db4c-4822-91b8-2ea11131a9b1"},"vehicle_type_id":"4","last_reported":1779144471,"current_range_meters":8000,"station_id":"ce4bhap2rcd13ifvqek0","pricing_plan_id":"cebpf4jnsgd1na2vs0mg"},{"bike_id":"2c3aff6c-5ea5-454b-9fb3-3d51f48b5461","system_id":"levelo_inurba_marseille","lat":43.28695,"lon":5.38655,"is_reserved":false,"is_disabled":false,"rental_uris":{"android":"levelo://app?vid=2c3aff6c-5ea5-454b-9fb3-3d51f48b5461","ios":"levelo://app?vid=2c3aff6c-5ea5-454b-9fb3-3d51f48b5461"},"vehicle_type_id":"4","last_reported":1779144471,"current_range_meters":8000,"station_id":"ce4bh492rcd13ifvqdug","pricing_plan_id":"cebpf4jnsgd1na2vs0mg"},{"bike_id":"e40439b8-70d1-4a31-b2ca-aacd85765f54","system_id":"levelo_inurba_marseille","lat":43.32116,"lon":5.36754,"is_reserved":false,"is_disabled":false,"rental_uris":{"android":"levelo://app?vid=e40439b8-70d1-4a31-b2ca-aacd85765f54","ios":"levelo://app?vid=e40439b8-70d1-4a31-b2ca-aacd85765f54"},"vehicle_type_id":"4","last_reported":1779144471,"current_range_meters":8000,"station_id":"ce4bhrh2rcd13ifvqhug","pricing_plan_id":"cebpf4jnsgd1na2vs0mg"},{"bike_id":"0afde4ca-ab1a-4cf3-9d9e-75a1c80a4514","system_id":"levelo_inurba_marseille","lat":43.3149,"lon":5.37315,"is_reserved":false,"is_disabled":false,"rental_uris":{"android":"levelo://app?vid=0afde4ca-ab1a-4cf3-9d9e-75a1c80a4514","ios":"levelo://app?vid=0afde4ca-ab1a-4cf3-9d9e-75a1c80a4514"},"vehicle_type_id":"4","last_reported":1779144471,"current_range_meters":8000,"station_id":"ce4bgt12rcd13ifvqcd0","pricing_plan_id":"cebpf4jnsgd1na2vs0mg"},{"bike_id":"ff3b4694-4c2d-4e0e-882d-168610d86b23","system_id":"levelo_inurba_marseille","lat":43.21733,"lon":5.34621,"is_reserved":false,"is_disabled":false,"rental_uris":{"android":"levelo://app?vid=ff3b4694-4c2d-4e0e-882d-168610d86b23","ios":"levelo://app?vid=ff3b4694-4c2d-4e0e-882d-168610d86b23"},"vehicle_type_id":"4","last_reported":1779144471,"current_range_meters":8000,"station_id":"st_cvj6r9ubvosntc0bgbag","pricing_plan_id":"cebpf4jnsgd1na2vs0mg"},{"bike_id":"756dda76-f7ad-4653-bf3e-ad0c5accc63a","system_id":"levelo_inurba_marseille","lat":43.2692,"lon":5.40268,"is_reserved":false,"is_disabled":false,"rental_uris":{"android":"levelo://app?vid=756dda76-f7ad-4653-bf3e-ad0c5accc63a","ios":"levelo://app?vid=756dda76-f7ad-4653-bf3e-ad0c5accc63a"},"vehicle_type_id":"4","last_reported":1779144471,"current_range_meters":8000,"station_id":"cjm6bp8fraef2m0cb0m0","pricing_plan_id":"cebpf4jnsgd1na2vs0mg"},{"bike_id":"4dc8177c-8240-4872-97f6-1b9344e31364","system_id":"levelo_inurba_marseille","lat":43.31725,"lon":5.4238,"is_reserved":false,"is_disabled":false,"rental_uris":{"android":"levelo://app?vid=4dc8177c-8240-4872-97f6-1b9344e31364","ios":"levelo://app?vid=4dc8177c-8240-4872-97f6-1b9344e31364"},"vehicle_type_id":"4","last_reported":1779144471,"current_range_meters":8000,"station_id":"ce4bhp92rcd13ifvqhbg","pricing_plan_id":"cebpf4jnsgd1na2vs0mg"},{"bike_id":"90bf0bdd-41a7-4a15-813d-09be68efb9f3","system_id":"levelo_inurba_marseille","lat":43.28216,"lon":5.40551,"is_reserved":false,"is_disabled":false,"rental_uris":{"android":"levelo://app?vid=90bf0bdd-41a7-4a15-813d-09be68efb9f3","ios":"levelo://app?vid=90bf0bdd-41a7-4a15-813d-09be68efb9f3"},"vehicle_type_id":"4","last_reported":1779144471,"current_range_meters":8000,"station_id":"","pricing_plan_id":"cebpf4jnsgd1na2vs0mg"},{"bike_id":"e51cd27c-a83e-4dc8-b67c-9bc0f3d88b36","system_id":"levelo_inurba_marseille","lat":43.30722,"lon":5.42425,"is_reserved":false,"is_disabled":false,"rental_uris":{"android":"levelo://app?vid=e51cd27c-a83e-4dc8-b67c-9bc0f3d88b36","ios":"levelo://app?vid=e51cd27c-a83e-4dc8-b67c-9bc0f3d88b36"},"vehicle_type_id":"4","last_reported":1779144471,"current_range_meters":8000,"station_id":"st_cvj6ca6bvosntc0bfgr0","pricing_plan_id":"cebpf4jnsgd1na2vs0mg"},{"bike_id":"13385d31-9d70-40eb-8cc5-7110dec04d8b","system_id":"levelo_inurba_marseille","lat":43.28827,"lon":5.35882,"is_reserved":false,"is_disabled":false,"rental_uris":{"android":"levelo://app?vid=13385d31-9d70-40eb-8cc5-7110dec04d8b","ios":"levelo://app?vid=13385d31-9d70-40eb-8cc5-7110dec04d8b"},"vehicle_type_id":"4","last_reported":1779144471,"current_range_meters":8000,"station_id":"ce4bhb12rcd13ifvqem0","pricing_plan_id":"cebpf4jnsgd1na2vs0mg"},{"bike_id":"f3e0d757-49f4-45dc-af0c-35c8cd89c9ca","system_id":"levelo_inurba_marseille","lat":43.27066,"lon":5.42291,"is_reserved":false,"is_disabled":false,"rental_uris":{"android":"levelo://app?vid=f3e0d757-49f4-45dc-af0c-35c8cd89c9ca","ios":"levelo://app?vid=f3e0d757-49f4-45dc-af0c-35c8cd89c9ca"},"vehicle_type_id":"4","last_reported":1779144471,"current_range_meters":8000,"station_id":"ce4bhk92rcd13ifvqgb0","pricing_plan_id":"cebpf4jnsgd1na2vs0mg"},{"bike_id":"716ad749-9eb2-4471-b89a-a78f0c625c78","system_id":"levelo_inurba_marseille","lat":43.2318,"lon":5.39981,"is_reserved":false,"is_disabled":false,"rental_uris":{"android":"levelo://app?vid=716ad749-9eb2-4471-b89a-a78f0c625c78","ios":"levelo://app?vid=716ad749-9eb2-4471-b89a-a78f0c625c78"},"vehicle_type_id":"4","last_reported":1779144471,"current_range_meters":8400,"station_id":"ce4bhn12rcd13ifvqgqg","pricing_plan_id":"cebpf4jnsgd1na2vs0mg"},{"bike_id":"626f8d4e-2654-41bb-adc8-7cdd5f5a4c8e","system_id":"levelo_inurba_marseille","lat":43.28284,"lon":5.35075,"is_reserved":false,"is_disabled":true,"rental_uris":{"android":"levelo://app?vid=626f8d4e-2654-41bb-adc8-7cdd5f5a4c8e","ios":"levelo://app?vid=626f8d4e-2654-41bb-adc8-7cdd5f5a4c8e"},"vehicle_type_id":"4","last_reported":1779144471,"current_range_meters":8400,"station_id":"ce4bhbp2rcd13ifvqerg","pricing_plan_id":"cebpf4jnsgd1na2vs0mg"},{"bike_id":"6a267b88-21e7-4780-a798-a9852d3f692d","system_id":"levelo_inurba_marseille","lat":43.30785,"lon":5.37665,"is_reserved":false,"is_disabled":false,"rental_uris":{"android":"levelo://app?vid=6a267b88-21e7-4780-a798-a9852d3f692d","ios":"levelo://app?vid=6a267b88-21e7-4780-a798-a9852d3f692d"},"vehicle_type_id":"4","last_reported":1779144471,"current_range_meters":8400,"station_id":"ce4bgv92rcd13ifvqcq0","pricing_plan_id":"cebpf4jnsgd1na2vs0mg"},{"bike_id":"695b8d0a-21a4-49aa-b015-a857cf7302c9","system_id":"levelo_inurba_marseille","lat":43.27571,"lon":5.38425,"is_reserved":false,"is_disabled":false,"rental_uris":{"android":"levelo://app?vid=695b8d0a-21a4-49aa-b015-a857cf7302c9","ios":"levelo://app?vid=695b8d0a-21a4-49aa-b015-a857cf7302c9"},"vehicle_type_id":"4","last_reported":1779144471,"current_range_meters":8400,"station_id":"ce4bhh92rcd13ifvqfi0","pricing_plan_id":"cebpf4jnsgd1na2vs0mg"},{"bike_id":"0e0d5418-4a56-4251-8866-025e6b539885","system_id":"levelo_inurba_marseille","lat":43.28853,"lon":5.42504,"is_reserved":false,"is_disabled":false,"rental_uris":{"android":"levelo://app?vid=0e0d5418-4a56-4251-8866-025e6b539885","ios":"levelo://app?vid=0e0d5418-4a56-4251-8866-025e6b539885"},"vehicle_type_id":"4","last_reported":1779144471,"current_range_meters":8400,"station_id":"st_d3b462108ojc7389ooeg","pricing_plan_id":"cebpf4jnsgd1na2vs0mg"},{"bike_id":"359eb808-75a6-4e9a-b943-bf5873a0e29f","system_id":"levelo_inurba_marseille","lat":43.255812,"lon":5.382222,"is_reserved":false,"is_disabled":false,"rental_uris":{"android":"levelo://app?vid=359eb808-75a6-4e9a-b943-bf5873a0e29f","ios":"levelo://app?vid=359eb808-75a6-4e9a-b943-bf5873a0e29f"},"vehicle_type_id":"4","last_reported":1779144471,"current_range_meters":8400,"station_id":"ce4bhih2rcd13ifvqfs0","pricing_plan_id":"cebpf4jnsgd1na2vs0mg"},{"bike_id":"6ed23939-96b0-4508-ad58-f0831d642be6","system_id":"levelo_inurba_marseille","lat":43.30461,"lon":5.37895,"is_reserved":false,"is_disabled":false,"rental_uris":{"android":"levelo://app?vid=6ed23939-96b0-4508-ad58-f0831d642be6","ios":"levelo://app?vid=6ed23939-96b0-4508-ad58-f0831d642be6"},"vehicle_type_id":"4","last_reported":1779144471,"current_range_meters":8400,"station_id":"ce4bgup2rcd13ifvqcn0","pricing_plan_id":"cebpf4jnsgd1na2vs0mg"},{"bike_id":"06ef7304-d318-412d-bb27-eb750906e9a6","system_id":"levelo_inurba_marseille","lat":43.29523,"lon":5.39039,"is_reserved":false,"is_disabled":false,"rental_uris":{"android":"levelo://app?vid=06ef7304-d318-412d-bb27-eb750906e9a6","ios":"levelo://app?vid=06ef7304-d318-412d-bb27-eb750906e9a6"},"vehicle_type_id":"4","last_reported":1779144471,"current_range_meters":8400,"station_id":"ce4bh3p2rcd13ifvqdp0","pricing_plan_id":"cebpf4jnsgd1na2vs0mg"},{"bike_id":"c9513b4e-0f0e-49bc-bbff-f4414a2b16f9","system_id":"levelo_inurba_marseille","lat":43.27495,"lon":5.41612,"is_reserved":false,"is_disabled":false,"rental_uris":{"android":"levelo://app?vid=c9513b4e-0f0e-49bc-bbff-f4414a2b16f9","ios":"levelo://app?vid=c9513b4e-0f0e-49bc-bbff-f4414a2b16f9"},"vehicle_type_id":"4","last_reported":1779144471,"current_range_meters":8400,"station_id":"st_d6im8g6chgec73a5pndg","pricing_plan_id":"cebpf4jnsgd1na2vs0mg"},{"bike_id":"fa592942-41bc-4de8-816e-0cc8cfc267c2","system_id":"levelo_inurba_marseille","lat":43.23948,"lon":5.36637,"is_reserved":false,"is_disabled":false,"rental_uris":{"android":"levelo://app?vid=fa592942-41bc-4de8-816e-0cc8cfc267c2","ios":"levelo://app?vid=fa592942-41bc-4de8-816e-0cc8cfc267c2"},"vehicle_type_id":"4","last_reported":1779144471,"current_range_meters":8400,"station_id":"ce4bhi12rcd13ifvqfp0","pricing_plan_id":"cebpf4jnsgd1na2vs0mg"},{"bike_id":"71dadbbf-2988-4d63-8dfa-fc0cb188b342","system_id":"levelo_inurba_marseille","lat":43.27075,"lon":5.40258,"is_reserved":false,"is_disabled":true,"rental_uris":{"android":"levelo://app?vid=71dadbbf-2988-4d63-8dfa-fc0cb188b342","ios":"levelo://app?vid=71dadbbf-2988-4d63-8dfa-fc0cb188b342"},"vehicle_type_id":"4","last_reported":1779144471,"current_range_meters":8400,"station_id":"ce4bhk92rcd13ifvqgc0","pricing_plan_id":"cebpf4jnsgd1na2vs0mg"},{"bike_id":"b1bec6e6-e182-4c28-9b00-f9b657ec7c77","system_id":"levelo_inurba_marseille","lat":43.26942,"lon":5.4025,"is_reserved":false,"is_disabled":false,"rental_uris":{"android":"levelo://app?vid=b1bec6e6-e182-4c28-9b00-f9b657ec7c77","ios":"levelo://app?vid=b1bec6e6-e182-4c28-9b00-f9b657ec7c77"},"vehicle_type_id":"4","last_reported":1779144471,"current_range_meters":8400,"station_id":"cjm6bp8fraef2m0cb0m0","pricing_plan_id":"cebpf4jnsgd1na2vs0mg"},{"bike_id":"6b4a17da-6f65-4878-8770-e57be1f60b38","system_id":"levelo_inurba_marseille","lat":43.29645,"lon":5.40604,"is_reserved":false,"is_disabled":false,"rental_uris":{"android":"levelo://app?vid=6b4a17da-6f65-4878-8770-e57be1f60b38","ios":"levelo://app?vid=6b4a17da-6f65-4878-8770-e57be1f60b38"},"vehicle_type_id":"4","last_reported":1779144471,"current_range_meters":8400,"station_id":"ce4bh0h2rcd13ifvqd60","pricing_plan_id":"cebpf4jnsgd1na2vs0mg"},{"bike_id":"9a147a82-1909-4624-8e35-bd6b119bb2af","system_id":"levelo_inurba_marseille","lat":43.30651,"lon":5.40078,"is_reserved":false,"is_disabled":true,"rental_uris":{"android":"levelo://app?vid=9a147a82-1909-4624-8e35-bd6b119bb2af","ios":"levelo://app?vid=9a147a82-1909-4624-8e35-bd6b119bb2af"},"vehicle_type_id":"4","last_reported":1779144471,"current_range_meters":8400,"station_id":"ce4bh112rcd13ifvqda0","pricing_plan_id":"cebpf4jnsgd1na2vs0mg"},{"bike_id":"41aeab6c-6978-4475-9abb-adbd218ad412","system_id":"levelo_inurba_marseille","lat":43.29617,"lon":5.37712,"is_reserved":false,"is_disabled":true,"rental_uris":{"android":"levelo://app?vid=41aeab6c-6978-4475-9abb-adbd218ad412","ios":"levelo://app?vid=41aeab6c-6978-4475-9abb-adbd218ad412"},"vehicle_type_id":"4","last_reported":1779144471,"current_range_meters":8400,"station_id":"ce4bgi92rcd13ifvqb90","pricing_plan_id":"cebpf4jnsgd1na2vs0mg"},{"bike_id":"604f2b02-108b-4d89-b5fd-713f05291d84","system_id":"levelo_inurba_marseille","lat":43.31167,"lon":5.38235,"is_reserved":false,"is_disabled":false,"rental_uris":{"android":"levelo://app?vid=604f2b02-108b-4d89-b5fd-713f05291d84","ios":"levelo://app?vid=604f2b02-108b-4d89-b5fd-713f05291d84"},"vehicle_type_id":"4","last_reported":1779144471,"current_range_meters":8400,"station_id":"","pricing_plan_id":"cebpf4jnsgd1na2vs0mg"},{"bike_id":"923913ca-a156-4dca-ba86-9d804e151c1c","system_id":"levelo_inurba_marseille","lat":43.30944,"lon":5.39011,"is_reserved":false,"is_disabled":false,"rental_uris":{"android":"levelo://app?vid=923913ca-a156-4dca-ba86-9d804e151c1c","ios":"levelo://app?vid=923913ca-a156-4dca-ba86-9d804e151c1c"},"vehicle_type_id":"4","last_reported":1779144471,"current_range_meters":8400,"station_id":"ce4bgup2rcd13ifvqco0","pricing_plan_id":"cebpf4jnsgd1na2vs0mg"},{"bike_id":"ea2b7db2-4ec0-4ed4-95e7-78571752cefd","system_id":"levelo_inurba_marseille","lat":43.24824,"lon":5.37443,"is_reserved":false,"is_disabled":false,"rental_uris":{"android":"levelo://app?vid=ea2b7db2-4ec0-4ed4-95e7-78571752cefd","ios":"levelo://app?vid=ea2b7db2-4ec0-4ed4-95e7-78571752cefd"},"vehicle_type_id":"4","last_reported":1779144471,"current_range_meters":8400,"station_id":"ce4bhgh2rcd13ifvqfb0","pricing_plan_id":"cebpf4jnsgd1na2vs0mg"},{"bike_id":"6ccf4f87-c84f-470c-9ce4-7958a1e238b2","system_id":"levelo_inurba_marseille","lat":43.24931,"lon":5.40498,"is_reserved":false,"is_disabled":false,"rental_uris":{"android":"levelo://app?vid=6ccf4f87-c84f-470c-9ce4-7958a1e238b2","ios":"levelo://app?vid=6ccf4f87-c84f-470c-9ce4-7958a1e238b2"},"vehicle_type_id":"4","last_reported":1779144471,"current_range_meters":8400,"station_id":"st_d2ngiaodas8pm72gd1h0","pricing_plan_id":"cebpf4jnsgd1na2vs0mg"},{"bike_id":"67ac5501-1953-4dd5-b8f0-5480a8df2e7c","system_id":"levelo_inurba_marseille","lat":43.28436,"lon":5.34983,"is_reserved":false,"is_disabled":false,"rental_uris":{"android":"levelo://app?vid=67ac5501-1953-4dd5-b8f0-5480a8df2e7c","ios":"levelo://app?vid=67ac5501-1953-4dd5-b8f0-5480a8df2e7c"},"vehicle_type_id":"4","last_reported":1779144471,"current_range_meters":8400,"station_id":"ce4bhbh2rcd13ifvqepg","pricing_plan_id":"cebpf4jnsgd1na2vs0mg"},{"bike_id":"56687bfa-2b63-4826-87d3-05291fb0de8c","system_id":"levelo_inurba_marseille","lat":43.23224,"lon":5.39935,"is_reserved":false,"is_disabled":false,"rental_uris":{"android":"levelo://app?vid=56687bfa-2b63-4826-87d3-05291fb0de8c","ios":"levelo://app?vid=56687bfa-2b63-4826-87d3-05291fb0de8c"},"vehicle_type_id":"4","last_reported":1779144471,"current_range_meters":8400,"station_id":"","pricing_plan_id":"cebpf4jnsgd1na2vs0mg"},{"bike_id":"9ac179ff-f816-4df1-b797-e266fb3684f0","system_id":"levelo_inurba_marseille","lat":43.28714,"lon":5.40088,"is_reserved":false,"is_disabled":false,"rental_uris":{"android":"levelo://app?vid=9ac179ff-f816-4df1-b797-e266fb3684f0","ios":"levelo://app?vid=9ac179ff-f816-4df1-b797-e266fb3684f0"},"vehicle_type_id":"4","last_reported":1779144471,"current_range_meters":8400,"station_id":"","pricing_plan_id":"cebpf4jnsgd1na2vs0mg"},{"bike_id":"aa8c0e15-ccda-428a-91ca-f1f0bc2527ff","system_id":"levelo_inurba_marseille","lat":43.30093,"lon":5.39072,"is_reserved":false,"is_disabled":false,"rental_uris":{"android":"levelo://app?vid=aa8c0e15-ccda-428a-91ca-f1f0bc2527ff","ios":"levelo://app?vid=aa8c0e15-ccda-428a-91ca-f1f0bc2527ff"},"vehicle_type_id":"4","last_reported":1779144471,"current_range_meters":8800,"station_id":"ce4bh192rcd13ifvqdb0","pricing_plan_id":"cebpf4jnsgd1na2vs0mg"},{"bike_id":"ce0be96b-f9cb-41c3-a831-6dddec085bca","system_id":"levelo_inurba_marseille","lat":43.30306,"lon":5.39223,"is_reserved":false,"is_disabled":false,"rental_uris":{"android":"levelo://app?vid=ce0be96b-f9cb-41c3-a831-6dddec085bca","ios":"levelo://app?vid=ce0be96b-f9cb-41c3-a831-6dddec085bca"},"vehicle_type_id":"4","last_reported":1779144471,"current_range_meters":8800,"station_id":"ce4bgkh2rcd13ifvqbk0","pricing_plan_id":"cebpf4jnsgd1na2vs0mg"},{"bike_id":"32a2fbf2-476b-4eab-9bbd-ac3a1ce848fe","system_id":"levelo_inurba_marseille","lat":43.23188,"lon":5.39974,"is_reserved":false,"is_disabled":false,"rental_uris":{"android":"levelo://app?vid=32a2fbf2-476b-4eab-9bbd-ac3a1ce848fe","ios":"levelo://app?vid=32a2fbf2-476b-4eab-9bbd-ac3a1ce848fe"},"vehicle_type_id":"4","last_reported":1779144471,"current_range_meters":8800,"station_id":"ce4bhn12rcd13ifvqgqg","pricing_plan_id":"cebpf4jnsgd1na2vs0mg"},{"bike_id":"604c8d35-0292-4781-b66d-7833a0f007ea","system_id":"levelo_inurba_marseille","lat":43.33528,"lon":5.37475,"is_reserved":false,"is_disabled":false,"rental_uris":{"android":"levelo://app?vid=604c8d35-0292-4781-b66d-7833a0f007ea","ios":"levelo://app?vid=604c8d35-0292-4781-b66d-7833a0f007ea"},"vehicle_type_id":"4","last_reported":1779144471,"current_range_meters":8800,"station_id":"st_d46tts09ee8s73dlu43g","pricing_plan_id":"cebpf4jnsgd1na2vs0mg"},{"bike_id":"5e43f748-2151-4c27-8767-4bc1cda5a063","system_id":"levelo_inurba_marseille","lat":43.28543,"lon":5.44098,"is_reserved":false,"is_disabled":false,"rental_uris":{"android":"levelo://app?vid=5e43f748-2151-4c27-8767-4bc1cda5a063","ios":"levelo://app?vid=5e43f748-2151-4c27-8767-4bc1cda5a063"},"vehicle_type_id":"4","last_reported":1779144471,"current_range_meters":8800,"station_id":"st_d3j3df2ikq2c7380ej80","pricing_plan_id":"cebpf4jnsgd1na2vs0mg"},{"bike_id":"859ff56d-18cc-492b-8658-56eb50f4e061","system_id":"levelo_inurba_marseille","lat":43.23895,"lon":5.37453,"is_reserved":false,"is_disabled":false,"rental_uris":{"android":"levelo://app?vid=859ff56d-18cc-492b-8658-56eb50f4e061","ios":"levelo://app?vid=859ff56d-18cc-492b-8658-56eb50f4e061"},"vehicle_type_id":"4","last_reported":1779144471,"current_range_meters":8800,"station_id":"st_d6sm7csbq4hs73f8fpjg","pricing_plan_id":"cebpf4jnsgd1na2vs0mg"},{"bike_id":"4a8fff30-cbc5-491d-8d3e-d22b568d1485","system_id":"levelo_inurba_marseille","lat":43.26452,"lon":5.37413,"is_reserved":false,"is_disabled":false,"rental_uris":{"android":"levelo://app?vid=4a8fff30-cbc5-491d-8d3e-d22b568d1485","ios":"levelo://app?vid=4a8fff30-cbc5-491d-8d3e-d22b568d1485"},"vehicle_type_id":"4","last_reported":1779144471,"current_range_meters":8800,"station_id":"","pricing_plan_id":"cebpf4jnsgd1na2vs0mg"},{"bike_id":"2fbad4ff-3321-4ed4-955d-868f812d0490","system_id":"levelo_inurba_marseille","lat":43.24464,"lon":5.42534,"is_reserved":false,"is_disabled":false,"rental_uris":{"android":"levelo://app?vid=2fbad4ff-3321-4ed4-955d-868f812d0490","ios":"levelo://app?vid=2fbad4ff-3321-4ed4-955d-868f812d0490"},"vehicle_type_id":"4","last_reported":1779144471,"current_range_meters":8800,"station_id":"st_d4a3vfp97mjs738cd8kg","pricing_plan_id":"cebpf4jnsgd1na2vs0mg"},{"bike_id":"af731511-fe2c-4bad-84ee-94ac31edb0da","system_id":"levelo_inurba_marseille","lat":43.23179,"lon":5.35585,"is_reserved":false,"is_disabled":false,"rental_uris":{"android":"levelo://app?vid=af731511-fe2c-4bad-84ee-94ac31edb0da","ios":"levelo://app?vid=af731511-fe2c-4bad-84ee-94ac31edb0da"},"vehicle_type_id":"4","last_reported":1779144471,"current_range_meters":8800,"station_id":"ce4bhu92rcd13ifvqi70","pricing_plan_id":"cebpf4jnsgd1na2vs0mg"},{"bike_id":"ebf97062-a7b2-4970-81d2-78528c11a8cb","system_id":"levelo_inurba_marseille","lat":43.27373,"lon":5.36264,"is_reserved":false,"is_disabled":false,"rental_uris":{"android":"levelo://app?vid=ebf97062-a7b2-4970-81d2-78528c11a8cb","ios":"levelo://app?vid=ebf97062-a7b2-4970-81d2-78528c11a8cb"},"vehicle_type_id":"4","last_reported":1779144471,"current_range_meters":8800,"station_id":"ce4bhbh2rcd13ifvqeo0","pricing_plan_id":"cebpf4jnsgd1na2vs0mg"},{"bike_id":"9e31ebd3-c199-49d7-979c-7c3623cf01d4","system_id":"levelo_inurba_marseille","lat":43.30952,"lon":5.39043,"is_reserved":false,"is_disabled":false,"rental_uris":{"android":"levelo://app?vid=9e31ebd3-c199-49d7-979c-7c3623cf01d4","ios":"levelo://app?vid=9e31ebd3-c199-49d7-979c-7c3623cf01d4"},"vehicle_type_id":"4","last_reported":1779144471,"current_range_meters":8800,"station_id":"ce4bgup2rcd13ifvqco0","pricing_plan_id":"cebpf4jnsgd1na2vs0mg"},{"bike_id":"50cfa01f-de61-45f0-90a3-3f0cfe3b0f41","system_id":"levelo_inurba_marseille","lat":43.27208,"lon":5.38565,"is_reserved":false,"is_disabled":false,"rental_uris":{"android":"levelo://app?vid=50cfa01f-de61-45f0-90a3-3f0cfe3b0f41","ios":"levelo://app?vid=50cfa01f-de61-45f0-90a3-3f0cfe3b0f41"},"vehicle_type_id":"4","last_reported":1779144471,"current_range_meters":8800,"station_id":"","pricing_plan_id":"cebpf4jnsgd1na2vs0mg"},{"bike_id":"1b42c5dd-00ec-48cc-82a7-a3569ef1f8f0","system_id":"levelo_inurba_marseille","lat":43.28604,"lon":5.39887,"is_reserved":false,"is_disabled":false,"rental_uris":{"android":"levelo://app?vid=1b42c5dd-00ec-48cc-82a7-a3569ef1f8f0","ios":"levelo://app?vid=1b42c5dd-00ec-48cc-82a7-a3569ef1f8f0"},"vehicle_type_id":"4","last_reported":1779144471,"current_range_meters":8800,"station_id":"st_d4a7ka997mjs738ck50g","pricing_plan_id":"cebpf4jnsgd1na2vs0mg"},{"bike_id":"544a5a8f-218d-4183-b454-e008e38c18a0","system_id":"levelo_inurba_marseille","lat":43.24647,"lon":5.38909,"is_reserved":false,"is_disabled":false,"rental_uris":{"android":"levelo://app?vid=544a5a8f-218d-4183-b454-e008e38c18a0","ios":"levelo://app?vid=544a5a8f-218d-4183-b454-e008e38c18a0"},"vehicle_type_id":"4","last_reported":1779144471,"current_range_meters":8800,"station_id":"ce4bhg12rcd13ifvqf60","pricing_plan_id":"cebpf4jnsgd1na2vs0mg"},{"bike_id":"89dcf81e-d685-4eb4-82aa-fe68a85d332a","system_id":"levelo_inurba_marseille","lat":43.32115,"lon":5.36781,"is_reserved":false,"is_disabled":false,"rental_uris":{"android":"levelo://app?vid=89dcf81e-d685-4eb4-82aa-fe68a85d332a","ios":"levelo://app?vid=89dcf81e-d685-4eb4-82aa-fe68a85d332a"},"vehicle_type_id":"4","last_reported":1779144471,"current_range_meters":8800,"station_id":"ce4bhrh2rcd13ifvqhug","pricing_plan_id":"cebpf4jnsgd1na2vs0mg"},{"bike_id":"32f7a7a9-0053-40f9-b061-be6c97e235a7","system_id":"levelo_inurba_marseille","lat":43.28621,"lon":5.35089,"is_reserved":false,"is_disabled":false,"rental_uris":{"android":"levelo://app?vid=32f7a7a9-0053-40f9-b061-be6c97e235a7","ios":"levelo://app?vid=32f7a7a9-0053-40f9-b061-be6c97e235a7"},"vehicle_type_id":"4","last_reported":1779144471,"current_range_meters":8800,"station_id":"ce4bhch2rcd13ifvqeug","pricing_plan_id":"cebpf4jnsgd1na2vs0mg"},{"bike_id":"3942a10b-fbde-44cf-9339-8b9493e06000","system_id":"levelo_inurba_marseille","lat":43.29032,"lon":5.37567,"is_reserved":false,"is_disabled":true,"rental_uris":{"android":"levelo://app?vid=3942a10b-fbde-44cf-9339-8b9493e06000","ios":"levelo://app?vid=3942a10b-fbde-44cf-9339-8b9493e06000"},"vehicle_type_id":"4","last_reported":1779144471,"current_range_meters":8800,"station_id":"ce4bh692rcd13ifvqe90","pricing_plan_id":"cebpf4jnsgd1na2vs0mg"},{"bike_id":"e1edea3c-a9ec-4e1d-ae51-331278ede585","system_id":"levelo_inurba_marseille","lat":43.31028,"lon":5.39292,"is_reserved":false,"is_disabled":false,"rental_uris":{"android":"levelo://app?vid=e1edea3c-a9ec-4e1d-ae51-331278ede585","ios":"levelo://app?vid=e1edea3c-a9ec-4e1d-ae51-331278ede585"},"vehicle_type_id":"4","last_reported":1779144471,"current_range_meters":8800,"station_id":"","pricing_plan_id":"cebpf4jnsgd1na2vs0mg"},{"bike_id":"0c2b3871-9f7c-47e4-b56c-51981e5f12b4","system_id":"levelo_inurba_marseille","lat":43.27618,"lon":5.36098,"is_reserved":false,"is_disabled":false,"rental_uris":{"android":"levelo://app?vid=0c2b3871-9f7c-47e4-b56c-51981e5f12b4","ios":"levelo://app?vid=0c2b3871-9f7c-47e4-b56c-51981e5f12b4"},"vehicle_type_id":"4","last_reported":1779144471,"current_range_meters":8800,"station_id":"ce4bgj92rcd13ifvqbe0","pricing_plan_id":"cebpf4jnsgd1na2vs0mg"},{"bike_id":"c982f197-5ae1-441d-9666-187b23fc3a07","system_id":"levelo_inurba_marseille","lat":43.28086,"lon":5.35002,"is_reserved":false,"is_disabled":false,"rental_uris":{"android":"levelo://app?vid=c982f197-5ae1-441d-9666-187b23fc3a07","ios":"levelo://app?vid=c982f197-5ae1-441d-9666-187b23fc3a07"},"vehicle_type_id":"4","last_reported":1779144471,"current_range_meters":8800,"station_id":"","pricing_plan_id":"cebpf4jnsgd1na2vs0mg"},{"bike_id":"40cdbae6-714d-4f35-95a9-676040c67aef","system_id":"levelo_inurba_marseille","lat":43.24002,"lon":5.41294,"is_reserved":false,"is_disabled":false,"rental_uris":{"android":"levelo://app?vid=40cdbae6-714d-4f35-95a9-676040c67aef","ios":"levelo://app?vid=40cdbae6-714d-4f35-95a9-676040c67aef"},"vehicle_type_id":"4","last_reported":1779144471,"current_range_meters":8800,"station_id":"","pricing_plan_id":"cebpf4jnsgd1na2vs0mg"},{"bike_id":"c80798d6-8316-464a-b206-1385d77e76f4","system_id":"levelo_inurba_marseille","lat":43.30093,"lon":5.3909,"is_reserved":false,"is_disabled":false,"rental_uris":{"android":"levelo://app?vid=c80798d6-8316-464a-b206-1385d77e76f4","ios":"levelo://app?vid=c80798d6-8316-464a-b206-1385d77e76f4"},"vehicle_type_id":"4","last_reported":1779144471,"current_range_meters":8800,"station_id":"ce4bh192rcd13ifvqdb0","pricing_plan_id":"cebpf4jnsgd1na2vs0mg"},{"bike_id":"3880835e-b937-4eec-91ea-5dcc4cc08480","system_id":"levelo_inurba_marseille","lat":43.31151,"lon":5.39488,"is_reserved":false,"is_disabled":false,"rental_uris":{"android":"levelo://app?vid=3880835e-b937-4eec-91ea-5dcc4cc08480","ios":"levelo://app?vid=3880835e-b937-4eec-91ea-5dcc4cc08480"},"vehicle_type_id":"4","last_reported":1779144471,"current_range_meters":8800,"station_id":"","pricing_plan_id":"cebpf4jnsgd1na2vs0mg"},{"bike_id":"5368c0a0-4429-4bfb-9041-36ebcaa7797e","system_id":"levelo_inurba_marseille","lat":43.3132,"lon":5.39703,"is_reserved":false,"is_disabled":false,"rental_uris":{"android":"levelo://app?vid=5368c0a0-4429-4bfb-9041-36ebcaa7797e","ios":"levelo://app?vid=5368c0a0-4429-4bfb-9041-36ebcaa7797e"},"vehicle_type_id":"4","last_reported":1779144471,"current_range_meters":8800,"station_id":"ce4bgvp2rcd13ifvqcu0","pricing_plan_id":"cebpf4jnsgd1na2vs0mg"},{"bike_id":"8bd36308-f19b-4c81-baf2-f80d63464915","system_id":"levelo_inurba_marseille","lat":43.27181,"lon":5.40996,"is_reserved":false,"is_disabled":false,"rental_uris":{"android":"levelo://app?vid=8bd36308-f19b-4c81-baf2-f80d63464915","ios":"levelo://app?vid=8bd36308-f19b-4c81-baf2-f80d63464915"},"vehicle_type_id":"4","last_reported":1779144471,"current_range_meters":8800,"station_id":"ce4bhl12rcd13ifvqgf0","pricing_plan_id":"cebpf4jnsgd1na2vs0mg"},{"bike_id":"d5507518-cb58-4fc3-a22b-de5ad3c6e51d","system_id":"levelo_inurba_marseille","lat":43.29816,"lon":5.44063,"is_reserved":false,"is_disabled":false,"rental_uris":{"android":"levelo://app?vid=d5507518-cb58-4fc3-a22b-de5ad3c6e51d","ios":"levelo://app?vid=d5507518-cb58-4fc3-a22b-de5ad3c6e51d"},"vehicle_type_id":"4","last_reported":1779144471,"current_range_meters":8800,"station_id":"st_d3jp68qikq2c7381ktn0","pricing_plan_id":"cebpf4jnsgd1na2vs0mg"},{"bike_id":"ef95a4b3-8977-434f-ade6-d17467699729","system_id":"levelo_inurba_marseille","lat":43.28274,"lon":5.35057,"is_reserved":false,"is_disabled":false,"rental_uris":{"android":"levelo://app?vid=ef95a4b3-8977-434f-ade6-d17467699729","ios":"levelo://app?vid=ef95a4b3-8977-434f-ade6-d17467699729"},"vehicle_type_id":"4","last_reported":1779144471,"current_range_meters":8800,"station_id":"ce4bhbp2rcd13ifvqerg","pricing_plan_id":"cebpf4jnsgd1na2vs0mg"},{"bike_id":"ba703724-8d38-44ed-940f-aae513aac85d","system_id":"levelo_inurba_marseille","lat":43.28457,"lon":5.35878,"is_reserved":false,"is_disabled":false,"rental_uris":{"android":"levelo://app?vid=ba703724-8d38-44ed-940f-aae513aac85d","ios":"levelo://app?vid=ba703724-8d38-44ed-940f-aae513aac85d"},"vehicle_type_id":"4","last_reported":1779144471,"current_range_meters":8800,"station_id":"ce4bhah2rcd13ifvqei0","pricing_plan_id":"cebpf4jnsgd1na2vs0mg"},{"bike_id":"7a7a7c91-59f9-4e9c-b9a3-3a49c7f6a2f9","system_id":"levelo_inurba_marseille","lat":43.28416,"lon":5.34981,"is_reserved":false,"is_disabled":true,"rental_uris":{"android":"levelo://app?vid=7a7a7c91-59f9-4e9c-b9a3-3a49c7f6a2f9","ios":"levelo://app?vid=7a7a7c91-59f9-4e9c-b9a3-3a49c7f6a2f9"},"vehicle_type_id":"4","last_reported":1779144471,"current_range_meters":8800,"station_id":"ce4bhbh2rcd13ifvqepg","pricing_plan_id":"cebpf4jnsgd1na2vs0mg"},{"bike_id":"dc6cdf93-b8bc-4df4-a3ad-4ee42a350d71","system_id":"levelo_inurba_marseille","lat":43.286184,"lon":5.351105,"is_reserved":false,"is_disabled":false,"rental_uris":{"android":"levelo://app?vid=dc6cdf93-b8bc-4df4-a3ad-4ee42a350d71","ios":"levelo://app?vid=dc6cdf93-b8bc-4df4-a3ad-4ee42a350d71"},"vehicle_type_id":"4","last_reported":1779144471,"current_range_meters":8800,"station_id":"ce4bhch2rcd13ifvqeug","pricing_plan_id":"cebpf4jnsgd1na2vs0mg"},{"bike_id":"e8703d1e-38d7-4a37-8b34-74e110535cc7","system_id":"levelo_inurba_marseille","lat":43.25075,"lon":5.3951,"is_reserved":false,"is_disabled":true,"rental_uris":{"android":"levelo://app?vid=e8703d1e-38d7-4a37-8b34-74e110535cc7","ios":"levelo://app?vid=e8703d1e-38d7-4a37-8b34-74e110535cc7"},"vehicle_type_id":"4","last_reported":1779144471,"current_range_meters":9200,"station_id":"ce4bhm12rcd13ifvqgkg","pricing_plan_id":"cebpf4jnsgd1na2vs0mg"},{"bike_id":"d1cee1d6-850f-4008-9e7f-92438d58fc13","system_id":"levelo_inurba_marseille","lat":43.27169,"lon":5.40997,"is_reserved":false,"is_disabled":false,"rental_uris":{"android":"levelo://app?vid=d1cee1d6-850f-4008-9e7f-92438d58fc13","ios":"levelo://app?vid=d1cee1d6-850f-4008-9e7f-92438d58fc13"},"vehicle_type_id":"4","last_reported":1779144471,"current_range_meters":9200,"station_id":"ce4bhl12rcd13ifvqgf0","pricing_plan_id":"cebpf4jnsgd1na2vs0mg"},{"bike_id":"0e005930-50d3-4810-aa57-22cd17a23cef","system_id":"levelo_inurba_marseille","lat":43.3098,"lon":5.36653,"is_reserved":false,"is_disabled":false,"rental_uris":{"android":"levelo://app?vid=0e005930-50d3-4810-aa57-22cd17a23cef","ios":"levelo://app?vid=0e005930-50d3-4810-aa57-22cd17a23cef"},"vehicle_type_id":"4","last_reported":1779144471,"current_range_meters":9200,"station_id":"","pricing_plan_id":"cebpf4jnsgd1na2vs0mg"},{"bike_id":"a57b6d8c-426e-41f2-88fd-ed699a7b5fab","system_id":"levelo_inurba_marseille","lat":43.32118,"lon":5.36774,"is_reserved":false,"is_disabled":false,"rental_uris":{"android":"levelo://app?vid=a57b6d8c-426e-41f2-88fd-ed699a7b5fab","ios":"levelo://app?vid=a57b6d8c-426e-41f2-88fd-ed699a7b5fab"},"vehicle_type_id":"4","last_reported":1779144471,"current_range_meters":9200,"station_id":"ce4bhrh2rcd13ifvqhug","pricing_plan_id":"cebpf4jnsgd1na2vs0mg"},{"bike_id":"f3556067-6a08-4c43-bc95-dcd988871f8b","system_id":"levelo_inurba_marseille","lat":43.29256,"lon":5.40903,"is_reserved":false,"is_disabled":false,"rental_uris":{"android":"levelo://app?vid=f3556067-6a08-4c43-bc95-dcd988871f8b","ios":"levelo://app?vid=f3556067-6a08-4c43-bc95-dcd988871f8b"},"vehicle_type_id":"4","last_reported":1779144471,"current_range_meters":9200,"station_id":"ce4bh192rcd13ifvqdc0","pricing_plan_id":"cebpf4jnsgd1na2vs0mg"},{"bike_id":"76a82a0c-f46c-4d9d-976b-14036ab63795","system_id":"levelo_inurba_marseille","lat":43.28497,"lon":5.40139,"is_reserved":false,"is_disabled":false,"rental_uris":{"android":"levelo://app?vid=76a82a0c-f46c-4d9d-976b-14036ab63795","ios":"levelo://app?vid=76a82a0c-f46c-4d9d-976b-14036ab63795"},"vehicle_type_id":"4","last_reported":1779144471,"current_range_meters":9200,"station_id":"","pricing_plan_id":"cebpf4jnsgd1na2vs0mg"},{"bike_id":"cc16b525-32a1-417e-b9d1-50fd191b0f92","system_id":"levelo_inurba_marseille","lat":43.24958,"lon":5.40491,"is_reserved":false,"is_disabled":false,"rental_uris":{"android":"levelo://app?vid=cc16b525-32a1-417e-b9d1-50fd191b0f92","ios":"levelo://app?vid=cc16b525-32a1-417e-b9d1-50fd191b0f92"},"vehicle_type_id":"4","last_reported":1779144471,"current_range_meters":9200,"station_id":"st_d2ngiaodas8pm72gd1h0","pricing_plan_id":"cebpf4jnsgd1na2vs0mg"},{"bike_id":"a9ba4495-09dc-4445-b27b-fca8a22932a2","system_id":"levelo_inurba_marseille","lat":43.25822,"lon":5.39428,"is_reserved":false,"is_disabled":false,"rental_uris":{"android":"levelo://app?vid=a9ba4495-09dc-4445-b27b-fca8a22932a2","ios":"levelo://app?vid=a9ba4495-09dc-4445-b27b-fca8a22932a2"},"vehicle_type_id":"4","last_reported":1779144471,"current_range_meters":9200,"station_id":"ce4bhip2rcd13ifvqft0","pricing_plan_id":"cebpf4jnsgd1na2vs0mg"},{"bike_id":"261f2914-f86b-4668-a408-95acc694e9f6","system_id":"levelo_inurba_marseille","lat":43.337444,"lon":5.374475,"is_reserved":false,"is_disabled":false,"rental_uris":{"android":"levelo://app?vid=261f2914-f86b-4668-a408-95acc694e9f6","ios":"levelo://app?vid=261f2914-f86b-4668-a408-95acc694e9f6"},"vehicle_type_id":"4","last_reported":1779144471,"current_range_meters":9200,"station_id":"","pricing_plan_id":"cebpf4jnsgd1na2vs0mg"},{"bike_id":"d3b50581-76b5-4d34-9588-713ec76a1957","system_id":"levelo_inurba_marseille","lat":43.21178,"lon":5.35101,"is_reserved":false,"is_disabled":false,"rental_uris":{"android":"levelo://app?vid=d3b50581-76b5-4d34-9588-713ec76a1957","ios":"levelo://app?vid=d3b50581-76b5-4d34-9588-713ec76a1957"},"vehicle_type_id":"4","last_reported":1779144471,"current_range_meters":9200,"station_id":"st_cvj6sg6p6f1abm77japg","pricing_plan_id":"cebpf4jnsgd1na2vs0mg"},{"bike_id":"4842f38c-987f-4d1b-8740-a064835243c5","system_id":"levelo_inurba_marseille","lat":43.29808,"lon":5.39331,"is_reserved":false,"is_disabled":false,"rental_uris":{"android":"levelo://app?vid=4842f38c-987f-4d1b-8740-a064835243c5","ios":"levelo://app?vid=4842f38c-987f-4d1b-8740-a064835243c5"},"vehicle_type_id":"4","last_reported":1779144471,"current_range_meters":9200,"station_id":"chh1huq6cuj3fo74tm60","pricing_plan_id":"cebpf4jnsgd1na2vs0mg"},{"bike_id":"2c065635-2ed1-45ce-8bd1-9f33532240ac","system_id":"levelo_inurba_marseille","lat":43.30725,"lon":5.4248,"is_reserved":false,"is_disabled":false,"rental_uris":{"android":"levelo://app?vid=2c065635-2ed1-45ce-8bd1-9f33532240ac","ios":"levelo://app?vid=2c065635-2ed1-45ce-8bd1-9f33532240ac"},"vehicle_type_id":"4","last_reported":1779144471,"current_range_meters":9200,"station_id":"st_cvj6ca6bvosntc0bfgr0","pricing_plan_id":"cebpf4jnsgd1na2vs0mg"},{"bike_id":"84ef4644-99b7-4103-8410-56c528b74a81","system_id":"levelo_inurba_marseille","lat":43.27065,"lon":5.42284,"is_reserved":false,"is_disabled":false,"rental_uris":{"android":"levelo://app?vid=84ef4644-99b7-4103-8410-56c528b74a81","ios":"levelo://app?vid=84ef4644-99b7-4103-8410-56c528b74a81"},"vehicle_type_id":"4","last_reported":1779144471,"current_range_meters":9200,"station_id":"","pricing_plan_id":"cebpf4jnsgd1na2vs0mg"},{"bike_id":"f4ac26ba-6af2-4a73-af45-c735269cfee8","system_id":"levelo_inurba_marseille","lat":43.23192,"lon":5.39983,"is_reserved":false,"is_disabled":false,"rental_uris":{"android":"levelo://app?vid=f4ac26ba-6af2-4a73-af45-c735269cfee8","ios":"levelo://app?vid=f4ac26ba-6af2-4a73-af45-c735269cfee8"},"vehicle_type_id":"4","last_reported":1779144471,"current_range_meters":9200,"station_id":"ce4bhn12rcd13ifvqgqg","pricing_plan_id":"cebpf4jnsgd1na2vs0mg"},{"bike_id":"df35f89f-d15c-430b-bba1-04dbcdafb941","system_id":"levelo_inurba_marseille","lat":43.2882,"lon":5.35874,"is_reserved":false,"is_disabled":false,"rental_uris":{"android":"levelo://app?vid=df35f89f-d15c-430b-bba1-04dbcdafb941","ios":"levelo://app?vid=df35f89f-d15c-430b-bba1-04dbcdafb941"},"vehicle_type_id":"4","last_reported":1779144471,"current_range_meters":9200,"station_id":"ce4bhb12rcd13ifvqem0","pricing_plan_id":"cebpf4jnsgd1na2vs0mg"},