{"last_updated":1747411918,"ttl":60,"version":"2.2","data":{"bikes":[{"bike_id":"f392e04b-3d43-40f8-91f1-489bb6e795a0","system_id":"levelo_inurba_marseille","lat":43.30044,"lon":5.37431,"is_reserved":false,"is_disabled":false,"rental_uris":{"android":"levelo://app?vid=f392e04b-3d43-40f8-91f1-489bb6e795a0","ios":"levelo://app?vid=f392e04b-3d43-40f8-91f1-489bb6e795a0"},"vehicle_type_id":"4","last_reported":1747411918,"current_range_meters":3200,"station_id":"","pricing_plan_id":"cebpf4jnsgd1na2vs0mg"},{"bike_id":"00fab9c0-775c-4a40-b98f-eeb0f1b52555","system_id":"levelo_inurba_marseille","lat":43.31363,"lon":5.38501,"is_reserved":false,"is_disabled":true,"rental_uris":{"android":"levelo://app?vid=00fab9c0-775c-4a40-b98f-eeb0f1b52555","ios":"levelo://app?vid=00fab9c0-775c-4a40-b98f-eeb0f1b52555"},"vehicle_type_id":"4","last_reported":1747411918,"current_range_meters":2800,"station_id":"ce4bgt92rcd13ifvqcf0","pricing_plan_id":"cebpf4jnsgd1na2vs0mg"},{"bike_id":"4e46d2d4-868a-43f4-aa14-2d0a80ab14ad","system_id":"levelo_inurba_marseille","lat":43.23957,"lon":5.36635,"is_reserved":false,"is_disabled":false,"rental_uris":{"android":"levelo://app?vid=4e46d2d4-868a-43f4-aa14-2d0a80ab14ad","ios":"levelo://app?vid=4e46d2d4-868a-43f4-aa14-2d0a80ab14ad"},"vehicle_type_id":"4","last_reported":1747411918,"current_range_meters":2800,"station_id":"ce4bhi12rcd13ifvqfp0","pricing_plan_id":"cebpf4jnsgd1na2vs0mg"},{"bike_id":"8f89b14c-cc99-48cb-af4b-4f6de1415d39","system_id":"levelo_inurba_marseille","lat":43.25726,"lon":5.41111,"is_reserved":false,"is_disabled":false,"rental_uris":{"android":"levelo://app?vid=8f89b14c-cc99-48cb-af4b-4f6de1415d39","ios":"levelo://app?vid=8f89b14c-cc99-48cb-af4b-4f6de1415d39"},"vehicle_type_id":"4","last_reported":1747411918,"current_range_meters":2000,"station_id":"ce4bhkp2rcd13ifvqgd0","pricing_plan_id":"cebpf4jnsgd1na2vs0mg"},{"bike_id":"f244c54a-d977-49b9-8738-711906896d97","system_id":"levelo_inurba_marseille","lat":43.32111,"lon":5.36769,"is_reserved":false,"is_disabled":false,"rental_uris":{"android":"levelo://app?vid=f244c54a-d977-49b9-8738-711906896d97","ios":"levelo://app?vid=f244c54a-d977-49b9-8738-711906896d97"},"vehicle_type_id":"4","last_reported":1747411918,"current_range_meters":2800,"station_id":"ce4bhrh2rcd13ifvqhug","pricing_plan_id":"cebpf4jnsgd1na2vs0mg"},{"bike_id":"bd97490a-c15f-48a0-b287-3dc935d0f398","system_id":"levelo_inurba_marseille","lat":43.337444,"lon":5.374475,"is_reserved":false,"is_disabled":false,"rental_uris":{"android":"levelo://app?vid=bd97490a-c15f-48a0-b287-3dc935d0f398","ios":"levelo://app?vid=bd97490a-c15f-48a0-b287-3dc935d0f398"},"vehicle_type_id":"4","last_reported":1747411918,"current_range_meters":3200,"station_id":"","pricing_plan_id":"cebpf4jnsgd1na2vs0mg"},{"bike_id":"d4c4295d-e755-4203-8859-cb286726cccd","system_id":"levelo_inurba_marseille","lat":43.27992,"lon":5.400047,"is_reserved":false,"is_disabled":false,"rental_uris":{"android":"levelo://app?vid=d4c4295d-e755-4203-8859-cb286726cccd","ios":"levelo://app?vid=d4c4295d-e755-4203-8859-cb286726cccd"},"vehicle_type_id":"4","last_reported":1747411918,"current_range_meters":2000,"station_id":"ce4bho92rcd13ifvqh4g","pricing_plan_id":"cebpf4jnsgd1na2vs0mg"},{"bike_id":"5d5f5755-5b3b-4308-8b78-c8614cdd189d","system_id":"levelo_inurba_marseille","lat":43.30493,"lon":5.36744,"is_reserved":false,"is_disabled":false,"rental_uris":{"android":"levelo://app?vid=5d5f5755-5b3b-4308-8b78-c8614cdd189d","ios":"levelo://app?vid=5d5f5755-5b3b-4308-8b78-c8614cdd189d"},"vehicle_type_id":"4","last_reported":1747411918,"current_range_meters":3200,"station_id":"ce4bgrp2rcd13ifvqc9g","pricing_plan_id":"cebpf4jnsgd1na2vs0mg"},{"bike_id":"cb587439-8d3e-42e4-931c-0fe4e4f32739","system_id":"levelo_inurba_marseille","lat":43.29711,"lon":5.37708,"is_reserved":false,"is_disabled":false,"rental_uris":{"android":"levelo://app?vid=cb587439-8d3e-42e4-931c-0fe4e4f32739","ios":"levelo://app?vid=cb587439-8d3e-42e4-931c-0fe4e4f32739"},"vehicle_type_id":"4","last_reported":1747411918,"current_range_meters":3200,"station_id":"ce4bgkh2rcd13ifvqbl0","pricing_plan_id":"cebpf4jnsgd1na2vs0mg"},{"bike_id":"d30909e3-49a1-49e7-bfda-48024e802b9e","system_id":"levelo_inurba_marseille","lat":43.29531,"lon":5.39042,"is_reserved":false,"is_disabled":false,"rental_uris":{"android":"levelo://app?vid=d30909e3-49a1-49e7-bfda-48024e802b9e","ios":"levelo://app?vid=d30909e3-49a1-49e7-bfda-48024e802b9e"},"vehicle_type_id":"4","last_reported":1747411918,"current_range_meters":3200,"station_id":"ce4bh3p2rcd13ifvqdp0","pricing_plan_id":"cebpf4jnsgd1na2vs0mg"},{"bike_id":"c0ffe57f-3847-4f27-95bb-0d6778115e71","system_id":"levelo_inurba_marseille","lat":43.28714,"lon":5.37934,"is_reserved":false,"is_disabled":false,"rental_uris":{"android":"levelo://app?vid=c0ffe57f-3847-4f27-95bb-0d6778115e71","ios":"levelo://app?vid=c0ffe57f-3847-4f27-95bb-0d6778115e71"},"vehicle_type_id":"4","last_reported":1747411918,"current_range_meters":3200,"station_id":"ce4bh9p2rcd13ifvqec0","pricing_plan_id":"cebpf4jnsgd1na2vs0mg"},{"bike_id":"c50402d2-0ca2-4001-aff5-8fb557f8c230","system_id":"levelo_inurba_marseille","lat":43.248045,"lon":5.37457,"is_reserved":false,"is_disabled":false,"rental_uris":{"android":"levelo://app?vid=c50402d2-0ca2-4001-aff5-8fb557f8c230","ios":"levelo://app?vid=c50402d2-0ca2-4001-aff5-8fb557f8c230"},"vehicle_type_id":"4","last_reported":1747411918,"current_range_meters":3200,"station_id":"ce4bhgh2rcd13ifvqfb0","pricing_plan_id":"cebpf4jnsgd1na2vs0mg"},{"bike_id":"96939340-280e-4e5f-baa3-190ece8f2c67","system_id":"levelo_inurba_marseille","lat":43.32291,"lon":5.38274,"is_reserved":false,"is_disabled":false,"rental_uris":{"android":"levelo://app?vid=96939340-280e-4e5f-baa3-190ece8f2c67","ios":"levelo://app?vid=96939340-280e-4e5f-baa3-190ece8f2c67"},"vehicle_type_id":"4","last_reported":1747411918,"current_range_meters":3200,"station_id":"ce4bhr12rcd13ifvqhqg","pricing_plan_id":"cebpf4jnsgd1na2vs0mg"},{"bike_id":"00425507-9dd7-4cc0-b2e2-1a2d375395fa","system_id":"levelo_inurba_marseille","lat":43.30426,"lon":5.38881,"is_reserved":false,"is_disabled":false,"rental_uris":{"android":"levelo://app?vid=00425507-9dd7-4cc0-b2e2-1a2d375395fa","ios":"levelo://app?vid=00425507-9dd7-4cc0-b2e2-1a2d375395fa"},"vehicle_type_id":"4","last_reported":1747411918,"current_range_meters":3200,"station_id":"ce4bgk12rcd13ifvqbi0","pricing_plan_id":"cebpf4jnsgd1na2vs0mg"},{"bike_id":"b1cfc5b4-0b6b-48b8-b910-e2efb2f7237f","system_id":"levelo_inurba_marseille","lat":43.281044,"lon":5.377974,"is_reserved":false,"is_disabled":false,"rental_uris":{"android":"levelo://app?vid=b1cfc5b4-0b6b-48b8-b910-e2efb2f7237f","ios":"levelo://app?vid=b1cfc5b4-0b6b-48b8-b910-e2efb2f7237f"},"vehicle_type_id":"4","last_reported":1747411918,"current_range_meters":3200,"station_id":"ce4bha12rcd13ifvqee0","pricing_plan_id":"cebpf4jnsgd1na2vs0mg"},{"bike_id":"cb0d5fe4-fc11-42cc-bd68-ce832b3181e7","system_id":"levelo_inurba_marseille","lat":43.3095,"lon":5.39028,"is_reserved":false,"is_disabled":false,"rental_uris":{"android":"levelo://app?vid=cb0d5fe4-fc11-42cc-bd68-ce832b3181e7","ios":"levelo://app?vid=cb0d5fe4-fc11-42cc-bd68-ce832b3181e7"},"vehicle_type_id":"4","last_reported":1747411918,"current_range_meters":3200,"station_id":"ce4bgup2rcd13ifvqco0","pricing_plan_id":"cebpf4jnsgd1na2vs0mg"},{"bike_id":"b0d790bf-863a-4207-85ba-ba06410c4382","system_id":"levelo_inurba_marseille","lat":43.28262,"lon":5.35062,"is_reserved":false,"is_disabled":false,"rental_uris":{"android":"levelo://app?vid=b0d790bf-863a-4207-85ba-ba06410c4382","ios":"levelo://app?vid=b0d790bf-863a-4207-85ba-ba06410c4382"},"vehicle_type_id":"4","last_reported":1747411918,"current_range_meters":3200,"station_id":"ce4bhbp2rcd13ifvqerg","pricing_plan_id":"cebpf4jnsgd1na2vs0mg"},{"bike_id":"65b59a60-e046-4443-8266-19d3963a342f","system_id":"levelo_inurba_marseille","lat":43.21192,"lon":5.35077,"is_reserved":false,"is_disabled":false,"rental_uris":{"android":"levelo://app?vid=65b59a60-e046-4443-8266-19d3963a342f","ios":"levelo://app?vid=65b59a60-e046-4443-8266-19d3963a342f"},"vehicle_type_id":"4","last_reported":1747411918,"current_range_meters":3600,"station_id":"st_cvj6sg6p6f1abm77japg","pricing_plan_id":"cebpf4jnsgd1na2vs0mg"},{"bike_id":"1ce54a55-8ce0-4892-96a0-2b794a4ca7f7","system_id":"levelo_inurba_marseille","lat":43.29527,"lon":5.39037,"is_reserved":false,"is_disabled":false,"rental_uris":{"android":"levelo://app?vid=1ce54a55-8ce0-4892-96a0-2b794a4ca7f7","ios":"levelo://app?vid=1ce54a55-8ce0-4892-96a0-2b794a4ca7f7"},"vehicle_type_id":"4","last_reported":1747411918,"current_range_meters":3600,"station_id":"ce4bh3p2rcd13ifvqdp0","pricing_plan_id":"cebpf4jnsgd1na2vs0mg"},{"bike_id":"cad2cf1a-18e8-4956-a0f5-2b59d7c6ebd6","system_id":"levelo_inurba_marseille","lat":43.27634,"lon":5.36098,"is_reserved":false,"is_disabled":false,"rental_uris":{"android":"levelo://app?vid=cad2cf1a-18e8-4956-a0f5-2b59d7c6ebd6","ios":"levelo://app?vid=cad2cf1a-18e8-4956-a0f5-2b59d7c6ebd6"},"vehicle_type_id":"4","last_reported":1747411918,"current_range_meters":3600,"station_id":"ce4bgj92rcd13ifvqbe0","pricing_plan_id":"cebpf4jnsgd1na2vs0mg"},{"bike_id":"c697c15f-a935-4201-b5a9-69a11876cb78","system_id":"levelo_inurba_marseille","lat":43.28941,"lon":5.36638,"is_reserved":false,"is_disabled":false,"rental_uris":{"android":"levelo://app?vid=c697c15f-a935-4201-b5a9-69a11876cb78","ios":"levelo://app?vid=c697c15f-a935-4201-b5a9-69a11876cb78"},"vehicle_type_id":"4","last_reported":1747411918,"current_range_meters":3600,"station_id":"ce4bhap2rcd13ifvqek0","pricing_plan_id":"cebpf4jnsgd1na2vs0mg"},{"bike_id":"45fce2e2-839c-4c77-bf55-55905978b238","system_id":"levelo_inurba_marseille","lat":43.29224,"lon":5.3605,"is_reserved":false,"is_disabled":true,"rental_uris":{"android":"levelo://app?vid=45fce2e2-839c-4c77-bf55-55905978b238","ios":"levelo://app?vid=45fce2e2-839c-4c77-bf55-55905978b238"},"vehicle_type_id":"4","last_reported":1747411918,"current_range_meters":4000,"station_id":"ce4bhbh2rcd13ifvqeqg","pricing_plan_id":"cebpf4jnsgd1na2vs0mg"},{"bike_id":"cb9f0db7-62fa-4e6e-a4e3-4501afb26d35","system_id":"levelo_inurba_marseille","lat":43.31361,"lon":5.38497,"is_reserved":false,"is_disabled":false,"rental_uris":{"android":"levelo://app?vid=cb9f0db7-62fa-4e6e-a4e3-4501afb26d35","ios":"levelo://app?vid=cb9f0db7-62fa-4e6e-a4e3-4501afb26d35"},"vehicle_type_id":"4","last_reported":1747411918,"current_range_meters":4000,"station_id":"ce4bgt92rcd13ifvqcf0","pricing_plan_id":"cebpf4jnsgd1na2vs0mg"},{"bike_id":"5b1cc5ac-f8d8-4295-907a-2ee7fb38fc75","system_id":"levelo_inurba_marseille","lat":43.29777,"lon":5.37095,"is_reserved":false,"is_disabled":false,"rental_uris":{"android":"levelo://app?vid=5b1cc5ac-f8d8-4295-907a-2ee7fb38fc75","ios":"levelo://app?vid=5b1cc5ac-f8d8-4295-907a-2ee7fb38fc75"},"vehicle_type_id":"4","last_reported":1747411918,"current_range_meters":4000,"station_id":"ce4bgop2rcd13ifvqc1g","pricing_plan_id":"cebpf4jnsgd1na2vs0mg"},{"bike_id":"57f4bbc3-bbc0-4c95-b3ad-813d8d12d2e9","system_id":"levelo_inurba_marseille","lat":43.29681,"lon":5.37288,"is_reserved":false,"is_disabled":false,"rental_uris":{"android":"levelo://app?vid=57f4bbc3-bbc0-4c95-b3ad-813d8d12d2e9","ios":"levelo://app?vid=57f4bbc3-bbc0-4c95-b3ad-813d8d12d2e9"},"vehicle_type_id":"4","last_reported":1747411918,"current_range_meters":4000,"station_id":"ce4bgk12rcd13ifvqbj0","pricing_plan_id":"cebpf4jnsgd1na2vs0mg"},{"bike_id":"cc40183c-351a-4838-80f1-79e1bc89d84f","system_id":"levelo_inurba_marseille","lat":43.29366,"lon":5.3785,"is_reserved":false,"is_disabled":false,"rental_uris":{"android":"levelo://app?vid=cc40183c-351a-4838-80f1-79e1bc89d84f","ios":"levelo://app?vid=cc40183c-351a-4838-80f1-79e1bc89d84f"},"vehicle_type_id":"4","last_reported":1747411918,"current_range_meters":4000,"station_id":"ce4bgjh2rcd13ifvqbf0","pricing_plan_id":"cebpf4jnsgd1na2vs0mg"},{"bike_id":"b5966bb1-bcb3-4c11-be57-b6fbe86b4db9","system_id":"levelo_inurba_marseille","lat":43.29788,"lon":5.37111,"is_reserved":false,"is_disabled":false,"rental_uris":{"android":"levelo://app?vid=b5966bb1-bcb3-4c11-be57-b6fbe86b4db9","ios":"levelo://app?vid=b5966bb1-bcb3-4c11-be57-b6fbe86b4db9"},"vehicle_type_id":"4","last_reported":1747411918,"current_range_meters":4400,"station_id":"ce4bgop2rcd13ifvqc1g","pricing_plan_id":"cebpf4jnsgd1na2vs0mg"},{"bike_id":"f515a470-71e8-4b35-a4c2-69400e965976","system_id":"levelo_inurba_marseille","lat":43.261869,"lon":5.37444,"is_reserved":false,"is_disabled":false,"rental_uris":{"android":"levelo://app?vid=f515a470-71e8-4b35-a4c2-69400e965976","ios":"levelo://app?vid=f515a470-71e8-4b35-a4c2-69400e965976"},"vehicle_type_id":"4","last_reported":1747411918,"current_range_meters":4400,"station_id":"ce4bhgp2rcd13ifvqfc0","pricing_plan_id":"cebpf4jnsgd1na2vs0mg"},{"bike_id":"dabfd71d-b920-48be-a290-3bab14aeb43d","system_id":"levelo_inurba_marseille","lat":43.30931,"lon":5.40146,"is_reserved":false,"is_disabled":true,"rental_uris":{"android":"levelo://app?vid=dabfd71d-b920-48be-a290-3bab14aeb43d","ios":"levelo://app?vid=dabfd71d-b920-48be-a290-3bab14aeb43d"},"vehicle_type_id":"4","last_reported":1747411918,"current_range_meters":4800,"station_id":"ce4bgvp2rcd13ifvqct0","pricing_plan_id":"cebpf4jnsgd1na2vs0mg"},{"bike_id":"9a849fc0-0535-44a0-bc57-e9cc385cbded","system_id":"levelo_inurba_marseille","lat":43.28268,"lon":5.35063,"is_reserved":false,"is_disabled":false,"rental_uris":{"android":"levelo://app?vid=9a849fc0-0535-44a0-bc57-e9cc385cbded","ios":"levelo://app?vid=9a849fc0-0535-44a0-bc57-e9cc385cbded"},"vehicle_type_id":"4","last_reported":1747411918,"current_range_meters":4800,"station_id":"ce4bhbp2rcd13ifvqerg","pricing_plan_id":"cebpf4jnsgd1na2vs0mg"},{"bike_id":"a06d3659-a73f-448f-97f6-20ff1a29904d","system_id":"levelo_inurba_marseille","lat":43.31449,"lon":5.38503,"is_reserved":false,"is_disabled":false,"rental_uris":{"android":"levelo://app?vid=a06d3659-a73f-448f-97f6-20ff1a29904d","ios":"levelo://app?vid=a06d3659-a73f-448f-97f6-20ff1a29904d"},"vehicle_type_id":"4","last_reported":1747411918,"current_range_meters":4800,"station_id":"","pricing_plan_id":"cebpf4jnsgd1na2vs0mg"},{"bike_id":"b73f0474-cc66-4c09-bf96-6c7293f823c2","system_id":"levelo_inurba_marseille","lat":43.28616,"lon":5.35103,"is_reserved":false,"is_disabled":false,"rental_uris":{"android":"levelo://app?vid=b73f0474-cc66-4c09-bf96-6c7293f823c2","ios":"levelo://app?vid=b73f0474-cc66-4c09-bf96-6c7293f823c2"},"vehicle_type_id":"4","last_reported":1747411918,"current_range_meters":4800,"station_id":"ce4bhch2rcd13ifvqeug","pricing_plan_id":"cebpf4jnsgd1na2vs0mg"},{"bike_id":"6d797510-970c-48b6-bef5-bde5c2812d1b","system_id":"levelo_inurba_marseille","lat":43.31105,"lon":5.37784,"is_reserved":false,"is_disabled":false,"rental_uris":{"android":"levelo://app?vid=6d797510-970c-48b6-bef5-bde5c2812d1b","ios":"levelo://app?vid=6d797510-970c-48b6-bef5-bde5c2812d1b"},"vehicle_type_id":"4","last_reported":1747411918,"current_range_meters":4800,"station_id":"ce4bgt92rcd13ifvqcg0","pricing_plan_id":"cebpf4jnsgd1na2vs0mg"},{"bike_id":"001e1d5e-997f-4444-92a6-c4d0fdc69aa4","system_id":"levelo_inurba_marseille","lat":43.241319,"lon":5.366838,"is_reserved":false,"is_disabled":false,"rental_uris":{"android":"levelo://app?vid=001e1d5e-997f-4444-92a6-c4d0fdc69aa4","ios":"levelo://app?vid=001e1d5e-997f-4444-92a6-c4d0fdc69aa4"},"vehicle_type_id":"4","last_reported":1747411918,"current_range_meters":5600,"station_id":"ce4bhi12rcd13ifvqfp0","pricing_plan_id":"cebpf4jnsgd1na2vs0mg"},{"bike_id":"85df4678-a8eb-4f92-a7c7-12b044c668b5","system_id":"levelo_inurba_marseille","lat":43.27935,"lon":5.41042,"is_reserved":false,"is_disabled":false,"rental_uris":{"android":"levelo://app?vid=85df4678-a8eb-4f92-a7c7-12b044c668b5","ios":"levelo://app?vid=85df4678-a8eb-4f92-a7c7-12b044c668b5"},"vehicle_type_id":"4","last_reported":1747411918,"current_range_meters":5600,"station_id":"ce4bhnp2rcd13ifvqh0g","pricing_plan_id":"cebpf4jnsgd1na2vs0mg"},{"bike_id":"8a43e55e-cf23-4285-b477-bb9ccca66768","system_id":"levelo_inurba_marseille","lat":43.29006,"lon":5.35611,"is_reserved":false,"is_disabled":false,"rental_uris":{"android":"levelo://app?vid=8a43e55e-cf23-4285-b477-bb9ccca66768","ios":"levelo://app?vid=8a43e55e-cf23-4285-b477-bb9ccca66768"},"vehicle_type_id":"4","last_reported":1747411918,"current_range_meters":5600,"station_id":"ce4bhb92rcd13ifvqen0","pricing_plan_id":"cebpf4jnsgd1na2vs0mg"},{"bike_id":"ed3ea4cd-9da4-49d8-b48d-9fac3c6c5432","system_id":"levelo_inurba_marseille","lat":43.30581,"lon":5.39339,"is_reserved":false,"is_disabled":false,"rental_uris":{"android":"levelo://app?vid=ed3ea4cd-9da4-49d8-b48d-9fac3c6c5432","ios":"levelo://app?vid=ed3ea4cd-9da4-49d8-b48d-9fac3c6c5432"},"vehicle_type_id":"4","last_reported":1747411918,"current_range_meters":5600,"station_id":"ce4bh0p2rcd13ifvqd80","pricing_plan_id":"cebpf4jnsgd1na2vs0mg"},{"bike_id":"6dd57cf4-65e0-489e-905f-ab0dc1fdf6dd","system_id":"levelo_inurba_marseille","lat":43.32985,"lon":5.39377,"is_reserved":false,"is_disabled":false,"rental_uris":{"android":"levelo://app?vid=6dd57cf4-65e0-489e-905f-ab0dc1fdf6dd","ios":"levelo://app?vid=6dd57cf4-65e0-489e-905f-ab0dc1fdf6dd"},"vehicle_type_id":"4","last_reported":1747411918,"current_range_meters":5600,"station_id":"","pricing_plan_id":"cebpf4jnsgd1na2vs0mg"},{"bike_id":"c8107b40-4e78-47e4-a23d-10a935f8e353","system_id":"levelo_inurba_marseille","lat":43.28405,"lon":5.34984,"is_reserved":false,"is_disabled":false,"rental_uris":{"android":"levelo://app?vid=c8107b40-4e78-47e4-a23d-10a935f8e353","ios":"levelo://app?vid=c8107b40-4e78-47e4-a23d-10a935f8e353"},"vehicle_type_id":"4","last_reported":1747411918,"current_range_meters":6000,"station_id":"ce4bhbh2rcd13ifvqepg","pricing_plan_id":"cebpf4jnsgd1na2vs0mg"},{"bike_id":"5721abda-bb2e-4522-892e-0c140cfc1ae3","system_id":"levelo_inurba_marseille","lat":43.2782,"lon":5.40712,"is_reserved":false,"is_disabled":false,"rental_uris":{"android":"levelo://app?vid=5721abda-bb2e-4522-892e-0c140cfc1ae3","ios":"levelo://app?vid=5721abda-bb2e-4522-892e-0c140cfc1ae3"},"vehicle_type_id":"4","last_reported":1747411918,"current_range_meters":6000,"station_id":"ce4bhnh2rcd13ifvqgtg","pricing_plan_id":"cebpf4jnsgd1na2vs0mg"},{"bike_id":"a1bf94ed-529f-4bc9-a7e6-2e8bd0c7ae67","system_id":"levelo_inurba_marseille","lat":43.29194,"lon":5.39319,"is_reserved":false,"is_disabled":false,"rental_uris":{"android":"levelo://app?vid=a1bf94ed-529f-4bc9-a7e6-2e8bd0c7ae67","ios":"levelo://app?vid=a1bf94ed-529f-4bc9-a7e6-2e8bd0c7ae67"},"vehicle_type_id":"4","last_reported":1747411918,"current_range_meters":6000,"station_id":"ce4bh192rcd13ifvqdd0","pricing_plan_id":"cebpf4jnsgd1na2vs0mg"},{"bike_id":"d31fb882-220f-4c3e-a44a-1cea3cb66ecb","system_id":"levelo_inurba_marseille","lat":43.27933,"lon":5.41046,"is_reserved":false,"is_disabled":false,"rental_uris":{"android":"levelo://app?vid=d31fb882-220f-4c3e-a44a-1cea3cb66ecb","ios":"levelo://app?vid=d31fb882-220f-4c3e-a44a-1cea3cb66ecb"},"vehicle_type_id":"4","last_reported":1747411918,"current_range_meters":6000,"station_id":"ce4bhnp2rcd13ifvqh0g","pricing_plan_id":"cebpf4jnsgd1na2vs0mg"},{"bike_id":"09a60b30-2fbb-4b5d-86b4-0548f2044ec5","system_id":"levelo_inurba_marseille","lat":43.29567,"lon":5.39972,"is_reserved":false,"is_disabled":false,"rental_uris":{"android":"levelo://app?vid=09a60b30-2fbb-4b5d-86b4-0548f2044ec5","ios":"levelo://app?vid=09a60b30-2fbb-4b5d-86b4-0548f2044ec5"},"vehicle_type_id":"4","last_reported":1747411918,"current_range_meters":6400,"station_id":"ce4bh312rcd13ifvqdj0","pricing_plan_id":"cebpf4jnsgd1na2vs0mg"},{"bike_id":"73c5aaac-1272-441c-b265-cee6fbbecaf8","system_id":"levelo_inurba_marseille","lat":43.28709,"lon":5.39994,"is_reserved":false,"is_disabled":false,"rental_uris":{"android":"levelo://app?vid=73c5aaac-1272-441c-b265-cee6fbbecaf8","ios":"levelo://app?vid=73c5aaac-1272-441c-b265-cee6fbbecaf8"},"vehicle_type_id":"4","last_reported":1747411918,"current_range_meters":6400,"station_id":"ce4bho92rcd13ifvqh3g","pricing_plan_id":"cebpf4jnsgd1na2vs0mg"},{"bike_id":"5e2fd081-2dc6-4a56-a70a-d711129469c5","system_id":"levelo_inurba_marseille","lat":43.29431,"lon":5.39748,"is_reserved":false,"is_disabled":false,"rental_uris":{"android":"levelo://app?vid=5e2fd081-2dc6-4a56-a70a-d711129469c5","ios":"levelo://app?vid=5e2fd081-2dc6-4a56-a70a-d711129469c5"},"vehicle_type_id":"4","last_reported":1747411918,"current_range_meters":6400,"station_id":"ce4bh3h2rcd13ifvqdo0","pricing_plan_id":"cebpf4jnsgd1na2vs0mg"},{"bike_id":"92cabc8e-ff7e-4d19-9374-143dd4965742","system_id":"levelo_inurba_marseille","lat":43.276223,"lon":5.361048,"is_reserved":false,"is_disabled":false,"rental_uris":{"android":"levelo://app?vid=92cabc8e-ff7e-4d19-9374-143dd4965742","ios":"levelo://app?vid=92cabc8e-ff7e-4d19-9374-143dd4965742"},"vehicle_type_id":"4","last_reported":1747411918,"current_range_meters":8000,"station_id":"ce4bgj92rcd13ifvqbe0","pricing_plan_id":"cebpf4jnsgd1na2vs0mg"},{"bike_id":"27f73c8b-d5e0-4bc8-aff8-dd53be574ec8","system_id":"levelo_inurba_marseille","lat":43.28614,"lon":5.35111,"is_reserved":false,"is_disabled":false,"rental_uris":{"android":"levelo://app?vid=27f73c8b-d5e0-4bc8-aff8-dd53be574ec8","ios":"levelo://app?vid=27f73c8b-d5e0-4bc8-aff8-dd53be574ec8"},"vehicle_type_id":"4","last_reported":1747411918,"current_range_meters":6400,"station_id":"ce4bhch2rcd13ifvqeug","pricing_plan_id":"cebpf4jnsgd1na2vs0mg"},{"bike_id":"4286cad5-ae8a-4a1b-8fea-52a9616cab4f","system_id":"levelo_inurba_marseille","lat":43.26063,"lon":5.39399,"is_reserved":false,"is_disabled":false,"rental_uris":{"android":"levelo://app?vid=4286cad5-ae8a-4a1b-8fea-52a9616cab4f","ios":"levelo://app?vid=4286cad5-ae8a-4a1b-8fea-52a9616cab4f"},"vehicle_type_id":"4","last_reported":1747411918,"current_range_meters":6000,"station_id":"ce4bhh92rcd13ifvqfj0","pricing_plan_id":"cebpf4jnsgd1na2vs0mg"},{"bike_id":"eef00e8a-5a0c-4575-9f62-aa11e0ddd7aa","system_id":"levelo_inurba_marseille","lat":43.28458,"lon":5.35893,"is_reserved":false,"is_disabled":false,"rental_uris":{"android":"levelo://app?vid=eef00e8a-5a0c-4575-9f62-aa11e0ddd7aa","ios":"levelo://app?vid=eef00e8a-5a0c-4575-9f62-aa11e0ddd7aa"},"vehicle_type_id":"4","last_reported":1747411918,"current_range_meters":6800,"station_id":"ce4bhah2rcd13ifvqei0","pricing_plan_id":"cebpf4jnsgd1na2vs0mg"},{"bike_id":"90a0a259-c291-437c-99fc-2e1eaafcc3ca","system_id":"levelo_inurba_marseille","lat":43.32109,"lon":5.36765,"is_reserved":false,"is_disabled":false,"rental_uris":{"android":"levelo://app?vid=90a0a259-c291-437c-99fc-2e1eaafcc3ca","ios":"levelo://app?vid=90a0a259-c291-437c-99fc-2e1eaafcc3ca"},"vehicle_type_id":"4","last_reported":1747411918,"current_range_meters":6800,"station_id":"ce4bhrh2rcd13ifvqhug","pricing_plan_id":"cebpf4jnsgd1na2vs0mg"},{"bike_id":"5a5cd263-152c-4074-b139-ddc623a776fa","system_id":"levelo_inurba_marseille","lat":43.29945,"lon":5.36539,"is_reserved":false,"is_disabled":false,"rental_uris":{"android":"levelo://app?vid=5a5cd263-152c-4074-b139-ddc623a776fa","ios":"levelo://app?vid=5a5cd263-152c-4074-b139-ddc623a776fa"},"vehicle_type_id":"4","last_reported":1747411918,"current_range_meters":6800,"station_id":"ce4bgm92rcd13ifvqbr0","pricing_plan_id":"cebpf4jnsgd1na2vs0mg"},{"bike_id":"5ec895c5-6424-4529-8cc2-3a01b63d1077","system_id":"levelo_inurba_marseille","lat":43.28669,"lon":5.38655,"is_reserved":false,"is_disabled":false,"rental_uris":{"android":"levelo://app?vid=5ec895c5-6424-4529-8cc2-3a01b63d1077","ios":"levelo://app?vid=5ec895c5-6424-4529-8cc2-3a01b63d1077"},"vehicle_type_id":"4","last_reported":1747411918,"current_range_meters":7200,"station_id":"ce4bh492rcd13ifvqdug","pricing_plan_id":"cebpf4jnsgd1na2vs0mg"},{"bike_id":"233726b9-4275-4519-9036-9389be349670","system_id":"levelo_inurba_marseille","lat":43.30251,"lon":5.40075,"is_reserved":false,"is_disabled":false,"rental_uris":{"android":"levelo://app?vid=233726b9-4275-4519-9036-9389be349670","ios":"levelo://app?vid=233726b9-4275-4519-9036-9389be349670"},"vehicle_type_id":"4","last_reported":1747411918,"current_range_meters":7200,"station_id":"ce4bgvh2rcd13ifvqcs0","pricing_plan_id":"cebpf4jnsgd1na2vs0mg"},{"bike_id":"439b8ae7-af6e-46ed-b094-a94990a6fd15","system_id":"levelo_inurba_marseille","lat":43.25086,"lon":5.39526,"is_reserved":false,"is_disabled":false,"rental_uris":{"android":"levelo://app?vid=439b8ae7-af6e-46ed-b094-a94990a6fd15","ios":"levelo://app?vid=439b8ae7-af6e-46ed-b094-a94990a6fd15"},"vehicle_type_id":"4","last_reported":1747411918,"current_range_meters":6800,"station_id":"ce4bhm12rcd13ifvqgkg","pricing_plan_id":"cebpf4jnsgd1na2vs0mg"},{"bike_id":"5cc10e89-523b-4b5f-bf28-6ad648408871","system_id":"levelo_inurba_marseille","lat":43.211904,"lon":5.350709,"is_reserved":false,"is_disabled":false,"rental_uris":{"android":"levelo://app?vid=5cc10e89-523b-4b5f-bf28-6ad648408871","ios":"levelo://app?vid=5cc10e89-523b-4b5f-bf28-6ad648408871"},"vehicle_type_id":"4","last_reported":1747411918,"current_range_meters":7200,"station_id":"st_cvj6sg6p6f1abm77japg","pricing_plan_id":"cebpf4jnsgd1na2vs0mg"},{"bike_id":"d0523cd1-6208-493a-9ada-6ae3fc1e4497","system_id":"levelo_inurba_marseille","lat":43.31163,"lon":5.38728,"is_reserved":false,"is_disabled":false,"rental_uris":{"android":"levelo://app?vid=d0523cd1-6208-493a-9ada-6ae3fc1e4497","ios":"levelo://app?vid=d0523cd1-6208-493a-9ada-6ae3fc1e4497"},"vehicle_type_id":"4","last_reported":1747411918,"current_range_meters":7200,"station_id":"ce4bgv12rcd13ifvqcp0","pricing_plan_id":"cebpf4jnsgd1na2vs0mg"},{"bike_id":"1ff10c08-bf38-4c56-be64-a2d010e73ab2","system_id":"levelo_inurba_marseille","lat":43.29177,"lon":5.37173,"is_reserved":false,"is_disabled":false,"rental_uris":{"android":"levelo://app?vid=1ff10c08-bf38-4c56-be64-a2d010e73ab2","ios":"levelo://app?vid=1ff10c08-bf38-4c56-be64-a2d010e73ab2"},"vehicle_type_id":"4","last_reported":1747411918,"current_range_meters":7200,"station_id":"ce4bha92rcd13ifvqeh0","pricing_plan_id":"cebpf4jnsgd1na2vs0mg"},{"bike_id":"7406b058-a87f-44fc-a02f-c34c4694ffcd","system_id":"levelo_inurba_marseille","lat":43.323555,"lon":5.38885,"is_reserved":false,"is_disabled":false,"rental_uris":{"android":"levelo://app?vid=7406b058-a87f-44fc-a02f-c34c4694ffcd","ios":"levelo://app?vid=7406b058-a87f-44fc-a02f-c34c4694ffcd"},"vehicle_type_id":"4","last_reported":1747411918,"current_range_meters":8000,"station_id":"ce4bhqp2rcd13ifvqhog","pricing_plan_id":"cebpf4jnsgd1na2vs0mg"},{"bike_id":"5090aa98-7860-4af7-b8d4-b9228e5204e3","system_id":"levelo_inurba_marseille","lat":43.26015,"lon":5.37557,"is_reserved":false,"is_disabled":false,"rental_uris":{"android":"levelo://app?vid=5090aa98-7860-4af7-b8d4-b9228e5204e3","ios":"levelo://app?vid=5090aa98-7860-4af7-b8d4-b9228e5204e3"},"vehicle_type_id":"4","last_reported":1747411918,"current_range_meters":8000,"station_id":"ce4bhgh2rcd13ifvqfa0","pricing_plan_id":"cebpf4jnsgd1na2vs0mg"},{"bike_id":"fddced8b-a2e0-4540-8b5e-182c9ab7ffbc","system_id":"levelo_inurba_marseille","lat":43.292665,"lon":5.408883,"is_reserved":false,"is_disabled":false,"rental_uris":{"android":"levelo://app?vid=fddced8b-a2e0-4540-8b5e-182c9ab7ffbc","ios":"levelo://app?vid=fddced8b-a2e0-4540-8b5e-182c9ab7ffbc"},"vehicle_type_id":"4","last_reported":1747411918,"current_range_meters":8000,"station_id":"ce4bh192rcd13ifvqdc0","pricing_plan_id":"cebpf4jnsgd1na2vs0mg"},{"bike_id":"9604fdd5-bba4-47b0-81f1-43233cb3badb","system_id":"levelo_inurba_marseille","lat":43.28421,"lon":5.34978,"is_reserved":false,"is_disabled":false,"rental_uris":{"android":"levelo://app?vid=9604fdd5-bba4-47b0-81f1-43233cb3badb","ios":"levelo://app?vid=9604fdd5-bba4-47b0-81f1-43233cb3badb"},"vehicle_type_id":"4","last_reported":1747411918,"current_range_meters":8000,"station_id":"ce4bhbh2rcd13ifvqepg","pricing_plan_id":"cebpf4jnsgd1na2vs0mg"},{"bike_id":"f768f02c-a770-46ed-b9fb-ed1e435a3c0f","system_id":"levelo_inurba_marseille","lat":43.32967,"lon":5.39024,"is_reserved":false,"is_disabled":false,"rental_uris":{"android":"levelo://app?vid=f768f02c-a770-46ed-b9fb-ed1e435a3c0f","ios":"levelo://app?vid=f768f02c-a770-46ed-b9fb-ed1e435a3c0f"},"vehicle_type_id":"4","last_reported":1747411918,"current_range_meters":8000,"station_id":"","pricing_plan_id":"cebpf4jnsgd1na2vs0mg"},{"bike_id":"2b825be8-5498-49b3-901b-e8cb824032f0","system_id":"levelo_inurba_marseille","lat":43.27816,"lon":5.40737,"is_reserved":false,"is_disabled":false,"rental_uris":{"android":"levelo://app?vid=2b825be8-5498-49b3-901b-e8cb824032f0","ios":"levelo://app?vid=2b825be8-5498-49b3-901b-e8cb824032f0"},"vehicle_type_id":"4","last_reported":1747411918,"current_range_meters":8000,"station_id":"ce4bhnh2rcd13ifvqgtg","pricing_plan_id":"cebpf4jnsgd1na2vs0mg"},{"bike_id":"9fd37a46-434d-4e40-8e6d-de49833c3d8e","system_id":"levelo_inurba_marseille","lat":43.28845,"lon":5.3587,"is_reserved":false,"is_disabled":false,"rental_uris":{"android":"levelo://app?vid=9fd37a46-434d-4e40-8e6d-de49833c3d8e","ios":"levelo://app?vid=9fd37a46-434d-4e40-8e6d-de49833c3d8e"},"vehicle_type_id":"4","last_reported":1747411918,"current_range_meters":8000,"station_id":"ce4bhb12rcd13ifvqem0","pricing_plan_id":"cebpf4jnsgd1na2vs0mg"},{"bike_id":"0077f398-56b6-43bb-8eeb-9798d08de05c","system_id":"levelo_inurba_marseille","lat":43.30874,"lon":5.37364,"is_reserved":false,"is_disabled":false,"rental_uris":{"android":"levelo://app?vid=0077f398-56b6-43bb-8eeb-9798d08de05c","ios":"levelo://app?vid=0077f398-56b6-43bb-8eeb-9798d08de05c"},"vehicle_type_id":"4","last_reported":1747411918,"current_range_meters":8000,"station_id":"","pricing_plan_id":"cebpf4jnsgd1na2vs0mg"},{"bike_id":"0728bb7e-b0f2-41e9-8431-8fa87543d63c","system_id":"levelo_inurba_marseille","lat":43.3095,"lon":5.39034,"is_reserved":false,"is_disabled":false,"rental_uris":{"android":"levelo://app?vid=0728bb7e-b0f2-41e9-8431-8fa87543d63c","ios":"levelo://app?vid=0728bb7e-b0f2-41e9-8431-8fa87543d63c"},"vehicle_type_id":"4","last_reported":1747411918,"current_range_meters":8000,"station_id":"ce4bgup2rcd13ifvqco0","pricing_plan_id":"cebpf4jnsgd1na2vs0mg"},{"bike_id":"a4254f33-dfdc-4beb-9ee4-21271a8a3aac","system_id":"levelo_inurba_marseille","lat":43.3041,"lon":5.41277,"is_reserved":false,"is_disabled":true,"rental_uris":{"android":"levelo://app?vid=a4254f33-dfdc-4beb-9ee4-21271a8a3aac","ios":"levelo://app?vid=a4254f33-dfdc-4beb-9ee4-21271a8a3aac"},"vehicle_type_id":"4","last_reported":1747411918,"current_range_meters":8000,"station_id":"ce4bhop2rcd13ifvqh8g","pricing_plan_id":"cebpf4jnsgd1na2vs0mg"},{"bike_id":"9387be50-5367-452e-8a5e-752946ec94c7","system_id":"levelo_inurba_marseille","lat":43.30295,"lon":5.39206,"is_reserved":false,"is_disabled":false,"rental_uris":{"android":"levelo://app?vid=9387be50-5367-452e-8a5e-752946ec94c7","ios":"levelo://app?vid=9387be50-5367-452e-8a5e-752946ec94c7"},"vehicle_type_id":"4","last_reported":1747411918,"current_range_meters":8000,"station_id":"ce4bgkh2rcd13ifvqbk0","pricing_plan_id":"cebpf4jnsgd1na2vs0mg"},{"bike_id":"c8172a1b-1886-41c2-8dfc-a075b35ae9c2","system_id":"levelo_inurba_marseille","lat":43.32364,"lon":5.40627,"is_reserved":false,"is_disabled":false,"rental_uris":{"android":"levelo://app?vid=c8172a1b-1886-41c2-8dfc-a075b35ae9c2","ios":"levelo://app?vid=c8172a1b-1886-41c2-8dfc-a075b35ae9c2"},"vehicle_type_id":"4","last_reported":1747411918,"current_range_meters":8400,"station_id":"ce4bhq92rcd13ifvqhjg","pricing_plan_id":"cebpf4jnsgd1na2vs0mg"},{"bike_id":"a7f3eb33-1f26-4bd2-acfb-5412cee36e0e","system_id":"levelo_inurba_marseille","lat":43.25939,"lon":5.40922,"is_reserved":false,"is_disabled":false,"rental_uris":{"android":"levelo://app?vid=a7f3eb33-1f26-4bd2-acfb-5412cee36e0e","ios":"levelo://app?vid=a7f3eb33-1f26-4bd2-acfb-5412cee36e0e"},"vehicle_type_id":"4","last_reported":1747411918,"current_range_meters":8400,"station_id":"ce4bhm92rcd13ifvqglg","pricing_plan_id":"cebpf4jnsgd1na2vs0mg"},{"bike_id":"4a7b096f-d72f-47d1-8f6f-9c646c047f07","system_id":"levelo_inurba_marseille","lat":43.30655,"lon":5.40076,"is_reserved":false,"is_disabled":false,"rental_uris":{"android":"levelo://app?vid=4a7b096f-d72f-47d1-8f6f-9c646c047f07","ios":"levelo://app?vid=4a7b096f-d72f-47d1-8f6f-9c646c047f07"},"vehicle_type_id":"4","last_reported":1747411918,"current_range_meters":8000,"station_id":"ce4bh112rcd13ifvqda0","pricing_plan_id":"cebpf4jnsgd1na2vs0mg"},{"bike_id":"3f63ee43-b425-4f2f-8883-1fad98d9d490","system_id":"levelo_inurba_marseille","lat":43.27174,"lon":5.40995,"is_reserved":false,"is_disabled":false,"rental_uris":{"android":"levelo://app?vid=3f63ee43-b425-4f2f-8883-1fad98d9d490","ios":"levelo://app?vid=3f63ee43-b425-4f2f-8883-1fad98d9d490"},"vehicle_type_id":"4","last_reported":1747411918,"current_range_meters":8400,"station_id":"ce4bhl12rcd13ifvqgf0","pricing_plan_id":"cebpf4jnsgd1na2vs0mg"},{"bike_id":"b89a24e6-5078-471a-88fa-2c70cdf078ca","system_id":"levelo_inurba_marseille","lat":43.31018,"lon":5.37544,"is_reserved":false,"is_disabled":false,"rental_uris":{"android":"levelo://app?vid=b89a24e6-5078-471a-88fa-2c70cdf078ca","ios":"levelo://app?vid=b89a24e6-5078-471a-88fa-2c70cdf078ca"},"vehicle_type_id":"4","last_reported":1747411918,"current_range_meters":8400,"station_id":"","pricing_plan_id":"cebpf4jnsgd1na2vs0mg"},{"bike_id":"b297b32b-72f1-47a4-9e2e-44162528f5e1","system_id":"levelo_inurba_marseille","lat":43.229337,"lon":5.35375,"is_reserved":false,"is_disabled":false,"rental_uris":{"android":"levelo://app?vid=b297b32b-72f1-47a4-9e2e-44162528f5e1","ios":"levelo://app?vid=b297b32b-72f1-47a4-9e2e-44162528f5e1"},"vehicle_type_id":"4","last_reported":1747411918,"current_range_meters":8400,"station_id":"cpo3532slgdg3j2ikp40","pricing_plan_id":"cebpf4jnsgd1na2vs0mg"},{"bike_id":"47931c77-e7fa-4bf8-aea3-caf0640b258e","system_id":"levelo_inurba_marseille","lat":43.30946,"lon":5.39032,"is_reserved":false,"is_disabled":false,"rental_uris":{"android":"levelo://app?vid=47931c77-e7fa-4bf8-aea3-caf0640b258e","ios":"levelo://app?vid=47931c77-e7fa-4bf8-aea3-caf0640b258e"},"vehicle_type_id":"4","last_reported":1747411918,"current_range_meters":8000,"station_id":"ce4bgup2rcd13ifvqco0","pricing_plan_id":"cebpf4jnsgd1na2vs0mg"},{"bike_id":"5eb2a7de-36f8-4504-a2dd-c7867c7e94bb","system_id":"levelo_inurba_marseille","lat":43.29008,"lon":5.35612,"is_reserved":false,"is_disabled":false,"rental_uris":{"android":"levelo://app?vid=5eb2a7de-36f8-4504-a2dd-c7867c7e94bb","ios":"levelo://app?vid=5eb2a7de-36f8-4504-a2dd-c7867c7e94bb"},"vehicle_type_id":"4","last_reported":1747411918,"current_range_meters":8400,"station_id":"ce4bhb92rcd13ifvqen0","pricing_plan_id":"cebpf4jnsgd1na2vs0mg"},{"bike_id":"d9498905-43dd-417c-ac8b-31703b4865cf","system_id":"levelo_inurba_marseille","lat":43.28354,"lon":5.38629,"is_reserved":false,"is_disabled":false,"rental_uris":{"android":"levelo://app?vid=d9498905-43dd-417c-ac8b-31703b4865cf","ios":"levelo://app?vid=d9498905-43dd-417c-ac8b-31703b4865cf"},"vehicle_type_id":"4","last_reported":1747411918,"current_range_meters":8000,"station_id":"ce4bh492rcd13ifvqdvg","pricing_plan_id":"cebpf4jnsgd1na2vs0mg"},{"bike_id":"be3f677a-cda7-4233-b541-7ac2e5bc8030","system_id":"levelo_inurba_marseille","lat":43.28937,"lon":5.36636,"is_reserved":false,"is_disabled":false,"rental_uris":{"android":"levelo://app?vid=be3f677a-cda7-4233-b541-7ac2e5bc8030","ios":"levelo://app?vid=be3f677a-cda7-4233-b541-7ac2e5bc8030"},"vehicle_type_id":"4","last_reported":1747411918,"current_range_meters":8800,"station_id":"ce4bhap2rcd13ifvqek0","pricing_plan_id":"cebpf4jnsgd1na2vs0mg"},{"bike_id":"6d485413-0a5b-4296-862c-2c19c83ee78f","system_id":"levelo_inurba_marseille","lat":43.32353,"lon":5.40638,"is_reserved":false,"is_disabled":false,"rental_uris":{"android":"levelo://app?vid=6d485413-0a5b-4296-862c-2c19c83ee78f","ios":"levelo://app?vid=6d485413-0a5b-4296-862c-2c19c83ee78f"},"vehicle_type_id":"4","last_reported":1747411918,"current_range_meters":8800,"station_id":"ce4bhq92rcd13ifvqhjg","pricing_plan_id":"cebpf4jnsgd1na2vs0mg"},{"bike_id":"c1747d41-aad5-4f60-9546-707273b24a4a","system_id":"levelo_inurba_marseille","lat":43.28077,"lon":5.39664,"is_reserved":false,"is_disabled":false,"rental_uris":{"android":"levelo://app?vid=c1747d41-aad5-4f60-9546-707273b24a4a","ios":"levelo://app?vid=c1747d41-aad5-4f60-9546-707273b24a4a"},"vehicle_type_id":"4","last_reported":1747411918,"current_range_meters":8800,"station_id":"ce4bho12rcd13ifvqh2g","pricing_plan_id":"cebpf4jnsgd1na2vs0mg"},{"bike_id":"475af569-bf81-4940-8473-4f6bc753a0b7","system_id":"levelo_inurba_marseille","lat":43.30102,"lon":5.3907,"is_reserved":false,"is_disabled":false,"rental_uris":{"android":"levelo://app?vid=475af569-bf81-4940-8473-4f6bc753a0b7","ios":"levelo://app?vid=475af569-bf81-4940-8473-4f6bc753a0b7"},"vehicle_type_id":"4","last_reported":1747411918,"current_range_meters":8000,"station_id":"ce4bh192rcd13ifvqdb0","pricing_plan_id":"cebpf4jnsgd1na2vs0mg"},{"bike_id":"d06a81f7-6bbe-4687-bfbe-932949dc466c","system_id":"levelo_inurba_marseille","lat":43.26145,"lon":5.38732,"is_reserved":false,"is_disabled":false,"rental_uris":{"android":"levelo://app?vid=d06a81f7-6bbe-4687-bfbe-932949dc466c","ios":"levelo://app?vid=d06a81f7-6bbe-4687-bfbe-932949dc466c"},"vehicle_type_id":"4","last_reported":1747411918,"current_range_meters":8800,"station_id":"","pricing_plan_id":"cebpf4jnsgd1na2vs0mg"},{"bike_id":"345cffa0-29b1-4e14-91c8-8f581afe5ee4","system_id":"levelo_inurba_marseille","lat":43.29198,"lon":5.39314,"is_reserved":false,"is_disabled":true,"rental_uris":{"android":"levelo://app?vid=345cffa0-29b1-4e14-91c8-8f581afe5ee4","ios":"levelo://app?vid=345cffa0-29b1-4e14-91c8-8f581afe5ee4"},"vehicle_type_id":"4","last_reported":1747411918,"current_range_meters":8800,"station_id":"ce4bh192rcd13ifvqdd0","pricing_plan_id":"cebpf4jnsgd1na2vs0mg"},{"bike_id":"1b130d83-3aac-4676-a67d-7033452316b6","system_id":"levelo_inurba_marseille","lat":43.291696,"lon":5.371581,"is_reserved":false,"is_disabled":false,"rental_uris":{"android":"levelo://app?vid=1b130d83-3aac-4676-a67d-7033452316b6","ios":"levelo://app?vid=1b130d83-3aac-4676-a67d-7033452316b6"},"vehicle_type_id":"4","last_reported":1747411918,"current_range_meters":8800,"station_id":"ce4bha92rcd13ifvqeh0","pricing_plan_id":"cebpf4jnsgd1na2vs0mg"},{"bike_id":"f8e4732a-2ecf-431c-8f66-abc7aabb8aa1","system_id":"levelo_inurba_marseille","lat":43.32952,"lon":5.390028,"is_reserved":false,"is_disabled":false,"rental_uris":{"android":"levelo://app?vid=f8e4732a-2ecf-431c-8f66-abc7aabb8aa1","ios":"levelo://app?vid=f8e4732a-2ecf-431c-8f66-abc7aabb8aa1"},"vehicle_type_id":"4","last_reported":1747411918,"current_range_meters":8800,"station_id":"","pricing_plan_id":"cebpf4jnsgd1na2vs0mg"},{"bike_id":"295ef51f-2abd-402d-b309-2575dcac7ecd","system_id":"levelo_inurba_marseille","lat":43.28459,"lon":5.35893,"is_reserved":false,"is_disabled":false,"rental_uris":{"android":"levelo://app?vid=295ef51f-2abd-402d-b309-2575dcac7ecd","ios":"levelo://app?vid=295ef51f-2abd-402d-b309-2575dcac7ecd"},"vehicle_type_id":"4","last_reported":1747411918,"current_range_meters":8800,"station_id":"ce4bhah2rcd13ifvqei0","pricing_plan_id":"cebpf4jnsgd1na2vs0mg"},{"bike_id":"8067496a-e9dc-4864-a26b-1133dcfbd80d","system_id":"levelo_inurba_marseille","lat":43.241686,"lon":5.363951,"is_reserved":false,"is_disabled":false,"rental_uris":{"android":"levelo://app?vid=8067496a-e9dc-4864-a26b-1133dcfbd80d","ios":"levelo://app?vid=8067496a-e9dc-4864-a26b-1133dcfbd80d"},"vehicle_type_id":"4","last_reported":1747411918,"current_range_meters":9200,"station_id":"cpo36qri1sfpv3e86is0","pricing_plan_id":"cebpf4jnsgd1na2vs0mg"},{"bike_id":"e64e4484-2db6-41f4-beb8-e0c0ae1263cd","system_id":"levelo_inurba_marseille","lat":43.285248,"lon":5.43032,"is_reserved":false,"is_disabled":false,"rental_uris":{"android":"levelo://app?vid=e64e4484-2db6-41f4-beb8-e0c0ae1263cd","ios":"levelo://app?vid=e64e4484-2db6-41f4-beb8-e0c0ae1263cd"},"vehicle_type_id":"4","last_reported":1747411918,"current_range_meters":9200,"station_id":"","pricing_plan_id":"cebpf4jnsgd1na2vs0mg"},{"bike_id":"2781ef4e-3651-4ce5-9a2e-f1d46595d329","system_id":"levelo_inurba_marseille","lat":43.32114,"lon":5.36767,"is_reserved":false,"is_disabled":false,"rental_uris":{"android":"levelo://app?vid=2781ef4e-3651-4ce5-9a2e-f1d46595d329","ios":"levelo://app?vid=2781ef4e-3651-4ce5-9a2e-f1d46595d329"},"vehicle_type_id":"4","last_reported":1747411918,"current_range_meters":9200,"station_id":"ce4bhrh2rcd13ifvqhug","pricing_plan_id":"cebpf4jnsgd1na2vs0mg"},{"bike_id":"8828c7e5-2a5c-4d46-a4fe-34dad3c4bd85","system_id":"levelo_inurba_marseille","lat":43.29006,"lon":5.35616,"is_reserved":false,"is_disabled":false,"rental_uris":{"android":"levelo://app?vid=8828c7e5-2a5c-4d46-a4fe-34dad3c4bd85","ios":"levelo://app?vid=8828c7e5-2a5c-4d46-a4fe-34dad3c4bd85"},"vehicle_type_id":"4","last_reported":1747411918,"current_range_meters":9200,"station_id":"ce4bhb92rcd13ifvqen0","pricing_plan_id":"cebpf4jnsgd1na2vs0mg"},{"bike_id":"d80b5cb9-9183-4a76-8e3d-338b4e5e4541","system_id":"levelo_inurba_marseille","lat":43.29797,"lon":5.40397,"is_reserved":false,"is_disabled":false,"rental_uris":{"android":"levelo://app?vid=d80b5cb9-9183-4a76-8e3d-338b4e5e4541","ios":"levelo://app?vid=d80b5cb9-9183-4a76-8e3d-338b4e5e4541"},"vehicle_type_id":"4","last_reported":1747411918,"current_range_meters":8800,"station_id":"ce4bh112rcd13ifvqd90","pricing_plan_id":"cebpf4jnsgd1na2vs0mg"},{"bike_id":"c0b9fd4f-e181-46ce-b0bf-f5119973334f","system_id":"levelo_inurba_marseille","lat":43.33771,"lon":5.37424,"is_reserved":false,"is_disabled":false,"rental_uris":{"android":"levelo://app?vid=c0b9fd4f-e181-46ce-b0bf-f5119973334f","ios":"levelo://app?vid=c0b9fd4f-e181-46ce-b0bf-f5119973334f"},"vehicle_type_id":"4","last_reported":1747411918,"current_range_meters":9200,"station_id":"","pricing_plan_id":"cebpf4jnsgd1na2vs0mg"},{"bike_id":"1ef9f933-fa35-40c6-8e51-1047568d92c0","system_id":"levelo_inurba_marseille","lat":43.24676,"lon":5.38183,"is_reserved":false,"is_disabled":false,"rental_uris":{"android":"levelo://app?vid=1ef9f933-fa35-40c6-8e51-1047568d92c0","ios":"levelo://app?vid=1ef9f933-fa35-40c6-8e51-1047568d92c0"},"vehicle_type_id":"4","last_reported":1747411918,"current_range_meters":9600,"station_id":"ce4bhih2rcd13ifvqfr0","pricing_plan_id":"cebpf4jnsgd1na2vs0mg"},{"bike_id":"bacd5098-f3af-4944-a479-d4f5151aec8f","system_id":"levelo_inurba_marseille","lat":43.28175,"lon":5.42627,"is_reserved":false,"is_disabled":false,"rental_uris":{"android":"levelo://app?vid=bacd5098-f3af-4944-a479-d4f5151aec8f","ios":"levelo://app?vid=bacd5098-f3af-4944-a479-d4f5151aec8f"},"vehicle_type_id":"4","last_reported":1747411918,"current_range_meters":9600,"station_id":"ce4bhnh2rcd13ifvqgug","pricing_plan_id":"cebpf4jnsgd1na2vs0mg"},{"bike_id":"14840cde-cb2f-425a-a53d-0e3063d2ef0b","system_id":"levelo_inurba_marseille","lat":43.30178,"lon":5.38133,"is_reserved":false,"is_disabled":true,"rental_uris":{"android":"levelo://app?vid=14840cde-cb2f-425a-a53d-0e3063d2ef0b","ios":"levelo://app?vid=14840cde-cb2f-425a-a53d-0e3063d2ef0b"},"vehicle_type_id":"4","last_reported":1747411918,"current_range_meters":9600,"station_id":"","pricing_plan_id":"cebpf4jnsgd1na2vs0mg"},{"bike_id":"02288632-79f4-483c-92bd-91cd61a950da","system_id":"levelo_inurba_marseille","lat":43.296417,"lon":5.36215,"is_reserved":false,"is_disabled":false,"rental_uris":{"android":"levelo://app?vid=02288632-79f4-483c-92bd-91cd61a950da","ios":"levelo://app?vid=02288632-79f4-483c-92bd-91cd61a950da"},"vehicle_type_id":"4","last_reported":1747411918,"current_range_meters":9600,"station_id":"","pricing_plan_id":"cebpf4jnsgd1na2vs0mg"},{"bike_id":"0881b453-ac9c-4c07-b872-ae01cc0b1693","system_id":"levelo_inurba_marseille","lat":43.299,"lon":5.38142,"is_reserved":false,"is_disabled":false,"rental_uris":{"android":"levelo://app?vid=0881b453-ac9c-4c07-b872-ae01cc0b1693","ios":"levelo://app?vid=0881b453-ac9c-4c07-b872-ae01cc0b1693"},"vehicle_type_id":"4","last_reported":1747411918,"current_range_meters":9600,"station_id":"ce4bgj12rcd13ifvqbc0","pricing_plan_id":"cebpf4jnsgd1na2vs0mg"},{"bike_id":"33c611d4-d2de-435a-a1a6-28752da7056f","system_id":"levelo_inurba_marseille","lat":43.26019,"lon":5.37553,"is_reserved":false,"is_disabled":false,"rental_uris":{"android":"levelo://app?vid=33c611d4-d2de-435a-a1a6-28752da7056f","ios":"levelo://app?vid=33c611d4-d2de-435a-a1a6-28752da7056f"},"vehicle_type_id":"4","last_reported":1747411918,"current_range_meters":9600,"station_id":"ce4bhgh2rcd13ifvqfa0","pricing_plan_id":"cebpf4jnsgd1na2vs0mg"},{"bike_id":"9e5078c8-a3c6-4658-9c34-c053ed3570a1","system_id":"levelo_inurba_marseille","lat":43.299771,"lon":5.371838,"is_reserved":false,"is_disabled":false,"rental_uris":{"android":"levelo://app?vid=9e5078c8-a3c6-4658-9c34-c053ed3570a1","ios":"levelo://app?vid=9e5078c8-a3c6-4658-9c34-c053ed3570a1"},"vehicle_type_id":"4","last_reported":1747411918,"current_range_meters":9600,"station_id":"ce4bgr92rcd13ifvqc7g","pricing_plan_id":"cebpf4jnsgd1na2vs0mg"},{"bike_id":"6d22a7ec-f868-416a-8cf3-77be23e114c0","system_id":"levelo_inurba_marseille","lat":43.24664,"lon":5.38169,"is_reserved":false,"is_disabled":false,"rental_uris":{"android":"levelo://app?vid=6d22a7ec-f868-416a-8cf3-77be23e114c0","ios":"levelo://app?vid=6d22a7ec-f868-416a-8cf3-77be23e114c0"},"vehicle_type_id":"4","last_reported":1747411918,"current_range_meters":10000,"station_id":"ce4bhih2rcd13ifvqfr0","pricing_plan_id":"cebpf4jnsgd1na2vs0mg"},{"bike_id":"b859372a-ec62-46ce-a2d4-9cd85e6cc09d","system_id":"levelo_inurba_marseille","lat":43.2509,"lon":5.39518,"is_reserved":false,"is_disabled":false,"rental_uris":{"android":"levelo://app?vid=b859372a-ec62-46ce-a2d4-9cd85e6cc09d","ios":"levelo://app?vid=b859372a-ec62-46ce-a2d4-9cd85e6cc09d"},"vehicle_type_id":"4","last_reported":1747411918,"current_range_meters":10000,"station_id":"ce4bhm12rcd13ifvqgkg","pricing_plan_id":"cebpf4jnsgd1na2vs0mg"},{"bike_id":"4f061462-aff3-4aca-8f35-6c46a7f08202","system_id":"levelo_inurba_marseille","lat":43.27373,"lon":5.36255,"is_reserved":false,"is_disabled":false,"rental_uris":{"android":"levelo://app?vid=4f061462-aff3-4aca-8f35-6c46a7f08202","ios":"levelo://app?vid=4f061462-aff3-4aca-8f35-6c46a7f08202"},"vehicle_type_id":"4","last_reported":1747411918,"current_range_meters":10000,"station_id":"ce4bhbh2rcd13ifvqeo0","pricing_plan_id":"cebpf4jnsgd1na2vs0mg"},{"bike_id":"2f303b5d-af95-4fca-8014-99cd5db621f6","system_id":"levelo_inurba_marseille","lat":43.317152,"lon":5.437132,"is_reserved":false,"is_disabled":false,"rental_uris":{"android":"levelo://app?vid=2f303b5d-af95-4fca-8014-99cd5db621f6","ios":"levelo://app?vid=2f303b5d-af95-4fca-8014-99cd5db621f6"},"vehicle_type_id":"4","last_reported":1747411918,"current_range_meters":10000,"station_id":"ce4bhp92rcd13ifvqhcg","pricing_plan_id":"cebpf4jnsgd1na2vs0mg"},{"bike_id":"08026fcb-5828-435f-85df-bd7401bd6fc9","system_id":"levelo_inurba_marseille","lat":43.2455,"lon":5.39527,"is_reserved":false,"is_disabled":false,"rental_uris":{"android":"levelo://app?vid=08026fcb-5828-435f-85df-bd7401bd6fc9","ios":"levelo://app?vid=08026fcb-5828-435f-85df-bd7401bd6fc9"},"vehicle_type_id":"4","last_reported":1747411918,"current_range_meters":9200,"station_id":"ce4bhlp2rcd13ifvqgjg","pricing_plan_id":"cebpf4jnsgd1na2vs0mg"},{"bike_id":"52e8cd91-1067-4034-a09d-e6b6f36da3f7","system_id":"levelo_inurba_marseille","lat":43.29957,"lon":5.41318,"is_reserved":false,"is_disabled":false,"rental_uris":{"android":"levelo://app?vid=52e8cd91-1067-4034-a09d-e6b6f36da3f7","ios":"levelo://app?vid=52e8cd91-1067-4034-a09d-e6b6f36da3f7"},"vehicle_type_id":"4","last_reported":1747411918,"current_range_meters":10000,"station_id":"ce4bhp12rcd13ifvqh9g","pricing_plan_id":"cebpf4jnsgd1na2vs0mg"},{"bike_id":"f9a0d2e5-9d0f-4918-81a4-22e483428085","system_id":"levelo_inurba_marseille","lat":43.28148,"lon":5.42662,"is_reserved":false,"is_disabled":false,"rental_uris":{"android":"levelo://app?vid=f9a0d2e5-9d0f-4918-81a4-22e483428085","ios":"levelo://app?vid=f9a0d2e5-9d0f-4918-81a4-22e483428085"},"vehicle_type_id":"4","last_reported":1747411918,"current_range_meters":10800,"station_id":"ce4bhnh2rcd13ifvqgug","pricing_plan_id":"cebpf4jnsgd1na2vs0mg"},{"bike_id":"c5b6c937-a53a-4f37-af1d-491c28f70c79","system_id":"levelo_inurba_marseille","lat":43.28609,"lon":5.351,"is_reserved":false,"is_disabled":false,"rental_uris":{"android":"levelo://app?vid=c5b6c937-a53a-4f37-af1d-491c28f70c79","ios":"levelo://app?vid=c5b6c937-a53a-4f37-af1d-491c28f70c79"},"vehicle_type_id":"4","last_reported":1747411918,"current_range_meters":10800,"station_id":"ce4bhch2rcd13ifvqeug","pricing_plan_id":"cebpf4jnsgd1na2vs0mg"},{"bike_id":"a488853e-8708-42f9-a9f1-40f4dc62e03d","system_id":"levelo_inurba_marseille","lat":43.305633,"lon":5.373138,"is_reserved":false,"is_disabled":false,"rental_uris":{"android":"levelo://app?vid=a488853e-8708-42f9-a9f1-40f4dc62e03d","ios":"levelo://app?vid=a488853e-8708-42f9-a9f1-40f4dc62e03d"},"vehicle_type_id":"4","last_reported":1747411918,"current_range_meters":10800,"station_id":"","pricing_plan_id":"cebpf4jnsgd1na2vs0mg"},{"bike_id":"a1c4178e-3aca-43b4-882a-2d393377219e","system_id":"levelo_inurba_marseille","lat":43.27174,"lon":5.409895,"is_reserved":false,"is_disabled":false,"rental_uris":{"android":"levelo://app?vid=a1c4178e-3aca-43b4-882a-2d393377219e","ios":"levelo://app?vid=a1c4178e-3aca-43b4-882a-2d393377219e"},"vehicle_type_id":"4","last_reported":1747411918,"current_range_meters":10800,"station_id":"ce4bhl12rcd13ifvqgf0","pricing_plan_id":"cebpf4jnsgd1na2vs0mg"},{"bike_id":"4806526a-a9d2-43ff-a358-1d605bc30e90","system_id":"levelo_inurba_marseille","lat":43.25503,"lon":5.37651,"is_reserved":false,"is_disabled":false,"rental_uris":{"android":"levelo://app?vid=4806526a-a9d2-43ff-a358-1d605bc30e90","ios":"levelo://app?vid=4806526a-a9d2-43ff-a358-1d605bc30e90"},"vehicle_type_id":"4","last_reported":1747411918,"current_range_meters":11200,"station_id":"ce4bhh12rcd13ifvqff0","pricing_plan_id":"cebpf4jnsgd1na2vs0mg"},{"bike_id":"3b890833-daa7-4bae-b7a0-8b1637bd75f6","system_id":"levelo_inurba_marseille","lat":43.261201,"lon":5.414851,"is_reserved":false,"is_disabled":false,"rental_uris":{"android":"levelo://app?vid=3b890833-daa7-4bae-b7a0-8b1637bd75f6","ios":"levelo://app?vid=3b890833-daa7-4bae-b7a0-8b1637bd75f6"},"vehicle_type_id":"4","last_reported":1747411918,"current_range_meters":11200,"station_id":"","pricing_plan_id":"cebpf4jnsgd1na2vs0mg"},{"bike_id":"88855791-b894-46f3-a768-050e87ba68e2","system_id":"levelo_inurba_marseille","lat":43.28616,"lon":5.35109,"is_reserved":false,"is_disabled":false,"rental_uris":{"android":"levelo://app?vid=88855791-b894-46f3-a768-050e87ba68e2","ios":"levelo://app?vid=88855791-b894-46f3-a768-050e87ba68e2"},"vehicle_type_id":"4","last_reported":1747411918,"current_range_meters":11200,"station_id":"ce4bhch2rcd13ifvqeug","pricing_plan_id":"cebpf4jnsgd1na2vs0mg"},{"bike_id":"069861d6-2772-4672-8c53-85152ee7a5ed","system_id":"levelo_inurba_marseille","lat":43.27377,"lon":5.36257,"is_reserved":false,"is_disabled":false,"rental_uris":{"android":"levelo://app?vid=069861d6-2772-4672-8c53-85152ee7a5ed","ios":"levelo://app?vid=069861d6-2772-4672-8c53-85152ee7a5ed"},"vehicle_type_id":"4","last_reported":1747411918,"current_range_meters":11200,"station_id":"ce4bhbh2rcd13ifvqeo0","pricing_plan_id":"cebpf4jnsgd1na2vs0mg"},{"bike_id":"287cf1ce-eefa-40ab-93d4-caa9c6b2b491","system_id":"levelo_inurba_marseille","lat":43.31075,"lon":5.38353,"is_reserved":false,"is_disabled":false,"rental_uris":{"android":"levelo://app?vid=287cf1ce-eefa-40ab-93d4-caa9c6b2b491","ios":"levelo://app?vid=287cf1ce-eefa-40ab-93d4-caa9c6b2b491"},"vehicle_type_id":"4","last_reported":1747411918,"current_range_meters":11200,"station_id":"ce4bgv92rcd13ifvqcr0","pricing_plan_id":"cebpf4jnsgd1na2vs0mg"},{"bike_id":"d703fb53-2cb8-44db-85db-b0b5121eaca7","system_id":"levelo_inurba_marseille","lat":43.278379,"lon":5.3921,"is_reserved":false,"is_disabled":false,"rental_uris":{"android":"levelo://app?vid=d703fb53-2cb8-44db-85db-b0b5121eaca7","ios":"levelo://app?vid=d703fb53-2cb8-44db-85db-b0b5121eaca7"},"vehicle_type_id":"4","last_reported":1747411918,"current_range_meters":10800,"station_id":"ce4bhjp2rcd13ifvqga0","pricing_plan_id":"cebpf4jnsgd1na2vs0mg"},{"bike_id":"597145f1-fa11-455e-92a2-579a32ad322e","system_id":"levelo_inurba_marseille","lat":43.24901,"lon":5.42717,"is_reserved":false,"is_disabled":false,"rental_uris":{"android":"levelo://app?vid=597145f1-fa11-455e-92a2-579a32ad322e","ios":"levelo://app?vid=597145f1-fa11-455e-92a2-579a32ad322e"},"vehicle_type_id":"4","last_reported":1747411918,"current_range_meters":11600,"station_id":"","pricing_plan_id":"cebpf4jnsgd1na2vs0mg"},{"bike_id":"511d75e4-abed-4395-8844-ad97fa63107d","system_id":"levelo_inurba_marseille","lat":43.29689,"lon":5.36579,"is_reserved":false,"is_disabled":false,"rental_uris":{"android":"levelo://app?vid=511d75e4-abed-4395-8844-ad97fa63107d","ios":"levelo://app?vid=511d75e4-abed-4395-8844-ad97fa63107d"},"vehicle_type_id":"4","last_reported":1747411918,"current_range_meters":11600,"station_id":"ce4bgn12rcd13ifvqbt0","pricing_plan_id":"cebpf4jnsgd1na2vs0mg"},{"bike_id":"1234f1a2-ccf8-468f-9092-bcd9061557e5","system_id":"levelo_inurba_marseille","lat":43.26028,"lon":5.37549,"is_reserved":false,"is_disabled":false,"rental_uris":{"android":"levelo://app?vid=1234f1a2-ccf8-468f-9092-bcd9061557e5","ios":"levelo://app?vid=1234f1a2-ccf8-468f-9092-bcd9061557e5"},"vehicle_type_id":"4","last_reported":1747411918,"current_range_meters":11600,"station_id":"ce4bhgh2rcd13ifvqfa0","pricing_plan_id":"cebpf4jnsgd1na2vs0mg"},{"bike_id":"69711cde-5389-49a8-ba34-3796a108902a","system_id":"levelo_inurba_marseille","lat":43.30951,"lon":5.39026,"is_reserved":false,"is_disabled":false,"rental_uris":{"android":"levelo://app?vid=69711cde-5389-49a8-ba34-3796a108902a","ios":"levelo://app?vid=69711cde-5389-49a8-ba34-3796a108902a"},"vehicle_type_id":"4","last_reported":1747411918,"current_range_meters":11600,"station_id":"ce4bgup2rcd13ifvqco0","pricing_plan_id":"cebpf4jnsgd1na2vs0mg"},{"bike_id":"a12ce63f-e089-487a-88c8-57eae2ec45dc","system_id":"levelo_inurba_marseille","lat":43.2804,"lon":5.36966,"is_reserved":false,"is_disabled":false,"rental_uris":{"android":"levelo://app?vid=a12ce63f-e089-487a-88c8-57eae2ec45dc","ios":"levelo://app?vid=a12ce63f-e089-487a-88c8-57eae2ec45dc"},"vehicle_type_id":"4","last_reported":1747411918,"current_range_meters":11600,"station_id":"ce4bha12rcd13ifvqef0","pricing_plan_id":"cebpf4jnsgd1na2vs0mg"},{"bike_id":"7582cde9-8196-43ab-b786-214dcc964ce2","system_id":"levelo_inurba_marseille","lat":43.29273,"lon":5.36846,"is_reserved":false,"is_disabled":false,"rental_uris":{"android":"levelo://app?vid=7582cde9-8196-43ab-b786-214dcc964ce2","ios":"levelo://app?vid=7582cde9-8196-43ab-b786-214dcc964ce2"},"vehicle_type_id":"4","last_reported":1747411918,"current_range_meters":11600,"station_id":"ce4bhbp2rcd13ifvqesg","pricing_plan_id":"cebpf4jnsgd1na2vs0mg"},{"bike_id":"5cf74a5b-3237-4306-8708-835ce896cf40","system_id":"levelo_inurba_marseille","lat":43.31998,"lon":5.381535,"is_reserved":false,"is_disabled":false,"rental_uris":{"android":"levelo://app?vid=5cf74a5b-3237-4306-8708-835ce896cf40","ios":"levelo://app?vid=5cf74a5b-3237-4306-8708-835ce896cf40"},"vehicle_type_id":"4","last_reported":1747411918,"current_range_meters":11600,"station_id":"ce4bhr12rcd13ifvqhpg","pricing_plan_id":"cebpf4jnsgd1na2vs0mg"},{"bike_id":"290dd716-a368-483b-8e40-3e5634b2d328","system_id":"levelo_inurba_marseille","lat":43.31233,"lon":5.36861,"is_reserved":false,"is_disabled":false,"rental_uris":{"android":"levelo://app?vid=290dd716-a368-483b-8e40-3e5634b2d328","ios":"levelo://app?vid=290dd716-a368-483b-8e40-3e5634b2d328"},"vehicle_type_id":"4","last_reported":1747411918,"current_range_meters":11200,"station_id":"ce4bgl92rcd13ifvqbq0","pricing_plan_id":"cebpf4jnsgd1na2vs0mg"},{"bike_id":"b1a8a065-a172-4210-84c9-debe841570cd","system_id":"levelo_inurba_marseille","lat":43.29008,"lon":5.35617,"is_reserved":false,"is_disabled":false,"rental_uris":{"android":"levelo://app?vid=b1a8a065-a172-4210-84c9-debe841570cd","ios":"levelo://app?vid=b1a8a065-a172-4210-84c9-debe841570cd"},"vehicle_type_id":"4","last_reported":1747411918,"current_range_meters":11600,"station_id":"ce4bhb92rcd13ifvqen0","pricing_plan_id":"cebpf4jnsgd1na2vs0mg"},{"bike_id":"dd489845-5411-4e06-8579-63a4e4610461","system_id":"levelo_inurba_marseille","lat":43.29554,"lon":5.42294,"is_reserved":false,"is_disabled":false,"rental_uris":{"android":"levelo://app?vid=dd489845-5411-4e06-8579-63a4e4610461","ios":"levelo://app?vid=dd489845-5411-4e06-8579-63a4e4610461"},"vehicle_type_id":"4","last_reported":1747411918,"current_range_meters":12000,"station_id":"ce4bhph2rcd13ifvqhdg","pricing_plan_id":"cebpf4jnsgd1na2vs0mg"},{"bike_id":"aab6247a-a33e-4307-adb7-41df6390d2dd","system_id":"levelo_inurba_marseille","lat":43.2937,"lon":5.37852,"is_reserved":false,"is_disabled":false,"rental_uris":{"android":"levelo://app?vid=aab6247a-a33e-4307-adb7-41df6390d2dd","ios":"levelo://app?vid=aab6247a-a33e-4307-adb7-41df6390d2dd"},"vehicle_type_id":"4","last_reported":1747411918,"current_range_meters":12000,"station_id":"ce4bgjh2rcd13ifvqbf0","pricing_plan_id":"cebpf4jnsgd1na2vs0mg"},{"bike_id":"8a61a1bc-5a2c-4409-b911-e09287002183","system_id":"levelo_inurba_marseille","lat":43.30988,"lon":5.3792,"is_reserved":false,"is_disabled":false,"rental_uris":{"android":"levelo://app?vid=8a61a1bc-5a2c-4409-b911-e09287002183","ios":"levelo://app?vid=8a61a1bc-5a2c-4409-b911-e09287002183"},"vehicle_type_id":"4","last_reported":1747411918,"current_range_meters":12000,"station_id":"","pricing_plan_id":"cebpf4jnsgd1na2vs0mg"},{"bike_id":"91ae172e-9ed6-4773-a877-c1aea429a393","system_id":"levelo_inurba_marseille","lat":43.27946,"lon":5.41048,"is_reserved":false,"is_disabled":false,"rental_uris":{"android":"levelo://app?vid=91ae172e-9ed6-4773-a877-c1aea429a393","ios":"levelo://app?vid=91ae172e-9ed6-4773-a877-c1aea429a393"},"vehicle_type_id":"4","last_reported":1747411918,"current_range_meters":12000,"station_id":"ce4bhnp2rcd13ifvqh0g","pricing_plan_id":"cebpf4jnsgd1na2vs0mg"},{"bike_id":"f7c31dd2-47f7-46c3-a769-ecda17b690c7","system_id":"levelo_inurba_marseille","lat":43.31363,"lon":5.36711,"is_reserved":false,"is_disabled":true,"rental_uris":{"android":"levelo://app?vid=f7c31dd2-47f7-46c3-a769-ecda17b690c7","ios":"levelo://app?vid=f7c31dd2-47f7-46c3-a769-ecda17b690c7"},"vehicle_type_id":"4","last_reported":1747411918,"current_range_meters":12400,"station_id":"ce4bgr92rcd13ifvqc6g","pricing_plan_id":"cebpf4jnsgd1na2vs0mg"},{"bike_id":"6ee3d99e-cd75-4dcc-875f-694de52544ea","system_id":"levelo_inurba_marseille","lat":43.29002,"lon":5.35611,"is_reserved":false,"is_disabled":false,"rental_uris":{"android":"levelo://app?vid=6ee3d99e-cd75-4dcc-875f-694de52544ea","ios":"levelo://app?vid=6ee3d99e-cd75-4dcc-875f-694de52544ea"},"vehicle_type_id":"4","last_reported":1747411918,"current_range_meters":12400,"station_id":"ce4bhb92rcd13ifvqen0","pricing_plan_id":"cebpf4jnsgd1na2vs0mg"},{"bike_id":"3d6b5b36-a314-45fa-8bc0-68e5f98a5dde","system_id":"levelo_inurba_marseille","lat":43.22932,"lon":5.3538,"is_reserved":false,"is_disabled":false,"rental_uris":{"android":"levelo://app?vid=3d6b5b36-a314-45fa-8bc0-68e5f98a5dde","ios":"levelo://app?vid=3d6b5b36-a314-45fa-8bc0-68e5f98a5dde"},"vehicle_type_id":"4","last_reported":1747411918,"current_range_meters":12800,"station_id":"cpo3532slgdg3j2ikp40","pricing_plan_id":"cebpf4jnsgd1na2vs0mg"},{"bike_id":"b0acf859-8be4-4016-8062-311f31795791","system_id":"levelo_inurba_marseille","lat":43.28411,"lon":5.34975,"is_reserved":false,"is_disabled":false,"rental_uris":{"android":"levelo://app?vid=b0acf859-8be4-4016-8062-311f31795791","ios":"levelo://app?vid=b0acf859-8be4-4016-8062-311f31795791"},"vehicle_type_id":"4","last_reported":1747411918,"current_range_meters":12400,"station_id":"ce4bhbh2rcd13ifvqepg","pricing_plan_id":"cebpf4jnsgd1na2vs0mg"},{"bike_id":"8fe8a34b-a7ab-4615-b901-f49d97106116","system_id":"levelo_inurba_marseille","lat":43.21193,"lon":5.35078,"is_reserved":false,"is_disabled":false,"rental_uris":{"android":"levelo://app?vid=8fe8a34b-a7ab-4615-b901-f49d97106116","ios":"levelo://app?vid=8fe8a34b-a7ab-4615-b901-f49d97106116"},"vehicle_type_id":"4","last_reported":1747411918,"current_range_meters":12400,"station_id":"st_cvj6sg6p6f1abm77japg","pricing_plan_id":"cebpf4jnsgd1na2vs0mg"},{"bike_id":"fc48c643-706b-47c0-8c25-5ccd807aa56d","system_id":"levelo_inurba_marseille","lat":43.28985,"lon":5.35603,"is_reserved":false,"is_disabled":false,"rental_uris":{"android":"levelo://app?vid=fc48c643-706b-47c0-8c25-5ccd807aa56d","ios":"levelo://app?vid=fc48c643-706b-47c0-8c25-5ccd807aa56d"},"vehicle_type_id":"4","last_reported":1747411918,"current_range_meters":12400,"station_id":"ce4bhb92rcd13ifvqen0","pricing_plan_id":"cebpf4jnsgd1na2vs0mg"},{"bike_id":"25fef584-669d-4163-a55e-7a29f87bba5a","system_id":"levelo_inurba_marseille","lat":43.30132,"lon":5.38784,"is_reserved":false,"is_disabled":false,"rental_uris":{"android":"levelo://app?vid=25fef584-669d-4163-a55e-7a29f87bba5a","ios":"levelo://app?vid=25fef584-669d-4163-a55e-7a29f87bba5a"},"vehicle_type_id":"4","last_reported":1747411918,"current_range_meters":12000,"station_id":"ce4bghh2rcd13ifvqb60","pricing_plan_id":"cebpf4jnsgd1na2vs0mg"},{"bike_id":"a9f99404-3f60-42eb-8aad-cf1dafd436fc","system_id":"levelo_inurba_marseille","lat":43.27375,"lon":5.36259,"is_reserved":false,"is_disabled":false,"rental_uris":{"android":"levelo://app?vid=a9f99404-3f60-42eb-8aad-cf1dafd436fc","ios":"levelo://app?vid=a9f99404-3f60-42eb-8aad-cf1dafd436fc"},"vehicle_type_id":"4","last_reported":1747411918,"current_range_meters":12800,"station_id":"ce4bhbh2rcd13ifvqeo0","pricing_plan_id":"cebpf4jnsgd1na2vs0mg"},{"bike_id":"f27592d1-666b-41aa-bed0-e0a2ccc580df","system_id":"levelo_inurba_marseille","lat":43.338,"lon":5.37427,"is_reserved":false,"is_disabled":false,"rental_uris":{"android":"levelo://app?vid=f27592d1-666b-41aa-bed0-e0a2ccc580df","ios":"levelo://app?vid=f27592d1-666b-41aa-bed0-e0a2ccc580df"},"vehicle_type_id":"4","last_reported":1747411918,"current_range_meters":12800,"station_id":"","pricing_plan_id":"cebpf4jnsgd1na2vs0mg"},{"bike_id":"4a8cba01-b4f2-4db9-b26a-9cbe8d27ea31","system_id":"levelo_inurba_marseille","lat":43.30123,"lon":5.39867,"is_reserved":false,"is_disabled":false,"rental_uris":{"android":"levelo://app?vid=4a8cba01-b4f2-4db9-b26a-9cbe8d27ea31","ios":"levelo://app?vid=4a8cba01-b4f2-4db9-b26a-9cbe8d27ea31"},"vehicle_type_id":"4","last_reported":1747411918,"current_range_meters":12800,"station_id":"ce4bh0h2rcd13ifvqd40","pricing_plan_id":"cebpf4jnsgd1na2vs0mg"},{"bike_id":"95b117cb-ae1c-461b-b89a-333124734f9c","system_id":"levelo_inurba_marseille","lat":43.31374,"lon":5.38503,"is_reserved":false,"is_disabled":false,"rental_uris":{"android":"levelo://app?vid=95b117cb-ae1c-461b-b89a-333124734f9c","ios":"levelo://app?vid=95b117cb-ae1c-461b-b89a-333124734f9c"},"vehicle_type_id":"4","last_reported":1747411918,"current_range_meters":12800,"station_id":"ce4bgt92rcd13ifvqcf0","pricing_plan_id":"cebpf4jnsgd1na2vs0mg"},{"bike_id":"c3388b83-b083-4a15-b203-888e675fcbca","system_id":"levelo_inurba_marseille","lat":43.24546,"lon":5.39525,"is_reserved":false,"is_disabled":false,"rental_uris":{"android":"levelo://app?vid=c3388b83-b083-4a15-b203-888e675fcbca","ios":"levelo://app?vid=c3388b83-b083-4a15-b203-888e675fcbca"},"vehicle_type_id":"4","last_reported":1747411918,"current_range_meters":12800,"station_id":"ce4bhlp2rcd13ifvqgjg","pricing_plan_id":"cebpf4jnsgd1na2vs0mg"},{"bike_id":"ffc493aa-87c6-4dec-a3ef-e289553cd040","system_id":"levelo_inurba_marseille","lat":43.31752,"lon":5.39011,"is_reserved":false,"is_disabled":false,"rental_uris":{"android":"levelo://app?vid=ffc493aa-87c6-4dec-a3ef-e289553cd040","ios":"levelo://app?vid=ffc493aa-87c6-4dec-a3ef-e289553cd040"},"vehicle_type_id":"4","last_reported":1747411918,"current_range_meters":12800,"station_id":"ce4bhqp2rcd13ifvqhng","pricing_plan_id":"cebpf4jnsgd1na2vs0mg"},{"bike_id":"0cce8739-6b72-4cfa-933f-ed7b22a2565e","system_id":"levelo_inurba_marseille","lat":43.29583,"lon":5.36747,"is_reserved":false,"is_disabled":false,"rental_uris":{"android":"levelo://app?vid=0cce8739-6b72-4cfa-933f-ed7b22a2565e","ios":"levelo://app?vid=0cce8739-6b72-4cfa-933f-ed7b22a2565e"},"vehicle_type_id":"4","last_reported":1747411918,"current_range_meters":13600,"station_id":"ce4bgph2rcd13ifvqc2g","pricing_plan_id":"cebpf4jnsgd1na2vs0mg"},{"bike_id":"13aaeea0-35bd-4ab0-88a3-ee87b171915d","system_id":"levelo_inurba_marseille","lat":43.31526,"lon":5.38038,"is_reserved":false,"is_disabled":false,"rental_uris":{"android":"levelo://app?vid=13aaeea0-35bd-4ab0-88a3-ee87b171915d","ios":"levelo://app?vid=13aaeea0-35bd-4ab0-88a3-ee87b171915d"},"vehicle_type_id":"4","last_reported":1747411918,"current_range_meters":13600,"station_id":"ce4bhsp2rcd13ifvqi50","pricing_plan_id":"cebpf4jnsgd1na2vs0mg"},{"bike_id":"bdad8c99-b31e-4149-bbae-b30280ecfb54","system_id":"levelo_inurba_marseille","lat":43.30953,"lon":5.39033,"is_reserved":false,"is_disabled":false,"rental_uris":{"android":"levelo://app?vid=bdad8c99-b31e-4149-bbae-b30280ecfb54","ios":"levelo://app?vid=bdad8c99-b31e-4149-bbae-b30280ecfb54"},"vehicle_type_id":"4","last_reported":1747411918,"current_range_meters":14000,"station_id":"ce4bgup2rcd13ifvqco0","pricing_plan_id":"cebpf4jnsgd1na2vs0mg"},{"bike_id":"976614c5-5509-4c20-944f-057f3a34a873","system_id":"levelo_inurba_marseille","lat":43.290187,"lon":5.359288,"is_reserved":false,"is_disabled":false,"rental_uris":{"android":"levelo://app?vid=976614c5-5509-4c20-944f-057f3a34a873","ios":"levelo://app?vid=976614c5-5509-4c20-944f-057f3a34a873"},"vehicle_type_id":"4","last_reported":1747411918,"current_range_meters":14000,"station_id":"ce4bha92rcd13ifvqeg0","pricing_plan_id":"cebpf4jnsgd1na2vs0mg"},{"bike_id":"248354d9-319a-4fda-a327-9b1e5e28cf99","system_id":"levelo_inurba_marseille","lat":43.295235,"lon":5.374947,"is_reserved":false,"is_disabled":true,"rental_uris":{"android":"levelo://app?vid=248354d9-319a-4fda-a327-9b1e5e28cf99","ios":"levelo://app?vid=248354d9-319a-4fda-a327-9b1e5e28cf99"},"vehicle_type_id":"4","last_reported":1747411918,"current_range_meters":14000,"station_id":"ce4bgkp2rcd13ifvqbmg","pricing_plan_id":"cebpf4jnsgd1na2vs0mg"},{"bike_id":"ca2b8c27-fc80-42bd-82fa-784aa8bb826f","system_id":"levelo_inurba_marseille","lat":43.28461,"lon":5.35893,"is_reserved":false,"is_disabled":false,"rental_uris":{"android":"levelo://app?vid=ca2b8c27-fc80-42bd-82fa-784aa8bb826f","ios":"levelo://app?vid=ca2b8c27-fc80-42bd-82fa-784aa8bb826f"},"vehicle_type_id":"4","last_reported":1747411918,"current_range_meters":14000,"station_id":"ce4bhah2rcd13ifvqei0","pricing_plan_id":"cebpf4jnsgd1na2vs0mg"},{"bike_id":"ab79e16a-befa-4591-be5c-af67e21a81b2","system_id":"levelo_inurba_marseille","lat":43.243851,"lon":5.370549,"is_reserved":false,"is_disabled":false,"rental_uris":{"android":"levelo://app?vid=ab79e16a-befa-4591-be5c-af67e21a81b2","ios":"levelo://app?vid=ab79e16a-befa-4591-be5c-af67e21a81b2"},"vehicle_type_id":"4","last_reported":1747411918,"current_range_meters":14000,"station_id":"ce4bhhh2rcd13ifvqfk0","pricing_plan_id":"cebpf4jnsgd1na2vs0mg"},{"bike_id":"b8f48a03-1b3c-4f41-b74c-2b637af725d5","system_id":"levelo_inurba_marseille","lat":43.304191,"lon":5.397484,"is_reserved":false,"is_disabled":true,"rental_uris":{"android":"levelo://app?vid=b8f48a03-1b3c-4f41-b74c-2b637af725d5","ios":"levelo://app?vid=b8f48a03-1b3c-4f41-b74c-2b637af725d5"},"vehicle_type_id":"4","last_reported":1747411918,"current_range_meters":14000,"station_id":"ce4bh092rcd13ifvqd20","pricing_plan_id":"cebpf4jnsgd1na2vs0mg"},{"bike_id":"c910799f-8701-46f1-95f6-37df42a84ccf","system_id":"levelo_inurba_marseille","lat":43.2757,"lon":5.38417,"is_reserved":false,"is_disabled":false,"rental_uris":{"android":"levelo://app?vid=c910799f-8701-46f1-95f6-37df42a84ccf","ios":"levelo://app?vid=c910799f-8701-46f1-95f6-37df42a84ccf"},"vehicle_type_id":"4","last_reported":1747411918,"current_range_meters":14000,"station_id":"ce4bhh92rcd13ifvqfi0","pricing_plan_id":"cebpf4jnsgd1na2vs0mg"},{"bike_id":"ac4bbcca-4c39-4caa-8865-fcf30833c652","system_id":"levelo_inurba_marseille","lat":43.30427,"lon":5.41322,"is_reserved":false,"is_disabled":false,"rental_uris":{"android":"levelo://app?vid=ac4bbcca-4c39-4caa-8865-fcf30833c652","ios":"levelo://app?vid=ac4bbcca-4c39-4caa-8865-fcf30833c652"},"vehicle_type_id":"4","last_reported":1747411918,"current_range_meters":14400,"station_id":"ce4bhop2rcd13ifvqh8g","pricing_plan_id":"cebpf4jnsgd1na2vs0mg"},{"bike_id":"f77b7d9b-b7e2-4875-99a2-13110bc0e1aa","system_id":"levelo_inurba_marseille","lat":43.30152,"lon":5.38079,"is_reserved":false,"is_disabled":false,"rental_uris":{"android":"levelo://app?vid=f77b7d9b-b7e2-4875-99a2-13110bc0e1aa","ios":"levelo://app?vid=f77b7d9b-b7e2-4875-99a2-13110bc0e1aa"},"vehicle_type_id":"4","last_reported":1747411918,"current_range_meters":14400,"station_id":"ce4bgjp2rcd13ifvqbh0","pricing_plan_id":"cebpf4jnsgd1na2vs0mg"},{"bike_id":"f495968d-d982-4514-ab98-db984cf03219","system_id":"levelo_inurba_marseille","lat":43.314151,"lon":5.383301,"is_reserved":false,"is_disabled":false,"rental_uris":{"android":"levelo://app?vid=f495968d-d982-4514-ab98-db984cf03219","ios":"levelo://app?vid=f495968d-d982-4514-ab98-db984cf03219"},"vehicle_type_id":"4","last_reported":1747411918,"current_range_meters":14400,"station_id":"","pricing_plan_id":"cebpf4jnsgd1na2vs0mg"},{"bike_id":"356e785d-9cfd-4e2e-8264-538952285d94","system_id":"levelo_inurba_marseille","lat":43.28418,"lon":5.34978,"is_reserved":false,"is_disabled":false,"rental_uris":{"android":"levelo://app?vid=356e785d-9cfd-4e2e-8264-538952285d94","ios":"levelo://app?vid=356e785d-9cfd-4e2e-8264-538952285d94"},"vehicle_type_id":"4","last_reported":1747411918,"current_range_meters":14400,"station_id":"ce4bhbh2rcd13ifvqepg","pricing_plan_id":"cebpf4jnsgd1na2vs0mg"},{"bike_id":"7673f08b-ac9e-4a96-9d1a-1911e62c1fe7","system_id":"levelo_inurba_marseille","lat":43.31326,"lon":5.36969,"is_reserved":false,"is_disabled":false,"rental_uris":{"android":"levelo://app?vid=7673f08b-ac9e-4a96-9d1a-1911e62c1fe7","ios":"levelo://app?vid=7673f08b-ac9e-4a96-9d1a-1911e62c1fe7"},"vehicle_type_id":"4","last_reported":1747411918,"current_range_meters":14400,"station_id":"","pricing_plan_id":"cebpf4jnsgd1na2vs0mg"},{"bike_id":"c462edac-629f-47ae-91a1-fc91820cc32c","system_id":"levelo_inurba_marseille","lat":43.29299,"lon":5.37168,"is_reserved":false,"is_disabled":true,"rental_uris":{"android":"levelo://app?vid=c462edac-629f-47ae-91a1-fc91820cc32c","ios":"levelo://app?vid=c462edac-629f-47ae-91a1-fc91820cc32c"},"vehicle_type_id":"4","last_reported":1747411918,"current_range_meters":14800,"station_id":"ce4bgh92rcd13ifvqb40","pricing_plan_id":"cebpf4jnsgd1na2vs0mg"},{"bike_id":"d6ec0b78-a6e4-4313-8a7f-67c95e994af4","system_id":"levelo_inurba_marseille","lat":43.29027,"lon":5.38644,"is_reserved":false,"is_disabled":false,"rental_uris":{"android":"levelo://app?vid=d6ec0b78-a6e4-4313-8a7f-67c95e994af4","ios":"levelo://app?vid=d6ec0b78-a6e4-4313-8a7f-67c95e994af4"},"vehicle_type_id":"4","last_reported":1747411918,"current_range_meters":14800,"station_id":"ce4bh4p2rcd13ifvqe0g","pricing_plan_id":"cebpf4jnsgd1na2vs0mg"},{"bike_id":"68970f24-6203-47b8-a86b-c19c45ba4dcc","system_id":"levelo_inurba_marseille","lat":43.282668,"lon":5.350591,"is_reserved":false,"is_disabled":false,"rental_uris":{"android":"levelo://app?vid=68970f24-6203-47b8-a86b-c19c45ba4dcc","ios":"levelo://app?vid=68970f24-6203-47b8-a86b-c19c45ba4dcc"},"vehicle_type_id":"4","last_reported":1747411918,"current_range_meters":14800,"station_id":"ce4bhbp2rcd13ifvqerg","pricing_plan_id":"cebpf4jnsgd1na2vs0mg"},{"bike_id":"16b39548-4501-4921-ae67-1797ede37785","system_id":"levelo_inurba_marseille","lat":43.26021,"lon":5.4174,"is_reserved":false,"is_disabled":false,"rental_uris":{"android":"levelo://app?vid=16b39548-4501-4921-ae67-1797ede37785","ios":"levelo://app?vid=16b39548-4501-4921-ae67-1797ede37785"},"vehicle_type_id":"4","last_reported":1747411918,"current_range_meters":14800,"station_id":"","pricing_plan_id":"cebpf4jnsgd1na2vs0mg"},{"bike_id":"8cd657bd-43bb-493b-9c62-6cb57f7cf7fc","system_id":"levelo_inurba_marseille","lat":43.24803,"lon":5.37452,"is_reserved":false,"is_disabled":false,"rental_uris":{"android":"levelo://app?vid=8cd657bd-43bb-493b-9c62-6cb57f7cf7fc","ios":"levelo://app?vid=8cd657bd-43bb-493b-9c62-6cb57f7cf7fc"},"vehicle_type_id":"4","last_reported":1747411918,"current_range_meters":14400,"station_id":"ce4bhgh2rcd13ifvqfb0","pricing_plan_id":"cebpf4jnsgd1na2vs0mg"},{"bike_id":"c7e8033b-de38-49b1-8629-62ce6bba23b4","system_id":"levelo_inurba_marseille","lat":43.23067,"lon":5.35491,"is_reserved":false,"is_disabled":false,"rental_uris":{"android":"levelo://app?vid=c7e8033b-de38-49b1-8629-62ce6bba23b4","ios":"levelo://app?vid=c7e8033b-de38-49b1-8629-62ce6bba23b4"},"vehicle_type_id":"4","last_reported":1747411918,"current_range_meters":14800,"station_id":"cpo3342slgdg3j2ifvpg","pricing_plan_id":"cebpf4jnsgd1na2vs0mg"},{"bike_id":"30bc1c79-f534-4e47-95a4-8515e35f59a0","system_id":"levelo_inurba_marseille","lat":43.29974,"lon":5.37185,"is_reserved":false,"is_disabled":false,"rental_uris":{"android":"levelo://app?vid=30bc1c79-f534-4e47-95a4-8515e35f59a0","ios":"levelo://app?vid=30bc1c79-f534-4e47-95a4-8515e35f59a0"},"vehicle_type_id":"4","last_reported":1747411918,"current_range_meters":15200,"station_id":"ce4bgr92rcd13ifvqc7g","pricing_plan_id":"cebpf4jnsgd1na2vs0mg"},{"bike_id":"ee679c93-cea1-48c1-a92b-0c9b566f4796","system_id":"levelo_inurba_marseille","lat":43.29558,"lon":5.42295,"is_reserved":false,"is_disabled":false,"rental_uris":{"android":"levelo://app?vid=ee679c93-cea1-48c1-a92b-0c9b566f4796","ios":"levelo://app?vid=ee679c93-cea1-48c1-a92b-0c9b566f4796"},"vehicle_type_id":"4","last_reported":1747411918,"current_range_meters":14800,"station_id":"ce4bhph2rcd13ifvqhdg","pricing_plan_id":"cebpf4jnsgd1na2vs0mg"},{"bike_id":"3fd467ed-b42f-4770-9460-38a6d7362d09","system_id":"levelo_inurba_marseille","lat":43.29016,"lon":5.35618,"is_reserved":false,"is_disabled":false,"rental_uris":{"android":"levelo://app?vid=3fd467ed-b42f-4770-9460-38a6d7362d09","ios":"levelo://app?vid=3fd467ed-b42f-4770-9460-38a6d7362d09"},"vehicle_type_id":"4","last_reported":1747411918,"current_range_meters":15200,"station_id":"ce4bhb92rcd13ifvqen0","pricing_plan_id":"cebpf4jnsgd1na2vs0mg"},{"bike_id":"921a2576-3100-4d78-93f1-0f6331a97d89","system_id":"levelo_inurba_marseille","lat":43.29974,"lon":5.401071,"is_reserved":false,"is_disabled":false,"rental_uris":{"android":"levelo://app?vid=921a2576-3100-4d78-93f1-0f6331a97d89","ios":"levelo://app?vid=921a2576-3100-4d78-93f1-0f6331a97d89"},"vehicle_type_id":"4","last_reported":1747411918,"current_range_meters":15200,"station_id":"ce4bh0h2rcd13ifvqd40","pricing_plan_id":"cebpf4jnsgd1na2vs0mg"},{"bike_id":"16e1ba08-3afb-4836-86f8-64ba626765cd","system_id":"levelo_inurba_marseille","lat":43.265585,"lon":5.372852,"is_reserved":false,"is_disabled":false,"rental_uris":{"android":"levelo://app?vid=16e1ba08-3afb-4836-86f8-64ba626765cd","ios":"levelo://app?vid=16e1ba08-3afb-4836-86f8-64ba626765cd"},"vehicle_type_id":"4","last_reported":1747411918,"current_range_meters":15200,"station_id":"ce4bhg12rcd13ifvqf70","pricing_plan_id":"cebpf4jnsgd1na2vs0mg"},{"bike_id":"3a529774-6294-4986-bd9b-938621cf3f7a","system_id":"levelo_inurba_marseille","lat":43.29623,"lon":5.37728,"is_reserved":false,"is_disabled":false,"rental_uris":{"android":"levelo://app?vid=3a529774-6294-4986-bd9b-938621cf3f7a","ios":"levelo://app?vid=3a529774-6294-4986-bd9b-938621cf3f7a"},"vehicle_type_id":"4","last_reported":1747411918,"current_range_meters":16000,"station_id":"ce4bgi92rcd13ifvqb90","pricing_plan_id":"cebpf4jnsgd1na2vs0mg"},{"bike_id":"3b7e1cfe-4920-4ce2-8502-e5b1586f8bcd","system_id":"levelo_inurba_marseille","lat":43.24655,"lon":5.38165,"is_reserved":false,"is_disabled":false,"rental_uris":{"android":"levelo://app?vid=3b7e1cfe-4920-4ce2-8502-e5b1586f8bcd","ios":"levelo://app?vid=3b7e1cfe-4920-4ce2-8502-e5b1586f8bcd"},"vehicle_type_id":"4","last_reported":1747411918,"current_range_meters":15200,"station_id":"ce4bhih2rcd13ifvqfr0","pricing_plan_id":"cebpf4jnsgd1na2vs0mg"},{"bike_id":"13da648c-7201-4eff-b60c-1f5461032faf","system_id":"levelo_inurba_marseille","lat":43.29973,"lon":5.38494,"is_reserved":false,"is_disabled":false,"rental_uris":{"android":"levelo://app?vid=13da648c-7201-4eff-b60c-1f5461032faf","ios":"levelo://app?vid=13da648c-7201-4eff-b60c-1f5461032faf"},"vehicle_type_id":"4","last_reported":1747411918,"current_range_meters":16000,"station_id":"ce4bgj92rcd13ifvqbd0","pricing_plan_id":"cebpf4jnsgd1na2vs0mg"},{"bike_id":"db08a07a-6ee7-42b6-8112-e4733686885b","system_id":"levelo_inurba_marseille","lat":43.27372,"lon":5.36255,"is_reserved":false,"is_disabled":false,"rental_uris":{"android":"levelo://app?vid=db08a07a-6ee7-42b6-8112-e4733686885b","ios":"levelo://app?vid=db08a07a-6ee7-42b6-8112-e4733686885b"},"vehicle_type_id":"4","last_reported":1747411918,"current_range_meters":16000,"station_id":"ce4bhbh2rcd13ifvqeo0","pricing_plan_id":"cebpf4jnsgd1na2vs0mg"},{"bike_id":"ec9d04d6-432d-4ec4-8005-e640b4d77e8f","system_id":"levelo_inurba_marseille","lat":43.29963,"lon":5.38498,"is_reserved":false,"is_disabled":false,"rental_uris":{"android":"levelo://app?vid=ec9d04d6-432d-4ec4-8005-e640b4d77e8f","ios":"levelo://app?vid=ec9d04d6-432d-4ec4-8005-e640b4d77e8f"},"vehicle_type_id":"4","last_reported":1747411918,"current_range_meters":16000,"station_id":"ce4bgj92rcd13ifvqbd0","pricing_plan_id":"cebpf4jnsgd1na2vs0mg"},{"bike_id":"6cb57db3-345e-4c4b-909c-fd3fa39a5f56","system_id":"levelo_inurba_marseille","lat":43.29165,"lon":5.37168,"is_reserved":false,"is_disabled":false,"rental_uris":{"android":"levelo://app?vid=6cb57db3-345e-4c4b-909c-fd3fa39a5f56","ios":"levelo://app?vid=6cb57db3-345e-4c4b-909c-fd3fa39a5f56"},"vehicle_type_id":"4","last_reported":1747411918,"current_range_meters":16000,"station_id":"ce4bha92rcd13ifvqeh0","pricing_plan_id":"cebpf4jnsgd1na2vs0mg"},{"bike_id":"b540cf09-8946-4592-93d1-c19685eea3ff","system_id":"levelo_inurba_marseille","lat":43.28937,"lon":5.36641,"is_reserved":false,"is_disabled":false,"rental_uris":{"android":"levelo://app?vid=b540cf09-8946-4592-93d1-c19685eea3ff","ios":"levelo://app?vid=b540cf09-8946-4592-93d1-c19685eea3ff"},"vehicle_type_id":"4","last_reported":1747411918,"current_range_meters":16000,"station_id":"ce4bhap2rcd13ifvqek0","pricing_plan_id":"cebpf4jnsgd1na2vs0mg"},{"bike_id":"2ae60620-d2b0-42ca-a176-1b3030e97f86","system_id":"levelo_inurba_marseille","lat":43.29039,"lon":5.35918,"is_reserved":false,"is_disabled":false,"rental_uris":{"android":"levelo://app?vid=2ae60620-d2b0-42ca-a176-1b3030e97f86","ios":"levelo://app?vid=2ae60620-d2b0-42ca-a176-1b3030e97f86"},"vehicle_type_id":"4","last_reported":1747411918,"current_range_meters":16000,"station_id":"ce4bha92rcd13ifvqeg0","pricing_plan_id":"cebpf4jnsgd1na2vs0mg"},{"bike_id":"9f719c8c-d7ce-46a4-aebc-b9141ea0a4c0","system_id":"levelo_inurba_marseille","lat":43.27664,"lon":5.38886,"is_reserved":false,"is_disabled":false,"rental_uris":{"android":"levelo://app?vid=9f719c8c-d7ce-46a4-aebc-b9141ea0a4c0","ios":"levelo://app?vid=9f719c8c-d7ce-46a4-aebc-b9141ea0a4c0"},"vehicle_type_id":"4","last_reported":1747411918,"current_range_meters":16000,"station_id":"ce4bhi12rcd13ifvqfo0","pricing_plan_id":"cebpf4jnsgd1na2vs0mg"},{"bike_id":"6da655b8-0421-4e8a-ae32-6637af746f6a","system_id":"levelo_inurba_marseille","lat":43.268503,"lon":5.41128,"is_reserved":false,"is_disabled":false,"rental_uris":{"android":"levelo://app?vid=6da655b8-0421-4e8a-ae32-6637af746f6a","ios":"levelo://app?vid=6da655b8-0421-4e8a-ae32-6637af746f6a"},"vehicle_type_id":"4","last_reported":1747411918,"current_range_meters":16000,"station_id":"","pricing_plan_id":"cebpf4jnsgd1na2vs0mg"},{"bike_id":"6fc3804e-44c4-4868-8fbc-4e979abb7f01","system_id":"levelo_inurba_marseille","lat":43.29008,"lon":5.35615,"is_reserved":false,"is_disabled":false,"rental_uris":{"android":"levelo://app?vid=6fc3804e-44c4-4868-8fbc-4e979abb7f01","ios":"levelo://app?vid=6fc3804e-44c4-4868-8fbc-4e979abb7f01"},"vehicle_type_id":"4","last_reported":1747411918,"current_range_meters":16000,"station_id":"ce4bhb92rcd13ifvqen0","pricing_plan_id":"cebpf4jnsgd1na2vs0mg"},{"bike_id":"bd6809f9-61df-47eb-b121-6066799b7700","system_id":"levelo_inurba_marseille","lat":43.25719,"lon":5.41115,"is_reserved":false,"is_disabled":false,"rental_uris":{"android":"levelo://app?vid=bd6809f9-61df-47eb-b121-6066799b7700","ios":"levelo://app?vid=bd6809f9-61df-47eb-b121-6066799b7700"},"vehicle_type_id":"4","last_reported":1747411918,"current_range_meters":15200,"station_id":"","pricing_plan_id":"cebpf4jnsgd1na2vs0mg"},{"bike_id":"d63ac602-a2c9-4005-86f7-ae2783031dd2","system_id":"levelo_inurba_marseille","lat":43.30901,"lon":5.36852,"is_reserved":false,"is_disabled":false,"rental_uris":{"android":"levelo://app?vid=d63ac602-a2c9-4005-86f7-ae2783031dd2","ios":"levelo://app?vid=d63ac602-a2c9-4005-86f7-ae2783031dd2"},"vehicle_type_id":"4","last_reported":1747411918,"current_range_meters":15200,"station_id":"ce4bgn92rcd13ifvqbvg","pricing_plan_id":"cebpf4jnsgd1na2vs0mg"},{"bike_id":"208d7a25-cd6e-47fe-addd-1b889cabc092","system_id":"levelo_inurba_marseille","lat":43.284097,"lon":5.349889,"is_reserved":false,"is_disabled":false,"rental_uris":{"android":"levelo://app?vid=208d7a25-cd6e-47fe-addd-1b889cabc092","ios":"levelo://app?vid=208d7a25-cd6e-47fe-addd-1b889cabc092"},"vehicle_type_id":"4","last_reported":1747411918,"current_range_meters":16400,"station_id":"ce4bhbh2rcd13ifvqepg","pricing_plan_id":"cebpf4jnsgd1na2vs0mg"},{"bike_id":"6ff284ba-1c80-42c7-be8a-e23550d6b103","system_id":"levelo_inurba_marseille","lat":43.29199,"lon":5.39321,"is_reserved":false,"is_disabled":false,"rental_uris":{"android":"levelo://app?vid=6ff284ba-1c80-42c7-be8a-e23550d6b103","ios":"levelo://app?vid=6ff284ba-1c80-42c7-be8a-e23550d6b103"},"vehicle_type_id":"4","last_reported":1747411918,"current_range_meters":16400,"station_id":"ce4bh192rcd13ifvqdd0","pricing_plan_id":"cebpf4jnsgd1na2vs0mg"},{"bike_id":"6f199ca1-3219-4f54-b515-3c62922b90b1","system_id":"levelo_inurba_marseille","lat":43.30333,"lon":5.3768,"is_reserved":false,"is_disabled":false,"rental_uris":{"android":"levelo://app?vid=6f199ca1-3219-4f54-b515-3c62922b90b1","ios":"levelo://app?vid=6f199ca1-3219-4f54-b515-3c62922b90b1"},"vehicle_type_id":"4","last_reported":1747411918,"current_range_meters":16400,"station_id":"","pricing_plan_id":"cebpf4jnsgd1na2vs0mg"},{"bike_id":"9375eefb-4ebf-4a4e-b6e0-ddc49775c2c1","system_id":"levelo_inurba_marseille","lat":43.29048,"lon":5.35919,"is_reserved":false,"is_disabled":false,"rental_uris":{"android":"levelo://app?vid=9375eefb-4ebf-4a4e-b6e0-ddc49775c2c1","ios":"levelo://app?vid=9375eefb-4ebf-4a4e-b6e0-ddc49775c2c1"},"vehicle_type_id":"4","last_reported":1747411918,"current_range_meters":16400,"station_id":"ce4bha92rcd13ifvqeg0","pricing_plan_id":"cebpf4jnsgd1na2vs0mg"},{"bike_id":"98106b70-6f8a-476d-962a-f2bed2e52f0a","system_id":"levelo_inurba_marseille","lat":43.3209,"lon":5.36772,"is_reserved":false,"is_disabled":false,"rental_uris":{"android":"levelo://app?vid=98106b70-6f8a-476d-962a-f2bed2e52f0a","ios":"levelo://app?vid=98106b70-6f8a-476d-962a-f2bed2e52f0a"},"vehicle_type_id":"4","last_reported":1747411918,"current_range_meters":16400,"station_id":"ce4bhrh2rcd13ifvqhug","pricing_plan_id":"cebpf4jnsgd1na2vs0mg"},{"bike_id":"852ea9ac-6507-488a-87c5-b27d54b34b2e","system_id":"levelo_inurba_marseille","lat":43.281554,"lon":5.426307,"is_reserved":false,"is_disabled":false,"rental_uris":{"android":"levelo://app?vid=852ea9ac-6507-488a-87c5-b27d54b34b2e","ios":"levelo://app?vid=852ea9ac-6507-488a-87c5-b27d54b34b2e"},"vehicle_type_id":"4","last_reported":1747411918,"current_range_meters":16400,"station_id":"ce4bhnh2rcd13ifvqgug","pricing_plan_id":"cebpf4jnsgd1na2vs0mg"},{"bike_id":"56289d12-8b28-4b22-ba0e-7bd3874a4146","system_id":"levelo_inurba_marseille","lat":43.28153,"lon":5.42644,"is_reserved":false,"is_disabled":false,"rental_uris":{"android":"levelo://app?vid=56289d12-8b28-4b22-ba0e-7bd3874a4146","ios":"levelo://app?vid=56289d12-8b28-4b22-ba0e-7bd3874a4146"},"vehicle_type_id":"4","last_reported":1747411918,"current_range_meters":16400,"station_id":"ce4bhnh2rcd13ifvqgug","pricing_plan_id":"cebpf4jnsgd1na2vs0mg"},{"bike_id":"5abe5ecd-043f-41bd-95cc-f8b3cd5700ea","system_id":"levelo_inurba_marseille","lat":43.308865,"lon":5.39644,"is_reserved":false,"is_disabled":false,"rental_uris":{"android":"levelo://app?vid=5abe5ecd-043f-41bd-95cc-f8b3cd5700ea","ios":"levelo://app?vid=5abe5ecd-043f-41bd-95cc-f8b3cd5700ea"},"vehicle_type_id":"4","last_reported":1747411918,"current_range_meters":16000,"station_id":"ce4bh012rcd13ifvqcv0","pricing_plan_id":"cebpf4jnsgd1na2vs0mg"},{"bike_id":"b23a7761-2337-406b-b8e6-8e6d94a8d7c1","system_id":"levelo_inurba_marseille","lat":43.32361,"lon":5.36753,"is_reserved":false,"is_disabled":false,"rental_uris":{"android":"levelo://app?vid=b23a7761-2337-406b-b8e6-8e6d94a8d7c1","ios":"levelo://app?vid=b23a7761-2337-406b-b8e6-8e6d94a8d7c1"},"vehicle_type_id":"4","last_reported":1747411918,"current_range_meters":16400,"station_id":"ce4bhsh2rcd13ifvqi2g","pricing_plan_id":"cebpf4jnsgd1na2vs0mg"},{"bike_id":"b04bd58d-ab68-46b4-9085-1ddf540e912e","system_id":"levelo_inurba_marseille","lat":43.24091,"lon":5.37755,"is_reserved":false,"is_disabled":true,"rental_uris":{"android":"levelo://app?vid=b04bd58d-ab68-46b4-9085-1ddf540e912e","ios":"levelo://app?vid=b04bd58d-ab68-46b4-9085-1ddf540e912e"},"vehicle_type_id":"4","last_reported":1747411918,"current_range_meters":16400,"station_id":"ce4bhnp2rcd13ifvqgvg","pricing_plan_id":"cebpf4jnsgd1na2vs0mg"},{"bike_id":"bc45efe0-071f-4aaa-aef4-e77d7627576f","system_id":"levelo_inurba_marseille","lat":43.29197,"lon":5.35772,"is_reserved":false,"is_disabled":false,"rental_uris":{"android":"levelo://app?vid=bc45efe0-071f-4aaa-aef4-e77d7627576f","ios":"levelo://app?vid=bc45efe0-071f-4aaa-aef4-e77d7627576f"},"vehicle_type_id":"4","last_reported":1747411918,"current_range_meters":16400,"station_id":"","pricing_plan_id":"cebpf4jnsgd1na2vs0mg"},{"bike_id":"553eeeb2-0b59-4ea5-bbc3-b350201441ea","system_id":"levelo_inurba_marseille","lat":43.29574,"lon":5.39971,"is_reserved":false,"is_disabled":false,"rental_uris":{"android":"levelo://app?vid=553eeeb2-0b59-4ea5-bbc3-b350201441ea","ios":"levelo://app?vid=553eeeb2-0b59-4ea5-bbc3-b350201441ea"},"vehicle_type_id":"4","last_reported":1747411918,"current_range_meters":16400,"station_id":"ce4bh312rcd13ifvqdj0","pricing_plan_id":"cebpf4jnsgd1na2vs0mg"},{"bike_id":"3a6b43b1-a0cf-4721-9cba-759a3ccaf3a3","system_id":"levelo_inurba_marseille","lat":43.2815,"lon":5.426457,"is_reserved":false,"is_disabled":false,"rental_uris":{"android":"levelo://app?vid=3a6b43b1-a0cf-4721-9cba-759a3ccaf3a3","ios":"levelo://app?vid=3a6b43b1-a0cf-4721-9cba-759a3ccaf3a3"},"vehicle_type_id":"4","last_reported":1747411918,"current_range_meters":16400,"station_id":"ce4bhnh2rcd13ifvqgug","pricing_plan_id":"cebpf4jnsgd1na2vs0mg"},{"bike_id":"2a9d0bc3-deae-4a39-b85c-52d709abed2e","system_id":"levelo_inurba_marseille","lat":43.309525,"lon":5.378435,"is_reserved":false,"is_disabled":false,"rental_uris":{"android":"levelo://app?vid=2a9d0bc3-deae-4a39-b85c-52d709abed2e","ios":"levelo://app?vid=2a9d0bc3-deae-4a39-b85c-52d709abed2e"},"vehicle_type_id":"4","last_reported":1747411918,"current_range_meters":16800,"station_id":"","pricing_plan_id":"cebpf4jnsgd1na2vs0mg"},{"bike_id":"7c26048d-5d16-44ca-8806-80511f03a77d","system_id":"levelo_inurba_marseille","lat":43.29414,"lon":5.38625,"is_reserved":false,"is_disabled":false,"rental_uris":{"android":"levelo://app?vid=7c26048d-5d16-44ca-8806-80511f03a77d","ios":"levelo://app?vid=7c26048d-5d16-44ca-8806-80511f03a77d"},"vehicle_type_id":"4","last_reported":1747411918,"current_range_meters":16800,"station_id":"ce4bh2h2rcd13ifvqdh0","pricing_plan_id":"cebpf4jnsgd1na2vs0mg"},{"bike_id":"7bd1b450-fa57-440d-80b2-f209f631a3a2","system_id":"levelo_inurba_marseille","lat":43.26929,"lon":5.40258,"is_reserved":false,"is_disabled":false,"rental_uris":{"android":"levelo://app?vid=7bd1b450-fa57-440d-80b2-f209f631a3a2","ios":"levelo://app?vid=7bd1b450-fa57-440d-80b2-f209f631a3a2"},"vehicle_type_id":"4","last_reported":1747411918,"current_range_meters":16400,"station_id":"cjm6bp8fraef2m0cb0m0","pricing_plan_id":"cebpf4jnsgd1na2vs0mg"},{"bike_id":"d504c41c-27e7-446c-9d19-bfb451d55050","system_id":"levelo_inurba_marseille","lat":43.29002,"lon":5.35608,"is_reserved":false,"is_disabled":false,"rental_uris":{"android":"levelo://app?vid=d504c41c-27e7-446c-9d19-bfb451d55050","ios":"levelo://app?vid=d504c41c-27e7-446c-9d19-bfb451d55050"},"vehicle_type_id":"4","last_reported":1747411918,"current_range_meters":16800,"station_id":"ce4bhb92rcd13ifvqen0","pricing_plan_id":"cebpf4jnsgd1na2vs0mg"},{"bike_id":"a2ea305b-9e84-426c-809f-4cd28f13ede3","system_id":"levelo_inurba_marseille","lat":43.290034,"lon":5.356142,"is_reserved":false,"is_disabled":false,"rental_uris":{"android":"levelo://app?vid=a2ea305b-9e84-426c-809f-4cd28f13ede3","ios":"levelo://app?vid=a2ea305b-9e84-426c-809f-4cd28f13ede3"},"vehicle_type_id":"4","last_reported":1747411918,"current_range_meters":16400,"station_id":"ce4bhb92rcd13ifvqen0","pricing_plan_id":"cebpf4jnsgd1na2vs0mg"},{"bike_id":"b973dcec-9365-4210-b73c-045585abec53","system_id":"levelo_inurba_marseille","lat":43.27998,"lon":5.40013,"is_reserved":false,"is_disabled":false,"rental_uris":{"android":"levelo://app?vid=b973dcec-9365-4210-b73c-045585abec53","ios":"levelo://app?vid=b973dcec-9365-4210-b73c-045585abec53"},"vehicle_type_id":"4","last_reported":1747411918,"current_range_meters":16800,"station_id":"","pricing_plan_id":"cebpf4jnsgd1na2vs0mg"},{"bike_id":"421189cd-a5e1-4fa7-80f1-21fc6b245e06","system_id":"levelo_inurba_marseille","lat":43.27072,"lon":5.40269,"is_reserved":false,"is_disabled":false,"rental_uris":{"android":"levelo://app?vid=421189cd-a5e1-4fa7-80f1-21fc6b245e06","ios":"levelo://app?vid=421189cd-a5e1-4fa7-80f1-21fc6b245e06"},"vehicle_type_id":"4","last_reported":1747411918,"current_range_meters":17200,"station_id":"ce4bhk92rcd13ifvqgc0","pricing_plan_id":"cebpf4jnsgd1na2vs0mg"},{"bike_id":"725bcae9-37fd-49e4-9274-c0297ce753b6","system_id":"levelo_inurba_marseille","lat":43.284065,"lon":5.349806,"is_reserved":false,"is_disabled":false,"rental_uris":{"android":"levelo://app?vid=725bcae9-37fd-49e4-9274-c0297ce753b6","ios":"levelo://app?vid=725bcae9-37fd-49e4-9274-c0297ce753b6"},"vehicle_type_id":"4","last_reported":1747411918,"current_range_meters":17200,"station_id":"ce4bhbh2rcd13ifvqepg","pricing_plan_id":"cebpf4jnsgd1na2vs0mg"},{"bike_id":"d1b57e7b-ded1-4248-88ba-1d85cf03aea7","system_id":"levelo_inurba_marseille","lat":43.26027,"lon":5.37549,"is_reserved":false,"is_disabled":false,"rental_uris":{"android":"levelo://app?vid=d1b57e7b-ded1-4248-88ba-1d85cf03aea7","ios":"levelo://app?vid=d1b57e7b-ded1-4248-88ba-1d85cf03aea7"},"vehicle_type_id":"4","last_reported":1747411918,"current_range_meters":17200,"station_id":"ce4bhgh2rcd13ifvqfa0","pricing_plan_id":"cebpf4jnsgd1na2vs0mg"},{"bike_id":"075e3603-490d-42a5-89f2-da16f6a7e78e","system_id":"levelo_inurba_marseille","lat":43.260295,"lon":5.375478,"is_reserved":false,"is_disabled":false,"rental_uris":{"android":"levelo://app?vid=075e3603-490d-42a5-89f2-da16f6a7e78e","ios":"levelo://app?vid=075e3603-490d-42a5-89f2-da16f6a7e78e"},"vehicle_type_id":"4","last_reported":1747411918,"current_range_meters":17200,"station_id":"ce4bhgh2rcd13ifvqfa0","pricing_plan_id":"cebpf4jnsgd1na2vs0mg"},{"bike_id":"8ae9c755-b3ed-4ae7-a8e3-7d5559abea02","system_id":"levelo_inurba_marseille","lat":43.29026,"lon":5.38646,"is_reserved":false,"is_disabled":false,"rental_uris":{"android":"levelo://app?vid=8ae9c755-b3ed-4ae7-a8e3-7d5559abea02","ios":"levelo://app?vid=8ae9c755-b3ed-4ae7-a8e3-7d5559abea02"},"vehicle_type_id":"4","last_reported":1747411918,"current_range_meters":17200,"station_id":"ce4bh4p2rcd13ifvqe0g","pricing_plan_id":"cebpf4jnsgd1na2vs0mg"},{"bike_id":"87e514ef-efe9-4077-ba1b-77ee9ca1e3fa","system_id":"levelo_inurba_marseille","lat":43.29004,"lon":5.35611,"is_reserved":false,"is_disabled":false,"rental_uris":{"android":"levelo://app?vid=87e514ef-efe9-4077-ba1b-77ee9ca1e3fa","ios":"levelo://app?vid=87e514ef-efe9-4077-ba1b-77ee9ca1e3fa"},"vehicle_type_id":"4","last_reported":1747411918,"current_range_meters":17200,"station_id":"ce4bhb92rcd13ifvqen0","pricing_plan_id":"cebpf4jnsgd1na2vs0mg"},{"bike_id":"c8c23b94-3bb2-4142-ae6e-7544f49c1642","system_id":"levelo_inurba_marseille","lat":43.30553,"lon":5.38414,"is_reserved":false,"is_disabled":true,"rental_uris":{"android":"levelo://app?vid=c8c23b94-3bb2-4142-ae6e-7544f49c1642","ios":"levelo://app?vid=c8c23b94-3bb2-4142-ae6e-7544f49c1642"},"vehicle_type_id":"4","last_reported":1747411918,"current_range_meters":17200,"station_id":"ce4bgg92rcd13ifvqb30","pricing_plan_id":"cebpf4jnsgd1na2vs0mg"},{"bike_id":"fe2ca8f9-de1d-44da-8854-f8828cb142e2","system_id":"levelo_inurba_marseille","lat":43.27369,"lon":5.36258,"is_reserved":false,"is_disabled":false,"rental_uris":{"android":"levelo://app?vid=fe2ca8f9-de1d-44da-8854-f8828cb142e2","ios":"levelo://app?vid=fe2ca8f9-de1d-44da-8854-f8828cb142e2"},"vehicle_type_id":"4","last_reported":1747411918,"current_range_meters":17200,"station_id":"ce4bhbh2rcd13ifvqeo0","pricing_plan_id":"cebpf4jnsgd1na2vs0mg"},{"bike_id":"984e2091-0c7f-47e5-860c-31982c7d2473","system_id":"levelo_inurba_marseille","lat":43.29264,"lon":5.38456,"is_reserved":false,"is_disabled":false,"rental_uris":{"android":"levelo://app?vid=984e2091-0c7f-47e5-860c-31982c7d2473","ios":"levelo://app?vid=984e2091-0c7f-47e5-860c-31982c7d2473"},"vehicle_type_id":"4","last_reported":1747411918,"current_range_meters":17200,"station_id":"ce4bh692rcd13ifvqea0","pricing_plan_id":"cebpf4jnsgd1na2vs0mg"},{"bike_id":"45f71629-e57e-4650-a835-f5868dcfd9d1","system_id":"levelo_inurba_marseille","lat":43.29634,"lon":5.36324,"is_reserved":false,"is_disabled":false,"rental_uris":{"android":"levelo://app?vid=45f71629-e57e-4650-a835-f5868dcfd9d1","ios":"levelo://app?vid=45f71629-e57e-4650-a835-f5868dcfd9d1"},"vehicle_type_id":"4","last_reported":1747411918,"current_range_meters":17600,"station_id":"","pricing_plan_id":"cebpf4jnsgd1na2vs0mg"},{"bike_id":"5f15b2b6-06f8-455c-9265-079bb0afa3fa","system_id":"levelo_inurba_marseille","lat":43.25827,"lon":5.3944,"is_reserved":false,"is_disabled":false,"rental_uris":{"android":"levelo://app?vid=5f15b2b6-06f8-455c-9265-079bb0afa3fa","ios":"levelo://app?vid=5f15b2b6-06f8-455c-9265-079bb0afa3fa"},"vehicle_type_id":"4","last_reported":1747411918,"current_range_meters":17600,"station_id":"ce4bhip2rcd13ifvqft0","pricing_plan_id":"cebpf4jnsgd1na2vs0mg"},{"bike_id":"3e3d89fc-8904-4635-9858-19fe943b04e2","system_id":"levelo_inurba_marseille","lat":43.29045,"lon":5.35911,"is_reserved":false,"is_disabled":false,"rental_uris":{"android":"levelo://app?vid=3e3d89fc-8904-4635-9858-19fe943b04e2","ios":"levelo://app?vid=3e3d89fc-8904-4635-9858-19fe943b04e2"},"vehicle_type_id":"4","last_reported":1747411918,"current_range_meters":17600,"station_id":"ce4bha92rcd13ifvqeg0","pricing_plan_id":"cebpf4jnsgd1na2vs0mg"},{"bike_id":"e6cdeffd-a2fb-4a25-8637-bc000c8b3c9b","system_id":"levelo_inurba_marseille","lat":43.285296,"lon":5.360109,"is_reserved":false,"is_disabled":false,"rental_uris":{"android":"levelo://app?vid=e6cdeffd-a2fb-4a25-8637-bc000c8b3c9b","ios":"levelo://app?vid=e6cdeffd-a2fb-4a25-8637-bc000c8b3c9b"},"vehicle_type_id":"4","last_reported":1747411918,"current_range_meters":17600,"station_id":"ce4bhip2rcd13ifvqft0","pricing_plan_id":"cebpf4jnsgd1na2vs0mg"},{"bike_id":"acad282e-2576-4d78-918a-f1652c6216b4","system_id":"levelo_inurba_marseille","lat":43.29266,"lon":5.38435,"is_reserved":false,"is_disabled":false,"rental_uris":{"android":"levelo://app?vid=acad282e-2576-4d78-918a-f1652c6216b4","ios":"levelo://app?vid=acad282e-2576-4d78-918a-f1652c6216b4"},"vehicle_type_id":"4","last_reported":1747411918,"current_range_meters":17600,"station_id":"ce4bh692rcd13ifvqea0","pricing_plan_id":"cebpf4jnsgd1na2vs0mg"},{"bike_id":"981886b8-914d-4c4f-bea5-eefbd48c3054","system_id":"levelo_inurba_marseille","lat":43.27404,"lon":5.3628,"is_reserved":false,"is_disabled":false,"rental_uris":{"android":"levelo://app?vid=981886b8-914d-4c4f-bea5-eefbd48c3054","ios":"levelo://app?vid=981886b8-914d-4c4f-bea5-eefbd48c3054"},"vehicle_type_id":"4","last_reported":1747411918,"current_range_meters":17600,"station_id":"ce4bhbh2rcd13ifvqeo0","pricing_plan_id":"cebpf4jnsgd1na2vs0mg"},{"bike_id":"07260f60-a10d-47fb-ab9d-b5825f142e30","system_id":"levelo_inurba_marseille","lat":43.27377,"lon":5.36267,"is_reserved":false,"is_disabled":false,"rental_uris":{"android":"levelo://app?vid=07260f60-a10d-47fb-ab9d-b5825f142e30","ios":"levelo://app?vid=07260f60-a10d-47fb-ab9d-b5825f142e30"},"vehicle_type_id":"4","last_reported":1747411918,"current_range_meters":18000,"station_id":"ce4bhbh2rcd13ifvqeo0","pricing_plan_id":"cebpf4jnsgd1na2vs0mg"},{"bike_id":"9648cf91-efe1-4721-a7d8-1c50a26f494a","system_id":"levelo_inurba_marseille","lat":43.30556,"lon":5.36564,"is_reserved":false,"is_disabled":false,"rental_uris":{"android":"levelo://app?vid=9648cf91-efe1-4721-a7d8-1c50a26f494a","ios":"levelo://app?vid=9648cf91-efe1-4721-a7d8-1c50a26f494a"},"vehicle_type_id":"4","last_reported":1747411918,"current_range_meters":18000,"station_id":"ce4bgs12rcd13ifvqcag","pricing_plan_id":"cebpf4jnsgd1na2vs0mg"},{"bike_id":"f38d8a8f-faa9-4d21-9d15-78eb338b88ce","system_id":"levelo_inurba_marseille","lat":43.291988,"lon":5.357988,"is_reserved":false,"is_disabled":false,"rental_uris":{"android":"levelo://app?vid=f38d8a8f-faa9-4d21-9d15-78eb338b88ce","ios":"levelo://app?vid=f38d8a8f-faa9-4d21-9d15-78eb338b88ce"},"vehicle_type_id":"4","last_reported":1747411918,"current_range_meters":17600,"station_id":"ce4bhb12rcd13ifvqel0","pricing_plan_id":"cebpf4jnsgd1na2vs0mg"},{"bike_id":"10273fe1-66a1-4853-8c3b-4c8939d68db1","system_id":"levelo_inurba_marseille","lat":43.29548,"lon":5.374975,"is_reserved":false,"is_disabled":true,"rental_uris":{"android":"levelo://app?vid=10273fe1-66a1-4853-8c3b-4c8939d68db1","ios":"levelo://app?vid=10273fe1-66a1-4853-8c3b-4c8939d68db1"},"vehicle_type_id":"4","last_reported":1747411918,"current_range_meters":18000,"station_id":"ce4bgkp2rcd13ifvqbmg","pricing_plan_id":"cebpf4jnsgd1na2vs0mg"},{"bike_id":"9bfe8bdb-77ea-45b4-a086-eae96e5f6a89","system_id":"levelo_inurba_marseille","lat":43.23192,"lon":5.35558,"is_reserved":false,"is_disabled":false,"rental_uris":{"android":"levelo://app?vid=9bfe8bdb-77ea-45b4-a086-eae96e5f6a89","ios":"levelo://app?vid=9bfe8bdb-77ea-45b4-a086-eae96e5f6a89"},"vehicle_type_id":"4","last_reported":1747411918,"current_range_meters":18000,"station_id":"ce4bhu92rcd13ifvqi70","pricing_plan_id":"cebpf4jnsgd1na2vs0mg"},{"bike_id":"94649599-4dd9-4cb5-bb83-4b1c782aaaa9","system_id":"levelo_inurba_marseille","lat":43.28156,"lon":5.42645,"is_reserved":false,"is_disabled":false,"rental_uris":{"android":"levelo://app?vid=94649599-4dd9-4cb5-bb83-4b1c782aaaa9","ios":"levelo://app?vid=94649599-4dd9-4cb5-bb83-4b1c782aaaa9"},"vehicle_type_id":"4","last_reported":1747411918,"current_range_meters":20000,"station_id":"ce4bhnh2rcd13ifvqgug","pricing_plan_id":"cebpf4jnsgd1na2vs0mg"},{"bike_id":"d9b504ee-8007-4760-a4a1-f54f52b040ce","system_id":"levelo_inurba_marseille","lat":43.30274,"lon":5.37286,"is_reserved":false,"is_disabled":false,"rental_uris":{"android":"levelo://app?vid=d9b504ee-8007-4760-a4a1-f54f52b040ce","ios":"levelo://app?vid=d9b504ee-8007-4760-a4a1-f54f52b040ce"},"vehicle_type_id":"4","last_reported":1747411918,"current_range_meters":18000,"station_id":"","pricing_plan_id":"cebpf4jnsgd1na2vs0mg"},