{"last_updated":1745536169,"ttl":60,"version":"2.2","data":{"bikes":[{"bike_id":"1b007faa-283e-4e51-8b44-f1cf0b8f4a46","system_id":"levelo_inurba_marseille","lat":43.27996,"lon":5.41659,"is_reserved":false,"is_disabled":true,"rental_uris":{"android":"levelo://app?vid=1b007faa-283e-4e51-8b44-f1cf0b8f4a46","ios":"levelo://app?vid=1b007faa-283e-4e51-8b44-f1cf0b8f4a46"},"vehicle_type_id":"4","last_reported":1745536169,"current_range_meters":2800,"station_id":"ce4bho12rcd13ifvqh1g","pricing_plan_id":"cebpf4jnsgd1na2vs0mg"},{"bike_id":"7a07a14c-dc58-4728-bdc3-1aac5596dba1","system_id":"levelo_inurba_marseille","lat":43.34649,"lon":5.34805,"is_reserved":false,"is_disabled":false,"rental_uris":{"android":"levelo://app?vid=7a07a14c-dc58-4728-bdc3-1aac5596dba1","ios":"levelo://app?vid=7a07a14c-dc58-4728-bdc3-1aac5596dba1"},"vehicle_type_id":"4","last_reported":1745536169,"current_range_meters":2800,"station_id":"","pricing_plan_id":"cebpf4jnsgd1na2vs0mg"},{"bike_id":"94905a8f-d720-4c76-83ef-7eb145308265","system_id":"levelo_inurba_marseille","lat":43.2873,"lon":5.39971,"is_reserved":false,"is_disabled":false,"rental_uris":{"android":"levelo://app?vid=94905a8f-d720-4c76-83ef-7eb145308265","ios":"levelo://app?vid=94905a8f-d720-4c76-83ef-7eb145308265"},"vehicle_type_id":"4","last_reported":1745536169,"current_range_meters":3200,"station_id":"ce4bho92rcd13ifvqh3g","pricing_plan_id":"cebpf4jnsgd1na2vs0mg"},{"bike_id":"0cbaf19c-9c21-46ab-899f-dfcc12db4988","system_id":"levelo_inurba_marseille","lat":43.23189,"lon":5.39985,"is_reserved":false,"is_disabled":false,"rental_uris":{"android":"levelo://app?vid=0cbaf19c-9c21-46ab-899f-dfcc12db4988","ios":"levelo://app?vid=0cbaf19c-9c21-46ab-899f-dfcc12db4988"},"vehicle_type_id":"4","last_reported":1745536169,"current_range_meters":3200,"station_id":"ce4bhn12rcd13ifvqgqg","pricing_plan_id":"cebpf4jnsgd1na2vs0mg"},{"bike_id":"10cb18ca-4cf4-45ca-9db3-742bc615e786","system_id":"levelo_inurba_marseille","lat":43.23622,"lon":5.39172,"is_reserved":false,"is_disabled":false,"rental_uris":{"android":"levelo://app?vid=10cb18ca-4cf4-45ca-9db3-742bc615e786","ios":"levelo://app?vid=10cb18ca-4cf4-45ca-9db3-742bc615e786"},"vehicle_type_id":"4","last_reported":1745536169,"current_range_meters":4000,"station_id":"","pricing_plan_id":"cebpf4jnsgd1na2vs0mg"},{"bike_id":"11c97ee7-410f-4b06-8564-ea08cf86b93d","system_id":"levelo_inurba_marseille","lat":43.2512,"lon":5.40321,"is_reserved":false,"is_disabled":false,"rental_uris":{"android":"levelo://app?vid=11c97ee7-410f-4b06-8564-ea08cf86b93d","ios":"levelo://app?vid=11c97ee7-410f-4b06-8564-ea08cf86b93d"},"vehicle_type_id":"4","last_reported":1745536169,"current_range_meters":3600,"station_id":"ce4bhlh2rcd13ifvqgig","pricing_plan_id":"cebpf4jnsgd1na2vs0mg"},{"bike_id":"55ad6f01-d97e-4f1d-b41a-3d0444737a0d","system_id":"levelo_inurba_marseille","lat":43.31328,"lon":5.39705,"is_reserved":false,"is_disabled":false,"rental_uris":{"android":"levelo://app?vid=55ad6f01-d97e-4f1d-b41a-3d0444737a0d","ios":"levelo://app?vid=55ad6f01-d97e-4f1d-b41a-3d0444737a0d"},"vehicle_type_id":"4","last_reported":1745536169,"current_range_meters":3600,"station_id":"ce4bgvp2rcd13ifvqcu0","pricing_plan_id":"cebpf4jnsgd1na2vs0mg"},{"bike_id":"9c2ee230-cb34-4634-8767-296a8bd3f8be","system_id":"levelo_inurba_marseille","lat":43.28737,"lon":5.36092,"is_reserved":false,"is_disabled":false,"rental_uris":{"android":"levelo://app?vid=9c2ee230-cb34-4634-8767-296a8bd3f8be","ios":"levelo://app?vid=9c2ee230-cb34-4634-8767-296a8bd3f8be"},"vehicle_type_id":"4","last_reported":1745536169,"current_range_meters":4000,"station_id":"cki0cbj6b192h4jlfktg","pricing_plan_id":"cebpf4jnsgd1na2vs0mg"},{"bike_id":"fe39c9f1-115b-4842-833d-51744c558773","system_id":"levelo_inurba_marseille","lat":43.28479,"lon":5.38442,"is_reserved":false,"is_disabled":true,"rental_uris":{"android":"levelo://app?vid=fe39c9f1-115b-4842-833d-51744c558773","ios":"levelo://app?vid=fe39c9f1-115b-4842-833d-51744c558773"},"vehicle_type_id":"4","last_reported":1745536169,"current_range_meters":4000,"station_id":"ce4bh512rcd13ifvqe3g","pricing_plan_id":"cebpf4jnsgd1na2vs0mg"},{"bike_id":"c7e2fbd4-97ab-45a8-a063-805939e59f3a","system_id":"levelo_inurba_marseille","lat":43.29569,"lon":5.45683,"is_reserved":false,"is_disabled":false,"rental_uris":{"android":"levelo://app?vid=c7e2fbd4-97ab-45a8-a063-805939e59f3a","ios":"levelo://app?vid=c7e2fbd4-97ab-45a8-a063-805939e59f3a"},"vehicle_type_id":"4","last_reported":1745536169,"current_range_meters":4000,"station_id":"","pricing_plan_id":"cebpf4jnsgd1na2vs0mg"},{"bike_id":"5b2ab53b-4abe-46b9-ac2a-36d1233fdded","system_id":"levelo_inurba_marseille","lat":43.3082,"lon":5.36862,"is_reserved":false,"is_disabled":false,"rental_uris":{"android":"levelo://app?vid=5b2ab53b-4abe-46b9-ac2a-36d1233fdded","ios":"levelo://app?vid=5b2ab53b-4abe-46b9-ac2a-36d1233fdded"},"vehicle_type_id":"4","last_reported":1745536169,"current_range_meters":4000,"station_id":"","pricing_plan_id":"cebpf4jnsgd1na2vs0mg"},{"bike_id":"da70d61b-208e-4f5a-8136-fdac79841f35","system_id":"levelo_inurba_marseille","lat":43.28041,"lon":5.36932,"is_reserved":false,"is_disabled":false,"rental_uris":{"android":"levelo://app?vid=da70d61b-208e-4f5a-8136-fdac79841f35","ios":"levelo://app?vid=da70d61b-208e-4f5a-8136-fdac79841f35"},"vehicle_type_id":"4","last_reported":1745536169,"current_range_meters":4800,"station_id":"ce4bha12rcd13ifvqef0","pricing_plan_id":"cebpf4jnsgd1na2vs0mg"},{"bike_id":"3bb3a3dc-30b5-4bf6-9923-e30797312e8b","system_id":"levelo_inurba_marseille","lat":43.2945,"lon":5.39753,"is_reserved":false,"is_disabled":false,"rental_uris":{"android":"levelo://app?vid=3bb3a3dc-30b5-4bf6-9923-e30797312e8b","ios":"levelo://app?vid=3bb3a3dc-30b5-4bf6-9923-e30797312e8b"},"vehicle_type_id":"4","last_reported":1745536169,"current_range_meters":4800,"station_id":"ce4bh3h2rcd13ifvqdo0","pricing_plan_id":"cebpf4jnsgd1na2vs0mg"},{"bike_id":"8b4bac15-47d4-4b48-89ad-d28a545e842f","system_id":"levelo_inurba_marseille","lat":43.22938,"lon":5.35397,"is_reserved":false,"is_disabled":false,"rental_uris":{"android":"levelo://app?vid=8b4bac15-47d4-4b48-89ad-d28a545e842f","ios":"levelo://app?vid=8b4bac15-47d4-4b48-89ad-d28a545e842f"},"vehicle_type_id":"4","last_reported":1745536169,"current_range_meters":4800,"station_id":"cpo3532slgdg3j2ikp40","pricing_plan_id":"cebpf4jnsgd1na2vs0mg"},{"bike_id":"c80b4906-338a-43d0-8b2c-1767d2950c18","system_id":"levelo_inurba_marseille","lat":43.2419,"lon":5.39717,"is_reserved":false,"is_disabled":false,"rental_uris":{"android":"levelo://app?vid=c80b4906-338a-43d0-8b2c-1767d2950c18","ios":"levelo://app?vid=c80b4906-338a-43d0-8b2c-1767d2950c18"},"vehicle_type_id":"4","last_reported":1745536169,"current_range_meters":4800,"station_id":"ce4bhn12rcd13ifvqgpg","pricing_plan_id":"cebpf4jnsgd1na2vs0mg"},{"bike_id":"ba98092f-1f95-4d1b-8c2e-943fbb808d72","system_id":"levelo_inurba_marseille","lat":43.241669,"lon":5.397267,"is_reserved":false,"is_disabled":false,"rental_uris":{"android":"levelo://app?vid=ba98092f-1f95-4d1b-8c2e-943fbb808d72","ios":"levelo://app?vid=ba98092f-1f95-4d1b-8c2e-943fbb808d72"},"vehicle_type_id":"4","last_reported":1745536169,"current_range_meters":4800,"station_id":"ce4bhn12rcd13ifvqgpg","pricing_plan_id":"cebpf4jnsgd1na2vs0mg"},{"bike_id":"36cefaa1-1f19-45be-b15c-456bc07c8c57","system_id":"levelo_inurba_marseille","lat":43.2795,"lon":5.4103,"is_reserved":false,"is_disabled":false,"rental_uris":{"android":"levelo://app?vid=36cefaa1-1f19-45be-b15c-456bc07c8c57","ios":"levelo://app?vid=36cefaa1-1f19-45be-b15c-456bc07c8c57"},"vehicle_type_id":"4","last_reported":1745536169,"current_range_meters":4800,"station_id":"ce4bhnp2rcd13ifvqh0g","pricing_plan_id":"cebpf4jnsgd1na2vs0mg"},{"bike_id":"ab022574-6b84-42ba-aed4-659306abeb16","system_id":"levelo_inurba_marseille","lat":43.25087,"lon":5.39523,"is_reserved":false,"is_disabled":false,"rental_uris":{"android":"levelo://app?vid=ab022574-6b84-42ba-aed4-659306abeb16","ios":"levelo://app?vid=ab022574-6b84-42ba-aed4-659306abeb16"},"vehicle_type_id":"4","last_reported":1745536169,"current_range_meters":5600,"station_id":"ce4bhm12rcd13ifvqgkg","pricing_plan_id":"cebpf4jnsgd1na2vs0mg"},{"bike_id":"30704823-7a9c-4b12-af5d-93db18bfd3b9","system_id":"levelo_inurba_marseille","lat":43.28859,"lon":5.39934,"is_reserved":false,"is_disabled":false,"rental_uris":{"android":"levelo://app?vid=30704823-7a9c-4b12-af5d-93db18bfd3b9","ios":"levelo://app?vid=30704823-7a9c-4b12-af5d-93db18bfd3b9"},"vehicle_type_id":"4","last_reported":1745536169,"current_range_meters":5600,"station_id":"","pricing_plan_id":"cebpf4jnsgd1na2vs0mg"},{"bike_id":"e8b941d9-5164-4450-a6a9-6e12e8febf70","system_id":"levelo_inurba_marseille","lat":43.30639,"lon":5.40094,"is_reserved":false,"is_disabled":false,"rental_uris":{"android":"levelo://app?vid=e8b941d9-5164-4450-a6a9-6e12e8febf70","ios":"levelo://app?vid=e8b941d9-5164-4450-a6a9-6e12e8febf70"},"vehicle_type_id":"4","last_reported":1745536169,"current_range_meters":6000,"station_id":"ce4bh112rcd13ifvqda0","pricing_plan_id":"cebpf4jnsgd1na2vs0mg"},{"bike_id":"8444e01d-caf1-48fa-8a17-5d81fda4421e","system_id":"levelo_inurba_marseille","lat":43.29631,"lon":5.40594,"is_reserved":false,"is_disabled":false,"rental_uris":{"android":"levelo://app?vid=8444e01d-caf1-48fa-8a17-5d81fda4421e","ios":"levelo://app?vid=8444e01d-caf1-48fa-8a17-5d81fda4421e"},"vehicle_type_id":"4","last_reported":1745536169,"current_range_meters":6000,"station_id":"ce4bh0h2rcd13ifvqd60","pricing_plan_id":"cebpf4jnsgd1na2vs0mg"},{"bike_id":"ed5e2e18-64d0-491a-970a-f052a5fea769","system_id":"levelo_inurba_marseille","lat":43.23189,"lon":5.399795,"is_reserved":false,"is_disabled":true,"rental_uris":{"android":"levelo://app?vid=ed5e2e18-64d0-491a-970a-f052a5fea769","ios":"levelo://app?vid=ed5e2e18-64d0-491a-970a-f052a5fea769"},"vehicle_type_id":"4","last_reported":1745536169,"current_range_meters":6000,"station_id":"ce4bhn12rcd13ifvqgqg","pricing_plan_id":"cebpf4jnsgd1na2vs0mg"},{"bike_id":"fed3087f-a5cb-449e-a43e-200233532ee8","system_id":"levelo_inurba_marseille","lat":43.28035,"lon":5.36933,"is_reserved":false,"is_disabled":false,"rental_uris":{"android":"levelo://app?vid=fed3087f-a5cb-449e-a43e-200233532ee8","ios":"levelo://app?vid=fed3087f-a5cb-449e-a43e-200233532ee8"},"vehicle_type_id":"4","last_reported":1745536169,"current_range_meters":6000,"station_id":"ce4bha12rcd13ifvqef0","pricing_plan_id":"cebpf4jnsgd1na2vs0mg"},{"bike_id":"391ee3af-ca61-4f95-a151-9bc5c1f6cb8b","system_id":"levelo_inurba_marseille","lat":43.29027,"lon":5.40002,"is_reserved":false,"is_disabled":true,"rental_uris":{"android":"levelo://app?vid=391ee3af-ca61-4f95-a151-9bc5c1f6cb8b","ios":"levelo://app?vid=391ee3af-ca61-4f95-a151-9bc5c1f6cb8b"},"vehicle_type_id":"4","last_reported":1745536169,"current_range_meters":6000,"station_id":"ce4bh392rcd13ifvqdm0","pricing_plan_id":"cebpf4jnsgd1na2vs0mg"},{"bike_id":"92c3b340-d069-4f1c-b55b-44c52f19597b","system_id":"levelo_inurba_marseille","lat":43.28262,"lon":5.3777,"is_reserved":false,"is_disabled":false,"rental_uris":{"android":"levelo://app?vid=92c3b340-d069-4f1c-b55b-44c52f19597b","ios":"levelo://app?vid=92c3b340-d069-4f1c-b55b-44c52f19597b"},"vehicle_type_id":"4","last_reported":1745536169,"current_range_meters":6400,"station_id":"","pricing_plan_id":"cebpf4jnsgd1na2vs0mg"},{"bike_id":"5b16eb17-ed57-4a23-aac2-2c155ee976fc","system_id":"levelo_inurba_marseille","lat":43.22967,"lon":5.3536,"is_reserved":false,"is_disabled":false,"rental_uris":{"android":"levelo://app?vid=5b16eb17-ed57-4a23-aac2-2c155ee976fc","ios":"levelo://app?vid=5b16eb17-ed57-4a23-aac2-2c155ee976fc"},"vehicle_type_id":"4","last_reported":1745536169,"current_range_meters":6400,"station_id":"cpo3532slgdg3j2ikp40","pricing_plan_id":"cebpf4jnsgd1na2vs0mg"},{"bike_id":"d6a6ea69-e648-4466-af0f-c847ecc56db2","system_id":"levelo_inurba_marseille","lat":43.26202,"lon":5.37431,"is_reserved":false,"is_disabled":false,"rental_uris":{"android":"levelo://app?vid=d6a6ea69-e648-4466-af0f-c847ecc56db2","ios":"levelo://app?vid=d6a6ea69-e648-4466-af0f-c847ecc56db2"},"vehicle_type_id":"4","last_reported":1745536169,"current_range_meters":6400,"station_id":"ce4bhgp2rcd13ifvqfc0","pricing_plan_id":"cebpf4jnsgd1na2vs0mg"},{"bike_id":"60ee52f6-3432-4a14-b3b4-c3acf981d864","system_id":"levelo_inurba_marseille","lat":43.21757,"lon":5.34601,"is_reserved":false,"is_disabled":false,"rental_uris":{"android":"levelo://app?vid=60ee52f6-3432-4a14-b3b4-c3acf981d864","ios":"levelo://app?vid=60ee52f6-3432-4a14-b3b4-c3acf981d864"},"vehicle_type_id":"4","last_reported":1745536169,"current_range_meters":6800,"station_id":"st_cvj6r9ubvosntc0bgbag","pricing_plan_id":"cebpf4jnsgd1na2vs0mg"},{"bike_id":"17c75d3e-1f26-47e8-be26-0f9fadeb00f4","system_id":"levelo_inurba_marseille","lat":43.31077,"lon":5.38361,"is_reserved":false,"is_disabled":true,"rental_uris":{"android":"levelo://app?vid=17c75d3e-1f26-47e8-be26-0f9fadeb00f4","ios":"levelo://app?vid=17c75d3e-1f26-47e8-be26-0f9fadeb00f4"},"vehicle_type_id":"4","last_reported":1745536169,"current_range_meters":6800,"station_id":"ce4bgv92rcd13ifvqcr0","pricing_plan_id":"cebpf4jnsgd1na2vs0mg"},{"bike_id":"04de76c4-a1ad-45bf-9e28-7c78bfcbb5c0","system_id":"levelo_inurba_marseille","lat":43.25186,"lon":5.37419,"is_reserved":false,"is_disabled":false,"rental_uris":{"android":"levelo://app?vid=04de76c4-a1ad-45bf-9e28-7c78bfcbb5c0","ios":"levelo://app?vid=04de76c4-a1ad-45bf-9e28-7c78bfcbb5c0"},"vehicle_type_id":"4","last_reported":1745536169,"current_range_meters":6800,"station_id":"","pricing_plan_id":"cebpf4jnsgd1na2vs0mg"},{"bike_id":"8764c801-9cd2-4e78-bbfe-a229706ee676","system_id":"levelo_inurba_marseille","lat":43.29877,"lon":5.38906,"is_reserved":false,"is_disabled":true,"rental_uris":{"android":"levelo://app?vid=8764c801-9cd2-4e78-bbfe-a229706ee676","ios":"levelo://app?vid=8764c801-9cd2-4e78-bbfe-a229706ee676"},"vehicle_type_id":"4","last_reported":1745536169,"current_range_meters":6800,"station_id":"ce4bh392rcd13ifvqdl0","pricing_plan_id":"cebpf4jnsgd1na2vs0mg"},{"bike_id":"23350a58-a19d-4100-97bd-cfa2f8cfa35e","system_id":"levelo_inurba_marseille","lat":43.289398,"lon":5.363878,"is_reserved":false,"is_disabled":false,"rental_uris":{"android":"levelo://app?vid=23350a58-a19d-4100-97bd-cfa2f8cfa35e","ios":"levelo://app?vid=23350a58-a19d-4100-97bd-cfa2f8cfa35e"},"vehicle_type_id":"4","last_reported":1745536169,"current_range_meters":7200,"station_id":"","pricing_plan_id":"cebpf4jnsgd1na2vs0mg"},{"bike_id":"5326ea88-59f4-4656-a874-039907f93a26","system_id":"levelo_inurba_marseille","lat":43.303353,"lon":5.404389,"is_reserved":false,"is_disabled":false,"rental_uris":{"android":"levelo://app?vid=5326ea88-59f4-4656-a874-039907f93a26","ios":"levelo://app?vid=5326ea88-59f4-4656-a874-039907f93a26"},"vehicle_type_id":"4","last_reported":1745536169,"current_range_meters":6800,"station_id":"ce4bgv92rcd13ifvqcq0","pricing_plan_id":"cebpf4jnsgd1na2vs0mg"},{"bike_id":"a962de13-eb72-47bc-a7cb-4670fe1239af","system_id":"levelo_inurba_marseille","lat":43.31362,"lon":5.38495,"is_reserved":false,"is_disabled":false,"rental_uris":{"android":"levelo://app?vid=a962de13-eb72-47bc-a7cb-4670fe1239af","ios":"levelo://app?vid=a962de13-eb72-47bc-a7cb-4670fe1239af"},"vehicle_type_id":"4","last_reported":1745536169,"current_range_meters":6800,"station_id":"ce4bgt92rcd13ifvqcf0","pricing_plan_id":"cebpf4jnsgd1na2vs0mg"},{"bike_id":"cfb4b89f-0f07-4e66-8d5d-eecea72c556a","system_id":"levelo_inurba_marseille","lat":43.29536,"lon":5.385523,"is_reserved":false,"is_disabled":true,"rental_uris":{"android":"levelo://app?vid=cfb4b89f-0f07-4e66-8d5d-eecea72c556a","ios":"levelo://app?vid=cfb4b89f-0f07-4e66-8d5d-eecea72c556a"},"vehicle_type_id":"4","last_reported":1745536169,"current_range_meters":7200,"station_id":"ce4bgih2rcd13ifvqba0","pricing_plan_id":"cebpf4jnsgd1na2vs0mg"},{"bike_id":"4b2e7729-6c82-45bc-8fe9-3d93ab38b5a5","system_id":"levelo_inurba_marseille","lat":43.23197,"lon":5.39979,"is_reserved":false,"is_disabled":false,"rental_uris":{"android":"levelo://app?vid=4b2e7729-6c82-45bc-8fe9-3d93ab38b5a5","ios":"levelo://app?vid=4b2e7729-6c82-45bc-8fe9-3d93ab38b5a5"},"vehicle_type_id":"4","last_reported":1745536169,"current_range_meters":7200,"station_id":"ce4bhn12rcd13ifvqgqg","pricing_plan_id":"cebpf4jnsgd1na2vs0mg"},{"bike_id":"0f7faeca-f211-4302-91c4-a32916e8a18a","system_id":"levelo_inurba_marseille","lat":43.280368,"lon":5.369409,"is_reserved":false,"is_disabled":false,"rental_uris":{"android":"levelo://app?vid=0f7faeca-f211-4302-91c4-a32916e8a18a","ios":"levelo://app?vid=0f7faeca-f211-4302-91c4-a32916e8a18a"},"vehicle_type_id":"4","last_reported":1745536169,"current_range_meters":8000,"station_id":"ce4bha12rcd13ifvqef0","pricing_plan_id":"cebpf4jnsgd1na2vs0mg"},{"bike_id":"77f21559-ee32-4fe4-927e-b3030a53f1f8","system_id":"levelo_inurba_marseille","lat":43.2516,"lon":5.40392,"is_reserved":false,"is_disabled":false,"rental_uris":{"android":"levelo://app?vid=77f21559-ee32-4fe4-927e-b3030a53f1f8","ios":"levelo://app?vid=77f21559-ee32-4fe4-927e-b3030a53f1f8"},"vehicle_type_id":"4","last_reported":1745536169,"current_range_meters":8000,"station_id":"","pricing_plan_id":"cebpf4jnsgd1na2vs0mg"},{"bike_id":"9e9ac29e-ddf8-4c4b-a948-e817fdf1a76e","system_id":"levelo_inurba_marseille","lat":43.30929,"lon":5.40146,"is_reserved":false,"is_disabled":false,"rental_uris":{"android":"levelo://app?vid=9e9ac29e-ddf8-4c4b-a948-e817fdf1a76e","ios":"levelo://app?vid=9e9ac29e-ddf8-4c4b-a948-e817fdf1a76e"},"vehicle_type_id":"4","last_reported":1745536169,"current_range_meters":8000,"station_id":"ce4bgvp2rcd13ifvqct0","pricing_plan_id":"cebpf4jnsgd1na2vs0mg"},{"bike_id":"727c4dc2-023c-4cbd-98da-8571fbfc0470","system_id":"levelo_inurba_marseille","lat":43.29832,"lon":5.36604,"is_reserved":false,"is_disabled":false,"rental_uris":{"android":"levelo://app?vid=727c4dc2-023c-4cbd-98da-8571fbfc0470","ios":"levelo://app?vid=727c4dc2-023c-4cbd-98da-8571fbfc0470"},"vehicle_type_id":"4","last_reported":1745536169,"current_range_meters":8000,"station_id":"ce4bgrh2rcd13ifvqc8g","pricing_plan_id":"cebpf4jnsgd1na2vs0mg"},{"bike_id":"b3094e88-ac74-4f57-b096-b0357aadc63b","system_id":"levelo_inurba_marseille","lat":43.23157,"lon":5.43693,"is_reserved":false,"is_disabled":false,"rental_uris":{"android":"levelo://app?vid=b3094e88-ac74-4f57-b096-b0357aadc63b","ios":"levelo://app?vid=b3094e88-ac74-4f57-b096-b0357aadc63b"},"vehicle_type_id":"4","last_reported":1745536169,"current_range_meters":8000,"station_id":"ce4bhmp2rcd13ifvqgog","pricing_plan_id":"cebpf4jnsgd1na2vs0mg"},{"bike_id":"a008f1ff-620c-4136-b82e-a1a04d36a6b4","system_id":"levelo_inurba_marseille","lat":43.29059,"lon":5.36503,"is_reserved":false,"is_disabled":false,"rental_uris":{"android":"levelo://app?vid=a008f1ff-620c-4136-b82e-a1a04d36a6b4","ios":"levelo://app?vid=a008f1ff-620c-4136-b82e-a1a04d36a6b4"},"vehicle_type_id":"4","last_reported":1745536169,"current_range_meters":8000,"station_id":"","pricing_plan_id":"cebpf4jnsgd1na2vs0mg"},{"bike_id":"9ddf38d5-8fa0-4514-8a2a-be13bb7bf03b","system_id":"levelo_inurba_marseille","lat":43.2466,"lon":5.38164,"is_reserved":false,"is_disabled":false,"rental_uris":{"android":"levelo://app?vid=9ddf38d5-8fa0-4514-8a2a-be13bb7bf03b","ios":"levelo://app?vid=9ddf38d5-8fa0-4514-8a2a-be13bb7bf03b"},"vehicle_type_id":"4","last_reported":1745536169,"current_range_meters":8000,"station_id":"ce4bhih2rcd13ifvqfr0","pricing_plan_id":"cebpf4jnsgd1na2vs0mg"},{"bike_id":"527053e2-9aa9-4e0c-851f-aa8cfdcac958","system_id":"levelo_inurba_marseille","lat":43.31978,"lon":5.38129,"is_reserved":false,"is_disabled":false,"rental_uris":{"android":"levelo://app?vid=527053e2-9aa9-4e0c-851f-aa8cfdcac958","ios":"levelo://app?vid=527053e2-9aa9-4e0c-851f-aa8cfdcac958"},"vehicle_type_id":"4","last_reported":1745536169,"current_range_meters":8400,"station_id":"ce4bhr12rcd13ifvqhpg","pricing_plan_id":"cebpf4jnsgd1na2vs0mg"},{"bike_id":"3410bbbd-dfd3-4304-821e-de300d8c1cce","system_id":"levelo_inurba_marseille","lat":43.3372,"lon":5.39198,"is_reserved":false,"is_disabled":false,"rental_uris":{"android":"levelo://app?vid=3410bbbd-dfd3-4304-821e-de300d8c1cce","ios":"levelo://app?vid=3410bbbd-dfd3-4304-821e-de300d8c1cce"},"vehicle_type_id":"4","last_reported":1745536169,"current_range_meters":8400,"station_id":"ce4bhr92rcd13ifvqhsg","pricing_plan_id":"cebpf4jnsgd1na2vs0mg"},{"bike_id":"e5e6387e-799d-49f8-9caa-4061ff31ee68","system_id":"levelo_inurba_marseille","lat":43.22503,"lon":5.34777,"is_reserved":false,"is_disabled":false,"rental_uris":{"android":"levelo://app?vid=e5e6387e-799d-49f8-9caa-4061ff31ee68","ios":"levelo://app?vid=e5e6387e-799d-49f8-9caa-4061ff31ee68"},"vehicle_type_id":"4","last_reported":1745536169,"current_range_meters":8400,"station_id":"st_cvj5dfep6f1abm77gieg","pricing_plan_id":"cebpf4jnsgd1na2vs0mg"},{"bike_id":"7d644630-fd82-47fb-aa53-499da9988b8f","system_id":"levelo_inurba_marseille","lat":43.24677,"lon":5.38156,"is_reserved":false,"is_disabled":false,"rental_uris":{"android":"levelo://app?vid=7d644630-fd82-47fb-aa53-499da9988b8f","ios":"levelo://app?vid=7d644630-fd82-47fb-aa53-499da9988b8f"},"vehicle_type_id":"4","last_reported":1745536169,"current_range_meters":8400,"station_id":"ce4bhih2rcd13ifvqfr0","pricing_plan_id":"cebpf4jnsgd1na2vs0mg"},{"bike_id":"7258c5f1-beb2-4c9f-8f52-f09c6b8e693d","system_id":"levelo_inurba_marseille","lat":43.303742,"lon":5.424868,"is_reserved":false,"is_disabled":false,"rental_uris":{"android":"levelo://app?vid=7258c5f1-beb2-4c9f-8f52-f09c6b8e693d","ios":"levelo://app?vid=7258c5f1-beb2-4c9f-8f52-f09c6b8e693d"},"vehicle_type_id":"4","last_reported":1745536169,"current_range_meters":8400,"station_id":"ce4bhoh2rcd13ifvqh6g","pricing_plan_id":"cebpf4jnsgd1na2vs0mg"},{"bike_id":"3d193f16-cbfb-4635-8fcf-1164d62cfc64","system_id":"levelo_inurba_marseille","lat":43.30881,"lon":5.39633,"is_reserved":false,"is_disabled":true,"rental_uris":{"android":"levelo://app?vid=3d193f16-cbfb-4635-8fcf-1164d62cfc64","ios":"levelo://app?vid=3d193f16-cbfb-4635-8fcf-1164d62cfc64"},"vehicle_type_id":"4","last_reported":1745536169,"current_range_meters":8400,"station_id":"ce4bh012rcd13ifvqcv0","pricing_plan_id":"cebpf4jnsgd1na2vs0mg"},{"bike_id":"94175c55-a1b8-454e-8864-a4f590effe31","system_id":"levelo_inurba_marseille","lat":43.32338,"lon":5.38877,"is_reserved":false,"is_disabled":false,"rental_uris":{"android":"levelo://app?vid=94175c55-a1b8-454e-8864-a4f590effe31","ios":"levelo://app?vid=94175c55-a1b8-454e-8864-a4f590effe31"},"vehicle_type_id":"4","last_reported":1745536169,"current_range_meters":8400,"station_id":"ce4bhqp2rcd13ifvqhog","pricing_plan_id":"cebpf4jnsgd1na2vs0mg"},{"bike_id":"d4246204-066f-4661-9f6c-f6d973fa9f01","system_id":"levelo_inurba_marseille","lat":43.29574,"lon":5.39965,"is_reserved":false,"is_disabled":false,"rental_uris":{"android":"levelo://app?vid=d4246204-066f-4661-9f6c-f6d973fa9f01","ios":"levelo://app?vid=d4246204-066f-4661-9f6c-f6d973fa9f01"},"vehicle_type_id":"4","last_reported":1745536169,"current_range_meters":8400,"station_id":"ce4bh312rcd13ifvqdj0","pricing_plan_id":"cebpf4jnsgd1na2vs0mg"},{"bike_id":"2490c850-e8ad-49d1-8887-b8f9d6b59f38","system_id":"levelo_inurba_marseille","lat":43.23197,"lon":5.3999,"is_reserved":false,"is_disabled":true,"rental_uris":{"android":"levelo://app?vid=2490c850-e8ad-49d1-8887-b8f9d6b59f38","ios":"levelo://app?vid=2490c850-e8ad-49d1-8887-b8f9d6b59f38"},"vehicle_type_id":"4","last_reported":1745536169,"current_range_meters":8400,"station_id":"ce4bhn12rcd13ifvqgqg","pricing_plan_id":"cebpf4jnsgd1na2vs0mg"},{"bike_id":"99862305-32a2-444d-8334-228f5792e221","system_id":"levelo_inurba_marseille","lat":43.29288,"lon":5.36837,"is_reserved":false,"is_disabled":true,"rental_uris":{"android":"levelo://app?vid=99862305-32a2-444d-8334-228f5792e221","ios":"levelo://app?vid=99862305-32a2-444d-8334-228f5792e221"},"vehicle_type_id":"4","last_reported":1745536169,"current_range_meters":8400,"station_id":"ce4bhbp2rcd13ifvqesg","pricing_plan_id":"cebpf4jnsgd1na2vs0mg"},{"bike_id":"bd0c2e9e-2445-40e7-b282-79b710fbc623","system_id":"levelo_inurba_marseille","lat":43.23197,"lon":5.39972,"is_reserved":false,"is_disabled":false,"rental_uris":{"android":"levelo://app?vid=bd0c2e9e-2445-40e7-b282-79b710fbc623","ios":"levelo://app?vid=bd0c2e9e-2445-40e7-b282-79b710fbc623"},"vehicle_type_id":"4","last_reported":1745536169,"current_range_meters":8800,"station_id":"ce4bhn12rcd13ifvqgqg","pricing_plan_id":"cebpf4jnsgd1na2vs0mg"},{"bike_id":"585743af-5fa8-4b3f-9f0e-5c5f2147efb7","system_id":"levelo_inurba_marseille","lat":43.28868,"lon":5.39296,"is_reserved":false,"is_disabled":false,"rental_uris":{"android":"levelo://app?vid=585743af-5fa8-4b3f-9f0e-5c5f2147efb7","ios":"levelo://app?vid=585743af-5fa8-4b3f-9f0e-5c5f2147efb7"},"vehicle_type_id":"4","last_reported":1745536169,"current_range_meters":8800,"station_id":"ce4bh2p2rcd13ifvqdi0","pricing_plan_id":"cebpf4jnsgd1na2vs0mg"},{"bike_id":"d3db07f4-47fc-48d6-9e8c-2b6f1d33531b","system_id":"levelo_inurba_marseille","lat":43.29788,"lon":5.39341,"is_reserved":false,"is_disabled":false,"rental_uris":{"android":"levelo://app?vid=d3db07f4-47fc-48d6-9e8c-2b6f1d33531b","ios":"levelo://app?vid=d3db07f4-47fc-48d6-9e8c-2b6f1d33531b"},"vehicle_type_id":"4","last_reported":1745536169,"current_range_meters":8800,"station_id":"chh1huq6cuj3fo74tm60","pricing_plan_id":"cebpf4jnsgd1na2vs0mg"},{"bike_id":"18321386-6007-41d7-a392-599343c03345","system_id":"levelo_inurba_marseille","lat":43.31371,"lon":5.38497,"is_reserved":false,"is_disabled":true,"rental_uris":{"android":"levelo://app?vid=18321386-6007-41d7-a392-599343c03345","ios":"levelo://app?vid=18321386-6007-41d7-a392-599343c03345"},"vehicle_type_id":"4","last_reported":1745536169,"current_range_meters":8800,"station_id":"ce4bgt92rcd13ifvqcf0","pricing_plan_id":"cebpf4jnsgd1na2vs0mg"},{"bike_id":"2f896c11-50a3-4a5c-98ac-90d0c176d668","system_id":"levelo_inurba_marseille","lat":43.24039,"lon":5.37739,"is_reserved":false,"is_disabled":false,"rental_uris":{"android":"levelo://app?vid=2f896c11-50a3-4a5c-98ac-90d0c176d668","ios":"levelo://app?vid=2f896c11-50a3-4a5c-98ac-90d0c176d668"},"vehicle_type_id":"4","last_reported":1745536169,"current_range_meters":8800,"station_id":"ce4bhnp2rcd13ifvqgvg","pricing_plan_id":"cebpf4jnsgd1na2vs0mg"},{"bike_id":"fa072638-79d4-42b6-a779-d7bc984e3de1","system_id":"levelo_inurba_marseille","lat":43.23181,"lon":5.39966,"is_reserved":false,"is_disabled":false,"rental_uris":{"android":"levelo://app?vid=fa072638-79d4-42b6-a779-d7bc984e3de1","ios":"levelo://app?vid=fa072638-79d4-42b6-a779-d7bc984e3de1"},"vehicle_type_id":"4","last_reported":1745536169,"current_range_meters":8800,"station_id":"ce4bhn12rcd13ifvqgqg","pricing_plan_id":"cebpf4jnsgd1na2vs0mg"},{"bike_id":"44c0201e-c9f3-4ec8-9f19-45cfbbe2ef08","system_id":"levelo_inurba_marseille","lat":43.25513,"lon":5.37647,"is_reserved":false,"is_disabled":false,"rental_uris":{"android":"levelo://app?vid=44c0201e-c9f3-4ec8-9f19-45cfbbe2ef08","ios":"levelo://app?vid=44c0201e-c9f3-4ec8-9f19-45cfbbe2ef08"},"vehicle_type_id":"4","last_reported":1745536169,"current_range_meters":8800,"station_id":"ce4bhh12rcd13ifvqff0","pricing_plan_id":"cebpf4jnsgd1na2vs0mg"},{"bike_id":"eb772212-defc-4543-ad57-fa606af571fb","system_id":"levelo_inurba_marseille","lat":43.23199,"lon":5.39963,"is_reserved":false,"is_disabled":false,"rental_uris":{"android":"levelo://app?vid=eb772212-defc-4543-ad57-fa606af571fb","ios":"levelo://app?vid=eb772212-defc-4543-ad57-fa606af571fb"},"vehicle_type_id":"4","last_reported":1745536169,"current_range_meters":8800,"station_id":"ce4bhn12rcd13ifvqgqg","pricing_plan_id":"cebpf4jnsgd1na2vs0mg"},{"bike_id":"562436ce-5c87-4a40-bf0c-e42d00d23dad","system_id":"levelo_inurba_marseille","lat":43.25114,"lon":5.4032,"is_reserved":false,"is_disabled":false,"rental_uris":{"android":"levelo://app?vid=562436ce-5c87-4a40-bf0c-e42d00d23dad","ios":"levelo://app?vid=562436ce-5c87-4a40-bf0c-e42d00d23dad"},"vehicle_type_id":"4","last_reported":1745536169,"current_range_meters":8800,"station_id":"ce4bhlh2rcd13ifvqgig","pricing_plan_id":"cebpf4jnsgd1na2vs0mg"},{"bike_id":"0013966c-ef97-46fc-a9b6-b1eb056f8ad3","system_id":"levelo_inurba_marseille","lat":43.24079,"lon":5.3774,"is_reserved":false,"is_disabled":false,"rental_uris":{"android":"levelo://app?vid=0013966c-ef97-46fc-a9b6-b1eb056f8ad3","ios":"levelo://app?vid=0013966c-ef97-46fc-a9b6-b1eb056f8ad3"},"vehicle_type_id":"4","last_reported":1745536169,"current_range_meters":9200,"station_id":"ce4bhnp2rcd13ifvqgvg","pricing_plan_id":"cebpf4jnsgd1na2vs0mg"},{"bike_id":"f8508138-549e-433a-8453-b2185a87c792","system_id":"levelo_inurba_marseille","lat":43.30264,"lon":5.40071,"is_reserved":false,"is_disabled":false,"rental_uris":{"android":"levelo://app?vid=f8508138-549e-433a-8453-b2185a87c792","ios":"levelo://app?vid=f8508138-549e-433a-8453-b2185a87c792"},"vehicle_type_id":"4","last_reported":1745536169,"current_range_meters":9200,"station_id":"ce4bgvh2rcd13ifvqcs0","pricing_plan_id":"cebpf4jnsgd1na2vs0mg"},{"bike_id":"2e711844-fbad-4793-9dd5-d343f633f8e6","system_id":"levelo_inurba_marseille","lat":43.30666,"lon":5.401,"is_reserved":false,"is_disabled":false,"rental_uris":{"android":"levelo://app?vid=2e711844-fbad-4793-9dd5-d343f633f8e6","ios":"levelo://app?vid=2e711844-fbad-4793-9dd5-d343f633f8e6"},"vehicle_type_id":"4","last_reported":1745536169,"current_range_meters":9200,"station_id":"ce4bh112rcd13ifvqda0","pricing_plan_id":"cebpf4jnsgd1na2vs0mg"},{"bike_id":"f742e759-6e98-4553-96e1-e1964ee51b8f","system_id":"levelo_inurba_marseille","lat":43.3078,"lon":5.43473,"is_reserved":false,"is_disabled":false,"rental_uris":{"android":"levelo://app?vid=f742e759-6e98-4553-96e1-e1964ee51b8f","ios":"levelo://app?vid=f742e759-6e98-4553-96e1-e1964ee51b8f"},"vehicle_type_id":"4","last_reported":1745536169,"current_range_meters":9200,"station_id":"","pricing_plan_id":"cebpf4jnsgd1na2vs0mg"},{"bike_id":"2a05f469-c3f8-49aa-af21-395149582521","system_id":"levelo_inurba_marseille","lat":43.30141,"lon":5.38783,"is_reserved":false,"is_disabled":false,"rental_uris":{"android":"levelo://app?vid=2a05f469-c3f8-49aa-af21-395149582521","ios":"levelo://app?vid=2a05f469-c3f8-49aa-af21-395149582521"},"vehicle_type_id":"4","last_reported":1745536169,"current_range_meters":9200,"station_id":"ce4bghh2rcd13ifvqb60","pricing_plan_id":"cebpf4jnsgd1na2vs0mg"},{"bike_id":"ef111c66-4b3c-4341-9cc0-1374d7aece31","system_id":"levelo_inurba_marseille","lat":43.2806,"lon":5.40875,"is_reserved":false,"is_disabled":false,"rental_uris":{"android":"levelo://app?vid=ef111c66-4b3c-4341-9cc0-1374d7aece31","ios":"levelo://app?vid=ef111c66-4b3c-4341-9cc0-1374d7aece31"},"vehicle_type_id":"4","last_reported":1745536169,"current_range_meters":9200,"station_id":"","pricing_plan_id":"cebpf4jnsgd1na2vs0mg"},{"bike_id":"5d2abb40-1055-4bea-8f21-3325c3f95afa","system_id":"levelo_inurba_marseille","lat":43.28708,"lon":5.39986,"is_reserved":false,"is_disabled":false,"rental_uris":{"android":"levelo://app?vid=5d2abb40-1055-4bea-8f21-3325c3f95afa","ios":"levelo://app?vid=5d2abb40-1055-4bea-8f21-3325c3f95afa"},"vehicle_type_id":"4","last_reported":1745536169,"current_range_meters":8800,"station_id":"ce4bho92rcd13ifvqh3g","pricing_plan_id":"cebpf4jnsgd1na2vs0mg"},{"bike_id":"4959620f-bcf8-47e6-be19-b230de6ed982","system_id":"levelo_inurba_marseille","lat":43.30366,"lon":5.39796,"is_reserved":false,"is_disabled":false,"rental_uris":{"android":"levelo://app?vid=4959620f-bcf8-47e6-be19-b230de6ed982","ios":"levelo://app?vid=4959620f-bcf8-47e6-be19-b230de6ed982"},"vehicle_type_id":"4","last_reported":1745536169,"current_range_meters":9200,"station_id":"ce4bh092rcd13ifvqd20","pricing_plan_id":"cebpf4jnsgd1na2vs0mg"},{"bike_id":"8bf7bae2-66cf-41b0-94df-d1c78d2e8a1a","system_id":"levelo_inurba_marseille","lat":43.24072,"lon":5.37766,"is_reserved":false,"is_disabled":false,"rental_uris":{"android":"levelo://app?vid=8bf7bae2-66cf-41b0-94df-d1c78d2e8a1a","ios":"levelo://app?vid=8bf7bae2-66cf-41b0-94df-d1c78d2e8a1a"},"vehicle_type_id":"4","last_reported":1745536169,"current_range_meters":9200,"station_id":"ce4bhnp2rcd13ifvqgvg","pricing_plan_id":"cebpf4jnsgd1na2vs0mg"},{"bike_id":"1f0e2064-6a22-4a04-a424-9055451e5d56","system_id":"levelo_inurba_marseille","lat":43.28453,"lon":5.35891,"is_reserved":false,"is_disabled":false,"rental_uris":{"android":"levelo://app?vid=1f0e2064-6a22-4a04-a424-9055451e5d56","ios":"levelo://app?vid=1f0e2064-6a22-4a04-a424-9055451e5d56"},"vehicle_type_id":"4","last_reported":1745536169,"current_range_meters":9200,"station_id":"ce4bhah2rcd13ifvqei0","pricing_plan_id":"cebpf4jnsgd1na2vs0mg"},{"bike_id":"46374c49-3adc-4c5a-8966-e00f056c0d57","system_id":"levelo_inurba_marseille","lat":43.27846,"lon":5.35442,"is_reserved":false,"is_disabled":false,"rental_uris":{"android":"levelo://app?vid=46374c49-3adc-4c5a-8966-e00f056c0d57","ios":"levelo://app?vid=46374c49-3adc-4c5a-8966-e00f056c0d57"},"vehicle_type_id":"4","last_reported":1745536169,"current_range_meters":9600,"station_id":"","pricing_plan_id":"cebpf4jnsgd1na2vs0mg"},{"bike_id":"2be10731-8ce4-43aa-8e08-ba7599acd288","system_id":"levelo_inurba_marseille","lat":43.28723,"lon":5.39984,"is_reserved":false,"is_disabled":false,"rental_uris":{"android":"levelo://app?vid=2be10731-8ce4-43aa-8e08-ba7599acd288","ios":"levelo://app?vid=2be10731-8ce4-43aa-8e08-ba7599acd288"},"vehicle_type_id":"4","last_reported":1745536169,"current_range_meters":9600,"station_id":"ce4bho92rcd13ifvqh3g","pricing_plan_id":"cebpf4jnsgd1na2vs0mg"},{"bike_id":"af241898-2140-4d7a-813d-94d77b609dfc","system_id":"levelo_inurba_marseille","lat":43.30139,"lon":5.39857,"is_reserved":false,"is_disabled":false,"rental_uris":{"android":"levelo://app?vid=af241898-2140-4d7a-813d-94d77b609dfc","ios":"levelo://app?vid=af241898-2140-4d7a-813d-94d77b609dfc"},"vehicle_type_id":"4","last_reported":1745536169,"current_range_meters":9600,"station_id":"ce4bh0h2rcd13ifvqd40","pricing_plan_id":"cebpf4jnsgd1na2vs0mg"},{"bike_id":"c9e91005-4216-4d09-9085-840e279facd4","system_id":"levelo_inurba_marseille","lat":43.3059,"lon":5.39352,"is_reserved":false,"is_disabled":false,"rental_uris":{"android":"levelo://app?vid=c9e91005-4216-4d09-9085-840e279facd4","ios":"levelo://app?vid=c9e91005-4216-4d09-9085-840e279facd4"},"vehicle_type_id":"4","last_reported":1745536169,"current_range_meters":9600,"station_id":"ce4bh0p2rcd13ifvqd80","pricing_plan_id":"cebpf4jnsgd1na2vs0mg"},{"bike_id":"a782935d-4033-4cb7-88e4-1de395b5da7f","system_id":"levelo_inurba_marseille","lat":43.28473,"lon":5.38422,"is_reserved":false,"is_disabled":false,"rental_uris":{"android":"levelo://app?vid=a782935d-4033-4cb7-88e4-1de395b5da7f","ios":"levelo://app?vid=a782935d-4033-4cb7-88e4-1de395b5da7f"},"vehicle_type_id":"4","last_reported":1745536169,"current_range_meters":10000,"station_id":"ce4bh512rcd13ifvqe3g","pricing_plan_id":"cebpf4jnsgd1na2vs0mg"},{"bike_id":"d4b6329f-e983-416a-8804-3a05de7c5c23","system_id":"levelo_inurba_marseille","lat":43.30733,"lon":5.42437,"is_reserved":false,"is_disabled":false,"rental_uris":{"android":"levelo://app?vid=d4b6329f-e983-416a-8804-3a05de7c5c23","ios":"levelo://app?vid=d4b6329f-e983-416a-8804-3a05de7c5c23"},"vehicle_type_id":"4","last_reported":1745536169,"current_range_meters":10000,"station_id":"st_cvj6ca6bvosntc0bfgr0","pricing_plan_id":"cebpf4jnsgd1na2vs0mg"},{"bike_id":"d153f1cb-6266-4ff1-8ed8-74d61fe12ea2","system_id":"levelo_inurba_marseille","lat":43.31169,"lon":5.38719,"is_reserved":false,"is_disabled":false,"rental_uris":{"android":"levelo://app?vid=d153f1cb-6266-4ff1-8ed8-74d61fe12ea2","ios":"levelo://app?vid=d153f1cb-6266-4ff1-8ed8-74d61fe12ea2"},"vehicle_type_id":"4","last_reported":1745536169,"current_range_meters":10000,"station_id":"ce4bgv12rcd13ifvqcp0","pricing_plan_id":"cebpf4jnsgd1na2vs0mg"},{"bike_id":"bedade63-bc4a-4006-b6db-8acc7942074c","system_id":"levelo_inurba_marseille","lat":43.30824,"lon":5.38162,"is_reserved":false,"is_disabled":false,"rental_uris":{"android":"levelo://app?vid=bedade63-bc4a-4006-b6db-8acc7942074c","ios":"levelo://app?vid=bedade63-bc4a-4006-b6db-8acc7942074c"},"vehicle_type_id":"4","last_reported":1745536169,"current_range_meters":10000,"station_id":"ce4bgt12rcd13ifvqce0","pricing_plan_id":"cebpf4jnsgd1na2vs0mg"},{"bike_id":"595496d7-3f92-4024-95c6-276b9d9ef539","system_id":"levelo_inurba_marseille","lat":43.30283,"lon":5.39668,"is_reserved":false,"is_disabled":false,"rental_uris":{"android":"levelo://app?vid=595496d7-3f92-4024-95c6-276b9d9ef539","ios":"levelo://app?vid=595496d7-3f92-4024-95c6-276b9d9ef539"},"vehicle_type_id":"4","last_reported":1745536169,"current_range_meters":10800,"station_id":"ce4bhq12rcd13ifvqhig","pricing_plan_id":"cebpf4jnsgd1na2vs0mg"},{"bike_id":"6dbfc9d1-df46-41a1-8e24-30aaeca4e7e6","system_id":"levelo_inurba_marseille","lat":43.23974,"lon":5.36624,"is_reserved":false,"is_disabled":false,"rental_uris":{"android":"levelo://app?vid=6dbfc9d1-df46-41a1-8e24-30aaeca4e7e6","ios":"levelo://app?vid=6dbfc9d1-df46-41a1-8e24-30aaeca4e7e6"},"vehicle_type_id":"4","last_reported":1745536169,"current_range_meters":10800,"station_id":"ce4bhi12rcd13ifvqfp0","pricing_plan_id":"cebpf4jnsgd1na2vs0mg"},{"bike_id":"a3272eaa-e99a-4ec7-833d-f746a399c6cb","system_id":"levelo_inurba_marseille","lat":43.28112,"lon":5.3784,"is_reserved":false,"is_disabled":false,"rental_uris":{"android":"levelo://app?vid=a3272eaa-e99a-4ec7-833d-f746a399c6cb","ios":"levelo://app?vid=a3272eaa-e99a-4ec7-833d-f746a399c6cb"},"vehicle_type_id":"4","last_reported":1745536169,"current_range_meters":10800,"station_id":"ce4bha12rcd13ifvqee0","pricing_plan_id":"cebpf4jnsgd1na2vs0mg"},{"bike_id":"3f4fffef-9d06-4513-a8be-a4167b14ccb8","system_id":"levelo_inurba_marseille","lat":43.30978,"lon":5.3714,"is_reserved":false,"is_disabled":false,"rental_uris":{"android":"levelo://app?vid=3f4fffef-9d06-4513-a8be-a4167b14ccb8","ios":"levelo://app?vid=3f4fffef-9d06-4513-a8be-a4167b14ccb8"},"vehicle_type_id":"4","last_reported":1745536169,"current_range_meters":10800,"station_id":"","pricing_plan_id":"cebpf4jnsgd1na2vs0mg"},{"bike_id":"951e4c5a-ed4b-4956-a7e2-d787fd79df17","system_id":"levelo_inurba_marseille","lat":43.31186,"lon":5.40767,"is_reserved":false,"is_disabled":false,"rental_uris":{"android":"levelo://app?vid=951e4c5a-ed4b-4956-a7e2-d787fd79df17","ios":"levelo://app?vid=951e4c5a-ed4b-4956-a7e2-d787fd79df17"},"vehicle_type_id":"4","last_reported":1745536169,"current_range_meters":10800,"station_id":"","pricing_plan_id":"cebpf4jnsgd1na2vs0mg"},{"bike_id":"876d5332-3f24-4f4c-a2df-bbb3dde6cb6e","system_id":"levelo_inurba_marseille","lat":43.2846,"lon":5.35888,"is_reserved":false,"is_disabled":false,"rental_uris":{"android":"levelo://app?vid=876d5332-3f24-4f4c-a2df-bbb3dde6cb6e","ios":"levelo://app?vid=876d5332-3f24-4f4c-a2df-bbb3dde6cb6e"},"vehicle_type_id":"4","last_reported":1745536169,"current_range_meters":10800,"station_id":"ce4bhah2rcd13ifvqei0","pricing_plan_id":"cebpf4jnsgd1na2vs0mg"},{"bike_id":"2a112877-49f5-46fa-8cde-0cd4528c281e","system_id":"levelo_inurba_marseille","lat":43.28077,"lon":5.39653,"is_reserved":false,"is_disabled":false,"rental_uris":{"android":"levelo://app?vid=2a112877-49f5-46fa-8cde-0cd4528c281e","ios":"levelo://app?vid=2a112877-49f5-46fa-8cde-0cd4528c281e"},"vehicle_type_id":"4","last_reported":1745536169,"current_range_meters":10000,"station_id":"ce4bho12rcd13ifvqh2g","pricing_plan_id":"cebpf4jnsgd1na2vs0mg"},{"bike_id":"6b0d1ec6-0d77-4bd1-9dce-9054c2481ed1","system_id":"levelo_inurba_marseille","lat":43.243838,"lon":5.370499,"is_reserved":false,"is_disabled":false,"rental_uris":{"android":"levelo://app?vid=6b0d1ec6-0d77-4bd1-9dce-9054c2481ed1","ios":"levelo://app?vid=6b0d1ec6-0d77-4bd1-9dce-9054c2481ed1"},"vehicle_type_id":"4","last_reported":1745536169,"current_range_meters":10800,"station_id":"ce4bhhh2rcd13ifvqfk0","pricing_plan_id":"cebpf4jnsgd1na2vs0mg"},{"bike_id":"d4a8fafa-88a7-48bf-b5a7-839e5bc03db8","system_id":"levelo_inurba_marseille","lat":43.25025,"lon":5.38911,"is_reserved":false,"is_disabled":true,"rental_uris":{"android":"levelo://app?vid=d4a8fafa-88a7-48bf-b5a7-839e5bc03db8","ios":"levelo://app?vid=d4a8fafa-88a7-48bf-b5a7-839e5bc03db8"},"vehicle_type_id":"4","last_reported":1745536169,"current_range_meters":10800,"station_id":"ce4bhgp2rcd13ifvqfd0","pricing_plan_id":"cebpf4jnsgd1na2vs0mg"},{"bike_id":"fb04ba1b-a618-4d5d-afbb-040b0e3bf244","system_id":"levelo_inurba_marseille","lat":43.28413,"lon":5.37539,"is_reserved":false,"is_disabled":false,"rental_uris":{"android":"levelo://app?vid=fb04ba1b-a618-4d5d-afbb-040b0e3bf244","ios":"levelo://app?vid=fb04ba1b-a618-4d5d-afbb-040b0e3bf244"},"vehicle_type_id":"4","last_reported":1745536169,"current_range_meters":11200,"station_id":"ce4bh412rcd13ifvqds0","pricing_plan_id":"cebpf4jnsgd1na2vs0mg"},{"bike_id":"d8840801-a52a-4c7c-9a2d-3e5f8bcef267","system_id":"levelo_inurba_marseille","lat":43.27996,"lon":5.36938,"is_reserved":false,"is_disabled":false,"rental_uris":{"android":"levelo://app?vid=d8840801-a52a-4c7c-9a2d-3e5f8bcef267","ios":"levelo://app?vid=d8840801-a52a-4c7c-9a2d-3e5f8bcef267"},"vehicle_type_id":"4","last_reported":1745536169,"current_range_meters":11200,"station_id":"ce4bha12rcd13ifvqef0","pricing_plan_id":"cebpf4jnsgd1na2vs0mg"},{"bike_id":"3a41a14b-b60d-411c-aa4a-3b7d3df773ad","system_id":"levelo_inurba_marseille","lat":43.30209,"lon":5.36612,"is_reserved":false,"is_disabled":true,"rental_uris":{"android":"levelo://app?vid=3a41a14b-b60d-411c-aa4a-3b7d3df773ad","ios":"levelo://app?vid=3a41a14b-b60d-411c-aa4a-3b7d3df773ad"},"vehicle_type_id":"4","last_reported":1745536169,"current_range_meters":11200,"station_id":"ce4bgrh2rcd13ifvqc8g","pricing_plan_id":"cebpf4jnsgd1na2vs0mg"},{"bike_id":"c4b0ce6f-4913-48c0-94af-255f0c5af339","system_id":"levelo_inurba_marseille","lat":43.24544,"lon":5.39513,"is_reserved":false,"is_disabled":false,"rental_uris":{"android":"levelo://app?vid=c4b0ce6f-4913-48c0-94af-255f0c5af339","ios":"levelo://app?vid=c4b0ce6f-4913-48c0-94af-255f0c5af339"},"vehicle_type_id":"4","last_reported":1745536169,"current_range_meters":11200,"station_id":"ce4bhlp2rcd13ifvqgjg","pricing_plan_id":"cebpf4jnsgd1na2vs0mg"},{"bike_id":"3bf304c4-0f32-4950-aa04-536cd5de2f7c","system_id":"levelo_inurba_marseille","lat":43.29267,"lon":5.40151,"is_reserved":false,"is_disabled":false,"rental_uris":{"android":"levelo://app?vid=3bf304c4-0f32-4950-aa04-536cd5de2f7c","ios":"levelo://app?vid=3bf304c4-0f32-4950-aa04-536cd5de2f7c"},"vehicle_type_id":"4","last_reported":1745536169,"current_range_meters":11200,"station_id":"ce4bh312rcd13ifvqdk0","pricing_plan_id":"cebpf4jnsgd1na2vs0mg"},{"bike_id":"84c51a55-47b7-4b91-88f0-0d5a084f2e8f","system_id":"levelo_inurba_marseille","lat":43.28056,"lon":5.36942,"is_reserved":false,"is_disabled":false,"rental_uris":{"android":"levelo://app?vid=84c51a55-47b7-4b91-88f0-0d5a084f2e8f","ios":"levelo://app?vid=84c51a55-47b7-4b91-88f0-0d5a084f2e8f"},"vehicle_type_id":"4","last_reported":1745536169,"current_range_meters":11600,"station_id":"ce4bha12rcd13ifvqef0","pricing_plan_id":"cebpf4jnsgd1na2vs0mg"},{"bike_id":"0dda94fb-9170-4875-8359-bea4e070de18","system_id":"levelo_inurba_marseille","lat":43.29559,"lon":5.42286,"is_reserved":false,"is_disabled":false,"rental_uris":{"android":"levelo://app?vid=0dda94fb-9170-4875-8359-bea4e070de18","ios":"levelo://app?vid=0dda94fb-9170-4875-8359-bea4e070de18"},"vehicle_type_id":"4","last_reported":1745536169,"current_range_meters":11600,"station_id":"ce4bhph2rcd13ifvqhdg","pricing_plan_id":"cebpf4jnsgd1na2vs0mg"},{"bike_id":"88e2dd5f-f949-4516-91ed-5a6fdf0bad0b","system_id":"levelo_inurba_marseille","lat":43.25861,"lon":5.39902,"is_reserved":false,"is_disabled":false,"rental_uris":{"android":"levelo://app?vid=88e2dd5f-f949-4516-91ed-5a6fdf0bad0b","ios":"levelo://app?vid=88e2dd5f-f949-4516-91ed-5a6fdf0bad0b"},"vehicle_type_id":"4","last_reported":1745536169,"current_range_meters":11200,"station_id":"ce4bhl92rcd13ifvqghg","pricing_plan_id":"cebpf4jnsgd1na2vs0mg"},{"bike_id":"2d9c5985-7776-4299-a4d9-7a0b1ba90afd","system_id":"levelo_inurba_marseille","lat":43.27373,"lon":5.36244,"is_reserved":false,"is_disabled":false,"rental_uris":{"android":"levelo://app?vid=2d9c5985-7776-4299-a4d9-7a0b1ba90afd","ios":"levelo://app?vid=2d9c5985-7776-4299-a4d9-7a0b1ba90afd"},"vehicle_type_id":"4","last_reported":1745536169,"current_range_meters":11600,"station_id":"ce4bhbh2rcd13ifvqeo0","pricing_plan_id":"cebpf4jnsgd1na2vs0mg"},{"bike_id":"9ddf901c-17b7-41a5-ab10-51e5206ab36e","system_id":"levelo_inurba_marseille","lat":43.32993,"lon":5.39051,"is_reserved":false,"is_disabled":false,"rental_uris":{"android":"levelo://app?vid=9ddf901c-17b7-41a5-ab10-51e5206ab36e","ios":"levelo://app?vid=9ddf901c-17b7-41a5-ab10-51e5206ab36e"},"vehicle_type_id":"4","last_reported":1745536169,"current_range_meters":11600,"station_id":"ce4bhr92rcd13ifvqhrg","pricing_plan_id":"cebpf4jnsgd1na2vs0mg"},{"bike_id":"c919a48f-345c-4808-9762-e0f23e8a7f77","system_id":"levelo_inurba_marseille","lat":43.28148,"lon":5.42621,"is_reserved":false,"is_disabled":false,"rental_uris":{"android":"levelo://app?vid=c919a48f-345c-4808-9762-e0f23e8a7f77","ios":"levelo://app?vid=c919a48f-345c-4808-9762-e0f23e8a7f77"},"vehicle_type_id":"4","last_reported":1745536169,"current_range_meters":11600,"station_id":"ce4bhnh2rcd13ifvqgug","pricing_plan_id":"cebpf4jnsgd1na2vs0mg"},{"bike_id":"992f1f37-4eb1-4a56-96ae-7a3fd226f3df","system_id":"levelo_inurba_marseille","lat":43.2811,"lon":5.37849,"is_reserved":false,"is_disabled":false,"rental_uris":{"android":"levelo://app?vid=992f1f37-4eb1-4a56-96ae-7a3fd226f3df","ios":"levelo://app?vid=992f1f37-4eb1-4a56-96ae-7a3fd226f3df"},"vehicle_type_id":"4","last_reported":1745536169,"current_range_meters":11600,"station_id":"ce4bha12rcd13ifvqee0","pricing_plan_id":"cebpf4jnsgd1na2vs0mg"},{"bike_id":"1be0eb9c-f13a-4528-a70c-da833c79b49f","system_id":"levelo_inurba_marseille","lat":43.294,"lon":5.38585,"is_reserved":false,"is_disabled":true,"rental_uris":{"android":"levelo://app?vid=1be0eb9c-f13a-4528-a70c-da833c79b49f","ios":"levelo://app?vid=1be0eb9c-f13a-4528-a70c-da833c79b49f"},"vehicle_type_id":"4","last_reported":1745536169,"current_range_meters":12000,"station_id":"ce4bh2h2rcd13ifvqdh0","pricing_plan_id":"cebpf4jnsgd1na2vs0mg"},{"bike_id":"d3972645-ca3d-41b6-b174-d581a8ff3971","system_id":"levelo_inurba_marseille","lat":43.30349,"lon":5.40428,"is_reserved":false,"is_disabled":false,"rental_uris":{"android":"levelo://app?vid=d3972645-ca3d-41b6-b174-d581a8ff3971","ios":"levelo://app?vid=d3972645-ca3d-41b6-b174-d581a8ff3971"},"vehicle_type_id":"4","last_reported":1745536169,"current_range_meters":12000,"station_id":"ce4bh012rcd13ifvqd10","pricing_plan_id":"cebpf4jnsgd1na2vs0mg"},{"bike_id":"0e945859-fa31-40e1-b139-93bf53b136e5","system_id":"levelo_inurba_marseille","lat":43.29028,"lon":5.38653,"is_reserved":false,"is_disabled":true,"rental_uris":{"android":"levelo://app?vid=0e945859-fa31-40e1-b139-93bf53b136e5","ios":"levelo://app?vid=0e945859-fa31-40e1-b139-93bf53b136e5"},"vehicle_type_id":"4","last_reported":1745536169,"current_range_meters":12400,"station_id":"ce4bh4p2rcd13ifvqe0g","pricing_plan_id":"cebpf4jnsgd1na2vs0mg"},{"bike_id":"532ef09a-51aa-446c-9e3a-65246ec92a4f","system_id":"levelo_inurba_marseille","lat":43.28052,"lon":5.35634,"is_reserved":false,"is_disabled":false,"rental_uris":{"android":"levelo://app?vid=532ef09a-51aa-446c-9e3a-65246ec92a4f","ios":"levelo://app?vid=532ef09a-51aa-446c-9e3a-65246ec92a4f"},"vehicle_type_id":"4","last_reported":1745536169,"current_range_meters":12400,"station_id":"","pricing_plan_id":"cebpf4jnsgd1na2vs0mg"},{"bike_id":"087f4c2b-70a5-495e-8fca-b6559656cd06","system_id":"levelo_inurba_marseille","lat":43.30804,"lon":5.38159,"is_reserved":false,"is_disabled":false,"rental_uris":{"android":"levelo://app?vid=087f4c2b-70a5-495e-8fca-b6559656cd06","ios":"levelo://app?vid=087f4c2b-70a5-495e-8fca-b6559656cd06"},"vehicle_type_id":"4","last_reported":1745536169,"current_range_meters":12000,"station_id":"ce4bgt12rcd13ifvqce0","pricing_plan_id":"cebpf4jnsgd1na2vs0mg"},{"bike_id":"858bb71e-c17e-4421-b73f-aaf6e578fcac","system_id":"levelo_inurba_marseille","lat":43.28431,"lon":5.34976,"is_reserved":false,"is_disabled":false,"rental_uris":{"android":"levelo://app?vid=858bb71e-c17e-4421-b73f-aaf6e578fcac","ios":"levelo://app?vid=858bb71e-c17e-4421-b73f-aaf6e578fcac"},"vehicle_type_id":"4","last_reported":1745536169,"current_range_meters":12400,"station_id":"ce4bhbh2rcd13ifvqepg","pricing_plan_id":"cebpf4jnsgd1na2vs0mg"},{"bike_id":"92d2d932-45de-4dea-a27f-a26ae00fce47","system_id":"levelo_inurba_marseille","lat":43.31996,"lon":5.38137,"is_reserved":false,"is_disabled":false,"rental_uris":{"android":"levelo://app?vid=92d2d932-45de-4dea-a27f-a26ae00fce47","ios":"levelo://app?vid=92d2d932-45de-4dea-a27f-a26ae00fce47"},"vehicle_type_id":"4","last_reported":1745536169,"current_range_meters":12400,"station_id":"ce4bhr12rcd13ifvqhpg","pricing_plan_id":"cebpf4jnsgd1na2vs0mg"},{"bike_id":"e82f0eec-d59f-4eeb-be39-0c35a85f6b3e","system_id":"levelo_inurba_marseille","lat":43.295665,"lon":5.399755,"is_reserved":false,"is_disabled":false,"rental_uris":{"android":"levelo://app?vid=e82f0eec-d59f-4eeb-be39-0c35a85f6b3e","ios":"levelo://app?vid=e82f0eec-d59f-4eeb-be39-0c35a85f6b3e"},"vehicle_type_id":"4","last_reported":1745536169,"current_range_meters":12400,"station_id":"ce4bh312rcd13ifvqdj0","pricing_plan_id":"cebpf4jnsgd1na2vs0mg"},{"bike_id":"c4c09d48-a497-4508-a5ca-b83710fda8ac","system_id":"levelo_inurba_marseille","lat":43.31536,"lon":5.38025,"is_reserved":false,"is_disabled":false,"rental_uris":{"android":"levelo://app?vid=c4c09d48-a497-4508-a5ca-b83710fda8ac","ios":"levelo://app?vid=c4c09d48-a497-4508-a5ca-b83710fda8ac"},"vehicle_type_id":"4","last_reported":1745536169,"current_range_meters":12400,"station_id":"ce4bhsp2rcd13ifvqi50","pricing_plan_id":"cebpf4jnsgd1na2vs0mg"},{"bike_id":"4e02a862-7695-4adf-a8cc-8d0f2895a878","system_id":"levelo_inurba_marseille","lat":43.30532,"lon":5.3844,"is_reserved":false,"is_disabled":false,"rental_uris":{"android":"levelo://app?vid=4e02a862-7695-4adf-a8cc-8d0f2895a878","ios":"levelo://app?vid=4e02a862-7695-4adf-a8cc-8d0f2895a878"},"vehicle_type_id":"4","last_reported":1745536169,"current_range_meters":12800,"station_id":"ce4bgg92rcd13ifvqb30","pricing_plan_id":"cebpf4jnsgd1na2vs0mg"},{"bike_id":"13a03cf4-d84f-423d-b71b-020922e0c702","system_id":"levelo_inurba_marseille","lat":43.28956,"lon":5.3664,"is_reserved":false,"is_disabled":false,"rental_uris":{"android":"levelo://app?vid=13a03cf4-d84f-423d-b71b-020922e0c702","ios":"levelo://app?vid=13a03cf4-d84f-423d-b71b-020922e0c702"},"vehicle_type_id":"4","last_reported":1745536169,"current_range_meters":12800,"station_id":"ce4bhap2rcd13ifvqek0","pricing_plan_id":"cebpf4jnsgd1na2vs0mg"},{"bike_id":"407859f8-ad6e-4706-b576-c01bcdb7c801","system_id":"levelo_inurba_marseille","lat":43.29897,"lon":5.36258,"is_reserved":false,"is_disabled":true,"rental_uris":{"android":"levelo://app?vid=407859f8-ad6e-4706-b576-c01bcdb7c801","ios":"levelo://app?vid=407859f8-ad6e-4706-b576-c01bcdb7c801"},"vehicle_type_id":"4","last_reported":1745536169,"current_range_meters":12800,"station_id":"ce4bgpp2rcd13ifvqc3g","pricing_plan_id":"cebpf4jnsgd1na2vs0mg"},{"bike_id":"99e4a048-e496-4b7b-a21e-b035189fb8ab","system_id":"levelo_inurba_marseille","lat":43.28108,"lon":5.37849,"is_reserved":false,"is_disabled":false,"rental_uris":{"android":"levelo://app?vid=99e4a048-e496-4b7b-a21e-b035189fb8ab","ios":"levelo://app?vid=99e4a048-e496-4b7b-a21e-b035189fb8ab"},"vehicle_type_id":"4","last_reported":1745536169,"current_range_meters":12800,"station_id":"ce4bha12rcd13ifvqee0","pricing_plan_id":"cebpf4jnsgd1na2vs0mg"},{"bike_id":"4c1581de-3ce9-420c-89ec-61bf8766ebc3","system_id":"levelo_inurba_marseille","lat":43.28355,"lon":5.3864,"is_reserved":false,"is_disabled":false,"rental_uris":{"android":"levelo://app?vid=4c1581de-3ce9-420c-89ec-61bf8766ebc3","ios":"levelo://app?vid=4c1581de-3ce9-420c-89ec-61bf8766ebc3"},"vehicle_type_id":"4","last_reported":1745536169,"current_range_meters":12800,"station_id":"ce4bh492rcd13ifvqdvg","pricing_plan_id":"cebpf4jnsgd1na2vs0mg"},{"bike_id":"5ab112dc-d064-40f8-8306-849ee61720fb","system_id":"levelo_inurba_marseille","lat":43.28855,"lon":5.35853,"is_reserved":false,"is_disabled":false,"rental_uris":{"android":"levelo://app?vid=5ab112dc-d064-40f8-8306-849ee61720fb","ios":"levelo://app?vid=5ab112dc-d064-40f8-8306-849ee61720fb"},"vehicle_type_id":"4","last_reported":1745536169,"current_range_meters":13600,"station_id":"ce4bhb12rcd13ifvqem0","pricing_plan_id":"cebpf4jnsgd1na2vs0mg"},{"bike_id":"5c789f5d-9d4e-4062-a713-7cf79eee54e0","system_id":"levelo_inurba_marseille","lat":43.27677,"lon":5.38909,"is_reserved":false,"is_disabled":false,"rental_uris":{"android":"levelo://app?vid=5c789f5d-9d4e-4062-a713-7cf79eee54e0","ios":"levelo://app?vid=5c789f5d-9d4e-4062-a713-7cf79eee54e0"},"vehicle_type_id":"4","last_reported":1745536169,"current_range_meters":13600,"station_id":"ce4bhi12rcd13ifvqfo0","pricing_plan_id":"cebpf4jnsgd1na2vs0mg"},{"bike_id":"2c5dc26f-0571-4ccf-b67f-959013a29cf9","system_id":"levelo_inurba_marseille","lat":43.31763,"lon":5.39024,"is_reserved":false,"is_disabled":false,"rental_uris":{"android":"levelo://app?vid=2c5dc26f-0571-4ccf-b67f-959013a29cf9","ios":"levelo://app?vid=2c5dc26f-0571-4ccf-b67f-959013a29cf9"},"vehicle_type_id":"4","last_reported":1745536169,"current_range_meters":13600,"station_id":"ce4bhqp2rcd13ifvqhng","pricing_plan_id":"cebpf4jnsgd1na2vs0mg"},{"bike_id":"55c8d26c-3501-4da5-bf3f-06ad5305341b","system_id":"levelo_inurba_marseille","lat":43.28101,"lon":5.37855,"is_reserved":false,"is_disabled":true,"rental_uris":{"android":"levelo://app?vid=55c8d26c-3501-4da5-bf3f-06ad5305341b","ios":"levelo://app?vid=55c8d26c-3501-4da5-bf3f-06ad5305341b"},"vehicle_type_id":"4","last_reported":1745536169,"current_range_meters":13600,"station_id":"ce4bha12rcd13ifvqee0","pricing_plan_id":"cebpf4jnsgd1na2vs0mg"},{"bike_id":"ab7e12e1-b299-4ee3-bc78-eb92b7129e53","system_id":"levelo_inurba_marseille","lat":43.29875,"lon":5.39743,"is_reserved":false,"is_disabled":false,"rental_uris":{"android":"levelo://app?vid=ab7e12e1-b299-4ee3-bc78-eb92b7129e53","ios":"levelo://app?vid=ab7e12e1-b299-4ee3-bc78-eb92b7129e53"},"vehicle_type_id":"4","last_reported":1745536169,"current_range_meters":13600,"station_id":"ce4bh0h2rcd13ifvqd50","pricing_plan_id":"cebpf4jnsgd1na2vs0mg"},{"bike_id":"1e41f8c3-3569-4425-a5e9-2dbf9dfee337","system_id":"levelo_inurba_marseille","lat":43.31141,"lon":5.37746,"is_reserved":false,"is_disabled":false,"rental_uris":{"android":"levelo://app?vid=1e41f8c3-3569-4425-a5e9-2dbf9dfee337","ios":"levelo://app?vid=1e41f8c3-3569-4425-a5e9-2dbf9dfee337"},"vehicle_type_id":"4","last_reported":1745536169,"current_range_meters":13600,"station_id":"ce4bgt92rcd13ifvqcg0","pricing_plan_id":"cebpf4jnsgd1na2vs0mg"},{"bike_id":"c47e8f14-b54f-4590-9b1d-c45eba709787","system_id":"levelo_inurba_marseille","lat":43.28111,"lon":5.37852,"is_reserved":false,"is_disabled":false,"rental_uris":{"android":"levelo://app?vid=c47e8f14-b54f-4590-9b1d-c45eba709787","ios":"levelo://app?vid=c47e8f14-b54f-4590-9b1d-c45eba709787"},"vehicle_type_id":"4","last_reported":1745536169,"current_range_meters":13600,"station_id":"ce4bha12rcd13ifvqee0","pricing_plan_id":"cebpf4jnsgd1na2vs0mg"},{"bike_id":"5f34ad22-5e6e-4c21-9523-8c904582233c","system_id":"levelo_inurba_marseille","lat":43.23956,"lon":5.36641,"is_reserved":false,"is_disabled":false,"rental_uris":{"android":"levelo://app?vid=5f34ad22-5e6e-4c21-9523-8c904582233c","ios":"levelo://app?vid=5f34ad22-5e6e-4c21-9523-8c904582233c"},"vehicle_type_id":"4","last_reported":1745536169,"current_range_meters":14000,"station_id":"ce4bhi12rcd13ifvqfp0","pricing_plan_id":"cebpf4jnsgd1na2vs0mg"},{"bike_id":"fa87f18e-33e5-43a8-b571-61486b34ddd5","system_id":"levelo_inurba_marseille","lat":43.31076,"lon":5.38343,"is_reserved":false,"is_disabled":false,"rental_uris":{"android":"levelo://app?vid=fa87f18e-33e5-43a8-b571-61486b34ddd5","ios":"levelo://app?vid=fa87f18e-33e5-43a8-b571-61486b34ddd5"},"vehicle_type_id":"4","last_reported":1745536169,"current_range_meters":14000,"station_id":"ce4bgv92rcd13ifvqcr0","pricing_plan_id":"cebpf4jnsgd1na2vs0mg"},{"bike_id":"24d894ab-7267-4b40-99af-b1bffdb7623b","system_id":"levelo_inurba_marseille","lat":43.30424,"lon":5.41281,"is_reserved":false,"is_disabled":false,"rental_uris":{"android":"levelo://app?vid=24d894ab-7267-4b40-99af-b1bffdb7623b","ios":"levelo://app?vid=24d894ab-7267-4b40-99af-b1bffdb7623b"},"vehicle_type_id":"4","last_reported":1745536169,"current_range_meters":14000,"station_id":"ce4bhop2rcd13ifvqh8g","pricing_plan_id":"cebpf4jnsgd1na2vs0mg"},{"bike_id":"67426bec-1d3c-4292-989f-a44694a33e81","system_id":"levelo_inurba_marseille","lat":43.300893,"lon":5.390916,"is_reserved":false,"is_disabled":true,"rental_uris":{"android":"levelo://app?vid=67426bec-1d3c-4292-989f-a44694a33e81","ios":"levelo://app?vid=67426bec-1d3c-4292-989f-a44694a33e81"},"vehicle_type_id":"4","last_reported":1745536169,"current_range_meters":14000,"station_id":"ce4bh192rcd13ifvqdb0","pricing_plan_id":"cebpf4jnsgd1na2vs0mg"},{"bike_id":"58c4ecbc-397e-46c8-9c4e-0627545bf9fc","system_id":"levelo_inurba_marseille","lat":43.26555,"lon":5.37285,"is_reserved":false,"is_disabled":false,"rental_uris":{"android":"levelo://app?vid=58c4ecbc-397e-46c8-9c4e-0627545bf9fc","ios":"levelo://app?vid=58c4ecbc-397e-46c8-9c4e-0627545bf9fc"},"vehicle_type_id":"4","last_reported":1745536169,"current_range_meters":14000,"station_id":"ce4bhg12rcd13ifvqf70","pricing_plan_id":"cebpf4jnsgd1na2vs0mg"},{"bike_id":"bd95f0bb-c5b1-4d5c-837c-b505e5069d47","system_id":"levelo_inurba_marseille","lat":43.33257,"lon":5.39769,"is_reserved":false,"is_disabled":false,"rental_uris":{"android":"levelo://app?vid=bd95f0bb-c5b1-4d5c-837c-b505e5069d47","ios":"levelo://app?vid=bd95f0bb-c5b1-4d5c-837c-b505e5069d47"},"vehicle_type_id":"4","last_reported":1745536169,"current_range_meters":14000,"station_id":"","pricing_plan_id":"cebpf4jnsgd1na2vs0mg"},{"bike_id":"a568fa29-a48b-47a1-8260-fdcee6709e60","system_id":"levelo_inurba_marseille","lat":43.31492,"lon":5.37303,"is_reserved":false,"is_disabled":false,"rental_uris":{"android":"levelo://app?vid=a568fa29-a48b-47a1-8260-fdcee6709e60","ios":"levelo://app?vid=a568fa29-a48b-47a1-8260-fdcee6709e60"},"vehicle_type_id":"4","last_reported":1745536169,"current_range_meters":14000,"station_id":"ce4bgt12rcd13ifvqcd0","pricing_plan_id":"cebpf4jnsgd1na2vs0mg"},{"bike_id":"1a9b9ba2-6e5a-4697-beb7-5c65923a8b43","system_id":"levelo_inurba_marseille","lat":43.26775,"lon":5.39421,"is_reserved":false,"is_disabled":true,"rental_uris":{"android":"levelo://app?vid=1a9b9ba2-6e5a-4697-beb7-5c65923a8b43","ios":"levelo://app?vid=1a9b9ba2-6e5a-4697-beb7-5c65923a8b43"},"vehicle_type_id":"4","last_reported":1745536169,"current_range_meters":14400,"station_id":"ce4bhh12rcd13ifvqfg0","pricing_plan_id":"cebpf4jnsgd1na2vs0mg"},{"bike_id":"cedb532b-0606-4458-a20c-f7f951f69830","system_id":"levelo_inurba_marseille","lat":43.25092,"lon":5.39524,"is_reserved":false,"is_disabled":false,"rental_uris":{"android":"levelo://app?vid=cedb532b-0606-4458-a20c-f7f951f69830","ios":"levelo://app?vid=cedb532b-0606-4458-a20c-f7f951f69830"},"vehicle_type_id":"4","last_reported":1745536169,"current_range_meters":14400,"station_id":"ce4bhm12rcd13ifvqgkg","pricing_plan_id":"cebpf4jnsgd1na2vs0mg"},{"bike_id":"00778650-e08a-4011-95d9-fa9e1b3ec789","system_id":"levelo_inurba_marseille","lat":43.28025,"lon":5.36943,"is_reserved":false,"is_disabled":false,"rental_uris":{"android":"levelo://app?vid=00778650-e08a-4011-95d9-fa9e1b3ec789","ios":"levelo://app?vid=00778650-e08a-4011-95d9-fa9e1b3ec789"},"vehicle_type_id":"4","last_reported":1745536169,"current_range_meters":14400,"station_id":"ce4bha12rcd13ifvqef0","pricing_plan_id":"cebpf4jnsgd1na2vs0mg"},{"bike_id":"8c650b27-d256-4272-afc4-13f59105ccbf","system_id":"levelo_inurba_marseille","lat":43.29048,"lon":5.37563,"is_reserved":false,"is_disabled":false,"rental_uris":{"android":"levelo://app?vid=8c650b27-d256-4272-afc4-13f59105ccbf","ios":"levelo://app?vid=8c650b27-d256-4272-afc4-13f59105ccbf"},"vehicle_type_id":"4","last_reported":1745536169,"current_range_meters":14400,"station_id":"ce4bh692rcd13ifvqe90","pricing_plan_id":"cebpf4jnsgd1na2vs0mg"},{"bike_id":"4f1f52a1-d61d-47e0-b646-3cf0c0092b7c","system_id":"levelo_inurba_marseille","lat":43.2871,"lon":5.37387,"is_reserved":false,"is_disabled":false,"rental_uris":{"android":"levelo://app?vid=4f1f52a1-d61d-47e0-b646-3cf0c0092b7c","ios":"levelo://app?vid=4f1f52a1-d61d-47e0-b646-3cf0c0092b7c"},"vehicle_type_id":"4","last_reported":1745536169,"current_range_meters":14400,"station_id":"ce4bh3p2rcd13ifvqdq0","pricing_plan_id":"cebpf4jnsgd1na2vs0mg"},{"bike_id":"e9495348-27b4-4510-aa81-44f7037a2e9e","system_id":"levelo_inurba_marseille","lat":43.31498,"lon":5.373097,"is_reserved":false,"is_disabled":false,"rental_uris":{"android":"levelo://app?vid=e9495348-27b4-4510-aa81-44f7037a2e9e","ios":"levelo://app?vid=e9495348-27b4-4510-aa81-44f7037a2e9e"},"vehicle_type_id":"4","last_reported":1745536169,"current_range_meters":14800,"station_id":"ce4bgt12rcd13ifvqcd0","pricing_plan_id":"cebpf4jnsgd1na2vs0mg"},{"bike_id":"5c8dde23-03af-4ec7-8c64-b6a7b95cfa5a","system_id":"levelo_inurba_marseille","lat":43.33739,"lon":5.39171,"is_reserved":false,"is_disabled":false,"rental_uris":{"android":"levelo://app?vid=5c8dde23-03af-4ec7-8c64-b6a7b95cfa5a","ios":"levelo://app?vid=5c8dde23-03af-4ec7-8c64-b6a7b95cfa5a"},"vehicle_type_id":"4","last_reported":1745536169,"current_range_meters":14800,"station_id":"ce4bhr92rcd13ifvqhsg","pricing_plan_id":"cebpf4jnsgd1na2vs0mg"},{"bike_id":"b219a7bc-30c3-44a1-b644-d889def84854","system_id":"levelo_inurba_marseille","lat":43.28362,"lon":5.38629,"is_reserved":false,"is_disabled":false,"rental_uris":{"android":"levelo://app?vid=b219a7bc-30c3-44a1-b644-d889def84854","ios":"levelo://app?vid=b219a7bc-30c3-44a1-b644-d889def84854"},"vehicle_type_id":"4","last_reported":1745536169,"current_range_meters":14400,"station_id":"ce4bh492rcd13ifvqdvg","pricing_plan_id":"cebpf4jnsgd1na2vs0mg"},{"bike_id":"ec30c27c-48ca-44b5-b64c-3dd3dfeb5f53","system_id":"levelo_inurba_marseille","lat":43.23965,"lon":5.36634,"is_reserved":false,"is_disabled":false,"rental_uris":{"android":"levelo://app?vid=ec30c27c-48ca-44b5-b64c-3dd3dfeb5f53","ios":"levelo://app?vid=ec30c27c-48ca-44b5-b64c-3dd3dfeb5f53"},"vehicle_type_id":"4","last_reported":1745536169,"current_range_meters":14800,"station_id":"ce4bhi12rcd13ifvqfp0","pricing_plan_id":"cebpf4jnsgd1na2vs0mg"},{"bike_id":"96cd0077-d282-4d52-8796-abeb125c0969","system_id":"levelo_inurba_marseille","lat":43.27998,"lon":5.41664,"is_reserved":false,"is_disabled":false,"rental_uris":{"android":"levelo://app?vid=96cd0077-d282-4d52-8796-abeb125c0969","ios":"levelo://app?vid=96cd0077-d282-4d52-8796-abeb125c0969"},"vehicle_type_id":"4","last_reported":1745536169,"current_range_meters":14800,"station_id":"ce4bho12rcd13ifvqh1g","pricing_plan_id":"cebpf4jnsgd1na2vs0mg"},{"bike_id":"47f3bb3d-a5e6-4863-a4a2-2300e2a0d719","system_id":"levelo_inurba_marseille","lat":43.2795,"lon":5.41044,"is_reserved":false,"is_disabled":false,"rental_uris":{"android":"levelo://app?vid=47f3bb3d-a5e6-4863-a4a2-2300e2a0d719","ios":"levelo://app?vid=47f3bb3d-a5e6-4863-a4a2-2300e2a0d719"},"vehicle_type_id":"4","last_reported":1745536169,"current_range_meters":15200,"station_id":"ce4bhnp2rcd13ifvqh0g","pricing_plan_id":"cebpf4jnsgd1na2vs0mg"},{"bike_id":"6bca156d-08f8-47a7-992a-ff1f076681dc","system_id":"levelo_inurba_marseille","lat":43.25117,"lon":5.40335,"is_reserved":false,"is_disabled":false,"rental_uris":{"android":"levelo://app?vid=6bca156d-08f8-47a7-992a-ff1f076681dc","ios":"levelo://app?vid=6bca156d-08f8-47a7-992a-ff1f076681dc"},"vehicle_type_id":"4","last_reported":1745536169,"current_range_meters":15200,"station_id":"ce4bhlh2rcd13ifvqgig","pricing_plan_id":"cebpf4jnsgd1na2vs0mg"},{"bike_id":"50c51e5c-e0de-43f1-a9b9-2a4ffcebd1da","system_id":"levelo_inurba_marseille","lat":43.31679,"lon":5.37738,"is_reserved":false,"is_disabled":false,"rental_uris":{"android":"levelo://app?vid=50c51e5c-e0de-43f1-a9b9-2a4ffcebd1da","ios":"levelo://app?vid=50c51e5c-e0de-43f1-a9b9-2a4ffcebd1da"},"vehicle_type_id":"4","last_reported":1745536169,"current_range_meters":15200,"station_id":"ce4bgth2rcd13ifvqch0","pricing_plan_id":"cebpf4jnsgd1na2vs0mg"},{"bike_id":"844bea76-b19f-49aa-8faf-017738c4a388","system_id":"levelo_inurba_marseille","lat":43.27923,"lon":5.39588,"is_reserved":false,"is_disabled":false,"rental_uris":{"android":"levelo://app?vid=844bea76-b19f-49aa-8faf-017738c4a388","ios":"levelo://app?vid=844bea76-b19f-49aa-8faf-017738c4a388"},"vehicle_type_id":"4","last_reported":1745536169,"current_range_meters":15200,"station_id":"ce4bhf92rcd13ifvqf40","pricing_plan_id":"cebpf4jnsgd1na2vs0mg"},{"bike_id":"e286ad08-c37b-4b15-bce3-fceed02e1dc7","system_id":"levelo_inurba_marseille","lat":43.30938,"lon":5.40137,"is_reserved":false,"is_disabled":false,"rental_uris":{"android":"levelo://app?vid=e286ad08-c37b-4b15-bce3-fceed02e1dc7","ios":"levelo://app?vid=e286ad08-c37b-4b15-bce3-fceed02e1dc7"},"vehicle_type_id":"4","last_reported":1745536169,"current_range_meters":16000,"station_id":"ce4bgvp2rcd13ifvqct0","pricing_plan_id":"cebpf4jnsgd1na2vs0mg"},{"bike_id":"e993c1a9-a5dd-4037-9d54-315ee49bf929","system_id":"levelo_inurba_marseille","lat":43.26954,"lon":5.38626,"is_reserved":false,"is_disabled":false,"rental_uris":{"android":"levelo://app?vid=e993c1a9-a5dd-4037-9d54-315ee49bf929","ios":"levelo://app?vid=e993c1a9-a5dd-4037-9d54-315ee49bf929"},"vehicle_type_id":"4","last_reported":1745536169,"current_range_meters":16000,"station_id":"ce4bhh92rcd13ifvqfh0","pricing_plan_id":"cebpf4jnsgd1na2vs0mg"},{"bike_id":"419a7d57-d681-41b8-a8bf-657d289a5cf1","system_id":"levelo_inurba_marseille","lat":43.30548,"lon":5.38414,"is_reserved":false,"is_disabled":false,"rental_uris":{"android":"levelo://app?vid=419a7d57-d681-41b8-a8bf-657d289a5cf1","ios":"levelo://app?vid=419a7d57-d681-41b8-a8bf-657d289a5cf1"},"vehicle_type_id":"4","last_reported":1745536169,"current_range_meters":16000,"station_id":"ce4bgg92rcd13ifvqb30","pricing_plan_id":"cebpf4jnsgd1na2vs0mg"},{"bike_id":"d96d928d-53ac-4a00-b97f-1300a6fbb35a","system_id":"levelo_inurba_marseille","lat":43.30422,"lon":5.39743,"is_reserved":false,"is_disabled":false,"rental_uris":{"android":"levelo://app?vid=d96d928d-53ac-4a00-b97f-1300a6fbb35a","ios":"levelo://app?vid=d96d928d-53ac-4a00-b97f-1300a6fbb35a"},"vehicle_type_id":"4","last_reported":1745536169,"current_range_meters":15200,"station_id":"ce4bh092rcd13ifvqd20","pricing_plan_id":"cebpf4jnsgd1na2vs0mg"},{"bike_id":"99105336-fb95-430d-8e92-cab64155a19b","system_id":"levelo_inurba_marseille","lat":43.29241,"lon":5.36623,"is_reserved":false,"is_disabled":false,"rental_uris":{"android":"levelo://app?vid=99105336-fb95-430d-8e92-cab64155a19b","ios":"levelo://app?vid=99105336-fb95-430d-8e92-cab64155a19b"},"vehicle_type_id":"4","last_reported":1745536169,"current_range_meters":16000,"station_id":"","pricing_plan_id":"cebpf4jnsgd1na2vs0mg"},{"bike_id":"a5b807e2-0dcd-4c88-a997-bb37c582102d","system_id":"levelo_inurba_marseille","lat":43.30427,"lon":5.37192,"is_reserved":false,"is_disabled":false,"rental_uris":{"android":"levelo://app?vid=a5b807e2-0dcd-4c88-a997-bb37c582102d","ios":"levelo://app?vid=a5b807e2-0dcd-4c88-a997-bb37c582102d"},"vehicle_type_id":"4","last_reported":1745536169,"current_range_meters":16000,"station_id":"","pricing_plan_id":"cebpf4jnsgd1na2vs0mg"},{"bike_id":"1dff9b55-9191-4010-9662-dbf23dd3eb6e","system_id":"levelo_inurba_marseille","lat":43.265533,"lon":5.372914,"is_reserved":false,"is_disabled":false,"rental_uris":{"android":"levelo://app?vid=1dff9b55-9191-4010-9662-dbf23dd3eb6e","ios":"levelo://app?vid=1dff9b55-9191-4010-9662-dbf23dd3eb6e"},"vehicle_type_id":"4","last_reported":1745536169,"current_range_meters":16000,"station_id":"ce4bhg12rcd13ifvqf70","pricing_plan_id":"cebpf4jnsgd1na2vs0mg"},{"bike_id":"7fc5ed43-b2c3-4cf7-b081-488a7cbcc12f","system_id":"levelo_inurba_marseille","lat":43.33039,"lon":5.38996,"is_reserved":false,"is_disabled":false,"rental_uris":{"android":"levelo://app?vid=7fc5ed43-b2c3-4cf7-b081-488a7cbcc12f","ios":"levelo://app?vid=7fc5ed43-b2c3-4cf7-b081-488a7cbcc12f"},"vehicle_type_id":"4","last_reported":1745536169,"current_range_meters":16000,"station_id":"ce4bhr92rcd13ifvqhrg","pricing_plan_id":"cebpf4jnsgd1na2vs0mg"},{"bike_id":"c3721006-7b34-4ca8-be85-027727c3f2af","system_id":"levelo_inurba_marseille","lat":43.28468,"lon":5.38433,"is_reserved":false,"is_disabled":true,"rental_uris":{"android":"levelo://app?vid=c3721006-7b34-4ca8-be85-027727c3f2af","ios":"levelo://app?vid=c3721006-7b34-4ca8-be85-027727c3f2af"},"vehicle_type_id":"4","last_reported":1745536169,"current_range_meters":16000,"station_id":"ce4bh512rcd13ifvqe3g","pricing_plan_id":"cebpf4jnsgd1na2vs0mg"},{"bike_id":"9e9e4114-a05a-4c5e-9f96-6c201042ecfd","system_id":"levelo_inurba_marseille","lat":43.32399,"lon":5.38907,"is_reserved":false,"is_disabled":false,"rental_uris":{"android":"levelo://app?vid=9e9e4114-a05a-4c5e-9f96-6c201042ecfd","ios":"levelo://app?vid=9e9e4114-a05a-4c5e-9f96-6c201042ecfd"},"vehicle_type_id":"4","last_reported":1745536169,"current_range_meters":16400,"station_id":"ce4bhqp2rcd13ifvqhog","pricing_plan_id":"cebpf4jnsgd1na2vs0mg"},{"bike_id":"6e238eef-2b6f-47b6-8bd4-eb226e7f5963","system_id":"levelo_inurba_marseille","lat":43.28574,"lon":5.3949,"is_reserved":false,"is_disabled":false,"rental_uris":{"android":"levelo://app?vid=6e238eef-2b6f-47b6-8bd4-eb226e7f5963","ios":"levelo://app?vid=6e238eef-2b6f-47b6-8bd4-eb226e7f5963"},"vehicle_type_id":"4","last_reported":1745536169,"current_range_meters":16400,"station_id":"ce4bh292rcd13ifvqdg0","pricing_plan_id":"cebpf4jnsgd1na2vs0mg"},{"bike_id":"043bca49-634e-4c26-92cf-a95aa688fcdd","system_id":"levelo_inurba_marseille","lat":43.29555,"lon":5.42275,"is_reserved":false,"is_disabled":true,"rental_uris":{"android":"levelo://app?vid=043bca49-634e-4c26-92cf-a95aa688fcdd","ios":"levelo://app?vid=043bca49-634e-4c26-92cf-a95aa688fcdd"},"vehicle_type_id":"4","last_reported":1745536169,"current_range_meters":16000,"station_id":"ce4bhph2rcd13ifvqhdg","pricing_plan_id":"cebpf4jnsgd1na2vs0mg"},{"bike_id":"03ec5728-5a8d-475c-be69-d63e54c8d683","system_id":"levelo_inurba_marseille","lat":43.32448,"lon":5.36711,"is_reserved":false,"is_disabled":false,"rental_uris":{"android":"levelo://app?vid=03ec5728-5a8d-475c-be69-d63e54c8d683","ios":"levelo://app?vid=03ec5728-5a8d-475c-be69-d63e54c8d683"},"vehicle_type_id":"4","last_reported":1745536169,"current_range_meters":16400,"station_id":"","pricing_plan_id":"cebpf4jnsgd1na2vs0mg"},{"bike_id":"6ff874e6-32ba-4c6c-9a17-f8b8f47db003","system_id":"levelo_inurba_marseille","lat":43.28112,"lon":5.37849,"is_reserved":false,"is_disabled":false,"rental_uris":{"android":"levelo://app?vid=6ff874e6-32ba-4c6c-9a17-f8b8f47db003","ios":"levelo://app?vid=6ff874e6-32ba-4c6c-9a17-f8b8f47db003"},"vehicle_type_id":"4","last_reported":1745536169,"current_range_meters":16400,"station_id":"ce4bha12rcd13ifvqee0","pricing_plan_id":"cebpf4jnsgd1na2vs0mg"},{"bike_id":"e2dcabcf-64d8-4394-bb9a-ff877bee611a","system_id":"levelo_inurba_marseille","lat":43.32045,"lon":5.41515,"is_reserved":false,"is_disabled":false,"rental_uris":{"android":"levelo://app?vid=e2dcabcf-64d8-4394-bb9a-ff877bee611a","ios":"levelo://app?vid=e2dcabcf-64d8-4394-bb9a-ff877bee611a"},"vehicle_type_id":"4","last_reported":1745536169,"current_range_meters":16400,"station_id":"ce4bhq92rcd13ifvqhkg","pricing_plan_id":"cebpf4jnsgd1na2vs0mg"},{"bike_id":"35e0752c-afe6-4cae-84a6-d74556a78578","system_id":"levelo_inurba_marseille","lat":43.28947,"lon":5.36638,"is_reserved":false,"is_disabled":false,"rental_uris":{"android":"levelo://app?vid=35e0752c-afe6-4cae-84a6-d74556a78578","ios":"levelo://app?vid=35e0752c-afe6-4cae-84a6-d74556a78578"},"vehicle_type_id":"4","last_reported":1745536169,"current_range_meters":16400,"station_id":"ce4bhap2rcd13ifvqek0","pricing_plan_id":"cebpf4jnsgd1na2vs0mg"},{"bike_id":"5ea92885-4784-424e-bbd0-fe10a23b8f63","system_id":"levelo_inurba_marseille","lat":43.24674,"lon":5.38142,"is_reserved":false,"is_disabled":false,"rental_uris":{"android":"levelo://app?vid=5ea92885-4784-424e-bbd0-fe10a23b8f63","ios":"levelo://app?vid=5ea92885-4784-424e-bbd0-fe10a23b8f63"},"vehicle_type_id":"4","last_reported":1745536169,"current_range_meters":16400,"station_id":"ce4bhih2rcd13ifvqfr0","pricing_plan_id":"cebpf4jnsgd1na2vs0mg"},{"bike_id":"389081e5-a59f-4bb8-ae5b-d14b07648eda","system_id":"levelo_inurba_marseille","lat":43.25119,"lon":5.40323,"is_reserved":false,"is_disabled":true,"rental_uris":{"android":"levelo://app?vid=389081e5-a59f-4bb8-ae5b-d14b07648eda","ios":"levelo://app?vid=389081e5-a59f-4bb8-ae5b-d14b07648eda"},"vehicle_type_id":"4","last_reported":1745536169,"current_range_meters":16400,"station_id":"ce4bhlh2rcd13ifvqgig","pricing_plan_id":"cebpf4jnsgd1na2vs0mg"},{"bike_id":"7597f9f7-581e-4aa1-9ea0-a72928416a0e","system_id":"levelo_inurba_marseille","lat":43.303074,"lon":5.392015,"is_reserved":false,"is_disabled":true,"rental_uris":{"android":"levelo://app?vid=7597f9f7-581e-4aa1-9ea0-a72928416a0e","ios":"levelo://app?vid=7597f9f7-581e-4aa1-9ea0-a72928416a0e"},"vehicle_type_id":"4","last_reported":1745536169,"current_range_meters":16800,"station_id":"ce4bgkh2rcd13ifvqbk0","pricing_plan_id":"cebpf4jnsgd1na2vs0mg"},{"bike_id":"00173bf3-3ff6-432e-ba52-1bde3b0b9c62","system_id":"levelo_inurba_marseille","lat":43.28993,"lon":5.39918,"is_reserved":false,"is_disabled":false,"rental_uris":{"android":"levelo://app?vid=00173bf3-3ff6-432e-ba52-1bde3b0b9c62","ios":"levelo://app?vid=00173bf3-3ff6-432e-ba52-1bde3b0b9c62"},"vehicle_type_id":"4","last_reported":1745536169,"current_range_meters":16800,"station_id":"ce4bh392rcd13ifvqdm0","pricing_plan_id":"cebpf4jnsgd1na2vs0mg"},{"bike_id":"2842ede5-3b6a-4c19-9aff-7b65f162e244","system_id":"levelo_inurba_marseille","lat":43.28043,"lon":5.36917,"is_reserved":false,"is_disabled":false,"rental_uris":{"android":"levelo://app?vid=2842ede5-3b6a-4c19-9aff-7b65f162e244","ios":"levelo://app?vid=2842ede5-3b6a-4c19-9aff-7b65f162e244"},"vehicle_type_id":"4","last_reported":1745536169,"current_range_meters":16800,"station_id":"ce4bha12rcd13ifvqef0","pricing_plan_id":"cebpf4jnsgd1na2vs0mg"},{"bike_id":"4bab3114-d0a3-4a29-b5b6-8e408f402779","system_id":"levelo_inurba_marseille","lat":43.24065,"lon":5.37761,"is_reserved":false,"is_disabled":false,"rental_uris":{"android":"levelo://app?vid=4bab3114-d0a3-4a29-b5b6-8e408f402779","ios":"levelo://app?vid=4bab3114-d0a3-4a29-b5b6-8e408f402779"},"vehicle_type_id":"4","last_reported":1745536169,"current_range_meters":16800,"station_id":"ce4bhnp2rcd13ifvqgvg","pricing_plan_id":"cebpf4jnsgd1na2vs0mg"},{"bike_id":"f437bbcd-3bc3-4220-9dfe-08d3eac84ba1","system_id":"levelo_inurba_marseille","lat":43.28622,"lon":5.35089,"is_reserved":false,"is_disabled":true,"rental_uris":{"android":"levelo://app?vid=f437bbcd-3bc3-4220-9dfe-08d3eac84ba1","ios":"levelo://app?vid=f437bbcd-3bc3-4220-9dfe-08d3eac84ba1"},"vehicle_type_id":"4","last_reported":1745536169,"current_range_meters":16800,"station_id":"ce4bhch2rcd13ifvqeug","pricing_plan_id":"cebpf4jnsgd1na2vs0mg"},{"bike_id":"230a4b18-f598-423a-928c-a723c4d4cf96","system_id":"levelo_inurba_marseille","lat":43.27372,"lon":5.36256,"is_reserved":false,"is_disabled":false,"rental_uris":{"android":"levelo://app?vid=230a4b18-f598-423a-928c-a723c4d4cf96","ios":"levelo://app?vid=230a4b18-f598-423a-928c-a723c4d4cf96"},"vehicle_type_id":"4","last_reported":1745536169,"current_range_meters":16800,"station_id":"ce4bhbh2rcd13ifvqeo0","pricing_plan_id":"cebpf4jnsgd1na2vs0mg"},{"bike_id":"38a54769-e8ac-41ad-bccc-10712900ee1c","system_id":"levelo_inurba_marseille","lat":43.26239,"lon":5.40446,"is_reserved":false,"is_disabled":false,"rental_uris":{"android":"levelo://app?vid=38a54769-e8ac-41ad-bccc-10712900ee1c","ios":"levelo://app?vid=38a54769-e8ac-41ad-bccc-10712900ee1c"},"vehicle_type_id":"4","last_reported":1745536169,"current_range_meters":16800,"station_id":"ce4bhmh2rcd13ifvqgmg","pricing_plan_id":"cebpf4jnsgd1na2vs0mg"},{"bike_id":"cfa52da7-ecc2-4228-a2f2-067f1e6ddea6","system_id":"levelo_inurba_marseille","lat":43.32021,"lon":5.38151,"is_reserved":false,"is_disabled":false,"rental_uris":{"android":"levelo://app?vid=cfa52da7-ecc2-4228-a2f2-067f1e6ddea6","ios":"levelo://app?vid=cfa52da7-ecc2-4228-a2f2-067f1e6ddea6"},"vehicle_type_id":"4","last_reported":1745536169,"current_range_meters":17200,"station_id":"ce4bhr12rcd13ifvqhpg","pricing_plan_id":"cebpf4jnsgd1na2vs0mg"},{"bike_id":"f95a5ff3-ece3-4015-a999-ee279f8bc4d3","system_id":"levelo_inurba_marseille","lat":43.29582,"lon":5.39978,"is_reserved":false,"is_disabled":false,"rental_uris":{"android":"levelo://app?vid=f95a5ff3-ece3-4015-a999-ee279f8bc4d3","ios":"levelo://app?vid=f95a5ff3-ece3-4015-a999-ee279f8bc4d3"},"vehicle_type_id":"4","last_reported":1745536169,"current_range_meters":17200,"station_id":"ce4bh312rcd13ifvqdj0","pricing_plan_id":"cebpf4jnsgd1na2vs0mg"},{"bike_id":"5cff3207-23ad-406f-a81e-d6e191b09a6b","system_id":"levelo_inurba_marseille","lat":43.26567,"lon":5.37288,"is_reserved":false,"is_disabled":false,"rental_uris":{"android":"levelo://app?vid=5cff3207-23ad-406f-a81e-d6e191b09a6b","ios":"levelo://app?vid=5cff3207-23ad-406f-a81e-d6e191b09a6b"},"vehicle_type_id":"4","last_reported":1745536169,"current_range_meters":17200,"station_id":"ce4bhg12rcd13ifvqf70","pricing_plan_id":"cebpf4jnsgd1na2vs0mg"},{"bike_id":"c060fca4-f73d-4f61-a5d4-e74011dccc79","system_id":"levelo_inurba_marseille","lat":43.29354,"lon":5.386906,"is_reserved":false,"is_disabled":false,"rental_uris":{"android":"levelo://app?vid=c060fca4-f73d-4f61-a5d4-e74011dccc79","ios":"levelo://app?vid=c060fca4-f73d-4f61-a5d4-e74011dccc79"},"vehicle_type_id":"4","last_reported":1745536169,"current_range_meters":17200,"station_id":"ce4bh192rcd13ifvqdd0","pricing_plan_id":"cebpf4jnsgd1na2vs0mg"},{"bike_id":"3857c1c5-eeaa-4322-86c6-ca59b85e4a47","system_id":"levelo_inurba_marseille","lat":43.25499,"lon":5.37645,"is_reserved":false,"is_disabled":false,"rental_uris":{"android":"levelo://app?vid=3857c1c5-eeaa-4322-86c6-ca59b85e4a47","ios":"levelo://app?vid=3857c1c5-eeaa-4322-86c6-ca59b85e4a47"},"vehicle_type_id":"4","last_reported":1745536169,"current_range_meters":17200,"station_id":"ce4bhh12rcd13ifvqff0","pricing_plan_id":"cebpf4jnsgd1na2vs0mg"},{"bike_id":"0bfff189-ec6a-4439-b345-e9dd168ab867","system_id":"levelo_inurba_marseille","lat":43.33743,"lon":5.39188,"is_reserved":false,"is_disabled":false,"rental_uris":{"android":"levelo://app?vid=0bfff189-ec6a-4439-b345-e9dd168ab867","ios":"levelo://app?vid=0bfff189-ec6a-4439-b345-e9dd168ab867"},"vehicle_type_id":"4","last_reported":1745536169,"current_range_meters":17200,"station_id":"ce4bhr92rcd13ifvqhsg","pricing_plan_id":"cebpf4jnsgd1na2vs0mg"},{"bike_id":"c626c93a-7b05-43e0-8c99-3e68e87e1d65","system_id":"levelo_inurba_marseille","lat":43.29296,"lon":5.40117,"is_reserved":false,"is_disabled":false,"rental_uris":{"android":"levelo://app?vid=c626c93a-7b05-43e0-8c99-3e68e87e1d65","ios":"levelo://app?vid=c626c93a-7b05-43e0-8c99-3e68e87e1d65"},"vehicle_type_id":"4","last_reported":1745536169,"current_range_meters":17600,"station_id":"ce4bh312rcd13ifvqdk0","pricing_plan_id":"cebpf4jnsgd1na2vs0mg"},{"bike_id":"f172e360-2d4c-47b3-a510-e783de8ede16","system_id":"levelo_inurba_marseille","lat":43.23188,"lon":5.39972,"is_reserved":false,"is_disabled":false,"rental_uris":{"android":"levelo://app?vid=f172e360-2d4c-47b3-a510-e783de8ede16","ios":"levelo://app?vid=f172e360-2d4c-47b3-a510-e783de8ede16"},"vehicle_type_id":"4","last_reported":1745536169,"current_range_meters":17600,"station_id":"ce4bhn12rcd13ifvqgqg","pricing_plan_id":"cebpf4jnsgd1na2vs0mg"},{"bike_id":"9a1c0be7-bd1a-4081-ab84-3ef05258b407","system_id":"levelo_inurba_marseille","lat":43.22908,"lon":5.35391,"is_reserved":false,"is_disabled":false,"rental_uris":{"android":"levelo://app?vid=9a1c0be7-bd1a-4081-ab84-3ef05258b407","ios":"levelo://app?vid=9a1c0be7-bd1a-4081-ab84-3ef05258b407"},"vehicle_type_id":"4","last_reported":1745536169,"current_range_meters":17600,"station_id":"cpo3532slgdg3j2ikp40","pricing_plan_id":"cebpf4jnsgd1na2vs0mg"},{"bike_id":"a9784e4d-72f3-45a0-bc5c-6a48517d28d6","system_id":"levelo_inurba_marseille","lat":43.33036,"lon":5.39041,"is_reserved":false,"is_disabled":false,"rental_uris":{"android":"levelo://app?vid=a9784e4d-72f3-45a0-bc5c-6a48517d28d6","ios":"levelo://app?vid=a9784e4d-72f3-45a0-bc5c-6a48517d28d6"},"vehicle_type_id":"4","last_reported":1745536169,"current_range_meters":17600,"station_id":"ce4bhr92rcd13ifvqhrg","pricing_plan_id":"cebpf4jnsgd1na2vs0mg"},{"bike_id":"08017c5e-0ebd-49ed-a7d1-dae38f57908c","system_id":"levelo_inurba_marseille","lat":43.326589,"lon":5.409824,"is_reserved":false,"is_disabled":false,"rental_uris":{"android":"levelo://app?vid=08017c5e-0ebd-49ed-a7d1-dae38f57908c","ios":"levelo://app?vid=08017c5e-0ebd-49ed-a7d1-dae38f57908c"},"vehicle_type_id":"4","last_reported":1745536169,"current_range_meters":17600,"station_id":"ce4bhpp2rcd13ifvqhgg","pricing_plan_id":"cebpf4jnsgd1na2vs0mg"},{"bike_id":"42a7759b-41b0-4ccd-898b-b1896baeebe8","system_id":"levelo_inurba_marseille","lat":43.29874,"lon":5.39737,"is_reserved":false,"is_disabled":false,"rental_uris":{"android":"levelo://app?vid=42a7759b-41b0-4ccd-898b-b1896baeebe8","ios":"levelo://app?vid=42a7759b-41b0-4ccd-898b-b1896baeebe8"},"vehicle_type_id":"4","last_reported":1745536169,"current_range_meters":18000,"station_id":"ce4bh0h2rcd13ifvqd50","pricing_plan_id":"cebpf4jnsgd1na2vs0mg"},{"bike_id":"b04b2867-fbf0-4049-a1be-5593b1ff340a","system_id":"levelo_inurba_marseille","lat":43.241302,"lon":5.376976,"is_reserved":false,"is_disabled":false,"rental_uris":{"android":"levelo://app?vid=b04b2867-fbf0-4049-a1be-5593b1ff340a","ios":"levelo://app?vid=b04b2867-fbf0-4049-a1be-5593b1ff340a"},"vehicle_type_id":"4","last_reported":1745536169,"current_range_meters":18800,"station_id":"ce4bhah2rcd13ifvqei0","pricing_plan_id":"cebpf4jnsgd1na2vs0mg"},{"bike_id":"1abc48dd-efaa-4ca6-9a7a-f6253d85fd51","system_id":"levelo_inurba_marseille","lat":43.30817,"lon":5.43521,"is_reserved":false,"is_disabled":false,"rental_uris":{"android":"levelo://app?vid=1abc48dd-efaa-4ca6-9a7a-f6253d85fd51","ios":"levelo://app?vid=1abc48dd-efaa-4ca6-9a7a-f6253d85fd51"},"vehicle_type_id":"4","last_reported":1745536169,"current_range_meters":18800,"station_id":"ce4bhph2rcd13ifvqheg","pricing_plan_id":"cebpf4jnsgd1na2vs0mg"},{"bike_id":"829e6027-c98c-4052-9336-7fe801b0bc22","system_id":"levelo_inurba_marseille","lat":43.23181,"lon":5.43698,"is_reserved":false,"is_disabled":true,"rental_uris":{"android":"levelo://app?vid=829e6027-c98c-4052-9336-7fe801b0bc22","ios":"levelo://app?vid=829e6027-c98c-4052-9336-7fe801b0bc22"},"vehicle_type_id":"4","last_reported":1745536169,"current_range_meters":18800,"station_id":"ce4bhmp2rcd13ifvqgog","pricing_plan_id":"cebpf4jnsgd1na2vs0mg"},{"bike_id":"8f1a38c1-df91-4bdf-9e4e-92ef410aba4f","system_id":"levelo_inurba_marseille","lat":43.211911,"lon":5.350741,"is_reserved":false,"is_disabled":false,"rental_uris":{"android":"levelo://app?vid=8f1a38c1-df91-4bdf-9e4e-92ef410aba4f","ios":"levelo://app?vid=8f1a38c1-df91-4bdf-9e4e-92ef410aba4f"},"vehicle_type_id":"4","last_reported":1745536169,"current_range_meters":18800,"station_id":"st_cvj6sg6p6f1abm77japg","pricing_plan_id":"cebpf4jnsgd1na2vs0mg"},{"bike_id":"e9b40b8c-aa8b-493b-9704-ac204b4fdb74","system_id":"levelo_inurba_marseille","lat":43.22505,"lon":5.34779,"is_reserved":false,"is_disabled":false,"rental_uris":{"android":"levelo://app?vid=e9b40b8c-aa8b-493b-9704-ac204b4fdb74","ios":"levelo://app?vid=e9b40b8c-aa8b-493b-9704-ac204b4fdb74"},"vehicle_type_id":"4","last_reported":1745536169,"current_range_meters":18800,"station_id":"st_cvj5dfep6f1abm77gieg","pricing_plan_id":"cebpf4jnsgd1na2vs0mg"},{"bike_id":"0b8117f0-3336-4893-bc3a-5841211cb81f","system_id":"levelo_inurba_marseille","lat":43.303009,"lon":5.392204,"is_reserved":false,"is_disabled":false,"rental_uris":{"android":"levelo://app?vid=0b8117f0-3336-4893-bc3a-5841211cb81f","ios":"levelo://app?vid=0b8117f0-3336-4893-bc3a-5841211cb81f"},"vehicle_type_id":"4","last_reported":1745536169,"current_range_meters":18800,"station_id":"ce4bh012rcd13ifvqcv0","pricing_plan_id":"cebpf4jnsgd1na2vs0mg"},{"bike_id":"02a04312-9006-48f2-97a9-a32820efc417","system_id":"levelo_inurba_marseille","lat":43.31619,"lon":5.3773,"is_reserved":false,"is_disabled":false,"rental_uris":{"android":"levelo://app?vid=02a04312-9006-48f2-97a9-a32820efc417","ios":"levelo://app?vid=02a04312-9006-48f2-97a9-a32820efc417"},"vehicle_type_id":"4","last_reported":1745536169,"current_range_meters":18800,"station_id":"ce4bgth2rcd13ifvqch0","pricing_plan_id":"cebpf4jnsgd1na2vs0mg"},{"bike_id":"183bb44a-cd53-46d9-99be-6e047a2595e3","system_id":"levelo_inurba_marseille","lat":43.28419,"lon":5.34977,"is_reserved":false,"is_disabled":false,"rental_uris":{"android":"levelo://app?vid=183bb44a-cd53-46d9-99be-6e047a2595e3","ios":"levelo://app?vid=183bb44a-cd53-46d9-99be-6e047a2595e3"},"vehicle_type_id":"4","last_reported":1745536169,"current_range_meters":19200,"station_id":"ce4bhbh2rcd13ifvqepg","pricing_plan_id":"cebpf4jnsgd1na2vs0mg"},{"bike_id":"5f7eb0d5-85b4-4b7e-a61c-cac7a800c5ed","system_id":"levelo_inurba_marseille","lat":43.308868,"lon":5.396613,"is_reserved":false,"is_disabled":false,"rental_uris":{"android":"levelo://app?vid=5f7eb0d5-85b4-4b7e-a61c-cac7a800c5ed","ios":"levelo://app?vid=5f7eb0d5-85b4-4b7e-a61c-cac7a800c5ed"},"vehicle_type_id":"4","last_reported":1745536169,"current_range_meters":19200,"station_id":"ce4bh012rcd13ifvqcv0","pricing_plan_id":"cebpf4jnsgd1na2vs0mg"},{"bike_id":"987d7900-bb2a-45cb-bed7-6d69f6fd4fa3","system_id":"levelo_inurba_marseille","lat":43.28486,"lon":5.38434,"is_reserved":false,"is_disabled":false,"rental_uris":{"android":"levelo://app?vid=987d7900-bb2a-45cb-bed7-6d69f6fd4fa3","ios":"levelo://app?vid=987d7900-bb2a-45cb-bed7-6d69f6fd4fa3"},"vehicle_type_id":"4","last_reported":1745536169,"current_range_meters":19200,"station_id":"ce4bh512rcd13ifvqe3g","pricing_plan_id":"cebpf4jnsgd1na2vs0mg"},{"bike_id":"6a232082-23e6-40a6-8ae1-2875420613c9","system_id":"levelo_inurba_marseille","lat":43.28739,"lon":5.36056,"is_reserved":false,"is_disabled":false,"rental_uris":{"android":"levelo://app?vid=6a232082-23e6-40a6-8ae1-2875420613c9","ios":"levelo://app?vid=6a232082-23e6-40a6-8ae1-2875420613c9"},"vehicle_type_id":"4","last_reported":1745536169,"current_range_meters":19200,"station_id":"cki0cbj6b192h4jlfktg","pricing_plan_id":"cebpf4jnsgd1na2vs0mg"},{"bike_id":"ebaafbf5-29b5-4ae1-a41f-8ae30012b276","system_id":"levelo_inurba_marseille","lat":43.341466,"lon":5.409082,"is_reserved":false,"is_disabled":false,"rental_uris":{"android":"levelo://app?vid=ebaafbf5-29b5-4ae1-a41f-8ae30012b276","ios":"levelo://app?vid=ebaafbf5-29b5-4ae1-a41f-8ae30012b276"},"vehicle_type_id":"4","last_reported":1745536169,"current_range_meters":19200,"station_id":"ce4bhqh2rcd13ifvqhlg","pricing_plan_id":"cebpf4jnsgd1na2vs0mg"},{"bike_id":"c35fdd47-3410-4298-b154-f5a2b0d7dcc4","system_id":"levelo_inurba_marseille","lat":43.23967,"lon":5.36626,"is_reserved":false,"is_disabled":false,"rental_uris":{"android":"levelo://app?vid=c35fdd47-3410-4298-b154-f5a2b0d7dcc4","ios":"levelo://app?vid=c35fdd47-3410-4298-b154-f5a2b0d7dcc4"},"vehicle_type_id":"4","last_reported":1745536169,"current_range_meters":19600,"station_id":"ce4bhi12rcd13ifvqfp0","pricing_plan_id":"cebpf4jnsgd1na2vs0mg"},{"bike_id":"b153ceac-2122-4db9-9931-e572632e7880","system_id":"levelo_inurba_marseille","lat":43.240766,"lon":5.377473,"is_reserved":false,"is_disabled":false,"rental_uris":{"android":"levelo://app?vid=b153ceac-2122-4db9-9931-e572632e7880","ios":"levelo://app?vid=b153ceac-2122-4db9-9931-e572632e7880"},"vehicle_type_id":"4","last_reported":1745536169,"current_range_meters":19600,"station_id":"ce4bhnp2rcd13ifvqgvg","pricing_plan_id":"cebpf4jnsgd1na2vs0mg"},{"bike_id":"3462ca05-5032-40da-99f3-1856b4173108","system_id":"levelo_inurba_marseille","lat":43.30913,"lon":5.39645,"is_reserved":false,"is_disabled":false,"rental_uris":{"android":"levelo://app?vid=3462ca05-5032-40da-99f3-1856b4173108","ios":"levelo://app?vid=3462ca05-5032-40da-99f3-1856b4173108"},"vehicle_type_id":"4","last_reported":1745536169,"current_range_meters":19600,"station_id":"ce4bh012rcd13ifvqcv0","pricing_plan_id":"cebpf4jnsgd1na2vs0mg"},{"bike_id":"5c8001ef-c531-490f-b793-cd3ce7ffc3a8","system_id":"levelo_inurba_marseille","lat":43.330213,"lon":5.390361,"is_reserved":false,"is_disabled":false,"rental_uris":{"android":"levelo://app?vid=5c8001ef-c531-490f-b793-cd3ce7ffc3a8","ios":"levelo://app?vid=5c8001ef-c531-490f-b793-cd3ce7ffc3a8"},"vehicle_type_id":"4","last_reported":1745536169,"current_range_meters":19600,"station_id":"ce4bhr92rcd13ifvqhrg","pricing_plan_id":"cebpf4jnsgd1na2vs0mg"},{"bike_id":"183802aa-4124-41d5-8e42-f42293551a7f","system_id":"levelo_inurba_marseille","lat":43.324863,"lon":5.365753,"is_reserved":false,"is_disabled":false,"rental_uris":{"android":"levelo://app?vid=183802aa-4124-41d5-8e42-f42293551a7f","ios":"levelo://app?vid=183802aa-4124-41d5-8e42-f42293551a7f"},"vehicle_type_id":"4","last_reported":1745536169,"current_range_meters":19600,"station_id":"ce4bhs12rcd13ifvqhvg","pricing_plan_id":"cebpf4jnsgd1na2vs0mg"},{"bike_id":"02f9e6c4-a45a-433c-a71d-8a3b8a99fc1d","system_id":"levelo_inurba_marseille","lat":43.30806,"lon":5.4352,"is_reserved":false,"is_disabled":false,"rental_uris":{"android":"levelo://app?vid=02f9e6c4-a45a-433c-a71d-8a3b8a99fc1d","ios":"levelo://app?vid=02f9e6c4-a45a-433c-a71d-8a3b8a99fc1d"},"vehicle_type_id":"4","last_reported":1745536169,"current_range_meters":19600,"station_id":"ce4bhph2rcd13ifvqheg","pricing_plan_id":"cebpf4jnsgd1na2vs0mg"},{"bike_id":"d395bdbd-b398-44eb-ba8d-ad2581087ffd","system_id":"levelo_inurba_marseille","lat":43.262257,"lon":5.404531,"is_reserved":false,"is_disabled":false,"rental_uris":{"android":"levelo://app?vid=d395bdbd-b398-44eb-ba8d-ad2581087ffd","ios":"levelo://app?vid=d395bdbd-b398-44eb-ba8d-ad2581087ffd"},"vehicle_type_id":"4","last_reported":1745536169,"current_range_meters":20000,"station_id":"ce4bhmh2rcd13ifvqgmg","pricing_plan_id":"cebpf4jnsgd1na2vs0mg"},{"bike_id":"7e96fbab-86fd-4a2c-83b7-a8bb7f6f85a6","system_id":"levelo_inurba_marseille","lat":43.28854,"lon":5.35843,"is_reserved":false,"is_disabled":false,"rental_uris":{"android":"levelo://app?vid=7e96fbab-86fd-4a2c-83b7-a8bb7f6f85a6","ios":"levelo://app?vid=7e96fbab-86fd-4a2c-83b7-a8bb7f6f85a6"},"vehicle_type_id":"4","last_reported":1745536169,"current_range_meters":20000,"station_id":"ce4bhb12rcd13ifvqem0","pricing_plan_id":"cebpf4jnsgd1na2vs0mg"},{"bike_id":"6632f00f-4e5b-4d52-bc64-7f8532a8a837","system_id":"levelo_inurba_marseille","lat":43.2944,"lon":5.39754,"is_reserved":false,"is_disabled":false,"rental_uris":{"android":"levelo://app?vid=6632f00f-4e5b-4d52-bc64-7f8532a8a837","ios":"levelo://app?vid=6632f00f-4e5b-4d52-bc64-7f8532a8a837"},"vehicle_type_id":"4","last_reported":1745536169,"current_range_meters":20000,"station_id":"ce4bh3h2rcd13ifvqdo0","pricing_plan_id":"cebpf4jnsgd1na2vs0mg"},{"bike_id":"03f2348d-3562-4c34-9c91-fee0cd3f4629","system_id":"levelo_inurba_marseille","lat":43.30524,"lon":5.38426,"is_reserved":false,"is_disabled":false,"rental_uris":{"android":"levelo://app?vid=03f2348d-3562-4c34-9c91-fee0cd3f4629","ios":"levelo://app?vid=03f2348d-3562-4c34-9c91-fee0cd3f4629"},"vehicle_type_id":"4","last_reported":1745536169,"current_range_meters":20000,"station_id":"ce4bgg92rcd13ifvqb30","pricing_plan_id":"cebpf4jnsgd1na2vs0mg"},{"bike_id":"021bb214-1069-45ae-a7df-53cd8288d4a4","system_id":"levelo_inurba_marseille","lat":43.24183,"lon":5.3973,"is_reserved":false,"is_disabled":false,"rental_uris":{"android":"levelo://app?vid=021bb214-1069-45ae-a7df-53cd8288d4a4","ios":"levelo://app?vid=021bb214-1069-45ae-a7df-53cd8288d4a4"},"vehicle_type_id":"4","last_reported":1745536169,"current_range_meters":20000,"station_id":"ce4bhn12rcd13ifvqgpg","pricing_plan_id":"cebpf4jnsgd1na2vs0mg"},{"bike_id":"b3dde966-8634-4a50-9e17-9dfaa6aff5ff","system_id":"levelo_inurba_marseille","lat":43.30882,"lon":5.39642,"is_reserved":false,"is_disabled":false,"rental_uris":{"android":"levelo://app?vid=b3dde966-8634-4a50-9e17-9dfaa6aff5ff","ios":"levelo://app?vid=b3dde966-8634-4a50-9e17-9dfaa6aff5ff"},"vehicle_type_id":"4","last_reported":1745536169,"current_range_meters":20400,"station_id":"ce4bh012rcd13ifvqcv0","pricing_plan_id":"cebpf4jnsgd1na2vs0mg"},{"bike_id":"f8c8bd19-021e-4fed-b556-0da97350ae9f","system_id":"levelo_inurba_marseille","lat":43.30309,"lon":5.36904,"is_reserved":false,"is_disabled":false,"rental_uris":{"android":"levelo://app?vid=f8c8bd19-021e-4fed-b556-0da97350ae9f","ios":"levelo://app?vid=f8c8bd19-021e-4fed-b556-0da97350ae9f"},"vehicle_type_id":"4","last_reported":1745536169,"current_range_meters":20000,"station_id":"ce4bgqh2rcd13ifvqc5g","pricing_plan_id":"cebpf4jnsgd1na2vs0mg"},{"bike_id":"5df23e24-7d52-46b6-a142-1ae6af391f46","system_id":"levelo_inurba_marseille","lat":43.30885,"lon":5.3964,"is_reserved":false,"is_disabled":false,"rental_uris":{"android":"levelo://app?vid=5df23e24-7d52-46b6-a142-1ae6af391f46","ios":"levelo://app?vid=5df23e24-7d52-46b6-a142-1ae6af391f46"},"vehicle_type_id":"4","last_reported":1745536169,"current_range_meters":20400,"station_id":"ce4bh012rcd13ifvqcv0","pricing_plan_id":"cebpf4jnsgd1na2vs0mg"},{"bike_id":"c5de867e-a03c-41a2-b91a-ab79b71b05d7","system_id":"levelo_inurba_marseille","lat":43.27911,"lon":5.39582,"is_reserved":false,"is_disabled":false,"rental_uris":{"android":"levelo://app?vid=c5de867e-a03c-41a2-b91a-ab79b71b05d7","ios":"levelo://app?vid=c5de867e-a03c-41a2-b91a-ab79b71b05d7"},"vehicle_type_id":"4","last_reported":1745536169,"current_range_meters":20400,"station_id":"ce4bhf92rcd13ifvqf40","pricing_plan_id":"cebpf4jnsgd1na2vs0mg"},{"bike_id":"f9e7db3e-6863-4282-bc8f-8b0ddb6ffc5a","system_id":"levelo_inurba_marseille","lat":43.31345,"lon":5.39717,"is_reserved":false,"is_disabled":false,"rental_uris":{"android":"levelo://app?vid=f9e7db3e-6863-4282-bc8f-8b0ddb6ffc5a","ios":"levelo://app?vid=f9e7db3e-6863-4282-bc8f-8b0ddb6ffc5a"},"vehicle_type_id":"4","last_reported":1745536169,"current_range_meters":20400,"station_id":"ce4bgvp2rcd13ifvqcu0","pricing_plan_id":"cebpf4jnsgd1na2vs0mg"},{"bike_id":"c334fbc6-8cf2-4bb7-883e-238e2899b35b","system_id":"levelo_inurba_marseille","lat":43.298724,"lon":5.397438,"is_reserved":false,"is_disabled":false,"rental_uris":{"android":"levelo://app?vid=c334fbc6-8cf2-4bb7-883e-238e2899b35b","ios":"levelo://app?vid=c334fbc6-8cf2-4bb7-883e-238e2899b35b"},"vehicle_type_id":"4","last_reported":1745536169,"current_range_meters":20400,"station_id":"ce4bh0h2rcd13ifvqd50","pricing_plan_id":"cebpf4jnsgd1na2vs0mg"},{"bike_id":"0e11564e-e538-4e6e-a237-06ef73872f0a","system_id":"levelo_inurba_marseille","lat":43.26572,"lon":5.37279,"is_reserved":false,"is_disabled":false,"rental_uris":{"android":"levelo://app?vid=0e11564e-e538-4e6e-a237-06ef73872f0a","ios":"levelo://app?vid=0e11564e-e538-4e6e-a237-06ef73872f0a"},"vehicle_type_id":"4","last_reported":1745536169,"current_range_meters":20400,"station_id":"ce4bhg12rcd13ifvqf70","pricing_plan_id":"cebpf4jnsgd1na2vs0mg"},{"bike_id":"b5424ee8-8e3e-4473-9294-a69663de4790","system_id":"levelo_inurba_marseille","lat":43.29796,"lon":5.39345,"is_reserved":false,"is_disabled":false,"rental_uris":{"android":"levelo://app?vid=b5424ee8-8e3e-4473-9294-a69663de4790","ios":"levelo://app?vid=b5424ee8-8e3e-4473-9294-a69663de4790"},"vehicle_type_id":"4","last_reported":1745536169,"current_range_meters":20400,"station_id":"chh1huq6cuj3fo74tm60","pricing_plan_id":"cebpf4jnsgd1na2vs0mg"},{"bike_id":"32d5e172-8e40-4731-b23a-ee369592d9e3","system_id":"levelo_inurba_marseille","lat":43.29055,"lon":5.36464,"is_reserved":false,"is_disabled":false,"rental_uris":{"android":"levelo://app?vid=32d5e172-8e40-4731-b23a-ee369592d9e3","ios":"levelo://app?vid=32d5e172-8e40-4731-b23a-ee369592d9e3"},"vehicle_type_id":"4","last_reported":1745536169,"current_range_meters":20400,"station_id":"","pricing_plan_id":"cebpf4jnsgd1na2vs0mg"},{"bike_id":"0afbd503-623a-41eb-b706-5c86a0d63522","system_id":"levelo_inurba_marseille","lat":43.23156,"lon":5.43716,"is_reserved":false,"is_disabled":false,"rental_uris":{"android":"levelo://app?vid=0afbd503-623a-41eb-b706-5c86a0d63522","ios":"levelo://app?vid=0afbd503-623a-41eb-b706-5c86a0d63522"},"vehicle_type_id":"4","last_reported":1745536169,"current_range_meters":20800,"station_id":"ce4bhmp2rcd13ifvqgog","pricing_plan_id":"cebpf4jnsgd1na2vs0mg"},{"bike_id":"47da1670-da68-43b6-9b1f-0d8989d07441","system_id":"levelo_inurba_marseille","lat":43.26829,"lon":5.41118,"is_reserved":false,"is_disabled":false,"rental_uris":{"android":"levelo://app?vid=47da1670-da68-43b6-9b1f-0d8989d07441","ios":"levelo://app?vid=47da1670-da68-43b6-9b1f-0d8989d07441"},"vehicle_type_id":"4","last_reported":1745536169,"current_range_meters":20800,"station_id":"","pricing_plan_id":"cebpf4jnsgd1na2vs0mg"},{"bike_id":"c75b0ecf-2815-46e8-a970-e0609ff997a4","system_id":"levelo_inurba_marseille","lat":43.26488,"lon":5.3955,"is_reserved":false,"is_disabled":true,"rental_uris":{"android":"levelo://app?vid=c75b0ecf-2815-46e8-a970-e0609ff997a4","ios":"levelo://app?vid=c75b0ecf-2815-46e8-a970-e0609ff997a4"},"vehicle_type_id":"4","last_reported":1745536169,"current_range_meters":20800,"station_id":"ce4bhi12rcd13ifvqfq0","pricing_plan_id":"cebpf4jnsgd1na2vs0mg"},{"bike_id":"eb937363-3674-486c-8d15-ae3472601050","system_id":"levelo_inurba_marseille","lat":43.30931,"lon":5.40143,"is_reserved":false,"is_disabled":false,"rental_uris":{"android":"levelo://app?vid=eb937363-3674-486c-8d15-ae3472601050","ios":"levelo://app?vid=eb937363-3674-486c-8d15-ae3472601050"},"vehicle_type_id":"4","last_reported":1745536169,"current_range_meters":20800,"station_id":"ce4bgvp2rcd13ifvqct0","pricing_plan_id":"cebpf4jnsgd1na2vs0mg"},{"bike_id":"1390d4da-ac1f-4535-a012-20dc27fef6c1","system_id":"levelo_inurba_marseille","lat":43.311113,"lon":5.37782,"is_reserved":false,"is_disabled":false,"rental_uris":{"android":"levelo://app?vid=1390d4da-ac1f-4535-a012-20dc27fef6c1","ios":"levelo://app?vid=1390d4da-ac1f-4535-a012-20dc27fef6c1"},"vehicle_type_id":"4","last_reported":1745536169,"current_range_meters":20800,"station_id":"ce4bgt92rcd13ifvqcg0","pricing_plan_id":"cebpf4jnsgd1na2vs0mg"},{"bike_id":"2fcbafef-2a9d-48b6-a118-09858f5e49b2","system_id":"levelo_inurba_marseille","lat":43.27917,"lon":5.39589,"is_reserved":false,"is_disabled":false,"rental_uris":{"android":"levelo://app?vid=2fcbafef-2a9d-48b6-a118-09858f5e49b2","ios":"levelo://app?vid=2fcbafef-2a9d-48b6-a118-09858f5e49b2"},"vehicle_type_id":"4","last_reported":1745536169,"current_range_meters":20800,"station_id":"ce4bhf92rcd13ifvqf40","pricing_plan_id":"cebpf4jnsgd1na2vs0mg"},{"bike_id":"4046a82f-66e8-4b55-bd0a-356edea772d8","system_id":"levelo_inurba_marseille","lat":43.30827,"lon":5.37303,"is_reserved":false,"is_disabled":false,"rental_uris":{"android":"levelo://app?vid=4046a82f-66e8-4b55-bd0a-356edea772d8","ios":"levelo://app?vid=4046a82f-66e8-4b55-bd0a-356edea772d8"},"vehicle_type_id":"4","last_reported":1745536169,"current_range_meters":21600,"station_id":"","pricing_plan_id":"cebpf4jnsgd1na2vs0mg"},{"bike_id":"4b022ba5-7b3c-419c-b5b4-555d53ac4ce7","system_id":"levelo_inurba_marseille","lat":43.31722,"lon":5.43708,"is_reserved":false,"is_disabled":false,"rental_uris":{"android":"levelo://app?vid=4b022ba5-7b3c-419c-b5b4-555d53ac4ce7","ios":"levelo://app?vid=4b022ba5-7b3c-419c-b5b4-555d53ac4ce7"},