{"last_updated":1747555924,"ttl":60,"version":"2.2","data":{"bikes":[{"bike_id":"c0b9fd4f-e181-46ce-b0bf-f5119973334f","system_id":"levelo_inurba_marseille","lat":43.33771,"lon":5.37424,"is_reserved":false,"is_disabled":true,"rental_uris":{"android":"levelo://app?vid=c0b9fd4f-e181-46ce-b0bf-f5119973334f","ios":"levelo://app?vid=c0b9fd4f-e181-46ce-b0bf-f5119973334f"},"vehicle_type_id":"4","last_reported":1747555924,"current_range_meters":1600,"station_id":"","pricing_plan_id":"cebpf4jnsgd1na2vs0mg"},{"bike_id":"78a72d2e-086e-4202-8619-96d6a7e70ccc","system_id":"levelo_inurba_marseille","lat":43.283618,"lon":5.398961,"is_reserved":false,"is_disabled":true,"rental_uris":{"android":"levelo://app?vid=78a72d2e-086e-4202-8619-96d6a7e70ccc","ios":"levelo://app?vid=78a72d2e-086e-4202-8619-96d6a7e70ccc"},"vehicle_type_id":"4","last_reported":1747555924,"current_range_meters":0,"station_id":"","pricing_plan_id":"cebpf4jnsgd1na2vs0mg"},{"bike_id":"fc2577e7-1497-425b-9d4f-ab8d7dc843c6","system_id":"levelo_inurba_marseille","lat":43.33771,"lon":5.37485,"is_reserved":false,"is_disabled":true,"rental_uris":{"android":"levelo://app?vid=fc2577e7-1497-425b-9d4f-ab8d7dc843c6","ios":"levelo://app?vid=fc2577e7-1497-425b-9d4f-ab8d7dc843c6"},"vehicle_type_id":"4","last_reported":1747555924,"current_range_meters":0,"station_id":"","pricing_plan_id":"cebpf4jnsgd1na2vs0mg"},{"bike_id":"80d0d83f-909d-4568-b4e7-8a3ef4eed2de","system_id":"levelo_inurba_marseille","lat":43.25362,"lon":5.41922,"is_reserved":false,"is_disabled":true,"rental_uris":{"android":"levelo://app?vid=80d0d83f-909d-4568-b4e7-8a3ef4eed2de","ios":"levelo://app?vid=80d0d83f-909d-4568-b4e7-8a3ef4eed2de"},"vehicle_type_id":"4","last_reported":1747555924,"current_range_meters":0,"station_id":"","pricing_plan_id":"cebpf4jnsgd1na2vs0mg"},{"bike_id":"1c306c3e-c8bd-4009-ac53-251079544953","system_id":"levelo_inurba_marseille","lat":43.25063,"lon":5.42703,"is_reserved":false,"is_disabled":true,"rental_uris":{"android":"levelo://app?vid=1c306c3e-c8bd-4009-ac53-251079544953","ios":"levelo://app?vid=1c306c3e-c8bd-4009-ac53-251079544953"},"vehicle_type_id":"4","last_reported":1747555924,"current_range_meters":0,"station_id":"","pricing_plan_id":"cebpf4jnsgd1na2vs0mg"},{"bike_id":"ce4325af-2448-4172-bdec-81d552ee0b62","system_id":"levelo_inurba_marseille","lat":43.26114,"lon":5.42074,"is_reserved":false,"is_disabled":true,"rental_uris":{"android":"levelo://app?vid=ce4325af-2448-4172-bdec-81d552ee0b62","ios":"levelo://app?vid=ce4325af-2448-4172-bdec-81d552ee0b62"},"vehicle_type_id":"4","last_reported":1747555924,"current_range_meters":0,"station_id":"","pricing_plan_id":"cebpf4jnsgd1na2vs0mg"},{"bike_id":"23939faf-d206-4b93-ade4-199417584041","system_id":"levelo_inurba_marseille","lat":43.24957,"lon":5.37539,"is_reserved":false,"is_disabled":true,"rental_uris":{"android":"levelo://app?vid=23939faf-d206-4b93-ade4-199417584041","ios":"levelo://app?vid=23939faf-d206-4b93-ade4-199417584041"},"vehicle_type_id":"4","last_reported":1747555924,"current_range_meters":0,"station_id":"","pricing_plan_id":"cebpf4jnsgd1na2vs0mg"},{"bike_id":"c94af0c5-fcda-4413-885f-4b4f3e453db7","system_id":"levelo_inurba_marseille","lat":43.24555,"lon":5.37329,"is_reserved":false,"is_disabled":true,"rental_uris":{"android":"levelo://app?vid=c94af0c5-fcda-4413-885f-4b4f3e453db7","ios":"levelo://app?vid=c94af0c5-fcda-4413-885f-4b4f3e453db7"},"vehicle_type_id":"4","last_reported":1747555924,"current_range_meters":0,"station_id":"","pricing_plan_id":"cebpf4jnsgd1na2vs0mg"},{"bike_id":"792567c6-0442-4011-aff0-9c05e25deb48","system_id":"levelo_inurba_marseille","lat":43.337444,"lon":5.374475,"is_reserved":false,"is_disabled":true,"rental_uris":{"android":"levelo://app?vid=792567c6-0442-4011-aff0-9c05e25deb48","ios":"levelo://app?vid=792567c6-0442-4011-aff0-9c05e25deb48"},"vehicle_type_id":"4","last_reported":1747555924,"current_range_meters":0,"station_id":"","pricing_plan_id":"cebpf4jnsgd1na2vs0mg"},{"bike_id":"bb0baa39-1e01-43e0-a77c-5ba8d631e8a2","system_id":"levelo_inurba_marseille","lat":43.27287,"lon":5.38558,"is_reserved":false,"is_disabled":true,"rental_uris":{"android":"levelo://app?vid=bb0baa39-1e01-43e0-a77c-5ba8d631e8a2","ios":"levelo://app?vid=bb0baa39-1e01-43e0-a77c-5ba8d631e8a2"},"vehicle_type_id":"4","last_reported":1747555924,"current_range_meters":0,"station_id":"","pricing_plan_id":"cebpf4jnsgd1na2vs0mg"},{"bike_id":"fed75af4-b476-4a13-b4fd-2f59e9048300","system_id":"levelo_inurba_marseille","lat":43.30159,"lon":5.38091,"is_reserved":false,"is_disabled":true,"rental_uris":{"android":"levelo://app?vid=fed75af4-b476-4a13-b4fd-2f59e9048300","ios":"levelo://app?vid=fed75af4-b476-4a13-b4fd-2f59e9048300"},"vehicle_type_id":"4","last_reported":1747555924,"current_range_meters":0,"station_id":"ce4bgjp2rcd13ifvqbh0","pricing_plan_id":"cebpf4jnsgd1na2vs0mg"},{"bike_id":"9edfb01c-04e1-4d6e-b370-521f2d8da386","system_id":"levelo_inurba_marseille","lat":43.30243,"lon":5.4011,"is_reserved":false,"is_disabled":true,"rental_uris":{"android":"levelo://app?vid=9edfb01c-04e1-4d6e-b370-521f2d8da386","ios":"levelo://app?vid=9edfb01c-04e1-4d6e-b370-521f2d8da386"},"vehicle_type_id":"4","last_reported":1747555924,"current_range_meters":0,"station_id":"ce4bgvh2rcd13ifvqcs0","pricing_plan_id":"cebpf4jnsgd1na2vs0mg"},{"bike_id":"7767ae57-f034-4e8b-b914-6e6183cc8c15","system_id":"levelo_inurba_marseille","lat":43.302069,"lon":5.394793,"is_reserved":false,"is_disabled":true,"rental_uris":{"android":"levelo://app?vid=7767ae57-f034-4e8b-b914-6e6183cc8c15","ios":"levelo://app?vid=7767ae57-f034-4e8b-b914-6e6183cc8c15"},"vehicle_type_id":"4","last_reported":1747555924,"current_range_meters":0,"station_id":"ce4bh0p2rcd13ifvqd70","pricing_plan_id":"cebpf4jnsgd1na2vs0mg"},{"bike_id":"b5a61f79-7769-4d2c-8c0f-b325d9ea8144","system_id":"levelo_inurba_marseille","lat":43.28409,"lon":5.37514,"is_reserved":false,"is_disabled":true,"rental_uris":{"android":"levelo://app?vid=b5a61f79-7769-4d2c-8c0f-b325d9ea8144","ios":"levelo://app?vid=b5a61f79-7769-4d2c-8c0f-b325d9ea8144"},"vehicle_type_id":"4","last_reported":1747555924,"current_range_meters":0,"station_id":"ce4bh412rcd13ifvqds0","pricing_plan_id":"cebpf4jnsgd1na2vs0mg"},{"bike_id":"9599faab-fbef-40fe-838b-0685eb49526d","system_id":"levelo_inurba_marseille","lat":43.26566,"lon":5.37302,"is_reserved":false,"is_disabled":true,"rental_uris":{"android":"levelo://app?vid=9599faab-fbef-40fe-838b-0685eb49526d","ios":"levelo://app?vid=9599faab-fbef-40fe-838b-0685eb49526d"},"vehicle_type_id":"4","last_reported":1747555924,"current_range_meters":0,"station_id":"ce4bhg12rcd13ifvqf70","pricing_plan_id":"cebpf4jnsgd1na2vs0mg"},{"bike_id":"6045ed86-69c0-42e1-a332-73f71b7c283a","system_id":"levelo_inurba_marseille","lat":43.2668,"lon":5.3826,"is_reserved":false,"is_disabled":true,"rental_uris":{"android":"levelo://app?vid=6045ed86-69c0-42e1-a332-73f71b7c283a","ios":"levelo://app?vid=6045ed86-69c0-42e1-a332-73f71b7c283a"},"vehicle_type_id":"4","last_reported":1747555924,"current_range_meters":0,"station_id":"ce4bhg92rcd13ifvqf90","pricing_plan_id":"cebpf4jnsgd1na2vs0mg"},{"bike_id":"b0a74861-b963-430f-9480-d7130008afbb","system_id":"levelo_inurba_marseille","lat":43.26183,"lon":5.37459,"is_reserved":false,"is_disabled":true,"rental_uris":{"android":"levelo://app?vid=b0a74861-b963-430f-9480-d7130008afbb","ios":"levelo://app?vid=b0a74861-b963-430f-9480-d7130008afbb"},"vehicle_type_id":"4","last_reported":1747555924,"current_range_meters":0,"station_id":"ce4bhgp2rcd13ifvqfc0","pricing_plan_id":"cebpf4jnsgd1na2vs0mg"},{"bike_id":"5d23977f-d32e-4dd6-b71d-2d14316b7dad","system_id":"levelo_inurba_marseille","lat":43.23959,"lon":5.36645,"is_reserved":false,"is_disabled":true,"rental_uris":{"android":"levelo://app?vid=5d23977f-d32e-4dd6-b71d-2d14316b7dad","ios":"levelo://app?vid=5d23977f-d32e-4dd6-b71d-2d14316b7dad"},"vehicle_type_id":"4","last_reported":1747555924,"current_range_meters":0,"station_id":"ce4bhi12rcd13ifvqfp0","pricing_plan_id":"cebpf4jnsgd1na2vs0mg"},{"bike_id":"92d1699b-97a9-4849-a55c-f9e847120b2e","system_id":"levelo_inurba_marseille","lat":43.24663,"lon":5.3817,"is_reserved":false,"is_disabled":true,"rental_uris":{"android":"levelo://app?vid=92d1699b-97a9-4849-a55c-f9e847120b2e","ios":"levelo://app?vid=92d1699b-97a9-4849-a55c-f9e847120b2e"},"vehicle_type_id":"4","last_reported":1747555924,"current_range_meters":0,"station_id":"ce4bhih2rcd13ifvqfr0","pricing_plan_id":"cebpf4jnsgd1na2vs0mg"},{"bike_id":"f52c3e24-282e-4fb5-a1ea-652303c958d9","system_id":"levelo_inurba_marseille","lat":43.24169,"lon":5.39719,"is_reserved":false,"is_disabled":true,"rental_uris":{"android":"levelo://app?vid=f52c3e24-282e-4fb5-a1ea-652303c958d9","ios":"levelo://app?vid=f52c3e24-282e-4fb5-a1ea-652303c958d9"},"vehicle_type_id":"4","last_reported":1747555924,"current_range_meters":0,"station_id":"ce4bhn12rcd13ifvqgpg","pricing_plan_id":"cebpf4jnsgd1na2vs0mg"},{"bike_id":"4c8b85b7-6445-440b-974c-cf69ef597251","system_id":"levelo_inurba_marseille","lat":43.22933,"lon":5.35376,"is_reserved":false,"is_disabled":true,"rental_uris":{"android":"levelo://app?vid=4c8b85b7-6445-440b-974c-cf69ef597251","ios":"levelo://app?vid=4c8b85b7-6445-440b-974c-cf69ef597251"},"vehicle_type_id":"4","last_reported":1747555924,"current_range_meters":0,"station_id":"cpo3532slgdg3j2ikp40","pricing_plan_id":"cebpf4jnsgd1na2vs0mg"},{"bike_id":"59f9598d-e110-4192-bc18-7a255f754535","system_id":"levelo_inurba_marseille","lat":43.21763,"lon":5.34597,"is_reserved":false,"is_disabled":true,"rental_uris":{"android":"levelo://app?vid=59f9598d-e110-4192-bc18-7a255f754535","ios":"levelo://app?vid=59f9598d-e110-4192-bc18-7a255f754535"},"vehicle_type_id":"4","last_reported":1747555924,"current_range_meters":0,"station_id":"st_cvj6r9ubvosntc0bgbag","pricing_plan_id":"cebpf4jnsgd1na2vs0mg"},{"bike_id":"e9dd3aa4-b5e7-4480-926d-d7f537719bfa","system_id":"levelo_inurba_marseille","lat":43.23004,"lon":5.40222,"is_reserved":false,"is_disabled":true,"rental_uris":{"android":"levelo://app?vid=e9dd3aa4-b5e7-4480-926d-d7f537719bfa","ios":"levelo://app?vid=e9dd3aa4-b5e7-4480-926d-d7f537719bfa"},"vehicle_type_id":"4","last_reported":1747555924,"current_range_meters":800,"station_id":"","pricing_plan_id":"cebpf4jnsgd1na2vs0mg"},{"bike_id":"da4d9a3c-a15f-484a-8335-dbe9a722c3a2","system_id":"levelo_inurba_marseille","lat":43.28479,"lon":5.38427,"is_reserved":false,"is_disabled":true,"rental_uris":{"android":"levelo://app?vid=da4d9a3c-a15f-484a-8335-dbe9a722c3a2","ios":"levelo://app?vid=da4d9a3c-a15f-484a-8335-dbe9a722c3a2"},"vehicle_type_id":"4","last_reported":1747555924,"current_range_meters":800,"station_id":"ce4bh512rcd13ifvqe3g","pricing_plan_id":"cebpf4jnsgd1na2vs0mg"},{"bike_id":"b9df08aa-aab5-4f64-a98b-f889afb71ea6","system_id":"levelo_inurba_marseille","lat":43.23964,"lon":5.36637,"is_reserved":false,"is_disabled":true,"rental_uris":{"android":"levelo://app?vid=b9df08aa-aab5-4f64-a98b-f889afb71ea6","ios":"levelo://app?vid=b9df08aa-aab5-4f64-a98b-f889afb71ea6"},"vehicle_type_id":"4","last_reported":1747555924,"current_range_meters":800,"station_id":"ce4bhi12rcd13ifvqfp0","pricing_plan_id":"cebpf4jnsgd1na2vs0mg"},{"bike_id":"a5dbecf1-f509-414b-bdb8-dc7ccc0cd72c","system_id":"levelo_inurba_marseille","lat":43.27073,"lon":5.42276,"is_reserved":false,"is_disabled":true,"rental_uris":{"android":"levelo://app?vid=a5dbecf1-f509-414b-bdb8-dc7ccc0cd72c","ios":"levelo://app?vid=a5dbecf1-f509-414b-bdb8-dc7ccc0cd72c"},"vehicle_type_id":"4","last_reported":1747555924,"current_range_meters":1200,"station_id":"ce4bhk92rcd13ifvqgb0","pricing_plan_id":"cebpf4jnsgd1na2vs0mg"},{"bike_id":"73fe2201-180f-4088-b74e-48ba4dd218f6","system_id":"levelo_inurba_marseille","lat":43.229462,"lon":5.354093,"is_reserved":false,"is_disabled":true,"rental_uris":{"android":"levelo://app?vid=73fe2201-180f-4088-b74e-48ba4dd218f6","ios":"levelo://app?vid=73fe2201-180f-4088-b74e-48ba4dd218f6"},"vehicle_type_id":"4","last_reported":1747555924,"current_range_meters":1200,"station_id":"cpo3532slgdg3j2ikp40","pricing_plan_id":"cebpf4jnsgd1na2vs0mg"},{"bike_id":"d2153235-f52a-4124-9d72-3a91fea52bbe","system_id":"levelo_inurba_marseille","lat":43.31334,"lon":5.39712,"is_reserved":false,"is_disabled":true,"rental_uris":{"android":"levelo://app?vid=d2153235-f52a-4124-9d72-3a91fea52bbe","ios":"levelo://app?vid=d2153235-f52a-4124-9d72-3a91fea52bbe"},"vehicle_type_id":"4","last_reported":1747555924,"current_range_meters":1600,"station_id":"ce4bgvp2rcd13ifvqcu0","pricing_plan_id":"cebpf4jnsgd1na2vs0mg"},{"bike_id":"f9bd1aac-8546-43f2-b958-4186b2a9d52e","system_id":"levelo_inurba_marseille","lat":43.26552,"lon":5.37287,"is_reserved":false,"is_disabled":true,"rental_uris":{"android":"levelo://app?vid=f9bd1aac-8546-43f2-b958-4186b2a9d52e","ios":"levelo://app?vid=f9bd1aac-8546-43f2-b958-4186b2a9d52e"},"vehicle_type_id":"4","last_reported":1747555924,"current_range_meters":1600,"station_id":"ce4bhg12rcd13ifvqf70","pricing_plan_id":"cebpf4jnsgd1na2vs0mg"},{"bike_id":"3b05d5f0-02cd-40a3-993a-b55dadb88fbb","system_id":"levelo_inurba_marseille","lat":43.24072,"lon":5.37764,"is_reserved":false,"is_disabled":true,"rental_uris":{"android":"levelo://app?vid=3b05d5f0-02cd-40a3-993a-b55dadb88fbb","ios":"levelo://app?vid=3b05d5f0-02cd-40a3-993a-b55dadb88fbb"},"vehicle_type_id":"4","last_reported":1747555924,"current_range_meters":2000,"station_id":"ce4bhnp2rcd13ifvqgvg","pricing_plan_id":"cebpf4jnsgd1na2vs0mg"},{"bike_id":"ac1d5c91-f7d6-4ef4-bd1c-5cdee4c8f8c4","system_id":"levelo_inurba_marseille","lat":43.301469,"lon":5.380926,"is_reserved":false,"is_disabled":false,"rental_uris":{"android":"levelo://app?vid=ac1d5c91-f7d6-4ef4-bd1c-5cdee4c8f8c4","ios":"levelo://app?vid=ac1d5c91-f7d6-4ef4-bd1c-5cdee4c8f8c4"},"vehicle_type_id":"4","last_reported":1747555924,"current_range_meters":2800,"station_id":"ce4bgjp2rcd13ifvqbh0","pricing_plan_id":"cebpf4jnsgd1na2vs0mg"},{"bike_id":"8b420cf9-5122-4b0b-accc-22b67f9392bc","system_id":"levelo_inurba_marseille","lat":43.29011,"lon":5.35613,"is_reserved":false,"is_disabled":false,"rental_uris":{"android":"levelo://app?vid=8b420cf9-5122-4b0b-accc-22b67f9392bc","ios":"levelo://app?vid=8b420cf9-5122-4b0b-accc-22b67f9392bc"},"vehicle_type_id":"4","last_reported":1747555924,"current_range_meters":2800,"station_id":"ce4bhb92rcd13ifvqen0","pricing_plan_id":"cebpf4jnsgd1na2vs0mg"},{"bike_id":"343caff8-66ae-48de-8ad2-12268cecda98","system_id":"levelo_inurba_marseille","lat":43.24163,"lon":5.36411,"is_reserved":false,"is_disabled":false,"rental_uris":{"android":"levelo://app?vid=343caff8-66ae-48de-8ad2-12268cecda98","ios":"levelo://app?vid=343caff8-66ae-48de-8ad2-12268cecda98"},"vehicle_type_id":"4","last_reported":1747555924,"current_range_meters":3200,"station_id":"cpo36qri1sfpv3e86is0","pricing_plan_id":"cebpf4jnsgd1na2vs0mg"},{"bike_id":"a4063de7-3465-4b39-9bf8-ef1a75de7c2d","system_id":"levelo_inurba_marseille","lat":43.28574,"lon":5.46091,"is_reserved":false,"is_disabled":false,"rental_uris":{"android":"levelo://app?vid=a4063de7-3465-4b39-9bf8-ef1a75de7c2d","ios":"levelo://app?vid=a4063de7-3465-4b39-9bf8-ef1a75de7c2d"},"vehicle_type_id":"4","last_reported":1747555924,"current_range_meters":3600,"station_id":"","pricing_plan_id":"cebpf4jnsgd1na2vs0mg"},{"bike_id":"1676ddb4-29a5-4180-a7d8-067d530fbaf5","system_id":"levelo_inurba_marseille","lat":43.28867,"lon":5.3584,"is_reserved":false,"is_disabled":false,"rental_uris":{"android":"levelo://app?vid=1676ddb4-29a5-4180-a7d8-067d530fbaf5","ios":"levelo://app?vid=1676ddb4-29a5-4180-a7d8-067d530fbaf5"},"vehicle_type_id":"4","last_reported":1747555924,"current_range_meters":3600,"station_id":"ce4bhb12rcd13ifvqem0","pricing_plan_id":"cebpf4jnsgd1na2vs0mg"},{"bike_id":"440ae94b-2d73-4f33-98f4-1a21eef1edba","system_id":"levelo_inurba_marseille","lat":43.2655,"lon":5.37311,"is_reserved":false,"is_disabled":false,"rental_uris":{"android":"levelo://app?vid=440ae94b-2d73-4f33-98f4-1a21eef1edba","ios":"levelo://app?vid=440ae94b-2d73-4f33-98f4-1a21eef1edba"},"vehicle_type_id":"4","last_reported":1747555924,"current_range_meters":3600,"station_id":"ce4bhg12rcd13ifvqf70","pricing_plan_id":"cebpf4jnsgd1na2vs0mg"},{"bike_id":"3fa58c22-00c6-48db-914d-ec2861a3d890","system_id":"levelo_inurba_marseille","lat":43.31077,"lon":5.40261,"is_reserved":false,"is_disabled":false,"rental_uris":{"android":"levelo://app?vid=3fa58c22-00c6-48db-914d-ec2861a3d890","ios":"levelo://app?vid=3fa58c22-00c6-48db-914d-ec2861a3d890"},"vehicle_type_id":"4","last_reported":1747555924,"current_range_meters":4000,"station_id":"","pricing_plan_id":"cebpf4jnsgd1na2vs0mg"},{"bike_id":"6cd5c425-f8ac-4068-b8ea-a8bfbef29ee5","system_id":"levelo_inurba_marseille","lat":43.249947,"lon":5.379447,"is_reserved":false,"is_disabled":false,"rental_uris":{"android":"levelo://app?vid=6cd5c425-f8ac-4068-b8ea-a8bfbef29ee5","ios":"levelo://app?vid=6cd5c425-f8ac-4068-b8ea-a8bfbef29ee5"},"vehicle_type_id":"4","last_reported":1747555924,"current_range_meters":4400,"station_id":"","pricing_plan_id":"cebpf4jnsgd1na2vs0mg"},{"bike_id":"9157d2c4-129b-4725-983a-03c13b66bc52","system_id":"levelo_inurba_marseille","lat":43.29301,"lon":5.37462,"is_reserved":false,"is_disabled":false,"rental_uris":{"android":"levelo://app?vid=9157d2c4-129b-4725-983a-03c13b66bc52","ios":"levelo://app?vid=9157d2c4-129b-4725-983a-03c13b66bc52"},"vehicle_type_id":"4","last_reported":1747555924,"current_range_meters":4400,"station_id":"ce4bgi12rcd13ifvqb70","pricing_plan_id":"cebpf4jnsgd1na2vs0mg"},{"bike_id":"aec9bd3d-6acd-4e61-baca-2fda14586575","system_id":"levelo_inurba_marseille","lat":43.298037,"lon":5.404043,"is_reserved":false,"is_disabled":false,"rental_uris":{"android":"levelo://app?vid=aec9bd3d-6acd-4e61-baca-2fda14586575","ios":"levelo://app?vid=aec9bd3d-6acd-4e61-baca-2fda14586575"},"vehicle_type_id":"4","last_reported":1747555924,"current_range_meters":4800,"station_id":"ce4bh112rcd13ifvqd90","pricing_plan_id":"cebpf4jnsgd1na2vs0mg"},{"bike_id":"3b843dca-d67a-4b0e-916b-710ebb36ec6d","system_id":"levelo_inurba_marseille","lat":43.325099,"lon":5.401395,"is_reserved":false,"is_disabled":false,"rental_uris":{"android":"levelo://app?vid=3b843dca-d67a-4b0e-916b-710ebb36ec6d","ios":"levelo://app?vid=3b843dca-d67a-4b0e-916b-710ebb36ec6d"},"vehicle_type_id":"4","last_reported":1747555924,"current_range_meters":5600,"station_id":"","pricing_plan_id":"cebpf4jnsgd1na2vs0mg"},{"bike_id":"584c70d0-0918-4aa0-b289-fcc6a9442003","system_id":"levelo_inurba_marseille","lat":43.25909,"lon":5.38856,"is_reserved":false,"is_disabled":false,"rental_uris":{"android":"levelo://app?vid=584c70d0-0918-4aa0-b289-fcc6a9442003","ios":"levelo://app?vid=584c70d0-0918-4aa0-b289-fcc6a9442003"},"vehicle_type_id":"4","last_reported":1747555924,"current_range_meters":5600,"station_id":"","pricing_plan_id":"cebpf4jnsgd1na2vs0mg"},{"bike_id":"e2fc8af1-f5b5-4887-bcc2-61f17df64fdc","system_id":"levelo_inurba_marseille","lat":43.24692,"lon":5.38129,"is_reserved":false,"is_disabled":false,"rental_uris":{"android":"levelo://app?vid=e2fc8af1-f5b5-4887-bcc2-61f17df64fdc","ios":"levelo://app?vid=e2fc8af1-f5b5-4887-bcc2-61f17df64fdc"},"vehicle_type_id":"4","last_reported":1747555924,"current_range_meters":5600,"station_id":"ce4bhih2rcd13ifvqfr0","pricing_plan_id":"cebpf4jnsgd1na2vs0mg"},{"bike_id":"1e5a7839-d218-47a9-988d-f5fdcdfa5acb","system_id":"levelo_inurba_marseille","lat":43.25817,"lon":5.39444,"is_reserved":false,"is_disabled":false,"rental_uris":{"android":"levelo://app?vid=1e5a7839-d218-47a9-988d-f5fdcdfa5acb","ios":"levelo://app?vid=1e5a7839-d218-47a9-988d-f5fdcdfa5acb"},"vehicle_type_id":"4","last_reported":1747555924,"current_range_meters":6000,"station_id":"ce4bhip2rcd13ifvqft0","pricing_plan_id":"cebpf4jnsgd1na2vs0mg"},{"bike_id":"bbda5443-72b0-478a-aaad-922de1a84bda","system_id":"levelo_inurba_marseille","lat":43.23157,"lon":5.43698,"is_reserved":false,"is_disabled":false,"rental_uris":{"android":"levelo://app?vid=bbda5443-72b0-478a-aaad-922de1a84bda","ios":"levelo://app?vid=bbda5443-72b0-478a-aaad-922de1a84bda"},"vehicle_type_id":"4","last_reported":1747555924,"current_range_meters":6000,"station_id":"ce4bhmp2rcd13ifvqgog","pricing_plan_id":"cebpf4jnsgd1na2vs0mg"},{"bike_id":"91dba3a3-259c-42db-8d87-47893df59540","system_id":"levelo_inurba_marseille","lat":43.26026,"lon":5.375497,"is_reserved":false,"is_disabled":false,"rental_uris":{"android":"levelo://app?vid=91dba3a3-259c-42db-8d87-47893df59540","ios":"levelo://app?vid=91dba3a3-259c-42db-8d87-47893df59540"},"vehicle_type_id":"4","last_reported":1747555924,"current_range_meters":6400,"station_id":"ce4bhgh2rcd13ifvqfa0","pricing_plan_id":"cebpf4jnsgd1na2vs0mg"},{"bike_id":"06aff4a3-b43d-4315-aac9-5837018b077d","system_id":"levelo_inurba_marseille","lat":43.255,"lon":5.37652,"is_reserved":false,"is_disabled":false,"rental_uris":{"android":"levelo://app?vid=06aff4a3-b43d-4315-aac9-5837018b077d","ios":"levelo://app?vid=06aff4a3-b43d-4315-aac9-5837018b077d"},"vehicle_type_id":"4","last_reported":1747555924,"current_range_meters":6400,"station_id":"ce4bhh12rcd13ifvqff0","pricing_plan_id":"cebpf4jnsgd1na2vs0mg"},{"bike_id":"7711fff8-1c30-4c3a-aa27-6e5dbb51f698","system_id":"levelo_inurba_marseille","lat":43.24562,"lon":5.40637,"is_reserved":false,"is_disabled":false,"rental_uris":{"android":"levelo://app?vid=7711fff8-1c30-4c3a-aa27-6e5dbb51f698","ios":"levelo://app?vid=7711fff8-1c30-4c3a-aa27-6e5dbb51f698"},"vehicle_type_id":"4","last_reported":1747555924,"current_range_meters":6400,"station_id":"ce4bhlh2rcd13ifvqgig","pricing_plan_id":"cebpf4jnsgd1na2vs0mg"},{"bike_id":"80ce8948-82cf-42c6-8ab6-4636b50ac5f8","system_id":"levelo_inurba_marseille","lat":43.315364,"lon":5.380182,"is_reserved":false,"is_disabled":false,"rental_uris":{"android":"levelo://app?vid=80ce8948-82cf-42c6-8ab6-4636b50ac5f8","ios":"levelo://app?vid=80ce8948-82cf-42c6-8ab6-4636b50ac5f8"},"vehicle_type_id":"4","last_reported":1747555924,"current_range_meters":6400,"station_id":"ce4bhsp2rcd13ifvqi50","pricing_plan_id":"cebpf4jnsgd1na2vs0mg"},{"bike_id":"39295a67-818d-4c4b-acd8-ebcf53b310ba","system_id":"levelo_inurba_marseille","lat":43.309294,"lon":5.401506,"is_reserved":false,"is_disabled":false,"rental_uris":{"android":"levelo://app?vid=39295a67-818d-4c4b-acd8-ebcf53b310ba","ios":"levelo://app?vid=39295a67-818d-4c4b-acd8-ebcf53b310ba"},"vehicle_type_id":"4","last_reported":1747555924,"current_range_meters":6800,"station_id":"ce4bgvp2rcd13ifvqct0","pricing_plan_id":"cebpf4jnsgd1na2vs0mg"},{"bike_id":"0ed5cac1-ac36-4e25-bc05-3cc774b0a41e","system_id":"levelo_inurba_marseille","lat":43.30126,"lon":5.3986,"is_reserved":false,"is_disabled":false,"rental_uris":{"android":"levelo://app?vid=0ed5cac1-ac36-4e25-bc05-3cc774b0a41e","ios":"levelo://app?vid=0ed5cac1-ac36-4e25-bc05-3cc774b0a41e"},"vehicle_type_id":"4","last_reported":1747555924,"current_range_meters":6800,"station_id":"ce4bh0h2rcd13ifvqd40","pricing_plan_id":"cebpf4jnsgd1na2vs0mg"},{"bike_id":"54161b7a-ee9b-4e69-a1bd-d2a4ce23b665","system_id":"levelo_inurba_marseille","lat":43.29002,"lon":5.35612,"is_reserved":false,"is_disabled":false,"rental_uris":{"android":"levelo://app?vid=54161b7a-ee9b-4e69-a1bd-d2a4ce23b665","ios":"levelo://app?vid=54161b7a-ee9b-4e69-a1bd-d2a4ce23b665"},"vehicle_type_id":"4","last_reported":1747555924,"current_range_meters":6800,"station_id":"ce4bhb92rcd13ifvqen0","pricing_plan_id":"cebpf4jnsgd1na2vs0mg"},{"bike_id":"123ae55b-6b07-49b7-90aa-71520b895cea","system_id":"levelo_inurba_marseille","lat":43.27047,"lon":5.40273,"is_reserved":false,"is_disabled":false,"rental_uris":{"android":"levelo://app?vid=123ae55b-6b07-49b7-90aa-71520b895cea","ios":"levelo://app?vid=123ae55b-6b07-49b7-90aa-71520b895cea"},"vehicle_type_id":"4","last_reported":1747555924,"current_range_meters":6800,"station_id":"ce4bhk92rcd13ifvqgc0","pricing_plan_id":"cebpf4jnsgd1na2vs0mg"},{"bike_id":"d7083365-d53c-43f3-9d86-ec17e99d1c3c","system_id":"levelo_inurba_marseille","lat":43.23175,"lon":5.39988,"is_reserved":false,"is_disabled":false,"rental_uris":{"android":"levelo://app?vid=d7083365-d53c-43f3-9d86-ec17e99d1c3c","ios":"levelo://app?vid=d7083365-d53c-43f3-9d86-ec17e99d1c3c"},"vehicle_type_id":"4","last_reported":1747555924,"current_range_meters":6800,"station_id":"ce4bhn12rcd13ifvqgqg","pricing_plan_id":"cebpf4jnsgd1na2vs0mg"},{"bike_id":"55fb771a-6e76-45c4-a9b7-cda97a0011d0","system_id":"levelo_inurba_marseille","lat":43.2876,"lon":5.38284,"is_reserved":false,"is_disabled":false,"rental_uris":{"android":"levelo://app?vid=55fb771a-6e76-45c4-a9b7-cda97a0011d0","ios":"levelo://app?vid=55fb771a-6e76-45c4-a9b7-cda97a0011d0"},"vehicle_type_id":"4","last_reported":1747555924,"current_range_meters":7200,"station_id":"","pricing_plan_id":"cebpf4jnsgd1na2vs0mg"},{"bike_id":"456df13e-096a-4823-8eea-67f822f45ee6","system_id":"levelo_inurba_marseille","lat":43.25119,"lon":5.40311,"is_reserved":false,"is_disabled":false,"rental_uris":{"android":"levelo://app?vid=456df13e-096a-4823-8eea-67f822f45ee6","ios":"levelo://app?vid=456df13e-096a-4823-8eea-67f822f45ee6"},"vehicle_type_id":"4","last_reported":1747555924,"current_range_meters":7200,"station_id":"ce4bhlh2rcd13ifvqgig","pricing_plan_id":"cebpf4jnsgd1na2vs0mg"},{"bike_id":"d0cc36ba-dea5-4301-b9bc-2db32098db5e","system_id":"levelo_inurba_marseille","lat":43.25073,"lon":5.39503,"is_reserved":false,"is_disabled":false,"rental_uris":{"android":"levelo://app?vid=d0cc36ba-dea5-4301-b9bc-2db32098db5e","ios":"levelo://app?vid=d0cc36ba-dea5-4301-b9bc-2db32098db5e"},"vehicle_type_id":"4","last_reported":1747555924,"current_range_meters":7200,"station_id":"ce4bhm12rcd13ifvqgkg","pricing_plan_id":"cebpf4jnsgd1na2vs0mg"},{"bike_id":"b8e6468b-87db-4ff6-8122-ef13bf5b7c8c","system_id":"levelo_inurba_marseille","lat":43.31379,"lon":5.37916,"is_reserved":false,"is_disabled":false,"rental_uris":{"android":"levelo://app?vid=b8e6468b-87db-4ff6-8122-ef13bf5b7c8c","ios":"levelo://app?vid=b8e6468b-87db-4ff6-8122-ef13bf5b7c8c"},"vehicle_type_id":"4","last_reported":1747555924,"current_range_meters":8000,"station_id":"","pricing_plan_id":"cebpf4jnsgd1na2vs0mg"},{"bike_id":"5017954c-5dbd-4e13-b8ce-34ea20a4ac3e","system_id":"levelo_inurba_marseille","lat":43.26226,"lon":5.37423,"is_reserved":false,"is_disabled":false,"rental_uris":{"android":"levelo://app?vid=5017954c-5dbd-4e13-b8ce-34ea20a4ac3e","ios":"levelo://app?vid=5017954c-5dbd-4e13-b8ce-34ea20a4ac3e"},"vehicle_type_id":"4","last_reported":1747555924,"current_range_meters":8000,"station_id":"","pricing_plan_id":"cebpf4jnsgd1na2vs0mg"},{"bike_id":"0e643c49-55b7-4013-9035-8e29a4bbf97b","system_id":"levelo_inurba_marseille","lat":43.24688,"lon":5.38141,"is_reserved":false,"is_disabled":false,"rental_uris":{"android":"levelo://app?vid=0e643c49-55b7-4013-9035-8e29a4bbf97b","ios":"levelo://app?vid=0e643c49-55b7-4013-9035-8e29a4bbf97b"},"vehicle_type_id":"4","last_reported":1747555924,"current_range_meters":8000,"station_id":"ce4bhih2rcd13ifvqfr0","pricing_plan_id":"cebpf4jnsgd1na2vs0mg"},{"bike_id":"3713df8b-43d5-4d70-91a2-ef15d7bcf40b","system_id":"levelo_inurba_marseille","lat":43.25117,"lon":5.40336,"is_reserved":false,"is_disabled":false,"rental_uris":{"android":"levelo://app?vid=3713df8b-43d5-4d70-91a2-ef15d7bcf40b","ios":"levelo://app?vid=3713df8b-43d5-4d70-91a2-ef15d7bcf40b"},"vehicle_type_id":"4","last_reported":1747555924,"current_range_meters":8000,"station_id":"ce4bhlh2rcd13ifvqgig","pricing_plan_id":"cebpf4jnsgd1na2vs0mg"},{"bike_id":"c72a5d3e-b3db-49f5-aebc-8781a4c4dcd1","system_id":"levelo_inurba_marseille","lat":43.28662,"lon":5.36352,"is_reserved":false,"is_disabled":false,"rental_uris":{"android":"levelo://app?vid=c72a5d3e-b3db-49f5-aebc-8781a4c4dcd1","ios":"levelo://app?vid=c72a5d3e-b3db-49f5-aebc-8781a4c4dcd1"},"vehicle_type_id":"4","last_reported":1747555924,"current_range_meters":8400,"station_id":"ce4bhah2rcd13ifvqej0","pricing_plan_id":"cebpf4jnsgd1na2vs0mg"},{"bike_id":"82862649-485d-4988-aeb2-e287bb522774","system_id":"levelo_inurba_marseille","lat":43.289404,"lon":5.364063,"is_reserved":false,"is_disabled":false,"rental_uris":{"android":"levelo://app?vid=82862649-485d-4988-aeb2-e287bb522774","ios":"levelo://app?vid=82862649-485d-4988-aeb2-e287bb522774"},"vehicle_type_id":"4","last_reported":1747555924,"current_range_meters":8400,"station_id":"ce4bhc92rcd13ifvqetg","pricing_plan_id":"cebpf4jnsgd1na2vs0mg"},{"bike_id":"9589ebbd-b37b-4e43-90f3-7510e9deb229","system_id":"levelo_inurba_marseille","lat":43.26569,"lon":5.39011,"is_reserved":false,"is_disabled":false,"rental_uris":{"android":"levelo://app?vid=9589ebbd-b37b-4e43-90f3-7510e9deb229","ios":"levelo://app?vid=9589ebbd-b37b-4e43-90f3-7510e9deb229"},"vehicle_type_id":"4","last_reported":1747555924,"current_range_meters":8400,"station_id":"ce4bhe12rcd13ifvqf30","pricing_plan_id":"cebpf4jnsgd1na2vs0mg"},{"bike_id":"5ea6f467-857b-4ea7-a4b9-4a241fcc702a","system_id":"levelo_inurba_marseille","lat":43.24678,"lon":5.38152,"is_reserved":false,"is_disabled":false,"rental_uris":{"android":"levelo://app?vid=5ea6f467-857b-4ea7-a4b9-4a241fcc702a","ios":"levelo://app?vid=5ea6f467-857b-4ea7-a4b9-4a241fcc702a"},"vehicle_type_id":"4","last_reported":1747555924,"current_range_meters":8400,"station_id":"ce4bhih2rcd13ifvqfr0","pricing_plan_id":"cebpf4jnsgd1na2vs0mg"},{"bike_id":"4b3297d3-2f19-4578-a387-6277c6a46759","system_id":"levelo_inurba_marseille","lat":43.257255,"lon":5.411015,"is_reserved":false,"is_disabled":false,"rental_uris":{"android":"levelo://app?vid=4b3297d3-2f19-4578-a387-6277c6a46759","ios":"levelo://app?vid=4b3297d3-2f19-4578-a387-6277c6a46759"},"vehicle_type_id":"4","last_reported":1747555924,"current_range_meters":8400,"station_id":"ce4bhkp2rcd13ifvqgd0","pricing_plan_id":"cebpf4jnsgd1na2vs0mg"},{"bike_id":"c0db4030-ef30-480b-a735-af5435a471ed","system_id":"levelo_inurba_marseille","lat":43.27732,"lon":5.4265,"is_reserved":false,"is_disabled":false,"rental_uris":{"android":"levelo://app?vid=c0db4030-ef30-480b-a735-af5435a471ed","ios":"levelo://app?vid=c0db4030-ef30-480b-a735-af5435a471ed"},"vehicle_type_id":"4","last_reported":1747555924,"current_range_meters":8800,"station_id":"","pricing_plan_id":"cebpf4jnsgd1na2vs0mg"},{"bike_id":"02259454-0373-4186-8615-7b4434f1449b","system_id":"levelo_inurba_marseille","lat":43.26219,"lon":5.37423,"is_reserved":false,"is_disabled":false,"rental_uris":{"android":"levelo://app?vid=02259454-0373-4186-8615-7b4434f1449b","ios":"levelo://app?vid=02259454-0373-4186-8615-7b4434f1449b"},"vehicle_type_id":"4","last_reported":1747555924,"current_range_meters":8800,"station_id":"","pricing_plan_id":"cebpf4jnsgd1na2vs0mg"},{"bike_id":"87b1d5a0-ca20-4099-8fc3-ab0909b77445","system_id":"levelo_inurba_marseille","lat":43.30928,"lon":5.40153,"is_reserved":false,"is_disabled":false,"rental_uris":{"android":"levelo://app?vid=87b1d5a0-ca20-4099-8fc3-ab0909b77445","ios":"levelo://app?vid=87b1d5a0-ca20-4099-8fc3-ab0909b77445"},"vehicle_type_id":"4","last_reported":1747555924,"current_range_meters":8800,"station_id":"ce4bgvp2rcd13ifvqct0","pricing_plan_id":"cebpf4jnsgd1na2vs0mg"},{"bike_id":"5c81d409-bb02-4f79-9610-2c9cefac4414","system_id":"levelo_inurba_marseille","lat":43.26558,"lon":5.37307,"is_reserved":false,"is_disabled":false,"rental_uris":{"android":"levelo://app?vid=5c81d409-bb02-4f79-9610-2c9cefac4414","ios":"levelo://app?vid=5c81d409-bb02-4f79-9610-2c9cefac4414"},"vehicle_type_id":"4","last_reported":1747555924,"current_range_meters":8800,"station_id":"ce4bhg12rcd13ifvqf70","pricing_plan_id":"cebpf4jnsgd1na2vs0mg"},{"bike_id":"0fb02880-5c6e-4026-9e4a-07529c572b44","system_id":"levelo_inurba_marseille","lat":43.25474,"lon":5.37387,"is_reserved":false,"is_disabled":false,"rental_uris":{"android":"levelo://app?vid=0fb02880-5c6e-4026-9e4a-07529c572b44","ios":"levelo://app?vid=0fb02880-5c6e-4026-9e4a-07529c572b44"},"vehicle_type_id":"4","last_reported":1747555924,"current_range_meters":9200,"station_id":"","pricing_plan_id":"cebpf4jnsgd1na2vs0mg"},{"bike_id":"fbb9dc35-fa9d-42e4-9fd8-bc3154190a90","system_id":"levelo_inurba_marseille","lat":43.30929,"lon":5.40164,"is_reserved":false,"is_disabled":false,"rental_uris":{"android":"levelo://app?vid=fbb9dc35-fa9d-42e4-9fd8-bc3154190a90","ios":"levelo://app?vid=fbb9dc35-fa9d-42e4-9fd8-bc3154190a90"},"vehicle_type_id":"4","last_reported":1747555924,"current_range_meters":9200,"station_id":"ce4bgvp2rcd13ifvqct0","pricing_plan_id":"cebpf4jnsgd1na2vs0mg"},{"bike_id":"792c9dbd-158e-4661-91d4-2c1ed379e655","system_id":"levelo_inurba_marseille","lat":43.24681,"lon":5.38137,"is_reserved":false,"is_disabled":false,"rental_uris":{"android":"levelo://app?vid=792c9dbd-158e-4661-91d4-2c1ed379e655","ios":"levelo://app?vid=792c9dbd-158e-4661-91d4-2c1ed379e655"},"vehicle_type_id":"4","last_reported":1747555924,"current_range_meters":9200,"station_id":"ce4bhih2rcd13ifvqfr0","pricing_plan_id":"cebpf4jnsgd1na2vs0mg"},{"bike_id":"953cb372-e37b-4b34-9fc7-227d922b64f1","system_id":"levelo_inurba_marseille","lat":43.25128,"lon":5.40303,"is_reserved":false,"is_disabled":false,"rental_uris":{"android":"levelo://app?vid=953cb372-e37b-4b34-9fc7-227d922b64f1","ios":"levelo://app?vid=953cb372-e37b-4b34-9fc7-227d922b64f1"},"vehicle_type_id":"4","last_reported":1747555924,"current_range_meters":9200,"station_id":"ce4bhlh2rcd13ifvqgig","pricing_plan_id":"cebpf4jnsgd1na2vs0mg"},{"bike_id":"3980d76b-e904-45ba-9bbd-4ee10919b44c","system_id":"levelo_inurba_marseille","lat":43.31082,"lon":5.3819,"is_reserved":false,"is_disabled":false,"rental_uris":{"android":"levelo://app?vid=3980d76b-e904-45ba-9bbd-4ee10919b44c","ios":"levelo://app?vid=3980d76b-e904-45ba-9bbd-4ee10919b44c"},"vehicle_type_id":"4","last_reported":1747555924,"current_range_meters":9600,"station_id":"","pricing_plan_id":"cebpf4jnsgd1na2vs0mg"},{"bike_id":"14603e41-b2dd-4757-a53c-2e366aa4f983","system_id":"levelo_inurba_marseille","lat":43.269936,"lon":5.428246,"is_reserved":false,"is_disabled":false,"rental_uris":{"android":"levelo://app?vid=14603e41-b2dd-4757-a53c-2e366aa4f983","ios":"levelo://app?vid=14603e41-b2dd-4757-a53c-2e366aa4f983"},"vehicle_type_id":"4","last_reported":1747555924,"current_range_meters":9600,"station_id":"","pricing_plan_id":"cebpf4jnsgd1na2vs0mg"},{"bike_id":"97b300a0-20d8-41f2-b827-9268f6b990a8","system_id":"levelo_inurba_marseille","lat":43.24806,"lon":5.37449,"is_reserved":false,"is_disabled":false,"rental_uris":{"android":"levelo://app?vid=97b300a0-20d8-41f2-b827-9268f6b990a8","ios":"levelo://app?vid=97b300a0-20d8-41f2-b827-9268f6b990a8"},"vehicle_type_id":"4","last_reported":1747555924,"current_range_meters":9600,"station_id":"ce4bhgh2rcd13ifvqfb0","pricing_plan_id":"cebpf4jnsgd1na2vs0mg"},{"bike_id":"caf4c81d-8b81-4d8d-a4f9-9d00bac7ad70","system_id":"levelo_inurba_marseille","lat":43.307783,"lon":5.428188,"is_reserved":false,"is_disabled":false,"rental_uris":{"android":"levelo://app?vid=caf4c81d-8b81-4d8d-a4f9-9d00bac7ad70","ios":"levelo://app?vid=caf4c81d-8b81-4d8d-a4f9-9d00bac7ad70"},"vehicle_type_id":"4","last_reported":1747555924,"current_range_meters":10000,"station_id":"","pricing_plan_id":"cebpf4jnsgd1na2vs0mg"},{"bike_id":"5ca58abf-df9d-46cb-92dc-47144d1e93f5","system_id":"levelo_inurba_marseille","lat":43.29269,"lon":5.40122,"is_reserved":false,"is_disabled":false,"rental_uris":{"android":"levelo://app?vid=5ca58abf-df9d-46cb-92dc-47144d1e93f5","ios":"levelo://app?vid=5ca58abf-df9d-46cb-92dc-47144d1e93f5"},"vehicle_type_id":"4","last_reported":1747555924,"current_range_meters":10000,"station_id":"ce4bh312rcd13ifvqdk0","pricing_plan_id":"cebpf4jnsgd1na2vs0mg"},{"bike_id":"b9a86e9b-6362-4615-bf7f-1be49e2b60ac","system_id":"levelo_inurba_marseille","lat":43.26207,"lon":5.37438,"is_reserved":false,"is_disabled":false,"rental_uris":{"android":"levelo://app?vid=b9a86e9b-6362-4615-bf7f-1be49e2b60ac","ios":"levelo://app?vid=b9a86e9b-6362-4615-bf7f-1be49e2b60ac"},"vehicle_type_id":"4","last_reported":1747555924,"current_range_meters":10000,"station_id":"ce4bhgp2rcd13ifvqfc0","pricing_plan_id":"cebpf4jnsgd1na2vs0mg"},{"bike_id":"ffc3ddf2-0082-4578-9e25-c91f5b4279bc","system_id":"levelo_inurba_marseille","lat":43.283169,"lon":5.411219,"is_reserved":false,"is_disabled":false,"rental_uris":{"android":"levelo://app?vid=ffc3ddf2-0082-4578-9e25-c91f5b4279bc","ios":"levelo://app?vid=ffc3ddf2-0082-4578-9e25-c91f5b4279bc"},"vehicle_type_id":"4","last_reported":1747555924,"current_range_meters":10800,"station_id":"","pricing_plan_id":"cebpf4jnsgd1na2vs0mg"},{"bike_id":"84b43cb2-ba7c-45cf-9447-5135651fe838","system_id":"levelo_inurba_marseille","lat":43.290114,"lon":5.356061,"is_reserved":false,"is_disabled":false,"rental_uris":{"android":"levelo://app?vid=84b43cb2-ba7c-45cf-9447-5135651fe838","ios":"levelo://app?vid=84b43cb2-ba7c-45cf-9447-5135651fe838"},"vehicle_type_id":"4","last_reported":1747555924,"current_range_meters":10800,"station_id":"ce4bhb92rcd13ifvqen0","pricing_plan_id":"cebpf4jnsgd1na2vs0mg"},{"bike_id":"7d9dd8c1-69f5-4957-8992-21b219e4420c","system_id":"levelo_inurba_marseille","lat":43.24681,"lon":5.38149,"is_reserved":false,"is_disabled":false,"rental_uris":{"android":"levelo://app?vid=7d9dd8c1-69f5-4957-8992-21b219e4420c","ios":"levelo://app?vid=7d9dd8c1-69f5-4957-8992-21b219e4420c"},"vehicle_type_id":"4","last_reported":1747555924,"current_range_meters":10800,"station_id":"ce4bhih2rcd13ifvqfr0","pricing_plan_id":"cebpf4jnsgd1na2vs0mg"},{"bike_id":"8dfe3edc-82df-4b5a-a412-16963c595c57","system_id":"levelo_inurba_marseille","lat":43.30898,"lon":5.39623,"is_reserved":false,"is_disabled":false,"rental_uris":{"android":"levelo://app?vid=8dfe3edc-82df-4b5a-a412-16963c595c57","ios":"levelo://app?vid=8dfe3edc-82df-4b5a-a412-16963c595c57"},"vehicle_type_id":"4","last_reported":1747555924,"current_range_meters":11200,"station_id":"ce4bh012rcd13ifvqcv0","pricing_plan_id":"cebpf4jnsgd1na2vs0mg"},{"bike_id":"e00c6a0a-1c27-4fa9-b7ad-7d75ec1239f1","system_id":"levelo_inurba_marseille","lat":43.30133,"lon":5.39875,"is_reserved":false,"is_disabled":false,"rental_uris":{"android":"levelo://app?vid=e00c6a0a-1c27-4fa9-b7ad-7d75ec1239f1","ios":"levelo://app?vid=e00c6a0a-1c27-4fa9-b7ad-7d75ec1239f1"},"vehicle_type_id":"4","last_reported":1747555924,"current_range_meters":11200,"station_id":"ce4bh0h2rcd13ifvqd40","pricing_plan_id":"cebpf4jnsgd1na2vs0mg"},{"bike_id":"56de12ec-c2b3-4960-90ca-a3bf7841338a","system_id":"levelo_inurba_marseille","lat":43.24646,"lon":5.38889,"is_reserved":false,"is_disabled":false,"rental_uris":{"android":"levelo://app?vid=56de12ec-c2b3-4960-90ca-a3bf7841338a","ios":"levelo://app?vid=56de12ec-c2b3-4960-90ca-a3bf7841338a"},"vehicle_type_id":"4","last_reported":1747555924,"current_range_meters":11200,"station_id":"ce4bhg12rcd13ifvqf60","pricing_plan_id":"cebpf4jnsgd1na2vs0mg"},{"bike_id":"c608898e-58b6-42f7-903a-6008119c7a64","system_id":"levelo_inurba_marseille","lat":43.2406,"lon":5.37793,"is_reserved":false,"is_disabled":false,"rental_uris":{"android":"levelo://app?vid=c608898e-58b6-42f7-903a-6008119c7a64","ios":"levelo://app?vid=c608898e-58b6-42f7-903a-6008119c7a64"},"vehicle_type_id":"4","last_reported":1747555924,"current_range_meters":11200,"station_id":"ce4bhnp2rcd13ifvqgvg","pricing_plan_id":"cebpf4jnsgd1na2vs0mg"},{"bike_id":"6e1bd625-3ec1-43df-9657-36d71ae09f8d","system_id":"levelo_inurba_marseille","lat":43.33654,"lon":5.37392,"is_reserved":false,"is_disabled":false,"rental_uris":{"android":"levelo://app?vid=6e1bd625-3ec1-43df-9657-36d71ae09f8d","ios":"levelo://app?vid=6e1bd625-3ec1-43df-9657-36d71ae09f8d"},"vehicle_type_id":"4","last_reported":1747555924,"current_range_meters":11600,"station_id":"","pricing_plan_id":"cebpf4jnsgd1na2vs0mg"},{"bike_id":"4745dd8b-a0b2-49db-b417-8a28eecc51d4","system_id":"levelo_inurba_marseille","lat":43.24333,"lon":5.38001,"is_reserved":false,"is_disabled":false,"rental_uris":{"android":"levelo://app?vid=4745dd8b-a0b2-49db-b417-8a28eecc51d4","ios":"levelo://app?vid=4745dd8b-a0b2-49db-b417-8a28eecc51d4"},"vehicle_type_id":"4","last_reported":1747555924,"current_range_meters":11600,"station_id":"","pricing_plan_id":"cebpf4jnsgd1na2vs0mg"},{"bike_id":"3eeb1526-fa7b-4464-8541-5da717eccaa2","system_id":"levelo_inurba_marseille","lat":43.30254,"lon":5.40066,"is_reserved":false,"is_disabled":false,"rental_uris":{"android":"levelo://app?vid=3eeb1526-fa7b-4464-8541-5da717eccaa2","ios":"levelo://app?vid=3eeb1526-fa7b-4464-8541-5da717eccaa2"},"vehicle_type_id":"4","last_reported":1747555924,"current_range_meters":11600,"station_id":"ce4bgvh2rcd13ifvqcs0","pricing_plan_id":"cebpf4jnsgd1na2vs0mg"},{"bike_id":"27f05115-decc-4fbb-b226-cbb837efe701","system_id":"levelo_inurba_marseille","lat":43.30396,"lon":5.40651,"is_reserved":false,"is_disabled":false,"rental_uris":{"android":"levelo://app?vid=27f05115-decc-4fbb-b226-cbb837efe701","ios":"levelo://app?vid=27f05115-decc-4fbb-b226-cbb837efe701"},"vehicle_type_id":"4","last_reported":1747555924,"current_range_meters":11600,"station_id":"ce4bgvh2rcd13ifvqcs0","pricing_plan_id":"cebpf4jnsgd1na2vs0mg"},{"bike_id":"f4422497-4aad-4e8b-bd52-83c14c78c01b","system_id":"levelo_inurba_marseille","lat":43.25108,"lon":5.40321,"is_reserved":false,"is_disabled":false,"rental_uris":{"android":"levelo://app?vid=f4422497-4aad-4e8b-bd52-83c14c78c01b","ios":"levelo://app?vid=f4422497-4aad-4e8b-bd52-83c14c78c01b"},"vehicle_type_id":"4","last_reported":1747555924,"current_range_meters":11600,"station_id":"ce4bhlh2rcd13ifvqgig","pricing_plan_id":"cebpf4jnsgd1na2vs0mg"},{"bike_id":"7238b89e-2b97-4bc5-95ab-4759c70767ab","system_id":"levelo_inurba_marseille","lat":43.31092,"lon":5.37773,"is_reserved":false,"is_disabled":false,"rental_uris":{"android":"levelo://app?vid=7238b89e-2b97-4bc5-95ab-4759c70767ab","ios":"levelo://app?vid=7238b89e-2b97-4bc5-95ab-4759c70767ab"},"vehicle_type_id":"4","last_reported":1747555924,"current_range_meters":12000,"station_id":"ce4bgt92rcd13ifvqcg0","pricing_plan_id":"cebpf4jnsgd1na2vs0mg"},{"bike_id":"4dffd31d-8e70-4f64-9f56-b96e07e01ca5","system_id":"levelo_inurba_marseille","lat":43.28463,"lon":5.3589,"is_reserved":false,"is_disabled":false,"rental_uris":{"android":"levelo://app?vid=4dffd31d-8e70-4f64-9f56-b96e07e01ca5","ios":"levelo://app?vid=4dffd31d-8e70-4f64-9f56-b96e07e01ca5"},"vehicle_type_id":"4","last_reported":1747555924,"current_range_meters":12000,"station_id":"ce4bhah2rcd13ifvqei0","pricing_plan_id":"cebpf4jnsgd1na2vs0mg"},{"bike_id":"a2e8ac07-c27d-4596-ac54-d8fb456abf0d","system_id":"levelo_inurba_marseille","lat":43.28243,"lon":5.42424,"is_reserved":false,"is_disabled":false,"rental_uris":{"android":"levelo://app?vid=a2e8ac07-c27d-4596-ac54-d8fb456abf0d","ios":"levelo://app?vid=a2e8ac07-c27d-4596-ac54-d8fb456abf0d"},"vehicle_type_id":"4","last_reported":1747555924,"current_range_meters":12400,"station_id":"","pricing_plan_id":"cebpf4jnsgd1na2vs0mg"},{"bike_id":"96794d86-ceb4-4bc9-a5d6-b811ecb90c98","system_id":"levelo_inurba_marseille","lat":43.30462,"lon":5.37914,"is_reserved":false,"is_disabled":false,"rental_uris":{"android":"levelo://app?vid=96794d86-ceb4-4bc9-a5d6-b811ecb90c98","ios":"levelo://app?vid=96794d86-ceb4-4bc9-a5d6-b811ecb90c98"},"vehicle_type_id":"4","last_reported":1747555924,"current_range_meters":12400,"station_id":"ce4bgup2rcd13ifvqcn0","pricing_plan_id":"cebpf4jnsgd1na2vs0mg"},{"bike_id":"262036fe-d80c-4d06-a49b-dfb02bc52ea7","system_id":"levelo_inurba_marseille","lat":43.30925,"lon":5.40148,"is_reserved":false,"is_disabled":false,"rental_uris":{"android":"levelo://app?vid=262036fe-d80c-4d06-a49b-dfb02bc52ea7","ios":"levelo://app?vid=262036fe-d80c-4d06-a49b-dfb02bc52ea7"},"vehicle_type_id":"4","last_reported":1747555924,"current_range_meters":12800,"station_id":"ce4bgvp2rcd13ifvqct0","pricing_plan_id":"cebpf4jnsgd1na2vs0mg"},{"bike_id":"54d2a89b-f648-4563-b8c2-f7e2390cefb5","system_id":"levelo_inurba_marseille","lat":43.27375,"lon":5.36258,"is_reserved":false,"is_disabled":false,"rental_uris":{"android":"levelo://app?vid=54d2a89b-f648-4563-b8c2-f7e2390cefb5","ios":"levelo://app?vid=54d2a89b-f648-4563-b8c2-f7e2390cefb5"},"vehicle_type_id":"4","last_reported":1747555924,"current_range_meters":12800,"station_id":"ce4bhbh2rcd13ifvqeo0","pricing_plan_id":"cebpf4jnsgd1na2vs0mg"},{"bike_id":"55982159-14b0-423d-a8c0-c157cf2770cd","system_id":"levelo_inurba_marseille","lat":43.2777,"lon":5.36227,"is_reserved":false,"is_disabled":false,"rental_uris":{"android":"levelo://app?vid=55982159-14b0-423d-a8c0-c157cf2770cd","ios":"levelo://app?vid=55982159-14b0-423d-a8c0-c157cf2770cd"},"vehicle_type_id":"4","last_reported":1747555924,"current_range_meters":13600,"station_id":"","pricing_plan_id":"cebpf4jnsgd1na2vs0mg"},{"bike_id":"b26a0dd7-cbdc-4ab7-8def-31c4b88b224a","system_id":"levelo_inurba_marseille","lat":43.31217,"lon":5.3924,"is_reserved":false,"is_disabled":false,"rental_uris":{"android":"levelo://app?vid=b26a0dd7-cbdc-4ab7-8def-31c4b88b224a","ios":"levelo://app?vid=b26a0dd7-cbdc-4ab7-8def-31c4b88b224a"},"vehicle_type_id":"4","last_reported":1747555924,"current_range_meters":13600,"station_id":"","pricing_plan_id":"cebpf4jnsgd1na2vs0mg"},{"bike_id":"1b4dc95b-4f7c-45dc-ac35-a308bf3dea34","system_id":"levelo_inurba_marseille","lat":43.26193,"lon":5.3744,"is_reserved":false,"is_disabled":false,"rental_uris":{"android":"levelo://app?vid=1b4dc95b-4f7c-45dc-ac35-a308bf3dea34","ios":"levelo://app?vid=1b4dc95b-4f7c-45dc-ac35-a308bf3dea34"},"vehicle_type_id":"4","last_reported":1747555924,"current_range_meters":13600,"station_id":"ce4bhgp2rcd13ifvqfc0","pricing_plan_id":"cebpf4jnsgd1na2vs0mg"},{"bike_id":"d5fb89db-2b2b-49bf-b8f8-b310aa6e8f4a","system_id":"levelo_inurba_marseille","lat":43.27206,"lon":5.39181,"is_reserved":false,"is_disabled":false,"rental_uris":{"android":"levelo://app?vid=d5fb89db-2b2b-49bf-b8f8-b310aa6e8f4a","ios":"levelo://app?vid=d5fb89db-2b2b-49bf-b8f8-b310aa6e8f4a"},"vehicle_type_id":"4","last_reported":1747555924,"current_range_meters":13600,"station_id":"ce4bhhp2rcd13ifvqfm0","pricing_plan_id":"cebpf4jnsgd1na2vs0mg"},{"bike_id":"be2c3896-fa0c-4a27-a492-db322855c4b2","system_id":"levelo_inurba_marseille","lat":43.25113,"lon":5.40316,"is_reserved":false,"is_disabled":false,"rental_uris":{"android":"levelo://app?vid=be2c3896-fa0c-4a27-a492-db322855c4b2","ios":"levelo://app?vid=be2c3896-fa0c-4a27-a492-db322855c4b2"},"vehicle_type_id":"4","last_reported":1747555924,"current_range_meters":13600,"station_id":"ce4bhlh2rcd13ifvqgig","pricing_plan_id":"cebpf4jnsgd1na2vs0mg"},{"bike_id":"5911af4c-0fec-4cf2-a307-b3bae3f3f5c8","system_id":"levelo_inurba_marseille","lat":43.31321,"lon":5.39692,"is_reserved":false,"is_disabled":false,"rental_uris":{"android":"levelo://app?vid=5911af4c-0fec-4cf2-a307-b3bae3f3f5c8","ios":"levelo://app?vid=5911af4c-0fec-4cf2-a307-b3bae3f3f5c8"},"vehicle_type_id":"4","last_reported":1747555924,"current_range_meters":14000,"station_id":"ce4bgvp2rcd13ifvqcu0","pricing_plan_id":"cebpf4jnsgd1na2vs0mg"},{"bike_id":"2f0cadb4-d32c-481d-b010-d7df56ff1e9c","system_id":"levelo_inurba_marseille","lat":43.29258,"lon":5.40903,"is_reserved":false,"is_disabled":false,"rental_uris":{"android":"levelo://app?vid=2f0cadb4-d32c-481d-b010-d7df56ff1e9c","ios":"levelo://app?vid=2f0cadb4-d32c-481d-b010-d7df56ff1e9c"},"vehicle_type_id":"4","last_reported":1747555924,"current_range_meters":14000,"station_id":"ce4bh192rcd13ifvqdc0","pricing_plan_id":"cebpf4jnsgd1na2vs0mg"},{"bike_id":"e64dcb02-45aa-440e-8d2c-f478789eecc4","system_id":"levelo_inurba_marseille","lat":43.26551,"lon":5.37287,"is_reserved":false,"is_disabled":false,"rental_uris":{"android":"levelo://app?vid=e64dcb02-45aa-440e-8d2c-f478789eecc4","ios":"levelo://app?vid=e64dcb02-45aa-440e-8d2c-f478789eecc4"},"vehicle_type_id":"4","last_reported":1747555924,"current_range_meters":14000,"station_id":"ce4bhg12rcd13ifvqf70","pricing_plan_id":"cebpf4jnsgd1na2vs0mg"},{"bike_id":"40aa43f6-ce93-43ee-b5dc-7d91f99956e0","system_id":"levelo_inurba_marseille","lat":43.26211,"lon":5.37434,"is_reserved":false,"is_disabled":false,"rental_uris":{"android":"levelo://app?vid=40aa43f6-ce93-43ee-b5dc-7d91f99956e0","ios":"levelo://app?vid=40aa43f6-ce93-43ee-b5dc-7d91f99956e0"},"vehicle_type_id":"4","last_reported":1747555924,"current_range_meters":14000,"station_id":"ce4bhgp2rcd13ifvqfc0","pricing_plan_id":"cebpf4jnsgd1na2vs0mg"},{"bike_id":"cbff0bd8-ab69-455f-978e-8e044433b1ea","system_id":"levelo_inurba_marseille","lat":43.30315,"lon":5.40453,"is_reserved":false,"is_disabled":false,"rental_uris":{"android":"levelo://app?vid=cbff0bd8-ab69-455f-978e-8e044433b1ea","ios":"levelo://app?vid=cbff0bd8-ab69-455f-978e-8e044433b1ea"},"vehicle_type_id":"4","last_reported":1747555924,"current_range_meters":14400,"station_id":"ce4bh012rcd13ifvqd10","pricing_plan_id":"cebpf4jnsgd1na2vs0mg"},{"bike_id":"067975f9-de59-40b9-871e-3a674d1d1272","system_id":"levelo_inurba_marseille","lat":43.27372,"lon":5.36253,"is_reserved":false,"is_disabled":false,"rental_uris":{"android":"levelo://app?vid=067975f9-de59-40b9-871e-3a674d1d1272","ios":"levelo://app?vid=067975f9-de59-40b9-871e-3a674d1d1272"},"vehicle_type_id":"4","last_reported":1747555924,"current_range_meters":14400,"station_id":"ce4bhbh2rcd13ifvqeo0","pricing_plan_id":"cebpf4jnsgd1na2vs0mg"},{"bike_id":"f255929a-4f93-470d-ba68-20a5c1075a93","system_id":"levelo_inurba_marseille","lat":43.30537,"lon":5.36561,"is_reserved":false,"is_disabled":false,"rental_uris":{"android":"levelo://app?vid=f255929a-4f93-470d-ba68-20a5c1075a93","ios":"levelo://app?vid=f255929a-4f93-470d-ba68-20a5c1075a93"},"vehicle_type_id":"4","last_reported":1747555924,"current_range_meters":14800,"station_id":"ce4bgs12rcd13ifvqcag","pricing_plan_id":"cebpf4jnsgd1na2vs0mg"},{"bike_id":"937d5002-9021-4e1a-9994-7b36f458e187","system_id":"levelo_inurba_marseille","lat":43.24547,"lon":5.39529,"is_reserved":false,"is_disabled":false,"rental_uris":{"android":"levelo://app?vid=937d5002-9021-4e1a-9994-7b36f458e187","ios":"levelo://app?vid=937d5002-9021-4e1a-9994-7b36f458e187"},"vehicle_type_id":"4","last_reported":1747555924,"current_range_meters":14800,"station_id":"ce4bhlp2rcd13ifvqgjg","pricing_plan_id":"cebpf4jnsgd1na2vs0mg"},{"bike_id":"0a672e4f-4d62-47b0-88d5-45b4c1c6a08c","system_id":"levelo_inurba_marseille","lat":43.29573,"lon":5.42274,"is_reserved":false,"is_disabled":false,"rental_uris":{"android":"levelo://app?vid=0a672e4f-4d62-47b0-88d5-45b4c1c6a08c","ios":"levelo://app?vid=0a672e4f-4d62-47b0-88d5-45b4c1c6a08c"},"vehicle_type_id":"4","last_reported":1747555924,"current_range_meters":14800,"station_id":"ce4bhph2rcd13ifvqhdg","pricing_plan_id":"cebpf4jnsgd1na2vs0mg"},{"bike_id":"c5ff94be-c2ea-413f-a053-ee20ee5d180d","system_id":"levelo_inurba_marseille","lat":43.31137,"lon":5.37749,"is_reserved":false,"is_disabled":false,"rental_uris":{"android":"levelo://app?vid=c5ff94be-c2ea-413f-a053-ee20ee5d180d","ios":"levelo://app?vid=c5ff94be-c2ea-413f-a053-ee20ee5d180d"},"vehicle_type_id":"4","last_reported":1747555924,"current_range_meters":15200,"station_id":"ce4bgt92rcd13ifvqcg0","pricing_plan_id":"cebpf4jnsgd1na2vs0mg"},{"bike_id":"bed62950-6e37-4e1b-841e-3146778e769a","system_id":"levelo_inurba_marseille","lat":43.26031,"lon":5.37554,"is_reserved":false,"is_disabled":false,"rental_uris":{"android":"levelo://app?vid=bed62950-6e37-4e1b-841e-3146778e769a","ios":"levelo://app?vid=bed62950-6e37-4e1b-841e-3146778e769a"},"vehicle_type_id":"4","last_reported":1747555924,"current_range_meters":15200,"station_id":"ce4bhgh2rcd13ifvqfa0","pricing_plan_id":"cebpf4jnsgd1na2vs0mg"},{"bike_id":"6108af11-7c53-4634-92da-d3dcd6a2bc0a","system_id":"levelo_inurba_marseille","lat":43.2621,"lon":5.37451,"is_reserved":false,"is_disabled":false,"rental_uris":{"android":"levelo://app?vid=6108af11-7c53-4634-92da-d3dcd6a2bc0a","ios":"levelo://app?vid=6108af11-7c53-4634-92da-d3dcd6a2bc0a"},"vehicle_type_id":"4","last_reported":1747555924,"current_range_meters":15200,"station_id":"ce4bhgp2rcd13ifvqfc0","pricing_plan_id":"cebpf4jnsgd1na2vs0mg"},{"bike_id":"58887f66-7108-4294-a00e-551c17af804a","system_id":"levelo_inurba_marseille","lat":43.26229,"lon":5.40445,"is_reserved":false,"is_disabled":false,"rental_uris":{"android":"levelo://app?vid=58887f66-7108-4294-a00e-551c17af804a","ios":"levelo://app?vid=58887f66-7108-4294-a00e-551c17af804a"},"vehicle_type_id":"4","last_reported":1747555924,"current_range_meters":15200,"station_id":"ce4bhmh2rcd13ifvqgmg","pricing_plan_id":"cebpf4jnsgd1na2vs0mg"},{"bike_id":"7a31f435-63bc-4ff6-838b-d79912959956","system_id":"levelo_inurba_marseille","lat":43.26221,"lon":5.40448,"is_reserved":false,"is_disabled":false,"rental_uris":{"android":"levelo://app?vid=7a31f435-63bc-4ff6-838b-d79912959956","ios":"levelo://app?vid=7a31f435-63bc-4ff6-838b-d79912959956"},"vehicle_type_id":"4","last_reported":1747555924,"current_range_meters":15200,"station_id":"ce4bhmh2rcd13ifvqgmg","pricing_plan_id":"cebpf4jnsgd1na2vs0mg"},{"bike_id":"b947e013-2e44-4d3f-95bd-7fde4f81ce7e","system_id":"levelo_inurba_marseille","lat":43.32335,"lon":5.40624,"is_reserved":false,"is_disabled":false,"rental_uris":{"android":"levelo://app?vid=b947e013-2e44-4d3f-95bd-7fde4f81ce7e","ios":"levelo://app?vid=b947e013-2e44-4d3f-95bd-7fde4f81ce7e"},"vehicle_type_id":"4","last_reported":1747555924,"current_range_meters":15200,"station_id":"ce4bhq92rcd13ifvqhjg","pricing_plan_id":"cebpf4jnsgd1na2vs0mg"},{"bike_id":"d48616d5-ae66-45d0-bc66-1075a9179bf3","system_id":"levelo_inurba_marseille","lat":43.30468,"lon":5.37909,"is_reserved":false,"is_disabled":false,"rental_uris":{"android":"levelo://app?vid=d48616d5-ae66-45d0-bc66-1075a9179bf3","ios":"levelo://app?vid=d48616d5-ae66-45d0-bc66-1075a9179bf3"},"vehicle_type_id":"4","last_reported":1747555924,"current_range_meters":16000,"station_id":"ce4bgup2rcd13ifvqcn0","pricing_plan_id":"cebpf4jnsgd1na2vs0mg"},{"bike_id":"ed34fad4-c48e-4c1a-b9b1-8eb1cd77d573","system_id":"levelo_inurba_marseille","lat":43.30943,"lon":5.38621,"is_reserved":false,"is_disabled":false,"rental_uris":{"android":"levelo://app?vid=ed34fad4-c48e-4c1a-b9b1-8eb1cd77d573","ios":"levelo://app?vid=ed34fad4-c48e-4c1a-b9b1-8eb1cd77d573"},"vehicle_type_id":"4","last_reported":1747555924,"current_range_meters":16000,"station_id":"ce4bgv12rcd13ifvqcp0","pricing_plan_id":"cebpf4jnsgd1na2vs0mg"},{"bike_id":"b41619e3-6dbe-49d7-baca-02ff8f7f1d54","system_id":"levelo_inurba_marseille","lat":43.30931,"lon":5.40139,"is_reserved":false,"is_disabled":false,"rental_uris":{"android":"levelo://app?vid=b41619e3-6dbe-49d7-baca-02ff8f7f1d54","ios":"levelo://app?vid=b41619e3-6dbe-49d7-baca-02ff8f7f1d54"},"vehicle_type_id":"4","last_reported":1747555924,"current_range_meters":16000,"station_id":"ce4bgvp2rcd13ifvqct0","pricing_plan_id":"cebpf4jnsgd1na2vs0mg"},{"bike_id":"74fbea3f-8a18-4fc8-8f56-6b744c75f57a","system_id":"levelo_inurba_marseille","lat":43.29876,"lon":5.397437,"is_reserved":false,"is_disabled":false,"rental_uris":{"android":"levelo://app?vid=74fbea3f-8a18-4fc8-8f56-6b744c75f57a","ios":"levelo://app?vid=74fbea3f-8a18-4fc8-8f56-6b744c75f57a"},"vehicle_type_id":"4","last_reported":1747555924,"current_range_meters":16000,"station_id":"ce4bh0h2rcd13ifvqd50","pricing_plan_id":"cebpf4jnsgd1na2vs0mg"},{"bike_id":"c38c0434-7c0b-4918-a236-1841e549db1d","system_id":"levelo_inurba_marseille","lat":43.251111,"lon":5.403268,"is_reserved":false,"is_disabled":false,"rental_uris":{"android":"levelo://app?vid=c38c0434-7c0b-4918-a236-1841e549db1d","ios":"levelo://app?vid=c38c0434-7c0b-4918-a236-1841e549db1d"},"vehicle_type_id":"4","last_reported":1747555924,"current_range_meters":16000,"station_id":"ce4bhlh2rcd13ifvqgig","pricing_plan_id":"cebpf4jnsgd1na2vs0mg"},{"bike_id":"63ee7651-d7fc-446f-b34b-5f1be0f0febd","system_id":"levelo_inurba_marseille","lat":43.32341,"lon":5.40624,"is_reserved":false,"is_disabled":false,"rental_uris":{"android":"levelo://app?vid=63ee7651-d7fc-446f-b34b-5f1be0f0febd","ios":"levelo://app?vid=63ee7651-d7fc-446f-b34b-5f1be0f0febd"},"vehicle_type_id":"4","last_reported":1747555924,"current_range_meters":16000,"station_id":"ce4bhq92rcd13ifvqhjg","pricing_plan_id":"cebpf4jnsgd1na2vs0mg"},{"bike_id":"1b586395-d7b7-480d-8921-ab9290352404","system_id":"levelo_inurba_marseille","lat":43.32382,"lon":5.36792,"is_reserved":false,"is_disabled":false,"rental_uris":{"android":"levelo://app?vid=1b586395-d7b7-480d-8921-ab9290352404","ios":"levelo://app?vid=1b586395-d7b7-480d-8921-ab9290352404"},"vehicle_type_id":"4","last_reported":1747555924,"current_range_meters":16000,"station_id":"ce4bhsh2rcd13ifvqi2g","pricing_plan_id":"cebpf4jnsgd1na2vs0mg"},{"bike_id":"19456222-7d38-48cf-a950-06daadd07927","system_id":"levelo_inurba_marseille","lat":43.25017,"lon":5.37546,"is_reserved":false,"is_disabled":false,"rental_uris":{"android":"levelo://app?vid=19456222-7d38-48cf-a950-06daadd07927","ios":"levelo://app?vid=19456222-7d38-48cf-a950-06daadd07927"},"vehicle_type_id":"4","last_reported":1747555924,"current_range_meters":16400,"station_id":"","pricing_plan_id":"cebpf4jnsgd1na2vs0mg"},{"bike_id":"bf2b2bfb-9733-4bda-908d-03391ae976cc","system_id":"levelo_inurba_marseille","lat":43.31188,"lon":5.41607,"is_reserved":false,"is_disabled":false,"rental_uris":{"android":"levelo://app?vid=bf2b2bfb-9733-4bda-908d-03391ae976cc","ios":"levelo://app?vid=bf2b2bfb-9733-4bda-908d-03391ae976cc"},"vehicle_type_id":"4","last_reported":1747555924,"current_range_meters":16400,"station_id":"","pricing_plan_id":"cebpf4jnsgd1na2vs0mg"},{"bike_id":"86603db7-b462-4e72-8622-a2dee8bb2920","system_id":"levelo_inurba_marseille","lat":43.337444,"lon":5.374475,"is_reserved":false,"is_disabled":false,"rental_uris":{"android":"levelo://app?vid=86603db7-b462-4e72-8622-a2dee8bb2920","ios":"levelo://app?vid=86603db7-b462-4e72-8622-a2dee8bb2920"},"vehicle_type_id":"4","last_reported":1747555924,"current_range_meters":16400,"station_id":"","pricing_plan_id":"cebpf4jnsgd1na2vs0mg"},{"bike_id":"ee75602a-f143-4ba1-b3de-330c8991247c","system_id":"levelo_inurba_marseille","lat":43.314801,"lon":5.373056,"is_reserved":false,"is_disabled":false,"rental_uris":{"android":"levelo://app?vid=ee75602a-f143-4ba1-b3de-330c8991247c","ios":"levelo://app?vid=ee75602a-f143-4ba1-b3de-330c8991247c"},"vehicle_type_id":"4","last_reported":1747555924,"current_range_meters":16400,"station_id":"ce4bgt12rcd13ifvqcd0","pricing_plan_id":"cebpf4jnsgd1na2vs0mg"},{"bike_id":"2bbf1c89-73b6-44ff-bdbf-98c1def8dc4a","system_id":"levelo_inurba_marseille","lat":43.31106,"lon":5.3776,"is_reserved":false,"is_disabled":false,"rental_uris":{"android":"levelo://app?vid=2bbf1c89-73b6-44ff-bdbf-98c1def8dc4a","ios":"levelo://app?vid=2bbf1c89-73b6-44ff-bdbf-98c1def8dc4a"},"vehicle_type_id":"4","last_reported":1747555924,"current_range_meters":16400,"station_id":"ce4bgt92rcd13ifvqcg0","pricing_plan_id":"cebpf4jnsgd1na2vs0mg"},{"bike_id":"1336de84-3b09-4c08-8114-b75edd89d70a","system_id":"levelo_inurba_marseille","lat":43.289443,"lon":5.363739,"is_reserved":false,"is_disabled":false,"rental_uris":{"android":"levelo://app?vid=1336de84-3b09-4c08-8114-b75edd89d70a","ios":"levelo://app?vid=1336de84-3b09-4c08-8114-b75edd89d70a"},"vehicle_type_id":"4","last_reported":1747555924,"current_range_meters":16400,"station_id":"ce4bhc92rcd13ifvqetg","pricing_plan_id":"cebpf4jnsgd1na2vs0mg"},{"bike_id":"5ddd41df-5811-4b09-99f7-599fa0ee82b0","system_id":"levelo_inurba_marseille","lat":43.2454,"lon":5.39522,"is_reserved":false,"is_disabled":false,"rental_uris":{"android":"levelo://app?vid=5ddd41df-5811-4b09-99f7-599fa0ee82b0","ios":"levelo://app?vid=5ddd41df-5811-4b09-99f7-599fa0ee82b0"},"vehicle_type_id":"4","last_reported":1747555924,"current_range_meters":16400,"station_id":"ce4bhlp2rcd13ifvqgjg","pricing_plan_id":"cebpf4jnsgd1na2vs0mg"},{"bike_id":"db647a88-7197-40ac-aeb0-6195ce252bd5","system_id":"levelo_inurba_marseille","lat":43.31074,"lon":5.4243,"is_reserved":false,"is_disabled":false,"rental_uris":{"android":"levelo://app?vid=db647a88-7197-40ac-aeb0-6195ce252bd5","ios":"levelo://app?vid=db647a88-7197-40ac-aeb0-6195ce252bd5"},"vehicle_type_id":"4","last_reported":1747555924,"current_range_meters":16400,"station_id":"ce4bhp92rcd13ifvqhag","pricing_plan_id":"cebpf4jnsgd1na2vs0mg"},{"bike_id":"c591037e-9bdc-4128-b08a-269580cd419f","system_id":"levelo_inurba_marseille","lat":43.31991,"lon":5.38129,"is_reserved":false,"is_disabled":false,"rental_uris":{"android":"levelo://app?vid=c591037e-9bdc-4128-b08a-269580cd419f","ios":"levelo://app?vid=c591037e-9bdc-4128-b08a-269580cd419f"},"vehicle_type_id":"4","last_reported":1747555924,"current_range_meters":16400,"station_id":"ce4bhr12rcd13ifvqhpg","pricing_plan_id":"cebpf4jnsgd1na2vs0mg"},{"bike_id":"cec3f715-614f-4bf0-96bd-7080ba74ba99","system_id":"levelo_inurba_marseille","lat":43.31066,"lon":5.37791,"is_reserved":false,"is_disabled":false,"rental_uris":{"android":"levelo://app?vid=cec3f715-614f-4bf0-96bd-7080ba74ba99","ios":"levelo://app?vid=cec3f715-614f-4bf0-96bd-7080ba74ba99"},"vehicle_type_id":"4","last_reported":1747555924,"current_range_meters":17200,"station_id":"","pricing_plan_id":"cebpf4jnsgd1na2vs0mg"},{"bike_id":"26ae3f71-446b-4d48-9715-d0cb78472fbf","system_id":"levelo_inurba_marseille","lat":43.31167,"lon":5.37023,"is_reserved":false,"is_disabled":false,"rental_uris":{"android":"levelo://app?vid=26ae3f71-446b-4d48-9715-d0cb78472fbf","ios":"levelo://app?vid=26ae3f71-446b-4d48-9715-d0cb78472fbf"},"vehicle_type_id":"4","last_reported":1747555924,"current_range_meters":17200,"station_id":"","pricing_plan_id":"cebpf4jnsgd1na2vs0mg"},{"bike_id":"a8085997-0af4-4667-a061-b271c4b9805c","system_id":"levelo_inurba_marseille","lat":43.29249,"lon":5.40908,"is_reserved":false,"is_disabled":false,"rental_uris":{"android":"levelo://app?vid=a8085997-0af4-4667-a061-b271c4b9805c","ios":"levelo://app?vid=a8085997-0af4-4667-a061-b271c4b9805c"},"vehicle_type_id":"4","last_reported":1747555924,"current_range_meters":17200,"station_id":"ce4bh192rcd13ifvqdc0","pricing_plan_id":"cebpf4jnsgd1na2vs0mg"},{"bike_id":"1e2f0c80-2ce7-417a-ae75-e6a168f4d00d","system_id":"levelo_inurba_marseille","lat":43.28629,"lon":5.38673,"is_reserved":false,"is_disabled":false,"rental_uris":{"android":"levelo://app?vid=1e2f0c80-2ce7-417a-ae75-e6a168f4d00d","ios":"levelo://app?vid=1e2f0c80-2ce7-417a-ae75-e6a168f4d00d"},"vehicle_type_id":"4","last_reported":1747555924,"current_range_meters":17200,"station_id":"ce4bh492rcd13ifvqdug","pricing_plan_id":"cebpf4jnsgd1na2vs0mg"},{"bike_id":"cf99a182-05bd-4cbc-b6a6-6a33541bdb08","system_id":"levelo_inurba_marseille","lat":43.25101,"lon":5.40342,"is_reserved":false,"is_disabled":false,"rental_uris":{"android":"levelo://app?vid=cf99a182-05bd-4cbc-b6a6-6a33541bdb08","ios":"levelo://app?vid=cf99a182-05bd-4cbc-b6a6-6a33541bdb08"},"vehicle_type_id":"4","last_reported":1747555924,"current_range_meters":17200,"station_id":"ce4bhlh2rcd13ifvqgig","pricing_plan_id":"cebpf4jnsgd1na2vs0mg"},{"bike_id":"b608ee5d-bf23-4ce8-a2bd-64e717b2445e","system_id":"levelo_inurba_marseille","lat":43.30376,"lon":5.42484,"is_reserved":false,"is_disabled":false,"rental_uris":{"android":"levelo://app?vid=b608ee5d-bf23-4ce8-a2bd-64e717b2445e","ios":"levelo://app?vid=b608ee5d-bf23-4ce8-a2bd-64e717b2445e"},"vehicle_type_id":"4","last_reported":1747555924,"current_range_meters":17200,"station_id":"ce4bhoh2rcd13ifvqh6g","pricing_plan_id":"cebpf4jnsgd1na2vs0mg"},{"bike_id":"67f72f62-eb9d-4994-bbcf-c10b28dd838c","system_id":"levelo_inurba_marseille","lat":43.26545,"lon":5.39411,"is_reserved":false,"is_disabled":false,"rental_uris":{"android":"levelo://app?vid=67f72f62-eb9d-4994-bbcf-c10b28dd838c","ios":"levelo://app?vid=67f72f62-eb9d-4994-bbcf-c10b28dd838c"},"vehicle_type_id":"4","last_reported":1747555924,"current_range_meters":17600,"station_id":"","pricing_plan_id":"cebpf4jnsgd1na2vs0mg"},{"bike_id":"57c6ae00-6409-469b-9ae9-2aaafead7ecb","system_id":"levelo_inurba_marseille","lat":43.295715,"lon":5.367356,"is_reserved":false,"is_disabled":false,"rental_uris":{"android":"levelo://app?vid=57c6ae00-6409-469b-9ae9-2aaafead7ecb","ios":"levelo://app?vid=57c6ae00-6409-469b-9ae9-2aaafead7ecb"},"vehicle_type_id":"4","last_reported":1747555924,"current_range_meters":17600,"station_id":"ce4bgph2rcd13ifvqc2g","pricing_plan_id":"cebpf4jnsgd1na2vs0mg"},{"bike_id":"bab63155-8d9b-4c71-8395-8818aaca2ac8","system_id":"levelo_inurba_marseille","lat":43.235283,"lon":5.360219,"is_reserved":false,"is_disabled":false,"rental_uris":{"android":"levelo://app?vid=bab63155-8d9b-4c71-8395-8818aaca2ac8","ios":"levelo://app?vid=bab63155-8d9b-4c71-8395-8818aaca2ac8"},"vehicle_type_id":"4","last_reported":1747555924,"current_range_meters":17600,"station_id":"ce4bhu92rcd13ifvqi70","pricing_plan_id":"cebpf4jnsgd1na2vs0mg"},{"bike_id":"4d3c4622-f878-4915-b7e6-0e1963771585","system_id":"levelo_inurba_marseille","lat":43.29673,"lon":5.3729,"is_reserved":false,"is_disabled":false,"rental_uris":{"android":"levelo://app?vid=4d3c4622-f878-4915-b7e6-0e1963771585","ios":"levelo://app?vid=4d3c4622-f878-4915-b7e6-0e1963771585"},"vehicle_type_id":"4","last_reported":1747555924,"current_range_meters":18000,"station_id":"ce4bgk12rcd13ifvqbj0","pricing_plan_id":"cebpf4jnsgd1na2vs0mg"},{"bike_id":"e02af135-527e-4f04-b463-540aa971dcbc","system_id":"levelo_inurba_marseille","lat":43.30916,"lon":5.40159,"is_reserved":false,"is_disabled":false,"rental_uris":{"android":"levelo://app?vid=e02af135-527e-4f04-b463-540aa971dcbc","ios":"levelo://app?vid=e02af135-527e-4f04-b463-540aa971dcbc"},"vehicle_type_id":"4","last_reported":1747555924,"current_range_meters":18000,"station_id":"ce4bgvp2rcd13ifvqct0","pricing_plan_id":"cebpf4jnsgd1na2vs0mg"},{"bike_id":"5eee1e31-81ab-4170-84c0-e64528937feb","system_id":"levelo_inurba_marseille","lat":43.2861,"lon":5.35104,"is_reserved":false,"is_disabled":false,"rental_uris":{"android":"levelo://app?vid=5eee1e31-81ab-4170-84c0-e64528937feb","ios":"levelo://app?vid=5eee1e31-81ab-4170-84c0-e64528937feb"},"vehicle_type_id":"4","last_reported":1747555924,"current_range_meters":18000,"station_id":"ce4bhch2rcd13ifvqeug","pricing_plan_id":"cebpf4jnsgd1na2vs0mg"},{"bike_id":"188c0480-8788-40d0-af36-4aa2d4838ea7","system_id":"levelo_inurba_marseille","lat":43.26576,"lon":5.39012,"is_reserved":false,"is_disabled":false,"rental_uris":{"android":"levelo://app?vid=188c0480-8788-40d0-af36-4aa2d4838ea7","ios":"levelo://app?vid=188c0480-8788-40d0-af36-4aa2d4838ea7"},"vehicle_type_id":"4","last_reported":1747555924,"current_range_meters":18000,"station_id":"ce4bhe12rcd13ifvqf30","pricing_plan_id":"cebpf4jnsgd1na2vs0mg"},{"bike_id":"ad65ab38-4195-4fdf-8d92-f6f7ced4ee7b","system_id":"levelo_inurba_marseille","lat":43.2668,"lon":5.38265,"is_reserved":false,"is_disabled":false,"rental_uris":{"android":"levelo://app?vid=ad65ab38-4195-4fdf-8d92-f6f7ced4ee7b","ios":"levelo://app?vid=ad65ab38-4195-4fdf-8d92-f6f7ced4ee7b"},"vehicle_type_id":"4","last_reported":1747555924,"current_range_meters":18000,"station_id":"ce4bhg92rcd13ifvqf90","pricing_plan_id":"cebpf4jnsgd1na2vs0mg"},{"bike_id":"25a6ab0d-3d76-40d0-bc6c-e1f216493645","system_id":"levelo_inurba_marseille","lat":43.21751,"lon":5.34599,"is_reserved":false,"is_disabled":false,"rental_uris":{"android":"levelo://app?vid=25a6ab0d-3d76-40d0-bc6c-e1f216493645","ios":"levelo://app?vid=25a6ab0d-3d76-40d0-bc6c-e1f216493645"},"vehicle_type_id":"4","last_reported":1747555924,"current_range_meters":18000,"station_id":"st_cvj6r9ubvosntc0bgbag","pricing_plan_id":"cebpf4jnsgd1na2vs0mg"},{"bike_id":"5b60a3d6-c678-4bba-abf9-e948eeefc87f","system_id":"levelo_inurba_marseille","lat":43.2952,"lon":5.39077,"is_reserved":false,"is_disabled":false,"rental_uris":{"android":"levelo://app?vid=5b60a3d6-c678-4bba-abf9-e948eeefc87f","ios":"levelo://app?vid=5b60a3d6-c678-4bba-abf9-e948eeefc87f"},"vehicle_type_id":"4","last_reported":1747555924,"current_range_meters":18800,"station_id":"ce4bh3p2rcd13ifvqdp0","pricing_plan_id":"cebpf4jnsgd1na2vs0mg"},{"bike_id":"049fbe1b-c405-4abb-92ed-64a5413617ef","system_id":"levelo_inurba_marseille","lat":43.26218,"lon":5.37433,"is_reserved":false,"is_disabled":false,"rental_uris":{"android":"levelo://app?vid=049fbe1b-c405-4abb-92ed-64a5413617ef","ios":"levelo://app?vid=049fbe1b-c405-4abb-92ed-64a5413617ef"},"vehicle_type_id":"4","last_reported":1747555924,"current_range_meters":18800,"station_id":"ce4bhgp2rcd13ifvqfc0","pricing_plan_id":"cebpf4jnsgd1na2vs0mg"},{"bike_id":"b3594d0a-6267-4611-9097-5bb94a2ba24f","system_id":"levelo_inurba_marseille","lat":43.31178,"lon":5.36951,"is_reserved":false,"is_disabled":false,"rental_uris":{"android":"levelo://app?vid=b3594d0a-6267-4611-9097-5bb94a2ba24f","ios":"levelo://app?vid=b3594d0a-6267-4611-9097-5bb94a2ba24f"},"vehicle_type_id":"4","last_reported":1747555924,"current_range_meters":19200,"station_id":"","pricing_plan_id":"cebpf4jnsgd1na2vs0mg"},{"bike_id":"5d140f7b-8225-4b01-9103-f17b88333a52","system_id":"levelo_inurba_marseille","lat":43.284758,"lon":5.385417,"is_reserved":false,"is_disabled":false,"rental_uris":{"android":"levelo://app?vid=5d140f7b-8225-4b01-9103-f17b88333a52","ios":"levelo://app?vid=5d140f7b-8225-4b01-9103-f17b88333a52"},"vehicle_type_id":"4","last_reported":1747555924,"current_range_meters":19200,"station_id":"ce4bh8p2rcd13ifvqeb0","pricing_plan_id":"cebpf4jnsgd1na2vs0mg"},{"bike_id":"238cabe4-72b0-4448-a6cd-ce3154d45703","system_id":"levelo_inurba_marseille","lat":43.28413,"lon":5.34976,"is_reserved":false,"is_disabled":false,"rental_uris":{"android":"levelo://app?vid=238cabe4-72b0-4448-a6cd-ce3154d45703","ios":"levelo://app?vid=238cabe4-72b0-4448-a6cd-ce3154d45703"},"vehicle_type_id":"4","last_reported":1747555924,"current_range_meters":19200,"station_id":"ce4bhbh2rcd13ifvqepg","pricing_plan_id":"cebpf4jnsgd1na2vs0mg"},{"bike_id":"c1d6ecf2-2a59-46f7-8575-0878f1171ce9","system_id":"levelo_inurba_marseille","lat":43.26566,"lon":5.3901,"is_reserved":false,"is_disabled":false,"rental_uris":{"android":"levelo://app?vid=c1d6ecf2-2a59-46f7-8575-0878f1171ce9","ios":"levelo://app?vid=c1d6ecf2-2a59-46f7-8575-0878f1171ce9"},"vehicle_type_id":"4","last_reported":1747555924,"current_range_meters":19600,"station_id":"ce4bhe12rcd13ifvqf30","pricing_plan_id":"cebpf4jnsgd1na2vs0mg"},{"bike_id":"bed90a68-3a32-45d0-bae1-62c69d0803b3","system_id":"levelo_inurba_marseille","lat":43.249878,"lon":5.389365,"is_reserved":false,"is_disabled":false,"rental_uris":{"android":"levelo://app?vid=bed90a68-3a32-45d0-bae1-62c69d0803b3","ios":"levelo://app?vid=bed90a68-3a32-45d0-bae1-62c69d0803b3"},"vehicle_type_id":"4","last_reported":1747555924,"current_range_meters":19600,"station_id":"ce4bhgp2rcd13ifvqfd0","pricing_plan_id":"cebpf4jnsgd1na2vs0mg"},{"bike_id":"2d8e7071-6ffa-4dc6-8402-96d258f1bb66","system_id":"levelo_inurba_marseille","lat":43.25713,"lon":5.41109,"is_reserved":false,"is_disabled":false,"rental_uris":{"android":"levelo://app?vid=2d8e7071-6ffa-4dc6-8402-96d258f1bb66","ios":"levelo://app?vid=2d8e7071-6ffa-4dc6-8402-96d258f1bb66"},"vehicle_type_id":"4","last_reported":1747555924,"current_range_meters":19600,"station_id":"ce4bhkp2rcd13ifvqgd0","pricing_plan_id":"cebpf4jnsgd1na2vs0mg"},{"bike_id":"9398309d-924c-4fdd-a127-df62ab29d880","system_id":"levelo_inurba_marseille","lat":43.29718,"lon":5.36613,"is_reserved":false,"is_disabled":false,"rental_uris":{"android":"levelo://app?vid=9398309d-924c-4fdd-a127-df62ab29d880","ios":"levelo://app?vid=9398309d-924c-4fdd-a127-df62ab29d880"},"vehicle_type_id":"4","last_reported":1747555924,"current_range_meters":20000,"station_id":"ce4bgn12rcd13ifvqbt0","pricing_plan_id":"cebpf4jnsgd1na2vs0mg"},{"bike_id":"254fe4a6-b9f2-450d-ba72-1233ce503510","system_id":"levelo_inurba_marseille","lat":43.26682,"lon":5.38271,"is_reserved":false,"is_disabled":false,"rental_uris":{"android":"levelo://app?vid=254fe4a6-b9f2-450d-ba72-1233ce503510","ios":"levelo://app?vid=254fe4a6-b9f2-450d-ba72-1233ce503510"},"vehicle_type_id":"4","last_reported":1747555924,"current_range_meters":20000,"station_id":"ce4bhg92rcd13ifvqf90","pricing_plan_id":"cebpf4jnsgd1na2vs0mg"},{"bike_id":"4092f064-5bcc-4b9e-ae7a-9f98c2c8a6be","system_id":"levelo_inurba_marseille","lat":43.25493,"lon":5.37648,"is_reserved":false,"is_disabled":false,"rental_uris":{"android":"levelo://app?vid=4092f064-5bcc-4b9e-ae7a-9f98c2c8a6be","ios":"levelo://app?vid=4092f064-5bcc-4b9e-ae7a-9f98c2c8a6be"},"vehicle_type_id":"4","last_reported":1747555924,"current_range_meters":20000,"station_id":"ce4bhh12rcd13ifvqff0","pricing_plan_id":"cebpf4jnsgd1na2vs0mg"},{"bike_id":"60ceee7a-18b0-4403-b7a9-1bb8b24dda79","system_id":"levelo_inurba_marseille","lat":43.255951,"lon":5.40421,"is_reserved":false,"is_disabled":false,"rental_uris":{"android":"levelo://app?vid=60ceee7a-18b0-4403-b7a9-1bb8b24dda79","ios":"levelo://app?vid=60ceee7a-18b0-4403-b7a9-1bb8b24dda79"},"vehicle_type_id":"4","last_reported":1747555924,"current_range_meters":20000,"station_id":"ce4bhl92rcd13ifvqghg","pricing_plan_id":"cebpf4jnsgd1na2vs0mg"},{"bike_id":"0c4661ab-673d-4c6c-a451-f3a64ac76d71","system_id":"levelo_inurba_marseille","lat":43.28202,"lon":5.39066,"is_reserved":false,"is_disabled":false,"rental_uris":{"android":"levelo://app?vid=0c4661ab-673d-4c6c-a451-f3a64ac76d71","ios":"levelo://app?vid=0c4661ab-673d-4c6c-a451-f3a64ac76d71"},"vehicle_type_id":"4","last_reported":1747555924,"current_range_meters":20400,"station_id":"","pricing_plan_id":"cebpf4jnsgd1na2vs0mg"},{"bike_id":"8dc451b6-2f12-4e43-a80e-cd438921af3d","system_id":"levelo_inurba_marseille","lat":43.28477,"lon":5.38407,"is_reserved":false,"is_disabled":false,"rental_uris":{"android":"levelo://app?vid=8dc451b6-2f12-4e43-a80e-cd438921af3d","ios":"levelo://app?vid=8dc451b6-2f12-4e43-a80e-cd438921af3d"},"vehicle_type_id":"4","last_reported":1747555924,"current_range_meters":20400,"station_id":"ce4bh512rcd13ifvqe3g","pricing_plan_id":"cebpf4jnsgd1na2vs0mg"},{"bike_id":"bd01d5e0-033a-4a78-9389-11d5ff0601a2","system_id":"levelo_inurba_marseille","lat":43.26037,"lon":5.37548,"is_reserved":false,"is_disabled":false,"rental_uris":{"android":"levelo://app?vid=bd01d5e0-033a-4a78-9389-11d5ff0601a2","ios":"levelo://app?vid=bd01d5e0-033a-4a78-9389-11d5ff0601a2"},"vehicle_type_id":"4","last_reported":1747555924,"current_range_meters":20400,"station_id":"ce4bhgh2rcd13ifvqfa0","pricing_plan_id":"cebpf4jnsgd1na2vs0mg"},{"bike_id":"f54954c7-c1a8-40ba-bda3-43f86cfcfe6b","system_id":"levelo_inurba_marseille","lat":43.3063,"lon":5.38339,"is_reserved":false,"is_disabled":false,"rental_uris":{"android":"levelo://app?vid=f54954c7-c1a8-40ba-bda3-43f86cfcfe6b","ios":"levelo://app?vid=f54954c7-c1a8-40ba-bda3-43f86cfcfe6b"},"vehicle_type_id":"4","last_reported":1747555924,"current_range_meters":20800,"station_id":"","pricing_plan_id":"cebpf4jnsgd1na2vs0mg"},{"bike_id":"35f604bb-47d1-49a7-8223-9a8908f66d09","system_id":"levelo_inurba_marseille","lat":43.26546,"lon":5.37295,"is_reserved":false,"is_disabled":false,"rental_uris":{"android":"levelo://app?vid=35f604bb-47d1-49a7-8223-9a8908f66d09","ios":"levelo://app?vid=35f604bb-47d1-49a7-8223-9a8908f66d09"},"vehicle_type_id":"4","last_reported":1747555924,"current_range_meters":20800,"station_id":"ce4bhg12rcd13ifvqf70","pricing_plan_id":"cebpf4jnsgd1na2vs0mg"},{"bike_id":"fb996746-08d1-4b1f-8339-80586416310e","system_id":"levelo_inurba_marseille","lat":43.2619,"lon":5.37435,"is_reserved":false,"is_disabled":false,"rental_uris":{"android":"levelo://app?vid=fb996746-08d1-4b1f-8339-80586416310e","ios":"levelo://app?vid=fb996746-08d1-4b1f-8339-80586416310e"},"vehicle_type_id":"4","last_reported":1747555924,"current_range_meters":20800,"station_id":"ce4bhgp2rcd13ifvqfc0","pricing_plan_id":"cebpf4jnsgd1na2vs0mg"},{"bike_id":"3c31892f-c542-4e05-90ed-9dd9a8eb3973","system_id":"levelo_inurba_marseille","lat":43.31255,"lon":5.36863,"is_reserved":false,"is_disabled":false,"rental_uris":{"android":"levelo://app?vid=3c31892f-c542-4e05-90ed-9dd9a8eb3973","ios":"levelo://app?vid=3c31892f-c542-4e05-90ed-9dd9a8eb3973"},"vehicle_type_id":"4","last_reported":1747555924,"current_range_meters":21600,"station_id":"ce4bgl92rcd13ifvqbq0","pricing_plan_id":"cebpf4jnsgd1na2vs0mg"},{"bike_id":"47e27a4b-d136-4ed2-bd7a-6a16cf437d1a","system_id":"levelo_inurba_marseille","lat":43.30926,"lon":5.40137,"is_reserved":false,"is_disabled":false,"rental_uris":{"android":"levelo://app?vid=47e27a4b-d136-4ed2-bd7a-6a16cf437d1a","ios":"levelo://app?vid=47e27a4b-d136-4ed2-bd7a-6a16cf437d1a"},"vehicle_type_id":"4","last_reported":1747555924,"current_range_meters":21600,"station_id":"ce4bgvp2rcd13ifvqct0","pricing_plan_id":"cebpf4jnsgd1na2vs0mg"},{"bike_id":"44322767-d380-4714-98b3-7d6666736115","system_id":"levelo_inurba_marseille","lat":43.26547,"lon":5.37305,"is_reserved":false,"is_disabled":false,"rental_uris":{"android":"levelo://app?vid=44322767-d380-4714-98b3-7d6666736115","ios":"levelo://app?vid=44322767-d380-4714-98b3-7d6666736115"},"vehicle_type_id":"4","last_reported":1747555924,"current_range_meters":21600,"station_id":"ce4bhg12rcd13ifvqf70","pricing_plan_id":"cebpf4jnsgd1na2vs0mg"},{"bike_id":"1ef05c2f-1395-4821-b79c-d7c2cdc7602b","system_id":"levelo_inurba_marseille","lat":43.2455,"lon":5.395362,"is_reserved":false,"is_disabled":false,"rental_uris":{"android":"levelo://app?vid=1ef05c2f-1395-4821-b79c-d7c2cdc7602b","ios":"levelo://app?vid=1ef05c2f-1395-4821-b79c-d7c2cdc7602b"},"vehicle_type_id":"4","last_reported":1747555924,"current_range_meters":21600,"station_id":"ce4bhlp2rcd13ifvqgjg","pricing_plan_id":"cebpf4jnsgd1na2vs0mg"},{"bike_id":"34d1712b-c736-42ac-915a-a3cd9fec2f72","system_id":"levelo_inurba_marseille","lat":43.29875,"lon":5.39747,"is_reserved":false,"is_disabled":false,"rental_uris":{"android":"levelo://app?vid=34d1712b-c736-42ac-915a-a3cd9fec2f72","ios":"levelo://app?vid=34d1712b-c736-42ac-915a-a3cd9fec2f72"},"vehicle_type_id":"4","last_reported":1747555924,"current_range_meters":22000,"station_id":"ce4bh0h2rcd13ifvqd50","pricing_plan_id":"cebpf4jnsgd1na2vs0mg"},{"bike_id":"b49e4efd-6938-4ecb-a675-e236e5f487c2","system_id":"levelo_inurba_marseille","lat":43.25728,"lon":5.41109,"is_reserved":false,"is_disabled":false,"rental_uris":{"android":"levelo://app?vid=b49e4efd-6938-4ecb-a675-e236e5f487c2","ios":"levelo://app?vid=b49e4efd-6938-4ecb-a675-e236e5f487c2"},"vehicle_type_id":"4","last_reported":1747555924,"current_range_meters":22000,"station_id":"ce4bhkp2rcd13ifvqgd0","pricing_plan_id":"cebpf4jnsgd1na2vs0mg"},{"bike_id":"0d3e7f6d-c78a-497d-84c8-9c1ac9cdb3f6","system_id":"levelo_inurba_marseille","lat":43.25105,"lon":5.40334,"is_reserved":false,"is_disabled":false,"rental_uris":{"android":"levelo://app?vid=0d3e7f6d-c78a-497d-84c8-9c1ac9cdb3f6","ios":"levelo://app?vid=0d3e7f6d-c78a-497d-84c8-9c1ac9cdb3f6"},"vehicle_type_id":"4","last_reported":1747555924,"current_range_meters":22000,"station_id":"ce4bhlh2rcd13ifvqgig","pricing_plan_id":"cebpf4jnsgd1na2vs0mg"},{"bike_id":"b6c450ea-3262-445b-9be7-fa94b2b19766","system_id":"levelo_inurba_marseille","lat":43.25942,"lon":5.408942,"is_reserved":false,"is_disabled":false,"rental_uris":{"android":"levelo://app?vid=b6c450ea-3262-445b-9be7-fa94b2b19766","ios":"levelo://app?vid=b6c450ea-3262-445b-9be7-fa94b2b19766"},"vehicle_type_id":"4","last_reported":1747555924,"current_range_meters":22000,"station_id":"ce4bhm92rcd13ifvqglg","pricing_plan_id":"cebpf4jnsgd1na2vs0mg"},{"bike_id":"39e2ed66-9956-4ef6-982d-047884828e87","system_id":"levelo_inurba_marseille","lat":43.2629,"lon":5.39297,"is_reserved":false,"is_disabled":false,"rental_uris":{"android":"levelo://app?vid=39e2ed66-9956-4ef6-982d-047884828e87","ios":"levelo://app?vid=39e2ed66-9956-4ef6-982d-047884828e87"},"vehicle_type_id":"4","last_reported":1747555924,"current_range_meters":22400,"station_id":"","pricing_plan_id":"cebpf4jnsgd1na2vs0mg"},{"bike_id":"39904e6d-7769-41af-997b-f038992df78f","system_id":"levelo_inurba_marseille","lat":43.29248,"lon":5.40899,"is_reserved":false,"is_disabled":false,"rental_uris":{"android":"levelo://app?vid=39904e6d-7769-41af-997b-f038992df78f","ios":"levelo://app?vid=39904e6d-7769-41af-997b-f038992df78f"},"vehicle_type_id":"4","last_reported":1747555924,"current_range_meters":22400,"station_id":"ce4bh192rcd13ifvqdc0","pricing_plan_id":"cebpf4jnsgd1na2vs0mg"},{"bike_id":"80132a0a-a8be-4ef0-9708-55b45ea6c4e2","system_id":"levelo_inurba_marseille","lat":43.29167,"lon":5.37165,"is_reserved":false,"is_disabled":false,"rental_uris":{"android":"levelo://app?vid=80132a0a-a8be-4ef0-9708-55b45ea6c4e2","ios":"levelo://app?vid=80132a0a-a8be-4ef0-9708-55b45ea6c4e2"},"vehicle_type_id":"4","last_reported":1747555924,"current_range_meters":22400,"station_id":"ce4bha92rcd13ifvqeh0","pricing_plan_id":"cebpf4jnsgd1na2vs0mg"},{"bike_id":"1b355273-8322-41e6-a5f1-f9e6fa4425c1","system_id":"levelo_inurba_marseille","lat":43.29004,"lon":5.35612,"is_reserved":false,"is_disabled":false,"rental_uris":{"android":"levelo://app?vid=1b355273-8322-41e6-a5f1-f9e6fa4425c1","ios":"levelo://app?vid=1b355273-8322-41e6-a5f1-f9e6fa4425c1"},"vehicle_type_id":"4","last_reported":1747555924,"current_range_meters":22400,"station_id":"ce4bhb92rcd13ifvqen0","pricing_plan_id":"cebpf4jnsgd1na2vs0mg"},{"bike_id":"d0d75341-e711-479e-a99e-551c4a0bc057","system_id":"levelo_inurba_marseille","lat":43.26689,"lon":5.38262,"is_reserved":false,"is_disabled":false,"rental_uris":{"android":"levelo://app?vid=d0d75341-e711-479e-a99e-551c4a0bc057","ios":"levelo://app?vid=d0d75341-e711-479e-a99e-551c4a0bc057"},"vehicle_type_id":"4","last_reported":1747555924,"current_range_meters":22400,"station_id":"ce4bhg92rcd13ifvqf90","pricing_plan_id":"cebpf4jnsgd1na2vs0mg"},{"bike_id":"9f60fe44-3282-49cd-9d4a-072a9ceb9a90","system_id":"levelo_inurba_marseille","lat":43.26203,"lon":5.37441,"is_reserved":false,"is_disabled":false,"rental_uris":{"android":"levelo://app?vid=9f60fe44-3282-49cd-9d4a-072a9ceb9a90","ios":"levelo://app?vid=9f60fe44-3282-49cd-9d4a-072a9ceb9a90"},"vehicle_type_id":"4","last_reported":1747555924,"current_range_meters":22400,"station_id":"ce4bhgp2rcd13ifvqfc0","pricing_plan_id":"cebpf4jnsgd1na2vs0mg"},{"bike_id":"97780354-fd14-48df-9113-a9e008e0de4b","system_id":"levelo_inurba_marseille","lat":43.26062,"lon":5.394,"is_reserved":false,"is_disabled":false,"rental_uris":{"android":"levelo://app?vid=97780354-fd14-48df-9113-a9e008e0de4b","ios":"levelo://app?vid=97780354-fd14-48df-9113-a9e008e0de4b"},"vehicle_type_id":"4","last_reported":1747555924,"current_range_meters":22400,"station_id":"ce4bhh92rcd13ifvqfj0","pricing_plan_id":"cebpf4jnsgd1na2vs0mg"},{"bike_id":"b60d1cb4-0821-4573-a62d-20a56ee1a4a4","system_id":"levelo_inurba_marseille","lat":43.231924,"lon":5.399825,"is_reserved":false,"is_disabled":false,"rental_uris":{"android":"levelo://app?vid=b60d1cb4-0821-4573-a62d-20a56ee1a4a4","ios":"levelo://app?vid=b60d1cb4-0821-4573-a62d-20a56ee1a4a4"},"vehicle_type_id":"4","last_reported":1747555924,"current_range_meters":22400,"station_id":"ce4bhn12rcd13ifvqgqg","pricing_plan_id":"cebpf4jnsgd1na2vs0mg"},{"bike_id":"a6fff041-1571-4914-8842-7c809c1f840b","system_id":"levelo_inurba_marseille","lat":43.30245,"lon":5.40042,"is_reserved":false,"is_disabled":false,"rental_uris":{"android":"levelo://app?vid=a6fff041-1571-4914-8842-7c809c1f840b","ios":"levelo://app?vid=a6fff041-1571-4914-8842-7c809c1f840b"},"vehicle_type_id":"4","last_reported":1747555924,"current_range_meters":22800,"station_id":"ce4bgvh2rcd13ifvqcs0","pricing_plan_id":"cebpf4jnsgd1na2vs0mg"},{"bike_id":"793d1ad4-aaae-4c3f-9fe2-dd74540aa907","system_id":"levelo_inurba_marseille","lat":43.29257,"lon":5.409,"is_reserved":false,"is_disabled":false,"rental_uris":{"android":"levelo://app?vid=793d1ad4-aaae-4c3f-9fe2-dd74540aa907","ios":"levelo://app?vid=793d1ad4-aaae-4c3f-9fe2-dd74540aa907"},"vehicle_type_id":"4","last_reported":1747555924,"current_range_meters":22800,"station_id":"ce4bh192rcd13ifvqdc0","pricing_plan_id":"cebpf4jnsgd1na2vs0mg"},{"bike_id":"f7ecf760-0eb5-476e-865d-4405d14cefa3","system_id":"levelo_inurba_marseille","lat":43.26203,"lon":5.37445,"is_reserved":false,"is_disabled":false,"rental_uris":{"android":"levelo://app?vid=f7ecf760-0eb5-476e-865d-4405d14cefa3","ios":"levelo://app?vid=f7ecf760-0eb5-476e-865d-4405d14cefa3"},"vehicle_type_id":"4","last_reported":1747555924,"current_range_meters":22800,"station_id":"ce4bhgp2rcd13ifvqfc0","pricing_plan_id":"cebpf4jnsgd1na2vs0mg"},{"bike_id":"e095f58b-937e-44c2-ba4b-56ead681204b","system_id":"levelo_inurba_marseille","lat":43.245443,"lon":5.395279,"is_reserved":false,"is_disabled":false,"rental_uris":{"android":"levelo://app?vid=e095f58b-937e-44c2-ba4b-56ead681204b","ios":"levelo://app?vid=e095f58b-937e-44c2-ba4b-56ead681204b"},"vehicle_type_id":"4","last_reported":1747555924,"current_range_meters":22800,"station_id":"ce4bhlp2rcd13ifvqgjg","pricing_plan_id":"cebpf4jnsgd1na2vs0mg"},{"bike_id":"13742bd2-0818-475b-86f9-91d8f9461453","system_id":"levelo_inurba_marseille","lat":43.27499,"lon":5.42448,"is_reserved":false,"is_disabled":false,"rental_uris":{"android":"levelo://app?vid=13742bd2-0818-475b-86f9-91d8f9461453","ios":"levelo://app?vid=13742bd2-0818-475b-86f9-91d8f9461453"},"vehicle_type_id":"4","last_reported":1747555924,"current_range_meters":22800,"station_id":"ce4bhn92rcd13ifvqgrg","pricing_plan_id":"cebpf4jnsgd1na2vs0mg"},{"bike_id":"9376a124-44b0-490a-aa2f-96edc613a814","system_id":"levelo_inurba_marseille","lat":43.28375,"lon":5.36328,"is_reserved":false,"is_disabled":false,"rental_uris":{"android":"levelo://app?vid=9376a124-44b0-490a-aa2f-96edc613a814","ios":"levelo://app?vid=9376a124-44b0-490a-aa2f-96edc613a814"},"vehicle_type_id":"4","last_reported":1747555924,"current_range_meters":23200,"station_id":"","pricing_plan_id":"cebpf4jnsgd1na2vs0mg"},{"bike_id":"338ab862-3eee-46b1-9f4f-ad12443dba67","system_id":"levelo_inurba_marseille","lat":43.28929,"lon":5.36632,"is_reserved":false,"is_disabled":false,"rental_uris":{"android":"levelo://app?vid=338ab862-3eee-46b1-9f4f-ad12443dba67","ios":"levelo://app?vid=338ab862-3eee-46b1-9f4f-ad12443dba67"},"vehicle_type_id":"4","last_reported":1747555924,"current_range_meters":23200,"station_id":"","pricing_plan_id":"cebpf4jnsgd1na2vs0mg"},{"bike_id":"9aa3f2dc-0201-4545-ba78-9c9840cf1327","system_id":"levelo_inurba_marseille","lat":43.3094,"lon":5.40184,"is_reserved":false,"is_disabled":false,"rental_uris":{"android":"levelo://app?vid=9aa3f2dc-0201-4545-ba78-9c9840cf1327","ios":"levelo://app?vid=9aa3f2dc-0201-4545-ba78-9c9840cf1327"},"vehicle_type_id":"4","last_reported":1747555924,"current_range_meters":23200,"station_id":"ce4bgvp2rcd13ifvqct0","pricing_plan_id":"cebpf4jnsgd1na2vs0mg"},{"bike_id":"bf57db90-db85-4c9c-a88e-fa64283ad7d7","system_id":"levelo_inurba_marseille","lat":43.308857,"lon":5.396442,"is_reserved":false,"is_disabled":false,"rental_uris":{"android":"levelo://app?vid=bf57db90-db85-4c9c-a88e-fa64283ad7d7","ios":"levelo://app?vid=bf57db90-db85-4c9c-a88e-fa64283ad7d7"},"vehicle_type_id":"4","last_reported":1747555924,"current_range_meters":23200,"station_id":"ce4bh012rcd13ifvqcv0","pricing_plan_id":"cebpf4jnsgd1na2vs0mg"},{"bike_id":"9b9fbbf0-fe83-40f5-af1d-721beae40e4d","system_id":"levelo_inurba_marseille","lat":43.255,"lon":5.37652,"is_reserved":false,"is_disabled":false,"rental_uris":{"android":"levelo://app?vid=9b9fbbf0-fe83-40f5-af1d-721beae40e4d","ios":"levelo://app?vid=9b9fbbf0-fe83-40f5-af1d-721beae40e4d"},"vehicle_type_id":"4","last_reported":1747555924,"current_range_meters":23200,"station_id":"ce4bhh12rcd13ifvqff0","pricing_plan_id":"cebpf4jnsgd1na2vs0mg"},{"bike_id":"e554213f-f3db-4cb7-b1a2-af2c0b1a369e","system_id":"levelo_inurba_marseille","lat":43.23183,"lon":5.39991,"is_reserved":false,"is_disabled":false,"rental_uris":{"android":"levelo://app?vid=e554213f-f3db-4cb7-b1a2-af2c0b1a369e","ios":"levelo://app?vid=e554213f-f3db-4cb7-b1a2-af2c0b1a369e"},"vehicle_type_id":"4","last_reported":1747555924,"current_range_meters":23200,"station_id":"ce4bhn12rcd13ifvqgqg","pricing_plan_id":"cebpf4jnsgd1na2vs0mg"},{"bike_id":"b406eb05-27f6-4b9a-95b4-ef0b848e0a21","system_id":"levelo_inurba_marseille","lat":43.303737,"lon":5.424867,"is_reserved":false,"is_disabled":false,"rental_uris":{"android":"levelo://app?vid=b406eb05-27f6-4b9a-95b4-ef0b848e0a21","ios":"levelo://app?vid=b406eb05-27f6-4b9a-95b4-ef0b848e0a21"},"vehicle_type_id":"4","last_reported":1747555924,"current_range_meters":23200,"station_id":"ce4bhoh2rcd13ifvqh6g","pricing_plan_id":"cebpf4jnsgd1na2vs0mg"},{"bike_id":"1548ee34-fdad-414b-bf94-f9bd697fbedf","system_id":"levelo_inurba_marseille","lat":43.295593,"lon":5.422848,"is_reserved":false,"is_disabled":false,"rental_uris":{"android":"levelo://app?vid=1548ee34-fdad-414b-bf94-f9bd697fbedf","ios":"levelo://app?vid=1548ee34-fdad-414b-bf94-f9bd697fbedf"},"vehicle_type_id":"4","last_reported":1747555924,"current_range_meters":23200,"station_id":"ce4bhph2rcd13ifvqhdg","pricing_plan_id":"cebpf4jnsgd1na2vs0mg"},{"bike_id":"811e5d25-6343-4992-85f5-ffb1c0e98419","system_id":"levelo_inurba_marseille","lat":43.299357,"lon":5.365463,"is_reserved":false,"is_disabled":false,"rental_uris":{"android":"levelo://app?vid=811e5d25-6343-4992-85f5-ffb1c0e98419","ios":"levelo://app?vid=811e5d25-6343-4992-85f5-ffb1c0e98419"},"vehicle_type_id":"4","last_reported":1747555924,"current_range_meters":24000,"station_id":"ce4bgm92rcd13ifvqbr0","pricing_plan_id":"cebpf4jnsgd1na2vs0mg"},{"bike_id":"45b06a8a-7196-4748-91b3-d07a89c951fe","system_id":"levelo_inurba_marseille","lat":43.29844,"lon":5.36276,"is_reserved":false,"is_disabled":false,"rental_uris":{"android":"levelo://app?vid=45b06a8a-7196-4748-91b3-d07a89c951fe","ios":"levelo://app?vid=45b06a8a-7196-4748-91b3-d07a89c951fe"},"vehicle_type_id":"4","last_reported":1747555924,"current_range_meters":24000,"station_id":"ce4bgpp2rcd13ifvqc3g","pricing_plan_id":"cebpf4jnsgd1na2vs0mg"},{"bike_id":"2d969ab8-3ffc-422b-a36d-4ebde17b7ef2","system_id":"levelo_inurba_marseille","lat":43.32338,"lon":5.40611,"is_reserved":false,"is_disabled":false,"rental_uris":{"android":"levelo://app?vid=2d969ab8-3ffc-422b-a36d-4ebde17b7ef2","ios":"levelo://app?vid=2d969ab8-3ffc-422b-a36d-4ebde17b7ef2"},"vehicle_type_id":"4","last_reported":1747555924,"current_range_meters":24000,"station_id":"ce4bhq92rcd13ifvqhjg","pricing_plan_id":"cebpf4jnsgd1na2vs0mg"},{"bike_id":"f2adc593-1261-425f-83de-6ad22704ffe1","system_id":"levelo_inurba_marseille","lat":43.28665,"lon":5.3866,"is_reserved":false,"is_disabled":false,"rental_uris":{"android":"levelo://app?vid=f2adc593-1261-425f-83de-6ad22704ffe1","ios":"levelo://app?vid=f2adc593-1261-425f-83de-6ad22704ffe1"},"vehicle_type_id":"4","last_reported":1747555924,"current_range_meters":24400,"station_id":"ce4bh492rcd13ifvqdug","pricing_plan_id":"cebpf4jnsgd1na2vs0mg"},{"bike_id":"a0acc3f5-c3c5-4c50-961a-e8d14f579fbf","system_id":"levelo_inurba_marseille","lat":43.28667,"lon":5.36349,"is_reserved":false,"is_disabled":false,"rental_uris":{"android":"levelo://app?vid=a0acc3f5-c3c5-4c50-961a-e8d14f579fbf","ios":"levelo://app?vid=a0acc3f5-c3c5-4c50-961a-e8d14f579fbf"},"vehicle_type_id":"4","last_reported":1747555924,"current_range_meters":24400,"station_id":"ce4bhah2rcd13ifvqej0","pricing_plan_id":"cebpf4jnsgd1na2vs0mg"},{"bike_id":"32540cd2-193c-4529-b4e6-73e2c6444fd0","system_id":"levelo_inurba_marseille","lat":43.262096,"lon":5.374418,"is_reserved":false,"is_disabled":false,"rental_uris":{"android":"levelo://app?vid=32540cd2-193c-4529-b4e6-73e2c6444fd0","ios":"levelo://app?vid=32540cd2-193c-4529-b4e6-73e2c6444fd0"},"vehicle_type_id":"4","last_reported":1747555924,"current_range_meters":24400,"station_id":"ce4bhgp2rcd13ifvqfc0","pricing_plan_id":"cebpf4jnsgd1na2vs0mg"},{"bike_id":"cb2ed512-cc98-4b3b-af57-39ae4b5c7f65","system_id":"levelo_inurba_marseille","lat":43.23962,"lon":5.36628,"is_reserved":false,"is_disabled":false,"rental_uris":{"android":"levelo://app?vid=cb2ed512-cc98-4b3b-af57-39ae4b5c7f65","ios":"levelo://app?vid=cb2ed512-cc98-4b3b-af57-39ae4b5c7f65"},"vehicle_type_id":"4","last_reported":1747555924,"current_range_meters":24400,"station_id":"ce4bhi12rcd13ifvqfp0","pricing_plan_id":"cebpf4jnsgd1na2vs0mg"},{"bike_id":"c507f4c6-6ebb-4f5e-bf8b-7a2219466529","system_id":"levelo_inurba_marseille","lat":43.245482,"lon":5.395369,"is_reserved":false,"is_disabled":false,"rental_uris":{"android":"levelo://app?vid=c507f4c6-6ebb-4f5e-bf8b-7a2219466529","ios":"levelo://app?vid=c507f4c6-6ebb-4f5e-bf8b-7a2219466529"},"vehicle_type_id":"4","last_reported":1747555924,"current_range_meters":24400,"station_id":"ce4bhlp2rcd13ifvqgjg","pricing_plan_id":"cebpf4jnsgd1na2vs0mg"},{"bike_id":"5b411d2a-09e3-4b0f-bbf3-d29e9fac5c5d","system_id":"levelo_inurba_marseille","lat":43.27955,"lon":5.40991,"is_reserved":false,"is_disabled":false,"rental_uris":{"android":"levelo://app?vid=5b411d2a-09e3-4b0f-bbf3-d29e9fac5c5d","ios":"levelo://app?vid=5b411d2a-09e3-4b0f-bbf3-d29e9fac5c5d"},"vehicle_type_id":"4","last_reported":1747555924,"current_range_meters":24400,"station_id":"ce4bhnp2rcd13ifvqh0g","pricing_plan_id":"cebpf4jnsgd1na2vs0mg"},{"bike_id":"e96ac979-42bb-4ebe-8596-7b667a206ccd","system_id":"levelo_inurba_marseille","lat":43.29561,"lon":5.39486,"is_reserved":false,"is_disabled":false,"rental_uris":{"android":"levelo://app?vid=e96ac979-42bb-4ebe-8596-7b667a206ccd","ios":"levelo://app?vid=e96ac979-42bb-4ebe-8596-7b667a206ccd"},"vehicle_type_id":"4","last_reported":1747555924,"current_range_meters":24800,"station_id":"","pricing_plan_id":"cebpf4jnsgd1na2vs0mg"},{"bike_id":"c8402d49-01c9-4f1b-852d-09c8665dec7f","system_id":"levelo_inurba_marseille","lat":43.3133,"lon":5.39686,"is_reserved":false,"is_disabled":false,"rental_uris":{"android":"levelo://app?vid=c8402d49-01c9-4f1b-852d-09c8665dec7f","ios":"levelo://app?vid=c8402d49-01c9-4f1b-852d-09c8665dec7f"},"vehicle_type_id":"4","last_reported":1747555924,"current_range_meters":24800,"station_id":"ce4bgvp2rcd13ifvqcu0","pricing_plan_id":"cebpf4jnsgd1na2vs0mg"},{"bike_id":"ba280634-b8ec-4337-a3dc-cd1e2ca9dd63","system_id":"levelo_inurba_marseille","lat":43.31707,"lon":5.40428,"is_reserved":false,"is_disabled":false,"rental_uris":{"android":"levelo://app?vid=ba280634-b8ec-4337-a3dc-cd1e2ca9dd63","ios":"levelo://app?vid=ba280634-b8ec-4337-a3dc-cd1e2ca9dd63"},"vehicle_type_id":"4","last_reported":1747555924,"current_range_meters":24800,"station_id":"ce4bh012rcd13ifvqd00","pricing_plan_id":"cebpf4jnsgd1na2vs0mg"},{"bike_id":"866a1b6b-eb14-4276-b06a-1bd5dfd77823","system_id":"levelo_inurba_marseille","lat":43.30568,"lon":5.39343,"is_reserved":false,"is_disabled":false,"rental_uris":{"android":"levelo://app?vid=866a1b6b-eb14-4276-b06a-1bd5dfd77823","ios":"levelo://app?vid=866a1b6b-eb14-4276-b06a-1bd5dfd77823"},"vehicle_type_id":"4","last_reported":1747555924,"current_range_meters":24800,"station_id":"ce4bh0p2rcd13ifvqd80","pricing_plan_id":"cebpf4jnsgd1na2vs0mg"},{"bike_id":"c56aa0bc-bf63-403c-9ca8-02129ba507bf","system_id":"levelo_inurba_marseille","lat":43.26676,"lon":5.38275,"is_reserved":false,"is_disabled":false,"rental_uris":{"android":"levelo://app?vid=c56aa0bc-bf63-403c-9ca8-02129ba507bf","ios":"levelo://app?vid=c56aa0bc-bf63-403c-9ca8-02129ba507bf"},"vehicle_type_id":"4","last_reported":1747555924,"current_range_meters":24800,"station_id":"ce4bhg92rcd13ifvqf90","pricing_plan_id":"cebpf4jnsgd1na2vs0mg"},{"bike_id":"2adeb815-3a5a-461c-a84c-19f888faa8b2","system_id":"levelo_inurba_marseille","lat":43.26193,"lon":5.374485,"is_reserved":false,"is_disabled":false,"rental_uris":{"android":"levelo://app?vid=2adeb815-3a5a-461c-a84c-19f888faa8b2","ios":"levelo://app?vid=2adeb815-3a5a-461c-a84c-19f888faa8b2"},"vehicle_type_id":"4","last_reported":1747555924,"current_range_meters":24800,"station_id":"ce4bhgp2rcd13ifvqfc0","pricing_plan_id":"cebpf4jnsgd1na2vs0mg"},{"bike_id":"b34fdfe7-c23e-4bb8-8ff8-b01850183f8b","system_id":"levelo_inurba_marseille","lat":43.24548,"lon":5.39518,"is_reserved":false,"is_disabled":false,"rental_uris":{"android":"levelo://app?vid=b34fdfe7-c23e-4bb8-8ff8-b01850183f8b","ios":"levelo://app?vid=b34fdfe7-c23e-4bb8-8ff8-b01850183f8b"},"vehicle_type_id":"4","last_reported":1747555924,"current_range_meters":24800,"station_id":"ce4bhlp2rcd13ifvqgjg","pricing_plan_id":"cebpf4jnsgd1na2vs0mg"},{"bike_id":"d33ea40a-3c2d-42e5-ae11-a57a43b169b3","system_id":"levelo_inurba_marseille","lat":43.26212,"lon":5.40463,"is_reserved":false,"is_disabled":false,"rental_uris":{"android":"levelo://app?vid=d33ea40a-3c2d-42e5-ae11-a57a43b169b3","ios":"levelo://app?vid=d33ea40a-3c2d-42e5-ae11-a57a43b169b3"},"vehicle_type_id":"4","last_reported":1747555924,"current_range_meters":24800,"station_id":"ce4bhmh2rcd13ifvqgmg","pricing_plan_id":"cebpf4jnsgd1na2vs0mg"},{"bike_id":"43fdbb4a-06f1-4c16-a28c-8fe154dacb06","system_id":"levelo_inurba_marseille","lat":43.231814,"lon":5.399895,"is_reserved":false,"is_disabled":false,"rental_uris":{"android":"levelo://app?vid=43fdbb4a-06f1-4c16-a28c-8fe154dacb06","ios":"levelo://app?vid=43fdbb4a-06f1-4c16-a28c-8fe154dacb06"},"vehicle_type_id":"4","last_reported":1747555924,"current_range_meters":24800,"station_id":"ce4bhn12rcd13ifvqgqg","pricing_plan_id":"cebpf4jnsgd1na2vs0mg"},{"bike_id":"8da5e223-dcb1-44ad-b64e-5ca96fe3d6a3","system_id":"levelo_inurba_marseille","lat":43.274954,"lon":5.424526,"is_reserved":false,"is_disabled":false,"rental_uris":{"android":"levelo://app?vid=8da5e223-dcb1-44ad-b64e-5ca96fe3d6a3","ios":"levelo://app?vid=8da5e223-dcb1-44ad-b64e-5ca96fe3d6a3"},"vehicle_type_id":"4","last_reported":1747555924,"current_range_meters":24800,"station_id":"ce4bhn92rcd13ifvqgrg","pricing_plan_id":"cebpf4jnsgd1na2vs0mg"},{"bike_id":"e7d21e43-34f5-43d0-ad9e-e6f4fd9f2ae8","system_id":"levelo_inurba_marseille","lat":43.27494,"lon":5.42452,"is_reserved":false,"is_disabled":false,"rental_uris":{"android":"levelo://app?vid=e7d21e43-34f5-43d0-ad9e-e6f4fd9f2ae8","ios":"levelo://app?vid=e7d21e43-34f5-43d0-ad9e-e6f4fd9f2ae8"},"vehicle_type_id":"4","last_reported":1747555924,"current_range_meters":24800,"station_id":"ce4bhn92rcd13ifvqgrg","pricing_plan_id":"cebpf4jnsgd1na2vs0mg"},{"bike_id":"6b436d2d-520e-4f04-8751-442e3c9cf87e","system_id":"levelo_inurba_marseille","lat":43.24074,"lon":5.37759,"is_reserved":false,"is_disabled":false,"rental_uris":{"android":"levelo://app?vid=6b436d2d-520e-4f04-8751-442e3c9cf87e","ios":"levelo://app?vid=6b436d2d-520e-4f04-8751-442e3c9cf87e"},"vehicle_type_id":"4","last_reported":1747555924,"current_range_meters":24800,"station_id":"ce4bhnp2rcd13ifvqgvg","pricing_plan_id":"cebpf4jnsgd1na2vs0mg"},{"bike_id":"b17f8863-c136-4d77-8d04-48d624ef20d6","system_id":"levelo_inurba_marseille","lat":43.29957,"lon":5.41322,"is_reserved":false,"is_disabled":false,"rental_uris":{"android":"levelo://app?vid=b17f8863-c136-4d77-8d04-48d624ef20d6","ios":"levelo://app?vid=b17f8863-c136-4d77-8d04-48d624ef20d6"},"vehicle_type_id":"4","last_reported":1747555924,"current_range_meters":24800,"station_id":"ce4bhp12rcd13ifvqh9g","pricing_plan_id":"cebpf4jnsgd1na2vs0mg"},{"bike_id":"c771ca09-720f-4ad1-b9f1-453071c5d377","system_id":"levelo_inurba_marseille","lat":43.28475,"lon":5.38565,"is_reserved":false,"is_disabled":false,"rental_uris":{"android":"levelo://app?vid=c771ca09-720f-4ad1-b9f1-453071c5d377","ios":"levelo://app?vid=c771ca09-720f-4ad1-b9f1-453071c5d377"},"vehicle_type_id":"4","last_reported":1747555924,"current_range_meters":25200,"station_id":"ce4bh8p2rcd13ifvqeb0","pricing_plan_id":"cebpf4jnsgd1na2vs0mg"},{"bike_id":"3fb3ba9a-2780-4c8e-ba17-5b1e963c55ae","system_id":"levelo_inurba_marseille","lat":43.24625,"lon":5.38889,"is_reserved":false,"is_disabled":false,"rental_uris":{"android":"levelo://app?vid=3fb3ba9a-2780-4c8e-ba17-5b1e963c55ae","ios":"levelo://app?vid=3fb3ba9a-2780-4c8e-ba17-5b1e963c55ae"},"vehicle_type_id":"4","last_reported":1747555924,"current_range_meters":25200,"station_id":"ce4bhg12rcd13ifvqf60","pricing_plan_id":"cebpf4jnsgd1na2vs0mg"},{"bike_id":"1586ba11-864c-4256-af1d-1f5b91b1f9a4","system_id":"levelo_inurba_marseille","lat":43.265543,"lon":5.372816,"is_reserved":false,"is_disabled":false,"rental_uris":{"android":"levelo://app?vid=1586ba11-864c-4256-af1d-1f5b91b1f9a4","ios":"levelo://app?vid=1586ba11-864c-4256-af1d-1f5b91b1f9a4"},