{"last_updated":1744884660,"ttl":60,"version":"2.2","data":{"bikes":[{"bike_id":"9360f3b5-f1fd-4ebf-98a5-f77c863099ec","system_id":"levelo_inurba_marseille","lat":43.26789,"lon":5.39413,"is_reserved":false,"is_disabled":false,"rental_uris":{"android":"levelo://app?vid=9360f3b5-f1fd-4ebf-98a5-f77c863099ec","ios":"levelo://app?vid=9360f3b5-f1fd-4ebf-98a5-f77c863099ec"},"vehicle_type_id":"4","last_reported":1744884660,"current_range_meters":3200,"station_id":"ce4bhh12rcd13ifvqfg0","pricing_plan_id":"cebpf4jnsgd1na2vs0mg"},{"bike_id":"c6e9611d-829c-475c-a5b5-ed5aad2da349","system_id":"levelo_inurba_marseille","lat":43.31879,"lon":5.40742,"is_reserved":false,"is_disabled":false,"rental_uris":{"android":"levelo://app?vid=c6e9611d-829c-475c-a5b5-ed5aad2da349","ios":"levelo://app?vid=c6e9611d-829c-475c-a5b5-ed5aad2da349"},"vehicle_type_id":"4","last_reported":1744884660,"current_range_meters":3200,"station_id":"ce4bhq12rcd13ifvqhig","pricing_plan_id":"cebpf4jnsgd1na2vs0mg"},{"bike_id":"4be423fc-b49d-4203-8abc-985b45dfd65e","system_id":"levelo_inurba_marseille","lat":43.32924,"lon":5.43389,"is_reserved":false,"is_disabled":false,"rental_uris":{"android":"levelo://app?vid=4be423fc-b49d-4203-8abc-985b45dfd65e","ios":"levelo://app?vid=4be423fc-b49d-4203-8abc-985b45dfd65e"},"vehicle_type_id":"4","last_reported":1744884660,"current_range_meters":3200,"station_id":"","pricing_plan_id":"cebpf4jnsgd1na2vs0mg"},{"bike_id":"e830f15f-1fc7-4598-869b-2baaf3289f9f","system_id":"levelo_inurba_marseille","lat":43.32537,"lon":5.41475,"is_reserved":false,"is_disabled":false,"rental_uris":{"android":"levelo://app?vid=e830f15f-1fc7-4598-869b-2baaf3289f9f","ios":"levelo://app?vid=e830f15f-1fc7-4598-869b-2baaf3289f9f"},"vehicle_type_id":"4","last_reported":1744884660,"current_range_meters":4000,"station_id":"ce4bhq12rcd13ifvqhhg","pricing_plan_id":"cebpf4jnsgd1na2vs0mg"},{"bike_id":"376f754b-7bba-4962-babe-b49b1468281c","system_id":"levelo_inurba_marseille","lat":43.30937,"lon":5.40138,"is_reserved":false,"is_disabled":true,"rental_uris":{"android":"levelo://app?vid=376f754b-7bba-4962-babe-b49b1468281c","ios":"levelo://app?vid=376f754b-7bba-4962-babe-b49b1468281c"},"vehicle_type_id":"4","last_reported":1744884660,"current_range_meters":4000,"station_id":"ce4bgvp2rcd13ifvqct0","pricing_plan_id":"cebpf4jnsgd1na2vs0mg"},{"bike_id":"3bc5ba5b-8d55-466c-b126-0301703e0963","system_id":"levelo_inurba_marseille","lat":43.31233,"lon":5.3688,"is_reserved":false,"is_disabled":false,"rental_uris":{"android":"levelo://app?vid=3bc5ba5b-8d55-466c-b126-0301703e0963","ios":"levelo://app?vid=3bc5ba5b-8d55-466c-b126-0301703e0963"},"vehicle_type_id":"4","last_reported":1744884660,"current_range_meters":4400,"station_id":"ce4bgl92rcd13ifvqbq0","pricing_plan_id":"cebpf4jnsgd1na2vs0mg"},{"bike_id":"0e4e98ae-bd1e-43d8-adcc-de215d7e9b95","system_id":"levelo_inurba_marseille","lat":43.293605,"lon":5.376302,"is_reserved":false,"is_disabled":false,"rental_uris":{"android":"levelo://app?vid=0e4e98ae-bd1e-43d8-adcc-de215d7e9b95","ios":"levelo://app?vid=0e4e98ae-bd1e-43d8-adcc-de215d7e9b95"},"vehicle_type_id":"4","last_reported":1744884660,"current_range_meters":4400,"station_id":"ce4bgjh2rcd13ifvqbf0","pricing_plan_id":"cebpf4jnsgd1na2vs0mg"},{"bike_id":"d05db1b5-d53d-45a4-89f1-f839a3767be6","system_id":"levelo_inurba_marseille","lat":43.29423,"lon":5.38624,"is_reserved":false,"is_disabled":false,"rental_uris":{"android":"levelo://app?vid=d05db1b5-d53d-45a4-89f1-f839a3767be6","ios":"levelo://app?vid=d05db1b5-d53d-45a4-89f1-f839a3767be6"},"vehicle_type_id":"4","last_reported":1744884660,"current_range_meters":4800,"station_id":"ce4bh2h2rcd13ifvqdh0","pricing_plan_id":"cebpf4jnsgd1na2vs0mg"},{"bike_id":"ebd2905e-506d-4fa0-be21-d2e0b5944abc","system_id":"levelo_inurba_marseille","lat":43.30137,"lon":5.38789,"is_reserved":false,"is_disabled":false,"rental_uris":{"android":"levelo://app?vid=ebd2905e-506d-4fa0-be21-d2e0b5944abc","ios":"levelo://app?vid=ebd2905e-506d-4fa0-be21-d2e0b5944abc"},"vehicle_type_id":"4","last_reported":1744884660,"current_range_meters":4800,"station_id":"ce4bghh2rcd13ifvqb60","pricing_plan_id":"cebpf4jnsgd1na2vs0mg"},{"bike_id":"27d65429-e235-4ad4-8e99-624219bf772a","system_id":"levelo_inurba_marseille","lat":43.30787,"lon":5.4248,"is_reserved":false,"is_disabled":false,"rental_uris":{"android":"levelo://app?vid=27d65429-e235-4ad4-8e99-624219bf772a","ios":"levelo://app?vid=27d65429-e235-4ad4-8e99-624219bf772a"},"vehicle_type_id":"4","last_reported":1744884660,"current_range_meters":4800,"station_id":"st_cvj6ca6bvosntc0bfgr0","pricing_plan_id":"cebpf4jnsgd1na2vs0mg"},{"bike_id":"13265a65-0078-4658-a260-29784d76c6a7","system_id":"levelo_inurba_marseille","lat":43.30156,"lon":5.38105,"is_reserved":false,"is_disabled":false,"rental_uris":{"android":"levelo://app?vid=13265a65-0078-4658-a260-29784d76c6a7","ios":"levelo://app?vid=13265a65-0078-4658-a260-29784d76c6a7"},"vehicle_type_id":"4","last_reported":1744884660,"current_range_meters":4800,"station_id":"ce4bgjp2rcd13ifvqbh0","pricing_plan_id":"cebpf4jnsgd1na2vs0mg"},{"bike_id":"db1d188d-89a9-4b26-8d6d-207e9d196654","system_id":"levelo_inurba_marseille","lat":43.27816,"lon":5.40719,"is_reserved":false,"is_disabled":false,"rental_uris":{"android":"levelo://app?vid=db1d188d-89a9-4b26-8d6d-207e9d196654","ios":"levelo://app?vid=db1d188d-89a9-4b26-8d6d-207e9d196654"},"vehicle_type_id":"4","last_reported":1744884660,"current_range_meters":5600,"station_id":"ce4bhnh2rcd13ifvqgtg","pricing_plan_id":"cebpf4jnsgd1na2vs0mg"},{"bike_id":"c2085cf1-25c7-4553-bc1d-71a247d25ef4","system_id":"levelo_inurba_marseille","lat":43.25926,"lon":5.40915,"is_reserved":false,"is_disabled":false,"rental_uris":{"android":"levelo://app?vid=c2085cf1-25c7-4553-bc1d-71a247d25ef4","ios":"levelo://app?vid=c2085cf1-25c7-4553-bc1d-71a247d25ef4"},"vehicle_type_id":"4","last_reported":1744884660,"current_range_meters":6400,"station_id":"ce4bhm92rcd13ifvqglg","pricing_plan_id":"cebpf4jnsgd1na2vs0mg"},{"bike_id":"f624e34b-f282-4f9d-aac4-e32fbf72a062","system_id":"levelo_inurba_marseille","lat":43.30537,"lon":5.36552,"is_reserved":false,"is_disabled":false,"rental_uris":{"android":"levelo://app?vid=f624e34b-f282-4f9d-aac4-e32fbf72a062","ios":"levelo://app?vid=f624e34b-f282-4f9d-aac4-e32fbf72a062"},"vehicle_type_id":"4","last_reported":1744884660,"current_range_meters":6400,"station_id":"ce4bgs12rcd13ifvqcag","pricing_plan_id":"cebpf4jnsgd1na2vs0mg"},{"bike_id":"23005a65-92ab-47a3-820a-7e3fceaa44b6","system_id":"levelo_inurba_marseille","lat":43.30425,"lon":5.39732,"is_reserved":false,"is_disabled":false,"rental_uris":{"android":"levelo://app?vid=23005a65-92ab-47a3-820a-7e3fceaa44b6","ios":"levelo://app?vid=23005a65-92ab-47a3-820a-7e3fceaa44b6"},"vehicle_type_id":"4","last_reported":1744884660,"current_range_meters":6000,"station_id":"ce4bh092rcd13ifvqd20","pricing_plan_id":"cebpf4jnsgd1na2vs0mg"},{"bike_id":"0bff2759-bde9-45c8-a02b-3dcf653880ca","system_id":"levelo_inurba_marseille","lat":43.30534,"lon":5.36525,"is_reserved":false,"is_disabled":false,"rental_uris":{"android":"levelo://app?vid=0bff2759-bde9-45c8-a02b-3dcf653880ca","ios":"levelo://app?vid=0bff2759-bde9-45c8-a02b-3dcf653880ca"},"vehicle_type_id":"4","last_reported":1744884660,"current_range_meters":6400,"station_id":"ce4bgs12rcd13ifvqcag","pricing_plan_id":"cebpf4jnsgd1na2vs0mg"},{"bike_id":"b830fa97-e630-4714-861a-88b0bb34a45f","system_id":"levelo_inurba_marseille","lat":43.28607,"lon":5.37067,"is_reserved":false,"is_disabled":false,"rental_uris":{"android":"levelo://app?vid=b830fa97-e630-4714-861a-88b0bb34a45f","ios":"levelo://app?vid=b830fa97-e630-4714-861a-88b0bb34a45f"},"vehicle_type_id":"4","last_reported":1744884660,"current_range_meters":6800,"station_id":"ce4bht12rcd13ifvqi60","pricing_plan_id":"cebpf4jnsgd1na2vs0mg"},{"bike_id":"7b6e7645-8351-4121-b745-51dca8a151ac","system_id":"levelo_inurba_marseille","lat":43.27995,"lon":5.40014,"is_reserved":false,"is_disabled":false,"rental_uris":{"android":"levelo://app?vid=7b6e7645-8351-4121-b745-51dca8a151ac","ios":"levelo://app?vid=7b6e7645-8351-4121-b745-51dca8a151ac"},"vehicle_type_id":"4","last_reported":1744884660,"current_range_meters":6800,"station_id":"ce4bho92rcd13ifvqh4g","pricing_plan_id":"cebpf4jnsgd1na2vs0mg"},{"bike_id":"2e4fbe9c-cd7a-4779-ad7f-26ec0f0cc6ce","system_id":"levelo_inurba_marseille","lat":43.24808,"lon":5.3746,"is_reserved":false,"is_disabled":false,"rental_uris":{"android":"levelo://app?vid=2e4fbe9c-cd7a-4779-ad7f-26ec0f0cc6ce","ios":"levelo://app?vid=2e4fbe9c-cd7a-4779-ad7f-26ec0f0cc6ce"},"vehicle_type_id":"4","last_reported":1744884660,"current_range_meters":7200,"station_id":"ce4bhgh2rcd13ifvqfb0","pricing_plan_id":"cebpf4jnsgd1na2vs0mg"},{"bike_id":"a42a5ce9-2cba-49d1-91c2-e82429329c19","system_id":"levelo_inurba_marseille","lat":43.270537,"lon":5.40262,"is_reserved":false,"is_disabled":false,"rental_uris":{"android":"levelo://app?vid=a42a5ce9-2cba-49d1-91c2-e82429329c19","ios":"levelo://app?vid=a42a5ce9-2cba-49d1-91c2-e82429329c19"},"vehicle_type_id":"4","last_reported":1744884660,"current_range_meters":8000,"station_id":"ce4bhk92rcd13ifvqgc0","pricing_plan_id":"cebpf4jnsgd1na2vs0mg"},{"bike_id":"54c80c90-6e4b-4785-85a6-19eab638f188","system_id":"levelo_inurba_marseille","lat":43.29253,"lon":5.40913,"is_reserved":false,"is_disabled":false,"rental_uris":{"android":"levelo://app?vid=54c80c90-6e4b-4785-85a6-19eab638f188","ios":"levelo://app?vid=54c80c90-6e4b-4785-85a6-19eab638f188"},"vehicle_type_id":"4","last_reported":1744884660,"current_range_meters":8000,"station_id":"ce4bh192rcd13ifvqdc0","pricing_plan_id":"cebpf4jnsgd1na2vs0mg"},{"bike_id":"4a340735-6d34-4c51-83b1-b50b0b43373d","system_id":"levelo_inurba_marseille","lat":43.3249,"lon":5.365667,"is_reserved":false,"is_disabled":false,"rental_uris":{"android":"levelo://app?vid=4a340735-6d34-4c51-83b1-b50b0b43373d","ios":"levelo://app?vid=4a340735-6d34-4c51-83b1-b50b0b43373d"},"vehicle_type_id":"4","last_reported":1744884660,"current_range_meters":8000,"station_id":"ce4bhs12rcd13ifvqhvg","pricing_plan_id":"cebpf4jnsgd1na2vs0mg"},{"bike_id":"100c3913-0a91-46ff-8397-96b9b083bae0","system_id":"levelo_inurba_marseille","lat":43.325781,"lon":5.361458,"is_reserved":false,"is_disabled":false,"rental_uris":{"android":"levelo://app?vid=100c3913-0a91-46ff-8397-96b9b083bae0","ios":"levelo://app?vid=100c3913-0a91-46ff-8397-96b9b083bae0"},"vehicle_type_id":"4","last_reported":1744884660,"current_range_meters":8400,"station_id":"ce4bguh2rcd13ifvqckg","pricing_plan_id":"cebpf4jnsgd1na2vs0mg"},{"bike_id":"15701ca2-b92e-4248-b2b6-04ee3b91dd40","system_id":"levelo_inurba_marseille","lat":43.2931,"lon":5.37158,"is_reserved":false,"is_disabled":false,"rental_uris":{"android":"levelo://app?vid=15701ca2-b92e-4248-b2b6-04ee3b91dd40","ios":"levelo://app?vid=15701ca2-b92e-4248-b2b6-04ee3b91dd40"},"vehicle_type_id":"4","last_reported":1744884660,"current_range_meters":8400,"station_id":"ce4bgh92rcd13ifvqb40","pricing_plan_id":"cebpf4jnsgd1na2vs0mg"},{"bike_id":"b095d7de-d904-472a-8d77-5cbb6c15e9ac","system_id":"levelo_inurba_marseille","lat":43.28036,"lon":5.36948,"is_reserved":false,"is_disabled":false,"rental_uris":{"android":"levelo://app?vid=b095d7de-d904-472a-8d77-5cbb6c15e9ac","ios":"levelo://app?vid=b095d7de-d904-472a-8d77-5cbb6c15e9ac"},"vehicle_type_id":"4","last_reported":1744884660,"current_range_meters":8400,"station_id":"ce4bha12rcd13ifvqef0","pricing_plan_id":"cebpf4jnsgd1na2vs0mg"},{"bike_id":"6ec2cec1-eca4-41b1-a5bc-69493acfb9d4","system_id":"levelo_inurba_marseille","lat":43.23194,"lon":5.35563,"is_reserved":false,"is_disabled":false,"rental_uris":{"android":"levelo://app?vid=6ec2cec1-eca4-41b1-a5bc-69493acfb9d4","ios":"levelo://app?vid=6ec2cec1-eca4-41b1-a5bc-69493acfb9d4"},"vehicle_type_id":"4","last_reported":1744884660,"current_range_meters":8400,"station_id":"ce4bhu92rcd13ifvqi70","pricing_plan_id":"cebpf4jnsgd1na2vs0mg"},{"bike_id":"994695a9-98fd-4da6-9191-c96330e6cffb","system_id":"levelo_inurba_marseille","lat":43.21752,"lon":5.34616,"is_reserved":false,"is_disabled":false,"rental_uris":{"android":"levelo://app?vid=994695a9-98fd-4da6-9191-c96330e6cffb","ios":"levelo://app?vid=994695a9-98fd-4da6-9191-c96330e6cffb"},"vehicle_type_id":"4","last_reported":1744884660,"current_range_meters":8400,"station_id":"st_cvj6r9ubvosntc0bgbag","pricing_plan_id":"cebpf4jnsgd1na2vs0mg"},{"bike_id":"178dad46-cb0d-4eb0-b656-2a8e4563fbcb","system_id":"levelo_inurba_marseille","lat":43.30161,"lon":5.38097,"is_reserved":false,"is_disabled":false,"rental_uris":{"android":"levelo://app?vid=178dad46-cb0d-4eb0-b656-2a8e4563fbcb","ios":"levelo://app?vid=178dad46-cb0d-4eb0-b656-2a8e4563fbcb"},"vehicle_type_id":"4","last_reported":1744884660,"current_range_meters":8400,"station_id":"ce4bgjp2rcd13ifvqbh0","pricing_plan_id":"cebpf4jnsgd1na2vs0mg"},{"bike_id":"92f797c8-3d0f-44d2-b349-002e9e2586ef","system_id":"levelo_inurba_marseille","lat":43.30546,"lon":5.36554,"is_reserved":false,"is_disabled":false,"rental_uris":{"android":"levelo://app?vid=92f797c8-3d0f-44d2-b349-002e9e2586ef","ios":"levelo://app?vid=92f797c8-3d0f-44d2-b349-002e9e2586ef"},"vehicle_type_id":"4","last_reported":1744884660,"current_range_meters":8800,"station_id":"ce4bgs12rcd13ifvqcag","pricing_plan_id":"cebpf4jnsgd1na2vs0mg"},{"bike_id":"17d425c7-2ff7-47af-abf9-ee9063cee3be","system_id":"levelo_inurba_marseille","lat":43.33606,"lon":5.41017,"is_reserved":false,"is_disabled":false,"rental_uris":{"android":"levelo://app?vid=17d425c7-2ff7-47af-abf9-ee9063cee3be","ios":"levelo://app?vid=17d425c7-2ff7-47af-abf9-ee9063cee3be"},"vehicle_type_id":"4","last_reported":1744884660,"current_range_meters":8800,"station_id":"ce4bhqh2rcd13ifvqhmg","pricing_plan_id":"cebpf4jnsgd1na2vs0mg"},{"bike_id":"04168eeb-a183-4f2e-8349-38320bf891b0","system_id":"levelo_inurba_marseille","lat":43.28937,"lon":5.39631,"is_reserved":false,"is_disabled":false,"rental_uris":{"android":"levelo://app?vid=04168eeb-a183-4f2e-8349-38320bf891b0","ios":"levelo://app?vid=04168eeb-a183-4f2e-8349-38320bf891b0"},"vehicle_type_id":"4","last_reported":1744884660,"current_range_meters":8400,"station_id":"ce4bh3h2rcd13ifvqdn0","pricing_plan_id":"cebpf4jnsgd1na2vs0mg"},{"bike_id":"834ec9e1-9d50-4bee-85ae-d1db335c55e5","system_id":"levelo_inurba_marseille","lat":43.31815,"lon":5.3681,"is_reserved":false,"is_disabled":false,"rental_uris":{"android":"levelo://app?vid=834ec9e1-9d50-4bee-85ae-d1db335c55e5","ios":"levelo://app?vid=834ec9e1-9d50-4bee-85ae-d1db335c55e5"},"vehicle_type_id":"4","last_reported":1744884660,"current_range_meters":9200,"station_id":"","pricing_plan_id":"cebpf4jnsgd1na2vs0mg"},{"bike_id":"8eab0246-7ea4-4560-8733-fa379fd1cfdb","system_id":"levelo_inurba_marseille","lat":43.292867,"lon":5.401086,"is_reserved":false,"is_disabled":false,"rental_uris":{"android":"levelo://app?vid=8eab0246-7ea4-4560-8733-fa379fd1cfdb","ios":"levelo://app?vid=8eab0246-7ea4-4560-8733-fa379fd1cfdb"},"vehicle_type_id":"4","last_reported":1744884660,"current_range_meters":9200,"station_id":"ce4bh2p2rcd13ifvqdi0","pricing_plan_id":"cebpf4jnsgd1na2vs0mg"},{"bike_id":"af25fc65-cc8d-4cc6-b6ca-794b13ed0e05","system_id":"levelo_inurba_marseille","lat":43.30543,"lon":5.36691,"is_reserved":false,"is_disabled":false,"rental_uris":{"android":"levelo://app?vid=af25fc65-cc8d-4cc6-b6ca-794b13ed0e05","ios":"levelo://app?vid=af25fc65-cc8d-4cc6-b6ca-794b13ed0e05"},"vehicle_type_id":"4","last_reported":1744884660,"current_range_meters":9200,"station_id":"ce4bgrp2rcd13ifvqc9g","pricing_plan_id":"cebpf4jnsgd1na2vs0mg"},{"bike_id":"4e38bcb9-242e-4572-9e2d-e8d231d35def","system_id":"levelo_inurba_marseille","lat":43.23972,"lon":5.36627,"is_reserved":false,"is_disabled":false,"rental_uris":{"android":"levelo://app?vid=4e38bcb9-242e-4572-9e2d-e8d231d35def","ios":"levelo://app?vid=4e38bcb9-242e-4572-9e2d-e8d231d35def"},"vehicle_type_id":"4","last_reported":1744884660,"current_range_meters":9600,"station_id":"ce4bhi12rcd13ifvqfp0","pricing_plan_id":"cebpf4jnsgd1na2vs0mg"},{"bike_id":"eff696f6-2db3-4c7c-8624-9e6fdc11f334","system_id":"levelo_inurba_marseille","lat":43.31041,"lon":5.38341,"is_reserved":false,"is_disabled":false,"rental_uris":{"android":"levelo://app?vid=eff696f6-2db3-4c7c-8624-9e6fdc11f334","ios":"levelo://app?vid=eff696f6-2db3-4c7c-8624-9e6fdc11f334"},"vehicle_type_id":"4","last_reported":1744884660,"current_range_meters":9600,"station_id":"ce4bgv92rcd13ifvqcr0","pricing_plan_id":"cebpf4jnsgd1na2vs0mg"},{"bike_id":"d386e8ee-c755-4777-a484-12ed7f758d2a","system_id":"levelo_inurba_marseille","lat":43.28667,"lon":5.38671,"is_reserved":false,"is_disabled":false,"rental_uris":{"android":"levelo://app?vid=d386e8ee-c755-4777-a484-12ed7f758d2a","ios":"levelo://app?vid=d386e8ee-c755-4777-a484-12ed7f758d2a"},"vehicle_type_id":"4","last_reported":1744884660,"current_range_meters":10000,"station_id":"ce4bh492rcd13ifvqdug","pricing_plan_id":"cebpf4jnsgd1na2vs0mg"},{"bike_id":"af88db6c-6ed6-4cd1-bda5-d2603147fa04","system_id":"levelo_inurba_marseille","lat":43.33611,"lon":5.41021,"is_reserved":false,"is_disabled":false,"rental_uris":{"android":"levelo://app?vid=af88db6c-6ed6-4cd1-bda5-d2603147fa04","ios":"levelo://app?vid=af88db6c-6ed6-4cd1-bda5-d2603147fa04"},"vehicle_type_id":"4","last_reported":1744884660,"current_range_meters":10000,"station_id":"ce4bhqh2rcd13ifvqhmg","pricing_plan_id":"cebpf4jnsgd1na2vs0mg"},{"bike_id":"5df85a79-274c-4999-ab35-d1f225e8f5cd","system_id":"levelo_inurba_marseille","lat":43.31409,"lon":5.36674,"is_reserved":false,"is_disabled":false,"rental_uris":{"android":"levelo://app?vid=5df85a79-274c-4999-ab35-d1f225e8f5cd","ios":"levelo://app?vid=5df85a79-274c-4999-ab35-d1f225e8f5cd"},"vehicle_type_id":"4","last_reported":1744884660,"current_range_meters":10000,"station_id":"","pricing_plan_id":"cebpf4jnsgd1na2vs0mg"},{"bike_id":"1bdba7a7-a82e-4252-906c-80db6beb180e","system_id":"levelo_inurba_marseille","lat":43.24896,"lon":5.39417,"is_reserved":false,"is_disabled":false,"rental_uris":{"android":"levelo://app?vid=1bdba7a7-a82e-4252-906c-80db6beb180e","ios":"levelo://app?vid=1bdba7a7-a82e-4252-906c-80db6beb180e"},"vehicle_type_id":"4","last_reported":1744884660,"current_range_meters":10800,"station_id":"","pricing_plan_id":"cebpf4jnsgd1na2vs0mg"},{"bike_id":"da2917d3-cbba-4913-b9d1-32de983372e1","system_id":"levelo_inurba_marseille","lat":43.284668,"lon":5.384033,"is_reserved":false,"is_disabled":false,"rental_uris":{"android":"levelo://app?vid=da2917d3-cbba-4913-b9d1-32de983372e1","ios":"levelo://app?vid=da2917d3-cbba-4913-b9d1-32de983372e1"},"vehicle_type_id":"4","last_reported":1744884660,"current_range_meters":10800,"station_id":"ce4bh512rcd13ifvqe3g","pricing_plan_id":"cebpf4jnsgd1na2vs0mg"},{"bike_id":"6a42fdd6-075d-4748-811a-29f5845c8920","system_id":"levelo_inurba_marseille","lat":43.21758,"lon":5.34605,"is_reserved":false,"is_disabled":false,"rental_uris":{"android":"levelo://app?vid=6a42fdd6-075d-4748-811a-29f5845c8920","ios":"levelo://app?vid=6a42fdd6-075d-4748-811a-29f5845c8920"},"vehicle_type_id":"4","last_reported":1744884660,"current_range_meters":11200,"station_id":"st_cvj6r9ubvosntc0bgbag","pricing_plan_id":"cebpf4jnsgd1na2vs0mg"},{"bike_id":"5c2f1d7b-c211-4e2b-ac56-43106bb4936b","system_id":"levelo_inurba_marseille","lat":43.28672,"lon":5.38671,"is_reserved":false,"is_disabled":false,"rental_uris":{"android":"levelo://app?vid=5c2f1d7b-c211-4e2b-ac56-43106bb4936b","ios":"levelo://app?vid=5c2f1d7b-c211-4e2b-ac56-43106bb4936b"},"vehicle_type_id":"4","last_reported":1744884660,"current_range_meters":10800,"station_id":"ce4bh492rcd13ifvqdug","pricing_plan_id":"cebpf4jnsgd1na2vs0mg"},{"bike_id":"df333a31-16eb-4605-a51f-fed6098dd41c","system_id":"levelo_inurba_marseille","lat":43.29586,"lon":5.36746,"is_reserved":false,"is_disabled":false,"rental_uris":{"android":"levelo://app?vid=df333a31-16eb-4605-a51f-fed6098dd41c","ios":"levelo://app?vid=df333a31-16eb-4605-a51f-fed6098dd41c"},"vehicle_type_id":"4","last_reported":1744884660,"current_range_meters":11200,"station_id":"ce4bgph2rcd13ifvqc2g","pricing_plan_id":"cebpf4jnsgd1na2vs0mg"},{"bike_id":"4f3dfbf4-d1ae-44db-8110-b28c7d24107a","system_id":"levelo_inurba_marseille","lat":43.27028,"lon":5.40312,"is_reserved":false,"is_disabled":false,"rental_uris":{"android":"levelo://app?vid=4f3dfbf4-d1ae-44db-8110-b28c7d24107a","ios":"levelo://app?vid=4f3dfbf4-d1ae-44db-8110-b28c7d24107a"},"vehicle_type_id":"4","last_reported":1744884660,"current_range_meters":11600,"station_id":"","pricing_plan_id":"cebpf4jnsgd1na2vs0mg"},{"bike_id":"da3ab058-c6d6-485f-b98b-b00a61086bf9","system_id":"levelo_inurba_marseille","lat":43.29262,"lon":5.3687,"is_reserved":false,"is_disabled":false,"rental_uris":{"android":"levelo://app?vid=da3ab058-c6d6-485f-b98b-b00a61086bf9","ios":"levelo://app?vid=da3ab058-c6d6-485f-b98b-b00a61086bf9"},"vehicle_type_id":"4","last_reported":1744884660,"current_range_meters":11600,"station_id":"ce4bhbp2rcd13ifvqesg","pricing_plan_id":"cebpf4jnsgd1na2vs0mg"},{"bike_id":"7312274e-b096-4d2d-bafb-8e4e0c987eec","system_id":"levelo_inurba_marseille","lat":43.305531,"lon":5.365492,"is_reserved":false,"is_disabled":false,"rental_uris":{"android":"levelo://app?vid=7312274e-b096-4d2d-bafb-8e4e0c987eec","ios":"levelo://app?vid=7312274e-b096-4d2d-bafb-8e4e0c987eec"},"vehicle_type_id":"4","last_reported":1744884660,"current_range_meters":11600,"station_id":"ce4bgi92rcd13ifvqb90","pricing_plan_id":"cebpf4jnsgd1na2vs0mg"},{"bike_id":"526e749a-5343-4840-aa3f-34c34b9acad5","system_id":"levelo_inurba_marseille","lat":43.28939,"lon":5.3664,"is_reserved":false,"is_disabled":false,"rental_uris":{"android":"levelo://app?vid=526e749a-5343-4840-aa3f-34c34b9acad5","ios":"levelo://app?vid=526e749a-5343-4840-aa3f-34c34b9acad5"},"vehicle_type_id":"4","last_reported":1744884660,"current_range_meters":11200,"station_id":"ce4bhap2rcd13ifvqek0","pricing_plan_id":"cebpf4jnsgd1na2vs0mg"},{"bike_id":"aba6c310-a0df-4063-aa0b-8fe8353b3061","system_id":"levelo_inurba_marseille","lat":43.3015,"lon":5.37404,"is_reserved":false,"is_disabled":false,"rental_uris":{"android":"levelo://app?vid=aba6c310-a0df-4063-aa0b-8fe8353b3061","ios":"levelo://app?vid=aba6c310-a0df-4063-aa0b-8fe8353b3061"},"vehicle_type_id":"4","last_reported":1744884660,"current_range_meters":12000,"station_id":"ce4bgs92rcd13ifvqcc0","pricing_plan_id":"cebpf4jnsgd1na2vs0mg"},{"bike_id":"c3952952-4b52-49f4-b864-0656fcaf3b72","system_id":"levelo_inurba_marseille","lat":43.31017,"lon":5.39042,"is_reserved":false,"is_disabled":false,"rental_uris":{"android":"levelo://app?vid=c3952952-4b52-49f4-b864-0656fcaf3b72","ios":"levelo://app?vid=c3952952-4b52-49f4-b864-0656fcaf3b72"},"vehicle_type_id":"4","last_reported":1744884660,"current_range_meters":12000,"station_id":"ce4bgup2rcd13ifvqco0","pricing_plan_id":"cebpf4jnsgd1na2vs0mg"},{"bike_id":"6b263e6b-aafb-45b2-8f6c-e9526fac004d","system_id":"levelo_inurba_marseille","lat":43.25817,"lon":5.39432,"is_reserved":false,"is_disabled":false,"rental_uris":{"android":"levelo://app?vid=6b263e6b-aafb-45b2-8f6c-e9526fac004d","ios":"levelo://app?vid=6b263e6b-aafb-45b2-8f6c-e9526fac004d"},"vehicle_type_id":"4","last_reported":1744884660,"current_range_meters":12000,"station_id":"ce4bhip2rcd13ifvqft0","pricing_plan_id":"cebpf4jnsgd1na2vs0mg"},{"bike_id":"6280de1f-5b36-4fde-b3de-e67f9229ac38","system_id":"levelo_inurba_marseille","lat":43.28575,"lon":5.39492,"is_reserved":false,"is_disabled":false,"rental_uris":{"android":"levelo://app?vid=6280de1f-5b36-4fde-b3de-e67f9229ac38","ios":"levelo://app?vid=6280de1f-5b36-4fde-b3de-e67f9229ac38"},"vehicle_type_id":"4","last_reported":1744884660,"current_range_meters":12400,"station_id":"ce4bh292rcd13ifvqdg0","pricing_plan_id":"cebpf4jnsgd1na2vs0mg"},{"bike_id":"780fd208-4cef-411c-9c24-4b8f0b12b74d","system_id":"levelo_inurba_marseille","lat":43.29974,"lon":5.37148,"is_reserved":false,"is_disabled":false,"rental_uris":{"android":"levelo://app?vid=780fd208-4cef-411c-9c24-4b8f0b12b74d","ios":"levelo://app?vid=780fd208-4cef-411c-9c24-4b8f0b12b74d"},"vehicle_type_id":"4","last_reported":1744884660,"current_range_meters":12000,"station_id":"ce4bgr92rcd13ifvqc7g","pricing_plan_id":"cebpf4jnsgd1na2vs0mg"},{"bike_id":"10682df4-2455-4902-82fc-3a4fbbd9539a","system_id":"levelo_inurba_marseille","lat":43.30883,"lon":5.37196,"is_reserved":false,"is_disabled":false,"rental_uris":{"android":"levelo://app?vid=10682df4-2455-4902-82fc-3a4fbbd9539a","ios":"levelo://app?vid=10682df4-2455-4902-82fc-3a4fbbd9539a"},"vehicle_type_id":"4","last_reported":1744884660,"current_range_meters":12800,"station_id":"ce4bguh2rcd13ifvqckg","pricing_plan_id":"cebpf4jnsgd1na2vs0mg"},{"bike_id":"b3368a4b-172f-436c-89f1-5b68b3612fbc","system_id":"levelo_inurba_marseille","lat":43.295526,"lon":5.422786,"is_reserved":false,"is_disabled":false,"rental_uris":{"android":"levelo://app?vid=b3368a4b-172f-436c-89f1-5b68b3612fbc","ios":"levelo://app?vid=b3368a4b-172f-436c-89f1-5b68b3612fbc"},"vehicle_type_id":"4","last_reported":1744884660,"current_range_meters":12800,"station_id":"ce4bhph2rcd13ifvqhdg","pricing_plan_id":"cebpf4jnsgd1na2vs0mg"},{"bike_id":"ff935f1c-246d-4e07-a399-40ad7e059de5","system_id":"levelo_inurba_marseille","lat":43.25507,"lon":5.37643,"is_reserved":false,"is_disabled":true,"rental_uris":{"android":"levelo://app?vid=ff935f1c-246d-4e07-a399-40ad7e059de5","ios":"levelo://app?vid=ff935f1c-246d-4e07-a399-40ad7e059de5"},"vehicle_type_id":"4","last_reported":1744884660,"current_range_meters":12800,"station_id":"ce4bhh12rcd13ifvqff0","pricing_plan_id":"cebpf4jnsgd1na2vs0mg"},{"bike_id":"6b167838-79e8-4b8d-95e8-60926f312d86","system_id":"levelo_inurba_marseille","lat":43.2917,"lon":5.37161,"is_reserved":false,"is_disabled":false,"rental_uris":{"android":"levelo://app?vid=6b167838-79e8-4b8d-95e8-60926f312d86","ios":"levelo://app?vid=6b167838-79e8-4b8d-95e8-60926f312d86"},"vehicle_type_id":"4","last_reported":1744884660,"current_range_meters":12800,"station_id":"ce4bha92rcd13ifvqeh0","pricing_plan_id":"cebpf4jnsgd1na2vs0mg"},{"bike_id":"de0160f6-3d8f-4a3e-9509-3b0f08807f0d","system_id":"levelo_inurba_marseille","lat":43.305266,"lon":5.366892,"is_reserved":false,"is_disabled":false,"rental_uris":{"android":"levelo://app?vid=de0160f6-3d8f-4a3e-9509-3b0f08807f0d","ios":"levelo://app?vid=de0160f6-3d8f-4a3e-9509-3b0f08807f0d"},"vehicle_type_id":"4","last_reported":1744884660,"current_range_meters":12800,"station_id":"ce4bgrp2rcd13ifvqc9g","pricing_plan_id":"cebpf4jnsgd1na2vs0mg"},{"bike_id":"a1286a09-3cbc-43c9-a4ed-aec46ec5ca0c","system_id":"levelo_inurba_marseille","lat":43.24663,"lon":5.3817,"is_reserved":false,"is_disabled":false,"rental_uris":{"android":"levelo://app?vid=a1286a09-3cbc-43c9-a4ed-aec46ec5ca0c","ios":"levelo://app?vid=a1286a09-3cbc-43c9-a4ed-aec46ec5ca0c"},"vehicle_type_id":"4","last_reported":1744884660,"current_range_meters":12400,"station_id":"ce4bhih2rcd13ifvqfr0","pricing_plan_id":"cebpf4jnsgd1na2vs0mg"},{"bike_id":"1ac87801-c57b-4585-b3c6-0bf98cabbda9","system_id":"levelo_inurba_marseille","lat":43.30949,"lon":5.39048,"is_reserved":false,"is_disabled":false,"rental_uris":{"android":"levelo://app?vid=1ac87801-c57b-4585-b3c6-0bf98cabbda9","ios":"levelo://app?vid=1ac87801-c57b-4585-b3c6-0bf98cabbda9"},"vehicle_type_id":"4","last_reported":1744884660,"current_range_meters":12400,"station_id":"ce4bgup2rcd13ifvqco0","pricing_plan_id":"cebpf4jnsgd1na2vs0mg"},{"bike_id":"da0699e6-fffb-42fd-bda2-fa249cfedfd8","system_id":"levelo_inurba_marseille","lat":43.31486,"lon":5.37313,"is_reserved":false,"is_disabled":false,"rental_uris":{"android":"levelo://app?vid=da0699e6-fffb-42fd-bda2-fa249cfedfd8","ios":"levelo://app?vid=da0699e6-fffb-42fd-bda2-fa249cfedfd8"},"vehicle_type_id":"4","last_reported":1744884660,"current_range_meters":13600,"station_id":"ce4bgt12rcd13ifvqcd0","pricing_plan_id":"cebpf4jnsgd1na2vs0mg"},{"bike_id":"9ae4de2b-65d6-4c8d-9fd9-eb2927f36e22","system_id":"levelo_inurba_marseille","lat":43.23347,"lon":5.36446,"is_reserved":false,"is_disabled":false,"rental_uris":{"android":"levelo://app?vid=9ae4de2b-65d6-4c8d-9fd9-eb2927f36e22","ios":"levelo://app?vid=9ae4de2b-65d6-4c8d-9fd9-eb2927f36e22"},"vehicle_type_id":"4","last_reported":1744884660,"current_range_meters":13600,"station_id":"","pricing_plan_id":"cebpf4jnsgd1na2vs0mg"},{"bike_id":"52e01319-bb3b-459a-977a-f4c14a076364","system_id":"levelo_inurba_marseille","lat":43.26571,"lon":5.39011,"is_reserved":false,"is_disabled":false,"rental_uris":{"android":"levelo://app?vid=52e01319-bb3b-459a-977a-f4c14a076364","ios":"levelo://app?vid=52e01319-bb3b-459a-977a-f4c14a076364"},"vehicle_type_id":"4","last_reported":1744884660,"current_range_meters":14000,"station_id":"ce4bhe12rcd13ifvqf30","pricing_plan_id":"cebpf4jnsgd1na2vs0mg"},{"bike_id":"c7a25edb-72c6-4488-8cc3-bada21eb7b55","system_id":"levelo_inurba_marseille","lat":43.3056,"lon":5.36538,"is_reserved":false,"is_disabled":false,"rental_uris":{"android":"levelo://app?vid=c7a25edb-72c6-4488-8cc3-bada21eb7b55","ios":"levelo://app?vid=c7a25edb-72c6-4488-8cc3-bada21eb7b55"},"vehicle_type_id":"4","last_reported":1744884660,"current_range_meters":14000,"station_id":"ce4bgs12rcd13ifvqcag","pricing_plan_id":"cebpf4jnsgd1na2vs0mg"},{"bike_id":"bd01f510-7a22-41fd-a7f8-84128c21dbce","system_id":"levelo_inurba_marseille","lat":43.29616,"lon":5.37734,"is_reserved":false,"is_disabled":false,"rental_uris":{"android":"levelo://app?vid=bd01f510-7a22-41fd-a7f8-84128c21dbce","ios":"levelo://app?vid=bd01f510-7a22-41fd-a7f8-84128c21dbce"},"vehicle_type_id":"4","last_reported":1744884660,"current_range_meters":14000,"station_id":"ce4bgi92rcd13ifvqb90","pricing_plan_id":"cebpf4jnsgd1na2vs0mg"},{"bike_id":"083eccac-e6ba-411a-8a94-22b0cadf5e90","system_id":"levelo_inurba_marseille","lat":43.2731,"lon":5.39084,"is_reserved":false,"is_disabled":false,"rental_uris":{"android":"levelo://app?vid=083eccac-e6ba-411a-8a94-22b0cadf5e90","ios":"levelo://app?vid=083eccac-e6ba-411a-8a94-22b0cadf5e90"},"vehicle_type_id":"4","last_reported":1744884660,"current_range_meters":13600,"station_id":"ce4bhgp2rcd13ifvqfe0","pricing_plan_id":"cebpf4jnsgd1na2vs0mg"},{"bike_id":"ec8c9ac7-1e95-4171-97f3-226ce1e3c951","system_id":"levelo_inurba_marseille","lat":43.32111,"lon":5.36773,"is_reserved":false,"is_disabled":false,"rental_uris":{"android":"levelo://app?vid=ec8c9ac7-1e95-4171-97f3-226ce1e3c951","ios":"levelo://app?vid=ec8c9ac7-1e95-4171-97f3-226ce1e3c951"},"vehicle_type_id":"4","last_reported":1744884660,"current_range_meters":14400,"station_id":"ce4bhrh2rcd13ifvqhug","pricing_plan_id":"cebpf4jnsgd1na2vs0mg"},{"bike_id":"fe552450-c0a0-482b-ad4d-745c7e3315b5","system_id":"levelo_inurba_marseille","lat":43.23967,"lon":5.36637,"is_reserved":false,"is_disabled":false,"rental_uris":{"android":"levelo://app?vid=fe552450-c0a0-482b-ad4d-745c7e3315b5","ios":"levelo://app?vid=fe552450-c0a0-482b-ad4d-745c7e3315b5"},"vehicle_type_id":"4","last_reported":1744884660,"current_range_meters":14400,"station_id":"ce4bhi12rcd13ifvqfp0","pricing_plan_id":"cebpf4jnsgd1na2vs0mg"},{"bike_id":"1a25aecf-e7e1-4166-aa15-b33ef703244b","system_id":"levelo_inurba_marseille","lat":43.27035,"lon":5.40337,"is_reserved":false,"is_disabled":false,"rental_uris":{"android":"levelo://app?vid=1a25aecf-e7e1-4166-aa15-b33ef703244b","ios":"levelo://app?vid=1a25aecf-e7e1-4166-aa15-b33ef703244b"},"vehicle_type_id":"4","last_reported":1744884660,"current_range_meters":14400,"station_id":"ce4bhk92rcd13ifvqgc0","pricing_plan_id":"cebpf4jnsgd1na2vs0mg"},{"bike_id":"6b2d7d4a-c5ab-403d-bef9-a9de96cca6da","system_id":"levelo_inurba_marseille","lat":43.30179,"lon":5.36599,"is_reserved":false,"is_disabled":false,"rental_uris":{"android":"levelo://app?vid=6b2d7d4a-c5ab-403d-bef9-a9de96cca6da","ios":"levelo://app?vid=6b2d7d4a-c5ab-403d-bef9-a9de96cca6da"},"vehicle_type_id":"4","last_reported":1744884660,"current_range_meters":14400,"station_id":"ce4bgrh2rcd13ifvqc8g","pricing_plan_id":"cebpf4jnsgd1na2vs0mg"},{"bike_id":"5bb7b446-853f-4598-b24e-adca7411c99f","system_id":"levelo_inurba_marseille","lat":43.28272,"lon":5.35065,"is_reserved":false,"is_disabled":false,"rental_uris":{"android":"levelo://app?vid=5bb7b446-853f-4598-b24e-adca7411c99f","ios":"levelo://app?vid=5bb7b446-853f-4598-b24e-adca7411c99f"},"vehicle_type_id":"4","last_reported":1744884660,"current_range_meters":14400,"station_id":"ce4bhbp2rcd13ifvqerg","pricing_plan_id":"cebpf4jnsgd1na2vs0mg"},{"bike_id":"0b7b9afc-b2db-43f5-aeb8-7a1248a5408e","system_id":"levelo_inurba_marseille","lat":43.31278,"lon":5.37759,"is_reserved":false,"is_disabled":false,"rental_uris":{"android":"levelo://app?vid=0b7b9afc-b2db-43f5-aeb8-7a1248a5408e","ios":"levelo://app?vid=0b7b9afc-b2db-43f5-aeb8-7a1248a5408e"},"vehicle_type_id":"4","last_reported":1744884660,"current_range_meters":14400,"station_id":"","pricing_plan_id":"cebpf4jnsgd1na2vs0mg"},{"bike_id":"f9294aff-5b6f-4d62-9db7-b7bdca4ffaf5","system_id":"levelo_inurba_marseille","lat":43.32539,"lon":5.41455,"is_reserved":false,"is_disabled":true,"rental_uris":{"android":"levelo://app?vid=f9294aff-5b6f-4d62-9db7-b7bdca4ffaf5","ios":"levelo://app?vid=f9294aff-5b6f-4d62-9db7-b7bdca4ffaf5"},"vehicle_type_id":"4","last_reported":1744884660,"current_range_meters":14400,"station_id":"ce4bhq12rcd13ifvqhhg","pricing_plan_id":"cebpf4jnsgd1na2vs0mg"},{"bike_id":"ad85439c-f8fe-4b8a-bceb-1e3c499bf44c","system_id":"levelo_inurba_marseille","lat":43.30425,"lon":5.39744,"is_reserved":false,"is_disabled":false,"rental_uris":{"android":"levelo://app?vid=ad85439c-f8fe-4b8a-bceb-1e3c499bf44c","ios":"levelo://app?vid=ad85439c-f8fe-4b8a-bceb-1e3c499bf44c"},"vehicle_type_id":"4","last_reported":1744884660,"current_range_meters":14400,"station_id":"ce4bh092rcd13ifvqd20","pricing_plan_id":"cebpf4jnsgd1na2vs0mg"},{"bike_id":"d91aa712-226d-429b-8f85-e669b4e2618c","system_id":"levelo_inurba_marseille","lat":43.305555,"lon":5.365589,"is_reserved":false,"is_disabled":false,"rental_uris":{"android":"levelo://app?vid=d91aa712-226d-429b-8f85-e669b4e2618c","ios":"levelo://app?vid=d91aa712-226d-429b-8f85-e669b4e2618c"},"vehicle_type_id":"4","last_reported":1744884660,"current_range_meters":14400,"station_id":"ce4bgs12rcd13ifvqcag","pricing_plan_id":"cebpf4jnsgd1na2vs0mg"},{"bike_id":"da8950e0-8d23-4f66-aaca-45d3a4fe8164","system_id":"levelo_inurba_marseille","lat":43.31266,"lon":5.36867,"is_reserved":false,"is_disabled":false,"rental_uris":{"android":"levelo://app?vid=da8950e0-8d23-4f66-aaca-45d3a4fe8164","ios":"levelo://app?vid=da8950e0-8d23-4f66-aaca-45d3a4fe8164"},"vehicle_type_id":"4","last_reported":1744884660,"current_range_meters":14800,"station_id":"ce4bgl92rcd13ifvqbq0","pricing_plan_id":"cebpf4jnsgd1na2vs0mg"},{"bike_id":"71fc2879-9704-40e1-ac76-fad005efcd03","system_id":"levelo_inurba_marseille","lat":43.291,"lon":5.38126,"is_reserved":false,"is_disabled":false,"rental_uris":{"android":"levelo://app?vid=71fc2879-9704-40e1-ac76-fad005efcd03","ios":"levelo://app?vid=71fc2879-9704-40e1-ac76-fad005efcd03"},"vehicle_type_id":"4","last_reported":1744884660,"current_range_meters":14800,"station_id":"ce4bh512rcd13ifvqe2g","pricing_plan_id":"cebpf4jnsgd1na2vs0mg"},{"bike_id":"31ae4ad1-501a-44bc-96de-3aaf80df224d","system_id":"levelo_inurba_marseille","lat":43.28352,"lon":5.38115,"is_reserved":false,"is_disabled":false,"rental_uris":{"android":"levelo://app?vid=31ae4ad1-501a-44bc-96de-3aaf80df224d","ios":"levelo://app?vid=31ae4ad1-501a-44bc-96de-3aaf80df224d"},"vehicle_type_id":"4","last_reported":1744884660,"current_range_meters":14800,"station_id":"ce4bh412rcd13ifvqdr0","pricing_plan_id":"cebpf4jnsgd1na2vs0mg"},{"bike_id":"dc88ca14-385b-47d2-8f34-ba0ff66a2869","system_id":"levelo_inurba_marseille","lat":43.30926,"lon":5.37875,"is_reserved":false,"is_disabled":false,"rental_uris":{"android":"levelo://app?vid=dc88ca14-385b-47d2-8f34-ba0ff66a2869","ios":"levelo://app?vid=dc88ca14-385b-47d2-8f34-ba0ff66a2869"},"vehicle_type_id":"4","last_reported":1744884660,"current_range_meters":15200,"station_id":"","pricing_plan_id":"cebpf4jnsgd1na2vs0mg"},{"bike_id":"3c366cbf-d7c8-4c09-8e55-ed6c07972fd9","system_id":"levelo_inurba_marseille","lat":43.30803,"lon":5.38156,"is_reserved":false,"is_disabled":false,"rental_uris":{"android":"levelo://app?vid=3c366cbf-d7c8-4c09-8e55-ed6c07972fd9","ios":"levelo://app?vid=3c366cbf-d7c8-4c09-8e55-ed6c07972fd9"},"vehicle_type_id":"4","last_reported":1744884660,"current_range_meters":14800,"station_id":"ce4bgt12rcd13ifvqce0","pricing_plan_id":"cebpf4jnsgd1na2vs0mg"},{"bike_id":"173d39b4-7a97-4693-9385-db8bda0fe199","system_id":"levelo_inurba_marseille","lat":43.21738,"lon":5.3461,"is_reserved":false,"is_disabled":false,"rental_uris":{"android":"levelo://app?vid=173d39b4-7a97-4693-9385-db8bda0fe199","ios":"levelo://app?vid=173d39b4-7a97-4693-9385-db8bda0fe199"},"vehicle_type_id":"4","last_reported":1744884660,"current_range_meters":16000,"station_id":"st_cvj6r9ubvosntc0bgbag","pricing_plan_id":"cebpf4jnsgd1na2vs0mg"},{"bike_id":"3af48173-ba90-4f90-a09a-afe24b29a50c","system_id":"levelo_inurba_marseille","lat":43.24183,"lon":5.39745,"is_reserved":false,"is_disabled":false,"rental_uris":{"android":"levelo://app?vid=3af48173-ba90-4f90-a09a-afe24b29a50c","ios":"levelo://app?vid=3af48173-ba90-4f90-a09a-afe24b29a50c"},"vehicle_type_id":"4","last_reported":1744884660,"current_range_meters":16000,"station_id":"ce4bhn12rcd13ifvqgpg","pricing_plan_id":"cebpf4jnsgd1na2vs0mg"},{"bike_id":"0291b7a7-5f86-48ec-8437-eba04e7bafe8","system_id":"levelo_inurba_marseille","lat":43.32328,"lon":5.36695,"is_reserved":false,"is_disabled":false,"rental_uris":{"android":"levelo://app?vid=0291b7a7-5f86-48ec-8437-eba04e7bafe8","ios":"levelo://app?vid=0291b7a7-5f86-48ec-8437-eba04e7bafe8"},"vehicle_type_id":"4","last_reported":1744884660,"current_range_meters":16000,"station_id":"ce4bhsh2rcd13ifvqi2g","pricing_plan_id":"cebpf4jnsgd1na2vs0mg"},{"bike_id":"a829ae25-8f1a-4059-a4b7-5be1d885c516","system_id":"levelo_inurba_marseille","lat":43.31237,"lon":5.36884,"is_reserved":false,"is_disabled":false,"rental_uris":{"android":"levelo://app?vid=a829ae25-8f1a-4059-a4b7-5be1d885c516","ios":"levelo://app?vid=a829ae25-8f1a-4059-a4b7-5be1d885c516"},"vehicle_type_id":"4","last_reported":1744884660,"current_range_meters":16000,"station_id":"ce4bgl92rcd13ifvqbq0","pricing_plan_id":"cebpf4jnsgd1na2vs0mg"},{"bike_id":"45d7aa0b-ffe8-44b8-ab18-22d51dc54325","system_id":"levelo_inurba_marseille","lat":43.298801,"lon":5.397548,"is_reserved":false,"is_disabled":false,"rental_uris":{"android":"levelo://app?vid=45d7aa0b-ffe8-44b8-ab18-22d51dc54325","ios":"levelo://app?vid=45d7aa0b-ffe8-44b8-ab18-22d51dc54325"},"vehicle_type_id":"4","last_reported":1744884660,"current_range_meters":16400,"station_id":"ce4bh0h2rcd13ifvqd50","pricing_plan_id":"cebpf4jnsgd1na2vs0mg"},{"bike_id":"949deb4f-0a26-48b5-89a7-d4ca42bdbbd3","system_id":"levelo_inurba_marseille","lat":43.30098,"lon":5.3908,"is_reserved":false,"is_disabled":false,"rental_uris":{"android":"levelo://app?vid=949deb4f-0a26-48b5-89a7-d4ca42bdbbd3","ios":"levelo://app?vid=949deb4f-0a26-48b5-89a7-d4ca42bdbbd3"},"vehicle_type_id":"4","last_reported":1744884660,"current_range_meters":16000,"station_id":"ce4bh192rcd13ifvqdb0","pricing_plan_id":"cebpf4jnsgd1na2vs0mg"},{"bike_id":"41fb0398-f2fe-4abb-ae37-a38f47615ea9","system_id":"levelo_inurba_marseille","lat":43.32353,"lon":5.36771,"is_reserved":false,"is_disabled":false,"rental_uris":{"android":"levelo://app?vid=41fb0398-f2fe-4abb-ae37-a38f47615ea9","ios":"levelo://app?vid=41fb0398-f2fe-4abb-ae37-a38f47615ea9"},"vehicle_type_id":"4","last_reported":1744884660,"current_range_meters":16400,"station_id":"ce4bhsh2rcd13ifvqi2g","pricing_plan_id":"cebpf4jnsgd1na2vs0mg"},{"bike_id":"e14c265e-eca3-4791-a3e7-f534121ae166","system_id":"levelo_inurba_marseille","lat":43.22924,"lon":5.35389,"is_reserved":false,"is_disabled":false,"rental_uris":{"android":"levelo://app?vid=e14c265e-eca3-4791-a3e7-f534121ae166","ios":"levelo://app?vid=e14c265e-eca3-4791-a3e7-f534121ae166"},"vehicle_type_id":"4","last_reported":1744884660,"current_range_meters":16400,"station_id":"cpo3532slgdg3j2ikp40","pricing_plan_id":"cebpf4jnsgd1na2vs0mg"},{"bike_id":"d209177f-4dc1-47ce-9df6-32025131e2ff","system_id":"levelo_inurba_marseille","lat":43.29794,"lon":5.40404,"is_reserved":false,"is_disabled":false,"rental_uris":{"android":"levelo://app?vid=d209177f-4dc1-47ce-9df6-32025131e2ff","ios":"levelo://app?vid=d209177f-4dc1-47ce-9df6-32025131e2ff"},"vehicle_type_id":"4","last_reported":1744884660,"current_range_meters":16000,"station_id":"ce4bh112rcd13ifvqd90","pricing_plan_id":"cebpf4jnsgd1na2vs0mg"},{"bike_id":"cc7ac33d-b61e-49f5-ad83-554a3d040679","system_id":"levelo_inurba_marseille","lat":43.30491,"lon":5.37913,"is_reserved":false,"is_disabled":false,"rental_uris":{"android":"levelo://app?vid=cc7ac33d-b61e-49f5-ad83-554a3d040679","ios":"levelo://app?vid=cc7ac33d-b61e-49f5-ad83-554a3d040679"},"vehicle_type_id":"4","last_reported":1744884660,"current_range_meters":16400,"station_id":"ce4bgup2rcd13ifvqcn0","pricing_plan_id":"cebpf4jnsgd1na2vs0mg"},{"bike_id":"78154f9e-a675-40b5-aedc-448676d3a498","system_id":"levelo_inurba_marseille","lat":43.30566,"lon":5.3668,"is_reserved":false,"is_disabled":false,"rental_uris":{"android":"levelo://app?vid=78154f9e-a675-40b5-aedc-448676d3a498","ios":"levelo://app?vid=78154f9e-a675-40b5-aedc-448676d3a498"},"vehicle_type_id":"4","last_reported":1744884660,"current_range_meters":16800,"station_id":"ce4bgrp2rcd13ifvqc9g","pricing_plan_id":"cebpf4jnsgd1na2vs0mg"},{"bike_id":"d750596a-6ac6-4755-84cc-45acd4464f3d","system_id":"levelo_inurba_marseille","lat":43.244073,"lon":5.370679,"is_reserved":false,"is_disabled":false,"rental_uris":{"android":"levelo://app?vid=d750596a-6ac6-4755-84cc-45acd4464f3d","ios":"levelo://app?vid=d750596a-6ac6-4755-84cc-45acd4464f3d"},"vehicle_type_id":"4","last_reported":1744884660,"current_range_meters":16800,"station_id":"ce4bhhh2rcd13ifvqfk0","pricing_plan_id":"cebpf4jnsgd1na2vs0mg"},{"bike_id":"5828d3d4-d352-4f18-a6a3-819b473d3416","system_id":"levelo_inurba_marseille","lat":43.30147,"lon":5.38076,"is_reserved":false,"is_disabled":false,"rental_uris":{"android":"levelo://app?vid=5828d3d4-d352-4f18-a6a3-819b473d3416","ios":"levelo://app?vid=5828d3d4-d352-4f18-a6a3-819b473d3416"},"vehicle_type_id":"4","last_reported":1744884660,"current_range_meters":16800,"station_id":"ce4bgjp2rcd13ifvqbh0","pricing_plan_id":"cebpf4jnsgd1na2vs0mg"},{"bike_id":"373635db-b1fd-41c4-8fe2-6a97768d7602","system_id":"levelo_inurba_marseille","lat":43.27369,"lon":5.36258,"is_reserved":false,"is_disabled":false,"rental_uris":{"android":"levelo://app?vid=373635db-b1fd-41c4-8fe2-6a97768d7602","ios":"levelo://app?vid=373635db-b1fd-41c4-8fe2-6a97768d7602"},"vehicle_type_id":"4","last_reported":1744884660,"current_range_meters":16800,"station_id":"ce4bhbh2rcd13ifvqeo0","pricing_plan_id":"cebpf4jnsgd1na2vs0mg"},{"bike_id":"c5170b3f-5826-4239-afd9-a452f9f0cd21","system_id":"levelo_inurba_marseille","lat":43.29453,"lon":5.38586,"is_reserved":false,"is_disabled":false,"rental_uris":{"android":"levelo://app?vid=c5170b3f-5826-4239-afd9-a452f9f0cd21","ios":"levelo://app?vid=c5170b3f-5826-4239-afd9-a452f9f0cd21"},"vehicle_type_id":"4","last_reported":1744884660,"current_range_meters":16800,"station_id":"ce4bh2h2rcd13ifvqdh0","pricing_plan_id":"cebpf4jnsgd1na2vs0mg"},{"bike_id":"5e1950f1-3570-4e07-a7cc-3dbf8a21d845","system_id":"levelo_inurba_marseille","lat":43.28136,"lon":5.42661,"is_reserved":false,"is_disabled":false,"rental_uris":{"android":"levelo://app?vid=5e1950f1-3570-4e07-a7cc-3dbf8a21d845","ios":"levelo://app?vid=5e1950f1-3570-4e07-a7cc-3dbf8a21d845"},"vehicle_type_id":"4","last_reported":1744884660,"current_range_meters":16800,"station_id":"ce4bhnh2rcd13ifvqgug","pricing_plan_id":"cebpf4jnsgd1na2vs0mg"},{"bike_id":"e2c768f4-cd4b-438b-8997-c84f39234dd5","system_id":"levelo_inurba_marseille","lat":43.25856,"lon":5.3991,"is_reserved":false,"is_disabled":false,"rental_uris":{"android":"levelo://app?vid=e2c768f4-cd4b-438b-8997-c84f39234dd5","ios":"levelo://app?vid=e2c768f4-cd4b-438b-8997-c84f39234dd5"},"vehicle_type_id":"4","last_reported":1744884660,"current_range_meters":16400,"station_id":"ce4bhl92rcd13ifvqghg","pricing_plan_id":"cebpf4jnsgd1na2vs0mg"},{"bike_id":"d1722e3c-3a9e-45dd-bd2c-e1eb56ef7492","system_id":"levelo_inurba_marseille","lat":43.3028,"lon":5.37717,"is_reserved":false,"is_disabled":false,"rental_uris":{"android":"levelo://app?vid=d1722e3c-3a9e-45dd-bd2c-e1eb56ef7492","ios":"levelo://app?vid=d1722e3c-3a9e-45dd-bd2c-e1eb56ef7492"},"vehicle_type_id":"4","last_reported":1744884660,"current_range_meters":17200,"station_id":"ce4bguh2rcd13ifvqcj0","pricing_plan_id":"cebpf4jnsgd1na2vs0mg"},{"bike_id":"1fe019ac-92be-4738-bdac-7d926a7ff71d","system_id":"levelo_inurba_marseille","lat":43.30477,"lon":5.37912,"is_reserved":false,"is_disabled":false,"rental_uris":{"android":"levelo://app?vid=1fe019ac-92be-4738-bdac-7d926a7ff71d","ios":"levelo://app?vid=1fe019ac-92be-4738-bdac-7d926a7ff71d"},"vehicle_type_id":"4","last_reported":1744884660,"current_range_meters":17200,"station_id":"ce4bgup2rcd13ifvqcn0","pricing_plan_id":"cebpf4jnsgd1na2vs0mg"},{"bike_id":"3fea615b-e4ab-4448-ba79-320c684b4d2e","system_id":"levelo_inurba_marseille","lat":43.29267,"lon":5.37612,"is_reserved":false,"is_disabled":false,"rental_uris":{"android":"levelo://app?vid=3fea615b-e4ab-4448-ba79-320c684b4d2e","ios":"levelo://app?vid=3fea615b-e4ab-4448-ba79-320c684b4d2e"},"vehicle_type_id":"4","last_reported":1744884660,"current_range_meters":17200,"station_id":"ce4bgi12rcd13ifvqb80","pricing_plan_id":"cebpf4jnsgd1na2vs0mg"},{"bike_id":"502eb57f-58c1-46b5-bbab-f82b11336169","system_id":"levelo_inurba_marseille","lat":43.30531,"lon":5.36545,"is_reserved":false,"is_disabled":false,"rental_uris":{"android":"levelo://app?vid=502eb57f-58c1-46b5-bbab-f82b11336169","ios":"levelo://app?vid=502eb57f-58c1-46b5-bbab-f82b11336169"},"vehicle_type_id":"4","last_reported":1744884660,"current_range_meters":17600,"station_id":"ce4bgs12rcd13ifvqcag","pricing_plan_id":"cebpf4jnsgd1na2vs0mg"},{"bike_id":"d4dcb79f-e0b9-4ff5-8814-7102eebeb712","system_id":"levelo_inurba_marseille","lat":43.30463,"lon":5.37916,"is_reserved":false,"is_disabled":false,"rental_uris":{"android":"levelo://app?vid=d4dcb79f-e0b9-4ff5-8814-7102eebeb712","ios":"levelo://app?vid=d4dcb79f-e0b9-4ff5-8814-7102eebeb712"},"vehicle_type_id":"4","last_reported":1744884660,"current_range_meters":17600,"station_id":"ce4bgup2rcd13ifvqcn0","pricing_plan_id":"cebpf4jnsgd1na2vs0mg"},{"bike_id":"4cc4d366-107b-460c-9f8f-8c7ad8c11d14","system_id":"levelo_inurba_marseille","lat":43.29974,"lon":5.37187,"is_reserved":false,"is_disabled":false,"rental_uris":{"android":"levelo://app?vid=4cc4d366-107b-460c-9f8f-8c7ad8c11d14","ios":"levelo://app?vid=4cc4d366-107b-460c-9f8f-8c7ad8c11d14"},"vehicle_type_id":"4","last_reported":1744884660,"current_range_meters":18000,"station_id":"ce4bgr92rcd13ifvqc7g","pricing_plan_id":"cebpf4jnsgd1na2vs0mg"},{"bike_id":"bbb1c662-cc65-4c72-8489-de78d2f0f12f","system_id":"levelo_inurba_marseille","lat":43.23076,"lon":5.35488,"is_reserved":false,"is_disabled":false,"rental_uris":{"android":"levelo://app?vid=bbb1c662-cc65-4c72-8489-de78d2f0f12f","ios":"levelo://app?vid=bbb1c662-cc65-4c72-8489-de78d2f0f12f"},"vehicle_type_id":"4","last_reported":1744884660,"current_range_meters":18000,"station_id":"cpo3342slgdg3j2ifvpg","pricing_plan_id":"cebpf4jnsgd1na2vs0mg"},{"bike_id":"b4cf7b7c-435c-4348-b1a7-d4fd26b2b2d4","system_id":"levelo_inurba_marseille","lat":43.301456,"lon":5.37418,"is_reserved":false,"is_disabled":false,"rental_uris":{"android":"levelo://app?vid=b4cf7b7c-435c-4348-b1a7-d4fd26b2b2d4","ios":"levelo://app?vid=b4cf7b7c-435c-4348-b1a7-d4fd26b2b2d4"},"vehicle_type_id":"4","last_reported":1744884660,"current_range_meters":17600,"station_id":"ce4bgqh2rcd13ifvqc4g","pricing_plan_id":"cebpf4jnsgd1na2vs0mg"},{"bike_id":"e4a24c63-8756-4737-8d81-50679c3c6412","system_id":"levelo_inurba_marseille","lat":43.30468,"lon":5.379,"is_reserved":false,"is_disabled":false,"rental_uris":{"android":"levelo://app?vid=e4a24c63-8756-4737-8d81-50679c3c6412","ios":"levelo://app?vid=e4a24c63-8756-4737-8d81-50679c3c6412"},"vehicle_type_id":"4","last_reported":1744884660,"current_range_meters":17600,"station_id":"ce4bgup2rcd13ifvqcn0","pricing_plan_id":"cebpf4jnsgd1na2vs0mg"},{"bike_id":"4db06d98-ef3f-4322-bb1a-56487e040895","system_id":"levelo_inurba_marseille","lat":43.24208,"lon":5.3973,"is_reserved":false,"is_disabled":false,"rental_uris":{"android":"levelo://app?vid=4db06d98-ef3f-4322-bb1a-56487e040895","ios":"levelo://app?vid=4db06d98-ef3f-4322-bb1a-56487e040895"},"vehicle_type_id":"4","last_reported":1744884660,"current_range_meters":18000,"station_id":"ce4bhn12rcd13ifvqgpg","pricing_plan_id":"cebpf4jnsgd1na2vs0mg"},{"bike_id":"a17920db-4b7e-474c-ab57-3b97ec496a14","system_id":"levelo_inurba_marseille","lat":43.24176,"lon":5.3974,"is_reserved":false,"is_disabled":false,"rental_uris":{"android":"levelo://app?vid=a17920db-4b7e-474c-ab57-3b97ec496a14","ios":"levelo://app?vid=a17920db-4b7e-474c-ab57-3b97ec496a14"},"vehicle_type_id":"4","last_reported":1744884660,"current_range_meters":18000,"station_id":"ce4bhn12rcd13ifvqgpg","pricing_plan_id":"cebpf4jnsgd1na2vs0mg"},{"bike_id":"05889502-1960-4626-b647-6be7781e2329","system_id":"levelo_inurba_marseille","lat":43.28599,"lon":5.35128,"is_reserved":false,"is_disabled":false,"rental_uris":{"android":"levelo://app?vid=05889502-1960-4626-b647-6be7781e2329","ios":"levelo://app?vid=05889502-1960-4626-b647-6be7781e2329"},"vehicle_type_id":"4","last_reported":1744884660,"current_range_meters":18000,"station_id":"ce4bhch2rcd13ifvqeug","pricing_plan_id":"cebpf4jnsgd1na2vs0mg"},{"bike_id":"0af547ee-0928-4232-9589-d99004dda2ed","system_id":"levelo_inurba_marseille","lat":43.309517,"lon":5.390348,"is_reserved":false,"is_disabled":false,"rental_uris":{"android":"levelo://app?vid=0af547ee-0928-4232-9589-d99004dda2ed","ios":"levelo://app?vid=0af547ee-0928-4232-9589-d99004dda2ed"},"vehicle_type_id":"4","last_reported":1744884660,"current_range_meters":18000,"station_id":"ce4bgup2rcd13ifvqco0","pricing_plan_id":"cebpf4jnsgd1na2vs0mg"},{"bike_id":"a0ddb0a5-f7f0-4281-aa27-9e82747cc573","system_id":"levelo_inurba_marseille","lat":43.33754,"lon":5.37491,"is_reserved":false,"is_disabled":false,"rental_uris":{"android":"levelo://app?vid=a0ddb0a5-f7f0-4281-aa27-9e82747cc573","ios":"levelo://app?vid=a0ddb0a5-f7f0-4281-aa27-9e82747cc573"},"vehicle_type_id":"4","last_reported":1744884660,"current_range_meters":18000,"station_id":"","pricing_plan_id":"cebpf4jnsgd1na2vs0mg"},{"bike_id":"29dbb537-9b38-4fbf-8375-a872d1fe9050","system_id":"levelo_inurba_marseille","lat":43.28845,"lon":5.39306,"is_reserved":false,"is_disabled":false,"rental_uris":{"android":"levelo://app?vid=29dbb537-9b38-4fbf-8375-a872d1fe9050","ios":"levelo://app?vid=29dbb537-9b38-4fbf-8375-a872d1fe9050"},"vehicle_type_id":"4","last_reported":1744884660,"current_range_meters":18800,"station_id":"ce4bh2p2rcd13ifvqdi0","pricing_plan_id":"cebpf4jnsgd1na2vs0mg"},{"bike_id":"7ed91d22-3d5b-4254-83bf-64eb2a7d5481","system_id":"levelo_inurba_marseille","lat":43.22519,"lon":5.34782,"is_reserved":false,"is_disabled":false,"rental_uris":{"android":"levelo://app?vid=7ed91d22-3d5b-4254-83bf-64eb2a7d5481","ios":"levelo://app?vid=7ed91d22-3d5b-4254-83bf-64eb2a7d5481"},"vehicle_type_id":"4","last_reported":1744884660,"current_range_meters":18800,"station_id":"","pricing_plan_id":"cebpf4jnsgd1na2vs0mg"},{"bike_id":"552ae1df-8cb2-480a-b9f2-44790b9cb2ec","system_id":"levelo_inurba_marseille","lat":43.27418,"lon":5.39412,"is_reserved":false,"is_disabled":false,"rental_uris":{"android":"levelo://app?vid=552ae1df-8cb2-480a-b9f2-44790b9cb2ec","ios":"levelo://app?vid=552ae1df-8cb2-480a-b9f2-44790b9cb2ec"},"vehicle_type_id":"4","last_reported":1744884660,"current_range_meters":18800,"station_id":"ce4bhdp2rcd13ifvqf20","pricing_plan_id":"cebpf4jnsgd1na2vs0mg"},{"bike_id":"5376db3a-f912-4a95-826f-4197746248f5","system_id":"levelo_inurba_marseille","lat":43.30391,"lon":5.42464,"is_reserved":false,"is_disabled":false,"rental_uris":{"android":"levelo://app?vid=5376db3a-f912-4a95-826f-4197746248f5","ios":"levelo://app?vid=5376db3a-f912-4a95-826f-4197746248f5"},"vehicle_type_id":"4","last_reported":1744884660,"current_range_meters":18800,"station_id":"ce4bghh2rcd13ifvqb60","pricing_plan_id":"cebpf4jnsgd1na2vs0mg"},{"bike_id":"cc30662a-cc43-42c2-9e8d-a5ec9b5a6035","system_id":"levelo_inurba_marseille","lat":43.30276,"lon":5.377,"is_reserved":false,"is_disabled":false,"rental_uris":{"android":"levelo://app?vid=cc30662a-cc43-42c2-9e8d-a5ec9b5a6035","ios":"levelo://app?vid=cc30662a-cc43-42c2-9e8d-a5ec9b5a6035"},"vehicle_type_id":"4","last_reported":1744884660,"current_range_meters":18800,"station_id":"ce4bguh2rcd13ifvqcj0","pricing_plan_id":"cebpf4jnsgd1na2vs0mg"},{"bike_id":"03c9e03c-67c6-453d-8b38-cbed9721f95d","system_id":"levelo_inurba_marseille","lat":43.28612,"lon":5.35102,"is_reserved":false,"is_disabled":false,"rental_uris":{"android":"levelo://app?vid=03c9e03c-67c6-453d-8b38-cbed9721f95d","ios":"levelo://app?vid=03c9e03c-67c6-453d-8b38-cbed9721f95d"},"vehicle_type_id":"4","last_reported":1744884660,"current_range_meters":19200,"station_id":"ce4bhch2rcd13ifvqeug","pricing_plan_id":"cebpf4jnsgd1na2vs0mg"},{"bike_id":"59c2e1e0-94da-4452-9b76-84ff52f79e63","system_id":"levelo_inurba_marseille","lat":43.31216,"lon":5.36875,"is_reserved":false,"is_disabled":false,"rental_uris":{"android":"levelo://app?vid=59c2e1e0-94da-4452-9b76-84ff52f79e63","ios":"levelo://app?vid=59c2e1e0-94da-4452-9b76-84ff52f79e63"},"vehicle_type_id":"4","last_reported":1744884660,"current_range_meters":19200,"station_id":"ce4bgl92rcd13ifvqbq0","pricing_plan_id":"cebpf4jnsgd1na2vs0mg"},{"bike_id":"ef6e9c6f-8f69-4fcf-9727-b556a001e5bc","system_id":"levelo_inurba_marseille","lat":43.29559,"lon":5.4229,"is_reserved":false,"is_disabled":false,"rental_uris":{"android":"levelo://app?vid=ef6e9c6f-8f69-4fcf-9727-b556a001e5bc","ios":"levelo://app?vid=ef6e9c6f-8f69-4fcf-9727-b556a001e5bc"},"vehicle_type_id":"4","last_reported":1744884660,"current_range_meters":19200,"station_id":"ce4bhph2rcd13ifvqhdg","pricing_plan_id":"cebpf4jnsgd1na2vs0mg"},{"bike_id":"332d50ef-0349-465a-a3f8-a14d47a27c91","system_id":"levelo_inurba_marseille","lat":43.305,"lon":5.36532,"is_reserved":false,"is_disabled":false,"rental_uris":{"android":"levelo://app?vid=332d50ef-0349-465a-a3f8-a14d47a27c91","ios":"levelo://app?vid=332d50ef-0349-465a-a3f8-a14d47a27c91"},"vehicle_type_id":"4","last_reported":1744884660,"current_range_meters":19200,"station_id":"ce4bgs12rcd13ifvqcag","pricing_plan_id":"cebpf4jnsgd1na2vs0mg"},{"bike_id":"7eb8853e-3665-40f5-8308-1299f0674652","system_id":"levelo_inurba_marseille","lat":43.30378,"lon":5.42516,"is_reserved":false,"is_disabled":false,"rental_uris":{"android":"levelo://app?vid=7eb8853e-3665-40f5-8308-1299f0674652","ios":"levelo://app?vid=7eb8853e-3665-40f5-8308-1299f0674652"},"vehicle_type_id":"4","last_reported":1744884660,"current_range_meters":19200,"station_id":"ce4bhoh2rcd13ifvqh6g","pricing_plan_id":"cebpf4jnsgd1na2vs0mg"},{"bike_id":"727179f5-0c3a-45df-baf0-e85db52bfe04","system_id":"levelo_inurba_marseille","lat":43.28856,"lon":5.39323,"is_reserved":false,"is_disabled":false,"rental_uris":{"android":"levelo://app?vid=727179f5-0c3a-45df-baf0-e85db52bfe04","ios":"levelo://app?vid=727179f5-0c3a-45df-baf0-e85db52bfe04"},"vehicle_type_id":"4","last_reported":1744884660,"current_range_meters":19200,"station_id":"ce4bh2p2rcd13ifvqdi0","pricing_plan_id":"cebpf4jnsgd1na2vs0mg"},{"bike_id":"789c3822-56ca-4769-bcd4-8845bdea2fda","system_id":"levelo_inurba_marseille","lat":43.24167,"lon":5.36398,"is_reserved":false,"is_disabled":false,"rental_uris":{"android":"levelo://app?vid=789c3822-56ca-4769-bcd4-8845bdea2fda","ios":"levelo://app?vid=789c3822-56ca-4769-bcd4-8845bdea2fda"},"vehicle_type_id":"4","last_reported":1744884660,"current_range_meters":19600,"station_id":"cpo36qri1sfpv3e86is0","pricing_plan_id":"cebpf4jnsgd1na2vs0mg"},{"bike_id":"3c2fb4ac-22c5-4f81-ae3b-9de63a5fd1c2","system_id":"levelo_inurba_marseille","lat":43.29982,"lon":5.38488,"is_reserved":false,"is_disabled":false,"rental_uris":{"android":"levelo://app?vid=3c2fb4ac-22c5-4f81-ae3b-9de63a5fd1c2","ios":"levelo://app?vid=3c2fb4ac-22c5-4f81-ae3b-9de63a5fd1c2"},"vehicle_type_id":"4","last_reported":1744884660,"current_range_meters":19600,"station_id":"ce4bgj92rcd13ifvqbd0","pricing_plan_id":"cebpf4jnsgd1na2vs0mg"},{"bike_id":"33efbe4e-e642-4271-be29-4926b421ca5b","system_id":"levelo_inurba_marseille","lat":43.24176,"lon":5.36333,"is_reserved":false,"is_disabled":false,"rental_uris":{"android":"levelo://app?vid=33efbe4e-e642-4271-be29-4926b421ca5b","ios":"levelo://app?vid=33efbe4e-e642-4271-be29-4926b421ca5b"},"vehicle_type_id":"4","last_reported":1744884660,"current_range_meters":19600,"station_id":"cpo36qri1sfpv3e86is0","pricing_plan_id":"cebpf4jnsgd1na2vs0mg"},{"bike_id":"ec76b270-0ed2-4621-8a00-dadfe4d8aba6","system_id":"levelo_inurba_marseille","lat":43.28353,"lon":5.38092,"is_reserved":false,"is_disabled":false,"rental_uris":{"android":"levelo://app?vid=ec76b270-0ed2-4621-8a00-dadfe4d8aba6","ios":"levelo://app?vid=ec76b270-0ed2-4621-8a00-dadfe4d8aba6"},"vehicle_type_id":"4","last_reported":1744884660,"current_range_meters":19600,"station_id":"ce4bh412rcd13ifvqdr0","pricing_plan_id":"cebpf4jnsgd1na2vs0mg"},{"bike_id":"934a8fc0-98f8-4aaf-a145-d485dee937c7","system_id":"levelo_inurba_marseille","lat":43.32352,"lon":5.36741,"is_reserved":false,"is_disabled":false,"rental_uris":{"android":"levelo://app?vid=934a8fc0-98f8-4aaf-a145-d485dee937c7","ios":"levelo://app?vid=934a8fc0-98f8-4aaf-a145-d485dee937c7"},"vehicle_type_id":"4","last_reported":1744884660,"current_range_meters":19600,"station_id":"ce4bhsh2rcd13ifvqi2g","pricing_plan_id":"cebpf4jnsgd1na2vs0mg"},{"bike_id":"68342d9f-f0b6-47e7-b690-b27078e67a77","system_id":"levelo_inurba_marseille","lat":43.24171,"lon":5.36385,"is_reserved":false,"is_disabled":false,"rental_uris":{"android":"levelo://app?vid=68342d9f-f0b6-47e7-b690-b27078e67a77","ios":"levelo://app?vid=68342d9f-f0b6-47e7-b690-b27078e67a77"},"vehicle_type_id":"4","last_reported":1744884660,"current_range_meters":20000,"station_id":"cpo36qri1sfpv3e86is0","pricing_plan_id":"cebpf4jnsgd1na2vs0mg"},{"bike_id":"9bb7361c-307f-49cb-ac99-d77623f20e19","system_id":"levelo_inurba_marseille","lat":43.3248,"lon":5.36558,"is_reserved":false,"is_disabled":false,"rental_uris":{"android":"levelo://app?vid=9bb7361c-307f-49cb-ac99-d77623f20e19","ios":"levelo://app?vid=9bb7361c-307f-49cb-ac99-d77623f20e19"},"vehicle_type_id":"4","last_reported":1744884660,"current_range_meters":20000,"station_id":"ce4bhs12rcd13ifvqhvg","pricing_plan_id":"cebpf4jnsgd1na2vs0mg"},{"bike_id":"83ffc07c-6b43-4b0f-b9af-3b54c45ecaa6","system_id":"levelo_inurba_marseille","lat":43.28369,"lon":5.3864,"is_reserved":false,"is_disabled":false,"rental_uris":{"android":"levelo://app?vid=83ffc07c-6b43-4b0f-b9af-3b54c45ecaa6","ios":"levelo://app?vid=83ffc07c-6b43-4b0f-b9af-3b54c45ecaa6"},"vehicle_type_id":"4","last_reported":1744884660,"current_range_meters":20000,"station_id":"ce4bh492rcd13ifvqdvg","pricing_plan_id":"cebpf4jnsgd1na2vs0mg"},{"bike_id":"8dc0115e-27dd-4eb7-97aa-6b59cea008fe","system_id":"levelo_inurba_marseille","lat":43.29516,"lon":5.37511,"is_reserved":false,"is_disabled":false,"rental_uris":{"android":"levelo://app?vid=8dc0115e-27dd-4eb7-97aa-6b59cea008fe","ios":"levelo://app?vid=8dc0115e-27dd-4eb7-97aa-6b59cea008fe"},"vehicle_type_id":"4","last_reported":1744884660,"current_range_meters":19600,"station_id":"ce4bgkp2rcd13ifvqbmg","pricing_plan_id":"cebpf4jnsgd1na2vs0mg"},{"bike_id":"d7aa2c4f-efa3-40c3-87f7-8f13c43c6a95","system_id":"levelo_inurba_marseille","lat":43.2396,"lon":5.36635,"is_reserved":false,"is_disabled":false,"rental_uris":{"android":"levelo://app?vid=d7aa2c4f-efa3-40c3-87f7-8f13c43c6a95","ios":"levelo://app?vid=d7aa2c4f-efa3-40c3-87f7-8f13c43c6a95"},"vehicle_type_id":"4","last_reported":1744884660,"current_range_meters":20000,"station_id":"ce4bhi12rcd13ifvqfp0","pricing_plan_id":"cebpf4jnsgd1na2vs0mg"},{"bike_id":"e2610827-be5f-4519-9010-041a87391e95","system_id":"levelo_inurba_marseille","lat":43.23154,"lon":5.4371,"is_reserved":false,"is_disabled":false,"rental_uris":{"android":"levelo://app?vid=e2610827-be5f-4519-9010-041a87391e95","ios":"levelo://app?vid=e2610827-be5f-4519-9010-041a87391e95"},"vehicle_type_id":"4","last_reported":1744884660,"current_range_meters":20000,"station_id":"ce4bhmp2rcd13ifvqgog","pricing_plan_id":"cebpf4jnsgd1na2vs0mg"},{"bike_id":"1f3d5d90-a5e7-42da-b30a-ed5e19b3ee0f","system_id":"levelo_inurba_marseille","lat":43.265578,"lon":5.372888,"is_reserved":false,"is_disabled":false,"rental_uris":{"android":"levelo://app?vid=1f3d5d90-a5e7-42da-b30a-ed5e19b3ee0f","ios":"levelo://app?vid=1f3d5d90-a5e7-42da-b30a-ed5e19b3ee0f"},"vehicle_type_id":"4","last_reported":1744884660,"current_range_meters":20400,"station_id":"ce4bhg12rcd13ifvqf70","pricing_plan_id":"cebpf4jnsgd1na2vs0mg"},{"bike_id":"44894151-b1c4-4c34-abcf-88c8467f678e","system_id":"levelo_inurba_marseille","lat":43.25711,"lon":5.4112,"is_reserved":false,"is_disabled":false,"rental_uris":{"android":"levelo://app?vid=44894151-b1c4-4c34-abcf-88c8467f678e","ios":"levelo://app?vid=44894151-b1c4-4c34-abcf-88c8467f678e"},"vehicle_type_id":"4","last_reported":1744884660,"current_range_meters":20400,"station_id":"ce4bhkp2rcd13ifvqgd0","pricing_plan_id":"cebpf4jnsgd1na2vs0mg"},{"bike_id":"f9d3fbe6-73e5-424e-af02-f446d5b07152","system_id":"levelo_inurba_marseille","lat":43.21762,"lon":5.34588,"is_reserved":false,"is_disabled":false,"rental_uris":{"android":"levelo://app?vid=f9d3fbe6-73e5-424e-af02-f446d5b07152","ios":"levelo://app?vid=f9d3fbe6-73e5-424e-af02-f446d5b07152"},"vehicle_type_id":"4","last_reported":1744884660,"current_range_meters":20400,"station_id":"st_cvj6r9ubvosntc0bgbag","pricing_plan_id":"cebpf4jnsgd1na2vs0mg"},{"bike_id":"3d478ed8-ed25-416a-87f2-402df3b77c0b","system_id":"levelo_inurba_marseille","lat":43.241667,"lon":5.397333,"is_reserved":false,"is_disabled":false,"rental_uris":{"android":"levelo://app?vid=3d478ed8-ed25-416a-87f2-402df3b77c0b","ios":"levelo://app?vid=3d478ed8-ed25-416a-87f2-402df3b77c0b"},"vehicle_type_id":"4","last_reported":1744884660,"current_range_meters":20400,"station_id":"ce4bhn12rcd13ifvqgpg","pricing_plan_id":"cebpf4jnsgd1na2vs0mg"},{"bike_id":"04b27430-aed8-4dd3-a229-380dfbad9203","system_id":"levelo_inurba_marseille","lat":43.30536,"lon":5.36726,"is_reserved":false,"is_disabled":false,"rental_uris":{"android":"levelo://app?vid=04b27430-aed8-4dd3-a229-380dfbad9203","ios":"levelo://app?vid=04b27430-aed8-4dd3-a229-380dfbad9203"},"vehicle_type_id":"4","last_reported":1744884660,"current_range_meters":20800,"station_id":"ce4bgrp2rcd13ifvqc9g","pricing_plan_id":"cebpf4jnsgd1na2vs0mg"},{"bike_id":"21ff63b1-0727-4e88-98ca-b6daeb214157","system_id":"levelo_inurba_marseille","lat":43.27054,"lon":5.40266,"is_reserved":false,"is_disabled":false,"rental_uris":{"android":"levelo://app?vid=21ff63b1-0727-4e88-98ca-b6daeb214157","ios":"levelo://app?vid=21ff63b1-0727-4e88-98ca-b6daeb214157"},"vehicle_type_id":"4","last_reported":1744884660,"current_range_meters":20800,"station_id":"ce4bhk92rcd13ifvqgc0","pricing_plan_id":"cebpf4jnsgd1na2vs0mg"},{"bike_id":"177d0eac-242d-4d40-93f4-d64412ac6171","system_id":"levelo_inurba_marseille","lat":43.29266,"lon":5.38451,"is_reserved":false,"is_disabled":false,"rental_uris":{"android":"levelo://app?vid=177d0eac-242d-4d40-93f4-d64412ac6171","ios":"levelo://app?vid=177d0eac-242d-4d40-93f4-d64412ac6171"},"vehicle_type_id":"4","last_reported":1744884660,"current_range_meters":20800,"station_id":"ce4bh692rcd13ifvqea0","pricing_plan_id":"cebpf4jnsgd1na2vs0mg"},{"bike_id":"90686203-14ab-46ed-9bec-37b56bf42616","system_id":"levelo_inurba_marseille","lat":43.25492,"lon":5.3764,"is_reserved":false,"is_disabled":false,"rental_uris":{"android":"levelo://app?vid=90686203-14ab-46ed-9bec-37b56bf42616","ios":"levelo://app?vid=90686203-14ab-46ed-9bec-37b56bf42616"},"vehicle_type_id":"4","last_reported":1744884660,"current_range_meters":20400,"station_id":"ce4bhh12rcd13ifvqff0","pricing_plan_id":"cebpf4jnsgd1na2vs0mg"},{"bike_id":"01d68311-5ebf-465e-8593-1f2b9d2363d1","system_id":"levelo_inurba_marseille","lat":43.29519,"lon":5.39039,"is_reserved":false,"is_disabled":false,"rental_uris":{"android":"levelo://app?vid=01d68311-5ebf-465e-8593-1f2b9d2363d1","ios":"levelo://app?vid=01d68311-5ebf-465e-8593-1f2b9d2363d1"},"vehicle_type_id":"4","last_reported":1744884660,"current_range_meters":20400,"station_id":"ce4bh3p2rcd13ifvqdp0","pricing_plan_id":"cebpf4jnsgd1na2vs0mg"},{"bike_id":"11aba779-b9a1-49cb-90d3-0669feeb74c9","system_id":"levelo_inurba_marseille","lat":43.21181,"lon":5.35072,"is_reserved":false,"is_disabled":false,"rental_uris":{"android":"levelo://app?vid=11aba779-b9a1-49cb-90d3-0669feeb74c9","ios":"levelo://app?vid=11aba779-b9a1-49cb-90d3-0669feeb74c9"},"vehicle_type_id":"4","last_reported":1744884660,"current_range_meters":20800,"station_id":"st_cvj6sg6p6f1abm77japg","pricing_plan_id":"cebpf4jnsgd1na2vs0mg"},{"bike_id":"66554cad-f0ef-45de-b720-3067d7354f50","system_id":"levelo_inurba_marseille","lat":43.28937,"lon":5.36377,"is_reserved":false,"is_disabled":false,"rental_uris":{"android":"levelo://app?vid=66554cad-f0ef-45de-b720-3067d7354f50","ios":"levelo://app?vid=66554cad-f0ef-45de-b720-3067d7354f50"},"vehicle_type_id":"4","last_reported":1744884660,"current_range_meters":20800,"station_id":"ce4bhc92rcd13ifvqetg","pricing_plan_id":"cebpf4jnsgd1na2vs0mg"},{"bike_id":"51b9e8e4-a973-4ca8-b515-ffe995f6e41d","system_id":"levelo_inurba_marseille","lat":43.30462,"lon":5.37918,"is_reserved":false,"is_disabled":false,"rental_uris":{"android":"levelo://app?vid=51b9e8e4-a973-4ca8-b515-ffe995f6e41d","ios":"levelo://app?vid=51b9e8e4-a973-4ca8-b515-ffe995f6e41d"},"vehicle_type_id":"4","last_reported":1744884660,"current_range_meters":20800,"station_id":"ce4bgup2rcd13ifvqcn0","pricing_plan_id":"cebpf4jnsgd1na2vs0mg"},{"bike_id":"c305c827-8b59-4e6c-91de-4d8a3fcbcac2","system_id":"levelo_inurba_marseille","lat":43.24166,"lon":5.36401,"is_reserved":false,"is_disabled":false,"rental_uris":{"android":"levelo://app?vid=c305c827-8b59-4e6c-91de-4d8a3fcbcac2","ios":"levelo://app?vid=c305c827-8b59-4e6c-91de-4d8a3fcbcac2"},"vehicle_type_id":"4","last_reported":1744884660,"current_range_meters":20800,"station_id":"cpo36qri1sfpv3e86is0","pricing_plan_id":"cebpf4jnsgd1na2vs0mg"},{"bike_id":"d39e5537-c00a-4bf8-9f22-53966b448679","system_id":"levelo_inurba_marseille","lat":43.29553,"lon":5.42278,"is_reserved":false,"is_disabled":false,"rental_uris":{"android":"levelo://app?vid=d39e5537-c00a-4bf8-9f22-53966b448679","ios":"levelo://app?vid=d39e5537-c00a-4bf8-9f22-53966b448679"},"vehicle_type_id":"4","last_reported":1744884660,"current_range_meters":21600,"station_id":"ce4bhph2rcd13ifvqhdg","pricing_plan_id":"cebpf4jnsgd1na2vs0mg"},{"bike_id":"04cd718a-739b-4f09-8fdf-74e445452766","system_id":"levelo_inurba_marseille","lat":43.31534,"lon":5.37262,"is_reserved":false,"is_disabled":false,"rental_uris":{"android":"levelo://app?vid=04cd718a-739b-4f09-8fdf-74e445452766","ios":"levelo://app?vid=04cd718a-739b-4f09-8fdf-74e445452766"},"vehicle_type_id":"4","last_reported":1744884660,"current_range_meters":21600,"station_id":"","pricing_plan_id":"cebpf4jnsgd1na2vs0mg"},{"bike_id":"767ac8e2-0e80-4549-a954-7d5c8496a13a","system_id":"levelo_inurba_marseille","lat":43.30537,"lon":5.36518,"is_reserved":false,"is_disabled":false,"rental_uris":{"android":"levelo://app?vid=767ac8e2-0e80-4549-a954-7d5c8496a13a","ios":"levelo://app?vid=767ac8e2-0e80-4549-a954-7d5c8496a13a"},"vehicle_type_id":"4","last_reported":1744884660,"current_range_meters":21600,"station_id":"ce4bgs12rcd13ifvqcag","pricing_plan_id":"cebpf4jnsgd1na2vs0mg"},{"bike_id":"66f3a32c-d04a-4cd0-93ad-36da488c6fab","system_id":"levelo_inurba_marseille","lat":43.29027,"lon":5.3816,"is_reserved":false,"is_disabled":false,"rental_uris":{"android":"levelo://app?vid=66f3a32c-d04a-4cd0-93ad-36da488c6fab","ios":"levelo://app?vid=66f3a32c-d04a-4cd0-93ad-36da488c6fab"},"vehicle_type_id":"4","last_reported":1744884660,"current_range_meters":21600,"station_id":"ce4bh4p2rcd13ifvqe1g","pricing_plan_id":"cebpf4jnsgd1na2vs0mg"},{"bike_id":"5f40b78f-59fb-4849-b10a-9f008719ce89","system_id":"levelo_inurba_marseille","lat":43.2953,"lon":5.3904,"is_reserved":false,"is_disabled":false,"rental_uris":{"android":"levelo://app?vid=5f40b78f-59fb-4849-b10a-9f008719ce89","ios":"levelo://app?vid=5f40b78f-59fb-4849-b10a-9f008719ce89"},"vehicle_type_id":"4","last_reported":1744884660,"current_range_meters":20800,"station_id":"ce4bh3p2rcd13ifvqdp0","pricing_plan_id":"cebpf4jnsgd1na2vs0mg"},{"bike_id":"bfc0f2bb-f1f4-4fed-b9af-c547a21d1d5d","system_id":"levelo_inurba_marseille","lat":43.28622,"lon":5.35103,"is_reserved":false,"is_disabled":false,"rental_uris":{"android":"levelo://app?vid=bfc0f2bb-f1f4-4fed-b9af-c547a21d1d5d","ios":"levelo://app?vid=bfc0f2bb-f1f4-4fed-b9af-c547a21d1d5d"},"vehicle_type_id":"4","last_reported":1744884660,"current_range_meters":21600,"station_id":"ce4bhch2rcd13ifvqeug","pricing_plan_id":"cebpf4jnsgd1na2vs0mg"},{"bike_id":"d1a2b493-7d30-4a9c-a02b-dfad0b4f73f7","system_id":"levelo_inurba_marseille","lat":43.24794,"lon":5.37467,"is_reserved":false,"is_disabled":false,"rental_uris":{"android":"levelo://app?vid=d1a2b493-7d30-4a9c-a02b-dfad0b4f73f7","ios":"levelo://app?vid=d1a2b493-7d30-4a9c-a02b-dfad0b4f73f7"},"vehicle_type_id":"4","last_reported":1744884660,"current_range_meters":21600,"station_id":"ce4bhgh2rcd13ifvqfb0","pricing_plan_id":"cebpf4jnsgd1na2vs0mg"},{"bike_id":"c6aded63-8385-49cf-9c4b-4395feadf319","system_id":"levelo_inurba_marseille","lat":43.31077,"lon":5.38365,"is_reserved":false,"is_disabled":false,"rental_uris":{"android":"levelo://app?vid=c6aded63-8385-49cf-9c4b-4395feadf319","ios":"levelo://app?vid=c6aded63-8385-49cf-9c4b-4395feadf319"},"vehicle_type_id":"4","last_reported":1744884660,"current_range_meters":21600,"station_id":"ce4bgv92rcd13ifvqcr0","pricing_plan_id":"cebpf4jnsgd1na2vs0mg"},{"bike_id":"efb996b3-bed7-4ae8-93ff-d4d1352bc8f1","system_id":"levelo_inurba_marseille","lat":43.3028,"lon":5.37698,"is_reserved":false,"is_disabled":false,"rental_uris":{"android":"levelo://app?vid=efb996b3-bed7-4ae8-93ff-d4d1352bc8f1","ios":"levelo://app?vid=efb996b3-bed7-4ae8-93ff-d4d1352bc8f1"},"vehicle_type_id":"4","last_reported":1744884660,"current_range_meters":22000,"station_id":"ce4bguh2rcd13ifvqcj0","pricing_plan_id":"cebpf4jnsgd1na2vs0mg"},{"bike_id":"33bf5d63-424c-48d6-a0cb-a0565488ee3e","system_id":"levelo_inurba_marseille","lat":43.24186,"lon":5.39726,"is_reserved":false,"is_disabled":false,"rental_uris":{"android":"levelo://app?vid=33bf5d63-424c-48d6-a0cb-a0565488ee3e","ios":"levelo://app?vid=33bf5d63-424c-48d6-a0cb-a0565488ee3e"},"vehicle_type_id":"4","last_reported":1744884660,"current_range_meters":22000,"station_id":"ce4bhn12rcd13ifvqgpg","pricing_plan_id":"cebpf4jnsgd1na2vs0mg"},{"bike_id":"80af7a00-8a68-4dc3-aa7e-e8876c7f8768","system_id":"levelo_inurba_marseille","lat":43.32471,"lon":5.3657,"is_reserved":false,"is_disabled":false,"rental_uris":{"android":"levelo://app?vid=80af7a00-8a68-4dc3-aa7e-e8876c7f8768","ios":"levelo://app?vid=80af7a00-8a68-4dc3-aa7e-e8876c7f8768"},"vehicle_type_id":"4","last_reported":1744884660,"current_range_meters":22000,"station_id":"ce4bhs12rcd13ifvqhvg","pricing_plan_id":"cebpf4jnsgd1na2vs0mg"},{"bike_id":"04b0cb39-9229-4c02-890e-562e273ff746","system_id":"levelo_inurba_marseille","lat":43.2979,"lon":5.381,"is_reserved":false,"is_disabled":true,"rental_uris":{"android":"levelo://app?vid=04b0cb39-9229-4c02-890e-562e273ff746","ios":"levelo://app?vid=04b0cb39-9229-4c02-890e-562e273ff746"},"vehicle_type_id":"4","last_reported":1744884660,"current_range_meters":22000,"station_id":"ce4bgip2rcd13ifvqbb0","pricing_plan_id":"cebpf4jnsgd1na2vs0mg"},{"bike_id":"05f9b99d-7805-460c-b863-06baeb2f9dc2","system_id":"levelo_inurba_marseille","lat":43.30166,"lon":5.38094,"is_reserved":false,"is_disabled":false,"rental_uris":{"android":"levelo://app?vid=05f9b99d-7805-460c-b863-06baeb2f9dc2","ios":"levelo://app?vid=05f9b99d-7805-460c-b863-06baeb2f9dc2"},"vehicle_type_id":"4","last_reported":1744884660,"current_range_meters":22000,"station_id":"ce4bgjp2rcd13ifvqbh0","pricing_plan_id":"cebpf4jnsgd1na2vs0mg"},{"bike_id":"46fa07cf-5d50-4afd-b73f-01c9999b8b29","system_id":"levelo_inurba_marseille","lat":43.27205,"lon":5.39195,"is_reserved":false,"is_disabled":true,"rental_uris":{"android":"levelo://app?vid=46fa07cf-5d50-4afd-b73f-01c9999b8b29","ios":"levelo://app?vid=46fa07cf-5d50-4afd-b73f-01c9999b8b29"},"vehicle_type_id":"4","last_reported":1744884660,"current_range_meters":22000,"station_id":"ce4bhhp2rcd13ifvqfm0","pricing_plan_id":"cebpf4jnsgd1na2vs0mg"},{"bike_id":"8c0be09f-1a08-4f03-adf3-9ab53d05b7e1","system_id":"levelo_inurba_marseille","lat":43.30409,"lon":5.41289,"is_reserved":false,"is_disabled":true,"rental_uris":{"android":"levelo://app?vid=8c0be09f-1a08-4f03-adf3-9ab53d05b7e1","ios":"levelo://app?vid=8c0be09f-1a08-4f03-adf3-9ab53d05b7e1"},"vehicle_type_id":"4","last_reported":1744884660,"current_range_meters":22000,"station_id":"ce4bhop2rcd13ifvqh8g","pricing_plan_id":"cebpf4jnsgd1na2vs0mg"},{"bike_id":"980829e1-f26b-4e3b-8ec7-536b69016beb","system_id":"levelo_inurba_marseille","lat":43.3052,"lon":5.36732,"is_reserved":false,"is_disabled":false,"rental_uris":{"android":"levelo://app?vid=980829e1-f26b-4e3b-8ec7-536b69016beb","ios":"levelo://app?vid=980829e1-f26b-4e3b-8ec7-536b69016beb"},"vehicle_type_id":"4","last_reported":1744884660,"current_range_meters":22000,"station_id":"ce4bgrp2rcd13ifvqc9g","pricing_plan_id":"cebpf4jnsgd1na2vs0mg"},{"bike_id":"379dee3f-34cd-468c-aca0-cf546e557097","system_id":"levelo_inurba_marseille","lat":43.265653,"lon":5.390125,"is_reserved":false,"is_disabled":false,"rental_uris":{"android":"levelo://app?vid=379dee3f-34cd-468c-aca0-cf546e557097","ios":"levelo://app?vid=379dee3f-34cd-468c-aca0-cf546e557097"},"vehicle_type_id":"4","last_reported":1744884660,"current_range_meters":22400,"station_id":"ce4bhe12rcd13ifvqf30","pricing_plan_id":"cebpf4jnsgd1na2vs0mg"},{"bike_id":"5edff29b-8597-4123-8eac-13badbdfa345","system_id":"levelo_inurba_marseille","lat":43.29291,"lon":5.37453,"is_reserved":false,"is_disabled":false,"rental_uris":{"android":"levelo://app?vid=5edff29b-8597-4123-8eac-13badbdfa345","ios":"levelo://app?vid=5edff29b-8597-4123-8eac-13badbdfa345"},"vehicle_type_id":"4","last_reported":1744884660,"current_range_meters":22400,"station_id":"ce4bgi12rcd13ifvqb70","pricing_plan_id":"cebpf4jnsgd1na2vs0mg"},{"bike_id":"37ea8d6b-4547-40f6-af0f-7c7b47c6b053","system_id":"levelo_inurba_marseille","lat":43.25581,"lon":5.38235,"is_reserved":false,"is_disabled":false,"rental_uris":{"android":"levelo://app?vid=37ea8d6b-4547-40f6-af0f-7c7b47c6b053","ios":"levelo://app?vid=37ea8d6b-4547-40f6-af0f-7c7b47c6b053"},"vehicle_type_id":"4","last_reported":1744884660,"current_range_meters":22400,"station_id":"ce4bhih2rcd13ifvqfs0","pricing_plan_id":"cebpf4jnsgd1na2vs0mg"},{"bike_id":"5e6be620-a3d0-49c3-9ff0-b85332cde817","system_id":"levelo_inurba_marseille","lat":43.23193,"lon":5.35562,"is_reserved":false,"is_disabled":false,"rental_uris":{"android":"levelo://app?vid=5e6be620-a3d0-49c3-9ff0-b85332cde817","ios":"levelo://app?vid=5e6be620-a3d0-49c3-9ff0-b85332cde817"},"vehicle_type_id":"4","last_reported":1744884660,"current_range_meters":22400,"station_id":"ce4bhu92rcd13ifvqi70","pricing_plan_id":"cebpf4jnsgd1na2vs0mg"},{"bike_id":"80bac1fe-218c-4068-937c-4aa733df023f","system_id":"levelo_inurba_marseille","lat":43.28606,"lon":5.37074,"is_reserved":false,"is_disabled":false,"rental_uris":{"android":"levelo://app?vid=80bac1fe-218c-4068-937c-4aa733df023f","ios":"levelo://app?vid=80bac1fe-218c-4068-937c-4aa733df023f"},"vehicle_type_id":"4","last_reported":1744884660,"current_range_meters":22400,"station_id":"ce4bht12rcd13ifvqi60","pricing_plan_id":"cebpf4jnsgd1na2vs0mg"},{"bike_id":"c05ca307-4232-41f4-a6ef-87e149c9c3a6","system_id":"levelo_inurba_marseille","lat":43.29512,"lon":5.39035,"is_reserved":false,"is_disabled":false,"rental_uris":{"android":"levelo://app?vid=c05ca307-4232-41f4-a6ef-87e149c9c3a6","ios":"levelo://app?vid=c05ca307-4232-41f4-a6ef-87e149c9c3a6"},"vehicle_type_id":"4","last_reported":1744884660,"current_range_meters":22400,"station_id":"ce4bh3p2rcd13ifvqdp0","pricing_plan_id":"cebpf4jnsgd1na2vs0mg"},{"bike_id":"59c35d7a-34d5-4cdc-abf4-25abfe91af30","system_id":"levelo_inurba_marseille","lat":43.2846,"lon":5.35902,"is_reserved":false,"is_disabled":false,"rental_uris":{"android":"levelo://app?vid=59c35d7a-34d5-4cdc-abf4-25abfe91af30","ios":"levelo://app?vid=59c35d7a-34d5-4cdc-abf4-25abfe91af30"},"vehicle_type_id":"4","last_reported":1744884660,"current_range_meters":22400,"station_id":"ce4bhah2rcd13ifvqei0","pricing_plan_id":"cebpf4jnsgd1na2vs0mg"},{"bike_id":"2fe3623f-9164-4e30-815a-b6d7a5f64613","system_id":"levelo_inurba_marseille","lat":43.28418,"lon":5.34987,"is_reserved":false,"is_disabled":false,"rental_uris":{"android":"levelo://app?vid=2fe3623f-9164-4e30-815a-b6d7a5f64613","ios":"levelo://app?vid=2fe3623f-9164-4e30-815a-b6d7a5f64613"},"vehicle_type_id":"4","last_reported":1744884660,"current_range_meters":22400,"station_id":"ce4bhbh2rcd13ifvqepg","pricing_plan_id":"cebpf4jnsgd1na2vs0mg"},{"bike_id":"873bcab6-b973-48ed-b129-34762c209441","system_id":"levelo_inurba_marseille","lat":43.31488,"lon":5.37302,"is_reserved":false,"is_disabled":false,"rental_uris":{"android":"levelo://app?vid=873bcab6-b973-48ed-b129-34762c209441","ios":"levelo://app?vid=873bcab6-b973-48ed-b129-34762c209441"},"vehicle_type_id":"4","last_reported":1744884660,"current_range_meters":22800,"station_id":"ce4bgt12rcd13ifvqcd0","pricing_plan_id":"cebpf4jnsgd1na2vs0mg"},{"bike_id":"ea6f3156-6bf9-480d-b5a4-e86741095d10","system_id":"levelo_inurba_marseille","lat":43.30462,"lon":5.37914,"is_reserved":false,"is_disabled":false,"rental_uris":{"android":"levelo://app?vid=ea6f3156-6bf9-480d-b5a4-e86741095d10","ios":"levelo://app?vid=ea6f3156-6bf9-480d-b5a4-e86741095d10"},"vehicle_type_id":"4","last_reported":1744884660,"current_range_meters":22800,"station_id":"ce4bgup2rcd13ifvqcn0","pricing_plan_id":"cebpf4jnsgd1na2vs0mg"},{"bike_id":"9eb6738d-486c-4d0a-88f4-70b8d81983d1","system_id":"levelo_inurba_marseille","lat":43.21755,"lon":5.34604,"is_reserved":false,"is_disabled":false,"rental_uris":{"android":"levelo://app?vid=9eb6738d-486c-4d0a-88f4-70b8d81983d1","ios":"levelo://app?vid=9eb6738d-486c-4d0a-88f4-70b8d81983d1"},"vehicle_type_id":"4","last_reported":1744884660,"current_range_meters":22800,"station_id":"st_cvj6r9ubvosntc0bgbag","pricing_plan_id":"cebpf4jnsgd1na2vs0mg"},{"bike_id":"f0d176f4-91bf-4a7f-a33b-4b25a00b9f71","system_id":"levelo_inurba_marseille","lat":43.25857,"lon":5.3998,"is_reserved":false,"is_disabled":false,"rental_uris":{"android":"levelo://app?vid=f0d176f4-91bf-4a7f-a33b-4b25a00b9f71","ios":"levelo://app?vid=f0d176f4-91bf-4a7f-a33b-4b25a00b9f71"},"vehicle_type_id":"4","last_reported":1744884660,"current_range_meters":22800,"station_id":"","pricing_plan_id":"cebpf4jnsgd1na2vs0mg"},{"bike_id":"d09a9237-3b9b-40ec-9f32-e17d6d379cb5","system_id":"levelo_inurba_marseille","lat":43.32106,"lon":5.36785,"is_reserved":false,"is_disabled":false,"rental_uris":{"android":"levelo://app?vid=d09a9237-3b9b-40ec-9f32-e17d6d379cb5","ios":"levelo://app?vid=d09a9237-3b9b-40ec-9f32-e17d6d379cb5"},"vehicle_type_id":"4","last_reported":1744884660,"current_range_meters":23200,"station_id":"ce4bhrh2rcd13ifvqhug","pricing_plan_id":"cebpf4jnsgd1na2vs0mg"},{"bike_id":"91aa591a-3e56-4092-a295-ecb6aebe69eb","system_id":"levelo_inurba_marseille","lat":43.22507,"lon":5.34782,"is_reserved":false,"is_disabled":false,"rental_uris":{"android":"levelo://app?vid=91aa591a-3e56-4092-a295-ecb6aebe69eb","ios":"levelo://app?vid=91aa591a-3e56-4092-a295-ecb6aebe69eb"},"vehicle_type_id":"4","last_reported":1744884660,"current_range_meters":23200,"station_id":"st_cvj5dfep6f1abm77gieg","pricing_plan_id":"cebpf4jnsgd1na2vs0mg"},{"bike_id":"aea2afb6-112e-4c3a-968a-5eb5aa77e9be","system_id":"levelo_inurba_marseille","lat":43.21206,"lon":5.35066,"is_reserved":false,"is_disabled":false,"rental_uris":{"android":"levelo://app?vid=aea2afb6-112e-4c3a-968a-5eb5aa77e9be","ios":"levelo://app?vid=aea2afb6-112e-4c3a-968a-5eb5aa77e9be"},"vehicle_type_id":"4","last_reported":1744884660,"current_range_meters":23200,"station_id":"","pricing_plan_id":"cebpf4jnsgd1na2vs0mg"},{"bike_id":"09ed2f99-3de5-46d0-a2e0-ed554d61393f","system_id":"levelo_inurba_marseille","lat":43.31005,"lon":5.38472,"is_reserved":false,"is_disabled":false,"rental_uris":{"android":"levelo://app?vid=09ed2f99-3de5-46d0-a2e0-ed554d61393f","ios":"levelo://app?vid=09ed2f99-3de5-46d0-a2e0-ed554d61393f"},"vehicle_type_id":"4","last_reported":1744884660,"current_range_meters":23200,"station_id":"","pricing_plan_id":"cebpf4jnsgd1na2vs0mg"},{"bike_id":"cd89367d-f88e-4e82-bea3-5b02e4244e45","system_id":"levelo_inurba_marseille","lat":43.27061,"lon":5.42279,"is_reserved":false,"is_disabled":false,"rental_uris":{"android":"levelo://app?vid=cd89367d-f88e-4e82-bea3-5b02e4244e45","ios":"levelo://app?vid=cd89367d-f88e-4e82-bea3-5b02e4244e45"},"vehicle_type_id":"4","last_reported":1744884660,"current_range_meters":23200,"station_id":"ce4bhk92rcd13ifvqgb0","pricing_plan_id":"cebpf4jnsgd1na2vs0mg"},{"bike_id":"c205edf5-cc11-4037-b51a-c04fd0fac98e","system_id":"levelo_inurba_marseille","lat":43.23535,"lon":5.40332,"is_reserved":false,"is_disabled":false,"rental_uris":{"android":"levelo://app?vid=c205edf5-cc11-4037-b51a-c04fd0fac98e","ios":"levelo://app?vid=c205edf5-cc11-4037-b51a-c04fd0fac98e"},"vehicle_type_id":"4","last_reported":1744884660,"current_range_meters":23200,"station_id":"","pricing_plan_id":"cebpf4jnsgd1na2vs0mg"},{"bike_id":"d05b7cc4-f88b-4d02-ae6c-c344f22c0e5c","system_id":"levelo_inurba_marseille","lat":43.29772,"lon":5.36566,"is_reserved":false,"is_disabled":false,"rental_uris":{"android":"levelo://app?vid=d05b7cc4-f88b-4d02-ae6c-c344f22c0e5c","ios":"levelo://app?vid=d05b7cc4-f88b-4d02-ae6c-c344f22c0e5c"},"vehicle_type_id":"4","last_reported":1744884660,"current_range_meters":24000,"station_id":"","pricing_plan_id":"cebpf4jnsgd1na2vs0mg"},{"bike_id":"a514d395-39f7-4e9a-9140-2d828a875d5f","system_id":"levelo_inurba_marseille","lat":43.309537,"lon":5.390456,"is_reserved":false,"is_disabled":false,"rental_uris":{"android":"levelo://app?vid=a514d395-39f7-4e9a-9140-2d828a875d5f","ios":"levelo://app?vid=a514d395-39f7-4e9a-9140-2d828a875d5f"},"vehicle_type_id":"4","last_reported":1744884660,"current_range_meters":24000,"station_id":"ce4bgup2rcd13ifvqco0","pricing_plan_id":"cebpf4jnsgd1na2vs0mg"},{"bike_id":"169cfa47-f08f-4b2d-acdf-f6e87b6776f1","system_id":"levelo_inurba_marseille","lat":43.31231,"lon":5.36864,"is_reserved":false,"is_disabled":false,"rental_uris":{"android":"levelo://app?vid=169cfa47-f08f-4b2d-acdf-f6e87b6776f1","ios":"levelo://app?vid=169cfa47-f08f-4b2d-acdf-f6e87b6776f1"},"vehicle_type_id":"4","last_reported":1744884660,"current_range_meters":24000,"station_id":"ce4bgl92rcd13ifvqbq0","pricing_plan_id":"cebpf4jnsgd1na2vs0mg"},{"bike_id":"7d1b0b4b-e95b-4533-8309-734860489786","system_id":"levelo_inurba_marseille","lat":43.275017,"lon":5.411389,"is_reserved":false,"is_disabled":false,"rental_uris":{"android":"levelo://app?vid=7d1b0b4b-e95b-4533-8309-734860489786","ios":"levelo://app?vid=7d1b0b4b-e95b-4533-8309-734860489786"},"vehicle_type_id":"4","last_reported":1744884660,"current_range_meters":24000,"station_id":"","pricing_plan_id":"cebpf4jnsgd1na2vs0mg"},{"bike_id":"24213b37-b766-4d9c-a174-f6bf34920497","system_id":"levelo_inurba_marseille","lat":43.28469,"lon":5.384178,"is_reserved":false,"is_disabled":false,"rental_uris":{"android":"levelo://app?vid=24213b37-b766-4d9c-a174-f6bf34920497","ios":"levelo://app?vid=24213b37-b766-4d9c-a174-f6bf34920497"},"vehicle_type_id":"4","last_reported":1744884660,"current_range_meters":24000,"station_id":"ce4bh512rcd13ifvqe3g","pricing_plan_id":"cebpf4jnsgd1na2vs0mg"},{"bike_id":"db2488d1-77a1-4eb3-9b9b-b51975bfb43c","system_id":"levelo_inurba_marseille","lat":43.301434,"lon":5.374092,"is_reserved":false,"is_disabled":false,"rental_uris":{"android":"levelo://app?vid=db2488d1-77a1-4eb3-9b9b-b51975bfb43c","ios":"levelo://app?vid=db2488d1-77a1-4eb3-9b9b-b51975bfb43c"},"vehicle_type_id":"4","last_reported":1744884660,"current_range_meters":24000,"station_id":"ce4bgs92rcd13ifvqcc0","pricing_plan_id":"cebpf4jnsgd1na2vs0mg"},{"bike_id":"7e9fbd33-cfb6-44a6-96fc-1f60d0c215f7","system_id":"levelo_inurba_marseille","lat":43.32346,"lon":5.36692,"is_reserved":false,"is_disabled":false,"rental_uris":{"android":"levelo://app?vid=7e9fbd33-cfb6-44a6-96fc-1f60d0c215f7","ios":"levelo://app?vid=7e9fbd33-cfb6-44a6-96fc-1f60d0c215f7"},"vehicle_type_id":"4","last_reported":1744884660,"current_range_meters":24000,"station_id":"ce4bhsh2rcd13ifvqi2g","pricing_plan_id":"cebpf4jnsgd1na2vs0mg"},{"bike_id":"57bc6ae8-8ba9-43fb-955d-045fe331c855","system_id":"levelo_inurba_marseille","lat":43.3058,"lon":5.36688,"is_reserved":false,"is_disabled":false,"rental_uris":{"android":"levelo://app?vid=57bc6ae8-8ba9-43fb-955d-045fe331c855","ios":"levelo://app?vid=57bc6ae8-8ba9-43fb-955d-045fe331c855"},"vehicle_type_id":"4","last_reported":1744884660,"current_range_meters":24000,"station_id":"ce4bgrp2rcd13ifvqc9g","pricing_plan_id":"cebpf4jnsgd1na2vs0mg"},{"bike_id":"1a819fae-2a47-4ba9-8357-fa61875d73ca","system_id":"levelo_inurba_marseille","lat":43.2455,"lon":5.39531,"is_reserved":false,"is_disabled":false,"rental_uris":{"android":"levelo://app?vid=1a819fae-2a47-4ba9-8357-fa61875d73ca","ios":"levelo://app?vid=1a819fae-2a47-4ba9-8357-fa61875d73ca"},"vehicle_type_id":"4","last_reported":1744884660,"current_range_meters":23200,"station_id":"ce4bhlp2rcd13ifvqgjg","pricing_plan_id":"cebpf4jnsgd1na2vs0mg"},{"bike_id":"297ab134-5703-40a9-86e2-f5fd3a89e9e1","system_id":"levelo_inurba_marseille","lat":43.29552,"lon":5.42261,"is_reserved":false,"is_disabled":false,"rental_uris":{"android":"levelo://app?vid=297ab134-5703-40a9-86e2-f5fd3a89e9e1","ios":"levelo://app?vid=297ab134-5703-40a9-86e2-f5fd3a89e9e1"},"vehicle_type_id":"4","last_reported":1744884660,"current_range_meters":24000,"station_id":"ce4bhph2rcd13ifvqhdg","pricing_plan_id":"cebpf4jnsgd1na2vs0mg"},{"bike_id":"07456d6f-306c-4403-a6be-79421c908067","system_id":"levelo_inurba_marseille","lat":43.29711,"lon":5.3662,"is_reserved":false,"is_disabled":true,"rental_uris":{"android":"levelo://app?vid=07456d6f-306c-4403-a6be-79421c908067","ios":"levelo://app?vid=07456d6f-306c-4403-a6be-79421c908067"},"vehicle_type_id":"4","last_reported":1744884660,"current_range_meters":24000,"station_id":"ce4bgn12rcd13ifvqbt0","pricing_plan_id":"cebpf4jnsgd1na2vs0mg"},{"bike_id":"12e75396-ae51-4cff-a662-db9329a0cc7b","system_id":"levelo_inurba_marseille","lat":43.29522,"lon":5.37493,"is_reserved":false,"is_disabled":false,"rental_uris":{"android":"levelo://app?vid=12e75396-ae51-4cff-a662-db9329a0cc7b","ios":"levelo://app?vid=12e75396-ae51-4cff-a662-db9329a0cc7b"},"vehicle_type_id":"4","last_reported":1744884660,"current_range_meters":24000,"station_id":"ce4bgkp2rcd13ifvqbmg","pricing_plan_id":"cebpf4jnsgd1na2vs0mg"},{"bike_id":"42c85684-6d4c-4ab3-908d-e3931a7d95da","system_id":"levelo_inurba_marseille","lat":43.29304,"lon":5.37448,"is_reserved":false,"is_disabled":false,"rental_uris":{"android":"levelo://app?vid=42c85684-6d4c-4ab3-908d-e3931a7d95da","ios":"levelo://app?vid=42c85684-6d4c-4ab3-908d-e3931a7d95da"},"vehicle_type_id":"4","last_reported":1744884660,"current_range_meters":24400,"station_id":"ce4bgi12rcd13ifvqb70","pricing_plan_id":"cebpf4jnsgd1na2vs0mg"},{"bike_id":"4f172882-e66e-4d6c-944a-b9671eae4dda","system_id":"levelo_inurba_marseille","lat":43.24165,"lon":5.39734,"is_reserved":false,"is_disabled":false,"rental_uris":{"android":"levelo://app?vid=4f172882-e66e-4d6c-944a-b9671eae4dda","ios":"levelo://app?vid=4f172882-e66e-4d6c-944a-b9671eae4dda"},"vehicle_type_id":"4","last_reported":1744884660,"current_range_meters":24400,"station_id":"ce4bhn12rcd13ifvqgpg","pricing_plan_id":"cebpf4jnsgd1na2vs0mg"},{"bike_id":"17de6571-3c1c-4621-995b-d445cb9c6f14","system_id":"levelo_inurba_marseille","lat":43.21197,"lon":5.35065,"is_reserved":false,"is_disabled":false,"rental_uris":{"android":"levelo://app?vid=17de6571-3c1c-4621-995b-d445cb9c6f14","ios":"levelo://app?vid=17de6571-3c1c-4621-995b-d445cb9c6f14"},"vehicle_type_id":"4","last_reported":1744884660,"current_range_meters":24400,"station_id":"st_cvj6sg6p6f1abm77japg","pricing_plan_id":"cebpf4jnsgd1na2vs0mg"},{"bike_id":"bee30ca5-9897-4679-86bc-5dd6ad5300b6","system_id":"levelo_inurba_marseille","lat":43.30937,"lon":5.40162,"is_reserved":false,"is_disabled":true,"rental_uris":{"android":"levelo://app?vid=bee30ca5-9897-4679-86bc-5dd6ad5300b6","ios":"levelo://app?vid=bee30ca5-9897-4679-86bc-5dd6ad5300b6"},"vehicle_type_id":"4","last_reported":1744884660,"current_range_meters":24400,"station_id":"ce4bgvp2rcd13ifvqct0","pricing_plan_id":"cebpf4jnsgd1na2vs0mg"},{"bike_id":"5d3c711d-b736-42f0-a896-e713ef14302e","system_id":"levelo_inurba_marseille","lat":43.26232,"lon":5.40464,"is_reserved":false,"is_disabled":false,"rental_uris":{"android":"levelo://app?vid=5d3c711d-b736-42f0-a896-e713ef14302e","ios":"levelo://app?vid=5d3c711d-b736-42f0-a896-e713ef14302e"},"vehicle_type_id":"4","last_reported":1744884660,"current_range_meters":24400,"station_id":"ce4bhmh2rcd13ifvqgmg","pricing_plan_id":"cebpf4jnsgd1na2vs0mg"},{"bike_id":"7739d446-9b13-4283-b1fa-31b8532e65ca","system_id":"levelo_inurba_marseille","lat":43.30458,"lon":5.37912,"is_reserved":false,"is_disabled":false,"rental_uris":{"android":"levelo://app?vid=7739d446-9b13-4283-b1fa-31b8532e65ca","ios":"levelo://app?vid=7739d446-9b13-4283-b1fa-31b8532e65ca"},"vehicle_type_id":"4","last_reported":1744884660,"current_range_meters":24400,"station_id":"ce4bgup2rcd13ifvqcn0","pricing_plan_id":"cebpf4jnsgd1na2vs0mg"},{"bike_id":"f994ed63-3aed-4bd2-9db1-013f7103cb7f","system_id":"levelo_inurba_marseille","lat":43.298492,"lon":5.362899,"is_reserved":false,"is_disabled":false,"rental_uris":{"android":"levelo://app?vid=f994ed63-3aed-4bd2-9db1-013f7103cb7f","ios":"levelo://app?vid=f994ed63-3aed-4bd2-9db1-013f7103cb7f"},"vehicle_type_id":"4","last_reported":1744884660,"current_range_meters":24400,"station_id":"ce4bgpp2rcd13ifvqc3g","pricing_plan_id":"cebpf4jnsgd1na2vs0mg"},{"bike_id":"7a597853-937c-4204-b8b9-87d3c6b4e8ef","system_id":"levelo_inurba_marseille","lat":43.241731,"lon":5.363998,"is_reserved":false,"is_disabled":false,"rental_uris":{"android":"levelo://app?vid=7a597853-937c-4204-b8b9-87d3c6b4e8ef","ios":"levelo://app?vid=7a597853-937c-4204-b8b9-87d3c6b4e8ef"},"vehicle_type_id":"4","last_reported":1744884660,"current_range_meters":24400,"station_id":"cpo36qri1sfpv3e86is0","pricing_plan_id":"cebpf4jnsgd1na2vs0mg"},{"bike_id":"33203d26-945b-4a55-92a5-97548cc35c7f","system_id":"levelo_inurba_marseille","lat":43.30148,"lon":5.38084,"is_reserved":false,"is_disabled":false,"rental_uris":{"android":"levelo://app?vid=33203d26-945b-4a55-92a5-97548cc35c7f","ios":"levelo://app?vid=33203d26-945b-4a55-92a5-97548cc35c7f"},"vehicle_type_id":"4","last_reported":1744884660,"current_range_meters":24400,"station_id":"ce4bgjp2rcd13ifvqbh0","pricing_plan_id":"cebpf4jnsgd1na2vs0mg"},{"bike_id":"cc57b88c-ecb4-4caf-96f3-2be5e8ab0e99","system_id":"levelo_inurba_marseille","lat":43.30545,"lon":5.36531,"is_reserved":false,"is_disabled":false,"rental_uris":{"android":"levelo://app?vid=cc57b88c-ecb4-4caf-96f3-2be5e8ab0e99","ios":"levelo://app?vid=cc57b88c-ecb4-4caf-96f3-2be5e8ab0e99"},"vehicle_type_id":"4","last_reported":1744884660,"current_range_meters":24400,"station_id":"ce4bgs12rcd13ifvqcag","pricing_plan_id":"cebpf4jnsgd1na2vs0mg"},{"bike_id":"66040d18-698d-4a86-8ba7-b72c16bb70a4","system_id":"levelo_inurba_marseille","lat":43.28154,"lon":5.42641,"is_reserved":false,"is_disabled":false,"rental_uris":{"android":"levelo://app?vid=66040d18-698d-4a86-8ba7-b72c16bb70a4","ios":"levelo://app?vid=66040d18-698d-4a86-8ba7-b72c16bb70a4"},"vehicle_type_id":"4","last_reported":1744884660,"current_range_meters":24400,"station_id":"ce4bhnh2rcd13ifvqgug","pricing_plan_id":"cebpf4jnsgd1na2vs0mg"},{"bike_id":"b943b1a4-009f-4f5a-b6f8-b02eac9ef5d4","system_id":"levelo_inurba_marseille","lat":43.29167,"lon":5.37161,"is_reserved":false,"is_disabled":false,"rental_uris":{"android":"levelo://app?vid=b943b1a4-009f-4f5a-b6f8-b02eac9ef5d4","ios":"levelo://app?vid=b943b1a4-009f-4f5a-b6f8-b02eac9ef5d4"},"vehicle_type_id":"4","last_reported":1744884660,"current_range_meters":24400,"station_id":"ce4bha92rcd13ifvqeh0","pricing_plan_id":"cebpf4jnsgd1na2vs0mg"},{"bike_id":"a3cb3541-e34e-4e91-96bd-3d2be11ba3ea","system_id":"levelo_inurba_marseille","lat":43.30473,"lon":5.37883,"is_reserved":false,"is_disabled":false,"rental_uris":{"android":"levelo://app?vid=a3cb3541-e34e-4e91-96bd-3d2be11ba3ea","ios":"levelo://app?vid=a3cb3541-e34e-4e91-96bd-3d2be11ba3ea"},"vehicle_type_id":"4","last_reported":1744884660,"current_range_meters":24400,"station_id":"ce4bgup2rcd13ifvqcn0","pricing_plan_id":"cebpf4jnsgd1na2vs0mg"},{"bike_id":"dbabad08-8737-4c10-8820-f3cef6f1af83","system_id":"levelo_inurba_marseille","lat":43.30796,"lon":5.38164,"is_reserved":false,"is_disabled":false,"rental_uris":{"android":"levelo://app?vid=dbabad08-8737-4c10-8820-f3cef6f1af83","ios":"levelo://app?vid=dbabad08-8737-4c10-8820-f3cef6f1af83"},"vehicle_type_id":"4","last_reported":1744884660,"current_range_meters":24400,"station_id":"ce4bgt12rcd13ifvqce0","pricing_plan_id":"cebpf4jnsgd1na2vs0mg"},{"bike_id":"0006482a-d501-4fbf-904c-84674ca11df6","system_id":"levelo_inurba_marseille","lat":43.28604,"lon":5.37069,"is_reserved":false,"is_disabled":false,"rental_uris":{"android":"levelo://app?vid=0006482a-d501-4fbf-904c-84674ca11df6","ios":"levelo://app?vid=0006482a-d501-4fbf-904c-84674ca11df6"},"vehicle_type_id":"4","last_reported":1744884660,"current_range_meters":24800,"station_id":"ce4bht12rcd13ifvqi60","pricing_plan_id":"cebpf4jnsgd1na2vs0mg"},{"bike_id":"2a86f661-a08e-4d0e-9513-972856db32ea","system_id":"levelo_inurba_marseille","lat":43.284367,"lon":5.392083,"is_reserved":false,"is_disabled":false,"rental_uris":{"android":"levelo://app?vid=2a86f661-a08e-4d0e-9513-972856db32ea","ios":"levelo://app?vid=2a86f661-a08e-4d0e-9513-972856db32ea"},"vehicle_type_id":"4","last_reported":1744884660,"current_range_meters":24400,"station_id":"ce4bhoh2rcd13ifvqh5g","pricing_plan_id":"cebpf4jnsgd1na2vs0mg"},{"bike_id":"33df844c-3a05-42b8-bb64-6f13c37d36d9","system_id":"levelo_inurba_marseille","lat":43.30947,"lon":5.39057,"is_reserved":false,"is_disabled":false,"rental_uris":{"android":"levelo://app?vid=33df844c-3a05-42b8-bb64-6f13c37d36d9","ios":"levelo://app?vid=33df844c-3a05-42b8-bb64-6f13c37d36d9"},"vehicle_type_id":"4","last_reported":1744884660,"current_range_meters":24800,"station_id":"ce4bgup2rcd13ifvqco0","pricing_plan_id":"cebpf4jnsgd1na2vs0mg"},{"bike_id":"0ae19b9c-c885-40b5-b292-868c221bc3d0","system_id":"levelo_inurba_marseille","lat":43.30156,"lon":5.37404,"is_reserved":false,"is_disabled":false,"rental_uris":{"android":"levelo://app?vid=0ae19b9c-c885-40b5-b292-868c221bc3d0","ios":"levelo://app?vid=0ae19b9c-c885-40b5-b292-868c221bc3d0"},"vehicle_type_id":"4","last_reported":1744884660,"current_range_meters":24800,"station_id":"ce4bgs92rcd13ifvqcc0","pricing_plan_id":"cebpf4jnsgd1na2vs0mg"},{"bike_id":"cfadcc33-5bb8-4f29-9a84-ae98565bb4a2","system_id":"levelo_inurba_marseille","lat":43.24072,"lon":5.37824,"is_reserved":false,"is_disabled":false,"rental_uris":{"android":"levelo://app?vid=cfadcc33-5bb8-4f29-9a84-ae98565bb4a2","ios":"levelo://app?vid=cfadcc33-5bb8-4f29-9a84-ae98565bb4a2"},"vehicle_type_id":"4","last_reported":1744884660,"current_range_meters":25200,"station_id":"","pricing_plan_id":"cebpf4jnsgd1na2vs0mg"},{"bike_id":"3ae7eae8-3504-4c24-b562-ecaf9a0f874c","system_id":"levelo_inurba_marseille","lat":43.26226,"lon":5.37437,"is_reserved":false,"is_disabled":false,"rental_uris":{"android":"levelo://app?vid=3ae7eae8-3504-4c24-b562-ecaf9a0f874c","ios":"levelo://app?vid=3ae7eae8-3504-4c24-b562-ecaf9a0f874c"},"vehicle_type_id":"4","last_reported":1744884660,"current_range_meters":25200,"station_id":"ce4bhgp2rcd13ifvqfc0","pricing_plan_id":"cebpf4jnsgd1na2vs0mg"},{"bike_id":"ac03d42e-78f5-4bf2-beb1-03d2de0aac7e","system_id":"levelo_inurba_marseille","lat":43.27325,"lon":5.391,"is_reserved":false,"is_disabled":false,"rental_uris":{"android":"levelo://app?vid=ac03d42e-78f5-4bf2-beb1-03d2de0aac7e","ios":"levelo://app?vid=ac03d42e-78f5-4bf2-beb1-03d2de0aac7e"},"vehicle_type_id":"4","last_reported":1744884660,"current_range_meters":25200,"station_id":"ce4bhgp2rcd13ifvqfe0","pricing_plan_id":"cebpf4jnsgd1na2vs0mg"},{"bike_id":"ec7f7bb1-9bc8-45cc-a813-5705465522b0","system_id":"levelo_inurba_marseille","lat":43.30538,"lon":5.36539,"is_reserved":false,"is_disabled":false,"rental_uris":{"android":"levelo://app?vid=ec7f7bb1-9bc8-45cc-a813-5705465522b0","ios":"levelo://app?vid=ec7f7bb1-9bc8-45cc-a813-5705465522b0"},"vehicle_type_id":"4","last_reported":1744884660,"current_range_meters":25200,"station_id":"ce4bgs12rcd13ifvqcag","pricing_plan_id":"cebpf4jnsgd1na2vs0mg"},{"bike_id":"f663d8f8-94df-44ad-8cd8-9a35c10a4df5","system_id":"levelo_inurba_marseille","lat":43.25726,"lon":5.41119,"is_reserved":false,"is_disabled":false,"rental_uris":{"android":"levelo://app?vid=f663d8f8-94df-44ad-8cd8-9a35c10a4df5","ios":"levelo://app?vid=f663d8f8-94df-44ad-8cd8-9a35c10a4df5"},"vehicle_type_id":"4","last_reported":1744884660,"current_range_meters":25200,"station_id":"ce4bhkp2rcd13ifvqgd0","pricing_plan_id":"cebpf4jnsgd1na2vs0mg"},{"bike_id":"fd8306bc-b348-4af6-a564-e719b3ee4515","system_id":"levelo_inurba_marseille","lat":43.30452,"lon":5.37923,"is_reserved":false,"is_disabled":false,"rental_uris":{"android":"levelo://app?vid=fd8306bc-b348-4af6-a564-e719b3ee4515","ios":"levelo://app?vid=fd8306bc-b348-4af6-a564-e719b3ee4515"},"vehicle_type_id":"4","last_reported":1744884660,"current_range_meters":25200,"station_id":"ce4bgup2rcd13ifvqcn0","pricing_plan_id":"cebpf4jnsgd1na2vs0mg"},{"bike_id":"56330617-58ec-4657-b8ec-444191e996de","system_id":"levelo_inurba_marseille","lat":43.26564,"lon":5.37309,"is_reserved":false,"is_disabled":false,"rental_uris":{"android":"levelo://app?vid=56330617-58ec-4657-b8ec-444191e996de","ios":"levelo://app?vid=56330617-58ec-4657-b8ec-444191e996de"},"vehicle_type_id":"4","last_reported":1744884660,"current_range_meters":25200,"station_id":"ce4bhg12rcd13ifvqf70","pricing_plan_id":"cebpf4jnsgd1na2vs0mg"},{"bike_id":"f8e53042-fd42-4b10-9e0d-f10b74ac6879","system_id":"levelo_inurba_marseille","lat":43.28619,"lon":5.35105,"is_reserved":false,"is_disabled":false,"rental_uris":{"android":"levelo://app?vid=f8e53042-fd42-4b10-9e0d-f10b74ac6879","ios":"levelo://app?vid=f8e53042-fd42-4b10-9e0d-f10b74ac6879"},"vehicle_type_id":"4","last_reported":1744884660,"current_range_meters":25200,"station_id":"ce4bhch2rcd13ifvqeug","pricing_plan_id":"cebpf4jnsgd1na2vs0mg"},{"bike_id":"ab3c5c6e-7d63-4852-b222-ef196ad8f6cf","system_id":"levelo_inurba_marseille","lat":43.24568,"lon":5.39528,"is_reserved":false,"is_disabled":false,"rental_uris":{"android":"levelo://app?vid=ab3c5c6e-7d63-4852-b222-ef196ad8f6cf","ios":"levelo://app?vid=ab3c5c6e-7d63-4852-b222-ef196ad8f6cf"},"vehicle_type_id":"4","last_reported":1744884660,"current_range_meters":25200,"station_id":"ce4bhlp2rcd13ifvqgjg","pricing_plan_id":"cebpf4jnsgd1na2vs0mg"},