{"last_updated":1744740764,"ttl":60,"version":"2.2","data":{"bikes":[{"bike_id":"e1edacd5-ee8e-4f4b-8017-55989ab6d671","system_id":"levelo_inurba_marseille","lat":43.29271,"lon":5.3762,"is_reserved":false,"is_disabled":false,"rental_uris":{"android":"levelo://app?vid=e1edacd5-ee8e-4f4b-8017-55989ab6d671","ios":"levelo://app?vid=e1edacd5-ee8e-4f4b-8017-55989ab6d671"},"vehicle_type_id":"4","last_reported":1744740764,"current_range_meters":2800,"station_id":"ce4bgi12rcd13ifvqb80","pricing_plan_id":"cebpf4jnsgd1na2vs0mg"},{"bike_id":"14200b5f-0df1-45fa-9255-a20944599cf8","system_id":"levelo_inurba_marseille","lat":43.29605,"lon":5.38098,"is_reserved":false,"is_disabled":false,"rental_uris":{"android":"levelo://app?vid=14200b5f-0df1-45fa-9255-a20944599cf8","ios":"levelo://app?vid=14200b5f-0df1-45fa-9255-a20944599cf8"},"vehicle_type_id":"4","last_reported":1744740764,"current_range_meters":2000,"station_id":"ce4bgl12rcd13ifvqbo0","pricing_plan_id":"cebpf4jnsgd1na2vs0mg"},{"bike_id":"8d0e3a0b-6d2d-4a52-8635-fac22553c618","system_id":"levelo_inurba_marseille","lat":43.3329,"lon":5.37804,"is_reserved":false,"is_disabled":false,"rental_uris":{"android":"levelo://app?vid=8d0e3a0b-6d2d-4a52-8635-fac22553c618","ios":"levelo://app?vid=8d0e3a0b-6d2d-4a52-8635-fac22553c618"},"vehicle_type_id":"4","last_reported":1744740764,"current_range_meters":2800,"station_id":"","pricing_plan_id":"cebpf4jnsgd1na2vs0mg"},{"bike_id":"b7720845-90b2-4689-b44a-281b309e38de","system_id":"levelo_inurba_marseille","lat":43.28872,"lon":5.35875,"is_reserved":false,"is_disabled":false,"rental_uris":{"android":"levelo://app?vid=b7720845-90b2-4689-b44a-281b309e38de","ios":"levelo://app?vid=b7720845-90b2-4689-b44a-281b309e38de"},"vehicle_type_id":"4","last_reported":1744740764,"current_range_meters":3200,"station_id":"ce4bhb12rcd13ifvqem0","pricing_plan_id":"cebpf4jnsgd1na2vs0mg"},{"bike_id":"d5474b4a-7775-4c94-a0cc-394714d3106d","system_id":"levelo_inurba_marseille","lat":43.31131,"lon":5.37764,"is_reserved":false,"is_disabled":false,"rental_uris":{"android":"levelo://app?vid=d5474b4a-7775-4c94-a0cc-394714d3106d","ios":"levelo://app?vid=d5474b4a-7775-4c94-a0cc-394714d3106d"},"vehicle_type_id":"4","last_reported":1744740764,"current_range_meters":3200,"station_id":"ce4bgt92rcd13ifvqcg0","pricing_plan_id":"cebpf4jnsgd1na2vs0mg"},{"bike_id":"6398c60b-9077-40d1-b035-02bc2f777520","system_id":"levelo_inurba_marseille","lat":43.29194,"lon":5.36079,"is_reserved":false,"is_disabled":false,"rental_uris":{"android":"levelo://app?vid=6398c60b-9077-40d1-b035-02bc2f777520","ios":"levelo://app?vid=6398c60b-9077-40d1-b035-02bc2f777520"},"vehicle_type_id":"4","last_reported":1744740764,"current_range_meters":3200,"station_id":"ce4bhbh2rcd13ifvqeqg","pricing_plan_id":"cebpf4jnsgd1na2vs0mg"},{"bike_id":"5bb33197-3b78-462f-9f25-375cd830d0ad","system_id":"levelo_inurba_marseille","lat":43.24545,"lon":5.39524,"is_reserved":false,"is_disabled":false,"rental_uris":{"android":"levelo://app?vid=5bb33197-3b78-462f-9f25-375cd830d0ad","ios":"levelo://app?vid=5bb33197-3b78-462f-9f25-375cd830d0ad"},"vehicle_type_id":"4","last_reported":1744740764,"current_range_meters":2800,"station_id":"ce4bhlp2rcd13ifvqgjg","pricing_plan_id":"cebpf4jnsgd1na2vs0mg"},{"bike_id":"afbe86b6-c7e4-4d88-9e3e-7a9f2a4834c7","system_id":"levelo_inurba_marseille","lat":43.29891,"lon":5.38907,"is_reserved":false,"is_disabled":false,"rental_uris":{"android":"levelo://app?vid=afbe86b6-c7e4-4d88-9e3e-7a9f2a4834c7","ios":"levelo://app?vid=afbe86b6-c7e4-4d88-9e3e-7a9f2a4834c7"},"vehicle_type_id":"4","last_reported":1744740764,"current_range_meters":2800,"station_id":"ce4bh392rcd13ifvqdl0","pricing_plan_id":"cebpf4jnsgd1na2vs0mg"},{"bike_id":"dfc6b954-67ae-460e-a08e-ac9ca47bd9a6","system_id":"levelo_inurba_marseille","lat":43.290009,"lon":5.356154,"is_reserved":false,"is_disabled":false,"rental_uris":{"android":"levelo://app?vid=dfc6b954-67ae-460e-a08e-ac9ca47bd9a6","ios":"levelo://app?vid=dfc6b954-67ae-460e-a08e-ac9ca47bd9a6"},"vehicle_type_id":"4","last_reported":1744740764,"current_range_meters":3600,"station_id":"ce4bhb92rcd13ifvqen0","pricing_plan_id":"cebpf4jnsgd1na2vs0mg"},{"bike_id":"11c91782-1464-40f0-b56d-d8a5dae19715","system_id":"levelo_inurba_marseille","lat":43.296,"lon":5.40018,"is_reserved":false,"is_disabled":false,"rental_uris":{"android":"levelo://app?vid=11c91782-1464-40f0-b56d-d8a5dae19715","ios":"levelo://app?vid=11c91782-1464-40f0-b56d-d8a5dae19715"},"vehicle_type_id":"4","last_reported":1744740764,"current_range_meters":3600,"station_id":"","pricing_plan_id":"cebpf4jnsgd1na2vs0mg"},{"bike_id":"4bc808bd-a669-44f3-822a-1d25ac2433b1","system_id":"levelo_inurba_marseille","lat":43.30211,"lon":5.39466,"is_reserved":false,"is_disabled":false,"rental_uris":{"android":"levelo://app?vid=4bc808bd-a669-44f3-822a-1d25ac2433b1","ios":"levelo://app?vid=4bc808bd-a669-44f3-822a-1d25ac2433b1"},"vehicle_type_id":"4","last_reported":1744740764,"current_range_meters":3600,"station_id":"ce4bh0p2rcd13ifvqd70","pricing_plan_id":"cebpf4jnsgd1na2vs0mg"},{"bike_id":"3d354492-d6f6-46f4-abc2-c88e7773f082","system_id":"levelo_inurba_marseille","lat":43.23963,"lon":5.36628,"is_reserved":false,"is_disabled":false,"rental_uris":{"android":"levelo://app?vid=3d354492-d6f6-46f4-abc2-c88e7773f082","ios":"levelo://app?vid=3d354492-d6f6-46f4-abc2-c88e7773f082"},"vehicle_type_id":"4","last_reported":1744740764,"current_range_meters":3200,"station_id":"ce4bhi12rcd13ifvqfp0","pricing_plan_id":"cebpf4jnsgd1na2vs0mg"},{"bike_id":"a80e51e8-b9b7-4ef2-ae4a-c07765b39d73","system_id":"levelo_inurba_marseille","lat":43.2846,"lon":5.35891,"is_reserved":false,"is_disabled":false,"rental_uris":{"android":"levelo://app?vid=a80e51e8-b9b7-4ef2-ae4a-c07765b39d73","ios":"levelo://app?vid=a80e51e8-b9b7-4ef2-ae4a-c07765b39d73"},"vehicle_type_id":"4","last_reported":1744740764,"current_range_meters":4000,"station_id":"ce4bhah2rcd13ifvqei0","pricing_plan_id":"cebpf4jnsgd1na2vs0mg"},{"bike_id":"bb369074-06b8-4d7e-9579-708c092c0c7f","system_id":"levelo_inurba_marseille","lat":43.28107,"lon":5.37839,"is_reserved":false,"is_disabled":false,"rental_uris":{"android":"levelo://app?vid=bb369074-06b8-4d7e-9579-708c092c0c7f","ios":"levelo://app?vid=bb369074-06b8-4d7e-9579-708c092c0c7f"},"vehicle_type_id":"4","last_reported":1744740764,"current_range_meters":4000,"station_id":"ce4bha12rcd13ifvqee0","pricing_plan_id":"cebpf4jnsgd1na2vs0mg"},{"bike_id":"d3f5be15-6ce4-48b9-8659-5f7a8170c596","system_id":"levelo_inurba_marseille","lat":43.2928,"lon":5.38459,"is_reserved":false,"is_disabled":false,"rental_uris":{"android":"levelo://app?vid=d3f5be15-6ce4-48b9-8659-5f7a8170c596","ios":"levelo://app?vid=d3f5be15-6ce4-48b9-8659-5f7a8170c596"},"vehicle_type_id":"4","last_reported":1744740764,"current_range_meters":4400,"station_id":"ce4bh692rcd13ifvqea0","pricing_plan_id":"cebpf4jnsgd1na2vs0mg"},{"bike_id":"9ff69cec-0ada-4f17-bdf7-7ce5b2adb2bc","system_id":"levelo_inurba_marseille","lat":43.26961,"lon":5.38677,"is_reserved":false,"is_disabled":false,"rental_uris":{"android":"levelo://app?vid=9ff69cec-0ada-4f17-bdf7-7ce5b2adb2bc","ios":"levelo://app?vid=9ff69cec-0ada-4f17-bdf7-7ce5b2adb2bc"},"vehicle_type_id":"4","last_reported":1744740764,"current_range_meters":4400,"station_id":"ce4bhh92rcd13ifvqfh0","pricing_plan_id":"cebpf4jnsgd1na2vs0mg"},{"bike_id":"66d9901e-dd09-493e-abc0-647b0a2cb05d","system_id":"levelo_inurba_marseille","lat":43.21758,"lon":5.34614,"is_reserved":false,"is_disabled":false,"rental_uris":{"android":"levelo://app?vid=66d9901e-dd09-493e-abc0-647b0a2cb05d","ios":"levelo://app?vid=66d9901e-dd09-493e-abc0-647b0a2cb05d"},"vehicle_type_id":"4","last_reported":1744740764,"current_range_meters":4400,"station_id":"st_cvj6r9ubvosntc0bgbag","pricing_plan_id":"cebpf4jnsgd1na2vs0mg"},{"bike_id":"df3d80f6-4298-434c-8d3a-c2787ce146c3","system_id":"levelo_inurba_marseille","lat":43.2811,"lon":5.37839,"is_reserved":false,"is_disabled":false,"rental_uris":{"android":"levelo://app?vid=df3d80f6-4298-434c-8d3a-c2787ce146c3","ios":"levelo://app?vid=df3d80f6-4298-434c-8d3a-c2787ce146c3"},"vehicle_type_id":"4","last_reported":1744740764,"current_range_meters":4400,"station_id":"ce4bha12rcd13ifvqee0","pricing_plan_id":"cebpf4jnsgd1na2vs0mg"},{"bike_id":"e7816af6-b51f-4a54-bfd2-977771406aea","system_id":"levelo_inurba_marseille","lat":43.231518,"lon":5.437269,"is_reserved":false,"is_disabled":false,"rental_uris":{"android":"levelo://app?vid=e7816af6-b51f-4a54-bfd2-977771406aea","ios":"levelo://app?vid=e7816af6-b51f-4a54-bfd2-977771406aea"},"vehicle_type_id":"4","last_reported":1744740764,"current_range_meters":4400,"station_id":"ce4bhmp2rcd13ifvqgog","pricing_plan_id":"cebpf4jnsgd1na2vs0mg"},{"bike_id":"5cdf6cf6-426a-4e12-a00f-57a4c74937ef","system_id":"levelo_inurba_marseille","lat":43.268005,"lon":5.402708,"is_reserved":false,"is_disabled":false,"rental_uris":{"android":"levelo://app?vid=5cdf6cf6-426a-4e12-a00f-57a4c74937ef","ios":"levelo://app?vid=5cdf6cf6-426a-4e12-a00f-57a4c74937ef"},"vehicle_type_id":"4","last_reported":1744740764,"current_range_meters":4800,"station_id":"ce501612rcd8frsf0b60","pricing_plan_id":"cebpf4jnsgd1na2vs0mg"},{"bike_id":"01fdcaba-c972-4724-a83b-1b56f9071574","system_id":"levelo_inurba_marseille","lat":43.292619,"lon":5.384448,"is_reserved":false,"is_disabled":false,"rental_uris":{"android":"levelo://app?vid=01fdcaba-c972-4724-a83b-1b56f9071574","ios":"levelo://app?vid=01fdcaba-c972-4724-a83b-1b56f9071574"},"vehicle_type_id":"4","last_reported":1744740764,"current_range_meters":4800,"station_id":"ce4bh692rcd13ifvqea0","pricing_plan_id":"cebpf4jnsgd1na2vs0mg"},{"bike_id":"8bb20b12-3c14-42e7-b747-65429b244fa7","system_id":"levelo_inurba_marseille","lat":43.30428,"lon":5.38901,"is_reserved":false,"is_disabled":false,"rental_uris":{"android":"levelo://app?vid=8bb20b12-3c14-42e7-b747-65429b244fa7","ios":"levelo://app?vid=8bb20b12-3c14-42e7-b747-65429b244fa7"},"vehicle_type_id":"4","last_reported":1744740764,"current_range_meters":5600,"station_id":"ce4bgk12rcd13ifvqbi0","pricing_plan_id":"cebpf4jnsgd1na2vs0mg"},{"bike_id":"2ca32786-febf-41f6-aa1f-9e4a59a16fd8","system_id":"levelo_inurba_marseille","lat":43.30135,"lon":5.39878,"is_reserved":false,"is_disabled":true,"rental_uris":{"android":"levelo://app?vid=2ca32786-febf-41f6-aa1f-9e4a59a16fd8","ios":"levelo://app?vid=2ca32786-febf-41f6-aa1f-9e4a59a16fd8"},"vehicle_type_id":"4","last_reported":1744740764,"current_range_meters":5600,"station_id":"ce4bh0h2rcd13ifvqd40","pricing_plan_id":"cebpf4jnsgd1na2vs0mg"},{"bike_id":"7b3edddc-ce45-4d0a-8357-6fedffe68558","system_id":"levelo_inurba_marseille","lat":43.29869,"lon":5.39726,"is_reserved":false,"is_disabled":false,"rental_uris":{"android":"levelo://app?vid=7b3edddc-ce45-4d0a-8357-6fedffe68558","ios":"levelo://app?vid=7b3edddc-ce45-4d0a-8357-6fedffe68558"},"vehicle_type_id":"4","last_reported":1744740764,"current_range_meters":5600,"station_id":"ce4bh0h2rcd13ifvqd50","pricing_plan_id":"cebpf4jnsgd1na2vs0mg"},{"bike_id":"74408b87-8811-49f0-956b-a0bb6ddb200b","system_id":"levelo_inurba_marseille","lat":43.2894,"lon":5.36643,"is_reserved":false,"is_disabled":false,"rental_uris":{"android":"levelo://app?vid=74408b87-8811-49f0-956b-a0bb6ddb200b","ios":"levelo://app?vid=74408b87-8811-49f0-956b-a0bb6ddb200b"},"vehicle_type_id":"4","last_reported":1744740764,"current_range_meters":5600,"station_id":"ce4bhap2rcd13ifvqek0","pricing_plan_id":"cebpf4jnsgd1na2vs0mg"},{"bike_id":"1064b9a7-5947-42b0-b3ab-02b74ee64902","system_id":"levelo_inurba_marseille","lat":43.25011,"lon":5.3891,"is_reserved":false,"is_disabled":true,"rental_uris":{"android":"levelo://app?vid=1064b9a7-5947-42b0-b3ab-02b74ee64902","ios":"levelo://app?vid=1064b9a7-5947-42b0-b3ab-02b74ee64902"},"vehicle_type_id":"4","last_reported":1744740764,"current_range_meters":5600,"station_id":"ce4bhgp2rcd13ifvqfd0","pricing_plan_id":"cebpf4jnsgd1na2vs0mg"},{"bike_id":"378a3713-4d62-4c39-8264-899c504fbd26","system_id":"levelo_inurba_marseille","lat":43.29689,"lon":5.3728,"is_reserved":false,"is_disabled":false,"rental_uris":{"android":"levelo://app?vid=378a3713-4d62-4c39-8264-899c504fbd26","ios":"levelo://app?vid=378a3713-4d62-4c39-8264-899c504fbd26"},"vehicle_type_id":"4","last_reported":1744740764,"current_range_meters":5600,"station_id":"ce4bgk12rcd13ifvqbj0","pricing_plan_id":"cebpf4jnsgd1na2vs0mg"},{"bike_id":"6e7d4596-b641-48ef-bea8-a5fce4500e59","system_id":"levelo_inurba_marseille","lat":43.258662,"lon":5.399031,"is_reserved":false,"is_disabled":false,"rental_uris":{"android":"levelo://app?vid=6e7d4596-b641-48ef-bea8-a5fce4500e59","ios":"levelo://app?vid=6e7d4596-b641-48ef-bea8-a5fce4500e59"},"vehicle_type_id":"4","last_reported":1744740764,"current_range_meters":6000,"station_id":"","pricing_plan_id":"cebpf4jnsgd1na2vs0mg"},{"bike_id":"1c2f9c28-e48c-4dbe-8027-91dc3762a798","system_id":"levelo_inurba_marseille","lat":43.31119,"lon":5.37774,"is_reserved":false,"is_disabled":false,"rental_uris":{"android":"levelo://app?vid=1c2f9c28-e48c-4dbe-8027-91dc3762a798","ios":"levelo://app?vid=1c2f9c28-e48c-4dbe-8027-91dc3762a798"},"vehicle_type_id":"4","last_reported":1744740764,"current_range_meters":6000,"station_id":"ce4bgt92rcd13ifvqcg0","pricing_plan_id":"cebpf4jnsgd1na2vs0mg"},{"bike_id":"40ebf9d1-e4d4-40fd-a97b-1ec5327c8e55","system_id":"levelo_inurba_marseille","lat":43.2318,"lon":5.39995,"is_reserved":false,"is_disabled":false,"rental_uris":{"android":"levelo://app?vid=40ebf9d1-e4d4-40fd-a97b-1ec5327c8e55","ios":"levelo://app?vid=40ebf9d1-e4d4-40fd-a97b-1ec5327c8e55"},"vehicle_type_id":"4","last_reported":1744740764,"current_range_meters":6000,"station_id":"ce4bhn12rcd13ifvqgqg","pricing_plan_id":"cebpf4jnsgd1na2vs0mg"},{"bike_id":"6e813554-554a-49dd-9009-02d95efd3de7","system_id":"levelo_inurba_marseille","lat":43.32427,"lon":5.3911,"is_reserved":false,"is_disabled":false,"rental_uris":{"android":"levelo://app?vid=6e813554-554a-49dd-9009-02d95efd3de7","ios":"levelo://app?vid=6e813554-554a-49dd-9009-02d95efd3de7"},"vehicle_type_id":"4","last_reported":1744740764,"current_range_meters":6400,"station_id":"","pricing_plan_id":"cebpf4jnsgd1na2vs0mg"},{"bike_id":"199910c8-c965-4472-894a-547fa8667c6b","system_id":"levelo_inurba_marseille","lat":43.28462,"lon":5.35888,"is_reserved":false,"is_disabled":false,"rental_uris":{"android":"levelo://app?vid=199910c8-c965-4472-894a-547fa8667c6b","ios":"levelo://app?vid=199910c8-c965-4472-894a-547fa8667c6b"},"vehicle_type_id":"4","last_reported":1744740764,"current_range_meters":6400,"station_id":"ce4bhah2rcd13ifvqei0","pricing_plan_id":"cebpf4jnsgd1na2vs0mg"},{"bike_id":"ee76b054-8286-40b3-81fc-296cdfe4a09b","system_id":"levelo_inurba_marseille","lat":43.29622,"lon":5.37167,"is_reserved":false,"is_disabled":false,"rental_uris":{"android":"levelo://app?vid=ee76b054-8286-40b3-81fc-296cdfe4a09b","ios":"levelo://app?vid=ee76b054-8286-40b3-81fc-296cdfe4a09b"},"vehicle_type_id":"4","last_reported":1744740764,"current_range_meters":6800,"station_id":"ce4bgnh2rcd13ifvqc0g","pricing_plan_id":"cebpf4jnsgd1na2vs0mg"},{"bike_id":"50d1c769-78d0-4bbe-bcea-5856c9ba50eb","system_id":"levelo_inurba_marseille","lat":43.2796,"lon":5.41039,"is_reserved":false,"is_disabled":false,"rental_uris":{"android":"levelo://app?vid=50d1c769-78d0-4bbe-bcea-5856c9ba50eb","ios":"levelo://app?vid=50d1c769-78d0-4bbe-bcea-5856c9ba50eb"},"vehicle_type_id":"4","last_reported":1744740764,"current_range_meters":6800,"station_id":"ce4bhnp2rcd13ifvqh0g","pricing_plan_id":"cebpf4jnsgd1na2vs0mg"},{"bike_id":"8fb9e7bc-8a04-4f5d-9440-892df4b1b295","system_id":"levelo_inurba_marseille","lat":43.30954,"lon":5.3903,"is_reserved":false,"is_disabled":true,"rental_uris":{"android":"levelo://app?vid=8fb9e7bc-8a04-4f5d-9440-892df4b1b295","ios":"levelo://app?vid=8fb9e7bc-8a04-4f5d-9440-892df4b1b295"},"vehicle_type_id":"4","last_reported":1744740764,"current_range_meters":6800,"station_id":"ce4bgup2rcd13ifvqco0","pricing_plan_id":"cebpf4jnsgd1na2vs0mg"},{"bike_id":"cbc427fb-38a2-4977-bce5-5c0b23cf8f99","system_id":"levelo_inurba_marseille","lat":43.28271,"lon":5.35082,"is_reserved":false,"is_disabled":false,"rental_uris":{"android":"levelo://app?vid=cbc427fb-38a2-4977-bce5-5c0b23cf8f99","ios":"levelo://app?vid=cbc427fb-38a2-4977-bce5-5c0b23cf8f99"},"vehicle_type_id":"4","last_reported":1744740764,"current_range_meters":6800,"station_id":"ce4bhbp2rcd13ifvqerg","pricing_plan_id":"cebpf4jnsgd1na2vs0mg"},{"bike_id":"c5446640-3914-4771-92ea-b21fbabec35f","system_id":"levelo_inurba_marseille","lat":43.28503,"lon":5.38574,"is_reserved":false,"is_disabled":false,"rental_uris":{"android":"levelo://app?vid=c5446640-3914-4771-92ea-b21fbabec35f","ios":"levelo://app?vid=c5446640-3914-4771-92ea-b21fbabec35f"},"vehicle_type_id":"4","last_reported":1744740764,"current_range_meters":6800,"station_id":"ce4bh8p2rcd13ifvqeb0","pricing_plan_id":"cebpf4jnsgd1na2vs0mg"},{"bike_id":"0e262e1d-d85f-4b85-9573-166962666f8f","system_id":"levelo_inurba_marseille","lat":43.27069,"lon":5.42284,"is_reserved":false,"is_disabled":false,"rental_uris":{"android":"levelo://app?vid=0e262e1d-d85f-4b85-9573-166962666f8f","ios":"levelo://app?vid=0e262e1d-d85f-4b85-9573-166962666f8f"},"vehicle_type_id":"4","last_reported":1744740764,"current_range_meters":6800,"station_id":"ce4bhk92rcd13ifvqgb0","pricing_plan_id":"cebpf4jnsgd1na2vs0mg"},{"bike_id":"8cf76621-2d40-47fc-ac6c-6c82bc033a4e","system_id":"levelo_inurba_marseille","lat":43.27203,"lon":5.39181,"is_reserved":false,"is_disabled":false,"rental_uris":{"android":"levelo://app?vid=8cf76621-2d40-47fc-ac6c-6c82bc033a4e","ios":"levelo://app?vid=8cf76621-2d40-47fc-ac6c-6c82bc033a4e"},"vehicle_type_id":"4","last_reported":1744740764,"current_range_meters":6800,"station_id":"ce4bhhp2rcd13ifvqfm0","pricing_plan_id":"cebpf4jnsgd1na2vs0mg"},{"bike_id":"45c77ecd-980e-4383-ab9a-31be7a98a675","system_id":"levelo_inurba_marseille","lat":43.24084,"lon":5.37752,"is_reserved":false,"is_disabled":false,"rental_uris":{"android":"levelo://app?vid=45c77ecd-980e-4383-ab9a-31be7a98a675","ios":"levelo://app?vid=45c77ecd-980e-4383-ab9a-31be7a98a675"},"vehicle_type_id":"4","last_reported":1744740764,"current_range_meters":6800,"station_id":"ce4bhnp2rcd13ifvqgvg","pricing_plan_id":"cebpf4jnsgd1na2vs0mg"},{"bike_id":"f65a64e2-ac2a-4bc4-bbef-6537ff67cb48","system_id":"levelo_inurba_marseille","lat":43.25749,"lon":5.41861,"is_reserved":false,"is_disabled":false,"rental_uris":{"android":"levelo://app?vid=f65a64e2-ac2a-4bc4-bbef-6537ff67cb48","ios":"levelo://app?vid=f65a64e2-ac2a-4bc4-bbef-6537ff67cb48"},"vehicle_type_id":"4","last_reported":1744740764,"current_range_meters":6800,"station_id":"","pricing_plan_id":"cebpf4jnsgd1na2vs0mg"},{"bike_id":"d64aa8f0-0884-41cf-84e6-ae25f8a6ae2a","system_id":"levelo_inurba_marseille","lat":43.28583,"lon":5.37777,"is_reserved":false,"is_disabled":false,"rental_uris":{"android":"levelo://app?vid=d64aa8f0-0884-41cf-84e6-ae25f8a6ae2a","ios":"levelo://app?vid=d64aa8f0-0884-41cf-84e6-ae25f8a6ae2a"},"vehicle_type_id":"4","last_reported":1744740764,"current_range_meters":6800,"station_id":"","pricing_plan_id":"cebpf4jnsgd1na2vs0mg"},{"bike_id":"ccce85bb-bd73-4e17-9f75-003d37b46ed8","system_id":"levelo_inurba_marseille","lat":43.293,"lon":5.37637,"is_reserved":false,"is_disabled":false,"rental_uris":{"android":"levelo://app?vid=ccce85bb-bd73-4e17-9f75-003d37b46ed8","ios":"levelo://app?vid=ccce85bb-bd73-4e17-9f75-003d37b46ed8"},"vehicle_type_id":"4","last_reported":1744740764,"current_range_meters":7200,"station_id":"ce4bgi12rcd13ifvqb80","pricing_plan_id":"cebpf4jnsgd1na2vs0mg"},{"bike_id":"4e6524b6-5132-41d3-a759-888a060ccf51","system_id":"levelo_inurba_marseille","lat":43.30057,"lon":5.36493,"is_reserved":false,"is_disabled":false,"rental_uris":{"android":"levelo://app?vid=4e6524b6-5132-41d3-a759-888a060ccf51","ios":"levelo://app?vid=4e6524b6-5132-41d3-a759-888a060ccf51"},"vehicle_type_id":"4","last_reported":1744740764,"current_range_meters":7200,"station_id":"","pricing_plan_id":"cebpf4jnsgd1na2vs0mg"},{"bike_id":"239549f6-9c4f-4890-a337-edcdd9e5a15b","system_id":"levelo_inurba_marseille","lat":43.303,"lon":5.39231,"is_reserved":false,"is_disabled":false,"rental_uris":{"android":"levelo://app?vid=239549f6-9c4f-4890-a337-edcdd9e5a15b","ios":"levelo://app?vid=239549f6-9c4f-4890-a337-edcdd9e5a15b"},"vehicle_type_id":"4","last_reported":1744740764,"current_range_meters":7200,"station_id":"ce4bgkh2rcd13ifvqbk0","pricing_plan_id":"cebpf4jnsgd1na2vs0mg"},{"bike_id":"2f93173f-d02c-4e29-ab59-1fff882697d7","system_id":"levelo_inurba_marseille","lat":43.240576,"lon":5.37778,"is_reserved":false,"is_disabled":false,"rental_uris":{"android":"levelo://app?vid=2f93173f-d02c-4e29-ab59-1fff882697d7","ios":"levelo://app?vid=2f93173f-d02c-4e29-ab59-1fff882697d7"},"vehicle_type_id":"4","last_reported":1744740764,"current_range_meters":7200,"station_id":"ce4bhnp2rcd13ifvqgvg","pricing_plan_id":"cebpf4jnsgd1na2vs0mg"},{"bike_id":"480673e9-e477-4f20-881d-00c936c9f6dd","system_id":"levelo_inurba_marseille","lat":43.29708,"lon":5.36619,"is_reserved":false,"is_disabled":false,"rental_uris":{"android":"levelo://app?vid=480673e9-e477-4f20-881d-00c936c9f6dd","ios":"levelo://app?vid=480673e9-e477-4f20-881d-00c936c9f6dd"},"vehicle_type_id":"4","last_reported":1744740764,"current_range_meters":8000,"station_id":"ce4bgn12rcd13ifvqbt0","pricing_plan_id":"cebpf4jnsgd1na2vs0mg"},{"bike_id":"32f3addf-456d-4f32-9a2f-1c94022c6d66","system_id":"levelo_inurba_marseille","lat":43.29788,"lon":5.39358,"is_reserved":false,"is_disabled":false,"rental_uris":{"android":"levelo://app?vid=32f3addf-456d-4f32-9a2f-1c94022c6d66","ios":"levelo://app?vid=32f3addf-456d-4f32-9a2f-1c94022c6d66"},"vehicle_type_id":"4","last_reported":1744740764,"current_range_meters":8000,"station_id":"ce4bguh2rcd13ifvqckg","pricing_plan_id":"cebpf4jnsgd1na2vs0mg"},{"bike_id":"41750e9f-cbdf-4dc7-865c-1ae85cc56283","system_id":"levelo_inurba_marseille","lat":43.24077,"lon":5.37761,"is_reserved":false,"is_disabled":false,"rental_uris":{"android":"levelo://app?vid=41750e9f-cbdf-4dc7-865c-1ae85cc56283","ios":"levelo://app?vid=41750e9f-cbdf-4dc7-865c-1ae85cc56283"},"vehicle_type_id":"4","last_reported":1744740764,"current_range_meters":8000,"station_id":"ce4bhnp2rcd13ifvqgvg","pricing_plan_id":"cebpf4jnsgd1na2vs0mg"},{"bike_id":"ad4f0053-cdc4-4b5c-b1fa-51d4ed7339eb","system_id":"levelo_inurba_marseille","lat":43.28708,"lon":5.38691,"is_reserved":false,"is_disabled":false,"rental_uris":{"android":"levelo://app?vid=ad4f0053-cdc4-4b5c-b1fa-51d4ed7339eb","ios":"levelo://app?vid=ad4f0053-cdc4-4b5c-b1fa-51d4ed7339eb"},"vehicle_type_id":"4","last_reported":1744740764,"current_range_meters":8400,"station_id":"","pricing_plan_id":"cebpf4jnsgd1na2vs0mg"},{"bike_id":"a6407235-dcbd-46c9-bba9-aad64bf6f438","system_id":"levelo_inurba_marseille","lat":43.2668,"lon":5.38276,"is_reserved":false,"is_disabled":false,"rental_uris":{"android":"levelo://app?vid=a6407235-dcbd-46c9-bba9-aad64bf6f438","ios":"levelo://app?vid=a6407235-dcbd-46c9-bba9-aad64bf6f438"},"vehicle_type_id":"4","last_reported":1744740764,"current_range_meters":8400,"station_id":"ce4bhg92rcd13ifvqf90","pricing_plan_id":"cebpf4jnsgd1na2vs0mg"},{"bike_id":"6e842937-04d8-41fb-ab13-0e4c6be6f317","system_id":"levelo_inurba_marseille","lat":43.28723,"lon":5.37936,"is_reserved":false,"is_disabled":false,"rental_uris":{"android":"levelo://app?vid=6e842937-04d8-41fb-ab13-0e4c6be6f317","ios":"levelo://app?vid=6e842937-04d8-41fb-ab13-0e4c6be6f317"},"vehicle_type_id":"4","last_reported":1744740764,"current_range_meters":8400,"station_id":"ce4bh9p2rcd13ifvqec0","pricing_plan_id":"cebpf4jnsgd1na2vs0mg"},{"bike_id":"ebd95dc8-e4ad-495a-b7d9-f38e085aae10","system_id":"levelo_inurba_marseille","lat":43.27369,"lon":5.36267,"is_reserved":false,"is_disabled":false,"rental_uris":{"android":"levelo://app?vid=ebd95dc8-e4ad-495a-b7d9-f38e085aae10","ios":"levelo://app?vid=ebd95dc8-e4ad-495a-b7d9-f38e085aae10"},"vehicle_type_id":"4","last_reported":1744740764,"current_range_meters":8400,"station_id":"ce4bhbh2rcd13ifvqeo0","pricing_plan_id":"cebpf4jnsgd1na2vs0mg"},{"bike_id":"a668abbc-a092-49f5-9124-b0b71b0d2e46","system_id":"levelo_inurba_marseille","lat":43.22935,"lon":5.35402,"is_reserved":false,"is_disabled":false,"rental_uris":{"android":"levelo://app?vid=a668abbc-a092-49f5-9124-b0b71b0d2e46","ios":"levelo://app?vid=a668abbc-a092-49f5-9124-b0b71b0d2e46"},"vehicle_type_id":"4","last_reported":1744740764,"current_range_meters":8400,"station_id":"cpo3532slgdg3j2ikp40","pricing_plan_id":"cebpf4jnsgd1na2vs0mg"},{"bike_id":"feda5540-db56-4516-910d-d10c14453b66","system_id":"levelo_inurba_marseille","lat":43.31486,"lon":5.37311,"is_reserved":false,"is_disabled":false,"rental_uris":{"android":"levelo://app?vid=feda5540-db56-4516-910d-d10c14453b66","ios":"levelo://app?vid=feda5540-db56-4516-910d-d10c14453b66"},"vehicle_type_id":"4","last_reported":1744740764,"current_range_meters":8800,"station_id":"ce4bgt12rcd13ifvqcd0","pricing_plan_id":"cebpf4jnsgd1na2vs0mg"},{"bike_id":"427689a9-0cd4-4119-82a4-9e9bd7ecd185","system_id":"levelo_inurba_marseille","lat":43.28621,"lon":5.37061,"is_reserved":false,"is_disabled":false,"rental_uris":{"android":"levelo://app?vid=427689a9-0cd4-4119-82a4-9e9bd7ecd185","ios":"levelo://app?vid=427689a9-0cd4-4119-82a4-9e9bd7ecd185"},"vehicle_type_id":"4","last_reported":1744740764,"current_range_meters":8800,"station_id":"ce4bht12rcd13ifvqi60","pricing_plan_id":"cebpf4jnsgd1na2vs0mg"},{"bike_id":"9f371053-2155-4e6c-8c7b-063d60570242","system_id":"levelo_inurba_marseille","lat":43.27928,"lon":5.41057,"is_reserved":false,"is_disabled":false,"rental_uris":{"android":"levelo://app?vid=9f371053-2155-4e6c-8c7b-063d60570242","ios":"levelo://app?vid=9f371053-2155-4e6c-8c7b-063d60570242"},"vehicle_type_id":"4","last_reported":1744740764,"current_range_meters":8800,"station_id":"ce4bhnp2rcd13ifvqh0g","pricing_plan_id":"cebpf4jnsgd1na2vs0mg"},{"bike_id":"b1003ec9-49a0-414a-86b1-047f0038ac49","system_id":"levelo_inurba_marseille","lat":43.28945,"lon":5.36413,"is_reserved":false,"is_disabled":false,"rental_uris":{"android":"levelo://app?vid=b1003ec9-49a0-414a-86b1-047f0038ac49","ios":"levelo://app?vid=b1003ec9-49a0-414a-86b1-047f0038ac49"},"vehicle_type_id":"4","last_reported":1744740764,"current_range_meters":8800,"station_id":"ce4bhc92rcd13ifvqetg","pricing_plan_id":"cebpf4jnsgd1na2vs0mg"},{"bike_id":"1395488a-de73-4c0c-99f8-ead07ddbb67d","system_id":"levelo_inurba_marseille","lat":43.23998,"lon":5.36692,"is_reserved":false,"is_disabled":false,"rental_uris":{"android":"levelo://app?vid=1395488a-de73-4c0c-99f8-ead07ddbb67d","ios":"levelo://app?vid=1395488a-de73-4c0c-99f8-ead07ddbb67d"},"vehicle_type_id":"4","last_reported":1744740764,"current_range_meters":8800,"station_id":"","pricing_plan_id":"cebpf4jnsgd1na2vs0mg"},{"bike_id":"d816d24f-b03b-4a56-b7a7-904f9ac71706","system_id":"levelo_inurba_marseille","lat":43.30101,"lon":5.39078,"is_reserved":false,"is_disabled":false,"rental_uris":{"android":"levelo://app?vid=d816d24f-b03b-4a56-b7a7-904f9ac71706","ios":"levelo://app?vid=d816d24f-b03b-4a56-b7a7-904f9ac71706"},"vehicle_type_id":"4","last_reported":1744740764,"current_range_meters":8800,"station_id":"ce4bh192rcd13ifvqdb0","pricing_plan_id":"cebpf4jnsgd1na2vs0mg"},{"bike_id":"1f7e7ee5-7f0d-4f14-885f-04a250a532e2","system_id":"levelo_inurba_marseille","lat":43.255487,"lon":5.40944,"is_reserved":false,"is_disabled":false,"rental_uris":{"android":"levelo://app?vid=1f7e7ee5-7f0d-4f14-885f-04a250a532e2","ios":"levelo://app?vid=1f7e7ee5-7f0d-4f14-885f-04a250a532e2"},"vehicle_type_id":"4","last_reported":1744740764,"current_range_meters":8800,"station_id":"ce4bhkp2rcd13ifvqgd0","pricing_plan_id":"cebpf4jnsgd1na2vs0mg"},{"bike_id":"846d658d-5837-4569-8efe-01bbc74a9af1","system_id":"levelo_inurba_marseille","lat":43.2792,"lon":5.41062,"is_reserved":false,"is_disabled":false,"rental_uris":{"android":"levelo://app?vid=846d658d-5837-4569-8efe-01bbc74a9af1","ios":"levelo://app?vid=846d658d-5837-4569-8efe-01bbc74a9af1"},"vehicle_type_id":"4","last_reported":1744740764,"current_range_meters":9200,"station_id":"ce4bhnp2rcd13ifvqh0g","pricing_plan_id":"cebpf4jnsgd1na2vs0mg"},{"bike_id":"2556b9f3-7001-432c-a925-f40dbeec38c9","system_id":"levelo_inurba_marseille","lat":43.30106,"lon":5.390918,"is_reserved":false,"is_disabled":false,"rental_uris":{"android":"levelo://app?vid=2556b9f3-7001-432c-a925-f40dbeec38c9","ios":"levelo://app?vid=2556b9f3-7001-432c-a925-f40dbeec38c9"},"vehicle_type_id":"4","last_reported":1744740764,"current_range_meters":9200,"station_id":"ce4bh192rcd13ifvqdb0","pricing_plan_id":"cebpf4jnsgd1na2vs0mg"},{"bike_id":"14f7da49-cbfd-44df-af97-b196b81b0a3c","system_id":"levelo_inurba_marseille","lat":43.2874,"lon":5.39997,"is_reserved":false,"is_disabled":false,"rental_uris":{"android":"levelo://app?vid=14f7da49-cbfd-44df-af97-b196b81b0a3c","ios":"levelo://app?vid=14f7da49-cbfd-44df-af97-b196b81b0a3c"},"vehicle_type_id":"4","last_reported":1744740764,"current_range_meters":9200,"station_id":"ce4bho92rcd13ifvqh3g","pricing_plan_id":"cebpf4jnsgd1na2vs0mg"},{"bike_id":"347598f2-7636-431d-aa2a-ee922a6e92de","system_id":"levelo_inurba_marseille","lat":43.28977,"lon":5.3644,"is_reserved":false,"is_disabled":false,"rental_uris":{"android":"levelo://app?vid=347598f2-7636-431d-aa2a-ee922a6e92de","ios":"levelo://app?vid=347598f2-7636-431d-aa2a-ee922a6e92de"},"vehicle_type_id":"4","last_reported":1744740764,"current_range_meters":9200,"station_id":"","pricing_plan_id":"cebpf4jnsgd1na2vs0mg"},{"bike_id":"f85818c8-7106-4f53-997c-669fd6ff6042","system_id":"levelo_inurba_marseille","lat":43.28963,"lon":5.364,"is_reserved":false,"is_disabled":false,"rental_uris":{"android":"levelo://app?vid=f85818c8-7106-4f53-997c-669fd6ff6042","ios":"levelo://app?vid=f85818c8-7106-4f53-997c-669fd6ff6042"},"vehicle_type_id":"4","last_reported":1744740764,"current_range_meters":9200,"station_id":"ce4bhc92rcd13ifvqetg","pricing_plan_id":"cebpf4jnsgd1na2vs0mg"},{"bike_id":"a0636e31-c89e-4ae1-aea4-880988d0da0e","system_id":"levelo_inurba_marseille","lat":43.2958,"lon":5.42275,"is_reserved":false,"is_disabled":false,"rental_uris":{"android":"levelo://app?vid=a0636e31-c89e-4ae1-aea4-880988d0da0e","ios":"levelo://app?vid=a0636e31-c89e-4ae1-aea4-880988d0da0e"},"vehicle_type_id":"4","last_reported":1744740764,"current_range_meters":9200,"station_id":"ce4bhph2rcd13ifvqhdg","pricing_plan_id":"cebpf4jnsgd1na2vs0mg"},{"bike_id":"d2135ca9-eb57-488f-91e8-da3ee4ef8156","system_id":"levelo_inurba_marseille","lat":43.24073,"lon":5.37764,"is_reserved":false,"is_disabled":false,"rental_uris":{"android":"levelo://app?vid=d2135ca9-eb57-488f-91e8-da3ee4ef8156","ios":"levelo://app?vid=d2135ca9-eb57-488f-91e8-da3ee4ef8156"},"vehicle_type_id":"4","last_reported":1744740764,"current_range_meters":9200,"station_id":"ce4bhnp2rcd13ifvqgvg","pricing_plan_id":"cebpf4jnsgd1na2vs0mg"},{"bike_id":"797dd5e2-da39-473a-b854-cceac2c9f546","system_id":"levelo_inurba_marseille","lat":43.28722,"lon":5.36087,"is_reserved":false,"is_disabled":false,"rental_uris":{"android":"levelo://app?vid=797dd5e2-da39-473a-b854-cceac2c9f546","ios":"levelo://app?vid=797dd5e2-da39-473a-b854-cceac2c9f546"},"vehicle_type_id":"4","last_reported":1744740764,"current_range_meters":9200,"station_id":"cki0cbj6b192h4jlfktg","pricing_plan_id":"cebpf4jnsgd1na2vs0mg"},{"bike_id":"c40145f8-30a8-42bf-bab7-4bdedf64e2fa","system_id":"levelo_inurba_marseille","lat":43.25121,"lon":5.40281,"is_reserved":false,"is_disabled":false,"rental_uris":{"android":"levelo://app?vid=c40145f8-30a8-42bf-bab7-4bdedf64e2fa","ios":"levelo://app?vid=c40145f8-30a8-42bf-bab7-4bdedf64e2fa"},"vehicle_type_id":"4","last_reported":1744740764,"current_range_meters":9200,"station_id":"ce4bhlh2rcd13ifvqgig","pricing_plan_id":"cebpf4jnsgd1na2vs0mg"},{"bike_id":"27a55245-8dd2-4f1a-af63-95a9d7b71690","system_id":"levelo_inurba_marseille","lat":43.31093,"lon":5.37862,"is_reserved":false,"is_disabled":false,"rental_uris":{"android":"levelo://app?vid=27a55245-8dd2-4f1a-af63-95a9d7b71690","ios":"levelo://app?vid=27a55245-8dd2-4f1a-af63-95a9d7b71690"},"vehicle_type_id":"4","last_reported":1744740764,"current_range_meters":9200,"station_id":"","pricing_plan_id":"cebpf4jnsgd1na2vs0mg"},{"bike_id":"8ad01582-139e-4521-af2b-dd4aedd66d09","system_id":"levelo_inurba_marseille","lat":43.2509,"lon":5.39506,"is_reserved":false,"is_disabled":false,"rental_uris":{"android":"levelo://app?vid=8ad01582-139e-4521-af2b-dd4aedd66d09","ios":"levelo://app?vid=8ad01582-139e-4521-af2b-dd4aedd66d09"},"vehicle_type_id":"4","last_reported":1744740764,"current_range_meters":9600,"station_id":"ce4bhm12rcd13ifvqgkg","pricing_plan_id":"cebpf4jnsgd1na2vs0mg"},{"bike_id":"82501cfc-4ca6-487d-9cd8-14474f702f7d","system_id":"levelo_inurba_marseille","lat":43.30318,"lon":5.40441,"is_reserved":false,"is_disabled":false,"rental_uris":{"android":"levelo://app?vid=82501cfc-4ca6-487d-9cd8-14474f702f7d","ios":"levelo://app?vid=82501cfc-4ca6-487d-9cd8-14474f702f7d"},"vehicle_type_id":"4","last_reported":1744740764,"current_range_meters":9600,"station_id":"ce4bh012rcd13ifvqd10","pricing_plan_id":"cebpf4jnsgd1na2vs0mg"},{"bike_id":"8c9323a4-884e-40ce-9c38-3aa09ef74228","system_id":"levelo_inurba_marseille","lat":43.31331,"lon":5.39697,"is_reserved":false,"is_disabled":false,"rental_uris":{"android":"levelo://app?vid=8c9323a4-884e-40ce-9c38-3aa09ef74228","ios":"levelo://app?vid=8c9323a4-884e-40ce-9c38-3aa09ef74228"},"vehicle_type_id":"4","last_reported":1744740764,"current_range_meters":9200,"station_id":"ce4bgvp2rcd13ifvqcu0","pricing_plan_id":"cebpf4jnsgd1na2vs0mg"},{"bike_id":"f14bce7a-b864-41f9-b089-fed11ce290ed","system_id":"levelo_inurba_marseille","lat":43.24082,"lon":5.37755,"is_reserved":false,"is_disabled":false,"rental_uris":{"android":"levelo://app?vid=f14bce7a-b864-41f9-b089-fed11ce290ed","ios":"levelo://app?vid=f14bce7a-b864-41f9-b089-fed11ce290ed"},"vehicle_type_id":"4","last_reported":1744740764,"current_range_meters":9600,"station_id":"ce4bhnp2rcd13ifvqgvg","pricing_plan_id":"cebpf4jnsgd1na2vs0mg"},{"bike_id":"67b8b104-236a-4394-b94f-861dcb2e1074","system_id":"levelo_inurba_marseille","lat":43.24389,"lon":5.37063,"is_reserved":false,"is_disabled":false,"rental_uris":{"android":"levelo://app?vid=67b8b104-236a-4394-b94f-861dcb2e1074","ios":"levelo://app?vid=67b8b104-236a-4394-b94f-861dcb2e1074"},"vehicle_type_id":"4","last_reported":1744740764,"current_range_meters":9600,"station_id":"ce4bhhh2rcd13ifvqfk0","pricing_plan_id":"cebpf4jnsgd1na2vs0mg"},{"bike_id":"e1103876-639d-4bb4-8300-d22110ae76d3","system_id":"levelo_inurba_marseille","lat":43.272867,"lon":5.41082,"is_reserved":false,"is_disabled":false,"rental_uris":{"android":"levelo://app?vid=e1103876-639d-4bb4-8300-d22110ae76d3","ios":"levelo://app?vid=e1103876-639d-4bb4-8300-d22110ae76d3"},"vehicle_type_id":"4","last_reported":1744740764,"current_range_meters":9600,"station_id":"","pricing_plan_id":"cebpf4jnsgd1na2vs0mg"},{"bike_id":"f90f75ca-ec0d-4f5c-b8d7-034af8e3aa17","system_id":"levelo_inurba_marseille","lat":43.287115,"lon":5.399935,"is_reserved":false,"is_disabled":false,"rental_uris":{"android":"levelo://app?vid=f90f75ca-ec0d-4f5c-b8d7-034af8e3aa17","ios":"levelo://app?vid=f90f75ca-ec0d-4f5c-b8d7-034af8e3aa17"},"vehicle_type_id":"4","last_reported":1744740764,"current_range_meters":9600,"station_id":"ce4bho92rcd13ifvqh3g","pricing_plan_id":"cebpf4jnsgd1na2vs0mg"},{"bike_id":"4ca1fc76-01c8-4686-94a5-a46dd951837f","system_id":"levelo_inurba_marseille","lat":43.27826,"lon":5.40688,"is_reserved":false,"is_disabled":false,"rental_uris":{"android":"levelo://app?vid=4ca1fc76-01c8-4686-94a5-a46dd951837f","ios":"levelo://app?vid=4ca1fc76-01c8-4686-94a5-a46dd951837f"},"vehicle_type_id":"4","last_reported":1744740764,"current_range_meters":9600,"station_id":"ce4bhnh2rcd13ifvqgtg","pricing_plan_id":"cebpf4jnsgd1na2vs0mg"},{"bike_id":"8f041424-de2c-4565-9c1b-fc0a9464ff2d","system_id":"levelo_inurba_marseille","lat":43.28154,"lon":5.42644,"is_reserved":false,"is_disabled":false,"rental_uris":{"android":"levelo://app?vid=8f041424-de2c-4565-9c1b-fc0a9464ff2d","ios":"levelo://app?vid=8f041424-de2c-4565-9c1b-fc0a9464ff2d"},"vehicle_type_id":"4","last_reported":1744740764,"current_range_meters":9200,"station_id":"ce4bhnh2rcd13ifvqgug","pricing_plan_id":"cebpf4jnsgd1na2vs0mg"},{"bike_id":"45152fd8-c07c-4d52-b7a7-6670add35e00","system_id":"levelo_inurba_marseille","lat":43.26125,"lon":5.42069,"is_reserved":false,"is_disabled":false,"rental_uris":{"android":"levelo://app?vid=45152fd8-c07c-4d52-b7a7-6670add35e00","ios":"levelo://app?vid=45152fd8-c07c-4d52-b7a7-6670add35e00"},"vehicle_type_id":"4","last_reported":1744740764,"current_range_meters":9600,"station_id":"","pricing_plan_id":"cebpf4jnsgd1na2vs0mg"},{"bike_id":"05bbbfd8-a26d-4559-a62b-32349ce6bc57","system_id":"levelo_inurba_marseille","lat":43.29711,"lon":5.36628,"is_reserved":false,"is_disabled":false,"rental_uris":{"android":"levelo://app?vid=05bbbfd8-a26d-4559-a62b-32349ce6bc57","ios":"levelo://app?vid=05bbbfd8-a26d-4559-a62b-32349ce6bc57"},"vehicle_type_id":"4","last_reported":1744740764,"current_range_meters":9600,"station_id":"ce4bgn12rcd13ifvqbt0","pricing_plan_id":"cebpf4jnsgd1na2vs0mg"},{"bike_id":"b7ab99ba-94bb-4274-aca7-e6131d0e5ab1","system_id":"levelo_inurba_marseille","lat":43.24173,"lon":5.36419,"is_reserved":false,"is_disabled":false,"rental_uris":{"android":"levelo://app?vid=b7ab99ba-94bb-4274-aca7-e6131d0e5ab1","ios":"levelo://app?vid=b7ab99ba-94bb-4274-aca7-e6131d0e5ab1"},"vehicle_type_id":"4","last_reported":1744740764,"current_range_meters":10000,"station_id":"cpo36qri1sfpv3e86is0","pricing_plan_id":"cebpf4jnsgd1na2vs0mg"},{"bike_id":"9f73844e-e148-4480-8314-31e605b5fddf","system_id":"levelo_inurba_marseille","lat":43.287295,"lon":5.352195,"is_reserved":false,"is_disabled":false,"rental_uris":{"android":"levelo://app?vid=9f73844e-e148-4480-8314-31e605b5fddf","ios":"levelo://app?vid=9f73844e-e148-4480-8314-31e605b5fddf"},"vehicle_type_id":"4","last_reported":1744740764,"current_range_meters":10000,"station_id":"ce4bhch2rcd13ifvqeug","pricing_plan_id":"cebpf4jnsgd1na2vs0mg"},{"bike_id":"ecc26774-7f80-4834-883f-3a8990a5fcbe","system_id":"levelo_inurba_marseille","lat":43.2394,"lon":5.36617,"is_reserved":false,"is_disabled":false,"rental_uris":{"android":"levelo://app?vid=ecc26774-7f80-4834-883f-3a8990a5fcbe","ios":"levelo://app?vid=ecc26774-7f80-4834-883f-3a8990a5fcbe"},"vehicle_type_id":"4","last_reported":1744740764,"current_range_meters":10000,"station_id":"ce4bhi12rcd13ifvqfp0","pricing_plan_id":"cebpf4jnsgd1na2vs0mg"},{"bike_id":"27661f2c-408a-41ed-a40d-30432c3029c1","system_id":"levelo_inurba_marseille","lat":43.312288,"lon":5.36862,"is_reserved":false,"is_disabled":false,"rental_uris":{"android":"levelo://app?vid=27661f2c-408a-41ed-a40d-30432c3029c1","ios":"levelo://app?vid=27661f2c-408a-41ed-a40d-30432c3029c1"},"vehicle_type_id":"4","last_reported":1744740764,"current_range_meters":10000,"station_id":"ce4bgl92rcd13ifvqbq0","pricing_plan_id":"cebpf4jnsgd1na2vs0mg"},{"bike_id":"0315488a-ccbe-4287-82d0-bcd151af324b","system_id":"levelo_inurba_marseille","lat":43.303023,"lon":5.400914,"is_reserved":false,"is_disabled":false,"rental_uris":{"android":"levelo://app?vid=0315488a-ccbe-4287-82d0-bcd151af324b","ios":"levelo://app?vid=0315488a-ccbe-4287-82d0-bcd151af324b"},"vehicle_type_id":"4","last_reported":1744740764,"current_range_meters":10000,"station_id":"ce4bgvp2rcd13ifvqcu0","pricing_plan_id":"cebpf4jnsgd1na2vs0mg"},{"bike_id":"4a2fdfe9-5135-4bdb-800a-463a15252b7b","system_id":"levelo_inurba_marseille","lat":43.28152,"lon":5.4264,"is_reserved":false,"is_disabled":false,"rental_uris":{"android":"levelo://app?vid=4a2fdfe9-5135-4bdb-800a-463a15252b7b","ios":"levelo://app?vid=4a2fdfe9-5135-4bdb-800a-463a15252b7b"},"vehicle_type_id":"4","last_reported":1744740764,"current_range_meters":10000,"station_id":"ce4bhnh2rcd13ifvqgug","pricing_plan_id":"cebpf4jnsgd1na2vs0mg"},{"bike_id":"a8248305-bf11-4a59-a3ae-31fdbfe7540f","system_id":"levelo_inurba_marseille","lat":43.29459,"lon":5.39623,"is_reserved":false,"is_disabled":false,"rental_uris":{"android":"levelo://app?vid=a8248305-bf11-4a59-a3ae-31fdbfe7540f","ios":"levelo://app?vid=a8248305-bf11-4a59-a3ae-31fdbfe7540f"},"vehicle_type_id":"4","last_reported":1744740764,"current_range_meters":10000,"station_id":"","pricing_plan_id":"cebpf4jnsgd1na2vs0mg"},{"bike_id":"6086be1f-2f41-4b8c-9ce9-011bcea915da","system_id":"levelo_inurba_marseille","lat":43.31322,"lon":5.37339,"is_reserved":false,"is_disabled":false,"rental_uris":{"android":"levelo://app?vid=6086be1f-2f41-4b8c-9ce9-011bcea915da","ios":"levelo://app?vid=6086be1f-2f41-4b8c-9ce9-011bcea915da"},"vehicle_type_id":"4","last_reported":1744740764,"current_range_meters":10000,"station_id":"","pricing_plan_id":"cebpf4jnsgd1na2vs0mg"},{"bike_id":"d2dc90ce-2299-4de3-95fd-2abf7e4d1692","system_id":"levelo_inurba_marseille","lat":43.29221,"lon":5.36066,"is_reserved":false,"is_disabled":false,"rental_uris":{"android":"levelo://app?vid=d2dc90ce-2299-4de3-95fd-2abf7e4d1692","ios":"levelo://app?vid=d2dc90ce-2299-4de3-95fd-2abf7e4d1692"},"vehicle_type_id":"4","last_reported":1744740764,"current_range_meters":10800,"station_id":"ce4bhbh2rcd13ifvqeqg","pricing_plan_id":"cebpf4jnsgd1na2vs0mg"},{"bike_id":"53798433-dab2-4d2c-98e4-f9e24e8ea9a5","system_id":"levelo_inurba_marseille","lat":43.29001,"lon":5.35608,"is_reserved":false,"is_disabled":false,"rental_uris":{"android":"levelo://app?vid=53798433-dab2-4d2c-98e4-f9e24e8ea9a5","ios":"levelo://app?vid=53798433-dab2-4d2c-98e4-f9e24e8ea9a5"},"vehicle_type_id":"4","last_reported":1744740764,"current_range_meters":10800,"station_id":"ce4bhb92rcd13ifvqen0","pricing_plan_id":"cebpf4jnsgd1na2vs0mg"},{"bike_id":"a7e716ae-c7d8-43d7-bfa7-fabaafdfccd4","system_id":"levelo_inurba_marseille","lat":43.29031,"lon":5.3864,"is_reserved":false,"is_disabled":false,"rental_uris":{"android":"levelo://app?vid=a7e716ae-c7d8-43d7-bfa7-fabaafdfccd4","ios":"levelo://app?vid=a7e716ae-c7d8-43d7-bfa7-fabaafdfccd4"},"vehicle_type_id":"4","last_reported":1744740764,"current_range_meters":10800,"station_id":"ce4bh4p2rcd13ifvqe0g","pricing_plan_id":"cebpf4jnsgd1na2vs0mg"},{"bike_id":"28c4ed59-df29-4c19-a333-5bd6776c46ba","system_id":"levelo_inurba_marseille","lat":43.29238,"lon":5.40905,"is_reserved":false,"is_disabled":false,"rental_uris":{"android":"levelo://app?vid=28c4ed59-df29-4c19-a333-5bd6776c46ba","ios":"levelo://app?vid=28c4ed59-df29-4c19-a333-5bd6776c46ba"},"vehicle_type_id":"4","last_reported":1744740764,"current_range_meters":10800,"station_id":"ce4bh192rcd13ifvqdc0","pricing_plan_id":"cebpf4jnsgd1na2vs0mg"},{"bike_id":"cc019aaa-33a8-42d2-a2d4-ef26fcdd651f","system_id":"levelo_inurba_marseille","lat":43.30851,"lon":5.37315,"is_reserved":false,"is_disabled":false,"rental_uris":{"android":"levelo://app?vid=cc019aaa-33a8-42d2-a2d4-ef26fcdd651f","ios":"levelo://app?vid=cc019aaa-33a8-42d2-a2d4-ef26fcdd651f"},"vehicle_type_id":"4","last_reported":1744740764,"current_range_meters":10800,"station_id":"","pricing_plan_id":"cebpf4jnsgd1na2vs0mg"},{"bike_id":"b234a4d9-bf6b-4795-96e0-bf7aed1cb0ef","system_id":"levelo_inurba_marseille","lat":43.24392,"lon":5.37063,"is_reserved":false,"is_disabled":false,"rental_uris":{"android":"levelo://app?vid=b234a4d9-bf6b-4795-96e0-bf7aed1cb0ef","ios":"levelo://app?vid=b234a4d9-bf6b-4795-96e0-bf7aed1cb0ef"},"vehicle_type_id":"4","last_reported":1744740764,"current_range_meters":10800,"station_id":"ce4bhhh2rcd13ifvqfk0","pricing_plan_id":"cebpf4jnsgd1na2vs0mg"},{"bike_id":"37342bdf-d586-43ba-a25b-da22b3393da6","system_id":"levelo_inurba_marseille","lat":43.29053,"lon":5.3747,"is_reserved":false,"is_disabled":false,"rental_uris":{"android":"levelo://app?vid=37342bdf-d586-43ba-a25b-da22b3393da6","ios":"levelo://app?vid=37342bdf-d586-43ba-a25b-da22b3393da6"},"vehicle_type_id":"4","last_reported":1744740764,"current_range_meters":10800,"station_id":"","pricing_plan_id":"cebpf4jnsgd1na2vs0mg"},{"bike_id":"e0c2413e-4d9e-4a25-9696-9592adb480e4","system_id":"levelo_inurba_marseille","lat":43.29021,"lon":5.38626,"is_reserved":false,"is_disabled":false,"rental_uris":{"android":"levelo://app?vid=e0c2413e-4d9e-4a25-9696-9592adb480e4","ios":"levelo://app?vid=e0c2413e-4d9e-4a25-9696-9592adb480e4"},"vehicle_type_id":"4","last_reported":1744740764,"current_range_meters":10800,"station_id":"ce4bh4p2rcd13ifvqe0g","pricing_plan_id":"cebpf4jnsgd1na2vs0mg"},{"bike_id":"1f90bb2c-1a15-4146-8cda-ba3da8e592ea","system_id":"levelo_inurba_marseille","lat":43.29858,"lon":5.39736,"is_reserved":false,"is_disabled":false,"rental_uris":{"android":"levelo://app?vid=1f90bb2c-1a15-4146-8cda-ba3da8e592ea","ios":"levelo://app?vid=1f90bb2c-1a15-4146-8cda-ba3da8e592ea"},"vehicle_type_id":"4","last_reported":1744740764,"current_range_meters":10800,"station_id":"ce4bh0h2rcd13ifvqd50","pricing_plan_id":"cebpf4jnsgd1na2vs0mg"},{"bike_id":"288e7a5f-2cfb-4301-9dae-a03607404f51","system_id":"levelo_inurba_marseille","lat":43.33458,"lon":5.40101,"is_reserved":false,"is_disabled":false,"rental_uris":{"android":"levelo://app?vid=288e7a5f-2cfb-4301-9dae-a03607404f51","ios":"levelo://app?vid=288e7a5f-2cfb-4301-9dae-a03607404f51"},"vehicle_type_id":"4","last_reported":1744740764,"current_range_meters":11200,"station_id":"","pricing_plan_id":"cebpf4jnsgd1na2vs0mg"},{"bike_id":"b3f6acec-69a4-4dbd-8623-8770636f3ede","system_id":"levelo_inurba_marseille","lat":43.31278,"lon":5.40175,"is_reserved":false,"is_disabled":false,"rental_uris":{"android":"levelo://app?vid=b3f6acec-69a4-4dbd-8623-8770636f3ede","ios":"levelo://app?vid=b3f6acec-69a4-4dbd-8623-8770636f3ede"},"vehicle_type_id":"4","last_reported":1744740764,"current_range_meters":11200,"station_id":"ce4bh092rcd13ifvqd30","pricing_plan_id":"cebpf4jnsgd1na2vs0mg"},{"bike_id":"fb6569c4-0d7d-4013-a91d-dd4d719feff6","system_id":"levelo_inurba_marseille","lat":43.28419,"lon":5.3752,"is_reserved":false,"is_disabled":false,"rental_uris":{"android":"levelo://app?vid=fb6569c4-0d7d-4013-a91d-dd4d719feff6","ios":"levelo://app?vid=fb6569c4-0d7d-4013-a91d-dd4d719feff6"},"vehicle_type_id":"4","last_reported":1744740764,"current_range_meters":11200,"station_id":"ce4bh412rcd13ifvqds0","pricing_plan_id":"cebpf4jnsgd1na2vs0mg"},{"bike_id":"ef28e595-22b1-4e7c-8f9f-3d030b1f53eb","system_id":"levelo_inurba_marseille","lat":43.30184,"lon":5.37471,"is_reserved":false,"is_disabled":false,"rental_uris":{"android":"levelo://app?vid=ef28e595-22b1-4e7c-8f9f-3d030b1f53eb","ios":"levelo://app?vid=ef28e595-22b1-4e7c-8f9f-3d030b1f53eb"},"vehicle_type_id":"4","last_reported":1744740764,"current_range_meters":11200,"station_id":"","pricing_plan_id":"cebpf4jnsgd1na2vs0mg"},{"bike_id":"d3a0fbcc-8789-46e3-ad8a-8c877abb0794","system_id":"levelo_inurba_marseille","lat":43.298653,"lon":5.397353,"is_reserved":false,"is_disabled":false,"rental_uris":{"android":"levelo://app?vid=d3a0fbcc-8789-46e3-ad8a-8c877abb0794","ios":"levelo://app?vid=d3a0fbcc-8789-46e3-ad8a-8c877abb0794"},"vehicle_type_id":"4","last_reported":1744740764,"current_range_meters":11600,"station_id":"ce4bh0h2rcd13ifvqd50","pricing_plan_id":"cebpf4jnsgd1na2vs0mg"},{"bike_id":"bbef0193-d9eb-4946-84b2-e89f2933578e","system_id":"levelo_inurba_marseille","lat":43.287,"lon":5.39986,"is_reserved":false,"is_disabled":false,"rental_uris":{"android":"levelo://app?vid=bbef0193-d9eb-4946-84b2-e89f2933578e","ios":"levelo://app?vid=bbef0193-d9eb-4946-84b2-e89f2933578e"},"vehicle_type_id":"4","last_reported":1744740764,"current_range_meters":11200,"station_id":"ce4bho92rcd13ifvqh3g","pricing_plan_id":"cebpf4jnsgd1na2vs0mg"},{"bike_id":"7ca5fc71-e75b-49aa-87e6-6273562461c3","system_id":"levelo_inurba_marseille","lat":43.292517,"lon":5.38419,"is_reserved":false,"is_disabled":false,"rental_uris":{"android":"levelo://app?vid=7ca5fc71-e75b-49aa-87e6-6273562461c3","ios":"levelo://app?vid=7ca5fc71-e75b-49aa-87e6-6273562461c3"},"vehicle_type_id":"4","last_reported":1744740764,"current_range_meters":11600,"station_id":"ce4bh692rcd13ifvqea0","pricing_plan_id":"cebpf4jnsgd1na2vs0mg"},{"bike_id":"6dbfe3cf-dca5-4755-9ea8-e38e388c9cb5","system_id":"levelo_inurba_marseille","lat":43.29193,"lon":5.39325,"is_reserved":false,"is_disabled":false,"rental_uris":{"android":"levelo://app?vid=6dbfe3cf-dca5-4755-9ea8-e38e388c9cb5","ios":"levelo://app?vid=6dbfe3cf-dca5-4755-9ea8-e38e388c9cb5"},"vehicle_type_id":"4","last_reported":1744740764,"current_range_meters":11600,"station_id":"ce4bh192rcd13ifvqdd0","pricing_plan_id":"cebpf4jnsgd1na2vs0mg"},{"bike_id":"21254c35-fb37-4105-bb69-9e9731aa4bb0","system_id":"levelo_inurba_marseille","lat":43.29982,"lon":5.38492,"is_reserved":false,"is_disabled":false,"rental_uris":{"android":"levelo://app?vid=21254c35-fb37-4105-bb69-9e9731aa4bb0","ios":"levelo://app?vid=21254c35-fb37-4105-bb69-9e9731aa4bb0"},"vehicle_type_id":"4","last_reported":1744740764,"current_range_meters":11600,"station_id":"ce4bgj92rcd13ifvqbd0","pricing_plan_id":"cebpf4jnsgd1na2vs0mg"},{"bike_id":"ba85b89a-d406-4f09-b4a2-d1c9dbfe70d6","system_id":"levelo_inurba_marseille","lat":43.23214,"lon":5.39981,"is_reserved":false,"is_disabled":false,"rental_uris":{"android":"levelo://app?vid=ba85b89a-d406-4f09-b4a2-d1c9dbfe70d6","ios":"levelo://app?vid=ba85b89a-d406-4f09-b4a2-d1c9dbfe70d6"},"vehicle_type_id":"4","last_reported":1744740764,"current_range_meters":11200,"station_id":"ce4bhn12rcd13ifvqgqg","pricing_plan_id":"cebpf4jnsgd1na2vs0mg"},{"bike_id":"2927ac71-52fa-4dbb-9ac6-aff0138f8b82","system_id":"levelo_inurba_marseille","lat":43.29721,"lon":5.37723,"is_reserved":false,"is_disabled":false,"rental_uris":{"android":"levelo://app?vid=2927ac71-52fa-4dbb-9ac6-aff0138f8b82","ios":"levelo://app?vid=2927ac71-52fa-4dbb-9ac6-aff0138f8b82"},"vehicle_type_id":"4","last_reported":1744740764,"current_range_meters":12000,"station_id":"ce4bgkh2rcd13ifvqbl0","pricing_plan_id":"cebpf4jnsgd1na2vs0mg"},{"bike_id":"2ec1e437-5a23-4fcb-b9d7-0ae33e3d49ea","system_id":"levelo_inurba_marseille","lat":43.24077,"lon":5.37768,"is_reserved":false,"is_disabled":false,"rental_uris":{"android":"levelo://app?vid=2ec1e437-5a23-4fcb-b9d7-0ae33e3d49ea","ios":"levelo://app?vid=2ec1e437-5a23-4fcb-b9d7-0ae33e3d49ea"},"vehicle_type_id":"4","last_reported":1744740764,"current_range_meters":12000,"station_id":"ce4bhnp2rcd13ifvqgvg","pricing_plan_id":"cebpf4jnsgd1na2vs0mg"},{"bike_id":"9281dea2-95e1-482f-a239-c593818f44cb","system_id":"levelo_inurba_marseille","lat":43.301361,"lon":5.387767,"is_reserved":false,"is_disabled":false,"rental_uris":{"android":"levelo://app?vid=9281dea2-95e1-482f-a239-c593818f44cb","ios":"levelo://app?vid=9281dea2-95e1-482f-a239-c593818f44cb"},"vehicle_type_id":"4","last_reported":1744740764,"current_range_meters":11600,"station_id":"ce4bghh2rcd13ifvqb60","pricing_plan_id":"cebpf4jnsgd1na2vs0mg"},{"bike_id":"2797dcdb-c4e1-48b2-82d6-5677d371fa39","system_id":"levelo_inurba_marseille","lat":43.24177,"lon":5.36413,"is_reserved":false,"is_disabled":false,"rental_uris":{"android":"levelo://app?vid=2797dcdb-c4e1-48b2-82d6-5677d371fa39","ios":"levelo://app?vid=2797dcdb-c4e1-48b2-82d6-5677d371fa39"},"vehicle_type_id":"4","last_reported":1744740764,"current_range_meters":12000,"station_id":"cpo36qri1sfpv3e86is0","pricing_plan_id":"cebpf4jnsgd1na2vs0mg"},{"bike_id":"bcc84abd-4681-42e9-8ad7-d2a408954019","system_id":"levelo_inurba_marseille","lat":43.29533,"lon":5.38546,"is_reserved":false,"is_disabled":false,"rental_uris":{"android":"levelo://app?vid=bcc84abd-4681-42e9-8ad7-d2a408954019","ios":"levelo://app?vid=bcc84abd-4681-42e9-8ad7-d2a408954019"},"vehicle_type_id":"4","last_reported":1744740764,"current_range_meters":12000,"station_id":"ce4bgih2rcd13ifvqba0","pricing_plan_id":"cebpf4jnsgd1na2vs0mg"},{"bike_id":"d2d37f01-fa46-4fbc-a721-7789f4003663","system_id":"levelo_inurba_marseille","lat":43.24982,"lon":5.38985,"is_reserved":false,"is_disabled":false,"rental_uris":{"android":"levelo://app?vid=d2d37f01-fa46-4fbc-a721-7789f4003663","ios":"levelo://app?vid=d2d37f01-fa46-4fbc-a721-7789f4003663"},"vehicle_type_id":"4","last_reported":1744740764,"current_range_meters":12000,"station_id":"","pricing_plan_id":"cebpf4jnsgd1na2vs0mg"},{"bike_id":"a082c857-a21e-489d-87b8-1273eb718f85","system_id":"levelo_inurba_marseille","lat":43.28264,"lon":5.35069,"is_reserved":false,"is_disabled":false,"rental_uris":{"android":"levelo://app?vid=a082c857-a21e-489d-87b8-1273eb718f85","ios":"levelo://app?vid=a082c857-a21e-489d-87b8-1273eb718f85"},"vehicle_type_id":"4","last_reported":1744740764,"current_range_meters":12000,"station_id":"ce4bhbp2rcd13ifvqerg","pricing_plan_id":"cebpf4jnsgd1na2vs0mg"},{"bike_id":"075fcdf5-b249-40b2-bc7e-7ad517887fb8","system_id":"levelo_inurba_marseille","lat":43.27523,"lon":5.42455,"is_reserved":false,"is_disabled":false,"rental_uris":{"android":"levelo://app?vid=075fcdf5-b249-40b2-bc7e-7ad517887fb8","ios":"levelo://app?vid=075fcdf5-b249-40b2-bc7e-7ad517887fb8"},"vehicle_type_id":"4","last_reported":1744740764,"current_range_meters":12000,"station_id":"ce4bhn92rcd13ifvqgrg","pricing_plan_id":"cebpf4jnsgd1na2vs0mg"},{"bike_id":"68bb5c2f-fd19-492d-b0bb-5841e6724b4a","system_id":"levelo_inurba_marseille","lat":43.229281,"lon":5.353767,"is_reserved":false,"is_disabled":false,"rental_uris":{"android":"levelo://app?vid=68bb5c2f-fd19-492d-b0bb-5841e6724b4a","ios":"levelo://app?vid=68bb5c2f-fd19-492d-b0bb-5841e6724b4a"},"vehicle_type_id":"4","last_reported":1744740764,"current_range_meters":12400,"station_id":"","pricing_plan_id":"cebpf4jnsgd1na2vs0mg"},{"bike_id":"bdbfa91d-f51b-4c92-a880-1cae845c2a5c","system_id":"levelo_inurba_marseille","lat":43.22984,"lon":5.35429,"is_reserved":false,"is_disabled":false,"rental_uris":{"android":"levelo://app?vid=bdbfa91d-f51b-4c92-a880-1cae845c2a5c","ios":"levelo://app?vid=bdbfa91d-f51b-4c92-a880-1cae845c2a5c"},"vehicle_type_id":"4","last_reported":1744740764,"current_range_meters":12400,"station_id":"cpo3532slgdg3j2ikp40","pricing_plan_id":"cebpf4jnsgd1na2vs0mg"},{"bike_id":"1e194272-8195-49ad-b345-6c64b9637cbb","system_id":"levelo_inurba_marseille","lat":43.29031,"lon":5.3865,"is_reserved":false,"is_disabled":false,"rental_uris":{"android":"levelo://app?vid=1e194272-8195-49ad-b345-6c64b9637cbb","ios":"levelo://app?vid=1e194272-8195-49ad-b345-6c64b9637cbb"},"vehicle_type_id":"4","last_reported":1744740764,"current_range_meters":12400,"station_id":"ce4bh4p2rcd13ifvqe0g","pricing_plan_id":"cebpf4jnsgd1na2vs0mg"},{"bike_id":"70c4fd6a-0dc2-48ae-b196-83f794dc653c","system_id":"levelo_inurba_marseille","lat":43.29552,"lon":5.42288,"is_reserved":false,"is_disabled":false,"rental_uris":{"android":"levelo://app?vid=70c4fd6a-0dc2-48ae-b196-83f794dc653c","ios":"levelo://app?vid=70c4fd6a-0dc2-48ae-b196-83f794dc653c"},"vehicle_type_id":"4","last_reported":1744740764,"current_range_meters":12400,"station_id":"ce4bhph2rcd13ifvqhdg","pricing_plan_id":"cebpf4jnsgd1na2vs0mg"},{"bike_id":"208fbb31-d6b1-4921-8e09-562a13d436cb","system_id":"levelo_inurba_marseille","lat":43.29044,"lon":5.38628,"is_reserved":false,"is_disabled":false,"rental_uris":{"android":"levelo://app?vid=208fbb31-d6b1-4921-8e09-562a13d436cb","ios":"levelo://app?vid=208fbb31-d6b1-4921-8e09-562a13d436cb"},"vehicle_type_id":"4","last_reported":1744740764,"current_range_meters":12400,"station_id":"ce4bh4p2rcd13ifvqe0g","pricing_plan_id":"cebpf4jnsgd1na2vs0mg"},{"bike_id":"03c8cee0-a6a5-48f4-b783-f14451736b24","system_id":"levelo_inurba_marseille","lat":43.27179,"lon":5.40992,"is_reserved":false,"is_disabled":false,"rental_uris":{"android":"levelo://app?vid=03c8cee0-a6a5-48f4-b783-f14451736b24","ios":"levelo://app?vid=03c8cee0-a6a5-48f4-b783-f14451736b24"},"vehicle_type_id":"4","last_reported":1744740764,"current_range_meters":12400,"station_id":"ce4bhl12rcd13ifvqgf0","pricing_plan_id":"cebpf4jnsgd1na2vs0mg"},{"bike_id":"46f05e37-0a58-4096-884f-03718f1c0895","system_id":"levelo_inurba_marseille","lat":43.31367,"lon":5.38489,"is_reserved":false,"is_disabled":false,"rental_uris":{"android":"levelo://app?vid=46f05e37-0a58-4096-884f-03718f1c0895","ios":"levelo://app?vid=46f05e37-0a58-4096-884f-03718f1c0895"},"vehicle_type_id":"4","last_reported":1744740764,"current_range_meters":12000,"station_id":"ce4bgt92rcd13ifvqcf0","pricing_plan_id":"cebpf4jnsgd1na2vs0mg"},{"bike_id":"57086b73-59bd-4c71-a95b-7bbf7501cca8","system_id":"levelo_inurba_marseille","lat":43.29009,"lon":5.3562,"is_reserved":false,"is_disabled":false,"rental_uris":{"android":"levelo://app?vid=57086b73-59bd-4c71-a95b-7bbf7501cca8","ios":"levelo://app?vid=57086b73-59bd-4c71-a95b-7bbf7501cca8"},"vehicle_type_id":"4","last_reported":1744740764,"current_range_meters":12400,"station_id":"ce4bhb92rcd13ifvqen0","pricing_plan_id":"cebpf4jnsgd1na2vs0mg"},{"bike_id":"dd327894-701e-482d-8623-27ce55416777","system_id":"levelo_inurba_marseille","lat":43.262,"lon":5.37933,"is_reserved":false,"is_disabled":false,"rental_uris":{"android":"levelo://app?vid=dd327894-701e-482d-8623-27ce55416777","ios":"levelo://app?vid=dd327894-701e-482d-8623-27ce55416777"},"vehicle_type_id":"4","last_reported":1744740764,"current_range_meters":12400,"station_id":"ce4bhjp2rcd13ifvqg90","pricing_plan_id":"cebpf4jnsgd1na2vs0mg"},{"bike_id":"3e18606b-b95d-4508-ab48-2aa7d341cd70","system_id":"levelo_inurba_marseille","lat":43.30433,"lon":5.38903,"is_reserved":false,"is_disabled":false,"rental_uris":{"android":"levelo://app?vid=3e18606b-b95d-4508-ab48-2aa7d341cd70","ios":"levelo://app?vid=3e18606b-b95d-4508-ab48-2aa7d341cd70"},"vehicle_type_id":"4","last_reported":1744740764,"current_range_meters":12800,"station_id":"ce4bgk12rcd13ifvqbi0","pricing_plan_id":"cebpf4jnsgd1na2vs0mg"},{"bike_id":"c9a6392a-e49d-428a-8856-f8c8146ab2c8","system_id":"levelo_inurba_marseille","lat":43.298859,"lon":5.369258,"is_reserved":false,"is_disabled":false,"rental_uris":{"android":"levelo://app?vid=c9a6392a-e49d-428a-8856-f8c8146ab2c8","ios":"levelo://app?vid=c9a6392a-e49d-428a-8856-f8c8146ab2c8"},"vehicle_type_id":"4","last_reported":1744740764,"current_range_meters":12800,"station_id":"ce4bh2h2rcd13ifvqdh0","pricing_plan_id":"cebpf4jnsgd1na2vs0mg"},{"bike_id":"ac93b782-2c24-4c21-8bf5-8e2a67f7cc1b","system_id":"levelo_inurba_marseille","lat":43.2755,"lon":5.3844,"is_reserved":false,"is_disabled":false,"rental_uris":{"android":"levelo://app?vid=ac93b782-2c24-4c21-8bf5-8e2a67f7cc1b","ios":"levelo://app?vid=ac93b782-2c24-4c21-8bf5-8e2a67f7cc1b"},"vehicle_type_id":"4","last_reported":1744740764,"current_range_meters":12800,"station_id":"ce4bhh92rcd13ifvqfi0","pricing_plan_id":"cebpf4jnsgd1na2vs0mg"},{"bike_id":"203127d8-d39b-41e3-8095-89b4d3f8f743","system_id":"levelo_inurba_marseille","lat":43.28467,"lon":5.3589,"is_reserved":false,"is_disabled":false,"rental_uris":{"android":"levelo://app?vid=203127d8-d39b-41e3-8095-89b4d3f8f743","ios":"levelo://app?vid=203127d8-d39b-41e3-8095-89b4d3f8f743"},"vehicle_type_id":"4","last_reported":1744740764,"current_range_meters":12800,"station_id":"ce4bhah2rcd13ifvqei0","pricing_plan_id":"cebpf4jnsgd1na2vs0mg"},{"bike_id":"42e82615-2540-42aa-ad0b-590718c410dc","system_id":"levelo_inurba_marseille","lat":43.29532,"lon":5.38555,"is_reserved":false,"is_disabled":false,"rental_uris":{"android":"levelo://app?vid=42e82615-2540-42aa-ad0b-590718c410dc","ios":"levelo://app?vid=42e82615-2540-42aa-ad0b-590718c410dc"},"vehicle_type_id":"4","last_reported":1744740764,"current_range_meters":13600,"station_id":"ce4bgih2rcd13ifvqba0","pricing_plan_id":"cebpf4jnsgd1na2vs0mg"},{"bike_id":"22273e6d-4c40-40c1-8b56-b54805a3c0ed","system_id":"levelo_inurba_marseille","lat":43.29264,"lon":5.38445,"is_reserved":false,"is_disabled":false,"rental_uris":{"android":"levelo://app?vid=22273e6d-4c40-40c1-8b56-b54805a3c0ed","ios":"levelo://app?vid=22273e6d-4c40-40c1-8b56-b54805a3c0ed"},"vehicle_type_id":"4","last_reported":1744740764,"current_range_meters":14000,"station_id":"ce4bh692rcd13ifvqea0","pricing_plan_id":"cebpf4jnsgd1na2vs0mg"},{"bike_id":"a8132d22-4ce6-4e24-9e2c-e02042e4181b","system_id":"levelo_inurba_marseille","lat":43.21772,"lon":5.34601,"is_reserved":false,"is_disabled":false,"rental_uris":{"android":"levelo://app?vid=a8132d22-4ce6-4e24-9e2c-e02042e4181b","ios":"levelo://app?vid=a8132d22-4ce6-4e24-9e2c-e02042e4181b"},"vehicle_type_id":"4","last_reported":1744740764,"current_range_meters":14000,"station_id":"st_cvj6r9ubvosntc0bgbag","pricing_plan_id":"cebpf4jnsgd1na2vs0mg"},{"bike_id":"510d35a7-8e9e-4909-ae53-96406db4d8df","system_id":"levelo_inurba_marseille","lat":43.31517,"lon":5.38059,"is_reserved":false,"is_disabled":false,"rental_uris":{"android":"levelo://app?vid=510d35a7-8e9e-4909-ae53-96406db4d8df","ios":"levelo://app?vid=510d35a7-8e9e-4909-ae53-96406db4d8df"},"vehicle_type_id":"4","last_reported":1744740764,"current_range_meters":13600,"station_id":"ce4bhsp2rcd13ifvqi50","pricing_plan_id":"cebpf4jnsgd1na2vs0mg"},{"bike_id":"7d882e4a-2af1-46fa-ad75-dfed51691191","system_id":"levelo_inurba_marseille","lat":43.26565,"lon":5.39014,"is_reserved":false,"is_disabled":false,"rental_uris":{"android":"levelo://app?vid=7d882e4a-2af1-46fa-ad75-dfed51691191","ios":"levelo://app?vid=7d882e4a-2af1-46fa-ad75-dfed51691191"},"vehicle_type_id":"4","last_reported":1744740764,"current_range_meters":14000,"station_id":"ce4bhe12rcd13ifvqf30","pricing_plan_id":"cebpf4jnsgd1na2vs0mg"},{"bike_id":"90a27645-a5f6-487a-a1a8-67ca08ff4b5c","system_id":"levelo_inurba_marseille","lat":43.24404,"lon":5.37055,"is_reserved":false,"is_disabled":false,"rental_uris":{"android":"levelo://app?vid=90a27645-a5f6-487a-a1a8-67ca08ff4b5c","ios":"levelo://app?vid=90a27645-a5f6-487a-a1a8-67ca08ff4b5c"},"vehicle_type_id":"4","last_reported":1744740764,"current_range_meters":14000,"station_id":"ce4bhhh2rcd13ifvqfk0","pricing_plan_id":"cebpf4jnsgd1na2vs0mg"},{"bike_id":"b32b76a7-565f-47d8-9b16-c22d8d52da8b","system_id":"levelo_inurba_marseille","lat":43.28174,"lon":5.42604,"is_reserved":false,"is_disabled":false,"rental_uris":{"android":"levelo://app?vid=b32b76a7-565f-47d8-9b16-c22d8d52da8b","ios":"levelo://app?vid=b32b76a7-565f-47d8-9b16-c22d8d52da8b"},"vehicle_type_id":"4","last_reported":1744740764,"current_range_meters":14400,"station_id":"ce4bhnh2rcd13ifvqgug","pricing_plan_id":"cebpf4jnsgd1na2vs0mg"},{"bike_id":"31ec0d9b-2863-4f99-981c-cc4e7c4c68bd","system_id":"levelo_inurba_marseille","lat":43.29263,"lon":5.38439,"is_reserved":false,"is_disabled":true,"rental_uris":{"android":"levelo://app?vid=31ec0d9b-2863-4f99-981c-cc4e7c4c68bd","ios":"levelo://app?vid=31ec0d9b-2863-4f99-981c-cc4e7c4c68bd"},"vehicle_type_id":"4","last_reported":1744740764,"current_range_meters":14400,"station_id":"ce4bh692rcd13ifvqea0","pricing_plan_id":"cebpf4jnsgd1na2vs0mg"},{"bike_id":"45c6b552-68fd-454d-84d3-cf79221aaee4","system_id":"levelo_inurba_marseille","lat":43.29862,"lon":5.40875,"is_reserved":false,"is_disabled":false,"rental_uris":{"android":"levelo://app?vid=45c6b552-68fd-454d-84d3-cf79221aaee4","ios":"levelo://app?vid=45c6b552-68fd-454d-84d3-cf79221aaee4"},"vehicle_type_id":"4","last_reported":1744740764,"current_range_meters":14400,"station_id":"","pricing_plan_id":"cebpf4jnsgd1na2vs0mg"},{"bike_id":"416f6bc9-04dc-4a8e-b06f-9ea1d417da4d","system_id":"levelo_inurba_marseille","lat":43.29614,"lon":5.37726,"is_reserved":false,"is_disabled":false,"rental_uris":{"android":"levelo://app?vid=416f6bc9-04dc-4a8e-b06f-9ea1d417da4d","ios":"levelo://app?vid=416f6bc9-04dc-4a8e-b06f-9ea1d417da4d"},"vehicle_type_id":"4","last_reported":1744740764,"current_range_meters":12800,"station_id":"ce4bgi92rcd13ifvqb90","pricing_plan_id":"cebpf4jnsgd1na2vs0mg"},{"bike_id":"7684466d-8a32-4552-a249-bb575dd7ed8f","system_id":"levelo_inurba_marseille","lat":43.23201,"lon":5.39996,"is_reserved":false,"is_disabled":false,"rental_uris":{"android":"levelo://app?vid=7684466d-8a32-4552-a249-bb575dd7ed8f","ios":"levelo://app?vid=7684466d-8a32-4552-a249-bb575dd7ed8f"},"vehicle_type_id":"4","last_reported":1744740764,"current_range_meters":14800,"station_id":"ce4bhn12rcd13ifvqgqg","pricing_plan_id":"cebpf4jnsgd1na2vs0mg"},{"bike_id":"5554d3d3-945f-4011-be8b-6b67c85541ca","system_id":"levelo_inurba_marseille","lat":43.28177,"lon":5.4268,"is_reserved":false,"is_disabled":false,"rental_uris":{"android":"levelo://app?vid=5554d3d3-945f-4011-be8b-6b67c85541ca","ios":"levelo://app?vid=5554d3d3-945f-4011-be8b-6b67c85541ca"},"vehicle_type_id":"4","last_reported":1744740764,"current_range_meters":14400,"station_id":"ce4bhnh2rcd13ifvqgug","pricing_plan_id":"cebpf4jnsgd1na2vs0mg"},{"bike_id":"bfea3a81-c283-49d1-940b-af384836898f","system_id":"levelo_inurba_marseille","lat":43.2954,"lon":5.39049,"is_reserved":false,"is_disabled":false,"rental_uris":{"android":"levelo://app?vid=bfea3a81-c283-49d1-940b-af384836898f","ios":"levelo://app?vid=bfea3a81-c283-49d1-940b-af384836898f"},"vehicle_type_id":"4","last_reported":1744740764,"current_range_meters":14800,"station_id":"ce4bh3p2rcd13ifvqdp0","pricing_plan_id":"cebpf4jnsgd1na2vs0mg"},{"bike_id":"fa4a0199-2d3c-4d9e-8584-d14392be890f","system_id":"levelo_inurba_marseille","lat":43.26208,"lon":5.3793,"is_reserved":false,"is_disabled":false,"rental_uris":{"android":"levelo://app?vid=fa4a0199-2d3c-4d9e-8584-d14392be890f","ios":"levelo://app?vid=fa4a0199-2d3c-4d9e-8584-d14392be890f"},"vehicle_type_id":"4","last_reported":1744740764,"current_range_meters":14800,"station_id":"ce4bhjp2rcd13ifvqg90","pricing_plan_id":"cebpf4jnsgd1na2vs0mg"},{"bike_id":"7eacb872-0584-4b06-8fad-feb612d3799a","system_id":"levelo_inurba_marseille","lat":43.29701,"lon":5.3813,"is_reserved":false,"is_disabled":false,"rental_uris":{"android":"levelo://app?vid=7eacb872-0584-4b06-8fad-feb612d3799a","ios":"levelo://app?vid=7eacb872-0584-4b06-8fad-feb612d3799a"},"vehicle_type_id":"4","last_reported":1744740764,"current_range_meters":14800,"station_id":"","pricing_plan_id":"cebpf4jnsgd1na2vs0mg"},{"bike_id":"a584df3b-90c7-49f5-844a-1f0d3fcebe46","system_id":"levelo_inurba_marseille","lat":43.28423,"lon":5.34985,"is_reserved":false,"is_disabled":false,"rental_uris":{"android":"levelo://app?vid=a584df3b-90c7-49f5-844a-1f0d3fcebe46","ios":"levelo://app?vid=a584df3b-90c7-49f5-844a-1f0d3fcebe46"},"vehicle_type_id":"4","last_reported":1744740764,"current_range_meters":14800,"station_id":"ce4bhbh2rcd13ifvqepg","pricing_plan_id":"cebpf4jnsgd1na2vs0mg"},{"bike_id":"65939060-bb8f-4a23-b34c-33e31f1b6027","system_id":"levelo_inurba_marseille","lat":43.27166,"lon":5.40986,"is_reserved":false,"is_disabled":false,"rental_uris":{"android":"levelo://app?vid=65939060-bb8f-4a23-b34c-33e31f1b6027","ios":"levelo://app?vid=65939060-bb8f-4a23-b34c-33e31f1b6027"},"vehicle_type_id":"4","last_reported":1744740764,"current_range_meters":14800,"station_id":"ce4bhl12rcd13ifvqgf0","pricing_plan_id":"cebpf4jnsgd1na2vs0mg"},{"bike_id":"817164bb-8602-4924-a32b-d3df50c3503c","system_id":"levelo_inurba_marseille","lat":43.30909,"lon":5.39638,"is_reserved":false,"is_disabled":false,"rental_uris":{"android":"levelo://app?vid=817164bb-8602-4924-a32b-d3df50c3503c","ios":"levelo://app?vid=817164bb-8602-4924-a32b-d3df50c3503c"},"vehicle_type_id":"4","last_reported":1744740764,"current_range_meters":15200,"station_id":"ce4bh012rcd13ifvqcv0","pricing_plan_id":"cebpf4jnsgd1na2vs0mg"},{"bike_id":"4aef0fa6-a0da-4fa2-9099-9fa1ba81c16a","system_id":"levelo_inurba_marseille","lat":43.281729,"lon":5.404405,"is_reserved":false,"is_disabled":false,"rental_uris":{"android":"levelo://app?vid=4aef0fa6-a0da-4fa2-9099-9fa1ba81c16a","ios":"levelo://app?vid=4aef0fa6-a0da-4fa2-9099-9fa1ba81c16a"},"vehicle_type_id":"4","last_reported":1744740764,"current_range_meters":15200,"station_id":"","pricing_plan_id":"cebpf4jnsgd1na2vs0mg"},{"bike_id":"ed05bfd3-9929-4c8d-932a-823ab1bf1fc0","system_id":"levelo_inurba_marseille","lat":43.33721,"lon":5.39189,"is_reserved":false,"is_disabled":false,"rental_uris":{"android":"levelo://app?vid=ed05bfd3-9929-4c8d-932a-823ab1bf1fc0","ios":"levelo://app?vid=ed05bfd3-9929-4c8d-932a-823ab1bf1fc0"},"vehicle_type_id":"4","last_reported":1744740764,"current_range_meters":15200,"station_id":"ce4bhr92rcd13ifvqhsg","pricing_plan_id":"cebpf4jnsgd1na2vs0mg"},{"bike_id":"abff9bee-03a9-457b-a157-1d4444e6c267","system_id":"levelo_inurba_marseille","lat":43.30643,"lon":5.40091,"is_reserved":false,"is_disabled":false,"rental_uris":{"android":"levelo://app?vid=abff9bee-03a9-457b-a157-1d4444e6c267","ios":"levelo://app?vid=abff9bee-03a9-457b-a157-1d4444e6c267"},"vehicle_type_id":"4","last_reported":1744740764,"current_range_meters":14800,"station_id":"ce4bh112rcd13ifvqda0","pricing_plan_id":"cebpf4jnsgd1na2vs0mg"},{"bike_id":"e498097c-40a0-4c83-8a8e-321195581576","system_id":"levelo_inurba_marseille","lat":43.31497,"lon":5.37312,"is_reserved":false,"is_disabled":false,"rental_uris":{"android":"levelo://app?vid=e498097c-40a0-4c83-8a8e-321195581576","ios":"levelo://app?vid=e498097c-40a0-4c83-8a8e-321195581576"},"vehicle_type_id":"4","last_reported":1744740764,"current_range_meters":15200,"station_id":"ce4bgt12rcd13ifvqcd0","pricing_plan_id":"cebpf4jnsgd1na2vs0mg"},{"bike_id":"39eddf58-570b-429d-9994-6d849482ff86","system_id":"levelo_inurba_marseille","lat":43.29532,"lon":5.39024,"is_reserved":false,"is_disabled":false,"rental_uris":{"android":"levelo://app?vid=39eddf58-570b-429d-9994-6d849482ff86","ios":"levelo://app?vid=39eddf58-570b-429d-9994-6d849482ff86"},"vehicle_type_id":"4","last_reported":1744740764,"current_range_meters":15200,"station_id":"ce4bh3p2rcd13ifvqdp0","pricing_plan_id":"cebpf4jnsgd1na2vs0mg"},{"bike_id":"f59a92fa-385e-46f6-8092-4a43ba6a74ff","system_id":"levelo_inurba_marseille","lat":43.3021,"lon":5.3948,"is_reserved":false,"is_disabled":false,"rental_uris":{"android":"levelo://app?vid=f59a92fa-385e-46f6-8092-4a43ba6a74ff","ios":"levelo://app?vid=f59a92fa-385e-46f6-8092-4a43ba6a74ff"},"vehicle_type_id":"4","last_reported":1744740764,"current_range_meters":15200,"station_id":"ce4bh0p2rcd13ifvqd70","pricing_plan_id":"cebpf4jnsgd1na2vs0mg"},{"bike_id":"b0b19754-995f-4d4b-bc89-b97285ed65c0","system_id":"levelo_inurba_marseille","lat":43.25527,"lon":5.37596,"is_reserved":false,"is_disabled":false,"rental_uris":{"android":"levelo://app?vid=b0b19754-995f-4d4b-bc89-b97285ed65c0","ios":"levelo://app?vid=b0b19754-995f-4d4b-bc89-b97285ed65c0"},"vehicle_type_id":"4","last_reported":1744740764,"current_range_meters":16000,"station_id":"","pricing_plan_id":"cebpf4jnsgd1na2vs0mg"},{"bike_id":"9fa7cab0-2098-48fc-8755-3a3ccbb754bb","system_id":"levelo_inurba_marseille","lat":43.24665,"lon":5.38167,"is_reserved":false,"is_disabled":false,"rental_uris":{"android":"levelo://app?vid=9fa7cab0-2098-48fc-8755-3a3ccbb754bb","ios":"levelo://app?vid=9fa7cab0-2098-48fc-8755-3a3ccbb754bb"},"vehicle_type_id":"4","last_reported":1744740764,"current_range_meters":16000,"station_id":"ce4bhih2rcd13ifvqfr0","pricing_plan_id":"cebpf4jnsgd1na2vs0mg"},{"bike_id":"858d925c-18d1-40e1-accc-537204580216","system_id":"levelo_inurba_marseille","lat":43.29033,"lon":5.38619,"is_reserved":false,"is_disabled":false,"rental_uris":{"android":"levelo://app?vid=858d925c-18d1-40e1-accc-537204580216","ios":"levelo://app?vid=858d925c-18d1-40e1-accc-537204580216"},"vehicle_type_id":"4","last_reported":1744740764,"current_range_meters":16000,"station_id":"ce4bh4p2rcd13ifvqe0g","pricing_plan_id":"cebpf4jnsgd1na2vs0mg"},{"bike_id":"25732aa9-76d1-4c83-b5c5-f80b6e9319f7","system_id":"levelo_inurba_marseille","lat":43.29427,"lon":5.38615,"is_reserved":false,"is_disabled":false,"rental_uris":{"android":"levelo://app?vid=25732aa9-76d1-4c83-b5c5-f80b6e9319f7","ios":"levelo://app?vid=25732aa9-76d1-4c83-b5c5-f80b6e9319f7"},"vehicle_type_id":"4","last_reported":1744740764,"current_range_meters":16000,"station_id":"ce4bh2h2rcd13ifvqdh0","pricing_plan_id":"cebpf4jnsgd1na2vs0mg"},{"bike_id":"90886ae5-6613-470e-895f-e35a5545d9d4","system_id":"levelo_inurba_marseille","lat":43.31476,"lon":5.39204,"is_reserved":false,"is_disabled":false,"rental_uris":{"android":"levelo://app?vid=90886ae5-6613-470e-895f-e35a5545d9d4","ios":"levelo://app?vid=90886ae5-6613-470e-895f-e35a5545d9d4"},"vehicle_type_id":"4","last_reported":1744740764,"current_range_meters":16400,"station_id":"","pricing_plan_id":"cebpf4jnsgd1na2vs0mg"},{"bike_id":"7c508bd6-adff-4687-b43d-b12b74711327","system_id":"levelo_inurba_marseille","lat":43.28155,"lon":5.42638,"is_reserved":false,"is_disabled":false,"rental_uris":{"android":"levelo://app?vid=7c508bd6-adff-4687-b43d-b12b74711327","ios":"levelo://app?vid=7c508bd6-adff-4687-b43d-b12b74711327"},"vehicle_type_id":"4","last_reported":1744740764,"current_range_meters":16400,"station_id":"ce4bhnh2rcd13ifvqgug","pricing_plan_id":"cebpf4jnsgd1na2vs0mg"},{"bike_id":"a64c1bf8-86bc-4c11-9879-81cd45d3d031","system_id":"levelo_inurba_marseille","lat":43.31367,"lon":5.39699,"is_reserved":false,"is_disabled":true,"rental_uris":{"android":"levelo://app?vid=a64c1bf8-86bc-4c11-9879-81cd45d3d031","ios":"levelo://app?vid=a64c1bf8-86bc-4c11-9879-81cd45d3d031"},"vehicle_type_id":"4","last_reported":1744740764,"current_range_meters":16400,"station_id":"ce4bgvp2rcd13ifvqcu0","pricing_plan_id":"cebpf4jnsgd1na2vs0mg"},{"bike_id":"c4d3e4d1-d765-40e9-b83f-93cec729f7b4","system_id":"levelo_inurba_marseille","lat":43.29031,"lon":5.3866,"is_reserved":false,"is_disabled":false,"rental_uris":{"android":"levelo://app?vid=c4d3e4d1-d765-40e9-b83f-93cec729f7b4","ios":"levelo://app?vid=c4d3e4d1-d765-40e9-b83f-93cec729f7b4"},"vehicle_type_id":"4","last_reported":1744740764,"current_range_meters":16400,"station_id":"ce4bh4p2rcd13ifvqe0g","pricing_plan_id":"cebpf4jnsgd1na2vs0mg"},{"bike_id":"cbae38ae-2e43-4f67-8c1a-32c82203f0af","system_id":"levelo_inurba_marseille","lat":43.28678,"lon":5.38666,"is_reserved":false,"is_disabled":false,"rental_uris":{"android":"levelo://app?vid=cbae38ae-2e43-4f67-8c1a-32c82203f0af","ios":"levelo://app?vid=cbae38ae-2e43-4f67-8c1a-32c82203f0af"},"vehicle_type_id":"4","last_reported":1744740764,"current_range_meters":16800,"station_id":"ce4bh492rcd13ifvqdug","pricing_plan_id":"cebpf4jnsgd1na2vs0mg"},{"bike_id":"5df6a11c-9a6b-47a7-9b79-08052174d5c9","system_id":"levelo_inurba_marseille","lat":43.24809,"lon":5.37457,"is_reserved":false,"is_disabled":false,"rental_uris":{"android":"levelo://app?vid=5df6a11c-9a6b-47a7-9b79-08052174d5c9","ios":"levelo://app?vid=5df6a11c-9a6b-47a7-9b79-08052174d5c9"},"vehicle_type_id":"4","last_reported":1744740764,"current_range_meters":16800,"station_id":"ce4bhgh2rcd13ifvqfb0","pricing_plan_id":"cebpf4jnsgd1na2vs0mg"},{"bike_id":"1d1438f4-47cb-492c-a223-9bca235e2aad","system_id":"levelo_inurba_marseille","lat":43.27971,"lon":5.41033,"is_reserved":false,"is_disabled":false,"rental_uris":{"android":"levelo://app?vid=1d1438f4-47cb-492c-a223-9bca235e2aad","ios":"levelo://app?vid=1d1438f4-47cb-492c-a223-9bca235e2aad"},"vehicle_type_id":"4","last_reported":1744740764,"current_range_meters":16800,"station_id":"ce4bhnp2rcd13ifvqh0g","pricing_plan_id":"cebpf4jnsgd1na2vs0mg"},{"bike_id":"9e899420-9c70-454a-9658-a7c28bcc6565","system_id":"levelo_inurba_marseille","lat":43.31714,"lon":5.43709,"is_reserved":false,"is_disabled":false,"rental_uris":{"android":"levelo://app?vid=9e899420-9c70-454a-9658-a7c28bcc6565","ios":"levelo://app?vid=9e899420-9c70-454a-9658-a7c28bcc6565"},"vehicle_type_id":"4","last_reported":1744740764,"current_range_meters":16800,"station_id":"ce4bhp92rcd13ifvqhcg","pricing_plan_id":"cebpf4jnsgd1na2vs0mg"},{"bike_id":"09651454-ba98-489f-84d4-7c0b820526b4","system_id":"levelo_inurba_marseille","lat":43.31266,"lon":5.36849,"is_reserved":false,"is_disabled":true,"rental_uris":{"android":"levelo://app?vid=09651454-ba98-489f-84d4-7c0b820526b4","ios":"levelo://app?vid=09651454-ba98-489f-84d4-7c0b820526b4"},"vehicle_type_id":"4","last_reported":1744740764,"current_range_meters":16800,"station_id":"ce4bgl92rcd13ifvqbq0","pricing_plan_id":"cebpf4jnsgd1na2vs0mg"},{"bike_id":"ef9a3c6b-98ce-42f1-93a1-07ec5fc6435d","system_id":"levelo_inurba_marseille","lat":43.29272,"lon":5.37625,"is_reserved":false,"is_disabled":false,"rental_uris":{"android":"levelo://app?vid=ef9a3c6b-98ce-42f1-93a1-07ec5fc6435d","ios":"levelo://app?vid=ef9a3c6b-98ce-42f1-93a1-07ec5fc6435d"},"vehicle_type_id":"4","last_reported":1744740764,"current_range_meters":16800,"station_id":"ce4bgi12rcd13ifvqb80","pricing_plan_id":"cebpf4jnsgd1na2vs0mg"},{"bike_id":"1f29cc2f-c36a-49f3-9023-439b04f586f2","system_id":"levelo_inurba_marseille","lat":43.308289,"lon":5.368089,"is_reserved":false,"is_disabled":false,"rental_uris":{"android":"levelo://app?vid=1f29cc2f-c36a-49f3-9023-439b04f586f2","ios":"levelo://app?vid=1f29cc2f-c36a-49f3-9023-439b04f586f2"},"vehicle_type_id":"4","last_reported":1744740764,"current_range_meters":16400,"station_id":"ce4bgn92rcd13ifvqbvg","pricing_plan_id":"cebpf4jnsgd1na2vs0mg"},{"bike_id":"b50816d5-4465-44fb-a186-ceccc98abcb1","system_id":"levelo_inurba_marseille","lat":43.271054,"lon":5.396373,"is_reserved":false,"is_disabled":false,"rental_uris":{"android":"levelo://app?vid=b50816d5-4465-44fb-a186-ceccc98abcb1","ios":"levelo://app?vid=b50816d5-4465-44fb-a186-ceccc98abcb1"},"vehicle_type_id":"4","last_reported":1744740764,"current_range_meters":16800,"station_id":"ce4bhl12rcd13ifvqgf0","pricing_plan_id":"cebpf4jnsgd1na2vs0mg"},{"bike_id":"35fb265f-b033-4ce3-a066-a3358a3645eb","system_id":"levelo_inurba_marseille","lat":43.28621,"lon":5.35105,"is_reserved":false,"is_disabled":false,"rental_uris":{"android":"levelo://app?vid=35fb265f-b033-4ce3-a066-a3358a3645eb","ios":"levelo://app?vid=35fb265f-b033-4ce3-a066-a3358a3645eb"},"vehicle_type_id":"4","last_reported":1744740764,"current_range_meters":16800,"station_id":"ce4bhch2rcd13ifvqeug","pricing_plan_id":"cebpf4jnsgd1na2vs0mg"},{"bike_id":"894f7d1a-8c4a-4c18-adde-256120b1b232","system_id":"levelo_inurba_marseille","lat":43.306213,"lon":5.399636,"is_reserved":false,"is_disabled":false,"rental_uris":{"android":"levelo://app?vid=894f7d1a-8c4a-4c18-adde-256120b1b232","ios":"levelo://app?vid=894f7d1a-8c4a-4c18-adde-256120b1b232"},"vehicle_type_id":"4","last_reported":1744740764,"current_range_meters":16800,"station_id":"ce4bgvp2rcd13ifvqct0","pricing_plan_id":"cebpf4jnsgd1na2vs0mg"},{"bike_id":"94be5298-abd1-4415-8ed6-ff0bb777683c","system_id":"levelo_inurba_marseille","lat":43.292773,"lon":5.384576,"is_reserved":false,"is_disabled":false,"rental_uris":{"android":"levelo://app?vid=94be5298-abd1-4415-8ed6-ff0bb777683c","ios":"levelo://app?vid=94be5298-abd1-4415-8ed6-ff0bb777683c"},"vehicle_type_id":"4","last_reported":1744740764,"current_range_meters":16800,"station_id":"ce4bh692rcd13ifvqea0","pricing_plan_id":"cebpf4jnsgd1na2vs0mg"},{"bike_id":"857ff0ed-8bc6-43b2-87aa-4266c1d75649","system_id":"levelo_inurba_marseille","lat":43.31093,"lon":5.40094,"is_reserved":false,"is_disabled":false,"rental_uris":{"android":"levelo://app?vid=857ff0ed-8bc6-43b2-87aa-4266c1d75649","ios":"levelo://app?vid=857ff0ed-8bc6-43b2-87aa-4266c1d75649"},"vehicle_type_id":"4","last_reported":1744740764,"current_range_meters":16800,"station_id":"","pricing_plan_id":"cebpf4jnsgd1na2vs0mg"},{"bike_id":"32914e51-bb2b-4ce3-b069-f3bfc6bc1f01","system_id":"levelo_inurba_marseille","lat":43.28621,"lon":5.35108,"is_reserved":false,"is_disabled":false,"rental_uris":{"android":"levelo://app?vid=32914e51-bb2b-4ce3-b069-f3bfc6bc1f01","ios":"levelo://app?vid=32914e51-bb2b-4ce3-b069-f3bfc6bc1f01"},"vehicle_type_id":"4","last_reported":1744740764,"current_range_meters":16800,"station_id":"ce4bhch2rcd13ifvqeug","pricing_plan_id":"cebpf4jnsgd1na2vs0mg"},{"bike_id":"118154f0-b323-4732-a7e4-1ddf0f235eae","system_id":"levelo_inurba_marseille","lat":43.29882,"lon":5.38915,"is_reserved":false,"is_disabled":false,"rental_uris":{"android":"levelo://app?vid=118154f0-b323-4732-a7e4-1ddf0f235eae","ios":"levelo://app?vid=118154f0-b323-4732-a7e4-1ddf0f235eae"},"vehicle_type_id":"4","last_reported":1744740764,"current_range_meters":16800,"station_id":"ce4bh392rcd13ifvqdl0","pricing_plan_id":"cebpf4jnsgd1na2vs0mg"},{"bike_id":"14a5fce5-bf9a-4396-8396-c321c58474da","system_id":"levelo_inurba_marseille","lat":43.28038,"lon":5.41701,"is_reserved":false,"is_disabled":false,"rental_uris":{"android":"levelo://app?vid=14a5fce5-bf9a-4396-8396-c321c58474da","ios":"levelo://app?vid=14a5fce5-bf9a-4396-8396-c321c58474da"},"vehicle_type_id":"4","last_reported":1744740764,"current_range_meters":16800,"station_id":"ce4bho12rcd13ifvqh1g","pricing_plan_id":"cebpf4jnsgd1na2vs0mg"},{"bike_id":"889e5f0e-836f-416e-9071-263d48ad5753","system_id":"levelo_inurba_marseille","lat":43.29505,"lon":5.38499,"is_reserved":false,"is_disabled":false,"rental_uris":{"android":"levelo://app?vid=889e5f0e-836f-416e-9071-263d48ad5753","ios":"levelo://app?vid=889e5f0e-836f-416e-9071-263d48ad5753"},"vehicle_type_id":"4","last_reported":1744740764,"current_range_meters":17200,"station_id":"ce4bgih2rcd13ifvqba0","pricing_plan_id":"cebpf4jnsgd1na2vs0mg"},{"bike_id":"834ec9e1-9d50-4bee-85ae-d1db335c55e5","system_id":"levelo_inurba_marseille","lat":43.31657,"lon":5.36418,"is_reserved":false,"is_disabled":false,"rental_uris":{"android":"levelo://app?vid=834ec9e1-9d50-4bee-85ae-d1db335c55e5","ios":"levelo://app?vid=834ec9e1-9d50-4bee-85ae-d1db335c55e5"},"vehicle_type_id":"4","last_reported":1744740764,"current_range_meters":17200,"station_id":"","pricing_plan_id":"cebpf4jnsgd1na2vs0mg"},{"bike_id":"4c470df7-4cbb-413f-b587-893637313088","system_id":"levelo_inurba_marseille","lat":43.25137,"lon":5.4032,"is_reserved":false,"is_disabled":false,"rental_uris":{"android":"levelo://app?vid=4c470df7-4cbb-413f-b587-893637313088","ios":"levelo://app?vid=4c470df7-4cbb-413f-b587-893637313088"},"vehicle_type_id":"4","last_reported":1744740764,"current_range_meters":17200,"station_id":"ce4bhlh2rcd13ifvqgig","pricing_plan_id":"cebpf4jnsgd1na2vs0mg"},{"bike_id":"bc25975a-d8db-4434-adc0-011b29179696","system_id":"levelo_inurba_marseille","lat":43.250504,"lon":5.389138,"is_reserved":false,"is_disabled":false,"rental_uris":{"android":"levelo://app?vid=bc25975a-d8db-4434-adc0-011b29179696","ios":"levelo://app?vid=bc25975a-d8db-4434-adc0-011b29179696"},"vehicle_type_id":"4","last_reported":1744740764,"current_range_meters":17200,"station_id":"ce4bhgp2rcd13ifvqfd0","pricing_plan_id":"cebpf4jnsgd1na2vs0mg"},{"bike_id":"b1f33893-7c07-476d-8327-0aa8e9dbaa66","system_id":"levelo_inurba_marseille","lat":43.32644,"lon":5.40983,"is_reserved":false,"is_disabled":false,"rental_uris":{"android":"levelo://app?vid=b1f33893-7c07-476d-8327-0aa8e9dbaa66","ios":"levelo://app?vid=b1f33893-7c07-476d-8327-0aa8e9dbaa66"},"vehicle_type_id":"4","last_reported":1744740764,"current_range_meters":17200,"station_id":"ce4bhpp2rcd13ifvqhgg","pricing_plan_id":"cebpf4jnsgd1na2vs0mg"},{"bike_id":"6f23923f-fc67-460a-b0b8-5119c016d5b0","system_id":"levelo_inurba_marseille","lat":43.2696,"lon":5.38968,"is_reserved":false,"is_disabled":true,"rental_uris":{"android":"levelo://app?vid=6f23923f-fc67-460a-b0b8-5119c016d5b0","ios":"levelo://app?vid=6f23923f-fc67-460a-b0b8-5119c016d5b0"},"vehicle_type_id":"4","last_reported":1744740764,"current_range_meters":17200,"station_id":"ce4bhhh2rcd13ifvqfl0","pricing_plan_id":"cebpf4jnsgd1na2vs0mg"},{"bike_id":"cd5eb157-2f69-4f63-a073-9b1af9477945","system_id":"levelo_inurba_marseille","lat":43.3112,"lon":5.37765,"is_reserved":false,"is_disabled":false,"rental_uris":{"android":"levelo://app?vid=cd5eb157-2f69-4f63-a073-9b1af9477945","ios":"levelo://app?vid=cd5eb157-2f69-4f63-a073-9b1af9477945"},"vehicle_type_id":"4","last_reported":1744740764,"current_range_meters":17200,"station_id":"ce4bgt92rcd13ifvqcg0","pricing_plan_id":"cebpf4jnsgd1na2vs0mg"},{"bike_id":"a0ddb0a5-f7f0-4281-aa27-9e82747cc573","system_id":"levelo_inurba_marseille","lat":43.33802,"lon":5.37507,"is_reserved":false,"is_disabled":false,"rental_uris":{"android":"levelo://app?vid=a0ddb0a5-f7f0-4281-aa27-9e82747cc573","ios":"levelo://app?vid=a0ddb0a5-f7f0-4281-aa27-9e82747cc573"},"vehicle_type_id":"4","last_reported":1744740764,"current_range_meters":17200,"station_id":"","pricing_plan_id":"cebpf4jnsgd1na2vs0mg"},{"bike_id":"d1a2b493-7d30-4a9c-a02b-dfad0b4f73f7","system_id":"levelo_inurba_marseille","lat":43.24811,"lon":5.37464,"is_reserved":false,"is_disabled":false,"rental_uris":{"android":"levelo://app?vid=d1a2b493-7d30-4a9c-a02b-dfad0b4f73f7","ios":"levelo://app?vid=d1a2b493-7d30-4a9c-a02b-dfad0b4f73f7"},"vehicle_type_id":"4","last_reported":1744740764,"current_range_meters":17200,"station_id":"ce4bhgh2rcd13ifvqfb0","pricing_plan_id":"cebpf4jnsgd1na2vs0mg"},{"bike_id":"2b5b2b5e-93bd-430b-95a6-9ab37a3c8b19","system_id":"levelo_inurba_marseille","lat":43.29888,"lon":5.38897,"is_reserved":false,"is_disabled":false,"rental_uris":{"android":"levelo://app?vid=2b5b2b5e-93bd-430b-95a6-9ab37a3c8b19","ios":"levelo://app?vid=2b5b2b5e-93bd-430b-95a6-9ab37a3c8b19"},"vehicle_type_id":"4","last_reported":1744740764,"current_range_meters":17200,"station_id":"ce4bh392rcd13ifvqdl0","pricing_plan_id":"cebpf4jnsgd1na2vs0mg"},{"bike_id":"15037f32-8603-4291-8666-812046581e38","system_id":"levelo_inurba_marseille","lat":43.29426,"lon":5.38675,"is_reserved":false,"is_disabled":false,"rental_uris":{"android":"levelo://app?vid=15037f32-8603-4291-8666-812046581e38","ios":"levelo://app?vid=15037f32-8603-4291-8666-812046581e38"},"vehicle_type_id":"4","last_reported":1744740764,"current_range_meters":17600,"station_id":"ce4bh2h2rcd13ifvqdh0","pricing_plan_id":"cebpf4jnsgd1na2vs0mg"},{"bike_id":"e98619ae-1cbf-4312-993a-cf2e62ab486c","system_id":"levelo_inurba_marseille","lat":43.27911,"lon":5.39587,"is_reserved":false,"is_disabled":false,"rental_uris":{"android":"levelo://app?vid=e98619ae-1cbf-4312-993a-cf2e62ab486c","ios":"levelo://app?vid=e98619ae-1cbf-4312-993a-cf2e62ab486c"},"vehicle_type_id":"4","last_reported":1744740764,"current_range_meters":17600,"station_id":"ce4bhf92rcd13ifvqf40","pricing_plan_id":"cebpf4jnsgd1na2vs0mg"},{"bike_id":"9ac9230b-6509-4fd6-99e3-cb13a7906542","system_id":"levelo_inurba_marseille","lat":43.32364,"lon":5.38899,"is_reserved":false,"is_disabled":false,"rental_uris":{"android":"levelo://app?vid=9ac9230b-6509-4fd6-99e3-cb13a7906542","ios":"levelo://app?vid=9ac9230b-6509-4fd6-99e3-cb13a7906542"},"vehicle_type_id":"4","last_reported":1744740764,"current_range_meters":17600,"station_id":"ce4bhqp2rcd13ifvqhog","pricing_plan_id":"cebpf4jnsgd1na2vs0mg"},{"bike_id":"4e2d3d48-fcb4-46fd-b79b-6b673a7d3ecf","system_id":"levelo_inurba_marseille","lat":43.25726,"lon":5.41109,"is_reserved":false,"is_disabled":false,"rental_uris":{"android":"levelo://app?vid=4e2d3d48-fcb4-46fd-b79b-6b673a7d3ecf","ios":"levelo://app?vid=4e2d3d48-fcb4-46fd-b79b-6b673a7d3ecf"},"vehicle_type_id":"4","last_reported":1744740764,"current_range_meters":17200,"station_id":"ce4bhkp2rcd13ifvqgd0","pricing_plan_id":"cebpf4jnsgd1na2vs0mg"},{"bike_id":"1e009547-42f7-4c06-a9bb-eac2deb92174","system_id":"levelo_inurba_marseille","lat":43.28282,"lon":5.35103,"is_reserved":false,"is_disabled":false,"rental_uris":{"android":"levelo://app?vid=1e009547-42f7-4c06-a9bb-eac2deb92174","ios":"levelo://app?vid=1e009547-42f7-4c06-a9bb-eac2deb92174"},"vehicle_type_id":"4","last_reported":1744740764,"current_range_meters":17600,"station_id":"ce4bhbp2rcd13ifvqerg","pricing_plan_id":"cebpf4jnsgd1na2vs0mg"},{"bike_id":"b6ddc207-8991-42f2-87ff-6439e6790bca","system_id":"levelo_inurba_marseille","lat":43.29302,"lon":5.37142,"is_reserved":false,"is_disabled":false,"rental_uris":{"android":"levelo://app?vid=b6ddc207-8991-42f2-87ff-6439e6790bca","ios":"levelo://app?vid=b6ddc207-8991-42f2-87ff-6439e6790bca"},"vehicle_type_id":"4","last_reported":1744740764,"current_range_meters":17200,"station_id":"ce4bgh92rcd13ifvqb40","pricing_plan_id":"cebpf4jnsgd1na2vs0mg"},{"bike_id":"65cd36f9-70d7-46dd-8914-9f690b4bb067","system_id":"levelo_inurba_marseille","lat":43.246646,"lon":5.381747,"is_reserved":false,"is_disabled":false,"rental_uris":{"android":"levelo://app?vid=65cd36f9-70d7-46dd-8914-9f690b4bb067","ios":"levelo://app?vid=65cd36f9-70d7-46dd-8914-9f690b4bb067"},"vehicle_type_id":"4","last_reported":1744740764,"current_range_meters":17600,"station_id":"ce4bhih2rcd13ifvqfr0","pricing_plan_id":"cebpf4jnsgd1na2vs0mg"},{"bike_id":"7893b580-2e93-49a2-a1ed-481f3e709a74","system_id":"levelo_inurba_marseille","lat":43.28363,"lon":5.38104,"is_reserved":false,"is_disabled":false,"rental_uris":{"android":"levelo://app?vid=7893b580-2e93-49a2-a1ed-481f3e709a74","ios":"levelo://app?vid=7893b580-2e93-49a2-a1ed-481f3e709a74"},"vehicle_type_id":"4","last_reported":1744740764,"current_range_meters":17600,"station_id":"ce4bh412rcd13ifvqdr0","pricing_plan_id":"cebpf4jnsgd1na2vs0mg"},{"bike_id":"be1796d6-8a10-40aa-a694-9bcd8a95d47b","system_id":"levelo_inurba_marseille","lat":43.26949,"lon":5.40257,"is_reserved":false,"is_disabled":false,"rental_uris":{"android":"levelo://app?vid=be1796d6-8a10-40aa-a694-9bcd8a95d47b","ios":"levelo://app?vid=be1796d6-8a10-40aa-a694-9bcd8a95d47b"},"vehicle_type_id":"4","last_reported":1744740764,"current_range_meters":17200,"station_id":"cjm6bp8fraef2m0cb0m0","pricing_plan_id":"cebpf4jnsgd1na2vs0mg"},{"bike_id":"15839d76-0879-42d7-9bf8-b60f30413855","system_id":"levelo_inurba_marseille","lat":43.2927,"lon":5.36895,"is_reserved":false,"is_disabled":true,"rental_uris":{"android":"levelo://app?vid=15839d76-0879-42d7-9bf8-b60f30413855","ios":"levelo://app?vid=15839d76-0879-42d7-9bf8-b60f30413855"},"vehicle_type_id":"4","last_reported":1744740764,"current_range_meters":17600,"station_id":"ce4bhbp2rcd13ifvqesg","pricing_plan_id":"cebpf4jnsgd1na2vs0mg"},{"bike_id":"f03f1842-a6a1-4086-82d8-75f937c87ec1","system_id":"levelo_inurba_marseille","lat":43.29297,"lon":5.37463,"is_reserved":false,"is_disabled":false,"rental_uris":{"android":"levelo://app?vid=f03f1842-a6a1-4086-82d8-75f937c87ec1","ios":"levelo://app?vid=f03f1842-a6a1-4086-82d8-75f937c87ec1"},"vehicle_type_id":"4","last_reported":1744740764,"current_range_meters":18000,"station_id":"ce4bgi12rcd13ifvqb70","pricing_plan_id":"cebpf4jnsgd1na2vs0mg"},{"bike_id":"7d088f93-b50d-4229-8870-43a7885fc52c","system_id":"levelo_inurba_marseille","lat":43.29317,"lon":5.37474,"is_reserved":false,"is_disabled":false,"rental_uris":{"android":"levelo://app?vid=7d088f93-b50d-4229-8870-43a7885fc52c","ios":"levelo://app?vid=7d088f93-b50d-4229-8870-43a7885fc52c"},"vehicle_type_id":"4","last_reported":1744740764,"current_range_meters":18000,"station_id":"ce4bgi12rcd13ifvqb70","pricing_plan_id":"cebpf4jnsgd1na2vs0mg"},{"bike_id":"69a4e540-d4b7-45cf-9928-59fea4817817","system_id":"levelo_inurba_marseille","lat":43.30889,"lon":5.39656,"is_reserved":false,"is_disabled":false,"rental_uris":{"android":"levelo://app?vid=69a4e540-d4b7-45cf-9928-59fea4817817","ios":"levelo://app?vid=69a4e540-d4b7-45cf-9928-59fea4817817"},"vehicle_type_id":"4","last_reported":1744740764,"current_range_meters":18000,"station_id":"ce4bh012rcd13ifvqcv0","pricing_plan_id":"cebpf4jnsgd1na2vs0mg"},{"bike_id":"8c49ecd1-9546-423a-abd3-0470bcf4decd","system_id":"levelo_inurba_marseille","lat":43.281067,"lon":5.378178,"is_reserved":false,"is_disabled":false,"rental_uris":{"android":"levelo://app?vid=8c49ecd1-9546-423a-abd3-0470bcf4decd","ios":"levelo://app?vid=8c49ecd1-9546-423a-abd3-0470bcf4decd"},"vehicle_type_id":"4","last_reported":1744740764,"current_range_meters":17600,"station_id":"ce4bhah2rcd13ifvqei0","pricing_plan_id":"cebpf4jnsgd1na2vs0mg"},{"bike_id":"0fdde2d8-8704-4cb8-bf3a-05cc3991d677","system_id":"levelo_inurba_marseille","lat":43.292624,"lon":5.38426,"is_reserved":false,"is_disabled":false,"rental_uris":{"android":"levelo://app?vid=0fdde2d8-8704-4cb8-bf3a-05cc3991d677","ios":"levelo://app?vid=0fdde2d8-8704-4cb8-bf3a-05cc3991d677"},"vehicle_type_id":"4","last_reported":1744740764,"current_range_meters":18000,"station_id":"ce4bgi92rcd13ifvqb90","pricing_plan_id":"cebpf4jnsgd1na2vs0mg"},{"bike_id":"d37ee007-966a-4799-b4d4-b0db41fee4e1","system_id":"levelo_inurba_marseille","lat":43.28615,"lon":5.37065,"is_reserved":false,"is_disabled":false,"rental_uris":{"android":"levelo://app?vid=d37ee007-966a-4799-b4d4-b0db41fee4e1","ios":"levelo://app?vid=d37ee007-966a-4799-b4d4-b0db41fee4e1"},"vehicle_type_id":"4","last_reported":1744740764,"current_range_meters":17600,"station_id":"ce4bht12rcd13ifvqi60","pricing_plan_id":"cebpf4jnsgd1na2vs0mg"},{"bike_id":"a21ea1f7-650d-49bc-bcab-c3cf1e378921","system_id":"levelo_inurba_marseille","lat":43.31482,"lon":5.37311,"is_reserved":false,"is_disabled":false,"rental_uris":{"android":"levelo://app?vid=a21ea1f7-650d-49bc-bcab-c3cf1e378921","ios":"levelo://app?vid=a21ea1f7-650d-49bc-bcab-c3cf1e378921"},"vehicle_type_id":"4","last_reported":1744740764,"current_range_meters":18000,"station_id":"ce4bgt12rcd13ifvqcd0","pricing_plan_id":"cebpf4jnsgd1na2vs0mg"},{"bike_id":"06792c99-9f56-43e4-ab88-a9f0a8d9b9b6","system_id":"levelo_inurba_marseille","lat":43.28618,"lon":5.3511,"is_reserved":false,"is_disabled":false,"rental_uris":{"android":"levelo://app?vid=06792c99-9f56-43e4-ab88-a9f0a8d9b9b6","ios":"levelo://app?vid=06792c99-9f56-43e4-ab88-a9f0a8d9b9b6"},"vehicle_type_id":"4","last_reported":1744740764,"current_range_meters":18000,"station_id":"ce4bhch2rcd13ifvqeug","pricing_plan_id":"cebpf4jnsgd1na2vs0mg"},{"bike_id":"e76dcecd-d434-41e0-a66b-6c47e21cfe08","system_id":"levelo_inurba_marseille","lat":43.2926,"lon":5.40901,"is_reserved":false,"is_disabled":false,"rental_uris":{"android":"levelo://app?vid=e76dcecd-d434-41e0-a66b-6c47e21cfe08","ios":"levelo://app?vid=e76dcecd-d434-41e0-a66b-6c47e21cfe08"},"vehicle_type_id":"4","last_reported":1744740764,"current_range_meters":18800,"station_id":"ce4bh192rcd13ifvqdc0","pricing_plan_id":"cebpf4jnsgd1na2vs0mg"},{"bike_id":"f556879c-5c9c-404c-bfda-1bbcb0880b98","system_id":"levelo_inurba_marseille","lat":43.2953,"lon":5.37518,"is_reserved":false,"is_disabled":true,"rental_uris":{"android":"levelo://app?vid=f556879c-5c9c-404c-bfda-1bbcb0880b98","ios":"levelo://app?vid=f556879c-5c9c-404c-bfda-1bbcb0880b98"},"vehicle_type_id":"4","last_reported":1744740764,"current_range_meters":18800,"station_id":"ce4bgkp2rcd13ifvqbmg","pricing_plan_id":"cebpf4jnsgd1na2vs0mg"},{"bike_id":"6bf5a380-400e-4cd6-bc1e-356afac9ee45","system_id":"levelo_inurba_marseille","lat":43.24174,"lon":5.36405,"is_reserved":false,"is_disabled":false,"rental_uris":{"android":"levelo://app?vid=6bf5a380-400e-4cd6-bc1e-356afac9ee45","ios":"levelo://app?vid=6bf5a380-400e-4cd6-bc1e-356afac9ee45"},"vehicle_type_id":"4","last_reported":1744740764,"current_range_meters":18800,"station_id":"cpo36qri1sfpv3e86is0","pricing_plan_id":"cebpf4jnsgd1na2vs0mg"},{"bike_id":"4c0ede51-6b22-44f8-8575-b86906a20779","system_id":"levelo_inurba_marseille","lat":43.21775,"lon":5.34615,"is_reserved":false,"is_disabled":false,"rental_uris":{"android":"levelo://app?vid=4c0ede51-6b22-44f8-8575-b86906a20779","ios":"levelo://app?vid=4c0ede51-6b22-44f8-8575-b86906a20779"},"vehicle_type_id":"4","last_reported":1744740764,"current_range_meters":18800,"station_id":"st_cvj6r9ubvosntc0bgbag","pricing_plan_id":"cebpf4jnsgd1na2vs0mg"},{"bike_id":"f9cd6693-e874-45cc-bb2b-a5733b41d628","system_id":"levelo_inurba_marseille","lat":43.32362,"lon":5.36746,"is_reserved":false,"is_disabled":false,"rental_uris":{"android":"levelo://app?vid=f9cd6693-e874-45cc-bb2b-a5733b41d628","ios":"levelo://app?vid=f9cd6693-e874-45cc-bb2b-a5733b41d628"},"vehicle_type_id":"4","last_reported":1744740764,"current_range_meters":18800,"station_id":"ce4bhsh2rcd13ifvqi2g","pricing_plan_id":"cebpf4jnsgd1na2vs0mg"},{"bike_id":"4d4efbb0-c970-4483-a7bf-fa123c3387d5","system_id":"levelo_inurba_marseille","lat":43.29874,"lon":5.39732,"is_reserved":false,"is_disabled":false,"rental_uris":{"android":"levelo://app?vid=4d4efbb0-c970-4483-a7bf-fa123c3387d5","ios":"levelo://app?vid=4d4efbb0-c970-4483-a7bf-fa123c3387d5"},"vehicle_type_id":"4","last_reported":1744740764,"current_range_meters":18800,"station_id":"ce4bh0h2rcd13ifvqd50","pricing_plan_id":"cebpf4jnsgd1na2vs0mg"},{"bike_id":"86db1069-f2cc-4d61-9f21-bf1b57b6defa","system_id":"levelo_inurba_marseille","lat":43.27997,"lon":5.4002,"is_reserved":false,"is_disabled":false,"rental_uris":{"android":"levelo://app?vid=86db1069-f2cc-4d61-9f21-bf1b57b6defa","ios":"levelo://app?vid=86db1069-f2cc-4d61-9f21-bf1b57b6defa"},"vehicle_type_id":"4","last_reported":1744740764,"current_range_meters":18800,"station_id":"ce4bho92rcd13ifvqh4g","pricing_plan_id":"cebpf4jnsgd1na2vs0mg"},{"bike_id":"ca08d204-5675-4440-95e8-4349729747f3","system_id":"levelo_inurba_marseille","lat":43.30214,"lon":5.39469,"is_reserved":false,"is_disabled":false,"rental_uris":{"android":"levelo://app?vid=ca08d204-5675-4440-95e8-4349729747f3","ios":"levelo://app?vid=ca08d204-5675-4440-95e8-4349729747f3"},"vehicle_type_id":"4","last_reported":1744740764,"current_range_meters":18800,"station_id":"ce4bh0p2rcd13ifvqd70","pricing_plan_id":"cebpf4jnsgd1na2vs0mg"},{"bike_id":"629f4c9a-2873-4243-8b4d-cc9d14be569b","system_id":"levelo_inurba_marseille","lat":43.28164,"lon":5.42684,"is_reserved":false,"is_disabled":false,"rental_uris":{"android":"levelo://app?vid=629f4c9a-2873-4243-8b4d-cc9d14be569b","ios":"levelo://app?vid=629f4c9a-2873-4243-8b4d-cc9d14be569b"},"vehicle_type_id":"4","last_reported":1744740764,"current_range_meters":18000,"station_id":"ce4bhnh2rcd13ifvqgug","pricing_plan_id":"cebpf4jnsgd1na2vs0mg"},{"bike_id":"fa8b5d88-c56b-4501-99c1-1b5a6dfd1f66","system_id":"levelo_inurba_marseille","lat":43.21193,"lon":5.350706,"is_reserved":false,"is_disabled":false,"rental_uris":{"android":"levelo://app?vid=fa8b5d88-c56b-4501-99c1-1b5a6dfd1f66","ios":"levelo://app?vid=fa8b5d88-c56b-4501-99c1-1b5a6dfd1f66"},"vehicle_type_id":"4","last_reported":1744740764,"current_range_meters":18800,"station_id":"st_cvj6sg6p6f1abm77japg","pricing_plan_id":"cebpf4jnsgd1na2vs0mg"},{"bike_id":"c039d508-235f-4a18-aee6-80e37b489ee7","system_id":"levelo_inurba_marseille","lat":43.2408,"lon":5.37764,"is_reserved":false,"is_disabled":false,"rental_uris":{"android":"levelo://app?vid=c039d508-235f-4a18-aee6-80e37b489ee7","ios":"levelo://app?vid=c039d508-235f-4a18-aee6-80e37b489ee7"},"vehicle_type_id":"4","last_reported":1744740764,"current_range_meters":18800,"station_id":"ce4bhnp2rcd13ifvqgvg","pricing_plan_id":"cebpf4jnsgd1na2vs0mg"},{"bike_id":"4cc60183-f086-4946-9e35-7a75728daa73","system_id":"levelo_inurba_marseille","lat":43.25727,"lon":5.38675,"is_reserved":false,"is_disabled":false,"rental_uris":{"android":"levelo://app?vid=4cc60183-f086-4946-9e35-7a75728daa73","ios":"levelo://app?vid=4cc60183-f086-4946-9e35-7a75728daa73"},"vehicle_type_id":"4","last_reported":1744740764,"current_range_meters":18800,"station_id":"","pricing_plan_id":"cebpf4jnsgd1na2vs0mg"},{"bike_id":"fc92d47c-afe9-4553-8654-0446c197b00e","system_id":"levelo_inurba_marseille","lat":43.30273,"lon":5.40039,"is_reserved":false,"is_disabled":false,"rental_uris":{"android":"levelo://app?vid=fc92d47c-afe9-4553-8654-0446c197b00e","ios":"levelo://app?vid=fc92d47c-afe9-4553-8654-0446c197b00e"},"vehicle_type_id":"4","last_reported":1744740764,"current_range_meters":18800,"station_id":"ce4bgvh2rcd13ifvqcs0","pricing_plan_id":"cebpf4jnsgd1na2vs0mg"},{"bike_id":"b76a366b-6464-49b8-8aea-9aa46635f1d1","system_id":"levelo_inurba_marseille","lat":43.28416,"lon":5.37514,"is_reserved":false,"is_disabled":false,"rental_uris":{"android":"levelo://app?vid=b76a366b-6464-49b8-8aea-9aa46635f1d1","ios":"levelo://app?vid=b76a366b-6464-49b8-8aea-9aa46635f1d1"},"vehicle_type_id":"4","last_reported":1744740764,"current_range_meters":19200,"station_id":"ce4bh412rcd13ifvqds0","pricing_plan_id":"cebpf4jnsgd1na2vs0mg"},{"bike_id":"3430504e-cdab-4738-841e-f6b60e5f2dcc","system_id":"levelo_inurba_marseille","lat":43.30592,"lon":5.39361,"is_reserved":false,"is_disabled":false,"rental_uris":{"android":"levelo://app?vid=3430504e-cdab-4738-841e-f6b60e5f2dcc","ios":"levelo://app?vid=3430504e-cdab-4738-841e-f6b60e5f2dcc"},"vehicle_type_id":"4","last_reported":1744740764,"current_range_meters":19200,"station_id":"ce4bh0p2rcd13ifvqd80","pricing_plan_id":"cebpf4jnsgd1na2vs0mg"},