{"last_updated":1725746846,"ttl":30,"version":"2.2","data":{"bikes":[{"bike_id":"55f0c729-f7d4-4fdf-9182-4041fce19e94","system_id":"levelo_inurba_marseille","lat":43.312239,"lon":5.368562,"is_reserved":false,"is_disabled":false,"rental_uris":{"android":"levelo://app?vid=55f0c729-f7d4-4fdf-9182-4041fce19e94","ios":"levelo://app?vid=55f0c729-f7d4-4fdf-9182-4041fce19e94"},"vehicle_type_id":"4","last_reported":1725746846,"current_range_meters":21600,"station_id":"ce4bgl92rcd13ifvqbq0","pricing_plan_id":"cebpf4jnsgd1na2vs0mg"},{"bike_id":"01e01b4c-fa4a-437c-828f-18e6f85c5f53","system_id":"levelo_inurba_marseille","lat":43.309076,"lon":5.368465,"is_reserved":false,"is_disabled":false,"rental_uris":{"android":"levelo://app?vid=01e01b4c-fa4a-437c-828f-18e6f85c5f53","ios":"levelo://app?vid=01e01b4c-fa4a-437c-828f-18e6f85c5f53"},"vehicle_type_id":"4","last_reported":1725746846,"current_range_meters":18400,"station_id":"ce4bgn92rcd13ifvqbvg","pricing_plan_id":"cebpf4jnsgd1na2vs0mg"},{"bike_id":"0fdd196b-8eaa-4aa5-8ee8-8ff0bac4e3f6","system_id":"levelo_inurba_marseille","lat":43.31046,"lon":5.37191,"is_reserved":false,"is_disabled":false,"rental_uris":{"android":"levelo://app?vid=0fdd196b-8eaa-4aa5-8ee8-8ff0bac4e3f6","ios":"levelo://app?vid=0fdd196b-8eaa-4aa5-8ee8-8ff0bac4e3f6"},"vehicle_type_id":"4","last_reported":1725746846,"current_range_meters":14400,"station_id":"","pricing_plan_id":"cebpf4jnsgd1na2vs0mg"},{"bike_id":"0771434f-42ca-43a2-9fcb-52d6fbece4e0","system_id":"levelo_inurba_marseille","lat":43.314811,"lon":5.373103,"is_reserved":false,"is_disabled":false,"rental_uris":{"android":"levelo://app?vid=0771434f-42ca-43a2-9fcb-52d6fbece4e0","ios":"levelo://app?vid=0771434f-42ca-43a2-9fcb-52d6fbece4e0"},"vehicle_type_id":"4","last_reported":1725746846,"current_range_meters":3600,"station_id":"ce4bgt12rcd13ifvqcd0","pricing_plan_id":"cebpf4jnsgd1na2vs0mg"},{"bike_id":"77561cbc-d982-40e4-bde6-d53a35a18695","system_id":"levelo_inurba_marseille","lat":43.314811,"lon":5.373103,"is_reserved":false,"is_disabled":false,"rental_uris":{"android":"levelo://app?vid=77561cbc-d982-40e4-bde6-d53a35a18695","ios":"levelo://app?vid=77561cbc-d982-40e4-bde6-d53a35a18695"},"vehicle_type_id":"4","last_reported":1725746846,"current_range_meters":16800,"station_id":"ce4bgt12rcd13ifvqcd0","pricing_plan_id":"cebpf4jnsgd1na2vs0mg"},{"bike_id":"86bd7daf-bc4d-418b-a0c2-7f20b62ee4ff","system_id":"levelo_inurba_marseille","lat":43.31493,"lon":5.37302,"is_reserved":false,"is_disabled":false,"rental_uris":{"android":"levelo://app?vid=86bd7daf-bc4d-418b-a0c2-7f20b62ee4ff","ios":"levelo://app?vid=86bd7daf-bc4d-418b-a0c2-7f20b62ee4ff"},"vehicle_type_id":"4","last_reported":1725746846,"current_range_meters":800,"station_id":"ce4bgt12rcd13ifvqcd0","pricing_plan_id":"cebpf4jnsgd1na2vs0mg"},{"bike_id":"210e7b0c-7634-47a7-bfbd-65e5b6cb758b","system_id":"levelo_inurba_marseille","lat":43.314811,"lon":5.373103,"is_reserved":false,"is_disabled":false,"rental_uris":{"android":"levelo://app?vid=210e7b0c-7634-47a7-bfbd-65e5b6cb758b","ios":"levelo://app?vid=210e7b0c-7634-47a7-bfbd-65e5b6cb758b"},"vehicle_type_id":"4","last_reported":1725746846,"current_range_meters":22400,"station_id":"ce4bgt12rcd13ifvqcd0","pricing_plan_id":"cebpf4jnsgd1na2vs0mg"},{"bike_id":"fa002adf-09f6-4c8b-93c6-2a73662463e5","system_id":"levelo_inurba_marseille","lat":43.314811,"lon":5.373103,"is_reserved":false,"is_disabled":false,"rental_uris":{"android":"levelo://app?vid=fa002adf-09f6-4c8b-93c6-2a73662463e5","ios":"levelo://app?vid=fa002adf-09f6-4c8b-93c6-2a73662463e5"},"vehicle_type_id":"4","last_reported":1725746846,"current_range_meters":28400,"station_id":"ce4bgt12rcd13ifvqcd0","pricing_plan_id":"cebpf4jnsgd1na2vs0mg"},{"bike_id":"43aa4ded-9028-421a-a366-de1ff384a3ea","system_id":"levelo_inurba_marseille","lat":43.309039,"lon":5.371797,"is_reserved":false,"is_disabled":false,"rental_uris":{"android":"levelo://app?vid=43aa4ded-9028-421a-a366-de1ff384a3ea","ios":"levelo://app?vid=43aa4ded-9028-421a-a366-de1ff384a3ea"},"vehicle_type_id":"4","last_reported":1725746846,"current_range_meters":11200,"station_id":"ce4bguh2rcd13ifvqckg","pricing_plan_id":"cebpf4jnsgd1na2vs0mg"},{"bike_id":"23078cf0-d9dd-4108-82c2-cb5b04f900e6","system_id":"levelo_inurba_marseille","lat":43.30894,"lon":5.37198,"is_reserved":false,"is_disabled":false,"rental_uris":{"android":"levelo://app?vid=23078cf0-d9dd-4108-82c2-cb5b04f900e6","ios":"levelo://app?vid=23078cf0-d9dd-4108-82c2-cb5b04f900e6"},"vehicle_type_id":"4","last_reported":1725746846,"current_range_meters":800,"station_id":"ce4bguh2rcd13ifvqckg","pricing_plan_id":"cebpf4jnsgd1na2vs0mg"},{"bike_id":"da4160f6-f0cd-4093-93c2-1bc61f606e3c","system_id":"levelo_inurba_marseille","lat":43.306273,"lon":5.365658,"is_reserved":false,"is_disabled":false,"rental_uris":{"android":"levelo://app?vid=da4160f6-f0cd-4093-93c2-1bc61f606e3c","ios":"levelo://app?vid=da4160f6-f0cd-4093-93c2-1bc61f606e3c"},"vehicle_type_id":"4","last_reported":1725746846,"current_range_meters":0,"station_id":"","pricing_plan_id":"cebpf4jnsgd1na2vs0mg"},{"bike_id":"986e5865-9ed9-4c78-9d2c-93bcad47b786","system_id":"levelo_inurba_marseille","lat":43.305706,"lon":5.365654,"is_reserved":false,"is_disabled":false,"rental_uris":{"android":"levelo://app?vid=986e5865-9ed9-4c78-9d2c-93bcad47b786","ios":"levelo://app?vid=986e5865-9ed9-4c78-9d2c-93bcad47b786"},"vehicle_type_id":"4","last_reported":1725746846,"current_range_meters":0,"station_id":"ce4bgs12rcd13ifvqcag","pricing_plan_id":"cebpf4jnsgd1na2vs0mg"},{"bike_id":"f27fca3c-16f6-44c0-be56-109156f03632","system_id":"levelo_inurba_marseille","lat":43.305368,"lon":5.367343,"is_reserved":false,"is_disabled":false,"rental_uris":{"android":"levelo://app?vid=f27fca3c-16f6-44c0-be56-109156f03632","ios":"levelo://app?vid=f27fca3c-16f6-44c0-be56-109156f03632"},"vehicle_type_id":"4","last_reported":1725746846,"current_range_meters":13600,"station_id":"ce4bgrp2rcd13ifvqc9g","pricing_plan_id":"cebpf4jnsgd1na2vs0mg"},{"bike_id":"02faa798-354d-4901-9996-1c5abc5caf7f","system_id":"levelo_inurba_marseille","lat":43.30522,"lon":5.3659,"is_reserved":false,"is_disabled":false,"rental_uris":{"android":"levelo://app?vid=02faa798-354d-4901-9996-1c5abc5caf7f","ios":"levelo://app?vid=02faa798-354d-4901-9996-1c5abc5caf7f"},"vehicle_type_id":"4","last_reported":1725746846,"current_range_meters":8000,"station_id":"","pricing_plan_id":"cebpf4jnsgd1na2vs0mg"},{"bike_id":"2bd9fa7b-4de5-4d5a-a709-55aa36900bfe","system_id":"levelo_inurba_marseille","lat":43.30616,"lon":5.37235,"is_reserved":false,"is_disabled":false,"rental_uris":{"android":"levelo://app?vid=2bd9fa7b-4de5-4d5a-a709-55aa36900bfe","ios":"levelo://app?vid=2bd9fa7b-4de5-4d5a-a709-55aa36900bfe"},"vehicle_type_id":"4","last_reported":1725746846,"current_range_meters":19200,"station_id":"ce4bgqh2rcd13ifvqc4g","pricing_plan_id":"cebpf4jnsgd1na2vs0mg"},{"bike_id":"44046a7e-77bd-4e0e-a3a9-9533c84e6bab","system_id":"levelo_inurba_marseille","lat":43.30606,"lon":5.372233,"is_reserved":false,"is_disabled":false,"rental_uris":{"android":"levelo://app?vid=44046a7e-77bd-4e0e-a3a9-9533c84e6bab","ios":"levelo://app?vid=44046a7e-77bd-4e0e-a3a9-9533c84e6bab"},"vehicle_type_id":"4","last_reported":1725746846,"current_range_meters":12000,"station_id":"ce4bgqh2rcd13ifvqc4g","pricing_plan_id":"cebpf4jnsgd1na2vs0mg"},{"bike_id":"de05e6a1-0e7f-4c36-8569-7dc09ad8d696","system_id":"levelo_inurba_marseille","lat":43.311125,"lon":5.377624,"is_reserved":false,"is_disabled":false,"rental_uris":{"android":"levelo://app?vid=de05e6a1-0e7f-4c36-8569-7dc09ad8d696","ios":"levelo://app?vid=de05e6a1-0e7f-4c36-8569-7dc09ad8d696"},"vehicle_type_id":"4","last_reported":1725746846,"current_range_meters":29600,"station_id":"ce4bgt92rcd13ifvqcg0","pricing_plan_id":"cebpf4jnsgd1na2vs0mg"},{"bike_id":"41eac20b-ad4b-433b-820f-af1d1a5abb46","system_id":"levelo_inurba_marseille","lat":43.311125,"lon":5.377624,"is_reserved":false,"is_disabled":false,"rental_uris":{"android":"levelo://app?vid=41eac20b-ad4b-433b-820f-af1d1a5abb46","ios":"levelo://app?vid=41eac20b-ad4b-433b-820f-af1d1a5abb46"},"vehicle_type_id":"4","last_reported":1725746846,"current_range_meters":28000,"station_id":"ce4bgt92rcd13ifvqcg0","pricing_plan_id":"cebpf4jnsgd1na2vs0mg"},{"bike_id":"b25d4f39-4582-4edc-90fc-9b2dea8f0fbf","system_id":"levelo_inurba_marseille","lat":43.311131,"lon":5.377651,"is_reserved":false,"is_disabled":false,"rental_uris":{"android":"levelo://app?vid=b25d4f39-4582-4edc-90fc-9b2dea8f0fbf","ios":"levelo://app?vid=b25d4f39-4582-4edc-90fc-9b2dea8f0fbf"},"vehicle_type_id":"4","last_reported":1725746846,"current_range_meters":14400,"station_id":"ce4bgt92rcd13ifvqcg0","pricing_plan_id":"cebpf4jnsgd1na2vs0mg"},{"bike_id":"c88e18b1-8364-445b-9ce4-96bf518cfe1a","system_id":"levelo_inurba_marseille","lat":43.311131,"lon":5.377651,"is_reserved":false,"is_disabled":false,"rental_uris":{"android":"levelo://app?vid=c88e18b1-8364-445b-9ce4-96bf518cfe1a","ios":"levelo://app?vid=c88e18b1-8364-445b-9ce4-96bf518cfe1a"},"vehicle_type_id":"4","last_reported":1725746846,"current_range_meters":27600,"station_id":"ce4bgt92rcd13ifvqcg0","pricing_plan_id":"cebpf4jnsgd1na2vs0mg"},{"bike_id":"cb72cf2b-2fb8-4dd8-8034-84ff0b97ee9d","system_id":"levelo_inurba_marseille","lat":43.307945,"lon":5.376487,"is_reserved":false,"is_disabled":false,"rental_uris":{"android":"levelo://app?vid=cb72cf2b-2fb8-4dd8-8034-84ff0b97ee9d","ios":"levelo://app?vid=cb72cf2b-2fb8-4dd8-8034-84ff0b97ee9d"},"vehicle_type_id":"4","last_reported":1725746846,"current_range_meters":28800,"station_id":"ce4bgv92rcd13ifvqcq0","pricing_plan_id":"cebpf4jnsgd1na2vs0mg"},{"bike_id":"38449659-0f7a-4852-bf73-dd342fc64e7c","system_id":"levelo_inurba_marseille","lat":43.307945,"lon":5.376487,"is_reserved":false,"is_disabled":false,"rental_uris":{"android":"levelo://app?vid=38449659-0f7a-4852-bf73-dd342fc64e7c","ios":"levelo://app?vid=38449659-0f7a-4852-bf73-dd342fc64e7c"},"vehicle_type_id":"4","last_reported":1725746846,"current_range_meters":19200,"station_id":"ce4bgv92rcd13ifvqcq0","pricing_plan_id":"cebpf4jnsgd1na2vs0mg"},{"bike_id":"147ed29c-e844-4e27-814d-79e13401c002","system_id":"levelo_inurba_marseille","lat":43.307945,"lon":5.376487,"is_reserved":false,"is_disabled":false,"rental_uris":{"android":"levelo://app?vid=147ed29c-e844-4e27-814d-79e13401c002","ios":"levelo://app?vid=147ed29c-e844-4e27-814d-79e13401c002"},"vehicle_type_id":"4","last_reported":1725746846,"current_range_meters":21200,"station_id":"ce4bgv92rcd13ifvqcq0","pricing_plan_id":"cebpf4jnsgd1na2vs0mg"},{"bike_id":"b45a48f0-0641-4c2c-bff3-d05ec67d691a","system_id":"levelo_inurba_marseille","lat":43.317075,"lon":5.377367,"is_reserved":false,"is_disabled":false,"rental_uris":{"android":"levelo://app?vid=b45a48f0-0641-4c2c-bff3-d05ec67d691a","ios":"levelo://app?vid=b45a48f0-0641-4c2c-bff3-d05ec67d691a"},"vehicle_type_id":"4","last_reported":1725746846,"current_range_meters":20000,"station_id":"ce4bgth2rcd13ifvqch0","pricing_plan_id":"cebpf4jnsgd1na2vs0mg"},{"bike_id":"a4adebcc-2100-4f8f-a7df-69b3cc0bca7c","system_id":"levelo_inurba_marseille","lat":43.317075,"lon":5.377367,"is_reserved":false,"is_disabled":false,"rental_uris":{"android":"levelo://app?vid=a4adebcc-2100-4f8f-a7df-69b3cc0bca7c","ios":"levelo://app?vid=a4adebcc-2100-4f8f-a7df-69b3cc0bca7c"},"vehicle_type_id":"4","last_reported":1725746846,"current_range_meters":31600,"station_id":"ce4bgth2rcd13ifvqch0","pricing_plan_id":"cebpf4jnsgd1na2vs0mg"},{"bike_id":"e6240958-5766-4e43-be3c-5414d3e93fa9","system_id":"levelo_inurba_marseille","lat":43.31354,"lon":5.37918,"is_reserved":false,"is_disabled":false,"rental_uris":{"android":"levelo://app?vid=e6240958-5766-4e43-be3c-5414d3e93fa9","ios":"levelo://app?vid=e6240958-5766-4e43-be3c-5414d3e93fa9"},"vehicle_type_id":"4","last_reported":1725746846,"current_range_meters":21600,"station_id":"","pricing_plan_id":"cebpf4jnsgd1na2vs0mg"},{"bike_id":"f8e959d2-c37b-4bb4-aa87-06d2e4923964","system_id":"levelo_inurba_marseille","lat":43.303046,"lon":5.368981,"is_reserved":false,"is_disabled":false,"rental_uris":{"android":"levelo://app?vid=f8e959d2-c37b-4bb4-aa87-06d2e4923964","ios":"levelo://app?vid=f8e959d2-c37b-4bb4-aa87-06d2e4923964"},"vehicle_type_id":"4","last_reported":1725746846,"current_range_meters":3200,"station_id":"ce4bgqh2rcd13ifvqc5g","pricing_plan_id":"cebpf4jnsgd1na2vs0mg"},{"bike_id":"930916df-2d1a-4d9d-bc9e-6695c95134cf","system_id":"levelo_inurba_marseille","lat":43.315431,"lon":5.380006,"is_reserved":false,"is_disabled":false,"rental_uris":{"android":"levelo://app?vid=930916df-2d1a-4d9d-bc9e-6695c95134cf","ios":"levelo://app?vid=930916df-2d1a-4d9d-bc9e-6695c95134cf"},"vehicle_type_id":"4","last_reported":1725746846,"current_range_meters":14400,"station_id":"","pricing_plan_id":"cebpf4jnsgd1na2vs0mg"},{"bike_id":"ca98d8df-c1c7-4c0f-9208-bfda3c1cbb58","system_id":"levelo_inurba_marseille","lat":43.315289,"lon":5.380349,"is_reserved":false,"is_disabled":false,"rental_uris":{"android":"levelo://app?vid=ca98d8df-c1c7-4c0f-9208-bfda3c1cbb58","ios":"levelo://app?vid=ca98d8df-c1c7-4c0f-9208-bfda3c1cbb58"},"vehicle_type_id":"4","last_reported":1725746846,"current_range_meters":8800,"station_id":"ce4bhsp2rcd13ifvqi50","pricing_plan_id":"cebpf4jnsgd1na2vs0mg"},{"bike_id":"85e47db4-f9bc-4540-a1bf-a58bf96b354e","system_id":"levelo_inurba_marseille","lat":43.315289,"lon":5.380349,"is_reserved":false,"is_disabled":false,"rental_uris":{"android":"levelo://app?vid=85e47db4-f9bc-4540-a1bf-a58bf96b354e","ios":"levelo://app?vid=85e47db4-f9bc-4540-a1bf-a58bf96b354e"},"vehicle_type_id":"4","last_reported":1725746846,"current_range_meters":28400,"station_id":"ce4bhsp2rcd13ifvqi50","pricing_plan_id":"cebpf4jnsgd1na2vs0mg"},{"bike_id":"78ab6508-0787-4af4-9744-548f92ab22b7","system_id":"levelo_inurba_marseille","lat":43.31418,"lon":5.38098,"is_reserved":false,"is_disabled":false,"rental_uris":{"android":"levelo://app?vid=78ab6508-0787-4af4-9744-548f92ab22b7","ios":"levelo://app?vid=78ab6508-0787-4af4-9744-548f92ab22b7"},"vehicle_type_id":"4","last_reported":1725746846,"current_range_meters":12800,"station_id":"","pricing_plan_id":"cebpf4jnsgd1na2vs0mg"},{"bike_id":"5c7e602c-f961-461f-96ab-799dea8e8115","system_id":"levelo_inurba_marseille","lat":43.32315,"lon":5.36737,"is_reserved":false,"is_disabled":false,"rental_uris":{"android":"levelo://app?vid=5c7e602c-f961-461f-96ab-799dea8e8115","ios":"levelo://app?vid=5c7e602c-f961-461f-96ab-799dea8e8115"},"vehicle_type_id":"4","last_reported":1725746846,"current_range_meters":13200,"station_id":"","pricing_plan_id":"cebpf4jnsgd1na2vs0mg"},{"bike_id":"f124ef5d-7024-4d1e-82e2-852d4fc81126","system_id":"levelo_inurba_marseille","lat":43.303046,"lon":5.368981,"is_reserved":false,"is_disabled":false,"rental_uris":{"android":"levelo://app?vid=f124ef5d-7024-4d1e-82e2-852d4fc81126","ios":"levelo://app?vid=f124ef5d-7024-4d1e-82e2-852d4fc81126"},"vehicle_type_id":"4","last_reported":1725746846,"current_range_meters":17600,"station_id":"ce4bgqh2rcd13ifvqc5g","pricing_plan_id":"cebpf4jnsgd1na2vs0mg"},{"bike_id":"59ed6e0f-f315-4763-8f1e-f62dd2a17ef6","system_id":"levelo_inurba_marseille","lat":43.301939,"lon":5.366286,"is_reserved":false,"is_disabled":false,"rental_uris":{"android":"levelo://app?vid=59ed6e0f-f315-4763-8f1e-f62dd2a17ef6","ios":"levelo://app?vid=59ed6e0f-f315-4763-8f1e-f62dd2a17ef6"},"vehicle_type_id":"4","last_reported":1725746846,"current_range_meters":9600,"station_id":"ce4bgrh2rcd13ifvqc8g","pricing_plan_id":"cebpf4jnsgd1na2vs0mg"},{"bike_id":"8f587d36-b2ef-4ede-b802-55c79e5c2e33","system_id":"levelo_inurba_marseille","lat":43.308012,"lon":5.381511,"is_reserved":false,"is_disabled":false,"rental_uris":{"android":"levelo://app?vid=8f587d36-b2ef-4ede-b802-55c79e5c2e33","ios":"levelo://app?vid=8f587d36-b2ef-4ede-b802-55c79e5c2e33"},"vehicle_type_id":"4","last_reported":1725746846,"current_range_meters":31600,"station_id":"ce4bgt12rcd13ifvqce0","pricing_plan_id":"cebpf4jnsgd1na2vs0mg"},{"bike_id":"2b364fe4-9743-4cd0-8cf5-221f1fddf3d4","system_id":"levelo_inurba_marseille","lat":43.308012,"lon":5.381511,"is_reserved":false,"is_disabled":false,"rental_uris":{"android":"levelo://app?vid=2b364fe4-9743-4cd0-8cf5-221f1fddf3d4","ios":"levelo://app?vid=2b364fe4-9743-4cd0-8cf5-221f1fddf3d4"},"vehicle_type_id":"4","last_reported":1725746846,"current_range_meters":23600,"station_id":"ce4bgt12rcd13ifvqce0","pricing_plan_id":"cebpf4jnsgd1na2vs0mg"},{"bike_id":"92ba46e7-45ae-4ea0-bfda-aaffc48d5533","system_id":"levelo_inurba_marseille","lat":43.308012,"lon":5.381511,"is_reserved":false,"is_disabled":false,"rental_uris":{"android":"levelo://app?vid=92ba46e7-45ae-4ea0-bfda-aaffc48d5533","ios":"levelo://app?vid=92ba46e7-45ae-4ea0-bfda-aaffc48d5533"},"vehicle_type_id":"4","last_reported":1725746846,"current_range_meters":31200,"station_id":"ce4bgt12rcd13ifvqce0","pricing_plan_id":"cebpf4jnsgd1na2vs0mg"},{"bike_id":"9ea8e454-202b-4c66-a144-8da5656995c9","system_id":"levelo_inurba_marseille","lat":43.304606,"lon":5.379026,"is_reserved":false,"is_disabled":false,"rental_uris":{"android":"levelo://app?vid=9ea8e454-202b-4c66-a144-8da5656995c9","ios":"levelo://app?vid=9ea8e454-202b-4c66-a144-8da5656995c9"},"vehicle_type_id":"4","last_reported":1725746846,"current_range_meters":28400,"station_id":"ce4bgup2rcd13ifvqcn0","pricing_plan_id":"cebpf4jnsgd1na2vs0mg"},{"bike_id":"f3d9b749-69af-431c-9a8b-10e4bf66fcd0","system_id":"levelo_inurba_marseille","lat":43.304606,"lon":5.379026,"is_reserved":false,"is_disabled":false,"rental_uris":{"android":"levelo://app?vid=f3d9b749-69af-431c-9a8b-10e4bf66fcd0","ios":"levelo://app?vid=f3d9b749-69af-431c-9a8b-10e4bf66fcd0"},"vehicle_type_id":"4","last_reported":1725746846,"current_range_meters":21200,"station_id":"ce4bgup2rcd13ifvqcn0","pricing_plan_id":"cebpf4jnsgd1na2vs0mg"},{"bike_id":"27d814fe-3cce-401a-92e3-d4089fe0c3c3","system_id":"levelo_inurba_marseille","lat":43.304606,"lon":5.379026,"is_reserved":false,"is_disabled":false,"rental_uris":{"android":"levelo://app?vid=27d814fe-3cce-401a-92e3-d4089fe0c3c3","ios":"levelo://app?vid=27d814fe-3cce-401a-92e3-d4089fe0c3c3"},"vehicle_type_id":"4","last_reported":1725746846,"current_range_meters":0,"station_id":"ce4bgup2rcd13ifvqcn0","pricing_plan_id":"cebpf4jnsgd1na2vs0mg"},{"bike_id":"65c91795-2ec5-482a-afb8-a5b9b4bc73cc","system_id":"levelo_inurba_marseille","lat":43.32471,"lon":5.36556,"is_reserved":false,"is_disabled":false,"rental_uris":{"android":"levelo://app?vid=65c91795-2ec5-482a-afb8-a5b9b4bc73cc","ios":"levelo://app?vid=65c91795-2ec5-482a-afb8-a5b9b4bc73cc"},"vehicle_type_id":"4","last_reported":1725746846,"current_range_meters":0,"station_id":"ce4bhs12rcd13ifvqhvg","pricing_plan_id":"cebpf4jnsgd1na2vs0mg"},{"bike_id":"acc8d95b-b0ee-4e32-b0d6-6cb30a28b94d","system_id":"levelo_inurba_marseille","lat":43.324771,"lon":5.36557,"is_reserved":false,"is_disabled":false,"rental_uris":{"android":"levelo://app?vid=acc8d95b-b0ee-4e32-b0d6-6cb30a28b94d","ios":"levelo://app?vid=acc8d95b-b0ee-4e32-b0d6-6cb30a28b94d"},"vehicle_type_id":"4","last_reported":1725746846,"current_range_meters":30800,"station_id":"ce4bhs12rcd13ifvqhvg","pricing_plan_id":"cebpf4jnsgd1na2vs0mg"},{"bike_id":"6c61bdbd-6e35-4fea-aaaf-94a58b260f5d","system_id":"levelo_inurba_marseille","lat":43.324771,"lon":5.36557,"is_reserved":false,"is_disabled":false,"rental_uris":{"android":"levelo://app?vid=6c61bdbd-6e35-4fea-aaaf-94a58b260f5d","ios":"levelo://app?vid=6c61bdbd-6e35-4fea-aaaf-94a58b260f5d"},"vehicle_type_id":"4","last_reported":1725746846,"current_range_meters":22000,"station_id":"ce4bhs12rcd13ifvqhvg","pricing_plan_id":"cebpf4jnsgd1na2vs0mg"},{"bike_id":"943df34e-3f55-4d9e-80e4-2895fa921602","system_id":"levelo_inurba_marseille","lat":43.324771,"lon":5.36557,"is_reserved":false,"is_disabled":false,"rental_uris":{"android":"levelo://app?vid=943df34e-3f55-4d9e-80e4-2895fa921602","ios":"levelo://app?vid=943df34e-3f55-4d9e-80e4-2895fa921602"},"vehicle_type_id":"4","last_reported":1725746846,"current_range_meters":15600,"station_id":"ce4bhs12rcd13ifvqhvg","pricing_plan_id":"cebpf4jnsgd1na2vs0mg"},{"bike_id":"b83759f6-f7fa-4843-a33f-84324b7670cb","system_id":"levelo_inurba_marseille","lat":43.324771,"lon":5.36557,"is_reserved":false,"is_disabled":false,"rental_uris":{"android":"levelo://app?vid=b83759f6-f7fa-4843-a33f-84324b7670cb","ios":"levelo://app?vid=b83759f6-f7fa-4843-a33f-84324b7670cb"},"vehicle_type_id":"4","last_reported":1725746846,"current_range_meters":22800,"station_id":"ce4bhs12rcd13ifvqhvg","pricing_plan_id":"cebpf4jnsgd1na2vs0mg"},{"bike_id":"1ebee506-a41b-42e5-882e-37dfe4752dd7","system_id":"levelo_inurba_marseille","lat":43.324771,"lon":5.36557,"is_reserved":false,"is_disabled":false,"rental_uris":{"android":"levelo://app?vid=1ebee506-a41b-42e5-882e-37dfe4752dd7","ios":"levelo://app?vid=1ebee506-a41b-42e5-882e-37dfe4752dd7"},"vehicle_type_id":"4","last_reported":1725746846,"current_range_meters":29600,"station_id":"ce4bhs12rcd13ifvqhvg","pricing_plan_id":"cebpf4jnsgd1na2vs0mg"},{"bike_id":"0f93c393-9836-478d-bf34-b2ab50183980","system_id":"levelo_inurba_marseille","lat":43.324771,"lon":5.36557,"is_reserved":false,"is_disabled":false,"rental_uris":{"android":"levelo://app?vid=0f93c393-9836-478d-bf34-b2ab50183980","ios":"levelo://app?vid=0f93c393-9836-478d-bf34-b2ab50183980"},"vehicle_type_id":"4","last_reported":1725746846,"current_range_meters":16400,"station_id":"ce4bhs12rcd13ifvqhvg","pricing_plan_id":"cebpf4jnsgd1na2vs0mg"},{"bike_id":"20b542ca-cf43-4263-b025-7a43dd49f5e4","system_id":"levelo_inurba_marseille","lat":43.324771,"lon":5.36557,"is_reserved":false,"is_disabled":false,"rental_uris":{"android":"levelo://app?vid=20b542ca-cf43-4263-b025-7a43dd49f5e4","ios":"levelo://app?vid=20b542ca-cf43-4263-b025-7a43dd49f5e4"},"vehicle_type_id":"4","last_reported":1725746846,"current_range_meters":21600,"station_id":"ce4bhs12rcd13ifvqhvg","pricing_plan_id":"cebpf4jnsgd1na2vs0mg"},{"bike_id":"3f59255a-3785-4e9f-b445-bee79e129496","system_id":"levelo_inurba_marseille","lat":43.324771,"lon":5.36557,"is_reserved":false,"is_disabled":false,"rental_uris":{"android":"levelo://app?vid=3f59255a-3785-4e9f-b445-bee79e129496","ios":"levelo://app?vid=3f59255a-3785-4e9f-b445-bee79e129496"},"vehicle_type_id":"4","last_reported":1725746846,"current_range_meters":4400,"station_id":"ce4bhs12rcd13ifvqhvg","pricing_plan_id":"cebpf4jnsgd1na2vs0mg"},{"bike_id":"fd02baa5-9283-4a4e-8f68-d51dbf726e24","system_id":"levelo_inurba_marseille","lat":43.31076,"lon":5.3836,"is_reserved":false,"is_disabled":false,"rental_uris":{"android":"levelo://app?vid=fd02baa5-9283-4a4e-8f68-d51dbf726e24","ios":"levelo://app?vid=fd02baa5-9283-4a4e-8f68-d51dbf726e24"},"vehicle_type_id":"4","last_reported":1725746846,"current_range_meters":21600,"station_id":"ce4bgv92rcd13ifvqcr0","pricing_plan_id":"cebpf4jnsgd1na2vs0mg"},{"bike_id":"b5356a82-fb25-4ee6-9981-fb42a9aa5f11","system_id":"levelo_inurba_marseille","lat":43.30143,"lon":5.37413,"is_reserved":false,"is_disabled":false,"rental_uris":{"android":"levelo://app?vid=b5356a82-fb25-4ee6-9981-fb42a9aa5f11","ios":"levelo://app?vid=b5356a82-fb25-4ee6-9981-fb42a9aa5f11"},"vehicle_type_id":"4","last_reported":1725746846,"current_range_meters":28400,"station_id":"ce4bgs92rcd13ifvqcc0","pricing_plan_id":"cebpf4jnsgd1na2vs0mg"},{"bike_id":"ad5affec-61d8-4581-8d86-aa7feafab56d","system_id":"levelo_inurba_marseille","lat":43.301429,"lon":5.37413,"is_reserved":false,"is_disabled":false,"rental_uris":{"android":"levelo://app?vid=ad5affec-61d8-4581-8d86-aa7feafab56d","ios":"levelo://app?vid=ad5affec-61d8-4581-8d86-aa7feafab56d"},"vehicle_type_id":"4","last_reported":1725746846,"current_range_meters":14800,"station_id":"ce4bgs92rcd13ifvqcc0","pricing_plan_id":"cebpf4jnsgd1na2vs0mg"},{"bike_id":"f45bc68c-6b52-45c9-8faa-fe6ecd98fec0","system_id":"levelo_inurba_marseille","lat":43.319935,"lon":5.381699,"is_reserved":false,"is_disabled":false,"rental_uris":{"android":"levelo://app?vid=f45bc68c-6b52-45c9-8faa-fe6ecd98fec0","ios":"levelo://app?vid=f45bc68c-6b52-45c9-8faa-fe6ecd98fec0"},"vehicle_type_id":"4","last_reported":1725746846,"current_range_meters":31600,"station_id":"ce4bhr12rcd13ifvqhpg","pricing_plan_id":"cebpf4jnsgd1na2vs0mg"},{"bike_id":"eee2851c-7747-49c8-b3ad-c11670098ef7","system_id":"levelo_inurba_marseille","lat":43.319995,"lon":5.381515,"is_reserved":false,"is_disabled":false,"rental_uris":{"android":"levelo://app?vid=eee2851c-7747-49c8-b3ad-c11670098ef7","ios":"levelo://app?vid=eee2851c-7747-49c8-b3ad-c11670098ef7"},"vehicle_type_id":"4","last_reported":1725746846,"current_range_meters":31200,"station_id":"ce4bhr12rcd13ifvqhpg","pricing_plan_id":"cebpf4jnsgd1na2vs0mg"},{"bike_id":"da46f99f-142b-4d62-819a-b01b486272fd","system_id":"levelo_inurba_marseille","lat":43.319935,"lon":5.381699,"is_reserved":false,"is_disabled":false,"rental_uris":{"android":"levelo://app?vid=da46f99f-142b-4d62-819a-b01b486272fd","ios":"levelo://app?vid=da46f99f-142b-4d62-819a-b01b486272fd"},"vehicle_type_id":"4","last_reported":1725746846,"current_range_meters":31200,"station_id":"ce4bhr12rcd13ifvqhpg","pricing_plan_id":"cebpf4jnsgd1na2vs0mg"},{"bike_id":"c48e06ac-fbea-4fd5-8343-67f13e49e03e","system_id":"levelo_inurba_marseille","lat":43.319935,"lon":5.381699,"is_reserved":false,"is_disabled":false,"rental_uris":{"android":"levelo://app?vid=c48e06ac-fbea-4fd5-8343-67f13e49e03e","ios":"levelo://app?vid=c48e06ac-fbea-4fd5-8343-67f13e49e03e"},"vehicle_type_id":"4","last_reported":1725746846,"current_range_meters":22800,"station_id":"ce4bhr12rcd13ifvqhpg","pricing_plan_id":"cebpf4jnsgd1na2vs0mg"},{"bike_id":"37ac62ed-4893-4712-9218-1ad9c9cd1509","system_id":"levelo_inurba_marseille","lat":43.319949,"lon":5.381667,"is_reserved":false,"is_disabled":false,"rental_uris":{"android":"levelo://app?vid=37ac62ed-4893-4712-9218-1ad9c9cd1509","ios":"levelo://app?vid=37ac62ed-4893-4712-9218-1ad9c9cd1509"},"vehicle_type_id":"4","last_reported":1725746846,"current_range_meters":31200,"station_id":"ce4bhr12rcd13ifvqhpg","pricing_plan_id":"cebpf4jnsgd1na2vs0mg"},{"bike_id":"a09e9dbb-d7aa-4fc5-81df-6c7163693579","system_id":"levelo_inurba_marseille","lat":43.319935,"lon":5.381699,"is_reserved":false,"is_disabled":false,"rental_uris":{"android":"levelo://app?vid=a09e9dbb-d7aa-4fc5-81df-6c7163693579","ios":"levelo://app?vid=a09e9dbb-d7aa-4fc5-81df-6c7163693579"},"vehicle_type_id":"4","last_reported":1725746846,"current_range_meters":24000,"station_id":"ce4bhr12rcd13ifvqhpg","pricing_plan_id":"cebpf4jnsgd1na2vs0mg"},{"bike_id":"ba333f17-1a5a-4026-ad48-cbddf750a0a6","system_id":"levelo_inurba_marseille","lat":43.313571,"lon":5.384829,"is_reserved":false,"is_disabled":false,"rental_uris":{"android":"levelo://app?vid=ba333f17-1a5a-4026-ad48-cbddf750a0a6","ios":"levelo://app?vid=ba333f17-1a5a-4026-ad48-cbddf750a0a6"},"vehicle_type_id":"4","last_reported":1725746846,"current_range_meters":8400,"station_id":"ce4bgt92rcd13ifvqcf0","pricing_plan_id":"cebpf4jnsgd1na2vs0mg"},{"bike_id":"4c79417f-0917-44eb-9e60-abfab8937d9d","system_id":"levelo_inurba_marseille","lat":43.313571,"lon":5.384829,"is_reserved":false,"is_disabled":false,"rental_uris":{"android":"levelo://app?vid=4c79417f-0917-44eb-9e60-abfab8937d9d","ios":"levelo://app?vid=4c79417f-0917-44eb-9e60-abfab8937d9d"},"vehicle_type_id":"4","last_reported":1725746846,"current_range_meters":25600,"station_id":"ce4bgt92rcd13ifvqcf0","pricing_plan_id":"cebpf4jnsgd1na2vs0mg"},{"bike_id":"98d9feb0-e28f-46f1-b329-8bb9af6d22a9","system_id":"levelo_inurba_marseille","lat":43.299222,"lon":5.365554,"is_reserved":false,"is_disabled":false,"rental_uris":{"android":"levelo://app?vid=98d9feb0-e28f-46f1-b329-8bb9af6d22a9","ios":"levelo://app?vid=98d9feb0-e28f-46f1-b329-8bb9af6d22a9"},"vehicle_type_id":"4","last_reported":1725746846,"current_range_meters":31200,"station_id":"ce4bgm92rcd13ifvqbr0","pricing_plan_id":"cebpf4jnsgd1na2vs0mg"},{"bike_id":"fd7c93e9-79fe-4989-978f-91d6597fc9b6","system_id":"levelo_inurba_marseille","lat":43.299724,"lon":5.371829,"is_reserved":false,"is_disabled":false,"rental_uris":{"android":"levelo://app?vid=fd7c93e9-79fe-4989-978f-91d6597fc9b6","ios":"levelo://app?vid=fd7c93e9-79fe-4989-978f-91d6597fc9b6"},"vehicle_type_id":"4","last_reported":1725746846,"current_range_meters":5200,"station_id":"ce4bgr92rcd13ifvqc7g","pricing_plan_id":"cebpf4jnsgd1na2vs0mg"},{"bike_id":"200ce5a0-629b-410d-beaa-fe883d031a5f","system_id":"levelo_inurba_marseille","lat":43.299724,"lon":5.371829,"is_reserved":false,"is_disabled":false,"rental_uris":{"android":"levelo://app?vid=200ce5a0-629b-410d-beaa-fe883d031a5f","ios":"levelo://app?vid=200ce5a0-629b-410d-beaa-fe883d031a5f"},"vehicle_type_id":"4","last_reported":1725746846,"current_range_meters":19600,"station_id":"ce4bgr92rcd13ifvqc7g","pricing_plan_id":"cebpf4jnsgd1na2vs0mg"},{"bike_id":"58accf01-b068-4ce9-9cd3-1a9c89f50096","system_id":"levelo_inurba_marseille","lat":43.299724,"lon":5.371829,"is_reserved":false,"is_disabled":false,"rental_uris":{"android":"levelo://app?vid=58accf01-b068-4ce9-9cd3-1a9c89f50096","ios":"levelo://app?vid=58accf01-b068-4ce9-9cd3-1a9c89f50096"},"vehicle_type_id":"4","last_reported":1725746846,"current_range_meters":26400,"station_id":"ce4bgr92rcd13ifvqc7g","pricing_plan_id":"cebpf4jnsgd1na2vs0mg"},{"bike_id":"864b019c-7554-47e8-816c-3486a9a6fe16","system_id":"levelo_inurba_marseille","lat":43.29994,"lon":5.3758,"is_reserved":false,"is_disabled":false,"rental_uris":{"android":"levelo://app?vid=864b019c-7554-47e8-816c-3486a9a6fe16","ios":"levelo://app?vid=864b019c-7554-47e8-816c-3486a9a6fe16"},"vehicle_type_id":"4","last_reported":1725746846,"current_range_meters":3600,"station_id":"","pricing_plan_id":"cebpf4jnsgd1na2vs0mg"},{"bike_id":"168252e3-5f86-4076-b699-1aa11dac1d1e","system_id":"levelo_inurba_marseille","lat":43.305364,"lon":5.384119,"is_reserved":false,"is_disabled":false,"rental_uris":{"android":"levelo://app?vid=168252e3-5f86-4076-b699-1aa11dac1d1e","ios":"levelo://app?vid=168252e3-5f86-4076-b699-1aa11dac1d1e"},"vehicle_type_id":"4","last_reported":1725746846,"current_range_meters":17600,"station_id":"ce4bgg92rcd13ifvqb30","pricing_plan_id":"cebpf4jnsgd1na2vs0mg"},{"bike_id":"b7844b66-03ba-42f4-9210-f6b607d6c932","system_id":"levelo_inurba_marseille","lat":43.305364,"lon":5.384119,"is_reserved":false,"is_disabled":false,"rental_uris":{"android":"levelo://app?vid=b7844b66-03ba-42f4-9210-f6b607d6c932","ios":"levelo://app?vid=b7844b66-03ba-42f4-9210-f6b607d6c932"},"vehicle_type_id":"4","last_reported":1725746846,"current_range_meters":30000,"station_id":"ce4bgg92rcd13ifvqb30","pricing_plan_id":"cebpf4jnsgd1na2vs0mg"},{"bike_id":"3fa27c3f-ffd8-4eeb-84b1-69ada226e1a9","system_id":"levelo_inurba_marseille","lat":43.299243,"lon":5.374807,"is_reserved":false,"is_disabled":false,"rental_uris":{"android":"levelo://app?vid=3fa27c3f-ffd8-4eeb-84b1-69ada226e1a9","ios":"levelo://app?vid=3fa27c3f-ffd8-4eeb-84b1-69ada226e1a9"},"vehicle_type_id":"4","last_reported":1725746846,"current_range_meters":12800,"station_id":"ce4bgjh2rcd13ifvqbg0","pricing_plan_id":"cebpf4jnsgd1na2vs0mg"},{"bike_id":"46dc631d-a9b1-4a1d-8ba5-6cea2215cead","system_id":"levelo_inurba_marseille","lat":43.30155,"lon":5.38065,"is_reserved":false,"is_disabled":false,"rental_uris":{"android":"levelo://app?vid=46dc631d-a9b1-4a1d-8ba5-6cea2215cead","ios":"levelo://app?vid=46dc631d-a9b1-4a1d-8ba5-6cea2215cead"},"vehicle_type_id":"4","last_reported":1725746846,"current_range_meters":24800,"station_id":"ce4bgjp2rcd13ifvqbh0","pricing_plan_id":"cebpf4jnsgd1na2vs0mg"},{"bike_id":"4ae51d6b-aaaf-442a-873d-f8eca9a3e7b5","system_id":"levelo_inurba_marseille","lat":43.320702,"lon":5.384475,"is_reserved":false,"is_disabled":false,"rental_uris":{"android":"levelo://app?vid=4ae51d6b-aaaf-442a-873d-f8eca9a3e7b5","ios":"levelo://app?vid=4ae51d6b-aaaf-442a-873d-f8eca9a3e7b5"},"vehicle_type_id":"4","last_reported":1725746846,"current_range_meters":5200,"station_id":"","pricing_plan_id":"cebpf4jnsgd1na2vs0mg"},{"bike_id":"ab687b7c-5878-43b8-971a-fa86437b1336","system_id":"levelo_inurba_marseille","lat":43.29779,"lon":5.37113,"is_reserved":false,"is_disabled":false,"rental_uris":{"android":"levelo://app?vid=ab687b7c-5878-43b8-971a-fa86437b1336","ios":"levelo://app?vid=ab687b7c-5878-43b8-971a-fa86437b1336"},"vehicle_type_id":"4","last_reported":1725746846,"current_range_meters":28800,"station_id":"ce4bgop2rcd13ifvqc1g","pricing_plan_id":"cebpf4jnsgd1na2vs0mg"},{"bike_id":"9d4d4ad3-9fa4-4394-8995-8a5887e80cc8","system_id":"levelo_inurba_marseille","lat":43.322894,"lon":5.38264,"is_reserved":false,"is_disabled":false,"rental_uris":{"android":"levelo://app?vid=9d4d4ad3-9fa4-4394-8995-8a5887e80cc8","ios":"levelo://app?vid=9d4d4ad3-9fa4-4394-8995-8a5887e80cc8"},"vehicle_type_id":"4","last_reported":1725746846,"current_range_meters":11200,"station_id":"ce4bhr12rcd13ifvqhqg","pricing_plan_id":"cebpf4jnsgd1na2vs0mg"},{"bike_id":"e47dafff-d558-47f1-a802-dce1da8c7360","system_id":"levelo_inurba_marseille","lat":43.322872,"lon":5.382756,"is_reserved":false,"is_disabled":false,"rental_uris":{"android":"levelo://app?vid=e47dafff-d558-47f1-a802-dce1da8c7360","ios":"levelo://app?vid=e47dafff-d558-47f1-a802-dce1da8c7360"},"vehicle_type_id":"4","last_reported":1725746846,"current_range_meters":25600,"station_id":"ce4bhr12rcd13ifvqhqg","pricing_plan_id":"cebpf4jnsgd1na2vs0mg"},{"bike_id":"298c5559-107f-4d0b-8a5a-4643afde30a6","system_id":"levelo_inurba_marseille","lat":43.322872,"lon":5.382756,"is_reserved":false,"is_disabled":false,"rental_uris":{"android":"levelo://app?vid=298c5559-107f-4d0b-8a5a-4643afde30a6","ios":"levelo://app?vid=298c5559-107f-4d0b-8a5a-4643afde30a6"},"vehicle_type_id":"4","last_reported":1725746846,"current_range_meters":26800,"station_id":"ce4bhr12rcd13ifvqhqg","pricing_plan_id":"cebpf4jnsgd1na2vs0mg"},{"bike_id":"2e865a37-4525-4154-bfa5-2e253b800524","system_id":"levelo_inurba_marseille","lat":43.322872,"lon":5.382756,"is_reserved":false,"is_disabled":false,"rental_uris":{"android":"levelo://app?vid=2e865a37-4525-4154-bfa5-2e253b800524","ios":"levelo://app?vid=2e865a37-4525-4154-bfa5-2e253b800524"},"vehicle_type_id":"4","last_reported":1725746846,"current_range_meters":2800,"station_id":"ce4bhr12rcd13ifvqhqg","pricing_plan_id":"cebpf4jnsgd1na2vs0mg"},{"bike_id":"8d8703e6-7c9f-48d8-b46d-0c77c95e5159","system_id":"levelo_inurba_marseille","lat":43.297163,"lon":5.365866,"is_reserved":false,"is_disabled":false,"rental_uris":{"android":"levelo://app?vid=8d8703e6-7c9f-48d8-b46d-0c77c95e5159","ios":"levelo://app?vid=8d8703e6-7c9f-48d8-b46d-0c77c95e5159"},"vehicle_type_id":"4","last_reported":1725746846,"current_range_meters":18400,"station_id":"ce4bgn12rcd13ifvqbt0","pricing_plan_id":"cebpf4jnsgd1na2vs0mg"},{"bike_id":"00917124-e0ea-4e37-b269-560dfe0c7c25","system_id":"levelo_inurba_marseille","lat":43.29701,"lon":5.36895,"is_reserved":false,"is_disabled":false,"rental_uris":{"android":"levelo://app?vid=00917124-e0ea-4e37-b269-560dfe0c7c25","ios":"levelo://app?vid=00917124-e0ea-4e37-b269-560dfe0c7c25"},"vehicle_type_id":"4","last_reported":1725746846,"current_range_meters":0,"station_id":"","pricing_plan_id":"cebpf4jnsgd1na2vs0mg"},{"bike_id":"105bc4e8-c71e-4b5d-b34c-269838fe1e0e","system_id":"levelo_inurba_marseille","lat":43.31586,"lon":5.3887,"is_reserved":false,"is_disabled":false,"rental_uris":{"android":"levelo://app?vid=105bc4e8-c71e-4b5d-b34c-269838fe1e0e","ios":"levelo://app?vid=105bc4e8-c71e-4b5d-b34c-269838fe1e0e"},"vehicle_type_id":"4","last_reported":1725746846,"current_range_meters":12800,"station_id":"","pricing_plan_id":"cebpf4jnsgd1na2vs0mg"},{"bike_id":"8a8887de-5c7d-4b1c-91b2-78e9c920b48d","system_id":"levelo_inurba_marseille","lat":43.2968,"lon":5.37291,"is_reserved":false,"is_disabled":false,"rental_uris":{"android":"levelo://app?vid=8a8887de-5c7d-4b1c-91b2-78e9c920b48d","ios":"levelo://app?vid=8a8887de-5c7d-4b1c-91b2-78e9c920b48d"},"vehicle_type_id":"4","last_reported":1725746846,"current_range_meters":29600,"station_id":"ce4bgk12rcd13ifvqbj0","pricing_plan_id":"cebpf4jnsgd1na2vs0mg"},{"bike_id":"7ecc7cca-e361-4a19-824d-cbb1ef7f9b9b","system_id":"levelo_inurba_marseille","lat":43.2968,"lon":5.37291,"is_reserved":false,"is_disabled":false,"rental_uris":{"android":"levelo://app?vid=7ecc7cca-e361-4a19-824d-cbb1ef7f9b9b","ios":"levelo://app?vid=7ecc7cca-e361-4a19-824d-cbb1ef7f9b9b"},"vehicle_type_id":"4","last_reported":1725746846,"current_range_meters":19600,"station_id":"ce4bgk12rcd13ifvqbj0","pricing_plan_id":"cebpf4jnsgd1na2vs0mg"},{"bike_id":"331cb293-873f-448d-a73d-5ba68eb17fa3","system_id":"levelo_inurba_marseille","lat":43.303593,"lon":5.38597,"is_reserved":false,"is_disabled":false,"rental_uris":{"android":"levelo://app?vid=331cb293-873f-448d-a73d-5ba68eb17fa3","ios":"levelo://app?vid=331cb293-873f-448d-a73d-5ba68eb17fa3"},"vehicle_type_id":"4","last_reported":1725746846,"current_range_meters":9200,"station_id":"","pricing_plan_id":"cebpf4jnsgd1na2vs0mg"},{"bike_id":"9a85d7f8-1335-46d9-9625-174442cfc71c","system_id":"levelo_inurba_marseille","lat":43.296131,"lon":5.370791,"is_reserved":false,"is_disabled":false,"rental_uris":{"android":"levelo://app?vid=9a85d7f8-1335-46d9-9625-174442cfc71c","ios":"levelo://app?vid=9a85d7f8-1335-46d9-9625-174442cfc71c"},"vehicle_type_id":"4","last_reported":1725746846,"current_range_meters":14400,"station_id":"ce4bgnh2rcd13ifvqc0g","pricing_plan_id":"cebpf4jnsgd1na2vs0mg"},{"bike_id":"19586b52-b954-419f-9b38-1a90d7eaa496","system_id":"levelo_inurba_marseille","lat":43.29573,"lon":5.367355,"is_reserved":false,"is_disabled":false,"rental_uris":{"android":"levelo://app?vid=19586b52-b954-419f-9b38-1a90d7eaa496","ios":"levelo://app?vid=19586b52-b954-419f-9b38-1a90d7eaa496"},"vehicle_type_id":"4","last_reported":1725746846,"current_range_meters":3600,"station_id":"ce4bgph2rcd13ifvqc2g","pricing_plan_id":"cebpf4jnsgd1na2vs0mg"},{"bike_id":"9206e69e-f2ed-4a63-8ee6-656611bfd559","system_id":"levelo_inurba_marseille","lat":43.299028,"lon":5.381509,"is_reserved":false,"is_disabled":false,"rental_uris":{"android":"levelo://app?vid=9206e69e-f2ed-4a63-8ee6-656611bfd559","ios":"levelo://app?vid=9206e69e-f2ed-4a63-8ee6-656611bfd559"},"vehicle_type_id":"4","last_reported":1725746846,"current_range_meters":21200,"station_id":"ce4bgj12rcd13ifvqbc0","pricing_plan_id":"cebpf4jnsgd1na2vs0mg"},{"bike_id":"283a9051-a2ca-44f4-9bea-b980f6d7cb59","system_id":"levelo_inurba_marseille","lat":43.31766,"lon":5.39003,"is_reserved":false,"is_disabled":false,"rental_uris":{"android":"levelo://app?vid=283a9051-a2ca-44f4-9bea-b980f6d7cb59","ios":"levelo://app?vid=283a9051-a2ca-44f4-9bea-b980f6d7cb59"},"vehicle_type_id":"4","last_reported":1725746846,"current_range_meters":29600,"station_id":"ce4bhqp2rcd13ifvqhng","pricing_plan_id":"cebpf4jnsgd1na2vs0mg"},{"bike_id":"c472c108-ab91-4ad8-8c71-31b545bbcf6d","system_id":"levelo_inurba_marseille","lat":43.317557,"lon":5.390173,"is_reserved":false,"is_disabled":false,"rental_uris":{"android":"levelo://app?vid=c472c108-ab91-4ad8-8c71-31b545bbcf6d","ios":"levelo://app?vid=c472c108-ab91-4ad8-8c71-31b545bbcf6d"},"vehicle_type_id":"4","last_reported":1725746846,"current_range_meters":28800,"station_id":"ce4bhqp2rcd13ifvqhng","pricing_plan_id":"cebpf4jnsgd1na2vs0mg"},{"bike_id":"6114245f-3369-4d76-97a8-6f98a4934a37","system_id":"levelo_inurba_marseille","lat":43.317557,"lon":5.390173,"is_reserved":false,"is_disabled":false,"rental_uris":{"android":"levelo://app?vid=6114245f-3369-4d76-97a8-6f98a4934a37","ios":"levelo://app?vid=6114245f-3369-4d76-97a8-6f98a4934a37"},"vehicle_type_id":"4","last_reported":1725746846,"current_range_meters":12800,"station_id":"ce4bhqp2rcd13ifvqhng","pricing_plan_id":"cebpf4jnsgd1na2vs0mg"},{"bike_id":"14373799-0a0b-4a3b-baad-4d5fabf48100","system_id":"levelo_inurba_marseille","lat":43.317557,"lon":5.390173,"is_reserved":false,"is_disabled":false,"rental_uris":{"android":"levelo://app?vid=14373799-0a0b-4a3b-baad-4d5fabf48100","ios":"levelo://app?vid=14373799-0a0b-4a3b-baad-4d5fabf48100"},"vehicle_type_id":"4","last_reported":1725746846,"current_range_meters":17200,"station_id":"ce4bhqp2rcd13ifvqhng","pricing_plan_id":"cebpf4jnsgd1na2vs0mg"},{"bike_id":"10f69fe8-7773-460f-8cbc-84d5043d302b","system_id":"levelo_inurba_marseille","lat":43.32253,"lon":5.387034,"is_reserved":false,"is_disabled":false,"rental_uris":{"android":"levelo://app?vid=10f69fe8-7773-460f-8cbc-84d5043d302b","ios":"levelo://app?vid=10f69fe8-7773-460f-8cbc-84d5043d302b"},"vehicle_type_id":"4","last_reported":1725746846,"current_range_meters":21600,"station_id":"","pricing_plan_id":"cebpf4jnsgd1na2vs0mg"},{"bike_id":"bf43fd58-dd35-4b29-9865-a4f3be5b2006","system_id":"levelo_inurba_marseille","lat":43.30923,"lon":5.39076,"is_reserved":false,"is_disabled":false,"rental_uris":{"android":"levelo://app?vid=bf43fd58-dd35-4b29-9865-a4f3be5b2006","ios":"levelo://app?vid=bf43fd58-dd35-4b29-9865-a4f3be5b2006"},"vehicle_type_id":"4","last_reported":1725746846,"current_range_meters":0,"station_id":"","pricing_plan_id":"cebpf4jnsgd1na2vs0mg"},{"bike_id":"b56a335d-9b8d-42da-a97c-f7380e13a04a","system_id":"levelo_inurba_marseille","lat":43.32472,"lon":5.38502,"is_reserved":false,"is_disabled":false,"rental_uris":{"android":"levelo://app?vid=b56a335d-9b8d-42da-a97c-f7380e13a04a","ios":"levelo://app?vid=b56a335d-9b8d-42da-a97c-f7380e13a04a"},"vehicle_type_id":"4","last_reported":1725746846,"current_range_meters":29200,"station_id":"","pricing_plan_id":"cebpf4jnsgd1na2vs0mg"},{"bike_id":"b37e723d-5203-40a3-9d74-22f705a1d518","system_id":"levelo_inurba_marseille","lat":43.304274,"lon":5.388873,"is_reserved":false,"is_disabled":false,"rental_uris":{"android":"levelo://app?vid=b37e723d-5203-40a3-9d74-22f705a1d518","ios":"levelo://app?vid=b37e723d-5203-40a3-9d74-22f705a1d518"},"vehicle_type_id":"4","last_reported":1725746846,"current_range_meters":16400,"station_id":"ce4bgk12rcd13ifvqbi0","pricing_plan_id":"cebpf4jnsgd1na2vs0mg"},{"bike_id":"3cd978ab-a875-4a81-bd7c-4f5a17e1b21e","system_id":"levelo_inurba_marseille","lat":43.304274,"lon":5.388873,"is_reserved":false,"is_disabled":false,"rental_uris":{"android":"levelo://app?vid=3cd978ab-a875-4a81-bd7c-4f5a17e1b21e","ios":"levelo://app?vid=3cd978ab-a875-4a81-bd7c-4f5a17e1b21e"},"vehicle_type_id":"4","last_reported":1725746846,"current_range_meters":9200,"station_id":"ce4bgk12rcd13ifvqbi0","pricing_plan_id":"cebpf4jnsgd1na2vs0mg"},{"bike_id":"7d7a339b-5891-4f74-a6e5-33353326a058","system_id":"levelo_inurba_marseille","lat":43.304274,"lon":5.388873,"is_reserved":false,"is_disabled":false,"rental_uris":{"android":"levelo://app?vid=7d7a339b-5891-4f74-a6e5-33353326a058","ios":"levelo://app?vid=7d7a339b-5891-4f74-a6e5-33353326a058"},"vehicle_type_id":"4","last_reported":1725746846,"current_range_meters":6800,"station_id":"ce4bgk12rcd13ifvqbi0","pricing_plan_id":"cebpf4jnsgd1na2vs0mg"},{"bike_id":"dba0b693-df3b-43b8-9509-fda0f606577e","system_id":"levelo_inurba_marseille","lat":43.304274,"lon":5.388873,"is_reserved":false,"is_disabled":false,"rental_uris":{"android":"levelo://app?vid=dba0b693-df3b-43b8-9509-fda0f606577e","ios":"levelo://app?vid=dba0b693-df3b-43b8-9509-fda0f606577e"},"vehicle_type_id":"4","last_reported":1725746846,"current_range_meters":14000,"station_id":"ce4bgk12rcd13ifvqbi0","pricing_plan_id":"cebpf4jnsgd1na2vs0mg"},{"bike_id":"d6f3a746-31c1-4bfc-bb9b-b18e73b8a4cd","system_id":"levelo_inurba_marseille","lat":43.304274,"lon":5.388873,"is_reserved":false,"is_disabled":false,"rental_uris":{"android":"levelo://app?vid=d6f3a746-31c1-4bfc-bb9b-b18e73b8a4cd","ios":"levelo://app?vid=d6f3a746-31c1-4bfc-bb9b-b18e73b8a4cd"},"vehicle_type_id":"4","last_reported":1725746846,"current_range_meters":12800,"station_id":"ce4bgk12rcd13ifvqbi0","pricing_plan_id":"cebpf4jnsgd1na2vs0mg"},{"bike_id":"d231168b-5c36-455d-9c6d-bf10e4d9dff7","system_id":"levelo_inurba_marseille","lat":43.304274,"lon":5.388873,"is_reserved":false,"is_disabled":false,"rental_uris":{"android":"levelo://app?vid=d231168b-5c36-455d-9c6d-bf10e4d9dff7","ios":"levelo://app?vid=d231168b-5c36-455d-9c6d-bf10e4d9dff7"},"vehicle_type_id":"4","last_reported":1725746846,"current_range_meters":6800,"station_id":"ce4bgk12rcd13ifvqbi0","pricing_plan_id":"cebpf4jnsgd1na2vs0mg"},{"bike_id":"5119f145-1b74-488e-ae3b-0638b9b8ff79","system_id":"levelo_inurba_marseille","lat":43.304286,"lon":5.388976,"is_reserved":false,"is_disabled":false,"rental_uris":{"android":"levelo://app?vid=5119f145-1b74-488e-ae3b-0638b9b8ff79","ios":"levelo://app?vid=5119f145-1b74-488e-ae3b-0638b9b8ff79"},"vehicle_type_id":"4","last_reported":1725746846,"current_range_meters":30800,"station_id":"ce4bgk12rcd13ifvqbi0","pricing_plan_id":"cebpf4jnsgd1na2vs0mg"},{"bike_id":"45b43fd3-0233-4d01-90f5-bc104a8cb1de","system_id":"levelo_inurba_marseille","lat":43.3042,"lon":5.388965,"is_reserved":false,"is_disabled":false,"rental_uris":{"android":"levelo://app?vid=45b43fd3-0233-4d01-90f5-bc104a8cb1de","ios":"levelo://app?vid=45b43fd3-0233-4d01-90f5-bc104a8cb1de"},"vehicle_type_id":"4","last_reported":1725746846,"current_range_meters":31200,"station_id":"ce4bgk12rcd13ifvqbi0","pricing_plan_id":"cebpf4jnsgd1na2vs0mg"},{"bike_id":"6dfd03af-c795-4415-92b9-53d9eb441855","system_id":"levelo_inurba_marseille","lat":43.296263,"lon":5.377094,"is_reserved":false,"is_disabled":false,"rental_uris":{"android":"levelo://app?vid=6dfd03af-c795-4415-92b9-53d9eb441855","ios":"levelo://app?vid=6dfd03af-c795-4415-92b9-53d9eb441855"},"vehicle_type_id":"4","last_reported":1725746846,"current_range_meters":19200,"station_id":"ce4bgi92rcd13ifvqb90","pricing_plan_id":"cebpf4jnsgd1na2vs0mg"},{"bike_id":"b158930b-8282-4074-8a25-294095492ddb","system_id":"levelo_inurba_marseille","lat":43.299717,"lon":5.384845,"is_reserved":false,"is_disabled":false,"rental_uris":{"android":"levelo://app?vid=b158930b-8282-4074-8a25-294095492ddb","ios":"levelo://app?vid=b158930b-8282-4074-8a25-294095492ddb"},"vehicle_type_id":"4","last_reported":1725746846,"current_range_meters":14800,"station_id":"ce4bgj92rcd13ifvqbd0","pricing_plan_id":"cebpf4jnsgd1na2vs0mg"},{"bike_id":"90d32071-20a6-488d-b959-7b389b5d815e","system_id":"levelo_inurba_marseille","lat":43.299717,"lon":5.384845,"is_reserved":false,"is_disabled":false,"rental_uris":{"android":"levelo://app?vid=90d32071-20a6-488d-b959-7b389b5d815e","ios":"levelo://app?vid=90d32071-20a6-488d-b959-7b389b5d815e"},"vehicle_type_id":"4","last_reported":1725746846,"current_range_meters":7200,"station_id":"ce4bgj92rcd13ifvqbd0","pricing_plan_id":"cebpf4jnsgd1na2vs0mg"},{"bike_id":"381c0d29-4da1-4687-9220-c82f5e652f95","system_id":"levelo_inurba_marseille","lat":43.295314,"lon":5.375581,"is_reserved":false,"is_disabled":false,"rental_uris":{"android":"levelo://app?vid=381c0d29-4da1-4687-9220-c82f5e652f95","ios":"levelo://app?vid=381c0d29-4da1-4687-9220-c82f5e652f95"},"vehicle_type_id":"4","last_reported":1725746846,"current_range_meters":13600,"station_id":"ce4bgh92rcd13ifvqb50","pricing_plan_id":"cebpf4jnsgd1na2vs0mg"},{"bike_id":"8ba62642-12a9-4627-bec3-8a718cef02b8","system_id":"levelo_inurba_marseille","lat":43.301396,"lon":5.387812,"is_reserved":false,"is_disabled":false,"rental_uris":{"android":"levelo://app?vid=8ba62642-12a9-4627-bec3-8a718cef02b8","ios":"levelo://app?vid=8ba62642-12a9-4627-bec3-8a718cef02b8"},"vehicle_type_id":"4","last_reported":1725746846,"current_range_meters":25200,"station_id":"ce4bghh2rcd13ifvqb60","pricing_plan_id":"cebpf4jnsgd1na2vs0mg"},{"bike_id":"959b9da2-17cc-4fbd-bb30-80fa5dc9e58f","system_id":"levelo_inurba_marseille","lat":43.30137,"lon":5.38784,"is_reserved":false,"is_disabled":false,"rental_uris":{"android":"levelo://app?vid=959b9da2-17cc-4fbd-bb30-80fa5dc9e58f","ios":"levelo://app?vid=959b9da2-17cc-4fbd-bb30-80fa5dc9e58f"},"vehicle_type_id":"4","last_reported":1725746846,"current_range_meters":11600,"station_id":"ce4bghh2rcd13ifvqb60","pricing_plan_id":"cebpf4jnsgd1na2vs0mg"},{"bike_id":"7dfad6ee-3a0a-4e82-bc25-e7f709db6a07","system_id":"levelo_inurba_marseille","lat":43.29381,"lon":5.3626,"is_reserved":false,"is_disabled":false,"rental_uris":{"android":"levelo://app?vid=7dfad6ee-3a0a-4e82-bc25-e7f709db6a07","ios":"levelo://app?vid=7dfad6ee-3a0a-4e82-bc25-e7f709db6a07"},"vehicle_type_id":"4","last_reported":1725746846,"current_range_meters":12400,"station_id":"","pricing_plan_id":"cebpf4jnsgd1na2vs0mg"},{"bike_id":"1dd58479-32ec-4368-a524-62e6da6d0405","system_id":"levelo_inurba_marseille","lat":43.32367,"lon":5.38883,"is_reserved":false,"is_disabled":false,"rental_uris":{"android":"levelo://app?vid=1dd58479-32ec-4368-a524-62e6da6d0405","ios":"levelo://app?vid=1dd58479-32ec-4368-a524-62e6da6d0405"},"vehicle_type_id":"4","last_reported":1725746846,"current_range_meters":0,"station_id":"ce4bhqp2rcd13ifvqhog","pricing_plan_id":"cebpf4jnsgd1na2vs0mg"},{"bike_id":"47997735-77ad-4221-bd03-6e1578bdedb0","system_id":"levelo_inurba_marseille","lat":43.32367,"lon":5.388836,"is_reserved":false,"is_disabled":false,"rental_uris":{"android":"levelo://app?vid=47997735-77ad-4221-bd03-6e1578bdedb0","ios":"levelo://app?vid=47997735-77ad-4221-bd03-6e1578bdedb0"},"vehicle_type_id":"4","last_reported":1725746846,"current_range_meters":20400,"station_id":"ce4bhqp2rcd13ifvqhog","pricing_plan_id":"cebpf4jnsgd1na2vs0mg"},{"bike_id":"777b3290-6d28-4c64-a518-6c99f04dd48d","system_id":"levelo_inurba_marseille","lat":43.32367,"lon":5.388836,"is_reserved":false,"is_disabled":false,"rental_uris":{"android":"levelo://app?vid=777b3290-6d28-4c64-a518-6c99f04dd48d","ios":"levelo://app?vid=777b3290-6d28-4c64-a518-6c99f04dd48d"},"vehicle_type_id":"4","last_reported":1725746846,"current_range_meters":22000,"station_id":"ce4bhqp2rcd13ifvqhog","pricing_plan_id":"cebpf4jnsgd1na2vs0mg"},{"bike_id":"4b3c48b4-bfc0-40fb-96a7-df96415b205c","system_id":"levelo_inurba_marseille","lat":43.29616,"lon":5.38066,"is_reserved":false,"is_disabled":false,"rental_uris":{"android":"levelo://app?vid=4b3c48b4-bfc0-40fb-96a7-df96415b205c","ios":"levelo://app?vid=4b3c48b4-bfc0-40fb-96a7-df96415b205c"},"vehicle_type_id":"4","last_reported":1725746846,"current_range_meters":16400,"station_id":"ce4bgl12rcd13ifvqbo0","pricing_plan_id":"cebpf4jnsgd1na2vs0mg"},{"bike_id":"1389f4a0-fe8c-45a8-89e1-761602337135","system_id":"levelo_inurba_marseille","lat":43.32367,"lon":5.38925,"is_reserved":false,"is_disabled":false,"rental_uris":{"android":"levelo://app?vid=1389f4a0-fe8c-45a8-89e1-761602337135","ios":"levelo://app?vid=1389f4a0-fe8c-45a8-89e1-761602337135"},"vehicle_type_id":"4","last_reported":1725746846,"current_range_meters":18800,"station_id":"ce4bhqp2rcd13ifvqhog","pricing_plan_id":"cebpf4jnsgd1na2vs0mg"},{"bike_id":"74c59e3d-56c9-4373-9efe-a345696f9a5c","system_id":"levelo_inurba_marseille","lat":43.3237,"lon":5.38926,"is_reserved":false,"is_disabled":false,"rental_uris":{"android":"levelo://app?vid=74c59e3d-56c9-4373-9efe-a345696f9a5c","ios":"levelo://app?vid=74c59e3d-56c9-4373-9efe-a345696f9a5c"},"vehicle_type_id":"4","last_reported":1725746846,"current_range_meters":24000,"station_id":"","pricing_plan_id":"cebpf4jnsgd1na2vs0mg"},{"bike_id":"41704600-e9e6-4869-aefd-a4a12996605b","system_id":"levelo_inurba_marseille","lat":43.3237,"lon":5.38926,"is_reserved":false,"is_disabled":false,"rental_uris":{"android":"levelo://app?vid=41704600-e9e6-4869-aefd-a4a12996605b","ios":"levelo://app?vid=41704600-e9e6-4869-aefd-a4a12996605b"},"vehicle_type_id":"4","last_reported":1725746846,"current_range_meters":11600,"station_id":"ce4bhqp2rcd13ifvqhog","pricing_plan_id":"cebpf4jnsgd1na2vs0mg"},{"bike_id":"6f37c59d-cd45-4a97-aadb-ecec4a0a2f6a","system_id":"levelo_inurba_marseille","lat":43.29327,"lon":5.37076,"is_reserved":false,"is_disabled":false,"rental_uris":{"android":"levelo://app?vid=6f37c59d-cd45-4a97-aadb-ecec4a0a2f6a","ios":"levelo://app?vid=6f37c59d-cd45-4a97-aadb-ecec4a0a2f6a"},"vehicle_type_id":"4","last_reported":1725746846,"current_range_meters":26400,"station_id":"","pricing_plan_id":"cebpf4jnsgd1na2vs0mg"},{"bike_id":"1bef5fa3-8c5f-47b2-b437-481c95bc689d","system_id":"levelo_inurba_marseille","lat":43.31902,"lon":5.39288,"is_reserved":false,"is_disabled":false,"rental_uris":{"android":"levelo://app?vid=1bef5fa3-8c5f-47b2-b437-481c95bc689d","ios":"levelo://app?vid=1bef5fa3-8c5f-47b2-b437-481c95bc689d"},"vehicle_type_id":"4","last_reported":1725746846,"current_range_meters":25200,"station_id":"","pricing_plan_id":"cebpf4jnsgd1na2vs0mg"},{"bike_id":"3bc0c277-9af4-446a-9e4f-b05c8f2337ad","system_id":"levelo_inurba_marseille","lat":43.292749,"lon":5.368402,"is_reserved":false,"is_disabled":false,"rental_uris":{"android":"levelo://app?vid=3bc0c277-9af4-446a-9e4f-b05c8f2337ad","ios":"levelo://app?vid=3bc0c277-9af4-446a-9e4f-b05c8f2337ad"},"vehicle_type_id":"4","last_reported":1725746846,"current_range_meters":0,"station_id":"ce4bhbp2rcd13ifvqesg","pricing_plan_id":"cebpf4jnsgd1na2vs0mg"},{"bike_id":"cbc00291-243d-42be-a7a8-b42ba86a2825","system_id":"levelo_inurba_marseille","lat":43.293009,"lon":5.374584,"is_reserved":false,"is_disabled":false,"rental_uris":{"android":"levelo://app?vid=cbc00291-243d-42be-a7a8-b42ba86a2825","ios":"levelo://app?vid=cbc00291-243d-42be-a7a8-b42ba86a2825"},"vehicle_type_id":"4","last_reported":1725746846,"current_range_meters":1200,"station_id":"ce4bgi12rcd13ifvqb70","pricing_plan_id":"cebpf4jnsgd1na2vs0mg"},{"bike_id":"d689660f-ebd4-4bcb-9654-dbf35dfe8f48","system_id":"levelo_inurba_marseille","lat":43.29298,"lon":5.37462,"is_reserved":false,"is_disabled":false,"rental_uris":{"android":"levelo://app?vid=d689660f-ebd4-4bcb-9654-dbf35dfe8f48","ios":"levelo://app?vid=d689660f-ebd4-4bcb-9654-dbf35dfe8f48"},"vehicle_type_id":"4","last_reported":1725746846,"current_range_meters":0,"station_id":"ce4bgi12rcd13ifvqb70","pricing_plan_id":"cebpf4jnsgd1na2vs0mg"},{"bike_id":"9fd79327-1754-484f-8c7d-89e93af84f89","system_id":"levelo_inurba_marseille","lat":43.303002,"lon":5.392142,"is_reserved":false,"is_disabled":false,"rental_uris":{"android":"levelo://app?vid=9fd79327-1754-484f-8c7d-89e93af84f89","ios":"levelo://app?vid=9fd79327-1754-484f-8c7d-89e93af84f89"},"vehicle_type_id":"4","last_reported":1725746846,"current_range_meters":20000,"station_id":"ce4bgkh2rcd13ifvqbk0","pricing_plan_id":"cebpf4jnsgd1na2vs0mg"},{"bike_id":"feb3c370-9a38-4efe-b9ec-5b0d1484802d","system_id":"levelo_inurba_marseille","lat":43.303002,"lon":5.392142,"is_reserved":false,"is_disabled":false,"rental_uris":{"android":"levelo://app?vid=feb3c370-9a38-4efe-b9ec-5b0d1484802d","ios":"levelo://app?vid=feb3c370-9a38-4efe-b9ec-5b0d1484802d"},"vehicle_type_id":"4","last_reported":1725746846,"current_range_meters":30400,"station_id":"ce4bgkh2rcd13ifvqbk0","pricing_plan_id":"cebpf4jnsgd1na2vs0mg"},{"bike_id":"db687252-db31-4725-a827-64e879355359","system_id":"levelo_inurba_marseille","lat":43.2936,"lon":5.37835,"is_reserved":false,"is_disabled":false,"rental_uris":{"android":"levelo://app?vid=db687252-db31-4725-a827-64e879355359","ios":"levelo://app?vid=db687252-db31-4725-a827-64e879355359"},"vehicle_type_id":"4","last_reported":1725746846,"current_range_meters":10800,"station_id":"ce4bgjh2rcd13ifvqbf0","pricing_plan_id":"cebpf4jnsgd1na2vs0mg"},{"bike_id":"0a1a33f5-1ae6-4317-ad32-5211c3ae1034","system_id":"levelo_inurba_marseille","lat":43.30091,"lon":5.3907,"is_reserved":false,"is_disabled":false,"rental_uris":{"android":"levelo://app?vid=0a1a33f5-1ae6-4317-ad32-5211c3ae1034","ios":"levelo://app?vid=0a1a33f5-1ae6-4317-ad32-5211c3ae1034"},"vehicle_type_id":"4","last_reported":1725746846,"current_range_meters":24000,"station_id":"ce4bh192rcd13ifvqdb0","pricing_plan_id":"cebpf4jnsgd1na2vs0mg"},{"bike_id":"4877d4b8-a428-4747-bd5c-cc924184b088","system_id":"levelo_inurba_marseille","lat":43.30099,"lon":5.39078,"is_reserved":false,"is_disabled":false,"rental_uris":{"android":"levelo://app?vid=4877d4b8-a428-4747-bd5c-cc924184b088","ios":"levelo://app?vid=4877d4b8-a428-4747-bd5c-cc924184b088"},"vehicle_type_id":"4","last_reported":1725746846,"current_range_meters":30000,"station_id":"ce4bh192rcd13ifvqdb0","pricing_plan_id":"cebpf4jnsgd1na2vs0mg"},{"bike_id":"dd6fcee3-fa13-4080-9836-5c3b4b658089","system_id":"levelo_inurba_marseille","lat":43.300885,"lon":5.39078,"is_reserved":false,"is_disabled":false,"rental_uris":{"android":"levelo://app?vid=dd6fcee3-fa13-4080-9836-5c3b4b658089","ios":"levelo://app?vid=dd6fcee3-fa13-4080-9836-5c3b4b658089"},"vehicle_type_id":"4","last_reported":1725746846,"current_range_meters":31200,"station_id":"ce4bh192rcd13ifvqdb0","pricing_plan_id":"cebpf4jnsgd1na2vs0mg"},{"bike_id":"7c23b04e-07c3-4df1-aa03-07414a2b57db","system_id":"levelo_inurba_marseille","lat":43.30085,"lon":5.390856,"is_reserved":false,"is_disabled":false,"rental_uris":{"android":"levelo://app?vid=7c23b04e-07c3-4df1-aa03-07414a2b57db","ios":"levelo://app?vid=7c23b04e-07c3-4df1-aa03-07414a2b57db"},"vehicle_type_id":"4","last_reported":1725746846,"current_range_meters":25200,"station_id":"ce4bh192rcd13ifvqdb0","pricing_plan_id":"cebpf4jnsgd1na2vs0mg"},{"bike_id":"9f62fb8e-cea4-4d7c-8e02-1a9edfc98733","system_id":"levelo_inurba_marseille","lat":43.30085,"lon":5.390856,"is_reserved":false,"is_disabled":false,"rental_uris":{"android":"levelo://app?vid=9f62fb8e-cea4-4d7c-8e02-1a9edfc98733","ios":"levelo://app?vid=9f62fb8e-cea4-4d7c-8e02-1a9edfc98733"},"vehicle_type_id":"4","last_reported":1725746846,"current_range_meters":12000,"station_id":"ce4bh192rcd13ifvqdb0","pricing_plan_id":"cebpf4jnsgd1na2vs0mg"},{"bike_id":"8a6e1135-efb3-41ed-9d80-517468c0f4f6","system_id":"levelo_inurba_marseille","lat":43.300852,"lon":5.390859,"is_reserved":false,"is_disabled":false,"rental_uris":{"android":"levelo://app?vid=8a6e1135-efb3-41ed-9d80-517468c0f4f6","ios":"levelo://app?vid=8a6e1135-efb3-41ed-9d80-517468c0f4f6"},"vehicle_type_id":"4","last_reported":1725746846,"current_range_meters":26800,"station_id":"ce4bh192rcd13ifvqdb0","pricing_plan_id":"cebpf4jnsgd1na2vs0mg"},{"bike_id":"88b50ab2-950f-41ca-95f8-cdd2b93662ae","system_id":"levelo_inurba_marseille","lat":43.298764,"lon":5.388973,"is_reserved":false,"is_disabled":false,"rental_uris":{"android":"levelo://app?vid=88b50ab2-950f-41ca-95f8-cdd2b93662ae","ios":"levelo://app?vid=88b50ab2-950f-41ca-95f8-cdd2b93662ae"},"vehicle_type_id":"4","last_reported":1725746846,"current_range_meters":16800,"station_id":"ce4bh392rcd13ifvqdl0","pricing_plan_id":"cebpf4jnsgd1na2vs0mg"},{"bike_id":"61cb0e70-1e07-4917-bcc7-c425013aa581","system_id":"levelo_inurba_marseille","lat":43.298764,"lon":5.388973,"is_reserved":false,"is_disabled":false,"rental_uris":{"android":"levelo://app?vid=61cb0e70-1e07-4917-bcc7-c425013aa581","ios":"levelo://app?vid=61cb0e70-1e07-4917-bcc7-c425013aa581"},"vehicle_type_id":"4","last_reported":1725746846,"current_range_meters":18000,"station_id":"ce4bh392rcd13ifvqdl0","pricing_plan_id":"cebpf4jnsgd1na2vs0mg"},{"bike_id":"f047af92-02bb-4cf6-b110-deafa24fb127","system_id":"levelo_inurba_marseille","lat":43.298764,"lon":5.388973,"is_reserved":false,"is_disabled":false,"rental_uris":{"android":"levelo://app?vid=f047af92-02bb-4cf6-b110-deafa24fb127","ios":"levelo://app?vid=f047af92-02bb-4cf6-b110-deafa24fb127"},"vehicle_type_id":"4","last_reported":1725746846,"current_range_meters":31600,"station_id":"ce4bh392rcd13ifvqdl0","pricing_plan_id":"cebpf4jnsgd1na2vs0mg"},{"bike_id":"64c9a106-ff75-4053-8761-3d702bf4d0e0","system_id":"levelo_inurba_marseille","lat":43.298764,"lon":5.388973,"is_reserved":false,"is_disabled":false,"rental_uris":{"android":"levelo://app?vid=64c9a106-ff75-4053-8761-3d702bf4d0e0","ios":"levelo://app?vid=64c9a106-ff75-4053-8761-3d702bf4d0e0"},"vehicle_type_id":"4","last_reported":1725746846,"current_range_meters":22400,"station_id":"ce4bh392rcd13ifvqdl0","pricing_plan_id":"cebpf4jnsgd1na2vs0mg"},{"bike_id":"c3611951-0f83-4121-bd7f-d86ece8d699c","system_id":"levelo_inurba_marseille","lat":43.298764,"lon":5.388973,"is_reserved":false,"is_disabled":false,"rental_uris":{"android":"levelo://app?vid=c3611951-0f83-4121-bd7f-d86ece8d699c","ios":"levelo://app?vid=c3611951-0f83-4121-bd7f-d86ece8d699c"},"vehicle_type_id":"4","last_reported":1725746846,"current_range_meters":31600,"station_id":"ce4bh392rcd13ifvqdl0","pricing_plan_id":"cebpf4jnsgd1na2vs0mg"},{"bike_id":"021f6c33-6631-428f-9e5f-07bb27577a63","system_id":"levelo_inurba_marseille","lat":43.298764,"lon":5.388973,"is_reserved":false,"is_disabled":false,"rental_uris":{"android":"levelo://app?vid=021f6c33-6631-428f-9e5f-07bb27577a63","ios":"levelo://app?vid=021f6c33-6631-428f-9e5f-07bb27577a63"},"vehicle_type_id":"4","last_reported":1725746846,"current_range_meters":31600,"station_id":"ce4bh392rcd13ifvqdl0","pricing_plan_id":"cebpf4jnsgd1na2vs0mg"},{"bike_id":"f834b742-0558-4a3a-b387-99e2ef44f289","system_id":"levelo_inurba_marseille","lat":43.298764,"lon":5.388973,"is_reserved":false,"is_disabled":false,"rental_uris":{"android":"levelo://app?vid=f834b742-0558-4a3a-b387-99e2ef44f289","ios":"levelo://app?vid=f834b742-0558-4a3a-b387-99e2ef44f289"},"vehicle_type_id":"4","last_reported":1725746846,"current_range_meters":20400,"station_id":"ce4bh392rcd13ifvqdl0","pricing_plan_id":"cebpf4jnsgd1na2vs0mg"},{"bike_id":"2ef64528-387a-4635-b55d-af23f348ab1b","system_id":"levelo_inurba_marseille","lat":43.298764,"lon":5.388973,"is_reserved":false,"is_disabled":false,"rental_uris":{"android":"levelo://app?vid=2ef64528-387a-4635-b55d-af23f348ab1b","ios":"levelo://app?vid=2ef64528-387a-4635-b55d-af23f348ab1b"},"vehicle_type_id":"4","last_reported":1725746846,"current_range_meters":11200,"station_id":"ce4bh392rcd13ifvqdl0","pricing_plan_id":"cebpf4jnsgd1na2vs0mg"},{"bike_id":"5c33e4f2-e2e4-40ea-a9ba-e7c8c33ad89f","system_id":"levelo_inurba_marseille","lat":43.298764,"lon":5.388973,"is_reserved":false,"is_disabled":false,"rental_uris":{"android":"levelo://app?vid=5c33e4f2-e2e4-40ea-a9ba-e7c8c33ad89f","ios":"levelo://app?vid=5c33e4f2-e2e4-40ea-a9ba-e7c8c33ad89f"},"vehicle_type_id":"4","last_reported":1725746846,"current_range_meters":23600,"station_id":"ce4bh392rcd13ifvqdl0","pricing_plan_id":"cebpf4jnsgd1na2vs0mg"},{"bike_id":"9f39246c-f64c-4305-b668-d913ec2bc0d5","system_id":"levelo_inurba_marseille","lat":43.298764,"lon":5.388973,"is_reserved":false,"is_disabled":false,"rental_uris":{"android":"levelo://app?vid=9f39246c-f64c-4305-b668-d913ec2bc0d5","ios":"levelo://app?vid=9f39246c-f64c-4305-b668-d913ec2bc0d5"},"vehicle_type_id":"4","last_reported":1725746846,"current_range_meters":22800,"station_id":"ce4bh392rcd13ifvqdl0","pricing_plan_id":"cebpf4jnsgd1na2vs0mg"},{"bike_id":"b1ef692f-7481-4fd0-a03e-6ec59d2b93be","system_id":"levelo_inurba_marseille","lat":43.31672,"lon":5.3961,"is_reserved":false,"is_disabled":false,"rental_uris":{"android":"levelo://app?vid=b1ef692f-7481-4fd0-a03e-6ec59d2b93be","ios":"levelo://app?vid=b1ef692f-7481-4fd0-a03e-6ec59d2b93be"},"vehicle_type_id":"4","last_reported":1725746846,"current_range_meters":8000,"station_id":"","pricing_plan_id":"cebpf4jnsgd1na2vs0mg"},{"bike_id":"139dc792-cd12-4330-a3cd-db63eee1a84f","system_id":"levelo_inurba_marseille","lat":43.309038,"lon":5.396546,"is_reserved":false,"is_disabled":false,"rental_uris":{"android":"levelo://app?vid=139dc792-cd12-4330-a3cd-db63eee1a84f","ios":"levelo://app?vid=139dc792-cd12-4330-a3cd-db63eee1a84f"},"vehicle_type_id":"4","last_reported":1725746846,"current_range_meters":14000,"station_id":"ce4bh012rcd13ifvqcv0","pricing_plan_id":"cebpf4jnsgd1na2vs0mg"},{"bike_id":"ed3fa3bd-6293-4392-bdaa-649ef4f46b1f","system_id":"levelo_inurba_marseille","lat":43.3089,"lon":5.39646,"is_reserved":false,"is_disabled":false,"rental_uris":{"android":"levelo://app?vid=ed3fa3bd-6293-4392-bdaa-649ef4f46b1f","ios":"levelo://app?vid=ed3fa3bd-6293-4392-bdaa-649ef4f46b1f"},"vehicle_type_id":"4","last_reported":1725746846,"current_range_meters":31200,"station_id":"ce4bh012rcd13ifvqcv0","pricing_plan_id":"cebpf4jnsgd1na2vs0mg"},{"bike_id":"f9e3621b-a4a3-48cc-8fd6-751d562d9724","system_id":"levelo_inurba_marseille","lat":43.309047,"lon":5.396551,"is_reserved":false,"is_disabled":false,"rental_uris":{"android":"levelo://app?vid=f9e3621b-a4a3-48cc-8fd6-751d562d9724","ios":"levelo://app?vid=f9e3621b-a4a3-48cc-8fd6-751d562d9724"},"vehicle_type_id":"4","last_reported":1725746846,"current_range_meters":28400,"station_id":"ce4bh012rcd13ifvqcv0","pricing_plan_id":"cebpf4jnsgd1na2vs0mg"},{"bike_id":"16d29fdf-773a-406c-a7c5-0e4b995fa335","system_id":"levelo_inurba_marseille","lat":43.309047,"lon":5.396551,"is_reserved":false,"is_disabled":false,"rental_uris":{"android":"levelo://app?vid=16d29fdf-773a-406c-a7c5-0e4b995fa335","ios":"levelo://app?vid=16d29fdf-773a-406c-a7c5-0e4b995fa335"},"vehicle_type_id":"4","last_reported":1725746846,"current_range_meters":31200,"station_id":"ce4bh012rcd13ifvqcv0","pricing_plan_id":"cebpf4jnsgd1na2vs0mg"},{"bike_id":"279cd6c4-a554-42a0-9cfd-b0be5eedf939","system_id":"levelo_inurba_marseille","lat":43.313291,"lon":5.396838,"is_reserved":false,"is_disabled":false,"rental_uris":{"android":"levelo://app?vid=279cd6c4-a554-42a0-9cfd-b0be5eedf939","ios":"levelo://app?vid=279cd6c4-a554-42a0-9cfd-b0be5eedf939"},"vehicle_type_id":"4","last_reported":1725746846,"current_range_meters":13600,"station_id":"ce4bgvp2rcd13ifvqcu0","pricing_plan_id":"cebpf4jnsgd1na2vs0mg"},{"bike_id":"e3cdf6ce-b995-435d-80a2-25d18a2d4c58","system_id":"levelo_inurba_marseille","lat":43.309038,"lon":5.396546,"is_reserved":false,"is_disabled":false,"rental_uris":{"android":"levelo://app?vid=e3cdf6ce-b995-435d-80a2-25d18a2d4c58","ios":"levelo://app?vid=e3cdf6ce-b995-435d-80a2-25d18a2d4c58"},"vehicle_type_id":"4","last_reported":1725746846,"current_range_meters":30400,"station_id":"ce4bh012rcd13ifvqcv0","pricing_plan_id":"cebpf4jnsgd1na2vs0mg"},{"bike_id":"a8b5ae5c-b7b8-40a7-a43d-ac81095086ca","system_id":"levelo_inurba_marseille","lat":43.313291,"lon":5.396838,"is_reserved":false,"is_disabled":false,"rental_uris":{"android":"levelo://app?vid=a8b5ae5c-b7b8-40a7-a43d-ac81095086ca","ios":"levelo://app?vid=a8b5ae5c-b7b8-40a7-a43d-ac81095086ca"},"vehicle_type_id":"4","last_reported":1725746846,"current_range_meters":6000,"station_id":"ce4bgvp2rcd13ifvqcu0","pricing_plan_id":"cebpf4jnsgd1na2vs0mg"},{"bike_id":"806dd3f3-584a-4ce0-9269-784501ed6356","system_id":"levelo_inurba_marseille","lat":43.313291,"lon":5.396838,"is_reserved":false,"is_disabled":false,"rental_uris":{"android":"levelo://app?vid=806dd3f3-584a-4ce0-9269-784501ed6356","ios":"levelo://app?vid=806dd3f3-584a-4ce0-9269-784501ed6356"},"vehicle_type_id":"4","last_reported":1725746846,"current_range_meters":8000,"station_id":"ce4bgvp2rcd13ifvqcu0","pricing_plan_id":"cebpf4jnsgd1na2vs0mg"},{"bike_id":"c6bbc908-07b9-40ca-91d2-ff9b7a6fc9c1","system_id":"levelo_inurba_marseille","lat":43.30891,"lon":5.39652,"is_reserved":false,"is_disabled":false,"rental_uris":{"android":"levelo://app?vid=c6bbc908-07b9-40ca-91d2-ff9b7a6fc9c1","ios":"levelo://app?vid=c6bbc908-07b9-40ca-91d2-ff9b7a6fc9c1"},"vehicle_type_id":"4","last_reported":1725746846,"current_range_meters":18400,"station_id":"ce4bh012rcd13ifvqcv0","pricing_plan_id":"cebpf4jnsgd1na2vs0mg"},{"bike_id":"9f30d031-a163-48eb-a649-95bb05feb253","system_id":"levelo_inurba_marseille","lat":43.313291,"lon":5.396838,"is_reserved":false,"is_disabled":false,"rental_uris":{"android":"levelo://app?vid=9f30d031-a163-48eb-a649-95bb05feb253","ios":"levelo://app?vid=9f30d031-a163-48eb-a649-95bb05feb253"},"vehicle_type_id":"4","last_reported":1725746846,"current_range_meters":14800,"station_id":"ce4bgvp2rcd13ifvqcu0","pricing_plan_id":"cebpf4jnsgd1na2vs0mg"},{"bike_id":"f74d4f01-ad42-479c-9791-3e9138726ea8","system_id":"levelo_inurba_marseille","lat":43.309038,"lon":5.396546,"is_reserved":false,"is_disabled":false,"rental_uris":{"android":"levelo://app?vid=f74d4f01-ad42-479c-9791-3e9138726ea8","ios":"levelo://app?vid=f74d4f01-ad42-479c-9791-3e9138726ea8"},"vehicle_type_id":"4","last_reported":1725746846,"current_range_meters":5600,"station_id":"ce4bh012rcd13ifvqcv0","pricing_plan_id":"cebpf4jnsgd1na2vs0mg"},{"bike_id":"2e751bf7-edc6-4d88-91ae-8316f003eed4","system_id":"levelo_inurba_marseille","lat":43.309038,"lon":5.396546,"is_reserved":false,"is_disabled":false,"rental_uris":{"android":"levelo://app?vid=2e751bf7-edc6-4d88-91ae-8316f003eed4","ios":"levelo://app?vid=2e751bf7-edc6-4d88-91ae-8316f003eed4"},"vehicle_type_id":"4","last_reported":1725746846,"current_range_meters":24800,"station_id":"ce4bh012rcd13ifvqcv0","pricing_plan_id":"cebpf4jnsgd1na2vs0mg"},{"bike_id":"986d41ad-e5b6-4ec1-8e6f-3110bc004d4e","system_id":"levelo_inurba_marseille","lat":43.309038,"lon":5.396546,"is_reserved":false,"is_disabled":false,"rental_uris":{"android":"levelo://app?vid=986d41ad-e5b6-4ec1-8e6f-3110bc004d4e","ios":"levelo://app?vid=986d41ad-e5b6-4ec1-8e6f-3110bc004d4e"},"vehicle_type_id":"4","last_reported":1725746846,"current_range_meters":19200,"station_id":"ce4bh012rcd13ifvqcv0","pricing_plan_id":"cebpf4jnsgd1na2vs0mg"},{"bike_id":"76a5d487-9b4c-4449-977a-8f9aebb47348","system_id":"levelo_inurba_marseille","lat":43.309038,"lon":5.396546,"is_reserved":false,"is_disabled":false,"rental_uris":{"android":"levelo://app?vid=76a5d487-9b4c-4449-977a-8f9aebb47348","ios":"levelo://app?vid=76a5d487-9b4c-4449-977a-8f9aebb47348"},"vehicle_type_id":"4","last_reported":1725746846,"current_range_meters":19200,"station_id":"ce4bh012rcd13ifvqcv0","pricing_plan_id":"cebpf4jnsgd1na2vs0mg"},{"bike_id":"d1d37352-c912-401d-8ff1-8bb2a932bf2a","system_id":"levelo_inurba_marseille","lat":43.309038,"lon":5.396546,"is_reserved":false,"is_disabled":false,"rental_uris":{"android":"levelo://app?vid=d1d37352-c912-401d-8ff1-8bb2a932bf2a","ios":"levelo://app?vid=d1d37352-c912-401d-8ff1-8bb2a932bf2a"},"vehicle_type_id":"4","last_reported":1725746846,"current_range_meters":12800,"station_id":"ce4bh012rcd13ifvqcv0","pricing_plan_id":"cebpf4jnsgd1na2vs0mg"},{"bike_id":"92055267-e796-4ed3-9c46-49222318d176","system_id":"levelo_inurba_marseille","lat":43.29538,"lon":5.38542,"is_reserved":false,"is_disabled":false,"rental_uris":{"android":"levelo://app?vid=92055267-e796-4ed3-9c46-49222318d176","ios":"levelo://app?vid=92055267-e796-4ed3-9c46-49222318d176"},"vehicle_type_id":"4","last_reported":1725746846,"current_range_meters":5600,"station_id":"ce4bgih2rcd13ifvqba0","pricing_plan_id":"cebpf4jnsgd1na2vs0mg"},{"bike_id":"2bd94a40-ac2b-4502-bbb6-5119e0eb2767","system_id":"levelo_inurba_marseille","lat":43.309038,"lon":5.396546,"is_reserved":false,"is_disabled":false,"rental_uris":{"android":"levelo://app?vid=2bd94a40-ac2b-4502-bbb6-5119e0eb2767","ios":"levelo://app?vid=2bd94a40-ac2b-4502-bbb6-5119e0eb2767"},"vehicle_type_id":"4","last_reported":1725746846,"current_range_meters":11200,"station_id":"ce4bh012rcd13ifvqcv0","pricing_plan_id":"cebpf4jnsgd1na2vs0mg"},{"bike_id":"efbd5c4f-e362-4aa9-9ef3-4fb8c7858a94","system_id":"levelo_inurba_marseille","lat":43.309038,"lon":5.396546,"is_reserved":false,"is_disabled":false,"rental_uris":{"android":"levelo://app?vid=efbd5c4f-e362-4aa9-9ef3-4fb8c7858a94","ios":"levelo://app?vid=efbd5c4f-e362-4aa9-9ef3-4fb8c7858a94"},"vehicle_type_id":"4","last_reported":1725746846,"current_range_meters":31200,"station_id":"ce4bh012rcd13ifvqcv0","pricing_plan_id":"cebpf4jnsgd1na2vs0mg"},{"bike_id":"eb731334-00cb-46e8-b4e9-eea6ae86ded1","system_id":"levelo_inurba_marseille","lat":43.29529,"lon":5.385581,"is_reserved":false,"is_disabled":false,"rental_uris":{"android":"levelo://app?vid=eb731334-00cb-46e8-b4e9-eea6ae86ded1","ios":"levelo://app?vid=eb731334-00cb-46e8-b4e9-eea6ae86ded1"},"vehicle_type_id":"4","last_reported":1725746846,"current_range_meters":16400,"station_id":"ce4bgih2rcd13ifvqba0","pricing_plan_id":"cebpf4jnsgd1na2vs0mg"},{"bike_id":"80d68287-5b4c-459f-a96a-83618bc7a59d","system_id":"levelo_inurba_marseille","lat":43.290779,"lon":5.371482,"is_reserved":false,"is_disabled":false,"rental_uris":{"android":"levelo://app?vid=80d68287-5b4c-459f-a96a-83618bc7a59d","ios":"levelo://app?vid=80d68287-5b4c-459f-a96a-83618bc7a59d"},"vehicle_type_id":"4","last_reported":1725746846,"current_range_meters":29600,"station_id":"ce4bh5p2rcd13ifvqe4g","pricing_plan_id":"cebpf4jnsgd1na2vs0mg"},{"bike_id":"acbc0449-c820-4528-b688-4f665d2feece","system_id":"levelo_inurba_marseille","lat":43.290779,"lon":5.371482,"is_reserved":false,"is_disabled":false,"rental_uris":{"android":"levelo://app?vid=acbc0449-c820-4528-b688-4f665d2feece","ios":"levelo://app?vid=acbc0449-c820-4528-b688-4f665d2feece"},"vehicle_type_id":"4","last_reported":1725746846,"current_range_meters":27600,"station_id":"ce4bh5p2rcd13ifvqe4g","pricing_plan_id":"cebpf4jnsgd1na2vs0mg"},{"bike_id":"1054610b-f941-4c09-a648-8195be14d402","system_id":"levelo_inurba_marseille","lat":43.302008,"lon":5.394694,"is_reserved":false,"is_disabled":false,"rental_uris":{"android":"levelo://app?vid=1054610b-f941-4c09-a648-8195be14d402","ios":"levelo://app?vid=1054610b-f941-4c09-a648-8195be14d402"},"vehicle_type_id":"4","last_reported":1725746846,"current_range_meters":28800,"station_id":"ce4bh0p2rcd13ifvqd70","pricing_plan_id":"cebpf4jnsgd1na2vs0mg"},{"bike_id":"2fd723ce-f13a-48d6-aaad-6862c85ea7ea","system_id":"levelo_inurba_marseille","lat":43.29325,"lon":5.38327,"is_reserved":false,"is_disabled":false,"rental_uris":{"android":"levelo://app?vid=2fd723ce-f13a-48d6-aaad-6862c85ea7ea","ios":"levelo://app?vid=2fd723ce-f13a-48d6-aaad-6862c85ea7ea"},"vehicle_type_id":"4","last_reported":1725746846,"current_range_meters":26800,"station_id":"","pricing_plan_id":"cebpf4jnsgd1na2vs0mg"},{"bike_id":"366e6e07-5bce-4be8-a558-a6748b649f08","system_id":"levelo_inurba_marseille","lat":43.29302,"lon":5.38358,"is_reserved":false,"is_disabled":false,"rental_uris":{"android":"levelo://app?vid=366e6e07-5bce-4be8-a558-a6748b649f08","ios":"levelo://app?vid=366e6e07-5bce-4be8-a558-a6748b649f08"},"vehicle_type_id":"4","last_reported":1725746846,"current_range_meters":10000,"station_id":"","pricing_plan_id":"cebpf4jnsgd1na2vs0mg"},{"bike_id":"a3395384-c8f7-425a-8432-cf07d6cf97ce","system_id":"levelo_inurba_marseille","lat":43.294153,"lon":5.386305,"is_reserved":false,"is_disabled":false,"rental_uris":{"android":"levelo://app?vid=a3395384-c8f7-425a-8432-cf07d6cf97ce","ios":"levelo://app?vid=a3395384-c8f7-425a-8432-cf07d6cf97ce"},"vehicle_type_id":"4","last_reported":1725746846,"current_range_meters":0,"station_id":"ce4bh2h2rcd13ifvqdh0","pricing_plan_id":"cebpf4jnsgd1na2vs0mg"},{"bike_id":"89be04ca-e4b9-4639-b629-2d8fe59e2229","system_id":"levelo_inurba_marseille","lat":43.29032,"lon":5.37555,"is_reserved":false,"is_disabled":false,"rental_uris":{"android":"levelo://app?vid=89be04ca-e4b9-4639-b629-2d8fe59e2229","ios":"levelo://app?vid=89be04ca-e4b9-4639-b629-2d8fe59e2229"},"vehicle_type_id":"4","last_reported":1725746846,"current_range_meters":0,"station_id":"ce4bh692rcd13ifvqe90","pricing_plan_id":"cebpf4jnsgd1na2vs0mg"},{"bike_id":"882d33b7-29b9-403b-bfaf-c6f0be228098","system_id":"levelo_inurba_marseille","lat":43.294162,"lon":5.386292,"is_reserved":false,"is_disabled":false,"rental_uris":{"android":"levelo://app?vid=882d33b7-29b9-403b-bfaf-c6f0be228098","ios":"levelo://app?vid=882d33b7-29b9-403b-bfaf-c6f0be228098"},"vehicle_type_id":"4","last_reported":1725746846,"current_range_meters":9200,"station_id":"ce4bh2h2rcd13ifvqdh0","pricing_plan_id":"cebpf4jnsgd1na2vs0mg"},{"bike_id":"2312e110-b914-4c39-b127-dfab56cbc411","system_id":"levelo_inurba_marseille","lat":43.29415,"lon":5.38635,"is_reserved":false,"is_disabled":false,"rental_uris":{"android":"levelo://app?vid=2312e110-b914-4c39-b127-dfab56cbc411","ios":"levelo://app?vid=2312e110-b914-4c39-b127-dfab56cbc411"},"vehicle_type_id":"4","last_reported":1725746846,"current_range_meters":7600,"station_id":"ce4bh2h2rcd13ifvqdh0","pricing_plan_id":"cebpf4jnsgd1na2vs0mg"},{"bike_id":"07ee239e-c4eb-4b2f-b2bc-7b43cdaea4d7","system_id":"levelo_inurba_marseille","lat":43.290561,"lon":5.37788,"is_reserved":false,"is_disabled":false,"rental_uris":{"android":"levelo://app?vid=07ee239e-c4eb-4b2f-b2bc-7b43cdaea4d7","ios":"levelo://app?vid=07ee239e-c4eb-4b2f-b2bc-7b43cdaea4d7"},"vehicle_type_id":"4","last_reported":1725746846,"current_range_meters":0,"station_id":"","pricing_plan_id":"cebpf4jnsgd1na2vs0mg"},{"bike_id":"0d58c859-8f3f-497a-97f2-d689983efc67","system_id":"levelo_inurba_marseille","lat":43.31776,"lon":5.39874,"is_reserved":false,"is_disabled":false,"rental_uris":{"android":"levelo://app?vid=0d58c859-8f3f-497a-97f2-d689983efc67","ios":"levelo://app?vid=0d58c859-8f3f-497a-97f2-d689983efc67"},"vehicle_type_id":"4","last_reported":1725746846,"current_range_meters":26000,"station_id":"","pricing_plan_id":"cebpf4jnsgd1na2vs0mg"},{"bike_id":"bf93b337-22c8-4646-b19b-37fde03a5621","system_id":"levelo_inurba_marseille","lat":43.292644,"lon":5.384257,"is_reserved":false,"is_disabled":false,"rental_uris":{"android":"levelo://app?vid=bf93b337-22c8-4646-b19b-37fde03a5621","ios":"levelo://app?vid=bf93b337-22c8-4646-b19b-37fde03a5621"},"vehicle_type_id":"4","last_reported":1725746846,"current_range_meters":28000,"station_id":"ce4bh692rcd13ifvqea0","pricing_plan_id":"cebpf4jnsgd1na2vs0mg"},{"bike_id":"deeb44ae-c3e3-41b9-b28b-91f69f40b050","system_id":"levelo_inurba_marseille","lat":43.290104,"lon":5.356111,"is_reserved":false,"is_disabled":false,"rental_uris":{"android":"levelo://app?vid=deeb44ae-c3e3-41b9-b28b-91f69f40b050","ios":"levelo://app?vid=deeb44ae-c3e3-41b9-b28b-91f69f40b050"},"vehicle_type_id":"4","last_reported":1725746846,"current_range_meters":28800,"station_id":"ce4bhb92rcd13ifvqen0","pricing_plan_id":"cebpf4jnsgd1na2vs0mg"},{"bike_id":"950d2273-db6c-42ef-949f-1a1177ac53df","system_id":"levelo_inurba_marseille","lat":43.290103,"lon":5.356114,"is_reserved":false,"is_disabled":false,"rental_uris":{"android":"levelo://app?vid=950d2273-db6c-42ef-949f-1a1177ac53df","ios":"levelo://app?vid=950d2273-db6c-42ef-949f-1a1177ac53df"},"vehicle_type_id":"4","last_reported":1725746846,"current_range_meters":0,"station_id":"ce4bhb92rcd13ifvqen0","pricing_plan_id":"cebpf4jnsgd1na2vs0mg"},{"bike_id":"03377860-fa23-4ae9-aab6-e3aed105addc","system_id":"levelo_inurba_marseille","lat":43.290995,"lon":5.381361,"is_reserved":false,"is_disabled":false,"rental_uris":{"android":"levelo://app?vid=03377860-fa23-4ae9-aab6-e3aed105addc","ios":"levelo://app?vid=03377860-fa23-4ae9-aab6-e3aed105addc"},"vehicle_type_id":"4","last_reported":1725746846,"current_range_meters":6400,"station_id":"ce4bh512rcd13ifvqe2g","pricing_plan_id":"cebpf4jnsgd1na2vs0mg"},{"bike_id":"d9c9bdac-3f75-4576-bd58-652c3462ff1e","system_id":"levelo_inurba_marseille","lat":43.290995,"lon":5.381361,"is_reserved":false,"is_disabled":false,"rental_uris":{"android":"levelo://app?vid=d9c9bdac-3f75-4576-bd58-652c3462ff1e","ios":"levelo://app?vid=d9c9bdac-3f75-4576-bd58-652c3462ff1e"},"vehicle_type_id":"4","last_reported":1725746846,"current_range_meters":22800,"station_id":"ce4bh512rcd13ifvqe2g","pricing_plan_id":"cebpf4jnsgd1na2vs0mg"},{"bike_id":"9e8b3e5c-5082-4264-bff3-3ecf909277ab","system_id":"levelo_inurba_marseille","lat":43.297807,"lon":5.393533,"is_reserved":false,"is_disabled":false,"rental_uris":{"android":"levelo://app?vid=9e8b3e5c-5082-4264-bff3-3ecf909277ab","ios":"levelo://app?vid=9e8b3e5c-5082-4264-bff3-3ecf909277ab"},"vehicle_type_id":"4","last_reported":1725746846,"current_range_meters":0,"station_id":"chh1huq6cuj3fo74tm60","pricing_plan_id":"cebpf4jnsgd1na2vs0mg"},{"bike_id":"4f82bf57-31a1-4092-b53c-4a7bcc4c214d","system_id":"levelo_inurba_marseille","lat":43.297815,"lon":5.393548,"is_reserved":false,"is_disabled":false,"rental_uris":{"android":"levelo://app?vid=4f82bf57-31a1-4092-b53c-4a7bcc4c214d","ios":"levelo://app?vid=4f82bf57-31a1-4092-b53c-4a7bcc4c214d"},"vehicle_type_id":"4","last_reported":1725746846,"current_range_meters":11200,"station_id":"chh1huq6cuj3fo74tm60","pricing_plan_id":"cebpf4jnsgd1na2vs0mg"},{"bike_id":"4a4f1eae-158c-4b69-9c6b-1309a89a4984","system_id":"levelo_inurba_marseille","lat":43.297807,"lon":5.393533,"is_reserved":false,"is_disabled":false,"rental_uris":{"android":"levelo://app?vid=4a4f1eae-158c-4b69-9c6b-1309a89a4984","ios":"levelo://app?vid=4a4f1eae-158c-4b69-9c6b-1309a89a4984"},"vehicle_type_id":"4","last_reported":1725746846,"current_range_meters":14000,"station_id":"chh1huq6cuj3fo74tm60","pricing_plan_id":"cebpf4jnsgd1na2vs0mg"},{"bike_id":"8ced5b0d-1117-4e57-ba68-2999f22d84f5","system_id":"levelo_inurba_marseille","lat":43.297815,"lon":5.393548,"is_reserved":false,"is_disabled":false,"rental_uris":{"android":"levelo://app?vid=8ced5b0d-1117-4e57-ba68-2999f22d84f5","ios":"levelo://app?vid=8ced5b0d-1117-4e57-ba68-2999f22d84f5"},"vehicle_type_id":"4","last_reported":1725746846,"current_range_meters":26800,"station_id":"chh1huq6cuj3fo74tm60","pricing_plan_id":"cebpf4jnsgd1na2vs0mg"},{"bike_id":"dd437d39-b0b9-422e-8c15-e87f50d5e71b","system_id":"levelo_inurba_marseille","lat":43.289741,"lon":5.378306,"is_reserved":false,"is_disabled":false,"rental_uris":{"android":"levelo://app?vid=dd437d39-b0b9-422e-8c15-e87f50d5e71b","ios":"levelo://app?vid=dd437d39-b0b9-422e-8c15-e87f50d5e71b"},"vehicle_type_id":"4","last_reported":1725746846,"current_range_meters":28400,"station_id":"ce4bh9p2rcd13ifvqed0","pricing_plan_id":"cebpf4jnsgd1na2vs0mg"},{"bike_id":"8bdbbc6c-6239-4b5e-ae43-9324a2e8288b","system_id":"levelo_inurba_marseille","lat":43.28975,"lon":5.37826,"is_reserved":false,"is_disabled":false,"rental_uris":{"android":"levelo://app?vid=8bdbbc6c-6239-4b5e-ae43-9324a2e8288b","ios":"levelo://app?vid=8bdbbc6c-6239-4b5e-ae43-9324a2e8288b"},"vehicle_type_id":"4","last_reported":1725746846,"current_range_meters":11200,"station_id":"ce4bh9p2rcd13ifvqed0","pricing_plan_id":"cebpf4jnsgd1na2vs0mg"},{"bike_id":"f892b760-ddb3-4eff-ba9d-2161f5bb9e50","system_id":"levelo_inurba_marseille","lat":43.29527,"lon":5.39044,"is_reserved":false,"is_disabled":false,"rental_uris":{"android":"levelo://app?vid=f892b760-ddb3-4eff-ba9d-2161f5bb9e50","ios":"levelo://app?vid=f892b760-ddb3-4eff-ba9d-2161f5bb9e50"},"vehicle_type_id":"4","last_reported":1725746846,"current_range_meters":29600,"station_id":"ce4bh3p2rcd13ifvqdp0","pricing_plan_id":"cebpf4jnsgd1na2vs0mg"},{"bike_id":"9a635b42-97e4-4747-9938-d817844fa5b8","system_id":"levelo_inurba_marseille","lat":43.2901,"lon":5.381269,"is_reserved":false,"is_disabled":false,"rental_uris":{"android":"levelo://app?vid=9a635b42-97e4-4747-9938-d817844fa5b8","ios":"levelo://app?vid=9a635b42-97e4-4747-9938-d817844fa5b8"},"vehicle_type_id":"4","last_reported":1725746846,"current_range_meters":7600,"station_id":"ce4bh4p2rcd13ifvqe1g","pricing_plan_id":"cebpf4jnsgd1na2vs0mg"},{"bike_id":"e076c1f0-3e28-4c65-8341-59ef8a030b3d","system_id":"levelo_inurba_marseille","lat":43.312609,"lon":5.401662,"is_reserved":false,"is_disabled":false,"rental_uris":{"android":"levelo://app?vid=e076c1f0-3e28-4c65-8341-59ef8a030b3d","ios":"levelo://app?vid=e076c1f0-3e28-4c65-8341-59ef8a030b3d"},"vehicle_type_id":"4","last_reported":1725746846,"current_range_meters":20000,"station_id":"ce4bh092rcd13ifvqd30","pricing_plan_id":"cebpf4jnsgd1na2vs0mg"},{"bike_id":"40565d8c-4159-4883-b3f0-28e961f6be9e","system_id":"levelo_inurba_marseille","lat":43.3371,"lon":5.35769,"is_reserved":false,"is_disabled":false,"rental_uris":{"android":"levelo://app?vid=40565d8c-4159-4883-b3f0-28e961f6be9e","ios":"levelo://app?vid=40565d8c-4159-4883-b3f0-28e961f6be9e"},"vehicle_type_id":"4","last_reported":1725746846,"current_range_meters":14800,"station_id":"","pricing_plan_id":"cebpf4jnsgd1na2vs0mg"},{"bike_id":"cd7f9a8f-6779-4333-b06e-50fb23aa3314","system_id":"levelo_inurba_marseille","lat":43.312609,"lon":5.401662,"is_reserved":false,"is_disabled":false,"rental_uris":{"android":"levelo://app?vid=cd7f9a8f-6779-4333-b06e-50fb23aa3314","ios":"levelo://app?vid=cd7f9a8f-6779-4333-b06e-50fb23aa3314"},"vehicle_type_id":"4","last_reported":1725746846,"current_range_meters":6000,"station_id":"ce4bh092rcd13ifvqd30","pricing_plan_id":"cebpf4jnsgd1na2vs0mg"},{"bike_id":"b5800349-2cce-4370-b0df-6fa731885a94","system_id":"levelo_inurba_marseille","lat":43.309371,"lon":5.401449,"is_reserved":false,"is_disabled":false,"rental_uris":{"android":"levelo://app?vid=b5800349-2cce-4370-b0df-6fa731885a94","ios":"levelo://app?vid=b5800349-2cce-4370-b0df-6fa731885a94"},"vehicle_type_id":"4","last_reported":1725746846,"current_range_meters":0,"station_id":"ce4bgvp2rcd13ifvqct0","pricing_plan_id":"cebpf4jnsgd1na2vs0mg"},{"bike_id":"85f24bf6-f418-4eec-96ae-3b725d0c358c","system_id":"levelo_inurba_marseille","lat":43.312609,"lon":5.401662,"is_reserved":false,"is_disabled":false,"rental_uris":{"android":"levelo://app?vid=85f24bf6-f418-4eec-96ae-3b725d0c358c","ios":"levelo://app?vid=85f24bf6-f418-4eec-96ae-3b725d0c358c"},"vehicle_type_id":"4","last_reported":1725746846,"current_range_meters":31200,"station_id":"ce4bh092rcd13ifvqd30","pricing_plan_id":"cebpf4jnsgd1na2vs0mg"},{"bike_id":"c81deac0-8c72-4e9a-b928-f16c64561165","system_id":"levelo_inurba_marseille","lat":43.30937,"lon":5.40144,"is_reserved":false,"is_disabled":false,"rental_uris":{"android":"levelo://app?vid=c81deac0-8c72-4e9a-b928-f16c64561165","ios":"levelo://app?vid=c81deac0-8c72-4e9a-b928-f16c64561165"},"vehicle_type_id":"4","last_reported":1725746846,"current_range_meters":31600,"station_id":"ce4bgvp2rcd13ifvqct0","pricing_plan_id":"cebpf4jnsgd1na2vs0mg"},{"bike_id":"67473307-8b95-4002-b6ae-50125c4d8c34","system_id":"levelo_inurba_marseille","lat":43.30925,"lon":5.40142,"is_reserved":false,"is_disabled":false,"rental_uris":{"android":"levelo://app?vid=67473307-8b95-4002-b6ae-50125c4d8c34","ios":"levelo://app?vid=67473307-8b95-4002-b6ae-50125c4d8c34"},"vehicle_type_id":"4","last_reported":1725746846,"current_range_meters":31200,"station_id":"ce4bgvp2rcd13ifvqct0","pricing_plan_id":"cebpf4jnsgd1na2vs0mg"},{"bike_id":"d0ff87b7-254e-4ec6-9c58-946d1d46ac77","system_id":"levelo_inurba_marseille","lat":43.309371,"lon":5.401449,"is_reserved":false,"is_disabled":false,"rental_uris":{"android":"levelo://app?vid=d0ff87b7-254e-4ec6-9c58-946d1d46ac77","ios":"levelo://app?vid=d0ff87b7-254e-4ec6-9c58-946d1d46ac77"},"vehicle_type_id":"4","last_reported":1725746846,"current_range_meters":17600,"station_id":"ce4bgvp2rcd13ifvqct0","pricing_plan_id":"cebpf4jnsgd1na2vs0mg"},{"bike_id":"579a6aa2-740d-480c-9fc1-eb2a8264897c","system_id":"levelo_inurba_marseille","lat":43.309371,"lon":5.401449,"is_reserved":false,"is_disabled":false,"rental_uris":{"android":"levelo://app?vid=579a6aa2-740d-480c-9fc1-eb2a8264897c","ios":"levelo://app?vid=579a6aa2-740d-480c-9fc1-eb2a8264897c"},"vehicle_type_id":"4","last_reported":1725746846,"current_range_meters":32000,"station_id":"ce4bgvp2rcd13ifvqct0","pricing_plan_id":"cebpf4jnsgd1na2vs0mg"},{"bike_id":"8b262944-bc1b-4693-bb74-2560e92a1595","system_id":"levelo_inurba_marseille","lat":43.30932,"lon":5.40146,"is_reserved":false,"is_disabled":false,"rental_uris":{"android":"levelo://app?vid=8b262944-bc1b-4693-bb74-2560e92a1595","ios":"levelo://app?vid=8b262944-bc1b-4693-bb74-2560e92a1595"},"vehicle_type_id":"4","last_reported":1725746846,"current_range_meters":27600,"station_id":"ce4bgvp2rcd13ifvqct0","pricing_plan_id":"cebpf4jnsgd1na2vs0mg"},{"bike_id":"d842ee42-8522-45ef-89dd-67d32f9e292e","system_id":"levelo_inurba_marseille","lat":43.309371,"lon":5.401449,"is_reserved":false,"is_disabled":false,"rental_uris":{"android":"levelo://app?vid=d842ee42-8522-45ef-89dd-67d32f9e292e","ios":"levelo://app?vid=d842ee42-8522-45ef-89dd-67d32f9e292e"},"vehicle_type_id":"4","last_reported":1725746846,"current_range_meters":8000,"station_id":"ce4bgvp2rcd13ifvqct0","pricing_plan_id":"cebpf4jnsgd1na2vs0mg"},{"bike_id":"7839ef83-80ba-4471-a61b-3e9c12f6ce26","system_id":"levelo_inurba_marseille","lat":43.309371,"lon":5.401449,"is_reserved":false,"is_disabled":false,"rental_uris":{"android":"levelo://app?vid=7839ef83-80ba-4471-a61b-3e9c12f6ce26","ios":"levelo://app?vid=7839ef83-80ba-4471-a61b-3e9c12f6ce26"},"vehicle_type_id":"4","last_reported":1725746846,"current_range_meters":16800,"station_id":"ce4bgvp2rcd13ifvqct0","pricing_plan_id":"cebpf4jnsgd1na2vs0mg"},{"bike_id":"047eac65-aa9f-407c-a361-cc83efc3ba8a","system_id":"levelo_inurba_marseille","lat":43.30926,"lon":5.40149,"is_reserved":false,"is_disabled":false,"rental_uris":{"android":"levelo://app?vid=047eac65-aa9f-407c-a361-cc83efc3ba8a","ios":"levelo://app?vid=047eac65-aa9f-407c-a361-cc83efc3ba8a"},"vehicle_type_id":"4","last_reported":1725746846,"current_range_meters":20400,"station_id":"ce4bgvp2rcd13ifvqct0","pricing_plan_id":"cebpf4jnsgd1na2vs0mg"},{"bike_id":"3f3244df-bee4-4437-b2a1-ab9135c8e39a","system_id":"levelo_inurba_marseille","lat":43.33755,"lon":5.37455,"is_reserved":false,"is_disabled":false,"rental_uris":{"android":"levelo://app?vid=3f3244df-bee4-4437-b2a1-ab9135c8e39a","ios":"levelo://app?vid=3f3244df-bee4-4437-b2a1-ab9135c8e39a"},"vehicle_type_id":"4","last_reported":1725746846,"current_range_meters":18400,"station_id":"","pricing_plan_id":"cebpf4jnsgd1na2vs0mg"},{"bike_id":"39f5af82-2d9d-49b5-9de0-0477144a0224","system_id":"levelo_inurba_marseille","lat":43.33756,"lon":5.37457,"is_reserved":false,"is_disabled":false,"rental_uris":{"android":"levelo://app?vid=39f5af82-2d9d-49b5-9de0-0477144a0224","ios":"levelo://app?vid=39f5af82-2d9d-49b5-9de0-0477144a0224"},"vehicle_type_id":"4","last_reported":1725746846,"current_range_meters":21600,"station_id":"","pricing_plan_id":"cebpf4jnsgd1na2vs0mg"},{"bike_id":"45985ff5-fc75-4626-9a62-c7067a0f7ca9","system_id":"levelo_inurba_marseille","lat":43.337566,"lon":5.37457,"is_reserved":false,"is_disabled":false,"rental_uris":{"android":"levelo://app?vid=45985ff5-fc75-4626-9a62-c7067a0f7ca9","ios":"levelo://app?vid=45985ff5-fc75-4626-9a62-c7067a0f7ca9"},"vehicle_type_id":"4","last_reported":1725746846,"current_range_meters":31200,"station_id":"ce4bhr92rcd13ifvqhrg","pricing_plan_id":"cebpf4jnsgd1na2vs0mg"},{"bike_id":"87c115e1-5893-47cb-8dac-23dfbd7ae245","system_id":"levelo_inurba_marseille","lat":43.306412,"lon":5.401035,"is_reserved":false,"is_disabled":false,"rental_uris":{"android":"levelo://app?vid=87c115e1-5893-47cb-8dac-23dfbd7ae245","ios":"levelo://app?vid=87c115e1-5893-47cb-8dac-23dfbd7ae245"},"vehicle_type_id":"4","last_reported":1725746846,"current_range_meters":30400,"station_id":"ce4bh112rcd13ifvqda0","pricing_plan_id":"cebpf4jnsgd1na2vs0mg"},{"bike_id":"90baa106-ea93-4c38-a6f2-1496df986705","system_id":"levelo_inurba_marseille","lat":43.306412,"lon":5.401035,"is_reserved":false,"is_disabled":false,"rental_uris":{"android":"levelo://app?vid=90baa106-ea93-4c38-a6f2-1496df986705","ios":"levelo://app?vid=90baa106-ea93-4c38-a6f2-1496df986705"},"vehicle_type_id":"4","last_reported":1725746846,"current_range_meters":0,"station_id":"ce4bh112rcd13ifvqda0","pricing_plan_id":"cebpf4jnsgd1na2vs0mg"},{"bike_id":"41c8b48c-7f24-4ae2-99b8-5e1fb09220d4","system_id":"levelo_inurba_marseille","lat":43.301117,"lon":5.398795,"is_reserved":false,"is_disabled":false,"rental_uris":{"android":"levelo://app?vid=41c8b48c-7f24-4ae2-99b8-5e1fb09220d4","ios":"levelo://app?vid=41c8b48c-7f24-4ae2-99b8-5e1fb09220d4"},"vehicle_type_id":"4","last_reported":1725746846,"current_range_meters":18000,"station_id":"ce4bh0h2rcd13ifvqd40","pricing_plan_id":"cebpf4jnsgd1na2vs0mg"},{"bike_id":"40b600c2-2934-4eb9-9dde-77d1363310a8","system_id":"levelo_inurba_marseille","lat":43.306412,"lon":5.401035,"is_reserved":false,"is_disabled":false,"rental_uris":{"android":"levelo://app?vid=40b600c2-2934-4eb9-9dde-77d1363310a8","ios":"levelo://app?vid=40b600c2-2934-4eb9-9dde-77d1363310a8"},"vehicle_type_id":"4","last_reported":1725746846,"current_range_meters":2800,"station_id":"ce4bh112rcd13ifvqda0","pricing_plan_id":"cebpf4jnsgd1na2vs0mg"},{"bike_id":"29c2f4b6-1b1e-4736-a893-d1a4dadf046e","system_id":"levelo_inurba_marseille","lat":43.28727,"lon":5.36078,"is_reserved":false,"is_disabled":false,"rental_uris":{"android":"levelo://app?vid=29c2f4b6-1b1e-4736-a893-d1a4dadf046e","ios":"levelo://app?vid=29c2f4b6-1b1e-4736-a893-d1a4dadf046e"},"vehicle_type_id":"4","last_reported":1725746846,"current_range_meters":28800,"station_id":"cki0cbj6b192h4jlfktg","pricing_plan_id":"cebpf4jnsgd1na2vs0mg"},{"bike_id":"ca503df1-d24c-43e5-99d4-5af6aa64cf5f","system_id":"levelo_inurba_marseille","lat":43.301901,"lon":5.399152,"is_reserved":false,"is_disabled":false,"rental_uris":{"android":"levelo://app?vid=ca503df1-d24c-43e5-99d4-5af6aa64cf5f","ios":"levelo://app?vid=ca503df1-d24c-43e5-99d4-5af6aa64cf5f"},"vehicle_type_id":"4","last_reported":1725746846,"current_range_meters":0,"station_id":"","pricing_plan_id":"cebpf4jnsgd1na2vs0mg"},{"bike_id":"fb37217e-7ee9-4eb8-ad84-ba3c651eebf2","system_id":"levelo_inurba_marseille","lat":43.28727,"lon":5.36078,"is_reserved":false,"is_disabled":false,"rental_uris":{"android":"levelo://app?vid=fb37217e-7ee9-4eb8-ad84-ba3c651eebf2","ios":"levelo://app?vid=fb37217e-7ee9-4eb8-ad84-ba3c651eebf2"},"vehicle_type_id":"4","last_reported":1725746846,"current_range_meters":20400,"station_id":"cki0cbj6b192h4jlfktg","pricing_plan_id":"cebpf4jnsgd1na2vs0mg"},{"bike_id":"346c3863-ad1d-4c97-b1ca-814972258020","system_id":"levelo_inurba_marseille","lat":43.286961,"lon":5.373785,"is_reserved":false,"is_disabled":false,"rental_uris":{"android":"levelo://app?vid=346c3863-ad1d-4c97-b1ca-814972258020","ios":"levelo://app?vid=346c3863-ad1d-4c97-b1ca-814972258020"},"vehicle_type_id":"4","last_reported":1725746846,"current_range_meters":4400,"station_id":"ce4bh3p2rcd13ifvqdq0","pricing_plan_id":"cebpf4jnsgd1na2vs0mg"},{"bike_id":"f6ff51bb-b65b-4af5-a318-e78f1db471d1","system_id":"levelo_inurba_marseille","lat":43.2607,"lon":5.393983,"is_reserved":false,"is_disabled":false,"rental_uris":{"android":"levelo://app?vid=f6ff51bb-b65b-4af5-a318-e78f1db471d1","ios":"levelo://app?vid=f6ff51bb-b65b-4af5-a318-e78f1db471d1"},"vehicle_type_id":"4","last_reported":1725746846,"current_range_meters":2000,"station_id":"ce4bhh92rcd13ifvqfj0","pricing_plan_id":"cebpf4jnsgd1na2vs0mg"},{"bike_id":"f6a5bedb-7730-4d3b-9c40-721c84093125","system_id":"levelo_inurba_marseille","lat":43.286961,"lon":5.373785,"is_reserved":false,"is_disabled":false,"rental_uris":{"android":"levelo://app?vid=f6a5bedb-7730-4d3b-9c40-721c84093125","ios":"levelo://app?vid=f6a5bedb-7730-4d3b-9c40-721c84093125"},"vehicle_type_id":"4","last_reported":1725746846,"current_range_meters":12000,"station_id":"ce4bh3p2rcd13ifvqdq0","pricing_plan_id":"cebpf4jnsgd1na2vs0mg"},{"bike_id":"26e07d8d-c669-419f-aaea-f253c1e35f60","system_id":"levelo_inurba_marseille","lat":43.298681,"lon":5.397225,"is_reserved":false,"is_disabled":false,"rental_uris":{"android":"levelo://app?vid=26e07d8d-c669-419f-aaea-f253c1e35f60","ios":"levelo://app?vid=26e07d8d-c669-419f-aaea-f253c1e35f60"},"vehicle_type_id":"4","last_reported":1725746846,"current_range_meters":2800,"station_id":"ce4bh0h2rcd13ifvqd50","pricing_plan_id":"cebpf4jnsgd1na2vs0mg"},{"bike_id":"81ecd3d1-8bc7-4624-afda-134b66d8bec4","system_id":"levelo_inurba_marseille","lat":43.286591,"lon":5.363346,"is_reserved":false,"is_disabled":false,"rental_uris":{"android":"levelo://app?vid=81ecd3d1-8bc7-4624-afda-134b66d8bec4","ios":"levelo://app?vid=81ecd3d1-8bc7-4624-afda-134b66d8bec4"},"vehicle_type_id":"4","last_reported":1725746846,"current_range_meters":24800,"station_id":"ce4bhah2rcd13ifvqej0","pricing_plan_id":"cebpf4jnsgd1na2vs0mg"},{"bike_id":"6809b65f-cdf3-47bf-b2e9-81898a70d79d","system_id":"levelo_inurba_marseille","lat":43.298681,"lon":5.397225,"is_reserved":false,"is_disabled":false,"rental_uris":{"android":"levelo://app?vid=6809b65f-cdf3-47bf-b2e9-81898a70d79d","ios":"levelo://app?vid=6809b65f-cdf3-47bf-b2e9-81898a70d79d"},"vehicle_type_id":"4","last_reported":1725746846,"current_range_meters":23200,"station_id":"ce4bh0h2rcd13ifvqd50","pricing_plan_id":"cebpf4jnsgd1na2vs0mg"},{"bike_id":"d8d16f82-ee1c-47e1-8eb1-11c63d0e97ba","system_id":"levelo_inurba_marseille","lat":43.298681,"lon":5.397225,"is_reserved":false,"is_disabled":false,"rental_uris":{"android":"levelo://app?vid=d8d16f82-ee1c-47e1-8eb1-11c63d0e97ba","ios":"levelo://app?vid=d8d16f82-ee1c-47e1-8eb1-11c63d0e97ba"},"vehicle_type_id":"4","last_reported":1725746846,"current_range_meters":26400,"station_id":"ce4bh0h2rcd13ifvqd50","pricing_plan_id":"cebpf4jnsgd1na2vs0mg"},{"bike_id":"3fabe540-efc1-4456-9ad8-399a0fc65b85","system_id":"levelo_inurba_marseille","lat":43.298681,"lon":5.397225,"is_reserved":false,"is_disabled":false,"rental_uris":{"android":"levelo://app?vid=3fabe540-efc1-4456-9ad8-399a0fc65b85","ios":"levelo://app?vid=3fabe540-efc1-4456-9ad8-399a0fc65b85"},"vehicle_type_id":"4","last_reported":1725746846,"current_range_meters":9200,"station_id":"ce4bh0h2rcd13ifvqd50","pricing_plan_id":"cebpf4jnsgd1na2vs0mg"},{"bike_id":"29420e07-3902-4093-9988-3f57fdaf4b61","system_id":"levelo_inurba_marseille","lat":43.286593,"lon":5.363346,"is_reserved":false,"is_disabled":false,"rental_uris":{"android":"levelo://app?vid=29420e07-3902-4093-9988-3f57fdaf4b61","ios":"levelo://app?vid=29420e07-3902-4093-9988-3f57fdaf4b61"},"vehicle_type_id":"4","last_reported":1725746846,"current_range_meters":800,"station_id":"ce4bhah2rcd13ifvqej0","pricing_plan_id":"cebpf4jnsgd1na2vs0mg"},{"bike_id":"887946ee-1ec5-4e66-8990-9228b4c46b6a","system_id":"levelo_inurba_marseille","lat":43.298681,"lon":5.397225,"is_reserved":false,"is_disabled":false,"rental_uris":{"android":"levelo://app?vid=887946ee-1ec5-4e66-8990-9228b4c46b6a","ios":"levelo://app?vid=887946ee-1ec5-4e66-8990-9228b4c46b6a"},"vehicle_type_id":"4","last_reported":1725746846,"current_range_meters":1600,"station_id":"ce4bh0h2rcd13ifvqd50","pricing_plan_id":"cebpf4jnsgd1na2vs0mg"},{"bike_id":"914239a1-d97a-459b-b2a2-9dbeec693d80","system_id":"levelo_inurba_marseille","lat":43.286591,"lon":5.363346,"is_reserved":false,"is_disabled":false,"rental_uris":{"android":"levelo://app?vid=914239a1-d97a-459b-b2a2-9dbeec693d80","ios":"levelo://app?vid=914239a1-d97a-459b-b2a2-9dbeec693d80"},"vehicle_type_id":"4","last_reported":1725746846,"current_range_meters":19600,"station_id":"ce4bhah2rcd13ifvqej0","pricing_plan_id":"cebpf4jnsgd1na2vs0mg"},{"bike_id":"d0d9a487-c04f-402f-a9cd-8f30a2eec07b","system_id":"levelo_inurba_marseille","lat":43.286593,"lon":5.363346,"is_reserved":false,"is_disabled":false,"rental_uris":{"android":"levelo://app?vid=d0d9a487-c04f-402f-a9cd-8f30a2eec07b","ios":"levelo://app?vid=d0d9a487-c04f-402f-a9cd-8f30a2eec07b"},"vehicle_type_id":"4","last_reported":1725746846,"current_range_meters":4400,"station_id":"ce4bhah2rcd13ifvqej0","pricing_plan_id":"cebpf4jnsgd1na2vs0mg"},{"bike_id":"27b21825-bfd9-4075-9694-999281eb9602","system_id":"levelo_inurba_marseille","lat":43.286591,"lon":5.363346,"is_reserved":false,"is_disabled":false,"rental_uris":{"android":"levelo://app?vid=27b21825-bfd9-4075-9694-999281eb9602","ios":"levelo://app?vid=27b21825-bfd9-4075-9694-999281eb9602"},"vehicle_type_id":"4","last_reported":1725746846,"current_range_meters":13200,"station_id":"ce4bhah2rcd13ifvqej0","pricing_plan_id":"cebpf4jnsgd1na2vs0mg"},{"bike_id":"6b9c122e-13ef-4f99-a4fa-9885069d24d7","system_id":"levelo_inurba_marseille","lat":43.289307,"lon":5.38406,"is_reserved":false,"is_disabled":false,"rental_uris":{"android":"levelo://app?vid=6b9c122e-13ef-4f99-a4fa-9885069d24d7","ios":"levelo://app?vid=6b9c122e-13ef-4f99-a4fa-9885069d24d7"},"vehicle_type_id":"4","last_reported":1725746846,"current_range_meters":4000,"station_id":"ce4bh612rcd13ifvqe6g","pricing_plan_id":"cebpf4jnsgd1na2vs0mg"},{"bike_id":"8376621f-54e3-4b96-8403-03c9ef304036","system_id":"levelo_inurba_marseille","lat":43.295196,"lon":5.39397,"is_reserved":false,"is_disabled":false,"rental_uris":{"android":"levelo://app?vid=8376621f-54e3-4b96-8403-03c9ef304036","ios":"levelo://app?vid=8376621f-54e3-4b96-8403-03c9ef304036"},"vehicle_type_id":"4","last_reported":1725746846,"current_range_meters":21600,"station_id":"ce4bh292rcd13ifvqdf0","pricing_plan_id":"cebpf4jnsgd1na2vs0mg"},