{"last_updated":1713211651,"ttl":30,"version":"2.2","data":{"bikes":[{"bike_id":"b763707c-bf69-46c6-90fa-37f3be7de4ce","system_id":"levelo_inurba_marseille","lat":43.313391,"lon":5.36706,"is_reserved":false,"is_disabled":false,"rental_uris":{"android":"levelo://app?vid=b763707c-bf69-46c6-90fa-37f3be7de4ce","ios":"levelo://app?vid=b763707c-bf69-46c6-90fa-37f3be7de4ce"},"vehicle_type_id":"4","last_reported":1713211651,"current_range_meters":28000,"station_id":"ce4bgr92rcd13ifvqc6g","pricing_plan_id":"cebpf4jnsgd1na2vs0mg"},{"bike_id":"ecab0ecd-4a5f-4f6f-af14-c392e5efcd8f","system_id":"levelo_inurba_marseille","lat":43.312253,"lon":5.36867,"is_reserved":false,"is_disabled":false,"rental_uris":{"android":"levelo://app?vid=ecab0ecd-4a5f-4f6f-af14-c392e5efcd8f","ios":"levelo://app?vid=ecab0ecd-4a5f-4f6f-af14-c392e5efcd8f"},"vehicle_type_id":"4","last_reported":1713211651,"current_range_meters":16000,"station_id":"","pricing_plan_id":"cebpf4jnsgd1na2vs0mg"},{"bike_id":"271ecfaa-3690-4d5d-a2e7-8d48134a39e5","system_id":"levelo_inurba_marseille","lat":43.312327,"lon":5.36884,"is_reserved":false,"is_disabled":false,"rental_uris":{"android":"levelo://app?vid=271ecfaa-3690-4d5d-a2e7-8d48134a39e5","ios":"levelo://app?vid=271ecfaa-3690-4d5d-a2e7-8d48134a39e5"},"vehicle_type_id":"4","last_reported":1713211651,"current_range_meters":0,"station_id":"ce4bgl92rcd13ifvqbq0","pricing_plan_id":"cebpf4jnsgd1na2vs0mg"},{"bike_id":"97591c2d-4645-4b87-9c89-60c4e39e7ab5","system_id":"levelo_inurba_marseille","lat":43.30902,"lon":5.36839,"is_reserved":false,"is_disabled":false,"rental_uris":{"android":"levelo://app?vid=97591c2d-4645-4b87-9c89-60c4e39e7ab5","ios":"levelo://app?vid=97591c2d-4645-4b87-9c89-60c4e39e7ab5"},"vehicle_type_id":"4","last_reported":1713211651,"current_range_meters":31200,"station_id":"ce4bgn92rcd13ifvqbvg","pricing_plan_id":"cebpf4jnsgd1na2vs0mg"},{"bike_id":"7e39c379-12c5-441b-9beb-35671e1f7b02","system_id":"levelo_inurba_marseille","lat":43.30904,"lon":5.3685,"is_reserved":false,"is_disabled":false,"rental_uris":{"android":"levelo://app?vid=7e39c379-12c5-441b-9beb-35671e1f7b02","ios":"levelo://app?vid=7e39c379-12c5-441b-9beb-35671e1f7b02"},"vehicle_type_id":"4","last_reported":1713211651,"current_range_meters":0,"station_id":"ce4bgn92rcd13ifvqbvg","pricing_plan_id":"cebpf4jnsgd1na2vs0mg"},{"bike_id":"9fd34086-aaad-472c-b8dc-0f18d7d931fb","system_id":"levelo_inurba_marseille","lat":43.314811,"lon":5.373103,"is_reserved":false,"is_disabled":false,"rental_uris":{"android":"levelo://app?vid=9fd34086-aaad-472c-b8dc-0f18d7d931fb","ios":"levelo://app?vid=9fd34086-aaad-472c-b8dc-0f18d7d931fb"},"vehicle_type_id":"4","last_reported":1713211651,"current_range_meters":20000,"station_id":"ce4bgt12rcd13ifvqcd0","pricing_plan_id":"cebpf4jnsgd1na2vs0mg"},{"bike_id":"8f094c71-aed3-4fc2-87d9-1151d2a350ff","system_id":"levelo_inurba_marseille","lat":43.31491,"lon":5.37314,"is_reserved":false,"is_disabled":false,"rental_uris":{"android":"levelo://app?vid=8f094c71-aed3-4fc2-87d9-1151d2a350ff","ios":"levelo://app?vid=8f094c71-aed3-4fc2-87d9-1151d2a350ff"},"vehicle_type_id":"4","last_reported":1713211651,"current_range_meters":4400,"station_id":"ce4bgt12rcd13ifvqcd0","pricing_plan_id":"cebpf4jnsgd1na2vs0mg"},{"bike_id":"8f9f4cb9-0a58-463f-b58e-be764cfbadd2","system_id":"levelo_inurba_marseille","lat":43.309039,"lon":5.371797,"is_reserved":false,"is_disabled":false,"rental_uris":{"android":"levelo://app?vid=8f9f4cb9-0a58-463f-b58e-be764cfbadd2","ios":"levelo://app?vid=8f9f4cb9-0a58-463f-b58e-be764cfbadd2"},"vehicle_type_id":"4","last_reported":1713211651,"current_range_meters":10800,"station_id":"ce4bguh2rcd13ifvqckg","pricing_plan_id":"cebpf4jnsgd1na2vs0mg"},{"bike_id":"ea488ee1-e48f-4800-846f-9a25a80a69b4","system_id":"levelo_inurba_marseille","lat":43.309034,"lon":5.371783,"is_reserved":false,"is_disabled":false,"rental_uris":{"android":"levelo://app?vid=ea488ee1-e48f-4800-846f-9a25a80a69b4","ios":"levelo://app?vid=ea488ee1-e48f-4800-846f-9a25a80a69b4"},"vehicle_type_id":"4","last_reported":1713211651,"current_range_meters":6400,"station_id":"ce4bguh2rcd13ifvqckg","pricing_plan_id":"cebpf4jnsgd1na2vs0mg"},{"bike_id":"b2ff1c52-e84a-4746-b6ea-e5c41d73f4b1","system_id":"levelo_inurba_marseille","lat":43.309039,"lon":5.371797,"is_reserved":false,"is_disabled":false,"rental_uris":{"android":"levelo://app?vid=b2ff1c52-e84a-4746-b6ea-e5c41d73f4b1","ios":"levelo://app?vid=b2ff1c52-e84a-4746-b6ea-e5c41d73f4b1"},"vehicle_type_id":"4","last_reported":1713211651,"current_range_meters":22000,"station_id":"ce4bguh2rcd13ifvqckg","pricing_plan_id":"cebpf4jnsgd1na2vs0mg"},{"bike_id":"69f6d367-925d-45ed-b0c3-ae31428502ee","system_id":"levelo_inurba_marseille","lat":43.3088,"lon":5.37205,"is_reserved":false,"is_disabled":false,"rental_uris":{"android":"levelo://app?vid=69f6d367-925d-45ed-b0c3-ae31428502ee","ios":"levelo://app?vid=69f6d367-925d-45ed-b0c3-ae31428502ee"},"vehicle_type_id":"4","last_reported":1713211651,"current_range_meters":9200,"station_id":"ce4bguh2rcd13ifvqckg","pricing_plan_id":"cebpf4jnsgd1na2vs0mg"},{"bike_id":"772e81c0-7d82-450f-9ac9-15dbc0b69f9f","system_id":"levelo_inurba_marseille","lat":43.30542,"lon":5.36713,"is_reserved":false,"is_disabled":false,"rental_uris":{"android":"levelo://app?vid=772e81c0-7d82-450f-9ac9-15dbc0b69f9f","ios":"levelo://app?vid=772e81c0-7d82-450f-9ac9-15dbc0b69f9f"},"vehicle_type_id":"4","last_reported":1713211651,"current_range_meters":0,"station_id":"ce4bgrp2rcd13ifvqc9g","pricing_plan_id":"cebpf4jnsgd1na2vs0mg"},{"bike_id":"69fdbb61-a453-4047-9aad-85811db0522e","system_id":"levelo_inurba_marseille","lat":43.305989,"lon":5.37225,"is_reserved":false,"is_disabled":false,"rental_uris":{"android":"levelo://app?vid=69fdbb61-a453-4047-9aad-85811db0522e","ios":"levelo://app?vid=69fdbb61-a453-4047-9aad-85811db0522e"},"vehicle_type_id":"4","last_reported":1713211651,"current_range_meters":0,"station_id":"ce4bgqh2rcd13ifvqc4g","pricing_plan_id":"cebpf4jnsgd1na2vs0mg"},{"bike_id":"4aae0ab2-7f0f-409e-a414-08a3076ece11","system_id":"levelo_inurba_marseille","lat":43.305989,"lon":5.37225,"is_reserved":false,"is_disabled":false,"rental_uris":{"android":"levelo://app?vid=4aae0ab2-7f0f-409e-a414-08a3076ece11","ios":"levelo://app?vid=4aae0ab2-7f0f-409e-a414-08a3076ece11"},"vehicle_type_id":"4","last_reported":1713211651,"current_range_meters":29200,"station_id":"ce4bgqh2rcd13ifvqc4g","pricing_plan_id":"cebpf4jnsgd1na2vs0mg"},{"bike_id":"84fce837-78ac-4a1d-8ccc-1065b16baadc","system_id":"levelo_inurba_marseille","lat":43.305989,"lon":5.37225,"is_reserved":false,"is_disabled":false,"rental_uris":{"android":"levelo://app?vid=84fce837-78ac-4a1d-8ccc-1065b16baadc","ios":"levelo://app?vid=84fce837-78ac-4a1d-8ccc-1065b16baadc"},"vehicle_type_id":"4","last_reported":1713211651,"current_range_meters":8400,"station_id":"ce4bgqh2rcd13ifvqc4g","pricing_plan_id":"cebpf4jnsgd1na2vs0mg"},{"bike_id":"3ad1dd10-6a5b-4a3a-b843-eecd83162abe","system_id":"levelo_inurba_marseille","lat":43.305989,"lon":5.37225,"is_reserved":false,"is_disabled":false,"rental_uris":{"android":"levelo://app?vid=3ad1dd10-6a5b-4a3a-b843-eecd83162abe","ios":"levelo://app?vid=3ad1dd10-6a5b-4a3a-b843-eecd83162abe"},"vehicle_type_id":"4","last_reported":1713211651,"current_range_meters":2400,"station_id":"ce4bgqh2rcd13ifvqc4g","pricing_plan_id":"cebpf4jnsgd1na2vs0mg"},{"bike_id":"df27d1ed-da76-4e52-951c-bd37b1a4772a","system_id":"levelo_inurba_marseille","lat":43.31121,"lon":5.3777,"is_reserved":false,"is_disabled":false,"rental_uris":{"android":"levelo://app?vid=df27d1ed-da76-4e52-951c-bd37b1a4772a","ios":"levelo://app?vid=df27d1ed-da76-4e52-951c-bd37b1a4772a"},"vehicle_type_id":"4","last_reported":1713211651,"current_range_meters":12800,"station_id":"ce4bgt92rcd13ifvqcg0","pricing_plan_id":"cebpf4jnsgd1na2vs0mg"},{"bike_id":"bbcc02b8-aa4d-4545-8d44-5e9cd1ebc7ff","system_id":"levelo_inurba_marseille","lat":43.311184,"lon":5.377696,"is_reserved":false,"is_disabled":false,"rental_uris":{"android":"levelo://app?vid=bbcc02b8-aa4d-4545-8d44-5e9cd1ebc7ff","ios":"levelo://app?vid=bbcc02b8-aa4d-4545-8d44-5e9cd1ebc7ff"},"vehicle_type_id":"4","last_reported":1713211651,"current_range_meters":7200,"station_id":"ce4bgt92rcd13ifvqcg0","pricing_plan_id":"cebpf4jnsgd1na2vs0mg"},{"bike_id":"025888ef-35f1-4e57-86e8-2d261f8c2a19","system_id":"levelo_inurba_marseille","lat":43.311131,"lon":5.377651,"is_reserved":false,"is_disabled":false,"rental_uris":{"android":"levelo://app?vid=025888ef-35f1-4e57-86e8-2d261f8c2a19","ios":"levelo://app?vid=025888ef-35f1-4e57-86e8-2d261f8c2a19"},"vehicle_type_id":"4","last_reported":1713211651,"current_range_meters":9200,"station_id":"ce4bgt92rcd13ifvqcg0","pricing_plan_id":"cebpf4jnsgd1na2vs0mg"},{"bike_id":"9fedcc9b-b5c0-4925-bb1a-70ac2329ddfd","system_id":"levelo_inurba_marseille","lat":43.311125,"lon":5.377624,"is_reserved":false,"is_disabled":false,"rental_uris":{"android":"levelo://app?vid=9fedcc9b-b5c0-4925-bb1a-70ac2329ddfd","ios":"levelo://app?vid=9fedcc9b-b5c0-4925-bb1a-70ac2329ddfd"},"vehicle_type_id":"4","last_reported":1713211651,"current_range_meters":1600,"station_id":"ce4bgt92rcd13ifvqcg0","pricing_plan_id":"cebpf4jnsgd1na2vs0mg"},{"bike_id":"858e2270-1220-4078-8042-2decf0da4467","system_id":"levelo_inurba_marseille","lat":43.307945,"lon":5.376487,"is_reserved":false,"is_disabled":false,"rental_uris":{"android":"levelo://app?vid=858e2270-1220-4078-8042-2decf0da4467","ios":"levelo://app?vid=858e2270-1220-4078-8042-2decf0da4467"},"vehicle_type_id":"4","last_reported":1713211651,"current_range_meters":26400,"station_id":"ce4bgv92rcd13ifvqcq0","pricing_plan_id":"cebpf4jnsgd1na2vs0mg"},{"bike_id":"bb148229-ee25-4c5f-b691-0d14def47b61","system_id":"levelo_inurba_marseille","lat":43.307945,"lon":5.376487,"is_reserved":false,"is_disabled":false,"rental_uris":{"android":"levelo://app?vid=bb148229-ee25-4c5f-b691-0d14def47b61","ios":"levelo://app?vid=bb148229-ee25-4c5f-b691-0d14def47b61"},"vehicle_type_id":"4","last_reported":1713211651,"current_range_meters":26000,"station_id":"ce4bgv92rcd13ifvqcq0","pricing_plan_id":"cebpf4jnsgd1na2vs0mg"},{"bike_id":"3bc62924-3da2-4d38-b923-390c97655778","system_id":"levelo_inurba_marseille","lat":43.307945,"lon":5.376487,"is_reserved":false,"is_disabled":false,"rental_uris":{"android":"levelo://app?vid=3bc62924-3da2-4d38-b923-390c97655778","ios":"levelo://app?vid=3bc62924-3da2-4d38-b923-390c97655778"},"vehicle_type_id":"4","last_reported":1713211651,"current_range_meters":800,"station_id":"ce4bgv92rcd13ifvqcq0","pricing_plan_id":"cebpf4jnsgd1na2vs0mg"},{"bike_id":"e21dd05d-38cd-4907-bf68-adc5f6426fc3","system_id":"levelo_inurba_marseille","lat":43.307945,"lon":5.376487,"is_reserved":false,"is_disabled":false,"rental_uris":{"android":"levelo://app?vid=e21dd05d-38cd-4907-bf68-adc5f6426fc3","ios":"levelo://app?vid=e21dd05d-38cd-4907-bf68-adc5f6426fc3"},"vehicle_type_id":"4","last_reported":1713211651,"current_range_meters":400,"station_id":"ce4bgv92rcd13ifvqcq0","pricing_plan_id":"cebpf4jnsgd1na2vs0mg"},{"bike_id":"14766f38-1fbf-4d97-9cfe-2437923b924b","system_id":"levelo_inurba_marseille","lat":43.30784,"lon":5.3765,"is_reserved":false,"is_disabled":false,"rental_uris":{"android":"levelo://app?vid=14766f38-1fbf-4d97-9cfe-2437923b924b","ios":"levelo://app?vid=14766f38-1fbf-4d97-9cfe-2437923b924b"},"vehicle_type_id":"4","last_reported":1713211651,"current_range_meters":0,"station_id":"ce4bgv92rcd13ifvqcq0","pricing_plan_id":"cebpf4jnsgd1na2vs0mg"},{"bike_id":"ef430d45-28bc-40cf-a43f-a2d54aeffab7","system_id":"levelo_inurba_marseille","lat":43.317075,"lon":5.377367,"is_reserved":false,"is_disabled":false,"rental_uris":{"android":"levelo://app?vid=ef430d45-28bc-40cf-a43f-a2d54aeffab7","ios":"levelo://app?vid=ef430d45-28bc-40cf-a43f-a2d54aeffab7"},"vehicle_type_id":"4","last_reported":1713211651,"current_range_meters":0,"station_id":"ce4bgth2rcd13ifvqch0","pricing_plan_id":"cebpf4jnsgd1na2vs0mg"},{"bike_id":"b5bb3a04-66ff-4d18-999b-1d948cf03ef4","system_id":"levelo_inurba_marseille","lat":43.317075,"lon":5.377367,"is_reserved":false,"is_disabled":false,"rental_uris":{"android":"levelo://app?vid=b5bb3a04-66ff-4d18-999b-1d948cf03ef4","ios":"levelo://app?vid=b5bb3a04-66ff-4d18-999b-1d948cf03ef4"},"vehicle_type_id":"4","last_reported":1713211651,"current_range_meters":3600,"station_id":"ce4bgth2rcd13ifvqch0","pricing_plan_id":"cebpf4jnsgd1na2vs0mg"},{"bike_id":"00520040-e8df-4527-9d67-16354de401ba","system_id":"levelo_inurba_marseille","lat":43.317075,"lon":5.377367,"is_reserved":false,"is_disabled":false,"rental_uris":{"android":"levelo://app?vid=00520040-e8df-4527-9d67-16354de401ba","ios":"levelo://app?vid=00520040-e8df-4527-9d67-16354de401ba"},"vehicle_type_id":"4","last_reported":1713211651,"current_range_meters":16800,"station_id":"ce4bgth2rcd13ifvqch0","pricing_plan_id":"cebpf4jnsgd1na2vs0mg"},{"bike_id":"01d8d732-b95a-4022-aa02-9beba29077b0","system_id":"levelo_inurba_marseille","lat":43.317075,"lon":5.377367,"is_reserved":false,"is_disabled":false,"rental_uris":{"android":"levelo://app?vid=01d8d732-b95a-4022-aa02-9beba29077b0","ios":"levelo://app?vid=01d8d732-b95a-4022-aa02-9beba29077b0"},"vehicle_type_id":"4","last_reported":1713211651,"current_range_meters":6000,"station_id":"ce4bgth2rcd13ifvqch0","pricing_plan_id":"cebpf4jnsgd1na2vs0mg"},{"bike_id":"afa99bac-11b7-4ddb-8ee0-f99e11cef169","system_id":"levelo_inurba_marseille","lat":43.317075,"lon":5.377367,"is_reserved":false,"is_disabled":false,"rental_uris":{"android":"levelo://app?vid=afa99bac-11b7-4ddb-8ee0-f99e11cef169","ios":"levelo://app?vid=afa99bac-11b7-4ddb-8ee0-f99e11cef169"},"vehicle_type_id":"4","last_reported":1713211651,"current_range_meters":26800,"station_id":"ce4bgth2rcd13ifvqch0","pricing_plan_id":"cebpf4jnsgd1na2vs0mg"},{"bike_id":"e372ccc5-bbe4-4c51-90eb-aa377f5528e3","system_id":"levelo_inurba_marseille","lat":43.30476,"lon":5.37441,"is_reserved":false,"is_disabled":false,"rental_uris":{"android":"levelo://app?vid=e372ccc5-bbe4-4c51-90eb-aa377f5528e3","ios":"levelo://app?vid=e372ccc5-bbe4-4c51-90eb-aa377f5528e3"},"vehicle_type_id":"4","last_reported":1713211651,"current_range_meters":30000,"station_id":"","pricing_plan_id":"cebpf4jnsgd1na2vs0mg"},{"bike_id":"72c259d4-f64c-45de-983d-1570265931d2","system_id":"levelo_inurba_marseille","lat":43.303046,"lon":5.368981,"is_reserved":false,"is_disabled":false,"rental_uris":{"android":"levelo://app?vid=72c259d4-f64c-45de-983d-1570265931d2","ios":"levelo://app?vid=72c259d4-f64c-45de-983d-1570265931d2"},"vehicle_type_id":"4","last_reported":1713211651,"current_range_meters":9600,"station_id":"ce4bgqh2rcd13ifvqc5g","pricing_plan_id":"cebpf4jnsgd1na2vs0mg"},{"bike_id":"75cf029a-176e-43f5-8afe-a04a417e6483","system_id":"levelo_inurba_marseille","lat":43.315268,"lon":5.380388,"is_reserved":false,"is_disabled":false,"rental_uris":{"android":"levelo://app?vid=75cf029a-176e-43f5-8afe-a04a417e6483","ios":"levelo://app?vid=75cf029a-176e-43f5-8afe-a04a417e6483"},"vehicle_type_id":"4","last_reported":1713211651,"current_range_meters":0,"station_id":"ce4bhsp2rcd13ifvqi50","pricing_plan_id":"cebpf4jnsgd1na2vs0mg"},{"bike_id":"701e7393-41b0-4f89-9009-d1e03ac31b73","system_id":"levelo_inurba_marseille","lat":43.315293,"lon":5.380349,"is_reserved":false,"is_disabled":false,"rental_uris":{"android":"levelo://app?vid=701e7393-41b0-4f89-9009-d1e03ac31b73","ios":"levelo://app?vid=701e7393-41b0-4f89-9009-d1e03ac31b73"},"vehicle_type_id":"4","last_reported":1713211651,"current_range_meters":13600,"station_id":"ce4bhsp2rcd13ifvqi50","pricing_plan_id":"cebpf4jnsgd1na2vs0mg"},{"bike_id":"9ea96b4d-f5ff-42c8-8fda-27de2bf1d6da","system_id":"levelo_inurba_marseille","lat":43.301939,"lon":5.366286,"is_reserved":false,"is_disabled":false,"rental_uris":{"android":"levelo://app?vid=9ea96b4d-f5ff-42c8-8fda-27de2bf1d6da","ios":"levelo://app?vid=9ea96b4d-f5ff-42c8-8fda-27de2bf1d6da"},"vehicle_type_id":"4","last_reported":1713211651,"current_range_meters":1600,"station_id":"ce4bgrh2rcd13ifvqc8g","pricing_plan_id":"cebpf4jnsgd1na2vs0mg"},{"bike_id":"ca48f297-c100-458f-a048-07d3bcb0e56f","system_id":"levelo_inurba_marseille","lat":43.301939,"lon":5.366286,"is_reserved":false,"is_disabled":false,"rental_uris":{"android":"levelo://app?vid=ca48f297-c100-458f-a048-07d3bcb0e56f","ios":"levelo://app?vid=ca48f297-c100-458f-a048-07d3bcb0e56f"},"vehicle_type_id":"4","last_reported":1713211651,"current_range_meters":3600,"station_id":"ce4bgrh2rcd13ifvqc8g","pricing_plan_id":"cebpf4jnsgd1na2vs0mg"},{"bike_id":"96124cb2-356a-45fd-9cda-f6155e8ca01f","system_id":"levelo_inurba_marseille","lat":43.30792,"lon":5.38152,"is_reserved":false,"is_disabled":false,"rental_uris":{"android":"levelo://app?vid=96124cb2-356a-45fd-9cda-f6155e8ca01f","ios":"levelo://app?vid=96124cb2-356a-45fd-9cda-f6155e8ca01f"},"vehicle_type_id":"4","last_reported":1713211651,"current_range_meters":0,"station_id":"ce4bgt12rcd13ifvqce0","pricing_plan_id":"cebpf4jnsgd1na2vs0mg"},{"bike_id":"78889f0f-b1cb-4c8a-b7e0-387727eb341b","system_id":"levelo_inurba_marseille","lat":43.308012,"lon":5.381511,"is_reserved":false,"is_disabled":false,"rental_uris":{"android":"levelo://app?vid=78889f0f-b1cb-4c8a-b7e0-387727eb341b","ios":"levelo://app?vid=78889f0f-b1cb-4c8a-b7e0-387727eb341b"},"vehicle_type_id":"4","last_reported":1713211651,"current_range_meters":1200,"station_id":"ce4bgt12rcd13ifvqce0","pricing_plan_id":"cebpf4jnsgd1na2vs0mg"},{"bike_id":"e4f13dea-fa28-4e51-b862-dbc0adb2b7a0","system_id":"levelo_inurba_marseille","lat":43.30801,"lon":5.38169,"is_reserved":false,"is_disabled":false,"rental_uris":{"android":"levelo://app?vid=e4f13dea-fa28-4e51-b862-dbc0adb2b7a0","ios":"levelo://app?vid=e4f13dea-fa28-4e51-b862-dbc0adb2b7a0"},"vehicle_type_id":"4","last_reported":1713211651,"current_range_meters":0,"station_id":"ce4bgt12rcd13ifvqce0","pricing_plan_id":"cebpf4jnsgd1na2vs0mg"},{"bike_id":"6bd6f3ee-ccf7-4b51-ab84-ef2028493b6b","system_id":"levelo_inurba_marseille","lat":43.308012,"lon":5.381511,"is_reserved":false,"is_disabled":false,"rental_uris":{"android":"levelo://app?vid=6bd6f3ee-ccf7-4b51-ab84-ef2028493b6b","ios":"levelo://app?vid=6bd6f3ee-ccf7-4b51-ab84-ef2028493b6b"},"vehicle_type_id":"4","last_reported":1713211651,"current_range_meters":11200,"station_id":"ce4bgt12rcd13ifvqce0","pricing_plan_id":"cebpf4jnsgd1na2vs0mg"},{"bike_id":"d0d8f742-f7b0-4758-92ba-96170e17ba4c","system_id":"levelo_inurba_marseille","lat":43.30465,"lon":5.37908,"is_reserved":false,"is_disabled":false,"rental_uris":{"android":"levelo://app?vid=d0d8f742-f7b0-4758-92ba-96170e17ba4c","ios":"levelo://app?vid=d0d8f742-f7b0-4758-92ba-96170e17ba4c"},"vehicle_type_id":"4","last_reported":1713211651,"current_range_meters":0,"station_id":"ce4bgup2rcd13ifvqcn0","pricing_plan_id":"cebpf4jnsgd1na2vs0mg"},{"bike_id":"e297e554-b6fd-4a1c-9b5f-eb07acd5956d","system_id":"levelo_inurba_marseille","lat":43.324771,"lon":5.36557,"is_reserved":false,"is_disabled":false,"rental_uris":{"android":"levelo://app?vid=e297e554-b6fd-4a1c-9b5f-eb07acd5956d","ios":"levelo://app?vid=e297e554-b6fd-4a1c-9b5f-eb07acd5956d"},"vehicle_type_id":"4","last_reported":1713211651,"current_range_meters":12000,"station_id":"ce4bhs12rcd13ifvqhvg","pricing_plan_id":"cebpf4jnsgd1na2vs0mg"},{"bike_id":"a10c039d-fdde-4b17-94b3-0f6b9bcd722d","system_id":"levelo_inurba_marseille","lat":43.324771,"lon":5.36557,"is_reserved":false,"is_disabled":false,"rental_uris":{"android":"levelo://app?vid=a10c039d-fdde-4b17-94b3-0f6b9bcd722d","ios":"levelo://app?vid=a10c039d-fdde-4b17-94b3-0f6b9bcd722d"},"vehicle_type_id":"4","last_reported":1713211651,"current_range_meters":25200,"station_id":"ce4bhs12rcd13ifvqhvg","pricing_plan_id":"cebpf4jnsgd1na2vs0mg"},{"bike_id":"257c15dd-9404-473a-9d91-3446cead491a","system_id":"levelo_inurba_marseille","lat":43.324771,"lon":5.36557,"is_reserved":false,"is_disabled":false,"rental_uris":{"android":"levelo://app?vid=257c15dd-9404-473a-9d91-3446cead491a","ios":"levelo://app?vid=257c15dd-9404-473a-9d91-3446cead491a"},"vehicle_type_id":"4","last_reported":1713211651,"current_range_meters":31200,"station_id":"ce4bhs12rcd13ifvqhvg","pricing_plan_id":"cebpf4jnsgd1na2vs0mg"},{"bike_id":"599b82f7-4adf-48f9-9824-83f9757feaa5","system_id":"levelo_inurba_marseille","lat":43.324771,"lon":5.36557,"is_reserved":false,"is_disabled":false,"rental_uris":{"android":"levelo://app?vid=599b82f7-4adf-48f9-9824-83f9757feaa5","ios":"levelo://app?vid=599b82f7-4adf-48f9-9824-83f9757feaa5"},"vehicle_type_id":"4","last_reported":1713211651,"current_range_meters":26400,"station_id":"ce4bhs12rcd13ifvqhvg","pricing_plan_id":"cebpf4jnsgd1na2vs0mg"},{"bike_id":"48f8b3c5-bf49-41e3-b92d-4582450a6e1f","system_id":"levelo_inurba_marseille","lat":43.324771,"lon":5.36557,"is_reserved":false,"is_disabled":false,"rental_uris":{"android":"levelo://app?vid=48f8b3c5-bf49-41e3-b92d-4582450a6e1f","ios":"levelo://app?vid=48f8b3c5-bf49-41e3-b92d-4582450a6e1f"},"vehicle_type_id":"4","last_reported":1713211651,"current_range_meters":23200,"station_id":"ce4bhs12rcd13ifvqhvg","pricing_plan_id":"cebpf4jnsgd1na2vs0mg"},{"bike_id":"50dc5783-03bc-4351-873a-4db9f8b5417b","system_id":"levelo_inurba_marseille","lat":43.324771,"lon":5.36557,"is_reserved":false,"is_disabled":false,"rental_uris":{"android":"levelo://app?vid=50dc5783-03bc-4351-873a-4db9f8b5417b","ios":"levelo://app?vid=50dc5783-03bc-4351-873a-4db9f8b5417b"},"vehicle_type_id":"4","last_reported":1713211651,"current_range_meters":31200,"station_id":"ce4bhs12rcd13ifvqhvg","pricing_plan_id":"cebpf4jnsgd1na2vs0mg"},{"bike_id":"b6a9c8a0-e8e6-4d2b-9d9b-8f1df764df6b","system_id":"levelo_inurba_marseille","lat":43.310804,"lon":5.38359,"is_reserved":false,"is_disabled":false,"rental_uris":{"android":"levelo://app?vid=b6a9c8a0-e8e6-4d2b-9d9b-8f1df764df6b","ios":"levelo://app?vid=b6a9c8a0-e8e6-4d2b-9d9b-8f1df764df6b"},"vehicle_type_id":"4","last_reported":1713211651,"current_range_meters":21600,"station_id":"ce4bgv92rcd13ifvqcr0","pricing_plan_id":"cebpf4jnsgd1na2vs0mg"},{"bike_id":"3e228c33-7630-425a-b202-65cd29627291","system_id":"levelo_inurba_marseille","lat":43.324771,"lon":5.36557,"is_reserved":false,"is_disabled":false,"rental_uris":{"android":"levelo://app?vid=3e228c33-7630-425a-b202-65cd29627291","ios":"levelo://app?vid=3e228c33-7630-425a-b202-65cd29627291"},"vehicle_type_id":"4","last_reported":1713211651,"current_range_meters":20800,"station_id":"ce4bhs12rcd13ifvqhvg","pricing_plan_id":"cebpf4jnsgd1na2vs0mg"},{"bike_id":"ed3fffcf-2a3f-4272-8a95-364afe8a8482","system_id":"levelo_inurba_marseille","lat":43.310804,"lon":5.38359,"is_reserved":false,"is_disabled":false,"rental_uris":{"android":"levelo://app?vid=ed3fffcf-2a3f-4272-8a95-364afe8a8482","ios":"levelo://app?vid=ed3fffcf-2a3f-4272-8a95-364afe8a8482"},"vehicle_type_id":"4","last_reported":1713211651,"current_range_meters":0,"station_id":"ce4bgv92rcd13ifvqcr0","pricing_plan_id":"cebpf4jnsgd1na2vs0mg"},{"bike_id":"4b60f9ef-ea5d-46cd-9895-c76ddde103e7","system_id":"levelo_inurba_marseille","lat":43.310804,"lon":5.38359,"is_reserved":false,"is_disabled":false,"rental_uris":{"android":"levelo://app?vid=4b60f9ef-ea5d-46cd-9895-c76ddde103e7","ios":"levelo://app?vid=4b60f9ef-ea5d-46cd-9895-c76ddde103e7"},"vehicle_type_id":"4","last_reported":1713211651,"current_range_meters":0,"station_id":"ce4bgv92rcd13ifvqcr0","pricing_plan_id":"cebpf4jnsgd1na2vs0mg"},{"bike_id":"d4cce0bf-168e-43a2-ac56-5c76cbc948ab","system_id":"levelo_inurba_marseille","lat":43.31075,"lon":5.38367,"is_reserved":false,"is_disabled":false,"rental_uris":{"android":"levelo://app?vid=d4cce0bf-168e-43a2-ac56-5c76cbc948ab","ios":"levelo://app?vid=d4cce0bf-168e-43a2-ac56-5c76cbc948ab"},"vehicle_type_id":"4","last_reported":1713211651,"current_range_meters":14400,"station_id":"ce4bgv92rcd13ifvqcr0","pricing_plan_id":"cebpf4jnsgd1na2vs0mg"},{"bike_id":"baa1abd7-7fb5-40f0-a600-a5c8da000be0","system_id":"levelo_inurba_marseille","lat":43.30143,"lon":5.37413,"is_reserved":false,"is_disabled":false,"rental_uris":{"android":"levelo://app?vid=baa1abd7-7fb5-40f0-a600-a5c8da000be0","ios":"levelo://app?vid=baa1abd7-7fb5-40f0-a600-a5c8da000be0"},"vehicle_type_id":"4","last_reported":1713211651,"current_range_meters":30400,"station_id":"ce4bgs92rcd13ifvqcc0","pricing_plan_id":"cebpf4jnsgd1na2vs0mg"},{"bike_id":"6a1d1697-0ba0-47de-8f6e-e857cfdf3fbf","system_id":"levelo_inurba_marseille","lat":43.30141,"lon":5.37429,"is_reserved":false,"is_disabled":false,"rental_uris":{"android":"levelo://app?vid=6a1d1697-0ba0-47de-8f6e-e857cfdf3fbf","ios":"levelo://app?vid=6a1d1697-0ba0-47de-8f6e-e857cfdf3fbf"},"vehicle_type_id":"4","last_reported":1713211651,"current_range_meters":0,"station_id":"ce4bgs92rcd13ifvqcc0","pricing_plan_id":"cebpf4jnsgd1na2vs0mg"},{"bike_id":"49f5911d-c7ae-42cc-a0d9-b0a3521496d2","system_id":"levelo_inurba_marseille","lat":43.302784,"lon":5.377158,"is_reserved":false,"is_disabled":false,"rental_uris":{"android":"levelo://app?vid=49f5911d-c7ae-42cc-a0d9-b0a3521496d2","ios":"levelo://app?vid=49f5911d-c7ae-42cc-a0d9-b0a3521496d2"},"vehicle_type_id":"4","last_reported":1713211651,"current_range_meters":24400,"station_id":"ce4bguh2rcd13ifvqcj0","pricing_plan_id":"cebpf4jnsgd1na2vs0mg"},{"bike_id":"9ec4616c-37b8-40fb-bd58-07d1211193f0","system_id":"levelo_inurba_marseille","lat":43.314582,"lon":5.384216,"is_reserved":false,"is_disabled":false,"rental_uris":{"android":"levelo://app?vid=9ec4616c-37b8-40fb-bd58-07d1211193f0","ios":"levelo://app?vid=9ec4616c-37b8-40fb-bd58-07d1211193f0"},"vehicle_type_id":"4","last_reported":1713211651,"current_range_meters":0,"station_id":"","pricing_plan_id":"cebpf4jnsgd1na2vs0mg"},{"bike_id":"daa0325e-f213-47ea-b397-49e30d2b9c1d","system_id":"levelo_inurba_marseille","lat":43.31996,"lon":5.38146,"is_reserved":false,"is_disabled":false,"rental_uris":{"android":"levelo://app?vid=daa0325e-f213-47ea-b397-49e30d2b9c1d","ios":"levelo://app?vid=daa0325e-f213-47ea-b397-49e30d2b9c1d"},"vehicle_type_id":"4","last_reported":1713211651,"current_range_meters":0,"station_id":"ce4bhr12rcd13ifvqhpg","pricing_plan_id":"cebpf4jnsgd1na2vs0mg"},{"bike_id":"b0b0397d-d18e-4ca1-b8cb-90aa92f7aa5c","system_id":"levelo_inurba_marseille","lat":43.319935,"lon":5.381699,"is_reserved":false,"is_disabled":false,"rental_uris":{"android":"levelo://app?vid=b0b0397d-d18e-4ca1-b8cb-90aa92f7aa5c","ios":"levelo://app?vid=b0b0397d-d18e-4ca1-b8cb-90aa92f7aa5c"},"vehicle_type_id":"4","last_reported":1713211651,"current_range_meters":26000,"station_id":"ce4bhr12rcd13ifvqhpg","pricing_plan_id":"cebpf4jnsgd1na2vs0mg"},{"bike_id":"11064e4b-571f-4364-bbad-dde15d2089ac","system_id":"levelo_inurba_marseille","lat":43.319935,"lon":5.381699,"is_reserved":false,"is_disabled":false,"rental_uris":{"android":"levelo://app?vid=11064e4b-571f-4364-bbad-dde15d2089ac","ios":"levelo://app?vid=11064e4b-571f-4364-bbad-dde15d2089ac"},"vehicle_type_id":"4","last_reported":1713211651,"current_range_meters":11600,"station_id":"ce4bhr12rcd13ifvqhpg","pricing_plan_id":"cebpf4jnsgd1na2vs0mg"},{"bike_id":"066e729d-949b-4126-9e52-c35a23e1d75f","system_id":"levelo_inurba_marseille","lat":43.313571,"lon":5.384829,"is_reserved":false,"is_disabled":false,"rental_uris":{"android":"levelo://app?vid=066e729d-949b-4126-9e52-c35a23e1d75f","ios":"levelo://app?vid=066e729d-949b-4126-9e52-c35a23e1d75f"},"vehicle_type_id":"4","last_reported":1713211651,"current_range_meters":3200,"station_id":"ce4bgt92rcd13ifvqcf0","pricing_plan_id":"cebpf4jnsgd1na2vs0mg"},{"bike_id":"5a0e03ee-2981-4745-b67f-a98117a558cb","system_id":"levelo_inurba_marseille","lat":43.313571,"lon":5.384829,"is_reserved":false,"is_disabled":false,"rental_uris":{"android":"levelo://app?vid=5a0e03ee-2981-4745-b67f-a98117a558cb","ios":"levelo://app?vid=5a0e03ee-2981-4745-b67f-a98117a558cb"},"vehicle_type_id":"4","last_reported":1713211651,"current_range_meters":1600,"station_id":"ce4bgt92rcd13ifvqcf0","pricing_plan_id":"cebpf4jnsgd1na2vs0mg"},{"bike_id":"b10912d6-686a-4267-950a-0c79affeab6c","system_id":"levelo_inurba_marseille","lat":43.31358,"lon":5.38506,"is_reserved":false,"is_disabled":false,"rental_uris":{"android":"levelo://app?vid=b10912d6-686a-4267-950a-0c79affeab6c","ios":"levelo://app?vid=b10912d6-686a-4267-950a-0c79affeab6c"},"vehicle_type_id":"4","last_reported":1713211651,"current_range_meters":0,"station_id":"ce4bgt92rcd13ifvqcf0","pricing_plan_id":"cebpf4jnsgd1na2vs0mg"},{"bike_id":"9693ec5f-9f23-4886-b470-b72ea1adbba4","system_id":"levelo_inurba_marseille","lat":43.299724,"lon":5.371829,"is_reserved":false,"is_disabled":false,"rental_uris":{"android":"levelo://app?vid=9693ec5f-9f23-4886-b470-b72ea1adbba4","ios":"levelo://app?vid=9693ec5f-9f23-4886-b470-b72ea1adbba4"},"vehicle_type_id":"4","last_reported":1713211651,"current_range_meters":25600,"station_id":"ce4bgr92rcd13ifvqc7g","pricing_plan_id":"cebpf4jnsgd1na2vs0mg"},{"bike_id":"e5837103-4d5b-4fcd-8014-70ea6e1aa46f","system_id":"levelo_inurba_marseille","lat":43.299222,"lon":5.365554,"is_reserved":false,"is_disabled":false,"rental_uris":{"android":"levelo://app?vid=e5837103-4d5b-4fcd-8014-70ea6e1aa46f","ios":"levelo://app?vid=e5837103-4d5b-4fcd-8014-70ea6e1aa46f"},"vehicle_type_id":"4","last_reported":1713211651,"current_range_meters":0,"station_id":"ce4bgm92rcd13ifvqbr0","pricing_plan_id":"cebpf4jnsgd1na2vs0mg"},{"bike_id":"dc6cf81b-3f3e-4173-88f5-fcba7eaf654c","system_id":"levelo_inurba_marseille","lat":43.298433,"lon":5.362774,"is_reserved":false,"is_disabled":false,"rental_uris":{"android":"levelo://app?vid=dc6cf81b-3f3e-4173-88f5-fcba7eaf654c","ios":"levelo://app?vid=dc6cf81b-3f3e-4173-88f5-fcba7eaf654c"},"vehicle_type_id":"4","last_reported":1713211651,"current_range_meters":0,"station_id":"ce4bgpp2rcd13ifvqc3g","pricing_plan_id":"cebpf4jnsgd1na2vs0mg"},{"bike_id":"3fe80d0f-5e99-4a61-ae57-6243ada054ea","system_id":"levelo_inurba_marseille","lat":43.29851,"lon":5.3628,"is_reserved":false,"is_disabled":false,"rental_uris":{"android":"levelo://app?vid=3fe80d0f-5e99-4a61-ae57-6243ada054ea","ios":"levelo://app?vid=3fe80d0f-5e99-4a61-ae57-6243ada054ea"},"vehicle_type_id":"4","last_reported":1713211651,"current_range_meters":9200,"station_id":"ce4bgpp2rcd13ifvqc3g","pricing_plan_id":"cebpf4jnsgd1na2vs0mg"},{"bike_id":"5757dbdf-7bdc-4417-b805-620b4eaef86c","system_id":"levelo_inurba_marseille","lat":43.298433,"lon":5.362774,"is_reserved":false,"is_disabled":false,"rental_uris":{"android":"levelo://app?vid=5757dbdf-7bdc-4417-b805-620b4eaef86c","ios":"levelo://app?vid=5757dbdf-7bdc-4417-b805-620b4eaef86c"},"vehicle_type_id":"4","last_reported":1713211651,"current_range_meters":0,"station_id":"ce4bgpp2rcd13ifvqc3g","pricing_plan_id":"cebpf4jnsgd1na2vs0mg"},{"bike_id":"d4e8bd5c-64f9-4525-b2cb-0dc9a9444a62","system_id":"levelo_inurba_marseille","lat":43.298433,"lon":5.362774,"is_reserved":false,"is_disabled":false,"rental_uris":{"android":"levelo://app?vid=d4e8bd5c-64f9-4525-b2cb-0dc9a9444a62","ios":"levelo://app?vid=d4e8bd5c-64f9-4525-b2cb-0dc9a9444a62"},"vehicle_type_id":"4","last_reported":1713211651,"current_range_meters":7200,"station_id":"ce4bgpp2rcd13ifvqc3g","pricing_plan_id":"cebpf4jnsgd1na2vs0mg"},{"bike_id":"0ab7ec3d-7815-474f-8469-88e63002c926","system_id":"levelo_inurba_marseille","lat":43.298433,"lon":5.362774,"is_reserved":false,"is_disabled":false,"rental_uris":{"android":"levelo://app?vid=0ab7ec3d-7815-474f-8469-88e63002c926","ios":"levelo://app?vid=0ab7ec3d-7815-474f-8469-88e63002c926"},"vehicle_type_id":"4","last_reported":1713211651,"current_range_meters":0,"station_id":"ce4bgpp2rcd13ifvqc3g","pricing_plan_id":"cebpf4jnsgd1na2vs0mg"},{"bike_id":"2d55485b-ed97-4ca1-9176-110f460fcb7f","system_id":"levelo_inurba_marseille","lat":43.30193,"lon":5.38044,"is_reserved":false,"is_disabled":false,"rental_uris":{"android":"levelo://app?vid=2d55485b-ed97-4ca1-9176-110f460fcb7f","ios":"levelo://app?vid=2d55485b-ed97-4ca1-9176-110f460fcb7f"},"vehicle_type_id":"4","last_reported":1713211651,"current_range_meters":16000,"station_id":"","pricing_plan_id":"cebpf4jnsgd1na2vs0mg"},{"bike_id":"f297cf43-e2c6-43de-81f5-7799f1fc0621","system_id":"levelo_inurba_marseille","lat":43.3054,"lon":5.3843,"is_reserved":false,"is_disabled":false,"rental_uris":{"android":"levelo://app?vid=f297cf43-e2c6-43de-81f5-7799f1fc0621","ios":"levelo://app?vid=f297cf43-e2c6-43de-81f5-7799f1fc0621"},"vehicle_type_id":"4","last_reported":1713211651,"current_range_meters":0,"station_id":"ce4bgg92rcd13ifvqb30","pricing_plan_id":"cebpf4jnsgd1na2vs0mg"},{"bike_id":"8cbb6863-ae6c-43f2-870c-20ba257c48f3","system_id":"levelo_inurba_marseille","lat":43.305364,"lon":5.384119,"is_reserved":false,"is_disabled":false,"rental_uris":{"android":"levelo://app?vid=8cbb6863-ae6c-43f2-870c-20ba257c48f3","ios":"levelo://app?vid=8cbb6863-ae6c-43f2-870c-20ba257c48f3"},"vehicle_type_id":"4","last_reported":1713211651,"current_range_meters":24800,"station_id":"ce4bgg92rcd13ifvqb30","pricing_plan_id":"cebpf4jnsgd1na2vs0mg"},{"bike_id":"28c48241-6ab5-4caa-a13f-f27fa5c62eb7","system_id":"levelo_inurba_marseille","lat":43.309371,"lon":5.401449,"is_reserved":false,"is_disabled":false,"rental_uris":{"android":"levelo://app?vid=28c48241-6ab5-4caa-a13f-f27fa5c62eb7","ios":"levelo://app?vid=28c48241-6ab5-4caa-a13f-f27fa5c62eb7"},"vehicle_type_id":"4","last_reported":1713211651,"current_range_meters":29200,"station_id":"ce4bgvp2rcd13ifvqct0","pricing_plan_id":"cebpf4jnsgd1na2vs0mg"},{"bike_id":"31b48042-cf14-4d3d-98dd-99c17b267e9e","system_id":"levelo_inurba_marseille","lat":43.285742,"lon":5.395004,"is_reserved":false,"is_disabled":false,"rental_uris":{"android":"levelo://app?vid=31b48042-cf14-4d3d-98dd-99c17b267e9e","ios":"levelo://app?vid=31b48042-cf14-4d3d-98dd-99c17b267e9e"},"vehicle_type_id":"4","last_reported":1713211651,"current_range_meters":5600,"station_id":"ce4bh292rcd13ifvqdg0","pricing_plan_id":"cebpf4jnsgd1na2vs0mg"},{"bike_id":"d7a092d6-93cd-4f0d-8954-92861a4c21ab","system_id":"levelo_inurba_marseille","lat":43.311722,"lon":5.387247,"is_reserved":false,"is_disabled":false,"rental_uris":{"android":"levelo://app?vid=d7a092d6-93cd-4f0d-8954-92861a4c21ab","ios":"levelo://app?vid=d7a092d6-93cd-4f0d-8954-92861a4c21ab"},"vehicle_type_id":"4","last_reported":1713211651,"current_range_meters":0,"station_id":"ce4bgv12rcd13ifvqcp0","pricing_plan_id":"cebpf4jnsgd1na2vs0mg"},{"bike_id":"0721c75d-aaeb-4d3b-811b-f189e0f69dd0","system_id":"levelo_inurba_marseille","lat":43.297794,"lon":5.370888,"is_reserved":false,"is_disabled":false,"rental_uris":{"android":"levelo://app?vid=0721c75d-aaeb-4d3b-811b-f189e0f69dd0","ios":"levelo://app?vid=0721c75d-aaeb-4d3b-811b-f189e0f69dd0"},"vehicle_type_id":"4","last_reported":1713211651,"current_range_meters":12800,"station_id":"ce4bgop2rcd13ifvqc1g","pricing_plan_id":"cebpf4jnsgd1na2vs0mg"},{"bike_id":"1e604a32-fed1-459a-8745-1aed04112224","system_id":"levelo_inurba_marseille","lat":43.297794,"lon":5.370888,"is_reserved":false,"is_disabled":false,"rental_uris":{"android":"levelo://app?vid=1e604a32-fed1-459a-8745-1aed04112224","ios":"levelo://app?vid=1e604a32-fed1-459a-8745-1aed04112224"},"vehicle_type_id":"4","last_reported":1713211651,"current_range_meters":0,"station_id":"ce4bgop2rcd13ifvqc1g","pricing_plan_id":"cebpf4jnsgd1na2vs0mg"},{"bike_id":"d161248a-fcc6-49d4-bbdc-8afd5c20b520","system_id":"levelo_inurba_marseille","lat":43.322872,"lon":5.382756,"is_reserved":false,"is_disabled":false,"rental_uris":{"android":"levelo://app?vid=d161248a-fcc6-49d4-bbdc-8afd5c20b520","ios":"levelo://app?vid=d161248a-fcc6-49d4-bbdc-8afd5c20b520"},"vehicle_type_id":"4","last_reported":1713211651,"current_range_meters":2800,"station_id":"ce4bhr12rcd13ifvqhqg","pricing_plan_id":"cebpf4jnsgd1na2vs0mg"},{"bike_id":"de060c0f-9a3a-4402-8a5e-9e4dfeee0c18","system_id":"levelo_inurba_marseille","lat":43.322872,"lon":5.382756,"is_reserved":false,"is_disabled":false,"rental_uris":{"android":"levelo://app?vid=de060c0f-9a3a-4402-8a5e-9e4dfeee0c18","ios":"levelo://app?vid=de060c0f-9a3a-4402-8a5e-9e4dfeee0c18"},"vehicle_type_id":"4","last_reported":1713211651,"current_range_meters":31200,"station_id":"ce4bhr12rcd13ifvqhqg","pricing_plan_id":"cebpf4jnsgd1na2vs0mg"},{"bike_id":"70f8e219-bc67-4c10-ab51-350d51c89e33","system_id":"levelo_inurba_marseille","lat":43.322872,"lon":5.382756,"is_reserved":false,"is_disabled":false,"rental_uris":{"android":"levelo://app?vid=70f8e219-bc67-4c10-ab51-350d51c89e33","ios":"levelo://app?vid=70f8e219-bc67-4c10-ab51-350d51c89e33"},"vehicle_type_id":"4","last_reported":1713211651,"current_range_meters":27200,"station_id":"ce4bhr12rcd13ifvqhqg","pricing_plan_id":"cebpf4jnsgd1na2vs0mg"},{"bike_id":"4a662abd-1cff-4c94-882d-aded3b304e17","system_id":"levelo_inurba_marseille","lat":43.322872,"lon":5.382756,"is_reserved":false,"is_disabled":false,"rental_uris":{"android":"levelo://app?vid=4a662abd-1cff-4c94-882d-aded3b304e17","ios":"levelo://app?vid=4a662abd-1cff-4c94-882d-aded3b304e17"},"vehicle_type_id":"4","last_reported":1713211651,"current_range_meters":22000,"station_id":"ce4bhr12rcd13ifvqhqg","pricing_plan_id":"cebpf4jnsgd1na2vs0mg"},{"bike_id":"ac2885c9-0dab-4a9d-a06f-ea2e8d30d346","system_id":"levelo_inurba_marseille","lat":43.297163,"lon":5.365866,"is_reserved":false,"is_disabled":false,"rental_uris":{"android":"levelo://app?vid=ac2885c9-0dab-4a9d-a06f-ea2e8d30d346","ios":"levelo://app?vid=ac2885c9-0dab-4a9d-a06f-ea2e8d30d346"},"vehicle_type_id":"4","last_reported":1713211651,"current_range_meters":19600,"station_id":"ce4bgn12rcd13ifvqbt0","pricing_plan_id":"cebpf4jnsgd1na2vs0mg"},{"bike_id":"5f1b68ac-f9c5-493a-9dd2-517a5bd157cc","system_id":"levelo_inurba_marseille","lat":43.297163,"lon":5.365866,"is_reserved":false,"is_disabled":false,"rental_uris":{"android":"levelo://app?vid=5f1b68ac-f9c5-493a-9dd2-517a5bd157cc","ios":"levelo://app?vid=5f1b68ac-f9c5-493a-9dd2-517a5bd157cc"},"vehicle_type_id":"4","last_reported":1713211651,"current_range_meters":5200,"station_id":"ce4bgn12rcd13ifvqbt0","pricing_plan_id":"cebpf4jnsgd1na2vs0mg"},{"bike_id":"dcd1f264-f736-4600-bb23-aafa834867d0","system_id":"levelo_inurba_marseille","lat":43.297163,"lon":5.365866,"is_reserved":false,"is_disabled":false,"rental_uris":{"android":"levelo://app?vid=dcd1f264-f736-4600-bb23-aafa834867d0","ios":"levelo://app?vid=dcd1f264-f736-4600-bb23-aafa834867d0"},"vehicle_type_id":"4","last_reported":1713211651,"current_range_meters":1600,"station_id":"ce4bgn12rcd13ifvqbt0","pricing_plan_id":"cebpf4jnsgd1na2vs0mg"},{"bike_id":"a04d044e-1763-4567-aee3-4c4f477ddb88","system_id":"levelo_inurba_marseille","lat":43.297163,"lon":5.365866,"is_reserved":false,"is_disabled":false,"rental_uris":{"android":"levelo://app?vid=a04d044e-1763-4567-aee3-4c4f477ddb88","ios":"levelo://app?vid=a04d044e-1763-4567-aee3-4c4f477ddb88"},"vehicle_type_id":"4","last_reported":1713211651,"current_range_meters":0,"station_id":"ce4bgn12rcd13ifvqbt0","pricing_plan_id":"cebpf4jnsgd1na2vs0mg"},{"bike_id":"42db2559-be21-42c9-b6d3-d284c8a6fa7e","system_id":"levelo_inurba_marseille","lat":43.29629,"lon":5.3715,"is_reserved":false,"is_disabled":false,"rental_uris":{"android":"levelo://app?vid=42db2559-be21-42c9-b6d3-d284c8a6fa7e","ios":"levelo://app?vid=42db2559-be21-42c9-b6d3-d284c8a6fa7e"},"vehicle_type_id":"4","last_reported":1713211651,"current_range_meters":0,"station_id":"ce4bgnh2rcd13ifvqc0g","pricing_plan_id":"cebpf4jnsgd1na2vs0mg"},{"bike_id":"cc27b631-1332-412e-b8b0-99080c3bcf6e","system_id":"levelo_inurba_marseille","lat":43.29573,"lon":5.367355,"is_reserved":false,"is_disabled":false,"rental_uris":{"android":"levelo://app?vid=cc27b631-1332-412e-b8b0-99080c3bcf6e","ios":"levelo://app?vid=cc27b631-1332-412e-b8b0-99080c3bcf6e"},"vehicle_type_id":"4","last_reported":1713211651,"current_range_meters":14000,"station_id":"ce4bgph2rcd13ifvqc2g","pricing_plan_id":"cebpf4jnsgd1na2vs0mg"},{"bike_id":"2a63f487-cf81-4561-b041-b5accfeb0e1d","system_id":"levelo_inurba_marseille","lat":43.305989,"lon":5.37225,"is_reserved":false,"is_disabled":false,"rental_uris":{"android":"levelo://app?vid=2a63f487-cf81-4561-b041-b5accfeb0e1d","ios":"levelo://app?vid=2a63f487-cf81-4561-b041-b5accfeb0e1d"},"vehicle_type_id":"4","last_reported":1713211651,"current_range_meters":19600,"station_id":"ce4bgqh2rcd13ifvqc4g","pricing_plan_id":"cebpf4jnsgd1na2vs0mg"},{"bike_id":"b764351d-7d5d-4218-9b41-2f1f47af9ac5","system_id":"levelo_inurba_marseille","lat":43.299028,"lon":5.381509,"is_reserved":false,"is_disabled":false,"rental_uris":{"android":"levelo://app?vid=b764351d-7d5d-4218-9b41-2f1f47af9ac5","ios":"levelo://app?vid=b764351d-7d5d-4218-9b41-2f1f47af9ac5"},"vehicle_type_id":"4","last_reported":1713211651,"current_range_meters":7200,"station_id":"ce4bgj12rcd13ifvqbc0","pricing_plan_id":"cebpf4jnsgd1na2vs0mg"},{"bike_id":"39c9d536-daf8-44f9-b755-ed804dd028ed","system_id":"levelo_inurba_marseille","lat":43.31755,"lon":5.39014,"is_reserved":false,"is_disabled":false,"rental_uris":{"android":"levelo://app?vid=39c9d536-daf8-44f9-b755-ed804dd028ed","ios":"levelo://app?vid=39c9d536-daf8-44f9-b755-ed804dd028ed"},"vehicle_type_id":"4","last_reported":1713211651,"current_range_meters":28800,"station_id":"ce4bhqp2rcd13ifvqhng","pricing_plan_id":"cebpf4jnsgd1na2vs0mg"},{"bike_id":"5ee6e09d-c1fd-4050-b022-e9352f822dc4","system_id":"levelo_inurba_marseille","lat":43.31758,"lon":5.39014,"is_reserved":false,"is_disabled":false,"rental_uris":{"android":"levelo://app?vid=5ee6e09d-c1fd-4050-b022-e9352f822dc4","ios":"levelo://app?vid=5ee6e09d-c1fd-4050-b022-e9352f822dc4"},"vehicle_type_id":"4","last_reported":1713211651,"current_range_meters":21200,"station_id":"ce4bhqp2rcd13ifvqhng","pricing_plan_id":"cebpf4jnsgd1na2vs0mg"},{"bike_id":"8a98c414-8b87-4131-997b-c54838dc3303","system_id":"levelo_inurba_marseille","lat":43.317557,"lon":5.390173,"is_reserved":false,"is_disabled":false,"rental_uris":{"android":"levelo://app?vid=8a98c414-8b87-4131-997b-c54838dc3303","ios":"levelo://app?vid=8a98c414-8b87-4131-997b-c54838dc3303"},"vehicle_type_id":"4","last_reported":1713211651,"current_range_meters":24400,"station_id":"ce4bhqp2rcd13ifvqhng","pricing_plan_id":"cebpf4jnsgd1na2vs0mg"},{"bike_id":"fcbad32e-4616-4486-8701-2c6901a08777","system_id":"levelo_inurba_marseille","lat":43.317557,"lon":5.390173,"is_reserved":false,"is_disabled":false,"rental_uris":{"android":"levelo://app?vid=fcbad32e-4616-4486-8701-2c6901a08777","ios":"levelo://app?vid=fcbad32e-4616-4486-8701-2c6901a08777"},"vehicle_type_id":"4","last_reported":1713211651,"current_range_meters":19200,"station_id":"ce4bhqp2rcd13ifvqhng","pricing_plan_id":"cebpf4jnsgd1na2vs0mg"},{"bike_id":"f4c21c3e-2b58-4083-a05e-a4ad2c735b0d","system_id":"levelo_inurba_marseille","lat":43.317557,"lon":5.390173,"is_reserved":false,"is_disabled":false,"rental_uris":{"android":"levelo://app?vid=f4c21c3e-2b58-4083-a05e-a4ad2c735b0d","ios":"levelo://app?vid=f4c21c3e-2b58-4083-a05e-a4ad2c735b0d"},"vehicle_type_id":"4","last_reported":1713211651,"current_range_meters":19600,"station_id":"ce4bhqp2rcd13ifvqhng","pricing_plan_id":"cebpf4jnsgd1na2vs0mg"},{"bike_id":"53b993fd-46c3-437a-9dac-ca924af6b015","system_id":"levelo_inurba_marseille","lat":43.317547,"lon":5.39017,"is_reserved":false,"is_disabled":false,"rental_uris":{"android":"levelo://app?vid=53b993fd-46c3-437a-9dac-ca924af6b015","ios":"levelo://app?vid=53b993fd-46c3-437a-9dac-ca924af6b015"},"vehicle_type_id":"4","last_reported":1713211651,"current_range_meters":28800,"station_id":"ce4bhqp2rcd13ifvqhng","pricing_plan_id":"cebpf4jnsgd1na2vs0mg"},{"bike_id":"0e64c245-7d32-412c-965a-fb613d3bde22","system_id":"levelo_inurba_marseille","lat":43.317557,"lon":5.390173,"is_reserved":false,"is_disabled":false,"rental_uris":{"android":"levelo://app?vid=0e64c245-7d32-412c-965a-fb613d3bde22","ios":"levelo://app?vid=0e64c245-7d32-412c-965a-fb613d3bde22"},"vehicle_type_id":"4","last_reported":1713211651,"current_range_meters":16800,"station_id":"ce4bhqp2rcd13ifvqhng","pricing_plan_id":"cebpf4jnsgd1na2vs0mg"},{"bike_id":"1671ada3-7cc2-4879-87fa-4388658c414b","system_id":"levelo_inurba_marseille","lat":43.317557,"lon":5.390173,"is_reserved":false,"is_disabled":false,"rental_uris":{"android":"levelo://app?vid=1671ada3-7cc2-4879-87fa-4388658c414b","ios":"levelo://app?vid=1671ada3-7cc2-4879-87fa-4388658c414b"},"vehicle_type_id":"4","last_reported":1713211651,"current_range_meters":30000,"station_id":"ce4bhqp2rcd13ifvqhng","pricing_plan_id":"cebpf4jnsgd1na2vs0mg"},{"bike_id":"b6b4c947-1bda-4de4-9df1-137f712ed154","system_id":"levelo_inurba_marseille","lat":43.317557,"lon":5.390173,"is_reserved":false,"is_disabled":false,"rental_uris":{"android":"levelo://app?vid=b6b4c947-1bda-4de4-9df1-137f712ed154","ios":"levelo://app?vid=b6b4c947-1bda-4de4-9df1-137f712ed154"},"vehicle_type_id":"4","last_reported":1713211651,"current_range_meters":21600,"station_id":"ce4bhqp2rcd13ifvqhng","pricing_plan_id":"cebpf4jnsgd1na2vs0mg"},{"bike_id":"d340e700-71cd-4616-ab66-814aca80c908","system_id":"levelo_inurba_marseille","lat":43.29582,"lon":5.37528,"is_reserved":false,"is_disabled":false,"rental_uris":{"android":"levelo://app?vid=d340e700-71cd-4616-ab66-814aca80c908","ios":"levelo://app?vid=d340e700-71cd-4616-ab66-814aca80c908"},"vehicle_type_id":"4","last_reported":1713211651,"current_range_meters":0,"station_id":"ce4bgh92rcd13ifvqb50","pricing_plan_id":"cebpf4jnsgd1na2vs0mg"},{"bike_id":"48ffa327-13c9-470d-9ab1-d79acef1af4f","system_id":"levelo_inurba_marseille","lat":43.29573,"lon":5.37524,"is_reserved":false,"is_disabled":false,"rental_uris":{"android":"levelo://app?vid=48ffa327-13c9-470d-9ab1-d79acef1af4f","ios":"levelo://app?vid=48ffa327-13c9-470d-9ab1-d79acef1af4f"},"vehicle_type_id":"4","last_reported":1713211651,"current_range_meters":0,"station_id":"ce4bgh92rcd13ifvqb50","pricing_plan_id":"cebpf4jnsgd1na2vs0mg"},{"bike_id":"307f8355-f14b-401a-ad77-91a2bf3e017d","system_id":"levelo_inurba_marseille","lat":43.295748,"lon":5.37522,"is_reserved":false,"is_disabled":false,"rental_uris":{"android":"levelo://app?vid=307f8355-f14b-401a-ad77-91a2bf3e017d","ios":"levelo://app?vid=307f8355-f14b-401a-ad77-91a2bf3e017d"},"vehicle_type_id":"4","last_reported":1713211651,"current_range_meters":0,"station_id":"ce4bgh92rcd13ifvqb50","pricing_plan_id":"cebpf4jnsgd1na2vs0mg"},{"bike_id":"a4816a24-d6c6-496e-a516-8d25e0043b53","system_id":"levelo_inurba_marseille","lat":43.295688,"lon":5.375227,"is_reserved":false,"is_disabled":false,"rental_uris":{"android":"levelo://app?vid=a4816a24-d6c6-496e-a516-8d25e0043b53","ios":"levelo://app?vid=a4816a24-d6c6-496e-a516-8d25e0043b53"},"vehicle_type_id":"4","last_reported":1713211651,"current_range_meters":0,"station_id":"ce4bgh92rcd13ifvqb50","pricing_plan_id":"cebpf4jnsgd1na2vs0mg"},{"bike_id":"15c37c37-fb63-428a-a1aa-3b4556ca8180","system_id":"levelo_inurba_marseille","lat":43.30431,"lon":5.38893,"is_reserved":false,"is_disabled":false,"rental_uris":{"android":"levelo://app?vid=15c37c37-fb63-428a-a1aa-3b4556ca8180","ios":"levelo://app?vid=15c37c37-fb63-428a-a1aa-3b4556ca8180"},"vehicle_type_id":"4","last_reported":1713211651,"current_range_meters":3200,"station_id":"ce4bgk12rcd13ifvqbi0","pricing_plan_id":"cebpf4jnsgd1na2vs0mg"},{"bike_id":"6bbeae1e-98de-4c36-a2b6-4da1a8c67386","system_id":"levelo_inurba_marseille","lat":43.295748,"lon":5.37522,"is_reserved":false,"is_disabled":false,"rental_uris":{"android":"levelo://app?vid=6bbeae1e-98de-4c36-a2b6-4da1a8c67386","ios":"levelo://app?vid=6bbeae1e-98de-4c36-a2b6-4da1a8c67386"},"vehicle_type_id":"4","last_reported":1713211651,"current_range_meters":0,"station_id":"ce4bgh92rcd13ifvqb50","pricing_plan_id":"cebpf4jnsgd1na2vs0mg"},{"bike_id":"12201746-9d7c-48f7-9848-4c4a883ae2a3","system_id":"levelo_inurba_marseille","lat":43.299717,"lon":5.384845,"is_reserved":false,"is_disabled":false,"rental_uris":{"android":"levelo://app?vid=12201746-9d7c-48f7-9848-4c4a883ae2a3","ios":"levelo://app?vid=12201746-9d7c-48f7-9848-4c4a883ae2a3"},"vehicle_type_id":"4","last_reported":1713211651,"current_range_meters":31200,"station_id":"ce4bgj92rcd13ifvqbd0","pricing_plan_id":"cebpf4jnsgd1na2vs0mg"},{"bike_id":"d8d7a1f3-4ffd-4576-879e-2ebe3b15ab44","system_id":"levelo_inurba_marseille","lat":43.29863,"lon":5.383386,"is_reserved":false,"is_disabled":false,"rental_uris":{"android":"levelo://app?vid=d8d7a1f3-4ffd-4576-879e-2ebe3b15ab44","ios":"levelo://app?vid=d8d7a1f3-4ffd-4576-879e-2ebe3b15ab44"},"vehicle_type_id":"4","last_reported":1713211651,"current_range_meters":0,"station_id":"","pricing_plan_id":"cebpf4jnsgd1na2vs0mg"},{"bike_id":"9a8a99eb-3e92-4a9b-8def-ad45c4317589","system_id":"levelo_inurba_marseille","lat":43.299717,"lon":5.384845,"is_reserved":false,"is_disabled":false,"rental_uris":{"android":"levelo://app?vid=9a8a99eb-3e92-4a9b-8def-ad45c4317589","ios":"levelo://app?vid=9a8a99eb-3e92-4a9b-8def-ad45c4317589"},"vehicle_type_id":"4","last_reported":1713211651,"current_range_meters":31200,"station_id":"ce4bgj92rcd13ifvqbd0","pricing_plan_id":"cebpf4jnsgd1na2vs0mg"},{"bike_id":"a3b60985-761a-427a-8b4d-b02ac2fd2485","system_id":"levelo_inurba_marseille","lat":43.299717,"lon":5.384845,"is_reserved":false,"is_disabled":false,"rental_uris":{"android":"levelo://app?vid=a3b60985-761a-427a-8b4d-b02ac2fd2485","ios":"levelo://app?vid=a3b60985-761a-427a-8b4d-b02ac2fd2485"},"vehicle_type_id":"4","last_reported":1713211651,"current_range_meters":31200,"station_id":"ce4bgj92rcd13ifvqbd0","pricing_plan_id":"cebpf4jnsgd1na2vs0mg"},{"bike_id":"1c4ea925-53a3-4eef-92c3-f22d0d2aa491","system_id":"levelo_inurba_marseille","lat":43.299717,"lon":5.384845,"is_reserved":false,"is_disabled":false,"rental_uris":{"android":"levelo://app?vid=1c4ea925-53a3-4eef-92c3-f22d0d2aa491","ios":"levelo://app?vid=1c4ea925-53a3-4eef-92c3-f22d0d2aa491"},"vehicle_type_id":"4","last_reported":1713211651,"current_range_meters":31200,"station_id":"ce4bgj92rcd13ifvqbd0","pricing_plan_id":"cebpf4jnsgd1na2vs0mg"},{"bike_id":"81108249-ac56-4ce5-9220-b2c59b91ab28","system_id":"levelo_inurba_marseille","lat":43.29606,"lon":5.381074,"is_reserved":false,"is_disabled":false,"rental_uris":{"android":"levelo://app?vid=81108249-ac56-4ce5-9220-b2c59b91ab28","ios":"levelo://app?vid=81108249-ac56-4ce5-9220-b2c59b91ab28"},"vehicle_type_id":"4","last_reported":1713211651,"current_range_meters":0,"station_id":"ce4bgl12rcd13ifvqbo0","pricing_plan_id":"cebpf4jnsgd1na2vs0mg"},{"bike_id":"1f246b19-da0f-472d-af88-d1510810efd6","system_id":"levelo_inurba_marseille","lat":43.293249,"lon":5.371578,"is_reserved":false,"is_disabled":false,"rental_uris":{"android":"levelo://app?vid=1f246b19-da0f-472d-af88-d1510810efd6","ios":"levelo://app?vid=1f246b19-da0f-472d-af88-d1510810efd6"},"vehicle_type_id":"4","last_reported":1713211651,"current_range_meters":4400,"station_id":"ce4bgh92rcd13ifvqb40","pricing_plan_id":"cebpf4jnsgd1na2vs0mg"},{"bike_id":"fd1062dd-31ac-4a3d-b00d-b1c3ab2c192a","system_id":"levelo_inurba_marseille","lat":43.295985,"lon":5.38101,"is_reserved":false,"is_disabled":false,"rental_uris":{"android":"levelo://app?vid=fd1062dd-31ac-4a3d-b00d-b1c3ab2c192a","ios":"levelo://app?vid=fd1062dd-31ac-4a3d-b00d-b1c3ab2c192a"},"vehicle_type_id":"4","last_reported":1713211651,"current_range_meters":0,"station_id":"ce4bgl12rcd13ifvqbo0","pricing_plan_id":"cebpf4jnsgd1na2vs0mg"},{"bike_id":"4abf8f63-97db-4ea6-ad4d-b3f62733652c","system_id":"levelo_inurba_marseille","lat":43.295994,"lon":5.381146,"is_reserved":false,"is_disabled":false,"rental_uris":{"android":"levelo://app?vid=4abf8f63-97db-4ea6-ad4d-b3f62733652c","ios":"levelo://app?vid=4abf8f63-97db-4ea6-ad4d-b3f62733652c"},"vehicle_type_id":"4","last_reported":1713211651,"current_range_meters":0,"station_id":"ce4bgl12rcd13ifvqbo0","pricing_plan_id":"cebpf4jnsgd1na2vs0mg"},{"bike_id":"61236403-6e8d-40a4-b552-5f9303fabde1","system_id":"levelo_inurba_marseille","lat":43.29591,"lon":5.381,"is_reserved":false,"is_disabled":false,"rental_uris":{"android":"levelo://app?vid=61236403-6e8d-40a4-b552-5f9303fabde1","ios":"levelo://app?vid=61236403-6e8d-40a4-b552-5f9303fabde1"},"vehicle_type_id":"4","last_reported":1713211651,"current_range_meters":17200,"station_id":"ce4bgl12rcd13ifvqbo0","pricing_plan_id":"cebpf4jnsgd1na2vs0mg"},{"bike_id":"24f1ec73-c88d-453b-a18f-4af363b915e7","system_id":"levelo_inurba_marseille","lat":43.293249,"lon":5.371578,"is_reserved":false,"is_disabled":false,"rental_uris":{"android":"levelo://app?vid=24f1ec73-c88d-453b-a18f-4af363b915e7","ios":"levelo://app?vid=24f1ec73-c88d-453b-a18f-4af363b915e7"},"vehicle_type_id":"4","last_reported":1713211651,"current_range_meters":5600,"station_id":"ce4bgh92rcd13ifvqb40","pricing_plan_id":"cebpf4jnsgd1na2vs0mg"},{"bike_id":"46d7a2c7-4676-4fc8-99c2-08d95abeb3d8","system_id":"levelo_inurba_marseille","lat":43.293249,"lon":5.371578,"is_reserved":false,"is_disabled":false,"rental_uris":{"android":"levelo://app?vid=46d7a2c7-4676-4fc8-99c2-08d95abeb3d8","ios":"levelo://app?vid=46d7a2c7-4676-4fc8-99c2-08d95abeb3d8"},"vehicle_type_id":"4","last_reported":1713211651,"current_range_meters":18400,"station_id":"ce4bgh92rcd13ifvqb40","pricing_plan_id":"cebpf4jnsgd1na2vs0mg"},{"bike_id":"a9847875-b922-4a12-b617-1af80050254b","system_id":"levelo_inurba_marseille","lat":43.32558,"lon":5.38795,"is_reserved":false,"is_disabled":false,"rental_uris":{"android":"levelo://app?vid=a9847875-b922-4a12-b617-1af80050254b","ios":"levelo://app?vid=a9847875-b922-4a12-b617-1af80050254b"},"vehicle_type_id":"4","last_reported":1713211651,"current_range_meters":0,"station_id":"","pricing_plan_id":"cebpf4jnsgd1na2vs0mg"},{"bike_id":"191d627b-758e-4d34-80a8-2869e3408a02","system_id":"levelo_inurba_marseille","lat":43.292749,"lon":5.368402,"is_reserved":false,"is_disabled":false,"rental_uris":{"android":"levelo://app?vid=191d627b-758e-4d34-80a8-2869e3408a02","ios":"levelo://app?vid=191d627b-758e-4d34-80a8-2869e3408a02"},"vehicle_type_id":"4","last_reported":1713211651,"current_range_meters":24800,"station_id":"ce4bhbp2rcd13ifvqesg","pricing_plan_id":"cebpf4jnsgd1na2vs0mg"},{"bike_id":"3fe534c6-4eb0-489c-bb9e-dbac8e2dcd5c","system_id":"levelo_inurba_marseille","lat":43.292749,"lon":5.368402,"is_reserved":false,"is_disabled":false,"rental_uris":{"android":"levelo://app?vid=3fe534c6-4eb0-489c-bb9e-dbac8e2dcd5c","ios":"levelo://app?vid=3fe534c6-4eb0-489c-bb9e-dbac8e2dcd5c"},"vehicle_type_id":"4","last_reported":1713211651,"current_range_meters":25600,"station_id":"ce4bhbp2rcd13ifvqesg","pricing_plan_id":"cebpf4jnsgd1na2vs0mg"},{"bike_id":"fb1ebcd5-4cc6-44bd-a7c8-4f48022b2484","system_id":"levelo_inurba_marseille","lat":43.292749,"lon":5.368402,"is_reserved":false,"is_disabled":false,"rental_uris":{"android":"levelo://app?vid=fb1ebcd5-4cc6-44bd-a7c8-4f48022b2484","ios":"levelo://app?vid=fb1ebcd5-4cc6-44bd-a7c8-4f48022b2484"},"vehicle_type_id":"4","last_reported":1713211651,"current_range_meters":31200,"station_id":"ce4bhbp2rcd13ifvqesg","pricing_plan_id":"cebpf4jnsgd1na2vs0mg"},{"bike_id":"59d17662-be55-4dda-a24e-ef9789631aad","system_id":"levelo_inurba_marseille","lat":43.30181,"lon":5.390845,"is_reserved":false,"is_disabled":false,"rental_uris":{"android":"levelo://app?vid=59d17662-be55-4dda-a24e-ef9789631aad","ios":"levelo://app?vid=59d17662-be55-4dda-a24e-ef9789631aad"},"vehicle_type_id":"4","last_reported":1713211651,"current_range_meters":0,"station_id":"","pricing_plan_id":"cebpf4jnsgd1na2vs0mg"},{"bike_id":"7e29505a-394c-4fa0-96e7-d9ef518fe17b","system_id":"levelo_inurba_marseille","lat":43.305994,"lon":5.393687,"is_reserved":false,"is_disabled":false,"rental_uris":{"android":"levelo://app?vid=7e29505a-394c-4fa0-96e7-d9ef518fe17b","ios":"levelo://app?vid=7e29505a-394c-4fa0-96e7-d9ef518fe17b"},"vehicle_type_id":"4","last_reported":1713211651,"current_range_meters":8800,"station_id":"ce4bh0p2rcd13ifvqd80","pricing_plan_id":"cebpf4jnsgd1na2vs0mg"},{"bike_id":"dfb3a6d6-9f5d-4cfb-a773-8d1afc723b63","system_id":"levelo_inurba_marseille","lat":43.305994,"lon":5.393687,"is_reserved":false,"is_disabled":false,"rental_uris":{"android":"levelo://app?vid=dfb3a6d6-9f5d-4cfb-a773-8d1afc723b63","ios":"levelo://app?vid=dfb3a6d6-9f5d-4cfb-a773-8d1afc723b63"},"vehicle_type_id":"4","last_reported":1713211651,"current_range_meters":28000,"station_id":"ce4bh0p2rcd13ifvqd80","pricing_plan_id":"cebpf4jnsgd1na2vs0mg"},{"bike_id":"1899c720-d8e6-4bb4-aafd-7d346416bb1c","system_id":"levelo_inurba_marseille","lat":43.30303,"lon":5.391977,"is_reserved":false,"is_disabled":false,"rental_uris":{"android":"levelo://app?vid=1899c720-d8e6-4bb4-aafd-7d346416bb1c","ios":"levelo://app?vid=1899c720-d8e6-4bb4-aafd-7d346416bb1c"},"vehicle_type_id":"4","last_reported":1713211651,"current_range_meters":17600,"station_id":"ce4bgkh2rcd13ifvqbk0","pricing_plan_id":"cebpf4jnsgd1na2vs0mg"},{"bike_id":"796cc24a-b813-410b-a162-cb5642fc44c9","system_id":"levelo_inurba_marseille","lat":43.304606,"lon":5.379026,"is_reserved":false,"is_disabled":false,"rental_uris":{"android":"levelo://app?vid=796cc24a-b813-410b-a162-cb5642fc44c9","ios":"levelo://app?vid=796cc24a-b813-410b-a162-cb5642fc44c9"},"vehicle_type_id":"4","last_reported":1713211651,"current_range_meters":20800,"station_id":"ce4bgup2rcd13ifvqcn0","pricing_plan_id":"cebpf4jnsgd1na2vs0mg"},{"bike_id":"4b9c2a9c-33c0-43fc-b9b3-3ac503cbef86","system_id":"levelo_inurba_marseille","lat":43.2936,"lon":5.37835,"is_reserved":false,"is_disabled":false,"rental_uris":{"android":"levelo://app?vid=4b9c2a9c-33c0-43fc-b9b3-3ac503cbef86","ios":"levelo://app?vid=4b9c2a9c-33c0-43fc-b9b3-3ac503cbef86"},"vehicle_type_id":"4","last_reported":1713211651,"current_range_meters":10800,"station_id":"ce4bgjh2rcd13ifvqbf0","pricing_plan_id":"cebpf4jnsgd1na2vs0mg"},{"bike_id":"8d5f3d1e-94d7-43c5-934f-b9aa9c455cdc","system_id":"levelo_inurba_marseille","lat":43.283498,"lon":5.380948,"is_reserved":false,"is_disabled":false,"rental_uris":{"android":"levelo://app?vid=8d5f3d1e-94d7-43c5-934f-b9aa9c455cdc","ios":"levelo://app?vid=8d5f3d1e-94d7-43c5-934f-b9aa9c455cdc"},"vehicle_type_id":"4","last_reported":1713211651,"current_range_meters":6800,"station_id":"ce4bh412rcd13ifvqdr0","pricing_plan_id":"cebpf4jnsgd1na2vs0mg"},{"bike_id":"73097b9d-9ee1-4e69-bf54-b2bf5f9f9af7","system_id":"levelo_inurba_marseille","lat":43.2936,"lon":5.37835,"is_reserved":false,"is_disabled":false,"rental_uris":{"android":"levelo://app?vid=73097b9d-9ee1-4e69-bf54-b2bf5f9f9af7","ios":"levelo://app?vid=73097b9d-9ee1-4e69-bf54-b2bf5f9f9af7"},"vehicle_type_id":"4","last_reported":1713211651,"current_range_meters":1200,"station_id":"ce4bgjh2rcd13ifvqbf0","pricing_plan_id":"cebpf4jnsgd1na2vs0mg"},{"bike_id":"71f7ac21-19e2-4fd0-9f28-7a156110ebe9","system_id":"levelo_inurba_marseille","lat":43.2936,"lon":5.37835,"is_reserved":false,"is_disabled":false,"rental_uris":{"android":"levelo://app?vid=71f7ac21-19e2-4fd0-9f28-7a156110ebe9","ios":"levelo://app?vid=71f7ac21-19e2-4fd0-9f28-7a156110ebe9"},"vehicle_type_id":"4","last_reported":1713211651,"current_range_meters":15600,"station_id":"ce4bgjh2rcd13ifvqbf0","pricing_plan_id":"cebpf4jnsgd1na2vs0mg"},{"bike_id":"40051130-93f1-4304-8848-debd6c1fa99b","system_id":"levelo_inurba_marseille","lat":43.302992,"lon":5.392136,"is_reserved":false,"is_disabled":false,"rental_uris":{"android":"levelo://app?vid=40051130-93f1-4304-8848-debd6c1fa99b","ios":"levelo://app?vid=40051130-93f1-4304-8848-debd6c1fa99b"},"vehicle_type_id":"4","last_reported":1713211651,"current_range_meters":31200,"station_id":"ce4bgkh2rcd13ifvqbk0","pricing_plan_id":"cebpf4jnsgd1na2vs0mg"},{"bike_id":"204406f5-7550-4082-b099-a37fd314a313","system_id":"levelo_inurba_marseille","lat":43.300852,"lon":5.390859,"is_reserved":false,"is_disabled":false,"rental_uris":{"android":"levelo://app?vid=204406f5-7550-4082-b099-a37fd314a313","ios":"levelo://app?vid=204406f5-7550-4082-b099-a37fd314a313"},"vehicle_type_id":"4","last_reported":1713211651,"current_range_meters":7200,"station_id":"ce4bh192rcd13ifvqdb0","pricing_plan_id":"cebpf4jnsgd1na2vs0mg"},{"bike_id":"726d34e2-988f-4862-be47-4266357122e6","system_id":"levelo_inurba_marseille","lat":43.298764,"lon":5.388973,"is_reserved":false,"is_disabled":false,"rental_uris":{"android":"levelo://app?vid=726d34e2-988f-4862-be47-4266357122e6","ios":"levelo://app?vid=726d34e2-988f-4862-be47-4266357122e6"},"vehicle_type_id":"4","last_reported":1713211651,"current_range_meters":23600,"station_id":"ce4bh392rcd13ifvqdl0","pricing_plan_id":"cebpf4jnsgd1na2vs0mg"},{"bike_id":"404c3eed-9679-4c7f-b7a3-4139fd17958d","system_id":"levelo_inurba_marseille","lat":43.298764,"lon":5.388973,"is_reserved":false,"is_disabled":false,"rental_uris":{"android":"levelo://app?vid=404c3eed-9679-4c7f-b7a3-4139fd17958d","ios":"levelo://app?vid=404c3eed-9679-4c7f-b7a3-4139fd17958d"},"vehicle_type_id":"4","last_reported":1713211651,"current_range_meters":14000,"station_id":"ce4bh392rcd13ifvqdl0","pricing_plan_id":"cebpf4jnsgd1na2vs0mg"},{"bike_id":"752b5398-00bc-4a26-97dc-c75252d85418","system_id":"levelo_inurba_marseille","lat":43.29875,"lon":5.3891,"is_reserved":false,"is_disabled":false,"rental_uris":{"android":"levelo://app?vid=752b5398-00bc-4a26-97dc-c75252d85418","ios":"levelo://app?vid=752b5398-00bc-4a26-97dc-c75252d85418"},"vehicle_type_id":"4","last_reported":1713211651,"current_range_meters":4800,"station_id":"ce4bh392rcd13ifvqdl0","pricing_plan_id":"cebpf4jnsgd1na2vs0mg"},{"bike_id":"65e51f4d-2c27-4c2d-8167-f086010a70ce","system_id":"levelo_inurba_marseille","lat":43.291675,"lon":5.371583,"is_reserved":false,"is_disabled":false,"rental_uris":{"android":"levelo://app?vid=65e51f4d-2c27-4c2d-8167-f086010a70ce","ios":"levelo://app?vid=65e51f4d-2c27-4c2d-8167-f086010a70ce"},"vehicle_type_id":"4","last_reported":1713211651,"current_range_meters":14800,"station_id":"ce4bha92rcd13ifvqeh0","pricing_plan_id":"cebpf4jnsgd1na2vs0mg"},{"bike_id":"ea3c1bee-97f5-4a62-a320-74d9e6cb19cc","system_id":"levelo_inurba_marseille","lat":43.292005,"lon":5.357875,"is_reserved":false,"is_disabled":false,"rental_uris":{"android":"levelo://app?vid=ea3c1bee-97f5-4a62-a320-74d9e6cb19cc","ios":"levelo://app?vid=ea3c1bee-97f5-4a62-a320-74d9e6cb19cc"},"vehicle_type_id":"4","last_reported":1713211651,"current_range_meters":17600,"station_id":"ce4bhb12rcd13ifvqel0","pricing_plan_id":"cebpf4jnsgd1na2vs0mg"},{"bike_id":"422156b0-dbde-4609-83ef-039b3caa20de","system_id":"levelo_inurba_marseille","lat":43.29529,"lon":5.385581,"is_reserved":false,"is_disabled":false,"rental_uris":{"android":"levelo://app?vid=422156b0-dbde-4609-83ef-039b3caa20de","ios":"levelo://app?vid=422156b0-dbde-4609-83ef-039b3caa20de"},"vehicle_type_id":"4","last_reported":1713211651,"current_range_meters":6000,"station_id":"ce4bgih2rcd13ifvqba0","pricing_plan_id":"cebpf4jnsgd1na2vs0mg"},{"bike_id":"89ab8432-112f-48de-bbb4-04ff6de510ed","system_id":"levelo_inurba_marseille","lat":43.313291,"lon":5.396838,"is_reserved":false,"is_disabled":false,"rental_uris":{"android":"levelo://app?vid=89ab8432-112f-48de-bbb4-04ff6de510ed","ios":"levelo://app?vid=89ab8432-112f-48de-bbb4-04ff6de510ed"},"vehicle_type_id":"4","last_reported":1713211651,"current_range_meters":6000,"station_id":"ce4bgvp2rcd13ifvqcu0","pricing_plan_id":"cebpf4jnsgd1na2vs0mg"},{"bike_id":"7fd18965-a1fa-4191-bdf9-3f456deeabf1","system_id":"levelo_inurba_marseille","lat":43.31332,"lon":5.39699,"is_reserved":false,"is_disabled":false,"rental_uris":{"android":"levelo://app?vid=7fd18965-a1fa-4191-bdf9-3f456deeabf1","ios":"levelo://app?vid=7fd18965-a1fa-4191-bdf9-3f456deeabf1"},"vehicle_type_id":"4","last_reported":1713211651,"current_range_meters":26000,"station_id":"ce4bgvp2rcd13ifvqcu0","pricing_plan_id":"cebpf4jnsgd1na2vs0mg"},{"bike_id":"50113851-6118-43b9-a3f3-a344f8d0c2c3","system_id":"levelo_inurba_marseille","lat":43.309038,"lon":5.396546,"is_reserved":false,"is_disabled":false,"rental_uris":{"android":"levelo://app?vid=50113851-6118-43b9-a3f3-a344f8d0c2c3","ios":"levelo://app?vid=50113851-6118-43b9-a3f3-a344f8d0c2c3"},"vehicle_type_id":"4","last_reported":1713211651,"current_range_meters":10800,"station_id":"ce4bh012rcd13ifvqcv0","pricing_plan_id":"cebpf4jnsgd1na2vs0mg"},{"bike_id":"5f71d421-cff0-4943-8b6d-99dff32d5b4a","system_id":"levelo_inurba_marseille","lat":43.309038,"lon":5.396546,"is_reserved":false,"is_disabled":false,"rental_uris":{"android":"levelo://app?vid=5f71d421-cff0-4943-8b6d-99dff32d5b4a","ios":"levelo://app?vid=5f71d421-cff0-4943-8b6d-99dff32d5b4a"},"vehicle_type_id":"4","last_reported":1713211651,"current_range_meters":12800,"station_id":"ce4bh012rcd13ifvqcv0","pricing_plan_id":"cebpf4jnsgd1na2vs0mg"},{"bike_id":"c3188f54-50ce-40e0-8564-86a947cedd70","system_id":"levelo_inurba_marseille","lat":43.309038,"lon":5.396546,"is_reserved":false,"is_disabled":false,"rental_uris":{"android":"levelo://app?vid=c3188f54-50ce-40e0-8564-86a947cedd70","ios":"levelo://app?vid=c3188f54-50ce-40e0-8564-86a947cedd70"},"vehicle_type_id":"4","last_reported":1713211651,"current_range_meters":800,"station_id":"ce4bh012rcd13ifvqcv0","pricing_plan_id":"cebpf4jnsgd1na2vs0mg"},{"bike_id":"a451de68-6c33-4f58-bb00-0c3268fcebb0","system_id":"levelo_inurba_marseille","lat":43.309047,"lon":5.396551,"is_reserved":false,"is_disabled":false,"rental_uris":{"android":"levelo://app?vid=a451de68-6c33-4f58-bb00-0c3268fcebb0","ios":"levelo://app?vid=a451de68-6c33-4f58-bb00-0c3268fcebb0"},"vehicle_type_id":"4","last_reported":1713211651,"current_range_meters":23200,"station_id":"ce4bh012rcd13ifvqcv0","pricing_plan_id":"cebpf4jnsgd1na2vs0mg"},{"bike_id":"ec6585d9-b42b-450f-973c-754fb7a32d04","system_id":"levelo_inurba_marseille","lat":43.29529,"lon":5.385581,"is_reserved":false,"is_disabled":false,"rental_uris":{"android":"levelo://app?vid=ec6585d9-b42b-450f-973c-754fb7a32d04","ios":"levelo://app?vid=ec6585d9-b42b-450f-973c-754fb7a32d04"},"vehicle_type_id":"4","last_reported":1713211651,"current_range_meters":9600,"station_id":"ce4bgih2rcd13ifvqba0","pricing_plan_id":"cebpf4jnsgd1na2vs0mg"},{"bike_id":"e6ca6f16-5e81-4a28-bbe7-d865dce5ecc0","system_id":"levelo_inurba_marseille","lat":43.29529,"lon":5.385581,"is_reserved":false,"is_disabled":false,"rental_uris":{"android":"levelo://app?vid=e6ca6f16-5e81-4a28-bbe7-d865dce5ecc0","ios":"levelo://app?vid=e6ca6f16-5e81-4a28-bbe7-d865dce5ecc0"},"vehicle_type_id":"4","last_reported":1713211651,"current_range_meters":27600,"station_id":"ce4bgih2rcd13ifvqba0","pricing_plan_id":"cebpf4jnsgd1na2vs0mg"},{"bike_id":"e1c6a506-d34a-4066-89f1-ec79f475aa49","system_id":"levelo_inurba_marseille","lat":43.29529,"lon":5.385581,"is_reserved":false,"is_disabled":false,"rental_uris":{"android":"levelo://app?vid=e1c6a506-d34a-4066-89f1-ec79f475aa49","ios":"levelo://app?vid=e1c6a506-d34a-4066-89f1-ec79f475aa49"},"vehicle_type_id":"4","last_reported":1713211651,"current_range_meters":15600,"station_id":"ce4bgih2rcd13ifvqba0","pricing_plan_id":"cebpf4jnsgd1na2vs0mg"},{"bike_id":"df9c7c5d-3ea1-472a-819f-291dbb7d3c84","system_id":"levelo_inurba_marseille","lat":43.29529,"lon":5.385581,"is_reserved":false,"is_disabled":false,"rental_uris":{"android":"levelo://app?vid=df9c7c5d-3ea1-472a-819f-291dbb7d3c84","ios":"levelo://app?vid=df9c7c5d-3ea1-472a-819f-291dbb7d3c84"},"vehicle_type_id":"4","last_reported":1713211651,"current_range_meters":23200,"station_id":"ce4bgih2rcd13ifvqba0","pricing_plan_id":"cebpf4jnsgd1na2vs0mg"},{"bike_id":"6b7e2dc2-422b-4edf-8d3f-3c7d479f08ec","system_id":"levelo_inurba_marseille","lat":43.295377,"lon":5.38547,"is_reserved":false,"is_disabled":false,"rental_uris":{"android":"levelo://app?vid=6b7e2dc2-422b-4edf-8d3f-3c7d479f08ec","ios":"levelo://app?vid=6b7e2dc2-422b-4edf-8d3f-3c7d479f08ec"},"vehicle_type_id":"4","last_reported":1713211651,"current_range_meters":16000,"station_id":"ce4bgih2rcd13ifvqba0","pricing_plan_id":"cebpf4jnsgd1na2vs0mg"},{"bike_id":"9ea89625-605d-4c83-9136-6e73ef98ecea","system_id":"levelo_inurba_marseille","lat":43.29529,"lon":5.385581,"is_reserved":false,"is_disabled":false,"rental_uris":{"android":"levelo://app?vid=9ea89625-605d-4c83-9136-6e73ef98ecea","ios":"levelo://app?vid=9ea89625-605d-4c83-9136-6e73ef98ecea"},"vehicle_type_id":"4","last_reported":1713211651,"current_range_meters":0,"station_id":"ce4bgih2rcd13ifvqba0","pricing_plan_id":"cebpf4jnsgd1na2vs0mg"},{"bike_id":"4e67fbf5-e258-4f72-a72f-33fa4085d8d2","system_id":"levelo_inurba_marseille","lat":43.29529,"lon":5.385581,"is_reserved":false,"is_disabled":false,"rental_uris":{"android":"levelo://app?vid=4e67fbf5-e258-4f72-a72f-33fa4085d8d2","ios":"levelo://app?vid=4e67fbf5-e258-4f72-a72f-33fa4085d8d2"},"vehicle_type_id":"4","last_reported":1713211651,"current_range_meters":4400,"station_id":"ce4bgih2rcd13ifvqba0","pricing_plan_id":"cebpf4jnsgd1na2vs0mg"},{"bike_id":"f81a6948-4e9f-4d6b-be7f-a5501b8b7128","system_id":"levelo_inurba_marseille","lat":43.29529,"lon":5.385581,"is_reserved":false,"is_disabled":false,"rental_uris":{"android":"levelo://app?vid=f81a6948-4e9f-4d6b-be7f-a5501b8b7128","ios":"levelo://app?vid=f81a6948-4e9f-4d6b-be7f-a5501b8b7128"},"vehicle_type_id":"4","last_reported":1713211651,"current_range_meters":26000,"station_id":"ce4bgih2rcd13ifvqba0","pricing_plan_id":"cebpf4jnsgd1na2vs0mg"},{"bike_id":"04a7f1a2-8c0d-42d8-9e8b-72744390a57e","system_id":"levelo_inurba_marseille","lat":43.290779,"lon":5.371482,"is_reserved":false,"is_disabled":false,"rental_uris":{"android":"levelo://app?vid=04a7f1a2-8c0d-42d8-9e8b-72744390a57e","ios":"levelo://app?vid=04a7f1a2-8c0d-42d8-9e8b-72744390a57e"},"vehicle_type_id":"4","last_reported":1713211651,"current_range_meters":14400,"station_id":"ce4bh5p2rcd13ifvqe4g","pricing_plan_id":"cebpf4jnsgd1na2vs0mg"},{"bike_id":"bb926147-3b8f-49a0-ae62-721fc533eca7","system_id":"levelo_inurba_marseille","lat":43.29079,"lon":5.37174,"is_reserved":false,"is_disabled":false,"rental_uris":{"android":"levelo://app?vid=bb926147-3b8f-49a0-ae62-721fc533eca7","ios":"levelo://app?vid=bb926147-3b8f-49a0-ae62-721fc533eca7"},"vehicle_type_id":"4","last_reported":1713211651,"current_range_meters":3200,"station_id":"ce4bh5p2rcd13ifvqe4g","pricing_plan_id":"cebpf4jnsgd1na2vs0mg"},{"bike_id":"5ef02755-0d7a-4a7f-97a5-aa7f34037ed1","system_id":"levelo_inurba_marseille","lat":43.290779,"lon":5.371482,"is_reserved":false,"is_disabled":false,"rental_uris":{"android":"levelo://app?vid=5ef02755-0d7a-4a7f-97a5-aa7f34037ed1","ios":"levelo://app?vid=5ef02755-0d7a-4a7f-97a5-aa7f34037ed1"},"vehicle_type_id":"4","last_reported":1713211651,"current_range_meters":20400,"station_id":"ce4bh5p2rcd13ifvqe4g","pricing_plan_id":"cebpf4jnsgd1na2vs0mg"},{"bike_id":"8581b237-a99f-455a-9336-bffbda2aebec","system_id":"levelo_inurba_marseille","lat":43.29075,"lon":5.3717,"is_reserved":false,"is_disabled":false,"rental_uris":{"android":"levelo://app?vid=8581b237-a99f-455a-9336-bffbda2aebec","ios":"levelo://app?vid=8581b237-a99f-455a-9336-bffbda2aebec"},"vehicle_type_id":"4","last_reported":1713211651,"current_range_meters":30400,"station_id":"ce4bh5p2rcd13ifvqe4g","pricing_plan_id":"cebpf4jnsgd1na2vs0mg"},{"bike_id":"80e410ed-ebd3-45fe-922f-5fef5afcc9ac","system_id":"levelo_inurba_marseille","lat":43.290779,"lon":5.371482,"is_reserved":false,"is_disabled":false,"rental_uris":{"android":"levelo://app?vid=80e410ed-ebd3-45fe-922f-5fef5afcc9ac","ios":"levelo://app?vid=80e410ed-ebd3-45fe-922f-5fef5afcc9ac"},"vehicle_type_id":"4","last_reported":1713211651,"current_range_meters":6800,"station_id":"ce4bh5p2rcd13ifvqe4g","pricing_plan_id":"cebpf4jnsgd1na2vs0mg"},{"bike_id":"6a0bfd4f-79d9-4d73-ad0d-86606c040c6b","system_id":"levelo_inurba_marseille","lat":43.29071,"lon":5.37165,"is_reserved":false,"is_disabled":false,"rental_uris":{"android":"levelo://app?vid=6a0bfd4f-79d9-4d73-ad0d-86606c040c6b","ios":"levelo://app?vid=6a0bfd4f-79d9-4d73-ad0d-86606c040c6b"},"vehicle_type_id":"4","last_reported":1713211651,"current_range_meters":22800,"station_id":"ce4bh5p2rcd13ifvqe4g","pricing_plan_id":"cebpf4jnsgd1na2vs0mg"},{"bike_id":"2a462862-2bc7-431d-a6ec-7d5479cba609","system_id":"levelo_inurba_marseille","lat":43.2907,"lon":5.3716,"is_reserved":false,"is_disabled":false,"rental_uris":{"android":"levelo://app?vid=2a462862-2bc7-431d-a6ec-7d5479cba609","ios":"levelo://app?vid=2a462862-2bc7-431d-a6ec-7d5479cba609"},"vehicle_type_id":"4","last_reported":1713211651,"current_range_meters":11600,"station_id":"ce4bh5p2rcd13ifvqe4g","pricing_plan_id":"cebpf4jnsgd1na2vs0mg"},{"bike_id":"7c8bb043-ec35-4933-a051-2110c8042b80","system_id":"levelo_inurba_marseille","lat":43.29068,"lon":5.37163,"is_reserved":false,"is_disabled":false,"rental_uris":{"android":"levelo://app?vid=7c8bb043-ec35-4933-a051-2110c8042b80","ios":"levelo://app?vid=7c8bb043-ec35-4933-a051-2110c8042b80"},"vehicle_type_id":"4","last_reported":1713211651,"current_range_meters":19600,"station_id":"ce4bh5p2rcd13ifvqe4g","pricing_plan_id":"cebpf4jnsgd1na2vs0mg"},{"bike_id":"0da9d62f-fffc-4587-a638-8b4fc6f5e0a5","system_id":"levelo_inurba_marseille","lat":43.245581,"lon":5.395069,"is_reserved":false,"is_disabled":false,"rental_uris":{"android":"levelo://app?vid=0da9d62f-fffc-4587-a638-8b4fc6f5e0a5","ios":"levelo://app?vid=0da9d62f-fffc-4587-a638-8b4fc6f5e0a5"},"vehicle_type_id":"4","last_reported":1713211651,"current_range_meters":16400,"station_id":"ce4bhlp2rcd13ifvqgjg","pricing_plan_id":"cebpf4jnsgd1na2vs0mg"},{"bike_id":"b8c5fe93-e637-47ca-8d6e-3cb03b5b9d6b","system_id":"levelo_inurba_marseille","lat":43.302008,"lon":5.394694,"is_reserved":false,"is_disabled":false,"rental_uris":{"android":"levelo://app?vid=b8c5fe93-e637-47ca-8d6e-3cb03b5b9d6b","ios":"levelo://app?vid=b8c5fe93-e637-47ca-8d6e-3cb03b5b9d6b"},"vehicle_type_id":"4","last_reported":1713211651,"current_range_meters":15600,"station_id":"ce4bh0p2rcd13ifvqd70","pricing_plan_id":"cebpf4jnsgd1na2vs0mg"},{"bike_id":"ec2dc59a-03f7-47cf-b118-ca1863c043ba","system_id":"levelo_inurba_marseille","lat":43.290624,"lon":5.359245,"is_reserved":false,"is_disabled":false,"rental_uris":{"android":"levelo://app?vid=ec2dc59a-03f7-47cf-b118-ca1863c043ba","ios":"levelo://app?vid=ec2dc59a-03f7-47cf-b118-ca1863c043ba"},"vehicle_type_id":"4","last_reported":1713211651,"current_range_meters":28000,"station_id":"ce4bha92rcd13ifvqeg0","pricing_plan_id":"cebpf4jnsgd1na2vs0mg"},{"bike_id":"7be3955c-213c-425b-b027-2207a407f31f","system_id":"levelo_inurba_marseille","lat":43.294153,"lon":5.386305,"is_reserved":false,"is_disabled":false,"rental_uris":{"android":"levelo://app?vid=7be3955c-213c-425b-b027-2207a407f31f","ios":"levelo://app?vid=7be3955c-213c-425b-b027-2207a407f31f"},"vehicle_type_id":"4","last_reported":1713211651,"current_range_meters":1200,"station_id":"ce4bh2h2rcd13ifvqdh0","pricing_plan_id":"cebpf4jnsgd1na2vs0mg"},{"bike_id":"fc4e1dbb-b283-4979-b205-93f95242b107","system_id":"levelo_inurba_marseille","lat":43.29033,"lon":5.3757,"is_reserved":false,"is_disabled":false,"rental_uris":{"android":"levelo://app?vid=fc4e1dbb-b283-4979-b205-93f95242b107","ios":"levelo://app?vid=fc4e1dbb-b283-4979-b205-93f95242b107"},"vehicle_type_id":"4","last_reported":1713211651,"current_range_meters":5200,"station_id":"ce4bh692rcd13ifvqea0","pricing_plan_id":"cebpf4jnsgd1na2vs0mg"},{"bike_id":"b9d17c59-3725-43dc-a290-f71ad196f212","system_id":"levelo_inurba_marseille","lat":43.294162,"lon":5.386292,"is_reserved":false,"is_disabled":false,"rental_uris":{"android":"levelo://app?vid=b9d17c59-3725-43dc-a290-f71ad196f212","ios":"levelo://app?vid=b9d17c59-3725-43dc-a290-f71ad196f212"},"vehicle_type_id":"4","last_reported":1713211651,"current_range_meters":12800,"station_id":"ce4bh2h2rcd13ifvqdh0","pricing_plan_id":"cebpf4jnsgd1na2vs0mg"},{"bike_id":"2a93bba8-fe84-47e7-907f-dfa26574947c","system_id":"levelo_inurba_marseille","lat":43.29417,"lon":5.38629,"is_reserved":false,"is_disabled":false,"rental_uris":{"android":"levelo://app?vid=2a93bba8-fe84-47e7-907f-dfa26574947c","ios":"levelo://app?vid=2a93bba8-fe84-47e7-907f-dfa26574947c"},"vehicle_type_id":"4","last_reported":1713211651,"current_range_meters":21200,"station_id":"ce4bh2h2rcd13ifvqdh0","pricing_plan_id":"cebpf4jnsgd1na2vs0mg"},{"bike_id":"6c9d9328-a9c9-4676-9fef-96c72e099444","system_id":"levelo_inurba_marseille","lat":43.289184,"lon":5.366408,"is_reserved":false,"is_disabled":false,"rental_uris":{"android":"levelo://app?vid=6c9d9328-a9c9-4676-9fef-96c72e099444","ios":"levelo://app?vid=6c9d9328-a9c9-4676-9fef-96c72e099444"},"vehicle_type_id":"4","last_reported":1713211651,"current_range_meters":28400,"station_id":"ce4bhap2rcd13ifvqek0","pricing_plan_id":"cebpf4jnsgd1na2vs0mg"},{"bike_id":"c1360024-beae-4e92-a4cc-c463ef8b96f9","system_id":"levelo_inurba_marseille","lat":43.294162,"lon":5.386292,"is_reserved":false,"is_disabled":false,"rental_uris":{"android":"levelo://app?vid=c1360024-beae-4e92-a4cc-c463ef8b96f9","ios":"levelo://app?vid=c1360024-beae-4e92-a4cc-c463ef8b96f9"},"vehicle_type_id":"4","last_reported":1713211651,"current_range_meters":22000,"station_id":"ce4bh2h2rcd13ifvqdh0","pricing_plan_id":"cebpf4jnsgd1na2vs0mg"},{"bike_id":"8205a532-3dcb-4ab2-88c9-1ad1f93774f6","system_id":"levelo_inurba_marseille","lat":43.294153,"lon":5.386305,"is_reserved":false,"is_disabled":false,"rental_uris":{"android":"levelo://app?vid=8205a532-3dcb-4ab2-88c9-1ad1f93774f6","ios":"levelo://app?vid=8205a532-3dcb-4ab2-88c9-1ad1f93774f6"},"vehicle_type_id":"4","last_reported":1713211651,"current_range_meters":31200,"station_id":"ce4bh2h2rcd13ifvqdh0","pricing_plan_id":"cebpf4jnsgd1na2vs0mg"},{"bike_id":"8d22d227-47f8-4b28-80e1-6a608d4fa925","system_id":"levelo_inurba_marseille","lat":43.289184,"lon":5.366408,"is_reserved":false,"is_disabled":false,"rental_uris":{"android":"levelo://app?vid=8d22d227-47f8-4b28-80e1-6a608d4fa925","ios":"levelo://app?vid=8d22d227-47f8-4b28-80e1-6a608d4fa925"},"vehicle_type_id":"4","last_reported":1713211651,"current_range_meters":7600,"station_id":"ce4bhap2rcd13ifvqek0","pricing_plan_id":"cebpf4jnsgd1na2vs0mg"},{"bike_id":"ca965845-45ef-4d38-b82b-0a8f2a138988","system_id":"levelo_inurba_marseille","lat":43.294153,"lon":5.386305,"is_reserved":false,"is_disabled":false,"rental_uris":{"android":"levelo://app?vid=ca965845-45ef-4d38-b82b-0a8f2a138988","ios":"levelo://app?vid=ca965845-45ef-4d38-b82b-0a8f2a138988"},"vehicle_type_id":"4","last_reported":1713211651,"current_range_meters":31200,"station_id":"ce4bh2h2rcd13ifvqdh0","pricing_plan_id":"cebpf4jnsgd1na2vs0mg"},{"bike_id":"ff4f86f4-2879-446a-9256-9cfdb87a2c65","system_id":"levelo_inurba_marseille","lat":43.289184,"lon":5.366408,"is_reserved":false,"is_disabled":false,"rental_uris":{"android":"levelo://app?vid=ff4f86f4-2879-446a-9256-9cfdb87a2c65","ios":"levelo://app?vid=ff4f86f4-2879-446a-9256-9cfdb87a2c65"},"vehicle_type_id":"4","last_reported":1713211651,"current_range_meters":31200,"station_id":"ce4bhap2rcd13ifvqek0","pricing_plan_id":"cebpf4jnsgd1na2vs0mg"},{"bike_id":"2e20d4f6-3fe2-4822-a500-0449dc0eba92","system_id":"levelo_inurba_marseille","lat":43.289184,"lon":5.366408,"is_reserved":false,"is_disabled":false,"rental_uris":{"android":"levelo://app?vid=2e20d4f6-3fe2-4822-a500-0449dc0eba92","ios":"levelo://app?vid=2e20d4f6-3fe2-4822-a500-0449dc0eba92"},"vehicle_type_id":"4","last_reported":1713211651,"current_range_meters":31200,"station_id":"ce4bhap2rcd13ifvqek0","pricing_plan_id":"cebpf4jnsgd1na2vs0mg"},{"bike_id":"4ef6e352-aa53-4a51-a5fd-95f48dc6fe88","system_id":"levelo_inurba_marseille","lat":43.289184,"lon":5.366408,"is_reserved":false,"is_disabled":false,"rental_uris":{"android":"levelo://app?vid=4ef6e352-aa53-4a51-a5fd-95f48dc6fe88","ios":"levelo://app?vid=4ef6e352-aa53-4a51-a5fd-95f48dc6fe88"},"vehicle_type_id":"4","last_reported":1713211651,"current_range_meters":15200,"station_id":"ce4bhap2rcd13ifvqek0","pricing_plan_id":"cebpf4jnsgd1na2vs0mg"},{"bike_id":"d7bd2465-dff6-459a-bdb7-719cb518ba52","system_id":"levelo_inurba_marseille","lat":43.289184,"lon":5.366408,"is_reserved":false,"is_disabled":false,"rental_uris":{"android":"levelo://app?vid=d7bd2465-dff6-459a-bdb7-719cb518ba52","ios":"levelo://app?vid=d7bd2465-dff6-459a-bdb7-719cb518ba52"},"vehicle_type_id":"4","last_reported":1713211651,"current_range_meters":11200,"station_id":"ce4bhap2rcd13ifvqek0","pricing_plan_id":"cebpf4jnsgd1na2vs0mg"},{"bike_id":"4ecc2e7b-fb38-41f7-ae16-123a3587e14a","system_id":"levelo_inurba_marseille","lat":43.28935,"lon":5.36637,"is_reserved":false,"is_disabled":false,"rental_uris":{"android":"levelo://app?vid=4ecc2e7b-fb38-41f7-ae16-123a3587e14a","ios":"levelo://app?vid=4ecc2e7b-fb38-41f7-ae16-123a3587e14a"},"vehicle_type_id":"4","last_reported":1713211651,"current_range_meters":31200,"station_id":"ce4bhap2rcd13ifvqek0","pricing_plan_id":"cebpf4jnsgd1na2vs0mg"},{"bike_id":"b733ab55-0297-466b-96ea-d6b9b9bb51aa","system_id":"levelo_inurba_marseille","lat":43.289323,"lon":5.36638,"is_reserved":false,"is_disabled":false,"rental_uris":{"android":"levelo://app?vid=b733ab55-0297-466b-96ea-d6b9b9bb51aa","ios":"levelo://app?vid=b733ab55-0297-466b-96ea-d6b9b9bb51aa"},"vehicle_type_id":"4","last_reported":1713211651,"current_range_meters":16400,"station_id":"ce4bhap2rcd13ifvqek0","pricing_plan_id":"cebpf4jnsgd1na2vs0mg"},{"bike_id":"9e4c8cf4-6990-414f-bfc9-841e6cbda6c3","system_id":"levelo_inurba_marseille","lat":43.289468,"lon":5.363719,"is_reserved":false,"is_disabled":false,"rental_uris":{"android":"levelo://app?vid=9e4c8cf4-6990-414f-bfc9-841e6cbda6c3","ios":"levelo://app?vid=9e4c8cf4-6990-414f-bfc9-841e6cbda6c3"},"vehicle_type_id":"4","last_reported":1713211651,"current_range_meters":29600,"station_id":"ce4bhc92rcd13ifvqetg","pricing_plan_id":"cebpf4jnsgd1na2vs0mg"},{"bike_id":"a812e7a0-115d-41db-818b-9b9e9a6396a5","system_id":"levelo_inurba_marseille","lat":43.289468,"lon":5.363719,"is_reserved":false,"is_disabled":false,"rental_uris":{"android":"levelo://app?vid=a812e7a0-115d-41db-818b-9b9e9a6396a5","ios":"levelo://app?vid=a812e7a0-115d-41db-818b-9b9e9a6396a5"},"vehicle_type_id":"4","last_reported":1713211651,"current_range_meters":19600,"station_id":"ce4bhc92rcd13ifvqetg","pricing_plan_id":"cebpf4jnsgd1na2vs0mg"},{"bike_id":"429ba5b6-af52-4c76-9d12-8931327fd0b1","system_id":"levelo_inurba_marseille","lat":43.289184,"lon":5.366408,"is_reserved":false,"is_disabled":false,"rental_uris":{"android":"levelo://app?vid=429ba5b6-af52-4c76-9d12-8931327fd0b1","ios":"levelo://app?vid=429ba5b6-af52-4c76-9d12-8931327fd0b1"},"vehicle_type_id":"4","last_reported":1713211651,"current_range_meters":19200,"station_id":"ce4bhap2rcd13ifvqek0","pricing_plan_id":"cebpf4jnsgd1na2vs0mg"},{"bike_id":"4fcd2bf9-f6f1-4739-93eb-3d0539b63487","system_id":"levelo_inurba_marseille","lat":43.289468,"lon":5.363719,"is_reserved":false,"is_disabled":false,"rental_uris":{"android":"levelo://app?vid=4fcd2bf9-f6f1-4739-93eb-3d0539b63487","ios":"levelo://app?vid=4fcd2bf9-f6f1-4739-93eb-3d0539b63487"},"vehicle_type_id":"4","last_reported":1713211651,"current_range_meters":30800,"station_id":"ce4bhc92rcd13ifvqetg","pricing_plan_id":"cebpf4jnsgd1na2vs0mg"},{"bike_id":"564f7e68-c949-47cf-8b44-dd68a717a1d0","system_id":"levelo_inurba_marseille","lat":43.29283,"lon":5.38438,"is_reserved":false,"is_disabled":false,"rental_uris":{"android":"levelo://app?vid=564f7e68-c949-47cf-8b44-dd68a717a1d0","ios":"levelo://app?vid=564f7e68-c949-47cf-8b44-dd68a717a1d0"},"vehicle_type_id":"4","last_reported":1713211651,"current_range_meters":24400,"station_id":"ce4bh692rcd13ifvqea0","pricing_plan_id":"cebpf4jnsgd1na2vs0mg"},{"bike_id":"e6c20d16-3cb9-4798-b78f-63414a981cf2","system_id":"levelo_inurba_marseille","lat":43.292644,"lon":5.384257,"is_reserved":false,"is_disabled":false,"rental_uris":{"android":"levelo://app?vid=e6c20d16-3cb9-4798-b78f-63414a981cf2","ios":"levelo://app?vid=e6c20d16-3cb9-4798-b78f-63414a981cf2"},"vehicle_type_id":"4","last_reported":1713211651,"current_range_meters":18000,"station_id":"ce4bh692rcd13ifvqea0","pricing_plan_id":"cebpf4jnsgd1na2vs0mg"},{"bike_id":"fd6a8d84-1de9-4966-8d52-1638afa45697","system_id":"levelo_inurba_marseille","lat":43.304296,"lon":5.397513,"is_reserved":false,"is_disabled":false,"rental_uris":{"android":"levelo://app?vid=fd6a8d84-1de9-4966-8d52-1638afa45697","ios":"levelo://app?vid=fd6a8d84-1de9-4966-8d52-1638afa45697"},"vehicle_type_id":"4","last_reported":1713211651,"current_range_meters":5200,"station_id":"ce4bh092rcd13ifvqd20","pricing_plan_id":"cebpf4jnsgd1na2vs0mg"},{"bike_id":"6651cbed-03dd-48be-9b04-a2fab70197df","system_id":"levelo_inurba_marseille","lat":43.292644,"lon":5.384257,"is_reserved":false,"is_disabled":false,"rental_uris":{"android":"levelo://app?vid=6651cbed-03dd-48be-9b04-a2fab70197df","ios":"levelo://app?vid=6651cbed-03dd-48be-9b04-a2fab70197df"},"vehicle_type_id":"4","last_reported":1713211651,"current_range_meters":18000,"station_id":"ce4bh692rcd13ifvqea0","pricing_plan_id":"cebpf4jnsgd1na2vs0mg"},{"bike_id":"51d821ce-db2f-4dbd-acb5-63ab4a4adcb1","system_id":"levelo_inurba_marseille","lat":43.304296,"lon":5.397513,"is_reserved":false,"is_disabled":false,"rental_uris":{"android":"levelo://app?vid=51d821ce-db2f-4dbd-acb5-63ab4a4adcb1","ios":"levelo://app?vid=51d821ce-db2f-4dbd-acb5-63ab4a4adcb1"},"vehicle_type_id":"4","last_reported":1713211651,"current_range_meters":24800,"station_id":"ce4bh092rcd13ifvqd20","pricing_plan_id":"cebpf4jnsgd1na2vs0mg"},{"bike_id":"9619be94-3cd3-4251-bbbe-d08cf36237d9","system_id":"levelo_inurba_marseille","lat":43.292644,"lon":5.384257,"is_reserved":false,"is_disabled":false,"rental_uris":{"android":"levelo://app?vid=9619be94-3cd3-4251-bbbe-d08cf36237d9","ios":"levelo://app?vid=9619be94-3cd3-4251-bbbe-d08cf36237d9"},"vehicle_type_id":"4","last_reported":1713211651,"current_range_meters":14000,"station_id":"ce4bh692rcd13ifvqea0","pricing_plan_id":"cebpf4jnsgd1na2vs0mg"},{"bike_id":"fda20685-041d-4108-a76a-f02410b283f0","system_id":"levelo_inurba_marseille","lat":43.292644,"lon":5.384257,"is_reserved":false,"is_disabled":false,"rental_uris":{"android":"levelo://app?vid=fda20685-041d-4108-a76a-f02410b283f0","ios":"levelo://app?vid=fda20685-041d-4108-a76a-f02410b283f0"},"vehicle_type_id":"4","last_reported":1713211651,"current_range_meters":25600,"station_id":"ce4bh692rcd13ifvqea0","pricing_plan_id":"cebpf4jnsgd1na2vs0mg"},{"bike_id":"9ce38f7a-0e36-4518-9d35-ce13b20727ce","system_id":"levelo_inurba_marseille","lat":43.292644,"lon":5.384257,"is_reserved":false,"is_disabled":false,"rental_uris":{"android":"levelo://app?vid=9ce38f7a-0e36-4518-9d35-ce13b20727ce","ios":"levelo://app?vid=9ce38f7a-0e36-4518-9d35-ce13b20727ce"},"vehicle_type_id":"4","last_reported":1713211651,"current_range_meters":7600,"station_id":"ce4bh692rcd13ifvqea0","pricing_plan_id":"cebpf4jnsgd1na2vs0mg"},{"bike_id":"4a1f82a1-4b37-41ec-a9a9-edf9af3e72d4","system_id":"levelo_inurba_marseille","lat":43.292644,"lon":5.384257,"is_reserved":false,"is_disabled":false,"rental_uris":{"android":"levelo://app?vid=4a1f82a1-4b37-41ec-a9a9-edf9af3e72d4","ios":"levelo://app?vid=4a1f82a1-4b37-41ec-a9a9-edf9af3e72d4"},"vehicle_type_id":"4","last_reported":1713211651,"current_range_meters":5200,"station_id":"ce4bh692rcd13ifvqea0","pricing_plan_id":"cebpf4jnsgd1na2vs0mg"},{"bike_id":"63607d04-05b9-44c4-8d7f-54a0bc05d45a","system_id":"levelo_inurba_marseille","lat":43.292644,"lon":5.384257,"is_reserved":false,"is_disabled":false,"rental_uris":{"android":"levelo://app?vid=63607d04-05b9-44c4-8d7f-54a0bc05d45a","ios":"levelo://app?vid=63607d04-05b9-44c4-8d7f-54a0bc05d45a"},"vehicle_type_id":"4","last_reported":1713211651,"current_range_meters":30800,"station_id":"ce4bh692rcd13ifvqea0","pricing_plan_id":"cebpf4jnsgd1na2vs0mg"},{"bike_id":"d7b77ffd-1279-44b2-9bba-fa16ae89141a","system_id":"levelo_inurba_marseille","lat":43.292644,"lon":5.384257,"is_reserved":false,"is_disabled":false,"rental_uris":{"android":"levelo://app?vid=d7b77ffd-1279-44b2-9bba-fa16ae89141a","ios":"levelo://app?vid=d7b77ffd-1279-44b2-9bba-fa16ae89141a"},"vehicle_type_id":"4","last_reported":1713211651,"current_range_meters":5200,"station_id":"ce4bh692rcd13ifvqea0","pricing_plan_id":"cebpf4jnsgd1na2vs0mg"},{"bike_id":"83064909-b70b-4f99-b885-c44c28f53069","system_id":"levelo_inurba_marseille","lat":43.292644,"lon":5.384257,"is_reserved":false,"is_disabled":false,"rental_uris":{"android":"levelo://app?vid=83064909-b70b-4f99-b885-c44c28f53069","ios":"levelo://app?vid=83064909-b70b-4f99-b885-c44c28f53069"},"vehicle_type_id":"4","last_reported":1713211651,"current_range_meters":31200,"station_id":"ce4bh692rcd13ifvqea0","pricing_plan_id":"cebpf4jnsgd1na2vs0mg"},{"bike_id":"4b8d2c28-f7bc-4bae-a417-84940ceb83fe","system_id":"levelo_inurba_marseille","lat":43.292692,"lon":5.384504,"is_reserved":false,"is_disabled":false,"rental_uris":{"android":"levelo://app?vid=4b8d2c28-f7bc-4bae-a417-84940ceb83fe","ios":"levelo://app?vid=4b8d2c28-f7bc-4bae-a417-84940ceb83fe"},"vehicle_type_id":"4","last_reported":1713211651,"current_range_meters":26000,"station_id":"ce4bh692rcd13ifvqea0","pricing_plan_id":"cebpf4jnsgd1na2vs0mg"},{"bike_id":"6ace826f-dd50-4eda-96a3-c2db9a487939","system_id":"levelo_inurba_marseille","lat":43.292644,"lon":5.384257,"is_reserved":false,"is_disabled":false,"rental_uris":{"android":"levelo://app?vid=6ace826f-dd50-4eda-96a3-c2db9a487939","ios":"levelo://app?vid=6ace826f-dd50-4eda-96a3-c2db9a487939"},"vehicle_type_id":"4","last_reported":1713211651,"current_range_meters":30400,"station_id":"ce4bh692rcd13ifvqea0","pricing_plan_id":"cebpf4jnsgd1na2vs0mg"},{"bike_id":"1637f6bf-099e-4260-a8e9-b397b0fee2d5","system_id":"levelo_inurba_marseille","lat":43.29265,"lon":5.38444,"is_reserved":false,"is_disabled":false,"rental_uris":{"android":"levelo://app?vid=1637f6bf-099e-4260-a8e9-b397b0fee2d5","ios":"levelo://app?vid=1637f6bf-099e-4260-a8e9-b397b0fee2d5"},"vehicle_type_id":"4","last_reported":1713211651,"current_range_meters":31200,"station_id":"ce4bh692rcd13ifvqea0","pricing_plan_id":"cebpf4jnsgd1na2vs0mg"},{"bike_id":"07629a91-fb2a-4419-9c4a-cd7ac7bd5c27","system_id":"levelo_inurba_marseille","lat":43.292644,"lon":5.384257,"is_reserved":false,"is_disabled":false,"rental_uris":{"android":"levelo://app?vid=07629a91-fb2a-4419-9c4a-cd7ac7bd5c27","ios":"levelo://app?vid=07629a91-fb2a-4419-9c4a-cd7ac7bd5c27"},"vehicle_type_id":"4","last_reported":1713211651,"current_range_meters":29600,"station_id":"ce4bh692rcd13ifvqea0","pricing_plan_id":"cebpf4jnsgd1na2vs0mg"},{"bike_id":"562d8d6e-cc1f-40eb-ab5e-19845ec1d206","system_id":"levelo_inurba_marseille","lat":43.292644,"lon":5.384257,"is_reserved":false,"is_disabled":false,"rental_uris":{"android":"levelo://app?vid=562d8d6e-cc1f-40eb-ab5e-19845ec1d206","ios":"levelo://app?vid=562d8d6e-cc1f-40eb-ab5e-19845ec1d206"},"vehicle_type_id":"4","last_reported":1713211651,"current_range_meters":13200,"station_id":"ce4bh692rcd13ifvqea0","pricing_plan_id":"cebpf4jnsgd1na2vs0mg"},{"bike_id":"bd504802-cdc5-43f4-836a-dc90ba229c8c","system_id":"levelo_inurba_marseille","lat":43.292644,"lon":5.384257,"is_reserved":false,"is_disabled":false,"rental_uris":{"android":"levelo://app?vid=bd504802-cdc5-43f4-836a-dc90ba229c8c","ios":"levelo://app?vid=bd504802-cdc5-43f4-836a-dc90ba229c8c"},"vehicle_type_id":"4","last_reported":1713211651,"current_range_meters":2800,"station_id":"ce4bh692rcd13ifvqea0","pricing_plan_id":"cebpf4jnsgd1na2vs0mg"},{"bike_id":"8d9e83dd-e03c-4ddb-9f8f-c9f4ced11d03","system_id":"levelo_inurba_marseille","lat":43.292644,"lon":5.384257,"is_reserved":false,"is_disabled":false,"rental_uris":{"android":"levelo://app?vid=8d9e83dd-e03c-4ddb-9f8f-c9f4ced11d03","ios":"levelo://app?vid=8d9e83dd-e03c-4ddb-9f8f-c9f4ced11d03"},"vehicle_type_id":"4","last_reported":1713211651,"current_range_meters":2000,"station_id":"ce4bh692rcd13ifvqea0","pricing_plan_id":"cebpf4jnsgd1na2vs0mg"},{"bike_id":"0e924bb0-9864-4a6d-90e7-64af4219b805","system_id":"levelo_inurba_marseille","lat":43.294162,"lon":5.386292,"is_reserved":false,"is_disabled":false,"rental_uris":{"android":"levelo://app?vid=0e924bb0-9864-4a6d-90e7-64af4219b805","ios":"levelo://app?vid=0e924bb0-9864-4a6d-90e7-64af4219b805"},"vehicle_type_id":"4","last_reported":1713211651,"current_range_meters":12800,"station_id":"ce4bh2h2rcd13ifvqdh0","pricing_plan_id":"cebpf4jnsgd1na2vs0mg"},{"bike_id":"cbcc5156-aca1-46e3-b0b6-b32e0b772ba9","system_id":"levelo_inurba_marseille","lat":43.290103,"lon":5.356114,"is_reserved":false,"is_disabled":false,"rental_uris":{"android":"levelo://app?vid=cbcc5156-aca1-46e3-b0b6-b32e0b772ba9","ios":"levelo://app?vid=cbcc5156-aca1-46e3-b0b6-b32e0b772ba9"},"vehicle_type_id":"4","last_reported":1713211651,"current_range_meters":15200,"station_id":"ce4bhb92rcd13ifvqen0","pricing_plan_id":"cebpf4jnsgd1na2vs0mg"},{"bike_id":"e9536e85-59b0-42d5-b8ea-3531dc98ca17","system_id":"levelo_inurba_marseille","lat":43.29099,"lon":5.38147,"is_reserved":false,"is_disabled":false,"rental_uris":{"android":"levelo://app?vid=e9536e85-59b0-42d5-b8ea-3531dc98ca17","ios":"levelo://app?vid=e9536e85-59b0-42d5-b8ea-3531dc98ca17"},"vehicle_type_id":"4","last_reported":1713211651,"current_range_meters":0,"station_id":"ce4bh512rcd13ifvqe2g","pricing_plan_id":"cebpf4jnsgd1na2vs0mg"},{"bike_id":"c18b634a-562d-43c5-b7d1-e9b258348e0a","system_id":"levelo_inurba_marseille","lat":43.28917,"lon":5.375133,"is_reserved":false,"is_disabled":false,"rental_uris":{"android":"levelo://app?vid=c18b634a-562d-43c5-b7d1-e9b258348e0a","ios":"levelo://app?vid=c18b634a-562d-43c5-b7d1-e9b258348e0a"},"vehicle_type_id":"4","last_reported":1713211651,"current_range_meters":27600,"station_id":"","pricing_plan_id":"cebpf4jnsgd1na2vs0mg"},{"bike_id":"d9611923-0b3a-4990-8f32-e503fb6c6c70","system_id":"levelo_inurba_marseille","lat":43.297815,"lon":5.393548,"is_reserved":false,"is_disabled":false,"rental_uris":{"android":"levelo://app?vid=d9611923-0b3a-4990-8f32-e503fb6c6c70","ios":"levelo://app?vid=d9611923-0b3a-4990-8f32-e503fb6c6c70"},"vehicle_type_id":"4","last_reported":1713211651,"current_range_meters":4800,"station_id":"chh1huq6cuj3fo74tm60","pricing_plan_id":"cebpf4jnsgd1na2vs0mg"},{"bike_id":"8e35ce69-5437-402a-b208-dac0a7311958","system_id":"levelo_inurba_marseille","lat":43.29789,"lon":5.39342,"is_reserved":false,"is_disabled":false,"rental_uris":{"android":"levelo://app?vid=8e35ce69-5437-402a-b208-dac0a7311958","ios":"levelo://app?vid=8e35ce69-5437-402a-b208-dac0a7311958"},"vehicle_type_id":"4","last_reported":1713211651,"current_range_meters":12000,"station_id":"chh1huq6cuj3fo74tm60","pricing_plan_id":"cebpf4jnsgd1na2vs0mg"},{"bike_id":"d5526f33-9c06-4532-bae4-c351fb03568d","system_id":"levelo_inurba_marseille","lat":43.297815,"lon":5.393548,"is_reserved":false,"is_disabled":false,"rental_uris":{"android":"levelo://app?vid=d5526f33-9c06-4532-bae4-c351fb03568d","ios":"levelo://app?vid=d5526f33-9c06-4532-bae4-c351fb03568d"},"vehicle_type_id":"4","last_reported":1713211651,"current_range_meters":2000,"station_id":"chh1huq6cuj3fo74tm60","pricing_plan_id":"cebpf4jnsgd1na2vs0mg"},{"bike_id":"4c60ee92-5f9f-4599-82fe-dab8faf494fe","system_id":"levelo_inurba_marseille","lat":43.297815,"lon":5.393548,"is_reserved":false,"is_disabled":false,"rental_uris":{"android":"levelo://app?vid=4c60ee92-5f9f-4599-82fe-dab8faf494fe","ios":"levelo://app?vid=4c60ee92-5f9f-4599-82fe-dab8faf494fe"},"vehicle_type_id":"4","last_reported":1713211651,"current_range_meters":25600,"station_id":"chh1huq6cuj3fo74tm60","pricing_plan_id":"cebpf4jnsgd1na2vs0mg"},{"bike_id":"b4d4d2ab-43c2-498c-bde6-4fe8c9194a29","system_id":"levelo_inurba_marseille","lat":43.297815,"lon":5.393548,"is_reserved":false,"is_disabled":false,"rental_uris":{"android":"levelo://app?vid=b4d4d2ab-43c2-498c-bde6-4fe8c9194a29","ios":"levelo://app?vid=b4d4d2ab-43c2-498c-bde6-4fe8c9194a29"},"vehicle_type_id":"4","last_reported":1713211651,"current_range_meters":400,"station_id":"chh1huq6cuj3fo74tm60","pricing_plan_id":"cebpf4jnsgd1na2vs0mg"},{"bike_id":"7ef4110b-3ca2-495c-bd79-45131256f7f4","system_id":"levelo_inurba_marseille","lat":43.297814,"lon":5.393513,"is_reserved":false,"is_disabled":false,"rental_uris":{"android":"levelo://app?vid=7ef4110b-3ca2-495c-bd79-45131256f7f4","ios":"levelo://app?vid=7ef4110b-3ca2-495c-bd79-45131256f7f4"},"vehicle_type_id":"4","last_reported":1713211651,"current_range_meters":26800,"station_id":"chh1huq6cuj3fo74tm60","pricing_plan_id":"cebpf4jnsgd1na2vs0mg"},{"bike_id":"8b0eaab4-28bc-4a65-bb15-3ab464270699","system_id":"levelo_inurba_marseille","lat":43.330442,"lon":5.389148,"is_reserved":false,"is_disabled":false,"rental_uris":{"android":"levelo://app?vid=8b0eaab4-28bc-4a65-bb15-3ab464270699","ios":"levelo://app?vid=8b0eaab4-28bc-4a65-bb15-3ab464270699"},"vehicle_type_id":"4","last_reported":1713211651,"current_range_meters":6400,"station_id":"ce4bhr92rcd13ifvqhrg","pricing_plan_id":"cebpf4jnsgd1na2vs0mg"},{"bike_id":"7b49ccc3-9a94-4c05-8ea2-ff47c959e9d1","system_id":"levelo_inurba_marseille","lat":43.295169,"lon":5.390426,"is_reserved":false,"is_disabled":false,"rental_uris":{"android":"levelo://app?vid=7b49ccc3-9a94-4c05-8ea2-ff47c959e9d1","ios":"levelo://app?vid=7b49ccc3-9a94-4c05-8ea2-ff47c959e9d1"},"vehicle_type_id":"4","last_reported":1713211651,"current_range_meters":15600,"station_id":"ce4bh3p2rcd13ifvqdp0","pricing_plan_id":"cebpf4jnsgd1na2vs0mg"},{"bike_id":"e7870f04-9946-47af-b326-e15da4a91b34","system_id":"levelo_inurba_marseille","lat":43.330442,"lon":5.389148,"is_reserved":false,"is_disabled":false,"rental_uris":{"android":"levelo://app?vid=e7870f04-9946-47af-b326-e15da4a91b34","ios":"levelo://app?vid=e7870f04-9946-47af-b326-e15da4a91b34"},"vehicle_type_id":"4","last_reported":1713211651,"current_range_meters":12400,"station_id":"ce4bhr92rcd13ifvqhrg","pricing_plan_id":"cebpf4jnsgd1na2vs0mg"},{"bike_id":"d5c2a283-3dd1-4094-a43b-cf4fd5e8c9a3","system_id":"levelo_inurba_marseille","lat":43.295169,"lon":5.390426,"is_reserved":false,"is_disabled":false,"rental_uris":{"android":"levelo://app?vid=d5c2a283-3dd1-4094-a43b-cf4fd5e8c9a3","ios":"levelo://app?vid=d5c2a283-3dd1-4094-a43b-cf4fd5e8c9a3"},"vehicle_type_id":"4","last_reported":1713211651,"current_range_meters":8000,"station_id":"ce4bh3p2rcd13ifvqdp0","pricing_plan_id":"cebpf4jnsgd1na2vs0mg"},{"bike_id":"87d5aebc-93be-48af-b3fb-cc63993a90e7","system_id":"levelo_inurba_marseille","lat":43.330442,"lon":5.389148,"is_reserved":false,"is_disabled":false,"rental_uris":{"android":"levelo://app?vid=87d5aebc-93be-48af-b3fb-cc63993a90e7","ios":"levelo://app?vid=87d5aebc-93be-48af-b3fb-cc63993a90e7"},"vehicle_type_id":"4","last_reported":1713211651,"current_range_meters":8000,"station_id":"ce4bhr92rcd13ifvqhrg","pricing_plan_id":"cebpf4jnsgd1na2vs0mg"},{"bike_id":"15c4ffef-cec6-45ea-a971-8d1dbac7e9fb","system_id":"levelo_inurba_marseille","lat":43.295169,"lon":5.390426,"is_reserved":false,"is_disabled":false,"rental_uris":{"android":"levelo://app?vid=15c4ffef-cec6-45ea-a971-8d1dbac7e9fb","ios":"levelo://app?vid=15c4ffef-cec6-45ea-a971-8d1dbac7e9fb"},"vehicle_type_id":"4","last_reported":1713211651,"current_range_meters":8800,"station_id":"ce4bh3p2rcd13ifvqdp0","pricing_plan_id":"cebpf4jnsgd1na2vs0mg"},{"bike_id":"5c3035fb-e444-43b5-b5e5-746aa24a6eb9","system_id":"levelo_inurba_marseille","lat":43.33025,"lon":5.39042,"is_reserved":false,"is_disabled":false,"rental_uris":{"android":"levelo://app?vid=5c3035fb-e444-43b5-b5e5-746aa24a6eb9","ios":"levelo://app?vid=5c3035fb-e444-43b5-b5e5-746aa24a6eb9"},"vehicle_type_id":"4","last_reported":1713211651,"current_range_meters":0,"station_id":"ce4bhr92rcd13ifvqhrg","pricing_plan_id":"cebpf4jnsgd1na2vs0mg"},{"bike_id":"9c1c16cd-6359-46bd-aaf9-b0fc26dfc518","system_id":"levelo_inurba_marseille","lat":43.330442,"lon":5.389148,"is_reserved":false,"is_disabled":false,"rental_uris":{"android":"levelo://app?vid=9c1c16cd-6359-46bd-aaf9-b0fc26dfc518","ios":"levelo://app?vid=9c1c16cd-6359-46bd-aaf9-b0fc26dfc518"},"vehicle_type_id":"4","last_reported":1713211651,"current_range_meters":18400,"station_id":"ce4bhr92rcd13ifvqhrg","pricing_plan_id":"cebpf4jnsgd1na2vs0mg"},{"bike_id":"4f604173-41fe-45bf-be84-74ba130afab8","system_id":"levelo_inurba_marseille","lat":43.330442,"lon":5.389148,"is_reserved":false,"is_disabled":false,"rental_uris":{"android":"levelo://app?vid=4f604173-41fe-45bf-be84-74ba130afab8","ios":"levelo://app?vid=4f604173-41fe-45bf-be84-74ba130afab8"},