{"last_updated":1703318889,"ttl":30,"version":"2.2","data":{"bikes":[{"bike_id":"115918ad-03be-4a9f-9e8b-13d77d784a34","system_id":"levelo_inurba_marseille","lat":43.313391,"lon":5.36706,"is_reserved":false,"is_disabled":false,"rental_uris":{"android":"levelo://app?vid=115918ad-03be-4a9f-9e8b-13d77d784a34","ios":"levelo://app?vid=115918ad-03be-4a9f-9e8b-13d77d784a34"},"vehicle_type_id":"4","last_reported":1703318889,"current_range_meters":28400,"station_id":"ce4bgr92rcd13ifvqc6g","pricing_plan_id":"free"},{"bike_id":"9d8db9d4-b6f4-46d3-8619-672e6448567c","system_id":"levelo_inurba_marseille","lat":43.314811,"lon":5.373103,"is_reserved":false,"is_disabled":false,"rental_uris":{"android":"levelo://app?vid=9d8db9d4-b6f4-46d3-8619-672e6448567c","ios":"levelo://app?vid=9d8db9d4-b6f4-46d3-8619-672e6448567c"},"vehicle_type_id":"4","last_reported":1703318889,"current_range_meters":31600,"station_id":"ce4bgt12rcd13ifvqcd0","pricing_plan_id":"free"},{"bike_id":"d37d52c6-a1eb-4740-a5cc-e7935cd603f0","system_id":"levelo_inurba_marseille","lat":43.314811,"lon":5.373103,"is_reserved":false,"is_disabled":false,"rental_uris":{"android":"levelo://app?vid=d37d52c6-a1eb-4740-a5cc-e7935cd603f0","ios":"levelo://app?vid=d37d52c6-a1eb-4740-a5cc-e7935cd603f0"},"vehicle_type_id":"4","last_reported":1703318889,"current_range_meters":27600,"station_id":"ce4bgt12rcd13ifvqcd0","pricing_plan_id":"free"},{"bike_id":"6ae4207f-8636-4a39-9f61-d258e839c5cd","system_id":"levelo_inurba_marseille","lat":43.314811,"lon":5.373103,"is_reserved":false,"is_disabled":false,"rental_uris":{"android":"levelo://app?vid=6ae4207f-8636-4a39-9f61-d258e839c5cd","ios":"levelo://app?vid=6ae4207f-8636-4a39-9f61-d258e839c5cd"},"vehicle_type_id":"4","last_reported":1703318889,"current_range_meters":27200,"station_id":"ce4bgt12rcd13ifvqcd0","pricing_plan_id":"free"},{"bike_id":"ba80b7ba-6823-440b-94dc-c43a20b7702a","system_id":"levelo_inurba_marseille","lat":43.309039,"lon":5.371797,"is_reserved":false,"is_disabled":false,"rental_uris":{"android":"levelo://app?vid=ba80b7ba-6823-440b-94dc-c43a20b7702a","ios":"levelo://app?vid=ba80b7ba-6823-440b-94dc-c43a20b7702a"},"vehicle_type_id":"4","last_reported":1703318889,"current_range_meters":23600,"station_id":"ce4bguh2rcd13ifvqckg","pricing_plan_id":"free"},{"bike_id":"23cdca1a-aa66-4ec9-af35-bc12632f8dab","system_id":"levelo_inurba_marseille","lat":43.305488,"lon":5.366988,"is_reserved":false,"is_disabled":false,"rental_uris":{"android":"levelo://app?vid=23cdca1a-aa66-4ec9-af35-bc12632f8dab","ios":"levelo://app?vid=23cdca1a-aa66-4ec9-af35-bc12632f8dab"},"vehicle_type_id":"4","last_reported":1703318889,"current_range_meters":21200,"station_id":"ce4bgrp2rcd13ifvqc9g","pricing_plan_id":"free"},{"bike_id":"eb6cfa3e-f2b9-4965-bb0d-8980c14fdbf4","system_id":"levelo_inurba_marseille","lat":43.305714,"lon":5.365633,"is_reserved":false,"is_disabled":false,"rental_uris":{"android":"levelo://app?vid=eb6cfa3e-f2b9-4965-bb0d-8980c14fdbf4","ios":"levelo://app?vid=eb6cfa3e-f2b9-4965-bb0d-8980c14fdbf4"},"vehicle_type_id":"4","last_reported":1703318889,"current_range_meters":26800,"station_id":"ce4bgs12rcd13ifvqcag","pricing_plan_id":"free"},{"bike_id":"409b3a97-1b8e-4baa-aa09-1615647588f8","system_id":"levelo_inurba_marseille","lat":43.305714,"lon":5.365633,"is_reserved":false,"is_disabled":false,"rental_uris":{"android":"levelo://app?vid=409b3a97-1b8e-4baa-aa09-1615647588f8","ios":"levelo://app?vid=409b3a97-1b8e-4baa-aa09-1615647588f8"},"vehicle_type_id":"4","last_reported":1703318889,"current_range_meters":13200,"station_id":"ce4bgs12rcd13ifvqcag","pricing_plan_id":"free"},{"bike_id":"2b896152-2c33-4948-9333-8dbaad69cbcf","system_id":"levelo_inurba_marseille","lat":43.30535,"lon":5.3672,"is_reserved":false,"is_disabled":false,"rental_uris":{"android":"levelo://app?vid=2b896152-2c33-4948-9333-8dbaad69cbcf","ios":"levelo://app?vid=2b896152-2c33-4948-9333-8dbaad69cbcf"},"vehicle_type_id":"4","last_reported":1703318889,"current_range_meters":2800,"station_id":"ce4bgrp2rcd13ifvqc9g","pricing_plan_id":"free"},{"bike_id":"46e18457-1f9c-492a-8ec1-f799722beaf1","system_id":"levelo_inurba_marseille","lat":43.305706,"lon":5.365654,"is_reserved":false,"is_disabled":false,"rental_uris":{"android":"levelo://app?vid=46e18457-1f9c-492a-8ec1-f799722beaf1","ios":"levelo://app?vid=46e18457-1f9c-492a-8ec1-f799722beaf1"},"vehicle_type_id":"4","last_reported":1703318889,"current_range_meters":28000,"station_id":"ce4bgs12rcd13ifvqcag","pricing_plan_id":"free"},{"bike_id":"b1c79d26-475e-4c7c-8d57-97d0b67bc6de","system_id":"levelo_inurba_marseille","lat":43.305706,"lon":5.365654,"is_reserved":false,"is_disabled":false,"rental_uris":{"android":"levelo://app?vid=b1c79d26-475e-4c7c-8d57-97d0b67bc6de","ios":"levelo://app?vid=b1c79d26-475e-4c7c-8d57-97d0b67bc6de"},"vehicle_type_id":"4","last_reported":1703318889,"current_range_meters":27600,"station_id":"ce4bgs12rcd13ifvqcag","pricing_plan_id":"free"},{"bike_id":"ec2b5de0-eb64-4028-80c1-a0fa8b9b1a6f","system_id":"levelo_inurba_marseille","lat":43.305989,"lon":5.37225,"is_reserved":false,"is_disabled":false,"rental_uris":{"android":"levelo://app?vid=ec2b5de0-eb64-4028-80c1-a0fa8b9b1a6f","ios":"levelo://app?vid=ec2b5de0-eb64-4028-80c1-a0fa8b9b1a6f"},"vehicle_type_id":"4","last_reported":1703318889,"current_range_meters":20800,"station_id":"ce4bgqh2rcd13ifvqc4g","pricing_plan_id":"free"},{"bike_id":"1ee807f0-3368-4398-8e86-ca0e66ee5c95","system_id":"levelo_inurba_marseille","lat":43.311125,"lon":5.377624,"is_reserved":false,"is_disabled":false,"rental_uris":{"android":"levelo://app?vid=1ee807f0-3368-4398-8e86-ca0e66ee5c95","ios":"levelo://app?vid=1ee807f0-3368-4398-8e86-ca0e66ee5c95"},"vehicle_type_id":"4","last_reported":1703318889,"current_range_meters":29600,"station_id":"ce4bgt92rcd13ifvqcg0","pricing_plan_id":"free"},{"bike_id":"c363c187-2af6-4541-ae33-5cf16fd350b6","system_id":"levelo_inurba_marseille","lat":43.311125,"lon":5.377624,"is_reserved":false,"is_disabled":false,"rental_uris":{"android":"levelo://app?vid=c363c187-2af6-4541-ae33-5cf16fd350b6","ios":"levelo://app?vid=c363c187-2af6-4541-ae33-5cf16fd350b6"},"vehicle_type_id":"4","last_reported":1703318889,"current_range_meters":25600,"station_id":"ce4bgt92rcd13ifvqcg0","pricing_plan_id":"free"},{"bike_id":"18fb804d-f013-4955-a729-b0ee833aa8a4","system_id":"levelo_inurba_marseille","lat":43.311125,"lon":5.377624,"is_reserved":false,"is_disabled":false,"rental_uris":{"android":"levelo://app?vid=18fb804d-f013-4955-a729-b0ee833aa8a4","ios":"levelo://app?vid=18fb804d-f013-4955-a729-b0ee833aa8a4"},"vehicle_type_id":"4","last_reported":1703318889,"current_range_meters":30000,"station_id":"ce4bgt92rcd13ifvqcg0","pricing_plan_id":"free"},{"bike_id":"6f7aa627-f5ad-433e-997f-b0f3c79c8fb5","system_id":"levelo_inurba_marseille","lat":43.311125,"lon":5.377624,"is_reserved":false,"is_disabled":false,"rental_uris":{"android":"levelo://app?vid=6f7aa627-f5ad-433e-997f-b0f3c79c8fb5","ios":"levelo://app?vid=6f7aa627-f5ad-433e-997f-b0f3c79c8fb5"},"vehicle_type_id":"4","last_reported":1703318889,"current_range_meters":28400,"station_id":"ce4bgt92rcd13ifvqcg0","pricing_plan_id":"free"},{"bike_id":"bc74c432-90ab-4b82-bc0b-9716a4ccf6b2","system_id":"levelo_inurba_marseille","lat":43.317075,"lon":5.377367,"is_reserved":false,"is_disabled":false,"rental_uris":{"android":"levelo://app?vid=bc74c432-90ab-4b82-bc0b-9716a4ccf6b2","ios":"levelo://app?vid=bc74c432-90ab-4b82-bc0b-9716a4ccf6b2"},"vehicle_type_id":"4","last_reported":1703318889,"current_range_meters":16800,"station_id":"ce4bgth2rcd13ifvqch0","pricing_plan_id":"free"},{"bike_id":"f4784da9-1253-4dfc-b6ac-01221adfcbc9","system_id":"levelo_inurba_marseille","lat":43.30803,"lon":5.38157,"is_reserved":false,"is_disabled":false,"rental_uris":{"android":"levelo://app?vid=f4784da9-1253-4dfc-b6ac-01221adfcbc9","ios":"levelo://app?vid=f4784da9-1253-4dfc-b6ac-01221adfcbc9"},"vehicle_type_id":"4","last_reported":1703318889,"current_range_meters":30000,"station_id":"ce4bgt12rcd13ifvqce0","pricing_plan_id":"free"},{"bike_id":"c298fa79-23bb-4b05-8872-b15c79610e4a","system_id":"levelo_inurba_marseille","lat":43.308012,"lon":5.381511,"is_reserved":false,"is_disabled":false,"rental_uris":{"android":"levelo://app?vid=c298fa79-23bb-4b05-8872-b15c79610e4a","ios":"levelo://app?vid=c298fa79-23bb-4b05-8872-b15c79610e4a"},"vehicle_type_id":"4","last_reported":1703318889,"current_range_meters":24800,"station_id":"ce4bgt12rcd13ifvqce0","pricing_plan_id":"free"},{"bike_id":"3604b394-5b01-421c-b249-ec53cc38bcb5","system_id":"levelo_inurba_marseille","lat":43.30467,"lon":5.37898,"is_reserved":false,"is_disabled":false,"rental_uris":{"android":"levelo://app?vid=3604b394-5b01-421c-b249-ec53cc38bcb5","ios":"levelo://app?vid=3604b394-5b01-421c-b249-ec53cc38bcb5"},"vehicle_type_id":"4","last_reported":1703318889,"current_range_meters":31200,"station_id":"ce4bgup2rcd13ifvqcn0","pricing_plan_id":"free"},{"bike_id":"be64b527-3eeb-4266-8e88-23c48cdc7567","system_id":"levelo_inurba_marseille","lat":43.30466,"lon":5.379,"is_reserved":false,"is_disabled":false,"rental_uris":{"android":"levelo://app?vid=be64b527-3eeb-4266-8e88-23c48cdc7567","ios":"levelo://app?vid=be64b527-3eeb-4266-8e88-23c48cdc7567"},"vehicle_type_id":"4","last_reported":1703318889,"current_range_meters":7200,"station_id":"ce4bgup2rcd13ifvqcn0","pricing_plan_id":"free"},{"bike_id":"a4fcf0a2-cf89-4959-8c0a-1673b1020f39","system_id":"levelo_inurba_marseille","lat":43.30463,"lon":5.37898,"is_reserved":false,"is_disabled":false,"rental_uris":{"android":"levelo://app?vid=a4fcf0a2-cf89-4959-8c0a-1673b1020f39","ios":"levelo://app?vid=a4fcf0a2-cf89-4959-8c0a-1673b1020f39"},"vehicle_type_id":"4","last_reported":1703318889,"current_range_meters":30800,"station_id":"ce4bgup2rcd13ifvqcn0","pricing_plan_id":"free"},{"bike_id":"a4e42992-7ed2-4fa8-bf9d-9b0ec79f3a5c","system_id":"levelo_inurba_marseille","lat":43.304606,"lon":5.379026,"is_reserved":false,"is_disabled":false,"rental_uris":{"android":"levelo://app?vid=a4e42992-7ed2-4fa8-bf9d-9b0ec79f3a5c","ios":"levelo://app?vid=a4e42992-7ed2-4fa8-bf9d-9b0ec79f3a5c"},"vehicle_type_id":"4","last_reported":1703318889,"current_range_meters":30000,"station_id":"ce4bgup2rcd13ifvqcn0","pricing_plan_id":"free"},{"bike_id":"76c78339-b62e-4966-ab5a-af817a9c8a8b","system_id":"levelo_inurba_marseille","lat":43.304606,"lon":5.37896,"is_reserved":false,"is_disabled":false,"rental_uris":{"android":"levelo://app?vid=76c78339-b62e-4966-ab5a-af817a9c8a8b","ios":"levelo://app?vid=76c78339-b62e-4966-ab5a-af817a9c8a8b"},"vehicle_type_id":"4","last_reported":1703318889,"current_range_meters":6800,"station_id":"ce4bgup2rcd13ifvqcn0","pricing_plan_id":"free"},{"bike_id":"08e6a90e-eb43-4213-be49-66d002094b12","system_id":"levelo_inurba_marseille","lat":43.304612,"lon":5.378992,"is_reserved":false,"is_disabled":false,"rental_uris":{"android":"levelo://app?vid=08e6a90e-eb43-4213-be49-66d002094b12","ios":"levelo://app?vid=08e6a90e-eb43-4213-be49-66d002094b12"},"vehicle_type_id":"4","last_reported":1703318889,"current_range_meters":31200,"station_id":"ce4bgup2rcd13ifvqcn0","pricing_plan_id":"free"},{"bike_id":"31a1fed4-c9ad-4ea8-83d3-9d5d6e18aa3d","system_id":"levelo_inurba_marseille","lat":43.304606,"lon":5.379026,"is_reserved":false,"is_disabled":false,"rental_uris":{"android":"levelo://app?vid=31a1fed4-c9ad-4ea8-83d3-9d5d6e18aa3d","ios":"levelo://app?vid=31a1fed4-c9ad-4ea8-83d3-9d5d6e18aa3d"},"vehicle_type_id":"4","last_reported":1703318889,"current_range_meters":21600,"station_id":"ce4bgup2rcd13ifvqcn0","pricing_plan_id":"free"},{"bike_id":"e74918d6-a723-4531-9b72-900020f9c7ea","system_id":"levelo_inurba_marseille","lat":43.30459,"lon":5.37903,"is_reserved":false,"is_disabled":false,"rental_uris":{"android":"levelo://app?vid=e74918d6-a723-4531-9b72-900020f9c7ea","ios":"levelo://app?vid=e74918d6-a723-4531-9b72-900020f9c7ea"},"vehicle_type_id":"4","last_reported":1703318889,"current_range_meters":16800,"station_id":"ce4bgup2rcd13ifvqcn0","pricing_plan_id":"free"},{"bike_id":"7b39d7d2-9d1d-4e3b-9c0e-e5e132355a5d","system_id":"levelo_inurba_marseille","lat":43.304606,"lon":5.379026,"is_reserved":false,"is_disabled":false,"rental_uris":{"android":"levelo://app?vid=7b39d7d2-9d1d-4e3b-9c0e-e5e132355a5d","ios":"levelo://app?vid=7b39d7d2-9d1d-4e3b-9c0e-e5e132355a5d"},"vehicle_type_id":"4","last_reported":1703318889,"current_range_meters":19600,"station_id":"ce4bgup2rcd13ifvqcn0","pricing_plan_id":"free"},{"bike_id":"01f621e1-1a45-482d-b173-38a946891a0a","system_id":"levelo_inurba_marseille","lat":43.30461,"lon":5.37907,"is_reserved":false,"is_disabled":false,"rental_uris":{"android":"levelo://app?vid=01f621e1-1a45-482d-b173-38a946891a0a","ios":"levelo://app?vid=01f621e1-1a45-482d-b173-38a946891a0a"},"vehicle_type_id":"4","last_reported":1703318889,"current_range_meters":27200,"station_id":"ce4bgup2rcd13ifvqcn0","pricing_plan_id":"free"},{"bike_id":"9ba530d1-f1b5-44f3-9995-d195fc22ad4e","system_id":"levelo_inurba_marseille","lat":43.30452,"lon":5.37899,"is_reserved":false,"is_disabled":false,"rental_uris":{"android":"levelo://app?vid=9ba530d1-f1b5-44f3-9995-d195fc22ad4e","ios":"levelo://app?vid=9ba530d1-f1b5-44f3-9995-d195fc22ad4e"},"vehicle_type_id":"4","last_reported":1703318889,"current_range_meters":26000,"station_id":"ce4bgup2rcd13ifvqcn0","pricing_plan_id":"free"},{"bike_id":"531b7470-9cd2-45d4-861e-0284af2b5c84","system_id":"levelo_inurba_marseille","lat":43.304606,"lon":5.379026,"is_reserved":false,"is_disabled":false,"rental_uris":{"android":"levelo://app?vid=531b7470-9cd2-45d4-861e-0284af2b5c84","ios":"levelo://app?vid=531b7470-9cd2-45d4-861e-0284af2b5c84"},"vehicle_type_id":"4","last_reported":1703318889,"current_range_meters":25600,"station_id":"ce4bgup2rcd13ifvqcn0","pricing_plan_id":"free"},{"bike_id":"f954a88c-7243-4829-831c-baa7b6369ade","system_id":"levelo_inurba_marseille","lat":43.304606,"lon":5.379026,"is_reserved":false,"is_disabled":false,"rental_uris":{"android":"levelo://app?vid=f954a88c-7243-4829-831c-baa7b6369ade","ios":"levelo://app?vid=f954a88c-7243-4829-831c-baa7b6369ade"},"vehicle_type_id":"4","last_reported":1703318889,"current_range_meters":29600,"station_id":"ce4bgup2rcd13ifvqcn0","pricing_plan_id":"free"},{"bike_id":"84ff0b10-c257-4323-b98a-de8b16b89652","system_id":"levelo_inurba_marseille","lat":43.302784,"lon":5.377158,"is_reserved":false,"is_disabled":false,"rental_uris":{"android":"levelo://app?vid=84ff0b10-c257-4323-b98a-de8b16b89652","ios":"levelo://app?vid=84ff0b10-c257-4323-b98a-de8b16b89652"},"vehicle_type_id":"4","last_reported":1703318889,"current_range_meters":4400,"station_id":"ce4bguh2rcd13ifvqcj0","pricing_plan_id":"free"},{"bike_id":"4b176a2b-35a8-478e-93c2-e09cc8ed4702","system_id":"levelo_inurba_marseille","lat":43.302784,"lon":5.377158,"is_reserved":false,"is_disabled":false,"rental_uris":{"android":"levelo://app?vid=4b176a2b-35a8-478e-93c2-e09cc8ed4702","ios":"levelo://app?vid=4b176a2b-35a8-478e-93c2-e09cc8ed4702"},"vehicle_type_id":"4","last_reported":1703318889,"current_range_meters":4400,"station_id":"ce4bguh2rcd13ifvqcj0","pricing_plan_id":"free"},{"bike_id":"69599836-e945-413a-a849-741769f44bc7","system_id":"levelo_inurba_marseille","lat":43.302784,"lon":5.377158,"is_reserved":false,"is_disabled":false,"rental_uris":{"android":"levelo://app?vid=69599836-e945-413a-a849-741769f44bc7","ios":"levelo://app?vid=69599836-e945-413a-a849-741769f44bc7"},"vehicle_type_id":"4","last_reported":1703318889,"current_range_meters":14800,"station_id":"ce4bguh2rcd13ifvqcj0","pricing_plan_id":"free"},{"bike_id":"8b494847-e62b-4aad-8457-b9dad1b2b4c6","system_id":"levelo_inurba_marseille","lat":43.302784,"lon":5.377158,"is_reserved":false,"is_disabled":false,"rental_uris":{"android":"levelo://app?vid=8b494847-e62b-4aad-8457-b9dad1b2b4c6","ios":"levelo://app?vid=8b494847-e62b-4aad-8457-b9dad1b2b4c6"},"vehicle_type_id":"4","last_reported":1703318889,"current_range_meters":8800,"station_id":"ce4bguh2rcd13ifvqcj0","pricing_plan_id":"free"},{"bike_id":"965cf9c4-61d5-49c2-b8b1-76508d620af4","system_id":"levelo_inurba_marseille","lat":43.319935,"lon":5.381699,"is_reserved":false,"is_disabled":false,"rental_uris":{"android":"levelo://app?vid=965cf9c4-61d5-49c2-b8b1-76508d620af4","ios":"levelo://app?vid=965cf9c4-61d5-49c2-b8b1-76508d620af4"},"vehicle_type_id":"4","last_reported":1703318889,"current_range_meters":18000,"station_id":"ce4bhr12rcd13ifvqhpg","pricing_plan_id":"free"},{"bike_id":"c616a760-5d15-46bb-9d75-552ebc124cb7","system_id":"levelo_inurba_marseille","lat":43.319935,"lon":5.381699,"is_reserved":false,"is_disabled":false,"rental_uris":{"android":"levelo://app?vid=c616a760-5d15-46bb-9d75-552ebc124cb7","ios":"levelo://app?vid=c616a760-5d15-46bb-9d75-552ebc124cb7"},"vehicle_type_id":"4","last_reported":1703318889,"current_range_meters":17200,"station_id":"ce4bhr12rcd13ifvqhpg","pricing_plan_id":"free"},{"bike_id":"0660b770-dd60-4e90-8802-23f4be821afa","system_id":"levelo_inurba_marseille","lat":43.319935,"lon":5.381699,"is_reserved":false,"is_disabled":false,"rental_uris":{"android":"levelo://app?vid=0660b770-dd60-4e90-8802-23f4be821afa","ios":"levelo://app?vid=0660b770-dd60-4e90-8802-23f4be821afa"},"vehicle_type_id":"4","last_reported":1703318889,"current_range_meters":4000,"station_id":"ce4bhr12rcd13ifvqhpg","pricing_plan_id":"free"},{"bike_id":"82b7c1aa-506b-4cff-953c-bb835d7847c3","system_id":"levelo_inurba_marseille","lat":43.319935,"lon":5.381699,"is_reserved":false,"is_disabled":false,"rental_uris":{"android":"levelo://app?vid=82b7c1aa-506b-4cff-953c-bb835d7847c3","ios":"levelo://app?vid=82b7c1aa-506b-4cff-953c-bb835d7847c3"},"vehicle_type_id":"4","last_reported":1703318889,"current_range_meters":11600,"station_id":"ce4bhr12rcd13ifvqhpg","pricing_plan_id":"free"},{"bike_id":"7f17d550-d32d-4490-8e9d-12fbd3d7571d","system_id":"levelo_inurba_marseille","lat":43.319935,"lon":5.381699,"is_reserved":false,"is_disabled":false,"rental_uris":{"android":"levelo://app?vid=7f17d550-d32d-4490-8e9d-12fbd3d7571d","ios":"levelo://app?vid=7f17d550-d32d-4490-8e9d-12fbd3d7571d"},"vehicle_type_id":"4","last_reported":1703318889,"current_range_meters":19600,"station_id":"ce4bhr12rcd13ifvqhpg","pricing_plan_id":"free"},{"bike_id":"9c231161-337f-4eba-87d3-44d75eaa84aa","system_id":"levelo_inurba_marseille","lat":43.319935,"lon":5.381699,"is_reserved":false,"is_disabled":false,"rental_uris":{"android":"levelo://app?vid=9c231161-337f-4eba-87d3-44d75eaa84aa","ios":"levelo://app?vid=9c231161-337f-4eba-87d3-44d75eaa84aa"},"vehicle_type_id":"4","last_reported":1703318889,"current_range_meters":28400,"station_id":"ce4bhr12rcd13ifvqhpg","pricing_plan_id":"free"},{"bike_id":"dc0f6af5-c02c-4610-baea-e5c6ca16f530","system_id":"levelo_inurba_marseille","lat":43.319966,"lon":5.381514,"is_reserved":false,"is_disabled":false,"rental_uris":{"android":"levelo://app?vid=dc0f6af5-c02c-4610-baea-e5c6ca16f530","ios":"levelo://app?vid=dc0f6af5-c02c-4610-baea-e5c6ca16f530"},"vehicle_type_id":"4","last_reported":1703318889,"current_range_meters":25600,"station_id":"ce4bhr12rcd13ifvqhpg","pricing_plan_id":"free"},{"bike_id":"a4d91f4c-0227-4bc9-a904-969806ef4ac5","system_id":"levelo_inurba_marseille","lat":43.319935,"lon":5.381699,"is_reserved":false,"is_disabled":false,"rental_uris":{"android":"levelo://app?vid=a4d91f4c-0227-4bc9-a904-969806ef4ac5","ios":"levelo://app?vid=a4d91f4c-0227-4bc9-a904-969806ef4ac5"},"vehicle_type_id":"4","last_reported":1703318889,"current_range_meters":19200,"station_id":"ce4bhr12rcd13ifvqhpg","pricing_plan_id":"free"},{"bike_id":"8a03905e-49ad-46e4-b802-04bb9ac106bb","system_id":"levelo_inurba_marseille","lat":43.299222,"lon":5.365554,"is_reserved":false,"is_disabled":false,"rental_uris":{"android":"levelo://app?vid=8a03905e-49ad-46e4-b802-04bb9ac106bb","ios":"levelo://app?vid=8a03905e-49ad-46e4-b802-04bb9ac106bb"},"vehicle_type_id":"4","last_reported":1703318889,"current_range_meters":24400,"station_id":"ce4bgm92rcd13ifvqbr0","pricing_plan_id":"free"},{"bike_id":"b1e259d6-abcf-4efd-9313-a327e17abcf9","system_id":"levelo_inurba_marseille","lat":43.302745,"lon":5.37952,"is_reserved":false,"is_disabled":false,"rental_uris":{"android":"levelo://app?vid=b1e259d6-abcf-4efd-9313-a327e17abcf9","ios":"levelo://app?vid=b1e259d6-abcf-4efd-9313-a327e17abcf9"},"vehicle_type_id":"4","last_reported":1703318889,"current_range_meters":23600,"station_id":"","pricing_plan_id":"free"},{"bike_id":"b621ba55-00db-4085-a0db-544f404b7ec6","system_id":"levelo_inurba_marseille","lat":43.305364,"lon":5.384119,"is_reserved":false,"is_disabled":false,"rental_uris":{"android":"levelo://app?vid=b621ba55-00db-4085-a0db-544f404b7ec6","ios":"levelo://app?vid=b621ba55-00db-4085-a0db-544f404b7ec6"},"vehicle_type_id":"4","last_reported":1703318889,"current_range_meters":30800,"station_id":"ce4bgg92rcd13ifvqb30","pricing_plan_id":"free"},{"bike_id":"bc78131a-0d14-4578-b88e-07c19adc54fd","system_id":"levelo_inurba_marseille","lat":43.311722,"lon":5.387247,"is_reserved":false,"is_disabled":false,"rental_uris":{"android":"levelo://app?vid=bc78131a-0d14-4578-b88e-07c19adc54fd","ios":"levelo://app?vid=bc78131a-0d14-4578-b88e-07c19adc54fd"},"vehicle_type_id":"4","last_reported":1703318889,"current_range_meters":0,"station_id":"ce4bgv12rcd13ifvqcp0","pricing_plan_id":"free"},{"bike_id":"6ef56fd5-1a7c-4c71-8bf8-33afeff899ef","system_id":"levelo_inurba_marseille","lat":43.322872,"lon":5.382756,"is_reserved":false,"is_disabled":false,"rental_uris":{"android":"levelo://app?vid=6ef56fd5-1a7c-4c71-8bf8-33afeff899ef","ios":"levelo://app?vid=6ef56fd5-1a7c-4c71-8bf8-33afeff899ef"},"vehicle_type_id":"4","last_reported":1703318889,"current_range_meters":27200,"station_id":"ce4bhr12rcd13ifvqhqg","pricing_plan_id":"free"},{"bike_id":"62a0e181-56c1-4aad-a05b-240ecf27baec","system_id":"levelo_inurba_marseille","lat":43.322872,"lon":5.382756,"is_reserved":false,"is_disabled":false,"rental_uris":{"android":"levelo://app?vid=62a0e181-56c1-4aad-a05b-240ecf27baec","ios":"levelo://app?vid=62a0e181-56c1-4aad-a05b-240ecf27baec"},"vehicle_type_id":"4","last_reported":1703318889,"current_range_meters":31200,"station_id":"ce4bhr12rcd13ifvqhqg","pricing_plan_id":"free"},{"bike_id":"f5987233-1d3e-4901-8b4d-56e1ca83344b","system_id":"levelo_inurba_marseille","lat":43.322872,"lon":5.382756,"is_reserved":false,"is_disabled":false,"rental_uris":{"android":"levelo://app?vid=f5987233-1d3e-4901-8b4d-56e1ca83344b","ios":"levelo://app?vid=f5987233-1d3e-4901-8b4d-56e1ca83344b"},"vehicle_type_id":"4","last_reported":1703318889,"current_range_meters":31200,"station_id":"ce4bhr12rcd13ifvqhqg","pricing_plan_id":"free"},{"bike_id":"aa3fb6e4-1c03-44e5-96a0-f8edc6b5e34f","system_id":"levelo_inurba_marseille","lat":43.328371,"lon":5.366909,"is_reserved":false,"is_disabled":false,"rental_uris":{"android":"levelo://app?vid=aa3fb6e4-1c03-44e5-96a0-f8edc6b5e34f","ios":"levelo://app?vid=aa3fb6e4-1c03-44e5-96a0-f8edc6b5e34f"},"vehicle_type_id":"4","last_reported":1703318889,"current_range_meters":10400,"station_id":"ce4bhs92rcd13ifvqi0g","pricing_plan_id":"free"},{"bike_id":"d2be49f4-d512-450f-80de-370a6da97420","system_id":"levelo_inurba_marseille","lat":43.328371,"lon":5.366909,"is_reserved":false,"is_disabled":false,"rental_uris":{"android":"levelo://app?vid=d2be49f4-d512-450f-80de-370a6da97420","ios":"levelo://app?vid=d2be49f4-d512-450f-80de-370a6da97420"},"vehicle_type_id":"4","last_reported":1703318889,"current_range_meters":13600,"station_id":"ce4bhs92rcd13ifvqi0g","pricing_plan_id":"free"},{"bike_id":"d728a8b4-bece-4be0-a14a-8abb6b425cd7","system_id":"levelo_inurba_marseille","lat":43.328371,"lon":5.366909,"is_reserved":false,"is_disabled":false,"rental_uris":{"android":"levelo://app?vid=d728a8b4-bece-4be0-a14a-8abb6b425cd7","ios":"levelo://app?vid=d728a8b4-bece-4be0-a14a-8abb6b425cd7"},"vehicle_type_id":"4","last_reported":1703318889,"current_range_meters":14000,"station_id":"ce4bhs92rcd13ifvqi0g","pricing_plan_id":"free"},{"bike_id":"6cba446c-9ee9-4546-8c3c-626825b73b1e","system_id":"levelo_inurba_marseille","lat":43.328371,"lon":5.366909,"is_reserved":false,"is_disabled":false,"rental_uris":{"android":"levelo://app?vid=6cba446c-9ee9-4546-8c3c-626825b73b1e","ios":"levelo://app?vid=6cba446c-9ee9-4546-8c3c-626825b73b1e"},"vehicle_type_id":"4","last_reported":1703318889,"current_range_meters":31200,"station_id":"ce4bhs92rcd13ifvqi0g","pricing_plan_id":"free"},{"bike_id":"525f6ec1-c089-48ad-8216-d8e073aa768d","system_id":"levelo_inurba_marseille","lat":43.328371,"lon":5.366909,"is_reserved":false,"is_disabled":false,"rental_uris":{"android":"levelo://app?vid=525f6ec1-c089-48ad-8216-d8e073aa768d","ios":"levelo://app?vid=525f6ec1-c089-48ad-8216-d8e073aa768d"},"vehicle_type_id":"4","last_reported":1703318889,"current_range_meters":11200,"station_id":"ce4bhs92rcd13ifvqi0g","pricing_plan_id":"free"},{"bike_id":"b2244d4b-5cac-47c6-abf7-da027fdb3f39","system_id":"levelo_inurba_marseille","lat":43.328371,"lon":5.366909,"is_reserved":false,"is_disabled":false,"rental_uris":{"android":"levelo://app?vid=b2244d4b-5cac-47c6-abf7-da027fdb3f39","ios":"levelo://app?vid=b2244d4b-5cac-47c6-abf7-da027fdb3f39"},"vehicle_type_id":"4","last_reported":1703318889,"current_range_meters":22800,"station_id":"ce4bhs92rcd13ifvqi0g","pricing_plan_id":"free"},{"bike_id":"57de04a8-f99a-4366-a232-d702b09f37ad","system_id":"levelo_inurba_marseille","lat":43.297163,"lon":5.365866,"is_reserved":false,"is_disabled":false,"rental_uris":{"android":"levelo://app?vid=57de04a8-f99a-4366-a232-d702b09f37ad","ios":"levelo://app?vid=57de04a8-f99a-4366-a232-d702b09f37ad"},"vehicle_type_id":"4","last_reported":1703318889,"current_range_meters":17200,"station_id":"ce4bgn12rcd13ifvqbt0","pricing_plan_id":"free"},{"bike_id":"0401a144-4679-4e07-adc8-67344edabed0","system_id":"levelo_inurba_marseille","lat":43.297163,"lon":5.365866,"is_reserved":false,"is_disabled":false,"rental_uris":{"android":"levelo://app?vid=0401a144-4679-4e07-adc8-67344edabed0","ios":"levelo://app?vid=0401a144-4679-4e07-adc8-67344edabed0"},"vehicle_type_id":"4","last_reported":1703318889,"current_range_meters":24800,"station_id":"ce4bgn12rcd13ifvqbt0","pricing_plan_id":"free"},{"bike_id":"59eb6988-89d3-4b9a-8261-28c3648861d9","system_id":"levelo_inurba_marseille","lat":43.296131,"lon":5.370791,"is_reserved":false,"is_disabled":false,"rental_uris":{"android":"levelo://app?vid=59eb6988-89d3-4b9a-8261-28c3648861d9","ios":"levelo://app?vid=59eb6988-89d3-4b9a-8261-28c3648861d9"},"vehicle_type_id":"4","last_reported":1703318889,"current_range_meters":24000,"station_id":"ce4bgnh2rcd13ifvqc0g","pricing_plan_id":"free"},{"bike_id":"1021af40-5bf6-4f37-9ad3-a08195969903","system_id":"levelo_inurba_marseille","lat":43.296129,"lon":5.370777,"is_reserved":false,"is_disabled":false,"rental_uris":{"android":"levelo://app?vid=1021af40-5bf6-4f37-9ad3-a08195969903","ios":"levelo://app?vid=1021af40-5bf6-4f37-9ad3-a08195969903"},"vehicle_type_id":"4","last_reported":1703318889,"current_range_meters":31600,"station_id":"ce4bgnh2rcd13ifvqc0g","pricing_plan_id":"free"},{"bike_id":"1b5ffad0-1f0f-43ed-b95e-bf3003f0959f","system_id":"levelo_inurba_marseille","lat":43.296131,"lon":5.370791,"is_reserved":false,"is_disabled":false,"rental_uris":{"android":"levelo://app?vid=1b5ffad0-1f0f-43ed-b95e-bf3003f0959f","ios":"levelo://app?vid=1b5ffad0-1f0f-43ed-b95e-bf3003f0959f"},"vehicle_type_id":"4","last_reported":1703318889,"current_range_meters":31200,"station_id":"ce4bgnh2rcd13ifvqc0g","pricing_plan_id":"free"},{"bike_id":"8568d3e4-9c35-4c42-8a87-f0fcecd2450e","system_id":"levelo_inurba_marseille","lat":43.296131,"lon":5.370791,"is_reserved":false,"is_disabled":false,"rental_uris":{"android":"levelo://app?vid=8568d3e4-9c35-4c42-8a87-f0fcecd2450e","ios":"levelo://app?vid=8568d3e4-9c35-4c42-8a87-f0fcecd2450e"},"vehicle_type_id":"4","last_reported":1703318889,"current_range_meters":31200,"station_id":"ce4bgnh2rcd13ifvqc0g","pricing_plan_id":"free"},{"bike_id":"c4dbfa18-f97d-444c-a49d-0fc79432718b","system_id":"levelo_inurba_marseille","lat":43.29626,"lon":5.37169,"is_reserved":false,"is_disabled":false,"rental_uris":{"android":"levelo://app?vid=c4dbfa18-f97d-444c-a49d-0fc79432718b","ios":"levelo://app?vid=c4dbfa18-f97d-444c-a49d-0fc79432718b"},"vehicle_type_id":"4","last_reported":1703318889,"current_range_meters":30800,"station_id":"ce4bgnh2rcd13ifvqc0g","pricing_plan_id":"free"},{"bike_id":"abc8c3bc-561b-4509-9da9-c8fdec3ecd85","system_id":"levelo_inurba_marseille","lat":43.296131,"lon":5.370791,"is_reserved":false,"is_disabled":false,"rental_uris":{"android":"levelo://app?vid=abc8c3bc-561b-4509-9da9-c8fdec3ecd85","ios":"levelo://app?vid=abc8c3bc-561b-4509-9da9-c8fdec3ecd85"},"vehicle_type_id":"4","last_reported":1703318889,"current_range_meters":17600,"station_id":"ce4bgnh2rcd13ifvqc0g","pricing_plan_id":"free"},{"bike_id":"48b16ecd-501c-4d54-808c-daeb331f2d44","system_id":"levelo_inurba_marseille","lat":43.296131,"lon":5.370791,"is_reserved":false,"is_disabled":false,"rental_uris":{"android":"levelo://app?vid=48b16ecd-501c-4d54-808c-daeb331f2d44","ios":"levelo://app?vid=48b16ecd-501c-4d54-808c-daeb331f2d44"},"vehicle_type_id":"4","last_reported":1703318889,"current_range_meters":27200,"station_id":"ce4bgnh2rcd13ifvqc0g","pricing_plan_id":"free"},{"bike_id":"6ac5da32-c481-41fb-b576-895b13856429","system_id":"levelo_inurba_marseille","lat":43.296206,"lon":5.371513,"is_reserved":false,"is_disabled":false,"rental_uris":{"android":"levelo://app?vid=6ac5da32-c481-41fb-b576-895b13856429","ios":"levelo://app?vid=6ac5da32-c481-41fb-b576-895b13856429"},"vehicle_type_id":"4","last_reported":1703318889,"current_range_meters":22000,"station_id":"ce4bgk12rcd13ifvqbj0","pricing_plan_id":"free"},{"bike_id":"dc38f8d1-dce1-47df-aa9b-0a78f50874d9","system_id":"levelo_inurba_marseille","lat":43.296129,"lon":5.370777,"is_reserved":false,"is_disabled":false,"rental_uris":{"android":"levelo://app?vid=dc38f8d1-dce1-47df-aa9b-0a78f50874d9","ios":"levelo://app?vid=dc38f8d1-dce1-47df-aa9b-0a78f50874d9"},"vehicle_type_id":"4","last_reported":1703318889,"current_range_meters":31600,"station_id":"ce4bgnh2rcd13ifvqc0g","pricing_plan_id":"free"},{"bike_id":"034b50e9-ae4f-439f-ba94-801a93c29d4e","system_id":"levelo_inurba_marseille","lat":43.296129,"lon":5.370777,"is_reserved":false,"is_disabled":false,"rental_uris":{"android":"levelo://app?vid=034b50e9-ae4f-439f-ba94-801a93c29d4e","ios":"levelo://app?vid=034b50e9-ae4f-439f-ba94-801a93c29d4e"},"vehicle_type_id":"4","last_reported":1703318889,"current_range_meters":23200,"station_id":"ce4bgnh2rcd13ifvqc0g","pricing_plan_id":"free"},{"bike_id":"0c6cad73-f3bb-48e1-958f-028d9c990935","system_id":"levelo_inurba_marseille","lat":43.29583,"lon":5.36735,"is_reserved":false,"is_disabled":false,"rental_uris":{"android":"levelo://app?vid=0c6cad73-f3bb-48e1-958f-028d9c990935","ios":"levelo://app?vid=0c6cad73-f3bb-48e1-958f-028d9c990935"},"vehicle_type_id":"4","last_reported":1703318889,"current_range_meters":23200,"station_id":"ce4bgph2rcd13ifvqc2g","pricing_plan_id":"free"},{"bike_id":"91c1ed03-7715-436e-8a30-846c225bf0ac","system_id":"levelo_inurba_marseille","lat":43.296935,"lon":5.376544,"is_reserved":false,"is_disabled":false,"rental_uris":{"android":"levelo://app?vid=91c1ed03-7715-436e-8a30-846c225bf0ac","ios":"levelo://app?vid=91c1ed03-7715-436e-8a30-846c225bf0ac"},"vehicle_type_id":"4","last_reported":1703318889,"current_range_meters":25600,"station_id":"ce4bgkh2rcd13ifvqbl0","pricing_plan_id":"free"},{"bike_id":"c1d8f3c4-57aa-4ad8-948d-c18bcfcee1e8","system_id":"levelo_inurba_marseille","lat":43.29901,"lon":5.38147,"is_reserved":false,"is_disabled":false,"rental_uris":{"android":"levelo://app?vid=c1d8f3c4-57aa-4ad8-948d-c18bcfcee1e8","ios":"levelo://app?vid=c1d8f3c4-57aa-4ad8-948d-c18bcfcee1e8"},"vehicle_type_id":"4","last_reported":1703318889,"current_range_meters":15200,"station_id":"ce4bgj12rcd13ifvqbc0","pricing_plan_id":"free"},{"bike_id":"9db03e3f-ff8e-49cf-b3d2-2efe90ffa080","system_id":"levelo_inurba_marseille","lat":43.298951,"lon":5.38143,"is_reserved":false,"is_disabled":false,"rental_uris":{"android":"levelo://app?vid=9db03e3f-ff8e-49cf-b3d2-2efe90ffa080","ios":"levelo://app?vid=9db03e3f-ff8e-49cf-b3d2-2efe90ffa080"},"vehicle_type_id":"4","last_reported":1703318889,"current_range_meters":0,"station_id":"ce4bgj12rcd13ifvqbc0","pricing_plan_id":"free"},{"bike_id":"d39682ea-d8f1-45a4-b2b8-5a732fb091bc","system_id":"levelo_inurba_marseille","lat":43.317557,"lon":5.390173,"is_reserved":false,"is_disabled":false,"rental_uris":{"android":"levelo://app?vid=d39682ea-d8f1-45a4-b2b8-5a732fb091bc","ios":"levelo://app?vid=d39682ea-d8f1-45a4-b2b8-5a732fb091bc"},"vehicle_type_id":"4","last_reported":1703318889,"current_range_meters":31600,"station_id":"ce4bhqp2rcd13ifvqhng","pricing_plan_id":"free"},{"bike_id":"b3e69c1d-7e5a-4757-bef8-3569af454ae7","system_id":"levelo_inurba_marseille","lat":43.317578,"lon":5.390179,"is_reserved":false,"is_disabled":false,"rental_uris":{"android":"levelo://app?vid=b3e69c1d-7e5a-4757-bef8-3569af454ae7","ios":"levelo://app?vid=b3e69c1d-7e5a-4757-bef8-3569af454ae7"},"vehicle_type_id":"4","last_reported":1703318889,"current_range_meters":18800,"station_id":"ce4bhqp2rcd13ifvqhng","pricing_plan_id":"free"},{"bike_id":"765e810a-30ec-434e-9fc5-0dfa6a0faaaa","system_id":"levelo_inurba_marseille","lat":43.317561,"lon":5.390187,"is_reserved":false,"is_disabled":false,"rental_uris":{"android":"levelo://app?vid=765e810a-30ec-434e-9fc5-0dfa6a0faaaa","ios":"levelo://app?vid=765e810a-30ec-434e-9fc5-0dfa6a0faaaa"},"vehicle_type_id":"4","last_reported":1703318889,"current_range_meters":9200,"station_id":"ce4bhqp2rcd13ifvqhng","pricing_plan_id":"free"},{"bike_id":"b9c8fefe-fcf2-4e1c-95c9-c0ffed42221d","system_id":"levelo_inurba_marseille","lat":43.317557,"lon":5.390173,"is_reserved":false,"is_disabled":false,"rental_uris":{"android":"levelo://app?vid=b9c8fefe-fcf2-4e1c-95c9-c0ffed42221d","ios":"levelo://app?vid=b9c8fefe-fcf2-4e1c-95c9-c0ffed42221d"},"vehicle_type_id":"4","last_reported":1703318889,"current_range_meters":31200,"station_id":"ce4bhqp2rcd13ifvqhng","pricing_plan_id":"free"},{"bike_id":"62e22e3e-8174-4ec7-90f7-4445322daa77","system_id":"levelo_inurba_marseille","lat":43.317557,"lon":5.390173,"is_reserved":false,"is_disabled":false,"rental_uris":{"android":"levelo://app?vid=62e22e3e-8174-4ec7-90f7-4445322daa77","ios":"levelo://app?vid=62e22e3e-8174-4ec7-90f7-4445322daa77"},"vehicle_type_id":"4","last_reported":1703318889,"current_range_meters":24000,"station_id":"ce4bhqp2rcd13ifvqhng","pricing_plan_id":"free"},{"bike_id":"43855516-4c02-494d-aefa-3c215dbc6b85","system_id":"levelo_inurba_marseille","lat":43.317557,"lon":5.390173,"is_reserved":false,"is_disabled":false,"rental_uris":{"android":"levelo://app?vid=43855516-4c02-494d-aefa-3c215dbc6b85","ios":"levelo://app?vid=43855516-4c02-494d-aefa-3c215dbc6b85"},"vehicle_type_id":"4","last_reported":1703318889,"current_range_meters":11600,"station_id":"ce4bhqp2rcd13ifvqhng","pricing_plan_id":"free"},{"bike_id":"cdb3d701-5381-4219-9cdd-c446bf2fa9ab","system_id":"levelo_inurba_marseille","lat":43.295339,"lon":5.361204,"is_reserved":false,"is_disabled":false,"rental_uris":{"android":"levelo://app?vid=cdb3d701-5381-4219-9cdd-c446bf2fa9ab","ios":"levelo://app?vid=cdb3d701-5381-4219-9cdd-c446bf2fa9ab"},"vehicle_type_id":"4","last_reported":1703318889,"current_range_meters":6400,"station_id":"","pricing_plan_id":"free"},{"bike_id":"dea2ce4e-1cb8-4b64-b858-9a38d351d9b5","system_id":"levelo_inurba_marseille","lat":43.29789,"lon":5.3809,"is_reserved":false,"is_disabled":false,"rental_uris":{"android":"levelo://app?vid=dea2ce4e-1cb8-4b64-b858-9a38d351d9b5","ios":"levelo://app?vid=dea2ce4e-1cb8-4b64-b858-9a38d351d9b5"},"vehicle_type_id":"4","last_reported":1703318889,"current_range_meters":18000,"station_id":"ce4bgip2rcd13ifvqbb0","pricing_plan_id":"free"},{"bike_id":"cd6abb99-9829-46d6-8d05-81660d0496be","system_id":"levelo_inurba_marseille","lat":43.29651,"lon":5.37967,"is_reserved":false,"is_disabled":false,"rental_uris":{"android":"levelo://app?vid=cd6abb99-9829-46d6-8d05-81660d0496be","ios":"levelo://app?vid=cd6abb99-9829-46d6-8d05-81660d0496be"},"vehicle_type_id":"4","last_reported":1703318889,"current_range_meters":24000,"station_id":"","pricing_plan_id":"free"},{"bike_id":"eaa5e0c9-2b1c-4467-ab68-bbff3d6c2e68","system_id":"levelo_inurba_marseille","lat":43.32367,"lon":5.388836,"is_reserved":false,"is_disabled":false,"rental_uris":{"android":"levelo://app?vid=eaa5e0c9-2b1c-4467-ab68-bbff3d6c2e68","ios":"levelo://app?vid=eaa5e0c9-2b1c-4467-ab68-bbff3d6c2e68"},"vehicle_type_id":"4","last_reported":1703318889,"current_range_meters":19200,"station_id":"ce4bhqp2rcd13ifvqhog","pricing_plan_id":"free"},{"bike_id":"dc576f31-c21e-42d2-97a4-815b145b7f58","system_id":"levelo_inurba_marseille","lat":43.32367,"lon":5.388836,"is_reserved":false,"is_disabled":false,"rental_uris":{"android":"levelo://app?vid=dc576f31-c21e-42d2-97a4-815b145b7f58","ios":"levelo://app?vid=dc576f31-c21e-42d2-97a4-815b145b7f58"},"vehicle_type_id":"4","last_reported":1703318889,"current_range_meters":0,"station_id":"ce4bhqp2rcd13ifvqhog","pricing_plan_id":"free"},{"bike_id":"035ba96c-8560-4c70-973e-f7eb3e99c40c","system_id":"levelo_inurba_marseille","lat":43.32367,"lon":5.388836,"is_reserved":false,"is_disabled":false,"rental_uris":{"android":"levelo://app?vid=035ba96c-8560-4c70-973e-f7eb3e99c40c","ios":"levelo://app?vid=035ba96c-8560-4c70-973e-f7eb3e99c40c"},"vehicle_type_id":"4","last_reported":1703318889,"current_range_meters":18000,"station_id":"ce4bhqp2rcd13ifvqhog","pricing_plan_id":"free"},{"bike_id":"60f58450-dee0-46e2-9f7e-b31ff92fd5ab","system_id":"levelo_inurba_marseille","lat":43.302759,"lon":5.400793,"is_reserved":false,"is_disabled":false,"rental_uris":{"android":"levelo://app?vid=60f58450-dee0-46e2-9f7e-b31ff92fd5ab","ios":"levelo://app?vid=60f58450-dee0-46e2-9f7e-b31ff92fd5ab"},"vehicle_type_id":"4","last_reported":1703318889,"current_range_meters":16000,"station_id":"ce4bgvh2rcd13ifvqcs0","pricing_plan_id":"free"},{"bike_id":"8c4fba61-e771-4f29-8c31-3d85e747531d","system_id":"levelo_inurba_marseille","lat":43.29601,"lon":5.381084,"is_reserved":false,"is_disabled":false,"rental_uris":{"android":"levelo://app?vid=8c4fba61-e771-4f29-8c31-3d85e747531d","ios":"levelo://app?vid=8c4fba61-e771-4f29-8c31-3d85e747531d"},"vehicle_type_id":"4","last_reported":1703318889,"current_range_meters":24400,"station_id":"ce4bgl12rcd13ifvqbo0","pricing_plan_id":"free"},{"bike_id":"72d38d52-dc54-4223-abff-e8c043aba851","system_id":"levelo_inurba_marseille","lat":43.297934,"lon":5.38535,"is_reserved":false,"is_disabled":false,"rental_uris":{"android":"levelo://app?vid=72d38d52-dc54-4223-abff-e8c043aba851","ios":"levelo://app?vid=72d38d52-dc54-4223-abff-e8c043aba851"},"vehicle_type_id":"4","last_reported":1703318889,"current_range_meters":4800,"station_id":"","pricing_plan_id":"free"},{"bike_id":"83cbbde7-7eee-453b-985c-dbe0f87e0c2a","system_id":"levelo_inurba_marseille","lat":43.2936,"lon":5.37835,"is_reserved":false,"is_disabled":false,"rental_uris":{"android":"levelo://app?vid=83cbbde7-7eee-453b-985c-dbe0f87e0c2a","ios":"levelo://app?vid=83cbbde7-7eee-453b-985c-dbe0f87e0c2a"},"vehicle_type_id":"4","last_reported":1703318889,"current_range_meters":31200,"station_id":"ce4bgjh2rcd13ifvqbf0","pricing_plan_id":"free"},{"bike_id":"62b99d4c-3309-4714-99a2-5a124fe1583a","system_id":"levelo_inurba_marseille","lat":43.292311,"lon":5.360731,"is_reserved":false,"is_disabled":false,"rental_uris":{"android":"levelo://app?vid=62b99d4c-3309-4714-99a2-5a124fe1583a","ios":"levelo://app?vid=62b99d4c-3309-4714-99a2-5a124fe1583a"},"vehicle_type_id":"4","last_reported":1703318889,"current_range_meters":23200,"station_id":"ce4bhbh2rcd13ifvqeqg","pricing_plan_id":"free"},{"bike_id":"3ba5e3dd-f6e1-4d8e-889e-28c849db6641","system_id":"levelo_inurba_marseille","lat":43.292311,"lon":5.360731,"is_reserved":false,"is_disabled":false,"rental_uris":{"android":"levelo://app?vid=3ba5e3dd-f6e1-4d8e-889e-28c849db6641","ios":"levelo://app?vid=3ba5e3dd-f6e1-4d8e-889e-28c849db6641"},"vehicle_type_id":"4","last_reported":1703318889,"current_range_meters":14400,"station_id":"ce4bhbh2rcd13ifvqeqg","pricing_plan_id":"free"},{"bike_id":"701a1df8-6a30-4076-ab51-c8a99851ad93","system_id":"levelo_inurba_marseille","lat":43.29273,"lon":5.37628,"is_reserved":false,"is_disabled":false,"rental_uris":{"android":"levelo://app?vid=701a1df8-6a30-4076-ab51-c8a99851ad93","ios":"levelo://app?vid=701a1df8-6a30-4076-ab51-c8a99851ad93"},"vehicle_type_id":"4","last_reported":1703318889,"current_range_meters":26400,"station_id":"ce4bgi12rcd13ifvqb70","pricing_plan_id":"free"},{"bike_id":"86027c43-5e78-4674-a418-4bab324983aa","system_id":"levelo_inurba_marseille","lat":43.29867,"lon":5.38905,"is_reserved":false,"is_disabled":false,"rental_uris":{"android":"levelo://app?vid=86027c43-5e78-4674-a418-4bab324983aa","ios":"levelo://app?vid=86027c43-5e78-4674-a418-4bab324983aa"},"vehicle_type_id":"4","last_reported":1703318889,"current_range_meters":2400,"station_id":"","pricing_plan_id":"free"},{"bike_id":"4280029f-3cbc-4ba5-b795-fea009b494c9","system_id":"levelo_inurba_marseille","lat":43.29505,"lon":5.38404,"is_reserved":false,"is_disabled":false,"rental_uris":{"android":"levelo://app?vid=4280029f-3cbc-4ba5-b795-fea009b494c9","ios":"levelo://app?vid=4280029f-3cbc-4ba5-b795-fea009b494c9"},"vehicle_type_id":"4","last_reported":1703318889,"current_range_meters":30000,"station_id":"","pricing_plan_id":"free"},{"bike_id":"a9445331-9c46-4a3d-b622-3dc53d8aaa9e","system_id":"levelo_inurba_marseille","lat":43.291994,"lon":5.357886,"is_reserved":false,"is_disabled":false,"rental_uris":{"android":"levelo://app?vid=a9445331-9c46-4a3d-b622-3dc53d8aaa9e","ios":"levelo://app?vid=a9445331-9c46-4a3d-b622-3dc53d8aaa9e"},"vehicle_type_id":"4","last_reported":1703318889,"current_range_meters":24400,"station_id":"ce4bhb12rcd13ifvqel0","pricing_plan_id":"free"},{"bike_id":"d3cc02c2-2b0a-46f6-962c-8d5cf9b92e1d","system_id":"levelo_inurba_marseille","lat":43.313291,"lon":5.396838,"is_reserved":false,"is_disabled":false,"rental_uris":{"android":"levelo://app?vid=d3cc02c2-2b0a-46f6-962c-8d5cf9b92e1d","ios":"levelo://app?vid=d3cc02c2-2b0a-46f6-962c-8d5cf9b92e1d"},"vehicle_type_id":"4","last_reported":1703318889,"current_range_meters":11600,"station_id":"ce4bgvp2rcd13ifvqcu0","pricing_plan_id":"free"},{"bike_id":"cbc62839-3c9d-4d9e-963f-bbabfe928114","system_id":"levelo_inurba_marseille","lat":43.313291,"lon":5.396838,"is_reserved":false,"is_disabled":false,"rental_uris":{"android":"levelo://app?vid=cbc62839-3c9d-4d9e-963f-bbabfe928114","ios":"levelo://app?vid=cbc62839-3c9d-4d9e-963f-bbabfe928114"},"vehicle_type_id":"4","last_reported":1703318889,"current_range_meters":28800,"station_id":"ce4bgvp2rcd13ifvqcu0","pricing_plan_id":"free"},{"bike_id":"fa38fcc7-ca87-4463-a289-03c7cd4e6723","system_id":"levelo_inurba_marseille","lat":43.313291,"lon":5.396838,"is_reserved":false,"is_disabled":false,"rental_uris":{"android":"levelo://app?vid=fa38fcc7-ca87-4463-a289-03c7cd4e6723","ios":"levelo://app?vid=fa38fcc7-ca87-4463-a289-03c7cd4e6723"},"vehicle_type_id":"4","last_reported":1703318889,"current_range_meters":31200,"station_id":"ce4bgvp2rcd13ifvqcu0","pricing_plan_id":"free"},{"bike_id":"365351fb-9dc0-4763-85db-886ebe3b10db","system_id":"levelo_inurba_marseille","lat":43.313291,"lon":5.396838,"is_reserved":false,"is_disabled":false,"rental_uris":{"android":"levelo://app?vid=365351fb-9dc0-4763-85db-886ebe3b10db","ios":"levelo://app?vid=365351fb-9dc0-4763-85db-886ebe3b10db"},"vehicle_type_id":"4","last_reported":1703318889,"current_range_meters":5600,"station_id":"ce4bgvp2rcd13ifvqcu0","pricing_plan_id":"free"},{"bike_id":"787a319f-9a79-4164-8fbf-55115fc93c14","system_id":"levelo_inurba_marseille","lat":43.292005,"lon":5.357875,"is_reserved":false,"is_disabled":false,"rental_uris":{"android":"levelo://app?vid=787a319f-9a79-4164-8fbf-55115fc93c14","ios":"levelo://app?vid=787a319f-9a79-4164-8fbf-55115fc93c14"},"vehicle_type_id":"4","last_reported":1703318889,"current_range_meters":0,"station_id":"ce4bhb12rcd13ifvqel0","pricing_plan_id":"free"},{"bike_id":"c4b5c253-f844-42fd-82a6-50cb9b8a64cd","system_id":"levelo_inurba_marseille","lat":43.313291,"lon":5.396838,"is_reserved":false,"is_disabled":false,"rental_uris":{"android":"levelo://app?vid=c4b5c253-f844-42fd-82a6-50cb9b8a64cd","ios":"levelo://app?vid=c4b5c253-f844-42fd-82a6-50cb9b8a64cd"},"vehicle_type_id":"4","last_reported":1703318889,"current_range_meters":31200,"station_id":"ce4bgvp2rcd13ifvqcu0","pricing_plan_id":"free"},{"bike_id":"9900dbcc-2cc7-4281-a4db-abeb4da155e4","system_id":"levelo_inurba_marseille","lat":43.292005,"lon":5.357875,"is_reserved":false,"is_disabled":false,"rental_uris":{"android":"levelo://app?vid=9900dbcc-2cc7-4281-a4db-abeb4da155e4","ios":"levelo://app?vid=9900dbcc-2cc7-4281-a4db-abeb4da155e4"},"vehicle_type_id":"4","last_reported":1703318889,"current_range_meters":16400,"station_id":"ce4bhb12rcd13ifvqel0","pricing_plan_id":"free"},{"bike_id":"38d8ffb9-ac7c-4e14-9721-daaee9d23c1a","system_id":"levelo_inurba_marseille","lat":43.313291,"lon":5.396838,"is_reserved":false,"is_disabled":false,"rental_uris":{"android":"levelo://app?vid=38d8ffb9-ac7c-4e14-9721-daaee9d23c1a","ios":"levelo://app?vid=38d8ffb9-ac7c-4e14-9721-daaee9d23c1a"},"vehicle_type_id":"4","last_reported":1703318889,"current_range_meters":31200,"station_id":"ce4bgvp2rcd13ifvqcu0","pricing_plan_id":"free"},{"bike_id":"9c4bd2fc-3d5e-46d7-a52e-17b1c35c085b","system_id":"levelo_inurba_marseille","lat":43.313291,"lon":5.396838,"is_reserved":false,"is_disabled":false,"rental_uris":{"android":"levelo://app?vid=9c4bd2fc-3d5e-46d7-a52e-17b1c35c085b","ios":"levelo://app?vid=9c4bd2fc-3d5e-46d7-a52e-17b1c35c085b"},"vehicle_type_id":"4","last_reported":1703318889,"current_range_meters":13200,"station_id":"ce4bgvp2rcd13ifvqcu0","pricing_plan_id":"free"},{"bike_id":"a90b8b83-e596-4fc1-8b62-b201f740b064","system_id":"levelo_inurba_marseille","lat":43.313291,"lon":5.396838,"is_reserved":false,"is_disabled":false,"rental_uris":{"android":"levelo://app?vid=a90b8b83-e596-4fc1-8b62-b201f740b064","ios":"levelo://app?vid=a90b8b83-e596-4fc1-8b62-b201f740b064"},"vehicle_type_id":"4","last_reported":1703318889,"current_range_meters":30800,"station_id":"ce4bgvp2rcd13ifvqcu0","pricing_plan_id":"free"},{"bike_id":"eceb5307-053e-422d-bbd0-9af032e873b8","system_id":"levelo_inurba_marseille","lat":43.313291,"lon":5.396838,"is_reserved":false,"is_disabled":false,"rental_uris":{"android":"levelo://app?vid=eceb5307-053e-422d-bbd0-9af032e873b8","ios":"levelo://app?vid=eceb5307-053e-422d-bbd0-9af032e873b8"},"vehicle_type_id":"4","last_reported":1703318889,"current_range_meters":31200,"station_id":"ce4bgvp2rcd13ifvqcu0","pricing_plan_id":"free"},{"bike_id":"dd007d71-4a6c-403a-a1a0-ea0c10c811f9","system_id":"levelo_inurba_marseille","lat":43.290624,"lon":5.359245,"is_reserved":false,"is_disabled":false,"rental_uris":{"android":"levelo://app?vid=dd007d71-4a6c-403a-a1a0-ea0c10c811f9","ios":"levelo://app?vid=dd007d71-4a6c-403a-a1a0-ea0c10c811f9"},"vehicle_type_id":"4","last_reported":1703318889,"current_range_meters":31600,"station_id":"ce4bha92rcd13ifvqeg0","pricing_plan_id":"free"},{"bike_id":"e210f78b-fe9a-4b70-8819-941e79b7585a","system_id":"levelo_inurba_marseille","lat":43.290624,"lon":5.359245,"is_reserved":false,"is_disabled":false,"rental_uris":{"android":"levelo://app?vid=e210f78b-fe9a-4b70-8819-941e79b7585a","ios":"levelo://app?vid=e210f78b-fe9a-4b70-8819-941e79b7585a"},"vehicle_type_id":"4","last_reported":1703318889,"current_range_meters":17200,"station_id":"ce4bha92rcd13ifvqeg0","pricing_plan_id":"free"},{"bike_id":"a0b2aa76-e96f-479b-bb54-e412bfb088eb","system_id":"levelo_inurba_marseille","lat":43.290631,"lon":5.359244,"is_reserved":false,"is_disabled":false,"rental_uris":{"android":"levelo://app?vid=a0b2aa76-e96f-479b-bb54-e412bfb088eb","ios":"levelo://app?vid=a0b2aa76-e96f-479b-bb54-e412bfb088eb"},"vehicle_type_id":"4","last_reported":1703318889,"current_range_meters":30400,"station_id":"ce4bha92rcd13ifvqeg0","pricing_plan_id":"free"},{"bike_id":"81ecd235-69e4-434d-8b01-82b37874aab3","system_id":"levelo_inurba_marseille","lat":43.290631,"lon":5.359244,"is_reserved":false,"is_disabled":false,"rental_uris":{"android":"levelo://app?vid=81ecd235-69e4-434d-8b01-82b37874aab3","ios":"levelo://app?vid=81ecd235-69e4-434d-8b01-82b37874aab3"},"vehicle_type_id":"4","last_reported":1703318889,"current_range_meters":30400,"station_id":"ce4bha92rcd13ifvqeg0","pricing_plan_id":"free"},{"bike_id":"995076a2-5ee5-4627-86ef-8cfd4e080a6a","system_id":"levelo_inurba_marseille","lat":43.290631,"lon":5.359244,"is_reserved":false,"is_disabled":false,"rental_uris":{"android":"levelo://app?vid=995076a2-5ee5-4627-86ef-8cfd4e080a6a","ios":"levelo://app?vid=995076a2-5ee5-4627-86ef-8cfd4e080a6a"},"vehicle_type_id":"4","last_reported":1703318889,"current_range_meters":31200,"station_id":"ce4bha92rcd13ifvqeg0","pricing_plan_id":"free"},{"bike_id":"626afde7-3087-46ee-bb34-8e7f59f46ff0","system_id":"levelo_inurba_marseille","lat":43.29422,"lon":5.38614,"is_reserved":false,"is_disabled":false,"rental_uris":{"android":"levelo://app?vid=626afde7-3087-46ee-bb34-8e7f59f46ff0","ios":"levelo://app?vid=626afde7-3087-46ee-bb34-8e7f59f46ff0"},"vehicle_type_id":"4","last_reported":1703318889,"current_range_meters":30000,"station_id":"ce4bh2h2rcd13ifvqdh0","pricing_plan_id":"free"},{"bike_id":"7f55f7a9-5b85-4576-91d6-f0cde9b67c0e","system_id":"levelo_inurba_marseille","lat":43.29417,"lon":5.38619,"is_reserved":false,"is_disabled":false,"rental_uris":{"android":"levelo://app?vid=7f55f7a9-5b85-4576-91d6-f0cde9b67c0e","ios":"levelo://app?vid=7f55f7a9-5b85-4576-91d6-f0cde9b67c0e"},"vehicle_type_id":"4","last_reported":1703318889,"current_range_meters":0,"station_id":"ce4bh2h2rcd13ifvqdh0","pricing_plan_id":"free"},{"bike_id":"b39d1d0e-65f9-4140-b731-aeb266e13cca","system_id":"levelo_inurba_marseille","lat":43.290103,"lon":5.356114,"is_reserved":false,"is_disabled":false,"rental_uris":{"android":"levelo://app?vid=b39d1d0e-65f9-4140-b731-aeb266e13cca","ios":"levelo://app?vid=b39d1d0e-65f9-4140-b731-aeb266e13cca"},"vehicle_type_id":"4","last_reported":1703318889,"current_range_meters":26800,"station_id":"ce4bhb92rcd13ifvqen0","pricing_plan_id":"free"},{"bike_id":"f5608895-b703-4406-8ec1-89463acfeb43","system_id":"levelo_inurba_marseille","lat":43.295169,"lon":5.390426,"is_reserved":false,"is_disabled":false,"rental_uris":{"android":"levelo://app?vid=f5608895-b703-4406-8ec1-89463acfeb43","ios":"levelo://app?vid=f5608895-b703-4406-8ec1-89463acfeb43"},"vehicle_type_id":"4","last_reported":1703318889,"current_range_meters":30800,"station_id":"ce4bh3p2rcd13ifvqdp0","pricing_plan_id":"free"},{"bike_id":"5c98cc8a-3234-4823-9229-a78f3a772576","system_id":"levelo_inurba_marseille","lat":43.28856,"lon":5.358371,"is_reserved":false,"is_disabled":false,"rental_uris":{"android":"levelo://app?vid=5c98cc8a-3234-4823-9229-a78f3a772576","ios":"levelo://app?vid=5c98cc8a-3234-4823-9229-a78f3a772576"},"vehicle_type_id":"4","last_reported":1703318889,"current_range_meters":25600,"station_id":"ce4bhb12rcd13ifvqem0","pricing_plan_id":"free"},{"bike_id":"d93baeb3-bc78-4644-a6db-3159af03dd66","system_id":"levelo_inurba_marseille","lat":43.28856,"lon":5.358371,"is_reserved":false,"is_disabled":false,"rental_uris":{"android":"levelo://app?vid=d93baeb3-bc78-4644-a6db-3159af03dd66","ios":"levelo://app?vid=d93baeb3-bc78-4644-a6db-3159af03dd66"},"vehicle_type_id":"4","last_reported":1703318889,"current_range_meters":22400,"station_id":"ce4bhb12rcd13ifvqem0","pricing_plan_id":"free"},{"bike_id":"8ef0b422-19f6-411f-94a3-e522ab90585c","system_id":"levelo_inurba_marseille","lat":43.28856,"lon":5.358371,"is_reserved":false,"is_disabled":false,"rental_uris":{"android":"levelo://app?vid=8ef0b422-19f6-411f-94a3-e522ab90585c","ios":"levelo://app?vid=8ef0b422-19f6-411f-94a3-e522ab90585c"},"vehicle_type_id":"4","last_reported":1703318889,"current_range_meters":28800,"station_id":"ce4bhb12rcd13ifvqem0","pricing_plan_id":"free"},{"bike_id":"f5920207-e880-43d6-a926-dc5c21ab9b15","system_id":"levelo_inurba_marseille","lat":43.28856,"lon":5.358371,"is_reserved":false,"is_disabled":false,"rental_uris":{"android":"levelo://app?vid=f5920207-e880-43d6-a926-dc5c21ab9b15","ios":"levelo://app?vid=f5920207-e880-43d6-a926-dc5c21ab9b15"},"vehicle_type_id":"4","last_reported":1703318889,"current_range_meters":15200,"station_id":"ce4bhb12rcd13ifvqem0","pricing_plan_id":"free"},{"bike_id":"cb834f18-e533-4e4b-866a-78b5e9e89f81","system_id":"levelo_inurba_marseille","lat":43.312609,"lon":5.401662,"is_reserved":false,"is_disabled":false,"rental_uris":{"android":"levelo://app?vid=cb834f18-e533-4e4b-866a-78b5e9e89f81","ios":"levelo://app?vid=cb834f18-e533-4e4b-866a-78b5e9e89f81"},"vehicle_type_id":"4","last_reported":1703318889,"current_range_meters":4800,"station_id":"ce4bh092rcd13ifvqd30","pricing_plan_id":"free"},{"bike_id":"53e421d9-65d6-44cf-8edd-899c2cf616e6","system_id":"levelo_inurba_marseille","lat":43.312609,"lon":5.401662,"is_reserved":false,"is_disabled":false,"rental_uris":{"android":"levelo://app?vid=53e421d9-65d6-44cf-8edd-899c2cf616e6","ios":"levelo://app?vid=53e421d9-65d6-44cf-8edd-899c2cf616e6"},"vehicle_type_id":"4","last_reported":1703318889,"current_range_meters":19600,"station_id":"ce4bh092rcd13ifvqd30","pricing_plan_id":"free"},{"bike_id":"dd05a44f-c63c-4f06-ad3c-fb05683d47a2","system_id":"levelo_inurba_marseille","lat":43.309306,"lon":5.401384,"is_reserved":false,"is_disabled":false,"rental_uris":{"android":"levelo://app?vid=dd05a44f-c63c-4f06-ad3c-fb05683d47a2","ios":"levelo://app?vid=dd05a44f-c63c-4f06-ad3c-fb05683d47a2"},"vehicle_type_id":"4","last_reported":1703318889,"current_range_meters":16000,"station_id":"ce4bgvp2rcd13ifvqct0","pricing_plan_id":"free"},{"bike_id":"fb80af67-0bd9-41bb-9332-628b36cf4a3e","system_id":"levelo_inurba_marseille","lat":43.30933,"lon":5.40145,"is_reserved":false,"is_disabled":false,"rental_uris":{"android":"levelo://app?vid=fb80af67-0bd9-41bb-9332-628b36cf4a3e","ios":"levelo://app?vid=fb80af67-0bd9-41bb-9332-628b36cf4a3e"},"vehicle_type_id":"4","last_reported":1703318889,"current_range_meters":18400,"station_id":"ce4bgvp2rcd13ifvqct0","pricing_plan_id":"free"},{"bike_id":"9147d20d-052b-4f74-9a58-44d3a98b3237","system_id":"levelo_inurba_marseille","lat":43.30923,"lon":5.401437,"is_reserved":false,"is_disabled":false,"rental_uris":{"android":"levelo://app?vid=9147d20d-052b-4f74-9a58-44d3a98b3237","ios":"levelo://app?vid=9147d20d-052b-4f74-9a58-44d3a98b3237"},"vehicle_type_id":"4","last_reported":1703318889,"current_range_meters":9200,"station_id":"ce4bgvp2rcd13ifvqct0","pricing_plan_id":"free"},{"bike_id":"0287b5f8-05ef-4d55-8fe1-0a5e56fee7b1","system_id":"levelo_inurba_marseille","lat":43.309184,"lon":5.40149,"is_reserved":false,"is_disabled":false,"rental_uris":{"android":"levelo://app?vid=0287b5f8-05ef-4d55-8fe1-0a5e56fee7b1","ios":"levelo://app?vid=0287b5f8-05ef-4d55-8fe1-0a5e56fee7b1"},"vehicle_type_id":"4","last_reported":1703318889,"current_range_meters":10000,"station_id":"ce4bgvp2rcd13ifvqct0","pricing_plan_id":"free"},{"bike_id":"5442de4e-bff5-4457-9eff-f4bd8123b423","system_id":"levelo_inurba_marseille","lat":43.306412,"lon":5.401035,"is_reserved":false,"is_disabled":false,"rental_uris":{"android":"levelo://app?vid=5442de4e-bff5-4457-9eff-f4bd8123b423","ios":"levelo://app?vid=5442de4e-bff5-4457-9eff-f4bd8123b423"},"vehicle_type_id":"4","last_reported":1703318889,"current_range_meters":29600,"station_id":"ce4bh112rcd13ifvqda0","pricing_plan_id":"free"},{"bike_id":"9d7c4bb7-8e63-4450-871a-e3edd53cdeb3","system_id":"levelo_inurba_marseille","lat":43.295196,"lon":5.39397,"is_reserved":false,"is_disabled":false,"rental_uris":{"android":"levelo://app?vid=9d7c4bb7-8e63-4450-871a-e3edd53cdeb3","ios":"levelo://app?vid=9d7c4bb7-8e63-4450-871a-e3edd53cdeb3"},"vehicle_type_id":"4","last_reported":1703318889,"current_range_meters":14400,"station_id":"ce4bh292rcd13ifvqdf0","pricing_plan_id":"free"},{"bike_id":"31aed1b0-de3b-4250-8f11-ce0ae17d71e2","system_id":"levelo_inurba_marseille","lat":43.302759,"lon":5.400793,"is_reserved":false,"is_disabled":false,"rental_uris":{"android":"levelo://app?vid=31aed1b0-de3b-4250-8f11-ce0ae17d71e2","ios":"levelo://app?vid=31aed1b0-de3b-4250-8f11-ce0ae17d71e2"},"vehicle_type_id":"4","last_reported":1703318889,"current_range_meters":30800,"station_id":"ce4bgvh2rcd13ifvqcs0","pricing_plan_id":"free"},{"bike_id":"b269c749-19b3-457a-9f11-021ccc443c55","system_id":"levelo_inurba_marseille","lat":43.286039,"lon":5.370679,"is_reserved":false,"is_disabled":false,"rental_uris":{"android":"levelo://app?vid=b269c749-19b3-457a-9f11-021ccc443c55","ios":"levelo://app?vid=b269c749-19b3-457a-9f11-021ccc443c55"},"vehicle_type_id":"4","last_reported":1703318889,"current_range_meters":16800,"station_id":"ce4bht12rcd13ifvqi60","pricing_plan_id":"free"},{"bike_id":"699b8a54-b61d-41c8-9edb-0fa9c4942314","system_id":"levelo_inurba_marseille","lat":43.287185,"lon":5.379373,"is_reserved":false,"is_disabled":false,"rental_uris":{"android":"levelo://app?vid=699b8a54-b61d-41c8-9edb-0fa9c4942314","ios":"levelo://app?vid=699b8a54-b61d-41c8-9edb-0fa9c4942314"},"vehicle_type_id":"4","last_reported":1703318889,"current_range_meters":28800,"station_id":"ce4bh9p2rcd13ifvqec0","pricing_plan_id":"free"},{"bike_id":"8d7088d7-7e98-4530-8f59-682e05945221","system_id":"levelo_inurba_marseille","lat":43.316828,"lon":5.404723,"is_reserved":false,"is_disabled":false,"rental_uris":{"android":"levelo://app?vid=8d7088d7-7e98-4530-8f59-682e05945221","ios":"levelo://app?vid=8d7088d7-7e98-4530-8f59-682e05945221"},"vehicle_type_id":"4","last_reported":1703318889,"current_range_meters":7200,"station_id":"ce4bh012rcd13ifvqd00","pricing_plan_id":"free"},{"bike_id":"131cc08d-d375-40f4-a928-75f8b6843ec9","system_id":"levelo_inurba_marseille","lat":43.316828,"lon":5.404723,"is_reserved":false,"is_disabled":false,"rental_uris":{"android":"levelo://app?vid=131cc08d-d375-40f4-a928-75f8b6843ec9","ios":"levelo://app?vid=131cc08d-d375-40f4-a928-75f8b6843ec9"},"vehicle_type_id":"4","last_reported":1703318889,"current_range_meters":20800,"station_id":"ce4bh012rcd13ifvqd00","pricing_plan_id":"free"},{"bike_id":"49e87e09-4a4e-4d2c-a174-2ea3c671a3c6","system_id":"levelo_inurba_marseille","lat":43.291994,"lon":5.392907,"is_reserved":false,"is_disabled":false,"rental_uris":{"android":"levelo://app?vid=49e87e09-4a4e-4d2c-a174-2ea3c671a3c6","ios":"levelo://app?vid=49e87e09-4a4e-4d2c-a174-2ea3c671a3c6"},"vehicle_type_id":"4","last_reported":1703318889,"current_range_meters":24400,"station_id":"ce4bh192rcd13ifvqdd0","pricing_plan_id":"free"},{"bike_id":"e2adfa7c-882e-48a1-9ee4-b36e6186ebbf","system_id":"levelo_inurba_marseille","lat":43.330912,"lon":5.396935,"is_reserved":false,"is_disabled":false,"rental_uris":{"android":"levelo://app?vid=e2adfa7c-882e-48a1-9ee4-b36e6186ebbf","ios":"levelo://app?vid=e2adfa7c-882e-48a1-9ee4-b36e6186ebbf"},"vehicle_type_id":"4","last_reported":1703318889,"current_range_meters":15200,"station_id":"","pricing_plan_id":"free"},{"bike_id":"ce83a5c5-1b59-4268-ba3a-86cabe0b3ae5","system_id":"levelo_inurba_marseille","lat":43.284538,"lon":5.358657,"is_reserved":false,"is_disabled":false,"rental_uris":{"android":"levelo://app?vid=ce83a5c5-1b59-4268-ba3a-86cabe0b3ae5","ios":"levelo://app?vid=ce83a5c5-1b59-4268-ba3a-86cabe0b3ae5"},"vehicle_type_id":"4","last_reported":1703318889,"current_range_meters":29200,"station_id":"ce4bhah2rcd13ifvqei0","pricing_plan_id":"free"},{"bike_id":"6681f091-8cae-40db-82be-2afedc79afec","system_id":"levelo_inurba_marseille","lat":43.297844,"lon":5.400828,"is_reserved":false,"is_disabled":false,"rental_uris":{"android":"levelo://app?vid=6681f091-8cae-40db-82be-2afedc79afec","ios":"levelo://app?vid=6681f091-8cae-40db-82be-2afedc79afec"},"vehicle_type_id":"4","last_reported":1703318889,"current_range_meters":2400,"station_id":"","pricing_plan_id":"free"},{"bike_id":"c4a57cfa-f798-4c02-baac-dd5add18a925","system_id":"levelo_inurba_marseille","lat":43.285856,"lon":5.350771,"is_reserved":false,"is_disabled":false,"rental_uris":{"android":"levelo://app?vid=c4a57cfa-f798-4c02-baac-dd5add18a925","ios":"levelo://app?vid=c4a57cfa-f798-4c02-baac-dd5add18a925"},"vehicle_type_id":"4","last_reported":1703318889,"current_range_meters":22400,"station_id":"ce4bhch2rcd13ifvqeug","pricing_plan_id":"free"},{"bike_id":"7637ab6b-3240-49cc-8943-9adef6cbb030","system_id":"levelo_inurba_marseille","lat":43.295713,"lon":5.399639,"is_reserved":false,"is_disabled":false,"rental_uris":{"android":"levelo://app?vid=7637ab6b-3240-49cc-8943-9adef6cbb030","ios":"levelo://app?vid=7637ab6b-3240-49cc-8943-9adef6cbb030"},"vehicle_type_id":"4","last_reported":1703318889,"current_range_meters":28800,"station_id":"ce4bh312rcd13ifvqdj0","pricing_plan_id":"free"},{"bike_id":"b306bef3-61ce-4097-b249-eebc7da08ee6","system_id":"levelo_inurba_marseille","lat":43.323464,"lon":5.406297,"is_reserved":false,"is_disabled":false,"rental_uris":{"android":"levelo://app?vid=b306bef3-61ce-4097-b249-eebc7da08ee6","ios":"levelo://app?vid=b306bef3-61ce-4097-b249-eebc7da08ee6"},"vehicle_type_id":"4","last_reported":1703318889,"current_range_meters":28400,"station_id":"ce4bhq92rcd13ifvqhjg","pricing_plan_id":"free"},{"bike_id":"3b7e3ec0-988e-4aeb-bcf3-3017c628b5d3","system_id":"levelo_inurba_marseille","lat":43.33717,"lon":5.391857,"is_reserved":false,"is_disabled":false,"rental_uris":{"android":"levelo://app?vid=3b7e3ec0-988e-4aeb-bcf3-3017c628b5d3","ios":"levelo://app?vid=3b7e3ec0-988e-4aeb-bcf3-3017c628b5d3"},"vehicle_type_id":"4","last_reported":1703318889,"current_range_meters":29600,"station_id":"ce4bhr92rcd13ifvqhsg","pricing_plan_id":"free"},{"bike_id":"b7c71217-6fce-490c-9bd4-073ff8143718","system_id":"levelo_inurba_marseille","lat":43.33717,"lon":5.391857,"is_reserved":false,"is_disabled":false,"rental_uris":{"android":"levelo://app?vid=b7c71217-6fce-490c-9bd4-073ff8143718","ios":"levelo://app?vid=b7c71217-6fce-490c-9bd4-073ff8143718"},"vehicle_type_id":"4","last_reported":1703318889,"current_range_meters":31200,"station_id":"ce4bhr92rcd13ifvqhsg","pricing_plan_id":"free"},{"bike_id":"233eb238-e400-46e7-9601-45e4ec2edf9e","system_id":"levelo_inurba_marseille","lat":43.337168,"lon":5.391825,"is_reserved":false,"is_disabled":false,"rental_uris":{"android":"levelo://app?vid=233eb238-e400-46e7-9601-45e4ec2edf9e","ios":"levelo://app?vid=233eb238-e400-46e7-9601-45e4ec2edf9e"},"vehicle_type_id":"4","last_reported":1703318889,"current_range_meters":26000,"station_id":"ce4bhr92rcd13ifvqhsg","pricing_plan_id":"free"},{"bike_id":"2bcc2b89-6952-4a7d-bea6-02a0b59867fc","system_id":"levelo_inurba_marseille","lat":43.323464,"lon":5.406297,"is_reserved":false,"is_disabled":false,"rental_uris":{"android":"levelo://app?vid=2bcc2b89-6952-4a7d-bea6-02a0b59867fc","ios":"levelo://app?vid=2bcc2b89-6952-4a7d-bea6-02a0b59867fc"},"vehicle_type_id":"4","last_reported":1703318889,"current_range_meters":29600,"station_id":"ce4bhq92rcd13ifvqhjg","pricing_plan_id":"free"},{"bike_id":"69032901-fed5-40e7-ac74-96cef6359164","system_id":"levelo_inurba_marseille","lat":43.2886,"lon":5.3932,"is_reserved":false,"is_disabled":false,"rental_uris":{"android":"levelo://app?vid=69032901-fed5-40e7-ac74-96cef6359164","ios":"levelo://app?vid=69032901-fed5-40e7-ac74-96cef6359164"},"vehicle_type_id":"4","last_reported":1703318889,"current_range_meters":18800,"station_id":"ce4bh2p2rcd13ifvqdi0","pricing_plan_id":"free"},{"bike_id":"e056a749-905f-483b-9fbc-df7fd237b79e","system_id":"levelo_inurba_marseille","lat":43.283498,"lon":5.380948,"is_reserved":false,"is_disabled":false,"rental_uris":{"android":"levelo://app?vid=e056a749-905f-483b-9fbc-df7fd237b79e","ios":"levelo://app?vid=e056a749-905f-483b-9fbc-df7fd237b79e"},"vehicle_type_id":"4","last_reported":1703318889,"current_range_meters":25200,"station_id":"ce4bh412rcd13ifvqdr0","pricing_plan_id":"free"},{"bike_id":"b02feee7-8174-41b3-95be-62f87df2ecbb","system_id":"levelo_inurba_marseille","lat":43.283494,"lon":5.380945,"is_reserved":false,"is_disabled":false,"rental_uris":{"android":"levelo://app?vid=b02feee7-8174-41b3-95be-62f87df2ecbb","ios":"levelo://app?vid=b02feee7-8174-41b3-95be-62f87df2ecbb"},"vehicle_type_id":"4","last_reported":1703318889,"current_range_meters":31600,"station_id":"ce4bh412rcd13ifvqdr0","pricing_plan_id":"free"},{"bike_id":"0601b688-b662-4e8e-9ec0-cc379b78ea95","system_id":"levelo_inurba_marseille","lat":43.283494,"lon":5.380945,"is_reserved":false,"is_disabled":false,"rental_uris":{"android":"levelo://app?vid=0601b688-b662-4e8e-9ec0-cc379b78ea95","ios":"levelo://app?vid=0601b688-b662-4e8e-9ec0-cc379b78ea95"},"vehicle_type_id":"4","last_reported":1703318889,"current_range_meters":18800,"station_id":"ce4bh412rcd13ifvqdr0","pricing_plan_id":"free"},{"bike_id":"fd6583fe-bfb4-4eec-9c48-29450c69b4e5","system_id":"levelo_inurba_marseille","lat":43.283494,"lon":5.380945,"is_reserved":false,"is_disabled":false,"rental_uris":{"android":"levelo://app?vid=fd6583fe-bfb4-4eec-9c48-29450c69b4e5","ios":"levelo://app?vid=fd6583fe-bfb4-4eec-9c48-29450c69b4e5"},"vehicle_type_id":"4","last_reported":1703318889,"current_range_meters":22800,"station_id":"ce4bh412rcd13ifvqdr0","pricing_plan_id":"free"},{"bike_id":"3836b981-ce8c-4134-a5b7-097c6433e054","system_id":"levelo_inurba_marseille","lat":43.283498,"lon":5.380948,"is_reserved":false,"is_disabled":false,"rental_uris":{"android":"levelo://app?vid=3836b981-ce8c-4134-a5b7-097c6433e054","ios":"levelo://app?vid=3836b981-ce8c-4134-a5b7-097c6433e054"},"vehicle_type_id":"4","last_reported":1703318889,"current_range_meters":29200,"station_id":"ce4bh412rcd13ifvqdr0","pricing_plan_id":"free"},{"bike_id":"8dfe56ce-8c3b-4883-84f7-26294ebad6ae","system_id":"levelo_inurba_marseille","lat":43.283494,"lon":5.380945,"is_reserved":false,"is_disabled":false,"rental_uris":{"android":"levelo://app?vid=8dfe56ce-8c3b-4883-84f7-26294ebad6ae","ios":"levelo://app?vid=8dfe56ce-8c3b-4883-84f7-26294ebad6ae"},"vehicle_type_id":"4","last_reported":1703318889,"current_range_meters":8000,"station_id":"ce4bh412rcd13ifvqdr0","pricing_plan_id":"free"},{"bike_id":"24938d4e-f4f3-448b-9652-49ca05eab011","system_id":"levelo_inurba_marseille","lat":43.289363,"lon":5.396322,"is_reserved":false,"is_disabled":false,"rental_uris":{"android":"levelo://app?vid=24938d4e-f4f3-448b-9652-49ca05eab011","ios":"levelo://app?vid=24938d4e-f4f3-448b-9652-49ca05eab011"},"vehicle_type_id":"4","last_reported":1703318889,"current_range_meters":27600,"station_id":"ce4bh3h2rcd13ifvqdn0","pricing_plan_id":"free"},{"bike_id":"17f32f8e-aed9-4a71-8b6c-f05195f7b71c","system_id":"levelo_inurba_marseille","lat":43.283502,"lon":5.386471,"is_reserved":false,"is_disabled":false,"rental_uris":{"android":"levelo://app?vid=17f32f8e-aed9-4a71-8b6c-f05195f7b71c","ios":"levelo://app?vid=17f32f8e-aed9-4a71-8b6c-f05195f7b71c"},"vehicle_type_id":"4","last_reported":1703318889,"current_range_meters":20800,"station_id":"ce4bh492rcd13ifvqdvg","pricing_plan_id":"free"},{"bike_id":"a027d4c2-e1ac-4621-b2c4-f37e8f3f6c1b","system_id":"levelo_inurba_marseille","lat":43.282754,"lon":5.350519,"is_reserved":false,"is_disabled":false,"rental_uris":{"android":"levelo://app?vid=a027d4c2-e1ac-4621-b2c4-f37e8f3f6c1b","ios":"levelo://app?vid=a027d4c2-e1ac-4621-b2c4-f37e8f3f6c1b"},"vehicle_type_id":"4","last_reported":1703318889,"current_range_meters":29200,"station_id":"ce4bhbp2rcd13ifvqerg","pricing_plan_id":"free"},{"bike_id":"0c07039d-f042-4577-ad3b-2eb17b5732ec","system_id":"levelo_inurba_marseille","lat":43.282677,"lon":5.350704,"is_reserved":false,"is_disabled":false,"rental_uris":{"android":"levelo://app?vid=0c07039d-f042-4577-ad3b-2eb17b5732ec","ios":"levelo://app?vid=0c07039d-f042-4577-ad3b-2eb17b5732ec"},"vehicle_type_id":"4","last_reported":1703318889,"current_range_meters":8000,"station_id":"ce4bhbp2rcd13ifvqerg","pricing_plan_id":"free"},{"bike_id":"e4cfc497-fbed-435b-8e40-d54801b28e62","system_id":"levelo_inurba_marseille","lat":43.282754,"lon":5.350519,"is_reserved":false,"is_disabled":false,"rental_uris":{"android":"levelo://app?vid=e4cfc497-fbed-435b-8e40-d54801b28e62","ios":"levelo://app?vid=e4cfc497-fbed-435b-8e40-d54801b28e62"},"vehicle_type_id":"4","last_reported":1703318889,"current_range_meters":27200,"station_id":"ce4bhbp2rcd13ifvqerg","pricing_plan_id":"free"},{"bike_id":"1b26201c-d66a-4386-9421-943cb96302d6","system_id":"levelo_inurba_marseille","lat":43.282744,"lon":5.350533,"is_reserved":false,"is_disabled":false,"rental_uris":{"android":"levelo://app?vid=1b26201c-d66a-4386-9421-943cb96302d6","ios":"levelo://app?vid=1b26201c-d66a-4386-9421-943cb96302d6"},"vehicle_type_id":"4","last_reported":1703318889,"current_range_meters":31200,"station_id":"ce4bhbp2rcd13ifvqerg","pricing_plan_id":"free"},{"bike_id":"e5c1a3b6-8c95-4b2f-b3ff-813e9e9acd8e","system_id":"levelo_inurba_marseille","lat":43.282744,"lon":5.350533,"is_reserved":false,"is_disabled":false,"rental_uris":{"android":"levelo://app?vid=e5c1a3b6-8c95-4b2f-b3ff-813e9e9acd8e","ios":"levelo://app?vid=e5c1a3b6-8c95-4b2f-b3ff-813e9e9acd8e"},"vehicle_type_id":"4","last_reported":1703318889,"current_range_meters":20800,"station_id":"ce4bhbp2rcd13ifvqerg","pricing_plan_id":"free"},{"bike_id":"2024a61b-7173-4785-8359-84679011d211","system_id":"levelo_inurba_marseille","lat":43.280382,"lon":5.369291,"is_reserved":false,"is_disabled":false,"rental_uris":{"android":"levelo://app?vid=2024a61b-7173-4785-8359-84679011d211","ios":"levelo://app?vid=2024a61b-7173-4785-8359-84679011d211"},"vehicle_type_id":"4","last_reported":1703318889,"current_range_meters":31600,"station_id":"ce4bha12rcd13ifvqef0","pricing_plan_id":"free"},{"bike_id":"ab54ffe8-6926-44a5-ad8d-6a56843b7da1","system_id":"levelo_inurba_marseille","lat":43.28039,"lon":5.369297,"is_reserved":false,"is_disabled":false,"rental_uris":{"android":"levelo://app?vid=ab54ffe8-6926-44a5-ad8d-6a56843b7da1","ios":"levelo://app?vid=ab54ffe8-6926-44a5-ad8d-6a56843b7da1"},"vehicle_type_id":"4","last_reported":1703318889,"current_range_meters":400,"station_id":"ce4bha12rcd13ifvqef0","pricing_plan_id":"free"},{"bike_id":"86a968dc-f141-4fe8-a39b-55246f534eb4","system_id":"levelo_inurba_marseille","lat":43.28039,"lon":5.369297,"is_reserved":false,"is_disabled":false,"rental_uris":{"android":"levelo://app?vid=86a968dc-f141-4fe8-a39b-55246f534eb4","ios":"levelo://app?vid=86a968dc-f141-4fe8-a39b-55246f534eb4"},"vehicle_type_id":"4","last_reported":1703318889,"current_range_meters":17600,"station_id":"ce4bha12rcd13ifvqef0","pricing_plan_id":"free"},{"bike_id":"9ffafec3-6611-4556-9571-530e1d819b18","system_id":"levelo_inurba_marseille","lat":43.280382,"lon":5.369291,"is_reserved":false,"is_disabled":false,"rental_uris":{"android":"levelo://app?vid=9ffafec3-6611-4556-9571-530e1d819b18","ios":"levelo://app?vid=9ffafec3-6611-4556-9571-530e1d819b18"},"vehicle_type_id":"4","last_reported":1703318889,"current_range_meters":15200,"station_id":"ce4bha12rcd13ifvqef0","pricing_plan_id":"free"},{"bike_id":"289d2076-0005-417e-aaf4-5a60e1989df9","system_id":"levelo_inurba_marseille","lat":43.28039,"lon":5.369297,"is_reserved":false,"is_disabled":false,"rental_uris":{"android":"levelo://app?vid=289d2076-0005-417e-aaf4-5a60e1989df9","ios":"levelo://app?vid=289d2076-0005-417e-aaf4-5a60e1989df9"},"vehicle_type_id":"4","last_reported":1703318889,"current_range_meters":31600,"station_id":"ce4bha12rcd13ifvqef0","pricing_plan_id":"free"},{"bike_id":"06197de1-47f7-4cb7-9a62-a0f13e3be420","system_id":"levelo_inurba_marseille","lat":43.280382,"lon":5.369291,"is_reserved":false,"is_disabled":false,"rental_uris":{"android":"levelo://app?vid=06197de1-47f7-4cb7-9a62-a0f13e3be420","ios":"levelo://app?vid=06197de1-47f7-4cb7-9a62-a0f13e3be420"},"vehicle_type_id":"4","last_reported":1703318889,"current_range_meters":21600,"station_id":"ce4bha12rcd13ifvqef0","pricing_plan_id":"free"},{"bike_id":"8d954b9b-7cc9-4db6-b465-bf95f174b85f","system_id":"levelo_inurba_marseille","lat":43.2803,"lon":5.3694,"is_reserved":false,"is_disabled":false,"rental_uris":{"android":"levelo://app?vid=8d954b9b-7cc9-4db6-b465-bf95f174b85f","ios":"levelo://app?vid=8d954b9b-7cc9-4db6-b465-bf95f174b85f"},"vehicle_type_id":"4","last_reported":1703318889,"current_range_meters":16000,"station_id":"ce4bha12rcd13ifvqef0","pricing_plan_id":"free"},{"bike_id":"b43388f4-ddbf-4993-a544-073be8385643","system_id":"levelo_inurba_marseille","lat":43.290412,"lon":5.399633,"is_reserved":false,"is_disabled":false,"rental_uris":{"android":"levelo://app?vid=b43388f4-ddbf-4993-a544-073be8385643","ios":"levelo://app?vid=b43388f4-ddbf-4993-a544-073be8385643"},"vehicle_type_id":"4","last_reported":1703318889,"current_range_meters":28800,"station_id":"ce4bh392rcd13ifvqdm0","pricing_plan_id":"free"},{"bike_id":"295a1f8e-902b-4f4f-824f-dff3e157680d","system_id":"levelo_inurba_marseille","lat":43.28106,"lon":5.37848,"is_reserved":false,"is_disabled":false,"rental_uris":{"android":"levelo://app?vid=295a1f8e-902b-4f4f-824f-dff3e157680d","ios":"levelo://app?vid=295a1f8e-902b-4f4f-824f-dff3e157680d"},"vehicle_type_id":"4","last_reported":1703318889,"current_range_meters":29600,"station_id":"ce4bha12rcd13ifvqee0","pricing_plan_id":"free"},{"bike_id":"4a7194a6-bdc2-4d67-a274-476a5cbc95aa","system_id":"levelo_inurba_marseille","lat":43.281044,"lon":5.378308,"is_reserved":false,"is_disabled":false,"rental_uris":{"android":"levelo://app?vid=4a7194a6-bdc2-4d67-a274-476a5cbc95aa","ios":"levelo://app?vid=4a7194a6-bdc2-4d67-a274-476a5cbc95aa"},"vehicle_type_id":"4","last_reported":1703318889,"current_range_meters":26800,"station_id":"ce4bha12rcd13ifvqee0","pricing_plan_id":"free"},{"bike_id":"396fb57e-1da6-4d44-b4f1-266b6a9997ce","system_id":"levelo_inurba_marseille","lat":43.296263,"lon":5.40601,"is_reserved":false,"is_disabled":false,"rental_uris":{"android":"levelo://app?vid=396fb57e-1da6-4d44-b4f1-266b6a9997ce","ios":"levelo://app?vid=396fb57e-1da6-4d44-b4f1-266b6a9997ce"},"vehicle_type_id":"4","last_reported":1703318889,"current_range_meters":30800,"station_id":"ce4bh0h2rcd13ifvqd60","pricing_plan_id":"free"},{"bike_id":"f6a28e41-1a58-4c00-b93d-a7fb0c73f6de","system_id":"levelo_inurba_marseille","lat":43.28884,"lon":5.39946,"is_reserved":false,"is_disabled":false,"rental_uris":{"android":"levelo://app?vid=f6a28e41-1a58-4c00-b93d-a7fb0c73f6de","ios":"levelo://app?vid=f6a28e41-1a58-4c00-b93d-a7fb0c73f6de"},"vehicle_type_id":"4","last_reported":1703318889,"current_range_meters":5200,"station_id":"","pricing_plan_id":"free"},{"bike_id":"921b424d-ad0d-4c7a-9d74-66e3a49bfa19","system_id":"levelo_inurba_marseille","lat":43.326605,"lon":5.409903,"is_reserved":false,"is_disabled":false,"rental_uris":{"android":"levelo://app?vid=921b424d-ad0d-4c7a-9d74-66e3a49bfa19","ios":"levelo://app?vid=921b424d-ad0d-4c7a-9d74-66e3a49bfa19"},"vehicle_type_id":"4","last_reported":1703318889,"current_range_meters":29200,"station_id":"ce4bhpp2rcd13ifvqhgg","pricing_plan_id":"free"},{"bike_id":"2dce41b4-f1e9-4565-979b-d206af37124f","system_id":"levelo_inurba_marseille","lat":43.326605,"lon":5.409903,"is_reserved":false,"is_disabled":false,"rental_uris":{"android":"levelo://app?vid=2dce41b4-f1e9-4565-979b-d206af37124f","ios":"levelo://app?vid=2dce41b4-f1e9-4565-979b-d206af37124f"},"vehicle_type_id":"4","last_reported":1703318889,"current_range_meters":31200,"station_id":"ce4bhpp2rcd13ifvqhgg","pricing_plan_id":"free"},{"bike_id":"5580da28-ece3-4ebd-b97a-6c4bbe169f57","system_id":"levelo_inurba_marseille","lat":43.30416,"lon":5.41275,"is_reserved":false,"is_disabled":false,"rental_uris":{"android":"levelo://app?vid=5580da28-ece3-4ebd-b97a-6c4bbe169f57","ios":"levelo://app?vid=5580da28-ece3-4ebd-b97a-6c4bbe169f57"},"vehicle_type_id":"4","last_reported":1703318889,"current_range_meters":15200,"station_id":"ce4bhop2rcd13ifvqh8g","pricing_plan_id":"free"},{"bike_id":"2994219f-f282-434d-a4a5-dcac2f9151e5","system_id":"levelo_inurba_marseille","lat":43.30414,"lon":5.41282,"is_reserved":false,"is_disabled":false,"rental_uris":{"android":"levelo://app?vid=2994219f-f282-434d-a4a5-dcac2f9151e5","ios":"levelo://app?vid=2994219f-f282-434d-a4a5-dcac2f9151e5"},"vehicle_type_id":"4","last_reported":1703318889,"current_range_meters":12000,"station_id":"ce4bhop2rcd13ifvqh8g","pricing_plan_id":"free"},{"bike_id":"ee9a73e7-b411-4b09-96a9-5db759bee48a","system_id":"levelo_inurba_marseille","lat":43.30414,"lon":5.41286,"is_reserved":false,"is_disabled":false,"rental_uris":{"android":"levelo://app?vid=ee9a73e7-b411-4b09-96a9-5db759bee48a","ios":"levelo://app?vid=ee9a73e7-b411-4b09-96a9-5db759bee48a"},"vehicle_type_id":"4","last_reported":1703318889,"current_range_meters":4800,"station_id":"ce4bhop2rcd13ifvqh8g","pricing_plan_id":"free"},{"bike_id":"f2a735b9-b183-4b03-acbe-8b823bd40b24","system_id":"levelo_inurba_marseille","lat":43.304144,"lon":5.412879,"is_reserved":false,"is_disabled":false,"rental_uris":{"android":"levelo://app?vid=f2a735b9-b183-4b03-acbe-8b823bd40b24","ios":"levelo://app?vid=f2a735b9-b183-4b03-acbe-8b823bd40b24"},"vehicle_type_id":"4","last_reported":1703318889,"current_range_meters":30400,"station_id":"ce4bhop2rcd13ifvqh8g","pricing_plan_id":"free"},{"bike_id":"03a8f128-97e5-40ae-9081-744f8ce83749","system_id":"levelo_inurba_marseille","lat":43.279087,"lon":5.380114,"is_reserved":false,"is_disabled":false,"rental_uris":{"android":"levelo://app?vid=03a8f128-97e5-40ae-9081-744f8ce83749","ios":"levelo://app?vid=03a8f128-97e5-40ae-9081-744f8ce83749"},"vehicle_type_id":"4","last_reported":1703318889,"current_range_meters":30000,"station_id":"ce4bhf92rcd13ifvqf50","pricing_plan_id":"free"},{"bike_id":"48279459-055f-4ba5-908d-239be802e3b5","system_id":"levelo_inurba_marseille","lat":43.299577,"lon":5.413277,"is_reserved":false,"is_disabled":false,"rental_uris":{"android":"levelo://app?vid=48279459-055f-4ba5-908d-239be802e3b5","ios":"levelo://app?vid=48279459-055f-4ba5-908d-239be802e3b5"},"vehicle_type_id":"4","last_reported":1703318889,"current_range_meters":30000,"station_id":"ce4bhp12rcd13ifvqh9g","pricing_plan_id":"free"},{"bike_id":"6accb708-c47d-4b48-94f1-0040ee264493","system_id":"levelo_inurba_marseille","lat":43.279742,"lon":5.38744,"is_reserved":false,"is_disabled":false,"rental_uris":{"android":"levelo://app?vid=6accb708-c47d-4b48-94f1-0040ee264493","ios":"levelo://app?vid=6accb708-c47d-4b48-94f1-0040ee264493"},"vehicle_type_id":"4","last_reported":1703318889,"current_range_meters":30000,"station_id":"ce4bhg12rcd13ifvqf80","pricing_plan_id":"free"},{"bike_id":"16a844c1-6100-4598-a2c7-1b96bf22fe28","system_id":"levelo_inurba_marseille","lat":43.279742,"lon":5.38744,"is_reserved":false,"is_disabled":false,"rental_uris":{"android":"levelo://app?vid=16a844c1-6100-4598-a2c7-1b96bf22fe28","ios":"levelo://app?vid=16a844c1-6100-4598-a2c7-1b96bf22fe28"},"vehicle_type_id":"4","last_reported":1703318889,"current_range_meters":27200,"station_id":"ce4bhg12rcd13ifvqf80","pricing_plan_id":"free"},{"bike_id":"db2046b0-697a-4d2e-8814-6af0aeab90a8","system_id":"levelo_inurba_marseille","lat":43.276179,"lon":5.361009,"is_reserved":false,"is_disabled":false,"rental_uris":{"android":"levelo://app?vid=db2046b0-697a-4d2e-8814-6af0aeab90a8","ios":"levelo://app?vid=db2046b0-697a-4d2e-8814-6af0aeab90a8"},"vehicle_type_id":"4","last_reported":1703318889,"current_range_meters":14000,"station_id":"ce4bgj92rcd13ifvqbe0","pricing_plan_id":"free"},{"bike_id":"3c990e90-1eed-4343-9b72-6fb2ce5c8fda","system_id":"levelo_inurba_marseille","lat":43.27614,"lon":5.36119,"is_reserved":false,"is_disabled":false,"rental_uris":{"android":"levelo://app?vid=3c990e90-1eed-4343-9b72-6fb2ce5c8fda","ios":"levelo://app?vid=3c990e90-1eed-4343-9b72-6fb2ce5c8fda"},"vehicle_type_id":"4","last_reported":1703318889,"current_range_meters":800,"station_id":"ce4bgj92rcd13ifvqbe0","pricing_plan_id":"free"},{"bike_id":"93bfab9c-e028-499d-81c2-9238ac1d0f98","system_id":"levelo_inurba_marseille","lat":43.303837,"lon":5.418724,"is_reserved":false,"is_disabled":false,"rental_uris":{"android":"levelo://app?vid=93bfab9c-e028-499d-81c2-9238ac1d0f98","ios":"levelo://app?vid=93bfab9c-e028-499d-81c2-9238ac1d0f98"},"vehicle_type_id":"4","last_reported":1703318889,"current_range_meters":24800,"station_id":"ce4bhop2rcd13ifvqh7g","pricing_plan_id":"free"},{"bike_id":"0683c0c5-5852-49fc-b705-36c54b228926","system_id":"levelo_inurba_marseille","lat":43.303837,"lon":5.418724,"is_reserved":false,"is_disabled":false,"rental_uris":{"android":"levelo://app?vid=0683c0c5-5852-49fc-b705-36c54b228926","ios":"levelo://app?vid=0683c0c5-5852-49fc-b705-36c54b228926"},"vehicle_type_id":"4","last_reported":1703318889,"current_range_meters":26800,"station_id":"ce4bhop2rcd13ifvqh7g","pricing_plan_id":"free"},{"bike_id":"1cf773da-d503-4f1b-8437-4a6b465d5f1a","system_id":"levelo_inurba_marseille","lat":43.27826,"lon":5.39208,"is_reserved":false,"is_disabled":false,"rental_uris":{"android":"levelo://app?vid=1cf773da-d503-4f1b-8437-4a6b465d5f1a","ios":"levelo://app?vid=1cf773da-d503-4f1b-8437-4a6b465d5f1a"},"vehicle_type_id":"4","last_reported":1703318889,"current_range_meters":0,"station_id":"ce4bhjp2rcd13ifvqga0","pricing_plan_id":"free"},{"bike_id":"48cb72d6-5769-46dd-a4f2-54dfd0bfb283","system_id":"levelo_inurba_marseille","lat":43.273613,"lon":5.362705,"is_reserved":false,"is_disabled":false,"rental_uris":{"android":"levelo://app?vid=48cb72d6-5769-46dd-a4f2-54dfd0bfb283","ios":"levelo://app?vid=48cb72d6-5769-46dd-a4f2-54dfd0bfb283"},"vehicle_type_id":"4","last_reported":1703318889,"current_range_meters":28400,"station_id":"ce4bhbh2rcd13ifvqeo0","pricing_plan_id":"free"},{"bike_id":"e09a6d18-e62b-45bc-ba72-f8db6df2fcf5","system_id":"levelo_inurba_marseille","lat":43.273609,"lon":5.362708,"is_reserved":false,"is_disabled":false,"rental_uris":{"android":"levelo://app?vid=e09a6d18-e62b-45bc-ba72-f8db6df2fcf5","ios":"levelo://app?vid=e09a6d18-e62b-45bc-ba72-f8db6df2fcf5"},"vehicle_type_id":"4","last_reported":1703318889,"current_range_meters":30400,"station_id":"ce4bhbh2rcd13ifvqeo0","pricing_plan_id":"free"},{"bike_id":"152a647d-a927-4bfa-bff5-b3d31dec39b3","system_id":"levelo_inurba_marseille","lat":43.275625,"lon":5.384392,"is_reserved":false,"is_disabled":false,"rental_uris":{"android":"levelo://app?vid=152a647d-a927-4bfa-bff5-b3d31dec39b3","ios":"levelo://app?vid=152a647d-a927-4bfa-bff5-b3d31dec39b3"},"vehicle_type_id":"4","last_reported":1703318889,"current_range_meters":30800,"station_id":"ce4bhh92rcd13ifvqfi0","pricing_plan_id":"free"},{"bike_id":"e600a4cb-6a02-461c-a079-0de1a09bbcb2","system_id":"levelo_inurba_marseille","lat":43.275625,"lon":5.384392,"is_reserved":false,"is_disabled":false,"rental_uris":{"android":"levelo://app?vid=e600a4cb-6a02-461c-a079-0de1a09bbcb2","ios":"levelo://app?vid=e600a4cb-6a02-461c-a079-0de1a09bbcb2"},"vehicle_type_id":"4","last_reported":1703318889,"current_range_meters":28000,"station_id":"ce4bhh92rcd13ifvqfi0","pricing_plan_id":"free"},{"bike_id":"32a6f28e-d4f0-4af2-9fa0-7aaf56ff3f77","system_id":"levelo_inurba_marseille","lat":43.276832,"lon":5.388816,"is_reserved":false,"is_disabled":false,"rental_uris":{"android":"levelo://app?vid=32a6f28e-d4f0-4af2-9fa0-7aaf56ff3f77","ios":"levelo://app?vid=32a6f28e-d4f0-4af2-9fa0-7aaf56ff3f77"},"vehicle_type_id":"4","last_reported":1703318889,"current_range_meters":26000,"station_id":"ce4bhi12rcd13ifvqfo0","pricing_plan_id":"free"},{"bike_id":"107d35fb-f284-4514-99a6-11ba1e926114","system_id":"levelo_inurba_marseille","lat":43.276784,"lon":5.388829,"is_reserved":false,"is_disabled":false,"rental_uris":{"android":"levelo://app?vid=107d35fb-f284-4514-99a6-11ba1e926114","ios":"levelo://app?vid=107d35fb-f284-4514-99a6-11ba1e926114"},"vehicle_type_id":"4","last_reported":1703318889,"current_range_meters":11600,"station_id":"ce4bhi12rcd13ifvqfo0","pricing_plan_id":"free"},{"bike_id":"0eaedfa9-1ab3-4a2f-bf28-f8642f328c07","system_id":"levelo_inurba_marseille","lat":43.27684,"lon":5.38902,"is_reserved":false,"is_disabled":false,"rental_uris":{"android":"levelo://app?vid=0eaedfa9-1ab3-4a2f-bf28-f8642f328c07","ios":"levelo://app?vid=0eaedfa9-1ab3-4a2f-bf28-f8642f328c07"},"vehicle_type_id":"4","last_reported":1703318889,"current_range_meters":0,"station_id":"ce4bhi12rcd13ifvqfo0","pricing_plan_id":"free"},{"bike_id":"4643c305-308e-4258-8dc8-db8a114d2c78","system_id":"levelo_inurba_marseille","lat":43.275625,"lon":5.384392,"is_reserved":false,"is_disabled":false,"rental_uris":{"android":"levelo://app?vid=4643c305-308e-4258-8dc8-db8a114d2c78","ios":"levelo://app?vid=4643c305-308e-4258-8dc8-db8a114d2c78"},"vehicle_type_id":"4","last_reported":1703318889,"current_range_meters":26800,"station_id":"ce4bhh92rcd13ifvqfi0","pricing_plan_id":"free"},{"bike_id":"0eb99f76-9044-469e-b5cd-4c052b458bfb","system_id":"levelo_inurba_marseille","lat":43.276769,"lon":5.388787,"is_reserved":false,"is_disabled":false,"rental_uris":{"android":"levelo://app?vid=0eb99f76-9044-469e-b5cd-4c052b458bfb","ios":"levelo://app?vid=0eb99f76-9044-469e-b5cd-4c052b458bfb"},"vehicle_type_id":"4","last_reported":1703318889,"current_range_meters":27200,"station_id":"ce4bhi12rcd13ifvqfo0","pricing_plan_id":"free"},{"bike_id":"9e5c25e1-990c-4015-ba32-154357056fd9","system_id":"levelo_inurba_marseille","lat":43.276771,"lon":5.388799,"is_reserved":false,"is_disabled":false,"rental_uris":{"android":"levelo://app?vid=9e5c25e1-990c-4015-ba32-154357056fd9","ios":"levelo://app?vid=9e5c25e1-990c-4015-ba32-154357056fd9"},"vehicle_type_id":"4","last_reported":1703318889,"current_range_meters":27200,"station_id":"ce4bhi12rcd13ifvqfo0","pricing_plan_id":"free"},{"bike_id":"358230c6-2f53-4c94-bd58-3ab03d16e35d","system_id":"levelo_inurba_marseille","lat":43.276769,"lon":5.388787,"is_reserved":false,"is_disabled":false,"rental_uris":{"android":"levelo://app?vid=358230c6-2f53-4c94-bd58-3ab03d16e35d","ios":"levelo://app?vid=358230c6-2f53-4c94-bd58-3ab03d16e35d"},"vehicle_type_id":"4","last_reported":1703318889,"current_range_meters":19200,"station_id":"ce4bhi12rcd13ifvqfo0","pricing_plan_id":"free"},{"bike_id":"6a72faea-4f57-4289-b2d7-493c224a4ca2","system_id":"levelo_inurba_marseille","lat":43.279952,"lon":5.400085,"is_reserved":false,"is_disabled":false,"rental_uris":{"android":"levelo://app?vid=6a72faea-4f57-4289-b2d7-493c224a4ca2","ios":"levelo://app?vid=6a72faea-4f57-4289-b2d7-493c224a4ca2"},"vehicle_type_id":"4","last_reported":1703318889,"current_range_meters":18000,"station_id":"ce4bho92rcd13ifvqh4g","pricing_plan_id":"free"},{"bike_id":"9d8a300c-7356-461f-8e60-7c138328974e","system_id":"levelo_inurba_marseille","lat":43.317121,"lon":5.423936,"is_reserved":false,"is_disabled":false,"rental_uris":{"android":"levelo://app?vid=9d8a300c-7356-461f-8e60-7c138328974e","ios":"levelo://app?vid=9d8a300c-7356-461f-8e60-7c138328974e"},"vehicle_type_id":"4","last_reported":1703318889,"current_range_meters":29600,"station_id":"ce4bhp92rcd13ifvqhbg","pricing_plan_id":"free"},{"bike_id":"7c92ac06-9f8b-4771-8927-7d3efcae43ac","system_id":"levelo_inurba_marseille","lat":43.310785,"lon":5.424305,"is_reserved":false,"is_disabled":false,"rental_uris":{"android":"levelo://app?vid=7c92ac06-9f8b-4771-8927-7d3efcae43ac","ios":"levelo://app?vid=7c92ac06-9f8b-4771-8927-7d3efcae43ac"},"vehicle_type_id":"4","last_reported":1703318889,"current_range_meters":20400,"station_id":"ce4bhp92rcd13ifvqhag","pricing_plan_id":"free"},{"bike_id":"03c66dac-183d-4ff1-8500-aedc025d3ffc","system_id":"levelo_inurba_marseille","lat":43.340804,"lon":5.410219,"is_reserved":false,"is_disabled":false,"rental_uris":{"android":"levelo://app?vid=03c66dac-183d-4ff1-8500-aedc025d3ffc","ios":"levelo://app?vid=03c66dac-183d-4ff1-8500-aedc025d3ffc"},"vehicle_type_id":"4","last_reported":1703318889,"current_range_meters":28800,"station_id":"ce4bhqh2rcd13ifvqhlg","pricing_plan_id":"free"},{"bike_id":"7233323d-a734-4351-839e-f10eb375e464","system_id":"levelo_inurba_marseille","lat":43.273125,"lon":5.390731,"is_reserved":false,"is_disabled":false,"rental_uris":{"android":"levelo://app?vid=7233323d-a734-4351-839e-f10eb375e464","ios":"levelo://app?vid=7233323d-a734-4351-839e-f10eb375e464"},"vehicle_type_id":"4","last_reported":1703318889,"current_range_meters":30400,"station_id":"ce4bhgp2rcd13ifvqfe0","pricing_plan_id":"free"},{"bike_id":"1b95f504-634c-4829-925a-735f94f57365","system_id":"levelo_inurba_marseille","lat":43.273129,"lon":5.390725,"is_reserved":false,"is_disabled":false,"rental_uris":{"android":"levelo://app?vid=1b95f504-634c-4829-925a-735f94f57365","ios":"levelo://app?vid=1b95f504-634c-4829-925a-735f94f57365"},"vehicle_type_id":"4","last_reported":1703318889,"current_range_meters":29600,"station_id":"ce4bhgp2rcd13ifvqfe0","pricing_plan_id":"free"},{"bike_id":"6acb992e-1001-4ff9-8015-71ffdc5c41aa","system_id":"levelo_inurba_marseille","lat":43.295523,"lon":5.422926,"is_reserved":false,"is_disabled":false,"rental_uris":{"android":"levelo://app?vid=6acb992e-1001-4ff9-8015-71ffdc5c41aa","ios":"levelo://app?vid=6acb992e-1001-4ff9-8015-71ffdc5c41aa"},"vehicle_type_id":"4","last_reported":1703318889,"current_range_meters":20400,"station_id":"ce4bhph2rcd13ifvqhdg","pricing_plan_id":"free"},{"bike_id":"5862e33a-cee2-4847-9d84-1daf303904fa","system_id":"levelo_inurba_marseille","lat":43.272124,"lon":5.391768,"is_reserved":false,"is_disabled":false,"rental_uris":{"android":"levelo://app?vid=5862e33a-cee2-4847-9d84-1daf303904fa","ios":"levelo://app?vid=5862e33a-cee2-4847-9d84-1daf303904fa"},"vehicle_type_id":"4","last_reported":1703318889,"current_range_meters":31200,"station_id":"ce4bhhp2rcd13ifvqfm0","pricing_plan_id":"free"},{"bike_id":"df82567a-a8f3-44a6-ba4c-489045c9287d","system_id":"levelo_inurba_marseille","lat":43.272116,"lon":5.391747,"is_reserved":false,"is_disabled":false,"rental_uris":{"android":"levelo://app?vid=df82567a-a8f3-44a6-ba4c-489045c9287d","ios":"levelo://app?vid=df82567a-a8f3-44a6-ba4c-489045c9287d"},"vehicle_type_id":"4","last_reported":1703318889,"current_range_meters":23200,"station_id":"ce4bhhp2rcd13ifvqfm0","pricing_plan_id":"free"},{"bike_id":"af97c205-9600-4cf7-ae64-21d37e85c8a2","system_id":"levelo_inurba_marseille","lat":43.278128,"lon":5.407195,"is_reserved":false,"is_disabled":false,"rental_uris":{"android":"levelo://app?vid=af97c205-9600-4cf7-ae64-21d37e85c8a2","ios":"levelo://app?vid=af97c205-9600-4cf7-ae64-21d37e85c8a2"},"vehicle_type_id":"4","last_reported":1703318889,"current_range_meters":28800,"station_id":"ce4bhnh2rcd13ifvqgtg","pricing_plan_id":"free"},{"bike_id":"61eb82ec-2c75-446c-87b7-5541b962f95f","system_id":"levelo_inurba_marseille","lat":43.269467,"lon":5.386439,"is_reserved":false,"is_disabled":false,"rental_uris":{"android":"levelo://app?vid=61eb82ec-2c75-446c-87b7-5541b962f95f","ios":"levelo://app?vid=61eb82ec-2c75-446c-87b7-5541b962f95f"},"vehicle_type_id":"4","last_reported":1703318889,"current_range_meters":31200,"station_id":"ce4bhh92rcd13ifvqfh0","pricing_plan_id":"free"},{"bike_id":"d80d28d4-33ac-48bd-a703-0607e3c3611a","system_id":"levelo_inurba_marseille","lat":43.279465,"lon":5.410561,"is_reserved":false,"is_disabled":false,"rental_uris":{"android":"levelo://app?vid=d80d28d4-33ac-48bd-a703-0607e3c3611a","ios":"levelo://app?vid=d80d28d4-33ac-48bd-a703-0607e3c3611a"},"vehicle_type_id":"4","last_reported":1703318889,"current_range_meters":800,"station_id":"ce4bhnp2rcd13ifvqh0g","pricing_plan_id":"free"},{"bike_id":"5a5ac261-9383-48c6-aae2-bc4a8af2166e","system_id":"levelo_inurba_marseille","lat":43.279465,"lon":5.410561,"is_reserved":false,"is_disabled":false,"rental_uris":{"android":"levelo://app?vid=5a5ac261-9383-48c6-aae2-bc4a8af2166e","ios":"levelo://app?vid=5a5ac261-9383-48c6-aae2-bc4a8af2166e"},"vehicle_type_id":"4","last_reported":1703318889,"current_range_meters":26400,"station_id":"ce4bhnp2rcd13ifvqh0g","pricing_plan_id":"free"},{"bike_id":"7eadc037-d475-4a82-a1e8-cae59da23a91","system_id":"levelo_inurba_marseille","lat":43.26681,"lon":5.382694,"is_reserved":false,"is_disabled":false,"rental_uris":{"android":"levelo://app?vid=7eadc037-d475-4a82-a1e8-cae59da23a91","ios":"levelo://app?vid=7eadc037-d475-4a82-a1e8-cae59da23a91"},"vehicle_type_id":"4","last_reported":1703318889,"current_range_meters":29600,"station_id":"ce4bhg92rcd13ifvqf90","pricing_plan_id":"free"},{"bike_id":"8030204b-84e1-4f67-82c1-8471ea1e1bb5","system_id":"levelo_inurba_marseille","lat":43.26681,"lon":5.382694,"is_reserved":false,"is_disabled":false,"rental_uris":{"android":"levelo://app?vid=8030204b-84e1-4f67-82c1-8471ea1e1bb5","ios":"levelo://app?vid=8030204b-84e1-4f67-82c1-8471ea1e1bb5"},"vehicle_type_id":"4","last_reported":1703318889,"current_range_meters":29600,"station_id":"ce4bhg92rcd13ifvqf90","pricing_plan_id":"free"},{"bike_id":"bf555dc5-2821-4d97-99ed-b8878df5474e","system_id":"levelo_inurba_marseille","lat":43.26559,"lon":5.37285,"is_reserved":false,"is_disabled":false,"rental_uris":{"android":"levelo://app?vid=bf555dc5-2821-4d97-99ed-b8878df5474e","ios":"levelo://app?vid=bf555dc5-2821-4d97-99ed-b8878df5474e"},"vehicle_type_id":"4","last_reported":1703318889,"current_range_meters":4000,"station_id":"ce4bhg12rcd13ifvqf70","pricing_plan_id":"free"},{"bike_id":"9f64aafd-c841-405b-aa4d-882e9d32084c","system_id":"levelo_inurba_marseille","lat":43.265505,"lon":5.372855,"is_reserved":false,"is_disabled":false,"rental_uris":{"android":"levelo://app?vid=9f64aafd-c841-405b-aa4d-882e9d32084c","ios":"levelo://app?vid=9f64aafd-c841-405b-aa4d-882e9d32084c"},"vehicle_type_id":"4","last_reported":1703318889,"current_range_meters":20000,"station_id":"ce4bhg12rcd13ifvqf70","pricing_plan_id":"free"},{"bike_id":"8a8118d2-1be5-4451-b2d9-0ba1321b8f2d","system_id":"levelo_inurba_marseille","lat":43.28006,"lon":5.41653,"is_reserved":false,"is_disabled":false,"rental_uris":{"android":"levelo://app?vid=8a8118d2-1be5-4451-b2d9-0ba1321b8f2d","ios":"levelo://app?vid=8a8118d2-1be5-4451-b2d9-0ba1321b8f2d"},"vehicle_type_id":"4","last_reported":1703318889,"current_range_meters":10400,"station_id":"ce4bho12rcd13ifvqh1g","pricing_plan_id":"free"},{"bike_id":"7dbab88e-f24e-4f52-9d01-769ec1c71328","system_id":"levelo_inurba_marseille","lat":43.308051,"lon":5.43527,"is_reserved":false,"is_disabled":false,"rental_uris":{"android":"levelo://app?vid=7dbab88e-f24e-4f52-9d01-769ec1c71328","ios":"levelo://app?vid=7dbab88e-f24e-4f52-9d01-769ec1c71328"},"vehicle_type_id":"4","last_reported":1703318889,"current_range_meters":27600,"station_id":"ce4bhph2rcd13ifvqheg","pricing_plan_id":"free"},{"bike_id":"a88af8f9-4c84-498e-bcd6-f31c0f19864d","system_id":"levelo_inurba_marseille","lat":43.265569,"lon":5.390047,"is_reserved":false,"is_disabled":false,"rental_uris":{"android":"levelo://app?vid=a88af8f9-4c84-498e-bcd6-f31c0f19864d","ios":"levelo://app?vid=a88af8f9-4c84-498e-bcd6-f31c0f19864d"},"vehicle_type_id":"4","last_reported":1703318889,"current_range_meters":31200,"station_id":"ce4bhe12rcd13ifvqf30","pricing_plan_id":"free"},{"bike_id":"2e6dbab4-8d14-437a-9aae-7dd13a35fc0a","system_id":"levelo_inurba_marseille","lat":43.265569,"lon":5.390047,"is_reserved":false,"is_disabled":false,"rental_uris":{"android":"levelo://app?vid=2e6dbab4-8d14-437a-9aae-7dd13a35fc0a","ios":"levelo://app?vid=2e6dbab4-8d14-437a-9aae-7dd13a35fc0a"},"vehicle_type_id":"4","last_reported":1703318889,"current_range_meters":28000,"station_id":"ce4bhe12rcd13ifvqf30","pricing_plan_id":"free"},{"bike_id":"7b01b7f1-1256-4fe0-b0d9-9465c7e2a0a6","system_id":"levelo_inurba_marseille","lat":43.265569,"lon":5.390047,"is_reserved":false,"is_disabled":false,"rental_uris":{"android":"levelo://app?vid=7b01b7f1-1256-4fe0-b0d9-9465c7e2a0a6","ios":"levelo://app?vid=7b01b7f1-1256-4fe0-b0d9-9465c7e2a0a6"},"vehicle_type_id":"4","last_reported":1703318889,"current_range_meters":30800,"station_id":"ce4bhe12rcd13ifvqf30","pricing_plan_id":"free"},{"bike_id":"b62d2f5e-a444-43cd-9cfc-5d6c1fca09bb","system_id":"levelo_inurba_marseille","lat":43.265569,"lon":5.390047,"is_reserved":false,"is_disabled":false,"rental_uris":{"android":"levelo://app?vid=b62d2f5e-a444-43cd-9cfc-5d6c1fca09bb","ios":"levelo://app?vid=b62d2f5e-a444-43cd-9cfc-5d6c1fca09bb"},"vehicle_type_id":"4","last_reported":1703318889,"current_range_meters":24800,"station_id":"ce4bhe12rcd13ifvqf30","pricing_plan_id":"free"},{"bike_id":"26b256fc-01f8-47da-a6ad-a1c82c490864","system_id":"levelo_inurba_marseille","lat":43.265596,"lon":5.390181,"is_reserved":false,"is_disabled":false,"rental_uris":{"android":"levelo://app?vid=26b256fc-01f8-47da-a6ad-a1c82c490864","ios":"levelo://app?vid=26b256fc-01f8-47da-a6ad-a1c82c490864"},"vehicle_type_id":"4","last_reported":1703318889,"current_range_meters":13200,"station_id":"ce4bhe12rcd13ifvqf30","pricing_plan_id":"free"},{"bike_id":"9ae51110-6160-4830-8874-7193cd37da3a","system_id":"levelo_inurba_marseille","lat":43.261782,"lon":5.374515,"is_reserved":false,"is_disabled":false,"rental_uris":{"android":"levelo://app?vid=9ae51110-6160-4830-8874-7193cd37da3a","ios":"levelo://app?vid=9ae51110-6160-4830-8874-7193cd37da3a"},"vehicle_type_id":"4","last_reported":1703318889,"current_range_meters":22000,"station_id":"ce4bhgp2rcd13ifvqfc0","pricing_plan_id":"free"},{"bike_id":"860ed095-4cf8-4171-b135-647804ff1498","system_id":"levelo_inurba_marseille","lat":43.261782,"lon":5.374515,"is_reserved":false,"is_disabled":false,"rental_uris":{"android":"levelo://app?vid=860ed095-4cf8-4171-b135-647804ff1498","ios":"levelo://app?vid=860ed095-4cf8-4171-b135-647804ff1498"},"vehicle_type_id":"4","last_reported":1703318889,"current_range_meters":30000,"station_id":"ce4bhgp2rcd13ifvqfc0","pricing_plan_id":"free"},{"bike_id":"f2937d21-e2a5-4557-85ff-29184a73d3bf","system_id":"levelo_inurba_marseille","lat":43.261782,"lon":5.374515,"is_reserved":false,"is_disabled":false,"rental_uris":{"android":"levelo://app?vid=f2937d21-e2a5-4557-85ff-29184a73d3bf","ios":"levelo://app?vid=f2937d21-e2a5-4557-85ff-29184a73d3bf"},"vehicle_type_id":"4","last_reported":1703318889,"current_range_meters":28800,"station_id":"ce4bhgp2rcd13ifvqfc0","pricing_plan_id":"free"},{"bike_id":"40273045-01d7-47dc-b8f7-4d8ff927b15c","system_id":"levelo_inurba_marseille","lat":43.261782,"lon":5.374515,"is_reserved":false,"is_disabled":false,"rental_uris":{"android":"levelo://app?vid=40273045-01d7-47dc-b8f7-4d8ff927b15c","ios":"levelo://app?vid=40273045-01d7-47dc-b8f7-4d8ff927b15c"},"vehicle_type_id":"4","last_reported":1703318889,"current_range_meters":28400,"station_id":"ce4bhgp2rcd13ifvqfc0","pricing_plan_id":"free"},{"bike_id":"335681ec-9d1c-491b-ae06-a269e8d79a54","system_id":"levelo_inurba_marseille","lat":43.317104,"lon":5.436818,"is_reserved":false,"is_disabled":false,"rental_uris":{"android":"levelo://app?vid=335681ec-9d1c-491b-ae06-a269e8d79a54","ios":"levelo://app?vid=335681ec-9d1c-491b-ae06-a269e8d79a54"},"vehicle_type_id":"4","last_reported":1703318889,"current_range_meters":18000,"station_id":"ce4bhp92rcd13ifvqhcg","pricing_plan_id":"free"},{"bike_id":"f834308c-b5ef-48f1-ace1-6ad07e8d8cce","system_id":"levelo_inurba_marseille","lat":43.261782,"lon":5.374515,"is_reserved":false,"is_disabled":false,"rental_uris":{"android":"levelo://app?vid=f834308c-b5ef-48f1-ace1-6ad07e8d8cce","ios":"levelo://app?vid=f834308c-b5ef-48f1-ace1-6ad07e8d8cce"},"vehicle_type_id":"4","last_reported":1703318889,"current_range_meters":25600,"station_id":"ce4bhgp2rcd13ifvqfc0","pricing_plan_id":"free"},{"bike_id":"9a22b759-cb02-4a9f-b32d-4de2997c4531","system_id":"levelo_inurba_marseille","lat":43.317104,"lon":5.436818,"is_reserved":false,"is_disabled":false,"rental_uris":{"android":"levelo://app?vid=9a22b759-cb02-4a9f-b32d-4de2997c4531","ios":"levelo://app?vid=9a22b759-cb02-4a9f-b32d-4de2997c4531"},"vehicle_type_id":"4","last_reported":1703318889,"current_range_meters":0,"station_id":"ce4bhp92rcd13ifvqhcg","pricing_plan_id":"free"},