{"last_updated":1750191147,"ttl":60,"version":"2.2","data":{"bikes":[{"bike_id":"3da29fb8-fc97-44c6-b9ac-31dd456b2fd4","system_id":"levelo_inurba_marseille","lat":43.33771,"lon":5.37424,"is_reserved":false,"is_disabled":true,"rental_uris":{"android":"levelo://app?vid=3da29fb8-fc97-44c6-b9ac-31dd456b2fd4","ios":"levelo://app?vid=3da29fb8-fc97-44c6-b9ac-31dd456b2fd4"},"vehicle_type_id":"4","last_reported":1750191147,"current_range_meters":0,"station_id":"","pricing_plan_id":"cebpf4jnsgd1na2vs0mg"},{"bike_id":"01861ad8-a8d7-4be6-816e-651927c87584","system_id":"levelo_inurba_marseille","lat":43.33751,"lon":5.37456,"is_reserved":false,"is_disabled":true,"rental_uris":{"android":"levelo://app?vid=01861ad8-a8d7-4be6-816e-651927c87584","ios":"levelo://app?vid=01861ad8-a8d7-4be6-816e-651927c87584"},"vehicle_type_id":"4","last_reported":1750191147,"current_range_meters":0,"station_id":"","pricing_plan_id":"cebpf4jnsgd1na2vs0mg"},{"bike_id":"dbfce7a3-3423-4296-b193-a177dea644ac","system_id":"levelo_inurba_marseille","lat":43.27278,"lon":5.41599,"is_reserved":false,"is_disabled":true,"rental_uris":{"android":"levelo://app?vid=dbfce7a3-3423-4296-b193-a177dea644ac","ios":"levelo://app?vid=dbfce7a3-3423-4296-b193-a177dea644ac"},"vehicle_type_id":"4","last_reported":1750191147,"current_range_meters":0,"station_id":"","pricing_plan_id":"cebpf4jnsgd1na2vs0mg"},{"bike_id":"d2bd57c8-6b64-48db-ad24-5398eb3fd9d6","system_id":"levelo_inurba_marseille","lat":43.337444,"lon":5.374475,"is_reserved":false,"is_disabled":true,"rental_uris":{"android":"levelo://app?vid=d2bd57c8-6b64-48db-ad24-5398eb3fd9d6","ios":"levelo://app?vid=d2bd57c8-6b64-48db-ad24-5398eb3fd9d6"},"vehicle_type_id":"4","last_reported":1750191147,"current_range_meters":0,"station_id":"","pricing_plan_id":"cebpf4jnsgd1na2vs0mg"},{"bike_id":"62a493c7-4534-4419-ad43-0582de34a72a","system_id":"levelo_inurba_marseille","lat":43.21366,"lon":5.355183,"is_reserved":false,"is_disabled":true,"rental_uris":{"android":"levelo://app?vid=62a493c7-4534-4419-ad43-0582de34a72a","ios":"levelo://app?vid=62a493c7-4534-4419-ad43-0582de34a72a"},"vehicle_type_id":"4","last_reported":1750191147,"current_range_meters":0,"station_id":"","pricing_plan_id":"cebpf4jnsgd1na2vs0mg"},{"bike_id":"8ad9234e-001a-4549-8bba-9baf2ef98804","system_id":"levelo_inurba_marseille","lat":43.27465,"lon":5.39823,"is_reserved":false,"is_disabled":true,"rental_uris":{"android":"levelo://app?vid=8ad9234e-001a-4549-8bba-9baf2ef98804","ios":"levelo://app?vid=8ad9234e-001a-4549-8bba-9baf2ef98804"},"vehicle_type_id":"4","last_reported":1750191147,"current_range_meters":0,"station_id":"","pricing_plan_id":"cebpf4jnsgd1na2vs0mg"},{"bike_id":"93af304b-67b5-47b8-a3fd-e0775f7cde8c","system_id":"levelo_inurba_marseille","lat":43.2154,"lon":5.347,"is_reserved":false,"is_disabled":true,"rental_uris":{"android":"levelo://app?vid=93af304b-67b5-47b8-a3fd-e0775f7cde8c","ios":"levelo://app?vid=93af304b-67b5-47b8-a3fd-e0775f7cde8c"},"vehicle_type_id":"4","last_reported":1750191147,"current_range_meters":0,"station_id":"","pricing_plan_id":"cebpf4jnsgd1na2vs0mg"},{"bike_id":"d6609b4f-333b-43c1-9ebe-8726f5e76e88","system_id":"levelo_inurba_marseille","lat":43.337444,"lon":5.374475,"is_reserved":false,"is_disabled":true,"rental_uris":{"android":"levelo://app?vid=d6609b4f-333b-43c1-9ebe-8726f5e76e88","ios":"levelo://app?vid=d6609b4f-333b-43c1-9ebe-8726f5e76e88"},"vehicle_type_id":"4","last_reported":1750191147,"current_range_meters":0,"station_id":"","pricing_plan_id":"cebpf4jnsgd1na2vs0mg"},{"bike_id":"57c83ce1-960e-466a-b6c5-d93bc130c53a","system_id":"levelo_inurba_marseille","lat":43.24887,"lon":5.38924,"is_reserved":false,"is_disabled":true,"rental_uris":{"android":"levelo://app?vid=57c83ce1-960e-466a-b6c5-d93bc130c53a","ios":"levelo://app?vid=57c83ce1-960e-466a-b6c5-d93bc130c53a"},"vehicle_type_id":"4","last_reported":1750191147,"current_range_meters":0,"station_id":"","pricing_plan_id":"cebpf4jnsgd1na2vs0mg"},{"bike_id":"d8ec2596-e96d-4b18-8503-6c8620ade0c9","system_id":"levelo_inurba_marseille","lat":43.30311,"lon":5.3921,"is_reserved":false,"is_disabled":true,"rental_uris":{"android":"levelo://app?vid=d8ec2596-e96d-4b18-8503-6c8620ade0c9","ios":"levelo://app?vid=d8ec2596-e96d-4b18-8503-6c8620ade0c9"},"vehicle_type_id":"4","last_reported":1750191147,"current_range_meters":0,"station_id":"ce4bgkh2rcd13ifvqbk0","pricing_plan_id":"cebpf4jnsgd1na2vs0mg"},{"bike_id":"25ca08f8-64a4-4c29-820e-e4ec86d69835","system_id":"levelo_inurba_marseille","lat":43.29635,"lon":5.40591,"is_reserved":false,"is_disabled":true,"rental_uris":{"android":"levelo://app?vid=25ca08f8-64a4-4c29-820e-e4ec86d69835","ios":"levelo://app?vid=25ca08f8-64a4-4c29-820e-e4ec86d69835"},"vehicle_type_id":"4","last_reported":1750191147,"current_range_meters":0,"station_id":"ce4bh0h2rcd13ifvqd60","pricing_plan_id":"cebpf4jnsgd1na2vs0mg"},{"bike_id":"794fb512-5113-4784-886b-2cafef226a34","system_id":"levelo_inurba_marseille","lat":43.30599,"lon":5.3936,"is_reserved":false,"is_disabled":true,"rental_uris":{"android":"levelo://app?vid=794fb512-5113-4784-886b-2cafef226a34","ios":"levelo://app?vid=794fb512-5113-4784-886b-2cafef226a34"},"vehicle_type_id":"4","last_reported":1750191147,"current_range_meters":0,"station_id":"ce4bh0p2rcd13ifvqd80","pricing_plan_id":"cebpf4jnsgd1na2vs0mg"},{"bike_id":"3b560df4-30ec-4ab7-8402-6c7c0d1a26a1","system_id":"levelo_inurba_marseille","lat":43.29416,"lon":5.38626,"is_reserved":false,"is_disabled":true,"rental_uris":{"android":"levelo://app?vid=3b560df4-30ec-4ab7-8402-6c7c0d1a26a1","ios":"levelo://app?vid=3b560df4-30ec-4ab7-8402-6c7c0d1a26a1"},"vehicle_type_id":"4","last_reported":1750191147,"current_range_meters":0,"station_id":"ce4bh2h2rcd13ifvqdh0","pricing_plan_id":"cebpf4jnsgd1na2vs0mg"},{"bike_id":"b420fd59-5696-4d14-afb2-21d3b3dd3810","system_id":"levelo_inurba_marseille","lat":43.29265,"lon":5.38429,"is_reserved":false,"is_disabled":true,"rental_uris":{"android":"levelo://app?vid=b420fd59-5696-4d14-afb2-21d3b3dd3810","ios":"levelo://app?vid=b420fd59-5696-4d14-afb2-21d3b3dd3810"},"vehicle_type_id":"4","last_reported":1750191147,"current_range_meters":0,"station_id":"ce4bh692rcd13ifvqea0","pricing_plan_id":"cebpf4jnsgd1na2vs0mg"},{"bike_id":"7b6f0baa-6d2b-47f1-92fc-dc1645ae32df","system_id":"levelo_inurba_marseille","lat":43.297882,"lon":5.393441,"is_reserved":false,"is_disabled":false,"rental_uris":{"android":"levelo://app?vid=7b6f0baa-6d2b-47f1-92fc-dc1645ae32df","ios":"levelo://app?vid=7b6f0baa-6d2b-47f1-92fc-dc1645ae32df"},"vehicle_type_id":"4","last_reported":1750191147,"current_range_meters":0,"station_id":"chh1huq6cuj3fo74tm60","pricing_plan_id":"cebpf4jnsgd1na2vs0mg"},{"bike_id":"236b23c2-d7ee-490a-945f-d7979710a5c1","system_id":"levelo_inurba_marseille","lat":43.29784,"lon":5.371,"is_reserved":false,"is_disabled":false,"rental_uris":{"android":"levelo://app?vid=236b23c2-d7ee-490a-945f-d7979710a5c1","ios":"levelo://app?vid=236b23c2-d7ee-490a-945f-d7979710a5c1"},"vehicle_type_id":"4","last_reported":1750191147,"current_range_meters":400,"station_id":"ce4bgop2rcd13ifvqc1g","pricing_plan_id":"cebpf4jnsgd1na2vs0mg"},{"bike_id":"b9e37238-9abe-4b8b-b932-edaee33a7e59","system_id":"levelo_inurba_marseille","lat":43.274873,"lon":5.390106,"is_reserved":false,"is_disabled":true,"rental_uris":{"android":"levelo://app?vid=b9e37238-9abe-4b8b-b932-edaee33a7e59","ios":"levelo://app?vid=b9e37238-9abe-4b8b-b932-edaee33a7e59"},"vehicle_type_id":"4","last_reported":1750191147,"current_range_meters":800,"station_id":"","pricing_plan_id":"cebpf4jnsgd1na2vs0mg"},{"bike_id":"8ab95787-08ab-4f5e-87af-ab09cc5f125d","system_id":"levelo_inurba_marseille","lat":43.30431,"lon":5.39745,"is_reserved":false,"is_disabled":true,"rental_uris":{"android":"levelo://app?vid=8ab95787-08ab-4f5e-87af-ab09cc5f125d","ios":"levelo://app?vid=8ab95787-08ab-4f5e-87af-ab09cc5f125d"},"vehicle_type_id":"4","last_reported":1750191147,"current_range_meters":800,"station_id":"ce4bh092rcd13ifvqd20","pricing_plan_id":"cebpf4jnsgd1na2vs0mg"},{"bike_id":"f54b4944-e4fc-4c2f-b6f1-8d83077c176f","system_id":"levelo_inurba_marseille","lat":43.29789,"lon":5.39344,"is_reserved":false,"is_disabled":false,"rental_uris":{"android":"levelo://app?vid=f54b4944-e4fc-4c2f-b6f1-8d83077c176f","ios":"levelo://app?vid=f54b4944-e4fc-4c2f-b6f1-8d83077c176f"},"vehicle_type_id":"4","last_reported":1750191147,"current_range_meters":800,"station_id":"chh1huq6cuj3fo74tm60","pricing_plan_id":"cebpf4jnsgd1na2vs0mg"},{"bike_id":"9a7048f2-23de-448e-96c9-c00aacdd56d7","system_id":"levelo_inurba_marseille","lat":43.2893,"lon":5.36628,"is_reserved":false,"is_disabled":true,"rental_uris":{"android":"levelo://app?vid=9a7048f2-23de-448e-96c9-c00aacdd56d7","ios":"levelo://app?vid=9a7048f2-23de-448e-96c9-c00aacdd56d7"},"vehicle_type_id":"4","last_reported":1750191147,"current_range_meters":1200,"station_id":"ce4bhap2rcd13ifvqek0","pricing_plan_id":"cebpf4jnsgd1na2vs0mg"},{"bike_id":"3c1599b8-f631-4383-b8c1-87096010ec40","system_id":"levelo_inurba_marseille","lat":43.28936,"lon":5.36634,"is_reserved":false,"is_disabled":true,"rental_uris":{"android":"levelo://app?vid=3c1599b8-f631-4383-b8c1-87096010ec40","ios":"levelo://app?vid=3c1599b8-f631-4383-b8c1-87096010ec40"},"vehicle_type_id":"4","last_reported":1750191147,"current_range_meters":1200,"station_id":"ce4bhap2rcd13ifvqek0","pricing_plan_id":"cebpf4jnsgd1na2vs0mg"},{"bike_id":"8d297b38-f666-4a46-9dee-0132f800019c","system_id":"levelo_inurba_marseille","lat":43.32197,"lon":5.38595,"is_reserved":false,"is_disabled":true,"rental_uris":{"android":"levelo://app?vid=8d297b38-f666-4a46-9dee-0132f800019c","ios":"levelo://app?vid=8d297b38-f666-4a46-9dee-0132f800019c"},"vehicle_type_id":"4","last_reported":1750191147,"current_range_meters":2000,"station_id":"","pricing_plan_id":"cebpf4jnsgd1na2vs0mg"},{"bike_id":"51cca28c-7361-4222-8973-7d551ee663ce","system_id":"levelo_inurba_marseille","lat":43.30599,"lon":5.37222,"is_reserved":false,"is_disabled":false,"rental_uris":{"android":"levelo://app?vid=51cca28c-7361-4222-8973-7d551ee663ce","ios":"levelo://app?vid=51cca28c-7361-4222-8973-7d551ee663ce"},"vehicle_type_id":"4","last_reported":1750191147,"current_range_meters":2800,"station_id":"ce4bgqh2rcd13ifvqc4g","pricing_plan_id":"cebpf4jnsgd1na2vs0mg"},{"bike_id":"69af7404-5ec1-4810-9e8f-2b24aa559381","system_id":"levelo_inurba_marseille","lat":43.293464,"lon":5.38368,"is_reserved":false,"is_disabled":false,"rental_uris":{"android":"levelo://app?vid=69af7404-5ec1-4810-9e8f-2b24aa559381","ios":"levelo://app?vid=69af7404-5ec1-4810-9e8f-2b24aa559381"},"vehicle_type_id":"4","last_reported":1750191147,"current_range_meters":3200,"station_id":"","pricing_plan_id":"cebpf4jnsgd1na2vs0mg"},{"bike_id":"f0d85709-4bac-40aa-90a5-4a06fa226815","system_id":"levelo_inurba_marseille","lat":43.291992,"lon":5.358045,"is_reserved":false,"is_disabled":false,"rental_uris":{"android":"levelo://app?vid=f0d85709-4bac-40aa-90a5-4a06fa226815","ios":"levelo://app?vid=f0d85709-4bac-40aa-90a5-4a06fa226815"},"vehicle_type_id":"4","last_reported":1750191147,"current_range_meters":3200,"station_id":"","pricing_plan_id":"cebpf4jnsgd1na2vs0mg"},{"bike_id":"fbd97d09-eb48-4a85-abdb-acbaeb25be57","system_id":"levelo_inurba_marseille","lat":43.30801,"lon":5.38151,"is_reserved":false,"is_disabled":false,"rental_uris":{"android":"levelo://app?vid=fbd97d09-eb48-4a85-abdb-acbaeb25be57","ios":"levelo://app?vid=fbd97d09-eb48-4a85-abdb-acbaeb25be57"},"vehicle_type_id":"4","last_reported":1750191147,"current_range_meters":3600,"station_id":"ce4bgt12rcd13ifvqce0","pricing_plan_id":"cebpf4jnsgd1na2vs0mg"},{"bike_id":"72d2848c-f48d-4bab-a385-84b787ecd938","system_id":"levelo_inurba_marseille","lat":43.303309,"lon":5.404348,"is_reserved":false,"is_disabled":false,"rental_uris":{"android":"levelo://app?vid=72d2848c-f48d-4bab-a385-84b787ecd938","ios":"levelo://app?vid=72d2848c-f48d-4bab-a385-84b787ecd938"},"vehicle_type_id":"4","last_reported":1750191147,"current_range_meters":3600,"station_id":"ce4bh012rcd13ifvqd10","pricing_plan_id":"cebpf4jnsgd1na2vs0mg"},{"bike_id":"6f5d3938-9463-48a6-bc99-94805ff6d59f","system_id":"levelo_inurba_marseille","lat":43.24806,"lon":5.37452,"is_reserved":false,"is_disabled":false,"rental_uris":{"android":"levelo://app?vid=6f5d3938-9463-48a6-bc99-94805ff6d59f","ios":"levelo://app?vid=6f5d3938-9463-48a6-bc99-94805ff6d59f"},"vehicle_type_id":"4","last_reported":1750191147,"current_range_meters":3600,"station_id":"ce4bhgh2rcd13ifvqfb0","pricing_plan_id":"cebpf4jnsgd1na2vs0mg"},{"bike_id":"1b07661d-552e-483a-b3b7-a5ccf3500eb7","system_id":"levelo_inurba_marseille","lat":43.27685,"lon":5.38879,"is_reserved":false,"is_disabled":false,"rental_uris":{"android":"levelo://app?vid=1b07661d-552e-483a-b3b7-a5ccf3500eb7","ios":"levelo://app?vid=1b07661d-552e-483a-b3b7-a5ccf3500eb7"},"vehicle_type_id":"4","last_reported":1750191147,"current_range_meters":3600,"station_id":"ce4bhi12rcd13ifvqfo0","pricing_plan_id":"cebpf4jnsgd1na2vs0mg"},{"bike_id":"b3ea1ba8-7972-4a85-9f59-6abb3e0edf0d","system_id":"levelo_inurba_marseille","lat":43.2937,"lon":5.37846,"is_reserved":false,"is_disabled":false,"rental_uris":{"android":"levelo://app?vid=b3ea1ba8-7972-4a85-9f59-6abb3e0edf0d","ios":"levelo://app?vid=b3ea1ba8-7972-4a85-9f59-6abb3e0edf0d"},"vehicle_type_id":"4","last_reported":1750191147,"current_range_meters":4000,"station_id":"ce4bgjh2rcd13ifvqbf0","pricing_plan_id":"cebpf4jnsgd1na2vs0mg"},{"bike_id":"2bc39c7d-c41f-45b9-8d0b-8733021aae37","system_id":"levelo_inurba_marseille","lat":43.3176,"lon":5.3901,"is_reserved":false,"is_disabled":false,"rental_uris":{"android":"levelo://app?vid=2bc39c7d-c41f-45b9-8d0b-8733021aae37","ios":"levelo://app?vid=2bc39c7d-c41f-45b9-8d0b-8733021aae37"},"vehicle_type_id":"4","last_reported":1750191147,"current_range_meters":4000,"station_id":"ce4bhqp2rcd13ifvqhng","pricing_plan_id":"cebpf4jnsgd1na2vs0mg"},{"bike_id":"8044ed2f-19d0-443c-9e84-6922cc23bcff","system_id":"levelo_inurba_marseille","lat":43.29994,"lon":5.37164,"is_reserved":false,"is_disabled":false,"rental_uris":{"android":"levelo://app?vid=8044ed2f-19d0-443c-9e84-6922cc23bcff","ios":"levelo://app?vid=8044ed2f-19d0-443c-9e84-6922cc23bcff"},"vehicle_type_id":"4","last_reported":1750191147,"current_range_meters":4400,"station_id":"ce4bgr92rcd13ifvqc7g","pricing_plan_id":"cebpf4jnsgd1na2vs0mg"},{"bike_id":"9b83a8d6-0327-478b-b8a6-d7c2a965d539","system_id":"levelo_inurba_marseille","lat":43.28703,"lon":5.37372,"is_reserved":false,"is_disabled":false,"rental_uris":{"android":"levelo://app?vid=9b83a8d6-0327-478b-b8a6-d7c2a965d539","ios":"levelo://app?vid=9b83a8d6-0327-478b-b8a6-d7c2a965d539"},"vehicle_type_id":"4","last_reported":1750191147,"current_range_meters":4800,"station_id":"ce4bh3p2rcd13ifvqdq0","pricing_plan_id":"cebpf4jnsgd1na2vs0mg"},{"bike_id":"3faa1df7-77d0-45a7-af6e-06ad4b8865aa","system_id":"levelo_inurba_marseille","lat":43.25006,"lon":5.38914,"is_reserved":false,"is_disabled":false,"rental_uris":{"android":"levelo://app?vid=3faa1df7-77d0-45a7-af6e-06ad4b8865aa","ios":"levelo://app?vid=3faa1df7-77d0-45a7-af6e-06ad4b8865aa"},"vehicle_type_id":"4","last_reported":1750191147,"current_range_meters":4800,"station_id":"ce4bhgp2rcd13ifvqfd0","pricing_plan_id":"cebpf4jnsgd1na2vs0mg"},{"bike_id":"8c5884c1-a995-4a6a-9b84-77d7c2767905","system_id":"levelo_inurba_marseille","lat":43.29912,"lon":5.37459,"is_reserved":false,"is_disabled":false,"rental_uris":{"android":"levelo://app?vid=8c5884c1-a995-4a6a-9b84-77d7c2767905","ios":"levelo://app?vid=8c5884c1-a995-4a6a-9b84-77d7c2767905"},"vehicle_type_id":"4","last_reported":1750191147,"current_range_meters":5600,"station_id":"ce4bgjh2rcd13ifvqbg0","pricing_plan_id":"cebpf4jnsgd1na2vs0mg"},{"bike_id":"bb962da3-f6ae-42fb-b537-1438b04c284d","system_id":"levelo_inurba_marseille","lat":43.29705,"lon":5.37707,"is_reserved":false,"is_disabled":false,"rental_uris":{"android":"levelo://app?vid=bb962da3-f6ae-42fb-b537-1438b04c284d","ios":"levelo://app?vid=bb962da3-f6ae-42fb-b537-1438b04c284d"},"vehicle_type_id":"4","last_reported":1750191147,"current_range_meters":5600,"station_id":"ce4bgkh2rcd13ifvqbl0","pricing_plan_id":"cebpf4jnsgd1na2vs0mg"},{"bike_id":"32325f31-d159-4ae8-bced-128bf5722c4e","system_id":"levelo_inurba_marseille","lat":43.293438,"lon":5.401418,"is_reserved":false,"is_disabled":false,"rental_uris":{"android":"levelo://app?vid=32325f31-d159-4ae8-bced-128bf5722c4e","ios":"levelo://app?vid=32325f31-d159-4ae8-bced-128bf5722c4e"},"vehicle_type_id":"4","last_reported":1750191147,"current_range_meters":5600,"station_id":"ce4bh312rcd13ifvqdk0","pricing_plan_id":"cebpf4jnsgd1na2vs0mg"},{"bike_id":"e1adf666-9a26-4d58-9750-078ffa9130d3","system_id":"levelo_inurba_marseille","lat":43.28927,"lon":5.38383,"is_reserved":false,"is_disabled":false,"rental_uris":{"android":"levelo://app?vid=e1adf666-9a26-4d58-9750-078ffa9130d3","ios":"levelo://app?vid=e1adf666-9a26-4d58-9750-078ffa9130d3"},"vehicle_type_id":"4","last_reported":1750191147,"current_range_meters":5600,"station_id":"ce4bh612rcd13ifvqe6g","pricing_plan_id":"cebpf4jnsgd1na2vs0mg"},{"bike_id":"58a3d38d-8dc9-4b6e-afbf-3f4a2c2ff384","system_id":"levelo_inurba_marseille","lat":43.32657,"lon":5.4099,"is_reserved":false,"is_disabled":false,"rental_uris":{"android":"levelo://app?vid=58a3d38d-8dc9-4b6e-afbf-3f4a2c2ff384","ios":"levelo://app?vid=58a3d38d-8dc9-4b6e-afbf-3f4a2c2ff384"},"vehicle_type_id":"4","last_reported":1750191147,"current_range_meters":5600,"station_id":"ce4bhpp2rcd13ifvqhgg","pricing_plan_id":"cebpf4jnsgd1na2vs0mg"},{"bike_id":"a8560958-7a33-4e37-bad9-c9a1e686fc43","system_id":"levelo_inurba_marseille","lat":43.29236,"lon":5.374855,"is_reserved":false,"is_disabled":false,"rental_uris":{"android":"levelo://app?vid=a8560958-7a33-4e37-bad9-c9a1e686fc43","ios":"levelo://app?vid=a8560958-7a33-4e37-bad9-c9a1e686fc43"},"vehicle_type_id":"4","last_reported":1750191147,"current_range_meters":6000,"station_id":"","pricing_plan_id":"cebpf4jnsgd1na2vs0mg"},{"bike_id":"7385bf53-0232-4d4a-8859-28c6606dd032","system_id":"levelo_inurba_marseille","lat":43.319881,"lon":5.413731,"is_reserved":false,"is_disabled":false,"rental_uris":{"android":"levelo://app?vid=7385bf53-0232-4d4a-8859-28c6606dd032","ios":"levelo://app?vid=7385bf53-0232-4d4a-8859-28c6606dd032"},"vehicle_type_id":"4","last_reported":1750191147,"current_range_meters":6400,"station_id":"ce4bhq92rcd13ifvqhkg","pricing_plan_id":"cebpf4jnsgd1na2vs0mg"},{"bike_id":"cd0b271f-a2a4-4f5a-82cf-82bb357236cd","system_id":"levelo_inurba_marseille","lat":43.2985,"lon":5.37879,"is_reserved":false,"is_disabled":false,"rental_uris":{"android":"levelo://app?vid=cd0b271f-a2a4-4f5a-82cf-82bb357236cd","ios":"levelo://app?vid=cd0b271f-a2a4-4f5a-82cf-82bb357236cd"},"vehicle_type_id":"4","last_reported":1750191147,"current_range_meters":6800,"station_id":"","pricing_plan_id":"cebpf4jnsgd1na2vs0mg"},{"bike_id":"ad347c14-931f-4261-ab3b-a1807595d5e4","system_id":"levelo_inurba_marseille","lat":43.31691,"lon":5.40467,"is_reserved":false,"is_disabled":false,"rental_uris":{"android":"levelo://app?vid=ad347c14-931f-4261-ab3b-a1807595d5e4","ios":"levelo://app?vid=ad347c14-931f-4261-ab3b-a1807595d5e4"},"vehicle_type_id":"4","last_reported":1750191147,"current_range_meters":6800,"station_id":"ce4bh012rcd13ifvqd00","pricing_plan_id":"cebpf4jnsgd1na2vs0mg"},{"bike_id":"b9cff743-12b8-4b4f-93ba-97355753215b","system_id":"levelo_inurba_marseille","lat":43.28938,"lon":5.39618,"is_reserved":false,"is_disabled":false,"rental_uris":{"android":"levelo://app?vid=b9cff743-12b8-4b4f-93ba-97355753215b","ios":"levelo://app?vid=b9cff743-12b8-4b4f-93ba-97355753215b"},"vehicle_type_id":"4","last_reported":1750191147,"current_range_meters":6800,"station_id":"ce4bh3h2rcd13ifvqdn0","pricing_plan_id":"cebpf4jnsgd1na2vs0mg"},{"bike_id":"105e6dd3-9999-46b5-af44-141fa0689273","system_id":"levelo_inurba_marseille","lat":43.27837,"lon":5.35459,"is_reserved":false,"is_disabled":false,"rental_uris":{"android":"levelo://app?vid=105e6dd3-9999-46b5-af44-141fa0689273","ios":"levelo://app?vid=105e6dd3-9999-46b5-af44-141fa0689273"},"vehicle_type_id":"4","last_reported":1750191147,"current_range_meters":7200,"station_id":"","pricing_plan_id":"cebpf4jnsgd1na2vs0mg"},{"bike_id":"9172657e-586e-4e84-99c0-a689815b5fb5","system_id":"levelo_inurba_marseille","lat":43.32269,"lon":5.38289,"is_reserved":false,"is_disabled":false,"rental_uris":{"android":"levelo://app?vid=9172657e-586e-4e84-99c0-a689815b5fb5","ios":"levelo://app?vid=9172657e-586e-4e84-99c0-a689815b5fb5"},"vehicle_type_id":"4","last_reported":1750191147,"current_range_meters":7200,"station_id":"ce4bhr12rcd13ifvqhqg","pricing_plan_id":"cebpf4jnsgd1na2vs0mg"},{"bike_id":"0b184e7f-1ebc-4a92-afaa-efd679d8dadb","system_id":"levelo_inurba_marseille","lat":43.29702,"lon":5.36595,"is_reserved":false,"is_disabled":false,"rental_uris":{"android":"levelo://app?vid=0b184e7f-1ebc-4a92-afaa-efd679d8dadb","ios":"levelo://app?vid=0b184e7f-1ebc-4a92-afaa-efd679d8dadb"},"vehicle_type_id":"4","last_reported":1750191147,"current_range_meters":8000,"station_id":"ce4bgn12rcd13ifvqbt0","pricing_plan_id":"cebpf4jnsgd1na2vs0mg"},{"bike_id":"da3e1724-606c-4f9a-9130-d56dd48e22e0","system_id":"levelo_inurba_marseille","lat":43.32956,"lon":5.40587,"is_reserved":false,"is_disabled":false,"rental_uris":{"android":"levelo://app?vid=da3e1724-606c-4f9a-9130-d56dd48e22e0","ios":"levelo://app?vid=da3e1724-606c-4f9a-9130-d56dd48e22e0"},"vehicle_type_id":"4","last_reported":1750191147,"current_range_meters":8400,"station_id":"","pricing_plan_id":"cebpf4jnsgd1na2vs0mg"},{"bike_id":"6ba80795-26da-43fa-ab60-6831760385ff","system_id":"levelo_inurba_marseille","lat":43.32597,"lon":5.41987,"is_reserved":false,"is_disabled":false,"rental_uris":{"android":"levelo://app?vid=6ba80795-26da-43fa-ab60-6831760385ff","ios":"levelo://app?vid=6ba80795-26da-43fa-ab60-6831760385ff"},"vehicle_type_id":"4","last_reported":1750191147,"current_range_meters":8400,"station_id":"","pricing_plan_id":"cebpf4jnsgd1na2vs0mg"},{"bike_id":"f434ef40-f22f-4f7e-96f3-432fdb69db4d","system_id":"levelo_inurba_marseille","lat":43.29598,"lon":5.38099,"is_reserved":false,"is_disabled":false,"rental_uris":{"android":"levelo://app?vid=f434ef40-f22f-4f7e-96f3-432fdb69db4d","ios":"levelo://app?vid=f434ef40-f22f-4f7e-96f3-432fdb69db4d"},"vehicle_type_id":"4","last_reported":1750191147,"current_range_meters":8400,"station_id":"ce4bgl12rcd13ifvqbo0","pricing_plan_id":"cebpf4jnsgd1na2vs0mg"},{"bike_id":"c0261a46-f164-48f6-9936-0867d8161f75","system_id":"levelo_inurba_marseille","lat":43.30594,"lon":5.39358,"is_reserved":false,"is_disabled":false,"rental_uris":{"android":"levelo://app?vid=c0261a46-f164-48f6-9936-0867d8161f75","ios":"levelo://app?vid=c0261a46-f164-48f6-9936-0867d8161f75"},"vehicle_type_id":"4","last_reported":1750191147,"current_range_meters":8400,"station_id":"ce4bh0p2rcd13ifvqd80","pricing_plan_id":"cebpf4jnsgd1na2vs0mg"},{"bike_id":"5b2007c3-4e2d-4142-beec-2024a3ffa612","system_id":"levelo_inurba_marseille","lat":43.29258,"lon":5.40906,"is_reserved":false,"is_disabled":false,"rental_uris":{"android":"levelo://app?vid=5b2007c3-4e2d-4142-beec-2024a3ffa612","ios":"levelo://app?vid=5b2007c3-4e2d-4142-beec-2024a3ffa612"},"vehicle_type_id":"4","last_reported":1750191147,"current_range_meters":8400,"station_id":"ce4bh192rcd13ifvqdc0","pricing_plan_id":"cebpf4jnsgd1na2vs0mg"},{"bike_id":"0e52d7ba-4dc4-4eb3-962d-00fdacfc9d60","system_id":"levelo_inurba_marseille","lat":43.29033,"lon":5.3995,"is_reserved":false,"is_disabled":false,"rental_uris":{"android":"levelo://app?vid=0e52d7ba-4dc4-4eb3-962d-00fdacfc9d60","ios":"levelo://app?vid=0e52d7ba-4dc4-4eb3-962d-00fdacfc9d60"},"vehicle_type_id":"4","last_reported":1750191147,"current_range_meters":8400,"station_id":"ce4bh392rcd13ifvqdm0","pricing_plan_id":"cebpf4jnsgd1na2vs0mg"},{"bike_id":"f2ec4c27-661d-4c12-b15f-7f127341201d","system_id":"levelo_inurba_marseille","lat":43.31996,"lon":5.38141,"is_reserved":false,"is_disabled":false,"rental_uris":{"android":"levelo://app?vid=f2ec4c27-661d-4c12-b15f-7f127341201d","ios":"levelo://app?vid=f2ec4c27-661d-4c12-b15f-7f127341201d"},"vehicle_type_id":"4","last_reported":1750191147,"current_range_meters":8400,"station_id":"ce4bhr12rcd13ifvqhpg","pricing_plan_id":"cebpf4jnsgd1na2vs0mg"},{"bike_id":"7a1918db-21df-4cc3-a872-403963d58d0f","system_id":"levelo_inurba_marseille","lat":43.29783,"lon":5.39334,"is_reserved":false,"is_disabled":false,"rental_uris":{"android":"levelo://app?vid=7a1918db-21df-4cc3-a872-403963d58d0f","ios":"levelo://app?vid=7a1918db-21df-4cc3-a872-403963d58d0f"},"vehicle_type_id":"4","last_reported":1750191147,"current_range_meters":8400,"station_id":"chh1huq6cuj3fo74tm60","pricing_plan_id":"cebpf4jnsgd1na2vs0mg"},{"bike_id":"e4f4641a-ad9f-450d-bfaf-6642eb9478f4","system_id":"levelo_inurba_marseille","lat":43.30427,"lon":5.38881,"is_reserved":false,"is_disabled":false,"rental_uris":{"android":"levelo://app?vid=e4f4641a-ad9f-450d-bfaf-6642eb9478f4","ios":"levelo://app?vid=e4f4641a-ad9f-450d-bfaf-6642eb9478f4"},"vehicle_type_id":"4","last_reported":1750191147,"current_range_meters":8800,"station_id":"ce4bgk12rcd13ifvqbi0","pricing_plan_id":"cebpf4jnsgd1na2vs0mg"},{"bike_id":"291e908c-dbad-4b5b-8d11-efbc9e25f64f","system_id":"levelo_inurba_marseille","lat":43.30261,"lon":5.40083,"is_reserved":false,"is_disabled":false,"rental_uris":{"android":"levelo://app?vid=291e908c-dbad-4b5b-8d11-efbc9e25f64f","ios":"levelo://app?vid=291e908c-dbad-4b5b-8d11-efbc9e25f64f"},"vehicle_type_id":"4","last_reported":1750191147,"current_range_meters":8800,"station_id":"ce4bgvh2rcd13ifvqcs0","pricing_plan_id":"cebpf4jnsgd1na2vs0mg"},{"bike_id":"0c55ba03-70ad-46ae-8706-4e0e63162e3e","system_id":"levelo_inurba_marseille","lat":43.29441,"lon":5.39749,"is_reserved":false,"is_disabled":false,"rental_uris":{"android":"levelo://app?vid=0c55ba03-70ad-46ae-8706-4e0e63162e3e","ios":"levelo://app?vid=0c55ba03-70ad-46ae-8706-4e0e63162e3e"},"vehicle_type_id":"4","last_reported":1750191147,"current_range_meters":8800,"station_id":"ce4bh3h2rcd13ifvqdo0","pricing_plan_id":"cebpf4jnsgd1na2vs0mg"},{"bike_id":"84b0c19d-3c6a-48c7-ae72-a22a51d91e69","system_id":"levelo_inurba_marseille","lat":43.2869,"lon":5.38666,"is_reserved":false,"is_disabled":false,"rental_uris":{"android":"levelo://app?vid=84b0c19d-3c6a-48c7-ae72-a22a51d91e69","ios":"levelo://app?vid=84b0c19d-3c6a-48c7-ae72-a22a51d91e69"},"vehicle_type_id":"4","last_reported":1750191147,"current_range_meters":8800,"station_id":"ce4bh492rcd13ifvqdug","pricing_plan_id":"cebpf4jnsgd1na2vs0mg"},{"bike_id":"3a47c52e-32f1-41e5-85dc-d8e2c6b52c1a","system_id":"levelo_inurba_marseille","lat":43.307962,"lon":5.435204,"is_reserved":false,"is_disabled":false,"rental_uris":{"android":"levelo://app?vid=3a47c52e-32f1-41e5-85dc-d8e2c6b52c1a","ios":"levelo://app?vid=3a47c52e-32f1-41e5-85dc-d8e2c6b52c1a"},"vehicle_type_id":"4","last_reported":1750191147,"current_range_meters":8800,"station_id":"ce4bhph2rcd13ifvqheg","pricing_plan_id":"cebpf4jnsgd1na2vs0mg"},{"bike_id":"1fc5c278-358c-44be-a8d5-5f9280f52861","system_id":"levelo_inurba_marseille","lat":43.29712,"lon":5.36606,"is_reserved":false,"is_disabled":false,"rental_uris":{"android":"levelo://app?vid=1fc5c278-358c-44be-a8d5-5f9280f52861","ios":"levelo://app?vid=1fc5c278-358c-44be-a8d5-5f9280f52861"},"vehicle_type_id":"4","last_reported":1750191147,"current_range_meters":9200,"station_id":"ce4bgn12rcd13ifvqbt0","pricing_plan_id":"cebpf4jnsgd1na2vs0mg"},{"bike_id":"c08f29ad-1054-4ede-b2cc-8643d7011c9a","system_id":"levelo_inurba_marseille","lat":43.29621,"lon":5.37167,"is_reserved":false,"is_disabled":false,"rental_uris":{"android":"levelo://app?vid=c08f29ad-1054-4ede-b2cc-8643d7011c9a","ios":"levelo://app?vid=c08f29ad-1054-4ede-b2cc-8643d7011c9a"},"vehicle_type_id":"4","last_reported":1750191147,"current_range_meters":9200,"station_id":"ce4bgnh2rcd13ifvqc0g","pricing_plan_id":"cebpf4jnsgd1na2vs0mg"},{"bike_id":"7c7d8ab5-008b-47eb-a5ae-5a63a77e5f6a","system_id":"levelo_inurba_marseille","lat":43.2925,"lon":5.40908,"is_reserved":false,"is_disabled":false,"rental_uris":{"android":"levelo://app?vid=7c7d8ab5-008b-47eb-a5ae-5a63a77e5f6a","ios":"levelo://app?vid=7c7d8ab5-008b-47eb-a5ae-5a63a77e5f6a"},"vehicle_type_id":"4","last_reported":1750191147,"current_range_meters":9200,"station_id":"ce4bh192rcd13ifvqdc0","pricing_plan_id":"cebpf4jnsgd1na2vs0mg"},{"bike_id":"a006cbb3-1527-49b2-b594-3bb895003df8","system_id":"levelo_inurba_marseille","lat":43.289368,"lon":5.366334,"is_reserved":false,"is_disabled":false,"rental_uris":{"android":"levelo://app?vid=a006cbb3-1527-49b2-b594-3bb895003df8","ios":"levelo://app?vid=a006cbb3-1527-49b2-b594-3bb895003df8"},"vehicle_type_id":"4","last_reported":1750191147,"current_range_meters":9200,"station_id":"ce4bhap2rcd13ifvqek0","pricing_plan_id":"cebpf4jnsgd1na2vs0mg"},{"bike_id":"27628750-4e5c-4c1d-8092-05e1b3f19069","system_id":"levelo_inurba_marseille","lat":43.2408,"lon":5.37755,"is_reserved":false,"is_disabled":false,"rental_uris":{"android":"levelo://app?vid=27628750-4e5c-4c1d-8092-05e1b3f19069","ios":"levelo://app?vid=27628750-4e5c-4c1d-8092-05e1b3f19069"},"vehicle_type_id":"4","last_reported":1750191147,"current_range_meters":9200,"station_id":"ce4bhnp2rcd13ifvqgvg","pricing_plan_id":"cebpf4jnsgd1na2vs0mg"},{"bike_id":"3b136301-d892-4bf1-aa15-695ec30464ca","system_id":"levelo_inurba_marseille","lat":43.32104,"lon":5.36778,"is_reserved":false,"is_disabled":false,"rental_uris":{"android":"levelo://app?vid=3b136301-d892-4bf1-aa15-695ec30464ca","ios":"levelo://app?vid=3b136301-d892-4bf1-aa15-695ec30464ca"},"vehicle_type_id":"4","last_reported":1750191147,"current_range_meters":9200,"station_id":"ce4bhrh2rcd13ifvqhug","pricing_plan_id":"cebpf4jnsgd1na2vs0mg"},{"bike_id":"bc0f80bb-70db-427a-8e9e-2e2a7c72e6d2","system_id":"levelo_inurba_marseille","lat":43.29825,"lon":5.36358,"is_reserved":false,"is_disabled":false,"rental_uris":{"android":"levelo://app?vid=bc0f80bb-70db-427a-8e9e-2e2a7c72e6d2","ios":"levelo://app?vid=bc0f80bb-70db-427a-8e9e-2e2a7c72e6d2"},"vehicle_type_id":"4","last_reported":1750191147,"current_range_meters":9600,"station_id":"","pricing_plan_id":"cebpf4jnsgd1na2vs0mg"},{"bike_id":"ae8524c6-7b10-43ef-8ed4-b8035f1213c1","system_id":"levelo_inurba_marseille","lat":43.33463,"lon":5.40031,"is_reserved":false,"is_disabled":false,"rental_uris":{"android":"levelo://app?vid=ae8524c6-7b10-43ef-8ed4-b8035f1213c1","ios":"levelo://app?vid=ae8524c6-7b10-43ef-8ed4-b8035f1213c1"},"vehicle_type_id":"4","last_reported":1750191147,"current_range_meters":9600,"station_id":"","pricing_plan_id":"cebpf4jnsgd1na2vs0mg"},{"bike_id":"e3b52ed6-db24-4990-94d0-a82013718e62","system_id":"levelo_inurba_marseille","lat":43.2903,"lon":5.38651,"is_reserved":false,"is_disabled":false,"rental_uris":{"android":"levelo://app?vid=e3b52ed6-db24-4990-94d0-a82013718e62","ios":"levelo://app?vid=e3b52ed6-db24-4990-94d0-a82013718e62"},"vehicle_type_id":"4","last_reported":1750191147,"current_range_meters":9600,"station_id":"ce4bh4p2rcd13ifvqe0g","pricing_plan_id":"cebpf4jnsgd1na2vs0mg"},{"bike_id":"99cad508-6ecc-4a68-9c2f-388d966e9df1","system_id":"levelo_inurba_marseille","lat":43.3074,"lon":5.42443,"is_reserved":false,"is_disabled":false,"rental_uris":{"android":"levelo://app?vid=99cad508-6ecc-4a68-9c2f-388d966e9df1","ios":"levelo://app?vid=99cad508-6ecc-4a68-9c2f-388d966e9df1"},"vehicle_type_id":"4","last_reported":1750191147,"current_range_meters":9600,"station_id":"st_cvj6ca6bvosntc0bfgr0","pricing_plan_id":"cebpf4jnsgd1na2vs0mg"},{"bike_id":"95e0d29a-fdad-45eb-a9e3-07866f4eac6d","system_id":"levelo_inurba_marseille","lat":43.29652,"lon":5.36245,"is_reserved":false,"is_disabled":false,"rental_uris":{"android":"levelo://app?vid=95e0d29a-fdad-45eb-a9e3-07866f4eac6d","ios":"levelo://app?vid=95e0d29a-fdad-45eb-a9e3-07866f4eac6d"},"vehicle_type_id":"4","last_reported":1750191147,"current_range_meters":10000,"station_id":"","pricing_plan_id":"cebpf4jnsgd1na2vs0mg"},{"bike_id":"db2f664a-ffd0-4283-beef-5bcb5bf064f8","system_id":"levelo_inurba_marseille","lat":43.29785,"lon":5.38094,"is_reserved":false,"is_disabled":false,"rental_uris":{"android":"levelo://app?vid=db2f664a-ffd0-4283-beef-5bcb5bf064f8","ios":"levelo://app?vid=db2f664a-ffd0-4283-beef-5bcb5bf064f8"},"vehicle_type_id":"4","last_reported":1750191147,"current_range_meters":10000,"station_id":"ce4bgip2rcd13ifvqbb0","pricing_plan_id":"cebpf4jnsgd1na2vs0mg"},{"bike_id":"ebbc16c6-9c10-434b-bd64-18da857a5229","system_id":"levelo_inurba_marseille","lat":43.29266,"lon":5.38436,"is_reserved":false,"is_disabled":false,"rental_uris":{"android":"levelo://app?vid=ebbc16c6-9c10-434b-bd64-18da857a5229","ios":"levelo://app?vid=ebbc16c6-9c10-434b-bd64-18da857a5229"},"vehicle_type_id":"4","last_reported":1750191147,"current_range_meters":10000,"station_id":"ce4bh692rcd13ifvqea0","pricing_plan_id":"cebpf4jnsgd1na2vs0mg"},{"bike_id":"8b6e367a-5514-41f6-9f3f-ab3bc1220901","system_id":"levelo_inurba_marseille","lat":43.26488,"lon":5.39549,"is_reserved":false,"is_disabled":false,"rental_uris":{"android":"levelo://app?vid=8b6e367a-5514-41f6-9f3f-ab3bc1220901","ios":"levelo://app?vid=8b6e367a-5514-41f6-9f3f-ab3bc1220901"},"vehicle_type_id":"4","last_reported":1750191147,"current_range_meters":10000,"station_id":"ce4bhi12rcd13ifvqfq0","pricing_plan_id":"cebpf4jnsgd1na2vs0mg"},{"bike_id":"1e373418-986e-4d3c-9ff7-c37dd7c7a214","system_id":"levelo_inurba_marseille","lat":43.29901,"lon":5.43651,"is_reserved":false,"is_disabled":false,"rental_uris":{"android":"levelo://app?vid=1e373418-986e-4d3c-9ff7-c37dd7c7a214","ios":"levelo://app?vid=1e373418-986e-4d3c-9ff7-c37dd7c7a214"},"vehicle_type_id":"4","last_reported":1750191147,"current_range_meters":10000,"station_id":"ce4bhpp2rcd13ifvqhfg","pricing_plan_id":"cebpf4jnsgd1na2vs0mg"},{"bike_id":"c0c76d8c-289f-4f03-aced-dfb867450877","system_id":"levelo_inurba_marseille","lat":43.32006,"lon":5.38144,"is_reserved":false,"is_disabled":false,"rental_uris":{"android":"levelo://app?vid=c0c76d8c-289f-4f03-aced-dfb867450877","ios":"levelo://app?vid=c0c76d8c-289f-4f03-aced-dfb867450877"},"vehicle_type_id":"4","last_reported":1750191147,"current_range_meters":10000,"station_id":"ce4bhr12rcd13ifvqhpg","pricing_plan_id":"cebpf4jnsgd1na2vs0mg"},{"bike_id":"8ff3993d-27a7-4fcd-bc14-6199eb53ca03","system_id":"levelo_inurba_marseille","lat":43.3046,"lon":5.37902,"is_reserved":false,"is_disabled":false,"rental_uris":{"android":"levelo://app?vid=8ff3993d-27a7-4fcd-bc14-6199eb53ca03","ios":"levelo://app?vid=8ff3993d-27a7-4fcd-bc14-6199eb53ca03"},"vehicle_type_id":"4","last_reported":1750191147,"current_range_meters":10800,"station_id":"ce4bgup2rcd13ifvqcn0","pricing_plan_id":"cebpf4jnsgd1na2vs0mg"},{"bike_id":"48a08f65-7dec-46fb-8400-bdcbefc7d8e8","system_id":"levelo_inurba_marseille","lat":43.295191,"lon":5.394048,"is_reserved":false,"is_disabled":false,"rental_uris":{"android":"levelo://app?vid=48a08f65-7dec-46fb-8400-bdcbefc7d8e8","ios":"levelo://app?vid=48a08f65-7dec-46fb-8400-bdcbefc7d8e8"},"vehicle_type_id":"4","last_reported":1750191147,"current_range_meters":10800,"station_id":"ce4bh292rcd13ifvqdf0","pricing_plan_id":"cebpf4jnsgd1na2vs0mg"},{"bike_id":"44d233c7-75f6-4555-874d-4975fcb90407","system_id":"levelo_inurba_marseille","lat":43.28351,"lon":5.38087,"is_reserved":false,"is_disabled":false,"rental_uris":{"android":"levelo://app?vid=44d233c7-75f6-4555-874d-4975fcb90407","ios":"levelo://app?vid=44d233c7-75f6-4555-874d-4975fcb90407"},"vehicle_type_id":"4","last_reported":1750191147,"current_range_meters":10800,"station_id":"ce4bh412rcd13ifvqdr0","pricing_plan_id":"cebpf4jnsgd1na2vs0mg"},{"bike_id":"9a16dbc6-ebaf-4118-9922-ee05af967049","system_id":"levelo_inurba_marseille","lat":43.284593,"lon":5.358863,"is_reserved":false,"is_disabled":false,"rental_uris":{"android":"levelo://app?vid=9a16dbc6-ebaf-4118-9922-ee05af967049","ios":"levelo://app?vid=9a16dbc6-ebaf-4118-9922-ee05af967049"},"vehicle_type_id":"4","last_reported":1750191147,"current_range_meters":10800,"station_id":"ce4bhah2rcd13ifvqei0","pricing_plan_id":"cebpf4jnsgd1na2vs0mg"},{"bike_id":"7ce1e629-691d-4460-b9db-6e18997a4add","system_id":"levelo_inurba_marseille","lat":43.28469,"lon":5.35869,"is_reserved":false,"is_disabled":false,"rental_uris":{"android":"levelo://app?vid=7ce1e629-691d-4460-b9db-6e18997a4add","ios":"levelo://app?vid=7ce1e629-691d-4460-b9db-6e18997a4add"},"vehicle_type_id":"4","last_reported":1750191147,"current_range_meters":10800,"station_id":"ce4bhah2rcd13ifvqei0","pricing_plan_id":"cebpf4jnsgd1na2vs0mg"},{"bike_id":"0e27dafc-21df-4fb1-bd36-2450a7866702","system_id":"levelo_inurba_marseille","lat":43.27166,"lon":5.39984,"is_reserved":false,"is_disabled":false,"rental_uris":{"android":"levelo://app?vid=0e27dafc-21df-4fb1-bd36-2450a7866702","ios":"levelo://app?vid=0e27dafc-21df-4fb1-bd36-2450a7866702"},"vehicle_type_id":"4","last_reported":1750191147,"current_range_meters":11200,"station_id":"","pricing_plan_id":"cebpf4jnsgd1na2vs0mg"},{"bike_id":"c28378c8-9131-4dab-810e-e5055584e7bb","system_id":"levelo_inurba_marseille","lat":43.29597,"lon":5.38097,"is_reserved":false,"is_disabled":false,"rental_uris":{"android":"levelo://app?vid=c28378c8-9131-4dab-810e-e5055584e7bb","ios":"levelo://app?vid=c28378c8-9131-4dab-810e-e5055584e7bb"},"vehicle_type_id":"4","last_reported":1750191147,"current_range_meters":11200,"station_id":"ce4bgl12rcd13ifvqbo0","pricing_plan_id":"cebpf4jnsgd1na2vs0mg"},{"bike_id":"2ac3b144-9d05-4409-a837-cfcd5f5f8b93","system_id":"levelo_inurba_marseille","lat":43.29317,"lon":5.37148,"is_reserved":false,"is_disabled":false,"rental_uris":{"android":"levelo://app?vid=2ac3b144-9d05-4409-a837-cfcd5f5f8b93","ios":"levelo://app?vid=2ac3b144-9d05-4409-a837-cfcd5f5f8b93"},"vehicle_type_id":"4","last_reported":1750191147,"current_range_meters":11600,"station_id":"ce4bgh92rcd13ifvqb40","pricing_plan_id":"cebpf4jnsgd1na2vs0mg"},{"bike_id":"09ebd55e-35cf-4645-b28b-9bb1fdc17505","system_id":"levelo_inurba_marseille","lat":43.29197,"lon":5.39316,"is_reserved":false,"is_disabled":false,"rental_uris":{"android":"levelo://app?vid=09ebd55e-35cf-4645-b28b-9bb1fdc17505","ios":"levelo://app?vid=09ebd55e-35cf-4645-b28b-9bb1fdc17505"},"vehicle_type_id":"4","last_reported":1750191147,"current_range_meters":11600,"station_id":"ce4bh192rcd13ifvqdd0","pricing_plan_id":"cebpf4jnsgd1na2vs0mg"},{"bike_id":"b930fd9d-8e95-41a9-84cd-7009e2a8134d","system_id":"levelo_inurba_marseille","lat":43.29022,"lon":5.38639,"is_reserved":false,"is_disabled":false,"rental_uris":{"android":"levelo://app?vid=b930fd9d-8e95-41a9-84cd-7009e2a8134d","ios":"levelo://app?vid=b930fd9d-8e95-41a9-84cd-7009e2a8134d"},"vehicle_type_id":"4","last_reported":1750191147,"current_range_meters":11600,"station_id":"ce4bh4p2rcd13ifvqe0g","pricing_plan_id":"cebpf4jnsgd1na2vs0mg"},{"bike_id":"e66146e1-ce73-4786-959b-0b2df533f56d","system_id":"levelo_inurba_marseille","lat":43.251007,"lon":5.403397,"is_reserved":false,"is_disabled":false,"rental_uris":{"android":"levelo://app?vid=e66146e1-ce73-4786-959b-0b2df533f56d","ios":"levelo://app?vid=e66146e1-ce73-4786-959b-0b2df533f56d"},"vehicle_type_id":"4","last_reported":1750191147,"current_range_meters":11600,"station_id":"ce4bhlh2rcd13ifvqgig","pricing_plan_id":"cebpf4jnsgd1na2vs0mg"},{"bike_id":"3580751d-a32c-4292-9db1-d59172fedafb","system_id":"levelo_inurba_marseille","lat":43.31886,"lon":5.40734,"is_reserved":false,"is_disabled":false,"rental_uris":{"android":"levelo://app?vid=3580751d-a32c-4292-9db1-d59172fedafb","ios":"levelo://app?vid=3580751d-a32c-4292-9db1-d59172fedafb"},"vehicle_type_id":"4","last_reported":1750191147,"current_range_meters":11600,"station_id":"ce4bhq12rcd13ifvqhig","pricing_plan_id":"cebpf4jnsgd1na2vs0mg"},{"bike_id":"94556628-72cd-4618-b5b6-25b5cfa4141b","system_id":"levelo_inurba_marseille","lat":43.21213,"lon":5.35067,"is_reserved":false,"is_disabled":false,"rental_uris":{"android":"levelo://app?vid=94556628-72cd-4618-b5b6-25b5cfa4141b","ios":"levelo://app?vid=94556628-72cd-4618-b5b6-25b5cfa4141b"},"vehicle_type_id":"4","last_reported":1750191147,"current_range_meters":11600,"station_id":"st_cvj6sg6p6f1abm77japg","pricing_plan_id":"cebpf4jnsgd1na2vs0mg"},{"bike_id":"eca25bd6-1b44-4388-a7b0-074a85a4f502","system_id":"levelo_inurba_marseille","lat":43.311,"lon":5.39729,"is_reserved":false,"is_disabled":false,"rental_uris":{"android":"levelo://app?vid=eca25bd6-1b44-4388-a7b0-074a85a4f502","ios":"levelo://app?vid=eca25bd6-1b44-4388-a7b0-074a85a4f502"},"vehicle_type_id":"4","last_reported":1750191147,"current_range_meters":12000,"station_id":"","pricing_plan_id":"cebpf4jnsgd1na2vs0mg"},{"bike_id":"9c6e5c37-2f21-48cc-abbb-62aeb6710e72","system_id":"levelo_inurba_marseille","lat":43.27975,"lon":5.38728,"is_reserved":false,"is_disabled":false,"rental_uris":{"android":"levelo://app?vid=9c6e5c37-2f21-48cc-abbb-62aeb6710e72","ios":"levelo://app?vid=9c6e5c37-2f21-48cc-abbb-62aeb6710e72"},"vehicle_type_id":"4","last_reported":1750191147,"current_range_meters":12000,"station_id":"ce4bhg12rcd13ifvqf80","pricing_plan_id":"cebpf4jnsgd1na2vs0mg"},{"bike_id":"83cfee7d-980d-496a-98c8-745c7e44c68d","system_id":"levelo_inurba_marseille","lat":43.328781,"lon":5.390906,"is_reserved":false,"is_disabled":false,"rental_uris":{"android":"levelo://app?vid=83cfee7d-980d-496a-98c8-745c7e44c68d","ios":"levelo://app?vid=83cfee7d-980d-496a-98c8-745c7e44c68d"},"vehicle_type_id":"4","last_reported":1750191147,"current_range_meters":12400,"station_id":"","pricing_plan_id":"cebpf4jnsgd1na2vs0mg"},{"bike_id":"cd636b84-fad8-4d21-b088-9638bd444090","system_id":"levelo_inurba_marseille","lat":43.28463,"lon":5.35901,"is_reserved":false,"is_disabled":false,"rental_uris":{"android":"levelo://app?vid=cd636b84-fad8-4d21-b088-9638bd444090","ios":"levelo://app?vid=cd636b84-fad8-4d21-b088-9638bd444090"},"vehicle_type_id":"4","last_reported":1750191147,"current_range_meters":12400,"station_id":"ce4bhah2rcd13ifvqei0","pricing_plan_id":"cebpf4jnsgd1na2vs0mg"},{"bike_id":"f956b748-9002-473c-b052-ebc205f1d18d","system_id":"levelo_inurba_marseille","lat":43.28459,"lon":5.35876,"is_reserved":false,"is_disabled":false,"rental_uris":{"android":"levelo://app?vid=f956b748-9002-473c-b052-ebc205f1d18d","ios":"levelo://app?vid=f956b748-9002-473c-b052-ebc205f1d18d"},"vehicle_type_id":"4","last_reported":1750191147,"current_range_meters":12400,"station_id":"ce4bhah2rcd13ifvqei0","pricing_plan_id":"cebpf4jnsgd1na2vs0mg"},{"bike_id":"dea5227c-16ee-404f-a499-5e526f473c2c","system_id":"levelo_inurba_marseille","lat":43.24385,"lon":5.37051,"is_reserved":false,"is_disabled":false,"rental_uris":{"android":"levelo://app?vid=dea5227c-16ee-404f-a499-5e526f473c2c","ios":"levelo://app?vid=dea5227c-16ee-404f-a499-5e526f473c2c"},"vehicle_type_id":"4","last_reported":1750191147,"current_range_meters":12400,"station_id":"ce4bhhh2rcd13ifvqfk0","pricing_plan_id":"cebpf4jnsgd1na2vs0mg"},{"bike_id":"dac710ab-2f65-4b9e-ae52-c38634075f1b","system_id":"levelo_inurba_marseille","lat":43.2817,"lon":5.42651,"is_reserved":false,"is_disabled":false,"rental_uris":{"android":"levelo://app?vid=dac710ab-2f65-4b9e-ae52-c38634075f1b","ios":"levelo://app?vid=dac710ab-2f65-4b9e-ae52-c38634075f1b"},"vehicle_type_id":"4","last_reported":1750191147,"current_range_meters":12400,"station_id":"ce4bhnh2rcd13ifvqgug","pricing_plan_id":"cebpf4jnsgd1na2vs0mg"},{"bike_id":"1b2613f8-39c3-4a26-a81d-fbd70fc44dd6","system_id":"levelo_inurba_marseille","lat":43.29619,"lon":5.3811,"is_reserved":false,"is_disabled":false,"rental_uris":{"android":"levelo://app?vid=1b2613f8-39c3-4a26-a81d-fbd70fc44dd6","ios":"levelo://app?vid=1b2613f8-39c3-4a26-a81d-fbd70fc44dd6"},"vehicle_type_id":"4","last_reported":1750191147,"current_range_meters":12800,"station_id":"ce4bgl12rcd13ifvqbo0","pricing_plan_id":"cebpf4jnsgd1na2vs0mg"},{"bike_id":"39c5e400-ff51-43ba-af84-ceea49dd3251","system_id":"levelo_inurba_marseille","lat":43.28919,"lon":5.38372,"is_reserved":false,"is_disabled":false,"rental_uris":{"android":"levelo://app?vid=39c5e400-ff51-43ba-af84-ceea49dd3251","ios":"levelo://app?vid=39c5e400-ff51-43ba-af84-ceea49dd3251"},"vehicle_type_id":"4","last_reported":1750191147,"current_range_meters":12800,"station_id":"ce4bh612rcd13ifvqe6g","pricing_plan_id":"cebpf4jnsgd1na2vs0mg"},{"bike_id":"a290217e-c0db-400a-8504-ab2a47cc6a33","system_id":"levelo_inurba_marseille","lat":43.28944,"lon":5.36385,"is_reserved":false,"is_disabled":false,"rental_uris":{"android":"levelo://app?vid=a290217e-c0db-400a-8504-ab2a47cc6a33","ios":"levelo://app?vid=a290217e-c0db-400a-8504-ab2a47cc6a33"},"vehicle_type_id":"4","last_reported":1750191147,"current_range_meters":12800,"station_id":"ce4bhc92rcd13ifvqetg","pricing_plan_id":"cebpf4jnsgd1na2vs0mg"},{"bike_id":"e2fff575-6455-49f0-9775-ae65d4dbf462","system_id":"levelo_inurba_marseille","lat":43.27567,"lon":5.38411,"is_reserved":false,"is_disabled":false,"rental_uris":{"android":"levelo://app?vid=e2fff575-6455-49f0-9775-ae65d4dbf462","ios":"levelo://app?vid=e2fff575-6455-49f0-9775-ae65d4dbf462"},"vehicle_type_id":"4","last_reported":1750191147,"current_range_meters":12800,"station_id":"ce4bhh92rcd13ifvqfi0","pricing_plan_id":"cebpf4jnsgd1na2vs0mg"},{"bike_id":"91f78cd6-38a2-44e7-86aa-18811c270d91","system_id":"levelo_inurba_marseille","lat":43.24655,"lon":5.38165,"is_reserved":false,"is_disabled":false,"rental_uris":{"android":"levelo://app?vid=91f78cd6-38a2-44e7-86aa-18811c270d91","ios":"levelo://app?vid=91f78cd6-38a2-44e7-86aa-18811c270d91"},"vehicle_type_id":"4","last_reported":1750191147,"current_range_meters":12800,"station_id":"ce4bhih2rcd13ifvqfr0","pricing_plan_id":"cebpf4jnsgd1na2vs0mg"},{"bike_id":"2090556a-ebe6-4fcd-b60b-df67d7c8e4f7","system_id":"levelo_inurba_marseille","lat":43.29894,"lon":5.43655,"is_reserved":false,"is_disabled":false,"rental_uris":{"android":"levelo://app?vid=2090556a-ebe6-4fcd-b60b-df67d7c8e4f7","ios":"levelo://app?vid=2090556a-ebe6-4fcd-b60b-df67d7c8e4f7"},"vehicle_type_id":"4","last_reported":1750191147,"current_range_meters":12800,"station_id":"ce4bhpp2rcd13ifvqhfg","pricing_plan_id":"cebpf4jnsgd1na2vs0mg"},{"bike_id":"1fe8e362-37a6-4b0d-9a21-44fa77771e5f","system_id":"levelo_inurba_marseille","lat":43.28684,"lon":5.38651,"is_reserved":false,"is_disabled":false,"rental_uris":{"android":"levelo://app?vid=1fe8e362-37a6-4b0d-9a21-44fa77771e5f","ios":"levelo://app?vid=1fe8e362-37a6-4b0d-9a21-44fa77771e5f"},"vehicle_type_id":"4","last_reported":1750191147,"current_range_meters":13600,"station_id":"ce4bh492rcd13ifvqdug","pricing_plan_id":"cebpf4jnsgd1na2vs0mg"},{"bike_id":"00277777-4e8f-46d2-8390-b8856975b9f2","system_id":"levelo_inurba_marseille","lat":43.28675,"lon":5.38655,"is_reserved":false,"is_disabled":false,"rental_uris":{"android":"levelo://app?vid=00277777-4e8f-46d2-8390-b8856975b9f2","ios":"levelo://app?vid=00277777-4e8f-46d2-8390-b8856975b9f2"},"vehicle_type_id":"4","last_reported":1750191147,"current_range_meters":13600,"station_id":"ce4bh492rcd13ifvqdug","pricing_plan_id":"cebpf4jnsgd1na2vs0mg"},{"bike_id":"7234e671-b7a4-4b90-a67b-e9223029444c","system_id":"levelo_inurba_marseille","lat":43.26571,"lon":5.39001,"is_reserved":false,"is_disabled":false,"rental_uris":{"android":"levelo://app?vid=7234e671-b7a4-4b90-a67b-e9223029444c","ios":"levelo://app?vid=7234e671-b7a4-4b90-a67b-e9223029444c"},"vehicle_type_id":"4","last_reported":1750191147,"current_range_meters":13600,"station_id":"ce4bhe12rcd13ifvqf30","pricing_plan_id":"cebpf4jnsgd1na2vs0mg"},{"bike_id":"84aa799d-57dd-4d89-9db1-82042a4b0d4e","system_id":"levelo_inurba_marseille","lat":43.27565,"lon":5.38404,"is_reserved":false,"is_disabled":false,"rental_uris":{"android":"levelo://app?vid=84aa799d-57dd-4d89-9db1-82042a4b0d4e","ios":"levelo://app?vid=84aa799d-57dd-4d89-9db1-82042a4b0d4e"},"vehicle_type_id":"4","last_reported":1750191147,"current_range_meters":13600,"station_id":"ce4bhh92rcd13ifvqfi0","pricing_plan_id":"cebpf4jnsgd1na2vs0mg"},{"bike_id":"f771e14a-9ea0-4dc9-af21-0012c5f351b7","system_id":"levelo_inurba_marseille","lat":43.32657,"lon":5.4099,"is_reserved":false,"is_disabled":false,"rental_uris":{"android":"levelo://app?vid=f771e14a-9ea0-4dc9-af21-0012c5f351b7","ios":"levelo://app?vid=f771e14a-9ea0-4dc9-af21-0012c5f351b7"},"vehicle_type_id":"4","last_reported":1750191147,"current_range_meters":13600,"station_id":"ce4bhpp2rcd13ifvqhgg","pricing_plan_id":"cebpf4jnsgd1na2vs0mg"},{"bike_id":"5d6ebe43-5181-4d0d-a639-4b2f0627d688","system_id":"levelo_inurba_marseille","lat":43.30142,"lon":5.38781,"is_reserved":false,"is_disabled":false,"rental_uris":{"android":"levelo://app?vid=5d6ebe43-5181-4d0d-a639-4b2f0627d688","ios":"levelo://app?vid=5d6ebe43-5181-4d0d-a639-4b2f0627d688"},"vehicle_type_id":"4","last_reported":1750191147,"current_range_meters":14000,"station_id":"ce4bghh2rcd13ifvqb60","pricing_plan_id":"cebpf4jnsgd1na2vs0mg"},{"bike_id":"1a962ee1-4128-4608-8b50-bd272ad30d35","system_id":"levelo_inurba_marseille","lat":43.24803,"lon":5.37453,"is_reserved":false,"is_disabled":false,"rental_uris":{"android":"levelo://app?vid=1a962ee1-4128-4608-8b50-bd272ad30d35","ios":"levelo://app?vid=1a962ee1-4128-4608-8b50-bd272ad30d35"},"vehicle_type_id":"4","last_reported":1750191147,"current_range_meters":14000,"station_id":"ce4bhgh2rcd13ifvqfb0","pricing_plan_id":"cebpf4jnsgd1na2vs0mg"},{"bike_id":"3d71d4df-44d5-4a43-b95c-ebb9fbdb915f","system_id":"levelo_inurba_marseille","lat":43.27939,"lon":5.41037,"is_reserved":false,"is_disabled":false,"rental_uris":{"android":"levelo://app?vid=3d71d4df-44d5-4a43-b95c-ebb9fbdb915f","ios":"levelo://app?vid=3d71d4df-44d5-4a43-b95c-ebb9fbdb915f"},"vehicle_type_id":"4","last_reported":1750191147,"current_range_meters":14000,"station_id":"ce4bhnp2rcd13ifvqh0g","pricing_plan_id":"cebpf4jnsgd1na2vs0mg"},{"bike_id":"a04805ef-8639-4380-8696-9dc1bf53343c","system_id":"levelo_inurba_marseille","lat":43.29527,"lon":5.38544,"is_reserved":false,"is_disabled":false,"rental_uris":{"android":"levelo://app?vid=a04805ef-8639-4380-8696-9dc1bf53343c","ios":"levelo://app?vid=a04805ef-8639-4380-8696-9dc1bf53343c"},"vehicle_type_id":"4","last_reported":1750191147,"current_range_meters":14400,"station_id":"ce4bgih2rcd13ifvqba0","pricing_plan_id":"cebpf4jnsgd1na2vs0mg"},{"bike_id":"e89f4606-e6c5-441d-9f24-1a754bf898a4","system_id":"levelo_inurba_marseille","lat":43.30443,"lon":5.38893,"is_reserved":false,"is_disabled":false,"rental_uris":{"android":"levelo://app?vid=e89f4606-e6c5-441d-9f24-1a754bf898a4","ios":"levelo://app?vid=e89f4606-e6c5-441d-9f24-1a754bf898a4"},"vehicle_type_id":"4","last_reported":1750191147,"current_range_meters":14400,"station_id":"ce4bgk12rcd13ifvqbi0","pricing_plan_id":"cebpf4jnsgd1na2vs0mg"},{"bike_id":"ce1ab16b-0575-4868-a172-3724f42f48c6","system_id":"levelo_inurba_marseille","lat":43.29981,"lon":5.37161,"is_reserved":false,"is_disabled":false,"rental_uris":{"android":"levelo://app?vid=ce1ab16b-0575-4868-a172-3724f42f48c6","ios":"levelo://app?vid=ce1ab16b-0575-4868-a172-3724f42f48c6"},"vehicle_type_id":"4","last_reported":1750191147,"current_range_meters":14400,"station_id":"ce4bgr92rcd13ifvqc7g","pricing_plan_id":"cebpf4jnsgd1na2vs0mg"},{"bike_id":"081f8872-cfaf-4e08-a52c-be911a87a8ce","system_id":"levelo_inurba_marseille","lat":43.29276,"lon":5.40125,"is_reserved":false,"is_disabled":false,"rental_uris":{"android":"levelo://app?vid=081f8872-cfaf-4e08-a52c-be911a87a8ce","ios":"levelo://app?vid=081f8872-cfaf-4e08-a52c-be911a87a8ce"},"vehicle_type_id":"4","last_reported":1750191147,"current_range_meters":14400,"station_id":"ce4bh312rcd13ifvqdk0","pricing_plan_id":"cebpf4jnsgd1na2vs0mg"},{"bike_id":"ec791070-eafa-4c06-b970-7958cef6417d","system_id":"levelo_inurba_marseille","lat":43.23202,"lon":5.35546,"is_reserved":false,"is_disabled":false,"rental_uris":{"android":"levelo://app?vid=ec791070-eafa-4c06-b970-7958cef6417d","ios":"levelo://app?vid=ec791070-eafa-4c06-b970-7958cef6417d"},"vehicle_type_id":"4","last_reported":1750191147,"current_range_meters":14400,"station_id":"ce4bhu92rcd13ifvqi70","pricing_plan_id":"cebpf4jnsgd1na2vs0mg"},{"bike_id":"2696f42d-34f7-4c94-a7b4-c480656e1e0a","system_id":"levelo_inurba_marseille","lat":43.22935,"lon":5.35371,"is_reserved":false,"is_disabled":false,"rental_uris":{"android":"levelo://app?vid=2696f42d-34f7-4c94-a7b4-c480656e1e0a","ios":"levelo://app?vid=2696f42d-34f7-4c94-a7b4-c480656e1e0a"},"vehicle_type_id":"4","last_reported":1750191147,"current_range_meters":14400,"station_id":"cpo3532slgdg3j2ikp40","pricing_plan_id":"cebpf4jnsgd1na2vs0mg"},{"bike_id":"1197e330-995f-4f41-954b-3eea58f2a4c0","system_id":"levelo_inurba_marseille","lat":43.21188,"lon":5.35074,"is_reserved":false,"is_disabled":false,"rental_uris":{"android":"levelo://app?vid=1197e330-995f-4f41-954b-3eea58f2a4c0","ios":"levelo://app?vid=1197e330-995f-4f41-954b-3eea58f2a4c0"},"vehicle_type_id":"4","last_reported":1750191147,"current_range_meters":14400,"station_id":"st_cvj6sg6p6f1abm77japg","pricing_plan_id":"cebpf4jnsgd1na2vs0mg"},{"bike_id":"7664e2c0-2470-42fd-8cba-28234366e151","system_id":"levelo_inurba_marseille","lat":43.30304,"lon":5.36628,"is_reserved":false,"is_disabled":false,"rental_uris":{"android":"levelo://app?vid=7664e2c0-2470-42fd-8cba-28234366e151","ios":"levelo://app?vid=7664e2c0-2470-42fd-8cba-28234366e151"},"vehicle_type_id":"4","last_reported":1750191147,"current_range_meters":14800,"station_id":"","pricing_plan_id":"cebpf4jnsgd1na2vs0mg"},{"bike_id":"1b12c646-b63f-42ff-a05d-e7c67b627dea","system_id":"levelo_inurba_marseille","lat":43.29587,"lon":5.38105,"is_reserved":false,"is_disabled":false,"rental_uris":{"android":"levelo://app?vid=1b12c646-b63f-42ff-a05d-e7c67b627dea","ios":"levelo://app?vid=1b12c646-b63f-42ff-a05d-e7c67b627dea"},"vehicle_type_id":"4","last_reported":1750191147,"current_range_meters":14800,"station_id":"ce4bgl12rcd13ifvqbo0","pricing_plan_id":"cebpf4jnsgd1na2vs0mg"},{"bike_id":"4df68e6d-6913-414b-a72a-a2e06e788954","system_id":"levelo_inurba_marseille","lat":43.29525,"lon":5.39046,"is_reserved":false,"is_disabled":false,"rental_uris":{"android":"levelo://app?vid=4df68e6d-6913-414b-a72a-a2e06e788954","ios":"levelo://app?vid=4df68e6d-6913-414b-a72a-a2e06e788954"},"vehicle_type_id":"4","last_reported":1750191147,"current_range_meters":14800,"station_id":"ce4bh3p2rcd13ifvqdp0","pricing_plan_id":"cebpf4jnsgd1na2vs0mg"},{"bike_id":"70be68a4-8fc4-49a7-8aca-94d4d0d4f768","system_id":"levelo_inurba_marseille","lat":43.26684,"lon":5.38273,"is_reserved":false,"is_disabled":false,"rental_uris":{"android":"levelo://app?vid=70be68a4-8fc4-49a7-8aca-94d4d0d4f768","ios":"levelo://app?vid=70be68a4-8fc4-49a7-8aca-94d4d0d4f768"},"vehicle_type_id":"4","last_reported":1750191147,"current_range_meters":14800,"station_id":"ce4bhg92rcd13ifvqf90","pricing_plan_id":"cebpf4jnsgd1na2vs0mg"},{"bike_id":"e500676f-fa38-4444-a401-47d223bad554","system_id":"levelo_inurba_marseille","lat":43.31706,"lon":5.43699,"is_reserved":false,"is_disabled":false,"rental_uris":{"android":"levelo://app?vid=e500676f-fa38-4444-a401-47d223bad554","ios":"levelo://app?vid=e500676f-fa38-4444-a401-47d223bad554"},"vehicle_type_id":"4","last_reported":1750191147,"current_range_meters":14800,"station_id":"ce4bhp92rcd13ifvqhcg","pricing_plan_id":"cebpf4jnsgd1na2vs0mg"},{"bike_id":"de0f7c2b-5974-4035-a240-8ed367c0e3f3","system_id":"levelo_inurba_marseille","lat":43.31967,"lon":5.37615,"is_reserved":false,"is_disabled":false,"rental_uris":{"android":"levelo://app?vid=de0f7c2b-5974-4035-a240-8ed367c0e3f3","ios":"levelo://app?vid=de0f7c2b-5974-4035-a240-8ed367c0e3f3"},"vehicle_type_id":"4","last_reported":1750191147,"current_range_meters":15200,"station_id":"","pricing_plan_id":"cebpf4jnsgd1na2vs0mg"},{"bike_id":"971507ea-bc7d-4294-bc79-e0abbd8b507b","system_id":"levelo_inurba_marseille","lat":43.30431,"lon":5.39741,"is_reserved":false,"is_disabled":false,"rental_uris":{"android":"levelo://app?vid=971507ea-bc7d-4294-bc79-e0abbd8b507b","ios":"levelo://app?vid=971507ea-bc7d-4294-bc79-e0abbd8b507b"},"vehicle_type_id":"4","last_reported":1750191147,"current_range_meters":15200,"station_id":"ce4bh092rcd13ifvqd20","pricing_plan_id":"cebpf4jnsgd1na2vs0mg"},{"bike_id":"60665a56-44ba-40a8-8764-45ef02f7b2fe","system_id":"levelo_inurba_marseille","lat":43.29866,"lon":5.39725,"is_reserved":false,"is_disabled":false,"rental_uris":{"android":"levelo://app?vid=60665a56-44ba-40a8-8764-45ef02f7b2fe","ios":"levelo://app?vid=60665a56-44ba-40a8-8764-45ef02f7b2fe"},"vehicle_type_id":"4","last_reported":1750191147,"current_range_meters":15200,"station_id":"ce4bh0h2rcd13ifvqd50","pricing_plan_id":"cebpf4jnsgd1na2vs0mg"},{"bike_id":"da2b1be7-b47d-4595-8ac6-6aa6fe37b6ae","system_id":"levelo_inurba_marseille","lat":43.29026,"lon":5.3863,"is_reserved":false,"is_disabled":false,"rental_uris":{"android":"levelo://app?vid=da2b1be7-b47d-4595-8ac6-6aa6fe37b6ae","ios":"levelo://app?vid=da2b1be7-b47d-4595-8ac6-6aa6fe37b6ae"},"vehicle_type_id":"4","last_reported":1750191147,"current_range_meters":15200,"station_id":"ce4bh4p2rcd13ifvqe0g","pricing_plan_id":"cebpf4jnsgd1na2vs0mg"},{"bike_id":"3518210a-6d90-482f-a11b-11cb7c94acd1","system_id":"levelo_inurba_marseille","lat":43.26464,"lon":5.39198,"is_reserved":false,"is_disabled":false,"rental_uris":{"android":"levelo://app?vid=3518210a-6d90-482f-a11b-11cb7c94acd1","ios":"levelo://app?vid=3518210a-6d90-482f-a11b-11cb7c94acd1"},"vehicle_type_id":"4","last_reported":1750191147,"current_range_meters":16000,"station_id":"","pricing_plan_id":"cebpf4jnsgd1na2vs0mg"},{"bike_id":"c12bc5d5-510b-405a-8de5-015de6e573a8","system_id":"levelo_inurba_marseille","lat":43.2954,"lon":5.38539,"is_reserved":false,"is_disabled":false,"rental_uris":{"android":"levelo://app?vid=c12bc5d5-510b-405a-8de5-015de6e573a8","ios":"levelo://app?vid=c12bc5d5-510b-405a-8de5-015de6e573a8"},"vehicle_type_id":"4","last_reported":1750191147,"current_range_meters":16000,"station_id":"ce4bgih2rcd13ifvqba0","pricing_plan_id":"cebpf4jnsgd1na2vs0mg"},{"bike_id":"1073739d-566b-4485-96db-a7ab5b12a615","system_id":"levelo_inurba_marseille","lat":43.29967,"lon":5.38493,"is_reserved":false,"is_disabled":false,"rental_uris":{"android":"levelo://app?vid=1073739d-566b-4485-96db-a7ab5b12a615","ios":"levelo://app?vid=1073739d-566b-4485-96db-a7ab5b12a615"},"vehicle_type_id":"4","last_reported":1750191147,"current_range_meters":16000,"station_id":"ce4bgj92rcd13ifvqbd0","pricing_plan_id":"cebpf4jnsgd1na2vs0mg"},{"bike_id":"dfe4f89d-bf83-4c31-9f3c-1bd1c06f0fb4","system_id":"levelo_inurba_marseille","lat":43.2942,"lon":5.38605,"is_reserved":false,"is_disabled":false,"rental_uris":{"android":"levelo://app?vid=dfe4f89d-bf83-4c31-9f3c-1bd1c06f0fb4","ios":"levelo://app?vid=dfe4f89d-bf83-4c31-9f3c-1bd1c06f0fb4"},"vehicle_type_id":"4","last_reported":1750191147,"current_range_meters":16000,"station_id":"ce4bh2h2rcd13ifvqdh0","pricing_plan_id":"cebpf4jnsgd1na2vs0mg"},{"bike_id":"d76239d1-e4d9-4e67-8f93-8c01457b1fc9","system_id":"levelo_inurba_marseille","lat":43.29074,"lon":5.375687,"is_reserved":false,"is_disabled":false,"rental_uris":{"android":"levelo://app?vid=d76239d1-e4d9-4e67-8f93-8c01457b1fc9","ios":"levelo://app?vid=d76239d1-e4d9-4e67-8f93-8c01457b1fc9"},"vehicle_type_id":"4","last_reported":1750191147,"current_range_meters":16000,"station_id":"ce4bh412rcd13ifvqdr0","pricing_plan_id":"cebpf4jnsgd1na2vs0mg"},{"bike_id":"cc4907a2-76f0-4925-9437-5e5cd6b0fddf","system_id":"levelo_inurba_marseille","lat":43.28465,"lon":5.3588,"is_reserved":false,"is_disabled":false,"rental_uris":{"android":"levelo://app?vid=cc4907a2-76f0-4925-9437-5e5cd6b0fddf","ios":"levelo://app?vid=cc4907a2-76f0-4925-9437-5e5cd6b0fddf"},"vehicle_type_id":"4","last_reported":1750191147,"current_range_meters":16000,"station_id":"ce4bhah2rcd13ifvqei0","pricing_plan_id":"cebpf4jnsgd1na2vs0mg"},{"bike_id":"a08141f4-416b-4ca0-a6a8-ed9f076201e0","system_id":"levelo_inurba_marseille","lat":43.28066,"lon":5.39636,"is_reserved":false,"is_disabled":false,"rental_uris":{"android":"levelo://app?vid=a08141f4-416b-4ca0-a6a8-ed9f076201e0","ios":"levelo://app?vid=a08141f4-416b-4ca0-a6a8-ed9f076201e0"},"vehicle_type_id":"4","last_reported":1750191147,"current_range_meters":16000,"station_id":"ce4bho12rcd13ifvqh2g","pricing_plan_id":"cebpf4jnsgd1na2vs0mg"},{"bike_id":"d6596571-2d47-4467-b9f1-c4fd4cb00dbe","system_id":"levelo_inurba_marseille","lat":43.23198,"lon":5.35552,"is_reserved":false,"is_disabled":false,"rental_uris":{"android":"levelo://app?vid=d6596571-2d47-4467-b9f1-c4fd4cb00dbe","ios":"levelo://app?vid=d6596571-2d47-4467-b9f1-c4fd4cb00dbe"},"vehicle_type_id":"4","last_reported":1750191147,"current_range_meters":16000,"station_id":"ce4bhu92rcd13ifvqi70","pricing_plan_id":"cebpf4jnsgd1na2vs0mg"},{"bike_id":"2f0f7865-53e4-4955-8eb9-1bb98bf95595","system_id":"levelo_inurba_marseille","lat":43.317627,"lon":5.37592,"is_reserved":false,"is_disabled":false,"rental_uris":{"android":"levelo://app?vid=2f0f7865-53e4-4955-8eb9-1bb98bf95595","ios":"levelo://app?vid=2f0f7865-53e4-4955-8eb9-1bb98bf95595"},"vehicle_type_id":"4","last_reported":1750191147,"current_range_meters":16400,"station_id":"","pricing_plan_id":"cebpf4jnsgd1na2vs0mg"},{"bike_id":"de0bda34-41a6-4231-8ed4-c93e07fc3176","system_id":"levelo_inurba_marseille","lat":43.32633,"lon":5.37469,"is_reserved":false,"is_disabled":false,"rental_uris":{"android":"levelo://app?vid=de0bda34-41a6-4231-8ed4-c93e07fc3176","ios":"levelo://app?vid=de0bda34-41a6-4231-8ed4-c93e07fc3176"},"vehicle_type_id":"4","last_reported":1750191147,"current_range_meters":16400,"station_id":"","pricing_plan_id":"cebpf4jnsgd1na2vs0mg"},{"bike_id":"f0f47d63-d452-44e1-b1f1-3e753404e545","system_id":"levelo_inurba_marseille","lat":43.28684,"lon":5.37404,"is_reserved":false,"is_disabled":false,"rental_uris":{"android":"levelo://app?vid=f0f47d63-d452-44e1-b1f1-3e753404e545","ios":"levelo://app?vid=f0f47d63-d452-44e1-b1f1-3e753404e545"},"vehicle_type_id":"4","last_reported":1750191147,"current_range_meters":16400,"station_id":"ce4bh3p2rcd13ifvqdq0","pricing_plan_id":"cebpf4jnsgd1na2vs0mg"},{"bike_id":"f2ef0063-0206-46d5-8f05-c1ad5f8537b8","system_id":"levelo_inurba_marseille","lat":43.28456,"lon":5.35886,"is_reserved":false,"is_disabled":false,"rental_uris":{"android":"levelo://app?vid=f2ef0063-0206-46d5-8f05-c1ad5f8537b8","ios":"levelo://app?vid=f2ef0063-0206-46d5-8f05-c1ad5f8537b8"},"vehicle_type_id":"4","last_reported":1750191147,"current_range_meters":16400,"station_id":"ce4bhah2rcd13ifvqei0","pricing_plan_id":"cebpf4jnsgd1na2vs0mg"},{"bike_id":"3e265817-bb6b-47d2-a0f2-36040d81a64c","system_id":"levelo_inurba_marseille","lat":43.26788,"lon":5.39414,"is_reserved":false,"is_disabled":false,"rental_uris":{"android":"levelo://app?vid=3e265817-bb6b-47d2-a0f2-36040d81a64c","ios":"levelo://app?vid=3e265817-bb6b-47d2-a0f2-36040d81a64c"},"vehicle_type_id":"4","last_reported":1750191147,"current_range_meters":16400,"station_id":"ce4bhh12rcd13ifvqfg0","pricing_plan_id":"cebpf4jnsgd1na2vs0mg"},{"bike_id":"4b8da722-ee9e-48a4-a5e5-3a8a10364708","system_id":"levelo_inurba_marseille","lat":43.31224,"lon":5.37797,"is_reserved":false,"is_disabled":false,"rental_uris":{"android":"levelo://app?vid=4b8da722-ee9e-48a4-a5e5-3a8a10364708","ios":"levelo://app?vid=4b8da722-ee9e-48a4-a5e5-3a8a10364708"},"vehicle_type_id":"4","last_reported":1750191147,"current_range_meters":16800,"station_id":"","pricing_plan_id":"cebpf4jnsgd1na2vs0mg"},{"bike_id":"4ce5b165-f22d-40cf-abd3-1cb294861955","system_id":"levelo_inurba_marseille","lat":43.21196,"lon":5.35078,"is_reserved":false,"is_disabled":false,"rental_uris":{"android":"levelo://app?vid=4ce5b165-f22d-40cf-abd3-1cb294861955","ios":"levelo://app?vid=4ce5b165-f22d-40cf-abd3-1cb294861955"},"vehicle_type_id":"4","last_reported":1750191147,"current_range_meters":16800,"station_id":"","pricing_plan_id":"cebpf4jnsgd1na2vs0mg"},{"bike_id":"5c8ffaef-3788-47d8-9243-fa7d2819afda","system_id":"levelo_inurba_marseille","lat":43.29414,"lon":5.38633,"is_reserved":false,"is_disabled":false,"rental_uris":{"android":"levelo://app?vid=5c8ffaef-3788-47d8-9243-fa7d2819afda","ios":"levelo://app?vid=5c8ffaef-3788-47d8-9243-fa7d2819afda"},"vehicle_type_id":"4","last_reported":1750191147,"current_range_meters":16800,"station_id":"ce4bh2h2rcd13ifvqdh0","pricing_plan_id":"cebpf4jnsgd1na2vs0mg"},{"bike_id":"452de6f5-dcc4-40e6-91d1-27952aacbf43","system_id":"levelo_inurba_marseille","lat":43.23194,"lon":5.39992,"is_reserved":false,"is_disabled":false,"rental_uris":{"android":"levelo://app?vid=452de6f5-dcc4-40e6-91d1-27952aacbf43","ios":"levelo://app?vid=452de6f5-dcc4-40e6-91d1-27952aacbf43"},"vehicle_type_id":"4","last_reported":1750191147,"current_range_meters":16800,"station_id":"ce4bhn12rcd13ifvqgqg","pricing_plan_id":"cebpf4jnsgd1na2vs0mg"},{"bike_id":"cc8086c3-023b-4662-b7ba-91199240f1a1","system_id":"levelo_inurba_marseille","lat":43.230516,"lon":5.354898,"is_reserved":false,"is_disabled":false,"rental_uris":{"android":"levelo://app?vid=cc8086c3-023b-4662-b7ba-91199240f1a1","ios":"levelo://app?vid=cc8086c3-023b-4662-b7ba-91199240f1a1"},"vehicle_type_id":"4","last_reported":1750191147,"current_range_meters":16800,"station_id":"cpo3342slgdg3j2ifvpg","pricing_plan_id":"cebpf4jnsgd1na2vs0mg"},{"bike_id":"4cda9327-46c6-426e-87dd-c291d5dc5ff7","system_id":"levelo_inurba_marseille","lat":43.211944,"lon":5.350714,"is_reserved":false,"is_disabled":false,"rental_uris":{"android":"levelo://app?vid=4cda9327-46c6-426e-87dd-c291d5dc5ff7","ios":"levelo://app?vid=4cda9327-46c6-426e-87dd-c291d5dc5ff7"},"vehicle_type_id":"4","last_reported":1750191147,"current_range_meters":16800,"station_id":"st_cvj6sg6p6f1abm77japg","pricing_plan_id":"cebpf4jnsgd1na2vs0mg"},{"bike_id":"adbebdcf-458c-4ab0-9ad4-c41d174a2e1a","system_id":"levelo_inurba_marseille","lat":43.29706,"lon":5.36612,"is_reserved":false,"is_disabled":false,"rental_uris":{"android":"levelo://app?vid=adbebdcf-458c-4ab0-9ad4-c41d174a2e1a","ios":"levelo://app?vid=adbebdcf-458c-4ab0-9ad4-c41d174a2e1a"},"vehicle_type_id":"4","last_reported":1750191147,"current_range_meters":17200,"station_id":"ce4bgn12rcd13ifvqbt0","pricing_plan_id":"cebpf4jnsgd1na2vs0mg"},{"bike_id":"e77cd545-532e-41cc-a533-38e73c4f0505","system_id":"levelo_inurba_marseille","lat":43.30883,"lon":5.39637,"is_reserved":false,"is_disabled":false,"rental_uris":{"android":"levelo://app?vid=e77cd545-532e-41cc-a533-38e73c4f0505","ios":"levelo://app?vid=e77cd545-532e-41cc-a533-38e73c4f0505"},"vehicle_type_id":"4","last_reported":1750191147,"current_range_meters":17200,"station_id":"ce4bh012rcd13ifvqcv0","pricing_plan_id":"cebpf4jnsgd1na2vs0mg"},{"bike_id":"5cbdd979-131e-4b0a-a5c9-96ef156802c9","system_id":"levelo_inurba_marseille","lat":43.28421,"lon":5.39211,"is_reserved":false,"is_disabled":false,"rental_uris":{"android":"levelo://app?vid=5cbdd979-131e-4b0a-a5c9-96ef156802c9","ios":"levelo://app?vid=5cbdd979-131e-4b0a-a5c9-96ef156802c9"},"vehicle_type_id":"4","last_reported":1750191147,"current_range_meters":17200,"station_id":"ce4bhoh2rcd13ifvqh5g","pricing_plan_id":"cebpf4jnsgd1na2vs0mg"},{"bike_id":"faade479-00cd-43d7-afa5-1c4de86411bd","system_id":"levelo_inurba_marseille","lat":43.31723,"lon":5.423936,"is_reserved":false,"is_disabled":false,"rental_uris":{"android":"levelo://app?vid=faade479-00cd-43d7-afa5-1c4de86411bd","ios":"levelo://app?vid=faade479-00cd-43d7-afa5-1c4de86411bd"},"vehicle_type_id":"4","last_reported":1750191147,"current_range_meters":17200,"station_id":"ce4bhp92rcd13ifvqhbg","pricing_plan_id":"cebpf4jnsgd1na2vs0mg"},{"bike_id":"653a05d9-205d-420f-b0c9-a638667f0917","system_id":"levelo_inurba_marseille","lat":43.21192,"lon":5.35045,"is_reserved":false,"is_disabled":false,"rental_uris":{"android":"levelo://app?vid=653a05d9-205d-420f-b0c9-a638667f0917","ios":"levelo://app?vid=653a05d9-205d-420f-b0c9-a638667f0917"},"vehicle_type_id":"4","last_reported":1750191147,"current_range_meters":17200,"station_id":"st_cvj6sg6p6f1abm77japg","pricing_plan_id":"cebpf4jnsgd1na2vs0mg"},{"bike_id":"b65d96e2-9864-4dcd-835c-adf51f6d930b","system_id":"levelo_inurba_marseille","lat":43.28791,"lon":5.38816,"is_reserved":false,"is_disabled":false,"rental_uris":{"android":"levelo://app?vid=b65d96e2-9864-4dcd-835c-adf51f6d930b","ios":"levelo://app?vid=b65d96e2-9864-4dcd-835c-adf51f6d930b"},"vehicle_type_id":"4","last_reported":1750191147,"current_range_meters":17600,"station_id":"","pricing_plan_id":"cebpf4jnsgd1na2vs0mg"},{"bike_id":"55ae95b9-8c12-4064-a3c7-8091a91caa3f","system_id":"levelo_inurba_marseille","lat":43.28362,"lon":5.39653,"is_reserved":false,"is_disabled":false,"rental_uris":{"android":"levelo://app?vid=55ae95b9-8c12-4064-a3c7-8091a91caa3f","ios":"levelo://app?vid=55ae95b9-8c12-4064-a3c7-8091a91caa3f"},"vehicle_type_id":"4","last_reported":1750191147,"current_range_meters":17600,"station_id":"","pricing_plan_id":"cebpf4jnsgd1na2vs0mg"},{"bike_id":"11b5656b-8ffb-4df2-b8de-f0bc285f37b6","system_id":"levelo_inurba_marseille","lat":43.29538,"lon":5.38539,"is_reserved":false,"is_disabled":false,"rental_uris":{"android":"levelo://app?vid=11b5656b-8ffb-4df2-b8de-f0bc285f37b6","ios":"levelo://app?vid=11b5656b-8ffb-4df2-b8de-f0bc285f37b6"},"vehicle_type_id":"4","last_reported":1750191147,"current_range_meters":17600,"station_id":"ce4bgih2rcd13ifvqba0","pricing_plan_id":"cebpf4jnsgd1na2vs0mg"},{"bike_id":"7544dd75-1a2e-4f98-926a-58305750f713","system_id":"levelo_inurba_marseille","lat":43.313263,"lon":5.396903,"is_reserved":false,"is_disabled":false,"rental_uris":{"android":"levelo://app?vid=7544dd75-1a2e-4f98-926a-58305750f713","ios":"levelo://app?vid=7544dd75-1a2e-4f98-926a-58305750f713"},"vehicle_type_id":"4","last_reported":1750191147,"current_range_meters":17600,"station_id":"ce4bgvp2rcd13ifvqcu0","pricing_plan_id":"cebpf4jnsgd1na2vs0mg"},{"bike_id":"a5a79088-044c-48cb-8217-fed9ec438992","system_id":"levelo_inurba_marseille","lat":43.30215,"lon":5.39461,"is_reserved":false,"is_disabled":false,"rental_uris":{"android":"levelo://app?vid=a5a79088-044c-48cb-8217-fed9ec438992","ios":"levelo://app?vid=a5a79088-044c-48cb-8217-fed9ec438992"},"vehicle_type_id":"4","last_reported":1750191147,"current_range_meters":17600,"station_id":"ce4bh0p2rcd13ifvqd70","pricing_plan_id":"cebpf4jnsgd1na2vs0mg"},{"bike_id":"eb679bf4-1dd2-4ed1-8c6c-d540d7caebd5","system_id":"levelo_inurba_marseille","lat":43.30644,"lon":5.40094,"is_reserved":false,"is_disabled":false,"rental_uris":{"android":"levelo://app?vid=eb679bf4-1dd2-4ed1-8c6c-d540d7caebd5","ios":"levelo://app?vid=eb679bf4-1dd2-4ed1-8c6c-d540d7caebd5"},"vehicle_type_id":"4","last_reported":1750191147,"current_range_meters":17600,"station_id":"ce4bh112rcd13ifvqda0","pricing_plan_id":"cebpf4jnsgd1na2vs0mg"},{"bike_id":"a8dc45a9-d2d9-470c-be59-7266cf9120a7","system_id":"levelo_inurba_marseille","lat":43.28487,"lon":5.38413,"is_reserved":false,"is_disabled":false,"rental_uris":{"android":"levelo://app?vid=a8dc45a9-d2d9-470c-be59-7266cf9120a7","ios":"levelo://app?vid=a8dc45a9-d2d9-470c-be59-7266cf9120a7"},"vehicle_type_id":"4","last_reported":1750191147,"current_range_meters":17600,"station_id":"ce4bh512rcd13ifvqe3g","pricing_plan_id":"cebpf4jnsgd1na2vs0mg"},{"bike_id":"e884db7f-7bd3-4f07-aaba-023f42ed92f3","system_id":"levelo_inurba_marseille","lat":43.25084,"lon":5.39524,"is_reserved":false,"is_disabled":false,"rental_uris":{"android":"levelo://app?vid=e884db7f-7bd3-4f07-aaba-023f42ed92f3","ios":"levelo://app?vid=e884db7f-7bd3-4f07-aaba-023f42ed92f3"},"vehicle_type_id":"4","last_reported":1750191147,"current_range_meters":17600,"station_id":"ce4bhm12rcd13ifvqgkg","pricing_plan_id":"cebpf4jnsgd1na2vs0mg"},{"bike_id":"69391ca7-3f01-4e51-a628-257cf9ff7306","system_id":"levelo_inurba_marseille","lat":43.33776,"lon":5.37412,"is_reserved":false,"is_disabled":false,"rental_uris":{"android":"levelo://app?vid=69391ca7-3f01-4e51-a628-257cf9ff7306","ios":"levelo://app?vid=69391ca7-3f01-4e51-a628-257cf9ff7306"},"vehicle_type_id":"4","last_reported":1750191147,"current_range_meters":18000,"station_id":"","pricing_plan_id":"cebpf4jnsgd1na2vs0mg"},{"bike_id":"8bd25e76-4446-4d46-99b3-bed24d7c73ac","system_id":"levelo_inurba_marseille","lat":43.28182,"lon":5.38166,"is_reserved":false,"is_disabled":false,"rental_uris":{"android":"levelo://app?vid=8bd25e76-4446-4d46-99b3-bed24d7c73ac","ios":"levelo://app?vid=8bd25e76-4446-4d46-99b3-bed24d7c73ac"},"vehicle_type_id":"4","last_reported":1750191147,"current_range_meters":18000,"station_id":"","pricing_plan_id":"cebpf4jnsgd1na2vs0mg"},{"bike_id":"268aafb4-1331-426c-97bc-a7d6564caeb6","system_id":"levelo_inurba_marseille","lat":43.3293,"lon":5.37923,"is_reserved":false,"is_disabled":false,"rental_uris":{"android":"levelo://app?vid=268aafb4-1331-426c-97bc-a7d6564caeb6","ios":"levelo://app?vid=268aafb4-1331-426c-97bc-a7d6564caeb6"},"vehicle_type_id":"4","last_reported":1750191147,"current_range_meters":18000,"station_id":"","pricing_plan_id":"cebpf4jnsgd1na2vs0mg"},{"bike_id":"e92bd4cd-e5c6-40c9-80e9-52bc96a037f0","system_id":"levelo_inurba_marseille","lat":43.25497,"lon":5.41743,"is_reserved":false,"is_disabled":false,"rental_uris":{"android":"levelo://app?vid=e92bd4cd-e5c6-40c9-80e9-52bc96a037f0","ios":"levelo://app?vid=e92bd4cd-e5c6-40c9-80e9-52bc96a037f0"},"vehicle_type_id":"4","last_reported":1750191147,"current_range_meters":18000,"station_id":"","pricing_plan_id":"cebpf4jnsgd1na2vs0mg"},{"bike_id":"13c879f5-ff64-470c-ad46-d538b4c24ade","system_id":"levelo_inurba_marseille","lat":43.3111,"lon":5.37766,"is_reserved":false,"is_disabled":false,"rental_uris":{"android":"levelo://app?vid=13c879f5-ff64-470c-ad46-d538b4c24ade","ios":"levelo://app?vid=13c879f5-ff64-470c-ad46-d538b4c24ade"},"vehicle_type_id":"4","last_reported":1750191147,"current_range_meters":18000,"station_id":"ce4bgt92rcd13ifvqcg0","pricing_plan_id":"cebpf4jnsgd1na2vs0mg"},{"bike_id":"3151b431-ae3a-411c-8189-09c45ab38d79","system_id":"levelo_inurba_marseille","lat":43.30868,"lon":5.37177,"is_reserved":false,"is_disabled":false,"rental_uris":{"android":"levelo://app?vid=3151b431-ae3a-411c-8189-09c45ab38d79","ios":"levelo://app?vid=3151b431-ae3a-411c-8189-09c45ab38d79"},"vehicle_type_id":"4","last_reported":1750191147,"current_range_meters":18000,"station_id":"ce4bguh2rcd13ifvqckg","pricing_plan_id":"cebpf4jnsgd1na2vs0mg"},{"bike_id":"47707426-b460-46b3-8343-5b718b62504e","system_id":"levelo_inurba_marseille","lat":43.29269,"lon":5.38433,"is_reserved":false,"is_disabled":false,"rental_uris":{"android":"levelo://app?vid=47707426-b460-46b3-8343-5b718b62504e","ios":"levelo://app?vid=47707426-b460-46b3-8343-5b718b62504e"},"vehicle_type_id":"4","last_reported":1750191147,"current_range_meters":18000,"station_id":"ce4bh692rcd13ifvqea0","pricing_plan_id":"cebpf4jnsgd1na2vs0mg"},{"bike_id":"6672a046-dd3c-4f50-85bd-06488a5995c5","system_id":"levelo_inurba_marseille","lat":43.2871,"lon":5.37935,"is_reserved":false,"is_disabled":false,"rental_uris":{"android":"levelo://app?vid=6672a046-dd3c-4f50-85bd-06488a5995c5","ios":"levelo://app?vid=6672a046-dd3c-4f50-85bd-06488a5995c5"},"vehicle_type_id":"4","last_reported":1750191147,"current_range_meters":18000,"station_id":"ce4bh9p2rcd13ifvqec0","pricing_plan_id":"cebpf4jnsgd1na2vs0mg"},{"bike_id":"a467ebe4-f3cd-423b-9299-08e87fbefb68","system_id":"levelo_inurba_marseille","lat":43.28462,"lon":5.35877,"is_reserved":false,"is_disabled":false,"rental_uris":{"android":"levelo://app?vid=a467ebe4-f3cd-423b-9299-08e87fbefb68","ios":"levelo://app?vid=a467ebe4-f3cd-423b-9299-08e87fbefb68"},"vehicle_type_id":"4","last_reported":1750191147,"current_range_meters":18000,"station_id":"ce4bhah2rcd13ifvqei0","pricing_plan_id":"cebpf4jnsgd1na2vs0mg"},{"bike_id":"2d059e04-6ea7-4929-8c98-ee846d8a472a","system_id":"levelo_inurba_marseille","lat":43.2871,"lon":5.39976,"is_reserved":false,"is_disabled":false,"rental_uris":{"android":"levelo://app?vid=2d059e04-6ea7-4929-8c98-ee846d8a472a","ios":"levelo://app?vid=2d059e04-6ea7-4929-8c98-ee846d8a472a"},"vehicle_type_id":"4","last_reported":1750191147,"current_range_meters":18000,"station_id":"ce4bho92rcd13ifvqh3g","pricing_plan_id":"cebpf4jnsgd1na2vs0mg"},{"bike_id":"744cf4fa-bb14-4576-929f-2f6effc633c9","system_id":"levelo_inurba_marseille","lat":43.295511,"lon":5.422882,"is_reserved":false,"is_disabled":false,"rental_uris":{"android":"levelo://app?vid=744cf4fa-bb14-4576-929f-2f6effc633c9","ios":"levelo://app?vid=744cf4fa-bb14-4576-929f-2f6effc633c9"},"vehicle_type_id":"4","last_reported":1750191147,"current_range_meters":18000,"station_id":"ce4bhph2rcd13ifvqhdg","pricing_plan_id":"cebpf4jnsgd1na2vs0mg"},{"bike_id":"d4dee77f-9265-4df0-bd48-87d581932209","system_id":"levelo_inurba_marseille","lat":43.29614,"lon":5.37697,"is_reserved":false,"is_disabled":false,"rental_uris":{"android":"levelo://app?vid=d4dee77f-9265-4df0-bd48-87d581932209","ios":"levelo://app?vid=d4dee77f-9265-4df0-bd48-87d581932209"},"vehicle_type_id":"4","last_reported":1750191147,"current_range_meters":18800,"station_id":"ce4bgi92rcd13ifvqb90","pricing_plan_id":"cebpf4jnsgd1na2vs0mg"},{"bike_id":"1bf29589-d74f-4149-a148-2ed86c60dd54","system_id":"levelo_inurba_marseille","lat":43.2953,"lon":5.38533,"is_reserved":false,"is_disabled":false,"rental_uris":{"android":"levelo://app?vid=1bf29589-d74f-4149-a148-2ed86c60dd54","ios":"levelo://app?vid=1bf29589-d74f-4149-a148-2ed86c60dd54"},"vehicle_type_id":"4","last_reported":1750191147,"current_range_meters":18800,"station_id":"ce4bgih2rcd13ifvqba0","pricing_plan_id":"cebpf4jnsgd1na2vs0mg"},{"bike_id":"fac5fbbc-53fe-4912-b028-4e36ff80b59e","system_id":"levelo_inurba_marseille","lat":43.29969,"lon":5.3849,"is_reserved":false,"is_disabled":false,"rental_uris":{"android":"levelo://app?vid=fac5fbbc-53fe-4912-b028-4e36ff80b59e","ios":"levelo://app?vid=fac5fbbc-53fe-4912-b028-4e36ff80b59e"},"vehicle_type_id":"4","last_reported":1750191147,"current_range_meters":18800,"station_id":"ce4bgj92rcd13ifvqbd0","pricing_plan_id":"cebpf4jnsgd1na2vs0mg"},{"bike_id":"57a920f0-97cd-49f1-a8a9-409987174107","system_id":"levelo_inurba_marseille","lat":43.29537,"lon":5.39031,"is_reserved":false,"is_disabled":false,"rental_uris":{"android":"levelo://app?vid=57a920f0-97cd-49f1-a8a9-409987174107","ios":"levelo://app?vid=57a920f0-97cd-49f1-a8a9-409987174107"},"vehicle_type_id":"4","last_reported":1750191147,"current_range_meters":18800,"station_id":"ce4bh3p2rcd13ifvqdp0","pricing_plan_id":"cebpf4jnsgd1na2vs0mg"},{"bike_id":"196a3a11-d7b6-4f3c-87e3-653ae04d172b","system_id":"levelo_inurba_marseille","lat":43.27373,"lon":5.3624,"is_reserved":false,"is_disabled":false,"rental_uris":{"android":"levelo://app?vid=196a3a11-d7b6-4f3c-87e3-653ae04d172b","ios":"levelo://app?vid=196a3a11-d7b6-4f3c-87e3-653ae04d172b"},"vehicle_type_id":"4","last_reported":1750191147,"current_range_meters":18800,"station_id":"ce4bhbh2rcd13ifvqeo0","pricing_plan_id":"cebpf4jnsgd1na2vs0mg"},{"bike_id":"28701354-04db-4ccd-965d-529bbc82fcd5","system_id":"levelo_inurba_marseille","lat":43.21191,"lon":5.35084,"is_reserved":false,"is_disabled":false,"rental_uris":{"android":"levelo://app?vid=28701354-04db-4ccd-965d-529bbc82fcd5","ios":"levelo://app?vid=28701354-04db-4ccd-965d-529bbc82fcd5"},"vehicle_type_id":"4","last_reported":1750191147,"current_range_meters":18800,"station_id":"st_cvj6sg6p6f1abm77japg","pricing_plan_id":"cebpf4jnsgd1na2vs0mg"},{"bike_id":"3a79c9a9-99b3-4d00-8dcc-f494ffeec57e","system_id":"levelo_inurba_marseille","lat":43.31057,"lon":5.40099,"is_reserved":false,"is_disabled":false,"rental_uris":{"android":"levelo://app?vid=3a79c9a9-99b3-4d00-8dcc-f494ffeec57e","ios":"levelo://app?vid=3a79c9a9-99b3-4d00-8dcc-f494ffeec57e"},"vehicle_type_id":"4","last_reported":1750191147,"current_range_meters":19200,"station_id":"","pricing_plan_id":"cebpf4jnsgd1na2vs0mg"},{"bike_id":"65fe0c2e-fcc6-45c4-a172-8e2e81da84f7","system_id":"levelo_inurba_marseille","lat":43.33146,"lon":5.38167,"is_reserved":false,"is_disabled":false,"rental_uris":{"android":"levelo://app?vid=65fe0c2e-fcc6-45c4-a172-8e2e81da84f7","ios":"levelo://app?vid=65fe0c2e-fcc6-45c4-a172-8e2e81da84f7"},"vehicle_type_id":"4","last_reported":1750191147,"current_range_meters":19200,"station_id":"","pricing_plan_id":"cebpf4jnsgd1na2vs0mg"},{"bike_id":"186af597-f457-4c0b-8fb4-3fa61c3504ba","system_id":"levelo_inurba_marseille","lat":43.28677,"lon":5.3866,"is_reserved":false,"is_disabled":false,"rental_uris":{"android":"levelo://app?vid=186af597-f457-4c0b-8fb4-3fa61c3504ba","ios":"levelo://app?vid=186af597-f457-4c0b-8fb4-3fa61c3504ba"},"vehicle_type_id":"4","last_reported":1750191147,"current_range_meters":19200,"station_id":"ce4bh492rcd13ifvqdug","pricing_plan_id":"cebpf4jnsgd1na2vs0mg"},{"bike_id":"3fb32369-1f25-46d2-9052-c30b5af8c776","system_id":"levelo_inurba_marseille","lat":43.22937,"lon":5.35395,"is_reserved":false,"is_disabled":false,"rental_uris":{"android":"levelo://app?vid=3fb32369-1f25-46d2-9052-c30b5af8c776","ios":"levelo://app?vid=3fb32369-1f25-46d2-9052-c30b5af8c776"},"vehicle_type_id":"4","last_reported":1750191147,"current_range_meters":19200,"station_id":"cpo3532slgdg3j2ikp40","pricing_plan_id":"cebpf4jnsgd1na2vs0mg"},{"bike_id":"54cebbad-17db-4f40-8141-8eedac83be3f","system_id":"levelo_inurba_marseille","lat":43.3376,"lon":5.37414,"is_reserved":false,"is_disabled":false,"rental_uris":{"android":"levelo://app?vid=54cebbad-17db-4f40-8141-8eedac83be3f","ios":"levelo://app?vid=54cebbad-17db-4f40-8141-8eedac83be3f"},"vehicle_type_id":"4","last_reported":1750191147,"current_range_meters":19600,"station_id":"","pricing_plan_id":"cebpf4jnsgd1na2vs0mg"},{"bike_id":"2add1516-f549-446f-8505-806c7e04f273","system_id":"levelo_inurba_marseille","lat":43.29557,"lon":5.38533,"is_reserved":false,"is_disabled":false,"rental_uris":{"android":"levelo://app?vid=2add1516-f549-446f-8505-806c7e04f273","ios":"levelo://app?vid=2add1516-f549-446f-8505-806c7e04f273"},"vehicle_type_id":"4","last_reported":1750191147,"current_range_meters":19600,"station_id":"ce4bgih2rcd13ifvqba0","pricing_plan_id":"cebpf4jnsgd1na2vs0mg"},{"bike_id":"357f8514-6900-46e6-9d82-4caf4957bd5d","system_id":"levelo_inurba_marseille","lat":43.30197,"lon":5.36625,"is_reserved":false,"is_disabled":false,"rental_uris":{"android":"levelo://app?vid=357f8514-6900-46e6-9d82-4caf4957bd5d","ios":"levelo://app?vid=357f8514-6900-46e6-9d82-4caf4957bd5d"},"vehicle_type_id":"4","last_reported":1750191147,"current_range_meters":19600,"station_id":"ce4bgrh2rcd13ifvqc8g","pricing_plan_id":"cebpf4jnsgd1na2vs0mg"},{"bike_id":"f401a03d-10d2-439d-aacd-cee5b49595a7","system_id":"levelo_inurba_marseille","lat":43.29867,"lon":5.39725,"is_reserved":false,"is_disabled":false,"rental_uris":{"android":"levelo://app?vid=f401a03d-10d2-439d-aacd-cee5b49595a7","ios":"levelo://app?vid=f401a03d-10d2-439d-aacd-cee5b49595a7"},"vehicle_type_id":"4","last_reported":1750191147,"current_range_meters":19600,"station_id":"ce4bh0h2rcd13ifvqd50","pricing_plan_id":"cebpf4jnsgd1na2vs0mg"},{"bike_id":"2aaa83cd-7c94-41ab-9764-edee3dfc2a1d","system_id":"levelo_inurba_marseille","lat":43.28932,"lon":5.36641,"is_reserved":false,"is_disabled":false,"rental_uris":{"android":"levelo://app?vid=2aaa83cd-7c94-41ab-9764-edee3dfc2a1d","ios":"levelo://app?vid=2aaa83cd-7c94-41ab-9764-edee3dfc2a1d"},"vehicle_type_id":"4","last_reported":1750191147,"current_range_meters":19600,"station_id":"ce4bhap2rcd13ifvqek0","pricing_plan_id":"cebpf4jnsgd1na2vs0mg"},{"bike_id":"71e9c428-66da-4a79-816d-791c44b6f22b","system_id":"levelo_inurba_marseille","lat":43.28085,"lon":5.39649,"is_reserved":false,"is_disabled":false,"rental_uris":{"android":"levelo://app?vid=71e9c428-66da-4a79-816d-791c44b6f22b","ios":"levelo://app?vid=71e9c428-66da-4a79-816d-791c44b6f22b"},"vehicle_type_id":"4","last_reported":1750191147,"current_range_meters":19600,"station_id":"ce4bho12rcd13ifvqh2g","pricing_plan_id":"cebpf4jnsgd1na2vs0mg"},{"bike_id":"c7827826-6f0c-4ede-890a-91419b2f7b04","system_id":"levelo_inurba_marseille","lat":43.32365,"lon":5.36752,"is_reserved":false,"is_disabled":false,"rental_uris":{"android":"levelo://app?vid=c7827826-6f0c-4ede-890a-91419b2f7b04","ios":"levelo://app?vid=c7827826-6f0c-4ede-890a-91419b2f7b04"},"vehicle_type_id":"4","last_reported":1750191147,"current_range_meters":19600,"station_id":"ce4bhsh2rcd13ifvqi2g","pricing_plan_id":"cebpf4jnsgd1na2vs0mg"},{"bike_id":"978cb750-6847-4a7f-b5c4-8ec0fe512086","system_id":"levelo_inurba_marseille","lat":43.28601,"lon":5.37062,"is_reserved":false,"is_disabled":false,"rental_uris":{"android":"levelo://app?vid=978cb750-6847-4a7f-b5c4-8ec0fe512086","ios":"levelo://app?vid=978cb750-6847-4a7f-b5c4-8ec0fe512086"},"vehicle_type_id":"4","last_reported":1750191147,"current_range_meters":19600,"station_id":"ce4bht12rcd13ifvqi60","pricing_plan_id":"cebpf4jnsgd1na2vs0mg"},{"bike_id":"a85b2000-e3ea-4c9d-8512-f632fbae13d6","system_id":"levelo_inurba_marseille","lat":43.30152,"lon":5.40089,"is_reserved":false,"is_disabled":false,"rental_uris":{"android":"levelo://app?vid=a85b2000-e3ea-4c9d-8512-f632fbae13d6","ios":"levelo://app?vid=a85b2000-e3ea-4c9d-8512-f632fbae13d6"},"vehicle_type_id":"4","last_reported":1750191147,"current_range_meters":20000,"station_id":"","pricing_plan_id":"cebpf4jnsgd1na2vs0mg"},{"bike_id":"0becc9fe-14ae-45f1-b1e9-0b3951dbc7a9","system_id":"levelo_inurba_marseille","lat":43.2902,"lon":5.38646,"is_reserved":false,"is_disabled":false,"rental_uris":{"android":"levelo://app?vid=0becc9fe-14ae-45f1-b1e9-0b3951dbc7a9","ios":"levelo://app?vid=0becc9fe-14ae-45f1-b1e9-0b3951dbc7a9"},"vehicle_type_id":"4","last_reported":1750191147,"current_range_meters":20000,"station_id":"ce4bh4p2rcd13ifvqe0g","pricing_plan_id":"cebpf4jnsgd1na2vs0mg"},{"bike_id":"e6de5e50-4873-4a56-8d3b-b8f3ded22ca3","system_id":"levelo_inurba_marseille","lat":43.28926,"lon":5.36631,"is_reserved":false,"is_disabled":false,"rental_uris":{"android":"levelo://app?vid=e6de5e50-4873-4a56-8d3b-b8f3ded22ca3","ios":"levelo://app?vid=e6de5e50-4873-4a56-8d3b-b8f3ded22ca3"},"vehicle_type_id":"4","last_reported":1750191147,"current_range_meters":20000,"station_id":"ce4bhap2rcd13ifvqek0","pricing_plan_id":"cebpf4jnsgd1na2vs0mg"},{"bike_id":"3b00762c-74f4-4b8a-974d-468537d56142","system_id":"levelo_inurba_marseille","lat":43.28944,"lon":5.36632,"is_reserved":false,"is_disabled":false,"rental_uris":{"android":"levelo://app?vid=3b00762c-74f4-4b8a-974d-468537d56142","ios":"levelo://app?vid=3b00762c-74f4-4b8a-974d-468537d56142"},"vehicle_type_id":"4","last_reported":1750191147,"current_range_meters":20000,"station_id":"ce4bhap2rcd13ifvqek0","pricing_plan_id":"cebpf4jnsgd1na2vs0mg"},{"bike_id":"aa6b55ea-db14-45ec-82ce-278decdf827f","system_id":"levelo_inurba_marseille","lat":43.2406,"lon":5.37759,"is_reserved":false,"is_disabled":false,"rental_uris":{"android":"levelo://app?vid=aa6b55ea-db14-45ec-82ce-278decdf827f","ios":"levelo://app?vid=aa6b55ea-db14-45ec-82ce-278decdf827f"},"vehicle_type_id":"4","last_reported":1750191147,"current_range_meters":20000,"station_id":"ce4bhnp2rcd13ifvqgvg","pricing_plan_id":"cebpf4jnsgd1na2vs0mg"},{"bike_id":"24ca7806-8b9c-41c3-b066-06d426c63012","system_id":"levelo_inurba_marseille","lat":43.27996,"lon":5.40005,"is_reserved":false,"is_disabled":false,"rental_uris":{"android":"levelo://app?vid=24ca7806-8b9c-41c3-b066-06d426c63012","ios":"levelo://app?vid=24ca7806-8b9c-41c3-b066-06d426c63012"},"vehicle_type_id":"4","last_reported":1750191147,"current_range_meters":20000,"station_id":"ce4bho92rcd13ifvqh4g","pricing_plan_id":"cebpf4jnsgd1na2vs0mg"},{"bike_id":"b2372ff6-5571-42d5-b562-23ecdeb52de0","system_id":"levelo_inurba_marseille","lat":43.21188,"lon":5.35081,"is_reserved":false,"is_disabled":false,"rental_uris":{"android":"levelo://app?vid=b2372ff6-5571-42d5-b562-23ecdeb52de0","ios":"levelo://app?vid=b2372ff6-5571-42d5-b562-23ecdeb52de0"},"vehicle_type_id":"4","last_reported":1750191147,"current_range_meters":20000,"station_id":"st_cvj6sg6p6f1abm77japg","pricing_plan_id":"cebpf4jnsgd1na2vs0mg"},{"bike_id":"4b6b2a2b-d3c4-4663-8ea1-de4eff39b7b2","system_id":"levelo_inurba_marseille","lat":43.21199,"lon":5.35059,"is_reserved":false,"is_disabled":false,"rental_uris":{"android":"levelo://app?vid=4b6b2a2b-d3c4-4663-8ea1-de4eff39b7b2","ios":"levelo://app?vid=4b6b2a2b-d3c4-4663-8ea1-de4eff39b7b2"},"vehicle_type_id":"4","last_reported":1750191147,"current_range_meters":20000,"station_id":"st_cvj6sg6p6f1abm77japg","pricing_plan_id":"cebpf4jnsgd1na2vs0mg"},{"bike_id":"c8243327-4e5a-42c3-9927-7ef97787b9f3","system_id":"levelo_inurba_marseille","lat":43.30241,"lon":5.40033,"is_reserved":false,"is_disabled":false,"rental_uris":{"android":"levelo://app?vid=c8243327-4e5a-42c3-9927-7ef97787b9f3","ios":"levelo://app?vid=c8243327-4e5a-42c3-9927-7ef97787b9f3"},"vehicle_type_id":"4","last_reported":1750191147,"current_range_meters":20400,"station_id":"ce4bgvh2rcd13ifvqcs0","pricing_plan_id":"cebpf4jnsgd1na2vs0mg"},{"bike_id":"93a35b42-d0f4-423d-ac00-e923fd097ace","system_id":"levelo_inurba_marseille","lat":43.30598,"lon":5.39345,"is_reserved":false,"is_disabled":false,"rental_uris":{"android":"levelo://app?vid=93a35b42-d0f4-423d-ac00-e923fd097ace","ios":"levelo://app?vid=93a35b42-d0f4-423d-ac00-e923fd097ace"},"vehicle_type_id":"4","last_reported":1750191147,"current_range_meters":20400,"station_id":"ce4bh0p2rcd13ifvqd80","pricing_plan_id":"cebpf4jnsgd1na2vs0mg"},{"bike_id":"bc315f47-6f3b-458f-8fee-ae033d78e279","system_id":"levelo_inurba_marseille","lat":43.2945,"lon":5.39738,"is_reserved":false,"is_disabled":false,"rental_uris":{"android":"levelo://app?vid=bc315f47-6f3b-458f-8fee-ae033d78e279","ios":"levelo://app?vid=bc315f47-6f3b-458f-8fee-ae033d78e279"},"vehicle_type_id":"4","last_reported":1750191147,"current_range_meters":20400,"station_id":"ce4bh3h2rcd13ifvqdo0","pricing_plan_id":"cebpf4jnsgd1na2vs0mg"},{"bike_id":"bddf84dd-8051-4aff-be45-3abc4010d286","system_id":"levelo_inurba_marseille","lat":43.2846,"lon":5.3589,"is_reserved":false,"is_disabled":false,"rental_uris":{"android":"levelo://app?vid=bddf84dd-8051-4aff-be45-3abc4010d286","ios":"levelo://app?vid=bddf84dd-8051-4aff-be45-3abc4010d286"},"vehicle_type_id":"4","last_reported":1750191147,"current_range_meters":20400,"station_id":"ce4bhah2rcd13ifvqei0","pricing_plan_id":"cebpf4jnsgd1na2vs0mg"},{"bike_id":"381c6eea-d0d9-4109-8d0e-e5f1aea38bf8","system_id":"levelo_inurba_marseille","lat":43.2512,"lon":5.40308,"is_reserved":false,"is_disabled":false,"rental_uris":{"android":"levelo://app?vid=381c6eea-d0d9-4109-8d0e-e5f1aea38bf8","ios":"levelo://app?vid=381c6eea-d0d9-4109-8d0e-e5f1aea38bf8"},"vehicle_type_id":"4","last_reported":1750191147,"current_range_meters":20400,"station_id":"ce4bhlh2rcd13ifvqgig","pricing_plan_id":"cebpf4jnsgd1na2vs0mg"},{"bike_id":"779e10ba-3328-41ba-bb07-27eaec1d6851","system_id":"levelo_inurba_marseille","lat":43.23149,"lon":5.43712,"is_reserved":false,"is_disabled":false,"rental_uris":{"android":"levelo://app?vid=779e10ba-3328-41ba-bb07-27eaec1d6851","ios":"levelo://app?vid=779e10ba-3328-41ba-bb07-27eaec1d6851"},"vehicle_type_id":"4","last_reported":1750191147,"current_range_meters":20400,"station_id":"ce4bhmp2rcd13ifvqgog","pricing_plan_id":"cebpf4jnsgd1na2vs0mg"},{"bike_id":"e5863b13-0bb4-41ee-a7a1-72091c1036b5","system_id":"levelo_inurba_marseille","lat":43.31616,"lon":5.38362,"is_reserved":false,"is_disabled":false,"rental_uris":{"android":"levelo://app?vid=e5863b13-0bb4-41ee-a7a1-72091c1036b5","ios":"levelo://app?vid=e5863b13-0bb4-41ee-a7a1-72091c1036b5"},"vehicle_type_id":"4","last_reported":1750191147,"current_range_meters":20800,"station_id":"","pricing_plan_id":"cebpf4jnsgd1na2vs0mg"},{"bike_id":"fb28be6c-c2fb-4dfc-9f80-013d71ac322f","system_id":"levelo_inurba_marseille","lat":43.2926,"lon":5.38432,"is_reserved":false,"is_disabled":false,"rental_uris":{"android":"levelo://app?vid=fb28be6c-c2fb-4dfc-9f80-013d71ac322f","ios":"levelo://app?vid=fb28be6c-c2fb-4dfc-9f80-013d71ac322f"},"vehicle_type_id":"4","last_reported":1750191147,"current_range_meters":20800,"station_id":"ce4bh692rcd13ifvqea0","pricing_plan_id":"cebpf4jnsgd1na2vs0mg"},{"bike_id":"b30516ab-1ed4-467b-9700-ada15a939813","system_id":"levelo_inurba_marseille","lat":43.231928,"lon":5.355517,"is_reserved":false,"is_disabled":false,"rental_uris":{"android":"levelo://app?vid=b30516ab-1ed4-467b-9700-ada15a939813","ios":"levelo://app?vid=b30516ab-1ed4-467b-9700-ada15a939813"},"vehicle_type_id":"4","last_reported":1750191147,"current_range_meters":20800,"station_id":"ce4bhu92rcd13ifvqi70","pricing_plan_id":"cebpf4jnsgd1na2vs0mg"},{"bike_id":"3a3229fb-204b-410a-b611-002a32436710","system_id":"levelo_inurba_marseille","lat":43.29537,"lon":5.38533,"is_reserved":false,"is_disabled":false,"rental_uris":{"android":"levelo://app?vid=3a3229fb-204b-410a-b611-002a32436710","ios":"levelo://app?vid=3a3229fb-204b-410a-b611-002a32436710"},"vehicle_type_id":"4","last_reported":1750191147,"current_range_meters":21600,"station_id":"ce4bgih2rcd13ifvqba0","pricing_plan_id":"cebpf4jnsgd1na2vs0mg"},{"bike_id":"cc7943c0-ff30-4d2e-b4dd-d3661c7b7373","system_id":"levelo_inurba_marseille","lat":43.30311,"lon":5.36889,"is_reserved":false,"is_disabled":false,"rental_uris":{"android":"levelo://app?vid=cc7943c0-ff30-4d2e-b4dd-d3661c7b7373","ios":"levelo://app?vid=cc7943c0-ff30-4d2e-b4dd-d3661c7b7373"},"vehicle_type_id":"4","last_reported":1750191147,"current_range_meters":21600,"station_id":"ce4bgqh2rcd13ifvqc5g","pricing_plan_id":"cebpf4jnsgd1na2vs0mg"},{"bike_id":"1277eb60-8e6a-4fdc-9e3b-da0d4801fedb","system_id":"levelo_inurba_marseille","lat":43.31315,"lon":5.39669,"is_reserved":false,"is_disabled":false,"rental_uris":{"android":"levelo://app?vid=1277eb60-8e6a-4fdc-9e3b-da0d4801fedb","ios":"levelo://app?vid=1277eb60-8e6a-4fdc-9e3b-da0d4801fedb"},"vehicle_type_id":"4","last_reported":1750191147,"current_range_meters":21600,"station_id":"ce4bgvp2rcd13ifvqcu0","pricing_plan_id":"cebpf4jnsgd1na2vs0mg"},{"bike_id":"8a0899d4-1dc7-41cf-b519-cf61893a04f2","system_id":"levelo_inurba_marseille","lat":43.3065,"lon":5.40084,"is_reserved":false,"is_disabled":false,"rental_uris":{"android":"levelo://app?vid=8a0899d4-1dc7-41cf-b519-cf61893a04f2","ios":"levelo://app?vid=8a0899d4-1dc7-41cf-b519-cf61893a04f2"},"vehicle_type_id":"4","last_reported":1750191147,"current_range_meters":21600,"station_id":"ce4bh112rcd13ifvqda0","pricing_plan_id":"cebpf4jnsgd1na2vs0mg"},{"bike_id":"b19277ab-840f-4b56-90f4-88c2d29e4a59","system_id":"levelo_inurba_marseille","lat":43.286867,"lon":5.386623,"is_reserved":false,"is_disabled":false,"rental_uris":{"android":"levelo://app?vid=b19277ab-840f-4b56-90f4-88c2d29e4a59","ios":"levelo://app?vid=b19277ab-840f-4b56-90f4-88c2d29e4a59"},"vehicle_type_id":"4","last_reported":1750191147,"current_range_meters":21600,"station_id":"ce4bh492rcd13ifvqdug","pricing_plan_id":"cebpf4jnsgd1na2vs0mg"},{"bike_id":"c37e3a6e-53a0-4a40-9ac1-037c2443be38","system_id":"levelo_inurba_marseille","lat":43.28098,"lon":5.37832,"is_reserved":false,"is_disabled":false,"rental_uris":{"android":"levelo://app?vid=c37e3a6e-53a0-4a40-9ac1-037c2443be38","ios":"levelo://app?vid=c37e3a6e-53a0-4a40-9ac1-037c2443be38"},"vehicle_type_id":"4","last_reported":1750191147,"current_range_meters":21600,"station_id":"ce4bha12rcd13ifvqee0","pricing_plan_id":"cebpf4jnsgd1na2vs0mg"},{"bike_id":"5af97e15-0104-43d4-8f37-61cbefd43344","system_id":"levelo_inurba_marseille","lat":43.26061,"lon":5.39396,"is_reserved":false,"is_disabled":false,"rental_uris":{"android":"levelo://app?vid=5af97e15-0104-43d4-8f37-61cbefd43344","ios":"levelo://app?vid=5af97e15-0104-43d4-8f37-61cbefd43344"},"vehicle_type_id":"4","last_reported":1750191147,"current_range_meters":21600,"station_id":"ce4bhh92rcd13ifvqfj0","pricing_plan_id":"cebpf4jnsgd1na2vs0mg"},{"bike_id":"53f8e605-85b9-4709-8513-35452c812a4a","system_id":"levelo_inurba_marseille","lat":43.297913,"lon":5.393425,"is_reserved":false,"is_disabled":false,"rental_uris":{"android":"levelo://app?vid=53f8e605-85b9-4709-8513-35452c812a4a","ios":"levelo://app?vid=53f8e605-85b9-4709-8513-35452c812a4a"},"vehicle_type_id":"4","last_reported":1750191147,"current_range_meters":21600,"station_id":"chh1huq6cuj3fo74tm60","pricing_plan_id":"cebpf4jnsgd1na2vs0mg"},{"bike_id":"1c6ad65b-4f1d-4c81-8793-78eba647b4f2","system_id":"levelo_inurba_marseille","lat":43.30198,"lon":5.3796,"is_reserved":false,"is_disabled":false,"rental_uris":{"android":"levelo://app?vid=1c6ad65b-4f1d-4c81-8793-78eba647b4f2","ios":"levelo://app?vid=1c6ad65b-4f1d-4c81-8793-78eba647b4f2"},"vehicle_type_id":"4","last_reported":1750191147,"current_range_meters":22000,"station_id":"","pricing_plan_id":"cebpf4jnsgd1na2vs0mg"},{"bike_id":"bccf3f0c-cab7-44d2-8ffb-915e21563a12","system_id":"levelo_inurba_marseille","lat":43.337444,"lon":5.374475,"is_reserved":false,"is_disabled":false,"rental_uris":{"android":"levelo://app?vid=bccf3f0c-cab7-44d2-8ffb-915e21563a12","ios":"levelo://app?vid=bccf3f0c-cab7-44d2-8ffb-915e21563a12"},"vehicle_type_id":"4","last_reported":1750191147,"current_range_meters":22000,"station_id":"","pricing_plan_id":"cebpf4jnsgd1na2vs0mg"},{"bike_id":"30ea9c58-b180-4dcb-ba62-5cbe0aff3645","system_id":"levelo_inurba_marseille","lat":43.30878,"lon":5.39645,"is_reserved":false,"is_disabled":false,"rental_uris":{"android":"levelo://app?vid=30ea9c58-b180-4dcb-ba62-5cbe0aff3645","ios":"levelo://app?vid=30ea9c58-b180-4dcb-ba62-5cbe0aff3645"},"vehicle_type_id":"4","last_reported":1750191147,"current_range_meters":22000,"station_id":"ce4bh012rcd13ifvqcv0","pricing_plan_id":"cebpf4jnsgd1na2vs0mg"},{"bike_id":"1f18b7c2-540d-4afb-9107-656832f199e2","system_id":"levelo_inurba_marseille","lat":43.2952,"lon":5.39405,"is_reserved":false,"is_disabled":false,"rental_uris":{"android":"levelo://app?vid=1f18b7c2-540d-4afb-9107-656832f199e2","ios":"levelo://app?vid=1f18b7c2-540d-4afb-9107-656832f199e2"},"vehicle_type_id":"4","last_reported":1750191147,"current_range_meters":22000,"station_id":"ce4bh292rcd13ifvqdf0","pricing_plan_id":"cebpf4jnsgd1na2vs0mg"},{"bike_id":"6c1aec6a-214b-435b-bd7f-d4aa8db1af2b","system_id":"levelo_inurba_marseille","lat":43.29282,"lon":5.40113,"is_reserved":false,"is_disabled":false,"rental_uris":{"android":"levelo://app?vid=6c1aec6a-214b-435b-bd7f-d4aa8db1af2b","ios":"levelo://app?vid=6c1aec6a-214b-435b-bd7f-d4aa8db1af2b"},"vehicle_type_id":"4","last_reported":1750191147,"current_range_meters":22000,"station_id":"ce4bh312rcd13ifvqdk0","pricing_plan_id":"cebpf4jnsgd1na2vs0mg"},{"bike_id":"843758d3-0561-40aa-ad87-a2aa00469150","system_id":"levelo_inurba_marseille","lat":43.29881,"lon":5.38895,"is_reserved":false,"is_disabled":false,"rental_uris":{"android":"levelo://app?vid=843758d3-0561-40aa-ad87-a2aa00469150","ios":"levelo://app?vid=843758d3-0561-40aa-ad87-a2aa00469150"},"vehicle_type_id":"4","last_reported":1750191147,"current_range_meters":22000,"station_id":"ce4bh392rcd13ifvqdl0","pricing_plan_id":"cebpf4jnsgd1na2vs0mg"},{"bike_id":"edbe874d-e79c-4f5e-a8f9-e58d0203cc10","system_id":"levelo_inurba_marseille","lat":43.29065,"lon":5.3716,"is_reserved":false,"is_disabled":false,"rental_uris":{"android":"levelo://app?vid=edbe874d-e79c-4f5e-a8f9-e58d0203cc10","ios":"levelo://app?vid=edbe874d-e79c-4f5e-a8f9-e58d0203cc10"},"vehicle_type_id":"4","last_reported":1750191147,"current_range_meters":22000,"station_id":"ce4bh5p2rcd13ifvqe4g","pricing_plan_id":"cebpf4jnsgd1na2vs0mg"},{"bike_id":"bb818543-dca7-4cee-9817-ff202b4fa7dd","system_id":"levelo_inurba_marseille","lat":43.29072,"lon":5.37142,"is_reserved":false,"is_disabled":false,"rental_uris":{"android":"levelo://app?vid=bb818543-dca7-4cee-9817-ff202b4fa7dd","ios":"levelo://app?vid=bb818543-dca7-4cee-9817-ff202b4fa7dd"},"vehicle_type_id":"4","last_reported":1750191147,"current_range_meters":22000,"station_id":"ce4bh5p2rcd13ifvqe4g","pricing_plan_id":"cebpf4jnsgd1na2vs0mg"},{"bike_id":"f27b074e-5f91-4151-a9e8-835b148d0a81","system_id":"levelo_inurba_marseille","lat":43.32289,"lon":5.38267,"is_reserved":false,"is_disabled":false,"rental_uris":{"android":"levelo://app?vid=f27b074e-5f91-4151-a9e8-835b148d0a81","ios":"levelo://app?vid=f27b074e-5f91-4151-a9e8-835b148d0a81"},