{"last_updated":1732140544,"ttl":60,"version":"2.2","data":{"bikes":[{"bike_id":"b071aedb-1c7f-4beb-b6b0-0fdd8399e33d","system_id":"levelo_inurba_marseille","lat":43.29793,"lon":5.39361,"is_reserved":false,"is_disabled":false,"rental_uris":{"android":"levelo://app?vid=b071aedb-1c7f-4beb-b6b0-0fdd8399e33d","ios":"levelo://app?vid=b071aedb-1c7f-4beb-b6b0-0fdd8399e33d"},"vehicle_type_id":"4","last_reported":1732140545,"current_range_meters":10800,"station_id":"chh1huq6cuj3fo74tm60","pricing_plan_id":"cebpf4jnsgd1na2vs0mg"},{"bike_id":"ff2b0804-ca86-4a45-98ac-4f9e9edc57e6","system_id":"levelo_inurba_marseille","lat":43.32286,"lon":5.3827,"is_reserved":false,"is_disabled":false,"rental_uris":{"android":"levelo://app?vid=ff2b0804-ca86-4a45-98ac-4f9e9edc57e6","ios":"levelo://app?vid=ff2b0804-ca86-4a45-98ac-4f9e9edc57e6"},"vehicle_type_id":"4","last_reported":1732140545,"current_range_meters":38000,"station_id":"ce4bhr12rcd13ifvqhqg","pricing_plan_id":"cebpf4jnsgd1na2vs0mg"},{"bike_id":"eb1fd276-641d-4de0-bfa8-6c1377f03001","system_id":"levelo_inurba_marseille","lat":43.24668,"lon":5.38157,"is_reserved":false,"is_disabled":false,"rental_uris":{"android":"levelo://app?vid=eb1fd276-641d-4de0-bfa8-6c1377f03001","ios":"levelo://app?vid=eb1fd276-641d-4de0-bfa8-6c1377f03001"},"vehicle_type_id":"4","last_reported":1732140545,"current_range_meters":10800,"station_id":"ce4bhih2rcd13ifvqfr0","pricing_plan_id":"cebpf4jnsgd1na2vs0mg"},{"bike_id":"d9a80dfb-6074-4631-a5df-93561910973d","system_id":"levelo_inurba_marseille","lat":43.29042,"lon":5.3866,"is_reserved":false,"is_disabled":false,"rental_uris":{"android":"levelo://app?vid=d9a80dfb-6074-4631-a5df-93561910973d","ios":"levelo://app?vid=d9a80dfb-6074-4631-a5df-93561910973d"},"vehicle_type_id":"4","last_reported":1732140545,"current_range_meters":37600,"station_id":"ce4bh4p2rcd13ifvqe0g","pricing_plan_id":"cebpf4jnsgd1na2vs0mg"},{"bike_id":"1c795457-ec2c-4a4b-a69c-fc6b1ce6728d","system_id":"levelo_inurba_marseille","lat":43.27612,"lon":5.36111,"is_reserved":false,"is_disabled":false,"rental_uris":{"android":"levelo://app?vid=1c795457-ec2c-4a4b-a69c-fc6b1ce6728d","ios":"levelo://app?vid=1c795457-ec2c-4a4b-a69c-fc6b1ce6728d"},"vehicle_type_id":"4","last_reported":1732140545,"current_range_meters":28400,"station_id":"ce4bgj92rcd13ifvqbe0","pricing_plan_id":"cebpf4jnsgd1na2vs0mg"},{"bike_id":"3d4f4541-0ce5-44c4-b89f-9a920af4dfeb","system_id":"levelo_inurba_marseille","lat":43.27319,"lon":5.39102,"is_reserved":false,"is_disabled":true,"rental_uris":{"android":"levelo://app?vid=3d4f4541-0ce5-44c4-b89f-9a920af4dfeb","ios":"levelo://app?vid=3d4f4541-0ce5-44c4-b89f-9a920af4dfeb"},"vehicle_type_id":"4","last_reported":1732140545,"current_range_meters":28400,"station_id":"ce4bhgp2rcd13ifvqfe0","pricing_plan_id":"cebpf4jnsgd1na2vs0mg"},{"bike_id":"d2581040-8772-4d35-a569-af5f240334a7","system_id":"levelo_inurba_marseille","lat":43.26939,"lon":5.40244,"is_reserved":false,"is_disabled":true,"rental_uris":{"android":"levelo://app?vid=d2581040-8772-4d35-a569-af5f240334a7","ios":"levelo://app?vid=d2581040-8772-4d35-a569-af5f240334a7"},"vehicle_type_id":"4","last_reported":1732140545,"current_range_meters":17200,"station_id":"cjm6bp8fraef2m0cb0m0","pricing_plan_id":"cebpf4jnsgd1na2vs0mg"},{"bike_id":"88136934-c1c5-4f89-a47b-e06fdd724456","system_id":"levelo_inurba_marseille","lat":43.309076,"lon":5.368506,"is_reserved":false,"is_disabled":false,"rental_uris":{"android":"levelo://app?vid=88136934-c1c5-4f89-a47b-e06fdd724456","ios":"levelo://app?vid=88136934-c1c5-4f89-a47b-e06fdd724456"},"vehicle_type_id":"4","last_reported":1732140545,"current_range_meters":34800,"station_id":"ce4bgn92rcd13ifvqbvg","pricing_plan_id":"cebpf4jnsgd1na2vs0mg"},{"bike_id":"be97b7ff-a776-4abb-98b4-c9cc68de032d","system_id":"levelo_inurba_marseille","lat":43.28151,"lon":5.4265,"is_reserved":false,"is_disabled":false,"rental_uris":{"android":"levelo://app?vid=be97b7ff-a776-4abb-98b4-c9cc68de032d","ios":"levelo://app?vid=be97b7ff-a776-4abb-98b4-c9cc68de032d"},"vehicle_type_id":"4","last_reported":1732140545,"current_range_meters":33600,"station_id":"ce4bhnh2rcd13ifvqgug","pricing_plan_id":"cebpf4jnsgd1na2vs0mg"},{"bike_id":"faaa07fe-d059-4c7c-8d3a-4406c48468a3","system_id":"levelo_inurba_marseille","lat":43.25105,"lon":5.40335,"is_reserved":false,"is_disabled":false,"rental_uris":{"android":"levelo://app?vid=faaa07fe-d059-4c7c-8d3a-4406c48468a3","ios":"levelo://app?vid=faaa07fe-d059-4c7c-8d3a-4406c48468a3"},"vehicle_type_id":"4","last_reported":1732140545,"current_range_meters":38800,"station_id":"ce4bhlh2rcd13ifvqgig","pricing_plan_id":"cebpf4jnsgd1na2vs0mg"},{"bike_id":"263f61fb-2ca9-4ecd-8840-dcdc19618503","system_id":"levelo_inurba_marseille","lat":43.28099,"lon":5.37844,"is_reserved":false,"is_disabled":false,"rental_uris":{"android":"levelo://app?vid=263f61fb-2ca9-4ecd-8840-dcdc19618503","ios":"levelo://app?vid=263f61fb-2ca9-4ecd-8840-dcdc19618503"},"vehicle_type_id":"4","last_reported":1732140545,"current_range_meters":38800,"station_id":"ce4bha12rcd13ifvqee0","pricing_plan_id":"cebpf4jnsgd1na2vs0mg"},{"bike_id":"7ecbb69a-b705-459c-a148-37c838d83d53","system_id":"levelo_inurba_marseille","lat":43.24644,"lon":5.38895,"is_reserved":false,"is_disabled":false,"rental_uris":{"android":"levelo://app?vid=7ecbb69a-b705-459c-a148-37c838d83d53","ios":"levelo://app?vid=7ecbb69a-b705-459c-a148-37c838d83d53"},"vehicle_type_id":"4","last_reported":1732140545,"current_range_meters":21600,"station_id":"ce4bhg12rcd13ifvqf60","pricing_plan_id":"cebpf4jnsgd1na2vs0mg"},{"bike_id":"1f203897-1164-43c5-8a36-2a35df13aaf6","system_id":"levelo_inurba_marseille","lat":43.23149,"lon":5.43716,"is_reserved":false,"is_disabled":false,"rental_uris":{"android":"levelo://app?vid=1f203897-1164-43c5-8a36-2a35df13aaf6","ios":"levelo://app?vid=1f203897-1164-43c5-8a36-2a35df13aaf6"},"vehicle_type_id":"4","last_reported":1732140545,"current_range_meters":38000,"station_id":"ce4bhmp2rcd13ifvqgog","pricing_plan_id":"cebpf4jnsgd1na2vs0mg"},{"bike_id":"4be3997b-0298-4a92-a78f-ce2230a4e3ad","system_id":"levelo_inurba_marseille","lat":43.29907,"lon":5.38135,"is_reserved":false,"is_disabled":true,"rental_uris":{"android":"levelo://app?vid=4be3997b-0298-4a92-a78f-ce2230a4e3ad","ios":"levelo://app?vid=4be3997b-0298-4a92-a78f-ce2230a4e3ad"},"vehicle_type_id":"4","last_reported":1732140545,"current_range_meters":37600,"station_id":"ce4bgj12rcd13ifvqbc0","pricing_plan_id":"cebpf4jnsgd1na2vs0mg"},{"bike_id":"efa3445d-2a68-4f6c-a741-070af9897f81","system_id":"levelo_inurba_marseille","lat":43.25869,"lon":5.39899,"is_reserved":false,"is_disabled":false,"rental_uris":{"android":"levelo://app?vid=efa3445d-2a68-4f6c-a741-070af9897f81","ios":"levelo://app?vid=efa3445d-2a68-4f6c-a741-070af9897f81"},"vehicle_type_id":"4","last_reported":1732140545,"current_range_meters":32400,"station_id":"ce4bhl92rcd13ifvqghg","pricing_plan_id":"cebpf4jnsgd1na2vs0mg"},{"bike_id":"5b2720b4-438a-44c2-82eb-fa077c0f2800","system_id":"levelo_inurba_marseille","lat":43.27903,"lon":5.3801,"is_reserved":false,"is_disabled":false,"rental_uris":{"android":"levelo://app?vid=5b2720b4-438a-44c2-82eb-fa077c0f2800","ios":"levelo://app?vid=5b2720b4-438a-44c2-82eb-fa077c0f2800"},"vehicle_type_id":"4","last_reported":1732140545,"current_range_meters":38800,"station_id":"ce4bhf92rcd13ifvqf50","pricing_plan_id":"cebpf4jnsgd1na2vs0mg"},{"bike_id":"730321d2-de66-475f-920a-cd577dc02cf8","system_id":"levelo_inurba_marseille","lat":43.31761,"lon":5.39028,"is_reserved":false,"is_disabled":false,"rental_uris":{"android":"levelo://app?vid=730321d2-de66-475f-920a-cd577dc02cf8","ios":"levelo://app?vid=730321d2-de66-475f-920a-cd577dc02cf8"},"vehicle_type_id":"4","last_reported":1732140545,"current_range_meters":30400,"station_id":"ce4bhqp2rcd13ifvqhng","pricing_plan_id":"cebpf4jnsgd1na2vs0mg"},{"bike_id":"68844a3f-cc8a-47dd-b3e1-bd3096b4c2ca","system_id":"levelo_inurba_marseille","lat":43.28443,"lon":5.39196,"is_reserved":false,"is_disabled":false,"rental_uris":{"android":"levelo://app?vid=68844a3f-cc8a-47dd-b3e1-bd3096b4c2ca","ios":"levelo://app?vid=68844a3f-cc8a-47dd-b3e1-bd3096b4c2ca"},"vehicle_type_id":"4","last_reported":1732140545,"current_range_meters":24800,"station_id":"ce4bhoh2rcd13ifvqh5g","pricing_plan_id":"cebpf4jnsgd1na2vs0mg"},{"bike_id":"98682f25-82d7-4fd4-ba23-d6af50e3652c","system_id":"levelo_inurba_marseille","lat":43.295392,"lon":5.38551,"is_reserved":false,"is_disabled":false,"rental_uris":{"android":"levelo://app?vid=98682f25-82d7-4fd4-ba23-d6af50e3652c","ios":"levelo://app?vid=98682f25-82d7-4fd4-ba23-d6af50e3652c"},"vehicle_type_id":"4","last_reported":1732140545,"current_range_meters":6400,"station_id":"ce4bgih2rcd13ifvqba0","pricing_plan_id":"cebpf4jnsgd1na2vs0mg"},{"bike_id":"9925591a-5d3d-4228-a5b8-8ca88100a908","system_id":"levelo_inurba_marseille","lat":43.29881,"lon":5.39735,"is_reserved":false,"is_disabled":false,"rental_uris":{"android":"levelo://app?vid=9925591a-5d3d-4228-a5b8-8ca88100a908","ios":"levelo://app?vid=9925591a-5d3d-4228-a5b8-8ca88100a908"},"vehicle_type_id":"4","last_reported":1732140545,"current_range_meters":10800,"station_id":"ce4bh0h2rcd13ifvqd50","pricing_plan_id":"cebpf4jnsgd1na2vs0mg"},{"bike_id":"aaa68104-60d6-454b-9438-4e38b46ffb6c","system_id":"levelo_inurba_marseille","lat":43.30818,"lon":5.37061,"is_reserved":false,"is_disabled":false,"rental_uris":{"android":"levelo://app?vid=aaa68104-60d6-454b-9438-4e38b46ffb6c","ios":"levelo://app?vid=aaa68104-60d6-454b-9438-4e38b46ffb6c"},"vehicle_type_id":"4","last_reported":1732140545,"current_range_meters":20800,"station_id":"","pricing_plan_id":"cebpf4jnsgd1na2vs0mg"},{"bike_id":"9a140d2e-01e1-4f4c-84ca-667a7242358a","system_id":"levelo_inurba_marseille","lat":43.33026,"lon":5.39037,"is_reserved":false,"is_disabled":false,"rental_uris":{"android":"levelo://app?vid=9a140d2e-01e1-4f4c-84ca-667a7242358a","ios":"levelo://app?vid=9a140d2e-01e1-4f4c-84ca-667a7242358a"},"vehicle_type_id":"4","last_reported":1732140545,"current_range_meters":38800,"station_id":"ce4bhr92rcd13ifvqhrg","pricing_plan_id":"cebpf4jnsgd1na2vs0mg"},{"bike_id":"ae330a1c-f873-4a47-a9b5-1d31d7074080","system_id":"levelo_inurba_marseille","lat":43.31707,"lon":5.37759,"is_reserved":false,"is_disabled":false,"rental_uris":{"android":"levelo://app?vid=ae330a1c-f873-4a47-a9b5-1d31d7074080","ios":"levelo://app?vid=ae330a1c-f873-4a47-a9b5-1d31d7074080"},"vehicle_type_id":"4","last_reported":1732140545,"current_range_meters":17600,"station_id":"ce4bgth2rcd13ifvqch0","pricing_plan_id":"cebpf4jnsgd1na2vs0mg"},{"bike_id":"d2321b4c-ae3a-4b43-8bcd-12cb7984481d","system_id":"levelo_inurba_marseille","lat":43.30752,"lon":5.37029,"is_reserved":false,"is_disabled":false,"rental_uris":{"android":"levelo://app?vid=d2321b4c-ae3a-4b43-8bcd-12cb7984481d","ios":"levelo://app?vid=d2321b4c-ae3a-4b43-8bcd-12cb7984481d"},"vehicle_type_id":"4","last_reported":1732140545,"current_range_meters":26800,"station_id":"","pricing_plan_id":"cebpf4jnsgd1na2vs0mg"},{"bike_id":"0e1f739f-b14b-40e5-9fa4-2a5ffd4939f0","system_id":"levelo_inurba_marseille","lat":43.29804,"lon":5.3935,"is_reserved":false,"is_disabled":false,"rental_uris":{"android":"levelo://app?vid=0e1f739f-b14b-40e5-9fa4-2a5ffd4939f0","ios":"levelo://app?vid=0e1f739f-b14b-40e5-9fa4-2a5ffd4939f0"},"vehicle_type_id":"4","last_reported":1732140545,"current_range_meters":38800,"station_id":"chh1huq6cuj3fo74tm60","pricing_plan_id":"cebpf4jnsgd1na2vs0mg"},{"bike_id":"bba6d091-61aa-40e6-8fa2-73310e975759","system_id":"levelo_inurba_marseille","lat":43.24655,"lon":5.38156,"is_reserved":false,"is_disabled":true,"rental_uris":{"android":"levelo://app?vid=bba6d091-61aa-40e6-8fa2-73310e975759","ios":"levelo://app?vid=bba6d091-61aa-40e6-8fa2-73310e975759"},"vehicle_type_id":"4","last_reported":1732140545,"current_range_meters":0,"station_id":"","pricing_plan_id":"cebpf4jnsgd1na2vs0mg"},{"bike_id":"1a2b45b6-17d7-4592-8140-142385f04b6a","system_id":"levelo_inurba_marseille","lat":43.25096,"lon":5.39523,"is_reserved":false,"is_disabled":false,"rental_uris":{"android":"levelo://app?vid=1a2b45b6-17d7-4592-8140-142385f04b6a","ios":"levelo://app?vid=1a2b45b6-17d7-4592-8140-142385f04b6a"},"vehicle_type_id":"4","last_reported":1732140545,"current_range_meters":9600,"station_id":"ce4bhm12rcd13ifvqgkg","pricing_plan_id":"cebpf4jnsgd1na2vs0mg"},{"bike_id":"a8ace031-e725-4f62-9512-9d46cfb2ecd9","system_id":"levelo_inurba_marseille","lat":43.28039,"lon":5.36959,"is_reserved":false,"is_disabled":false,"rental_uris":{"android":"levelo://app?vid=a8ace031-e725-4f62-9512-9d46cfb2ecd9","ios":"levelo://app?vid=a8ace031-e725-4f62-9512-9d46cfb2ecd9"},"vehicle_type_id":"4","last_reported":1732140545,"current_range_meters":32800,"station_id":"ce4bha12rcd13ifvqef0","pricing_plan_id":"cebpf4jnsgd1na2vs0mg"},{"bike_id":"5c3000a0-a190-4007-a723-aa2707fd1ce3","system_id":"levelo_inurba_marseille","lat":43.22932,"lon":5.35366,"is_reserved":false,"is_disabled":false,"rental_uris":{"android":"levelo://app?vid=5c3000a0-a190-4007-a723-aa2707fd1ce3","ios":"levelo://app?vid=5c3000a0-a190-4007-a723-aa2707fd1ce3"},"vehicle_type_id":"4","last_reported":1732140545,"current_range_meters":40000,"station_id":"cpo3532slgdg3j2ikp40","pricing_plan_id":"cebpf4jnsgd1na2vs0mg"},{"bike_id":"9ae0011f-8548-46a1-a97d-d405c4c0edf0","system_id":"levelo_inurba_marseille","lat":43.28463,"lon":5.35889,"is_reserved":false,"is_disabled":false,"rental_uris":{"android":"levelo://app?vid=9ae0011f-8548-46a1-a97d-d405c4c0edf0","ios":"levelo://app?vid=9ae0011f-8548-46a1-a97d-d405c4c0edf0"},"vehicle_type_id":"4","last_reported":1732140545,"current_range_meters":30800,"station_id":"ce4bhah2rcd13ifvqei0","pricing_plan_id":"cebpf4jnsgd1na2vs0mg"},{"bike_id":"fef82928-c385-450c-9c45-fb3586fd8165","system_id":"levelo_inurba_marseille","lat":43.28365,"lon":5.38617,"is_reserved":false,"is_disabled":false,"rental_uris":{"android":"levelo://app?vid=fef82928-c385-450c-9c45-fb3586fd8165","ios":"levelo://app?vid=fef82928-c385-450c-9c45-fb3586fd8165"},"vehicle_type_id":"4","last_reported":1732140545,"current_range_meters":38800,"station_id":"ce4bh492rcd13ifvqdvg","pricing_plan_id":"cebpf4jnsgd1na2vs0mg"},{"bike_id":"ecaee357-99b9-424d-91f8-f69785085b19","system_id":"levelo_inurba_marseille","lat":43.31483,"lon":5.37302,"is_reserved":false,"is_disabled":false,"rental_uris":{"android":"levelo://app?vid=ecaee357-99b9-424d-91f8-f69785085b19","ios":"levelo://app?vid=ecaee357-99b9-424d-91f8-f69785085b19"},"vehicle_type_id":"4","last_reported":1732140545,"current_range_meters":36800,"station_id":"ce4bgt12rcd13ifvqcd0","pricing_plan_id":"cebpf4jnsgd1na2vs0mg"},{"bike_id":"3f99adc2-ed02-4869-b23e-487905831ced","system_id":"levelo_inurba_marseille","lat":43.28459,"lon":5.35891,"is_reserved":false,"is_disabled":false,"rental_uris":{"android":"levelo://app?vid=3f99adc2-ed02-4869-b23e-487905831ced","ios":"levelo://app?vid=3f99adc2-ed02-4869-b23e-487905831ced"},"vehicle_type_id":"4","last_reported":1732140545,"current_range_meters":18000,"station_id":"ce4bhah2rcd13ifvqei0","pricing_plan_id":"cebpf4jnsgd1na2vs0mg"},{"bike_id":"b223f3e8-2e82-42c8-b1c7-26613d7790e5","system_id":"levelo_inurba_marseille","lat":43.25823,"lon":5.39432,"is_reserved":false,"is_disabled":false,"rental_uris":{"android":"levelo://app?vid=b223f3e8-2e82-42c8-b1c7-26613d7790e5","ios":"levelo://app?vid=b223f3e8-2e82-42c8-b1c7-26613d7790e5"},"vehicle_type_id":"4","last_reported":1732140545,"current_range_meters":34000,"station_id":"ce4bhip2rcd13ifvqft0","pricing_plan_id":"cebpf4jnsgd1na2vs0mg"},{"bike_id":"3b7b9386-15f1-4e2c-9dc9-caf0231670d2","system_id":"levelo_inurba_marseille","lat":43.29593,"lon":5.38119,"is_reserved":false,"is_disabled":false,"rental_uris":{"android":"levelo://app?vid=3b7b9386-15f1-4e2c-9dc9-caf0231670d2","ios":"levelo://app?vid=3b7b9386-15f1-4e2c-9dc9-caf0231670d2"},"vehicle_type_id":"4","last_reported":1732140545,"current_range_meters":33600,"station_id":"ce4bgl12rcd13ifvqbo0","pricing_plan_id":"cebpf4jnsgd1na2vs0mg"},{"bike_id":"f1a5529f-d308-4bb7-8ccd-2d79295e5b55","system_id":"levelo_inurba_marseille","lat":43.25581,"lon":5.3824,"is_reserved":false,"is_disabled":false,"rental_uris":{"android":"levelo://app?vid=f1a5529f-d308-4bb7-8ccd-2d79295e5b55","ios":"levelo://app?vid=f1a5529f-d308-4bb7-8ccd-2d79295e5b55"},"vehicle_type_id":"4","last_reported":1732140545,"current_range_meters":38800,"station_id":"ce4bhih2rcd13ifvqfs0","pricing_plan_id":"cebpf4jnsgd1na2vs0mg"},{"bike_id":"c170e5f2-638f-4d3b-b697-da6a6991da60","system_id":"levelo_inurba_marseille","lat":43.29868,"lon":5.38904,"is_reserved":false,"is_disabled":false,"rental_uris":{"android":"levelo://app?vid=c170e5f2-638f-4d3b-b697-da6a6991da60","ios":"levelo://app?vid=c170e5f2-638f-4d3b-b697-da6a6991da60"},"vehicle_type_id":"4","last_reported":1732140545,"current_range_meters":31200,"station_id":"ce4bh392rcd13ifvqdl0","pricing_plan_id":"cebpf4jnsgd1na2vs0mg"},{"bike_id":"db8b0b1a-1305-46a5-b272-11847b8dd860","system_id":"levelo_inurba_marseille","lat":43.2908,"lon":5.37139,"is_reserved":false,"is_disabled":false,"rental_uris":{"android":"levelo://app?vid=db8b0b1a-1305-46a5-b272-11847b8dd860","ios":"levelo://app?vid=db8b0b1a-1305-46a5-b272-11847b8dd860"},"vehicle_type_id":"4","last_reported":1732140545,"current_range_meters":27600,"station_id":"ce4bh5p2rcd13ifvqe4g","pricing_plan_id":"cebpf4jnsgd1na2vs0mg"},{"bike_id":"152509b7-c859-430c-8217-3faa1ae81c43","system_id":"levelo_inurba_marseille","lat":43.30425,"lon":5.41294,"is_reserved":false,"is_disabled":false,"rental_uris":{"android":"levelo://app?vid=152509b7-c859-430c-8217-3faa1ae81c43","ios":"levelo://app?vid=152509b7-c859-430c-8217-3faa1ae81c43"},"vehicle_type_id":"4","last_reported":1732140545,"current_range_meters":34000,"station_id":"ce4bhop2rcd13ifvqh8g","pricing_plan_id":"cebpf4jnsgd1na2vs0mg"},{"bike_id":"1cd0daee-d68a-4e66-9883-fbe67fd8260f","system_id":"levelo_inurba_marseille","lat":43.30589,"lon":5.37131,"is_reserved":false,"is_disabled":true,"rental_uris":{"android":"levelo://app?vid=1cd0daee-d68a-4e66-9883-fbe67fd8260f","ios":"levelo://app?vid=1cd0daee-d68a-4e66-9883-fbe67fd8260f"},"vehicle_type_id":"4","last_reported":1732140545,"current_range_meters":0,"station_id":"","pricing_plan_id":"cebpf4jnsgd1na2vs0mg"},{"bike_id":"772ce743-8958-4198-b3ba-b6e0d96fa296","system_id":"levelo_inurba_marseille","lat":43.2417,"lon":5.36405,"is_reserved":false,"is_disabled":false,"rental_uris":{"android":"levelo://app?vid=772ce743-8958-4198-b3ba-b6e0d96fa296","ios":"levelo://app?vid=772ce743-8958-4198-b3ba-b6e0d96fa296"},"vehicle_type_id":"4","last_reported":1732140545,"current_range_meters":8800,"station_id":"cpo36qri1sfpv3e86is0","pricing_plan_id":"cebpf4jnsgd1na2vs0mg"},{"bike_id":"883fc289-b7e6-454e-81d6-983e127f497f","system_id":"levelo_inurba_marseille","lat":43.27564,"lon":5.38417,"is_reserved":false,"is_disabled":false,"rental_uris":{"android":"levelo://app?vid=883fc289-b7e6-454e-81d6-983e127f497f","ios":"levelo://app?vid=883fc289-b7e6-454e-81d6-983e127f497f"},"vehicle_type_id":"4","last_reported":1732140545,"current_range_meters":19200,"station_id":"ce4bhh92rcd13ifvqfi0","pricing_plan_id":"cebpf4jnsgd1na2vs0mg"},{"bike_id":"2a81cbdb-97b5-46f3-9e50-9c25319002bf","system_id":"levelo_inurba_marseille","lat":43.28151,"lon":5.42647,"is_reserved":false,"is_disabled":false,"rental_uris":{"android":"levelo://app?vid=2a81cbdb-97b5-46f3-9e50-9c25319002bf","ios":"levelo://app?vid=2a81cbdb-97b5-46f3-9e50-9c25319002bf"},"vehicle_type_id":"4","last_reported":1732140545,"current_range_meters":32000,"station_id":"ce4bhnh2rcd13ifvqgug","pricing_plan_id":"cebpf4jnsgd1na2vs0mg"},{"bike_id":"597cb1c5-c680-49ef-9a1a-84a53b157037","system_id":"levelo_inurba_marseille","lat":43.32363,"lon":5.38886,"is_reserved":false,"is_disabled":false,"rental_uris":{"android":"levelo://app?vid=597cb1c5-c680-49ef-9a1a-84a53b157037","ios":"levelo://app?vid=597cb1c5-c680-49ef-9a1a-84a53b157037"},"vehicle_type_id":"4","last_reported":1732140545,"current_range_meters":20400,"station_id":"ce4bhqp2rcd13ifvqhog","pricing_plan_id":"cebpf4jnsgd1na2vs0mg"},{"bike_id":"663a436d-e5d4-40a5-9343-b72b3b5f024a","system_id":"levelo_inurba_marseille","lat":43.317125,"lon":5.40458,"is_reserved":false,"is_disabled":false,"rental_uris":{"android":"levelo://app?vid=663a436d-e5d4-40a5-9343-b72b3b5f024a","ios":"levelo://app?vid=663a436d-e5d4-40a5-9343-b72b3b5f024a"},"vehicle_type_id":"4","last_reported":1732140545,"current_range_meters":35200,"station_id":"ce4bh012rcd13ifvqd00","pricing_plan_id":"cebpf4jnsgd1na2vs0mg"},{"bike_id":"60c34020-75ce-42d7-9428-1c8a34ace000","system_id":"levelo_inurba_marseille","lat":43.29263,"lon":5.4091,"is_reserved":false,"is_disabled":false,"rental_uris":{"android":"levelo://app?vid=60c34020-75ce-42d7-9428-1c8a34ace000","ios":"levelo://app?vid=60c34020-75ce-42d7-9428-1c8a34ace000"},"vehicle_type_id":"4","last_reported":1732140545,"current_range_meters":35600,"station_id":"ce4bh192rcd13ifvqdc0","pricing_plan_id":"cebpf4jnsgd1na2vs0mg"},{"bike_id":"05286363-317d-4e5a-bd27-dc5666b9628b","system_id":"levelo_inurba_marseille","lat":43.24677,"lon":5.38172,"is_reserved":false,"is_disabled":false,"rental_uris":{"android":"levelo://app?vid=05286363-317d-4e5a-bd27-dc5666b9628b","ios":"levelo://app?vid=05286363-317d-4e5a-bd27-dc5666b9628b"},"vehicle_type_id":"4","last_reported":1732140545,"current_range_meters":38800,"station_id":"ce4bhih2rcd13ifvqfr0","pricing_plan_id":"cebpf4jnsgd1na2vs0mg"},{"bike_id":"e7a31be6-73fd-40e5-943d-027798b98a9d","system_id":"levelo_inurba_marseille","lat":43.268,"lon":5.4026,"is_reserved":false,"is_disabled":false,"rental_uris":{"android":"levelo://app?vid=e7a31be6-73fd-40e5-943d-027798b98a9d","ios":"levelo://app?vid=e7a31be6-73fd-40e5-943d-027798b98a9d"},"vehicle_type_id":"4","last_reported":1732140545,"current_range_meters":34000,"station_id":"ce501612rcd8frsf0b60","pricing_plan_id":"cebpf4jnsgd1na2vs0mg"},{"bike_id":"c8e78444-aed0-42c2-bd60-bd5ebc177c5c","system_id":"levelo_inurba_marseille","lat":43.2994,"lon":5.36541,"is_reserved":false,"is_disabled":true,"rental_uris":{"android":"levelo://app?vid=c8e78444-aed0-42c2-bd60-bd5ebc177c5c","ios":"levelo://app?vid=c8e78444-aed0-42c2-bd60-bd5ebc177c5c"},"vehicle_type_id":"4","last_reported":1732140545,"current_range_meters":26800,"station_id":"ce4bgm92rcd13ifvqbr0","pricing_plan_id":"cebpf4jnsgd1na2vs0mg"},{"bike_id":"f58dcbd0-ed21-488c-8cb7-d7d202605233","system_id":"levelo_inurba_marseille","lat":43.28697,"lon":5.37398,"is_reserved":false,"is_disabled":false,"rental_uris":{"android":"levelo://app?vid=f58dcbd0-ed21-488c-8cb7-d7d202605233","ios":"levelo://app?vid=f58dcbd0-ed21-488c-8cb7-d7d202605233"},"vehicle_type_id":"4","last_reported":1732140545,"current_range_meters":24000,"station_id":"ce4bh3p2rcd13ifvqdq0","pricing_plan_id":"cebpf4jnsgd1na2vs0mg"},{"bike_id":"f09cdb3d-8a1f-403c-82ae-b8d4d9bad676","system_id":"levelo_inurba_marseille","lat":43.29875,"lon":5.39738,"is_reserved":false,"is_disabled":false,"rental_uris":{"android":"levelo://app?vid=f09cdb3d-8a1f-403c-82ae-b8d4d9bad676","ios":"levelo://app?vid=f09cdb3d-8a1f-403c-82ae-b8d4d9bad676"},"vehicle_type_id":"4","last_reported":1732140545,"current_range_meters":38800,"station_id":"ce4bh0h2rcd13ifvqd50","pricing_plan_id":"cebpf4jnsgd1na2vs0mg"},{"bike_id":"4a8334a5-4056-497e-8082-55e7a74e4c36","system_id":"levelo_inurba_marseille","lat":43.30126,"lon":5.39894,"is_reserved":false,"is_disabled":false,"rental_uris":{"android":"levelo://app?vid=4a8334a5-4056-497e-8082-55e7a74e4c36","ios":"levelo://app?vid=4a8334a5-4056-497e-8082-55e7a74e4c36"},"vehicle_type_id":"4","last_reported":1732140545,"current_range_meters":38800,"station_id":"ce4bh0h2rcd13ifvqd40","pricing_plan_id":"cebpf4jnsgd1na2vs0mg"},{"bike_id":"feb7885f-e164-4341-9f8f-316bf4f26629","system_id":"levelo_inurba_marseille","lat":43.32364,"lon":5.38882,"is_reserved":false,"is_disabled":false,"rental_uris":{"android":"levelo://app?vid=feb7885f-e164-4341-9f8f-316bf4f26629","ios":"levelo://app?vid=feb7885f-e164-4341-9f8f-316bf4f26629"},"vehicle_type_id":"4","last_reported":1732140545,"current_range_meters":38800,"station_id":"ce4bhqp2rcd13ifvqhog","pricing_plan_id":"cebpf4jnsgd1na2vs0mg"},{"bike_id":"c5672302-88fb-43d4-bead-9c5fc5687965","system_id":"levelo_inurba_marseille","lat":43.28103,"lon":5.37842,"is_reserved":false,"is_disabled":false,"rental_uris":{"android":"levelo://app?vid=c5672302-88fb-43d4-bead-9c5fc5687965","ios":"levelo://app?vid=c5672302-88fb-43d4-bead-9c5fc5687965"},"vehicle_type_id":"4","last_reported":1732140545,"current_range_meters":38000,"station_id":"ce4bha12rcd13ifvqee0","pricing_plan_id":"cebpf4jnsgd1na2vs0mg"},{"bike_id":"21596e95-9400-4840-b20d-936d46df2259","system_id":"levelo_inurba_marseille","lat":43.2928,"lon":5.40128,"is_reserved":false,"is_disabled":false,"rental_uris":{"android":"levelo://app?vid=21596e95-9400-4840-b20d-936d46df2259","ios":"levelo://app?vid=21596e95-9400-4840-b20d-936d46df2259"},"vehicle_type_id":"4","last_reported":1732140545,"current_range_meters":35600,"station_id":"ce4bh312rcd13ifvqdk0","pricing_plan_id":"cebpf4jnsgd1na2vs0mg"},{"bike_id":"1155caf2-19e6-414c-a953-15e7bf94b06e","system_id":"levelo_inurba_marseille","lat":43.28444,"lon":5.39211,"is_reserved":false,"is_disabled":false,"rental_uris":{"android":"levelo://app?vid=1155caf2-19e6-414c-a953-15e7bf94b06e","ios":"levelo://app?vid=1155caf2-19e6-414c-a953-15e7bf94b06e"},"vehicle_type_id":"4","last_reported":1732140545,"current_range_meters":1600,"station_id":"ce4bhoh2rcd13ifvqh5g","pricing_plan_id":"cebpf4jnsgd1na2vs0mg"},{"bike_id":"d0cc6d8c-6a40-4074-8b99-0048df044e12","system_id":"levelo_inurba_marseille","lat":43.32002,"lon":5.38166,"is_reserved":false,"is_disabled":false,"rental_uris":{"android":"levelo://app?vid=d0cc6d8c-6a40-4074-8b99-0048df044e12","ios":"levelo://app?vid=d0cc6d8c-6a40-4074-8b99-0048df044e12"},"vehicle_type_id":"4","last_reported":1732140545,"current_range_meters":16400,"station_id":"ce4bhr12rcd13ifvqhpg","pricing_plan_id":"cebpf4jnsgd1na2vs0mg"},{"bike_id":"efa924b8-3b7e-4a41-913c-fc64a7c8728e","system_id":"levelo_inurba_marseille","lat":43.28462,"lon":5.35891,"is_reserved":false,"is_disabled":false,"rental_uris":{"android":"levelo://app?vid=efa924b8-3b7e-4a41-913c-fc64a7c8728e","ios":"levelo://app?vid=efa924b8-3b7e-4a41-913c-fc64a7c8728e"},"vehicle_type_id":"4","last_reported":1732140545,"current_range_meters":38800,"station_id":"ce4bhah2rcd13ifvqei0","pricing_plan_id":"cebpf4jnsgd1na2vs0mg"},{"bike_id":"4e0ae9d0-4853-4c4a-8966-a6752727c462","system_id":"levelo_inurba_marseille","lat":43.28938,"lon":5.39619,"is_reserved":false,"is_disabled":false,"rental_uris":{"android":"levelo://app?vid=4e0ae9d0-4853-4c4a-8966-a6752727c462","ios":"levelo://app?vid=4e0ae9d0-4853-4c4a-8966-a6752727c462"},"vehicle_type_id":"4","last_reported":1732140545,"current_range_meters":7200,"station_id":"ce4bh3h2rcd13ifvqdn0","pricing_plan_id":"cebpf4jnsgd1na2vs0mg"},{"bike_id":"16223921-60ae-4fd9-a1b7-d4ef1bb6071f","system_id":"levelo_inurba_marseille","lat":43.30887,"lon":5.39646,"is_reserved":false,"is_disabled":false,"rental_uris":{"android":"levelo://app?vid=16223921-60ae-4fd9-a1b7-d4ef1bb6071f","ios":"levelo://app?vid=16223921-60ae-4fd9-a1b7-d4ef1bb6071f"},"vehicle_type_id":"4","last_reported":1732140545,"current_range_meters":21600,"station_id":"ce4bh012rcd13ifvqcv0","pricing_plan_id":"cebpf4jnsgd1na2vs0mg"},{"bike_id":"3ecbe8b4-e7b3-4d48-8da7-065da53b17e1","system_id":"levelo_inurba_marseille","lat":43.29012,"lon":5.3562,"is_reserved":false,"is_disabled":false,"rental_uris":{"android":"levelo://app?vid=3ecbe8b4-e7b3-4d48-8da7-065da53b17e1","ios":"levelo://app?vid=3ecbe8b4-e7b3-4d48-8da7-065da53b17e1"},"vehicle_type_id":"4","last_reported":1732140545,"current_range_meters":20000,"station_id":"ce4bhb92rcd13ifvqen0","pricing_plan_id":"cebpf4jnsgd1na2vs0mg"},{"bike_id":"17a1ee21-a849-4433-badc-5af1a287346d","system_id":"levelo_inurba_marseille","lat":43.24587,"lon":5.37416,"is_reserved":false,"is_disabled":true,"rental_uris":{"android":"levelo://app?vid=17a1ee21-a849-4433-badc-5af1a287346d","ios":"levelo://app?vid=17a1ee21-a849-4433-badc-5af1a287346d"},"vehicle_type_id":"4","last_reported":1732140545,"current_range_meters":0,"station_id":"","pricing_plan_id":"cebpf4jnsgd1na2vs0mg"},{"bike_id":"03421a45-dbd0-4aee-87d7-d692d3894540","system_id":"levelo_inurba_marseille","lat":43.26227,"lon":5.37504,"is_reserved":false,"is_disabled":true,"rental_uris":{"android":"levelo://app?vid=03421a45-dbd0-4aee-87d7-d692d3894540","ios":"levelo://app?vid=03421a45-dbd0-4aee-87d7-d692d3894540"},"vehicle_type_id":"4","last_reported":1732140545,"current_range_meters":0,"station_id":"","pricing_plan_id":"cebpf4jnsgd1na2vs0mg"},{"bike_id":"72988ed8-3b21-48f9-9313-4c219313a03b","system_id":"levelo_inurba_marseille","lat":43.25106,"lon":5.40325,"is_reserved":false,"is_disabled":false,"rental_uris":{"android":"levelo://app?vid=72988ed8-3b21-48f9-9313-4c219313a03b","ios":"levelo://app?vid=72988ed8-3b21-48f9-9313-4c219313a03b"},"vehicle_type_id":"4","last_reported":1732140545,"current_range_meters":18000,"station_id":"ce4bhlh2rcd13ifvqgig","pricing_plan_id":"cebpf4jnsgd1na2vs0mg"},{"bike_id":"f0fa4e60-0a2b-48c7-9942-83170358dd4a","system_id":"levelo_inurba_marseille","lat":43.32291,"lon":5.38279,"is_reserved":false,"is_disabled":false,"rental_uris":{"android":"levelo://app?vid=f0fa4e60-0a2b-48c7-9942-83170358dd4a","ios":"levelo://app?vid=f0fa4e60-0a2b-48c7-9942-83170358dd4a"},"vehicle_type_id":"4","last_reported":1732140545,"current_range_meters":38000,"station_id":"ce4bhr12rcd13ifvqhqg","pricing_plan_id":"cebpf4jnsgd1na2vs0mg"},{"bike_id":"f26697d2-cc74-4766-b4f9-35929d340b27","system_id":"levelo_inurba_marseille","lat":43.28927,"lon":5.38401,"is_reserved":false,"is_disabled":false,"rental_uris":{"android":"levelo://app?vid=f26697d2-cc74-4766-b4f9-35929d340b27","ios":"levelo://app?vid=f26697d2-cc74-4766-b4f9-35929d340b27"},"vehicle_type_id":"4","last_reported":1732140545,"current_range_meters":26800,"station_id":"ce4bh612rcd13ifvqe6g","pricing_plan_id":"cebpf4jnsgd1na2vs0mg"},{"bike_id":"5c5222dc-c9e9-4134-9926-f13e5276b66c","system_id":"levelo_inurba_marseille","lat":43.32354,"lon":5.38874,"is_reserved":false,"is_disabled":false,"rental_uris":{"android":"levelo://app?vid=5c5222dc-c9e9-4134-9926-f13e5276b66c","ios":"levelo://app?vid=5c5222dc-c9e9-4134-9926-f13e5276b66c"},"vehicle_type_id":"4","last_reported":1732140545,"current_range_meters":38800,"station_id":"ce4bhqp2rcd13ifvqhog","pricing_plan_id":"cebpf4jnsgd1na2vs0mg"},{"bike_id":"8497f050-282b-4ccf-87aa-61c41c2e8a16","system_id":"levelo_inurba_marseille","lat":43.30448,"lon":5.38891,"is_reserved":false,"is_disabled":false,"rental_uris":{"android":"levelo://app?vid=8497f050-282b-4ccf-87aa-61c41c2e8a16","ios":"levelo://app?vid=8497f050-282b-4ccf-87aa-61c41c2e8a16"},"vehicle_type_id":"4","last_reported":1732140545,"current_range_meters":16000,"station_id":"ce4bgk12rcd13ifvqbi0","pricing_plan_id":"cebpf4jnsgd1na2vs0mg"},{"bike_id":"f5cf085e-8694-4c6f-ba9c-aa6e0d3c58c6","system_id":"levelo_inurba_marseille","lat":43.33638,"lon":5.35557,"is_reserved":false,"is_disabled":true,"rental_uris":{"android":"levelo://app?vid=f5cf085e-8694-4c6f-ba9c-aa6e0d3c58c6","ios":"levelo://app?vid=f5cf085e-8694-4c6f-ba9c-aa6e0d3c58c6"},"vehicle_type_id":"4","last_reported":1732140545,"current_range_meters":9600,"station_id":"","pricing_plan_id":"cebpf4jnsgd1na2vs0mg"},{"bike_id":"3d2beca7-eef0-4bae-98e1-8b3de347272c","system_id":"levelo_inurba_marseille","lat":43.23187,"lon":5.35563,"is_reserved":false,"is_disabled":false,"rental_uris":{"android":"levelo://app?vid=3d2beca7-eef0-4bae-98e1-8b3de347272c","ios":"levelo://app?vid=3d2beca7-eef0-4bae-98e1-8b3de347272c"},"vehicle_type_id":"4","last_reported":1732140545,"current_range_meters":36400,"station_id":"ce4bhu92rcd13ifvqi70","pricing_plan_id":"cebpf4jnsgd1na2vs0mg"},{"bike_id":"a1529ae5-93e5-4314-98be-8be4cef599cf","system_id":"levelo_inurba_marseille","lat":43.28941,"lon":5.36641,"is_reserved":false,"is_disabled":true,"rental_uris":{"android":"levelo://app?vid=a1529ae5-93e5-4314-98be-8be4cef599cf","ios":"levelo://app?vid=a1529ae5-93e5-4314-98be-8be4cef599cf"},"vehicle_type_id":"4","last_reported":1732140545,"current_range_meters":17200,"station_id":"ce4bhap2rcd13ifvqek0","pricing_plan_id":"cebpf4jnsgd1na2vs0mg"},{"bike_id":"a14ff5be-fe1f-49ce-b621-afb3d416ceff","system_id":"levelo_inurba_marseille","lat":43.28462,"lon":5.35888,"is_reserved":false,"is_disabled":true,"rental_uris":{"android":"levelo://app?vid=a14ff5be-fe1f-49ce-b621-afb3d416ceff","ios":"levelo://app?vid=a14ff5be-fe1f-49ce-b621-afb3d416ceff"},"vehicle_type_id":"4","last_reported":1732140545,"current_range_meters":1600,"station_id":"ce4bhah2rcd13ifvqei0","pricing_plan_id":"cebpf4jnsgd1na2vs0mg"},{"bike_id":"e57590cc-a844-462b-b95c-023047b497c3","system_id":"levelo_inurba_marseille","lat":43.26019,"lon":5.37557,"is_reserved":false,"is_disabled":false,"rental_uris":{"android":"levelo://app?vid=e57590cc-a844-462b-b95c-023047b497c3","ios":"levelo://app?vid=e57590cc-a844-462b-b95c-023047b497c3"},"vehicle_type_id":"4","last_reported":1732140545,"current_range_meters":38800,"station_id":"ce4bhgh2rcd13ifvqfa0","pricing_plan_id":"cebpf4jnsgd1na2vs0mg"},{"bike_id":"02548de1-a79f-4bc6-8c03-f2b86f8bd8f9","system_id":"levelo_inurba_marseille","lat":43.32364,"lon":5.38882,"is_reserved":false,"is_disabled":false,"rental_uris":{"android":"levelo://app?vid=02548de1-a79f-4bc6-8c03-f2b86f8bd8f9","ios":"levelo://app?vid=02548de1-a79f-4bc6-8c03-f2b86f8bd8f9"},"vehicle_type_id":"4","last_reported":1732140545,"current_range_meters":10800,"station_id":"ce4bhqp2rcd13ifvqhog","pricing_plan_id":"cebpf4jnsgd1na2vs0mg"},{"bike_id":"b4b37c0c-a6bf-4224-b04b-eca9edd0646d","system_id":"levelo_inurba_marseille","lat":43.2919,"lon":5.35806,"is_reserved":false,"is_disabled":false,"rental_uris":{"android":"levelo://app?vid=b4b37c0c-a6bf-4224-b04b-eca9edd0646d","ios":"levelo://app?vid=b4b37c0c-a6bf-4224-b04b-eca9edd0646d"},"vehicle_type_id":"4","last_reported":1732140545,"current_range_meters":40000,"station_id":"ce4bhb12rcd13ifvqel0","pricing_plan_id":"cebpf4jnsgd1na2vs0mg"},{"bike_id":"7ef9a5ef-b3b2-4ff2-82cc-f161ced30464","system_id":"levelo_inurba_marseille","lat":43.29417,"lon":5.38608,"is_reserved":false,"is_disabled":true,"rental_uris":{"android":"levelo://app?vid=7ef9a5ef-b3b2-4ff2-82cc-f161ced30464","ios":"levelo://app?vid=7ef9a5ef-b3b2-4ff2-82cc-f161ced30464"},"vehicle_type_id":"4","last_reported":1732140545,"current_range_meters":36800,"station_id":"ce4bh2h2rcd13ifvqdh0","pricing_plan_id":"cebpf4jnsgd1na2vs0mg"},{"bike_id":"591de313-0bda-40c6-9597-444e52852f9a","system_id":"levelo_inurba_marseille","lat":43.25106,"lon":5.40321,"is_reserved":false,"is_disabled":false,"rental_uris":{"android":"levelo://app?vid=591de313-0bda-40c6-9597-444e52852f9a","ios":"levelo://app?vid=591de313-0bda-40c6-9597-444e52852f9a"},"vehicle_type_id":"4","last_reported":1732140545,"current_range_meters":24000,"station_id":"ce4bhlh2rcd13ifvqgig","pricing_plan_id":"cebpf4jnsgd1na2vs0mg"},{"bike_id":"a8fe9131-8324-4d62-abb6-9a4ec7f0a4a8","system_id":"levelo_inurba_marseille","lat":43.29607,"lon":5.38526,"is_reserved":false,"is_disabled":false,"rental_uris":{"android":"levelo://app?vid=a8fe9131-8324-4d62-abb6-9a4ec7f0a4a8","ios":"levelo://app?vid=a8fe9131-8324-4d62-abb6-9a4ec7f0a4a8"},"vehicle_type_id":"4","last_reported":1732140545,"current_range_meters":4000,"station_id":"","pricing_plan_id":"cebpf4jnsgd1na2vs0mg"},{"bike_id":"0eaac592-6ab6-4b87-840f-3eaf088e2d24","system_id":"levelo_inurba_marseille","lat":43.30434,"lon":5.38887,"is_reserved":false,"is_disabled":false,"rental_uris":{"android":"levelo://app?vid=0eaac592-6ab6-4b87-840f-3eaf088e2d24","ios":"levelo://app?vid=0eaac592-6ab6-4b87-840f-3eaf088e2d24"},"vehicle_type_id":"4","last_reported":1732140545,"current_range_meters":40000,"station_id":"ce4bgk12rcd13ifvqbi0","pricing_plan_id":"cebpf4jnsgd1na2vs0mg"},{"bike_id":"95e9d65c-8239-4c39-bff4-784ba1e78fcf","system_id":"levelo_inurba_marseille","lat":43.30646,"lon":5.40092,"is_reserved":false,"is_disabled":false,"rental_uris":{"android":"levelo://app?vid=95e9d65c-8239-4c39-bff4-784ba1e78fcf","ios":"levelo://app?vid=95e9d65c-8239-4c39-bff4-784ba1e78fcf"},"vehicle_type_id":"4","last_reported":1732140545,"current_range_meters":20000,"station_id":"ce4bh112rcd13ifvqda0","pricing_plan_id":"cebpf4jnsgd1na2vs0mg"},{"bike_id":"8d5e8e54-f87c-49b3-8720-7e21078f8fcd","system_id":"levelo_inurba_marseille","lat":43.2649,"lon":5.39549,"is_reserved":false,"is_disabled":false,"rental_uris":{"android":"levelo://app?vid=8d5e8e54-f87c-49b3-8720-7e21078f8fcd","ios":"levelo://app?vid=8d5e8e54-f87c-49b3-8720-7e21078f8fcd"},"vehicle_type_id":"4","last_reported":1732140545,"current_range_meters":38800,"station_id":"ce4bhi12rcd13ifvqfq0","pricing_plan_id":"cebpf4jnsgd1na2vs0mg"},{"bike_id":"844cb461-f780-45f5-88b2-3951b51e6462","system_id":"levelo_inurba_marseille","lat":43.30107,"lon":5.37836,"is_reserved":false,"is_disabled":true,"rental_uris":{"android":"levelo://app?vid=844cb461-f780-45f5-88b2-3951b51e6462","ios":"levelo://app?vid=844cb461-f780-45f5-88b2-3951b51e6462"},"vehicle_type_id":"4","last_reported":1732140545,"current_range_meters":0,"station_id":"","pricing_plan_id":"cebpf4jnsgd1na2vs0mg"},{"bike_id":"ac5fcd9a-efc4-465f-aecc-12e2bbc093f7","system_id":"levelo_inurba_marseille","lat":43.25857,"lon":5.39911,"is_reserved":false,"is_disabled":false,"rental_uris":{"android":"levelo://app?vid=ac5fcd9a-efc4-465f-aecc-12e2bbc093f7","ios":"levelo://app?vid=ac5fcd9a-efc4-465f-aecc-12e2bbc093f7"},"vehicle_type_id":"4","last_reported":1732140545,"current_range_meters":24800,"station_id":"ce4bhl92rcd13ifvqghg","pricing_plan_id":"cebpf4jnsgd1na2vs0mg"},{"bike_id":"fc152104-cb08-4a09-be27-45ffc2f9ec36","system_id":"levelo_inurba_marseille","lat":43.2408,"lon":5.37756,"is_reserved":false,"is_disabled":false,"rental_uris":{"android":"levelo://app?vid=fc152104-cb08-4a09-be27-45ffc2f9ec36","ios":"levelo://app?vid=fc152104-cb08-4a09-be27-45ffc2f9ec36"},"vehicle_type_id":"4","last_reported":1732140545,"current_range_meters":37600,"station_id":"ce4bhnp2rcd13ifvqgvg","pricing_plan_id":"cebpf4jnsgd1na2vs0mg"},{"bike_id":"d76e6ecc-70e3-426d-9ef3-718df90d543c","system_id":"levelo_inurba_marseille","lat":43.24074,"lon":5.37763,"is_reserved":false,"is_disabled":false,"rental_uris":{"android":"levelo://app?vid=d76e6ecc-70e3-426d-9ef3-718df90d543c","ios":"levelo://app?vid=d76e6ecc-70e3-426d-9ef3-718df90d543c"},"vehicle_type_id":"4","last_reported":1732140545,"current_range_meters":38800,"station_id":"ce4bhnp2rcd13ifvqgvg","pricing_plan_id":"cebpf4jnsgd1na2vs0mg"},{"bike_id":"adcebd83-3b76-45c1-b10d-d5e55a336300","system_id":"levelo_inurba_marseille","lat":43.26944,"lon":5.40247,"is_reserved":false,"is_disabled":false,"rental_uris":{"android":"levelo://app?vid=adcebd83-3b76-45c1-b10d-d5e55a336300","ios":"levelo://app?vid=adcebd83-3b76-45c1-b10d-d5e55a336300"},"vehicle_type_id":"4","last_reported":1732140545,"current_range_meters":24800,"station_id":"cjm6bp8fraef2m0cb0m0","pricing_plan_id":"cebpf4jnsgd1na2vs0mg"},{"bike_id":"bbf93218-68ad-4601-9ca1-23dbf504d3d0","system_id":"levelo_inurba_marseille","lat":43.28729,"lon":5.36096,"is_reserved":false,"is_disabled":true,"rental_uris":{"android":"levelo://app?vid=bbf93218-68ad-4601-9ca1-23dbf504d3d0","ios":"levelo://app?vid=bbf93218-68ad-4601-9ca1-23dbf504d3d0"},"vehicle_type_id":"4","last_reported":1732140545,"current_range_meters":0,"station_id":"cki0cbj6b192h4jlfktg","pricing_plan_id":"cebpf4jnsgd1na2vs0mg"},{"bike_id":"44a4e97f-fd6f-476f-bf87-412c8a64e69e","system_id":"levelo_inurba_marseille","lat":43.30794,"lon":5.37659,"is_reserved":false,"is_disabled":false,"rental_uris":{"android":"levelo://app?vid=44a4e97f-fd6f-476f-bf87-412c8a64e69e","ios":"levelo://app?vid=44a4e97f-fd6f-476f-bf87-412c8a64e69e"},"vehicle_type_id":"4","last_reported":1732140545,"current_range_meters":39200,"station_id":"ce4bgv92rcd13ifvqcq0","pricing_plan_id":"cebpf4jnsgd1na2vs0mg"},{"bike_id":"cdaafd2d-0da1-4fac-9881-15c66a7cd7c0","system_id":"levelo_inurba_marseille","lat":43.23152,"lon":5.43712,"is_reserved":false,"is_disabled":false,"rental_uris":{"android":"levelo://app?vid=cdaafd2d-0da1-4fac-9881-15c66a7cd7c0","ios":"levelo://app?vid=cdaafd2d-0da1-4fac-9881-15c66a7cd7c0"},"vehicle_type_id":"4","last_reported":1732140545,"current_range_meters":38800,"station_id":"ce4bhmp2rcd13ifvqgog","pricing_plan_id":"cebpf4jnsgd1na2vs0mg"},{"bike_id":"571ebf17-9551-4693-af9a-d47668470fe6","system_id":"levelo_inurba_marseille","lat":43.32369,"lon":5.38872,"is_reserved":false,"is_disabled":false,"rental_uris":{"android":"levelo://app?vid=571ebf17-9551-4693-af9a-d47668470fe6","ios":"levelo://app?vid=571ebf17-9551-4693-af9a-d47668470fe6"},"vehicle_type_id":"4","last_reported":1732140545,"current_range_meters":7200,"station_id":"ce4bhqp2rcd13ifvqhog","pricing_plan_id":"cebpf4jnsgd1na2vs0mg"},{"bike_id":"1d606ca2-d831-4cab-8cc3-213a7446614a","system_id":"levelo_inurba_marseille","lat":43.31484,"lon":5.37302,"is_reserved":false,"is_disabled":false,"rental_uris":{"android":"levelo://app?vid=1d606ca2-d831-4cab-8cc3-213a7446614a","ios":"levelo://app?vid=1d606ca2-d831-4cab-8cc3-213a7446614a"},"vehicle_type_id":"4","last_reported":1732140545,"current_range_meters":27200,"station_id":"ce4bgt12rcd13ifvqcd0","pricing_plan_id":"cebpf4jnsgd1na2vs0mg"},{"bike_id":"8d5ad0a8-268e-4afd-be61-7919f93826c7","system_id":"levelo_inurba_marseille","lat":43.2992,"lon":5.37481,"is_reserved":false,"is_disabled":true,"rental_uris":{"android":"levelo://app?vid=8d5ad0a8-268e-4afd-be61-7919f93826c7","ios":"levelo://app?vid=8d5ad0a8-268e-4afd-be61-7919f93826c7"},"vehicle_type_id":"4","last_reported":1732140545,"current_range_meters":36400,"station_id":"ce4bgjh2rcd13ifvqbg0","pricing_plan_id":"cebpf4jnsgd1na2vs0mg"},{"bike_id":"d193791a-0512-4817-8b67-b5e89d3445fa","system_id":"levelo_inurba_marseille","lat":43.25084,"lon":5.39518,"is_reserved":false,"is_disabled":false,"rental_uris":{"android":"levelo://app?vid=d193791a-0512-4817-8b67-b5e89d3445fa","ios":"levelo://app?vid=d193791a-0512-4817-8b67-b5e89d3445fa"},"vehicle_type_id":"4","last_reported":1732140545,"current_range_meters":25200,"station_id":"ce4bhm12rcd13ifvqgkg","pricing_plan_id":"cebpf4jnsgd1na2vs0mg"},{"bike_id":"20b8fda3-25c0-47ec-9e06-266171433333","system_id":"levelo_inurba_marseille","lat":43.24384,"lon":5.37057,"is_reserved":false,"is_disabled":false,"rental_uris":{"android":"levelo://app?vid=20b8fda3-25c0-47ec-9e06-266171433333","ios":"levelo://app?vid=20b8fda3-25c0-47ec-9e06-266171433333"},"vehicle_type_id":"4","last_reported":1732140545,"current_range_meters":40000,"station_id":"ce4bhhh2rcd13ifvqfk0","pricing_plan_id":"cebpf4jnsgd1na2vs0mg"},{"bike_id":"21e611ca-1d52-46b2-9962-730ca3426b93","system_id":"levelo_inurba_marseille","lat":43.31492,"lon":5.37278,"is_reserved":false,"is_disabled":false,"rental_uris":{"android":"levelo://app?vid=21e611ca-1d52-46b2-9962-730ca3426b93","ios":"levelo://app?vid=21e611ca-1d52-46b2-9962-730ca3426b93"},"vehicle_type_id":"4","last_reported":1732140545,"current_range_meters":20000,"station_id":"ce4bgt12rcd13ifvqcd0","pricing_plan_id":"cebpf4jnsgd1na2vs0mg"},{"bike_id":"8eb93167-4b65-485d-8184-38b36a0fe079","system_id":"levelo_inurba_marseille","lat":43.28855,"lon":5.35864,"is_reserved":false,"is_disabled":false,"rental_uris":{"android":"levelo://app?vid=8eb93167-4b65-485d-8184-38b36a0fe079","ios":"levelo://app?vid=8eb93167-4b65-485d-8184-38b36a0fe079"},"vehicle_type_id":"4","last_reported":1732140545,"current_range_meters":22800,"station_id":"ce4bhb12rcd13ifvqem0","pricing_plan_id":"cebpf4jnsgd1na2vs0mg"},{"bike_id":"8b09ebd1-a82c-4c50-a6f1-82290ab766c7","system_id":"levelo_inurba_marseille","lat":43.27076,"lon":5.42288,"is_reserved":false,"is_disabled":false,"rental_uris":{"android":"levelo://app?vid=8b09ebd1-a82c-4c50-a6f1-82290ab766c7","ios":"levelo://app?vid=8b09ebd1-a82c-4c50-a6f1-82290ab766c7"},"vehicle_type_id":"4","last_reported":1732140545,"current_range_meters":38800,"station_id":"ce4bhk92rcd13ifvqgb0","pricing_plan_id":"cebpf4jnsgd1na2vs0mg"},{"bike_id":"7e1b14f0-9ded-447c-83c8-3429d5e2b465","system_id":"levelo_inurba_marseille","lat":43.28616,"lon":5.35098,"is_reserved":false,"is_disabled":false,"rental_uris":{"android":"levelo://app?vid=7e1b14f0-9ded-447c-83c8-3429d5e2b465","ios":"levelo://app?vid=7e1b14f0-9ded-447c-83c8-3429d5e2b465"},"vehicle_type_id":"4","last_reported":1732140545,"current_range_meters":38800,"station_id":"ce4bhch2rcd13ifvqeug","pricing_plan_id":"cebpf4jnsgd1na2vs0mg"},{"bike_id":"8c53c6e1-6a9d-456a-ba09-ee639b8dd924","system_id":"levelo_inurba_marseille","lat":43.23186,"lon":5.39986,"is_reserved":false,"is_disabled":false,"rental_uris":{"android":"levelo://app?vid=8c53c6e1-6a9d-456a-ba09-ee639b8dd924","ios":"levelo://app?vid=8c53c6e1-6a9d-456a-ba09-ee639b8dd924"},"vehicle_type_id":"4","last_reported":1732140545,"current_range_meters":12000,"station_id":"ce4bhn12rcd13ifvqgqg","pricing_plan_id":"cebpf4jnsgd1na2vs0mg"},{"bike_id":"ac655b3c-d70e-40ba-b71c-6b2550136bca","system_id":"levelo_inurba_marseille","lat":43.30596,"lon":5.3722,"is_reserved":false,"is_disabled":false,"rental_uris":{"android":"levelo://app?vid=ac655b3c-d70e-40ba-b71c-6b2550136bca","ios":"levelo://app?vid=ac655b3c-d70e-40ba-b71c-6b2550136bca"},"vehicle_type_id":"4","last_reported":1732140545,"current_range_meters":37600,"station_id":"ce4bgqh2rcd13ifvqc4g","pricing_plan_id":"cebpf4jnsgd1na2vs0mg"},{"bike_id":"f3d1de11-ea0c-4809-8e9c-3957146035eb","system_id":"levelo_inurba_marseille","lat":43.2602,"lon":5.37554,"is_reserved":false,"is_disabled":false,"rental_uris":{"android":"levelo://app?vid=f3d1de11-ea0c-4809-8e9c-3957146035eb","ios":"levelo://app?vid=f3d1de11-ea0c-4809-8e9c-3957146035eb"},"vehicle_type_id":"4","last_reported":1732140545,"current_range_meters":37600,"station_id":"ce4bhgh2rcd13ifvqfa0","pricing_plan_id":"cebpf4jnsgd1na2vs0mg"},{"bike_id":"319639f6-c364-407e-9612-56f449d4d076","system_id":"levelo_inurba_marseille","lat":43.28074,"lon":5.39666,"is_reserved":false,"is_disabled":true,"rental_uris":{"android":"levelo://app?vid=319639f6-c364-407e-9612-56f449d4d076","ios":"levelo://app?vid=319639f6-c364-407e-9612-56f449d4d076"},"vehicle_type_id":"4","last_reported":1732140545,"current_range_meters":0,"station_id":"ce4bho12rcd13ifvqh2g","pricing_plan_id":"cebpf4jnsgd1na2vs0mg"},{"bike_id":"9d1b7cbb-98fa-41ad-94a0-1a65bb16f3d3","system_id":"levelo_inurba_marseille","lat":43.31759,"lon":5.3902,"is_reserved":false,"is_disabled":false,"rental_uris":{"android":"levelo://app?vid=9d1b7cbb-98fa-41ad-94a0-1a65bb16f3d3","ios":"levelo://app?vid=9d1b7cbb-98fa-41ad-94a0-1a65bb16f3d3"},"vehicle_type_id":"4","last_reported":1732140545,"current_range_meters":8800,"station_id":"ce4bhqp2rcd13ifvqhng","pricing_plan_id":"cebpf4jnsgd1na2vs0mg"},{"bike_id":"024030d7-979d-4eae-8006-b04b3b392e66","system_id":"levelo_inurba_marseille","lat":43.30422,"lon":5.3976,"is_reserved":false,"is_disabled":false,"rental_uris":{"android":"levelo://app?vid=024030d7-979d-4eae-8006-b04b3b392e66","ios":"levelo://app?vid=024030d7-979d-4eae-8006-b04b3b392e66"},"vehicle_type_id":"4","last_reported":1732140545,"current_range_meters":18800,"station_id":"ce4bh092rcd13ifvqd20","pricing_plan_id":"cebpf4jnsgd1na2vs0mg"},{"bike_id":"19c67081-4b53-40d6-b37e-ac553a2e8a77","system_id":"levelo_inurba_marseille","lat":43.25095,"lon":5.39516,"is_reserved":false,"is_disabled":false,"rental_uris":{"android":"levelo://app?vid=19c67081-4b53-40d6-b37e-ac553a2e8a77","ios":"levelo://app?vid=19c67081-4b53-40d6-b37e-ac553a2e8a77"},"vehicle_type_id":"4","last_reported":1732140545,"current_range_meters":11200,"station_id":"ce4bhm12rcd13ifvqgkg","pricing_plan_id":"cebpf4jnsgd1na2vs0mg"},{"bike_id":"1951da77-c259-424b-b12e-3b8bb4eeaeca","system_id":"levelo_inurba_marseille","lat":43.29076,"lon":5.37161,"is_reserved":false,"is_disabled":true,"rental_uris":{"android":"levelo://app?vid=1951da77-c259-424b-b12e-3b8bb4eeaeca","ios":"levelo://app?vid=1951da77-c259-424b-b12e-3b8bb4eeaeca"},"vehicle_type_id":"4","last_reported":1732140545,"current_range_meters":800,"station_id":"ce4bh5p2rcd13ifvqe4g","pricing_plan_id":"cebpf4jnsgd1na2vs0mg"},{"bike_id":"403d1fe9-5696-465c-8a76-0fc328542722","system_id":"levelo_inurba_marseille","lat":43.29808,"lon":5.40392,"is_reserved":false,"is_disabled":false,"rental_uris":{"android":"levelo://app?vid=403d1fe9-5696-465c-8a76-0fc328542722","ios":"levelo://app?vid=403d1fe9-5696-465c-8a76-0fc328542722"},"vehicle_type_id":"4","last_reported":1732140545,"current_range_meters":9600,"station_id":"ce4bh112rcd13ifvqd90","pricing_plan_id":"cebpf4jnsgd1na2vs0mg"},{"bike_id":"53bbdfc0-4d63-4cc4-86e6-4ec910061123","system_id":"levelo_inurba_marseille","lat":43.30909,"lon":5.36704,"is_reserved":false,"is_disabled":false,"rental_uris":{"android":"levelo://app?vid=53bbdfc0-4d63-4cc4-86e6-4ec910061123","ios":"levelo://app?vid=53bbdfc0-4d63-4cc4-86e6-4ec910061123"},"vehicle_type_id":"4","last_reported":1732140545,"current_range_meters":7200,"station_id":"","pricing_plan_id":"cebpf4jnsgd1na2vs0mg"},{"bike_id":"10203cbf-e551-491c-abc2-60f3d2f60b45","system_id":"levelo_inurba_marseille","lat":43.30641,"lon":5.40105,"is_reserved":false,"is_disabled":false,"rental_uris":{"android":"levelo://app?vid=10203cbf-e551-491c-abc2-60f3d2f60b45","ios":"levelo://app?vid=10203cbf-e551-491c-abc2-60f3d2f60b45"},"vehicle_type_id":"4","last_reported":1732140545,"current_range_meters":33600,"station_id":"ce4bh112rcd13ifvqda0","pricing_plan_id":"cebpf4jnsgd1na2vs0mg"},{"bike_id":"362d4f78-88b3-4dc3-9f9b-7d6e45ea312e","system_id":"levelo_inurba_marseille","lat":43.27971,"lon":5.38739,"is_reserved":false,"is_disabled":false,"rental_uris":{"android":"levelo://app?vid=362d4f78-88b3-4dc3-9f9b-7d6e45ea312e","ios":"levelo://app?vid=362d4f78-88b3-4dc3-9f9b-7d6e45ea312e"},"vehicle_type_id":"4","last_reported":1732140545,"current_range_meters":38000,"station_id":"ce4bhg12rcd13ifvqf80","pricing_plan_id":"cebpf4jnsgd1na2vs0mg"},{"bike_id":"f0108f4f-267c-4bf7-832c-e4a016d7f14f","system_id":"levelo_inurba_marseille","lat":43.2872,"lon":5.37947,"is_reserved":false,"is_disabled":false,"rental_uris":{"android":"levelo://app?vid=f0108f4f-267c-4bf7-832c-e4a016d7f14f","ios":"levelo://app?vid=f0108f4f-267c-4bf7-832c-e4a016d7f14f"},"vehicle_type_id":"4","last_reported":1732140545,"current_range_meters":26000,"station_id":"ce4bh9p2rcd13ifvqec0","pricing_plan_id":"cebpf4jnsgd1na2vs0mg"},{"bike_id":"a3c2aeb5-9ec7-49f9-b0cc-cca407a4490a","system_id":"levelo_inurba_marseille","lat":43.28463,"lon":5.35881,"is_reserved":false,"is_disabled":false,"rental_uris":{"android":"levelo://app?vid=a3c2aeb5-9ec7-49f9-b0cc-cca407a4490a","ios":"levelo://app?vid=a3c2aeb5-9ec7-49f9-b0cc-cca407a4490a"},"vehicle_type_id":"4","last_reported":1732140545,"current_range_meters":30000,"station_id":"ce4bhah2rcd13ifvqei0","pricing_plan_id":"cebpf4jnsgd1na2vs0mg"},{"bike_id":"22c6d9a0-fae9-467b-83df-a581e88530d1","system_id":"levelo_inurba_marseille","lat":43.33724,"lon":5.39185,"is_reserved":false,"is_disabled":false,"rental_uris":{"android":"levelo://app?vid=22c6d9a0-fae9-467b-83df-a581e88530d1","ios":"levelo://app?vid=22c6d9a0-fae9-467b-83df-a581e88530d1"},"vehicle_type_id":"4","last_reported":1732140545,"current_range_meters":10000,"station_id":"ce4bhr92rcd13ifvqhsg","pricing_plan_id":"cebpf4jnsgd1na2vs0mg"},{"bike_id":"9b4d52a8-a22b-418c-a556-65afaca3a235","system_id":"levelo_inurba_marseille","lat":43.33753,"lon":5.37454,"is_reserved":false,"is_disabled":false,"rental_uris":{"android":"levelo://app?vid=9b4d52a8-a22b-418c-a556-65afaca3a235","ios":"levelo://app?vid=9b4d52a8-a22b-418c-a556-65afaca3a235"},"vehicle_type_id":"4","last_reported":1732140545,"current_range_meters":14400,"station_id":"","pricing_plan_id":"cebpf4jnsgd1na2vs0mg"},{"bike_id":"6dd1baf7-ffe3-4587-a0a0-8706d6a1d3f6","system_id":"levelo_inurba_marseille","lat":43.29167,"lon":5.37151,"is_reserved":false,"is_disabled":false,"rental_uris":{"android":"levelo://app?vid=6dd1baf7-ffe3-4587-a0a0-8706d6a1d3f6","ios":"levelo://app?vid=6dd1baf7-ffe3-4587-a0a0-8706d6a1d3f6"},"vehicle_type_id":"4","last_reported":1732140545,"current_range_meters":21600,"station_id":"ce4bha92rcd13ifvqeh0","pricing_plan_id":"cebpf4jnsgd1na2vs0mg"},{"bike_id":"90e1718d-cd99-4c8d-9c36-9960f11e6e9c","system_id":"levelo_inurba_marseille","lat":43.30929,"lon":5.40151,"is_reserved":false,"is_disabled":false,"rental_uris":{"android":"levelo://app?vid=90e1718d-cd99-4c8d-9c36-9960f11e6e9c","ios":"levelo://app?vid=90e1718d-cd99-4c8d-9c36-9960f11e6e9c"},"vehicle_type_id":"4","last_reported":1732140545,"current_range_meters":11200,"station_id":"ce4bgvp2rcd13ifvqct0","pricing_plan_id":"cebpf4jnsgd1na2vs0mg"},{"bike_id":"2af4d00b-5050-4935-b5d1-08b4e90f04bf","system_id":"levelo_inurba_marseille","lat":43.29034,"lon":5.38661,"is_reserved":false,"is_disabled":false,"rental_uris":{"android":"levelo://app?vid=2af4d00b-5050-4935-b5d1-08b4e90f04bf","ios":"levelo://app?vid=2af4d00b-5050-4935-b5d1-08b4e90f04bf"},"vehicle_type_id":"4","last_reported":1732140545,"current_range_meters":38000,"station_id":"ce4bh4p2rcd13ifvqe0g","pricing_plan_id":"cebpf4jnsgd1na2vs0mg"},{"bike_id":"b61b82da-9e4a-4603-875b-d91da57ebda8","system_id":"levelo_inurba_marseille","lat":43.30544,"lon":5.38432,"is_reserved":false,"is_disabled":false,"rental_uris":{"android":"levelo://app?vid=b61b82da-9e4a-4603-875b-d91da57ebda8","ios":"levelo://app?vid=b61b82da-9e4a-4603-875b-d91da57ebda8"},"vehicle_type_id":"4","last_reported":1732140545,"current_range_meters":19200,"station_id":"ce4bgg92rcd13ifvqb30","pricing_plan_id":"cebpf4jnsgd1na2vs0mg"},{"bike_id":"574467db-6bec-4ddd-9dce-1602e567c40b","system_id":"levelo_inurba_marseille","lat":43.2852,"lon":5.37724,"is_reserved":false,"is_disabled":false,"rental_uris":{"android":"levelo://app?vid=574467db-6bec-4ddd-9dce-1602e567c40b","ios":"levelo://app?vid=574467db-6bec-4ddd-9dce-1602e567c40b"},"vehicle_type_id":"4","last_reported":1732140545,"current_range_meters":38000,"station_id":"","pricing_plan_id":"cebpf4jnsgd1na2vs0mg"},{"bike_id":"b60cc273-b0c2-42b6-a0f5-c2faf3f8160b","system_id":"levelo_inurba_marseille","lat":43.22932,"lon":5.35378,"is_reserved":false,"is_disabled":false,"rental_uris":{"android":"levelo://app?vid=b60cc273-b0c2-42b6-a0f5-c2faf3f8160b","ios":"levelo://app?vid=b60cc273-b0c2-42b6-a0f5-c2faf3f8160b"},"vehicle_type_id":"4","last_reported":1732140545,"current_range_meters":22000,"station_id":"cpo3532slgdg3j2ikp40","pricing_plan_id":"cebpf4jnsgd1na2vs0mg"},{"bike_id":"8ae288fe-7f9e-4636-bc68-3daa0c790f34","system_id":"levelo_inurba_marseille","lat":43.24669,"lon":5.38173,"is_reserved":false,"is_disabled":false,"rental_uris":{"android":"levelo://app?vid=8ae288fe-7f9e-4636-bc68-3daa0c790f34","ios":"levelo://app?vid=8ae288fe-7f9e-4636-bc68-3daa0c790f34"},"vehicle_type_id":"4","last_reported":1732140545,"current_range_meters":38800,"station_id":"ce4bhih2rcd13ifvqfr0","pricing_plan_id":"cebpf4jnsgd1na2vs0mg"},{"bike_id":"f53e4553-79ea-44ca-a372-bbb27b7bc353","system_id":"levelo_inurba_marseille","lat":43.2681,"lon":5.40272,"is_reserved":false,"is_disabled":false,"rental_uris":{"android":"levelo://app?vid=f53e4553-79ea-44ca-a372-bbb27b7bc353","ios":"levelo://app?vid=f53e4553-79ea-44ca-a372-bbb27b7bc353"},"vehicle_type_id":"4","last_reported":1732140545,"current_range_meters":20400,"station_id":"ce501612rcd8frsf0b60","pricing_plan_id":"cebpf4jnsgd1na2vs0mg"},{"bike_id":"f8d773ad-6117-441c-8a1f-2ad7889ac928","system_id":"levelo_inurba_marseille","lat":43.337444,"lon":5.374475,"is_reserved":false,"is_disabled":false,"rental_uris":{"android":"levelo://app?vid=f8d773ad-6117-441c-8a1f-2ad7889ac928","ios":"levelo://app?vid=f8d773ad-6117-441c-8a1f-2ad7889ac928"},"vehicle_type_id":"4","last_reported":1732140545,"current_range_meters":31200,"station_id":"","pricing_plan_id":"cebpf4jnsgd1na2vs0mg"},{"bike_id":"2196e330-a7aa-4092-bb99-58cef0d5e930","system_id":"levelo_inurba_marseille","lat":43.2509,"lon":5.39519,"is_reserved":false,"is_disabled":false,"rental_uris":{"android":"levelo://app?vid=2196e330-a7aa-4092-bb99-58cef0d5e930","ios":"levelo://app?vid=2196e330-a7aa-4092-bb99-58cef0d5e930"},"vehicle_type_id":"4","last_reported":1732140545,"current_range_meters":38400,"station_id":"ce4bhm12rcd13ifvqgkg","pricing_plan_id":"cebpf4jnsgd1na2vs0mg"},{"bike_id":"a32613c2-ce23-4c6b-99d9-f02f377bc95a","system_id":"levelo_inurba_marseille","lat":43.337444,"lon":5.374475,"is_reserved":false,"is_disabled":false,"rental_uris":{"android":"levelo://app?vid=a32613c2-ce23-4c6b-99d9-f02f377bc95a","ios":"levelo://app?vid=a32613c2-ce23-4c6b-99d9-f02f377bc95a"},"vehicle_type_id":"4","last_reported":1732140545,"current_range_meters":36800,"station_id":"","pricing_plan_id":"cebpf4jnsgd1na2vs0mg"},{"bike_id":"991ce96d-0429-4a51-a9b9-465733345c5c","system_id":"levelo_inurba_marseille","lat":43.29043,"lon":5.35928,"is_reserved":false,"is_disabled":false,"rental_uris":{"android":"levelo://app?vid=991ce96d-0429-4a51-a9b9-465733345c5c","ios":"levelo://app?vid=991ce96d-0429-4a51-a9b9-465733345c5c"},"vehicle_type_id":"4","last_reported":1732140545,"current_range_meters":36400,"station_id":"ce4bha92rcd13ifvqeg0","pricing_plan_id":"cebpf4jnsgd1na2vs0mg"},{"bike_id":"e111497a-d4fd-42f1-8cad-a348b2f62072","system_id":"levelo_inurba_marseille","lat":43.29538,"lon":5.38528,"is_reserved":false,"is_disabled":false,"rental_uris":{"android":"levelo://app?vid=e111497a-d4fd-42f1-8cad-a348b2f62072","ios":"levelo://app?vid=e111497a-d4fd-42f1-8cad-a348b2f62072"},"vehicle_type_id":"4","last_reported":1732140545,"current_range_meters":29600,"station_id":"ce4bgih2rcd13ifvqba0","pricing_plan_id":"cebpf4jnsgd1na2vs0mg"},{"bike_id":"b776332e-40d1-4fd6-9c65-32803e6de98b","system_id":"levelo_inurba_marseille","lat":43.30145,"lon":5.37416,"is_reserved":false,"is_disabled":true,"rental_uris":{"android":"levelo://app?vid=b776332e-40d1-4fd6-9c65-32803e6de98b","ios":"levelo://app?vid=b776332e-40d1-4fd6-9c65-32803e6de98b"},"vehicle_type_id":"4","last_reported":1732140545,"current_range_meters":0,"station_id":"ce4bgs92rcd13ifvqcc0","pricing_plan_id":"cebpf4jnsgd1na2vs0mg"},{"bike_id":"164c7967-3886-4dcf-b294-d62deb8a5bf2","system_id":"levelo_inurba_marseille","lat":43.27967,"lon":5.38727,"is_reserved":false,"is_disabled":false,"rental_uris":{"android":"levelo://app?vid=164c7967-3886-4dcf-b294-d62deb8a5bf2","ios":"levelo://app?vid=164c7967-3886-4dcf-b294-d62deb8a5bf2"},"vehicle_type_id":"4","last_reported":1732140545,"current_range_meters":25600,"station_id":"ce4bhg12rcd13ifvqf80","pricing_plan_id":"cebpf4jnsgd1na2vs0mg"},{"bike_id":"c3f711be-2e85-4973-a43e-d27f4f0a4d67","system_id":"levelo_inurba_marseille","lat":43.30434,"lon":5.38889,"is_reserved":false,"is_disabled":false,"rental_uris":{"android":"levelo://app?vid=c3f711be-2e85-4973-a43e-d27f4f0a4d67","ios":"levelo://app?vid=c3f711be-2e85-4973-a43e-d27f4f0a4d67"},"vehicle_type_id":"4","last_reported":1732140545,"current_range_meters":19600,"station_id":"ce4bgk12rcd13ifvqbi0","pricing_plan_id":"cebpf4jnsgd1na2vs0mg"},{"bike_id":"ff3bb67e-8514-461f-bccb-5b6740d7d50b","system_id":"levelo_inurba_marseille","lat":43.25108,"lon":5.40324,"is_reserved":false,"is_disabled":false,"rental_uris":{"android":"levelo://app?vid=ff3bb67e-8514-461f-bccb-5b6740d7d50b","ios":"levelo://app?vid=ff3bb67e-8514-461f-bccb-5b6740d7d50b"},"vehicle_type_id":"4","last_reported":1732140545,"current_range_meters":28000,"station_id":"ce4bhlh2rcd13ifvqgig","pricing_plan_id":"cebpf4jnsgd1na2vs0mg"},{"bike_id":"8c0fad5b-09fe-44a2-9d48-caadd5b9d707","system_id":"levelo_inurba_marseille","lat":43.29199,"lon":5.35802,"is_reserved":false,"is_disabled":false,"rental_uris":{"android":"levelo://app?vid=8c0fad5b-09fe-44a2-9d48-caadd5b9d707","ios":"levelo://app?vid=8c0fad5b-09fe-44a2-9d48-caadd5b9d707"},"vehicle_type_id":"4","last_reported":1732140545,"current_range_meters":38800,"station_id":"ce4bhb12rcd13ifvqel0","pricing_plan_id":"cebpf4jnsgd1na2vs0mg"},{"bike_id":"fc6c68b6-636b-4d9b-b53a-91bdb2ed5b09","system_id":"levelo_inurba_marseille","lat":43.25089,"lon":5.39539,"is_reserved":false,"is_disabled":false,"rental_uris":{"android":"levelo://app?vid=fc6c68b6-636b-4d9b-b53a-91bdb2ed5b09","ios":"levelo://app?vid=fc6c68b6-636b-4d9b-b53a-91bdb2ed5b09"},"vehicle_type_id":"4","last_reported":1732140545,"current_range_meters":20400,"station_id":"ce4bhm12rcd13ifvqgkg","pricing_plan_id":"cebpf4jnsgd1na2vs0mg"},{"bike_id":"2baca425-a899-478c-b38a-f539777dfa38","system_id":"levelo_inurba_marseille","lat":43.31171,"lon":5.38715,"is_reserved":false,"is_disabled":false,"rental_uris":{"android":"levelo://app?vid=2baca425-a899-478c-b38a-f539777dfa38","ios":"levelo://app?vid=2baca425-a899-478c-b38a-f539777dfa38"},"vehicle_type_id":"4","last_reported":1732140545,"current_range_meters":38400,"station_id":"ce4bgv12rcd13ifvqcp0","pricing_plan_id":"cebpf4jnsgd1na2vs0mg"},{"bike_id":"ee260b2f-4bee-48e2-8398-bdaeaf62204c","system_id":"levelo_inurba_marseille","lat":43.30781,"lon":5.37647,"is_reserved":false,"is_disabled":false,"rental_uris":{"android":"levelo://app?vid=ee260b2f-4bee-48e2-8398-bdaeaf62204c","ios":"levelo://app?vid=ee260b2f-4bee-48e2-8398-bdaeaf62204c"},"vehicle_type_id":"4","last_reported":1732140545,"current_range_meters":28400,"station_id":"ce4bgv92rcd13ifvqcq0","pricing_plan_id":"cebpf4jnsgd1na2vs0mg"},{"bike_id":"f0eb0177-3b7b-4acf-baac-50e092ade7a5","system_id":"levelo_inurba_marseille","lat":43.29779,"lon":5.37104,"is_reserved":false,"is_disabled":false,"rental_uris":{"android":"levelo://app?vid=f0eb0177-3b7b-4acf-baac-50e092ade7a5","ios":"levelo://app?vid=f0eb0177-3b7b-4acf-baac-50e092ade7a5"},"vehicle_type_id":"4","last_reported":1732140545,"current_range_meters":38400,"station_id":"ce4bgop2rcd13ifvqc1g","pricing_plan_id":"cebpf4jnsgd1na2vs0mg"},{"bike_id":"a016d8fe-eb7d-41b4-9004-329ced9e07b5","system_id":"levelo_inurba_marseille","lat":43.31712,"lon":5.37763,"is_reserved":false,"is_disabled":false,"rental_uris":{"android":"levelo://app?vid=a016d8fe-eb7d-41b4-9004-329ced9e07b5","ios":"levelo://app?vid=a016d8fe-eb7d-41b4-9004-329ced9e07b5"},"vehicle_type_id":"4","last_reported":1732140545,"current_range_meters":38000,"station_id":"ce4bgth2rcd13ifvqch0","pricing_plan_id":"cebpf4jnsgd1na2vs0mg"},{"bike_id":"f51e54a3-f758-4e74-b253-f2fdae0174fa","system_id":"levelo_inurba_marseille","lat":43.24998,"lon":5.38933,"is_reserved":false,"is_disabled":false,"rental_uris":{"android":"levelo://app?vid=f51e54a3-f758-4e74-b253-f2fdae0174fa","ios":"levelo://app?vid=f51e54a3-f758-4e74-b253-f2fdae0174fa"},"vehicle_type_id":"4","last_reported":1732140545,"current_range_meters":38000,"station_id":"ce4bhgp2rcd13ifvqfd0","pricing_plan_id":"cebpf4jnsgd1na2vs0mg"},{"bike_id":"5d65b627-3435-4723-9775-b5218e9b2a7a","system_id":"levelo_inurba_marseille","lat":43.27207,"lon":5.39195,"is_reserved":false,"is_disabled":true,"rental_uris":{"android":"levelo://app?vid=5d65b627-3435-4723-9775-b5218e9b2a7a","ios":"levelo://app?vid=5d65b627-3435-4723-9775-b5218e9b2a7a"},"vehicle_type_id":"4","last_reported":1732140545,"current_range_meters":8800,"station_id":"ce4bhhp2rcd13ifvqfm0","pricing_plan_id":"cebpf4jnsgd1na2vs0mg"},{"bike_id":"a76dbb23-03c6-45cf-8d76-e66984ab51b9","system_id":"levelo_inurba_marseille","lat":43.29593,"lon":5.36735,"is_reserved":false,"is_disabled":false,"rental_uris":{"android":"levelo://app?vid=a76dbb23-03c6-45cf-8d76-e66984ab51b9","ios":"levelo://app?vid=a76dbb23-03c6-45cf-8d76-e66984ab51b9"},"vehicle_type_id":"4","last_reported":1732140545,"current_range_meters":37600,"station_id":"ce4bgph2rcd13ifvqc2g","pricing_plan_id":"cebpf4jnsgd1na2vs0mg"},{"bike_id":"32c2fe9f-a607-4c07-a100-4beef28636ed","system_id":"levelo_inurba_marseille","lat":43.32486,"lon":5.36578,"is_reserved":false,"is_disabled":false,"rental_uris":{"android":"levelo://app?vid=32c2fe9f-a607-4c07-a100-4beef28636ed","ios":"levelo://app?vid=32c2fe9f-a607-4c07-a100-4beef28636ed"},"vehicle_type_id":"4","last_reported":1732140545,"current_range_meters":28400,"station_id":"ce4bhs12rcd13ifvqhvg","pricing_plan_id":"cebpf4jnsgd1na2vs0mg"},{"bike_id":"0bd89ca8-bea4-4da0-a3d1-2de4f9af7148","system_id":"levelo_inurba_marseille","lat":43.25106,"lon":5.4033,"is_reserved":false,"is_disabled":false,"rental_uris":{"android":"levelo://app?vid=0bd89ca8-bea4-4da0-a3d1-2de4f9af7148","ios":"levelo://app?vid=0bd89ca8-bea4-4da0-a3d1-2de4f9af7148"},"vehicle_type_id":"4","last_reported":1732140545,"current_range_meters":18000,"station_id":"ce4bhlh2rcd13ifvqgig","pricing_plan_id":"cebpf4jnsgd1na2vs0mg"},{"bike_id":"1904e4d6-e1e0-456f-9800-8b0e0e7107b4","system_id":"levelo_inurba_marseille","lat":43.23153,"lon":5.4371,"is_reserved":false,"is_disabled":false,"rental_uris":{"android":"levelo://app?vid=1904e4d6-e1e0-456f-9800-8b0e0e7107b4","ios":"levelo://app?vid=1904e4d6-e1e0-456f-9800-8b0e0e7107b4"},"vehicle_type_id":"4","last_reported":1732140545,"current_range_meters":38800,"station_id":"ce4bhmp2rcd13ifvqgog","pricing_plan_id":"cebpf4jnsgd1na2vs0mg"},{"bike_id":"05680f2f-2fea-4b10-8add-5b0bf1db0394","system_id":"levelo_inurba_marseille","lat":43.278394,"lon":5.392116,"is_reserved":false,"is_disabled":false,"rental_uris":{"android":"levelo://app?vid=05680f2f-2fea-4b10-8add-5b0bf1db0394","ios":"levelo://app?vid=05680f2f-2fea-4b10-8add-5b0bf1db0394"},"vehicle_type_id":"4","last_reported":1732140545,"current_range_meters":30000,"station_id":"ce4bhjp2rcd13ifvqga0","pricing_plan_id":"cebpf4jnsgd1na2vs0mg"},{"bike_id":"13ce51bb-07b8-4973-a902-fa25b3e42bc3","system_id":"levelo_inurba_marseille","lat":43.25105,"lon":5.40325,"is_reserved":false,"is_disabled":false,"rental_uris":{"android":"levelo://app?vid=13ce51bb-07b8-4973-a902-fa25b3e42bc3","ios":"levelo://app?vid=13ce51bb-07b8-4973-a902-fa25b3e42bc3"},"vehicle_type_id":"4","last_reported":1732140545,"current_range_meters":40000,"station_id":"ce4bhlh2rcd13ifvqgig","pricing_plan_id":"cebpf4jnsgd1na2vs0mg"},{"bike_id":"1eff5ce5-2d56-4465-a12c-60db9ec2175a","system_id":"levelo_inurba_marseille","lat":43.22928,"lon":5.3538,"is_reserved":false,"is_disabled":false,"rental_uris":{"android":"levelo://app?vid=1eff5ce5-2d56-4465-a12c-60db9ec2175a","ios":"levelo://app?vid=1eff5ce5-2d56-4465-a12c-60db9ec2175a"},"vehicle_type_id":"4","last_reported":1732140545,"current_range_meters":13600,"station_id":"cpo3532slgdg3j2ikp40","pricing_plan_id":"cebpf4jnsgd1na2vs0mg"},{"bike_id":"a52e2ea1-e7f5-4a38-9dc8-ee8f57422349","system_id":"levelo_inurba_marseille","lat":43.25829,"lon":5.39431,"is_reserved":false,"is_disabled":false,"rental_uris":{"android":"levelo://app?vid=a52e2ea1-e7f5-4a38-9dc8-ee8f57422349","ios":"levelo://app?vid=a52e2ea1-e7f5-4a38-9dc8-ee8f57422349"},"vehicle_type_id":"4","last_reported":1732140545,"current_range_meters":22800,"station_id":"ce4bhip2rcd13ifvqft0","pricing_plan_id":"cebpf4jnsgd1na2vs0mg"},{"bike_id":"ce6d46e5-4223-4bce-a0db-85f63ca84039","system_id":"levelo_inurba_marseille","lat":43.30148,"lon":5.40037,"is_reserved":false,"is_disabled":false,"rental_uris":{"android":"levelo://app?vid=ce6d46e5-4223-4bce-a0db-85f63ca84039","ios":"levelo://app?vid=ce6d46e5-4223-4bce-a0db-85f63ca84039"},"vehicle_type_id":"4","last_reported":1732140545,"current_range_meters":5600,"station_id":"","pricing_plan_id":"cebpf4jnsgd1na2vs0mg"},{"bike_id":"f1126846-151c-41db-a723-1b5f4b356b87","system_id":"levelo_inurba_marseille","lat":43.32363,"lon":5.38884,"is_reserved":false,"is_disabled":true,"rental_uris":{"android":"levelo://app?vid=f1126846-151c-41db-a723-1b5f4b356b87","ios":"levelo://app?vid=f1126846-151c-41db-a723-1b5f4b356b87"},"vehicle_type_id":"4","last_reported":1732140545,"current_range_meters":11600,"station_id":"ce4bhqp2rcd13ifvqhog","pricing_plan_id":"cebpf4jnsgd1na2vs0mg"},{"bike_id":"1bcc5bb7-eeb4-432b-a309-4eb5e6a644d6","system_id":"levelo_inurba_marseille","lat":43.29418,"lon":5.38625,"is_reserved":false,"is_disabled":false,"rental_uris":{"android":"levelo://app?vid=1bcc5bb7-eeb4-432b-a309-4eb5e6a644d6","ios":"levelo://app?vid=1bcc5bb7-eeb4-432b-a309-4eb5e6a644d6"},"vehicle_type_id":"4","last_reported":1732140545,"current_range_meters":28400,"station_id":"ce4bh2h2rcd13ifvqdh0","pricing_plan_id":"cebpf4jnsgd1na2vs0mg"},{"bike_id":"f36ae559-0d97-4859-8351-5ad995600dc1","system_id":"levelo_inurba_marseille","lat":43.29418,"lon":5.3863,"is_reserved":false,"is_disabled":false,"rental_uris":{"android":"levelo://app?vid=f36ae559-0d97-4859-8351-5ad995600dc1","ios":"levelo://app?vid=f36ae559-0d97-4859-8351-5ad995600dc1"},"vehicle_type_id":"4","last_reported":1732140545,"current_range_meters":38000,"station_id":"ce4bh2h2rcd13ifvqdh0","pricing_plan_id":"cebpf4jnsgd1na2vs0mg"},{"bike_id":"954054ad-77ac-46c3-a1b5-c8fc266a522b","system_id":"levelo_inurba_marseille","lat":43.31725,"lon":5.42397,"is_reserved":false,"is_disabled":false,"rental_uris":{"android":"levelo://app?vid=954054ad-77ac-46c3-a1b5-c8fc266a522b","ios":"levelo://app?vid=954054ad-77ac-46c3-a1b5-c8fc266a522b"},"vehicle_type_id":"4","last_reported":1732140545,"current_range_meters":38800,"station_id":"ce4bhp92rcd13ifvqhbg","pricing_plan_id":"cebpf4jnsgd1na2vs0mg"},{"bike_id":"16c15316-cac2-48e5-8801-13b9178fa2e5","system_id":"levelo_inurba_marseille","lat":43.28458,"lon":5.35888,"is_reserved":false,"is_disabled":false,"rental_uris":{"android":"levelo://app?vid=16c15316-cac2-48e5-8801-13b9178fa2e5","ios":"levelo://app?vid=16c15316-cac2-48e5-8801-13b9178fa2e5"},"vehicle_type_id":"4","last_reported":1732140545,"current_range_meters":38000,"station_id":"ce4bhah2rcd13ifvqei0","pricing_plan_id":"cebpf4jnsgd1na2vs0mg"},{"bike_id":"9c4a655e-2680-4a60-a844-6a2ea62fb4b1","system_id":"levelo_inurba_marseille","lat":43.2607,"lon":5.394,"is_reserved":false,"is_disabled":false,"rental_uris":{"android":"levelo://app?vid=9c4a655e-2680-4a60-a844-6a2ea62fb4b1","ios":"levelo://app?vid=9c4a655e-2680-4a60-a844-6a2ea62fb4b1"},"vehicle_type_id":"4","last_reported":1732140545,"current_range_meters":23200,"station_id":"ce4bhh92rcd13ifvqfj0","pricing_plan_id":"cebpf4jnsgd1na2vs0mg"},{"bike_id":"b5db6422-b331-470e-b304-a54dae072156","system_id":"levelo_inurba_marseille","lat":43.255,"lon":5.37653,"is_reserved":false,"is_disabled":false,"rental_uris":{"android":"levelo://app?vid=b5db6422-b331-470e-b304-a54dae072156","ios":"levelo://app?vid=b5db6422-b331-470e-b304-a54dae072156"},"vehicle_type_id":"4","last_reported":1732140545,"current_range_meters":40000,"station_id":"ce4bhh12rcd13ifvqff0","pricing_plan_id":"cebpf4jnsgd1na2vs0mg"},{"bike_id":"5a4c4afd-7e77-4fb4-a40d-a8d30737b2da","system_id":"levelo_inurba_marseille","lat":43.28467,"lon":5.35896,"is_reserved":false,"is_disabled":false,"rental_uris":{"android":"levelo://app?vid=5a4c4afd-7e77-4fb4-a40d-a8d30737b2da","ios":"levelo://app?vid=5a4c4afd-7e77-4fb4-a40d-a8d30737b2da"},"vehicle_type_id":"4","last_reported":1732140545,"current_range_meters":39200,"station_id":"ce4bhah2rcd13ifvqei0","pricing_plan_id":"cebpf4jnsgd1na2vs0mg"},{"bike_id":"859f707c-529b-41cd-8126-f21cb33e91a1","system_id":"levelo_inurba_marseille","lat":43.28418,"lon":5.37513,"is_reserved":false,"is_disabled":false,"rental_uris":{"android":"levelo://app?vid=859f707c-529b-41cd-8126-f21cb33e91a1","ios":"levelo://app?vid=859f707c-529b-41cd-8126-f21cb33e91a1"},"vehicle_type_id":"4","last_reported":1732140545,"current_range_meters":19200,"station_id":"ce4bh412rcd13ifvqds0","pricing_plan_id":"cebpf4jnsgd1na2vs0mg"},{"bike_id":"e840fe4f-47a0-4d31-8133-7c332a3d517a","system_id":"levelo_inurba_marseille","lat":43.31078,"lon":5.42432,"is_reserved":false,"is_disabled":true,"rental_uris":{"android":"levelo://app?vid=e840fe4f-47a0-4d31-8133-7c332a3d517a","ios":"levelo://app?vid=e840fe4f-47a0-4d31-8133-7c332a3d517a"},"vehicle_type_id":"4","last_reported":1732140545,"current_range_meters":9200,"station_id":"ce4bhp92rcd13ifvqhag","pricing_plan_id":"cebpf4jnsgd1na2vs0mg"},{"bike_id":"fbdc3998-a170-4688-bc44-6f50e3f8a7d1","system_id":"levelo_inurba_marseille","lat":43.28142,"lon":5.44203,"is_reserved":false,"is_disabled":false,"rental_uris":{"android":"levelo://app?vid=fbdc3998-a170-4688-bc44-6f50e3f8a7d1","ios":"levelo://app?vid=fbdc3998-a170-4688-bc44-6f50e3f8a7d1"},"vehicle_type_id":"4","last_reported":1732140545,"current_range_meters":29600,"station_id":"","pricing_plan_id":"cebpf4jnsgd1na2vs0mg"},{"bike_id":"1a4f8d92-aad0-4674-933e-bf91d4e65d01","system_id":"levelo_inurba_marseille","lat":43.28703,"lon":5.40003,"is_reserved":false,"is_disabled":false,"rental_uris":{"android":"levelo://app?vid=1a4f8d92-aad0-4674-933e-bf91d4e65d01","ios":"levelo://app?vid=1a4f8d92-aad0-4674-933e-bf91d4e65d01"},"vehicle_type_id":"4","last_reported":1732140545,"current_range_meters":38800,"station_id":"ce4bho92rcd13ifvqh3g","pricing_plan_id":"cebpf4jnsgd1na2vs0mg"},{"bike_id":"d0b25063-484d-4898-a808-84974f7eed8c","system_id":"levelo_inurba_marseille","lat":43.31705,"lon":5.37763,"is_reserved":false,"is_disabled":false,"rental_uris":{"android":"levelo://app?vid=d0b25063-484d-4898-a808-84974f7eed8c","ios":"levelo://app?vid=d0b25063-484d-4898-a808-84974f7eed8c"},"vehicle_type_id":"4","last_reported":1732140545,"current_range_meters":33600,"station_id":"ce4bgth2rcd13ifvqch0","pricing_plan_id":"cebpf4jnsgd1na2vs0mg"},{"bike_id":"f6ca9245-191f-4978-98c5-b08ce79f5b19","system_id":"levelo_inurba_marseille","lat":43.25868,"lon":5.39897,"is_reserved":false,"is_disabled":false,"rental_uris":{"android":"levelo://app?vid=f6ca9245-191f-4978-98c5-b08ce79f5b19","ios":"levelo://app?vid=f6ca9245-191f-4978-98c5-b08ce79f5b19"},"vehicle_type_id":"4","last_reported":1732140545,"current_range_meters":25200,"station_id":"ce4bhl92rcd13ifvqghg","pricing_plan_id":"cebpf4jnsgd1na2vs0mg"},{"bike_id":"cdc669b1-1386-4128-9157-6d015b1c1fd5","system_id":"levelo_inurba_marseille","lat":43.2952,"lon":5.39037,"is_reserved":false,"is_disabled":false,"rental_uris":{"android":"levelo://app?vid=cdc669b1-1386-4128-9157-6d015b1c1fd5","ios":"levelo://app?vid=cdc669b1-1386-4128-9157-6d015b1c1fd5"},"vehicle_type_id":"4","last_reported":1732140545,"current_range_meters":30000,"station_id":"ce4bh3p2rcd13ifvqdp0","pricing_plan_id":"cebpf4jnsgd1na2vs0mg"},{"bike_id":"082b9d39-45f7-4d49-921a-db168541fb46","system_id":"levelo_inurba_marseille","lat":43.29277,"lon":5.36843,"is_reserved":false,"is_disabled":false,"rental_uris":{"android":"levelo://app?vid=082b9d39-45f7-4d49-921a-db168541fb46","ios":"levelo://app?vid=082b9d39-45f7-4d49-921a-db168541fb46"},"vehicle_type_id":"4","last_reported":1732140545,"current_range_meters":10800,"station_id":"ce4bhbp2rcd13ifvqesg","pricing_plan_id":"cebpf4jnsgd1na2vs0mg"},{"bike_id":"98b32e58-9186-4741-afff-13e77a09e04c","system_id":"levelo_inurba_marseille","lat":43.25083,"lon":5.39518,"is_reserved":false,"is_disabled":false,"rental_uris":{"android":"levelo://app?vid=98b32e58-9186-4741-afff-13e77a09e04c","ios":"levelo://app?vid=98b32e58-9186-4741-afff-13e77a09e04c"},"vehicle_type_id":"4","last_reported":1732140545,"current_range_meters":24800,"station_id":"ce4bhm12rcd13ifvqgkg","pricing_plan_id":"cebpf4jnsgd1na2vs0mg"},{"bike_id":"9b3fbf62-4f4c-46b4-9c62-9854a41b7d49","system_id":"levelo_inurba_marseille","lat":43.31709,"lon":5.3777,"is_reserved":false,"is_disabled":false,"rental_uris":{"android":"levelo://app?vid=9b3fbf62-4f4c-46b4-9c62-9854a41b7d49","ios":"levelo://app?vid=9b3fbf62-4f4c-46b4-9c62-9854a41b7d49"},"vehicle_type_id":"4","last_reported":1732140545,"current_range_meters":38000,"station_id":"ce4bgth2rcd13ifvqch0","pricing_plan_id":"cebpf4jnsgd1na2vs0mg"},{"bike_id":"7eaf5910-b4db-4259-961f-d6ce83b4b295","system_id":"levelo_inurba_marseille","lat":43.33765,"lon":5.37438,"is_reserved":false,"is_disabled":false,"rental_uris":{"android":"levelo://app?vid=7eaf5910-b4db-4259-961f-d6ce83b4b295","ios":"levelo://app?vid=7eaf5910-b4db-4259-961f-d6ce83b4b295"},"vehicle_type_id":"4","last_reported":1732140545,"current_range_meters":38000,"station_id":"","pricing_plan_id":"cebpf4jnsgd1na2vs0mg"},{"bike_id":"42d6fa67-3d3d-427c-a63a-15e267a4a6ee","system_id":"levelo_inurba_marseille","lat":43.27948,"lon":5.41051,"is_reserved":false,"is_disabled":true,"rental_uris":{"android":"levelo://app?vid=42d6fa67-3d3d-427c-a63a-15e267a4a6ee","ios":"levelo://app?vid=42d6fa67-3d3d-427c-a63a-15e267a4a6ee"},"vehicle_type_id":"4","last_reported":1732140545,"current_range_meters":26800,"station_id":"ce4bhnp2rcd13ifvqh0g","pricing_plan_id":"cebpf4jnsgd1na2vs0mg"},{"bike_id":"61129a2e-f54e-4abd-9783-65a799089cf6","system_id":"levelo_inurba_marseille","lat":43.29866,"lon":5.39738,"is_reserved":false,"is_disabled":false,"rental_uris":{"android":"levelo://app?vid=61129a2e-f54e-4abd-9783-65a799089cf6","ios":"levelo://app?vid=61129a2e-f54e-4abd-9783-65a799089cf6"},"vehicle_type_id":"4","last_reported":1732140545,"current_range_meters":38800,"station_id":"ce4bh0h2rcd13ifvqd50","pricing_plan_id":"cebpf4jnsgd1na2vs0mg"},{"bike_id":"e8fbb90d-dd91-4756-8f7a-64af842760a6","system_id":"levelo_inurba_marseille","lat":43.30803,"lon":5.43525,"is_reserved":false,"is_disabled":false,"rental_uris":{"android":"levelo://app?vid=e8fbb90d-dd91-4756-8f7a-64af842760a6","ios":"levelo://app?vid=e8fbb90d-dd91-4756-8f7a-64af842760a6"},"vehicle_type_id":"4","last_reported":1732140545,"current_range_meters":27200,"station_id":"ce4bhph2rcd13ifvqheg","pricing_plan_id":"cebpf4jnsgd1na2vs0mg"},{"bike_id":"355652fe-5b40-4fa8-84ba-669e96205bc5","system_id":"levelo_inurba_marseille","lat":43.319955,"lon":5.381452,"is_reserved":false,"is_disabled":false,"rental_uris":{"android":"levelo://app?vid=355652fe-5b40-4fa8-84ba-669e96205bc5","ios":"levelo://app?vid=355652fe-5b40-4fa8-84ba-669e96205bc5"},"vehicle_type_id":"4","last_reported":1732140545,"current_range_meters":38800,"station_id":"ce4bhr12rcd13ifvqhpg","pricing_plan_id":"cebpf4jnsgd1na2vs0mg"},{"bike_id":"bfb6173a-2f97-4268-ac2c-bb43c817bc4d","system_id":"levelo_inurba_marseille","lat":43.2656,"lon":5.37282,"is_reserved":false,"is_disabled":false,"rental_uris":{"android":"levelo://app?vid=bfb6173a-2f97-4268-ac2c-bb43c817bc4d","ios":"levelo://app?vid=bfb6173a-2f97-4268-ac2c-bb43c817bc4d"},"vehicle_type_id":"4","last_reported":1732140545,"current_range_meters":36800,"station_id":"ce4bhg12rcd13ifvqf70","pricing_plan_id":"cebpf4jnsgd1na2vs0mg"},{"bike_id":"5b5f4604-3a82-4584-a08b-4bc79bf3d12b","system_id":"levelo_inurba_marseille","lat":43.30911,"lon":5.37169,"is_reserved":false,"is_disabled":false,"rental_uris":{"android":"levelo://app?vid=5b5f4604-3a82-4584-a08b-4bc79bf3d12b","ios":"levelo://app?vid=5b5f4604-3a82-4584-a08b-4bc79bf3d12b"},"vehicle_type_id":"4","last_reported":1732140545,"current_range_meters":12000,"station_id":"ce4bguh2rcd13ifvqckg","pricing_plan_id":"cebpf4jnsgd1na2vs0mg"},{"bike_id":"9578ee9f-beb9-42e9-a863-107df67e6c7b","system_id":"levelo_inurba_marseille","lat":43.25867,"lon":5.39908,"is_reserved":false,"is_disabled":false,"rental_uris":{"android":"levelo://app?vid=9578ee9f-beb9-42e9-a863-107df67e6c7b","ios":"levelo://app?vid=9578ee9f-beb9-42e9-a863-107df67e6c7b"},"vehicle_type_id":"4","last_reported":1732140545,"current_range_meters":20400,"station_id":"ce4bhl92rcd13ifvqghg","pricing_plan_id":"cebpf4jnsgd1na2vs0mg"},{"bike_id":"7555e647-a0cf-4fd7-83ce-4ae75659fd4c","system_id":"levelo_inurba_marseille","lat":43.30643,"lon":5.40106,"is_reserved":false,"is_disabled":false,"rental_uris":{"android":"levelo://app?vid=7555e647-a0cf-4fd7-83ce-4ae75659fd4c","ios":"levelo://app?vid=7555e647-a0cf-4fd7-83ce-4ae75659fd4c"},"vehicle_type_id":"4","last_reported":1732140545,"current_range_meters":35200,"station_id":"ce4bh112rcd13ifvqda0","pricing_plan_id":"cebpf4jnsgd1na2vs0mg"},{"bike_id":"cae080ee-7c9f-46a0-b9fc-d77e4f0f6295","system_id":"levelo_inurba_marseille","lat":43.34005,"lon":5.42287,"is_reserved":false,"is_disabled":false,"rental_uris":{"android":"levelo://app?vid=cae080ee-7c9f-46a0-b9fc-d77e4f0f6295","ios":"levelo://app?vid=cae080ee-7c9f-46a0-b9fc-d77e4f0f6295"},"vehicle_type_id":"4","last_reported":1732140545,"current_range_meters":4400,"station_id":"","pricing_plan_id":"cebpf4jnsgd1na2vs0mg"},{"bike_id":"42b8e8d9-96d9-4aa4-b76a-58d958bbfd31","system_id":"levelo_inurba_marseille","lat":43.28722,"lon":5.36087,"is_reserved":false,"is_disabled":false,"rental_uris":{"android":"levelo://app?vid=42b8e8d9-96d9-4aa4-b76a-58d958bbfd31","ios":"levelo://app?vid=42b8e8d9-96d9-4aa4-b76a-58d958bbfd31"},"vehicle_type_id":"4","last_reported":1732140545,"current_range_meters":30000,"station_id":"cki0cbj6b192h4jlfktg","pricing_plan_id":"cebpf4jnsgd1na2vs0mg"},{"bike_id":"a13d3387-f991-4615-ad72-55b943b5271f","system_id":"levelo_inurba_marseille","lat":43.29008,"lon":5.35616,"is_reserved":false,"is_disabled":false,"rental_uris":{"android":"levelo://app?vid=a13d3387-f991-4615-ad72-55b943b5271f","ios":"levelo://app?vid=a13d3387-f991-4615-ad72-55b943b5271f"},"vehicle_type_id":"4","last_reported":1732140545,"current_range_meters":36800,"station_id":"ce4bhb92rcd13ifvqen0","pricing_plan_id":"cebpf4jnsgd1na2vs0mg"},{"bike_id":"efaa20f7-d2fb-4778-9ca3-b17e9193d440","system_id":"levelo_inurba_marseille","lat":43.33715,"lon":5.39181,"is_reserved":false,"is_disabled":false,"rental_uris":{"android":"levelo://app?vid=efaa20f7-d2fb-4778-9ca3-b17e9193d440","ios":"levelo://app?vid=efaa20f7-d2fb-4778-9ca3-b17e9193d440"},"vehicle_type_id":"4","last_reported":1732140545,"current_range_meters":32400,"station_id":"ce4bhr92rcd13ifvqhsg","pricing_plan_id":"cebpf4jnsgd1na2vs0mg"},{"bike_id":"aba241e1-89f6-4d1b-8913-170b48ceb347","system_id":"levelo_inurba_marseille","lat":43.30612,"lon":5.37234,"is_reserved":false,"is_disabled":false,"rental_uris":{"android":"levelo://app?vid=aba241e1-89f6-4d1b-8913-170b48ceb347","ios":"levelo://app?vid=aba241e1-89f6-4d1b-8913-170b48ceb347"},"vehicle_type_id":"4","last_reported":1732140545,"current_range_meters":36400,"station_id":"ce4bgqh2rcd13ifvqc4g","pricing_plan_id":"cebpf4jnsgd1na2vs0mg"},{"bike_id":"ea1d4a8d-18d8-4559-aa2a-3582f71fc0b4","system_id":"levelo_inurba_marseille","lat":43.2481,"lon":5.3746,"is_reserved":false,"is_disabled":false,"rental_uris":{"android":"levelo://app?vid=ea1d4a8d-18d8-4559-aa2a-3582f71fc0b4","ios":"levelo://app?vid=ea1d4a8d-18d8-4559-aa2a-3582f71fc0b4"},"vehicle_type_id":"4","last_reported":1732140545,"current_range_meters":38800,"station_id":"ce4bhgh2rcd13ifvqfb0","pricing_plan_id":"cebpf4jnsgd1na2vs0mg"},{"bike_id":"7a942108-16ea-4f98-9d80-82c238759071","system_id":"levelo_inurba_marseille","lat":43.29568,"lon":5.39964,"is_reserved":false,"is_disabled":true,"rental_uris":{"android":"levelo://app?vid=7a942108-16ea-4f98-9d80-82c238759071","ios":"levelo://app?vid=7a942108-16ea-4f98-9d80-82c238759071"},"vehicle_type_id":"4","last_reported":1732140545,"current_range_meters":37600,"station_id":"ce4bh312rcd13ifvqdj0","pricing_plan_id":"cebpf4jnsgd1na2vs0mg"},{"bike_id":"028e5427-36e2-49e1-b3db-260058fffb58","system_id":"levelo_inurba_marseille","lat":43.25579,"lon":5.38251,"is_reserved":false,"is_disabled":false,"rental_uris":{"android":"levelo://app?vid=028e5427-36e2-49e1-b3db-260058fffb58","ios":"levelo://app?vid=028e5427-36e2-49e1-b3db-260058fffb58"},"vehicle_type_id":"4","last_reported":1732140545,"current_range_meters":26000,"station_id":"ce4bhih2rcd13ifvqfs0","pricing_plan_id":"cebpf4jnsgd1na2vs0mg"},{"bike_id":"91f0893f-6c9c-447a-87d6-53127af86d60","system_id":"levelo_inurba_marseille","lat":43.2509,"lon":5.39516,"is_reserved":false,"is_disabled":false,"rental_uris":{"android":"levelo://app?vid=91f0893f-6c9c-447a-87d6-53127af86d60","ios":"levelo://app?vid=91f0893f-6c9c-447a-87d6-53127af86d60"},"vehicle_type_id":"4","last_reported":1732140545,"current_range_meters":19600,"station_id":"ce4bhm12rcd13ifvqgkg","pricing_plan_id":"cebpf4jnsgd1na2vs0mg"},{"bike_id":"7a819cbc-724f-43b2-80f1-3933d3cf2029","system_id":"levelo_inurba_marseille","lat":43.30779,"lon":5.37652,"is_reserved":false,"is_disabled":false,"rental_uris":{"android":"levelo://app?vid=7a819cbc-724f-43b2-80f1-3933d3cf2029","ios":"levelo://app?vid=7a819cbc-724f-43b2-80f1-3933d3cf2029"},"vehicle_type_id":"4","last_reported":1732140545,"current_range_meters":25600,"station_id":"ce4bgv92rcd13ifvqcq0","pricing_plan_id":"cebpf4jnsgd1na2vs0mg"},{"bike_id":"7e17a81f-3b24-49e1-a5fc-e88f9462d78d","system_id":"levelo_inurba_marseille","lat":43.28431,"lon":5.40928,"is_reserved":false,"is_disabled":false,"rental_uris":{"android":"levelo://app?vid=7e17a81f-3b24-49e1-a5fc-e88f9462d78d","ios":"levelo://app?vid=7e17a81f-3b24-49e1-a5fc-e88f9462d78d"},"vehicle_type_id":"4","last_reported":1732140545,"current_range_meters":11600,"station_id":"","pricing_plan_id":"cebpf4jnsgd1na2vs0mg"},{"bike_id":"0d5efe48-32bd-461f-be09-c1d5e2d6ef37","system_id":"levelo_inurba_marseille","lat":43.32363,"lon":5.38886,"is_reserved":false,"is_disabled":false,"rental_uris":{"android":"levelo://app?vid=0d5efe48-32bd-461f-be09-c1d5e2d6ef37","ios":"levelo://app?vid=0d5efe48-32bd-461f-be09-c1d5e2d6ef37"},"vehicle_type_id":"4","last_reported":1732140545,"current_range_meters":38800,"station_id":"ce4bhqp2rcd13ifvqhog","pricing_plan_id":"cebpf4jnsgd1na2vs0mg"},{"bike_id":"8a2a8049-cbab-46a9-b113-5fc7ea4ae490","system_id":"levelo_inurba_marseille","lat":43.25109,"lon":5.40329,"is_reserved":false,"is_disabled":false,"rental_uris":{"android":"levelo://app?vid=8a2a8049-cbab-46a9-b113-5fc7ea4ae490","ios":"levelo://app?vid=8a2a8049-cbab-46a9-b113-5fc7ea4ae490"},"vehicle_type_id":"4","last_reported":1732140545,"current_range_meters":17200,"station_id":"ce4bhlh2rcd13ifvqgig","pricing_plan_id":"cebpf4jnsgd1na2vs0mg"},{"bike_id":"41b66025-5082-421d-922c-552de41f1f1b","system_id":"levelo_inurba_marseille","lat":43.33795,"lon":5.37474,"is_reserved":false,"is_disabled":false,"rental_uris":{"android":"levelo://app?vid=41b66025-5082-421d-922c-552de41f1f1b","ios":"levelo://app?vid=41b66025-5082-421d-922c-552de41f1f1b"},"vehicle_type_id":"4","last_reported":1732140545,"current_range_meters":34800,"station_id":"","pricing_plan_id":"cebpf4jnsgd1na2vs0mg"},{"bike_id":"009ac959-e326-4fa0-a654-75e82873a609","system_id":"levelo_inurba_marseille","lat":43.31755,"lon":5.39018,"is_reserved":false,"is_disabled":false,"rental_uris":{"android":"levelo://app?vid=009ac959-e326-4fa0-a654-75e82873a609","ios":"levelo://app?vid=009ac959-e326-4fa0-a654-75e82873a609"},"vehicle_type_id":"4","last_reported":1732140545,"current_range_meters":40000,"station_id":"ce4bhqp2rcd13ifvqhng","pricing_plan_id":"cebpf4jnsgd1na2vs0mg"},{"bike_id":"7577f7b0-3986-4964-af34-9253d0a52f4b","system_id":"levelo_inurba_marseille","lat":43.30365,"lon":5.41895,"is_reserved":false,"is_disabled":false,"rental_uris":{"android":"levelo://app?vid=7577f7b0-3986-4964-af34-9253d0a52f4b","ios":"levelo://app?vid=7577f7b0-3986-4964-af34-9253d0a52f4b"},"vehicle_type_id":"4","last_reported":1732140545,"current_range_meters":38800,"station_id":"ce4bhop2rcd13ifvqh7g","pricing_plan_id":"cebpf4jnsgd1na2vs0mg"},{"bike_id":"05fcd02f-dc24-4aa1-8e03-69c22eeb84bb","system_id":"levelo_inurba_marseille","lat":43.30953,"lon":5.39042,"is_reserved":false,"is_disabled":false,"rental_uris":{"android":"levelo://app?vid=05fcd02f-dc24-4aa1-8e03-69c22eeb84bb","ios":"levelo://app?vid=05fcd02f-dc24-4aa1-8e03-69c22eeb84bb"},"vehicle_type_id":"4","last_reported":1732140545,"current_range_meters":38800,"station_id":"ce4bgup2rcd13ifvqco0","pricing_plan_id":"cebpf4jnsgd1na2vs0mg"},{"bike_id":"b6a5dd45-3299-4794-bb3d-6c5c2b5a78a1","system_id":"levelo_inurba_marseille","lat":43.33023,"lon":5.39041,"is_reserved":false,"is_disabled":false,"rental_uris":{"android":"levelo://app?vid=b6a5dd45-3299-4794-bb3d-6c5c2b5a78a1","ios":"levelo://app?vid=b6a5dd45-3299-4794-bb3d-6c5c2b5a78a1"},"vehicle_type_id":"4","last_reported":1732140545,"current_range_meters":39200,"station_id":"ce4bhr92rcd13ifvqhrg","pricing_plan_id":"cebpf4jnsgd1na2vs0mg"},{"bike_id":"d2a42480-3972-46bd-8725-a6f8980a58bc","system_id":"levelo_inurba_marseille","lat":43.2858,"lon":5.39494,"is_reserved":false,"is_disabled":false,"rental_uris":{"android":"levelo://app?vid=d2a42480-3972-46bd-8725-a6f8980a58bc","ios":"levelo://app?vid=d2a42480-3972-46bd-8725-a6f8980a58bc"},"vehicle_type_id":"4","last_reported":1732140545,"current_range_meters":33600,"station_id":"ce4bh292rcd13ifvqdg0","pricing_plan_id":"cebpf4jnsgd1na2vs0mg"},{"bike_id":"4a4cc085-31f4-43ee-9696-71a106728b96","system_id":"levelo_inurba_marseille","lat":43.30935,"lon":5.40152,"is_reserved":false,"is_disabled":false,"rental_uris":{"android":"levelo://app?vid=4a4cc085-31f4-43ee-9696-71a106728b96","ios":"levelo://app?vid=4a4cc085-31f4-43ee-9696-71a106728b96"},"vehicle_type_id":"4","last_reported":1732140545,"current_range_meters":40000,"station_id":"ce4bgvp2rcd13ifvqct0","pricing_plan_id":"cebpf4jnsgd1na2vs0mg"},{"bike_id":"0cf08f2a-762a-455e-8355-389e5172d4a4","system_id":"levelo_inurba_marseille","lat":43.30327,"lon":5.40452,"is_reserved":false,"is_disabled":false,"rental_uris":{"android":"levelo://app?vid=0cf08f2a-762a-455e-8355-389e5172d4a4","ios":"levelo://app?vid=0cf08f2a-762a-455e-8355-389e5172d4a4"},"vehicle_type_id":"4","last_reported":1732140545,"current_range_meters":28000,"station_id":"ce4bh012rcd13ifvqd10","pricing_plan_id":"cebpf4jnsgd1na2vs0mg"},{"bike_id":"84a237d9-ad41-45bd-8525-9d3660ffada0","system_id":"levelo_inurba_marseille","lat":43.25112,"lon":5.40323,"is_reserved":false,"is_disabled":false,"rental_uris":{"android":"levelo://app?vid=84a237d9-ad41-45bd-8525-9d3660ffada0","ios":"levelo://app?vid=84a237d9-ad41-45bd-8525-9d3660ffada0"},"vehicle_type_id":"4","last_reported":1732140545,"current_range_meters":8800,"station_id":"ce4bhlh2rcd13ifvqgig","pricing_plan_id":"cebpf4jnsgd1na2vs0mg"},{"bike_id":"3242b0f3-4f3f-462c-b731-c30f560a3efa","system_id":"levelo_inurba_marseille","lat":43.3176,"lon":5.39029,"is_reserved":false,"is_disabled":false,"rental_uris":{"android":"levelo://app?vid=3242b0f3-4f3f-462c-b731-c30f560a3efa","ios":"levelo://app?vid=3242b0f3-4f3f-462c-b731-c30f560a3efa"},"vehicle_type_id":"4","last_reported":1732140545,"current_range_meters":28400,"station_id":"ce4bhqp2rcd13ifvqhng","pricing_plan_id":"cebpf4jnsgd1na2vs0mg"},{"bike_id":"970a6283-9597-408d-a32a-6bec2f5de1ef","system_id":"levelo_inurba_marseille","lat":43.29794,"lon":5.39359,"is_reserved":false,"is_disabled":false,"rental_uris":{"android":"levelo://app?vid=970a6283-9597-408d-a32a-6bec2f5de1ef","ios":"levelo://app?vid=970a6283-9597-408d-a32a-6bec2f5de1ef"},"vehicle_type_id":"4","last_reported":1732140545,"current_range_meters":30400,"station_id":"chh1huq6cuj3fo74tm60","pricing_plan_id":"cebpf4jnsgd1na2vs0mg"},{"bike_id":"7da372fc-3699-4a05-96fa-9342ec3ef374","system_id":"levelo_inurba_marseille","lat":43.2572,"lon":5.41118,"is_reserved":false,"is_disabled":false,"rental_uris":{"android":"levelo://app?vid=7da372fc-3699-4a05-96fa-9342ec3ef374","ios":"levelo://app?vid=7da372fc-3699-4a05-96fa-9342ec3ef374"},"vehicle_type_id":"4","last_reported":1732140545,"current_range_meters":14800,"station_id":"ce4bhkp2rcd13ifvqgd0","pricing_plan_id":"cebpf4jnsgd1na2vs0mg"},{"bike_id":"e5951ee3-4a5a-4ebb-b469-096c5188dfa3","system_id":"levelo_inurba_marseille","lat":43.23188,"lon":5.35559,"is_reserved":false,"is_disabled":false,"rental_uris":{"android":"levelo://app?vid=e5951ee3-4a5a-4ebb-b469-096c5188dfa3","ios":"levelo://app?vid=e5951ee3-4a5a-4ebb-b469-096c5188dfa3"},"vehicle_type_id":"4","last_reported":1732140545,"current_range_meters":38000,"station_id":"ce4bhu92rcd13ifvqi70","pricing_plan_id":"cebpf4jnsgd1na2vs0mg"},{"bike_id":"e5dd0dad-de8b-45fc-8e13-128857d815d3","system_id":"levelo_inurba_marseille","lat":43.30133,"lon":5.38786,"is_reserved":false,"is_disabled":false,"rental_uris":{"android":"levelo://app?vid=e5dd0dad-de8b-45fc-8e13-128857d815d3","ios":"levelo://app?vid=e5dd0dad-de8b-45fc-8e13-128857d815d3"},"vehicle_type_id":"4","last_reported":1732140545,"current_range_meters":19600,"station_id":"ce4bghh2rcd13ifvqb60","pricing_plan_id":"cebpf4jnsgd1na2vs0mg"},{"bike_id":"2ed93857-c7b4-49c1-9c7d-ca0f884a7ed1","system_id":"levelo_inurba_marseille","lat":43.24388,"lon":5.37055,"is_reserved":false,"is_disabled":false,"rental_uris":{"android":"levelo://app?vid=2ed93857-c7b4-49c1-9c7d-ca0f884a7ed1","ios":"levelo://app?vid=2ed93857-c7b4-49c1-9c7d-ca0f884a7ed1"},"vehicle_type_id":"4","last_reported":1732140545,"current_range_meters":9600,"station_id":"ce4bhhh2rcd13ifvqfk0","pricing_plan_id":"cebpf4jnsgd1na2vs0mg"},{"bike_id":"b2f6b9cf-69db-40ab-8230-689c41a2c16c","system_id":"levelo_inurba_marseille","lat":43.24165,"lon":5.36389,"is_reserved":false,"is_disabled":false,"rental_uris":{"android":"levelo://app?vid=b2f6b9cf-69db-40ab-8230-689c41a2c16c","ios":"levelo://app?vid=b2f6b9cf-69db-40ab-8230-689c41a2c16c"},"vehicle_type_id":"4","last_reported":1732140545,"current_range_meters":36400,"station_id":"cpo36qri1sfpv3e86is0","pricing_plan_id":"cebpf4jnsgd1na2vs0mg"},{"bike_id":"58a208f4-fd83-44a4-bf12-9a135848ed36","system_id":"levelo_inurba_marseille","lat":43.33725,"lon":5.39181,"is_reserved":false,"is_disabled":false,"rental_uris":{"android":"levelo://app?vid=58a208f4-fd83-44a4-bf12-9a135848ed36","ios":"levelo://app?vid=58a208f4-fd83-44a4-bf12-9a135848ed36"},"vehicle_type_id":"4","last_reported":1732140545,"current_range_meters":28000,"station_id":"ce4bhr92rcd13ifvqhsg","pricing_plan_id":"cebpf4jnsgd1na2vs0mg"},{"bike_id":"2dc62d2b-79ca-433b-ad6f-17fb4bb3bae5","system_id":"levelo_inurba_marseille","lat":43.24076,"lon":5.37758,"is_reserved":false,"is_disabled":false,"rental_uris":{"android":"levelo://app?vid=2dc62d2b-79ca-433b-ad6f-17fb4bb3bae5","ios":"levelo://app?vid=2dc62d2b-79ca-433b-ad6f-17fb4bb3bae5"},"vehicle_type_id":"4","last_reported":1732140545,"current_range_meters":36000,"station_id":"ce4bhnp2rcd13ifvqgvg","pricing_plan_id":"cebpf4jnsgd1na2vs0mg"},{"bike_id":"fb03f934-0912-4367-984b-8a8e2f4129d8","system_id":"levelo_inurba_marseille","lat":43.28846,"lon":5.3586,"is_reserved":false,"is_disabled":false,"rental_uris":{"android":"levelo://app?vid=fb03f934-0912-4367-984b-8a8e2f4129d8","ios":"levelo://app?vid=fb03f934-0912-4367-984b-8a8e2f4129d8"},"vehicle_type_id":"4","last_reported":1732140545,"current_range_meters":30800,"station_id":"ce4bhb12rcd13ifvqem0","pricing_plan_id":"cebpf4jnsgd1na2vs0mg"},{"bike_id":"2fdc2020-285e-4a6a-a71d-c29abfc6593b","system_id":"levelo_inurba_marseille","lat":43.29584,"lon":5.37499,"is_reserved":false,"is_disabled":true,"rental_uris":{"android":"levelo://app?vid=2fdc2020-285e-4a6a-a71d-c29abfc6593b","ios":"levelo://app?vid=2fdc2020-285e-4a6a-a71d-c29abfc6593b"},"vehicle_type_id":"4","last_reported":1732140545,"current_range_meters":9200,"station_id":"ce4bgh92rcd13ifvqb50","pricing_plan_id":"cebpf4jnsgd1na2vs0mg"},{"bike_id":"cce3c01b-5efd-464e-a383-7ff6f6faa608","system_id":"levelo_inurba_marseille","lat":43.31083,"lon":5.42431,"is_reserved":false,"is_disabled":false,"rental_uris":{"android":"levelo://app?vid=cce3c01b-5efd-464e-a383-7ff6f6faa608","ios":"levelo://app?vid=cce3c01b-5efd-464e-a383-7ff6f6faa608"},"vehicle_type_id":"4","last_reported":1732140545,"current_range_meters":40000,"station_id":"ce4bhp92rcd13ifvqhag","pricing_plan_id":"cebpf4jnsgd1na2vs0mg"},{"bike_id":"73b5f93b-9038-4fd3-81f2-d41cb98ee80f","system_id":"levelo_inurba_marseille","lat":43.29572,"lon":5.3998,"is_reserved":false,"is_disabled":false,"rental_uris":{"android":"levelo://app?vid=73b5f93b-9038-4fd3-81f2-d41cb98ee80f","ios":"levelo://app?vid=73b5f93b-9038-4fd3-81f2-d41cb98ee80f"},"vehicle_type_id":"4","last_reported":1732140545,"current_range_meters":38400,"station_id":"ce4bh312rcd13ifvqdj0","pricing_plan_id":"cebpf4jnsgd1na2vs0mg"},{"bike_id":"7be860b6-4147-463e-8efe-7492ef684c70","system_id":"levelo_inurba_marseille","lat":43.28404,"lon":5.37523,"is_reserved":false,"is_disabled":false,"rental_uris":{"android":"levelo://app?vid=7be860b6-4147-463e-8efe-7492ef684c70","ios":"levelo://app?vid=7be860b6-4147-463e-8efe-7492ef684c70"},"vehicle_type_id":"4","last_reported":1732140545,"current_range_meters":20400,"station_id":"ce4bh412rcd13ifvqds0","pricing_plan_id":"cebpf4jnsgd1na2vs0mg"},{"bike_id":"036145f2-25f3-431d-8452-bf74254a5141","system_id":"levelo_inurba_marseille","lat":43.31758,"lon":5.39024,"is_reserved":false,"is_disabled":false,"rental_uris":{"android":"levelo://app?vid=036145f2-25f3-431d-8452-bf74254a5141","ios":"levelo://app?vid=036145f2-25f3-431d-8452-bf74254a5141"},"vehicle_type_id":"4","last_reported":1732140545,"current_range_meters":40000,"station_id":"ce4bhqp2rcd13ifvqhng","pricing_plan_id":"cebpf4jnsgd1na2vs0mg"},{"bike_id":"43d833c0-6373-4cdf-a54e-7a080d164dca","system_id":"levelo_inurba_marseille","lat":43.30792,"lon":5.38158,"is_reserved":false,"is_disabled":false,"rental_uris":{"android":"levelo://app?vid=43d833c0-6373-4cdf-a54e-7a080d164dca","ios":"levelo://app?vid=43d833c0-6373-4cdf-a54e-7a080d164dca"},"vehicle_type_id":"4","last_reported":1732140545,"current_range_meters":36800,"station_id":"ce4bgt12rcd13ifvqce0","pricing_plan_id":"cebpf4jnsgd1na2vs0mg"},{"bike_id":"5c53cfbd-2547-413a-b79a-f8cc3b1ca992","system_id":"levelo_inurba_marseille","lat":43.32111,"lon":5.36779,"is_reserved":false,"is_disabled":false,"rental_uris":{"android":"levelo://app?vid=5c53cfbd-2547-413a-b79a-f8cc3b1ca992","ios":"levelo://app?vid=5c53cfbd-2547-413a-b79a-f8cc3b1ca992"},"vehicle_type_id":"4","last_reported":1732140545,"current_range_meters":25600,"station_id":"ce4bhrh2rcd13ifvqhug","pricing_plan_id":"cebpf4jnsgd1na2vs0mg"},{"bike_id":"7eca176f-6439-485b-8ee8-19b47ed5e698","system_id":"levelo_inurba_marseille","lat":43.31882,"lon":5.40736,"is_reserved":false,"is_disabled":false,"rental_uris":{"android":"levelo://app?vid=7eca176f-6439-485b-8ee8-19b47ed5e698","ios":"levelo://app?vid=7eca176f-6439-485b-8ee8-19b47ed5e698"},"vehicle_type_id":"4","last_reported":1732140545,"current_range_meters":22400,"station_id":"ce4bhq12rcd13ifvqhig","pricing_plan_id":"cebpf4jnsgd1na2vs0mg"},{"bike_id":"3c3ae404-a76a-458d-9907-80073ba8fc2e","system_id":"levelo_inurba_marseille","lat":43.26558,"lon":5.37284,"is_reserved":false,"is_disabled":false,"rental_uris":{"android":"levelo://app?vid=3c3ae404-a76a-458d-9907-80073ba8fc2e","ios":"levelo://app?vid=3c3ae404-a76a-458d-9907-80073ba8fc2e"},"vehicle_type_id":"4","last_reported":1732140545,"current_range_meters":8400,"station_id":"ce4bhg12rcd13ifvqf70","pricing_plan_id":"cebpf4jnsgd1na2vs0mg"},{"bike_id":"208ed064-88b1-477b-be89-88fd526830ba","system_id":"levelo_inurba_marseille","lat":43.28578,"lon":5.39507,"is_reserved":false,"is_disabled":false,"rental_uris":{"android":"levelo://app?vid=208ed064-88b1-477b-be89-88fd526830ba","ios":"levelo://app?vid=208ed064-88b1-477b-be89-88fd526830ba"},"vehicle_type_id":"4","last_reported":1732140545,"current_range_meters":28800,"station_id":"ce4bh292rcd13ifvqdg0","pricing_plan_id":"cebpf4jnsgd1na2vs0mg"},{"bike_id":"bf66a6f2-9365-4b90-9702-ec01ad75f6ee","system_id":"levelo_inurba_marseille","lat":43.28575,"lon":5.39504,"is_reserved":false,"is_disabled":false,"rental_uris":{"android":"levelo://app?vid=bf66a6f2-9365-4b90-9702-ec01ad75f6ee","ios":"levelo://app?vid=bf66a6f2-9365-4b90-9702-ec01ad75f6ee"},"vehicle_type_id":"4","last_reported":1732140545,"current_range_meters":40000,"station_id":"ce4bh292rcd13ifvqdg0","pricing_plan_id":"cebpf4jnsgd1na2vs0mg"},{"bike_id":"4674a573-a71e-41c0-a925-5c021c5e6c25","system_id":"levelo_inurba_marseille","lat":43.29428,"lon":5.37458,"is_reserved":false,"is_disabled":true,"rental_uris":{"android":"levelo://app?vid=4674a573-a71e-41c0-a925-5c021c5e6c25","ios":"levelo://app?vid=4674a573-a71e-41c0-a925-5c021c5e6c25"},"vehicle_type_id":"4","last_reported":1732140545,"current_range_meters":0,"station_id":"","pricing_plan_id":"cebpf4jnsgd1na2vs0mg"},{"bike_id":"ad8d03a1-1638-43ad-84b0-b4c469a0f0f0","system_id":"levelo_inurba_marseille","lat":43.337444,"lon":5.374475,"is_reserved":false,"is_disabled":false,"rental_uris":{"android":"levelo://app?vid=ad8d03a1-1638-43ad-84b0-b4c469a0f0f0","ios":"levelo://app?vid=ad8d03a1-1638-43ad-84b0-b4c469a0f0f0"},