{"last_updated":1745518427,"ttl":60,"version":"2.2","data":{"bikes":[{"bike_id":"a827b186-ce64-44e2-89be-f3e750871410","system_id":"levelo_inurba_marseille","lat":43.28616,"lon":5.35106,"is_reserved":false,"is_disabled":false,"rental_uris":{"android":"levelo://app?vid=a827b186-ce64-44e2-89be-f3e750871410","ios":"levelo://app?vid=a827b186-ce64-44e2-89be-f3e750871410"},"vehicle_type_id":"4","last_reported":1745518427,"current_range_meters":2800,"station_id":"ce4bhch2rcd13ifvqeug","pricing_plan_id":"cebpf4jnsgd1na2vs0mg"},{"bike_id":"2ae580c6-90b6-4453-b719-c9a6ac4328aa","system_id":"levelo_inurba_marseille","lat":43.30805,"lon":5.38146,"is_reserved":false,"is_disabled":false,"rental_uris":{"android":"levelo://app?vid=2ae580c6-90b6-4453-b719-c9a6ac4328aa","ios":"levelo://app?vid=2ae580c6-90b6-4453-b719-c9a6ac4328aa"},"vehicle_type_id":"4","last_reported":1745518427,"current_range_meters":3200,"station_id":"ce4bgt12rcd13ifvqce0","pricing_plan_id":"cebpf4jnsgd1na2vs0mg"},{"bike_id":"58505d49-d48c-48cb-9d31-76479a15b4de","system_id":"levelo_inurba_marseille","lat":43.33011,"lon":5.39033,"is_reserved":false,"is_disabled":false,"rental_uris":{"android":"levelo://app?vid=58505d49-d48c-48cb-9d31-76479a15b4de","ios":"levelo://app?vid=58505d49-d48c-48cb-9d31-76479a15b4de"},"vehicle_type_id":"4","last_reported":1745518427,"current_range_meters":3200,"station_id":"ce4bhr92rcd13ifvqhrg","pricing_plan_id":"cebpf4jnsgd1na2vs0mg"},{"bike_id":"649cec00-1975-4b7f-b130-078b70de9676","system_id":"levelo_inurba_marseille","lat":43.254946,"lon":5.376466,"is_reserved":false,"is_disabled":true,"rental_uris":{"android":"levelo://app?vid=649cec00-1975-4b7f-b130-078b70de9676","ios":"levelo://app?vid=649cec00-1975-4b7f-b130-078b70de9676"},"vehicle_type_id":"4","last_reported":1745518427,"current_range_meters":2800,"station_id":"ce4bhh12rcd13ifvqff0","pricing_plan_id":"cebpf4jnsgd1na2vs0mg"},{"bike_id":"8570f13f-dd6b-4c87-b1e5-727cf1dc26aa","system_id":"levelo_inurba_marseille","lat":43.23148,"lon":5.43725,"is_reserved":false,"is_disabled":false,"rental_uris":{"android":"levelo://app?vid=8570f13f-dd6b-4c87-b1e5-727cf1dc26aa","ios":"levelo://app?vid=8570f13f-dd6b-4c87-b1e5-727cf1dc26aa"},"vehicle_type_id":"4","last_reported":1745518427,"current_range_meters":3200,"station_id":"ce4bhmp2rcd13ifvqgog","pricing_plan_id":"cebpf4jnsgd1na2vs0mg"},{"bike_id":"491868e1-666a-4b70-a59f-9309fc245a76","system_id":"levelo_inurba_marseille","lat":43.33038,"lon":5.39041,"is_reserved":false,"is_disabled":false,"rental_uris":{"android":"levelo://app?vid=491868e1-666a-4b70-a59f-9309fc245a76","ios":"levelo://app?vid=491868e1-666a-4b70-a59f-9309fc245a76"},"vehicle_type_id":"4","last_reported":1745518427,"current_range_meters":3200,"station_id":"ce4bhr92rcd13ifvqhrg","pricing_plan_id":"cebpf4jnsgd1na2vs0mg"},{"bike_id":"b0cb5382-61c1-420b-b134-9151b6761228","system_id":"levelo_inurba_marseille","lat":43.31527,"lon":5.38048,"is_reserved":false,"is_disabled":false,"rental_uris":{"android":"levelo://app?vid=b0cb5382-61c1-420b-b134-9151b6761228","ios":"levelo://app?vid=b0cb5382-61c1-420b-b134-9151b6761228"},"vehicle_type_id":"4","last_reported":1745518427,"current_range_meters":0,"station_id":"ce4bhsp2rcd13ifvqi50","pricing_plan_id":"cebpf4jnsgd1na2vs0mg"},{"bike_id":"ea95b6d9-36df-401b-afad-df557048a728","system_id":"levelo_inurba_marseille","lat":43.29935,"lon":5.36547,"is_reserved":false,"is_disabled":false,"rental_uris":{"android":"levelo://app?vid=ea95b6d9-36df-401b-afad-df557048a728","ios":"levelo://app?vid=ea95b6d9-36df-401b-afad-df557048a728"},"vehicle_type_id":"4","last_reported":1745518427,"current_range_meters":3200,"station_id":"ce4bgm92rcd13ifvqbr0","pricing_plan_id":"cebpf4jnsgd1na2vs0mg"},{"bike_id":"f58c75b5-97b0-45e1-a299-03ec91ac62ef","system_id":"levelo_inurba_marseille","lat":43.294128,"lon":5.386279,"is_reserved":false,"is_disabled":false,"rental_uris":{"android":"levelo://app?vid=f58c75b5-97b0-45e1-a299-03ec91ac62ef","ios":"levelo://app?vid=f58c75b5-97b0-45e1-a299-03ec91ac62ef"},"vehicle_type_id":"4","last_reported":1745518427,"current_range_meters":3600,"station_id":"ce4bh2h2rcd13ifvqdh0","pricing_plan_id":"cebpf4jnsgd1na2vs0mg"},{"bike_id":"1b007faa-283e-4e51-8b44-f1cf0b8f4a46","system_id":"levelo_inurba_marseille","lat":43.27985,"lon":5.41662,"is_reserved":false,"is_disabled":true,"rental_uris":{"android":"levelo://app?vid=1b007faa-283e-4e51-8b44-f1cf0b8f4a46","ios":"levelo://app?vid=1b007faa-283e-4e51-8b44-f1cf0b8f4a46"},"vehicle_type_id":"4","last_reported":1745518427,"current_range_meters":3600,"station_id":"ce4bho12rcd13ifvqh1g","pricing_plan_id":"cebpf4jnsgd1na2vs0mg"},{"bike_id":"ce181827-7414-423a-8ae0-2c6de6d902d8","system_id":"levelo_inurba_marseille","lat":43.29263,"lon":5.38444,"is_reserved":false,"is_disabled":false,"rental_uris":{"android":"levelo://app?vid=ce181827-7414-423a-8ae0-2c6de6d902d8","ios":"levelo://app?vid=ce181827-7414-423a-8ae0-2c6de6d902d8"},"vehicle_type_id":"4","last_reported":1745518427,"current_range_meters":3600,"station_id":"ce4bh692rcd13ifvqea0","pricing_plan_id":"cebpf4jnsgd1na2vs0mg"},{"bike_id":"fe39c9f1-115b-4842-833d-51744c558773","system_id":"levelo_inurba_marseille","lat":43.28469,"lon":5.38428,"is_reserved":false,"is_disabled":true,"rental_uris":{"android":"levelo://app?vid=fe39c9f1-115b-4842-833d-51744c558773","ios":"levelo://app?vid=fe39c9f1-115b-4842-833d-51744c558773"},"vehicle_type_id":"4","last_reported":1745518427,"current_range_meters":3600,"station_id":"ce4bh512rcd13ifvqe3g","pricing_plan_id":"cebpf4jnsgd1na2vs0mg"},{"bike_id":"2ad5f47a-5a99-4899-a4e6-d63fd4b62ba7","system_id":"levelo_inurba_marseille","lat":43.30903,"lon":5.36833,"is_reserved":false,"is_disabled":false,"rental_uris":{"android":"levelo://app?vid=2ad5f47a-5a99-4899-a4e6-d63fd4b62ba7","ios":"levelo://app?vid=2ad5f47a-5a99-4899-a4e6-d63fd4b62ba7"},"vehicle_type_id":"4","last_reported":1745518427,"current_range_meters":3600,"station_id":"ce4bgn92rcd13ifvqbvg","pricing_plan_id":"cebpf4jnsgd1na2vs0mg"},{"bike_id":"73638ac8-bcf3-4c1f-889d-4fd5822f9a42","system_id":"levelo_inurba_marseille","lat":43.289187,"lon":5.384111,"is_reserved":false,"is_disabled":false,"rental_uris":{"android":"levelo://app?vid=73638ac8-bcf3-4c1f-889d-4fd5822f9a42","ios":"levelo://app?vid=73638ac8-bcf3-4c1f-889d-4fd5822f9a42"},"vehicle_type_id":"4","last_reported":1745518427,"current_range_meters":3600,"station_id":"ce4bh612rcd13ifvqe6g","pricing_plan_id":"cebpf4jnsgd1na2vs0mg"},{"bike_id":"9683a9f1-d2c7-475c-a03d-d1d73a5e673f","system_id":"levelo_inurba_marseille","lat":43.30931,"lon":5.40155,"is_reserved":false,"is_disabled":false,"rental_uris":{"android":"levelo://app?vid=9683a9f1-d2c7-475c-a03d-d1d73a5e673f","ios":"levelo://app?vid=9683a9f1-d2c7-475c-a03d-d1d73a5e673f"},"vehicle_type_id":"4","last_reported":1745518427,"current_range_meters":3600,"station_id":"ce4bgvp2rcd13ifvqct0","pricing_plan_id":"cebpf4jnsgd1na2vs0mg"},{"bike_id":"9c8f0820-676b-4c49-b31d-a194b10b9b5d","system_id":"levelo_inurba_marseille","lat":43.30783,"lon":5.37651,"is_reserved":false,"is_disabled":false,"rental_uris":{"android":"levelo://app?vid=9c8f0820-676b-4c49-b31d-a194b10b9b5d","ios":"levelo://app?vid=9c8f0820-676b-4c49-b31d-a194b10b9b5d"},"vehicle_type_id":"4","last_reported":1745518427,"current_range_meters":3600,"station_id":"ce4bgv92rcd13ifvqcq0","pricing_plan_id":"cebpf4jnsgd1na2vs0mg"},{"bike_id":"ab831c40-36b6-48d0-a93b-73c66106fe06","system_id":"levelo_inurba_marseille","lat":43.28941,"lon":5.36639,"is_reserved":false,"is_disabled":false,"rental_uris":{"android":"levelo://app?vid=ab831c40-36b6-48d0-a93b-73c66106fe06","ios":"levelo://app?vid=ab831c40-36b6-48d0-a93b-73c66106fe06"},"vehicle_type_id":"4","last_reported":1745518427,"current_range_meters":4000,"station_id":"ce4bhap2rcd13ifvqek0","pricing_plan_id":"cebpf4jnsgd1na2vs0mg"},{"bike_id":"32b271bb-6f82-4813-8cee-04368a649dda","system_id":"levelo_inurba_marseille","lat":43.31368,"lon":5.38495,"is_reserved":false,"is_disabled":false,"rental_uris":{"android":"levelo://app?vid=32b271bb-6f82-4813-8cee-04368a649dda","ios":"levelo://app?vid=32b271bb-6f82-4813-8cee-04368a649dda"},"vehicle_type_id":"4","last_reported":1745518427,"current_range_meters":4000,"station_id":"ce4bgt92rcd13ifvqcf0","pricing_plan_id":"cebpf4jnsgd1na2vs0mg"},{"bike_id":"ed5e2e18-64d0-491a-970a-f052a5fea769","system_id":"levelo_inurba_marseille","lat":43.23192,"lon":5.3998,"is_reserved":false,"is_disabled":true,"rental_uris":{"android":"levelo://app?vid=ed5e2e18-64d0-491a-970a-f052a5fea769","ios":"levelo://app?vid=ed5e2e18-64d0-491a-970a-f052a5fea769"},"vehicle_type_id":"4","last_reported":1745518427,"current_range_meters":4000,"station_id":"ce4bhn12rcd13ifvqgqg","pricing_plan_id":"cebpf4jnsgd1na2vs0mg"},{"bike_id":"56f1b1bc-35d6-446c-9976-6168d4b7d08c","system_id":"levelo_inurba_marseille","lat":43.298074,"lon":5.380887,"is_reserved":false,"is_disabled":false,"rental_uris":{"android":"levelo://app?vid=56f1b1bc-35d6-446c-9976-6168d4b7d08c","ios":"levelo://app?vid=56f1b1bc-35d6-446c-9976-6168d4b7d08c"},"vehicle_type_id":"4","last_reported":1745518427,"current_range_meters":4000,"station_id":"ce4bgip2rcd13ifvqbb0","pricing_plan_id":"cebpf4jnsgd1na2vs0mg"},{"bike_id":"b940bdf2-742d-48e4-9490-5ec9e6e9c7a7","system_id":"levelo_inurba_marseille","lat":43.30334,"lon":5.36504,"is_reserved":false,"is_disabled":false,"rental_uris":{"android":"levelo://app?vid=b940bdf2-742d-48e4-9490-5ec9e6e9c7a7","ios":"levelo://app?vid=b940bdf2-742d-48e4-9490-5ec9e6e9c7a7"},"vehicle_type_id":"4","last_reported":1745518427,"current_range_meters":4000,"station_id":"","pricing_plan_id":"cebpf4jnsgd1na2vs0mg"},{"bike_id":"32d58969-4202-48d0-8cf5-6ae433a9ee32","system_id":"levelo_inurba_marseille","lat":43.28611,"lon":5.37063,"is_reserved":false,"is_disabled":false,"rental_uris":{"android":"levelo://app?vid=32d58969-4202-48d0-8cf5-6ae433a9ee32","ios":"levelo://app?vid=32d58969-4202-48d0-8cf5-6ae433a9ee32"},"vehicle_type_id":"4","last_reported":1745518427,"current_range_meters":4400,"station_id":"ce4bht12rcd13ifvqi60","pricing_plan_id":"cebpf4jnsgd1na2vs0mg"},{"bike_id":"2fc48cb7-e349-4742-9d2e-a97f35e776e7","system_id":"levelo_inurba_marseille","lat":43.32331,"lon":5.40621,"is_reserved":false,"is_disabled":false,"rental_uris":{"android":"levelo://app?vid=2fc48cb7-e349-4742-9d2e-a97f35e776e7","ios":"levelo://app?vid=2fc48cb7-e349-4742-9d2e-a97f35e776e7"},"vehicle_type_id":"4","last_reported":1745518427,"current_range_meters":4400,"station_id":"ce4bhq92rcd13ifvqhjg","pricing_plan_id":"cebpf4jnsgd1na2vs0mg"},{"bike_id":"30e7ed90-cb1e-4270-b46d-5d206b638e20","system_id":"levelo_inurba_marseille","lat":43.28681,"lon":5.38639,"is_reserved":false,"is_disabled":false,"rental_uris":{"android":"levelo://app?vid=30e7ed90-cb1e-4270-b46d-5d206b638e20","ios":"levelo://app?vid=30e7ed90-cb1e-4270-b46d-5d206b638e20"},"vehicle_type_id":"4","last_reported":1745518427,"current_range_meters":4400,"station_id":"ce4bh492rcd13ifvqdug","pricing_plan_id":"cebpf4jnsgd1na2vs0mg"},{"bike_id":"33852708-9591-4939-bec8-6b1048dfb7f5","system_id":"levelo_inurba_marseille","lat":43.29002,"lon":5.35621,"is_reserved":false,"is_disabled":false,"rental_uris":{"android":"levelo://app?vid=33852708-9591-4939-bec8-6b1048dfb7f5","ios":"levelo://app?vid=33852708-9591-4939-bec8-6b1048dfb7f5"},"vehicle_type_id":"4","last_reported":1745518427,"current_range_meters":4400,"station_id":"ce4bhb92rcd13ifvqen0","pricing_plan_id":"cebpf4jnsgd1na2vs0mg"},{"bike_id":"3b4be8f4-5dd8-4ec5-85b9-df43d095b0f3","system_id":"levelo_inurba_marseille","lat":43.286125,"lon":5.37066,"is_reserved":false,"is_disabled":false,"rental_uris":{"android":"levelo://app?vid=3b4be8f4-5dd8-4ec5-85b9-df43d095b0f3","ios":"levelo://app?vid=3b4be8f4-5dd8-4ec5-85b9-df43d095b0f3"},"vehicle_type_id":"4","last_reported":1745518427,"current_range_meters":4800,"station_id":"ce4bgh92rcd13ifvqb50","pricing_plan_id":"cebpf4jnsgd1na2vs0mg"},{"bike_id":"0c559e08-fc78-4828-a325-189229e1da77","system_id":"levelo_inurba_marseille","lat":43.306079,"lon":5.372105,"is_reserved":false,"is_disabled":false,"rental_uris":{"android":"levelo://app?vid=0c559e08-fc78-4828-a325-189229e1da77","ios":"levelo://app?vid=0c559e08-fc78-4828-a325-189229e1da77"},"vehicle_type_id":"4","last_reported":1745518427,"current_range_meters":4800,"station_id":"ce4bgqh2rcd13ifvqc4g","pricing_plan_id":"cebpf4jnsgd1na2vs0mg"},{"bike_id":"ab217342-9ea5-4739-bf1a-a44f0c2fa979","system_id":"levelo_inurba_marseille","lat":43.28547,"lon":5.38389,"is_reserved":false,"is_disabled":false,"rental_uris":{"android":"levelo://app?vid=ab217342-9ea5-4739-bf1a-a44f0c2fa979","ios":"levelo://app?vid=ab217342-9ea5-4739-bf1a-a44f0c2fa979"},"vehicle_type_id":"4","last_reported":1745518427,"current_range_meters":4800,"station_id":"ce4bhh12rcd13ifvqff0","pricing_plan_id":"cebpf4jnsgd1na2vs0mg"},{"bike_id":"7a07a14c-dc58-4728-bdc3-1aac5596dba1","system_id":"levelo_inurba_marseille","lat":43.34195,"lon":5.35239,"is_reserved":false,"is_disabled":false,"rental_uris":{"android":"levelo://app?vid=7a07a14c-dc58-4728-bdc3-1aac5596dba1","ios":"levelo://app?vid=7a07a14c-dc58-4728-bdc3-1aac5596dba1"},"vehicle_type_id":"4","last_reported":1745518427,"current_range_meters":5600,"station_id":"","pricing_plan_id":"cebpf4jnsgd1na2vs0mg"},{"bike_id":"0b7ecf95-53b2-486e-a8e3-7a228d1e05af","system_id":"levelo_inurba_marseille","lat":43.30096,"lon":5.39085,"is_reserved":false,"is_disabled":false,"rental_uris":{"android":"levelo://app?vid=0b7ecf95-53b2-486e-a8e3-7a228d1e05af","ios":"levelo://app?vid=0b7ecf95-53b2-486e-a8e3-7a228d1e05af"},"vehicle_type_id":"4","last_reported":1745518427,"current_range_meters":4800,"station_id":"ce4bh192rcd13ifvqdb0","pricing_plan_id":"cebpf4jnsgd1na2vs0mg"},{"bike_id":"b91788d1-e4da-4777-b863-52bc4d4ee471","system_id":"levelo_inurba_marseille","lat":43.28098,"lon":5.37845,"is_reserved":false,"is_disabled":false,"rental_uris":{"android":"levelo://app?vid=b91788d1-e4da-4777-b863-52bc4d4ee471","ios":"levelo://app?vid=b91788d1-e4da-4777-b863-52bc4d4ee471"},"vehicle_type_id":"4","last_reported":1745518427,"current_range_meters":4800,"station_id":"ce4bha12rcd13ifvqee0","pricing_plan_id":"cebpf4jnsgd1na2vs0mg"},{"bike_id":"5b2ab53b-4abe-46b9-ac2a-36d1233fdded","system_id":"levelo_inurba_marseille","lat":43.30811,"lon":5.36855,"is_reserved":false,"is_disabled":false,"rental_uris":{"android":"levelo://app?vid=5b2ab53b-4abe-46b9-ac2a-36d1233fdded","ios":"levelo://app?vid=5b2ab53b-4abe-46b9-ac2a-36d1233fdded"},"vehicle_type_id":"4","last_reported":1745518427,"current_range_meters":4800,"station_id":"","pricing_plan_id":"cebpf4jnsgd1na2vs0mg"},{"bike_id":"0cbaf19c-9c21-46ab-899f-dfcc12db4988","system_id":"levelo_inurba_marseille","lat":43.23177,"lon":5.40022,"is_reserved":false,"is_disabled":false,"rental_uris":{"android":"levelo://app?vid=0cbaf19c-9c21-46ab-899f-dfcc12db4988","ios":"levelo://app?vid=0cbaf19c-9c21-46ab-899f-dfcc12db4988"},"vehicle_type_id":"4","last_reported":1745518427,"current_range_meters":4800,"station_id":"ce4bhn12rcd13ifvqgqg","pricing_plan_id":"cebpf4jnsgd1na2vs0mg"},{"bike_id":"d28bdf39-08e9-4286-b478-fced1227a80e","system_id":"levelo_inurba_marseille","lat":43.24658,"lon":5.38166,"is_reserved":false,"is_disabled":false,"rental_uris":{"android":"levelo://app?vid=d28bdf39-08e9-4286-b478-fced1227a80e","ios":"levelo://app?vid=d28bdf39-08e9-4286-b478-fced1227a80e"},"vehicle_type_id":"4","last_reported":1745518427,"current_range_meters":5600,"station_id":"ce4bhih2rcd13ifvqfr0","pricing_plan_id":"cebpf4jnsgd1na2vs0mg"},{"bike_id":"3ee9b51b-ae9a-4871-bab5-63fa546f33eb","system_id":"levelo_inurba_marseille","lat":43.29271,"lon":5.38436,"is_reserved":false,"is_disabled":false,"rental_uris":{"android":"levelo://app?vid=3ee9b51b-ae9a-4871-bab5-63fa546f33eb","ios":"levelo://app?vid=3ee9b51b-ae9a-4871-bab5-63fa546f33eb"},"vehicle_type_id":"4","last_reported":1745518427,"current_range_meters":5600,"station_id":"ce4bh692rcd13ifvqea0","pricing_plan_id":"cebpf4jnsgd1na2vs0mg"},{"bike_id":"3d75eeb5-6e32-4800-932b-9a2b7ea90d85","system_id":"levelo_inurba_marseille","lat":43.2792,"lon":5.39578,"is_reserved":false,"is_disabled":false,"rental_uris":{"android":"levelo://app?vid=3d75eeb5-6e32-4800-932b-9a2b7ea90d85","ios":"levelo://app?vid=3d75eeb5-6e32-4800-932b-9a2b7ea90d85"},"vehicle_type_id":"4","last_reported":1745518427,"current_range_meters":5600,"station_id":"ce4bhf92rcd13ifvqf40","pricing_plan_id":"cebpf4jnsgd1na2vs0mg"},{"bike_id":"e31a8235-966b-4b91-8d44-ba31b232bca7","system_id":"levelo_inurba_marseille","lat":43.2871,"lon":5.39975,"is_reserved":false,"is_disabled":false,"rental_uris":{"android":"levelo://app?vid=e31a8235-966b-4b91-8d44-ba31b232bca7","ios":"levelo://app?vid=e31a8235-966b-4b91-8d44-ba31b232bca7"},"vehicle_type_id":"4","last_reported":1745518427,"current_range_meters":5600,"station_id":"ce4bho92rcd13ifvqh3g","pricing_plan_id":"cebpf4jnsgd1na2vs0mg"},{"bike_id":"da70d61b-208e-4f5a-8136-fdac79841f35","system_id":"levelo_inurba_marseille","lat":43.28021,"lon":5.36948,"is_reserved":false,"is_disabled":false,"rental_uris":{"android":"levelo://app?vid=da70d61b-208e-4f5a-8136-fdac79841f35","ios":"levelo://app?vid=da70d61b-208e-4f5a-8136-fdac79841f35"},"vehicle_type_id":"4","last_reported":1745518427,"current_range_meters":6000,"station_id":"ce4bha12rcd13ifvqef0","pricing_plan_id":"cebpf4jnsgd1na2vs0mg"},{"bike_id":"eab4be93-9b7f-4edd-a940-dd7bbd677ca0","system_id":"levelo_inurba_marseille","lat":43.30098,"lon":5.39091,"is_reserved":false,"is_disabled":true,"rental_uris":{"android":"levelo://app?vid=eab4be93-9b7f-4edd-a940-dd7bbd677ca0","ios":"levelo://app?vid=eab4be93-9b7f-4edd-a940-dd7bbd677ca0"},"vehicle_type_id":"4","last_reported":1745518427,"current_range_meters":6000,"station_id":"ce4bh192rcd13ifvqdb0","pricing_plan_id":"cebpf4jnsgd1na2vs0mg"},{"bike_id":"4a0c533a-11de-4d45-91b8-e52228d03fb7","system_id":"levelo_inurba_marseille","lat":43.28977,"lon":5.37839,"is_reserved":false,"is_disabled":false,"rental_uris":{"android":"levelo://app?vid=4a0c533a-11de-4d45-91b8-e52228d03fb7","ios":"levelo://app?vid=4a0c533a-11de-4d45-91b8-e52228d03fb7"},"vehicle_type_id":"4","last_reported":1745518427,"current_range_meters":6000,"station_id":"ce4bh9p2rcd13ifvqed0","pricing_plan_id":"cebpf4jnsgd1na2vs0mg"},{"bike_id":"dc8c8286-d8ea-4a31-b689-366cfc71ab8d","system_id":"levelo_inurba_marseille","lat":43.31165,"lon":5.38719,"is_reserved":false,"is_disabled":false,"rental_uris":{"android":"levelo://app?vid=dc8c8286-d8ea-4a31-b689-366cfc71ab8d","ios":"levelo://app?vid=dc8c8286-d8ea-4a31-b689-366cfc71ab8d"},"vehicle_type_id":"4","last_reported":1745518427,"current_range_meters":6000,"station_id":"ce4bgv12rcd13ifvqcp0","pricing_plan_id":"cebpf4jnsgd1na2vs0mg"},{"bike_id":"fa072638-79d4-42b6-a779-d7bc984e3de1","system_id":"levelo_inurba_marseille","lat":43.23187,"lon":5.39975,"is_reserved":false,"is_disabled":false,"rental_uris":{"android":"levelo://app?vid=fa072638-79d4-42b6-a779-d7bc984e3de1","ios":"levelo://app?vid=fa072638-79d4-42b6-a779-d7bc984e3de1"},"vehicle_type_id":"4","last_reported":1745518427,"current_range_meters":6400,"station_id":"ce4bhn12rcd13ifvqgqg","pricing_plan_id":"cebpf4jnsgd1na2vs0mg"},{"bike_id":"28f60ac2-52e4-47d8-b5a1-e65169c26962","system_id":"levelo_inurba_marseille","lat":43.28723,"lon":5.36097,"is_reserved":false,"is_disabled":false,"rental_uris":{"android":"levelo://app?vid=28f60ac2-52e4-47d8-b5a1-e65169c26962","ios":"levelo://app?vid=28f60ac2-52e4-47d8-b5a1-e65169c26962"},"vehicle_type_id":"4","last_reported":1745518427,"current_range_meters":6400,"station_id":"cki0cbj6b192h4jlfktg","pricing_plan_id":"cebpf4jnsgd1na2vs0mg"},{"bike_id":"25c5e2bd-bef1-423b-8460-284a2a122022","system_id":"levelo_inurba_marseille","lat":43.3149,"lon":5.373,"is_reserved":false,"is_disabled":false,"rental_uris":{"android":"levelo://app?vid=25c5e2bd-bef1-423b-8460-284a2a122022","ios":"levelo://app?vid=25c5e2bd-bef1-423b-8460-284a2a122022"},"vehicle_type_id":"4","last_reported":1745518427,"current_range_meters":6400,"station_id":"ce4bgt12rcd13ifvqcd0","pricing_plan_id":"cebpf4jnsgd1na2vs0mg"},{"bike_id":"8b4bac15-47d4-4b48-89ad-d28a545e842f","system_id":"levelo_inurba_marseille","lat":43.22939,"lon":5.35386,"is_reserved":false,"is_disabled":false,"rental_uris":{"android":"levelo://app?vid=8b4bac15-47d4-4b48-89ad-d28a545e842f","ios":"levelo://app?vid=8b4bac15-47d4-4b48-89ad-d28a545e842f"},"vehicle_type_id":"4","last_reported":1745518427,"current_range_meters":6400,"station_id":"cpo3532slgdg3j2ikp40","pricing_plan_id":"cebpf4jnsgd1na2vs0mg"},{"bike_id":"ce63dcfd-17f0-45fb-bdb6-bcbc138d07e6","system_id":"levelo_inurba_marseille","lat":43.31343,"lon":5.36722,"is_reserved":false,"is_disabled":false,"rental_uris":{"android":"levelo://app?vid=ce63dcfd-17f0-45fb-bdb6-bcbc138d07e6","ios":"levelo://app?vid=ce63dcfd-17f0-45fb-bdb6-bcbc138d07e6"},"vehicle_type_id":"4","last_reported":1745518427,"current_range_meters":6400,"station_id":"ce4bgr92rcd13ifvqc6g","pricing_plan_id":"cebpf4jnsgd1na2vs0mg"},{"bike_id":"36cefaa1-1f19-45be-b15c-456bc07c8c57","system_id":"levelo_inurba_marseille","lat":43.27941,"lon":5.41034,"is_reserved":false,"is_disabled":false,"rental_uris":{"android":"levelo://app?vid=36cefaa1-1f19-45be-b15c-456bc07c8c57","ios":"levelo://app?vid=36cefaa1-1f19-45be-b15c-456bc07c8c57"},"vehicle_type_id":"4","last_reported":1745518427,"current_range_meters":6400,"station_id":"ce4bhnp2rcd13ifvqh0g","pricing_plan_id":"cebpf4jnsgd1na2vs0mg"},{"bike_id":"30704823-7a9c-4b12-af5d-93db18bfd3b9","system_id":"levelo_inurba_marseille","lat":43.28829,"lon":5.39931,"is_reserved":false,"is_disabled":false,"rental_uris":{"android":"levelo://app?vid=30704823-7a9c-4b12-af5d-93db18bfd3b9","ios":"levelo://app?vid=30704823-7a9c-4b12-af5d-93db18bfd3b9"},"vehicle_type_id":"4","last_reported":1745518427,"current_range_meters":6400,"station_id":"","pricing_plan_id":"cebpf4jnsgd1na2vs0mg"},{"bike_id":"bd0c2e9e-2445-40e7-b282-79b710fbc623","system_id":"levelo_inurba_marseille","lat":43.23178,"lon":5.39976,"is_reserved":false,"is_disabled":false,"rental_uris":{"android":"levelo://app?vid=bd0c2e9e-2445-40e7-b282-79b710fbc623","ios":"levelo://app?vid=bd0c2e9e-2445-40e7-b282-79b710fbc623"},"vehicle_type_id":"4","last_reported":1745518427,"current_range_meters":6800,"station_id":"ce4bhn12rcd13ifvqgqg","pricing_plan_id":"cebpf4jnsgd1na2vs0mg"},{"bike_id":"e4bd6358-a70d-46fa-86d4-074b9322d26a","system_id":"levelo_inurba_marseille","lat":43.29234,"lon":5.36093,"is_reserved":false,"is_disabled":false,"rental_uris":{"android":"levelo://app?vid=e4bd6358-a70d-46fa-86d4-074b9322d26a","ios":"levelo://app?vid=e4bd6358-a70d-46fa-86d4-074b9322d26a"},"vehicle_type_id":"4","last_reported":1745518427,"current_range_meters":6800,"station_id":"ce4bhbh2rcd13ifvqeqg","pricing_plan_id":"cebpf4jnsgd1na2vs0mg"},{"bike_id":"3112c9e0-3dc5-41e2-9187-f9c8b11cf68b","system_id":"levelo_inurba_marseille","lat":43.25579,"lon":5.38237,"is_reserved":false,"is_disabled":false,"rental_uris":{"android":"levelo://app?vid=3112c9e0-3dc5-41e2-9187-f9c8b11cf68b","ios":"levelo://app?vid=3112c9e0-3dc5-41e2-9187-f9c8b11cf68b"},"vehicle_type_id":"4","last_reported":1745518427,"current_range_meters":6800,"station_id":"ce4bhih2rcd13ifvqfs0","pricing_plan_id":"cebpf4jnsgd1na2vs0mg"},{"bike_id":"c2f66988-4dbd-4416-b317-15e829b16cd6","system_id":"levelo_inurba_marseille","lat":43.28682,"lon":5.38656,"is_reserved":false,"is_disabled":false,"rental_uris":{"android":"levelo://app?vid=c2f66988-4dbd-4416-b317-15e829b16cd6","ios":"levelo://app?vid=c2f66988-4dbd-4416-b317-15e829b16cd6"},"vehicle_type_id":"4","last_reported":1745518427,"current_range_meters":6800,"station_id":"ce4bh492rcd13ifvqdug","pricing_plan_id":"cebpf4jnsgd1na2vs0mg"},{"bike_id":"98fbb19e-72d3-467b-bf8b-03ead52968aa","system_id":"levelo_inurba_marseille","lat":43.28632,"lon":5.35089,"is_reserved":false,"is_disabled":false,"rental_uris":{"android":"levelo://app?vid=98fbb19e-72d3-467b-bf8b-03ead52968aa","ios":"levelo://app?vid=98fbb19e-72d3-467b-bf8b-03ead52968aa"},"vehicle_type_id":"4","last_reported":1745518427,"current_range_meters":6800,"station_id":"ce4bhch2rcd13ifvqeug","pricing_plan_id":"cebpf4jnsgd1na2vs0mg"},{"bike_id":"abb0c2ba-ff87-4ccd-a6ae-339f5820ae14","system_id":"levelo_inurba_marseille","lat":43.29267,"lon":5.38434,"is_reserved":false,"is_disabled":false,"rental_uris":{"android":"levelo://app?vid=abb0c2ba-ff87-4ccd-a6ae-339f5820ae14","ios":"levelo://app?vid=abb0c2ba-ff87-4ccd-a6ae-339f5820ae14"},"vehicle_type_id":"4","last_reported":1745518427,"current_range_meters":6800,"station_id":"ce4bh692rcd13ifvqea0","pricing_plan_id":"cebpf4jnsgd1na2vs0mg"},{"bike_id":"408f03f9-8099-4d68-b36b-b4fe36ed6ab8","system_id":"levelo_inurba_marseille","lat":43.30134,"lon":5.3879,"is_reserved":false,"is_disabled":false,"rental_uris":{"android":"levelo://app?vid=408f03f9-8099-4d68-b36b-b4fe36ed6ab8","ios":"levelo://app?vid=408f03f9-8099-4d68-b36b-b4fe36ed6ab8"},"vehicle_type_id":"4","last_reported":1745518427,"current_range_meters":6800,"station_id":"ce4bghh2rcd13ifvqb60","pricing_plan_id":"cebpf4jnsgd1na2vs0mg"},{"bike_id":"f98bbeea-05eb-46ed-8006-7f7552ffcb47","system_id":"levelo_inurba_marseille","lat":43.265744,"lon":5.390152,"is_reserved":false,"is_disabled":false,"rental_uris":{"android":"levelo://app?vid=f98bbeea-05eb-46ed-8006-7f7552ffcb47","ios":"levelo://app?vid=f98bbeea-05eb-46ed-8006-7f7552ffcb47"},"vehicle_type_id":"4","last_reported":1745518427,"current_range_meters":6800,"station_id":"ce4bhe12rcd13ifvqf30","pricing_plan_id":"cebpf4jnsgd1na2vs0mg"},{"bike_id":"138f85cd-b4e2-43e0-bbb1-c9603f361807","system_id":"levelo_inurba_marseille","lat":43.29261,"lon":5.36853,"is_reserved":false,"is_disabled":false,"rental_uris":{"android":"levelo://app?vid=138f85cd-b4e2-43e0-bbb1-c9603f361807","ios":"levelo://app?vid=138f85cd-b4e2-43e0-bbb1-c9603f361807"},"vehicle_type_id":"4","last_reported":1745518427,"current_range_meters":6800,"station_id":"ce4bhbp2rcd13ifvqesg","pricing_plan_id":"cebpf4jnsgd1na2vs0mg"},{"bike_id":"e0d46c87-0025-4c4b-870e-2a68eccd8d24","system_id":"levelo_inurba_marseille","lat":43.2893,"lon":5.38405,"is_reserved":false,"is_disabled":false,"rental_uris":{"android":"levelo://app?vid=e0d46c87-0025-4c4b-870e-2a68eccd8d24","ios":"levelo://app?vid=e0d46c87-0025-4c4b-870e-2a68eccd8d24"},"vehicle_type_id":"4","last_reported":1745518427,"current_range_meters":6800,"station_id":"ce4bh612rcd13ifvqe6g","pricing_plan_id":"cebpf4jnsgd1na2vs0mg"},{"bike_id":"3462b6a6-c7c4-4fc2-882b-284544b70cc6","system_id":"levelo_inurba_marseille","lat":43.3014,"lon":5.37416,"is_reserved":false,"is_disabled":false,"rental_uris":{"android":"levelo://app?vid=3462b6a6-c7c4-4fc2-882b-284544b70cc6","ios":"levelo://app?vid=3462b6a6-c7c4-4fc2-882b-284544b70cc6"},"vehicle_type_id":"4","last_reported":1745518427,"current_range_meters":6800,"station_id":"ce4bgs92rcd13ifvqcc0","pricing_plan_id":"cebpf4jnsgd1na2vs0mg"},{"bike_id":"fed3087f-a5cb-449e-a43e-200233532ee8","system_id":"levelo_inurba_marseille","lat":43.28025,"lon":5.36938,"is_reserved":false,"is_disabled":false,"rental_uris":{"android":"levelo://app?vid=fed3087f-a5cb-449e-a43e-200233532ee8","ios":"levelo://app?vid=fed3087f-a5cb-449e-a43e-200233532ee8"},"vehicle_type_id":"4","last_reported":1745518427,"current_range_meters":6800,"station_id":"ce4bha12rcd13ifvqef0","pricing_plan_id":"cebpf4jnsgd1na2vs0mg"},{"bike_id":"6d462bc3-0658-4638-a587-3cfd7351eeee","system_id":"levelo_inurba_marseille","lat":43.23964,"lon":5.36633,"is_reserved":false,"is_disabled":false,"rental_uris":{"android":"levelo://app?vid=6d462bc3-0658-4638-a587-3cfd7351eeee","ios":"levelo://app?vid=6d462bc3-0658-4638-a587-3cfd7351eeee"},"vehicle_type_id":"4","last_reported":1745518427,"current_range_meters":6800,"station_id":"ce4bhi12rcd13ifvqfp0","pricing_plan_id":"cebpf4jnsgd1na2vs0mg"},{"bike_id":"a3574d84-a5f3-4db6-a89a-4173eb3a4a71","system_id":"levelo_inurba_marseille","lat":43.25867,"lon":5.39895,"is_reserved":false,"is_disabled":false,"rental_uris":{"android":"levelo://app?vid=a3574d84-a5f3-4db6-a89a-4173eb3a4a71","ios":"levelo://app?vid=a3574d84-a5f3-4db6-a89a-4173eb3a4a71"},"vehicle_type_id":"4","last_reported":1745518427,"current_range_meters":6800,"station_id":"ce4bhl92rcd13ifvqghg","pricing_plan_id":"cebpf4jnsgd1na2vs0mg"},{"bike_id":"54a20614-8aa7-41cb-b773-24636be5172d","system_id":"levelo_inurba_marseille","lat":43.29016,"lon":5.38639,"is_reserved":false,"is_disabled":false,"rental_uris":{"android":"levelo://app?vid=54a20614-8aa7-41cb-b773-24636be5172d","ios":"levelo://app?vid=54a20614-8aa7-41cb-b773-24636be5172d"},"vehicle_type_id":"4","last_reported":1745518427,"current_range_meters":7200,"station_id":"ce4bh4p2rcd13ifvqe0g","pricing_plan_id":"cebpf4jnsgd1na2vs0mg"},{"bike_id":"17c75d3e-1f26-47e8-be26-0f9fadeb00f4","system_id":"levelo_inurba_marseille","lat":43.31078,"lon":5.38361,"is_reserved":false,"is_disabled":false,"rental_uris":{"android":"levelo://app?vid=17c75d3e-1f26-47e8-be26-0f9fadeb00f4","ios":"levelo://app?vid=17c75d3e-1f26-47e8-be26-0f9fadeb00f4"},"vehicle_type_id":"4","last_reported":1745518427,"current_range_meters":7200,"station_id":"ce4bgv92rcd13ifvqcr0","pricing_plan_id":"cebpf4jnsgd1na2vs0mg"},{"bike_id":"0e1a0a45-22c5-4832-a911-12aa206d9cfa","system_id":"levelo_inurba_marseille","lat":43.28921,"lon":5.38409,"is_reserved":false,"is_disabled":false,"rental_uris":{"android":"levelo://app?vid=0e1a0a45-22c5-4832-a911-12aa206d9cfa","ios":"levelo://app?vid=0e1a0a45-22c5-4832-a911-12aa206d9cfa"},"vehicle_type_id":"4","last_reported":1745518427,"current_range_meters":7200,"station_id":"ce4bh612rcd13ifvqe6g","pricing_plan_id":"cebpf4jnsgd1na2vs0mg"},{"bike_id":"0f02c74b-42d9-45f1-8b2a-daef514ef4c6","system_id":"levelo_inurba_marseille","lat":43.31761,"lon":5.39013,"is_reserved":false,"is_disabled":false,"rental_uris":{"android":"levelo://app?vid=0f02c74b-42d9-45f1-8b2a-daef514ef4c6","ios":"levelo://app?vid=0f02c74b-42d9-45f1-8b2a-daef514ef4c6"},"vehicle_type_id":"4","last_reported":1745518427,"current_range_meters":6800,"station_id":"ce4bhqp2rcd13ifvqhng","pricing_plan_id":"cebpf4jnsgd1na2vs0mg"},{"bike_id":"b0291592-dd85-4a02-8470-567568c30cb1","system_id":"levelo_inurba_marseille","lat":43.24071,"lon":5.37765,"is_reserved":false,"is_disabled":false,"rental_uris":{"android":"levelo://app?vid=b0291592-dd85-4a02-8470-567568c30cb1","ios":"levelo://app?vid=b0291592-dd85-4a02-8470-567568c30cb1"},"vehicle_type_id":"4","last_reported":1745518427,"current_range_meters":7200,"station_id":"ce4bhnp2rcd13ifvqgvg","pricing_plan_id":"cebpf4jnsgd1na2vs0mg"},{"bike_id":"f12894e2-350b-4007-884c-a6015f91adce","system_id":"levelo_inurba_marseille","lat":43.30321,"lon":5.36905,"is_reserved":false,"is_disabled":false,"rental_uris":{"android":"levelo://app?vid=f12894e2-350b-4007-884c-a6015f91adce","ios":"levelo://app?vid=f12894e2-350b-4007-884c-a6015f91adce"},"vehicle_type_id":"4","last_reported":1745518427,"current_range_meters":7200,"station_id":"ce4bgqh2rcd13ifvqc5g","pricing_plan_id":"cebpf4jnsgd1na2vs0mg"},{"bike_id":"92c3b340-d069-4f1c-b55b-44c52f19597b","system_id":"levelo_inurba_marseille","lat":43.28249,"lon":5.37795,"is_reserved":false,"is_disabled":false,"rental_uris":{"android":"levelo://app?vid=92c3b340-d069-4f1c-b55b-44c52f19597b","ios":"levelo://app?vid=92c3b340-d069-4f1c-b55b-44c52f19597b"},"vehicle_type_id":"4","last_reported":1745518427,"current_range_meters":8000,"station_id":"","pricing_plan_id":"cebpf4jnsgd1na2vs0mg"},{"bike_id":"2e340c6f-5e1f-4502-88bb-2eb50d8a564d","system_id":"levelo_inurba_marseille","lat":43.28406,"lon":5.35104,"is_reserved":false,"is_disabled":false,"rental_uris":{"android":"levelo://app?vid=2e340c6f-5e1f-4502-88bb-2eb50d8a564d","ios":"levelo://app?vid=2e340c6f-5e1f-4502-88bb-2eb50d8a564d"},"vehicle_type_id":"4","last_reported":1745518427,"current_range_meters":8000,"station_id":"","pricing_plan_id":"cebpf4jnsgd1na2vs0mg"},{"bike_id":"cfb4b89f-0f07-4e66-8d5d-eecea72c556a","system_id":"levelo_inurba_marseille","lat":43.29538,"lon":5.38544,"is_reserved":false,"is_disabled":true,"rental_uris":{"android":"levelo://app?vid=cfb4b89f-0f07-4e66-8d5d-eecea72c556a","ios":"levelo://app?vid=cfb4b89f-0f07-4e66-8d5d-eecea72c556a"},"vehicle_type_id":"4","last_reported":1745518427,"current_range_meters":8000,"station_id":"ce4bgih2rcd13ifvqba0","pricing_plan_id":"cebpf4jnsgd1na2vs0mg"},{"bike_id":"04de76c4-a1ad-45bf-9e28-7c78bfcbb5c0","system_id":"levelo_inurba_marseille","lat":43.25185,"lon":5.37448,"is_reserved":false,"is_disabled":false,"rental_uris":{"android":"levelo://app?vid=04de76c4-a1ad-45bf-9e28-7c78bfcbb5c0","ios":"levelo://app?vid=04de76c4-a1ad-45bf-9e28-7c78bfcbb5c0"},"vehicle_type_id":"4","last_reported":1745518427,"current_range_meters":8000,"station_id":"","pricing_plan_id":"cebpf4jnsgd1na2vs0mg"},{"bike_id":"ce9de518-14f9-4d2f-ae82-6dc9a0190a03","system_id":"levelo_inurba_marseille","lat":43.28099,"lon":5.37839,"is_reserved":false,"is_disabled":false,"rental_uris":{"android":"levelo://app?vid=ce9de518-14f9-4d2f-ae82-6dc9a0190a03","ios":"levelo://app?vid=ce9de518-14f9-4d2f-ae82-6dc9a0190a03"},"vehicle_type_id":"4","last_reported":1745518427,"current_range_meters":8000,"station_id":"ce4bha12rcd13ifvqee0","pricing_plan_id":"cebpf4jnsgd1na2vs0mg"},{"bike_id":"4959620f-bcf8-47e6-be19-b230de6ed982","system_id":"levelo_inurba_marseille","lat":43.30413,"lon":5.39739,"is_reserved":false,"is_disabled":false,"rental_uris":{"android":"levelo://app?vid=4959620f-bcf8-47e6-be19-b230de6ed982","ios":"levelo://app?vid=4959620f-bcf8-47e6-be19-b230de6ed982"},"vehicle_type_id":"4","last_reported":1745518427,"current_range_meters":8000,"station_id":"ce4bh092rcd13ifvqd20","pricing_plan_id":"cebpf4jnsgd1na2vs0mg"},{"bike_id":"e76540e2-a069-4e47-8510-b8f9d0868357","system_id":"levelo_inurba_marseille","lat":43.297725,"lon":5.371036,"is_reserved":false,"is_disabled":false,"rental_uris":{"android":"levelo://app?vid=e76540e2-a069-4e47-8510-b8f9d0868357","ios":"levelo://app?vid=e76540e2-a069-4e47-8510-b8f9d0868357"},"vehicle_type_id":"4","last_reported":1745518427,"current_range_meters":7200,"station_id":"ce4bgop2rcd13ifvqc1g","pricing_plan_id":"cebpf4jnsgd1na2vs0mg"},{"bike_id":"8764c801-9cd2-4e78-bbfe-a229706ee676","system_id":"levelo_inurba_marseille","lat":43.29864,"lon":5.38918,"is_reserved":false,"is_disabled":true,"rental_uris":{"android":"levelo://app?vid=8764c801-9cd2-4e78-bbfe-a229706ee676","ios":"levelo://app?vid=8764c801-9cd2-4e78-bbfe-a229706ee676"},"vehicle_type_id":"4","last_reported":1745518427,"current_range_meters":8000,"station_id":"ce4bh392rcd13ifvqdl0","pricing_plan_id":"cebpf4jnsgd1na2vs0mg"},{"bike_id":"43de3424-294c-424c-a7f9-38c819d96b61","system_id":"levelo_inurba_marseille","lat":43.30081,"lon":5.3907,"is_reserved":false,"is_disabled":false,"rental_uris":{"android":"levelo://app?vid=43de3424-294c-424c-a7f9-38c819d96b61","ios":"levelo://app?vid=43de3424-294c-424c-a7f9-38c819d96b61"},"vehicle_type_id":"4","last_reported":1745518427,"current_range_meters":8400,"station_id":"ce4bh192rcd13ifvqdb0","pricing_plan_id":"cebpf4jnsgd1na2vs0mg"},{"bike_id":"ed40b5dd-2bbb-47ec-9997-93fbe2a307f7","system_id":"levelo_inurba_marseille","lat":43.290336,"lon":5.386523,"is_reserved":false,"is_disabled":false,"rental_uris":{"android":"levelo://app?vid=ed40b5dd-2bbb-47ec-9997-93fbe2a307f7","ios":"levelo://app?vid=ed40b5dd-2bbb-47ec-9997-93fbe2a307f7"},"vehicle_type_id":"4","last_reported":1745518427,"current_range_meters":8400,"station_id":"","pricing_plan_id":"cebpf4jnsgd1na2vs0mg"},{"bike_id":"b81856d3-b6c4-44da-b835-e1038ca3fc73","system_id":"levelo_inurba_marseille","lat":43.30088,"lon":5.39082,"is_reserved":false,"is_disabled":false,"rental_uris":{"android":"levelo://app?vid=b81856d3-b6c4-44da-b835-e1038ca3fc73","ios":"levelo://app?vid=b81856d3-b6c4-44da-b835-e1038ca3fc73"},"vehicle_type_id":"4","last_reported":1745518427,"current_range_meters":8400,"station_id":"ce4bh192rcd13ifvqdb0","pricing_plan_id":"cebpf4jnsgd1na2vs0mg"},{"bike_id":"2d84c43f-924b-4129-9919-81f7b037a81f","system_id":"levelo_inurba_marseille","lat":43.26206,"lon":5.3792,"is_reserved":false,"is_disabled":false,"rental_uris":{"android":"levelo://app?vid=2d84c43f-924b-4129-9919-81f7b037a81f","ios":"levelo://app?vid=2d84c43f-924b-4129-9919-81f7b037a81f"},"vehicle_type_id":"4","last_reported":1745518427,"current_range_meters":8000,"station_id":"ce4bhjp2rcd13ifvqg90","pricing_plan_id":"cebpf4jnsgd1na2vs0mg"},{"bike_id":"29dc8bc3-7704-4cf5-8593-a4d963c0dfda","system_id":"levelo_inurba_marseille","lat":43.27971,"lon":5.3875,"is_reserved":false,"is_disabled":false,"rental_uris":{"android":"levelo://app?vid=29dc8bc3-7704-4cf5-8593-a4d963c0dfda","ios":"levelo://app?vid=29dc8bc3-7704-4cf5-8593-a4d963c0dfda"},"vehicle_type_id":"4","last_reported":1745518427,"current_range_meters":8400,"station_id":"ce4bhg12rcd13ifvqf80","pricing_plan_id":"cebpf4jnsgd1na2vs0mg"},{"bike_id":"5e56db1e-8b32-49d9-bba2-188631ddf3eb","system_id":"levelo_inurba_marseille","lat":43.292277,"lon":5.360623,"is_reserved":false,"is_disabled":false,"rental_uris":{"android":"levelo://app?vid=5e56db1e-8b32-49d9-bba2-188631ddf3eb","ios":"levelo://app?vid=5e56db1e-8b32-49d9-bba2-188631ddf3eb"},"vehicle_type_id":"4","last_reported":1745518427,"current_range_meters":8400,"station_id":"ce4bhbh2rcd13ifvqeqg","pricing_plan_id":"cebpf4jnsgd1na2vs0mg"},{"bike_id":"8963fb50-ff75-45e1-9c0e-014a2be94aaa","system_id":"levelo_inurba_marseille","lat":43.29224,"lon":5.36078,"is_reserved":false,"is_disabled":false,"rental_uris":{"android":"levelo://app?vid=8963fb50-ff75-45e1-9c0e-014a2be94aaa","ios":"levelo://app?vid=8963fb50-ff75-45e1-9c0e-014a2be94aaa"},"vehicle_type_id":"4","last_reported":1745518427,"current_range_meters":8400,"station_id":"ce4bhbh2rcd13ifvqeqg","pricing_plan_id":"cebpf4jnsgd1na2vs0mg"},{"bike_id":"f742e759-6e98-4553-96e1-e1964ee51b8f","system_id":"levelo_inurba_marseille","lat":43.30805,"lon":5.43529,"is_reserved":false,"is_disabled":false,"rental_uris":{"android":"levelo://app?vid=f742e759-6e98-4553-96e1-e1964ee51b8f","ios":"levelo://app?vid=f742e759-6e98-4553-96e1-e1964ee51b8f"},"vehicle_type_id":"4","last_reported":1745518427,"current_range_meters":8400,"station_id":"ce4bhph2rcd13ifvqheg","pricing_plan_id":"cebpf4jnsgd1na2vs0mg"},{"bike_id":"8c37db10-9301-4e61-9e38-55a9af0f543f","system_id":"levelo_inurba_marseille","lat":43.29227,"lon":5.36065,"is_reserved":false,"is_disabled":false,"rental_uris":{"android":"levelo://app?vid=8c37db10-9301-4e61-9e38-55a9af0f543f","ios":"levelo://app?vid=8c37db10-9301-4e61-9e38-55a9af0f543f"},"vehicle_type_id":"4","last_reported":1745518427,"current_range_meters":8400,"station_id":"ce4bhbh2rcd13ifvqeqg","pricing_plan_id":"cebpf4jnsgd1na2vs0mg"},{"bike_id":"b61fafd0-5a56-4c0b-8ccc-c3b33903ec34","system_id":"levelo_inurba_marseille","lat":43.248,"lon":5.37449,"is_reserved":false,"is_disabled":false,"rental_uris":{"android":"levelo://app?vid=b61fafd0-5a56-4c0b-8ccc-c3b33903ec34","ios":"levelo://app?vid=b61fafd0-5a56-4c0b-8ccc-c3b33903ec34"},"vehicle_type_id":"4","last_reported":1745518427,"current_range_meters":8400,"station_id":"ce4bhgh2rcd13ifvqfb0","pricing_plan_id":"cebpf4jnsgd1na2vs0mg"},{"bike_id":"1bfbf24e-4daa-495d-b826-45cf25eb74a1","system_id":"levelo_inurba_marseille","lat":43.2815,"lon":5.42644,"is_reserved":false,"is_disabled":false,"rental_uris":{"android":"levelo://app?vid=1bfbf24e-4daa-495d-b826-45cf25eb74a1","ios":"levelo://app?vid=1bfbf24e-4daa-495d-b826-45cf25eb74a1"},"vehicle_type_id":"4","last_reported":1745518427,"current_range_meters":8400,"station_id":"ce4bhnh2rcd13ifvqgug","pricing_plan_id":"cebpf4jnsgd1na2vs0mg"},{"bike_id":"94bfdd1d-266e-473d-9b6f-fda65251bd7c","system_id":"levelo_inurba_marseille","lat":43.29527,"lon":5.38543,"is_reserved":false,"is_disabled":false,"rental_uris":{"android":"levelo://app?vid=94bfdd1d-266e-473d-9b6f-fda65251bd7c","ios":"levelo://app?vid=94bfdd1d-266e-473d-9b6f-fda65251bd7c"},"vehicle_type_id":"4","last_reported":1745518427,"current_range_meters":8400,"station_id":"ce4bgih2rcd13ifvqba0","pricing_plan_id":"cebpf4jnsgd1na2vs0mg"},{"bike_id":"2f330b72-ab90-46d0-ad16-114084b850e0","system_id":"levelo_inurba_marseille","lat":43.31163,"lon":5.38734,"is_reserved":false,"is_disabled":false,"rental_uris":{"android":"levelo://app?vid=2f330b72-ab90-46d0-ad16-114084b850e0","ios":"levelo://app?vid=2f330b72-ab90-46d0-ad16-114084b850e0"},"vehicle_type_id":"4","last_reported":1745518427,"current_range_meters":8400,"station_id":"ce4bgv12rcd13ifvqcp0","pricing_plan_id":"cebpf4jnsgd1na2vs0mg"},{"bike_id":"a008f1ff-620c-4136-b82e-a1a04d36a6b4","system_id":"levelo_inurba_marseille","lat":43.29051,"lon":5.365007,"is_reserved":false,"is_disabled":false,"rental_uris":{"android":"levelo://app?vid=a008f1ff-620c-4136-b82e-a1a04d36a6b4","ios":"levelo://app?vid=a008f1ff-620c-4136-b82e-a1a04d36a6b4"},"vehicle_type_id":"4","last_reported":1745518427,"current_range_meters":8400,"station_id":"","pricing_plan_id":"cebpf4jnsgd1na2vs0mg"},{"bike_id":"9b361ae5-1292-4c9f-a13a-0c0766559e30","system_id":"levelo_inurba_marseille","lat":43.28611,"lon":5.35108,"is_reserved":false,"is_disabled":false,"rental_uris":{"android":"levelo://app?vid=9b361ae5-1292-4c9f-a13a-0c0766559e30","ios":"levelo://app?vid=9b361ae5-1292-4c9f-a13a-0c0766559e30"},"vehicle_type_id":"4","last_reported":1745518427,"current_range_meters":8400,"station_id":"ce4bhch2rcd13ifvqeug","pricing_plan_id":"cebpf4jnsgd1na2vs0mg"},{"bike_id":"f1ba5a69-d5b0-42fd-b84c-30487f007562","system_id":"levelo_inurba_marseille","lat":43.30306,"lon":5.36882,"is_reserved":false,"is_disabled":false,"rental_uris":{"android":"levelo://app?vid=f1ba5a69-d5b0-42fd-b84c-30487f007562","ios":"levelo://app?vid=f1ba5a69-d5b0-42fd-b84c-30487f007562"},"vehicle_type_id":"4","last_reported":1745518427,"current_range_meters":8000,"station_id":"ce4bgqh2rcd13ifvqc5g","pricing_plan_id":"cebpf4jnsgd1na2vs0mg"},{"bike_id":"e30cab18-b56d-44ba-acd6-43ee7cb9fb43","system_id":"levelo_inurba_marseille","lat":43.28698,"lon":5.4,"is_reserved":false,"is_disabled":false,"rental_uris":{"android":"levelo://app?vid=e30cab18-b56d-44ba-acd6-43ee7cb9fb43","ios":"levelo://app?vid=e30cab18-b56d-44ba-acd6-43ee7cb9fb43"},"vehicle_type_id":"4","last_reported":1745518427,"current_range_meters":8800,"station_id":"ce4bho92rcd13ifvqh3g","pricing_plan_id":"cebpf4jnsgd1na2vs0mg"},{"bike_id":"0507518d-66e0-4aec-b83b-9c1eadc0fd20","system_id":"levelo_inurba_marseille","lat":43.29664,"lon":5.38551,"is_reserved":false,"is_disabled":false,"rental_uris":{"android":"levelo://app?vid=0507518d-66e0-4aec-b83b-9c1eadc0fd20","ios":"levelo://app?vid=0507518d-66e0-4aec-b83b-9c1eadc0fd20"},"vehicle_type_id":"4","last_reported":1745518427,"current_range_meters":8800,"station_id":"","pricing_plan_id":"cebpf4jnsgd1na2vs0mg"},{"bike_id":"2047cf25-b233-4eb0-b891-6f7545b2a713","system_id":"levelo_inurba_marseille","lat":43.23191,"lon":5.35552,"is_reserved":false,"is_disabled":false,"rental_uris":{"android":"levelo://app?vid=2047cf25-b233-4eb0-b891-6f7545b2a713","ios":"levelo://app?vid=2047cf25-b233-4eb0-b891-6f7545b2a713"},"vehicle_type_id":"4","last_reported":1745518427,"current_range_meters":8800,"station_id":"ce4bhu92rcd13ifvqi70","pricing_plan_id":"cebpf4jnsgd1na2vs0mg"},{"bike_id":"b599c1ab-48e0-400b-9472-eabf3d584672","system_id":"levelo_inurba_marseille","lat":43.29279,"lon":5.40117,"is_reserved":false,"is_disabled":false,"rental_uris":{"android":"levelo://app?vid=b599c1ab-48e0-400b-9472-eabf3d584672","ios":"levelo://app?vid=b599c1ab-48e0-400b-9472-eabf3d584672"},"vehicle_type_id":"4","last_reported":1745518427,"current_range_meters":8800,"station_id":"ce4bh312rcd13ifvqdk0","pricing_plan_id":"cebpf4jnsgd1na2vs0mg"},{"bike_id":"7e9d26b8-b748-4e10-b3e2-977d9fd05087","system_id":"levelo_inurba_marseille","lat":43.33035,"lon":5.3702,"is_reserved":false,"is_disabled":true,"rental_uris":{"android":"levelo://app?vid=7e9d26b8-b748-4e10-b3e2-977d9fd05087","ios":"levelo://app?vid=7e9d26b8-b748-4e10-b3e2-977d9fd05087"},"vehicle_type_id":"4","last_reported":1745518427,"current_range_meters":8800,"station_id":"","pricing_plan_id":"cebpf4jnsgd1na2vs0mg"},{"bike_id":"3bd6dc31-b207-4b6a-8994-6d9f9909786c","system_id":"levelo_inurba_marseille","lat":43.2902,"lon":5.38137,"is_reserved":false,"is_disabled":true,"rental_uris":{"android":"levelo://app?vid=3bd6dc31-b207-4b6a-8994-6d9f9909786c","ios":"levelo://app?vid=3bd6dc31-b207-4b6a-8994-6d9f9909786c"},"vehicle_type_id":"4","last_reported":1745518427,"current_range_meters":8800,"station_id":"ce4bh4p2rcd13ifvqe1g","pricing_plan_id":"cebpf4jnsgd1na2vs0mg"},{"bike_id":"869fdb06-0d99-4eeb-ae24-af40659dae21","system_id":"levelo_inurba_marseille","lat":43.297791,"lon":5.381208,"is_reserved":false,"is_disabled":false,"rental_uris":{"android":"levelo://app?vid=869fdb06-0d99-4eeb-ae24-af40659dae21","ios":"levelo://app?vid=869fdb06-0d99-4eeb-ae24-af40659dae21"},"vehicle_type_id":"4","last_reported":1745518427,"current_range_meters":8800,"station_id":"ce4bgip2rcd13ifvqbb0","pricing_plan_id":"cebpf4jnsgd1na2vs0mg"},{"bike_id":"2490c850-e8ad-49d1-8887-b8f9d6b59f38","system_id":"levelo_inurba_marseille","lat":43.23181,"lon":5.39986,"is_reserved":false,"is_disabled":true,"rental_uris":{"android":"levelo://app?vid=2490c850-e8ad-49d1-8887-b8f9d6b59f38","ios":"levelo://app?vid=2490c850-e8ad-49d1-8887-b8f9d6b59f38"},"vehicle_type_id":"4","last_reported":1745518427,"current_range_meters":8800,"station_id":"ce4bhn12rcd13ifvqgqg","pricing_plan_id":"cebpf4jnsgd1na2vs0mg"},{"bike_id":"53de0d7a-29e3-4b0b-be27-82d067ea2668","system_id":"levelo_inurba_marseille","lat":43.31698,"lon":5.37759,"is_reserved":false,"is_disabled":false,"rental_uris":{"android":"levelo://app?vid=53de0d7a-29e3-4b0b-be27-82d067ea2668","ios":"levelo://app?vid=53de0d7a-29e3-4b0b-be27-82d067ea2668"},"vehicle_type_id":"4","last_reported":1745518427,"current_range_meters":8800,"station_id":"ce4bgth2rcd13ifvqch0","pricing_plan_id":"cebpf4jnsgd1na2vs0mg"},{"bike_id":"20ce24d4-c9cf-4f08-ac0f-668ed095aa33","system_id":"levelo_inurba_marseille","lat":43.24806,"lon":5.37455,"is_reserved":false,"is_disabled":false,"rental_uris":{"android":"levelo://app?vid=20ce24d4-c9cf-4f08-ac0f-668ed095aa33","ios":"levelo://app?vid=20ce24d4-c9cf-4f08-ac0f-668ed095aa33"},"vehicle_type_id":"4","last_reported":1745518427,"current_range_meters":8800,"station_id":"ce4bhgh2rcd13ifvqfb0","pricing_plan_id":"cebpf4jnsgd1na2vs0mg"},{"bike_id":"d4905dee-6456-4325-bc9e-8f720cf7dabf","system_id":"levelo_inurba_marseille","lat":43.28922,"lon":5.38396,"is_reserved":false,"is_disabled":false,"rental_uris":{"android":"levelo://app?vid=d4905dee-6456-4325-bc9e-8f720cf7dabf","ios":"levelo://app?vid=d4905dee-6456-4325-bc9e-8f720cf7dabf"},"vehicle_type_id":"4","last_reported":1745518427,"current_range_meters":8800,"station_id":"ce4bh612rcd13ifvqe6g","pricing_plan_id":"cebpf4jnsgd1na2vs0mg"},{"bike_id":"67b9b70f-68e0-48b9-ab3a-83578fdc2060","system_id":"levelo_inurba_marseille","lat":43.334244,"lon":5.400679,"is_reserved":false,"is_disabled":false,"rental_uris":{"android":"levelo://app?vid=67b9b70f-68e0-48b9-ab3a-83578fdc2060","ios":"levelo://app?vid=67b9b70f-68e0-48b9-ab3a-83578fdc2060"},"vehicle_type_id":"4","last_reported":1745518427,"current_range_meters":9200,"station_id":"ce4bhr92rcd13ifvqhrg","pricing_plan_id":"cebpf4jnsgd1na2vs0mg"},{"bike_id":"655f4b29-e87c-477a-8cf3-f5d2d9ad4b72","system_id":"levelo_inurba_marseille","lat":43.298556,"lon":5.383886,"is_reserved":false,"is_disabled":false,"rental_uris":{"android":"levelo://app?vid=655f4b29-e87c-477a-8cf3-f5d2d9ad4b72","ios":"levelo://app?vid=655f4b29-e87c-477a-8cf3-f5d2d9ad4b72"},"vehicle_type_id":"4","last_reported":1745518427,"current_range_meters":9200,"station_id":"ce4bgj92rcd13ifvqbd0","pricing_plan_id":"cebpf4jnsgd1na2vs0mg"},{"bike_id":"d5d0d3be-83e0-40cf-babc-0a85efac44ee","system_id":"levelo_inurba_marseille","lat":43.24385,"lon":5.37065,"is_reserved":false,"is_disabled":false,"rental_uris":{"android":"levelo://app?vid=d5d0d3be-83e0-40cf-babc-0a85efac44ee","ios":"levelo://app?vid=d5d0d3be-83e0-40cf-babc-0a85efac44ee"},"vehicle_type_id":"4","last_reported":1745518427,"current_range_meters":9200,"station_id":"ce4bhhh2rcd13ifvqfk0","pricing_plan_id":"cebpf4jnsgd1na2vs0mg"},{"bike_id":"8cd89945-3452-402d-b186-42ab94aa749d","system_id":"levelo_inurba_marseille","lat":43.2924,"lon":5.36062,"is_reserved":false,"is_disabled":true,"rental_uris":{"android":"levelo://app?vid=8cd89945-3452-402d-b186-42ab94aa749d","ios":"levelo://app?vid=8cd89945-3452-402d-b186-42ab94aa749d"},"vehicle_type_id":"4","last_reported":1745518427,"current_range_meters":9200,"station_id":"ce4bhbh2rcd13ifvqeqg","pricing_plan_id":"cebpf4jnsgd1na2vs0mg"},{"bike_id":"0f7faeca-f211-4302-91c4-a32916e8a18a","system_id":"levelo_inurba_marseille","lat":43.28038,"lon":5.36944,"is_reserved":false,"is_disabled":false,"rental_uris":{"android":"levelo://app?vid=0f7faeca-f211-4302-91c4-a32916e8a18a","ios":"levelo://app?vid=0f7faeca-f211-4302-91c4-a32916e8a18a"},"vehicle_type_id":"4","last_reported":1745518427,"current_range_meters":9200,"station_id":"ce4bha12rcd13ifvqef0","pricing_plan_id":"cebpf4jnsgd1na2vs0mg"},{"bike_id":"e5e6387e-799d-49f8-9caa-4061ff31ee68","system_id":"levelo_inurba_marseille","lat":43.22504,"lon":5.34779,"is_reserved":false,"is_disabled":false,"rental_uris":{"android":"levelo://app?vid=e5e6387e-799d-49f8-9caa-4061ff31ee68","ios":"levelo://app?vid=e5e6387e-799d-49f8-9caa-4061ff31ee68"},"vehicle_type_id":"4","last_reported":1745518427,"current_range_meters":9200,"station_id":"st_cvj5dfep6f1abm77gieg","pricing_plan_id":"cebpf4jnsgd1na2vs0mg"},{"bike_id":"18321386-6007-41d7-a392-599343c03345","system_id":"levelo_inurba_marseille","lat":43.3136,"lon":5.385,"is_reserved":false,"is_disabled":true,"rental_uris":{"android":"levelo://app?vid=18321386-6007-41d7-a392-599343c03345","ios":"levelo://app?vid=18321386-6007-41d7-a392-599343c03345"},"vehicle_type_id":"4","last_reported":1745518427,"current_range_meters":9200,"station_id":"ce4bgt92rcd13ifvqcf0","pricing_plan_id":"cebpf4jnsgd1na2vs0mg"},{"bike_id":"5556de0f-0692-4786-b969-55ee922fb087","system_id":"levelo_inurba_marseille","lat":43.3042,"lon":5.41278,"is_reserved":false,"is_disabled":false,"rental_uris":{"android":"levelo://app?vid=5556de0f-0692-4786-b969-55ee922fb087","ios":"levelo://app?vid=5556de0f-0692-4786-b969-55ee922fb087"},"vehicle_type_id":"4","last_reported":1745518427,"current_range_meters":9200,"station_id":"ce4bhop2rcd13ifvqh8g","pricing_plan_id":"cebpf4jnsgd1na2vs0mg"},{"bike_id":"860293f2-27fe-4f9c-b5c3-d42426b100e7","system_id":"levelo_inurba_marseille","lat":43.28619,"lon":5.35103,"is_reserved":false,"is_disabled":false,"rental_uris":{"android":"levelo://app?vid=860293f2-27fe-4f9c-b5c3-d42426b100e7","ios":"levelo://app?vid=860293f2-27fe-4f9c-b5c3-d42426b100e7"},"vehicle_type_id":"4","last_reported":1745518427,"current_range_meters":9200,"station_id":"ce4bhch2rcd13ifvqeug","pricing_plan_id":"cebpf4jnsgd1na2vs0mg"},{"bike_id":"a8cbeda1-ab39-4910-ab1b-14f7ed8dd846","system_id":"levelo_inurba_marseille","lat":43.29027,"lon":5.38653,"is_reserved":false,"is_disabled":false,"rental_uris":{"android":"levelo://app?vid=a8cbeda1-ab39-4910-ab1b-14f7ed8dd846","ios":"levelo://app?vid=a8cbeda1-ab39-4910-ab1b-14f7ed8dd846"},"vehicle_type_id":"4","last_reported":1745518427,"current_range_meters":9200,"station_id":"ce4bh4p2rcd13ifvqe0g","pricing_plan_id":"cebpf4jnsgd1na2vs0mg"},{"bike_id":"486a58b3-6ad0-49b9-8ae4-2309bf84f59a","system_id":"levelo_inurba_marseille","lat":43.2927,"lon":5.38432,"is_reserved":false,"is_disabled":false,"rental_uris":{"android":"levelo://app?vid=486a58b3-6ad0-49b9-8ae4-2309bf84f59a","ios":"levelo://app?vid=486a58b3-6ad0-49b9-8ae4-2309bf84f59a"},"vehicle_type_id":"4","last_reported":1745518427,"current_range_meters":9200,"station_id":"ce4bh692rcd13ifvqea0","pricing_plan_id":"cebpf4jnsgd1na2vs0mg"},{"bike_id":"539309ff-ced1-4291-94c1-a0893d75bc98","system_id":"levelo_inurba_marseille","lat":43.31885,"lon":5.40741,"is_reserved":false,"is_disabled":false,"rental_uris":{"android":"levelo://app?vid=539309ff-ced1-4291-94c1-a0893d75bc98","ios":"levelo://app?vid=539309ff-ced1-4291-94c1-a0893d75bc98"},"vehicle_type_id":"4","last_reported":1745518427,"current_range_meters":9200,"station_id":"ce4bhq12rcd13ifvqhig","pricing_plan_id":"cebpf4jnsgd1na2vs0mg"},{"bike_id":"94175c55-a1b8-454e-8864-a4f590effe31","system_id":"levelo_inurba_marseille","lat":43.32364,"lon":5.38882,"is_reserved":false,"is_disabled":false,"rental_uris":{"android":"levelo://app?vid=94175c55-a1b8-454e-8864-a4f590effe31","ios":"levelo://app?vid=94175c55-a1b8-454e-8864-a4f590effe31"},"vehicle_type_id":"4","last_reported":1745518427,"current_range_meters":9200,"station_id":"ce4bhqp2rcd13ifvqhog","pricing_plan_id":"cebpf4jnsgd1na2vs0mg"},{"bike_id":"99862305-32a2-444d-8334-228f5792e221","system_id":"levelo_inurba_marseille","lat":43.29271,"lon":5.36837,"is_reserved":false,"is_disabled":true,"rental_uris":{"android":"levelo://app?vid=99862305-32a2-444d-8334-228f5792e221","ios":"levelo://app?vid=99862305-32a2-444d-8334-228f5792e221"},"vehicle_type_id":"4","last_reported":1745518427,"current_range_meters":9200,"station_id":"ce4bhbp2rcd13ifvqesg","pricing_plan_id":"cebpf4jnsgd1na2vs0mg"},{"bike_id":"66a16702-e2d4-40c7-885d-33467e69d9f7","system_id":"levelo_inurba_marseille","lat":43.3122,"lon":5.36869,"is_reserved":false,"is_disabled":false,"rental_uris":{"android":"levelo://app?vid=66a16702-e2d4-40c7-885d-33467e69d9f7","ios":"levelo://app?vid=66a16702-e2d4-40c7-885d-33467e69d9f7"},"vehicle_type_id":"4","last_reported":1745518427,"current_range_meters":9200,"station_id":"ce4bgl92rcd13ifvqbq0","pricing_plan_id":"cebpf4jnsgd1na2vs0mg"},{"bike_id":"4dde122b-ce6b-4078-bd73-cf148e5789b9","system_id":"levelo_inurba_marseille","lat":43.29003,"lon":5.35613,"is_reserved":false,"is_disabled":false,"rental_uris":{"android":"levelo://app?vid=4dde122b-ce6b-4078-bd73-cf148e5789b9","ios":"levelo://app?vid=4dde122b-ce6b-4078-bd73-cf148e5789b9"},"vehicle_type_id":"4","last_reported":1745518427,"current_range_meters":9600,"station_id":"ce4bhb92rcd13ifvqen0","pricing_plan_id":"cebpf4jnsgd1na2vs0mg"},{"bike_id":"3991d22e-035a-461b-bdab-dc582fbcef3a","system_id":"levelo_inurba_marseille","lat":43.29001,"lon":5.35631,"is_reserved":false,"is_disabled":false,"rental_uris":{"android":"levelo://app?vid=3991d22e-035a-461b-bdab-dc582fbcef3a","ios":"levelo://app?vid=3991d22e-035a-461b-bdab-dc582fbcef3a"},"vehicle_type_id":"4","last_reported":1745518427,"current_range_meters":9600,"station_id":"ce4bhb92rcd13ifvqen0","pricing_plan_id":"cebpf4jnsgd1na2vs0mg"},{"bike_id":"eb772212-defc-4543-ad57-fa606af571fb","system_id":"levelo_inurba_marseille","lat":43.2324,"lon":5.40021,"is_reserved":false,"is_disabled":false,"rental_uris":{"android":"levelo://app?vid=eb772212-defc-4543-ad57-fa606af571fb","ios":"levelo://app?vid=eb772212-defc-4543-ad57-fa606af571fb"},"vehicle_type_id":"4","last_reported":1745518427,"current_range_meters":9600,"station_id":"","pricing_plan_id":"cebpf4jnsgd1na2vs0mg"},{"bike_id":"080cab47-fc5c-4720-9f68-2d6fd6f97581","system_id":"levelo_inurba_marseille","lat":43.28444,"lon":5.39208,"is_reserved":false,"is_disabled":false,"rental_uris":{"android":"levelo://app?vid=080cab47-fc5c-4720-9f68-2d6fd6f97581","ios":"levelo://app?vid=080cab47-fc5c-4720-9f68-2d6fd6f97581"},"vehicle_type_id":"4","last_reported":1745518427,"current_range_meters":9600,"station_id":"ce4bhoh2rcd13ifvqh5g","pricing_plan_id":"cebpf4jnsgd1na2vs0mg"},{"bike_id":"0013966c-ef97-46fc-a9b6-b1eb056f8ad3","system_id":"levelo_inurba_marseille","lat":43.24064,"lon":5.37725,"is_reserved":false,"is_disabled":false,"rental_uris":{"android":"levelo://app?vid=0013966c-ef97-46fc-a9b6-b1eb056f8ad3","ios":"levelo://app?vid=0013966c-ef97-46fc-a9b6-b1eb056f8ad3"},"vehicle_type_id":"4","last_reported":1745518427,"current_range_meters":10000,"station_id":"ce4bhnp2rcd13ifvqgvg","pricing_plan_id":"cebpf4jnsgd1na2vs0mg"},{"bike_id":"987ac93d-754c-4ba5-96ff-410c53ef68b9","system_id":"levelo_inurba_marseille","lat":43.284,"lon":5.375123,"is_reserved":false,"is_disabled":false,"rental_uris":{"android":"levelo://app?vid=987ac93d-754c-4ba5-96ff-410c53ef68b9","ios":"levelo://app?vid=987ac93d-754c-4ba5-96ff-410c53ef68b9"},"vehicle_type_id":"4","last_reported":1745518427,"current_range_meters":10000,"station_id":"ce4bh412rcd13ifvqds0","pricing_plan_id":"cebpf4jnsgd1na2vs0mg"},{"bike_id":"a3f6c218-ef27-4405-a8bc-4183dcdfe994","system_id":"levelo_inurba_marseille","lat":43.26201,"lon":5.3793,"is_reserved":false,"is_disabled":false,"rental_uris":{"android":"levelo://app?vid=a3f6c218-ef27-4405-a8bc-4183dcdfe994","ios":"levelo://app?vid=a3f6c218-ef27-4405-a8bc-4183dcdfe994"},"vehicle_type_id":"4","last_reported":1745518427,"current_range_meters":10000,"station_id":"ce4bhjp2rcd13ifvqg90","pricing_plan_id":"cebpf4jnsgd1na2vs0mg"},{"bike_id":"3b76137a-d048-4603-a33f-c27afe621ae0","system_id":"levelo_inurba_marseille","lat":43.29529,"lon":5.37506,"is_reserved":false,"is_disabled":false,"rental_uris":{"android":"levelo://app?vid=3b76137a-d048-4603-a33f-c27afe621ae0","ios":"levelo://app?vid=3b76137a-d048-4603-a33f-c27afe621ae0"},"vehicle_type_id":"4","last_reported":1745518427,"current_range_meters":10000,"station_id":"ce4bgkp2rcd13ifvqbmg","pricing_plan_id":"cebpf4jnsgd1na2vs0mg"},{"bike_id":"e5f9cb3f-40eb-4a4f-8838-1016c7fba46c","system_id":"levelo_inurba_marseille","lat":43.29873,"lon":5.38906,"is_reserved":false,"is_disabled":false,"rental_uris":{"android":"levelo://app?vid=e5f9cb3f-40eb-4a4f-8838-1016c7fba46c","ios":"levelo://app?vid=e5f9cb3f-40eb-4a4f-8838-1016c7fba46c"},"vehicle_type_id":"4","last_reported":1745518427,"current_range_meters":10000,"station_id":"ce4bh392rcd13ifvqdl0","pricing_plan_id":"cebpf4jnsgd1na2vs0mg"},{"bike_id":"f6c8aa27-321b-4c62-9b8e-f417a5b33aab","system_id":"levelo_inurba_marseille","lat":43.29415,"lon":5.38626,"is_reserved":false,"is_disabled":false,"rental_uris":{"android":"levelo://app?vid=f6c8aa27-321b-4c62-9b8e-f417a5b33aab","ios":"levelo://app?vid=f6c8aa27-321b-4c62-9b8e-f417a5b33aab"},"vehicle_type_id":"4","last_reported":1745518427,"current_range_meters":12000,"station_id":"ce4bh2h2rcd13ifvqdh0","pricing_plan_id":"cebpf4jnsgd1na2vs0mg"},{"bike_id":"0425aad2-a45e-4a1e-9725-6cc360a5fd67","system_id":"levelo_inurba_marseille","lat":43.30317,"lon":5.36887,"is_reserved":false,"is_disabled":false,"rental_uris":{"android":"levelo://app?vid=0425aad2-a45e-4a1e-9725-6cc360a5fd67","ios":"levelo://app?vid=0425aad2-a45e-4a1e-9725-6cc360a5fd67"},"vehicle_type_id":"4","last_reported":1745518427,"current_range_meters":10800,"station_id":"ce4bgqh2rcd13ifvqc5g","pricing_plan_id":"cebpf4jnsgd1na2vs0mg"},{"bike_id":"46374c49-3adc-4c5a-8966-e00f056c0d57","system_id":"levelo_inurba_marseille","lat":43.27846,"lon":5.35442,"is_reserved":false,"is_disabled":false,"rental_uris":{"android":"levelo://app?vid=46374c49-3adc-4c5a-8966-e00f056c0d57","ios":"levelo://app?vid=46374c49-3adc-4c5a-8966-e00f056c0d57"},"vehicle_type_id":"4","last_reported":1745518427,"current_range_meters":10800,"station_id":"","pricing_plan_id":"cebpf4jnsgd1na2vs0mg"},{"bike_id":"6dbfc9d1-df46-41a1-8e24-30aaeca4e7e6","system_id":"levelo_inurba_marseille","lat":43.23959,"lon":5.36631,"is_reserved":false,"is_disabled":false,"rental_uris":{"android":"levelo://app?vid=6dbfc9d1-df46-41a1-8e24-30aaeca4e7e6","ios":"levelo://app?vid=6dbfc9d1-df46-41a1-8e24-30aaeca4e7e6"},"vehicle_type_id":"4","last_reported":1745518427,"current_range_meters":10800,"station_id":"ce4bhi12rcd13ifvqfp0","pricing_plan_id":"cebpf4jnsgd1na2vs0mg"},{"bike_id":"6bf9068d-d3fb-485c-aff8-933f2bddd83d","system_id":"levelo_inurba_marseille","lat":43.269292,"lon":5.389209,"is_reserved":false,"is_disabled":false,"rental_uris":{"android":"levelo://app?vid=6bf9068d-d3fb-485c-aff8-933f2bddd83d","ios":"levelo://app?vid=6bf9068d-d3fb-485c-aff8-933f2bddd83d"},"vehicle_type_id":"4","last_reported":1745518427,"current_range_meters":10000,"station_id":"ce4bhhh2rcd13ifvqfl0","pricing_plan_id":"cebpf4jnsgd1na2vs0mg"},{"bike_id":"b2dd1eec-5fa7-426e-9b0b-7d45935214a0","system_id":"levelo_inurba_marseille","lat":43.28146,"lon":5.42652,"is_reserved":false,"is_disabled":false,"rental_uris":{"android":"levelo://app?vid=b2dd1eec-5fa7-426e-9b0b-7d45935214a0","ios":"levelo://app?vid=b2dd1eec-5fa7-426e-9b0b-7d45935214a0"},"vehicle_type_id":"4","last_reported":1745518427,"current_range_meters":10800,"station_id":"ce4bhnh2rcd13ifvqgug","pricing_plan_id":"cebpf4jnsgd1na2vs0mg"},{"bike_id":"894d13de-fdb1-4f60-99c3-da1438056ad2","system_id":"levelo_inurba_marseille","lat":43.31879,"lon":5.40732,"is_reserved":false,"is_disabled":false,"rental_uris":{"android":"levelo://app?vid=894d13de-fdb1-4f60-99c3-da1438056ad2","ios":"levelo://app?vid=894d13de-fdb1-4f60-99c3-da1438056ad2"},"vehicle_type_id":"4","last_reported":1745518427,"current_range_meters":11200,"station_id":"ce4bhq12rcd13ifvqhig","pricing_plan_id":"cebpf4jnsgd1na2vs0mg"},{"bike_id":"b6807da3-69ca-4f9d-9ad3-6071e0b325f0","system_id":"levelo_inurba_marseille","lat":43.336166,"lon":5.410327,"is_reserved":false,"is_disabled":false,"rental_uris":{"android":"levelo://app?vid=b6807da3-69ca-4f9d-9ad3-6071e0b325f0","ios":"levelo://app?vid=b6807da3-69ca-4f9d-9ad3-6071e0b325f0"},"vehicle_type_id":"4","last_reported":1745518427,"current_range_meters":11200,"station_id":"ce4bhqh2rcd13ifvqhmg","pricing_plan_id":"cebpf4jnsgd1na2vs0mg"},{"bike_id":"aeff5af1-65e2-470b-ad14-26104fb2a1c5","system_id":"levelo_inurba_marseille","lat":43.28157,"lon":5.42646,"is_reserved":false,"is_disabled":false,"rental_uris":{"android":"levelo://app?vid=aeff5af1-65e2-470b-ad14-26104fb2a1c5","ios":"levelo://app?vid=aeff5af1-65e2-470b-ad14-26104fb2a1c5"},"vehicle_type_id":"4","last_reported":1745518427,"current_range_meters":11600,"station_id":"ce4bhnh2rcd13ifvqgug","pricing_plan_id":"cebpf4jnsgd1na2vs0mg"},{"bike_id":"d4a8fafa-88a7-48bf-b5a7-839e5bc03db8","system_id":"levelo_inurba_marseille","lat":43.25026,"lon":5.38931,"is_reserved":false,"is_disabled":true,"rental_uris":{"android":"levelo://app?vid=d4a8fafa-88a7-48bf-b5a7-839e5bc03db8","ios":"levelo://app?vid=d4a8fafa-88a7-48bf-b5a7-839e5bc03db8"},"vehicle_type_id":"4","last_reported":1745518427,"current_range_meters":11600,"station_id":"ce4bhgp2rcd13ifvqfd0","pricing_plan_id":"cebpf4jnsgd1na2vs0mg"},{"bike_id":"6b83baec-1b32-4a68-bdbd-8a2b98d7d41a","system_id":"levelo_inurba_marseille","lat":43.2742,"lon":5.39415,"is_reserved":false,"is_disabled":false,"rental_uris":{"android":"levelo://app?vid=6b83baec-1b32-4a68-bdbd-8a2b98d7d41a","ios":"levelo://app?vid=6b83baec-1b32-4a68-bdbd-8a2b98d7d41a"},"vehicle_type_id":"4","last_reported":1745518427,"current_range_meters":11600,"station_id":"ce4bhdp2rcd13ifvqf20","pricing_plan_id":"cebpf4jnsgd1na2vs0mg"},{"bike_id":"93296ef5-8a99-47f4-bbce-c3ba49c539a4","system_id":"levelo_inurba_marseille","lat":43.2439,"lon":5.37063,"is_reserved":false,"is_disabled":false,"rental_uris":{"android":"levelo://app?vid=93296ef5-8a99-47f4-bbce-c3ba49c539a4","ios":"levelo://app?vid=93296ef5-8a99-47f4-bbce-c3ba49c539a4"},"vehicle_type_id":"4","last_reported":1745518427,"current_range_meters":12000,"station_id":"ce4bhhh2rcd13ifvqfk0","pricing_plan_id":"cebpf4jnsgd1na2vs0mg"},{"bike_id":"94bb1a94-bc30-4306-a458-4c9de9eafa93","system_id":"levelo_inurba_marseille","lat":43.27919,"lon":5.39573,"is_reserved":false,"is_disabled":false,"rental_uris":{"android":"levelo://app?vid=94bb1a94-bc30-4306-a458-4c9de9eafa93","ios":"levelo://app?vid=94bb1a94-bc30-4306-a458-4c9de9eafa93"},"vehicle_type_id":"4","last_reported":1745518427,"current_range_meters":12000,"station_id":"ce4bhf92rcd13ifvqf40","pricing_plan_id":"cebpf4jnsgd1na2vs0mg"},{"bike_id":"50784353-577b-421e-be09-4c46ebb6cd1d","system_id":"levelo_inurba_marseille","lat":43.28663,"lon":5.36349,"is_reserved":false,"is_disabled":false,"rental_uris":{"android":"levelo://app?vid=50784353-577b-421e-be09-4c46ebb6cd1d","ios":"levelo://app?vid=50784353-577b-421e-be09-4c46ebb6cd1d"},"vehicle_type_id":"4","last_reported":1745518427,"current_range_meters":12000,"station_id":"ce4bhah2rcd13ifvqej0","pricing_plan_id":"cebpf4jnsgd1na2vs0mg"},{"bike_id":"4b0880ac-5d5b-45df-9b1b-d71d07a5c84b","system_id":"levelo_inurba_marseille","lat":43.31355,"lon":5.38495,"is_reserved":false,"is_disabled":false,"rental_uris":{"android":"levelo://app?vid=4b0880ac-5d5b-45df-9b1b-d71d07a5c84b","ios":"levelo://app?vid=4b0880ac-5d5b-45df-9b1b-d71d07a5c84b"},"vehicle_type_id":"4","last_reported":1745518427,"current_range_meters":12000,"station_id":"ce4bgt92rcd13ifvqcf0","pricing_plan_id":"cebpf4jnsgd1na2vs0mg"},{"bike_id":"f3a897dc-7a19-4ebe-a670-eedd4cd70a50","system_id":"levelo_inurba_marseille","lat":43.29514,"lon":5.39033,"is_reserved":false,"is_disabled":false,"rental_uris":{"android":"levelo://app?vid=f3a897dc-7a19-4ebe-a670-eedd4cd70a50","ios":"levelo://app?vid=f3a897dc-7a19-4ebe-a670-eedd4cd70a50"},"vehicle_type_id":"4","last_reported":1745518427,"current_range_meters":12400,"station_id":"ce4bh3p2rcd13ifvqdp0","pricing_plan_id":"cebpf4jnsgd1na2vs0mg"},{"bike_id":"e088d56a-f1a5-4136-a701-29ba2a6cb875","system_id":"levelo_inurba_marseille","lat":43.217731,"lon":5.346081,"is_reserved":false,"is_disabled":false,"rental_uris":{"android":"levelo://app?vid=e088d56a-f1a5-4136-a701-29ba2a6cb875","ios":"levelo://app?vid=e088d56a-f1a5-4136-a701-29ba2a6cb875"},"vehicle_type_id":"4","last_reported":1745518427,"current_range_meters":12400,"station_id":"st_cvj6r9ubvosntc0bgbag","pricing_plan_id":"cebpf4jnsgd1na2vs0mg"},{"bike_id":"f1be4ef7-3835-4b3c-9599-415461319fd7","system_id":"levelo_inurba_marseille","lat":43.31174,"lon":5.38722,"is_reserved":false,"is_disabled":false,"rental_uris":{"android":"levelo://app?vid=f1be4ef7-3835-4b3c-9599-415461319fd7","ios":"levelo://app?vid=f1be4ef7-3835-4b3c-9599-415461319fd7"},"vehicle_type_id":"4","last_reported":1745518427,"current_range_meters":12400,"station_id":"ce4bgv12rcd13ifvqcp0","pricing_plan_id":"cebpf4jnsgd1na2vs0mg"},{"bike_id":"3a41a14b-b60d-411c-aa4a-3b7d3df773ad","system_id":"levelo_inurba_marseille","lat":43.30214,"lon":5.36595,"is_reserved":false,"is_disabled":true,"rental_uris":{"android":"levelo://app?vid=3a41a14b-b60d-411c-aa4a-3b7d3df773ad","ios":"levelo://app?vid=3a41a14b-b60d-411c-aa4a-3b7d3df773ad"},"vehicle_type_id":"4","last_reported":1745518427,"current_range_meters":12400,"station_id":"ce4bgrh2rcd13ifvqc8g","pricing_plan_id":"cebpf4jnsgd1na2vs0mg"},{"bike_id":"b42203e0-e5e9-4823-b4b5-fb006caebaa2","system_id":"levelo_inurba_marseille","lat":43.29435,"lon":5.38621,"is_reserved":false,"is_disabled":false,"rental_uris":{"android":"levelo://app?vid=b42203e0-e5e9-4823-b4b5-fb006caebaa2","ios":"levelo://app?vid=b42203e0-e5e9-4823-b4b5-fb006caebaa2"},"vehicle_type_id":"4","last_reported":1745518427,"current_range_meters":12800,"station_id":"ce4bh2h2rcd13ifvqdh0","pricing_plan_id":"cebpf4jnsgd1na2vs0mg"},{"bike_id":"84c51a55-47b7-4b91-88f0-0d5a084f2e8f","system_id":"levelo_inurba_marseille","lat":43.28036,"lon":5.36937,"is_reserved":false,"is_disabled":false,"rental_uris":{"android":"levelo://app?vid=84c51a55-47b7-4b91-88f0-0d5a084f2e8f","ios":"levelo://app?vid=84c51a55-47b7-4b91-88f0-0d5a084f2e8f"},"vehicle_type_id":"4","last_reported":1745518427,"current_range_meters":12800,"station_id":"ce4bha12rcd13ifvqef0","pricing_plan_id":"cebpf4jnsgd1na2vs0mg"},{"bike_id":"6b47e363-97d7-4f27-a1bc-0c90c93b82cc","system_id":"levelo_inurba_marseille","lat":43.28713,"lon":5.37933,"is_reserved":false,"is_disabled":false,"rental_uris":{"android":"levelo://app?vid=6b47e363-97d7-4f27-a1bc-0c90c93b82cc","ios":"levelo://app?vid=6b47e363-97d7-4f27-a1bc-0c90c93b82cc"},"vehicle_type_id":"4","last_reported":1745518427,"current_range_meters":12800,"station_id":"ce4bh9p2rcd13ifvqec0","pricing_plan_id":"cebpf4jnsgd1na2vs0mg"},{"bike_id":"f226b878-c6cd-4e86-913a-3d1e7d20d65a","system_id":"levelo_inurba_marseille","lat":43.30543,"lon":5.36518,"is_reserved":false,"is_disabled":false,"rental_uris":{"android":"levelo://app?vid=f226b878-c6cd-4e86-913a-3d1e7d20d65a","ios":"levelo://app?vid=f226b878-c6cd-4e86-913a-3d1e7d20d65a"},"vehicle_type_id":"4","last_reported":1745518427,"current_range_meters":12800,"station_id":"ce4bgs12rcd13ifvqcag","pricing_plan_id":"cebpf4jnsgd1na2vs0mg"},{"bike_id":"1fc171ed-f714-4544-b167-e6bd50b824cd","system_id":"levelo_inurba_marseille","lat":43.302089,"lon":5.39463,"is_reserved":false,"is_disabled":false,"rental_uris":{"android":"levelo://app?vid=1fc171ed-f714-4544-b167-e6bd50b824cd","ios":"levelo://app?vid=1fc171ed-f714-4544-b167-e6bd50b824cd"},"vehicle_type_id":"4","last_reported":1745518427,"current_range_meters":12800,"station_id":"ce4bh0p2rcd13ifvqd70","pricing_plan_id":"cebpf4jnsgd1na2vs0mg"},{"bike_id":"9ddf901c-17b7-41a5-ab10-51e5206ab36e","system_id":"levelo_inurba_marseille","lat":43.32998,"lon":5.39027,"is_reserved":false,"is_disabled":false,"rental_uris":{"android":"levelo://app?vid=9ddf901c-17b7-41a5-ab10-51e5206ab36e","ios":"levelo://app?vid=9ddf901c-17b7-41a5-ab10-51e5206ab36e"},"vehicle_type_id":"4","last_reported":1745518427,"current_range_meters":12800,"station_id":"ce4bhr92rcd13ifvqhrg","pricing_plan_id":"cebpf4jnsgd1na2vs0mg"},{"bike_id":"79220c9a-2d1d-4aca-aabf-616b9ddc422d","system_id":"levelo_inurba_marseille","lat":43.31368,"lon":5.38498,"is_reserved":false,"is_disabled":false,"rental_uris":{"android":"levelo://app?vid=79220c9a-2d1d-4aca-aabf-616b9ddc422d","ios":"levelo://app?vid=79220c9a-2d1d-4aca-aabf-616b9ddc422d"},"vehicle_type_id":"4","last_reported":1745518427,"current_range_meters":12800,"station_id":"ce4bgt92rcd13ifvqcf0","pricing_plan_id":"cebpf4jnsgd1na2vs0mg"},{"bike_id":"fa8a552a-d2d3-4e8d-8d8e-02bdba037836","system_id":"levelo_inurba_marseille","lat":43.23099,"lon":5.35495,"is_reserved":false,"is_disabled":false,"rental_uris":{"android":"levelo://app?vid=fa8a552a-d2d3-4e8d-8d8e-02bdba037836","ios":"levelo://app?vid=fa8a552a-d2d3-4e8d-8d8e-02bdba037836"},"vehicle_type_id":"4","last_reported":1745518427,"current_range_meters":12800,"station_id":"","pricing_plan_id":"cebpf4jnsgd1na2vs0mg"},{"bike_id":"6c07701a-8c9d-42b3-88f5-7017a41eecdf","system_id":"levelo_inurba_marseille","lat":43.295143,"lon":5.390311,"is_reserved":false,"is_disabled":false,"rental_uris":{"android":"levelo://app?vid=6c07701a-8c9d-42b3-88f5-7017a41eecdf","ios":"levelo://app?vid=6c07701a-8c9d-42b3-88f5-7017a41eecdf"},"vehicle_type_id":"4","last_reported":1745518427,"current_range_meters":13600,"station_id":"ce4bh3p2rcd13ifvqdp0","pricing_plan_id":"cebpf4jnsgd1na2vs0mg"},{"bike_id":"ed817ff6-2b8f-4998-ae7c-830fc998e6ee","system_id":"levelo_inurba_marseille","lat":43.25713,"lon":5.41115,"is_reserved":false,"is_disabled":false,"rental_uris":{"android":"levelo://app?vid=ed817ff6-2b8f-4998-ae7c-830fc998e6ee","ios":"levelo://app?vid=ed817ff6-2b8f-4998-ae7c-830fc998e6ee"},"vehicle_type_id":"4","last_reported":1745518427,"current_range_meters":13600,"station_id":"ce4bhkp2rcd13ifvqgd0","pricing_plan_id":"cebpf4jnsgd1na2vs0mg"},{"bike_id":"26d49d4a-a485-4dfb-9c80-83e95967e003","system_id":"levelo_inurba_marseille","lat":43.24385,"lon":5.37065,"is_reserved":false,"is_disabled":false,"rental_uris":{"android":"levelo://app?vid=26d49d4a-a485-4dfb-9c80-83e95967e003","ios":"levelo://app?vid=26d49d4a-a485-4dfb-9c80-83e95967e003"},"vehicle_type_id":"4","last_reported":1745518427,"current_range_meters":13600,"station_id":"ce4bhhh2rcd13ifvqfk0","pricing_plan_id":"cebpf4jnsgd1na2vs0mg"},{"bike_id":"1b8a82dd-1c7d-4ea2-8a4e-e198158320b5","system_id":"levelo_inurba_marseille","lat":43.25719,"lon":5.41112,"is_reserved":false,"is_disabled":false,"rental_uris":{"android":"levelo://app?vid=1b8a82dd-1c7d-4ea2-8a4e-e198158320b5","ios":"levelo://app?vid=1b8a82dd-1c7d-4ea2-8a4e-e198158320b5"},"vehicle_type_id":"4","last_reported":1745518427,"current_range_meters":14000,"station_id":"ce4bhkp2rcd13ifvqgd0","pricing_plan_id":"cebpf4jnsgd1na2vs0mg"},{"bike_id":"977495de-ecb7-4704-a62f-c99082cea5fb","system_id":"levelo_inurba_marseille","lat":43.28035,"lon":5.35654,"is_reserved":false,"is_disabled":false,"rental_uris":{"android":"levelo://app?vid=977495de-ecb7-4704-a62f-c99082cea5fb","ios":"levelo://app?vid=977495de-ecb7-4704-a62f-c99082cea5fb"},"vehicle_type_id":"4","last_reported":1745518427,"current_range_meters":14000,"station_id":"ce4bhah2rcd13ifvqei0","pricing_plan_id":"cebpf4jnsgd1na2vs0mg"},{"bike_id":"b44167dc-f965-4b41-bccb-5a9729b9a969","system_id":"levelo_inurba_marseille","lat":43.316896,"lon":5.404844,"is_reserved":false,"is_disabled":false,"rental_uris":{"android":"levelo://app?vid=b44167dc-f965-4b41-bccb-5a9729b9a969","ios":"levelo://app?vid=b44167dc-f965-4b41-bccb-5a9729b9a969"},"vehicle_type_id":"4","last_reported":1745518427,"current_range_meters":14000,"station_id":"ce4bh012rcd13ifvqd00","pricing_plan_id":"cebpf4jnsgd1na2vs0mg"},{"bike_id":"1be0eb9c-f13a-4528-a70c-da833c79b49f","system_id":"levelo_inurba_marseille","lat":43.29409,"lon":5.38638,"is_reserved":false,"is_disabled":true,"rental_uris":{"android":"levelo://app?vid=1be0eb9c-f13a-4528-a70c-da833c79b49f","ios":"levelo://app?vid=1be0eb9c-f13a-4528-a70c-da833c79b49f"},"vehicle_type_id":"4","last_reported":1745518427,"current_range_meters":14400,"station_id":"ce4bh2h2rcd13ifvqdh0","pricing_plan_id":"cebpf4jnsgd1na2vs0mg"},{"bike_id":"407859f8-ad6e-4706-b576-c01bcdb7c801","system_id":"levelo_inurba_marseille","lat":43.29852,"lon":5.36294,"is_reserved":false,"is_disabled":true,"rental_uris":{"android":"levelo://app?vid=407859f8-ad6e-4706-b576-c01bcdb7c801","ios":"levelo://app?vid=407859f8-ad6e-4706-b576-c01bcdb7c801"},"vehicle_type_id":"4","last_reported":1745518427,"current_range_meters":14400,"station_id":"ce4bgpp2rcd13ifvqc3g","pricing_plan_id":"cebpf4jnsgd1na2vs0mg"},{"bike_id":"e5ce8665-a65a-4665-a9bf-20161043b43d","system_id":"levelo_inurba_marseille","lat":43.28612,"lon":5.35107,"is_reserved":false,"is_disabled":false,"rental_uris":{"android":"levelo://app?vid=e5ce8665-a65a-4665-a9bf-20161043b43d","ios":"levelo://app?vid=e5ce8665-a65a-4665-a9bf-20161043b43d"},"vehicle_type_id":"4","last_reported":1745518427,"current_range_meters":14400,"station_id":"ce4bhch2rcd13ifvqeug","pricing_plan_id":"cebpf4jnsgd1na2vs0mg"},{"bike_id":"2ffeb82a-ced6-4cc5-9993-7effe67f38ab","system_id":"levelo_inurba_marseille","lat":43.24072,"lon":5.37758,"is_reserved":false,"is_disabled":false,"rental_uris":{"android":"levelo://app?vid=2ffeb82a-ced6-4cc5-9993-7effe67f38ab","ios":"levelo://app?vid=2ffeb82a-ced6-4cc5-9993-7effe67f38ab"},"vehicle_type_id":"4","last_reported":1745518427,"current_range_meters":14400,"station_id":"ce4bhnp2rcd13ifvqgvg","pricing_plan_id":"cebpf4jnsgd1na2vs0mg"},{"bike_id":"856b0a1c-2c0e-4ee8-bf2c-beb11d65a57a","system_id":"levelo_inurba_marseille","lat":43.25862,"lon":5.39898,"is_reserved":false,"is_disabled":false,"rental_uris":{"android":"levelo://app?vid=856b0a1c-2c0e-4ee8-bf2c-beb11d65a57a","ios":"levelo://app?vid=856b0a1c-2c0e-4ee8-bf2c-beb11d65a57a"},"vehicle_type_id":"4","last_reported":1745518427,"current_range_meters":14800,"station_id":"ce4bhl92rcd13ifvqghg","pricing_plan_id":"cebpf4jnsgd1na2vs0mg"},{"bike_id":"361f43f0-a424-4aaa-850e-dac67419781b","system_id":"levelo_inurba_marseille","lat":43.27375,"lon":5.36259,"is_reserved":false,"is_disabled":false,"rental_uris":{"android":"levelo://app?vid=361f43f0-a424-4aaa-850e-dac67419781b","ios":"levelo://app?vid=361f43f0-a424-4aaa-850e-dac67419781b"},"vehicle_type_id":"4","last_reported":1745518427,"current_range_meters":14800,"station_id":"ce4bhbh2rcd13ifvqeo0","pricing_plan_id":"cebpf4jnsgd1na2vs0mg"},{"bike_id":"844bea76-b19f-49aa-8faf-017738c4a388","system_id":"levelo_inurba_marseille","lat":43.27914,"lon":5.39582,"is_reserved":false,"is_disabled":false,"rental_uris":{"android":"levelo://app?vid=844bea76-b19f-49aa-8faf-017738c4a388","ios":"levelo://app?vid=844bea76-b19f-49aa-8faf-017738c4a388"},"vehicle_type_id":"4","last_reported":1745518427,"current_range_meters":14800,"station_id":"ce4bhf92rcd13ifvqf40","pricing_plan_id":"cebpf4jnsgd1na2vs0mg"},{"bike_id":"ec30c27c-48ca-44b5-b64c-3dd3dfeb5f53","system_id":"levelo_inurba_marseille","lat":43.23952,"lon":5.36649,"is_reserved":false,"is_disabled":false,"rental_uris":{"android":"levelo://app?vid=ec30c27c-48ca-44b5-b64c-3dd3dfeb5f53","ios":"levelo://app?vid=ec30c27c-48ca-44b5-b64c-3dd3dfeb5f53"},"vehicle_type_id":"4","last_reported":1745518427,"current_range_meters":14800,"station_id":"ce4bhi12rcd13ifvqfp0","pricing_plan_id":"cebpf4jnsgd1na2vs0mg"},{"bike_id":"339754c1-aa4b-4dcc-b0d5-7afda1c99d6c","system_id":"levelo_inurba_marseille","lat":43.25498,"lon":5.37649,"is_reserved":false,"is_disabled":false,"rental_uris":{"android":"levelo://app?vid=339754c1-aa4b-4dcc-b0d5-7afda1c99d6c","ios":"levelo://app?vid=339754c1-aa4b-4dcc-b0d5-7afda1c99d6c"},"vehicle_type_id":"4","last_reported":1745518427,"current_range_meters":14800,"station_id":"ce4bhh12rcd13ifvqff0","pricing_plan_id":"cebpf4jnsgd1na2vs0mg"},{"bike_id":"68083c12-b309-44b0-8d71-7e38dc1db9d9","system_id":"levelo_inurba_marseille","lat":43.28852,"lon":5.35852,"is_reserved":false,"is_disabled":false,"rental_uris":{"android":"levelo://app?vid=68083c12-b309-44b0-8d71-7e38dc1db9d9","ios":"levelo://app?vid=68083c12-b309-44b0-8d71-7e38dc1db9d9"},"vehicle_type_id":"4","last_reported":1745518427,"current_range_meters":14800,"station_id":"ce4bhb12rcd13ifvqem0","pricing_plan_id":"cebpf4jnsgd1na2vs0mg"},{"bike_id":"cd906bce-52be-45be-8f08-cdeb623de131","system_id":"levelo_inurba_marseille","lat":43.28189,"lon":5.40419,"is_reserved":false,"is_disabled":false,"rental_uris":{"android":"levelo://app?vid=cd906bce-52be-45be-8f08-cdeb623de131","ios":"levelo://app?vid=cd906bce-52be-45be-8f08-cdeb623de131"},"vehicle_type_id":"4","last_reported":1745518427,"current_range_meters":15200,"station_id":"","pricing_plan_id":"cebpf4jnsgd1na2vs0mg"},{"bike_id":"24d894ab-7267-4b40-99af-b1bffdb7623b","system_id":"levelo_inurba_marseille","lat":43.30417,"lon":5.41282,"is_reserved":false,"is_disabled":false,"rental_uris":{"android":"levelo://app?vid=24d894ab-7267-4b40-99af-b1bffdb7623b","ios":"levelo://app?vid=24d894ab-7267-4b40-99af-b1bffdb7623b"},"vehicle_type_id":"4","last_reported":1745518427,"current_range_meters":15200,"station_id":"ce4bhop2rcd13ifvqh8g","pricing_plan_id":"cebpf4jnsgd1na2vs0mg"},{"bike_id":"ba204b31-7251-4ed5-84a4-145dba17f3ef","system_id":"levelo_inurba_marseille","lat":43.25721,"lon":5.41078,"is_reserved":false,"is_disabled":false,"rental_uris":{"android":"levelo://app?vid=ba204b31-7251-4ed5-84a4-145dba17f3ef","ios":"levelo://app?vid=ba204b31-7251-4ed5-84a4-145dba17f3ef"},"vehicle_type_id":"4","last_reported":1745518427,"current_range_meters":14800,"station_id":"ce4bhkp2rcd13ifvqgd0","pricing_plan_id":"cebpf4jnsgd1na2vs0mg"},{"bike_id":"2c1392ff-88b8-4183-9133-0159de8c3468","system_id":"levelo_inurba_marseille","lat":43.24788,"lon":5.37463,"is_reserved":false,"is_disabled":false,"rental_uris":{"android":"levelo://app?vid=2c1392ff-88b8-4183-9133-0159de8c3468","ios":"levelo://app?vid=2c1392ff-88b8-4183-9133-0159de8c3468"},"vehicle_type_id":"4","last_reported":1745518427,"current_range_meters":15200,"station_id":"ce4bhgh2rcd13ifvqfb0","pricing_plan_id":"cebpf4jnsgd1na2vs0mg"},{"bike_id":"76624ed6-8461-43e5-bb7b-45210682e910","system_id":"levelo_inurba_marseille","lat":43.29553,"lon":5.42299,"is_reserved":false,"is_disabled":false,"rental_uris":{"android":"levelo://app?vid=76624ed6-8461-43e5-bb7b-45210682e910","ios":"levelo://app?vid=76624ed6-8461-43e5-bb7b-45210682e910"},"vehicle_type_id":"4","last_reported":1745518427,"current_range_meters":14800,"station_id":"ce4bhph2rcd13ifvqhdg","pricing_plan_id":"cebpf4jnsgd1na2vs0mg"},{"bike_id":"1e41f8c3-3569-4425-a5e9-2dbf9dfee337","system_id":"levelo_inurba_marseille","lat":43.31114,"lon":5.37758,"is_reserved":false,"is_disabled":false,"rental_uris":{"android":"levelo://app?vid=1e41f8c3-3569-4425-a5e9-2dbf9dfee337","ios":"levelo://app?vid=1e41f8c3-3569-4425-a5e9-2dbf9dfee337"},"vehicle_type_id":"4","last_reported":1745518427,"current_range_meters":15200,"station_id":"ce4bgt92rcd13ifvqcg0","pricing_plan_id":"cebpf4jnsgd1na2vs0mg"},{"bike_id":"850e0804-0fb3-453c-863c-962efc7e2e90","system_id":"levelo_inurba_marseille","lat":43.29024,"lon":5.38636,"is_reserved":false,"is_disabled":false,"rental_uris":{"android":"levelo://app?vid=850e0804-0fb3-453c-863c-962efc7e2e90","ios":"levelo://app?vid=850e0804-0fb3-453c-863c-962efc7e2e90"},"vehicle_type_id":"4","last_reported":1745518427,"current_range_meters":15200,"station_id":"ce4bh4p2rcd13ifvqe0g","pricing_plan_id":"cebpf4jnsgd1na2vs0mg"},{"bike_id":"580f7702-9018-40e2-8c0b-0a8303e9038e","system_id":"levelo_inurba_marseille","lat":43.27989,"lon":5.41661,"is_reserved":false,"is_disabled":false,"rental_uris":{"android":"levelo://app?vid=580f7702-9018-40e2-8c0b-0a8303e9038e","ios":"levelo://app?vid=580f7702-9018-40e2-8c0b-0a8303e9038e"},"vehicle_type_id":"4","last_reported":1745518427,"current_range_meters":15200,"station_id":"ce4bho12rcd13ifvqh1g","pricing_plan_id":"cebpf4jnsgd1na2vs0mg"},{"bike_id":"5f34ad22-5e6e-4c21-9523-8c904582233c","system_id":"levelo_inurba_marseille","lat":43.23962,"lon":5.36636,"is_reserved":false,"is_disabled":false,"rental_uris":{"android":"levelo://app?vid=5f34ad22-5e6e-4c21-9523-8c904582233c","ios":"levelo://app?vid=5f34ad22-5e6e-4c21-9523-8c904582233c"},"vehicle_type_id":"4","last_reported":1745518427,"current_range_meters":16000,"station_id":"ce4bhi12rcd13ifvqfp0","pricing_plan_id":"cebpf4jnsgd1na2vs0mg"},{"bike_id":"1a9b9ba2-6e5a-4697-beb7-5c65923a8b43","system_id":"levelo_inurba_marseille","lat":43.26773,"lon":5.39376,"is_reserved":false,"is_disabled":true,"rental_uris":{"android":"levelo://app?vid=1a9b9ba2-6e5a-4697-beb7-5c65923a8b43","ios":"levelo://app?vid=1a9b9ba2-6e5a-4697-beb7-5c65923a8b43"},"vehicle_type_id":"4","last_reported":1745518427,"current_range_meters":16000,"station_id":"ce4bhh12rcd13ifvqfg0","pricing_plan_id":"cebpf4jnsgd1na2vs0mg"},{"bike_id":"62753487-b726-4a2a-a62f-df0c6288faab","system_id":"levelo_inurba_marseille","lat":43.29029,"lon":5.38643,"is_reserved":false,"is_disabled":false,"rental_uris":{"android":"levelo://app?vid=62753487-b726-4a2a-a62f-df0c6288faab","ios":"levelo://app?vid=62753487-b726-4a2a-a62f-df0c6288faab"},"vehicle_type_id":"4","last_reported":1745518427,"current_range_meters":16000,"station_id":"ce4bh4p2rcd13ifvqe0g","pricing_plan_id":"cebpf4jnsgd1na2vs0mg"},{"bike_id":"87a9f325-d944-40fb-9319-8c01aa9bbd92","system_id":"levelo_inurba_marseille","lat":43.25581,"lon":5.38222,"is_reserved":false,"is_disabled":false,"rental_uris":{"android":"levelo://app?vid=87a9f325-d944-40fb-9319-8c01aa9bbd92","ios":"levelo://app?vid=87a9f325-d944-40fb-9319-8c01aa9bbd92"},"vehicle_type_id":"4","last_reported":1745518427,"current_range_meters":16000,"station_id":"ce4bhih2rcd13ifvqfs0","pricing_plan_id":"cebpf4jnsgd1na2vs0mg"},{"bike_id":"0a1fe2f8-b380-494f-8959-2e17c1406556","system_id":"levelo_inurba_marseille","lat":43.26065,"lon":5.39409,"is_reserved":false,"is_disabled":false,"rental_uris":{"android":"levelo://app?vid=0a1fe2f8-b380-494f-8959-2e17c1406556","ios":"levelo://app?vid=0a1fe2f8-b380-494f-8959-2e17c1406556"},"vehicle_type_id":"4","last_reported":1745518427,"current_range_meters":16000,"station_id":"ce4bhh92rcd13ifvqfj0","pricing_plan_id":"cebpf4jnsgd1na2vs0mg"},{"bike_id":"bb688de6-8fba-493c-9749-1d13e18234a2","system_id":"levelo_inurba_marseille","lat":43.28446,"lon":5.39208,"is_reserved":false,"is_disabled":false,"rental_uris":{"android":"levelo://app?vid=bb688de6-8fba-493c-9749-1d13e18234a2","ios":"levelo://app?vid=bb688de6-8fba-493c-9749-1d13e18234a2"},"vehicle_type_id":"4","last_reported":1745518427,"current_range_meters":16000,"station_id":"ce4bhoh2rcd13ifvqh5g","pricing_plan_id":"cebpf4jnsgd1na2vs0mg"},{"bike_id":"fcc7f789-ede2-4c66-bc8e-4015de92ccde","system_id":"levelo_inurba_marseille","lat":43.27179,"lon":5.40991,"is_reserved":false,"is_disabled":false,"rental_uris":{"android":"levelo://app?vid=fcc7f789-ede2-4c66-bc8e-4015de92ccde","ios":"levelo://app?vid=fcc7f789-ede2-4c66-bc8e-4015de92ccde"},"vehicle_type_id":"4","last_reported":1745518427,"current_range_meters":15200,"station_id":"ce4bhl12rcd13ifvqgf0","pricing_plan_id":"cebpf4jnsgd1na2vs0mg"},{"bike_id":"a086b419-5cc2-4c2d-8c0e-aac366cc25bf","system_id":"levelo_inurba_marseille","lat":43.29219,"lon":5.36064,"is_reserved":false,"is_disabled":false,"rental_uris":{"android":"levelo://app?vid=a086b419-5cc2-4c2d-8c0e-aac366cc25bf","ios":"levelo://app?vid=a086b419-5cc2-4c2d-8c0e-aac366cc25bf"},"vehicle_type_id":"4","last_reported":1745518427,"current_range_meters":16000,"station_id":"ce4bhbh2rcd13ifvqeqg","pricing_plan_id":"cebpf4jnsgd1na2vs0mg"},{"bike_id":"c6386494-1ac3-4a81-b84f-651e6597e2ee","system_id":"levelo_inurba_marseille","lat":43.23192,"lon":5.35548,"is_reserved":false,"is_disabled":false,"rental_uris":{"android":"levelo://app?vid=c6386494-1ac3-4a81-b84f-651e6597e2ee","ios":"levelo://app?vid=c6386494-1ac3-4a81-b84f-651e6597e2ee"},"vehicle_type_id":"4","last_reported":1745518427,"current_range_meters":16400,"station_id":"ce4bhu92rcd13ifvqi70","pricing_plan_id":"cebpf4jnsgd1na2vs0mg"},{"bike_id":"cb28eabc-c696-45ea-9191-5a925b6ee6da","system_id":"levelo_inurba_marseille","lat":43.28611,"lon":5.35103,"is_reserved":false,"is_disabled":false,"rental_uris":{"android":"levelo://app?vid=cb28eabc-c696-45ea-9191-5a925b6ee6da","ios":"levelo://app?vid=cb28eabc-c696-45ea-9191-5a925b6ee6da"},"vehicle_type_id":"4","last_reported":1745518427,"current_range_meters":16400,"station_id":"ce4bhch2rcd13ifvqeug","pricing_plan_id":"cebpf4jnsgd1na2vs0mg"},{"bike_id":"0e677427-8d60-4b75-92c0-3cc225e20f0d","system_id":"levelo_inurba_marseille","lat":43.29005,"lon":5.38634,"is_reserved":false,"is_disabled":false,"rental_uris":{"android":"levelo://app?vid=0e677427-8d60-4b75-92c0-3cc225e20f0d","ios":"levelo://app?vid=0e677427-8d60-4b75-92c0-3cc225e20f0d"},"vehicle_type_id":"4","last_reported":1745518427,"current_range_meters":16400,"station_id":"ce4bh4p2rcd13ifvqe0g","pricing_plan_id":"cebpf4jnsgd1na2vs0mg"},{"bike_id":"74c04f6c-781b-4b9a-8713-e515e9df3135","system_id":"levelo_inurba_marseille","lat":43.29042,"lon":5.39964,"is_reserved":false,"is_disabled":false,"rental_uris":{"android":"levelo://app?vid=74c04f6c-781b-4b9a-8713-e515e9df3135","ios":"levelo://app?vid=74c04f6c-781b-4b9a-8713-e515e9df3135"},"vehicle_type_id":"4","last_reported":1745518427,"current_range_meters":16400,"station_id":"ce4bh392rcd13ifvqdm0","pricing_plan_id":"cebpf4jnsgd1na2vs0mg"},{"bike_id":"7f5db532-4e4a-457a-842d-6fae05cae46d","system_id":"levelo_inurba_marseille","lat":43.30792,"lon":5.43515,"is_reserved":false,"is_disabled":false,"rental_uris":{"android":"levelo://app?vid=7f5db532-4e4a-457a-842d-6fae05cae46d","ios":"levelo://app?vid=7f5db532-4e4a-457a-842d-6fae05cae46d"},"vehicle_type_id":"4","last_reported":1745518427,"current_range_meters":16400,"station_id":"ce4bhph2rcd13ifvqheg","pricing_plan_id":"cebpf4jnsgd1na2vs0mg"},{"bike_id":"48a2ad18-6773-4f7f-bc29-435024605b40","system_id":"levelo_inurba_marseille","lat":43.28847,"lon":5.393,"is_reserved":false,"is_disabled":false,"rental_uris":{"android":"levelo://app?vid=48a2ad18-6773-4f7f-bc29-435024605b40","ios":"levelo://app?vid=48a2ad18-6773-4f7f-bc29-435024605b40"},"vehicle_type_id":"4","last_reported":1745518427,"current_range_meters":16400,"station_id":"ce4bh2p2rcd13ifvqdi0","pricing_plan_id":"cebpf4jnsgd1na2vs0mg"},{"bike_id":"7fc5ed43-b2c3-4cf7-b081-488a7cbcc12f","system_id":"levelo_inurba_marseille","lat":43.33024,"lon":5.39036,"is_reserved":false,"is_disabled":false,"rental_uris":{"android":"levelo://app?vid=7fc5ed43-b2c3-4cf7-b081-488a7cbcc12f","ios":"levelo://app?vid=7fc5ed43-b2c3-4cf7-b081-488a7cbcc12f"},"vehicle_type_id":"4","last_reported":1745518427,"current_range_meters":16400,"station_id":"ce4bhr92rcd13ifvqhrg","pricing_plan_id":"cebpf4jnsgd1na2vs0mg"},{"bike_id":"5c8dde23-03af-4ec7-8c64-b6a7b95cfa5a","system_id":"levelo_inurba_marseille","lat":43.33762,"lon":5.39225,"is_reserved":false,"is_disabled":false,"rental_uris":{"android":"levelo://app?vid=5c8dde23-03af-4ec7-8c64-b6a7b95cfa5a","ios":"levelo://app?vid=5c8dde23-03af-4ec7-8c64-b6a7b95cfa5a"},"vehicle_type_id":"4","last_reported":1745518427,"current_range_meters":16400,"station_id":"","pricing_plan_id":"cebpf4jnsgd1na2vs0mg"},{"bike_id":"777690c4-5495-474d-a0af-fec36d498c1a","system_id":"levelo_inurba_marseille","lat":43.29267,"lon":5.38437,"is_reserved":false,"is_disabled":false,"rental_uris":{"android":"levelo://app?vid=777690c4-5495-474d-a0af-fec36d498c1a","ios":"levelo://app?vid=777690c4-5495-474d-a0af-fec36d498c1a"},"vehicle_type_id":"4","last_reported":1745518427,"current_range_meters":16400,"station_id":"ce4bh692rcd13ifvqea0","pricing_plan_id":"cebpf4jnsgd1na2vs0mg"},{"bike_id":"51c8b588-fd6d-40a7-b889-17f5ee30e311","system_id":"levelo_inurba_marseille","lat":43.30426,"lon":5.41288,"is_reserved":false,"is_disabled":false,"rental_uris":{"android":"levelo://app?vid=51c8b588-fd6d-40a7-b889-17f5ee30e311","ios":"levelo://app?vid=51c8b588-fd6d-40a7-b889-17f5ee30e311"},"vehicle_type_id":"4","last_reported":1745518427,"current_range_meters":16800,"station_id":"ce4bhop2rcd13ifvqh8g","pricing_plan_id":"cebpf4jnsgd1na2vs0mg"},{"bike_id":"ab4e3eab-a6e3-47d7-8615-ebd5854623f1","system_id":"levelo_inurba_marseille","lat":43.28407,"lon":5.34994,"is_reserved":false,"is_disabled":false,"rental_uris":{"android":"levelo://app?vid=ab4e3eab-a6e3-47d7-8615-ebd5854623f1","ios":"levelo://app?vid=ab4e3eab-a6e3-47d7-8615-ebd5854623f1"},"vehicle_type_id":"4","last_reported":1745518427,"current_range_meters":16800,"station_id":"ce4bhbh2rcd13ifvqepg","pricing_plan_id":"cebpf4jnsgd1na2vs0mg"},{"bike_id":"196566f8-dfd9-4cbe-8bb3-43f23a989244","system_id":"levelo_inurba_marseille","lat":43.27569,"lon":5.38405,"is_reserved":false,"is_disabled":false,"rental_uris":{"android":"levelo://app?vid=196566f8-dfd9-4cbe-8bb3-43f23a989244","ios":"levelo://app?vid=196566f8-dfd9-4cbe-8bb3-43f23a989244"},"vehicle_type_id":"4","last_reported":1745518427,"current_range_meters":16400,"station_id":"ce4bhh92rcd13ifvqfi0","pricing_plan_id":"cebpf4jnsgd1na2vs0mg"},{"bike_id":"75c54774-60c3-4a5a-9d9a-e318535acfa8","system_id":"levelo_inurba_marseille","lat":43.28378,"lon":5.34919,"is_reserved":false,"is_disabled":false,"rental_uris":{"android":"levelo://app?vid=75c54774-60c3-4a5a-9d9a-e318535acfa8","ios":"levelo://app?vid=75c54774-60c3-4a5a-9d9a-e318535acfa8"},"vehicle_type_id":"4","last_reported":1745518427,"current_range_meters":16800,"station_id":"ce4bhbh2rcd13ifvqepg","pricing_plan_id":"cebpf4jnsgd1na2vs0mg"},{"bike_id":"6488356a-ba44-4638-9f87-cf79ee4bce57","system_id":"levelo_inurba_marseille","lat":43.27615,"lon":5.36101,"is_reserved":false,"is_disabled":false,"rental_uris":{"android":"levelo://app?vid=6488356a-ba44-4638-9f87-cf79ee4bce57","ios":"levelo://app?vid=6488356a-ba44-4638-9f87-cf79ee4bce57"},"vehicle_type_id":"4","last_reported":1745518427,"current_range_meters":16400,"station_id":"ce4bgj92rcd13ifvqbe0","pricing_plan_id":"cebpf4jnsgd1na2vs0mg"},{"bike_id":"0bdb229c-7455-40b6-8956-a0890501d7ce","system_id":"levelo_inurba_marseille","lat":43.29881,"lon":5.38903,"is_reserved":false,"is_disabled":false,"rental_uris":{"android":"levelo://app?vid=0bdb229c-7455-40b6-8956-a0890501d7ce","ios":"levelo://app?vid=0bdb229c-7455-40b6-8956-a0890501d7ce"},"vehicle_type_id":"4","last_reported":1745518427,"current_range_meters":12400,"station_id":"ce4bh392rcd13ifvqdl0","pricing_plan_id":"cebpf4jnsgd1na2vs0mg"},{"bike_id":"d47b58c1-9157-4696-b4ee-a7dad8705177","system_id":"levelo_inurba_marseille","lat":43.24068,"lon":5.37765,"is_reserved":false,"is_disabled":false,"rental_uris":{"android":"levelo://app?vid=d47b58c1-9157-4696-b4ee-a7dad8705177","ios":"levelo://app?vid=d47b58c1-9157-4696-b4ee-a7dad8705177"},"vehicle_type_id":"4","last_reported":1745518427,"current_range_meters":17200,"station_id":"ce4bhnp2rcd13ifvqgvg","pricing_plan_id":"cebpf4jnsgd1na2vs0mg"},{"bike_id":"12c42bef-0d6f-4708-b317-43bdc826b772","system_id":"levelo_inurba_marseille","lat":43.34147,"lon":5.40893,"is_reserved":false,"is_disabled":false,"rental_uris":{"android":"levelo://app?vid=12c42bef-0d6f-4708-b317-43bdc826b772","ios":"levelo://app?vid=12c42bef-0d6f-4708-b317-43bdc826b772"},"vehicle_type_id":"4","last_reported":1745518427,"current_range_meters":16800,"station_id":"ce4bhqh2rcd13ifvqhlg","pricing_plan_id":"cebpf4jnsgd1na2vs0mg"},{"bike_id":"e2dcabcf-64d8-4394-bb9a-ff877bee611a","system_id":"levelo_inurba_marseille","lat":43.32053,"lon":5.41532,"is_reserved":false,"is_disabled":false,"rental_uris":{"android":"levelo://app?vid=e2dcabcf-64d8-4394-bb9a-ff877bee611a","ios":"levelo://app?vid=e2dcabcf-64d8-4394-bb9a-ff877bee611a"},"vehicle_type_id":"4","last_reported":1745518427,"current_range_meters":17200,"station_id":"ce4bhq92rcd13ifvqhkg","pricing_plan_id":"cebpf4jnsgd1na2vs0mg"},{"bike_id":"5c880070-a28a-4a57-a6ea-4bc3b65b71e9","system_id":"levelo_inurba_marseille","lat":43.31169,"lon":5.38711,"is_reserved":false,"is_disabled":false,"rental_uris":{"android":"levelo://app?vid=5c880070-a28a-4a57-a6ea-4bc3b65b71e9","ios":"levelo://app?vid=5c880070-a28a-4a57-a6ea-4bc3b65b71e9"},"vehicle_type_id":"4","last_reported":1745518427,"current_range_meters":17200,"station_id":"ce4bgv12rcd13ifvqcp0","pricing_plan_id":"cebpf4jnsgd1na2vs0mg"},{"bike_id":"a5b807e2-0dcd-4c88-a997-bb37c582102d","system_id":"levelo_inurba_marseille","lat":43.30423,"lon":5.37208,"is_reserved":false,"is_disabled":false,"rental_uris":{"android":"levelo://app?vid=a5b807e2-0dcd-4c88-a997-bb37c582102d","ios":"levelo://app?vid=a5b807e2-0dcd-4c88-a997-bb37c582102d"},"vehicle_type_id":"4","last_reported":1745518427,"current_range_meters":17200,"station_id":"","pricing_plan_id":"cebpf4jnsgd1na2vs0mg"},{"bike_id":"5ea92885-4784-424e-bbd0-fe10a23b8f63","system_id":"levelo_inurba_marseille","lat":43.24656,"lon":5.38157,"is_reserved":false,"is_disabled":false,"rental_uris":{"android":"levelo://app?vid=5ea92885-4784-424e-bbd0-fe10a23b8f63","ios":"levelo://app?vid=5ea92885-4784-424e-bbd0-fe10a23b8f63"},"vehicle_type_id":"4","last_reported":1745518427,"current_range_meters":17200,"station_id":"ce4bhih2rcd13ifvqfr0","pricing_plan_id":"cebpf4jnsgd1na2vs0mg"},{"bike_id":"39c158b6-2aa6-49fb-a175-ccd3b62391eb","system_id":"levelo_inurba_marseille","lat":43.29272,"lon":5.3843,"is_reserved":false,"is_disabled":false,"rental_uris":{"android":"levelo://app?vid=39c158b6-2aa6-49fb-a175-ccd3b62391eb","ios":"levelo://app?vid=39c158b6-2aa6-49fb-a175-ccd3b62391eb"},"vehicle_type_id":"4","last_reported":1745518427,"current_range_meters":17200,"station_id":"ce4bh692rcd13ifvqea0","pricing_plan_id":"cebpf4jnsgd1na2vs0mg"},{"bike_id":"aeaf190f-3ec8-4262-959d-6e5201d4bb13","system_id":"levelo_inurba_marseille","lat":43.31484,"lon":5.37313,"is_reserved":false,"is_disabled":false,"rental_uris":{"android":"levelo://app?vid=aeaf190f-3ec8-4262-959d-6e5201d4bb13","ios":"levelo://app?vid=aeaf190f-3ec8-4262-959d-6e5201d4bb13"},"vehicle_type_id":"4","last_reported":1745518427,"current_range_meters":16800,"station_id":"ce4bgt12rcd13ifvqcd0","pricing_plan_id":"cebpf4jnsgd1na2vs0mg"},{"bike_id":"2080fb6d-2adb-4162-9f68-ed56003f6114","system_id":"levelo_inurba_marseille","lat":43.28422,"lon":5.34996,"is_reserved":false,"is_disabled":false,"rental_uris":{"android":"levelo://app?vid=2080fb6d-2adb-4162-9f68-ed56003f6114","ios":"levelo://app?vid=2080fb6d-2adb-4162-9f68-ed56003f6114"},"vehicle_type_id":"4","last_reported":1745518427,"current_range_meters":17200,"station_id":"ce4bhbh2rcd13ifvqepg","pricing_plan_id":"cebpf4jnsgd1na2vs0mg"},{"bike_id":"efa772b6-efc9-4e4b-b78f-93b4e8715bc9","system_id":"levelo_inurba_marseille","lat":43.279419,"lon":5.410481,"is_reserved":false,"is_disabled":false,"rental_uris":{"android":"levelo://app?vid=efa772b6-efc9-4e4b-b78f-93b4e8715bc9","ios":"levelo://app?vid=efa772b6-efc9-4e4b-b78f-93b4e8715bc9"},"vehicle_type_id":"4","last_reported":1745518427,"current_range_meters":17200,"station_id":"ce4bhnp2rcd13ifvqh0g","pricing_plan_id":"cebpf4jnsgd1na2vs0mg"},{"bike_id":"b4a005c4-1bcb-41d0-9af1-69cce2fdedda","system_id":"levelo_inurba_marseille","lat":43.31111,"lon":5.37767,"is_reserved":false,"is_disabled":false,"rental_uris":{"android":"levelo://app?vid=b4a005c4-1bcb-41d0-9af1-69cce2fdedda","ios":"levelo://app?vid=b4a005c4-1bcb-41d0-9af1-69cce2fdedda"},"vehicle_type_id":"4","last_reported":1745518427,"current_range_meters":17200,"station_id":"ce4bgt92rcd13ifvqcg0","pricing_plan_id":"cebpf4jnsgd1na2vs0mg"},{"bike_id":"9e9e4114-a05a-4c5e-9f96-6c201042ecfd","system_id":"levelo_inurba_marseille","lat":43.32384,"lon":5.38912,"is_reserved":false,"is_disabled":false,"rental_uris":{"android":"levelo://app?vid=9e9e4114-a05a-4c5e-9f96-6c201042ecfd","ios":"levelo://app?vid=9e9e4114-a05a-4c5e-9f96-6c201042ecfd"},"vehicle_type_id":"4","last_reported":1745518427,"current_range_meters":17600,"station_id":"ce4bhqp2rcd13ifvqhog","pricing_plan_id":"cebpf4jnsgd1na2vs0mg"},{"bike_id":"7597f9f7-581e-4aa1-9ea0-a72928416a0e","system_id":"levelo_inurba_marseille","lat":43.30325,"lon":5.39195,"is_reserved":false,"is_disabled":true,"rental_uris":{"android":"levelo://app?vid=7597f9f7-581e-4aa1-9ea0-a72928416a0e","ios":"levelo://app?vid=7597f9f7-581e-4aa1-9ea0-a72928416a0e"},"vehicle_type_id":"4","last_reported":1745518427,"current_range_meters":17600,"station_id":"ce4bgkh2rcd13ifvqbk0","pricing_plan_id":"cebpf4jnsgd1na2vs0mg"},{"bike_id":"35817b5a-6708-493e-aebb-7b25f1c22feb","system_id":"levelo_inurba_marseille","lat":43.30951,"lon":5.40105,"is_reserved":false,"is_disabled":false,"rental_uris":{"android":"levelo://app?vid=35817b5a-6708-493e-aebb-7b25f1c22feb","ios":"levelo://app?vid=35817b5a-6708-493e-aebb-7b25f1c22feb"},"vehicle_type_id":"4","last_reported":1745518427,"current_range_meters":17600,"station_id":"ce4bgvp2rcd13ifvqct0","pricing_plan_id":"cebpf4jnsgd1na2vs0mg"},{"bike_id":"f577c520-0907-4453-975b-4f68ddb3f606","system_id":"levelo_inurba_marseille","lat":43.284183,"lon":5.349862,"is_reserved":false,"is_disabled":false,"rental_uris":{"android":"levelo://app?vid=f577c520-0907-4453-975b-4f68ddb3f606","ios":"levelo://app?vid=f577c520-0907-4453-975b-4f68ddb3f606"},"vehicle_type_id":"4","last_reported":1745518427,"current_range_meters":17600,"station_id":"ce4bhbh2rcd13ifvqepg","pricing_plan_id":"cebpf4jnsgd1na2vs0mg"},{"bike_id":"3b91cf2c-b472-4e0f-9277-74926e881ead","system_id":"levelo_inurba_marseille","lat":43.302948,"lon":5.392359,"is_reserved":false,"is_disabled":false,"rental_uris":{"android":"levelo://app?vid=3b91cf2c-b472-4e0f-9277-74926e881ead","ios":"levelo://app?vid=3b91cf2c-b472-4e0f-9277-74926e881ead"},"vehicle_type_id":"4","last_reported":1745518427,"current_range_meters":17600,"station_id":"ce4bgkh2rcd13ifvqbk0","pricing_plan_id":"cebpf4jnsgd1na2vs0mg"},{"bike_id":"b8149fed-c614-43c8-8820-aeeb15e6b031","system_id":"levelo_inurba_marseille","lat":43.2407,"lon":5.37764,"is_reserved":false,"is_disabled":false,"rental_uris":{"android":"levelo://app?vid=b8149fed-c614-43c8-8820-aeeb15e6b031","ios":"levelo://app?vid=b8149fed-c614-43c8-8820-aeeb15e6b031"},"vehicle_type_id":"4","last_reported":1745518427,"current_range_meters":17600,"station_id":"ce4bhnp2rcd13ifvqgvg","pricing_plan_id":"cebpf4jnsgd1na2vs0mg"},{"bike_id":"c3721006-7b34-4ca8-be85-027727c3f2af","system_id":"levelo_inurba_marseille","lat":43.28479,"lon":5.38432,"is_reserved":false,"is_disabled":true,"rental_uris":{"android":"levelo://app?vid=c3721006-7b34-4ca8-be85-027727c3f2af","ios":"levelo://app?vid=c3721006-7b34-4ca8-be85-027727c3f2af"},"vehicle_type_id":"4","last_reported":1745518427,"current_range_meters":17600,"station_id":"ce4bh512rcd13ifvqe3g","pricing_plan_id":"cebpf4jnsgd1na2vs0mg"},{"bike_id":"389081e5-a59f-4bb8-ae5b-d14b07648eda","system_id":"levelo_inurba_marseille","lat":43.25104,"lon":5.40323,"is_reserved":false,"is_disabled":true,"rental_uris":{"android":"levelo://app?vid=389081e5-a59f-4bb8-ae5b-d14b07648eda","ios":"levelo://app?vid=389081e5-a59f-4bb8-ae5b-d14b07648eda"},