{"last_updated":1756297222,"ttl":60,"version":"2.2","data":{"bikes":[{"bike_id":"127675bb-a05e-4f3e-a82c-7ccdbacb4a45","system_id":"levelo_inurba_marseille","lat":43.296115,"lon":5.374224,"is_reserved":false,"is_disabled":false,"rental_uris":{"android":"levelo://app?vid=127675bb-a05e-4f3e-a82c-7ccdbacb4a45","ios":"levelo://app?vid=127675bb-a05e-4f3e-a82c-7ccdbacb4a45"},"vehicle_type_id":"4","last_reported":1756297222,"current_range_meters":2800,"station_id":"ce4bgn12rcd13ifvqbt0","pricing_plan_id":"cebpf4jnsgd1na2vs0mg"},{"bike_id":"264a6f07-2f14-4307-aff1-93204ab943a5","system_id":"levelo_inurba_marseille","lat":43.217501,"lon":5.345982,"is_reserved":false,"is_disabled":false,"rental_uris":{"android":"levelo://app?vid=264a6f07-2f14-4307-aff1-93204ab943a5","ios":"levelo://app?vid=264a6f07-2f14-4307-aff1-93204ab943a5"},"vehicle_type_id":"4","last_reported":1756297222,"current_range_meters":2800,"station_id":"","pricing_plan_id":"cebpf4jnsgd1na2vs0mg"},{"bike_id":"5b8b0ed8-c6b9-44bc-bb31-c9d4b939059b","system_id":"levelo_inurba_marseille","lat":43.29938,"lon":5.36561,"is_reserved":false,"is_disabled":false,"rental_uris":{"android":"levelo://app?vid=5b8b0ed8-c6b9-44bc-bb31-c9d4b939059b","ios":"levelo://app?vid=5b8b0ed8-c6b9-44bc-bb31-c9d4b939059b"},"vehicle_type_id":"4","last_reported":1756297222,"current_range_meters":3200,"station_id":"ce4bgm92rcd13ifvqbr0","pricing_plan_id":"cebpf4jnsgd1na2vs0mg"},{"bike_id":"a8ce67af-948b-44bc-ab0d-bdb98f54e186","system_id":"levelo_inurba_marseille","lat":43.30368,"lon":5.42485,"is_reserved":false,"is_disabled":false,"rental_uris":{"android":"levelo://app?vid=a8ce67af-948b-44bc-ab0d-bdb98f54e186","ios":"levelo://app?vid=a8ce67af-948b-44bc-ab0d-bdb98f54e186"},"vehicle_type_id":"4","last_reported":1756297222,"current_range_meters":3200,"station_id":"ce4bhoh2rcd13ifvqh6g","pricing_plan_id":"cebpf4jnsgd1na2vs0mg"},{"bike_id":"cb9f4110-023f-4882-aadb-aacb9958db56","system_id":"levelo_inurba_marseille","lat":43.26202,"lon":5.3745,"is_reserved":false,"is_disabled":false,"rental_uris":{"android":"levelo://app?vid=cb9f4110-023f-4882-aadb-aacb9958db56","ios":"levelo://app?vid=cb9f4110-023f-4882-aadb-aacb9958db56"},"vehicle_type_id":"4","last_reported":1756297222,"current_range_meters":3200,"station_id":"ce4bhgp2rcd13ifvqfc0","pricing_plan_id":"cebpf4jnsgd1na2vs0mg"},{"bike_id":"f1aa9282-9b36-4f1f-a8c3-4068b59a4e2b","system_id":"levelo_inurba_marseille","lat":43.23967,"lon":5.36635,"is_reserved":false,"is_disabled":false,"rental_uris":{"android":"levelo://app?vid=f1aa9282-9b36-4f1f-a8c3-4068b59a4e2b","ios":"levelo://app?vid=f1aa9282-9b36-4f1f-a8c3-4068b59a4e2b"},"vehicle_type_id":"4","last_reported":1756297222,"current_range_meters":3600,"station_id":"ce4bhi12rcd13ifvqfp0","pricing_plan_id":"cebpf4jnsgd1na2vs0mg"},{"bike_id":"03be758f-3e6d-4c72-8876-95a4359600d6","system_id":"levelo_inurba_marseille","lat":43.33796,"lon":5.37492,"is_reserved":false,"is_disabled":false,"rental_uris":{"android":"levelo://app?vid=03be758f-3e6d-4c72-8876-95a4359600d6","ios":"levelo://app?vid=03be758f-3e6d-4c72-8876-95a4359600d6"},"vehicle_type_id":"4","last_reported":1756297222,"current_range_meters":3600,"station_id":"","pricing_plan_id":"cebpf4jnsgd1na2vs0mg"},{"bike_id":"236f1a17-bd84-4b8e-977f-7df7d8cf402c","system_id":"levelo_inurba_marseille","lat":43.30796,"lon":5.435228,"is_reserved":false,"is_disabled":true,"rental_uris":{"android":"levelo://app?vid=236f1a17-bd84-4b8e-977f-7df7d8cf402c","ios":"levelo://app?vid=236f1a17-bd84-4b8e-977f-7df7d8cf402c"},"vehicle_type_id":"4","last_reported":1756297222,"current_range_meters":3600,"station_id":"ce4bhph2rcd13ifvqheg","pricing_plan_id":"cebpf4jnsgd1na2vs0mg"},{"bike_id":"31613c7d-7401-4b11-b1c2-62eee4b9bdca","system_id":"levelo_inurba_marseille","lat":43.23183,"lon":5.35543,"is_reserved":false,"is_disabled":false,"rental_uris":{"android":"levelo://app?vid=31613c7d-7401-4b11-b1c2-62eee4b9bdca","ios":"levelo://app?vid=31613c7d-7401-4b11-b1c2-62eee4b9bdca"},"vehicle_type_id":"4","last_reported":1756297222,"current_range_meters":3600,"station_id":"ce4bhu92rcd13ifvqi70","pricing_plan_id":"cebpf4jnsgd1na2vs0mg"},{"bike_id":"96311a0a-232e-48f7-a408-d9d54fa06067","system_id":"levelo_inurba_marseille","lat":43.30274,"lon":5.37717,"is_reserved":false,"is_disabled":false,"rental_uris":{"android":"levelo://app?vid=96311a0a-232e-48f7-a408-d9d54fa06067","ios":"levelo://app?vid=96311a0a-232e-48f7-a408-d9d54fa06067"},"vehicle_type_id":"4","last_reported":1756297222,"current_range_meters":3600,"station_id":"ce4bguh2rcd13ifvqcj0","pricing_plan_id":"cebpf4jnsgd1na2vs0mg"},{"bike_id":"f6bd5b86-eb54-487c-8a4e-3da908b177ef","system_id":"levelo_inurba_marseille","lat":43.29743,"lon":5.37123,"is_reserved":false,"is_disabled":false,"rental_uris":{"android":"levelo://app?vid=f6bd5b86-eb54-487c-8a4e-3da908b177ef","ios":"levelo://app?vid=f6bd5b86-eb54-487c-8a4e-3da908b177ef"},"vehicle_type_id":"4","last_reported":1756297222,"current_range_meters":4000,"station_id":"ce4bgop2rcd13ifvqc1g","pricing_plan_id":"cebpf4jnsgd1na2vs0mg"},{"bike_id":"5cfc90db-f79a-496b-af46-c191f00d4be6","system_id":"levelo_inurba_marseille","lat":43.25938,"lon":5.40908,"is_reserved":false,"is_disabled":false,"rental_uris":{"android":"levelo://app?vid=5cfc90db-f79a-496b-af46-c191f00d4be6","ios":"levelo://app?vid=5cfc90db-f79a-496b-af46-c191f00d4be6"},"vehicle_type_id":"4","last_reported":1756297222,"current_range_meters":4400,"station_id":"ce4bhm92rcd13ifvqglg","pricing_plan_id":"cebpf4jnsgd1na2vs0mg"},{"bike_id":"9e26d2e0-bb86-4f3e-a277-8ede89cab270","system_id":"levelo_inurba_marseille","lat":43.28414,"lon":5.34991,"is_reserved":false,"is_disabled":false,"rental_uris":{"android":"levelo://app?vid=9e26d2e0-bb86-4f3e-a277-8ede89cab270","ios":"levelo://app?vid=9e26d2e0-bb86-4f3e-a277-8ede89cab270"},"vehicle_type_id":"4","last_reported":1756297222,"current_range_meters":4400,"station_id":"ce4bhbh2rcd13ifvqepg","pricing_plan_id":"cebpf4jnsgd1na2vs0mg"},{"bike_id":"d8cc7545-0dae-4b91-9c30-8f830a6e4a29","system_id":"levelo_inurba_marseille","lat":43.31691,"lon":5.4047,"is_reserved":false,"is_disabled":false,"rental_uris":{"android":"levelo://app?vid=d8cc7545-0dae-4b91-9c30-8f830a6e4a29","ios":"levelo://app?vid=d8cc7545-0dae-4b91-9c30-8f830a6e4a29"},"vehicle_type_id":"4","last_reported":1756297222,"current_range_meters":4400,"station_id":"ce4bh012rcd13ifvqd00","pricing_plan_id":"cebpf4jnsgd1na2vs0mg"},{"bike_id":"d50064a2-be9b-43a2-a60e-da768ea7bc9e","system_id":"levelo_inurba_marseille","lat":43.32291,"lon":5.382805,"is_reserved":false,"is_disabled":false,"rental_uris":{"android":"levelo://app?vid=d50064a2-be9b-43a2-a60e-da768ea7bc9e","ios":"levelo://app?vid=d50064a2-be9b-43a2-a60e-da768ea7bc9e"},"vehicle_type_id":"4","last_reported":1756297222,"current_range_meters":4800,"station_id":"ce4bhr12rcd13ifvqhqg","pricing_plan_id":"cebpf4jnsgd1na2vs0mg"},{"bike_id":"43a14931-dcd0-4ae0-861f-dece37fa7f4d","system_id":"levelo_inurba_marseille","lat":43.33751,"lon":5.37487,"is_reserved":false,"is_disabled":false,"rental_uris":{"android":"levelo://app?vid=43a14931-dcd0-4ae0-861f-dece37fa7f4d","ios":"levelo://app?vid=43a14931-dcd0-4ae0-861f-dece37fa7f4d"},"vehicle_type_id":"4","last_reported":1756297222,"current_range_meters":4800,"station_id":"","pricing_plan_id":"cebpf4jnsgd1na2vs0mg"},{"bike_id":"b46639d3-0e19-46be-a590-754abfdbb7c9","system_id":"levelo_inurba_marseille","lat":43.295337,"lon":5.38546,"is_reserved":false,"is_disabled":true,"rental_uris":{"android":"levelo://app?vid=b46639d3-0e19-46be-a590-754abfdbb7c9","ios":"levelo://app?vid=b46639d3-0e19-46be-a590-754abfdbb7c9"},"vehicle_type_id":"4","last_reported":1756297222,"current_range_meters":4800,"station_id":"ce4bgih2rcd13ifvqba0","pricing_plan_id":"cebpf4jnsgd1na2vs0mg"},{"bike_id":"81a16fa0-8e30-4c62-9c83-b5060ab5aae1","system_id":"levelo_inurba_marseille","lat":43.26196,"lon":5.37447,"is_reserved":false,"is_disabled":false,"rental_uris":{"android":"levelo://app?vid=81a16fa0-8e30-4c62-9c83-b5060ab5aae1","ios":"levelo://app?vid=81a16fa0-8e30-4c62-9c83-b5060ab5aae1"},"vehicle_type_id":"4","last_reported":1756297222,"current_range_meters":4800,"station_id":"ce4bhgp2rcd13ifvqfc0","pricing_plan_id":"cebpf4jnsgd1na2vs0mg"},{"bike_id":"b0d2afc1-865c-4ea7-a936-52b5c7a6433c","system_id":"levelo_inurba_marseille","lat":43.23202,"lon":5.35553,"is_reserved":false,"is_disabled":false,"rental_uris":{"android":"levelo://app?vid=b0d2afc1-865c-4ea7-a936-52b5c7a6433c","ios":"levelo://app?vid=b0d2afc1-865c-4ea7-a936-52b5c7a6433c"},"vehicle_type_id":"4","last_reported":1756297222,"current_range_meters":4800,"station_id":"ce4bhu92rcd13ifvqi70","pricing_plan_id":"cebpf4jnsgd1na2vs0mg"},{"bike_id":"d27eddfb-6f29-4297-9b89-faf89af77a65","system_id":"levelo_inurba_marseille","lat":43.28717,"lon":5.3611,"is_reserved":false,"is_disabled":false,"rental_uris":{"android":"levelo://app?vid=d27eddfb-6f29-4297-9b89-faf89af77a65","ios":"levelo://app?vid=d27eddfb-6f29-4297-9b89-faf89af77a65"},"vehicle_type_id":"4","last_reported":1756297222,"current_range_meters":4800,"station_id":"cki0cbj6b192h4jlfktg","pricing_plan_id":"cebpf4jnsgd1na2vs0mg"},{"bike_id":"2c14b509-7cbd-4058-9c3b-30c6fbb93546","system_id":"levelo_inurba_marseille","lat":43.28269,"lon":5.35063,"is_reserved":false,"is_disabled":false,"rental_uris":{"android":"levelo://app?vid=2c14b509-7cbd-4058-9c3b-30c6fbb93546","ios":"levelo://app?vid=2c14b509-7cbd-4058-9c3b-30c6fbb93546"},"vehicle_type_id":"4","last_reported":1756297222,"current_range_meters":4800,"station_id":"ce4bhbp2rcd13ifvqerg","pricing_plan_id":"cebpf4jnsgd1na2vs0mg"},{"bike_id":"027fbf42-aa5b-4a1c-a7c0-c9401306d16b","system_id":"levelo_inurba_marseille","lat":43.29573,"lon":5.37529,"is_reserved":false,"is_disabled":false,"rental_uris":{"android":"levelo://app?vid=027fbf42-aa5b-4a1c-a7c0-c9401306d16b","ios":"levelo://app?vid=027fbf42-aa5b-4a1c-a7c0-c9401306d16b"},"vehicle_type_id":"4","last_reported":1756297222,"current_range_meters":5600,"station_id":"ce4bgh92rcd13ifvqb50","pricing_plan_id":"cebpf4jnsgd1na2vs0mg"},{"bike_id":"1c3055e6-ca6d-47a7-899b-dff0faa08ad6","system_id":"levelo_inurba_marseille","lat":43.30545,"lon":5.36559,"is_reserved":false,"is_disabled":false,"rental_uris":{"android":"levelo://app?vid=1c3055e6-ca6d-47a7-899b-dff0faa08ad6","ios":"levelo://app?vid=1c3055e6-ca6d-47a7-899b-dff0faa08ad6"},"vehicle_type_id":"4","last_reported":1756297222,"current_range_meters":5600,"station_id":"ce4bgs12rcd13ifvqcag","pricing_plan_id":"cebpf4jnsgd1na2vs0mg"},{"bike_id":"2f4e8b28-6095-4b3f-ae0a-f9f0c872541a","system_id":"levelo_inurba_marseille","lat":43.29035,"lon":5.37571,"is_reserved":false,"is_disabled":false,"rental_uris":{"android":"levelo://app?vid=2f4e8b28-6095-4b3f-ae0a-f9f0c872541a","ios":"levelo://app?vid=2f4e8b28-6095-4b3f-ae0a-f9f0c872541a"},"vehicle_type_id":"4","last_reported":1756297222,"current_range_meters":6000,"station_id":"ce4bh692rcd13ifvqe90","pricing_plan_id":"cebpf4jnsgd1na2vs0mg"},{"bike_id":"50f08e4a-13d1-464f-85b8-142aeef06773","system_id":"levelo_inurba_marseille","lat":43.2808,"lon":5.39648,"is_reserved":false,"is_disabled":false,"rental_uris":{"android":"levelo://app?vid=50f08e4a-13d1-464f-85b8-142aeef06773","ios":"levelo://app?vid=50f08e4a-13d1-464f-85b8-142aeef06773"},"vehicle_type_id":"4","last_reported":1756297222,"current_range_meters":6000,"station_id":"ce4bho12rcd13ifvqh2g","pricing_plan_id":"cebpf4jnsgd1na2vs0mg"},{"bike_id":"c8043f6f-f336-4d65-83b2-3b74d648fae6","system_id":"levelo_inurba_marseille","lat":43.28414,"lon":5.34995,"is_reserved":false,"is_disabled":false,"rental_uris":{"android":"levelo://app?vid=c8043f6f-f336-4d65-83b2-3b74d648fae6","ios":"levelo://app?vid=c8043f6f-f336-4d65-83b2-3b74d648fae6"},"vehicle_type_id":"4","last_reported":1756297222,"current_range_meters":6400,"station_id":"ce4bhbh2rcd13ifvqepg","pricing_plan_id":"cebpf4jnsgd1na2vs0mg"},{"bike_id":"fca54af8-9860-4eaa-a769-b4fd7e568491","system_id":"levelo_inurba_marseille","lat":43.2958,"lon":5.36737,"is_reserved":false,"is_disabled":false,"rental_uris":{"android":"levelo://app?vid=fca54af8-9860-4eaa-a769-b4fd7e568491","ios":"levelo://app?vid=fca54af8-9860-4eaa-a769-b4fd7e568491"},"vehicle_type_id":"4","last_reported":1756297222,"current_range_meters":6400,"station_id":"ce4bgph2rcd13ifvqc2g","pricing_plan_id":"cebpf4jnsgd1na2vs0mg"},{"bike_id":"edc4c588-4db1-4b48-bddb-0eba1d72ba9f","system_id":"levelo_inurba_marseille","lat":43.21181,"lon":5.35083,"is_reserved":false,"is_disabled":false,"rental_uris":{"android":"levelo://app?vid=edc4c588-4db1-4b48-bddb-0eba1d72ba9f","ios":"levelo://app?vid=edc4c588-4db1-4b48-bddb-0eba1d72ba9f"},"vehicle_type_id":"4","last_reported":1756297222,"current_range_meters":6400,"station_id":"st_cvj6sg6p6f1abm77japg","pricing_plan_id":"cebpf4jnsgd1na2vs0mg"},{"bike_id":"3f90b47f-2c2f-4ba4-b8d3-1666ede67645","system_id":"levelo_inurba_marseille","lat":43.29747,"lon":5.37717,"is_reserved":false,"is_disabled":false,"rental_uris":{"android":"levelo://app?vid=3f90b47f-2c2f-4ba4-b8d3-1666ede67645","ios":"levelo://app?vid=3f90b47f-2c2f-4ba4-b8d3-1666ede67645"},"vehicle_type_id":"4","last_reported":1756297222,"current_range_meters":6400,"station_id":"","pricing_plan_id":"cebpf4jnsgd1na2vs0mg"},{"bike_id":"e9183fcd-21a7-49ae-a104-53afcb6b096c","system_id":"levelo_inurba_marseille","lat":43.24539,"lon":5.3952,"is_reserved":false,"is_disabled":false,"rental_uris":{"android":"levelo://app?vid=e9183fcd-21a7-49ae-a104-53afcb6b096c","ios":"levelo://app?vid=e9183fcd-21a7-49ae-a104-53afcb6b096c"},"vehicle_type_id":"4","last_reported":1756297222,"current_range_meters":6400,"station_id":"ce4bhlp2rcd13ifvqgjg","pricing_plan_id":"cebpf4jnsgd1na2vs0mg"},{"bike_id":"13bb1200-b596-4b7e-a6a9-f66ea43689d5","system_id":"levelo_inurba_marseille","lat":43.28429,"lon":5.3501,"is_reserved":false,"is_disabled":true,"rental_uris":{"android":"levelo://app?vid=13bb1200-b596-4b7e-a6a9-f66ea43689d5","ios":"levelo://app?vid=13bb1200-b596-4b7e-a6a9-f66ea43689d5"},"vehicle_type_id":"4","last_reported":1756297222,"current_range_meters":6400,"station_id":"ce4bhbh2rcd13ifvqepg","pricing_plan_id":"cebpf4jnsgd1na2vs0mg"},{"bike_id":"ee7fb2f4-092a-4426-a336-cbd1b889684c","system_id":"levelo_inurba_marseille","lat":43.29599,"lon":5.38104,"is_reserved":false,"is_disabled":false,"rental_uris":{"android":"levelo://app?vid=ee7fb2f4-092a-4426-a336-cbd1b889684c","ios":"levelo://app?vid=ee7fb2f4-092a-4426-a336-cbd1b889684c"},"vehicle_type_id":"4","last_reported":1756297222,"current_range_meters":6800,"station_id":"ce4bgl12rcd13ifvqbo0","pricing_plan_id":"cebpf4jnsgd1na2vs0mg"},{"bike_id":"4e527a9b-f811-4f18-be87-b2986fdf2b6d","system_id":"levelo_inurba_marseille","lat":43.29807,"lon":5.38106,"is_reserved":false,"is_disabled":false,"rental_uris":{"android":"levelo://app?vid=4e527a9b-f811-4f18-be87-b2986fdf2b6d","ios":"levelo://app?vid=4e527a9b-f811-4f18-be87-b2986fdf2b6d"},"vehicle_type_id":"4","last_reported":1756297222,"current_range_meters":6800,"station_id":"ce4bgip2rcd13ifvqbb0","pricing_plan_id":"cebpf4jnsgd1na2vs0mg"},{"bike_id":"55d073a1-80c9-4531-b01d-0aa7bd70b94b","system_id":"levelo_inurba_marseille","lat":43.27582,"lon":5.38439,"is_reserved":false,"is_disabled":false,"rental_uris":{"android":"levelo://app?vid=55d073a1-80c9-4531-b01d-0aa7bd70b94b","ios":"levelo://app?vid=55d073a1-80c9-4531-b01d-0aa7bd70b94b"},"vehicle_type_id":"4","last_reported":1756297222,"current_range_meters":6800,"station_id":"ce4bhh92rcd13ifvqfi0","pricing_plan_id":"cebpf4jnsgd1na2vs0mg"},{"bike_id":"86144b03-6fce-4de4-8318-7eec00e4127c","system_id":"levelo_inurba_marseille","lat":43.245474,"lon":5.395272,"is_reserved":false,"is_disabled":false,"rental_uris":{"android":"levelo://app?vid=86144b03-6fce-4de4-8318-7eec00e4127c","ios":"levelo://app?vid=86144b03-6fce-4de4-8318-7eec00e4127c"},"vehicle_type_id":"4","last_reported":1756297222,"current_range_meters":6800,"station_id":"ce4bhlp2rcd13ifvqgjg","pricing_plan_id":"cebpf4jnsgd1na2vs0mg"},{"bike_id":"96560e73-cff6-4033-ab8a-93ac7cebdcda","system_id":"levelo_inurba_marseille","lat":43.272046,"lon":5.391834,"is_reserved":false,"is_disabled":false,"rental_uris":{"android":"levelo://app?vid=96560e73-cff6-4033-ab8a-93ac7cebdcda","ios":"levelo://app?vid=96560e73-cff6-4033-ab8a-93ac7cebdcda"},"vehicle_type_id":"4","last_reported":1756297222,"current_range_meters":6800,"station_id":"ce4bhhp2rcd13ifvqfm0","pricing_plan_id":"cebpf4jnsgd1na2vs0mg"},{"bike_id":"22ab87ca-b781-48a9-9792-6b57659af35a","system_id":"levelo_inurba_marseille","lat":43.30802,"lon":5.3816,"is_reserved":false,"is_disabled":false,"rental_uris":{"android":"levelo://app?vid=22ab87ca-b781-48a9-9792-6b57659af35a","ios":"levelo://app?vid=22ab87ca-b781-48a9-9792-6b57659af35a"},"vehicle_type_id":"4","last_reported":1756297222,"current_range_meters":6800,"station_id":"ce4bgt12rcd13ifvqce0","pricing_plan_id":"cebpf4jnsgd1na2vs0mg"},{"bike_id":"f116213d-ed6f-4edd-9ea3-cdbac5b7fdba","system_id":"levelo_inurba_marseille","lat":43.25088,"lon":5.39518,"is_reserved":false,"is_disabled":false,"rental_uris":{"android":"levelo://app?vid=f116213d-ed6f-4edd-9ea3-cdbac5b7fdba","ios":"levelo://app?vid=f116213d-ed6f-4edd-9ea3-cdbac5b7fdba"},"vehicle_type_id":"4","last_reported":1756297222,"current_range_meters":7200,"station_id":"ce4bhm12rcd13ifvqgkg","pricing_plan_id":"cebpf4jnsgd1na2vs0mg"},{"bike_id":"25c9cae4-61ff-4c7d-8fc8-f7bf27f72b1b","system_id":"levelo_inurba_marseille","lat":43.29269,"lon":5.36834,"is_reserved":false,"is_disabled":true,"rental_uris":{"android":"levelo://app?vid=25c9cae4-61ff-4c7d-8fc8-f7bf27f72b1b","ios":"levelo://app?vid=25c9cae4-61ff-4c7d-8fc8-f7bf27f72b1b"},"vehicle_type_id":"4","last_reported":1756297222,"current_range_meters":7200,"station_id":"ce4bhbp2rcd13ifvqesg","pricing_plan_id":"cebpf4jnsgd1na2vs0mg"},{"bike_id":"47c77e34-ccb8-4e24-a166-6c7bf05bc5a9","system_id":"levelo_inurba_marseille","lat":43.28369,"lon":5.38639,"is_reserved":false,"is_disabled":false,"rental_uris":{"android":"levelo://app?vid=47c77e34-ccb8-4e24-a166-6c7bf05bc5a9","ios":"levelo://app?vid=47c77e34-ccb8-4e24-a166-6c7bf05bc5a9"},"vehicle_type_id":"4","last_reported":1756297222,"current_range_meters":7200,"station_id":"ce4bh492rcd13ifvqdvg","pricing_plan_id":"cebpf4jnsgd1na2vs0mg"},{"bike_id":"2732b203-8d34-41ae-80bd-b4f151d77aad","system_id":"levelo_inurba_marseille","lat":43.30267,"lon":5.4054,"is_reserved":false,"is_disabled":false,"rental_uris":{"android":"levelo://app?vid=2732b203-8d34-41ae-80bd-b4f151d77aad","ios":"levelo://app?vid=2732b203-8d34-41ae-80bd-b4f151d77aad"},"vehicle_type_id":"4","last_reported":1756297222,"current_range_meters":8000,"station_id":"","pricing_plan_id":"cebpf4jnsgd1na2vs0mg"},{"bike_id":"e73d2f09-6a1d-483a-a165-81d858d80f13","system_id":"levelo_inurba_marseille","lat":43.304218,"lon":5.412821,"is_reserved":false,"is_disabled":false,"rental_uris":{"android":"levelo://app?vid=e73d2f09-6a1d-483a-a165-81d858d80f13","ios":"levelo://app?vid=e73d2f09-6a1d-483a-a165-81d858d80f13"},"vehicle_type_id":"4","last_reported":1756297222,"current_range_meters":8000,"station_id":"ce4bhop2rcd13ifvqh8g","pricing_plan_id":"cebpf4jnsgd1na2vs0mg"},{"bike_id":"5691bfe3-a040-42bd-8b27-43ea61f104e7","system_id":"levelo_inurba_marseille","lat":43.28937,"lon":5.39635,"is_reserved":false,"is_disabled":false,"rental_uris":{"android":"levelo://app?vid=5691bfe3-a040-42bd-8b27-43ea61f104e7","ios":"levelo://app?vid=5691bfe3-a040-42bd-8b27-43ea61f104e7"},"vehicle_type_id":"4","last_reported":1756297222,"current_range_meters":8400,"station_id":"ce4bh3h2rcd13ifvqdn0","pricing_plan_id":"cebpf4jnsgd1na2vs0mg"},{"bike_id":"14ced49d-a6bc-4562-9565-21e62079eb99","system_id":"levelo_inurba_marseille","lat":43.29373,"lon":5.37859,"is_reserved":false,"is_disabled":false,"rental_uris":{"android":"levelo://app?vid=14ced49d-a6bc-4562-9565-21e62079eb99","ios":"levelo://app?vid=14ced49d-a6bc-4562-9565-21e62079eb99"},"vehicle_type_id":"4","last_reported":1756297222,"current_range_meters":8400,"station_id":"ce4bgjh2rcd13ifvqbf0","pricing_plan_id":"cebpf4jnsgd1na2vs0mg"},{"bike_id":"0d502687-08ef-4491-8893-8a03d8688be8","system_id":"levelo_inurba_marseille","lat":43.29615,"lon":5.36132,"is_reserved":false,"is_disabled":false,"rental_uris":{"android":"levelo://app?vid=0d502687-08ef-4491-8893-8a03d8688be8","ios":"levelo://app?vid=0d502687-08ef-4491-8893-8a03d8688be8"},"vehicle_type_id":"4","last_reported":1756297222,"current_range_meters":8400,"station_id":"","pricing_plan_id":"cebpf4jnsgd1na2vs0mg"},{"bike_id":"900573f6-c63d-408e-b858-11a6ab5a1d2c","system_id":"levelo_inurba_marseille","lat":43.26214,"lon":5.37443,"is_reserved":false,"is_disabled":false,"rental_uris":{"android":"levelo://app?vid=900573f6-c63d-408e-b858-11a6ab5a1d2c","ios":"levelo://app?vid=900573f6-c63d-408e-b858-11a6ab5a1d2c"},"vehicle_type_id":"4","last_reported":1756297222,"current_range_meters":8400,"station_id":"ce4bhgp2rcd13ifvqfc0","pricing_plan_id":"cebpf4jnsgd1na2vs0mg"},{"bike_id":"2c31fb6b-dce2-4967-9ac2-430a96de4da0","system_id":"levelo_inurba_marseille","lat":43.24995,"lon":5.38943,"is_reserved":false,"is_disabled":false,"rental_uris":{"android":"levelo://app?vid=2c31fb6b-dce2-4967-9ac2-430a96de4da0","ios":"levelo://app?vid=2c31fb6b-dce2-4967-9ac2-430a96de4da0"},"vehicle_type_id":"4","last_reported":1756297222,"current_range_meters":8800,"station_id":"","pricing_plan_id":"cebpf4jnsgd1na2vs0mg"},{"bike_id":"62a2e4a3-34e8-4936-ba8c-9d719ba46973","system_id":"levelo_inurba_marseille","lat":43.27322,"lon":5.39083,"is_reserved":false,"is_disabled":true,"rental_uris":{"android":"levelo://app?vid=62a2e4a3-34e8-4936-ba8c-9d719ba46973","ios":"levelo://app?vid=62a2e4a3-34e8-4936-ba8c-9d719ba46973"},"vehicle_type_id":"4","last_reported":1756297222,"current_range_meters":8800,"station_id":"ce4bhgp2rcd13ifvqfe0","pricing_plan_id":"cebpf4jnsgd1na2vs0mg"},{"bike_id":"69a01144-4cb0-4f43-b8a7-d8bba1210d75","system_id":"levelo_inurba_marseille","lat":43.315783,"lon":5.374554,"is_reserved":false,"is_disabled":false,"rental_uris":{"android":"levelo://app?vid=69a01144-4cb0-4f43-b8a7-d8bba1210d75","ios":"levelo://app?vid=69a01144-4cb0-4f43-b8a7-d8bba1210d75"},"vehicle_type_id":"4","last_reported":1756297222,"current_range_meters":8800,"station_id":"","pricing_plan_id":"cebpf4jnsgd1na2vs0mg"},{"bike_id":"cfd66be3-eb77-4fcb-9808-b084ac439d43","system_id":"levelo_inurba_marseille","lat":43.33758,"lon":5.37434,"is_reserved":false,"is_disabled":false,"rental_uris":{"android":"levelo://app?vid=cfd66be3-eb77-4fcb-9808-b084ac439d43","ios":"levelo://app?vid=cfd66be3-eb77-4fcb-9808-b084ac439d43"},"vehicle_type_id":"4","last_reported":1756297222,"current_range_meters":8800,"station_id":"","pricing_plan_id":"cebpf4jnsgd1na2vs0mg"},{"bike_id":"aa821b5c-abd5-467b-9b17-16ba148595fa","system_id":"levelo_inurba_marseille","lat":43.287964,"lon":5.379567,"is_reserved":false,"is_disabled":false,"rental_uris":{"android":"levelo://app?vid=aa821b5c-abd5-467b-9b17-16ba148595fa","ios":"levelo://app?vid=aa821b5c-abd5-467b-9b17-16ba148595fa"},"vehicle_type_id":"4","last_reported":1756297222,"current_range_meters":9200,"station_id":"ce4bh9p2rcd13ifvqec0","pricing_plan_id":"cebpf4jnsgd1na2vs0mg"},{"bike_id":"51842e17-ef10-4624-a23e-c8a182427991","system_id":"levelo_inurba_marseille","lat":43.31616,"lon":5.38185,"is_reserved":false,"is_disabled":false,"rental_uris":{"android":"levelo://app?vid=51842e17-ef10-4624-a23e-c8a182427991","ios":"levelo://app?vid=51842e17-ef10-4624-a23e-c8a182427991"},"vehicle_type_id":"4","last_reported":1756297222,"current_range_meters":9200,"station_id":"","pricing_plan_id":"cebpf4jnsgd1na2vs0mg"},{"bike_id":"b1c88afe-4f04-47ea-96a6-19db73d21498","system_id":"levelo_inurba_marseille","lat":43.26541,"lon":5.37323,"is_reserved":false,"is_disabled":false,"rental_uris":{"android":"levelo://app?vid=b1c88afe-4f04-47ea-96a6-19db73d21498","ios":"levelo://app?vid=b1c88afe-4f04-47ea-96a6-19db73d21498"},"vehicle_type_id":"4","last_reported":1756297222,"current_range_meters":9200,"station_id":"ce4bhg12rcd13ifvqf70","pricing_plan_id":"cebpf4jnsgd1na2vs0mg"},{"bike_id":"0f2017f4-e5c1-46a2-a7d8-e957ce265a72","system_id":"levelo_inurba_marseille","lat":43.21748,"lon":5.34599,"is_reserved":false,"is_disabled":false,"rental_uris":{"android":"levelo://app?vid=0f2017f4-e5c1-46a2-a7d8-e957ce265a72","ios":"levelo://app?vid=0f2017f4-e5c1-46a2-a7d8-e957ce265a72"},"vehicle_type_id":"4","last_reported":1756297222,"current_range_meters":9600,"station_id":"st_cvj6r9ubvosntc0bgbag","pricing_plan_id":"cebpf4jnsgd1na2vs0mg"},{"bike_id":"eb22dec0-bfff-46be-ac9e-3150673df06e","system_id":"levelo_inurba_marseille","lat":43.26213,"lon":5.37449,"is_reserved":false,"is_disabled":false,"rental_uris":{"android":"levelo://app?vid=eb22dec0-bfff-46be-ac9e-3150673df06e","ios":"levelo://app?vid=eb22dec0-bfff-46be-ac9e-3150673df06e"},"vehicle_type_id":"4","last_reported":1756297222,"current_range_meters":9600,"station_id":"ce4bhgp2rcd13ifvqfc0","pricing_plan_id":"cebpf4jnsgd1na2vs0mg"},{"bike_id":"6034672e-5719-489f-966d-e36e26a2269b","system_id":"levelo_inurba_marseille","lat":43.21758,"lon":5.34604,"is_reserved":false,"is_disabled":false,"rental_uris":{"android":"levelo://app?vid=6034672e-5719-489f-966d-e36e26a2269b","ios":"levelo://app?vid=6034672e-5719-489f-966d-e36e26a2269b"},"vehicle_type_id":"4","last_reported":1756297222,"current_range_meters":9600,"station_id":"st_cvj6r9ubvosntc0bgbag","pricing_plan_id":"cebpf4jnsgd1na2vs0mg"},{"bike_id":"1185df2e-07c7-4413-a2da-6f8fd60166ae","system_id":"levelo_inurba_marseille","lat":43.26196,"lon":5.37452,"is_reserved":false,"is_disabled":false,"rental_uris":{"android":"levelo://app?vid=1185df2e-07c7-4413-a2da-6f8fd60166ae","ios":"levelo://app?vid=1185df2e-07c7-4413-a2da-6f8fd60166ae"},"vehicle_type_id":"4","last_reported":1756297222,"current_range_meters":9600,"station_id":"ce4bhgp2rcd13ifvqfc0","pricing_plan_id":"cebpf4jnsgd1na2vs0mg"},{"bike_id":"b93b207e-cec3-497e-a858-017df2c2c58a","system_id":"levelo_inurba_marseille","lat":43.25493,"lon":5.37649,"is_reserved":false,"is_disabled":false,"rental_uris":{"android":"levelo://app?vid=b93b207e-cec3-497e-a858-017df2c2c58a","ios":"levelo://app?vid=b93b207e-cec3-497e-a858-017df2c2c58a"},"vehicle_type_id":"4","last_reported":1756297222,"current_range_meters":10000,"station_id":"ce4bhh12rcd13ifvqff0","pricing_plan_id":"cebpf4jnsgd1na2vs0mg"},{"bike_id":"c73d9183-822c-4a14-a8c1-53bf72c04baf","system_id":"levelo_inurba_marseille","lat":43.29428,"lon":5.43226,"is_reserved":false,"is_disabled":false,"rental_uris":{"android":"levelo://app?vid=c73d9183-822c-4a14-a8c1-53bf72c04baf","ios":"levelo://app?vid=c73d9183-822c-4a14-a8c1-53bf72c04baf"},"vehicle_type_id":"4","last_reported":1756297222,"current_range_meters":10000,"station_id":"","pricing_plan_id":"cebpf4jnsgd1na2vs0mg"},{"bike_id":"a6ef8657-5b8a-423b-993f-c3df43dec0a0","system_id":"levelo_inurba_marseille","lat":43.326727,"lon":5.389483,"is_reserved":false,"is_disabled":false,"rental_uris":{"android":"levelo://app?vid=a6ef8657-5b8a-423b-993f-c3df43dec0a0","ios":"levelo://app?vid=a6ef8657-5b8a-423b-993f-c3df43dec0a0"},"vehicle_type_id":"4","last_reported":1756297222,"current_range_meters":10000,"station_id":"","pricing_plan_id":"cebpf4jnsgd1na2vs0mg"},{"bike_id":"dd2deb7a-13c9-4f40-999d-43b6e6ca2a81","system_id":"levelo_inurba_marseille","lat":43.29965,"lon":5.38494,"is_reserved":false,"is_disabled":false,"rental_uris":{"android":"levelo://app?vid=dd2deb7a-13c9-4f40-999d-43b6e6ca2a81","ios":"levelo://app?vid=dd2deb7a-13c9-4f40-999d-43b6e6ca2a81"},"vehicle_type_id":"4","last_reported":1756297222,"current_range_meters":10000,"station_id":"ce4bgj92rcd13ifvqbd0","pricing_plan_id":"cebpf4jnsgd1na2vs0mg"},{"bike_id":"3c27b005-25ac-4dc8-b5b3-6196b706529f","system_id":"levelo_inurba_marseille","lat":43.24813,"lon":5.37455,"is_reserved":false,"is_disabled":false,"rental_uris":{"android":"levelo://app?vid=3c27b005-25ac-4dc8-b5b3-6196b706529f","ios":"levelo://app?vid=3c27b005-25ac-4dc8-b5b3-6196b706529f"},"vehicle_type_id":"4","last_reported":1756297222,"current_range_meters":10000,"station_id":"ce4bhgh2rcd13ifvqfb0","pricing_plan_id":"cebpf4jnsgd1na2vs0mg"},{"bike_id":"39002f5b-a23e-4630-90a0-e2481b8443c4","system_id":"levelo_inurba_marseille","lat":43.25006,"lon":5.389113,"is_reserved":false,"is_disabled":false,"rental_uris":{"android":"levelo://app?vid=39002f5b-a23e-4630-90a0-e2481b8443c4","ios":"levelo://app?vid=39002f5b-a23e-4630-90a0-e2481b8443c4"},"vehicle_type_id":"4","last_reported":1756297222,"current_range_meters":10000,"station_id":"","pricing_plan_id":"cebpf4jnsgd1na2vs0mg"},{"bike_id":"5e7b8bd5-57cd-45b5-8023-49fa06754755","system_id":"levelo_inurba_marseille","lat":43.23194,"lon":5.35558,"is_reserved":false,"is_disabled":false,"rental_uris":{"android":"levelo://app?vid=5e7b8bd5-57cd-45b5-8023-49fa06754755","ios":"levelo://app?vid=5e7b8bd5-57cd-45b5-8023-49fa06754755"},"vehicle_type_id":"4","last_reported":1756297222,"current_range_meters":10000,"station_id":"ce4bhu92rcd13ifvqi70","pricing_plan_id":"cebpf4jnsgd1na2vs0mg"},{"bike_id":"6bf766fa-e6a4-4b3b-8676-4ae53a79682b","system_id":"levelo_inurba_marseille","lat":43.30284,"lon":5.37703,"is_reserved":false,"is_disabled":false,"rental_uris":{"android":"levelo://app?vid=6bf766fa-e6a4-4b3b-8676-4ae53a79682b","ios":"levelo://app?vid=6bf766fa-e6a4-4b3b-8676-4ae53a79682b"},"vehicle_type_id":"4","last_reported":1756297222,"current_range_meters":10000,"station_id":"ce4bguh2rcd13ifvqcj0","pricing_plan_id":"cebpf4jnsgd1na2vs0mg"},{"bike_id":"1d7023ef-959e-48df-b075-0a4bd90cc9ae","system_id":"levelo_inurba_marseille","lat":43.27365,"lon":5.36253,"is_reserved":false,"is_disabled":true,"rental_uris":{"android":"levelo://app?vid=1d7023ef-959e-48df-b075-0a4bd90cc9ae","ios":"levelo://app?vid=1d7023ef-959e-48df-b075-0a4bd90cc9ae"},"vehicle_type_id":"4","last_reported":1756297222,"current_range_meters":10800,"station_id":"ce4bhbh2rcd13ifvqeo0","pricing_plan_id":"cebpf4jnsgd1na2vs0mg"},{"bike_id":"16476a5c-8927-427d-92ea-be1eba7ca538","system_id":"levelo_inurba_marseille","lat":43.29605,"lon":5.380922,"is_reserved":false,"is_disabled":false,"rental_uris":{"android":"levelo://app?vid=16476a5c-8927-427d-92ea-be1eba7ca538","ios":"levelo://app?vid=16476a5c-8927-427d-92ea-be1eba7ca538"},"vehicle_type_id":"4","last_reported":1756297222,"current_range_meters":10800,"station_id":"ce4bgl12rcd13ifvqbo0","pricing_plan_id":"cebpf4jnsgd1na2vs0mg"},{"bike_id":"919403d1-9d41-4322-8f42-253c1dba9d3b","system_id":"levelo_inurba_marseille","lat":43.21753,"lon":5.34604,"is_reserved":false,"is_disabled":false,"rental_uris":{"android":"levelo://app?vid=919403d1-9d41-4322-8f42-253c1dba9d3b","ios":"levelo://app?vid=919403d1-9d41-4322-8f42-253c1dba9d3b"},"vehicle_type_id":"4","last_reported":1756297222,"current_range_meters":10800,"station_id":"st_cvj6r9ubvosntc0bgbag","pricing_plan_id":"cebpf4jnsgd1na2vs0mg"},{"bike_id":"14947f10-51c9-4538-82c8-53a5bc644a0e","system_id":"levelo_inurba_marseille","lat":43.32083,"lon":5.41514,"is_reserved":false,"is_disabled":false,"rental_uris":{"android":"levelo://app?vid=14947f10-51c9-4538-82c8-53a5bc644a0e","ios":"levelo://app?vid=14947f10-51c9-4538-82c8-53a5bc644a0e"},"vehicle_type_id":"4","last_reported":1756297222,"current_range_meters":10800,"station_id":"ce4bhq92rcd13ifvqhkg","pricing_plan_id":"cebpf4jnsgd1na2vs0mg"},{"bike_id":"0561f6f7-4de8-48ea-a332-2e16d7c4fab4","system_id":"levelo_inurba_marseille","lat":43.21758,"lon":5.34603,"is_reserved":false,"is_disabled":false,"rental_uris":{"android":"levelo://app?vid=0561f6f7-4de8-48ea-a332-2e16d7c4fab4","ios":"levelo://app?vid=0561f6f7-4de8-48ea-a332-2e16d7c4fab4"},"vehicle_type_id":"4","last_reported":1756297222,"current_range_meters":10800,"station_id":"st_cvj6r9ubvosntc0bgbag","pricing_plan_id":"cebpf4jnsgd1na2vs0mg"},{"bike_id":"777a8c83-aed8-4881-84b6-34465956e738","system_id":"levelo_inurba_marseille","lat":43.25717,"lon":5.40979,"is_reserved":false,"is_disabled":false,"rental_uris":{"android":"levelo://app?vid=777a8c83-aed8-4881-84b6-34465956e738","ios":"levelo://app?vid=777a8c83-aed8-4881-84b6-34465956e738"},"vehicle_type_id":"4","last_reported":1756297222,"current_range_meters":10800,"station_id":"","pricing_plan_id":"cebpf4jnsgd1na2vs0mg"},{"bike_id":"ca2427ac-157e-4de7-a1d0-ba98c33d385c","system_id":"levelo_inurba_marseille","lat":43.24999,"lon":5.38933,"is_reserved":false,"is_disabled":false,"rental_uris":{"android":"levelo://app?vid=ca2427ac-157e-4de7-a1d0-ba98c33d385c","ios":"levelo://app?vid=ca2427ac-157e-4de7-a1d0-ba98c33d385c"},"vehicle_type_id":"4","last_reported":1756297222,"current_range_meters":10800,"station_id":"ce4bhgp2rcd13ifvqfd0","pricing_plan_id":"cebpf4jnsgd1na2vs0mg"},{"bike_id":"1546df9e-d1cb-482b-8d1f-d121540fd829","system_id":"levelo_inurba_marseille","lat":43.21186,"lon":5.3508,"is_reserved":false,"is_disabled":false,"rental_uris":{"android":"levelo://app?vid=1546df9e-d1cb-482b-8d1f-d121540fd829","ios":"levelo://app?vid=1546df9e-d1cb-482b-8d1f-d121540fd829"},"vehicle_type_id":"4","last_reported":1756297222,"current_range_meters":10800,"station_id":"st_cvj6sg6p6f1abm77japg","pricing_plan_id":"cebpf4jnsgd1na2vs0mg"},{"bike_id":"03dfeff2-c81b-4032-9dbb-582c03e32622","system_id":"levelo_inurba_marseille","lat":43.27321,"lon":5.3908,"is_reserved":false,"is_disabled":false,"rental_uris":{"android":"levelo://app?vid=03dfeff2-c81b-4032-9dbb-582c03e32622","ios":"levelo://app?vid=03dfeff2-c81b-4032-9dbb-582c03e32622"},"vehicle_type_id":"4","last_reported":1756297222,"current_range_meters":11200,"station_id":"ce4bhgp2rcd13ifvqfe0","pricing_plan_id":"cebpf4jnsgd1na2vs0mg"},{"bike_id":"963f9958-e85a-4117-8a25-65fb05dd3a47","system_id":"levelo_inurba_marseille","lat":43.29615,"lon":5.3774,"is_reserved":false,"is_disabled":false,"rental_uris":{"android":"levelo://app?vid=963f9958-e85a-4117-8a25-65fb05dd3a47","ios":"levelo://app?vid=963f9958-e85a-4117-8a25-65fb05dd3a47"},"vehicle_type_id":"4","last_reported":1756297222,"current_range_meters":11200,"station_id":"ce4bgi92rcd13ifvqb90","pricing_plan_id":"cebpf4jnsgd1na2vs0mg"},{"bike_id":"e51679cc-8666-49cb-b60b-bcf74188eba2","system_id":"levelo_inurba_marseille","lat":43.27224,"lon":5.39197,"is_reserved":false,"is_disabled":false,"rental_uris":{"android":"levelo://app?vid=e51679cc-8666-49cb-b60b-bcf74188eba2","ios":"levelo://app?vid=e51679cc-8666-49cb-b60b-bcf74188eba2"},"vehicle_type_id":"4","last_reported":1756297222,"current_range_meters":11200,"station_id":"ce4bhhp2rcd13ifvqfm0","pricing_plan_id":"cebpf4jnsgd1na2vs0mg"},{"bike_id":"4aa04cf0-c98a-4b86-9c20-0afc960e7cd0","system_id":"levelo_inurba_marseille","lat":43.26207,"lon":5.37446,"is_reserved":false,"is_disabled":false,"rental_uris":{"android":"levelo://app?vid=4aa04cf0-c98a-4b86-9c20-0afc960e7cd0","ios":"levelo://app?vid=4aa04cf0-c98a-4b86-9c20-0afc960e7cd0"},"vehicle_type_id":"4","last_reported":1756297222,"current_range_meters":11200,"station_id":"ce4bhgp2rcd13ifvqfc0","pricing_plan_id":"cebpf4jnsgd1na2vs0mg"},{"bike_id":"e337d582-364a-4312-af91-67d0c81052aa","system_id":"levelo_inurba_marseille","lat":43.32552,"lon":5.36445,"is_reserved":false,"is_disabled":false,"rental_uris":{"android":"levelo://app?vid=e337d582-364a-4312-af91-67d0c81052aa","ios":"levelo://app?vid=e337d582-364a-4312-af91-67d0c81052aa"},"vehicle_type_id":"4","last_reported":1756297222,"current_range_meters":11200,"station_id":"","pricing_plan_id":"cebpf4jnsgd1na2vs0mg"},{"bike_id":"275f0435-b0b3-434d-bc36-688c457de153","system_id":"levelo_inurba_marseille","lat":43.297909,"lon":5.381945,"is_reserved":false,"is_disabled":false,"rental_uris":{"android":"levelo://app?vid=275f0435-b0b3-434d-bc36-688c457de153","ios":"levelo://app?vid=275f0435-b0b3-434d-bc36-688c457de153"},"vehicle_type_id":"4","last_reported":1756297222,"current_range_meters":11600,"station_id":"ce4bgj92rcd13ifvqbd0","pricing_plan_id":"cebpf4jnsgd1na2vs0mg"},{"bike_id":"ed56c123-b773-4b78-984e-b5eaaa54a58a","system_id":"levelo_inurba_marseille","lat":43.24073,"lon":5.3777,"is_reserved":false,"is_disabled":false,"rental_uris":{"android":"levelo://app?vid=ed56c123-b773-4b78-984e-b5eaaa54a58a","ios":"levelo://app?vid=ed56c123-b773-4b78-984e-b5eaaa54a58a"},"vehicle_type_id":"4","last_reported":1756297222,"current_range_meters":11600,"station_id":"ce4bhnp2rcd13ifvqgvg","pricing_plan_id":"cebpf4jnsgd1na2vs0mg"},{"bike_id":"ddfdb165-2caa-468e-801c-758cb7bbd525","system_id":"levelo_inurba_marseille","lat":43.30538,"lon":5.36728,"is_reserved":false,"is_disabled":false,"rental_uris":{"android":"levelo://app?vid=ddfdb165-2caa-468e-801c-758cb7bbd525","ios":"levelo://app?vid=ddfdb165-2caa-468e-801c-758cb7bbd525"},"vehicle_type_id":"4","last_reported":1756297222,"current_range_meters":11600,"station_id":"ce4bgrp2rcd13ifvqc9g","pricing_plan_id":"cebpf4jnsgd1na2vs0mg"},{"bike_id":"5bce688b-fc81-4596-8277-b66f54be87c1","system_id":"levelo_inurba_marseille","lat":43.33768,"lon":5.37438,"is_reserved":false,"is_disabled":false,"rental_uris":{"android":"levelo://app?vid=5bce688b-fc81-4596-8277-b66f54be87c1","ios":"levelo://app?vid=5bce688b-fc81-4596-8277-b66f54be87c1"},"vehicle_type_id":"4","last_reported":1756297222,"current_range_meters":11600,"station_id":"","pricing_plan_id":"cebpf4jnsgd1na2vs0mg"},{"bike_id":"61e2637b-d820-4598-8d66-95d1b373a02a","system_id":"levelo_inurba_marseille","lat":43.30638,"lon":5.40094,"is_reserved":false,"is_disabled":false,"rental_uris":{"android":"levelo://app?vid=61e2637b-d820-4598-8d66-95d1b373a02a","ios":"levelo://app?vid=61e2637b-d820-4598-8d66-95d1b373a02a"},"vehicle_type_id":"4","last_reported":1756297222,"current_range_meters":11600,"station_id":"ce4bh112rcd13ifvqda0","pricing_plan_id":"cebpf4jnsgd1na2vs0mg"},{"bike_id":"d5844988-421a-4cf0-bbe2-f95540a0dbae","system_id":"levelo_inurba_marseille","lat":43.2842,"lon":5.34997,"is_reserved":false,"is_disabled":false,"rental_uris":{"android":"levelo://app?vid=d5844988-421a-4cf0-bbe2-f95540a0dbae","ios":"levelo://app?vid=d5844988-421a-4cf0-bbe2-f95540a0dbae"},"vehicle_type_id":"4","last_reported":1756297222,"current_range_meters":11600,"station_id":"ce4bhbh2rcd13ifvqepg","pricing_plan_id":"cebpf4jnsgd1na2vs0mg"},{"bike_id":"a756ac62-601a-4a65-b168-04bcf168284e","system_id":"levelo_inurba_marseille","lat":43.27204,"lon":5.39184,"is_reserved":false,"is_disabled":false,"rental_uris":{"android":"levelo://app?vid=a756ac62-601a-4a65-b168-04bcf168284e","ios":"levelo://app?vid=a756ac62-601a-4a65-b168-04bcf168284e"},"vehicle_type_id":"4","last_reported":1756297222,"current_range_meters":11600,"station_id":"ce4bhhp2rcd13ifvqfm0","pricing_plan_id":"cebpf4jnsgd1na2vs0mg"},{"bike_id":"67700c48-0034-443d-ae23-a2db71e8adb9","system_id":"levelo_inurba_marseille","lat":43.295855,"lon":5.400308,"is_reserved":false,"is_disabled":false,"rental_uris":{"android":"levelo://app?vid=67700c48-0034-443d-ae23-a2db71e8adb9","ios":"levelo://app?vid=67700c48-0034-443d-ae23-a2db71e8adb9"},"vehicle_type_id":"4","last_reported":1756297222,"current_range_meters":12000,"station_id":"ce4bh312rcd13ifvqdj0","pricing_plan_id":"cebpf4jnsgd1na2vs0mg"},{"bike_id":"0bf37e78-f487-455b-bd8b-a64c8249f2b1","system_id":"levelo_inurba_marseille","lat":43.25002,"lon":5.38939,"is_reserved":false,"is_disabled":false,"rental_uris":{"android":"levelo://app?vid=0bf37e78-f487-455b-bd8b-a64c8249f2b1","ios":"levelo://app?vid=0bf37e78-f487-455b-bd8b-a64c8249f2b1"},"vehicle_type_id":"4","last_reported":1756297222,"current_range_meters":12000,"station_id":"ce4bhgp2rcd13ifvqfd0","pricing_plan_id":"cebpf4jnsgd1na2vs0mg"},{"bike_id":"6bbbb450-c48a-42dc-ba0d-d6b0ac0ecdd7","system_id":"levelo_inurba_marseille","lat":43.27558,"lon":5.38441,"is_reserved":false,"is_disabled":false,"rental_uris":{"android":"levelo://app?vid=6bbbb450-c48a-42dc-ba0d-d6b0ac0ecdd7","ios":"levelo://app?vid=6bbbb450-c48a-42dc-ba0d-d6b0ac0ecdd7"},"vehicle_type_id":"4","last_reported":1756297222,"current_range_meters":11600,"station_id":"ce4bhh92rcd13ifvqfi0","pricing_plan_id":"cebpf4jnsgd1na2vs0mg"},{"bike_id":"b79f626f-4cce-45e0-9b7e-79f3f3a6033f","system_id":"levelo_inurba_marseille","lat":43.246167,"lon":5.431523,"is_reserved":false,"is_disabled":false,"rental_uris":{"android":"levelo://app?vid=b79f626f-4cce-45e0-9b7e-79f3f3a6033f","ios":"levelo://app?vid=b79f626f-4cce-45e0-9b7e-79f3f3a6033f"},"vehicle_type_id":"4","last_reported":1756297222,"current_range_meters":12400,"station_id":"st_d2m6c4gdas8pm72e190g","pricing_plan_id":"cebpf4jnsgd1na2vs0mg"},{"bike_id":"f2509f15-680d-4c5b-bf17-90b58d4b8bb3","system_id":"levelo_inurba_marseille","lat":43.27558,"lon":5.3844,"is_reserved":false,"is_disabled":false,"rental_uris":{"android":"levelo://app?vid=f2509f15-680d-4c5b-bf17-90b58d4b8bb3","ios":"levelo://app?vid=f2509f15-680d-4c5b-bf17-90b58d4b8bb3"},"vehicle_type_id":"4","last_reported":1756297222,"current_range_meters":12400,"station_id":"ce4bhh92rcd13ifvqfi0","pricing_plan_id":"cebpf4jnsgd1na2vs0mg"},{"bike_id":"3e8aa453-2604-4123-85f7-915062da8e13","system_id":"levelo_inurba_marseille","lat":43.27974,"lon":5.38746,"is_reserved":false,"is_disabled":false,"rental_uris":{"android":"levelo://app?vid=3e8aa453-2604-4123-85f7-915062da8e13","ios":"levelo://app?vid=3e8aa453-2604-4123-85f7-915062da8e13"},"vehicle_type_id":"4","last_reported":1756297222,"current_range_meters":12800,"station_id":"ce4bhg12rcd13ifvqf80","pricing_plan_id":"cebpf4jnsgd1na2vs0mg"},{"bike_id":"902da873-3945-4023-9231-261a13c62aaf","system_id":"levelo_inurba_marseille","lat":43.30145,"lon":5.39879,"is_reserved":false,"is_disabled":false,"rental_uris":{"android":"levelo://app?vid=902da873-3945-4023-9231-261a13c62aaf","ios":"levelo://app?vid=902da873-3945-4023-9231-261a13c62aaf"},"vehicle_type_id":"4","last_reported":1756297222,"current_range_meters":12800,"station_id":"ce4bh0h2rcd13ifvqd40","pricing_plan_id":"cebpf4jnsgd1na2vs0mg"},{"bike_id":"142a91a6-604f-4c0a-a590-fa0e6dffc8c0","system_id":"levelo_inurba_marseille","lat":43.28701,"lon":5.37399,"is_reserved":false,"is_disabled":false,"rental_uris":{"android":"levelo://app?vid=142a91a6-604f-4c0a-a590-fa0e6dffc8c0","ios":"levelo://app?vid=142a91a6-604f-4c0a-a590-fa0e6dffc8c0"},"vehicle_type_id":"4","last_reported":1756297222,"current_range_meters":12800,"station_id":"ce4bh3p2rcd13ifvqdq0","pricing_plan_id":"cebpf4jnsgd1na2vs0mg"},{"bike_id":"4a7dfe9f-1933-4316-b9fa-9dc73d1506aa","system_id":"levelo_inurba_marseille","lat":43.274235,"lon":5.394162,"is_reserved":false,"is_disabled":false,"rental_uris":{"android":"levelo://app?vid=4a7dfe9f-1933-4316-b9fa-9dc73d1506aa","ios":"levelo://app?vid=4a7dfe9f-1933-4316-b9fa-9dc73d1506aa"},"vehicle_type_id":"4","last_reported":1756297222,"current_range_meters":12800,"station_id":"ce4bhdp2rcd13ifvqf20","pricing_plan_id":"cebpf4jnsgd1na2vs0mg"},{"bike_id":"e0e1a54e-b512-4028-aa73-d97ef8cd5368","system_id":"levelo_inurba_marseille","lat":43.28422,"lon":5.34993,"is_reserved":false,"is_disabled":false,"rental_uris":{"android":"levelo://app?vid=e0e1a54e-b512-4028-aa73-d97ef8cd5368","ios":"levelo://app?vid=e0e1a54e-b512-4028-aa73-d97ef8cd5368"},"vehicle_type_id":"4","last_reported":1756297222,"current_range_meters":13600,"station_id":"ce4bhbh2rcd13ifvqepg","pricing_plan_id":"cebpf4jnsgd1na2vs0mg"},{"bike_id":"f561dbdd-e490-4c79-b1e3-18c93d5c636b","system_id":"levelo_inurba_marseille","lat":43.29779,"lon":5.39319,"is_reserved":false,"is_disabled":false,"rental_uris":{"android":"levelo://app?vid=f561dbdd-e490-4c79-b1e3-18c93d5c636b","ios":"levelo://app?vid=f561dbdd-e490-4c79-b1e3-18c93d5c636b"},"vehicle_type_id":"4","last_reported":1756297222,"current_range_meters":13600,"station_id":"chh1huq6cuj3fo74tm60","pricing_plan_id":"cebpf4jnsgd1na2vs0mg"},{"bike_id":"abca0f11-a6f6-4a0e-aeff-46b2771b20df","system_id":"levelo_inurba_marseille","lat":43.29534,"lon":5.38553,"is_reserved":false,"is_disabled":false,"rental_uris":{"android":"levelo://app?vid=abca0f11-a6f6-4a0e-aeff-46b2771b20df","ios":"levelo://app?vid=abca0f11-a6f6-4a0e-aeff-46b2771b20df"},"vehicle_type_id":"4","last_reported":1756297222,"current_range_meters":13600,"station_id":"ce4bgih2rcd13ifvqba0","pricing_plan_id":"cebpf4jnsgd1na2vs0mg"},{"bike_id":"e1ca552e-2892-495c-b3c0-e54fa3dfa620","system_id":"levelo_inurba_marseille","lat":43.30326,"lon":5.40431,"is_reserved":false,"is_disabled":false,"rental_uris":{"android":"levelo://app?vid=e1ca552e-2892-495c-b3c0-e54fa3dfa620","ios":"levelo://app?vid=e1ca552e-2892-495c-b3c0-e54fa3dfa620"},"vehicle_type_id":"4","last_reported":1756297222,"current_range_meters":13600,"station_id":"ce4bh012rcd13ifvqd10","pricing_plan_id":"cebpf4jnsgd1na2vs0mg"},{"bike_id":"64c06664-1c5d-4f3e-9408-ac6396da34e2","system_id":"levelo_inurba_marseille","lat":43.26199,"lon":5.37451,"is_reserved":false,"is_disabled":false,"rental_uris":{"android":"levelo://app?vid=64c06664-1c5d-4f3e-9408-ac6396da34e2","ios":"levelo://app?vid=64c06664-1c5d-4f3e-9408-ac6396da34e2"},"vehicle_type_id":"4","last_reported":1756297222,"current_range_meters":14000,"station_id":"ce4bhgp2rcd13ifvqfc0","pricing_plan_id":"cebpf4jnsgd1na2vs0mg"},{"bike_id":"e5eabf25-4e1c-476e-b130-9f83cdcfc80c","system_id":"levelo_inurba_marseille","lat":43.29798,"lon":5.41705,"is_reserved":false,"is_disabled":false,"rental_uris":{"android":"levelo://app?vid=e5eabf25-4e1c-476e-b130-9f83cdcfc80c","ios":"levelo://app?vid=e5eabf25-4e1c-476e-b130-9f83cdcfc80c"},"vehicle_type_id":"4","last_reported":1756297222,"current_range_meters":14000,"station_id":"","pricing_plan_id":"cebpf4jnsgd1na2vs0mg"},{"bike_id":"3448e159-471f-45cf-b0bc-dcb672574311","system_id":"levelo_inurba_marseille","lat":43.26196,"lon":5.37456,"is_reserved":false,"is_disabled":true,"rental_uris":{"android":"levelo://app?vid=3448e159-471f-45cf-b0bc-dcb672574311","ios":"levelo://app?vid=3448e159-471f-45cf-b0bc-dcb672574311"},"vehicle_type_id":"4","last_reported":1756297222,"current_range_meters":14000,"station_id":"ce4bhgp2rcd13ifvqfc0","pricing_plan_id":"cebpf4jnsgd1na2vs0mg"},{"bike_id":"39c04f45-2c91-439d-8447-ad653621516c","system_id":"levelo_inurba_marseille","lat":43.2963,"lon":5.4059,"is_reserved":false,"is_disabled":false,"rental_uris":{"android":"levelo://app?vid=39c04f45-2c91-439d-8447-ad653621516c","ios":"levelo://app?vid=39c04f45-2c91-439d-8447-ad653621516c"},"vehicle_type_id":"4","last_reported":1756297222,"current_range_meters":14000,"station_id":"ce4bh0h2rcd13ifvqd60","pricing_plan_id":"cebpf4jnsgd1na2vs0mg"},{"bike_id":"b5ae0016-67e1-4c37-91cb-4d986fbc09a4","system_id":"levelo_inurba_marseille","lat":43.246219,"lon":5.431496,"is_reserved":false,"is_disabled":false,"rental_uris":{"android":"levelo://app?vid=b5ae0016-67e1-4c37-91cb-4d986fbc09a4","ios":"levelo://app?vid=b5ae0016-67e1-4c37-91cb-4d986fbc09a4"},"vehicle_type_id":"4","last_reported":1756297222,"current_range_meters":14400,"station_id":"st_d2m6c4gdas8pm72e190g","pricing_plan_id":"cebpf4jnsgd1na2vs0mg"},{"bike_id":"b5133710-52a6-42c6-b487-40f265b37cba","system_id":"levelo_inurba_marseille","lat":43.30804,"lon":5.43534,"is_reserved":false,"is_disabled":false,"rental_uris":{"android":"levelo://app?vid=b5133710-52a6-42c6-b487-40f265b37cba","ios":"levelo://app?vid=b5133710-52a6-42c6-b487-40f265b37cba"},"vehicle_type_id":"4","last_reported":1756297222,"current_range_meters":14400,"station_id":"ce4bhph2rcd13ifvqheg","pricing_plan_id":"cebpf4jnsgd1na2vs0mg"},{"bike_id":"78c9d9d4-84a4-4262-996c-8813e81d420d","system_id":"levelo_inurba_marseille","lat":43.30555,"lon":5.36572,"is_reserved":false,"is_disabled":false,"rental_uris":{"android":"levelo://app?vid=78c9d9d4-84a4-4262-996c-8813e81d420d","ios":"levelo://app?vid=78c9d9d4-84a4-4262-996c-8813e81d420d"},"vehicle_type_id":"4","last_reported":1756297222,"current_range_meters":14400,"station_id":"ce4bgs12rcd13ifvqcag","pricing_plan_id":"cebpf4jnsgd1na2vs0mg"},{"bike_id":"d9d572f7-d811-4b4d-9ec5-cb85e6210f42","system_id":"levelo_inurba_marseille","lat":43.32105,"lon":5.367695,"is_reserved":false,"is_disabled":false,"rental_uris":{"android":"levelo://app?vid=d9d572f7-d811-4b4d-9ec5-cb85e6210f42","ios":"levelo://app?vid=d9d572f7-d811-4b4d-9ec5-cb85e6210f42"},"vehicle_type_id":"4","last_reported":1756297222,"current_range_meters":14400,"station_id":"ce4bhrh2rcd13ifvqhug","pricing_plan_id":"cebpf4jnsgd1na2vs0mg"},{"bike_id":"aeb6680f-c554-4849-80dd-284b39496357","system_id":"levelo_inurba_marseille","lat":43.29222,"lon":5.36053,"is_reserved":false,"is_disabled":false,"rental_uris":{"android":"levelo://app?vid=aeb6680f-c554-4849-80dd-284b39496357","ios":"levelo://app?vid=aeb6680f-c554-4849-80dd-284b39496357"},"vehicle_type_id":"4","last_reported":1756297222,"current_range_meters":14400,"station_id":"ce4bhbh2rcd13ifvqeqg","pricing_plan_id":"cebpf4jnsgd1na2vs0mg"},{"bike_id":"f7dae3c1-2ec5-4e01-b77a-1d5b4af913f8","system_id":"levelo_inurba_marseille","lat":43.2844,"lon":5.375277,"is_reserved":false,"is_disabled":false,"rental_uris":{"android":"levelo://app?vid=f7dae3c1-2ec5-4e01-b77a-1d5b4af913f8","ios":"levelo://app?vid=f7dae3c1-2ec5-4e01-b77a-1d5b4af913f8"},"vehicle_type_id":"4","last_reported":1756297222,"current_range_meters":14400,"station_id":"ce4bh412rcd13ifvqds0","pricing_plan_id":"cebpf4jnsgd1na2vs0mg"},{"bike_id":"78aba65f-407e-4e2a-b71b-ea3fad249298","system_id":"levelo_inurba_marseille","lat":43.31344,"lon":5.36725,"is_reserved":false,"is_disabled":false,"rental_uris":{"android":"levelo://app?vid=78aba65f-407e-4e2a-b71b-ea3fad249298","ios":"levelo://app?vid=78aba65f-407e-4e2a-b71b-ea3fad249298"},"vehicle_type_id":"4","last_reported":1756297222,"current_range_meters":14000,"station_id":"ce4bgr92rcd13ifvqc6g","pricing_plan_id":"cebpf4jnsgd1na2vs0mg"},{"bike_id":"9bc77615-816e-4ca2-9eff-c6628ddccd6e","system_id":"levelo_inurba_marseille","lat":43.29588,"lon":5.37515,"is_reserved":false,"is_disabled":false,"rental_uris":{"android":"levelo://app?vid=9bc77615-816e-4ca2-9eff-c6628ddccd6e","ios":"levelo://app?vid=9bc77615-816e-4ca2-9eff-c6628ddccd6e"},"vehicle_type_id":"4","last_reported":1756297222,"current_range_meters":14400,"station_id":"ce4bgh92rcd13ifvqb50","pricing_plan_id":"cebpf4jnsgd1na2vs0mg"},{"bike_id":"52cc0835-0024-4065-8b8a-9f4448a426dc","system_id":"levelo_inurba_marseille","lat":43.21762,"lon":5.34617,"is_reserved":false,"is_disabled":false,"rental_uris":{"android":"levelo://app?vid=52cc0835-0024-4065-8b8a-9f4448a426dc","ios":"levelo://app?vid=52cc0835-0024-4065-8b8a-9f4448a426dc"},"vehicle_type_id":"4","last_reported":1756297222,"current_range_meters":14400,"station_id":"st_cvj6r9ubvosntc0bgbag","pricing_plan_id":"cebpf4jnsgd1na2vs0mg"},{"bike_id":"685105d1-bcda-4899-9d64-d94adf158a64","system_id":"levelo_inurba_marseille","lat":43.314676,"lon":5.373608,"is_reserved":false,"is_disabled":true,"rental_uris":{"android":"levelo://app?vid=685105d1-bcda-4899-9d64-d94adf158a64","ios":"levelo://app?vid=685105d1-bcda-4899-9d64-d94adf158a64"},"vehicle_type_id":"4","last_reported":1756297222,"current_range_meters":14800,"station_id":"","pricing_plan_id":"cebpf4jnsgd1na2vs0mg"},{"bike_id":"b9479b07-cafd-402f-a522-f885c39f411a","system_id":"levelo_inurba_marseille","lat":43.3169,"lon":5.40472,"is_reserved":false,"is_disabled":false,"rental_uris":{"android":"levelo://app?vid=b9479b07-cafd-402f-a522-f885c39f411a","ios":"levelo://app?vid=b9479b07-cafd-402f-a522-f885c39f411a"},"vehicle_type_id":"4","last_reported":1756297222,"current_range_meters":14800,"station_id":"ce4bh012rcd13ifvqd00","pricing_plan_id":"cebpf4jnsgd1na2vs0mg"},{"bike_id":"0db867a2-533b-4418-bd54-1b824b21f7be","system_id":"levelo_inurba_marseille","lat":43.28272,"lon":5.35057,"is_reserved":false,"is_disabled":false,"rental_uris":{"android":"levelo://app?vid=0db867a2-533b-4418-bd54-1b824b21f7be","ios":"levelo://app?vid=0db867a2-533b-4418-bd54-1b824b21f7be"},"vehicle_type_id":"4","last_reported":1756297222,"current_range_meters":14800,"station_id":"ce4bhbp2rcd13ifvqerg","pricing_plan_id":"cebpf4jnsgd1na2vs0mg"},{"bike_id":"1dec5f96-d953-4203-b13d-0ce3f02e61a0","system_id":"levelo_inurba_marseille","lat":43.27091,"lon":5.42261,"is_reserved":false,"is_disabled":false,"rental_uris":{"android":"levelo://app?vid=1dec5f96-d953-4203-b13d-0ce3f02e61a0","ios":"levelo://app?vid=1dec5f96-d953-4203-b13d-0ce3f02e61a0"},"vehicle_type_id":"4","last_reported":1756297222,"current_range_meters":14800,"station_id":"ce4bhk92rcd13ifvqgb0","pricing_plan_id":"cebpf4jnsgd1na2vs0mg"},{"bike_id":"76124baf-763d-4734-8ca3-39b4ddb12afe","system_id":"levelo_inurba_marseille","lat":43.282684,"lon":5.35073,"is_reserved":false,"is_disabled":false,"rental_uris":{"android":"levelo://app?vid=76124baf-763d-4734-8ca3-39b4ddb12afe","ios":"levelo://app?vid=76124baf-763d-4734-8ca3-39b4ddb12afe"},"vehicle_type_id":"4","last_reported":1756297222,"current_range_meters":14800,"station_id":"ce4bhbp2rcd13ifvqerg","pricing_plan_id":"cebpf4jnsgd1na2vs0mg"},{"bike_id":"3ce18fbc-ec38-4f9e-9dd9-9a3dee5c503d","system_id":"levelo_inurba_marseille","lat":43.26033,"lon":5.37539,"is_reserved":false,"is_disabled":true,"rental_uris":{"android":"levelo://app?vid=3ce18fbc-ec38-4f9e-9dd9-9a3dee5c503d","ios":"levelo://app?vid=3ce18fbc-ec38-4f9e-9dd9-9a3dee5c503d"},"vehicle_type_id":"4","last_reported":1756297222,"current_range_meters":14800,"station_id":"ce4bhgh2rcd13ifvqfa0","pricing_plan_id":"cebpf4jnsgd1na2vs0mg"},{"bike_id":"3dff11d5-3872-4ffe-8cce-b5631d6c6058","system_id":"levelo_inurba_marseille","lat":43.32689,"lon":5.39169,"is_reserved":false,"is_disabled":false,"rental_uris":{"android":"levelo://app?vid=3dff11d5-3872-4ffe-8cce-b5631d6c6058","ios":"levelo://app?vid=3dff11d5-3872-4ffe-8cce-b5631d6c6058"},"vehicle_type_id":"4","last_reported":1756297222,"current_range_meters":14800,"station_id":"","pricing_plan_id":"cebpf4jnsgd1na2vs0mg"},{"bike_id":"10543048-bdf5-4588-8fe5-46d4b91a5912","system_id":"levelo_inurba_marseille","lat":43.272607,"lon":5.362564,"is_reserved":false,"is_disabled":false,"rental_uris":{"android":"levelo://app?vid=10543048-bdf5-4588-8fe5-46d4b91a5912","ios":"levelo://app?vid=10543048-bdf5-4588-8fe5-46d4b91a5912"},"vehicle_type_id":"4","last_reported":1756297222,"current_range_meters":15200,"station_id":"ce4bha92rcd13ifvqeg0","pricing_plan_id":"cebpf4jnsgd1na2vs0mg"},{"bike_id":"db526668-1205-422f-99f2-dc09210cda94","system_id":"levelo_inurba_marseille","lat":43.29283,"lon":5.36832,"is_reserved":false,"is_disabled":false,"rental_uris":{"android":"levelo://app?vid=db526668-1205-422f-99f2-dc09210cda94","ios":"levelo://app?vid=db526668-1205-422f-99f2-dc09210cda94"},"vehicle_type_id":"4","last_reported":1756297222,"current_range_meters":15200,"station_id":"ce4bhbp2rcd13ifvqesg","pricing_plan_id":"cebpf4jnsgd1na2vs0mg"},{"bike_id":"71136ea1-3aaf-4521-8084-554abe261412","system_id":"levelo_inurba_marseille","lat":43.303037,"lon":5.369059,"is_reserved":false,"is_disabled":true,"rental_uris":{"android":"levelo://app?vid=71136ea1-3aaf-4521-8084-554abe261412","ios":"levelo://app?vid=71136ea1-3aaf-4521-8084-554abe261412"},"vehicle_type_id":"4","last_reported":1756297222,"current_range_meters":15200,"station_id":"","pricing_plan_id":"cebpf4jnsgd1na2vs0mg"},{"bike_id":"81c34132-16a4-4c52-b1f1-84e975214106","system_id":"levelo_inurba_marseille","lat":43.27201,"lon":5.39166,"is_reserved":false,"is_disabled":false,"rental_uris":{"android":"levelo://app?vid=81c34132-16a4-4c52-b1f1-84e975214106","ios":"levelo://app?vid=81c34132-16a4-4c52-b1f1-84e975214106"},"vehicle_type_id":"4","last_reported":1756297222,"current_range_meters":15200,"station_id":"ce4bhhp2rcd13ifvqfm0","pricing_plan_id":"cebpf4jnsgd1na2vs0mg"},{"bike_id":"70725e45-1278-4337-bab4-392de6291b76","system_id":"levelo_inurba_marseille","lat":43.278107,"lon":5.40702,"is_reserved":false,"is_disabled":false,"rental_uris":{"android":"levelo://app?vid=70725e45-1278-4337-bab4-392de6291b76","ios":"levelo://app?vid=70725e45-1278-4337-bab4-392de6291b76"},"vehicle_type_id":"4","last_reported":1756297222,"current_range_meters":15200,"station_id":"ce4bhnh2rcd13ifvqgtg","pricing_plan_id":"cebpf4jnsgd1na2vs0mg"},{"bike_id":"07be8bf7-1329-432d-91e3-36974e6e6c1a","system_id":"levelo_inurba_marseille","lat":43.27563,"lon":5.38427,"is_reserved":false,"is_disabled":false,"rental_uris":{"android":"levelo://app?vid=07be8bf7-1329-432d-91e3-36974e6e6c1a","ios":"levelo://app?vid=07be8bf7-1329-432d-91e3-36974e6e6c1a"},"vehicle_type_id":"4","last_reported":1756297222,"current_range_meters":15200,"station_id":"ce4bhh92rcd13ifvqfi0","pricing_plan_id":"cebpf4jnsgd1na2vs0mg"},{"bike_id":"5c26a54e-1e97-4ad3-a16d-614ad930b130","system_id":"levelo_inurba_marseille","lat":43.32109,"lon":5.36774,"is_reserved":false,"is_disabled":false,"rental_uris":{"android":"levelo://app?vid=5c26a54e-1e97-4ad3-a16d-614ad930b130","ios":"levelo://app?vid=5c26a54e-1e97-4ad3-a16d-614ad930b130"},"vehicle_type_id":"4","last_reported":1756297222,"current_range_meters":16000,"station_id":"ce4bhrh2rcd13ifvqhug","pricing_plan_id":"cebpf4jnsgd1na2vs0mg"},{"bike_id":"289d577a-cef8-40ea-a18b-c2fef868e0ba","system_id":"levelo_inurba_marseille","lat":43.284104,"lon":5.349884,"is_reserved":false,"is_disabled":false,"rental_uris":{"android":"levelo://app?vid=289d577a-cef8-40ea-a18b-c2fef868e0ba","ios":"levelo://app?vid=289d577a-cef8-40ea-a18b-c2fef868e0ba"},"vehicle_type_id":"4","last_reported":1756297222,"current_range_meters":16000,"station_id":"ce4bhbh2rcd13ifvqepg","pricing_plan_id":"cebpf4jnsgd1na2vs0mg"},{"bike_id":"7883074d-75c4-41da-a497-c9417f9a38c0","system_id":"levelo_inurba_marseille","lat":43.30878,"lon":5.37214,"is_reserved":false,"is_disabled":false,"rental_uris":{"android":"levelo://app?vid=7883074d-75c4-41da-a497-c9417f9a38c0","ios":"levelo://app?vid=7883074d-75c4-41da-a497-c9417f9a38c0"},"vehicle_type_id":"4","last_reported":1756297222,"current_range_meters":16000,"station_id":"ce4bguh2rcd13ifvqckg","pricing_plan_id":"cebpf4jnsgd1na2vs0mg"},{"bike_id":"f67c8e5e-7af8-4847-a4ce-1e12088b4291","system_id":"levelo_inurba_marseille","lat":43.3304,"lon":5.39034,"is_reserved":false,"is_disabled":false,"rental_uris":{"android":"levelo://app?vid=f67c8e5e-7af8-4847-a4ce-1e12088b4291","ios":"levelo://app?vid=f67c8e5e-7af8-4847-a4ce-1e12088b4291"},"vehicle_type_id":"4","last_reported":1756297222,"current_range_meters":16000,"station_id":"ce4bhr92rcd13ifvqhrg","pricing_plan_id":"cebpf4jnsgd1na2vs0mg"},{"bike_id":"a60baf44-7bf3-42c3-8d98-2b0d48340d6b","system_id":"levelo_inurba_marseille","lat":43.292732,"lon":5.368464,"is_reserved":false,"is_disabled":false,"rental_uris":{"android":"levelo://app?vid=a60baf44-7bf3-42c3-8d98-2b0d48340d6b","ios":"levelo://app?vid=a60baf44-7bf3-42c3-8d98-2b0d48340d6b"},"vehicle_type_id":"4","last_reported":1756297222,"current_range_meters":16000,"station_id":"ce4bhbp2rcd13ifvqesg","pricing_plan_id":"cebpf4jnsgd1na2vs0mg"},{"bike_id":"d9847513-64de-4153-a980-8b523faf96f9","system_id":"levelo_inurba_marseille","lat":43.295762,"lon":5.375062,"is_reserved":false,"is_disabled":false,"rental_uris":{"android":"levelo://app?vid=d9847513-64de-4153-a980-8b523faf96f9","ios":"levelo://app?vid=d9847513-64de-4153-a980-8b523faf96f9"},"vehicle_type_id":"4","last_reported":1756297222,"current_range_meters":16000,"station_id":"ce4bgh92rcd13ifvqb50","pricing_plan_id":"cebpf4jnsgd1na2vs0mg"},{"bike_id":"dc472378-53dd-4bc0-bb4e-6a02556c63bb","system_id":"levelo_inurba_marseille","lat":43.337444,"lon":5.374475,"is_reserved":false,"is_disabled":false,"rental_uris":{"android":"levelo://app?vid=dc472378-53dd-4bc0-bb4e-6a02556c63bb","ios":"levelo://app?vid=dc472378-53dd-4bc0-bb4e-6a02556c63bb"},"vehicle_type_id":"4","last_reported":1756297222,"current_range_meters":16000,"station_id":"ce4bgvp2rcd13ifvqct0","pricing_plan_id":"cebpf4jnsgd1na2vs0mg"},{"bike_id":"ee83ab1c-1709-441a-9bbf-ac5f11ae5376","system_id":"levelo_inurba_marseille","lat":43.29258,"lon":5.40899,"is_reserved":false,"is_disabled":false,"rental_uris":{"android":"levelo://app?vid=ee83ab1c-1709-441a-9bbf-ac5f11ae5376","ios":"levelo://app?vid=ee83ab1c-1709-441a-9bbf-ac5f11ae5376"},"vehicle_type_id":"4","last_reported":1756297222,"current_range_meters":16000,"station_id":"ce4bh192rcd13ifvqdc0","pricing_plan_id":"cebpf4jnsgd1na2vs0mg"},{"bike_id":"182848e1-c128-499b-944e-cad0c910e9fb","system_id":"levelo_inurba_marseille","lat":43.211845,"lon":5.350769,"is_reserved":false,"is_disabled":false,"rental_uris":{"android":"levelo://app?vid=182848e1-c128-499b-944e-cad0c910e9fb","ios":"levelo://app?vid=182848e1-c128-499b-944e-cad0c910e9fb"},"vehicle_type_id":"4","last_reported":1756297222,"current_range_meters":16000,"station_id":"st_cvj6sg6p6f1abm77japg","pricing_plan_id":"cebpf4jnsgd1na2vs0mg"},{"bike_id":"a85c3779-d272-4d70-9ce3-47fe0284da62","system_id":"levelo_inurba_marseille","lat":43.27349,"lon":5.390402,"is_reserved":false,"is_disabled":false,"rental_uris":{"android":"levelo://app?vid=a85c3779-d272-4d70-9ce3-47fe0284da62","ios":"levelo://app?vid=a85c3779-d272-4d70-9ce3-47fe0284da62"},"vehicle_type_id":"4","last_reported":1756297222,"current_range_meters":16000,"station_id":"ce4bhgp2rcd13ifvqfe0","pricing_plan_id":"cebpf4jnsgd1na2vs0mg"},{"bike_id":"96207dea-7bbf-4883-ab9a-820d9c447ab3","system_id":"levelo_inurba_marseille","lat":43.28424,"lon":5.35001,"is_reserved":false,"is_disabled":false,"rental_uris":{"android":"levelo://app?vid=96207dea-7bbf-4883-ab9a-820d9c447ab3","ios":"levelo://app?vid=96207dea-7bbf-4883-ab9a-820d9c447ab3"},"vehicle_type_id":"4","last_reported":1756297222,"current_range_meters":16000,"station_id":"ce4bhbh2rcd13ifvqepg","pricing_plan_id":"cebpf4jnsgd1na2vs0mg"},{"bike_id":"2e55c538-508e-4fef-8f5f-62b4ad8b5b85","system_id":"levelo_inurba_marseille","lat":43.2174,"lon":5.34606,"is_reserved":false,"is_disabled":false,"rental_uris":{"android":"levelo://app?vid=2e55c538-508e-4fef-8f5f-62b4ad8b5b85","ios":"levelo://app?vid=2e55c538-508e-4fef-8f5f-62b4ad8b5b85"},"vehicle_type_id":"4","last_reported":1756297222,"current_range_meters":16000,"station_id":"st_cvj6r9ubvosntc0bgbag","pricing_plan_id":"cebpf4jnsgd1na2vs0mg"},{"bike_id":"cfdb3311-a033-4055-9a88-66242cd87287","system_id":"levelo_inurba_marseille","lat":43.31286,"lon":5.36845,"is_reserved":false,"is_disabled":false,"rental_uris":{"android":"levelo://app?vid=cfdb3311-a033-4055-9a88-66242cd87287","ios":"levelo://app?vid=cfdb3311-a033-4055-9a88-66242cd87287"},"vehicle_type_id":"4","last_reported":1756297222,"current_range_meters":16400,"station_id":"ce4bgl92rcd13ifvqbq0","pricing_plan_id":"cebpf4jnsgd1na2vs0mg"},{"bike_id":"26d9c001-bb05-4696-bcde-bd6ab1a53e54","system_id":"levelo_inurba_marseille","lat":43.29972,"lon":5.37177,"is_reserved":false,"is_disabled":false,"rental_uris":{"android":"levelo://app?vid=26d9c001-bb05-4696-bcde-bd6ab1a53e54","ios":"levelo://app?vid=26d9c001-bb05-4696-bcde-bd6ab1a53e54"},"vehicle_type_id":"4","last_reported":1756297222,"current_range_meters":16400,"station_id":"ce4bgr92rcd13ifvqc7g","pricing_plan_id":"cebpf4jnsgd1na2vs0mg"},{"bike_id":"cebdba77-5da5-4af2-b1ec-2233a611ba4c","system_id":"levelo_inurba_marseille","lat":43.26944,"lon":5.38664,"is_reserved":false,"is_disabled":false,"rental_uris":{"android":"levelo://app?vid=cebdba77-5da5-4af2-b1ec-2233a611ba4c","ios":"levelo://app?vid=cebdba77-5da5-4af2-b1ec-2233a611ba4c"},"vehicle_type_id":"4","last_reported":1756297222,"current_range_meters":16400,"station_id":"ce4bhh92rcd13ifvqfh0","pricing_plan_id":"cebpf4jnsgd1na2vs0mg"},{"bike_id":"6bfe00ab-e481-4a2d-a4d0-3ab6adf70994","system_id":"levelo_inurba_marseille","lat":43.323636,"lon":5.367432,"is_reserved":false,"is_disabled":true,"rental_uris":{"android":"levelo://app?vid=6bfe00ab-e481-4a2d-a4d0-3ab6adf70994","ios":"levelo://app?vid=6bfe00ab-e481-4a2d-a4d0-3ab6adf70994"},"vehicle_type_id":"4","last_reported":1756297222,"current_range_meters":16400,"station_id":"ce4bhsh2rcd13ifvqi2g","pricing_plan_id":"cebpf4jnsgd1na2vs0mg"},{"bike_id":"ffd21136-ae47-45ee-8fc5-e7f85ea84802","system_id":"levelo_inurba_marseille","lat":43.2978,"lon":5.38276,"is_reserved":false,"is_disabled":false,"rental_uris":{"android":"levelo://app?vid=ffd21136-ae47-45ee-8fc5-e7f85ea84802","ios":"levelo://app?vid=ffd21136-ae47-45ee-8fc5-e7f85ea84802"},"vehicle_type_id":"4","last_reported":1756297222,"current_range_meters":16400,"station_id":"","pricing_plan_id":"cebpf4jnsgd1na2vs0mg"},{"bike_id":"542aad23-fb27-4891-8d26-9594a4b274cd","system_id":"levelo_inurba_marseille","lat":43.29275,"lon":5.36843,"is_reserved":false,"is_disabled":false,"rental_uris":{"android":"levelo://app?vid=542aad23-fb27-4891-8d26-9594a4b274cd","ios":"levelo://app?vid=542aad23-fb27-4891-8d26-9594a4b274cd"},"vehicle_type_id":"4","last_reported":1756297222,"current_range_meters":16400,"station_id":"ce4bhbp2rcd13ifvqesg","pricing_plan_id":"cebpf4jnsgd1na2vs0mg"},{"bike_id":"ff6e6aae-8545-4ead-86dc-2d000680e88c","system_id":"levelo_inurba_marseille","lat":43.33642,"lon":5.37321,"is_reserved":false,"is_disabled":false,"rental_uris":{"android":"levelo://app?vid=ff6e6aae-8545-4ead-86dc-2d000680e88c","ios":"levelo://app?vid=ff6e6aae-8545-4ead-86dc-2d000680e88c"},"vehicle_type_id":"4","last_reported":1756297222,"current_range_meters":16400,"station_id":"","pricing_plan_id":"cebpf4jnsgd1na2vs0mg"},{"bike_id":"33db383b-5b27-4ee3-b77f-51489812521c","system_id":"levelo_inurba_marseille","lat":43.30547,"lon":5.36702,"is_reserved":false,"is_disabled":false,"rental_uris":{"android":"levelo://app?vid=33db383b-5b27-4ee3-b77f-51489812521c","ios":"levelo://app?vid=33db383b-5b27-4ee3-b77f-51489812521c"},"vehicle_type_id":"4","last_reported":1756297222,"current_range_meters":16400,"station_id":"ce4bgrp2rcd13ifvqc9g","pricing_plan_id":"cebpf4jnsgd1na2vs0mg"},{"bike_id":"814645c9-7af5-4408-879c-1836489b0342","system_id":"levelo_inurba_marseille","lat":43.26564,"lon":5.37294,"is_reserved":false,"is_disabled":false,"rental_uris":{"android":"levelo://app?vid=814645c9-7af5-4408-879c-1836489b0342","ios":"levelo://app?vid=814645c9-7af5-4408-879c-1836489b0342"},"vehicle_type_id":"4","last_reported":1756297222,"current_range_meters":16400,"station_id":"ce4bhg12rcd13ifvqf70","pricing_plan_id":"cebpf4jnsgd1na2vs0mg"},{"bike_id":"c561b3be-23f4-46ed-8d38-1fc2450f503d","system_id":"levelo_inurba_marseille","lat":43.23653,"lon":5.36256,"is_reserved":false,"is_disabled":false,"rental_uris":{"android":"levelo://app?vid=c561b3be-23f4-46ed-8d38-1fc2450f503d","ios":"levelo://app?vid=c561b3be-23f4-46ed-8d38-1fc2450f503d"},"vehicle_type_id":"4","last_reported":1756297222,"current_range_meters":16400,"station_id":"","pricing_plan_id":"cebpf4jnsgd1na2vs0mg"},{"bike_id":"ec6bdc9b-b19c-4c3f-88b5-b682f8610996","system_id":"levelo_inurba_marseille","lat":43.31232,"lon":5.36885,"is_reserved":false,"is_disabled":false,"rental_uris":{"android":"levelo://app?vid=ec6bdc9b-b19c-4c3f-88b5-b682f8610996","ios":"levelo://app?vid=ec6bdc9b-b19c-4c3f-88b5-b682f8610996"},"vehicle_type_id":"4","last_reported":1756297222,"current_range_meters":16400,"station_id":"ce4bgl92rcd13ifvqbq0","pricing_plan_id":"cebpf4jnsgd1na2vs0mg"},{"bike_id":"dd7083cc-5aa5-45e8-aa01-f809713272d1","system_id":"levelo_inurba_marseille","lat":43.21186,"lon":5.35077,"is_reserved":false,"is_disabled":false,"rental_uris":{"android":"levelo://app?vid=dd7083cc-5aa5-45e8-aa01-f809713272d1","ios":"levelo://app?vid=dd7083cc-5aa5-45e8-aa01-f809713272d1"},"vehicle_type_id":"4","last_reported":1756297222,"current_range_meters":16400,"station_id":"st_cvj6sg6p6f1abm77japg","pricing_plan_id":"cebpf4jnsgd1na2vs0mg"},{"bike_id":"5ccf7b1d-6ecc-44d6-b649-a78373ac5a2b","system_id":"levelo_inurba_marseille","lat":43.28621,"lon":5.35099,"is_reserved":false,"is_disabled":false,"rental_uris":{"android":"levelo://app?vid=5ccf7b1d-6ecc-44d6-b649-a78373ac5a2b","ios":"levelo://app?vid=5ccf7b1d-6ecc-44d6-b649-a78373ac5a2b"},"vehicle_type_id":"4","last_reported":1756297222,"current_range_meters":16800,"station_id":"ce4bhch2rcd13ifvqeug","pricing_plan_id":"cebpf4jnsgd1na2vs0mg"},{"bike_id":"d810acf0-5bd2-4bf1-848d-31cd30d105e6","system_id":"levelo_inurba_marseille","lat":43.269831,"lon":5.392782,"is_reserved":false,"is_disabled":false,"rental_uris":{"android":"levelo://app?vid=d810acf0-5bd2-4bf1-848d-31cd30d105e6","ios":"levelo://app?vid=d810acf0-5bd2-4bf1-848d-31cd30d105e6"},"vehicle_type_id":"4","last_reported":1756297222,"current_range_meters":16800,"station_id":"","pricing_plan_id":"cebpf4jnsgd1na2vs0mg"},{"bike_id":"5dd83fad-2449-4d56-be74-c8599abb9a5e","system_id":"levelo_inurba_marseille","lat":43.26218,"lon":5.37459,"is_reserved":false,"is_disabled":false,"rental_uris":{"android":"levelo://app?vid=5dd83fad-2449-4d56-be74-c8599abb9a5e","ios":"levelo://app?vid=5dd83fad-2449-4d56-be74-c8599abb9a5e"},"vehicle_type_id":"4","last_reported":1756297222,"current_range_meters":16800,"station_id":"ce4bhgp2rcd13ifvqfc0","pricing_plan_id":"cebpf4jnsgd1na2vs0mg"},{"bike_id":"4e9e705b-7667-42c6-adf5-4a09a858987f","system_id":"levelo_inurba_marseille","lat":43.21189,"lon":5.35075,"is_reserved":false,"is_disabled":false,"rental_uris":{"android":"levelo://app?vid=4e9e705b-7667-42c6-adf5-4a09a858987f","ios":"levelo://app?vid=4e9e705b-7667-42c6-adf5-4a09a858987f"},"vehicle_type_id":"4","last_reported":1756297222,"current_range_meters":16800,"station_id":"st_cvj6sg6p6f1abm77japg","pricing_plan_id":"cebpf4jnsgd1na2vs0mg"},{"bike_id":"94c44f36-d45b-48d8-9eb0-02cde482dcfd","system_id":"levelo_inurba_marseille","lat":43.26025,"lon":5.37543,"is_reserved":false,"is_disabled":false,"rental_uris":{"android":"levelo://app?vid=94c44f36-d45b-48d8-9eb0-02cde482dcfd","ios":"levelo://app?vid=94c44f36-d45b-48d8-9eb0-02cde482dcfd"},"vehicle_type_id":"4","last_reported":1756297222,"current_range_meters":16800,"station_id":"ce4bhgh2rcd13ifvqfa0","pricing_plan_id":"cebpf4jnsgd1na2vs0mg"},{"bike_id":"05d45e4c-1418-472b-b74a-2e06536c3dfa","system_id":"levelo_inurba_marseille","lat":43.28613,"lon":5.35104,"is_reserved":false,"is_disabled":false,"rental_uris":{"android":"levelo://app?vid=05d45e4c-1418-472b-b74a-2e06536c3dfa","ios":"levelo://app?vid=05d45e4c-1418-472b-b74a-2e06536c3dfa"},"vehicle_type_id":"4","last_reported":1756297222,"current_range_meters":17200,"station_id":"ce4bhch2rcd13ifvqeug","pricing_plan_id":"cebpf4jnsgd1na2vs0mg"},{"bike_id":"e96b2c46-eef7-49e8-bf21-86cf81f31bac","system_id":"levelo_inurba_marseille","lat":43.2954,"lon":5.37506,"is_reserved":false,"is_disabled":false,"rental_uris":{"android":"levelo://app?vid=e96b2c46-eef7-49e8-bf21-86cf81f31bac","ios":"levelo://app?vid=e96b2c46-eef7-49e8-bf21-86cf81f31bac"},"vehicle_type_id":"4","last_reported":1756297222,"current_range_meters":17200,"station_id":"ce4bgkp2rcd13ifvqbmg","pricing_plan_id":"cebpf4jnsgd1na2vs0mg"},{"bike_id":"acf4445e-6a30-4618-814b-dc0e07b27631","system_id":"levelo_inurba_marseille","lat":43.286605,"lon":5.363422,"is_reserved":false,"is_disabled":true,"rental_uris":{"android":"levelo://app?vid=acf4445e-6a30-4618-814b-dc0e07b27631","ios":"levelo://app?vid=acf4445e-6a30-4618-814b-dc0e07b27631"},"vehicle_type_id":"4","last_reported":1756297222,"current_range_meters":17200,"station_id":"ce4bhah2rcd13ifvqej0","pricing_plan_id":"cebpf4jnsgd1na2vs0mg"},{"bike_id":"cf5344c4-601b-43d9-9e7a-d2847d0c7b32","system_id":"levelo_inurba_marseille","lat":43.2929,"lon":5.3745,"is_reserved":false,"is_disabled":false,"rental_uris":{"android":"levelo://app?vid=cf5344c4-601b-43d9-9e7a-d2847d0c7b32","ios":"levelo://app?vid=cf5344c4-601b-43d9-9e7a-d2847d0c7b32"},"vehicle_type_id":"4","last_reported":1756297222,"current_range_meters":17200,"station_id":"ce4bgi12rcd13ifvqb70","pricing_plan_id":"cebpf4jnsgd1na2vs0mg"},{"bike_id":"98c2f530-682d-4c6c-92e1-e7ae1af563d2","system_id":"levelo_inurba_marseille","lat":43.24544,"lon":5.39523,"is_reserved":false,"is_disabled":false,"rental_uris":{"android":"levelo://app?vid=98c2f530-682d-4c6c-92e1-e7ae1af563d2","ios":"levelo://app?vid=98c2f530-682d-4c6c-92e1-e7ae1af563d2"},"vehicle_type_id":"4","last_reported":1756297222,"current_range_meters":17200,"station_id":"ce4bhlp2rcd13ifvqgjg","pricing_plan_id":"cebpf4jnsgd1na2vs0mg"},{"bike_id":"571677a6-2a3b-4242-81b2-6d5f9524ff46","system_id":"levelo_inurba_marseille","lat":43.2931,"lon":5.37156,"is_reserved":false,"is_disabled":false,"rental_uris":{"android":"levelo://app?vid=571677a6-2a3b-4242-81b2-6d5f9524ff46","ios":"levelo://app?vid=571677a6-2a3b-4242-81b2-6d5f9524ff46"},"vehicle_type_id":"4","last_reported":1756297222,"current_range_meters":17200,"station_id":"ce4bgh92rcd13ifvqb40","pricing_plan_id":"cebpf4jnsgd1na2vs0mg"},{"bike_id":"e6c593a6-25b4-4483-b874-06f613c8942f","system_id":"levelo_inurba_marseille","lat":43.21745,"lon":5.34604,"is_reserved":false,"is_disabled":false,"rental_uris":{"android":"levelo://app?vid=e6c593a6-25b4-4483-b874-06f613c8942f","ios":"levelo://app?vid=e6c593a6-25b4-4483-b874-06f613c8942f"},"vehicle_type_id":"4","last_reported":1756297222,"current_range_meters":17200,"station_id":"st_cvj6r9ubvosntc0bgbag","pricing_plan_id":"cebpf4jnsgd1na2vs0mg"},{"bike_id":"7558b440-1ee7-4da9-91a4-b58bd6acd925","system_id":"levelo_inurba_marseille","lat":43.24547,"lon":5.39494,"is_reserved":false,"is_disabled":false,"rental_uris":{"android":"levelo://app?vid=7558b440-1ee7-4da9-91a4-b58bd6acd925","ios":"levelo://app?vid=7558b440-1ee7-4da9-91a4-b58bd6acd925"},"vehicle_type_id":"4","last_reported":1756297222,"current_range_meters":17200,"station_id":"ce4bhlp2rcd13ifvqgjg","pricing_plan_id":"cebpf4jnsgd1na2vs0mg"},{"bike_id":"ed55b21d-ee22-4061-9280-d3b0be7e624c","system_id":"levelo_inurba_marseille","lat":43.293681,"lon":5.378527,"is_reserved":false,"is_disabled":false,"rental_uris":{"android":"levelo://app?vid=ed55b21d-ee22-4061-9280-d3b0be7e624c","ios":"levelo://app?vid=ed55b21d-ee22-4061-9280-d3b0be7e624c"},"vehicle_type_id":"4","last_reported":1756297222,"current_range_meters":17200,"station_id":"ce4bgjh2rcd13ifvqbf0","pricing_plan_id":"cebpf4jnsgd1na2vs0mg"},{"bike_id":"56617e93-dfaa-4db2-9c67-a6ef24f9648e","system_id":"levelo_inurba_marseille","lat":43.23191,"lon":5.35562,"is_reserved":false,"is_disabled":false,"rental_uris":{"android":"levelo://app?vid=56617e93-dfaa-4db2-9c67-a6ef24f9648e","ios":"levelo://app?vid=56617e93-dfaa-4db2-9c67-a6ef24f9648e"},"vehicle_type_id":"4","last_reported":1756297222,"current_range_meters":17200,"station_id":"ce4bhu92rcd13ifvqi70","pricing_plan_id":"cebpf4jnsgd1na2vs0mg"},{"bike_id":"0a1eaad6-8488-418e-985e-a9128746f21c","system_id":"levelo_inurba_marseille","lat":43.21748,"lon":5.34611,"is_reserved":false,"is_disabled":false,"rental_uris":{"android":"levelo://app?vid=0a1eaad6-8488-418e-985e-a9128746f21c","ios":"levelo://app?vid=0a1eaad6-8488-418e-985e-a9128746f21c"},"vehicle_type_id":"4","last_reported":1756297222,"current_range_meters":17200,"station_id":"st_cvj6r9ubvosntc0bgbag","pricing_plan_id":"cebpf4jnsgd1na2vs0mg"},{"bike_id":"98bd734b-1a92-4a06-bd14-78315dd4e572","system_id":"levelo_inurba_marseille","lat":43.26699,"lon":5.38282,"is_reserved":false,"is_disabled":false,"rental_uris":{"android":"levelo://app?vid=98bd734b-1a92-4a06-bd14-78315dd4e572","ios":"levelo://app?vid=98bd734b-1a92-4a06-bd14-78315dd4e572"},"vehicle_type_id":"4","last_reported":1756297222,"current_range_meters":17200,"station_id":"ce4bhg92rcd13ifvqf90","pricing_plan_id":"cebpf4jnsgd1na2vs0mg"},{"bike_id":"bc4c6e1c-d694-4a7d-b3af-90d3bb1a77a1","system_id":"levelo_inurba_marseille","lat":43.21187,"lon":5.35065,"is_reserved":false,"is_disabled":false,"rental_uris":{"android":"levelo://app?vid=bc4c6e1c-d694-4a7d-b3af-90d3bb1a77a1","ios":"levelo://app?vid=bc4c6e1c-d694-4a7d-b3af-90d3bb1a77a1"},"vehicle_type_id":"4","last_reported":1756297222,"current_range_meters":17600,"station_id":"st_cvj6sg6p6f1abm77japg","pricing_plan_id":"cebpf4jnsgd1na2vs0mg"},{"bike_id":"ffe6df59-3fc1-4d81-9326-f6f6418e7718","system_id":"levelo_inurba_marseille","lat":43.297303,"lon":5.37326,"is_reserved":false,"is_disabled":false,"rental_uris":{"android":"levelo://app?vid=ffe6df59-3fc1-4d81-9326-f6f6418e7718","ios":"levelo://app?vid=ffe6df59-3fc1-4d81-9326-f6f6418e7718"},"vehicle_type_id":"4","last_reported":1756297222,"current_range_meters":17600,"station_id":"","pricing_plan_id":"cebpf4jnsgd1na2vs0mg"},{"bike_id":"e957379d-9cff-405b-b721-49dc60cfdd77","system_id":"levelo_inurba_marseille","lat":43.30931,"lon":5.40148,"is_reserved":false,"is_disabled":false,"rental_uris":{"android":"levelo://app?vid=e957379d-9cff-405b-b721-49dc60cfdd77","ios":"levelo://app?vid=e957379d-9cff-405b-b721-49dc60cfdd77"},"vehicle_type_id":"4","last_reported":1756297222,"current_range_meters":17600,"station_id":"ce4bgvp2rcd13ifvqct0","pricing_plan_id":"cebpf4jnsgd1na2vs0mg"},{"bike_id":"75846cdb-5ccb-4eb7-b4f2-e1a19945f801","system_id":"levelo_inurba_marseille","lat":43.31071,"lon":5.38347,"is_reserved":false,"is_disabled":true,"rental_uris":{"android":"levelo://app?vid=75846cdb-5ccb-4eb7-b4f2-e1a19945f801","ios":"levelo://app?vid=75846cdb-5ccb-4eb7-b4f2-e1a19945f801"},"vehicle_type_id":"4","last_reported":1756297222,"current_range_meters":17600,"station_id":"ce4bgv92rcd13ifvqcr0","pricing_plan_id":"cebpf4jnsgd1na2vs0mg"},{"bike_id":"91286b1d-9edf-4c7c-ba8e-f9672fb55d6c","system_id":"levelo_inurba_marseille","lat":43.29007,"lon":5.35609,"is_reserved":false,"is_disabled":false,"rental_uris":{"android":"levelo://app?vid=91286b1d-9edf-4c7c-ba8e-f9672fb55d6c","ios":"levelo://app?vid=91286b1d-9edf-4c7c-ba8e-f9672fb55d6c"},"vehicle_type_id":"4","last_reported":1756297222,"current_range_meters":17600,"station_id":"ce4bhb92rcd13ifvqen0","pricing_plan_id":"cebpf4jnsgd1na2vs0mg"},{"bike_id":"714d5c3f-5ed0-416d-abfd-48ed1fa771ef","system_id":"levelo_inurba_marseille","lat":43.21187,"lon":5.35068,"is_reserved":false,"is_disabled":false,"rental_uris":{"android":"levelo://app?vid=714d5c3f-5ed0-416d-abfd-48ed1fa771ef","ios":"levelo://app?vid=714d5c3f-5ed0-416d-abfd-48ed1fa771ef"},"vehicle_type_id":"4","last_reported":1756297222,"current_range_meters":17600,"station_id":"st_cvj6sg6p6f1abm77japg","pricing_plan_id":"cebpf4jnsgd1na2vs0mg"},{"bike_id":"22d7f2b9-ed22-4ba5-89b8-3bf572f4c8b5","system_id":"levelo_inurba_marseille","lat":43.29265,"lon":5.36845,"is_reserved":false,"is_disabled":false,"rental_uris":{"android":"levelo://app?vid=22d7f2b9-ed22-4ba5-89b8-3bf572f4c8b5","ios":"levelo://app?vid=22d7f2b9-ed22-4ba5-89b8-3bf572f4c8b5"},"vehicle_type_id":"4","last_reported":1756297222,"current_range_meters":17600,"station_id":"ce4bhbp2rcd13ifvqesg","pricing_plan_id":"cebpf4jnsgd1na2vs0mg"},{"bike_id":"394fd99f-4cfd-47b1-b29f-c8025ff12410","system_id":"levelo_inurba_marseille","lat":43.27993,"lon":5.40024,"is_reserved":false,"is_disabled":false,"rental_uris":{"android":"levelo://app?vid=394fd99f-4cfd-47b1-b29f-c8025ff12410","ios":"levelo://app?vid=394fd99f-4cfd-47b1-b29f-c8025ff12410"},"vehicle_type_id":"4","last_reported":1756297222,"current_range_meters":17600,"station_id":"ce4bho92rcd13ifvqh4g","pricing_plan_id":"cebpf4jnsgd1na2vs0mg"},{"bike_id":"c6a5edcb-70de-442c-867d-206ab7fa279a","system_id":"levelo_inurba_marseille","lat":43.27207,"lon":5.39174,"is_reserved":false,"is_disabled":false,"rental_uris":{"android":"levelo://app?vid=c6a5edcb-70de-442c-867d-206ab7fa279a","ios":"levelo://app?vid=c6a5edcb-70de-442c-867d-206ab7fa279a"},"vehicle_type_id":"4","last_reported":1756297222,"current_range_meters":17600,"station_id":"ce4bhhp2rcd13ifvqfm0","pricing_plan_id":"cebpf4jnsgd1na2vs0mg"},{"bike_id":"c1968fbf-12d4-4df0-9440-f7a56cc2364e","system_id":"levelo_inurba_marseille","lat":43.28619,"lon":5.35107,"is_reserved":false,"is_disabled":false,"rental_uris":{"android":"levelo://app?vid=c1968fbf-12d4-4df0-9440-f7a56cc2364e","ios":"levelo://app?vid=c1968fbf-12d4-4df0-9440-f7a56cc2364e"},"vehicle_type_id":"4","last_reported":1756297222,"current_range_meters":17600,"station_id":"ce4bhch2rcd13ifvqeug","pricing_plan_id":"cebpf4jnsgd1na2vs0mg"},{"bike_id":"651c04c7-c2f3-4258-98c4-2abdeb471500","system_id":"levelo_inurba_marseille","lat":43.26552,"lon":5.37302,"is_reserved":false,"is_disabled":false,"rental_uris":{"android":"levelo://app?vid=651c04c7-c2f3-4258-98c4-2abdeb471500","ios":"levelo://app?vid=651c04c7-c2f3-4258-98c4-2abdeb471500"},"vehicle_type_id":"4","last_reported":1756297222,"current_range_meters":17600,"station_id":"ce4bhg12rcd13ifvqf70","pricing_plan_id":"cebpf4jnsgd1na2vs0mg"},{"bike_id":"8df4d72a-2534-4225-b0d0-5b48bd4c7385","system_id":"levelo_inurba_marseille","lat":43.294381,"lon":5.397636,"is_reserved":false,"is_disabled":false,"rental_uris":{"android":"levelo://app?vid=8df4d72a-2534-4225-b0d0-5b48bd4c7385","ios":"levelo://app?vid=8df4d72a-2534-4225-b0d0-5b48bd4c7385"},"vehicle_type_id":"4","last_reported":1756297222,"current_range_meters":18000,"station_id":"ce4bh3h2rcd13ifvqdo0","pricing_plan_id":"cebpf4jnsgd1na2vs0mg"},{"bike_id":"d3c89655-7205-4bf6-acdb-1dfe2a06a19b","system_id":"levelo_inurba_marseille","lat":43.27372,"lon":5.3626,"is_reserved":false,"is_disabled":false,"rental_uris":{"android":"levelo://app?vid=d3c89655-7205-4bf6-acdb-1dfe2a06a19b","ios":"levelo://app?vid=d3c89655-7205-4bf6-acdb-1dfe2a06a19b"},"vehicle_type_id":"4","last_reported":1756297222,"current_range_meters":18000,"station_id":"ce4bhbh2rcd13ifvqeo0","pricing_plan_id":"cebpf4jnsgd1na2vs0mg"},{"bike_id":"19bf8938-c3ac-477a-9c27-edd856e98aab","system_id":"levelo_inurba_marseille","lat":43.281203,"lon":5.378439,"is_reserved":false,"is_disabled":false,"rental_uris":{"android":"levelo://app?vid=19bf8938-c3ac-477a-9c27-edd856e98aab","ios":"levelo://app?vid=19bf8938-c3ac-477a-9c27-edd856e98aab"},"vehicle_type_id":"4","last_reported":1756297222,"current_range_meters":18000,"station_id":"ce4bha12rcd13ifvqee0","pricing_plan_id":"cebpf4jnsgd1na2vs0mg"},{"bike_id":"741e393b-196c-49cd-be7b-ad578581e107","system_id":"levelo_inurba_marseille","lat":43.27989,"lon":5.4167,"is_reserved":false,"is_disabled":false,"rental_uris":{"android":"levelo://app?vid=741e393b-196c-49cd-be7b-ad578581e107","ios":"levelo://app?vid=741e393b-196c-49cd-be7b-ad578581e107"},"vehicle_type_id":"4","last_reported":1756297222,"current_range_meters":18000,"station_id":"ce4bho12rcd13ifvqh1g","pricing_plan_id":"cebpf4jnsgd1na2vs0mg"},{"bike_id":"23ae6fed-deff-411b-8b6e-f95e32ccd4d0","system_id":"levelo_inurba_marseille","lat":43.32118,"lon":5.3675,"is_reserved":false,"is_disabled":false,"rental_uris":{"android":"levelo://app?vid=23ae6fed-deff-411b-8b6e-f95e32ccd4d0","ios":"levelo://app?vid=23ae6fed-deff-411b-8b6e-f95e32ccd4d0"},"vehicle_type_id":"4","last_reported":1756297222,"current_range_meters":18000,"station_id":"ce4bhrh2rcd13ifvqhug","pricing_plan_id":"cebpf4jnsgd1na2vs0mg"},{"bike_id":"95973e18-1339-4596-a205-8df1bd7fef1f","system_id":"levelo_inurba_marseille","lat":43.23186,"lon":5.35548,"is_reserved":false,"is_disabled":false,"rental_uris":{"android":"levelo://app?vid=95973e18-1339-4596-a205-8df1bd7fef1f","ios":"levelo://app?vid=95973e18-1339-4596-a205-8df1bd7fef1f"},"vehicle_type_id":"4","last_reported":1756297222,"current_range_meters":18000,"station_id":"ce4bhu92rcd13ifvqi70","pricing_plan_id":"cebpf4jnsgd1na2vs0mg"},{"bike_id":"05d97e45-19dc-4128-88fe-ffa6fa61464f","system_id":"levelo_inurba_marseille","lat":43.26216,"lon":5.37474,"is_reserved":false,"is_disabled":false,"rental_uris":{"android":"levelo://app?vid=05d97e45-19dc-4128-88fe-ffa6fa61464f","ios":"levelo://app?vid=05d97e45-19dc-4128-88fe-ffa6fa61464f"},"vehicle_type_id":"4","last_reported":1756297222,"current_range_meters":18000,"station_id":"ce4bhgp2rcd13ifvqfc0","pricing_plan_id":"cebpf4jnsgd1na2vs0mg"},{"bike_id":"1afc9436-7d01-4b74-85fe-08c8b8ca3dc2","system_id":"levelo_inurba_marseille","lat":43.305444,"lon":5.365476,"is_reserved":false,"is_disabled":false,"rental_uris":{"android":"levelo://app?vid=1afc9436-7d01-4b74-85fe-08c8b8ca3dc2","ios":"levelo://app?vid=1afc9436-7d01-4b74-85fe-08c8b8ca3dc2"},"vehicle_type_id":"4","last_reported":1756297222,"current_range_meters":18000,"station_id":"ce4bgs12rcd13ifvqcag","pricing_plan_id":"cebpf4jnsgd1na2vs0mg"},{"bike_id":"8fa35c78-1066-4dea-8cef-738901ea4b28","system_id":"levelo_inurba_marseille","lat":43.30598,"lon":5.39359,"is_reserved":false,"is_disabled":false,"rental_uris":{"android":"levelo://app?vid=8fa35c78-1066-4dea-8cef-738901ea4b28","ios":"levelo://app?vid=8fa35c78-1066-4dea-8cef-738901ea4b28"},"vehicle_type_id":"4","last_reported":1756297222,"current_range_meters":18000,"station_id":"ce4bh0p2rcd13ifvqd80","pricing_plan_id":"cebpf4jnsgd1na2vs0mg"},{"bike_id":"a5111d90-7a2c-4331-ac7f-caad20168099","system_id":"levelo_inurba_marseille","lat":43.26193,"lon":5.37444,"is_reserved":false,"is_disabled":false,"rental_uris":{"android":"levelo://app?vid=a5111d90-7a2c-4331-ac7f-caad20168099","ios":"levelo://app?vid=a5111d90-7a2c-4331-ac7f-caad20168099"},"vehicle_type_id":"4","last_reported":1756297222,"current_range_meters":18000,"station_id":"ce4bhgp2rcd13ifvqfc0","pricing_plan_id":"cebpf4jnsgd1na2vs0mg"},{"bike_id":"d6bb9c59-52f0-4934-9bc4-64c9037dda28","system_id":"levelo_inurba_marseille","lat":43.23061,"lon":5.35486,"is_reserved":false,"is_disabled":false,"rental_uris":{"android":"levelo://app?vid=d6bb9c59-52f0-4934-9bc4-64c9037dda28","ios":"levelo://app?vid=d6bb9c59-52f0-4934-9bc4-64c9037dda28"},"vehicle_type_id":"4","last_reported":1756297222,"current_range_meters":18000,"station_id":"cpo3342slgdg3j2ifvpg","pricing_plan_id":"cebpf4jnsgd1na2vs0mg"},{"bike_id":"03bc7d2b-5ada-42ae-916b-8ee0dbb7a0ca","system_id":"levelo_inurba_marseille","lat":43.23207,"lon":5.35544,"is_reserved":false,"is_disabled":false,"rental_uris":{"android":"levelo://app?vid=03bc7d2b-5ada-42ae-916b-8ee0dbb7a0ca","ios":"levelo://app?vid=03bc7d2b-5ada-42ae-916b-8ee0dbb7a0ca"},"vehicle_type_id":"4","last_reported":1756297222,"current_range_meters":18000,"station_id":"ce4bhu92rcd13ifvqi70","pricing_plan_id":"cebpf4jnsgd1na2vs0mg"},{"bike_id":"1091f287-02ee-4a66-888b-59c35fd65791","system_id":"levelo_inurba_marseille","lat":43.231857,"lon":5.355539,"is_reserved":false,"is_disabled":false,"rental_uris":{"android":"levelo://app?vid=1091f287-02ee-4a66-888b-59c35fd65791","ios":"levelo://app?vid=1091f287-02ee-4a66-888b-59c35fd65791"},"vehicle_type_id":"4","last_reported":1756297222,"current_range_meters":18800,"station_id":"ce4bhu92rcd13ifvqi70","pricing_plan_id":"cebpf4jnsgd1na2vs0mg"},{"bike_id":"273eac3d-362a-419b-83a2-2423e6e318c7","system_id":"levelo_inurba_marseille","lat":43.27171,"lon":5.39152,"is_reserved":false,"is_disabled":false,"rental_uris":{"android":"levelo://app?vid=273eac3d-362a-419b-83a2-2423e6e318c7","ios":"levelo://app?vid=273eac3d-362a-419b-83a2-2423e6e318c7"},"vehicle_type_id":"4","last_reported":1756297222,"current_range_meters":18800,"station_id":"","pricing_plan_id":"cebpf4jnsgd1na2vs0mg"},{"bike_id":"ec0f9f0d-0796-42ac-9cf5-bb8596cdf342","system_id":"levelo_inurba_marseille","lat":43.21188,"lon":5.35075,"is_reserved":false,"is_disabled":false,"rental_uris":{"android":"levelo://app?vid=ec0f9f0d-0796-42ac-9cf5-bb8596cdf342","ios":"levelo://app?vid=ec0f9f0d-0796-42ac-9cf5-bb8596cdf342"},"vehicle_type_id":"4","last_reported":1756297222,"current_range_meters":18800,"station_id":"","pricing_plan_id":"cebpf4jnsgd1na2vs0mg"},{"bike_id":"caecf24f-b46f-44ba-963c-825ee40525bf","system_id":"levelo_inurba_marseille","lat":43.25941,"lon":5.40906,"is_reserved":false,"is_disabled":false,"rental_uris":{"android":"levelo://app?vid=caecf24f-b46f-44ba-963c-825ee40525bf","ios":"levelo://app?vid=caecf24f-b46f-44ba-963c-825ee40525bf"},"vehicle_type_id":"4","last_reported":1756297222,"current_range_meters":18800,"station_id":"ce4bhm92rcd13ifvqglg","pricing_plan_id":"cebpf4jnsgd1na2vs0mg"},{"bike_id":"cd5c3833-7bf3-4a66-bf65-1a1ed75d3902","system_id":"levelo_inurba_marseille","lat":43.28486,"lon":5.3841,"is_reserved":false,"is_disabled":true,"rental_uris":{"android":"levelo://app?vid=cd5c3833-7bf3-4a66-bf65-1a1ed75d3902","ios":"levelo://app?vid=cd5c3833-7bf3-4a66-bf65-1a1ed75d3902"},"vehicle_type_id":"4","last_reported":1756297222,"current_range_meters":18800,"station_id":"ce4bh512rcd13ifvqe3g","pricing_plan_id":"cebpf4jnsgd1na2vs0mg"},{"bike_id":"fcc53bd7-5f7f-4e16-b9a2-51202f469d5f","system_id":"levelo_inurba_marseille","lat":43.27946,"lon":5.41048,"is_reserved":false,"is_disabled":false,"rental_uris":{"android":"levelo://app?vid=fcc53bd7-5f7f-4e16-b9a2-51202f469d5f","ios":"levelo://app?vid=fcc53bd7-5f7f-4e16-b9a2-51202f469d5f"},"vehicle_type_id":"4","last_reported":1756297222,"current_range_meters":18800,"station_id":"ce4bhnp2rcd13ifvqh0g","pricing_plan_id":"cebpf4jnsgd1na2vs0mg"},{"bike_id":"a63dcc25-a167-41c0-9cfd-1a6d76e70ab7","system_id":"levelo_inurba_marseille","lat":43.2175,"lon":5.34607,"is_reserved":false,"is_disabled":false,"rental_uris":{"android":"levelo://app?vid=a63dcc25-a167-41c0-9cfd-1a6d76e70ab7","ios":"levelo://app?vid=a63dcc25-a167-41c0-9cfd-1a6d76e70ab7"},"vehicle_type_id":"4","last_reported":1756297222,"current_range_meters":18800,"station_id":"st_cvj6r9ubvosntc0bgbag","pricing_plan_id":"cebpf4jnsgd1na2vs0mg"},{"bike_id":"c7947910-f6df-4351-95cb-ad7cab6a3f07","system_id":"levelo_inurba_marseille","lat":43.30791,"lon":5.37656,"is_reserved":false,"is_disabled":true,"rental_uris":{"android":"levelo://app?vid=c7947910-f6df-4351-95cb-ad7cab6a3f07","ios":"levelo://app?vid=c7947910-f6df-4351-95cb-ad7cab6a3f07"},"vehicle_type_id":"4","last_reported":1756297222,"current_range_meters":18800,"station_id":"ce4bgv92rcd13ifvqcq0","pricing_plan_id":"cebpf4jnsgd1na2vs0mg"},{"bike_id":"5dd4d5c7-2d90-401a-ab0b-1eeaae0b7759","system_id":"levelo_inurba_marseille","lat":43.2901,"lon":5.35616,"is_reserved":false,"is_disabled":false,"rental_uris":{"android":"levelo://app?vid=5dd4d5c7-2d90-401a-ab0b-1eeaae0b7759","ios":"levelo://app?vid=5dd4d5c7-2d90-401a-ab0b-1eeaae0b7759"},"vehicle_type_id":"4","last_reported":1756297222,"current_range_meters":18800,"station_id":"ce4bhb92rcd13ifvqen0","pricing_plan_id":"cebpf4jnsgd1na2vs0mg"},{"bike_id":"7f96cfc7-6b62-4cd3-a164-5a1ee471a17d","system_id":"levelo_inurba_marseille","lat":43.30566,"lon":5.36538,"is_reserved":false,"is_disabled":false,"rental_uris":{"android":"levelo://app?vid=7f96cfc7-6b62-4cd3-a164-5a1ee471a17d","ios":"levelo://app?vid=7f96cfc7-6b62-4cd3-a164-5a1ee471a17d"},"vehicle_type_id":"4","last_reported":1756297222,"current_range_meters":18800,"station_id":"ce4bgs12rcd13ifvqcag","pricing_plan_id":"cebpf4jnsgd1na2vs0mg"},{"bike_id":"0c0a6fd6-2628-4d1c-bda2-fc94ae4f019a","system_id":"levelo_inurba_marseille","lat":43.29634,"lon":5.40594,"is_reserved":false,"is_disabled":false,"rental_uris":{"android":"levelo://app?vid=0c0a6fd6-2628-4d1c-bda2-fc94ae4f019a","ios":"levelo://app?vid=0c0a6fd6-2628-4d1c-bda2-fc94ae4f019a"},"vehicle_type_id":"4","last_reported":1756297222,"current_range_meters":18800,"station_id":"ce4bh0h2rcd13ifvqd60","pricing_plan_id":"cebpf4jnsgd1na2vs0mg"},{"bike_id":"996e4063-3afb-4510-83d1-0b7578827909","system_id":"levelo_inurba_marseille","lat":43.30948,"lon":5.39047,"is_reserved":false,"is_disabled":false,"rental_uris":{"android":"levelo://app?vid=996e4063-3afb-4510-83d1-0b7578827909","ios":"levelo://app?vid=996e4063-3afb-4510-83d1-0b7578827909"},"vehicle_type_id":"4","last_reported":1756297222,"current_range_meters":19200,"station_id":"ce4bgup2rcd13ifvqco0","pricing_plan_id":"cebpf4jnsgd1na2vs0mg"},{"bike_id":"1b3c81a0-d1ec-43f9-b277-06693b3d3c83","system_id":"levelo_inurba_marseille","lat":43.30125,"lon":5.39871,"is_reserved":false,"is_disabled":false,"rental_uris":{"android":"levelo://app?vid=1b3c81a0-d1ec-43f9-b277-06693b3d3c83","ios":"levelo://app?vid=1b3c81a0-d1ec-43f9-b277-06693b3d3c83"},"vehicle_type_id":"4","last_reported":1756297222,"current_range_meters":19200,"station_id":"ce4bh0h2rcd13ifvqd40","pricing_plan_id":"cebpf4jnsgd1na2vs0mg"},{"bike_id":"831a2354-0919-4530-8e5a-84c32dcc2c03","system_id":"levelo_inurba_marseille","lat":43.272052,"lon":5.391826,"is_reserved":false,"is_disabled":false,"rental_uris":{"android":"levelo://app?vid=831a2354-0919-4530-8e5a-84c32dcc2c03","ios":"levelo://app?vid=831a2354-0919-4530-8e5a-84c32dcc2c03"},"vehicle_type_id":"4","last_reported":1756297222,"current_range_meters":19200,"station_id":"","pricing_plan_id":"cebpf4jnsgd1na2vs0mg"},{"bike_id":"02d35de9-0e9a-49d4-8f2e-bb97489729ab","system_id":"levelo_inurba_marseille","lat":43.27996,"lon":5.41684,"is_reserved":false,"is_disabled":false,"rental_uris":{"android":"levelo://app?vid=02d35de9-0e9a-49d4-8f2e-bb97489729ab","ios":"levelo://app?vid=02d35de9-0e9a-49d4-8f2e-bb97489729ab"},"vehicle_type_id":"4","last_reported":1756297222,"current_range_meters":19200,"station_id":"ce4bho12rcd13ifvqh1g","pricing_plan_id":"cebpf4jnsgd1na2vs0mg"},{"bike_id":"2c246624-962d-4f72-8341-3c6523db29ef","system_id":"levelo_inurba_marseille","lat":43.26565,"lon":5.37294,"is_reserved":false,"is_disabled":true,"rental_uris":{"android":"levelo://app?vid=2c246624-962d-4f72-8341-3c6523db29ef","ios":"levelo://app?vid=2c246624-962d-4f72-8341-3c6523db29ef"},"vehicle_type_id":"4","last_reported":1756297222,"current_range_meters":19200,"station_id":"ce4bhg12rcd13ifvqf70","pricing_plan_id":"cebpf4jnsgd1na2vs0mg"},{"bike_id":"a71d0bca-bc7c-4692-bf55-794c9f5c67fc","system_id":"levelo_inurba_marseille","lat":43.305182,"lon":5.365445,"is_reserved":false,"is_disabled":false,"rental_uris":{"android":"levelo://app?vid=a71d0bca-bc7c-4692-bf55-794c9f5c67fc","ios":"levelo://app?vid=a71d0bca-bc7c-4692-bf55-794c9f5c67fc"},"vehicle_type_id":"4","last_reported":1756297222,"current_range_meters":19200,"station_id":"","pricing_plan_id":"cebpf4jnsgd1na2vs0mg"},{"bike_id":"e6355257-0814-4cf5-8dbe-cf3412b6ec52","system_id":"levelo_inurba_marseille","lat":43.27203,"lon":5.40994,"is_reserved":false,"is_disabled":false,"rental_uris":{"android":"levelo://app?vid=e6355257-0814-4cf5-8dbe-cf3412b6ec52","ios":"levelo://app?vid=e6355257-0814-4cf5-8dbe-cf3412b6ec52"},"vehicle_type_id":"4","last_reported":1756297222,"current_range_meters":19200,"station_id":"ce4bhl12rcd13ifvqgf0","pricing_plan_id":"cebpf4jnsgd1na2vs0mg"},{"bike_id":"d10122c8-0166-4181-9992-d0387a7567bd","system_id":"levelo_inurba_marseille","lat":43.29586,"lon":5.375227,"is_reserved":false,"is_disabled":false,"rental_uris":{"android":"levelo://app?vid=d10122c8-0166-4181-9992-d0387a7567bd","ios":"levelo://app?vid=d10122c8-0166-4181-9992-d0387a7567bd"},"vehicle_type_id":"4","last_reported":1756297222,"current_range_meters":19600,"station_id":"","pricing_plan_id":"cebpf4jnsgd1na2vs0mg"},{"bike_id":"4ee9e7fb-10e8-4600-8da0-89f0d27eef16","system_id":"levelo_inurba_marseille","lat":43.2957,"lon":5.39982,"is_reserved":false,"is_disabled":false,"rental_uris":{"android":"levelo://app?vid=4ee9e7fb-10e8-4600-8da0-89f0d27eef16","ios":"levelo://app?vid=4ee9e7fb-10e8-4600-8da0-89f0d27eef16"},"vehicle_type_id":"4","last_reported":1756297222,"current_range_meters":19600,"station_id":"ce4bh312rcd13ifvqdj0","pricing_plan_id":"cebpf4jnsgd1na2vs0mg"},{"bike_id":"d5ddba13-42df-4115-9aa1-5bdce53e55a3","system_id":"levelo_inurba_marseille","lat":43.30567,"lon":5.36535,"is_reserved":false,"is_disabled":false,"rental_uris":{"android":"levelo://app?vid=d5ddba13-42df-4115-9aa1-5bdce53e55a3","ios":"levelo://app?vid=d5ddba13-42df-4115-9aa1-5bdce53e55a3"},"vehicle_type_id":"4","last_reported":1756297222,"current_range_meters":19600,"station_id":"ce4bgs12rcd13ifvqcag","pricing_plan_id":"cebpf4jnsgd1na2vs0mg"},{"bike_id":"ca0a4932-263e-4f8c-bedf-d3db98b41c4a","system_id":"levelo_inurba_marseille","lat":43.30147,"lon":5.39877,"is_reserved":false,"is_disabled":false,"rental_uris":{"android":"levelo://app?vid=ca0a4932-263e-4f8c-bedf-d3db98b41c4a","ios":"levelo://app?vid=ca0a4932-263e-4f8c-bedf-d3db98b41c4a"},"vehicle_type_id":"4","last_reported":1756297222,"current_range_meters":19600,"station_id":"ce4bh0h2rcd13ifvqd40","pricing_plan_id":"cebpf4jnsgd1na2vs0mg"},{"bike_id":"122a1de4-6425-4554-abc0-6126db937917","system_id":"levelo_inurba_marseille","lat":43.30303,"lon":5.36879,"is_reserved":false,"is_disabled":false,"rental_uris":{"android":"levelo://app?vid=122a1de4-6425-4554-abc0-6126db937917","ios":"levelo://app?vid=122a1de4-6425-4554-abc0-6126db937917"},"vehicle_type_id":"4","last_reported":1756297222,"current_range_meters":19600,"station_id":"ce4bgqh2rcd13ifvqc5g","pricing_plan_id":"cebpf4jnsgd1na2vs0mg"},{"bike_id":"41206d24-710d-406c-91e0-c06bb1a64813","system_id":"levelo_inurba_marseille","lat":43.30562,"lon":5.36564,"is_reserved":false,"is_disabled":false,"rental_uris":{"android":"levelo://app?vid=41206d24-710d-406c-91e0-c06bb1a64813","ios":"levelo://app?vid=41206d24-710d-406c-91e0-c06bb1a64813"},"vehicle_type_id":"4","last_reported":1756297222,"current_range_meters":19600,"station_id":"ce4bgs12rcd13ifvqcag","pricing_plan_id":"cebpf4jnsgd1na2vs0mg"},{"bike_id":"07296681-3400-48d5-88e2-c863a00e5bf3","system_id":"levelo_inurba_marseille","lat":43.22943,"lon":5.35381,"is_reserved":false,"is_disabled":false,"rental_uris":{"android":"levelo://app?vid=07296681-3400-48d5-88e2-c863a00e5bf3","ios":"levelo://app?vid=07296681-3400-48d5-88e2-c863a00e5bf3"},"vehicle_type_id":"4","last_reported":1756297222,"current_range_meters":19600,"station_id":"cpo3532slgdg3j2ikp40","pricing_plan_id":"cebpf4jnsgd1na2vs0mg"},{"bike_id":"0360a5ff-a0b5-4e93-bc3b-718c480be5db","system_id":"levelo_inurba_marseille","lat":43.23177,"lon":5.40005,"is_reserved":false,"is_disabled":false,"rental_uris":{"android":"levelo://app?vid=0360a5ff-a0b5-4e93-bc3b-718c480be5db","ios":"levelo://app?vid=0360a5ff-a0b5-4e93-bc3b-718c480be5db"},"vehicle_type_id":"4","last_reported":1756297222,"current_range_meters":19600,"station_id":"ce4bhn12rcd13ifvqgqg","pricing_plan_id":"cebpf4jnsgd1na2vs0mg"},{"bike_id":"03080dce-1f55-4d92-8992-940a7cb2a486","system_id":"levelo_inurba_marseille","lat":43.21751,"lon":5.34606,"is_reserved":false,"is_disabled":false,"rental_uris":{"android":"levelo://app?vid=03080dce-1f55-4d92-8992-940a7cb2a486","ios":"levelo://app?vid=03080dce-1f55-4d92-8992-940a7cb2a486"},"vehicle_type_id":"4","last_reported":1756297222,"current_range_meters":20000,"station_id":"st_cvj6r9ubvosntc0bgbag","pricing_plan_id":"cebpf4jnsgd1na2vs0mg"},{"bike_id":"b02778a1-9799-4967-8ef9-e0c9005c73e8","system_id":"levelo_inurba_marseille","lat":43.292287,"lon":5.360709,"is_reserved":false,"is_disabled":false,"rental_uris":{"android":"levelo://app?vid=b02778a1-9799-4967-8ef9-e0c9005c73e8","ios":"levelo://app?vid=b02778a1-9799-4967-8ef9-e0c9005c73e8"},"vehicle_type_id":"4","last_reported":1756297222,"current_range_meters":20000,"station_id":"ce4bhbh2rcd13ifvqeqg","pricing_plan_id":"cebpf4jnsgd1na2vs0mg"},{"bike_id":"20c40bc5-0fe7-4d2a-aeac-3e4dba377090","system_id":"levelo_inurba_marseille","lat":43.31501,"lon":5.37296,"is_reserved":false,"is_disabled":false,"rental_uris":{"android":"levelo://app?vid=20c40bc5-0fe7-4d2a-aeac-3e4dba377090","ios":"levelo://app?vid=20c40bc5-0fe7-4d2a-aeac-3e4dba377090"},"vehicle_type_id":"4","last_reported":1756297222,"current_range_meters":20000,"station_id":"ce4bgt12rcd13ifvqcd0","pricing_plan_id":"cebpf4jnsgd1na2vs0mg"},{"bike_id":"8e461108-c550-4fb0-ad47-afd78d4c1ee1","system_id":"levelo_inurba_marseille","lat":43.22934,"lon":5.35384,"is_reserved":false,"is_disabled":false,"rental_uris":{"android":"levelo://app?vid=8e461108-c550-4fb0-ad47-afd78d4c1ee1","ios":"levelo://app?vid=8e461108-c550-4fb0-ad47-afd78d4c1ee1"},"vehicle_type_id":"4","last_reported":1756297222,"current_range_meters":20000,"station_id":"cpo3532slgdg3j2ikp40","pricing_plan_id":"cebpf4jnsgd1na2vs0mg"},{"bike_id":"71990f5c-878b-4f5e-912c-77a5f9364ed2","system_id":"levelo_inurba_marseille","lat":43.2762,"lon":5.36108,"is_reserved":false,"is_disabled":false,"rental_uris":{"android":"levelo://app?vid=71990f5c-878b-4f5e-912c-77a5f9364ed2","ios":"levelo://app?vid=71990f5c-878b-4f5e-912c-77a5f9364ed2"},"vehicle_type_id":"4","last_reported":1756297222,"current_range_meters":20000,"station_id":"ce4bgj92rcd13ifvqbe0","pricing_plan_id":"cebpf4jnsgd1na2vs0mg"},{"bike_id":"13e2e704-84dd-4958-b7be-c940f9c199ff","system_id":"levelo_inurba_marseille","lat":43.27941,"lon":5.41048,"is_reserved":false,"is_disabled":false,"rental_uris":{"android":"levelo://app?vid=13e2e704-84dd-4958-b7be-c940f9c199ff","ios":"levelo://app?vid=13e2e704-84dd-4958-b7be-c940f9c199ff"},