{"last_updated":1731996841,"ttl":60,"version":"2.2","data":{"bikes":[{"bike_id":"0c4cf5ea-a0b3-42a9-a5f8-ad337dddca0c","system_id":"levelo_inurba_marseille","lat":43.292536,"lon":5.409104,"is_reserved":false,"is_disabled":false,"rental_uris":{"android":"levelo://app?vid=0c4cf5ea-a0b3-42a9-a5f8-ad337dddca0c","ios":"levelo://app?vid=0c4cf5ea-a0b3-42a9-a5f8-ad337dddca0c"},"vehicle_type_id":"4","last_reported":1731996841,"current_range_meters":38800,"station_id":"ce4bh192rcd13ifvqdc0","pricing_plan_id":"cebpf4jnsgd1na2vs0mg"},{"bike_id":"457bb5e6-741e-4f94-a043-dca2d0f5b93a","system_id":"levelo_inurba_marseille","lat":43.31365,"lon":5.38504,"is_reserved":false,"is_disabled":false,"rental_uris":{"android":"levelo://app?vid=457bb5e6-741e-4f94-a043-dca2d0f5b93a","ios":"levelo://app?vid=457bb5e6-741e-4f94-a043-dca2d0f5b93a"},"vehicle_type_id":"4","last_reported":1731996841,"current_range_meters":9600,"station_id":"ce4bgt92rcd13ifvqcf0","pricing_plan_id":"cebpf4jnsgd1na2vs0mg"},{"bike_id":"3921a9f0-bca5-4438-8c4e-1dddd4afb0ff","system_id":"levelo_inurba_marseille","lat":43.31362,"lon":5.38493,"is_reserved":false,"is_disabled":false,"rental_uris":{"android":"levelo://app?vid=3921a9f0-bca5-4438-8c4e-1dddd4afb0ff","ios":"levelo://app?vid=3921a9f0-bca5-4438-8c4e-1dddd4afb0ff"},"vehicle_type_id":"4","last_reported":1731996841,"current_range_meters":32000,"station_id":"ce4bgt92rcd13ifvqcf0","pricing_plan_id":"cebpf4jnsgd1na2vs0mg"},{"bike_id":"2f5083a8-01ca-4328-baf6-04e4b87dc35e","system_id":"levelo_inurba_marseille","lat":43.27916,"lon":5.39589,"is_reserved":false,"is_disabled":false,"rental_uris":{"android":"levelo://app?vid=2f5083a8-01ca-4328-baf6-04e4b87dc35e","ios":"levelo://app?vid=2f5083a8-01ca-4328-baf6-04e4b87dc35e"},"vehicle_type_id":"4","last_reported":1731996841,"current_range_meters":27600,"station_id":"ce4bhf92rcd13ifvqf40","pricing_plan_id":"cebpf4jnsgd1na2vs0mg"},{"bike_id":"983fb69d-fd74-4d65-bc1c-29a8a65f02b7","system_id":"levelo_inurba_marseille","lat":43.27952,"lon":5.41045,"is_reserved":false,"is_disabled":false,"rental_uris":{"android":"levelo://app?vid=983fb69d-fd74-4d65-bc1c-29a8a65f02b7","ios":"levelo://app?vid=983fb69d-fd74-4d65-bc1c-29a8a65f02b7"},"vehicle_type_id":"4","last_reported":1731996841,"current_range_meters":30400,"station_id":"ce4bhnp2rcd13ifvqh0g","pricing_plan_id":"cebpf4jnsgd1na2vs0mg"},{"bike_id":"75cc8757-90ec-44a2-b070-b9cc134f750e","system_id":"levelo_inurba_marseille","lat":43.25025,"lon":5.38072,"is_reserved":false,"is_disabled":false,"rental_uris":{"android":"levelo://app?vid=75cc8757-90ec-44a2-b070-b9cc134f750e","ios":"levelo://app?vid=75cc8757-90ec-44a2-b070-b9cc134f750e"},"vehicle_type_id":"4","last_reported":1731996841,"current_range_meters":35200,"station_id":"","pricing_plan_id":"cebpf4jnsgd1na2vs0mg"},{"bike_id":"bc131b68-36d4-435a-9133-ec280e03582d","system_id":"levelo_inurba_marseille","lat":43.24677,"lon":5.3815,"is_reserved":false,"is_disabled":false,"rental_uris":{"android":"levelo://app?vid=bc131b68-36d4-435a-9133-ec280e03582d","ios":"levelo://app?vid=bc131b68-36d4-435a-9133-ec280e03582d"},"vehicle_type_id":"4","last_reported":1731996841,"current_range_meters":22800,"station_id":"ce4bhih2rcd13ifvqfr0","pricing_plan_id":"cebpf4jnsgd1na2vs0mg"},{"bike_id":"96ff0849-873b-421d-8847-cf59d38d784e","system_id":"levelo_inurba_marseille","lat":43.32656,"lon":5.4099,"is_reserved":false,"is_disabled":false,"rental_uris":{"android":"levelo://app?vid=96ff0849-873b-421d-8847-cf59d38d784e","ios":"levelo://app?vid=96ff0849-873b-421d-8847-cf59d38d784e"},"vehicle_type_id":"4","last_reported":1731996841,"current_range_meters":20800,"station_id":"ce4bhpp2rcd13ifvqhgg","pricing_plan_id":"cebpf4jnsgd1na2vs0mg"},{"bike_id":"65462e86-de49-4a82-a117-2d3617211b26","system_id":"levelo_inurba_marseille","lat":43.30934,"lon":5.4014,"is_reserved":false,"is_disabled":false,"rental_uris":{"android":"levelo://app?vid=65462e86-de49-4a82-a117-2d3617211b26","ios":"levelo://app?vid=65462e86-de49-4a82-a117-2d3617211b26"},"vehicle_type_id":"4","last_reported":1731996841,"current_range_meters":37600,"station_id":"ce4bgvp2rcd13ifvqct0","pricing_plan_id":"cebpf4jnsgd1na2vs0mg"},{"bike_id":"ee8b0697-df46-4de8-b7de-734c3a73285b","system_id":"levelo_inurba_marseille","lat":43.27816,"lon":5.40705,"is_reserved":false,"is_disabled":false,"rental_uris":{"android":"levelo://app?vid=ee8b0697-df46-4de8-b7de-734c3a73285b","ios":"levelo://app?vid=ee8b0697-df46-4de8-b7de-734c3a73285b"},"vehicle_type_id":"4","last_reported":1731996841,"current_range_meters":31200,"station_id":"ce4bhnh2rcd13ifvqgtg","pricing_plan_id":"cebpf4jnsgd1na2vs0mg"},{"bike_id":"0bc2b4da-31a7-4cb4-95e9-3aa3825f7da9","system_id":"levelo_inurba_marseille","lat":43.27995,"lon":5.4001,"is_reserved":false,"is_disabled":false,"rental_uris":{"android":"levelo://app?vid=0bc2b4da-31a7-4cb4-95e9-3aa3825f7da9","ios":"levelo://app?vid=0bc2b4da-31a7-4cb4-95e9-3aa3825f7da9"},"vehicle_type_id":"4","last_reported":1731996841,"current_range_meters":11600,"station_id":"ce4bho92rcd13ifvqh4g","pricing_plan_id":"cebpf4jnsgd1na2vs0mg"},{"bike_id":"f241cc7c-02e4-4e14-98e9-7c64fa35ec13","system_id":"levelo_inurba_marseille","lat":43.29625,"lon":5.40598,"is_reserved":false,"is_disabled":false,"rental_uris":{"android":"levelo://app?vid=f241cc7c-02e4-4e14-98e9-7c64fa35ec13","ios":"levelo://app?vid=f241cc7c-02e4-4e14-98e9-7c64fa35ec13"},"vehicle_type_id":"4","last_reported":1731996841,"current_range_meters":6400,"station_id":"ce4bh0h2rcd13ifvqd60","pricing_plan_id":"cebpf4jnsgd1na2vs0mg"},{"bike_id":"ab8b3dcb-d33d-4854-a37e-2243fffa6f29","system_id":"levelo_inurba_marseille","lat":43.30156,"lon":5.38085,"is_reserved":false,"is_disabled":false,"rental_uris":{"android":"levelo://app?vid=ab8b3dcb-d33d-4854-a37e-2243fffa6f29","ios":"levelo://app?vid=ab8b3dcb-d33d-4854-a37e-2243fffa6f29"},"vehicle_type_id":"4","last_reported":1731996841,"current_range_meters":36400,"station_id":"ce4bgjp2rcd13ifvqbh0","pricing_plan_id":"cebpf4jnsgd1na2vs0mg"},{"bike_id":"98568737-99bd-4851-a170-5764e02de3a0","system_id":"levelo_inurba_marseille","lat":43.31754,"lon":5.39025,"is_reserved":false,"is_disabled":false,"rental_uris":{"android":"levelo://app?vid=98568737-99bd-4851-a170-5764e02de3a0","ios":"levelo://app?vid=98568737-99bd-4851-a170-5764e02de3a0"},"vehicle_type_id":"4","last_reported":1731996841,"current_range_meters":39200,"station_id":"ce4bhqp2rcd13ifvqhng","pricing_plan_id":"cebpf4jnsgd1na2vs0mg"},{"bike_id":"86159686-8bb6-4861-b82b-5d805432ffef","system_id":"levelo_inurba_marseille","lat":43.24991,"lon":5.38937,"is_reserved":false,"is_disabled":false,"rental_uris":{"android":"levelo://app?vid=86159686-8bb6-4861-b82b-5d805432ffef","ios":"levelo://app?vid=86159686-8bb6-4861-b82b-5d805432ffef"},"vehicle_type_id":"4","last_reported":1731996841,"current_range_meters":28800,"station_id":"ce4bhgp2rcd13ifvqfd0","pricing_plan_id":"cebpf4jnsgd1na2vs0mg"},{"bike_id":"0483f6b4-b1f7-4f03-b703-9a41aa209a04","system_id":"levelo_inurba_marseille","lat":43.304647,"lon":5.3792,"is_reserved":false,"is_disabled":false,"rental_uris":{"android":"levelo://app?vid=0483f6b4-b1f7-4f03-b703-9a41aa209a04","ios":"levelo://app?vid=0483f6b4-b1f7-4f03-b703-9a41aa209a04"},"vehicle_type_id":"4","last_reported":1731996841,"current_range_meters":30000,"station_id":"ce4bgup2rcd13ifvqcn0","pricing_plan_id":"cebpf4jnsgd1na2vs0mg"},{"bike_id":"6c926eef-89ef-4421-9c04-3c9899f3173b","system_id":"levelo_inurba_marseille","lat":43.29899,"lon":5.43665,"is_reserved":false,"is_disabled":true,"rental_uris":{"android":"levelo://app?vid=6c926eef-89ef-4421-9c04-3c9899f3173b","ios":"levelo://app?vid=6c926eef-89ef-4421-9c04-3c9899f3173b"},"vehicle_type_id":"4","last_reported":1731996841,"current_range_meters":0,"station_id":"ce4bhpp2rcd13ifvqhfg","pricing_plan_id":"cebpf4jnsgd1na2vs0mg"},{"bike_id":"127efe80-b451-4258-b40a-516220894345","system_id":"levelo_inurba_marseille","lat":43.3089,"lon":5.37206,"is_reserved":false,"is_disabled":true,"rental_uris":{"android":"levelo://app?vid=127efe80-b451-4258-b40a-516220894345","ios":"levelo://app?vid=127efe80-b451-4258-b40a-516220894345"},"vehicle_type_id":"4","last_reported":1731996841,"current_range_meters":38800,"station_id":"ce4bguh2rcd13ifvqckg","pricing_plan_id":"cebpf4jnsgd1na2vs0mg"},{"bike_id":"e08875d1-5eda-43a9-a5b5-ee3ebd16c83c","system_id":"levelo_inurba_marseille","lat":43.25006,"lon":5.38912,"is_reserved":false,"is_disabled":false,"rental_uris":{"android":"levelo://app?vid=e08875d1-5eda-43a9-a5b5-ee3ebd16c83c","ios":"levelo://app?vid=e08875d1-5eda-43a9-a5b5-ee3ebd16c83c"},"vehicle_type_id":"4","last_reported":1731996841,"current_range_meters":36800,"station_id":"ce4bhgp2rcd13ifvqfd0","pricing_plan_id":"cebpf4jnsgd1na2vs0mg"},{"bike_id":"b1879da0-4952-4a10-8d90-fd2192536eda","system_id":"levelo_inurba_marseille","lat":43.23154,"lon":5.43712,"is_reserved":false,"is_disabled":false,"rental_uris":{"android":"levelo://app?vid=b1879da0-4952-4a10-8d90-fd2192536eda","ios":"levelo://app?vid=b1879da0-4952-4a10-8d90-fd2192536eda"},"vehicle_type_id":"4","last_reported":1731996841,"current_range_meters":38800,"station_id":"ce4bhmp2rcd13ifvqgog","pricing_plan_id":"cebpf4jnsgd1na2vs0mg"},{"bike_id":"4ff0bc06-1b0b-4246-97ea-67727dfe81ee","system_id":"levelo_inurba_marseille","lat":43.28402,"lon":5.37529,"is_reserved":false,"is_disabled":false,"rental_uris":{"android":"levelo://app?vid=4ff0bc06-1b0b-4246-97ea-67727dfe81ee","ios":"levelo://app?vid=4ff0bc06-1b0b-4246-97ea-67727dfe81ee"},"vehicle_type_id":"4","last_reported":1731996841,"current_range_meters":28800,"station_id":"ce4bh412rcd13ifvqds0","pricing_plan_id":"cebpf4jnsgd1na2vs0mg"},{"bike_id":"46cf6f0d-da6a-4481-b9b5-ca51f0c8f960","system_id":"levelo_inurba_marseille","lat":43.28724,"lon":5.36078,"is_reserved":false,"is_disabled":false,"rental_uris":{"android":"levelo://app?vid=46cf6f0d-da6a-4481-b9b5-ca51f0c8f960","ios":"levelo://app?vid=46cf6f0d-da6a-4481-b9b5-ca51f0c8f960"},"vehicle_type_id":"4","last_reported":1731996841,"current_range_meters":18800,"station_id":"cki0cbj6b192h4jlfktg","pricing_plan_id":"cebpf4jnsgd1na2vs0mg"},{"bike_id":"87c8c14c-6dc4-4d7e-968e-7f10f823cce4","system_id":"levelo_inurba_marseille","lat":43.31886,"lon":5.40731,"is_reserved":false,"is_disabled":false,"rental_uris":{"android":"levelo://app?vid=87c8c14c-6dc4-4d7e-968e-7f10f823cce4","ios":"levelo://app?vid=87c8c14c-6dc4-4d7e-968e-7f10f823cce4"},"vehicle_type_id":"4","last_reported":1731996841,"current_range_meters":34000,"station_id":"ce4bhq12rcd13ifvqhig","pricing_plan_id":"cebpf4jnsgd1na2vs0mg"},{"bike_id":"226e83bf-1a60-405a-af72-b50b167433a5","system_id":"levelo_inurba_marseille","lat":43.29567,"lon":5.39964,"is_reserved":false,"is_disabled":false,"rental_uris":{"android":"levelo://app?vid=226e83bf-1a60-405a-af72-b50b167433a5","ios":"levelo://app?vid=226e83bf-1a60-405a-af72-b50b167433a5"},"vehicle_type_id":"4","last_reported":1731996841,"current_range_meters":36400,"station_id":"ce4bh312rcd13ifvqdj0","pricing_plan_id":"cebpf4jnsgd1na2vs0mg"},{"bike_id":"4e682c21-86be-4d76-a64b-638a60816da7","system_id":"levelo_inurba_marseille","lat":43.27815,"lon":5.40703,"is_reserved":false,"is_disabled":false,"rental_uris":{"android":"levelo://app?vid=4e682c21-86be-4d76-a64b-638a60816da7","ios":"levelo://app?vid=4e682c21-86be-4d76-a64b-638a60816da7"},"vehicle_type_id":"4","last_reported":1731996841,"current_range_meters":19200,"station_id":"ce4bhnh2rcd13ifvqgtg","pricing_plan_id":"cebpf4jnsgd1na2vs0mg"},{"bike_id":"1ceca4c0-e64b-47cd-84e8-4eaf493a34ff","system_id":"levelo_inurba_marseille","lat":43.30315,"lon":5.40258,"is_reserved":false,"is_disabled":true,"rental_uris":{"android":"levelo://app?vid=1ceca4c0-e64b-47cd-84e8-4eaf493a34ff","ios":"levelo://app?vid=1ceca4c0-e64b-47cd-84e8-4eaf493a34ff"},"vehicle_type_id":"4","last_reported":1731996841,"current_range_meters":0,"station_id":"","pricing_plan_id":"cebpf4jnsgd1na2vs0mg"},{"bike_id":"daca0b75-1bb0-48e0-847c-38b1ea139373","system_id":"levelo_inurba_marseille","lat":43.27997,"lon":5.41659,"is_reserved":false,"is_disabled":false,"rental_uris":{"android":"levelo://app?vid=daca0b75-1bb0-48e0-847c-38b1ea139373","ios":"levelo://app?vid=daca0b75-1bb0-48e0-847c-38b1ea139373"},"vehicle_type_id":"4","last_reported":1731996841,"current_range_meters":38000,"station_id":"ce4bho12rcd13ifvqh1g","pricing_plan_id":"cebpf4jnsgd1na2vs0mg"},{"bike_id":"8cdcff88-f0a9-48bf-bc2d-1d0e44dc6973","system_id":"levelo_inurba_marseille","lat":43.2867,"lon":5.36347,"is_reserved":false,"is_disabled":false,"rental_uris":{"android":"levelo://app?vid=8cdcff88-f0a9-48bf-bc2d-1d0e44dc6973","ios":"levelo://app?vid=8cdcff88-f0a9-48bf-bc2d-1d0e44dc6973"},"vehicle_type_id":"4","last_reported":1731996841,"current_range_meters":26800,"station_id":"ce4bhah2rcd13ifvqej0","pricing_plan_id":"cebpf4jnsgd1na2vs0mg"},{"bike_id":"e307b6bf-85b2-43dc-b4a3-1c161df1b21c","system_id":"levelo_inurba_marseille","lat":43.23191,"lon":5.39988,"is_reserved":false,"is_disabled":false,"rental_uris":{"android":"levelo://app?vid=e307b6bf-85b2-43dc-b4a3-1c161df1b21c","ios":"levelo://app?vid=e307b6bf-85b2-43dc-b4a3-1c161df1b21c"},"vehicle_type_id":"4","last_reported":1731996841,"current_range_meters":6400,"station_id":"ce4bhn12rcd13ifvqgqg","pricing_plan_id":"cebpf4jnsgd1na2vs0mg"},{"bike_id":"636ad6ad-7ea2-4a54-b125-0c397f6550f8","system_id":"levelo_inurba_marseille","lat":43.28433,"lon":5.39201,"is_reserved":false,"is_disabled":true,"rental_uris":{"android":"levelo://app?vid=636ad6ad-7ea2-4a54-b125-0c397f6550f8","ios":"levelo://app?vid=636ad6ad-7ea2-4a54-b125-0c397f6550f8"},"vehicle_type_id":"4","last_reported":1731996841,"current_range_meters":38400,"station_id":"ce4bhoh2rcd13ifvqh5g","pricing_plan_id":"cebpf4jnsgd1na2vs0mg"},{"bike_id":"43fc3a21-f3df-43fc-8276-7a68f99281c3","system_id":"levelo_inurba_marseille","lat":43.25115,"lon":5.40321,"is_reserved":false,"is_disabled":false,"rental_uris":{"android":"levelo://app?vid=43fc3a21-f3df-43fc-8276-7a68f99281c3","ios":"levelo://app?vid=43fc3a21-f3df-43fc-8276-7a68f99281c3"},"vehicle_type_id":"4","last_reported":1731996841,"current_range_meters":37600,"station_id":"ce4bhlh2rcd13ifvqgig","pricing_plan_id":"cebpf4jnsgd1na2vs0mg"},{"bike_id":"6ba2d3f3-c655-4e14-8211-bd7d1cb3d06a","system_id":"levelo_inurba_marseille","lat":43.29879,"lon":5.39734,"is_reserved":false,"is_disabled":false,"rental_uris":{"android":"levelo://app?vid=6ba2d3f3-c655-4e14-8211-bd7d1cb3d06a","ios":"levelo://app?vid=6ba2d3f3-c655-4e14-8211-bd7d1cb3d06a"},"vehicle_type_id":"4","last_reported":1731996841,"current_range_meters":37600,"station_id":"ce4bh0h2rcd13ifvqd50","pricing_plan_id":"cebpf4jnsgd1na2vs0mg"},{"bike_id":"38ef1c7d-db66-4004-abf9-f9fc6a67758b","system_id":"levelo_inurba_marseille","lat":43.3137,"lon":5.38496,"is_reserved":false,"is_disabled":false,"rental_uris":{"android":"levelo://app?vid=38ef1c7d-db66-4004-abf9-f9fc6a67758b","ios":"levelo://app?vid=38ef1c7d-db66-4004-abf9-f9fc6a67758b"},"vehicle_type_id":"4","last_reported":1731996841,"current_range_meters":14400,"station_id":"ce4bgt92rcd13ifvqcf0","pricing_plan_id":"cebpf4jnsgd1na2vs0mg"},{"bike_id":"4612e287-ccfe-4af4-be38-92e9c35c2c3a","system_id":"levelo_inurba_marseille","lat":43.24673,"lon":5.38162,"is_reserved":false,"is_disabled":false,"rental_uris":{"android":"levelo://app?vid=4612e287-ccfe-4af4-be38-92e9c35c2c3a","ios":"levelo://app?vid=4612e287-ccfe-4af4-be38-92e9c35c2c3a"},"vehicle_type_id":"4","last_reported":1731996841,"current_range_meters":38000,"station_id":"ce4bhih2rcd13ifvqfr0","pricing_plan_id":"cebpf4jnsgd1na2vs0mg"},{"bike_id":"bc122eef-c627-4c48-898c-81234e04e2bd","system_id":"levelo_inurba_marseille","lat":43.30594,"lon":5.39353,"is_reserved":false,"is_disabled":true,"rental_uris":{"android":"levelo://app?vid=bc122eef-c627-4c48-898c-81234e04e2bd","ios":"levelo://app?vid=bc122eef-c627-4c48-898c-81234e04e2bd"},"vehicle_type_id":"4","last_reported":1731996841,"current_range_meters":38400,"station_id":"ce4bh0p2rcd13ifvqd80","pricing_plan_id":"cebpf4jnsgd1na2vs0mg"},{"bike_id":"370474bd-c5a1-4d30-85ee-1b07a0bdb8b3","system_id":"levelo_inurba_marseille","lat":43.330213,"lon":5.390368,"is_reserved":false,"is_disabled":false,"rental_uris":{"android":"levelo://app?vid=370474bd-c5a1-4d30-85ee-1b07a0bdb8b3","ios":"levelo://app?vid=370474bd-c5a1-4d30-85ee-1b07a0bdb8b3"},"vehicle_type_id":"4","last_reported":1731996841,"current_range_meters":20000,"station_id":"ce4bhr92rcd13ifvqhrg","pricing_plan_id":"cebpf4jnsgd1na2vs0mg"},{"bike_id":"9c003458-5bcb-4587-ba82-142e30067a2f","system_id":"levelo_inurba_marseille","lat":43.33028,"lon":5.39043,"is_reserved":false,"is_disabled":false,"rental_uris":{"android":"levelo://app?vid=9c003458-5bcb-4587-ba82-142e30067a2f","ios":"levelo://app?vid=9c003458-5bcb-4587-ba82-142e30067a2f"},"vehicle_type_id":"4","last_reported":1731996841,"current_range_meters":38000,"station_id":"ce4bhr92rcd13ifvqhrg","pricing_plan_id":"cebpf4jnsgd1na2vs0mg"},{"bike_id":"e138b0e1-0592-4057-bb8b-cf36d0939c91","system_id":"levelo_inurba_marseille","lat":43.28007,"lon":5.40014,"is_reserved":false,"is_disabled":false,"rental_uris":{"android":"levelo://app?vid=e138b0e1-0592-4057-bb8b-cf36d0939c91","ios":"levelo://app?vid=e138b0e1-0592-4057-bb8b-cf36d0939c91"},"vehicle_type_id":"4","last_reported":1731996841,"current_range_meters":39200,"station_id":"ce4bho92rcd13ifvqh4g","pricing_plan_id":"cebpf4jnsgd1na2vs0mg"},{"bike_id":"1341a828-b981-4198-a789-8a5791ca7539","system_id":"levelo_inurba_marseille","lat":43.25011,"lon":5.38915,"is_reserved":false,"is_disabled":false,"rental_uris":{"android":"levelo://app?vid=1341a828-b981-4198-a789-8a5791ca7539","ios":"levelo://app?vid=1341a828-b981-4198-a789-8a5791ca7539"},"vehicle_type_id":"4","last_reported":1731996841,"current_range_meters":36800,"station_id":"ce4bhgp2rcd13ifvqfd0","pricing_plan_id":"cebpf4jnsgd1na2vs0mg"},{"bike_id":"423c94ef-b71b-4307-a3dd-5dfeaef4c110","system_id":"levelo_inurba_marseille","lat":43.28399,"lon":5.37535,"is_reserved":false,"is_disabled":false,"rental_uris":{"android":"levelo://app?vid=423c94ef-b71b-4307-a3dd-5dfeaef4c110","ios":"levelo://app?vid=423c94ef-b71b-4307-a3dd-5dfeaef4c110"},"vehicle_type_id":"4","last_reported":1731996841,"current_range_meters":29600,"station_id":"ce4bh412rcd13ifvqds0","pricing_plan_id":"cebpf4jnsgd1na2vs0mg"},{"bike_id":"08a910d0-5478-47a2-88ea-af8273ec9923","system_id":"levelo_inurba_marseille","lat":43.30425,"lon":5.39757,"is_reserved":false,"is_disabled":false,"rental_uris":{"android":"levelo://app?vid=08a910d0-5478-47a2-88ea-af8273ec9923","ios":"levelo://app?vid=08a910d0-5478-47a2-88ea-af8273ec9923"},"vehicle_type_id":"4","last_reported":1731996841,"current_range_meters":39200,"station_id":"ce4bh092rcd13ifvqd20","pricing_plan_id":"cebpf4jnsgd1na2vs0mg"},{"bike_id":"e3511c0c-eb2b-4100-bb2d-c5ebcd644bea","system_id":"levelo_inurba_marseille","lat":43.23963,"lon":5.36623,"is_reserved":false,"is_disabled":true,"rental_uris":{"android":"levelo://app?vid=e3511c0c-eb2b-4100-bb2d-c5ebcd644bea","ios":"levelo://app?vid=e3511c0c-eb2b-4100-bb2d-c5ebcd644bea"},"vehicle_type_id":"4","last_reported":1731996841,"current_range_meters":37600,"station_id":"ce4bhi12rcd13ifvqfp0","pricing_plan_id":"cebpf4jnsgd1na2vs0mg"},{"bike_id":"08ffd31c-fe78-416e-b527-8f7725b133f1","system_id":"levelo_inurba_marseille","lat":43.27994,"lon":5.40011,"is_reserved":false,"is_disabled":false,"rental_uris":{"android":"levelo://app?vid=08ffd31c-fe78-416e-b527-8f7725b133f1","ios":"levelo://app?vid=08ffd31c-fe78-416e-b527-8f7725b133f1"},"vehicle_type_id":"4","last_reported":1731996841,"current_range_meters":35600,"station_id":"ce4bho92rcd13ifvqh4g","pricing_plan_id":"cebpf4jnsgd1na2vs0mg"},{"bike_id":"ef31495f-6a34-4d74-a72b-91bbac7371df","system_id":"levelo_inurba_marseille","lat":43.25913,"lon":5.40853,"is_reserved":false,"is_disabled":true,"rental_uris":{"android":"levelo://app?vid=ef31495f-6a34-4d74-a72b-91bbac7371df","ios":"levelo://app?vid=ef31495f-6a34-4d74-a72b-91bbac7371df"},"vehicle_type_id":"4","last_reported":1731996841,"current_range_meters":22000,"station_id":"ce4bhm92rcd13ifvqglg","pricing_plan_id":"cebpf4jnsgd1na2vs0mg"},{"bike_id":"d10c90fd-3c70-4bb6-bcaa-6d62b6ce4770","system_id":"levelo_inurba_marseille","lat":43.26069,"lon":5.39391,"is_reserved":false,"is_disabled":true,"rental_uris":{"android":"levelo://app?vid=d10c90fd-3c70-4bb6-bcaa-6d62b6ce4770","ios":"levelo://app?vid=d10c90fd-3c70-4bb6-bcaa-6d62b6ce4770"},"vehicle_type_id":"4","last_reported":1731996841,"current_range_meters":8800,"station_id":"ce4bhh92rcd13ifvqfj0","pricing_plan_id":"cebpf4jnsgd1na2vs0mg"},{"bike_id":"5917a06d-1a89-42ee-9c96-70b3e49f2520","system_id":"levelo_inurba_marseille","lat":43.31704,"lon":5.40474,"is_reserved":false,"is_disabled":true,"rental_uris":{"android":"levelo://app?vid=5917a06d-1a89-42ee-9c96-70b3e49f2520","ios":"levelo://app?vid=5917a06d-1a89-42ee-9c96-70b3e49f2520"},"vehicle_type_id":"4","last_reported":1731996841,"current_range_meters":14800,"station_id":"ce4bh012rcd13ifvqd00","pricing_plan_id":"cebpf4jnsgd1na2vs0mg"},{"bike_id":"dbf60536-a536-4a38-8bbd-8d36414f5350","system_id":"levelo_inurba_marseille","lat":43.28867,"lon":5.35826,"is_reserved":false,"is_disabled":false,"rental_uris":{"android":"levelo://app?vid=dbf60536-a536-4a38-8bbd-8d36414f5350","ios":"levelo://app?vid=dbf60536-a536-4a38-8bbd-8d36414f5350"},"vehicle_type_id":"4","last_reported":1731996841,"current_range_meters":36400,"station_id":"ce4bhb12rcd13ifvqem0","pricing_plan_id":"cebpf4jnsgd1na2vs0mg"},{"bike_id":"2c263757-7671-407f-89c7-d1436f782341","system_id":"levelo_inurba_marseille","lat":43.28081,"lon":5.39652,"is_reserved":false,"is_disabled":false,"rental_uris":{"android":"levelo://app?vid=2c263757-7671-407f-89c7-d1436f782341","ios":"levelo://app?vid=2c263757-7671-407f-89c7-d1436f782341"},"vehicle_type_id":"4","last_reported":1731996841,"current_range_meters":38800,"station_id":"ce4bho12rcd13ifvqh2g","pricing_plan_id":"cebpf4jnsgd1na2vs0mg"},{"bike_id":"e095c480-1be3-4d37-84b1-7d30698bce1c","system_id":"levelo_inurba_marseille","lat":43.28697,"lon":5.374,"is_reserved":false,"is_disabled":false,"rental_uris":{"android":"levelo://app?vid=e095c480-1be3-4d37-84b1-7d30698bce1c","ios":"levelo://app?vid=e095c480-1be3-4d37-84b1-7d30698bce1c"},"vehicle_type_id":"4","last_reported":1731996841,"current_range_meters":6000,"station_id":"ce4bh3p2rcd13ifvqdq0","pricing_plan_id":"cebpf4jnsgd1na2vs0mg"},{"bike_id":"7469e33e-c994-4731-b38b-2241d8efe8e6","system_id":"levelo_inurba_marseille","lat":43.286692,"lon":5.363542,"is_reserved":false,"is_disabled":false,"rental_uris":{"android":"levelo://app?vid=7469e33e-c994-4731-b38b-2241d8efe8e6","ios":"levelo://app?vid=7469e33e-c994-4731-b38b-2241d8efe8e6"},"vehicle_type_id":"4","last_reported":1731996841,"current_range_meters":26000,"station_id":"ce4bhah2rcd13ifvqej0","pricing_plan_id":"cebpf4jnsgd1na2vs0mg"},{"bike_id":"02c7140d-eb0a-4832-a8c4-16edc8f79941","system_id":"levelo_inurba_marseille","lat":43.23966,"lon":5.36634,"is_reserved":false,"is_disabled":false,"rental_uris":{"android":"levelo://app?vid=02c7140d-eb0a-4832-a8c4-16edc8f79941","ios":"levelo://app?vid=02c7140d-eb0a-4832-a8c4-16edc8f79941"},"vehicle_type_id":"4","last_reported":1731996841,"current_range_meters":22000,"station_id":"ce4bhi12rcd13ifvqfp0","pricing_plan_id":"cebpf4jnsgd1na2vs0mg"},{"bike_id":"0534ce24-46b6-4220-851d-cebdfec71164","system_id":"levelo_inurba_marseille","lat":43.23188,"lon":5.39979,"is_reserved":false,"is_disabled":false,"rental_uris":{"android":"levelo://app?vid=0534ce24-46b6-4220-851d-cebdfec71164","ios":"levelo://app?vid=0534ce24-46b6-4220-851d-cebdfec71164"},"vehicle_type_id":"4","last_reported":1731996841,"current_range_meters":38000,"station_id":"ce4bhn12rcd13ifvqgqg","pricing_plan_id":"cebpf4jnsgd1na2vs0mg"},{"bike_id":"ee73fa0d-ae4c-428a-9248-7dc0b16a03fe","system_id":"levelo_inurba_marseille","lat":43.31709,"lon":5.39847,"is_reserved":false,"is_disabled":false,"rental_uris":{"android":"levelo://app?vid=ee73fa0d-ae4c-428a-9248-7dc0b16a03fe","ios":"levelo://app?vid=ee73fa0d-ae4c-428a-9248-7dc0b16a03fe"},"vehicle_type_id":"4","last_reported":1731996841,"current_range_meters":29600,"station_id":"","pricing_plan_id":"cebpf4jnsgd1na2vs0mg"},{"bike_id":"80851460-2c7d-4d36-9c6e-80e3087e4e9c","system_id":"levelo_inurba_marseille","lat":43.28621,"lon":5.35098,"is_reserved":false,"is_disabled":false,"rental_uris":{"android":"levelo://app?vid=80851460-2c7d-4d36-9c6e-80e3087e4e9c","ios":"levelo://app?vid=80851460-2c7d-4d36-9c6e-80e3087e4e9c"},"vehicle_type_id":"4","last_reported":1731996841,"current_range_meters":30800,"station_id":"ce4bhch2rcd13ifvqeug","pricing_plan_id":"cebpf4jnsgd1na2vs0mg"},{"bike_id":"3f095bc8-9af8-4b0b-a298-157d8e949f36","system_id":"levelo_inurba_marseille","lat":43.27659,"lon":5.3891,"is_reserved":false,"is_disabled":true,"rental_uris":{"android":"levelo://app?vid=3f095bc8-9af8-4b0b-a298-157d8e949f36","ios":"levelo://app?vid=3f095bc8-9af8-4b0b-a298-157d8e949f36"},"vehicle_type_id":"4","last_reported":1731996841,"current_range_meters":8000,"station_id":"ce4bhi12rcd13ifvqfo0","pricing_plan_id":"cebpf4jnsgd1na2vs0mg"},{"bike_id":"7c407d42-b656-4801-b91f-c3365028215c","system_id":"levelo_inurba_marseille","lat":43.26215,"lon":5.3744,"is_reserved":false,"is_disabled":false,"rental_uris":{"android":"levelo://app?vid=7c407d42-b656-4801-b91f-c3365028215c","ios":"levelo://app?vid=7c407d42-b656-4801-b91f-c3365028215c"},"vehicle_type_id":"4","last_reported":1731996841,"current_range_meters":38800,"station_id":"ce4bhgp2rcd13ifvqfc0","pricing_plan_id":"cebpf4jnsgd1na2vs0mg"},{"bike_id":"a048dcd7-5cc2-4dc6-b206-12ad13acc9f1","system_id":"levelo_inurba_marseille","lat":43.24805,"lon":5.37453,"is_reserved":false,"is_disabled":false,"rental_uris":{"android":"levelo://app?vid=a048dcd7-5cc2-4dc6-b206-12ad13acc9f1","ios":"levelo://app?vid=a048dcd7-5cc2-4dc6-b206-12ad13acc9f1"},"vehicle_type_id":"4","last_reported":1731996841,"current_range_meters":18000,"station_id":"ce4bhgh2rcd13ifvqfb0","pricing_plan_id":"cebpf4jnsgd1na2vs0mg"},{"bike_id":"73ad4d27-fb06-4f88-b94c-3c146ccbcc1a","system_id":"levelo_inurba_marseille","lat":43.32041,"lon":5.41583,"is_reserved":false,"is_disabled":false,"rental_uris":{"android":"levelo://app?vid=73ad4d27-fb06-4f88-b94c-3c146ccbcc1a","ios":"levelo://app?vid=73ad4d27-fb06-4f88-b94c-3c146ccbcc1a"},"vehicle_type_id":"4","last_reported":1731996841,"current_range_meters":27200,"station_id":"ce4bhq92rcd13ifvqhkg","pricing_plan_id":"cebpf4jnsgd1na2vs0mg"},{"bike_id":"d674a550-723f-4e20-a0c2-89aa344c2ade","system_id":"levelo_inurba_marseille","lat":43.28207,"lon":5.44373,"is_reserved":false,"is_disabled":false,"rental_uris":{"android":"levelo://app?vid=d674a550-723f-4e20-a0c2-89aa344c2ade","ios":"levelo://app?vid=d674a550-723f-4e20-a0c2-89aa344c2ade"},"vehicle_type_id":"4","last_reported":1731996841,"current_range_meters":4400,"station_id":"","pricing_plan_id":"cebpf4jnsgd1na2vs0mg"},{"bike_id":"f1cc326e-0a40-4b5a-bef5-eb1d62bf939b","system_id":"levelo_inurba_marseille","lat":43.28727,"lon":5.36083,"is_reserved":false,"is_disabled":false,"rental_uris":{"android":"levelo://app?vid=f1cc326e-0a40-4b5a-bef5-eb1d62bf939b","ios":"levelo://app?vid=f1cc326e-0a40-4b5a-bef5-eb1d62bf939b"},"vehicle_type_id":"4","last_reported":1731996841,"current_range_meters":29600,"station_id":"cki0cbj6b192h4jlfktg","pricing_plan_id":"cebpf4jnsgd1na2vs0mg"},{"bike_id":"f26f9ff4-6d82-459d-bc98-b8addb7fa0b2","system_id":"levelo_inurba_marseille","lat":43.28945,"lon":5.36638,"is_reserved":false,"is_disabled":true,"rental_uris":{"android":"levelo://app?vid=f26f9ff4-6d82-459d-bc98-b8addb7fa0b2","ios":"levelo://app?vid=f26f9ff4-6d82-459d-bc98-b8addb7fa0b2"},"vehicle_type_id":"4","last_reported":1731996841,"current_range_meters":0,"station_id":"ce4bhap2rcd13ifvqek0","pricing_plan_id":"cebpf4jnsgd1na2vs0mg"},{"bike_id":"6b820048-12f4-4da7-aee0-6c64c8a09952","system_id":"levelo_inurba_marseille","lat":43.31065,"lon":5.38198,"is_reserved":false,"is_disabled":false,"rental_uris":{"android":"levelo://app?vid=6b820048-12f4-4da7-aee0-6c64c8a09952","ios":"levelo://app?vid=6b820048-12f4-4da7-aee0-6c64c8a09952"},"vehicle_type_id":"4","last_reported":1731996841,"current_range_meters":27600,"station_id":"","pricing_plan_id":"cebpf4jnsgd1na2vs0mg"},{"bike_id":"5cafd947-fcaf-42d4-90dc-a3f0d34e955d","system_id":"levelo_inurba_marseille","lat":43.28572,"lon":5.395,"is_reserved":false,"is_disabled":false,"rental_uris":{"android":"levelo://app?vid=5cafd947-fcaf-42d4-90dc-a3f0d34e955d","ios":"levelo://app?vid=5cafd947-fcaf-42d4-90dc-a3f0d34e955d"},"vehicle_type_id":"4","last_reported":1731996841,"current_range_meters":38800,"station_id":"ce4bh292rcd13ifvqdg0","pricing_plan_id":"cebpf4jnsgd1na2vs0mg"},{"bike_id":"68c024af-65bb-4b0e-bb1d-10e38cc109a8","system_id":"levelo_inurba_marseille","lat":43.26939,"lon":5.40257,"is_reserved":false,"is_disabled":false,"rental_uris":{"android":"levelo://app?vid=68c024af-65bb-4b0e-bb1d-10e38cc109a8","ios":"levelo://app?vid=68c024af-65bb-4b0e-bb1d-10e38cc109a8"},"vehicle_type_id":"4","last_reported":1731996841,"current_range_meters":38000,"station_id":"cjm6bp8fraef2m0cb0m0","pricing_plan_id":"cebpf4jnsgd1na2vs0mg"},{"bike_id":"8361f9ef-1b5a-4afa-97d3-72b9e3ea5766","system_id":"levelo_inurba_marseille","lat":43.28357,"lon":5.381076,"is_reserved":false,"is_disabled":false,"rental_uris":{"android":"levelo://app?vid=8361f9ef-1b5a-4afa-97d3-72b9e3ea5766","ios":"levelo://app?vid=8361f9ef-1b5a-4afa-97d3-72b9e3ea5766"},"vehicle_type_id":"4","last_reported":1731996841,"current_range_meters":38400,"station_id":"ce4bh412rcd13ifvqdr0","pricing_plan_id":"cebpf4jnsgd1na2vs0mg"},{"bike_id":"f1f50780-48cb-44fa-9dee-6831b7cf5f41","system_id":"levelo_inurba_marseille","lat":43.295206,"lon":5.390386,"is_reserved":false,"is_disabled":false,"rental_uris":{"android":"levelo://app?vid=f1f50780-48cb-44fa-9dee-6831b7cf5f41","ios":"levelo://app?vid=f1f50780-48cb-44fa-9dee-6831b7cf5f41"},"vehicle_type_id":"4","last_reported":1731996841,"current_range_meters":38800,"station_id":"ce4bh3p2rcd13ifvqdp0","pricing_plan_id":"cebpf4jnsgd1na2vs0mg"},{"bike_id":"5873cbbb-60e4-463a-a62f-14bc6adde5e8","system_id":"levelo_inurba_marseille","lat":43.2803,"lon":5.36945,"is_reserved":false,"is_disabled":false,"rental_uris":{"android":"levelo://app?vid=5873cbbb-60e4-463a-a62f-14bc6adde5e8","ios":"levelo://app?vid=5873cbbb-60e4-463a-a62f-14bc6adde5e8"},"vehicle_type_id":"4","last_reported":1731996841,"current_range_meters":6000,"station_id":"ce4bha12rcd13ifvqef0","pricing_plan_id":"cebpf4jnsgd1na2vs0mg"},{"bike_id":"a74ebd93-bc18-4c3e-aace-af4ac37176f1","system_id":"levelo_inurba_marseille","lat":43.32363,"lon":5.38869,"is_reserved":false,"is_disabled":false,"rental_uris":{"android":"levelo://app?vid=a74ebd93-bc18-4c3e-aace-af4ac37176f1","ios":"levelo://app?vid=a74ebd93-bc18-4c3e-aace-af4ac37176f1"},"vehicle_type_id":"4","last_reported":1731996841,"current_range_meters":29600,"station_id":"ce4bhqp2rcd13ifvqhog","pricing_plan_id":"cebpf4jnsgd1na2vs0mg"},{"bike_id":"abce7aef-009c-4b3d-a0b5-a03faaef0a04","system_id":"levelo_inurba_marseille","lat":43.279712,"lon":5.387609,"is_reserved":false,"is_disabled":false,"rental_uris":{"android":"levelo://app?vid=abce7aef-009c-4b3d-a0b5-a03faaef0a04","ios":"levelo://app?vid=abce7aef-009c-4b3d-a0b5-a03faaef0a04"},"vehicle_type_id":"4","last_reported":1731996841,"current_range_meters":38800,"station_id":"ce4bhg12rcd13ifvqf80","pricing_plan_id":"cebpf4jnsgd1na2vs0mg"},{"bike_id":"9c82aec4-b25e-4e2d-90e6-c4e64e936483","system_id":"levelo_inurba_marseille","lat":43.24656,"lon":5.38899,"is_reserved":false,"is_disabled":false,"rental_uris":{"android":"levelo://app?vid=9c82aec4-b25e-4e2d-90e6-c4e64e936483","ios":"levelo://app?vid=9c82aec4-b25e-4e2d-90e6-c4e64e936483"},"vehicle_type_id":"4","last_reported":1731996841,"current_range_meters":19600,"station_id":"ce4bhg12rcd13ifvqf60","pricing_plan_id":"cebpf4jnsgd1na2vs0mg"},{"bike_id":"cf868fa3-ec6f-4f8e-9248-697d5a90b03f","system_id":"levelo_inurba_marseille","lat":43.31273,"lon":5.40169,"is_reserved":false,"is_disabled":false,"rental_uris":{"android":"levelo://app?vid=cf868fa3-ec6f-4f8e-9248-697d5a90b03f","ios":"levelo://app?vid=cf868fa3-ec6f-4f8e-9248-697d5a90b03f"},"vehicle_type_id":"4","last_reported":1731996841,"current_range_meters":38800,"station_id":"ce4bh092rcd13ifvqd30","pricing_plan_id":"cebpf4jnsgd1na2vs0mg"},{"bike_id":"73332224-98f2-414b-87c0-bc1ba4164316","system_id":"levelo_inurba_marseille","lat":43.309388,"lon":5.401439,"is_reserved":false,"is_disabled":false,"rental_uris":{"android":"levelo://app?vid=73332224-98f2-414b-87c0-bc1ba4164316","ios":"levelo://app?vid=73332224-98f2-414b-87c0-bc1ba4164316"},"vehicle_type_id":"4","last_reported":1731996841,"current_range_meters":38800,"station_id":"ce4bgvp2rcd13ifvqct0","pricing_plan_id":"cebpf4jnsgd1na2vs0mg"},{"bike_id":"167ddbfa-b0fc-4d7d-a055-948ddb0d0bd7","system_id":"levelo_inurba_marseille","lat":43.24175,"lon":5.39723,"is_reserved":false,"is_disabled":false,"rental_uris":{"android":"levelo://app?vid=167ddbfa-b0fc-4d7d-a055-948ddb0d0bd7","ios":"levelo://app?vid=167ddbfa-b0fc-4d7d-a055-948ddb0d0bd7"},"vehicle_type_id":"4","last_reported":1731996841,"current_range_meters":33600,"station_id":"ce4bhn12rcd13ifvqgpg","pricing_plan_id":"cebpf4jnsgd1na2vs0mg"},{"bike_id":"27ccafd2-436f-46c0-b0a8-25f1f9ad69ad","system_id":"levelo_inurba_marseille","lat":43.30419,"lon":5.39748,"is_reserved":false,"is_disabled":false,"rental_uris":{"android":"levelo://app?vid=27ccafd2-436f-46c0-b0a8-25f1f9ad69ad","ios":"levelo://app?vid=27ccafd2-436f-46c0-b0a8-25f1f9ad69ad"},"vehicle_type_id":"4","last_reported":1731996841,"current_range_meters":32000,"station_id":"ce4bh092rcd13ifvqd20","pricing_plan_id":"cebpf4jnsgd1na2vs0mg"},{"bike_id":"b97a42ef-dcca-4412-9d74-eaa08abb3425","system_id":"levelo_inurba_marseille","lat":43.27198,"lon":5.39197,"is_reserved":false,"is_disabled":false,"rental_uris":{"android":"levelo://app?vid=b97a42ef-dcca-4412-9d74-eaa08abb3425","ios":"levelo://app?vid=b97a42ef-dcca-4412-9d74-eaa08abb3425"},"vehicle_type_id":"4","last_reported":1731996841,"current_range_meters":17600,"station_id":"ce4bhhp2rcd13ifvqfm0","pricing_plan_id":"cebpf4jnsgd1na2vs0mg"},{"bike_id":"9a371e54-9b5f-4d3b-8923-f341b2c5ced2","system_id":"levelo_inurba_marseille","lat":43.28703,"lon":5.39985,"is_reserved":false,"is_disabled":false,"rental_uris":{"android":"levelo://app?vid=9a371e54-9b5f-4d3b-8923-f341b2c5ced2","ios":"levelo://app?vid=9a371e54-9b5f-4d3b-8923-f341b2c5ced2"},"vehicle_type_id":"4","last_reported":1731996841,"current_range_meters":38800,"station_id":"ce4bho92rcd13ifvqh3g","pricing_plan_id":"cebpf4jnsgd1na2vs0mg"},{"bike_id":"bc249293-6395-4334-b84a-652f70f197fc","system_id":"levelo_inurba_marseille","lat":43.276284,"lon":5.426381,"is_reserved":false,"is_disabled":true,"rental_uris":{"android":"levelo://app?vid=bc249293-6395-4334-b84a-652f70f197fc","ios":"levelo://app?vid=bc249293-6395-4334-b84a-652f70f197fc"},"vehicle_type_id":"4","last_reported":1731996841,"current_range_meters":1200,"station_id":"","pricing_plan_id":"cebpf4jnsgd1na2vs0mg"},{"bike_id":"88080dad-79ab-42ee-ab8c-6a90f6713846","system_id":"levelo_inurba_marseille","lat":43.28491,"lon":5.38555,"is_reserved":false,"is_disabled":false,"rental_uris":{"android":"levelo://app?vid=88080dad-79ab-42ee-ab8c-6a90f6713846","ios":"levelo://app?vid=88080dad-79ab-42ee-ab8c-6a90f6713846"},"vehicle_type_id":"4","last_reported":1731996841,"current_range_meters":37600,"station_id":"ce4bh8p2rcd13ifvqeb0","pricing_plan_id":"cebpf4jnsgd1na2vs0mg"},{"bike_id":"5203ab47-a9f6-48ae-bdd3-3c5a5ab6ee25","system_id":"levelo_inurba_marseille","lat":43.29972,"lon":5.38492,"is_reserved":false,"is_disabled":true,"rental_uris":{"android":"levelo://app?vid=5203ab47-a9f6-48ae-bdd3-3c5a5ab6ee25","ios":"levelo://app?vid=5203ab47-a9f6-48ae-bdd3-3c5a5ab6ee25"},"vehicle_type_id":"4","last_reported":1731996841,"current_range_meters":36800,"station_id":"ce4bgj92rcd13ifvqbd0","pricing_plan_id":"cebpf4jnsgd1na2vs0mg"},{"bike_id":"be1dd5f8-91fc-4786-8461-76cd869dae13","system_id":"levelo_inurba_marseille","lat":43.31982,"lon":5.41584,"is_reserved":false,"is_disabled":false,"rental_uris":{"android":"levelo://app?vid=be1dd5f8-91fc-4786-8461-76cd869dae13","ios":"levelo://app?vid=be1dd5f8-91fc-4786-8461-76cd869dae13"},"vehicle_type_id":"4","last_reported":1731996841,"current_range_meters":27600,"station_id":"","pricing_plan_id":"cebpf4jnsgd1na2vs0mg"},{"bike_id":"a5e7f50d-fadf-4dd4-ae3f-8a3b7f953742","system_id":"levelo_inurba_marseille","lat":43.24181,"lon":5.39736,"is_reserved":false,"is_disabled":false,"rental_uris":{"android":"levelo://app?vid=a5e7f50d-fadf-4dd4-ae3f-8a3b7f953742","ios":"levelo://app?vid=a5e7f50d-fadf-4dd4-ae3f-8a3b7f953742"},"vehicle_type_id":"4","last_reported":1731996841,"current_range_meters":38800,"station_id":"ce4bhn12rcd13ifvqgpg","pricing_plan_id":"cebpf4jnsgd1na2vs0mg"},{"bike_id":"040df864-1d44-4716-9bba-b89e08f6be00","system_id":"levelo_inurba_marseille","lat":43.28622,"lon":5.35102,"is_reserved":false,"is_disabled":false,"rental_uris":{"android":"levelo://app?vid=040df864-1d44-4716-9bba-b89e08f6be00","ios":"levelo://app?vid=040df864-1d44-4716-9bba-b89e08f6be00"},"vehicle_type_id":"4","last_reported":1731996841,"current_range_meters":11200,"station_id":"ce4bhch2rcd13ifvqeug","pricing_plan_id":"cebpf4jnsgd1na2vs0mg"},{"bike_id":"e5e2248a-03d3-4b07-b4f7-fd61796e9419","system_id":"levelo_inurba_marseille","lat":43.29975,"lon":5.3809,"is_reserved":false,"is_disabled":true,"rental_uris":{"android":"levelo://app?vid=e5e2248a-03d3-4b07-b4f7-fd61796e9419","ios":"levelo://app?vid=e5e2248a-03d3-4b07-b4f7-fd61796e9419"},"vehicle_type_id":"4","last_reported":1731996841,"current_range_meters":0,"station_id":"","pricing_plan_id":"cebpf4jnsgd1na2vs0mg"},{"bike_id":"38da3766-b28c-4389-b344-8e179deaa5af","system_id":"levelo_inurba_marseille","lat":43.29254,"lon":5.40901,"is_reserved":false,"is_disabled":false,"rental_uris":{"android":"levelo://app?vid=38da3766-b28c-4389-b344-8e179deaa5af","ios":"levelo://app?vid=38da3766-b28c-4389-b344-8e179deaa5af"},"vehicle_type_id":"4","last_reported":1731996841,"current_range_meters":24800,"station_id":"ce4bh192rcd13ifvqdc0","pricing_plan_id":"cebpf4jnsgd1na2vs0mg"},{"bike_id":"7ab15835-2460-4a83-92d5-6b2c91044315","system_id":"levelo_inurba_marseille","lat":43.33608,"lon":5.41019,"is_reserved":false,"is_disabled":false,"rental_uris":{"android":"levelo://app?vid=7ab15835-2460-4a83-92d5-6b2c91044315","ios":"levelo://app?vid=7ab15835-2460-4a83-92d5-6b2c91044315"},"vehicle_type_id":"4","last_reported":1731996841,"current_range_meters":38800,"station_id":"ce4bhqh2rcd13ifvqhmg","pricing_plan_id":"cebpf4jnsgd1na2vs0mg"},{"bike_id":"56edd46b-d236-45f1-ba2f-1f7d8acc3af2","system_id":"levelo_inurba_marseille","lat":43.337444,"lon":5.374475,"is_reserved":false,"is_disabled":false,"rental_uris":{"android":"levelo://app?vid=56edd46b-d236-45f1-ba2f-1f7d8acc3af2","ios":"levelo://app?vid=56edd46b-d236-45f1-ba2f-1f7d8acc3af2"},"vehicle_type_id":"4","last_reported":1731996841,"current_range_meters":35600,"station_id":"","pricing_plan_id":"cebpf4jnsgd1na2vs0mg"},{"bike_id":"5834ee09-4357-45e5-874f-df75212d88c9","system_id":"levelo_inurba_marseille","lat":43.30652,"lon":5.40086,"is_reserved":false,"is_disabled":false,"rental_uris":{"android":"levelo://app?vid=5834ee09-4357-45e5-874f-df75212d88c9","ios":"levelo://app?vid=5834ee09-4357-45e5-874f-df75212d88c9"},"vehicle_type_id":"4","last_reported":1731996841,"current_range_meters":38800,"station_id":"ce4bh112rcd13ifvqda0","pricing_plan_id":"cebpf4jnsgd1na2vs0mg"},{"bike_id":"e50796fb-dacb-48fc-9bce-fef14a9f4c74","system_id":"levelo_inurba_marseille","lat":43.29253,"lon":5.40925,"is_reserved":false,"is_disabled":false,"rental_uris":{"android":"levelo://app?vid=e50796fb-dacb-48fc-9bce-fef14a9f4c74","ios":"levelo://app?vid=e50796fb-dacb-48fc-9bce-fef14a9f4c74"},"vehicle_type_id":"4","last_reported":1731996841,"current_range_meters":38800,"station_id":"ce4bh192rcd13ifvqdc0","pricing_plan_id":"cebpf4jnsgd1na2vs0mg"},{"bike_id":"e4f9cc0f-319a-443a-a84b-8e045f7b918f","system_id":"levelo_inurba_marseille","lat":43.31755,"lon":5.39023,"is_reserved":false,"is_disabled":false,"rental_uris":{"android":"levelo://app?vid=e4f9cc0f-319a-443a-a84b-8e045f7b918f","ios":"levelo://app?vid=e4f9cc0f-319a-443a-a84b-8e045f7b918f"},"vehicle_type_id":"4","last_reported":1731996841,"current_range_meters":24400,"station_id":"ce4bhqp2rcd13ifvqhng","pricing_plan_id":"cebpf4jnsgd1na2vs0mg"},{"bike_id":"3e7c1d72-50d4-415d-af23-59fde5cd919a","system_id":"levelo_inurba_marseille","lat":43.28668,"lon":5.36346,"is_reserved":false,"is_disabled":false,"rental_uris":{"android":"levelo://app?vid=3e7c1d72-50d4-415d-af23-59fde5cd919a","ios":"levelo://app?vid=3e7c1d72-50d4-415d-af23-59fde5cd919a"},"vehicle_type_id":"4","last_reported":1731996841,"current_range_meters":38800,"station_id":"ce4bhah2rcd13ifvqej0","pricing_plan_id":"cebpf4jnsgd1na2vs0mg"},{"bike_id":"cd3ead8f-e453-49dc-8a7f-902dde01b246","system_id":"levelo_inurba_marseille","lat":43.28864,"lon":5.35834,"is_reserved":false,"is_disabled":false,"rental_uris":{"android":"levelo://app?vid=cd3ead8f-e453-49dc-8a7f-902dde01b246","ios":"levelo://app?vid=cd3ead8f-e453-49dc-8a7f-902dde01b246"},"vehicle_type_id":"4","last_reported":1731996841,"current_range_meters":24800,"station_id":"ce4bhb12rcd13ifvqem0","pricing_plan_id":"cebpf4jnsgd1na2vs0mg"},{"bike_id":"fb47a6a4-7b4b-4a3c-95dd-dc0f50bc1fee","system_id":"levelo_inurba_marseille","lat":43.25831,"lon":5.39437,"is_reserved":false,"is_disabled":false,"rental_uris":{"android":"levelo://app?vid=fb47a6a4-7b4b-4a3c-95dd-dc0f50bc1fee","ios":"levelo://app?vid=fb47a6a4-7b4b-4a3c-95dd-dc0f50bc1fee"},"vehicle_type_id":"4","last_reported":1731996841,"current_range_meters":8800,"station_id":"ce4bhip2rcd13ifvqft0","pricing_plan_id":"cebpf4jnsgd1na2vs0mg"},{"bike_id":"618a85f3-bc61-4460-841b-435e41c20030","system_id":"levelo_inurba_marseille","lat":43.27068,"lon":5.4228,"is_reserved":false,"is_disabled":false,"rental_uris":{"android":"levelo://app?vid=618a85f3-bc61-4460-841b-435e41c20030","ios":"levelo://app?vid=618a85f3-bc61-4460-841b-435e41c20030"},"vehicle_type_id":"4","last_reported":1731996841,"current_range_meters":31200,"station_id":"ce4bhk92rcd13ifvqgb0","pricing_plan_id":"cebpf4jnsgd1na2vs0mg"},{"bike_id":"5bbcd2f3-be5f-45bd-b4a5-6aad5ec279d4","system_id":"levelo_inurba_marseille","lat":43.3081,"lon":5.38148,"is_reserved":false,"is_disabled":false,"rental_uris":{"android":"levelo://app?vid=5bbcd2f3-be5f-45bd-b4a5-6aad5ec279d4","ios":"levelo://app?vid=5bbcd2f3-be5f-45bd-b4a5-6aad5ec279d4"},"vehicle_type_id":"4","last_reported":1731996841,"current_range_meters":36000,"station_id":"ce4bgt12rcd13ifvqce0","pricing_plan_id":"cebpf4jnsgd1na2vs0mg"},{"bike_id":"e6e635eb-b5ad-43ca-8877-6b05cff2731c","system_id":"levelo_inurba_marseille","lat":43.31275,"lon":5.40171,"is_reserved":false,"is_disabled":false,"rental_uris":{"android":"levelo://app?vid=e6e635eb-b5ad-43ca-8877-6b05cff2731c","ios":"levelo://app?vid=e6e635eb-b5ad-43ca-8877-6b05cff2731c"},"vehicle_type_id":"4","last_reported":1731996841,"current_range_meters":6000,"station_id":"ce4bh092rcd13ifvqd30","pricing_plan_id":"cebpf4jnsgd1na2vs0mg"},{"bike_id":"a00b265b-c17e-4905-9fd9-586340bd79fa","system_id":"levelo_inurba_marseille","lat":43.29284,"lon":5.40124,"is_reserved":false,"is_disabled":false,"rental_uris":{"android":"levelo://app?vid=a00b265b-c17e-4905-9fd9-586340bd79fa","ios":"levelo://app?vid=a00b265b-c17e-4905-9fd9-586340bd79fa"},"vehicle_type_id":"4","last_reported":1731996841,"current_range_meters":21600,"station_id":"ce4bh312rcd13ifvqdk0","pricing_plan_id":"cebpf4jnsgd1na2vs0mg"},{"bike_id":"7d9dec71-929d-4cd9-b59c-bb65c038fe1b","system_id":"levelo_inurba_marseille","lat":43.31367,"lon":5.38496,"is_reserved":false,"is_disabled":false,"rental_uris":{"android":"levelo://app?vid=7d9dec71-929d-4cd9-b59c-bb65c038fe1b","ios":"levelo://app?vid=7d9dec71-929d-4cd9-b59c-bb65c038fe1b"},"vehicle_type_id":"4","last_reported":1731996841,"current_range_meters":16800,"station_id":"ce4bgt92rcd13ifvqcf0","pricing_plan_id":"cebpf4jnsgd1na2vs0mg"},{"bike_id":"ccdd101a-56eb-4bf3-a021-299108acbe65","system_id":"levelo_inurba_marseille","lat":43.28412,"lon":5.34996,"is_reserved":false,"is_disabled":false,"rental_uris":{"android":"levelo://app?vid=ccdd101a-56eb-4bf3-a021-299108acbe65","ios":"levelo://app?vid=ccdd101a-56eb-4bf3-a021-299108acbe65"},"vehicle_type_id":"4","last_reported":1731996841,"current_range_meters":8800,"station_id":"ce4bhbh2rcd13ifvqepg","pricing_plan_id":"cebpf4jnsgd1na2vs0mg"},{"bike_id":"4a8bedd5-13ef-41b7-ab94-06d26984acbc","system_id":"levelo_inurba_marseille","lat":43.279751,"lon":5.387393,"is_reserved":false,"is_disabled":false,"rental_uris":{"android":"levelo://app?vid=4a8bedd5-13ef-41b7-ab94-06d26984acbc","ios":"levelo://app?vid=4a8bedd5-13ef-41b7-ab94-06d26984acbc"},"vehicle_type_id":"4","last_reported":1731996841,"current_range_meters":9600,"station_id":"ce4bhg12rcd13ifvqf80","pricing_plan_id":"cebpf4jnsgd1na2vs0mg"},{"bike_id":"0c21866d-64a6-48bd-84ec-2cdb016bb953","system_id":"levelo_inurba_marseille","lat":43.24397,"lon":5.37066,"is_reserved":false,"is_disabled":true,"rental_uris":{"android":"levelo://app?vid=0c21866d-64a6-48bd-84ec-2cdb016bb953","ios":"levelo://app?vid=0c21866d-64a6-48bd-84ec-2cdb016bb953"},"vehicle_type_id":"4","last_reported":1731996841,"current_range_meters":0,"station_id":"ce4bhhh2rcd13ifvqfk0","pricing_plan_id":"cebpf4jnsgd1na2vs0mg"},{"bike_id":"9259f49b-4b91-43eb-905a-8db55884b4a4","system_id":"levelo_inurba_marseille","lat":43.30425,"lon":5.3975,"is_reserved":false,"is_disabled":false,"rental_uris":{"android":"levelo://app?vid=9259f49b-4b91-43eb-905a-8db55884b4a4","ios":"levelo://app?vid=9259f49b-4b91-43eb-905a-8db55884b4a4"},"vehicle_type_id":"4","last_reported":1731996841,"current_range_meters":39200,"station_id":"ce4bh092rcd13ifvqd20","pricing_plan_id":"cebpf4jnsgd1na2vs0mg"},{"bike_id":"8d9c7874-6ecd-4ea0-a9e8-ef53041c8d83","system_id":"levelo_inurba_marseille","lat":43.31359,"lon":5.38506,"is_reserved":false,"is_disabled":true,"rental_uris":{"android":"levelo://app?vid=8d9c7874-6ecd-4ea0-a9e8-ef53041c8d83","ios":"levelo://app?vid=8d9c7874-6ecd-4ea0-a9e8-ef53041c8d83"},"vehicle_type_id":"4","last_reported":1731996841,"current_range_meters":36800,"station_id":"ce4bgt92rcd13ifvqcf0","pricing_plan_id":"cebpf4jnsgd1na2vs0mg"},{"bike_id":"1f8e31eb-4609-4ceb-8188-fd61d64a2da3","system_id":"levelo_inurba_marseille","lat":43.28468,"lon":5.35873,"is_reserved":false,"is_disabled":false,"rental_uris":{"android":"levelo://app?vid=1f8e31eb-4609-4ceb-8188-fd61d64a2da3","ios":"levelo://app?vid=1f8e31eb-4609-4ceb-8188-fd61d64a2da3"},"vehicle_type_id":"4","last_reported":1731996841,"current_range_meters":35600,"station_id":"ce4bhah2rcd13ifvqei0","pricing_plan_id":"cebpf4jnsgd1na2vs0mg"},{"bike_id":"d6e54eb8-b569-4670-b12b-fc7e345ccec9","system_id":"levelo_inurba_marseille","lat":43.297406,"lon":5.376711,"is_reserved":false,"is_disabled":true,"rental_uris":{"android":"levelo://app?vid=d6e54eb8-b569-4670-b12b-fc7e345ccec9","ios":"levelo://app?vid=d6e54eb8-b569-4670-b12b-fc7e345ccec9"},"vehicle_type_id":"4","last_reported":1731996841,"current_range_meters":37600,"station_id":"ce4bgkh2rcd13ifvqbl0","pricing_plan_id":"cebpf4jnsgd1na2vs0mg"},{"bike_id":"56ca7ad4-b2bd-4eec-9adc-55deefdaf200","system_id":"levelo_inurba_marseille","lat":43.29,"lon":5.35609,"is_reserved":false,"is_disabled":false,"rental_uris":{"android":"levelo://app?vid=56ca7ad4-b2bd-4eec-9adc-55deefdaf200","ios":"levelo://app?vid=56ca7ad4-b2bd-4eec-9adc-55deefdaf200"},"vehicle_type_id":"4","last_reported":1731996841,"current_range_meters":24400,"station_id":"ce4bhb92rcd13ifvqen0","pricing_plan_id":"cebpf4jnsgd1na2vs0mg"},{"bike_id":"cd75eccf-6644-4ce9-b3ae-17a02a26ec35","system_id":"levelo_inurba_marseille","lat":43.31344,"lon":5.367,"is_reserved":false,"is_disabled":false,"rental_uris":{"android":"levelo://app?vid=cd75eccf-6644-4ce9-b3ae-17a02a26ec35","ios":"levelo://app?vid=cd75eccf-6644-4ce9-b3ae-17a02a26ec35"},"vehicle_type_id":"4","last_reported":1731996841,"current_range_meters":35200,"station_id":"ce4bgr92rcd13ifvqc6g","pricing_plan_id":"cebpf4jnsgd1na2vs0mg"},{"bike_id":"c1f087b2-5f14-464b-ae83-abad4c5e4ebb","system_id":"levelo_inurba_marseille","lat":43.25579,"lon":5.38235,"is_reserved":false,"is_disabled":false,"rental_uris":{"android":"levelo://app?vid=c1f087b2-5f14-464b-ae83-abad4c5e4ebb","ios":"levelo://app?vid=c1f087b2-5f14-464b-ae83-abad4c5e4ebb"},"vehicle_type_id":"4","last_reported":1731996841,"current_range_meters":8000,"station_id":"ce4bhih2rcd13ifvqfs0","pricing_plan_id":"cebpf4jnsgd1na2vs0mg"},{"bike_id":"259149ad-c421-466a-ad0c-fd16e04ce6fa","system_id":"levelo_inurba_marseille","lat":43.28467,"lon":5.3588,"is_reserved":false,"is_disabled":false,"rental_uris":{"android":"levelo://app?vid=259149ad-c421-466a-ad0c-fd16e04ce6fa","ios":"levelo://app?vid=259149ad-c421-466a-ad0c-fd16e04ce6fa"},"vehicle_type_id":"4","last_reported":1731996841,"current_range_meters":27600,"station_id":"ce4bhah2rcd13ifvqei0","pricing_plan_id":"cebpf4jnsgd1na2vs0mg"},{"bike_id":"a359d6fa-a488-4138-99b4-1b76a9ba4cf0","system_id":"levelo_inurba_marseille","lat":43.2558,"lon":5.38242,"is_reserved":false,"is_disabled":false,"rental_uris":{"android":"levelo://app?vid=a359d6fa-a488-4138-99b4-1b76a9ba4cf0","ios":"levelo://app?vid=a359d6fa-a488-4138-99b4-1b76a9ba4cf0"},"vehicle_type_id":"4","last_reported":1731996841,"current_range_meters":22000,"station_id":"ce4bhih2rcd13ifvqfs0","pricing_plan_id":"cebpf4jnsgd1na2vs0mg"},{"bike_id":"cc94800f-8f00-4fa2-8321-7ffb60c60a1c","system_id":"levelo_inurba_marseille","lat":43.2844,"lon":5.35899,"is_reserved":false,"is_disabled":false,"rental_uris":{"android":"levelo://app?vid=cc94800f-8f00-4fa2-8321-7ffb60c60a1c","ios":"levelo://app?vid=cc94800f-8f00-4fa2-8321-7ffb60c60a1c"},"vehicle_type_id":"4","last_reported":1731996841,"current_range_meters":26800,"station_id":"ce4bhah2rcd13ifvqei0","pricing_plan_id":"cebpf4jnsgd1na2vs0mg"},{"bike_id":"38ebe37d-de79-4977-8492-009f6a25b7be","system_id":"levelo_inurba_marseille","lat":43.28722,"lon":5.39994,"is_reserved":false,"is_disabled":true,"rental_uris":{"android":"levelo://app?vid=38ebe37d-de79-4977-8492-009f6a25b7be","ios":"levelo://app?vid=38ebe37d-de79-4977-8492-009f6a25b7be"},"vehicle_type_id":"4","last_reported":1731996841,"current_range_meters":20800,"station_id":"ce4bho92rcd13ifvqh3g","pricing_plan_id":"cebpf4jnsgd1na2vs0mg"},{"bike_id":"d769defc-7b7e-4e9d-a1e1-d7c7dcb053db","system_id":"levelo_inurba_marseille","lat":43.29231,"lon":5.36054,"is_reserved":false,"is_disabled":false,"rental_uris":{"android":"levelo://app?vid=d769defc-7b7e-4e9d-a1e1-d7c7dcb053db","ios":"levelo://app?vid=d769defc-7b7e-4e9d-a1e1-d7c7dcb053db"},"vehicle_type_id":"4","last_reported":1731996841,"current_range_meters":24400,"station_id":"ce4bhbh2rcd13ifvqeqg","pricing_plan_id":"cebpf4jnsgd1na2vs0mg"},{"bike_id":"0b733133-03c9-4766-961e-92b775b50bbc","system_id":"levelo_inurba_marseille","lat":43.28193,"lon":5.44267,"is_reserved":false,"is_disabled":true,"rental_uris":{"android":"levelo://app?vid=0b733133-03c9-4766-961e-92b775b50bbc","ios":"levelo://app?vid=0b733133-03c9-4766-961e-92b775b50bbc"},"vehicle_type_id":"4","last_reported":1731996841,"current_range_meters":0,"station_id":"","pricing_plan_id":"cebpf4jnsgd1na2vs0mg"},{"bike_id":"74eb70e9-b94e-49a5-9a48-368b4be133db","system_id":"levelo_inurba_marseille","lat":43.307978,"lon":5.435244,"is_reserved":false,"is_disabled":false,"rental_uris":{"android":"levelo://app?vid=74eb70e9-b94e-49a5-9a48-368b4be133db","ios":"levelo://app?vid=74eb70e9-b94e-49a5-9a48-368b4be133db"},"vehicle_type_id":"4","last_reported":1731996841,"current_range_meters":39200,"station_id":"ce4bhph2rcd13ifvqheg","pricing_plan_id":"cebpf4jnsgd1na2vs0mg"},{"bike_id":"4cba050b-d851-4ee5-8ce0-ea7f25d9c27b","system_id":"levelo_inurba_marseille","lat":43.27496,"lon":5.42452,"is_reserved":false,"is_disabled":true,"rental_uris":{"android":"levelo://app?vid=4cba050b-d851-4ee5-8ce0-ea7f25d9c27b","ios":"levelo://app?vid=4cba050b-d851-4ee5-8ce0-ea7f25d9c27b"},"vehicle_type_id":"4","last_reported":1731996841,"current_range_meters":37600,"station_id":"ce4bhn92rcd13ifvqgrg","pricing_plan_id":"cebpf4jnsgd1na2vs0mg"},{"bike_id":"9db7024c-b22d-4087-a30c-ba8f27a72aca","system_id":"levelo_inurba_marseille","lat":43.28105,"lon":5.37839,"is_reserved":false,"is_disabled":false,"rental_uris":{"android":"levelo://app?vid=9db7024c-b22d-4087-a30c-ba8f27a72aca","ios":"levelo://app?vid=9db7024c-b22d-4087-a30c-ba8f27a72aca"},"vehicle_type_id":"4","last_reported":1731996841,"current_range_meters":23200,"station_id":"ce4bha12rcd13ifvqee0","pricing_plan_id":"cebpf4jnsgd1na2vs0mg"},{"bike_id":"f03e518a-de83-48c5-b6ba-4233cefb3772","system_id":"levelo_inurba_marseille","lat":43.28929,"lon":5.38419,"is_reserved":false,"is_disabled":false,"rental_uris":{"android":"levelo://app?vid=f03e518a-de83-48c5-b6ba-4233cefb3772","ios":"levelo://app?vid=f03e518a-de83-48c5-b6ba-4233cefb3772"},"vehicle_type_id":"4","last_reported":1731996841,"current_range_meters":35600,"station_id":"ce4bh612rcd13ifvqe6g","pricing_plan_id":"cebpf4jnsgd1na2vs0mg"},{"bike_id":"6c2dd7f5-7f3e-4bb8-81f0-79c964fbb591","system_id":"levelo_inurba_marseille","lat":43.28258,"lon":5.35072,"is_reserved":false,"is_disabled":false,"rental_uris":{"android":"levelo://app?vid=6c2dd7f5-7f3e-4bb8-81f0-79c964fbb591","ios":"levelo://app?vid=6c2dd7f5-7f3e-4bb8-81f0-79c964fbb591"},"vehicle_type_id":"4","last_reported":1731996841,"current_range_meters":38800,"station_id":"ce4bhbp2rcd13ifvqerg","pricing_plan_id":"cebpf4jnsgd1na2vs0mg"},{"bike_id":"9082f350-f064-4220-a24a-7c400d315f3b","system_id":"levelo_inurba_marseille","lat":43.2408,"lon":5.37755,"is_reserved":false,"is_disabled":false,"rental_uris":{"android":"levelo://app?vid=9082f350-f064-4220-a24a-7c400d315f3b","ios":"levelo://app?vid=9082f350-f064-4220-a24a-7c400d315f3b"},"vehicle_type_id":"4","last_reported":1731996841,"current_range_meters":37600,"station_id":"ce4bhnp2rcd13ifvqgvg","pricing_plan_id":"cebpf4jnsgd1na2vs0mg"},{"bike_id":"b1d7f5ad-ff48-400d-b7ef-e34013d555c6","system_id":"levelo_inurba_marseille","lat":43.31328,"lon":5.39699,"is_reserved":false,"is_disabled":false,"rental_uris":{"android":"levelo://app?vid=b1d7f5ad-ff48-400d-b7ef-e34013d555c6","ios":"levelo://app?vid=b1d7f5ad-ff48-400d-b7ef-e34013d555c6"},"vehicle_type_id":"4","last_reported":1731996841,"current_range_meters":6800,"station_id":"ce4bgvp2rcd13ifvqcu0","pricing_plan_id":"cebpf4jnsgd1na2vs0mg"},{"bike_id":"10ba5291-dc90-4cec-9eef-6ba60230d798","system_id":"levelo_inurba_marseille","lat":43.31079,"lon":5.38357,"is_reserved":false,"is_disabled":false,"rental_uris":{"android":"levelo://app?vid=10ba5291-dc90-4cec-9eef-6ba60230d798","ios":"levelo://app?vid=10ba5291-dc90-4cec-9eef-6ba60230d798"},"vehicle_type_id":"4","last_reported":1731996841,"current_range_meters":35600,"station_id":"ce4bgv92rcd13ifvqcr0","pricing_plan_id":"cebpf4jnsgd1na2vs0mg"},{"bike_id":"bf616fda-0885-4bcf-8258-bc47aa3041a1","system_id":"levelo_inurba_marseille","lat":43.32421,"lon":5.3672,"is_reserved":false,"is_disabled":false,"rental_uris":{"android":"levelo://app?vid=bf616fda-0885-4bcf-8258-bc47aa3041a1","ios":"levelo://app?vid=bf616fda-0885-4bcf-8258-bc47aa3041a1"},"vehicle_type_id":"4","last_reported":1731996841,"current_range_meters":24000,"station_id":"ce4bhs12rcd13ifvqhvg","pricing_plan_id":"cebpf4jnsgd1na2vs0mg"},{"bike_id":"ec6cb356-e15a-42b9-8cc2-86d49b84eef6","system_id":"levelo_inurba_marseille","lat":43.28401,"lon":5.37532,"is_reserved":false,"is_disabled":false,"rental_uris":{"android":"levelo://app?vid=ec6cb356-e15a-42b9-8cc2-86d49b84eef6","ios":"levelo://app?vid=ec6cb356-e15a-42b9-8cc2-86d49b84eef6"},"vehicle_type_id":"4","last_reported":1731996841,"current_range_meters":31200,"station_id":"ce4bh412rcd13ifvqds0","pricing_plan_id":"cebpf4jnsgd1na2vs0mg"},{"bike_id":"71324b49-1f17-4af6-89f7-e3218a4d4e19","system_id":"levelo_inurba_marseille","lat":43.240699,"lon":5.377599,"is_reserved":false,"is_disabled":false,"rental_uris":{"android":"levelo://app?vid=71324b49-1f17-4af6-89f7-e3218a4d4e19","ios":"levelo://app?vid=71324b49-1f17-4af6-89f7-e3218a4d4e19"},"vehicle_type_id":"4","last_reported":1731996841,"current_range_meters":38800,"station_id":"ce4bhnp2rcd13ifvqgvg","pricing_plan_id":"cebpf4jnsgd1na2vs0mg"},{"bike_id":"6799c54c-4cd6-4d25-a1cb-a4067a584a72","system_id":"levelo_inurba_marseille","lat":43.33721,"lon":5.39185,"is_reserved":false,"is_disabled":false,"rental_uris":{"android":"levelo://app?vid=6799c54c-4cd6-4d25-a1cb-a4067a584a72","ios":"levelo://app?vid=6799c54c-4cd6-4d25-a1cb-a4067a584a72"},"vehicle_type_id":"4","last_reported":1731996841,"current_range_meters":14800,"station_id":"ce4bhr92rcd13ifvqhsg","pricing_plan_id":"cebpf4jnsgd1na2vs0mg"},{"bike_id":"9fb0acf0-02ee-43e1-8a36-3f564bbba08b","system_id":"levelo_inurba_marseille","lat":43.32367,"lon":5.38886,"is_reserved":false,"is_disabled":false,"rental_uris":{"android":"levelo://app?vid=9fb0acf0-02ee-43e1-8a36-3f564bbba08b","ios":"levelo://app?vid=9fb0acf0-02ee-43e1-8a36-3f564bbba08b"},"vehicle_type_id":"4","last_reported":1731996841,"current_range_meters":18000,"station_id":"ce4bhqp2rcd13ifvqhog","pricing_plan_id":"cebpf4jnsgd1na2vs0mg"},{"bike_id":"20d43469-0b35-4110-9c40-be0f1a781705","system_id":"levelo_inurba_marseille","lat":43.26212,"lon":5.37445,"is_reserved":false,"is_disabled":false,"rental_uris":{"android":"levelo://app?vid=20d43469-0b35-4110-9c40-be0f1a781705","ios":"levelo://app?vid=20d43469-0b35-4110-9c40-be0f1a781705"},"vehicle_type_id":"4","last_reported":1731996841,"current_range_meters":28400,"station_id":"ce4bhgp2rcd13ifvqfc0","pricing_plan_id":"cebpf4jnsgd1na2vs0mg"},{"bike_id":"8cdf5ae8-9ef9-4e04-847c-7d210ae183df","system_id":"levelo_inurba_marseille","lat":43.291895,"lon":5.393099,"is_reserved":false,"is_disabled":false,"rental_uris":{"android":"levelo://app?vid=8cdf5ae8-9ef9-4e04-847c-7d210ae183df","ios":"levelo://app?vid=8cdf5ae8-9ef9-4e04-847c-7d210ae183df"},"vehicle_type_id":"4","last_reported":1731996841,"current_range_meters":9200,"station_id":"ce4bh192rcd13ifvqdd0","pricing_plan_id":"cebpf4jnsgd1na2vs0mg"},{"bike_id":"9f1dfffb-1213-4f6e-84d3-a2f0789a9ef3","system_id":"levelo_inurba_marseille","lat":43.27613,"lon":5.3587,"is_reserved":false,"is_disabled":true,"rental_uris":{"android":"levelo://app?vid=9f1dfffb-1213-4f6e-84d3-a2f0789a9ef3","ios":"levelo://app?vid=9f1dfffb-1213-4f6e-84d3-a2f0789a9ef3"},"vehicle_type_id":"4","last_reported":1731996841,"current_range_meters":0,"station_id":"","pricing_plan_id":"cebpf4jnsgd1na2vs0mg"},{"bike_id":"8dfe3502-1a44-41d0-93ec-2f8847296f61","system_id":"levelo_inurba_marseille","lat":43.29202,"lon":5.35792,"is_reserved":false,"is_disabled":true,"rental_uris":{"android":"levelo://app?vid=8dfe3502-1a44-41d0-93ec-2f8847296f61","ios":"levelo://app?vid=8dfe3502-1a44-41d0-93ec-2f8847296f61"},"vehicle_type_id":"4","last_reported":1731996841,"current_range_meters":38000,"station_id":"ce4bhb12rcd13ifvqel0","pricing_plan_id":"cebpf4jnsgd1na2vs0mg"},{"bike_id":"954054ad-77ac-46c3-a1b5-c8fc266a522b","system_id":"levelo_inurba_marseille","lat":43.31725,"lon":5.42397,"is_reserved":false,"is_disabled":false,"rental_uris":{"android":"levelo://app?vid=954054ad-77ac-46c3-a1b5-c8fc266a522b","ios":"levelo://app?vid=954054ad-77ac-46c3-a1b5-c8fc266a522b"},"vehicle_type_id":"4","last_reported":1731996841,"current_range_meters":38800,"station_id":"ce4bhp92rcd13ifvqhbg","pricing_plan_id":"cebpf4jnsgd1na2vs0mg"},{"bike_id":"a6ee1dcb-4edc-42e6-9da7-66850f6eb400","system_id":"levelo_inurba_marseille","lat":43.307808,"lon":5.37658,"is_reserved":false,"is_disabled":false,"rental_uris":{"android":"levelo://app?vid=a6ee1dcb-4edc-42e6-9da7-66850f6eb400","ios":"levelo://app?vid=a6ee1dcb-4edc-42e6-9da7-66850f6eb400"},"vehicle_type_id":"4","last_reported":1731996841,"current_range_meters":38800,"station_id":"ce4bgv92rcd13ifvqcq0","pricing_plan_id":"cebpf4jnsgd1na2vs0mg"},{"bike_id":"3d8a906b-bc54-409f-946c-a9fd907f86c0","system_id":"levelo_inurba_marseille","lat":43.28457,"lon":5.35879,"is_reserved":false,"is_disabled":false,"rental_uris":{"android":"levelo://app?vid=3d8a906b-bc54-409f-946c-a9fd907f86c0","ios":"levelo://app?vid=3d8a906b-bc54-409f-946c-a9fd907f86c0"},"vehicle_type_id":"4","last_reported":1731996841,"current_range_meters":32000,"station_id":"ce4bhah2rcd13ifvqei0","pricing_plan_id":"cebpf4jnsgd1na2vs0mg"},{"bike_id":"349eccbc-c382-43e7-9593-9ce510178580","system_id":"levelo_inurba_marseille","lat":43.29788,"lon":5.39353,"is_reserved":false,"is_disabled":false,"rental_uris":{"android":"levelo://app?vid=349eccbc-c382-43e7-9593-9ce510178580","ios":"levelo://app?vid=349eccbc-c382-43e7-9593-9ce510178580"},"vehicle_type_id":"4","last_reported":1731996841,"current_range_meters":37600,"station_id":"chh1huq6cuj3fo74tm60","pricing_plan_id":"cebpf4jnsgd1na2vs0mg"},{"bike_id":"2d983866-913c-4390-ae48-1873d10c9730","system_id":"levelo_inurba_marseille","lat":43.24812,"lon":5.37457,"is_reserved":false,"is_disabled":true,"rental_uris":{"android":"levelo://app?vid=2d983866-913c-4390-ae48-1873d10c9730","ios":"levelo://app?vid=2d983866-913c-4390-ae48-1873d10c9730"},"vehicle_type_id":"4","last_reported":1731996841,"current_range_meters":17600,"station_id":"ce4bhgh2rcd13ifvqfb0","pricing_plan_id":"cebpf4jnsgd1na2vs0mg"},{"bike_id":"b58c312e-cfea-4a23-9b97-25998bf5f86d","system_id":"levelo_inurba_marseille","lat":43.28714,"lon":5.37942,"is_reserved":false,"is_disabled":false,"rental_uris":{"android":"levelo://app?vid=b58c312e-cfea-4a23-9b97-25998bf5f86d","ios":"levelo://app?vid=b58c312e-cfea-4a23-9b97-25998bf5f86d"},"vehicle_type_id":"4","last_reported":1731996841,"current_range_meters":37600,"station_id":"ce4bh9p2rcd13ifvqec0","pricing_plan_id":"cebpf4jnsgd1na2vs0mg"},{"bike_id":"6206c203-9987-4880-9ff1-b729e39e03d6","system_id":"levelo_inurba_marseille","lat":43.30889,"lon":5.39654,"is_reserved":false,"is_disabled":false,"rental_uris":{"android":"levelo://app?vid=6206c203-9987-4880-9ff1-b729e39e03d6","ios":"levelo://app?vid=6206c203-9987-4880-9ff1-b729e39e03d6"},"vehicle_type_id":"4","last_reported":1731996841,"current_range_meters":38400,"station_id":"ce4bh012rcd13ifvqcv0","pricing_plan_id":"cebpf4jnsgd1na2vs0mg"},{"bike_id":"23652d48-f01f-4bbf-a184-4995db5230ae","system_id":"levelo_inurba_marseille","lat":43.30126,"lon":5.38103,"is_reserved":false,"is_disabled":false,"rental_uris":{"android":"levelo://app?vid=23652d48-f01f-4bbf-a184-4995db5230ae","ios":"levelo://app?vid=23652d48-f01f-4bbf-a184-4995db5230ae"},"vehicle_type_id":"4","last_reported":1731996841,"current_range_meters":24800,"station_id":"ce4bgjp2rcd13ifvqbh0","pricing_plan_id":"cebpf4jnsgd1na2vs0mg"},{"bike_id":"37d60d93-8316-4ddc-b2ac-057e596bc0b2","system_id":"levelo_inurba_marseille","lat":43.27995,"lon":5.40018,"is_reserved":false,"is_disabled":false,"rental_uris":{"android":"levelo://app?vid=37d60d93-8316-4ddc-b2ac-057e596bc0b2","ios":"levelo://app?vid=37d60d93-8316-4ddc-b2ac-057e596bc0b2"},"vehicle_type_id":"4","last_reported":1731996841,"current_range_meters":37600,"station_id":"ce4bho92rcd13ifvqh4g","pricing_plan_id":"cebpf4jnsgd1na2vs0mg"},{"bike_id":"021bab09-ef75-4888-a761-f6d23f07fc6a","system_id":"levelo_inurba_marseille","lat":43.29033,"lon":5.3996,"is_reserved":false,"is_disabled":false,"rental_uris":{"android":"levelo://app?vid=021bab09-ef75-4888-a761-f6d23f07fc6a","ios":"levelo://app?vid=021bab09-ef75-4888-a761-f6d23f07fc6a"},"vehicle_type_id":"4","last_reported":1731996841,"current_range_meters":30000,"station_id":"ce4bh392rcd13ifvqdm0","pricing_plan_id":"cebpf4jnsgd1na2vs0mg"},{"bike_id":"63437fd1-6f50-4e77-a820-dcbc60915f76","system_id":"levelo_inurba_marseille","lat":43.246495,"lon":5.388995,"is_reserved":false,"is_disabled":false,"rental_uris":{"android":"levelo://app?vid=63437fd1-6f50-4e77-a820-dcbc60915f76","ios":"levelo://app?vid=63437fd1-6f50-4e77-a820-dcbc60915f76"},"vehicle_type_id":"4","last_reported":1731996841,"current_range_meters":6400,"station_id":"ce4bhg12rcd13ifvqf60","pricing_plan_id":"cebpf4jnsgd1na2vs0mg"},{"bike_id":"30271978-1e98-4d7f-b685-efe46d6b6ad7","system_id":"levelo_inurba_marseille","lat":43.290414,"lon":5.399651,"is_reserved":false,"is_disabled":false,"rental_uris":{"android":"levelo://app?vid=30271978-1e98-4d7f-b685-efe46d6b6ad7","ios":"levelo://app?vid=30271978-1e98-4d7f-b685-efe46d6b6ad7"},"vehicle_type_id":"4","last_reported":1731996841,"current_range_meters":30400,"station_id":"ce4bh392rcd13ifvqdm0","pricing_plan_id":"cebpf4jnsgd1na2vs0mg"},{"bike_id":"3f2535ef-a383-4045-9ba4-aa662bf8b063","system_id":"levelo_inurba_marseille","lat":43.29906,"lon":5.43665,"is_reserved":false,"is_disabled":false,"rental_uris":{"android":"levelo://app?vid=3f2535ef-a383-4045-9ba4-aa662bf8b063","ios":"levelo://app?vid=3f2535ef-a383-4045-9ba4-aa662bf8b063"},"vehicle_type_id":"4","last_reported":1731996841,"current_range_meters":38000,"station_id":"ce4bhpp2rcd13ifvqhfg","pricing_plan_id":"cebpf4jnsgd1na2vs0mg"},{"bike_id":"4430c7fe-75c4-4750-ade5-2860cae79f17","system_id":"levelo_inurba_marseille","lat":43.23158,"lon":5.43711,"is_reserved":false,"is_disabled":false,"rental_uris":{"android":"levelo://app?vid=4430c7fe-75c4-4750-ade5-2860cae79f17","ios":"levelo://app?vid=4430c7fe-75c4-4750-ade5-2860cae79f17"},"vehicle_type_id":"4","last_reported":1731996841,"current_range_meters":9600,"station_id":"ce4bhmp2rcd13ifvqgog","pricing_plan_id":"cebpf4jnsgd1na2vs0mg"},{"bike_id":"2131484c-a005-4900-a846-112d1fafe6f3","system_id":"levelo_inurba_marseille","lat":43.29867,"lon":5.39748,"is_reserved":false,"is_disabled":false,"rental_uris":{"android":"levelo://app?vid=2131484c-a005-4900-a846-112d1fafe6f3","ios":"levelo://app?vid=2131484c-a005-4900-a846-112d1fafe6f3"},"vehicle_type_id":"4","last_reported":1731996841,"current_range_meters":38800,"station_id":"ce4bh0h2rcd13ifvqd50","pricing_plan_id":"cebpf4jnsgd1na2vs0mg"},{"bike_id":"e264033a-f915-4b27-a08a-2f42cfcf052a","system_id":"levelo_inurba_marseille","lat":43.337444,"lon":5.374475,"is_reserved":false,"is_disabled":false,"rental_uris":{"android":"levelo://app?vid=e264033a-f915-4b27-a08a-2f42cfcf052a","ios":"levelo://app?vid=e264033a-f915-4b27-a08a-2f42cfcf052a"},"vehicle_type_id":"4","last_reported":1731996841,"current_range_meters":34000,"station_id":"","pricing_plan_id":"cebpf4jnsgd1na2vs0mg"},{"bike_id":"affc6a42-c87f-4640-9297-4a4ea6bc3ad3","system_id":"levelo_inurba_marseille","lat":43.29553,"lon":5.42286,"is_reserved":false,"is_disabled":false,"rental_uris":{"android":"levelo://app?vid=affc6a42-c87f-4640-9297-4a4ea6bc3ad3","ios":"levelo://app?vid=affc6a42-c87f-4640-9297-4a4ea6bc3ad3"},"vehicle_type_id":"4","last_reported":1731996841,"current_range_meters":38800,"station_id":"ce4bhph2rcd13ifvqhdg","pricing_plan_id":"cebpf4jnsgd1na2vs0mg"},{"bike_id":"167bfcb2-34bc-4fde-9708-323115ef71c3","system_id":"levelo_inurba_marseille","lat":43.28023,"lon":5.38682,"is_reserved":false,"is_disabled":false,"rental_uris":{"android":"levelo://app?vid=167bfcb2-34bc-4fde-9708-323115ef71c3","ios":"levelo://app?vid=167bfcb2-34bc-4fde-9708-323115ef71c3"},"vehicle_type_id":"4","last_reported":1731996841,"current_range_meters":25600,"station_id":"ce4bhq92rcd13ifvqhjg","pricing_plan_id":"cebpf4jnsgd1na2vs0mg"},{"bike_id":"df900be8-2c12-453f-bc2b-7090adc12272","system_id":"levelo_inurba_marseille","lat":43.30135,"lon":5.38798,"is_reserved":false,"is_disabled":true,"rental_uris":{"android":"levelo://app?vid=df900be8-2c12-453f-bc2b-7090adc12272","ios":"levelo://app?vid=df900be8-2c12-453f-bc2b-7090adc12272"},"vehicle_type_id":"4","last_reported":1731996841,"current_range_meters":23200,"station_id":"ce4bghh2rcd13ifvqb60","pricing_plan_id":"cebpf4jnsgd1na2vs0mg"},{"bike_id":"123862ba-68e2-48f6-a477-31ab9dae8bd5","system_id":"levelo_inurba_marseille","lat":43.337444,"lon":5.374475,"is_reserved":false,"is_disabled":true,"rental_uris":{"android":"levelo://app?vid=123862ba-68e2-48f6-a477-31ab9dae8bd5","ios":"levelo://app?vid=123862ba-68e2-48f6-a477-31ab9dae8bd5"},"vehicle_type_id":"4","last_reported":1731996841,"current_range_meters":17200,"station_id":"","pricing_plan_id":"cebpf4jnsgd1na2vs0mg"},{"bike_id":"25ddf417-8230-4dbc-b38a-2b2cb1ba9d73","system_id":"levelo_inurba_marseille","lat":43.30287,"lon":5.37703,"is_reserved":false,"is_disabled":true,"rental_uris":{"android":"levelo://app?vid=25ddf417-8230-4dbc-b38a-2b2cb1ba9d73","ios":"levelo://app?vid=25ddf417-8230-4dbc-b38a-2b2cb1ba9d73"},"vehicle_type_id":"4","last_reported":1731996841,"current_range_meters":12000,"station_id":"ce4bguh2rcd13ifvqcj0","pricing_plan_id":"cebpf4jnsgd1na2vs0mg"},{"bike_id":"203aeef1-141c-4fdd-8aad-facad2087071","system_id":"levelo_inurba_marseille","lat":43.33764,"lon":5.37454,"is_reserved":false,"is_disabled":false,"rental_uris":{"android":"levelo://app?vid=203aeef1-141c-4fdd-8aad-facad2087071","ios":"levelo://app?vid=203aeef1-141c-4fdd-8aad-facad2087071"},"vehicle_type_id":"4","last_reported":1731996841,"current_range_meters":23200,"station_id":"","pricing_plan_id":"cebpf4jnsgd1na2vs0mg"},{"bike_id":"51dcb5e6-5cc9-45a5-af48-1babf7a4bb11","system_id":"levelo_inurba_marseille","lat":43.29791,"lon":5.39342,"is_reserved":false,"is_disabled":false,"rental_uris":{"android":"levelo://app?vid=51dcb5e6-5cc9-45a5-af48-1babf7a4bb11","ios":"levelo://app?vid=51dcb5e6-5cc9-45a5-af48-1babf7a4bb11"},"vehicle_type_id":"4","last_reported":1731996841,"current_range_meters":38800,"station_id":"chh1huq6cuj3fo74tm60","pricing_plan_id":"cebpf4jnsgd1na2vs0mg"},{"bike_id":"b9ff4f32-01e0-45d5-9879-b3f727c3833f","system_id":"levelo_inurba_marseille","lat":43.30596,"lon":5.39361,"is_reserved":false,"is_disabled":false,"rental_uris":{"android":"levelo://app?vid=b9ff4f32-01e0-45d5-9879-b3f727c3833f","ios":"levelo://app?vid=b9ff4f32-01e0-45d5-9879-b3f727c3833f"},"vehicle_type_id":"4","last_reported":1731996841,"current_range_meters":29600,"station_id":"ce4bh0p2rcd13ifvqd80","pricing_plan_id":"cebpf4jnsgd1na2vs0mg"},{"bike_id":"015475d9-9369-4060-8bef-8b2a0db4bfee","system_id":"levelo_inurba_marseille","lat":43.29783,"lon":5.39353,"is_reserved":false,"is_disabled":false,"rental_uris":{"android":"levelo://app?vid=015475d9-9369-4060-8bef-8b2a0db4bfee","ios":"levelo://app?vid=015475d9-9369-4060-8bef-8b2a0db4bfee"},"vehicle_type_id":"4","last_reported":1731996841,"current_range_meters":37600,"station_id":"chh1huq6cuj3fo74tm60","pricing_plan_id":"cebpf4jnsgd1na2vs0mg"},{"bike_id":"f71dd268-05c9-40a4-8d18-b119b5d6e1bc","system_id":"levelo_inurba_marseille","lat":43.29979,"lon":5.41302,"is_reserved":false,"is_disabled":false,"rental_uris":{"android":"levelo://app?vid=f71dd268-05c9-40a4-8d18-b119b5d6e1bc","ios":"levelo://app?vid=f71dd268-05c9-40a4-8d18-b119b5d6e1bc"},"vehicle_type_id":"4","last_reported":1731996841,"current_range_meters":38800,"station_id":"ce4bhp12rcd13ifvqh9g","pricing_plan_id":"cebpf4jnsgd1na2vs0mg"},{"bike_id":"ad888319-f56f-47b8-bde8-b312b6e6a8ed","system_id":"levelo_inurba_marseille","lat":43.31074,"lon":5.38347,"is_reserved":false,"is_disabled":false,"rental_uris":{"android":"levelo://app?vid=ad888319-f56f-47b8-bde8-b312b6e6a8ed","ios":"levelo://app?vid=ad888319-f56f-47b8-bde8-b312b6e6a8ed"},"vehicle_type_id":"4","last_reported":1731996841,"current_range_meters":10800,"station_id":"ce4bgv92rcd13ifvqcr0","pricing_plan_id":"cebpf4jnsgd1na2vs0mg"},{"bike_id":"8cba7125-46f9-447b-a79d-2a02b1acb87f","system_id":"levelo_inurba_marseille","lat":43.28673,"lon":5.36337,"is_reserved":false,"is_disabled":false,"rental_uris":{"android":"levelo://app?vid=8cba7125-46f9-447b-a79d-2a02b1acb87f","ios":"levelo://app?vid=8cba7125-46f9-447b-a79d-2a02b1acb87f"},"vehicle_type_id":"4","last_reported":1731996841,"current_range_meters":30800,"station_id":"ce4bhah2rcd13ifvqej0","pricing_plan_id":"cebpf4jnsgd1na2vs0mg"},{"bike_id":"209e8e34-a4ed-447a-8612-74dbc4ddea10","system_id":"levelo_inurba_marseille","lat":43.308,"lon":5.43528,"is_reserved":false,"is_disabled":false,"rental_uris":{"android":"levelo://app?vid=209e8e34-a4ed-447a-8612-74dbc4ddea10","ios":"levelo://app?vid=209e8e34-a4ed-447a-8612-74dbc4ddea10"},"vehicle_type_id":"4","last_reported":1731996841,"current_range_meters":32800,"station_id":"ce4bhph2rcd13ifvqheg","pricing_plan_id":"cebpf4jnsgd1na2vs0mg"},{"bike_id":"32cea7ef-7e0d-489f-ad2f-1128114cbf70","system_id":"levelo_inurba_marseille","lat":43.30157,"lon":5.38081,"is_reserved":false,"is_disabled":false,"rental_uris":{"android":"levelo://app?vid=32cea7ef-7e0d-489f-ad2f-1128114cbf70","ios":"levelo://app?vid=32cea7ef-7e0d-489f-ad2f-1128114cbf70"},"vehicle_type_id":"4","last_reported":1731996841,"current_range_meters":35600,"station_id":"ce4bgjp2rcd13ifvqbh0","pricing_plan_id":"cebpf4jnsgd1na2vs0mg"},{"bike_id":"674671a9-ba1c-4a0d-a2d0-d1670faad228","system_id":"levelo_inurba_marseille","lat":43.31082,"lon":5.42438,"is_reserved":false,"is_disabled":false,"rental_uris":{"android":"levelo://app?vid=674671a9-ba1c-4a0d-a2d0-d1670faad228","ios":"levelo://app?vid=674671a9-ba1c-4a0d-a2d0-d1670faad228"},"vehicle_type_id":"4","last_reported":1731996841,"current_range_meters":38800,"station_id":"ce4bhp92rcd13ifvqhag","pricing_plan_id":"cebpf4jnsgd1na2vs0mg"},{"bike_id":"902520de-201d-40c5-b252-e084c9103587","system_id":"levelo_inurba_marseille","lat":43.29699,"lon":5.36626,"is_reserved":false,"is_disabled":false,"rental_uris":{"android":"levelo://app?vid=902520de-201d-40c5-b252-e084c9103587","ios":"levelo://app?vid=902520de-201d-40c5-b252-e084c9103587"},"vehicle_type_id":"4","last_reported":1731996841,"current_range_meters":32000,"station_id":"ce4bgn12rcd13ifvqbt0","pricing_plan_id":"cebpf4jnsgd1na2vs0mg"},{"bike_id":"e1c45b81-f6d8-4231-9324-1addebd1a764","system_id":"levelo_inurba_marseille","lat":43.31013,"lon":5.38223,"is_reserved":false,"is_disabled":false,"rental_uris":{"android":"levelo://app?vid=e1c45b81-f6d8-4231-9324-1addebd1a764","ios":"levelo://app?vid=e1c45b81-f6d8-4231-9324-1addebd1a764"},"vehicle_type_id":"4","last_reported":1731996841,"current_range_meters":38800,"station_id":"","pricing_plan_id":"cebpf4jnsgd1na2vs0mg"},{"bike_id":"c2fea496-5ac2-4b2c-b8a1-985a65037288","system_id":"levelo_inurba_marseille","lat":43.29789,"lon":5.39352,"is_reserved":false,"is_disabled":false,"rental_uris":{"android":"levelo://app?vid=c2fea496-5ac2-4b2c-b8a1-985a65037288","ios":"levelo://app?vid=c2fea496-5ac2-4b2c-b8a1-985a65037288"},"vehicle_type_id":"4","last_reported":1731996841,"current_range_meters":38800,"station_id":"chh1huq6cuj3fo74tm60","pricing_plan_id":"cebpf4jnsgd1na2vs0mg"},{"bike_id":"e4a5532d-23c6-44a1-8a40-ea77917bd499","system_id":"levelo_inurba_marseille","lat":43.30125,"lon":5.39889,"is_reserved":false,"is_disabled":false,"rental_uris":{"android":"levelo://app?vid=e4a5532d-23c6-44a1-8a40-ea77917bd499","ios":"levelo://app?vid=e4a5532d-23c6-44a1-8a40-ea77917bd499"},"vehicle_type_id":"4","last_reported":1731996841,"current_range_meters":30000,"station_id":"ce4bh0h2rcd13ifvqd40","pricing_plan_id":"cebpf4jnsgd1na2vs0mg"},{"bike_id":"754ef339-4206-4391-a29c-4a3441435511","system_id":"levelo_inurba_marseille","lat":43.28457,"lon":5.35877,"is_reserved":false,"is_disabled":false,"rental_uris":{"android":"levelo://app?vid=754ef339-4206-4391-a29c-4a3441435511","ios":"levelo://app?vid=754ef339-4206-4391-a29c-4a3441435511"},"vehicle_type_id":"4","last_reported":1731996841,"current_range_meters":38000,"station_id":"ce4bhah2rcd13ifvqei0","pricing_plan_id":"cebpf4jnsgd1na2vs0mg"},{"bike_id":"b0cbfa39-7005-4b6e-a85b-afb258934780","system_id":"levelo_inurba_marseille","lat":43.29908,"lon":5.38139,"is_reserved":false,"is_disabled":false,"rental_uris":{"android":"levelo://app?vid=b0cbfa39-7005-4b6e-a85b-afb258934780","ios":"levelo://app?vid=b0cbfa39-7005-4b6e-a85b-afb258934780"},"vehicle_type_id":"4","last_reported":1731996841,"current_range_meters":39200,"station_id":"ce4bgj12rcd13ifvqbc0","pricing_plan_id":"cebpf4jnsgd1na2vs0mg"},{"bike_id":"0320cf1b-d4b4-41c8-aef1-67408d86cef1","system_id":"levelo_inurba_marseille","lat":43.30932,"lon":5.40154,"is_reserved":false,"is_disabled":false,"rental_uris":{"android":"levelo://app?vid=0320cf1b-d4b4-41c8-aef1-67408d86cef1","ios":"levelo://app?vid=0320cf1b-d4b4-41c8-aef1-67408d86cef1"},"vehicle_type_id":"4","last_reported":1731996841,"current_range_meters":38400,"station_id":"ce4bgvp2rcd13ifvqct0","pricing_plan_id":"cebpf4jnsgd1na2vs0mg"},{"bike_id":"ff4b9490-574f-424c-af0e-1e9e2919da6b","system_id":"levelo_inurba_marseille","lat":43.23188,"lon":5.39979,"is_reserved":false,"is_disabled":false,"rental_uris":{"android":"levelo://app?vid=ff4b9490-574f-424c-af0e-1e9e2919da6b","ios":"levelo://app?vid=ff4b9490-574f-424c-af0e-1e9e2919da6b"},"vehicle_type_id":"4","last_reported":1731996841,"current_range_meters":8400,"station_id":"ce4bhn12rcd13ifvqgqg","pricing_plan_id":"cebpf4jnsgd1na2vs0mg"},{"bike_id":"fbf50743-a751-4d22-8d7f-9047b9d72787","system_id":"levelo_inurba_marseille","lat":43.304961,"lon":5.380131,"is_reserved":false,"is_disabled":false,"rental_uris":{"android":"levelo://app?vid=fbf50743-a751-4d22-8d7f-9047b9d72787","ios":"levelo://app?vid=fbf50743-a751-4d22-8d7f-9047b9d72787"},"vehicle_type_id":"4","last_reported":1731996841,"current_range_meters":5600,"station_id":"ce4bgup2rcd13ifvqcn0","pricing_plan_id":"cebpf4jnsgd1na2vs0mg"},{"bike_id":"746c26b3-b945-4191-b394-93c5195805c3","system_id":"levelo_inurba_marseille","lat":43.27946,"lon":5.41045,"is_reserved":false,"is_disabled":false,"rental_uris":{"android":"levelo://app?vid=746c26b3-b945-4191-b394-93c5195805c3","ios":"levelo://app?vid=746c26b3-b945-4191-b394-93c5195805c3"},"vehicle_type_id":"4","last_reported":1731996841,"current_range_meters":10800,"station_id":"ce4bhnp2rcd13ifvqh0g","pricing_plan_id":"cebpf4jnsgd1na2vs0mg"},{"bike_id":"1a70c7dd-62bc-47a3-bbc1-a51d2652e9c2","system_id":"levelo_inurba_marseille","lat":43.28703,"lon":5.37399,"is_reserved":false,"is_disabled":false,"rental_uris":{"android":"levelo://app?vid=1a70c7dd-62bc-47a3-bbc1-a51d2652e9c2","ios":"levelo://app?vid=1a70c7dd-62bc-47a3-bbc1-a51d2652e9c2"},"vehicle_type_id":"4","last_reported":1731996841,"current_range_meters":11200,"station_id":"ce4bh3p2rcd13ifvqdq0","pricing_plan_id":"cebpf4jnsgd1na2vs0mg"},{"bike_id":"75420037-a1a0-44de-85e1-44ce9ad329ea","system_id":"levelo_inurba_marseille","lat":43.28468,"lon":5.35882,"is_reserved":false,"is_disabled":false,"rental_uris":{"android":"levelo://app?vid=75420037-a1a0-44de-85e1-44ce9ad329ea","ios":"levelo://app?vid=75420037-a1a0-44de-85e1-44ce9ad329ea"},"vehicle_type_id":"4","last_reported":1731996841,"current_range_meters":34000,"station_id":"ce4bhah2rcd13ifvqei0","pricing_plan_id":"cebpf4jnsgd1na2vs0mg"},{"bike_id":"5ed0dcf0-c2ca-47d5-8497-b51c5d83f101","system_id":"levelo_inurba_marseille","lat":43.2669,"lon":5.38273,"is_reserved":false,"is_disabled":true,"rental_uris":{"android":"levelo://app?vid=5ed0dcf0-c2ca-47d5-8497-b51c5d83f101","ios":"levelo://app?vid=5ed0dcf0-c2ca-47d5-8497-b51c5d83f101"},"vehicle_type_id":"4","last_reported":1731996841,"current_range_meters":36800,"station_id":"ce4bhg92rcd13ifvqf90","pricing_plan_id":"cebpf4jnsgd1na2vs0mg"},{"bike_id":"38f595fc-1109-439f-90d1-f88f432e6f42","system_id":"levelo_inurba_marseille","lat":43.28707,"lon":5.3999,"is_reserved":false,"is_disabled":false,"rental_uris":{"android":"levelo://app?vid=38f595fc-1109-439f-90d1-f88f432e6f42","ios":"levelo://app?vid=38f595fc-1109-439f-90d1-f88f432e6f42"},"vehicle_type_id":"4","last_reported":1731996841,"current_range_meters":37600,"station_id":"ce4bho92rcd13ifvqh3g","pricing_plan_id":"cebpf4jnsgd1na2vs0mg"},{"bike_id":"02715229-b658-4fa1-8848-506ff3ca2609","system_id":"levelo_inurba_marseille","lat":43.24643,"lon":5.38903,"is_reserved":false,"is_disabled":false,"rental_uris":{"android":"levelo://app?vid=02715229-b658-4fa1-8848-506ff3ca2609","ios":"levelo://app?vid=02715229-b658-4fa1-8848-506ff3ca2609"},"vehicle_type_id":"4","last_reported":1731996841,"current_range_meters":16800,"station_id":"ce4bhg12rcd13ifvqf60","pricing_plan_id":"cebpf4jnsgd1na2vs0mg"},{"bike_id":"2055b3b9-334d-4a1f-b3ed-c4bf9431991e","system_id":"levelo_inurba_marseille","lat":43.28481,"lon":5.38569,"is_reserved":false,"is_disabled":false,"rental_uris":{"android":"levelo://app?vid=2055b3b9-334d-4a1f-b3ed-c4bf9431991e","ios":"levelo://app?vid=2055b3b9-334d-4a1f-b3ed-c4bf9431991e"},"vehicle_type_id":"4","last_reported":1731996841,"current_range_meters":10800,"station_id":"ce4bh8p2rcd13ifvqeb0","pricing_plan_id":"cebpf4jnsgd1na2vs0mg"},{"bike_id":"129aabad-c987-475e-90f3-2bfaf3bf8a5a","system_id":"levelo_inurba_marseille","lat":43.30883,"lon":5.39647,"is_reserved":false,"is_disabled":false,"rental_uris":{"android":"levelo://app?vid=129aabad-c987-475e-90f3-2bfaf3bf8a5a","ios":"levelo://app?vid=129aabad-c987-475e-90f3-2bfaf3bf8a5a"},"vehicle_type_id":"4","last_reported":1731996841,"current_range_meters":24000,"station_id":"ce4bh012rcd13ifvqcv0","pricing_plan_id":"cebpf4jnsgd1na2vs0mg"},{"bike_id":"61c64098-e628-4190-886a-4fa410d3393e","system_id":"levelo_inurba_marseille","lat":43.2586,"lon":5.39904,"is_reserved":false,"is_disabled":false,"rental_uris":{"android":"levelo://app?vid=61c64098-e628-4190-886a-4fa410d3393e","ios":"levelo://app?vid=61c64098-e628-4190-886a-4fa410d3393e"},"vehicle_type_id":"4","last_reported":1731996841,"current_range_meters":28400,"station_id":"ce4bhl92rcd13ifvqghg","pricing_plan_id":"cebpf4jnsgd1na2vs0mg"},{"bike_id":"8d377374-9775-4f46-9ae2-a53fea7dcb6a","system_id":"levelo_inurba_marseille","lat":43.30779,"lon":5.3765,"is_reserved":false,"is_disabled":false,"rental_uris":{"android":"levelo://app?vid=8d377374-9775-4f46-9ae2-a53fea7dcb6a","ios":"levelo://app?vid=8d377374-9775-4f46-9ae2-a53fea7dcb6a"},"vehicle_type_id":"4","last_reported":1731996841,"current_range_meters":27200,"station_id":"ce4bgv92rcd13ifvqcq0","pricing_plan_id":"cebpf4jnsgd1na2vs0mg"},{"bike_id":"f0e2f4e5-f602-4a1c-ba1a-aa1d1150f28c","system_id":"levelo_inurba_marseille","lat":43.29636,"lon":5.40602,"is_reserved":false,"is_disabled":false,"rental_uris":{"android":"levelo://app?vid=f0e2f4e5-f602-4a1c-ba1a-aa1d1150f28c","ios":"levelo://app?vid=f0e2f4e5-f602-4a1c-ba1a-aa1d1150f28c"},"vehicle_type_id":"4","last_reported":1731996841,"current_range_meters":39200,"station_id":"ce4bh0h2rcd13ifvqd60","pricing_plan_id":"cebpf4jnsgd1na2vs0mg"},{"bike_id":"85ea1e6a-e3ed-4c94-8b0a-6d7f6e67794e","system_id":"levelo_inurba_marseille","lat":43.31171,"lon":5.3872,"is_reserved":false,"is_disabled":false,"rental_uris":{"android":"levelo://app?vid=85ea1e6a-e3ed-4c94-8b0a-6d7f6e67794e","ios":"levelo://app?vid=85ea1e6a-e3ed-4c94-8b0a-6d7f6e67794e"},"vehicle_type_id":"4","last_reported":1731996841,"current_range_meters":38800,"station_id":"ce4bgv12rcd13ifvqcp0","pricing_plan_id":"cebpf4jnsgd1na2vs0mg"},{"bike_id":"628384db-a629-44bc-856e-9d5ee504cce9","system_id":"levelo_inurba_marseille","lat":43.25002,"lon":5.38925,"is_reserved":false,"is_disabled":true,"rental_uris":{"android":"levelo://app?vid=628384db-a629-44bc-856e-9d5ee504cce9","ios":"levelo://app?vid=628384db-a629-44bc-856e-9d5ee504cce9"},"vehicle_type_id":"4","last_reported":1731996841,"current_range_meters":38800,"station_id":"ce4bhgp2rcd13ifvqfd0","pricing_plan_id":"cebpf4jnsgd1na2vs0mg"},{"bike_id":"2c98f310-de06-47e1-8a5f-d38938934c83","system_id":"levelo_inurba_marseille","lat":43.231903,"lon":5.399793,"is_reserved":false,"is_disabled":false,"rental_uris":{"android":"levelo://app?vid=2c98f310-de06-47e1-8a5f-d38938934c83","ios":"levelo://app?vid=2c98f310-de06-47e1-8a5f-d38938934c83"},"vehicle_type_id":"4","last_reported":1731996841,"current_range_meters":37600,"station_id":"ce4bhn12rcd13ifvqgqg","pricing_plan_id":"cebpf4jnsgd1na2vs0mg"},{"bike_id":"23135125-383a-4861-98de-64bbe8a2d094","system_id":"levelo_inurba_marseille","lat":43.30928,"lon":5.40146,"is_reserved":false,"is_disabled":false,"rental_uris":{"android":"levelo://app?vid=23135125-383a-4861-98de-64bbe8a2d094","ios":"levelo://app?vid=23135125-383a-4861-98de-64bbe8a2d094"},"vehicle_type_id":"4","last_reported":1731996841,"current_range_meters":10800,"station_id":"ce4bgvp2rcd13ifvqct0","pricing_plan_id":"cebpf4jnsgd1na2vs0mg"},{"bike_id":"3f32c9d6-8aed-4b6d-92f4-88b3106e6e04","system_id":"levelo_inurba_marseille","lat":43.2586,"lon":5.39911,"is_reserved":false,"is_disabled":true,"rental_uris":{"android":"levelo://app?vid=3f32c9d6-8aed-4b6d-92f4-88b3106e6e04","ios":"levelo://app?vid=3f32c9d6-8aed-4b6d-92f4-88b3106e6e04"},"vehicle_type_id":"4","last_reported":1731996841,"current_range_meters":9200,"station_id":"ce4bhl92rcd13ifvqghg","pricing_plan_id":"cebpf4jnsgd1na2vs0mg"},{"bike_id":"59282a02-6b4b-4617-b658-ff49c6291b10","system_id":"levelo_inurba_marseille","lat":43.28464,"lon":5.35881,"is_reserved":false,"is_disabled":false,"rental_uris":{"android":"levelo://app?vid=59282a02-6b4b-4617-b658-ff49c6291b10","ios":"levelo://app?vid=59282a02-6b4b-4617-b658-ff49c6291b10"},"vehicle_type_id":"4","last_reported":1731996841,"current_range_meters":10800,"station_id":"ce4bhah2rcd13ifvqei0","pricing_plan_id":"cebpf4jnsgd1na2vs0mg"},{"bike_id":"2b8b53f8-f97f-4dd6-b14d-6db5bb088c15","system_id":"levelo_inurba_marseille","lat":43.30422,"lon":5.41275,"is_reserved":false,"is_disabled":false,"rental_uris":{"android":"levelo://app?vid=2b8b53f8-f97f-4dd6-b14d-6db5bb088c15","ios":"levelo://app?vid=2b8b53f8-f97f-4dd6-b14d-6db5bb088c15"},"vehicle_type_id":"4","last_reported":1731996841,"current_range_meters":38800,"station_id":"ce4bhop2rcd13ifvqh8g","pricing_plan_id":"cebpf4jnsgd1na2vs0mg"},{"bike_id":"7c5ea3a8-a728-4c0b-a06a-05abd113adfd","system_id":"levelo_inurba_marseille","lat":43.25824,"lon":5.39438,"is_reserved":false,"is_disabled":false,"rental_uris":{"android":"levelo://app?vid=7c5ea3a8-a728-4c0b-a06a-05abd113adfd","ios":"levelo://app?vid=7c5ea3a8-a728-4c0b-a06a-05abd113adfd"},"vehicle_type_id":"4","last_reported":1731996841,"current_range_meters":38400,"station_id":"ce4bhip2rcd13ifvqft0","pricing_plan_id":"cebpf4jnsgd1na2vs0mg"},{"bike_id":"89f50497-216a-4e8a-bc30-e170101d8b54","system_id":"levelo_inurba_marseille","lat":43.29518,"lon":5.39036,"is_reserved":false,"is_disabled":false,"rental_uris":{"android":"levelo://app?vid=89f50497-216a-4e8a-bc30-e170101d8b54","ios":"levelo://app?vid=89f50497-216a-4e8a-bc30-e170101d8b54"},"vehicle_type_id":"4","last_reported":1731996841,"current_range_meters":12000,"station_id":"ce4bh3p2rcd13ifvqdp0","pricing_plan_id":"cebpf4jnsgd1na2vs0mg"},{"bike_id":"49e7624e-103a-42f5-a246-ce17656f0975","system_id":"levelo_inurba_marseille","lat":43.26029,"lon":5.3755,"is_reserved":false,"is_disabled":false,"rental_uris":{"android":"levelo://app?vid=49e7624e-103a-42f5-a246-ce17656f0975","ios":"levelo://app?vid=49e7624e-103a-42f5-a246-ce17656f0975"},"vehicle_type_id":"4","last_reported":1731996841,"current_range_meters":37600,"station_id":"ce4bhgh2rcd13ifvqfa0","pricing_plan_id":"cebpf4jnsgd1na2vs0mg"},{"bike_id":"a85b175d-9581-4ea4-a1d4-a3a58a9d1149","system_id":"levelo_inurba_marseille","lat":43.29261,"lon":5.40908,"is_reserved":false,"is_disabled":false,"rental_uris":{"android":"levelo://app?vid=a85b175d-9581-4ea4-a1d4-a3a58a9d1149","ios":"levelo://app?vid=a85b175d-9581-4ea4-a1d4-a3a58a9d1149"},"vehicle_type_id":"4","last_reported":1731996841,"current_range_meters":29600,"station_id":"ce4bh192rcd13ifvqdc0","pricing_plan_id":"cebpf4jnsgd1na2vs0mg"},{"bike_id":"4de41581-3b4d-48da-b235-99669862c70a","system_id":"levelo_inurba_marseille","lat":43.29618,"lon":5.37698,"is_reserved":false,"is_disabled":true,"rental_uris":{"android":"levelo://app?vid=4de41581-3b4d-48da-b235-99669862c70a","ios":"levelo://app?vid=4de41581-3b4d-48da-b235-99669862c70a"},"vehicle_type_id":"4","last_reported":1731996841,"current_range_meters":30400,"station_id":"ce4bgi92rcd13ifvqb90","pricing_plan_id":"cebpf4jnsgd1na2vs0mg"},{"bike_id":"f601eb27-d188-4854-ba73-090ddc3b0023","system_id":"levelo_inurba_marseille","lat":43.27191,"lon":5.40987,"is_reserved":false,"is_disabled":false,"rental_uris":{"android":"levelo://app?vid=f601eb27-d188-4854-ba73-090ddc3b0023","ios":"levelo://app?vid=f601eb27-d188-4854-ba73-090ddc3b0023"},"vehicle_type_id":"4","last_reported":1731996841,"current_range_meters":16000,"station_id":"ce4bhl12rcd13ifvqgf0","pricing_plan_id":"cebpf4jnsgd1na2vs0mg"},{"bike_id":"b0222684-7565-40dc-91a5-328b5ec85c70","system_id":"levelo_inurba_marseille","lat":43.2807,"lon":5.39652,"is_reserved":false,"is_disabled":false,"rental_uris":{"android":"levelo://app?vid=b0222684-7565-40dc-91a5-328b5ec85c70","ios":"levelo://app?vid=b0222684-7565-40dc-91a5-328b5ec85c70"},"vehicle_type_id":"4","last_reported":1731996841,"current_range_meters":40000,"station_id":"ce4bho12rcd13ifvqh2g","pricing_plan_id":"cebpf4jnsgd1na2vs0mg"},{"bike_id":"fcae7cf1-a7d3-4668-b3bc-06de5e18f103","system_id":"levelo_inurba_marseille","lat":43.258661,"lon":5.398959,"is_reserved":false,"is_disabled":false,"rental_uris":{"android":"levelo://app?vid=fcae7cf1-a7d3-4668-b3bc-06de5e18f103","ios":"levelo://app?vid=fcae7cf1-a7d3-4668-b3bc-06de5e18f103"},"vehicle_type_id":"4","last_reported":1731996841,"current_range_meters":32400,"station_id":"ce4bhl92rcd13ifvqghg","pricing_plan_id":"cebpf4jnsgd1na2vs0mg"},{"bike_id":"f4b89e3e-303f-4caf-bcc8-90e28cd64704","system_id":"levelo_inurba_marseille","lat":43.28468,"lon":5.35881,"is_reserved":false,"is_disabled":false,"rental_uris":{"android":"levelo://app?vid=f4b89e3e-303f-4caf-bcc8-90e28cd64704","ios":"levelo://app?vid=f4b89e3e-303f-4caf-bcc8-90e28cd64704"},"vehicle_type_id":"4","last_reported":1731996841,"current_range_meters":9200,"station_id":"ce4bhah2rcd13ifvqei0","pricing_plan_id":"cebpf4jnsgd1na2vs0mg"},{"bike_id":"c6fd0b05-4384-48a2-b8db-c70316ff4241","system_id":"levelo_inurba_marseille","lat":43.29792,"lon":5.39357,"is_reserved":false,"is_disabled":false,"rental_uris":{"android":"levelo://app?vid=c6fd0b05-4384-48a2-b8db-c70316ff4241","ios":"levelo://app?vid=c6fd0b05-4384-48a2-b8db-c70316ff4241"},"vehicle_type_id":"4","last_reported":1731996841,"current_range_meters":38800,"station_id":"chh1huq6cuj3fo74tm60","pricing_plan_id":"cebpf4jnsgd1na2vs0mg"},{"bike_id":"2b230e21-05b5-46a3-b9c5-f6223e5aaf4f","system_id":"levelo_inurba_marseille","lat":43.31712,"lon":5.4371,"is_reserved":false,"is_disabled":false,"rental_uris":{"android":"levelo://app?vid=2b230e21-05b5-46a3-b9c5-f6223e5aaf4f","ios":"levelo://app?vid=2b230e21-05b5-46a3-b9c5-f6223e5aaf4f"},"vehicle_type_id":"4","last_reported":1731996841,"current_range_meters":38000,"station_id":"ce4bhp92rcd13ifvqhcg","pricing_plan_id":"cebpf4jnsgd1na2vs0mg"},{"bike_id":"e03ee57d-d6f5-4e29-99df-e78e89cfc6cd","system_id":"levelo_inurba_marseille","lat":43.30935,"lon":5.40145,"is_reserved":false,"is_disabled":false,"rental_uris":{"android":"levelo://app?vid=e03ee57d-d6f5-4e29-99df-e78e89cfc6cd","ios":"levelo://app?vid=e03ee57d-d6f5-4e29-99df-e78e89cfc6cd"},"vehicle_type_id":"4","last_reported":1731996841,"current_range_meters":39200,"station_id":"ce4bgvp2rcd13ifvqct0","pricing_plan_id":"cebpf4jnsgd1na2vs0mg"},{"bike_id":"ca02af96-9ec2-4895-b85f-dcec16a8f966","system_id":"levelo_inurba_marseille","lat":43.23194,"lon":5.39977,"is_reserved":false,"is_disabled":false,"rental_uris":{"android":"levelo://app?vid=ca02af96-9ec2-4895-b85f-dcec16a8f966","ios":"levelo://app?vid=ca02af96-9ec2-4895-b85f-dcec16a8f966"},"vehicle_type_id":"4","last_reported":1731996841,"current_range_meters":12000,"station_id":"ce4bhn12rcd13ifvqgqg","pricing_plan_id":"cebpf4jnsgd1na2vs0mg"},{"bike_id":"4ff195aa-0e94-4780-a4e9-74e0f4125314","system_id":"levelo_inurba_marseille","lat":43.29793,"lon":5.39353,"is_reserved":false,"is_disabled":true,"rental_uris":{"android":"levelo://app?vid=4ff195aa-0e94-4780-a4e9-74e0f4125314","ios":"levelo://app?vid=4ff195aa-0e94-4780-a4e9-74e0f4125314"},"vehicle_type_id":"4","last_reported":1731996841,"current_range_meters":36000,"station_id":"chh1huq6cuj3fo74tm60","pricing_plan_id":"cebpf4jnsgd1na2vs0mg"},{"bike_id":"7a1d8a89-2a7e-4939-ab1a-d9cdb7e81301","system_id":"levelo_inurba_marseille","lat":43.29862,"lon":5.36735,"is_reserved":false,"is_disabled":false,"rental_uris":{"android":"levelo://app?vid=7a1d8a89-2a7e-4939-ab1a-d9cdb7e81301","ios":"levelo://app?vid=7a1d8a89-2a7e-4939-ab1a-d9cdb7e81301"},"vehicle_type_id":"4","last_reported":1731996841,"current_range_meters":5600,"station_id":"","pricing_plan_id":"cebpf4jnsgd1na2vs0mg"},{"bike_id":"fae3e366-4e72-453f-b7d4-c08e1949b9ec","system_id":"levelo_inurba_marseille","lat":43.31077,"lon":5.42432,"is_reserved":false,"is_disabled":true,"rental_uris":{"android":"levelo://app?vid=fae3e366-4e72-453f-b7d4-c08e1949b9ec","ios":"levelo://app?vid=fae3e366-4e72-453f-b7d4-c08e1949b9ec"},"vehicle_type_id":"4","last_reported":1731996841,"current_range_meters":12400,"station_id":"ce4bhp92rcd13ifvqhag","pricing_plan_id":"cebpf4jnsgd1na2vs0mg"},{"bike_id":"84add0bd-cb10-4dcb-82e1-3da91d21fda0","system_id":"levelo_inurba_marseille","lat":43.29897,"lon":5.43673,"is_reserved":false,"is_disabled":false,"rental_uris":{"android":"levelo://app?vid=84add0bd-cb10-4dcb-82e1-3da91d21fda0","ios":"levelo://app?vid=84add0bd-cb10-4dcb-82e1-3da91d21fda0"},"vehicle_type_id":"4","last_reported":1731996841,"current_range_meters":37600,"station_id":"ce4bhpp2rcd13ifvqhfg","pricing_plan_id":"cebpf4jnsgd1na2vs0mg"},{"bike_id":"b868869a-6cd6-4d7d-822a-50a37148dbe6","system_id":"levelo_inurba_marseille","lat":43.28565,"lon":5.39496,"is_reserved":false,"is_disabled":true,"rental_uris":{"android":"levelo://app?vid=b868869a-6cd6-4d7d-822a-50a37148dbe6","ios":"levelo://app?vid=b868869a-6cd6-4d7d-822a-50a37148dbe6"},"vehicle_type_id":"4","last_reported":1731996841,"current_range_meters":400,"station_id":"ce4bh292rcd13ifvqdg0","pricing_plan_id":"cebpf4jnsgd1na2vs0mg"},{"bike_id":"51fd3607-da3e-4582-8387-875131cc154d","system_id":"levelo_inurba_marseille","lat":43.28463,"lon":5.35894,"is_reserved":false,"is_disabled":false,"rental_uris":{"android":"levelo://app?vid=51fd3607-da3e-4582-8387-875131cc154d","ios":"levelo://app?vid=51fd3607-da3e-4582-8387-875131cc154d"},"vehicle_type_id":"4","last_reported":1731996841,"current_range_meters":38000,"station_id":"ce4bhah2rcd13ifvqei0","pricing_plan_id":"cebpf4jnsgd1na2vs0mg"},{"bike_id":"58f1d607-38ef-4f9a-a488-47fad88b9c0f","system_id":"levelo_inurba_marseille","lat":43.27181,"lon":5.40994,"is_reserved":false,"is_disabled":false,"rental_uris":{"android":"levelo://app?vid=58f1d607-38ef-4f9a-a488-47fad88b9c0f","ios":"levelo://app?vid=58f1d607-38ef-4f9a-a488-47fad88b9c0f"},"vehicle_type_id":"4","last_reported":1731996841,"current_range_meters":36800,"station_id":"ce4bhl12rcd13ifvqgf0","pricing_plan_id":"cebpf4jnsgd1na2vs0mg"},{"bike_id":"d482b473-8011-43d1-9203-ef428f8af553","system_id":"levelo_inurba_marseille","lat":43.2955,"lon":5.42285,"is_reserved":false,"is_disabled":false,"rental_uris":{"android":"levelo://app?vid=d482b473-8011-43d1-9203-ef428f8af553","ios":"levelo://app?vid=d482b473-8011-43d1-9203-ef428f8af553"},"vehicle_type_id":"4","last_reported":1731996841,"current_range_meters":14400,"station_id":"ce4bhph2rcd13ifvqhdg","pricing_plan_id":"cebpf4jnsgd1na2vs0mg"},{"bike_id":"0c76b272-d2b2-46cd-b02c-f3e55331562f","system_id":"levelo_inurba_marseille","lat":43.29259,"lon":5.409,"is_reserved":false,"is_disabled":false,"rental_uris":{"android":"levelo://app?vid=0c76b272-d2b2-46cd-b02c-f3e55331562f","ios":"levelo://app?vid=0c76b272-d2b2-46cd-b02c-f3e55331562f"},"vehicle_type_id":"4","last_reported":1731996841,"current_range_meters":25600,"station_id":"ce4bh192rcd13ifvqdc0","pricing_plan_id":"cebpf4jnsgd1na2vs0mg"},{"bike_id":"cde5eb04-35f5-4971-aec4-8004f9b2dcd9","system_id":"levelo_inurba_marseille","lat":43.28266,"lon":5.35074,"is_reserved":false,"is_disabled":true,"rental_uris":{"android":"levelo://app?vid=cde5eb04-35f5-4971-aec4-8004f9b2dcd9","ios":"levelo://app?vid=cde5eb04-35f5-4971-aec4-8004f9b2dcd9"},"vehicle_type_id":"4","last_reported":1731996841,"current_range_meters":34800,"station_id":"ce4bhbp2rcd13ifvqerg","pricing_plan_id":"cebpf4jnsgd1na2vs0mg"},{"bike_id":"4ca403d8-fdde-4cc4-a326-83c031005dc3","system_id":"levelo_inurba_marseille","lat":43.30546,"lon":5.36549,"is_reserved":false,"is_disabled":false,"rental_uris":{"android":"levelo://app?vid=4ca403d8-fdde-4cc4-a326-83c031005dc3","ios":"levelo://app?vid=4ca403d8-fdde-4cc4-a326-83c031005dc3"},"vehicle_type_id":"4","last_reported":1731996841,"current_range_meters":36400,"station_id":"ce4bgs12rcd13ifvqcag","pricing_plan_id":"cebpf4jnsgd1na2vs0mg"},{"bike_id":"d9aaa99c-543f-4857-a768-c5d47f66986e","system_id":"levelo_inurba_marseille","lat":43.23188,"lon":5.39981,"is_reserved":false,"is_disabled":false,"rental_uris":{"android":"levelo://app?vid=d9aaa99c-543f-4857-a768-c5d47f66986e","ios":"levelo://app?vid=d9aaa99c-543f-4857-a768-c5d47f66986e"},"vehicle_type_id":"4","last_reported":1731996841,"current_range_meters":27600,"station_id":"ce4bhn12rcd13ifvqgqg","pricing_plan_id":"cebpf4jnsgd1na2vs0mg"},{"bike_id":"fd9dfbcb-fbee-43da-a8d8-0ddcfeedd643","system_id":"levelo_inurba_marseille","lat":43.29256,"lon":5.40903,"is_reserved":false,"is_disabled":false,"rental_uris":{"android":"levelo://app?vid=fd9dfbcb-fbee-43da-a8d8-0ddcfeedd643","ios":"levelo://app?vid=fd9dfbcb-fbee-43da-a8d8-0ddcfeedd643"},"vehicle_type_id":"4","last_reported":1731996841,"current_range_meters":30000,"station_id":"ce4bh192rcd13ifvqdc0","pricing_plan_id":"cebpf4jnsgd1na2vs0mg"},{"bike_id":"57a5b4eb-3db1-4472-987b-d317b925c3a6","system_id":"levelo_inurba_marseille","lat":43.28072,"lon":5.39656,"is_reserved":false,"is_disabled":false,"rental_uris":{"android":"levelo://app?vid=57a5b4eb-3db1-4472-987b-d317b925c3a6","ios":"levelo://app?vid=57a5b4eb-3db1-4472-987b-d317b925c3a6"},"vehicle_type_id":"4","last_reported":1731996841,"current_range_meters":18000,"station_id":"ce4bho12rcd13ifvqh2g","pricing_plan_id":"cebpf4jnsgd1na2vs0mg"},{"bike_id":"af3c0e1c-2436-47d5-adc7-6971708b5ea0","system_id":"levelo_inurba_marseille","lat":43.306,"lon":5.3721,"is_reserved":false,"is_disabled":false,"rental_uris":{"android":"levelo://app?vid=af3c0e1c-2436-47d5-adc7-6971708b5ea0","ios":"levelo://app?vid=af3c0e1c-2436-47d5-adc7-6971708b5ea0"},"vehicle_type_id":"4","last_reported":1731996841,"current_range_meters":35600,"station_id":"ce4bgqh2rcd13ifvqc4g","pricing_plan_id":"cebpf4jnsgd1na2vs0mg"},{"bike_id":"5facb990-bb40-4c9f-a4aa-1ed9dcedde66","system_id":"levelo_inurba_marseille","lat":43.33022,"lon":5.39037,"is_reserved":false,"is_disabled":false,"rental_uris":{"android":"levelo://app?vid=5facb990-bb40-4c9f-a4aa-1ed9dcedde66","ios":"levelo://app?vid=5facb990-bb40-4c9f-a4aa-1ed9dcedde66"},"vehicle_type_id":"4","last_reported":1731996841,"current_range_meters":23200,"station_id":"ce4bhr92rcd13ifvqhrg","pricing_plan_id":"cebpf4jnsgd1na2vs0mg"},{"bike_id":"0e2bbe61-8f31-47ba-b582-6a82d0b052e0","system_id":"levelo_inurba_marseille","lat":43.290295,"lon":5.383603,"is_reserved":false,"is_disabled":false,"rental_uris":{"android":"levelo://app?vid=0e2bbe61-8f31-47ba-b582-6a82d0b052e0","ios":"levelo://app?vid=0e2bbe61-8f31-47ba-b582-6a82d0b052e0"},"vehicle_type_id":"4","last_reported":1731996841,"current_range_meters":30400,"station_id":"ce4bgip2rcd13ifvqbb0","pricing_plan_id":"cebpf4jnsgd1na2vs0mg"},{"bike_id":"bff402ee-970d-46d4-8d25-a5216fd3bac3","system_id":"levelo_inurba_marseille","lat":43.25007,"lon":5.3892,"is_reserved":false,"is_disabled":true,"rental_uris":{"android":"levelo://app?vid=bff402ee-970d-46d4-8d25-a5216fd3bac3","ios":"levelo://app?vid=bff402ee-970d-46d4-8d25-a5216fd3bac3"},"vehicle_type_id":"4","last_reported":1731996841,"current_range_meters":6400,"station_id":"ce4bhgp2rcd13ifvqfd0","pricing_plan_id":"cebpf4jnsgd1na2vs0mg"},