{"last_updated":1749917502,"ttl":60,"version":"2.2","data":{"bikes":[{"bike_id":"b31f0139-170f-4194-984f-4386218a1e9d","system_id":"levelo_inurba_marseille","lat":43.33771,"lon":5.37424,"is_reserved":false,"is_disabled":true,"rental_uris":{"android":"levelo://app?vid=b31f0139-170f-4194-984f-4386218a1e9d","ios":"levelo://app?vid=b31f0139-170f-4194-984f-4386218a1e9d"},"vehicle_type_id":"4","last_reported":1749917502,"current_range_meters":0,"station_id":"","pricing_plan_id":"cebpf4jnsgd1na2vs0mg"},{"bike_id":"1acfb620-cad7-48c0-8901-d7a5b74a5b65","system_id":"levelo_inurba_marseille","lat":43.33751,"lon":5.37456,"is_reserved":false,"is_disabled":true,"rental_uris":{"android":"levelo://app?vid=1acfb620-cad7-48c0-8901-d7a5b74a5b65","ios":"levelo://app?vid=1acfb620-cad7-48c0-8901-d7a5b74a5b65"},"vehicle_type_id":"4","last_reported":1749917502,"current_range_meters":0,"station_id":"","pricing_plan_id":"cebpf4jnsgd1na2vs0mg"},{"bike_id":"9b91606c-287a-4145-9d47-18cb28000a68","system_id":"levelo_inurba_marseille","lat":43.28503,"lon":5.38446,"is_reserved":false,"is_disabled":true,"rental_uris":{"android":"levelo://app?vid=9b91606c-287a-4145-9d47-18cb28000a68","ios":"levelo://app?vid=9b91606c-287a-4145-9d47-18cb28000a68"},"vehicle_type_id":"4","last_reported":1749917502,"current_range_meters":0,"station_id":"","pricing_plan_id":"cebpf4jnsgd1na2vs0mg"},{"bike_id":"bf89d78c-eb96-40d5-beb0-f402ef102cc1","system_id":"levelo_inurba_marseille","lat":43.337444,"lon":5.374475,"is_reserved":false,"is_disabled":true,"rental_uris":{"android":"levelo://app?vid=bf89d78c-eb96-40d5-beb0-f402ef102cc1","ios":"levelo://app?vid=bf89d78c-eb96-40d5-beb0-f402ef102cc1"},"vehicle_type_id":"4","last_reported":1749917502,"current_range_meters":0,"station_id":"","pricing_plan_id":"cebpf4jnsgd1na2vs0mg"},{"bike_id":"23ad5723-bf76-49b6-90f8-27a803335152","system_id":"levelo_inurba_marseille","lat":43.26347,"lon":5.3783,"is_reserved":false,"is_disabled":true,"rental_uris":{"android":"levelo://app?vid=23ad5723-bf76-49b6-90f8-27a803335152","ios":"levelo://app?vid=23ad5723-bf76-49b6-90f8-27a803335152"},"vehicle_type_id":"4","last_reported":1749917502,"current_range_meters":0,"station_id":"","pricing_plan_id":"cebpf4jnsgd1na2vs0mg"},{"bike_id":"5077581b-cebb-46fc-ba69-4fa8272d4810","system_id":"levelo_inurba_marseille","lat":43.2136,"lon":5.35525,"is_reserved":false,"is_disabled":true,"rental_uris":{"android":"levelo://app?vid=5077581b-cebb-46fc-ba69-4fa8272d4810","ios":"levelo://app?vid=5077581b-cebb-46fc-ba69-4fa8272d4810"},"vehicle_type_id":"4","last_reported":1749917502,"current_range_meters":0,"station_id":"","pricing_plan_id":"cebpf4jnsgd1na2vs0mg"},{"bike_id":"8631c4e3-7e45-4b01-8538-d64c8499eb1d","system_id":"levelo_inurba_marseille","lat":43.28629,"lon":5.38371,"is_reserved":false,"is_disabled":true,"rental_uris":{"android":"levelo://app?vid=8631c4e3-7e45-4b01-8538-d64c8499eb1d","ios":"levelo://app?vid=8631c4e3-7e45-4b01-8538-d64c8499eb1d"},"vehicle_type_id":"4","last_reported":1749917502,"current_range_meters":0,"station_id":"","pricing_plan_id":"cebpf4jnsgd1na2vs0mg"},{"bike_id":"fe909eec-57cb-4f6d-9797-191bc789bd7d","system_id":"levelo_inurba_marseille","lat":43.31169,"lon":5.36891,"is_reserved":false,"is_disabled":true,"rental_uris":{"android":"levelo://app?vid=fe909eec-57cb-4f6d-9797-191bc789bd7d","ios":"levelo://app?vid=fe909eec-57cb-4f6d-9797-191bc789bd7d"},"vehicle_type_id":"4","last_reported":1749917502,"current_range_meters":0,"station_id":"","pricing_plan_id":"cebpf4jnsgd1na2vs0mg"},{"bike_id":"ebf89cec-3e1a-4275-9cd0-a3d19d69b5cf","system_id":"levelo_inurba_marseille","lat":43.27993,"lon":5.38467,"is_reserved":false,"is_disabled":true,"rental_uris":{"android":"levelo://app?vid=ebf89cec-3e1a-4275-9cd0-a3d19d69b5cf","ios":"levelo://app?vid=ebf89cec-3e1a-4275-9cd0-a3d19d69b5cf"},"vehicle_type_id":"4","last_reported":1749917502,"current_range_meters":0,"station_id":"","pricing_plan_id":"cebpf4jnsgd1na2vs0mg"},{"bike_id":"492f4bbd-1190-4ef2-b66a-479ffe91b09b","system_id":"levelo_inurba_marseille","lat":43.337444,"lon":5.374475,"is_reserved":false,"is_disabled":true,"rental_uris":{"android":"levelo://app?vid=492f4bbd-1190-4ef2-b66a-479ffe91b09b","ios":"levelo://app?vid=492f4bbd-1190-4ef2-b66a-479ffe91b09b"},"vehicle_type_id":"4","last_reported":1749917502,"current_range_meters":0,"station_id":"","pricing_plan_id":"cebpf4jnsgd1na2vs0mg"},{"bike_id":"a9b6bf99-4070-4437-bb20-72962ae30b90","system_id":"levelo_inurba_marseille","lat":43.27459,"lon":5.36387,"is_reserved":false,"is_disabled":true,"rental_uris":{"android":"levelo://app?vid=a9b6bf99-4070-4437-bb20-72962ae30b90","ios":"levelo://app?vid=a9b6bf99-4070-4437-bb20-72962ae30b90"},"vehicle_type_id":"4","last_reported":1749917502,"current_range_meters":0,"station_id":"","pricing_plan_id":"cebpf4jnsgd1na2vs0mg"},{"bike_id":"77e1b72a-e412-4bf7-b26d-9074f78abf68","system_id":"levelo_inurba_marseille","lat":43.22507,"lon":5.34778,"is_reserved":false,"is_disabled":true,"rental_uris":{"android":"levelo://app?vid=77e1b72a-e412-4bf7-b26d-9074f78abf68","ios":"levelo://app?vid=77e1b72a-e412-4bf7-b26d-9074f78abf68"},"vehicle_type_id":"4","last_reported":1749917502,"current_range_meters":0,"station_id":"","pricing_plan_id":"cebpf4jnsgd1na2vs0mg"},{"bike_id":"30ef4bd2-9afe-43f2-9492-d1c6aa02dfbc","system_id":"levelo_inurba_marseille","lat":43.29619,"lon":5.37721,"is_reserved":false,"is_disabled":true,"rental_uris":{"android":"levelo://app?vid=30ef4bd2-9afe-43f2-9492-d1c6aa02dfbc","ios":"levelo://app?vid=30ef4bd2-9afe-43f2-9492-d1c6aa02dfbc"},"vehicle_type_id":"4","last_reported":1749917502,"current_range_meters":0,"station_id":"ce4bgi92rcd13ifvqb90","pricing_plan_id":"cebpf4jnsgd1na2vs0mg"},{"bike_id":"c3e54c2b-d0a3-481d-affe-05706f420eb6","system_id":"levelo_inurba_marseille","lat":43.30273,"lon":5.40045,"is_reserved":false,"is_disabled":true,"rental_uris":{"android":"levelo://app?vid=c3e54c2b-d0a3-481d-affe-05706f420eb6","ios":"levelo://app?vid=c3e54c2b-d0a3-481d-affe-05706f420eb6"},"vehicle_type_id":"4","last_reported":1749917502,"current_range_meters":0,"station_id":"ce4bgvh2rcd13ifvqcs0","pricing_plan_id":"cebpf4jnsgd1na2vs0mg"},{"bike_id":"b976f259-55a7-4379-8872-35bd87d6d8ad","system_id":"levelo_inurba_marseille","lat":43.30209,"lon":5.39469,"is_reserved":false,"is_disabled":true,"rental_uris":{"android":"levelo://app?vid=b976f259-55a7-4379-8872-35bd87d6d8ad","ios":"levelo://app?vid=b976f259-55a7-4379-8872-35bd87d6d8ad"},"vehicle_type_id":"4","last_reported":1749917502,"current_range_meters":0,"station_id":"ce4bh0p2rcd13ifvqd70","pricing_plan_id":"cebpf4jnsgd1na2vs0mg"},{"bike_id":"35ec1c92-8e5f-4f9e-b1da-1251928d5a6c","system_id":"levelo_inurba_marseille","lat":43.289246,"lon":5.395968,"is_reserved":false,"is_disabled":true,"rental_uris":{"android":"levelo://app?vid=35ec1c92-8e5f-4f9e-b1da-1251928d5a6c","ios":"levelo://app?vid=35ec1c92-8e5f-4f9e-b1da-1251928d5a6c"},"vehicle_type_id":"4","last_reported":1749917502,"current_range_meters":0,"station_id":"ce4bh112rcd13ifvqda0","pricing_plan_id":"cebpf4jnsgd1na2vs0mg"},{"bike_id":"2d24c481-b8f6-4d4d-b4d9-28e80cad9485","system_id":"levelo_inurba_marseille","lat":43.29011,"lon":5.38124,"is_reserved":false,"is_disabled":true,"rental_uris":{"android":"levelo://app?vid=2d24c481-b8f6-4d4d-b4d9-28e80cad9485","ios":"levelo://app?vid=2d24c481-b8f6-4d4d-b4d9-28e80cad9485"},"vehicle_type_id":"4","last_reported":1749917502,"current_range_meters":0,"station_id":"ce4bh4p2rcd13ifvqe1g","pricing_plan_id":"cebpf4jnsgd1na2vs0mg"},{"bike_id":"7dfba16b-5043-40da-a70e-13ee78e71364","system_id":"levelo_inurba_marseille","lat":43.290985,"lon":5.381412,"is_reserved":false,"is_disabled":false,"rental_uris":{"android":"levelo://app?vid=7dfba16b-5043-40da-a70e-13ee78e71364","ios":"levelo://app?vid=7dfba16b-5043-40da-a70e-13ee78e71364"},"vehicle_type_id":"4","last_reported":1749917502,"current_range_meters":0,"station_id":"ce4bh512rcd13ifvqe2g","pricing_plan_id":"cebpf4jnsgd1na2vs0mg"},{"bike_id":"036d64e1-6427-4b22-8074-3ccb608cb88a","system_id":"levelo_inurba_marseille","lat":43.29256,"lon":5.38443,"is_reserved":false,"is_disabled":true,"rental_uris":{"android":"levelo://app?vid=036d64e1-6427-4b22-8074-3ccb608cb88a","ios":"levelo://app?vid=036d64e1-6427-4b22-8074-3ccb608cb88a"},"vehicle_type_id":"4","last_reported":1749917502,"current_range_meters":0,"station_id":"ce4bh692rcd13ifvqea0","pricing_plan_id":"cebpf4jnsgd1na2vs0mg"},{"bike_id":"b773106f-70d6-4de9-90d7-49f5f543bcc6","system_id":"levelo_inurba_marseille","lat":43.28459,"lon":5.3588,"is_reserved":false,"is_disabled":true,"rental_uris":{"android":"levelo://app?vid=b773106f-70d6-4de9-90d7-49f5f543bcc6","ios":"levelo://app?vid=b773106f-70d6-4de9-90d7-49f5f543bcc6"},"vehicle_type_id":"4","last_reported":1749917502,"current_range_meters":0,"station_id":"ce4bhah2rcd13ifvqei0","pricing_plan_id":"cebpf4jnsgd1na2vs0mg"},{"bike_id":"24f5bcf1-034e-4d9b-ab7e-7385c7bb8275","system_id":"levelo_inurba_marseille","lat":43.27375,"lon":5.36252,"is_reserved":false,"is_disabled":true,"rental_uris":{"android":"levelo://app?vid=24f5bcf1-034e-4d9b-ab7e-7385c7bb8275","ios":"levelo://app?vid=24f5bcf1-034e-4d9b-ab7e-7385c7bb8275"},"vehicle_type_id":"4","last_reported":1749917502,"current_range_meters":0,"station_id":"ce4bhbh2rcd13ifvqeo0","pricing_plan_id":"cebpf4jnsgd1na2vs0mg"},{"bike_id":"5168476b-8f3b-488c-9292-3f45a1f1c0c2","system_id":"levelo_inurba_marseille","lat":43.28928,"lon":5.36405,"is_reserved":false,"is_disabled":true,"rental_uris":{"android":"levelo://app?vid=5168476b-8f3b-488c-9292-3f45a1f1c0c2","ios":"levelo://app?vid=5168476b-8f3b-488c-9292-3f45a1f1c0c2"},"vehicle_type_id":"4","last_reported":1749917502,"current_range_meters":0,"station_id":"ce4bhc92rcd13ifvqetg","pricing_plan_id":"cebpf4jnsgd1na2vs0mg"},{"bike_id":"217d3063-1d40-438c-930a-e76262b6ec40","system_id":"levelo_inurba_marseille","lat":43.2796,"lon":5.38755,"is_reserved":false,"is_disabled":true,"rental_uris":{"android":"levelo://app?vid=217d3063-1d40-438c-930a-e76262b6ec40","ios":"levelo://app?vid=217d3063-1d40-438c-930a-e76262b6ec40"},"vehicle_type_id":"4","last_reported":1749917502,"current_range_meters":0,"station_id":"ce4bhg12rcd13ifvqf80","pricing_plan_id":"cebpf4jnsgd1na2vs0mg"},{"bike_id":"f23ceec5-1ef2-4620-ac5f-4a1176e8b471","system_id":"levelo_inurba_marseille","lat":43.26679,"lon":5.38268,"is_reserved":false,"is_disabled":true,"rental_uris":{"android":"levelo://app?vid=f23ceec5-1ef2-4620-ac5f-4a1176e8b471","ios":"levelo://app?vid=f23ceec5-1ef2-4620-ac5f-4a1176e8b471"},"vehicle_type_id":"4","last_reported":1749917502,"current_range_meters":0,"station_id":"ce4bhg92rcd13ifvqf90","pricing_plan_id":"cebpf4jnsgd1na2vs0mg"},{"bike_id":"4043f4d5-9c24-42b2-b972-a0c69391f374","system_id":"levelo_inurba_marseille","lat":43.266821,"lon":5.382717,"is_reserved":false,"is_disabled":true,"rental_uris":{"android":"levelo://app?vid=4043f4d5-9c24-42b2-b972-a0c69391f374","ios":"levelo://app?vid=4043f4d5-9c24-42b2-b972-a0c69391f374"},"vehicle_type_id":"4","last_reported":1749917502,"current_range_meters":0,"station_id":"ce4bhg92rcd13ifvqf90","pricing_plan_id":"cebpf4jnsgd1na2vs0mg"},{"bike_id":"8a0f8047-5730-4a33-94df-16a461dbd5ba","system_id":"levelo_inurba_marseille","lat":43.27569,"lon":5.38415,"is_reserved":false,"is_disabled":true,"rental_uris":{"android":"levelo://app?vid=8a0f8047-5730-4a33-94df-16a461dbd5ba","ios":"levelo://app?vid=8a0f8047-5730-4a33-94df-16a461dbd5ba"},"vehicle_type_id":"4","last_reported":1749917502,"current_range_meters":0,"station_id":"ce4bhh92rcd13ifvqfi0","pricing_plan_id":"cebpf4jnsgd1na2vs0mg"},{"bike_id":"5f0abf0a-82ae-4835-b115-2fcb5f47d843","system_id":"levelo_inurba_marseille","lat":43.27982,"lon":5.39997,"is_reserved":false,"is_disabled":true,"rental_uris":{"android":"levelo://app?vid=5f0abf0a-82ae-4835-b115-2fcb5f47d843","ios":"levelo://app?vid=5f0abf0a-82ae-4835-b115-2fcb5f47d843"},"vehicle_type_id":"4","last_reported":1749917502,"current_range_meters":0,"station_id":"ce4bho92rcd13ifvqh4g","pricing_plan_id":"cebpf4jnsgd1na2vs0mg"},{"bike_id":"dd758e83-43cb-478f-b19e-e4c3f45b020d","system_id":"levelo_inurba_marseille","lat":43.32344,"lon":5.40614,"is_reserved":false,"is_disabled":true,"rental_uris":{"android":"levelo://app?vid=dd758e83-43cb-478f-b19e-e4c3f45b020d","ios":"levelo://app?vid=dd758e83-43cb-478f-b19e-e4c3f45b020d"},"vehicle_type_id":"4","last_reported":1749917502,"current_range_meters":0,"station_id":"ce4bhq92rcd13ifvqhjg","pricing_plan_id":"cebpf4jnsgd1na2vs0mg"},{"bike_id":"688990d8-c9ce-490a-af7e-21862bb7ff58","system_id":"levelo_inurba_marseille","lat":43.32009,"lon":5.41567,"is_reserved":false,"is_disabled":true,"rental_uris":{"android":"levelo://app?vid=688990d8-c9ce-490a-af7e-21862bb7ff58","ios":"levelo://app?vid=688990d8-c9ce-490a-af7e-21862bb7ff58"},"vehicle_type_id":"4","last_reported":1749917502,"current_range_meters":0,"station_id":"ce4bhq92rcd13ifvqhkg","pricing_plan_id":"cebpf4jnsgd1na2vs0mg"},{"bike_id":"0f50c2eb-d288-4d90-a9a3-cd0743222590","system_id":"levelo_inurba_marseille","lat":43.22503,"lon":5.34779,"is_reserved":false,"is_disabled":true,"rental_uris":{"android":"levelo://app?vid=0f50c2eb-d288-4d90-a9a3-cd0743222590","ios":"levelo://app?vid=0f50c2eb-d288-4d90-a9a3-cd0743222590"},"vehicle_type_id":"4","last_reported":1749917502,"current_range_meters":0,"station_id":"st_cvj5dfep6f1abm77gieg","pricing_plan_id":"cebpf4jnsgd1na2vs0mg"},{"bike_id":"fe5a9aaf-2d36-4b9d-abdd-dc360a59de38","system_id":"levelo_inurba_marseille","lat":43.21742,"lon":5.34598,"is_reserved":false,"is_disabled":true,"rental_uris":{"android":"levelo://app?vid=fe5a9aaf-2d36-4b9d-abdd-dc360a59de38","ios":"levelo://app?vid=fe5a9aaf-2d36-4b9d-abdd-dc360a59de38"},"vehicle_type_id":"4","last_reported":1749917502,"current_range_meters":0,"station_id":"st_cvj6r9ubvosntc0bgbag","pricing_plan_id":"cebpf4jnsgd1na2vs0mg"},{"bike_id":"ceed8e49-424f-4eba-95a3-d0aed3600067","system_id":"levelo_inurba_marseille","lat":43.21186,"lon":5.3507,"is_reserved":false,"is_disabled":true,"rental_uris":{"android":"levelo://app?vid=ceed8e49-424f-4eba-95a3-d0aed3600067","ios":"levelo://app?vid=ceed8e49-424f-4eba-95a3-d0aed3600067"},"vehicle_type_id":"4","last_reported":1749917502,"current_range_meters":0,"station_id":"st_cvj6sg6p6f1abm77japg","pricing_plan_id":"cebpf4jnsgd1na2vs0mg"},{"bike_id":"dc53d1ae-5ac4-48fc-87d7-60d69d8b82e7","system_id":"levelo_inurba_marseille","lat":43.29617,"lon":5.37722,"is_reserved":false,"is_disabled":true,"rental_uris":{"android":"levelo://app?vid=dc53d1ae-5ac4-48fc-87d7-60d69d8b82e7","ios":"levelo://app?vid=dc53d1ae-5ac4-48fc-87d7-60d69d8b82e7"},"vehicle_type_id":"4","last_reported":1749917502,"current_range_meters":400,"station_id":"ce4bgi92rcd13ifvqb90","pricing_plan_id":"cebpf4jnsgd1na2vs0mg"},{"bike_id":"3ccd597c-a121-47ff-b270-37831f5ff6a6","system_id":"levelo_inurba_marseille","lat":43.29964,"lon":5.38493,"is_reserved":false,"is_disabled":true,"rental_uris":{"android":"levelo://app?vid=3ccd597c-a121-47ff-b270-37831f5ff6a6","ios":"levelo://app?vid=3ccd597c-a121-47ff-b270-37831f5ff6a6"},"vehicle_type_id":"4","last_reported":1749917502,"current_range_meters":400,"station_id":"ce4bgj92rcd13ifvqbd0","pricing_plan_id":"cebpf4jnsgd1na2vs0mg"},{"bike_id":"e04eff78-979c-482a-a910-b3713eabac4e","system_id":"levelo_inurba_marseille","lat":43.28421,"lon":5.34987,"is_reserved":false,"is_disabled":true,"rental_uris":{"android":"levelo://app?vid=e04eff78-979c-482a-a910-b3713eabac4e","ios":"levelo://app?vid=e04eff78-979c-482a-a910-b3713eabac4e"},"vehicle_type_id":"4","last_reported":1749917502,"current_range_meters":400,"station_id":"ce4bhbh2rcd13ifvqepg","pricing_plan_id":"cebpf4jnsgd1na2vs0mg"},{"bike_id":"587d4848-610c-48e6-bb14-b1ff1ee6cd4f","system_id":"levelo_inurba_marseille","lat":43.26927,"lon":5.38914,"is_reserved":false,"is_disabled":true,"rental_uris":{"android":"levelo://app?vid=587d4848-610c-48e6-bb14-b1ff1ee6cd4f","ios":"levelo://app?vid=587d4848-610c-48e6-bb14-b1ff1ee6cd4f"},"vehicle_type_id":"4","last_reported":1749917502,"current_range_meters":400,"station_id":"ce4bhhh2rcd13ifvqfl0","pricing_plan_id":"cebpf4jnsgd1na2vs0mg"},{"bike_id":"86b9fe18-6237-49df-a5a8-701a168d66ec","system_id":"levelo_inurba_marseille","lat":43.27211,"lon":5.39179,"is_reserved":false,"is_disabled":true,"rental_uris":{"android":"levelo://app?vid=86b9fe18-6237-49df-a5a8-701a168d66ec","ios":"levelo://app?vid=86b9fe18-6237-49df-a5a8-701a168d66ec"},"vehicle_type_id":"4","last_reported":1749917502,"current_range_meters":400,"station_id":"ce4bhhp2rcd13ifvqfm0","pricing_plan_id":"cebpf4jnsgd1na2vs0mg"},{"bike_id":"06e90533-f9bc-4b2b-a21c-7f0af51f5296","system_id":"levelo_inurba_marseille","lat":43.29629,"lon":5.40607,"is_reserved":false,"is_disabled":true,"rental_uris":{"android":"levelo://app?vid=06e90533-f9bc-4b2b-a21c-7f0af51f5296","ios":"levelo://app?vid=06e90533-f9bc-4b2b-a21c-7f0af51f5296"},"vehicle_type_id":"4","last_reported":1749917502,"current_range_meters":800,"station_id":"ce4bh0h2rcd13ifvqd60","pricing_plan_id":"cebpf4jnsgd1na2vs0mg"},{"bike_id":"3e4ee571-c990-48b9-a158-ed2911201b5d","system_id":"levelo_inurba_marseille","lat":43.23193,"lon":5.35553,"is_reserved":false,"is_disabled":true,"rental_uris":{"android":"levelo://app?vid=3e4ee571-c990-48b9-a158-ed2911201b5d","ios":"levelo://app?vid=3e4ee571-c990-48b9-a158-ed2911201b5d"},"vehicle_type_id":"4","last_reported":1749917502,"current_range_meters":800,"station_id":"ce4bhu92rcd13ifvqi70","pricing_plan_id":"cebpf4jnsgd1na2vs0mg"},{"bike_id":"04005531-52ef-4a8c-a6d8-546a39325ee5","system_id":"levelo_inurba_marseille","lat":43.22502,"lon":5.34788,"is_reserved":false,"is_disabled":true,"rental_uris":{"android":"levelo://app?vid=04005531-52ef-4a8c-a6d8-546a39325ee5","ios":"levelo://app?vid=04005531-52ef-4a8c-a6d8-546a39325ee5"},"vehicle_type_id":"4","last_reported":1749917502,"current_range_meters":800,"station_id":"st_cvj5dfep6f1abm77gieg","pricing_plan_id":"cebpf4jnsgd1na2vs0mg"},{"bike_id":"8d60347d-541c-40fb-90ca-203bf6bd520a","system_id":"levelo_inurba_marseille","lat":43.27115,"lon":5.36407,"is_reserved":false,"is_disabled":true,"rental_uris":{"android":"levelo://app?vid=8d60347d-541c-40fb-90ca-203bf6bd520a","ios":"levelo://app?vid=8d60347d-541c-40fb-90ca-203bf6bd520a"},"vehicle_type_id":"4","last_reported":1749917502,"current_range_meters":1200,"station_id":"","pricing_plan_id":"cebpf4jnsgd1na2vs0mg"},{"bike_id":"816125c2-b9da-47a5-95e0-145507c81528","system_id":"levelo_inurba_marseille","lat":43.24178,"lon":5.39719,"is_reserved":false,"is_disabled":true,"rental_uris":{"android":"levelo://app?vid=816125c2-b9da-47a5-95e0-145507c81528","ios":"levelo://app?vid=816125c2-b9da-47a5-95e0-145507c81528"},"vehicle_type_id":"4","last_reported":1749917502,"current_range_meters":1200,"station_id":"ce4bhn12rcd13ifvqgpg","pricing_plan_id":"cebpf4jnsgd1na2vs0mg"},{"bike_id":"c8e69db0-f09c-4989-ab07-59b40e5edf94","system_id":"levelo_inurba_marseille","lat":43.21745,"lon":5.34603,"is_reserved":false,"is_disabled":true,"rental_uris":{"android":"levelo://app?vid=c8e69db0-f09c-4989-ab07-59b40e5edf94","ios":"levelo://app?vid=c8e69db0-f09c-4989-ab07-59b40e5edf94"},"vehicle_type_id":"4","last_reported":1749917502,"current_range_meters":1200,"station_id":"st_cvj6r9ubvosntc0bgbag","pricing_plan_id":"cebpf4jnsgd1na2vs0mg"},{"bike_id":"0872b8d1-5523-4b83-b133-a650efcbc1de","system_id":"levelo_inurba_marseille","lat":43.30136,"lon":5.39875,"is_reserved":false,"is_disabled":true,"rental_uris":{"android":"levelo://app?vid=0872b8d1-5523-4b83-b133-a650efcbc1de","ios":"levelo://app?vid=0872b8d1-5523-4b83-b133-a650efcbc1de"},"vehicle_type_id":"4","last_reported":1749917502,"current_range_meters":1600,"station_id":"ce4bh0h2rcd13ifvqd40","pricing_plan_id":"cebpf4jnsgd1na2vs0mg"},{"bike_id":"355cd709-72fd-444c-9c83-ef05cbc3b092","system_id":"levelo_inurba_marseille","lat":43.27379,"lon":5.36252,"is_reserved":false,"is_disabled":true,"rental_uris":{"android":"levelo://app?vid=355cd709-72fd-444c-9c83-ef05cbc3b092","ios":"levelo://app?vid=355cd709-72fd-444c-9c83-ef05cbc3b092"},"vehicle_type_id":"4","last_reported":1749917502,"current_range_meters":1600,"station_id":"ce4bhbh2rcd13ifvqeo0","pricing_plan_id":"cebpf4jnsgd1na2vs0mg"},{"bike_id":"f34519ae-e26e-4a96-9b7a-dbe553d0aeb4","system_id":"levelo_inurba_marseille","lat":43.292267,"lon":5.360589,"is_reserved":false,"is_disabled":true,"rental_uris":{"android":"levelo://app?vid=f34519ae-e26e-4a96-9b7a-dbe553d0aeb4","ios":"levelo://app?vid=f34519ae-e26e-4a96-9b7a-dbe553d0aeb4"},"vehicle_type_id":"4","last_reported":1749917502,"current_range_meters":1600,"station_id":"ce4bhbh2rcd13ifvqeqg","pricing_plan_id":"cebpf4jnsgd1na2vs0mg"},{"bike_id":"bd1a4c12-c161-4a90-85a2-b25d52e4e6df","system_id":"levelo_inurba_marseille","lat":43.28148,"lon":5.42643,"is_reserved":false,"is_disabled":true,"rental_uris":{"android":"levelo://app?vid=bd1a4c12-c161-4a90-85a2-b25d52e4e6df","ios":"levelo://app?vid=bd1a4c12-c161-4a90-85a2-b25d52e4e6df"},"vehicle_type_id":"4","last_reported":1749917502,"current_range_meters":1600,"station_id":"ce4bhnh2rcd13ifvqgug","pricing_plan_id":"cebpf4jnsgd1na2vs0mg"},{"bike_id":"776c9c95-9f7f-416d-9dad-13a010ca55d8","system_id":"levelo_inurba_marseille","lat":43.27664,"lon":5.38879,"is_reserved":false,"is_disabled":true,"rental_uris":{"android":"levelo://app?vid=776c9c95-9f7f-416d-9dad-13a010ca55d8","ios":"levelo://app?vid=776c9c95-9f7f-416d-9dad-13a010ca55d8"},"vehicle_type_id":"4","last_reported":1749917502,"current_range_meters":2000,"station_id":"ce4bhi12rcd13ifvqfo0","pricing_plan_id":"cebpf4jnsgd1na2vs0mg"},{"bike_id":"b05f0e9d-7f5c-4aa0-adc6-d6935e044d6e","system_id":"levelo_inurba_marseille","lat":43.265486,"lon":5.396767,"is_reserved":false,"is_disabled":true,"rental_uris":{"android":"levelo://app?vid=b05f0e9d-7f5c-4aa0-adc6-d6935e044d6e","ios":"levelo://app?vid=b05f0e9d-7f5c-4aa0-adc6-d6935e044d6e"},"vehicle_type_id":"4","last_reported":1749917502,"current_range_meters":2000,"station_id":"ce501612rcd8frsf0b60","pricing_plan_id":"cebpf4jnsgd1na2vs0mg"},{"bike_id":"dbf6700e-d573-4997-9a7f-be7fcff4e5eb","system_id":"levelo_inurba_marseille","lat":43.29605,"lon":5.37736,"is_reserved":false,"is_disabled":false,"rental_uris":{"android":"levelo://app?vid=dbf6700e-d573-4997-9a7f-be7fcff4e5eb","ios":"levelo://app?vid=dbf6700e-d573-4997-9a7f-be7fcff4e5eb"},"vehicle_type_id":"4","last_reported":1749917502,"current_range_meters":2800,"station_id":"ce4bgi92rcd13ifvqb90","pricing_plan_id":"cebpf4jnsgd1na2vs0mg"},{"bike_id":"70ff7bbe-883a-4703-9c5d-a05edb5c68ac","system_id":"levelo_inurba_marseille","lat":43.28839,"lon":5.39319,"is_reserved":false,"is_disabled":false,"rental_uris":{"android":"levelo://app?vid=70ff7bbe-883a-4703-9c5d-a05edb5c68ac","ios":"levelo://app?vid=70ff7bbe-883a-4703-9c5d-a05edb5c68ac"},"vehicle_type_id":"4","last_reported":1749917502,"current_range_meters":2800,"station_id":"ce4bh2p2rcd13ifvqdi0","pricing_plan_id":"cebpf4jnsgd1na2vs0mg"},{"bike_id":"8c98a56e-7a4c-47a2-905a-fac86ec7552d","system_id":"levelo_inurba_marseille","lat":43.26568,"lon":5.39,"is_reserved":false,"is_disabled":false,"rental_uris":{"android":"levelo://app?vid=8c98a56e-7a4c-47a2-905a-fac86ec7552d","ios":"levelo://app?vid=8c98a56e-7a4c-47a2-905a-fac86ec7552d"},"vehicle_type_id":"4","last_reported":1749917502,"current_range_meters":2800,"station_id":"ce4bhe12rcd13ifvqf30","pricing_plan_id":"cebpf4jnsgd1na2vs0mg"},{"bike_id":"ebd93357-9bde-4bca-94d4-5325cf80feeb","system_id":"levelo_inurba_marseille","lat":43.28164,"lon":5.42611,"is_reserved":false,"is_disabled":false,"rental_uris":{"android":"levelo://app?vid=ebd93357-9bde-4bca-94d4-5325cf80feeb","ios":"levelo://app?vid=ebd93357-9bde-4bca-94d4-5325cf80feeb"},"vehicle_type_id":"4","last_reported":1749917502,"current_range_meters":2800,"station_id":"ce4bhnh2rcd13ifvqgug","pricing_plan_id":"cebpf4jnsgd1na2vs0mg"},{"bike_id":"44e7ec8b-5d69-4cab-8509-83c319b400f9","system_id":"levelo_inurba_marseille","lat":43.28263,"lon":5.35063,"is_reserved":false,"is_disabled":false,"rental_uris":{"android":"levelo://app?vid=44e7ec8b-5d69-4cab-8509-83c319b400f9","ios":"levelo://app?vid=44e7ec8b-5d69-4cab-8509-83c319b400f9"},"vehicle_type_id":"4","last_reported":1749917502,"current_range_meters":3200,"station_id":"ce4bhbp2rcd13ifvqerg","pricing_plan_id":"cebpf4jnsgd1na2vs0mg"},{"bike_id":"84ab24f7-6832-40ab-83bf-dc313c187e3e","system_id":"levelo_inurba_marseille","lat":43.27204,"lon":5.39176,"is_reserved":false,"is_disabled":false,"rental_uris":{"android":"levelo://app?vid=84ab24f7-6832-40ab-83bf-dc313c187e3e","ios":"levelo://app?vid=84ab24f7-6832-40ab-83bf-dc313c187e3e"},"vehicle_type_id":"4","last_reported":1749917502,"current_range_meters":3200,"station_id":"ce4bhhp2rcd13ifvqfm0","pricing_plan_id":"cebpf4jnsgd1na2vs0mg"},{"bike_id":"8c67a833-a8e9-48f0-b494-ae0dce3a9181","system_id":"levelo_inurba_marseille","lat":43.27296,"lon":5.39133,"is_reserved":false,"is_disabled":false,"rental_uris":{"android":"levelo://app?vid=8c67a833-a8e9-48f0-b494-ae0dce3a9181","ios":"levelo://app?vid=8c67a833-a8e9-48f0-b494-ae0dce3a9181"},"vehicle_type_id":"4","last_reported":1749917502,"current_range_meters":3600,"station_id":"","pricing_plan_id":"cebpf4jnsgd1na2vs0mg"},{"bike_id":"97421c04-2630-4fc1-9da9-b17d88602c5f","system_id":"levelo_inurba_marseille","lat":43.337682,"lon":5.374519,"is_reserved":false,"is_disabled":false,"rental_uris":{"android":"levelo://app?vid=97421c04-2630-4fc1-9da9-b17d88602c5f","ios":"levelo://app?vid=97421c04-2630-4fc1-9da9-b17d88602c5f"},"vehicle_type_id":"4","last_reported":1749917502,"current_range_meters":3600,"station_id":"","pricing_plan_id":"cebpf4jnsgd1na2vs0mg"},{"bike_id":"6d67e21c-72ae-45ed-86bf-fd54b8fdfaa1","system_id":"levelo_inurba_marseille","lat":43.31683,"lon":5.4047,"is_reserved":false,"is_disabled":false,"rental_uris":{"android":"levelo://app?vid=6d67e21c-72ae-45ed-86bf-fd54b8fdfaa1","ios":"levelo://app?vid=6d67e21c-72ae-45ed-86bf-fd54b8fdfaa1"},"vehicle_type_id":"4","last_reported":1749917502,"current_range_meters":3600,"station_id":"ce4bh012rcd13ifvqd00","pricing_plan_id":"cebpf4jnsgd1na2vs0mg"},{"bike_id":"2f81c79c-6675-4c85-b37f-e9f3dc1b9276","system_id":"levelo_inurba_marseille","lat":43.27172,"lon":5.40996,"is_reserved":false,"is_disabled":false,"rental_uris":{"android":"levelo://app?vid=2f81c79c-6675-4c85-b37f-e9f3dc1b9276","ios":"levelo://app?vid=2f81c79c-6675-4c85-b37f-e9f3dc1b9276"},"vehicle_type_id":"4","last_reported":1749917502,"current_range_meters":3600,"station_id":"ce4bhl12rcd13ifvqgf0","pricing_plan_id":"cebpf4jnsgd1na2vs0mg"},{"bike_id":"27c70014-dc4b-4009-958a-b0d2991853db","system_id":"levelo_inurba_marseille","lat":43.23194,"lon":5.35555,"is_reserved":false,"is_disabled":false,"rental_uris":{"android":"levelo://app?vid=27c70014-dc4b-4009-958a-b0d2991853db","ios":"levelo://app?vid=27c70014-dc4b-4009-958a-b0d2991853db"},"vehicle_type_id":"4","last_reported":1749917502,"current_range_meters":3600,"station_id":"ce4bhu92rcd13ifvqi70","pricing_plan_id":"cebpf4jnsgd1na2vs0mg"},{"bike_id":"1046449b-8e54-45fc-91fe-791447c54cca","system_id":"levelo_inurba_marseille","lat":43.26351,"lon":5.37837,"is_reserved":false,"is_disabled":false,"rental_uris":{"android":"levelo://app?vid=1046449b-8e54-45fc-91fe-791447c54cca","ios":"levelo://app?vid=1046449b-8e54-45fc-91fe-791447c54cca"},"vehicle_type_id":"4","last_reported":1749917502,"current_range_meters":3600,"station_id":"st_d163nis0mtpqnht9uue0","pricing_plan_id":"cebpf4jnsgd1na2vs0mg"},{"bike_id":"86cf3aa6-2b63-4930-b9bf-9367a5aa0168","system_id":"levelo_inurba_marseille","lat":43.2991,"lon":5.43668,"is_reserved":false,"is_disabled":false,"rental_uris":{"android":"levelo://app?vid=86cf3aa6-2b63-4930-b9bf-9367a5aa0168","ios":"levelo://app?vid=86cf3aa6-2b63-4930-b9bf-9367a5aa0168"},"vehicle_type_id":"4","last_reported":1749917502,"current_range_meters":4000,"station_id":"ce4bhpp2rcd13ifvqhfg","pricing_plan_id":"cebpf4jnsgd1na2vs0mg"},{"bike_id":"4d9f4d3a-fec9-44fb-8eb8-28293d67cc97","system_id":"levelo_inurba_marseille","lat":43.29266,"lon":5.37635,"is_reserved":false,"is_disabled":false,"rental_uris":{"android":"levelo://app?vid=4d9f4d3a-fec9-44fb-8eb8-28293d67cc97","ios":"levelo://app?vid=4d9f4d3a-fec9-44fb-8eb8-28293d67cc97"},"vehicle_type_id":"4","last_reported":1749917502,"current_range_meters":4400,"station_id":"ce4bgi12rcd13ifvqb80","pricing_plan_id":"cebpf4jnsgd1na2vs0mg"},{"bike_id":"7c7f1394-9913-443c-877f-9822a63e371f","system_id":"levelo_inurba_marseille","lat":43.3015,"lon":5.37406,"is_reserved":false,"is_disabled":false,"rental_uris":{"android":"levelo://app?vid=7c7f1394-9913-443c-877f-9822a63e371f","ios":"levelo://app?vid=7c7f1394-9913-443c-877f-9822a63e371f"},"vehicle_type_id":"4","last_reported":1749917502,"current_range_meters":4400,"station_id":"ce4bgs92rcd13ifvqcc0","pricing_plan_id":"cebpf4jnsgd1na2vs0mg"},{"bike_id":"2b0c3e49-0ff0-4260-8df4-31962208a896","system_id":"levelo_inurba_marseille","lat":43.28346,"lon":5.38101,"is_reserved":false,"is_disabled":false,"rental_uris":{"android":"levelo://app?vid=2b0c3e49-0ff0-4260-8df4-31962208a896","ios":"levelo://app?vid=2b0c3e49-0ff0-4260-8df4-31962208a896"},"vehicle_type_id":"4","last_reported":1749917502,"current_range_meters":4400,"station_id":"ce4bh412rcd13ifvqdr0","pricing_plan_id":"cebpf4jnsgd1na2vs0mg"},{"bike_id":"c58b9db4-7d3f-4b86-a5b3-831604a28d47","system_id":"levelo_inurba_marseille","lat":43.26796,"lon":5.40267,"is_reserved":false,"is_disabled":false,"rental_uris":{"android":"levelo://app?vid=c58b9db4-7d3f-4b86-a5b3-831604a28d47","ios":"levelo://app?vid=c58b9db4-7d3f-4b86-a5b3-831604a28d47"},"vehicle_type_id":"4","last_reported":1749917502,"current_range_meters":4400,"station_id":"ce501612rcd8frsf0b60","pricing_plan_id":"cebpf4jnsgd1na2vs0mg"},{"bike_id":"d21939a4-33fe-40ab-88bb-f79ea964548f","system_id":"levelo_inurba_marseille","lat":43.30952,"lon":5.39033,"is_reserved":false,"is_disabled":false,"rental_uris":{"android":"levelo://app?vid=d21939a4-33fe-40ab-88bb-f79ea964548f","ios":"levelo://app?vid=d21939a4-33fe-40ab-88bb-f79ea964548f"},"vehicle_type_id":"4","last_reported":1749917502,"current_range_meters":4800,"station_id":"ce4bgup2rcd13ifvqco0","pricing_plan_id":"cebpf4jnsgd1na2vs0mg"},{"bike_id":"4c8a362f-60d9-490b-b03e-644f7d12ddae","system_id":"levelo_inurba_marseille","lat":43.25499,"lon":5.37647,"is_reserved":false,"is_disabled":false,"rental_uris":{"android":"levelo://app?vid=4c8a362f-60d9-490b-b03e-644f7d12ddae","ios":"levelo://app?vid=4c8a362f-60d9-490b-b03e-644f7d12ddae"},"vehicle_type_id":"4","last_reported":1749917502,"current_range_meters":4800,"station_id":"ce4bhh12rcd13ifvqff0","pricing_plan_id":"cebpf4jnsgd1na2vs0mg"},{"bike_id":"64a30b58-6677-4666-8a30-2786903c99dd","system_id":"levelo_inurba_marseille","lat":43.27198,"lon":5.39188,"is_reserved":false,"is_disabled":false,"rental_uris":{"android":"levelo://app?vid=64a30b58-6677-4666-8a30-2786903c99dd","ios":"levelo://app?vid=64a30b58-6677-4666-8a30-2786903c99dd"},"vehicle_type_id":"4","last_reported":1749917502,"current_range_meters":4800,"station_id":"ce4bhhp2rcd13ifvqfm0","pricing_plan_id":"cebpf4jnsgd1na2vs0mg"},{"bike_id":"5340ea2b-1c00-4396-9414-386ec6bc9778","system_id":"levelo_inurba_marseille","lat":43.30414,"lon":5.412788,"is_reserved":false,"is_disabled":false,"rental_uris":{"android":"levelo://app?vid=5340ea2b-1c00-4396-9414-386ec6bc9778","ios":"levelo://app?vid=5340ea2b-1c00-4396-9414-386ec6bc9778"},"vehicle_type_id":"4","last_reported":1749917502,"current_range_meters":4800,"station_id":"ce4bhop2rcd13ifvqh8g","pricing_plan_id":"cebpf4jnsgd1na2vs0mg"},{"bike_id":"b2c4e13b-21ea-4f5b-b306-b16f9a522cc8","system_id":"levelo_inurba_marseille","lat":43.29195,"lon":5.35798,"is_reserved":false,"is_disabled":false,"rental_uris":{"android":"levelo://app?vid=b2c4e13b-21ea-4f5b-b306-b16f9a522cc8","ios":"levelo://app?vid=b2c4e13b-21ea-4f5b-b306-b16f9a522cc8"},"vehicle_type_id":"4","last_reported":1749917502,"current_range_meters":5600,"station_id":"ce4bhb12rcd13ifvqel0","pricing_plan_id":"cebpf4jnsgd1na2vs0mg"},{"bike_id":"581100bb-c67b-499d-9a5c-f5b59533d464","system_id":"levelo_inurba_marseille","lat":43.29219,"lon":5.36049,"is_reserved":false,"is_disabled":false,"rental_uris":{"android":"levelo://app?vid=581100bb-c67b-499d-9a5c-f5b59533d464","ios":"levelo://app?vid=581100bb-c67b-499d-9a5c-f5b59533d464"},"vehicle_type_id":"4","last_reported":1749917502,"current_range_meters":5600,"station_id":"ce4bhbh2rcd13ifvqeqg","pricing_plan_id":"cebpf4jnsgd1na2vs0mg"},{"bike_id":"86b97e36-6517-4b44-9aa2-469d90529272","system_id":"levelo_inurba_marseille","lat":43.2572,"lon":5.41104,"is_reserved":false,"is_disabled":false,"rental_uris":{"android":"levelo://app?vid=86b97e36-6517-4b44-9aa2-469d90529272","ios":"levelo://app?vid=86b97e36-6517-4b44-9aa2-469d90529272"},"vehicle_type_id":"4","last_reported":1749917502,"current_range_meters":5600,"station_id":"ce4bhkp2rcd13ifvqgd0","pricing_plan_id":"cebpf4jnsgd1na2vs0mg"},{"bike_id":"f5b2ffae-c086-4e1b-b0fd-043d6026a577","system_id":"levelo_inurba_marseille","lat":43.33745,"lon":5.3919,"is_reserved":false,"is_disabled":false,"rental_uris":{"android":"levelo://app?vid=f5b2ffae-c086-4e1b-b0fd-043d6026a577","ios":"levelo://app?vid=f5b2ffae-c086-4e1b-b0fd-043d6026a577"},"vehicle_type_id":"4","last_reported":1749917502,"current_range_meters":5600,"station_id":"ce4bhr92rcd13ifvqhsg","pricing_plan_id":"cebpf4jnsgd1na2vs0mg"},{"bike_id":"d08ceb6e-bb09-4d96-a815-acf4b6b23ab7","system_id":"levelo_inurba_marseille","lat":43.26338,"lon":5.37868,"is_reserved":false,"is_disabled":false,"rental_uris":{"android":"levelo://app?vid=d08ceb6e-bb09-4d96-a815-acf4b6b23ab7","ios":"levelo://app?vid=d08ceb6e-bb09-4d96-a815-acf4b6b23ab7"},"vehicle_type_id":"4","last_reported":1749917502,"current_range_meters":6000,"station_id":"","pricing_plan_id":"cebpf4jnsgd1na2vs0mg"},{"bike_id":"2f1f72bc-3c64-4cf2-977a-20fa97aa8949","system_id":"levelo_inurba_marseille","lat":43.28419,"lon":5.34979,"is_reserved":false,"is_disabled":false,"rental_uris":{"android":"levelo://app?vid=2f1f72bc-3c64-4cf2-977a-20fa97aa8949","ios":"levelo://app?vid=2f1f72bc-3c64-4cf2-977a-20fa97aa8949"},"vehicle_type_id":"4","last_reported":1749917502,"current_range_meters":6000,"station_id":"ce4bhbh2rcd13ifvqepg","pricing_plan_id":"cebpf4jnsgd1na2vs0mg"},{"bike_id":"243d7b6f-5383-4a58-a547-586cfa06cf01","system_id":"levelo_inurba_marseille","lat":43.28153,"lon":5.42643,"is_reserved":false,"is_disabled":false,"rental_uris":{"android":"levelo://app?vid=243d7b6f-5383-4a58-a547-586cfa06cf01","ios":"levelo://app?vid=243d7b6f-5383-4a58-a547-586cfa06cf01"},"vehicle_type_id":"4","last_reported":1749917502,"current_range_meters":6000,"station_id":"ce4bhnh2rcd13ifvqgug","pricing_plan_id":"cebpf4jnsgd1na2vs0mg"},{"bike_id":"1a02737e-1ddf-475d-9950-54127761b49d","system_id":"levelo_inurba_marseille","lat":43.29581,"lon":5.42325,"is_reserved":false,"is_disabled":false,"rental_uris":{"android":"levelo://app?vid=1a02737e-1ddf-475d-9950-54127761b49d","ios":"levelo://app?vid=1a02737e-1ddf-475d-9950-54127761b49d"},"vehicle_type_id":"4","last_reported":1749917502,"current_range_meters":6000,"station_id":"ce4bhph2rcd13ifvqhdg","pricing_plan_id":"cebpf4jnsgd1na2vs0mg"},{"bike_id":"ce9c701b-b025-413b-87c6-854b6d9d1a70","system_id":"levelo_inurba_marseille","lat":43.2841,"lon":5.34978,"is_reserved":false,"is_disabled":false,"rental_uris":{"android":"levelo://app?vid=ce9c701b-b025-413b-87c6-854b6d9d1a70","ios":"levelo://app?vid=ce9c701b-b025-413b-87c6-854b6d9d1a70"},"vehicle_type_id":"4","last_reported":1749917502,"current_range_meters":6400,"station_id":"ce4bhbh2rcd13ifvqepg","pricing_plan_id":"cebpf4jnsgd1na2vs0mg"},{"bike_id":"001febe9-1db7-4671-8917-c2a5b98baf23","system_id":"levelo_inurba_marseille","lat":43.25501,"lon":5.37648,"is_reserved":false,"is_disabled":false,"rental_uris":{"android":"levelo://app?vid=001febe9-1db7-4671-8917-c2a5b98baf23","ios":"levelo://app?vid=001febe9-1db7-4671-8917-c2a5b98baf23"},"vehicle_type_id":"4","last_reported":1749917502,"current_range_meters":6400,"station_id":"ce4bhh12rcd13ifvqff0","pricing_plan_id":"cebpf4jnsgd1na2vs0mg"},{"bike_id":"8770dbef-e8bd-43f8-bdb5-b4e3167a38af","system_id":"levelo_inurba_marseille","lat":43.25492,"lon":5.3765,"is_reserved":false,"is_disabled":false,"rental_uris":{"android":"levelo://app?vid=8770dbef-e8bd-43f8-bdb5-b4e3167a38af","ios":"levelo://app?vid=8770dbef-e8bd-43f8-bdb5-b4e3167a38af"},"vehicle_type_id":"4","last_reported":1749917502,"current_range_meters":6400,"station_id":"ce4bhh12rcd13ifvqff0","pricing_plan_id":"cebpf4jnsgd1na2vs0mg"},{"bike_id":"af8efff2-283f-4833-a9a2-6c33bc6032c9","system_id":"levelo_inurba_marseille","lat":43.3236,"lon":5.3676,"is_reserved":false,"is_disabled":false,"rental_uris":{"android":"levelo://app?vid=af8efff2-283f-4833-a9a2-6c33bc6032c9","ios":"levelo://app?vid=af8efff2-283f-4833-a9a2-6c33bc6032c9"},"vehicle_type_id":"4","last_reported":1749917502,"current_range_meters":6400,"station_id":"ce4bhsh2rcd13ifvqi2g","pricing_plan_id":"cebpf4jnsgd1na2vs0mg"},{"bike_id":"a6ad01d0-efb1-4f14-a5fd-e22386289e67","system_id":"levelo_inurba_marseille","lat":43.323622,"lon":5.367045,"is_reserved":false,"is_disabled":false,"rental_uris":{"android":"levelo://app?vid=a6ad01d0-efb1-4f14-a5fd-e22386289e67","ios":"levelo://app?vid=a6ad01d0-efb1-4f14-a5fd-e22386289e67"},"vehicle_type_id":"4","last_reported":1749917502,"current_range_meters":6400,"station_id":"ce4bhsh2rcd13ifvqi2g","pricing_plan_id":"cebpf4jnsgd1na2vs0mg"},{"bike_id":"efe18f69-9ce9-4d8d-8c84-3b0229aa2194","system_id":"levelo_inurba_marseille","lat":43.29707,"lon":5.36611,"is_reserved":false,"is_disabled":false,"rental_uris":{"android":"levelo://app?vid=efe18f69-9ce9-4d8d-8c84-3b0229aa2194","ios":"levelo://app?vid=efe18f69-9ce9-4d8d-8c84-3b0229aa2194"},"vehicle_type_id":"4","last_reported":1749917502,"current_range_meters":6800,"station_id":"ce4bgn12rcd13ifvqbt0","pricing_plan_id":"cebpf4jnsgd1na2vs0mg"},{"bike_id":"cfafdc90-1b96-4839-a6b9-91b94919c2ed","system_id":"levelo_inurba_marseille","lat":43.30766,"lon":5.392269,"is_reserved":false,"is_disabled":false,"rental_uris":{"android":"levelo://app?vid=cfafdc90-1b96-4839-a6b9-91b94919c2ed","ios":"levelo://app?vid=cfafdc90-1b96-4839-a6b9-91b94919c2ed"},"vehicle_type_id":"4","last_reported":1749917502,"current_range_meters":6800,"station_id":"ce4bgup2rcd13ifvqco0","pricing_plan_id":"cebpf4jnsgd1na2vs0mg"},{"bike_id":"3ebcb526-9195-4257-ae10-ca7e45e1829a","system_id":"levelo_inurba_marseille","lat":43.23184,"lon":5.39989,"is_reserved":false,"is_disabled":false,"rental_uris":{"android":"levelo://app?vid=3ebcb526-9195-4257-ae10-ca7e45e1829a","ios":"levelo://app?vid=3ebcb526-9195-4257-ae10-ca7e45e1829a"},"vehicle_type_id":"4","last_reported":1749917502,"current_range_meters":6800,"station_id":"ce4bhn12rcd13ifvqgqg","pricing_plan_id":"cebpf4jnsgd1na2vs0mg"},{"bike_id":"f55a8af7-320a-4a0f-bca4-c7f60cbe2581","system_id":"levelo_inurba_marseille","lat":43.30525,"lon":5.36723,"is_reserved":false,"is_disabled":false,"rental_uris":{"android":"levelo://app?vid=f55a8af7-320a-4a0f-bca4-c7f60cbe2581","ios":"levelo://app?vid=f55a8af7-320a-4a0f-bca4-c7f60cbe2581"},"vehicle_type_id":"4","last_reported":1749917502,"current_range_meters":7200,"station_id":"ce4bgrp2rcd13ifvqc9g","pricing_plan_id":"cebpf4jnsgd1na2vs0mg"},{"bike_id":"724b3c11-1bc7-4e74-ae08-a697d382502d","system_id":"levelo_inurba_marseille","lat":43.31161,"lon":5.38713,"is_reserved":false,"is_disabled":false,"rental_uris":{"android":"levelo://app?vid=724b3c11-1bc7-4e74-ae08-a697d382502d","ios":"levelo://app?vid=724b3c11-1bc7-4e74-ae08-a697d382502d"},"vehicle_type_id":"4","last_reported":1749917502,"current_range_meters":7200,"station_id":"ce4bgv12rcd13ifvqcp0","pricing_plan_id":"cebpf4jnsgd1na2vs0mg"},{"bike_id":"69d74cdd-4fa8-4122-b4b3-bb07548180d1","system_id":"levelo_inurba_marseille","lat":43.2737,"lon":5.36255,"is_reserved":false,"is_disabled":false,"rental_uris":{"android":"levelo://app?vid=69d74cdd-4fa8-4122-b4b3-bb07548180d1","ios":"levelo://app?vid=69d74cdd-4fa8-4122-b4b3-bb07548180d1"},"vehicle_type_id":"4","last_reported":1749917502,"current_range_meters":8000,"station_id":"ce4bhbh2rcd13ifvqeo0","pricing_plan_id":"cebpf4jnsgd1na2vs0mg"},{"bike_id":"5faa2615-ccba-44a8-a78a-81a4e1a220b4","system_id":"levelo_inurba_marseille","lat":43.22924,"lon":5.35381,"is_reserved":false,"is_disabled":false,"rental_uris":{"android":"levelo://app?vid=5faa2615-ccba-44a8-a78a-81a4e1a220b4","ios":"levelo://app?vid=5faa2615-ccba-44a8-a78a-81a4e1a220b4"},"vehicle_type_id":"4","last_reported":1749917502,"current_range_meters":8000,"station_id":"cpo3532slgdg3j2ikp40","pricing_plan_id":"cebpf4jnsgd1na2vs0mg"},{"bike_id":"6facbc0d-f1b5-4dc3-86d4-5c1204834925","system_id":"levelo_inurba_marseille","lat":43.28058,"lon":5.34801,"is_reserved":false,"is_disabled":false,"rental_uris":{"android":"levelo://app?vid=6facbc0d-f1b5-4dc3-86d4-5c1204834925","ios":"levelo://app?vid=6facbc0d-f1b5-4dc3-86d4-5c1204834925"},"vehicle_type_id":"4","last_reported":1749917502,"current_range_meters":8400,"station_id":"","pricing_plan_id":"cebpf4jnsgd1na2vs0mg"},{"bike_id":"ee45d587-7a0b-4c13-81f4-1fe4dc2c701c","system_id":"levelo_inurba_marseille","lat":43.31168,"lon":5.38711,"is_reserved":false,"is_disabled":false,"rental_uris":{"android":"levelo://app?vid=ee45d587-7a0b-4c13-81f4-1fe4dc2c701c","ios":"levelo://app?vid=ee45d587-7a0b-4c13-81f4-1fe4dc2c701c"},"vehicle_type_id":"4","last_reported":1749917502,"current_range_meters":8400,"station_id":"ce4bgv12rcd13ifvqcp0","pricing_plan_id":"cebpf4jnsgd1na2vs0mg"},{"bike_id":"5f53ef69-6543-4651-b8d5-60524a6d25a2","system_id":"levelo_inurba_marseille","lat":43.28414,"lon":5.34978,"is_reserved":false,"is_disabled":false,"rental_uris":{"android":"levelo://app?vid=5f53ef69-6543-4651-b8d5-60524a6d25a2","ios":"levelo://app?vid=5f53ef69-6543-4651-b8d5-60524a6d25a2"},"vehicle_type_id":"4","last_reported":1749917502,"current_range_meters":8400,"station_id":"ce4bhbh2rcd13ifvqepg","pricing_plan_id":"cebpf4jnsgd1na2vs0mg"},{"bike_id":"1d248bb4-394b-4d84-b78a-9069ef2c03f6","system_id":"levelo_inurba_marseille","lat":43.24546,"lon":5.39521,"is_reserved":false,"is_disabled":false,"rental_uris":{"android":"levelo://app?vid=1d248bb4-394b-4d84-b78a-9069ef2c03f6","ios":"levelo://app?vid=1d248bb4-394b-4d84-b78a-9069ef2c03f6"},"vehicle_type_id":"4","last_reported":1749917502,"current_range_meters":8400,"station_id":"ce4bhlp2rcd13ifvqgjg","pricing_plan_id":"cebpf4jnsgd1na2vs0mg"},{"bike_id":"f32c1acb-8512-4e74-91c0-4c8c5a1511cb","system_id":"levelo_inurba_marseille","lat":43.31754,"lon":5.39014,"is_reserved":false,"is_disabled":false,"rental_uris":{"android":"levelo://app?vid=f32c1acb-8512-4e74-91c0-4c8c5a1511cb","ios":"levelo://app?vid=f32c1acb-8512-4e74-91c0-4c8c5a1511cb"},"vehicle_type_id":"4","last_reported":1749917502,"current_range_meters":8400,"station_id":"ce4bhqp2rcd13ifvqhng","pricing_plan_id":"cebpf4jnsgd1na2vs0mg"},{"bike_id":"b84aa292-4dcd-4fd1-9c32-31c908b55ac3","system_id":"levelo_inurba_marseille","lat":43.27976,"lon":5.38742,"is_reserved":false,"is_disabled":false,"rental_uris":{"android":"levelo://app?vid=b84aa292-4dcd-4fd1-9c32-31c908b55ac3","ios":"levelo://app?vid=b84aa292-4dcd-4fd1-9c32-31c908b55ac3"},"vehicle_type_id":"4","last_reported":1749917502,"current_range_meters":8800,"station_id":"ce4bhg12rcd13ifvqf80","pricing_plan_id":"cebpf4jnsgd1na2vs0mg"},{"bike_id":"2b3ac1fa-8894-4bec-870a-a2e99e976b73","system_id":"levelo_inurba_marseille","lat":43.25492,"lon":5.37646,"is_reserved":false,"is_disabled":false,"rental_uris":{"android":"levelo://app?vid=2b3ac1fa-8894-4bec-870a-a2e99e976b73","ios":"levelo://app?vid=2b3ac1fa-8894-4bec-870a-a2e99e976b73"},"vehicle_type_id":"4","last_reported":1749917502,"current_range_meters":8800,"station_id":"ce4bhh12rcd13ifvqff0","pricing_plan_id":"cebpf4jnsgd1na2vs0mg"},{"bike_id":"0dd00f6f-359b-401a-a930-fefa4580045b","system_id":"levelo_inurba_marseille","lat":43.32349,"lon":5.36706,"is_reserved":false,"is_disabled":false,"rental_uris":{"android":"levelo://app?vid=0dd00f6f-359b-401a-a930-fefa4580045b","ios":"levelo://app?vid=0dd00f6f-359b-401a-a930-fefa4580045b"},"vehicle_type_id":"4","last_reported":1749917502,"current_range_meters":8800,"station_id":"ce4bhsh2rcd13ifvqi2g","pricing_plan_id":"cebpf4jnsgd1na2vs0mg"},{"bike_id":"90750f30-5a92-4040-9b85-7bf231ede698","system_id":"levelo_inurba_marseille","lat":43.21742,"lon":5.34601,"is_reserved":false,"is_disabled":false,"rental_uris":{"android":"levelo://app?vid=90750f30-5a92-4040-9b85-7bf231ede698","ios":"levelo://app?vid=90750f30-5a92-4040-9b85-7bf231ede698"},"vehicle_type_id":"4","last_reported":1749917502,"current_range_meters":8800,"station_id":"st_cvj6r9ubvosntc0bgbag","pricing_plan_id":"cebpf4jnsgd1na2vs0mg"},{"bike_id":"0540be0e-dd59-4e1d-a046-e44ad1b37c07","system_id":"levelo_inurba_marseille","lat":43.21189,"lon":5.35075,"is_reserved":false,"is_disabled":false,"rental_uris":{"android":"levelo://app?vid=0540be0e-dd59-4e1d-a046-e44ad1b37c07","ios":"levelo://app?vid=0540be0e-dd59-4e1d-a046-e44ad1b37c07"},"vehicle_type_id":"4","last_reported":1749917502,"current_range_meters":8800,"station_id":"st_cvj6sg6p6f1abm77japg","pricing_plan_id":"cebpf4jnsgd1na2vs0mg"},{"bike_id":"d3558311-0099-42dd-bd97-acea5e21771b","system_id":"levelo_inurba_marseille","lat":43.29257,"lon":5.38829,"is_reserved":false,"is_disabled":false,"rental_uris":{"android":"levelo://app?vid=d3558311-0099-42dd-bd97-acea5e21771b","ios":"levelo://app?vid=d3558311-0099-42dd-bd97-acea5e21771b"},"vehicle_type_id":"4","last_reported":1749917502,"current_range_meters":9200,"station_id":"ce4bh3p2rcd13ifvqdp0","pricing_plan_id":"cebpf4jnsgd1na2vs0mg"},{"bike_id":"0cb9e162-a3a2-418b-a29a-70759dc43352","system_id":"levelo_inurba_marseille","lat":43.24663,"lon":5.38158,"is_reserved":false,"is_disabled":false,"rental_uris":{"android":"levelo://app?vid=0cb9e162-a3a2-418b-a29a-70759dc43352","ios":"levelo://app?vid=0cb9e162-a3a2-418b-a29a-70759dc43352"},"vehicle_type_id":"4","last_reported":1749917502,"current_range_meters":9200,"station_id":"ce4bhih2rcd13ifvqfr0","pricing_plan_id":"cebpf4jnsgd1na2vs0mg"},{"bike_id":"9b5d71f9-5511-4cfd-810f-2bda3970527b","system_id":"levelo_inurba_marseille","lat":43.25613,"lon":5.38211,"is_reserved":false,"is_disabled":false,"rental_uris":{"android":"levelo://app?vid=9b5d71f9-5511-4cfd-810f-2bda3970527b","ios":"levelo://app?vid=9b5d71f9-5511-4cfd-810f-2bda3970527b"},"vehicle_type_id":"4","last_reported":1749917502,"current_range_meters":9200,"station_id":"ce4bhih2rcd13ifvqfs0","pricing_plan_id":"cebpf4jnsgd1na2vs0mg"},{"bike_id":"d4142297-5b47-45e7-bb57-2198a0f60b0c","system_id":"levelo_inurba_marseille","lat":43.28356,"lon":5.38095,"is_reserved":false,"is_disabled":false,"rental_uris":{"android":"levelo://app?vid=d4142297-5b47-45e7-bb57-2198a0f60b0c","ios":"levelo://app?vid=d4142297-5b47-45e7-bb57-2198a0f60b0c"},"vehicle_type_id":"4","last_reported":1749917502,"current_range_meters":9600,"station_id":"ce4bh412rcd13ifvqdr0","pricing_plan_id":"cebpf4jnsgd1na2vs0mg"},{"bike_id":"0564aa7f-efc2-4488-8419-d7be382be993","system_id":"levelo_inurba_marseille","lat":43.28616,"lon":5.35106,"is_reserved":false,"is_disabled":false,"rental_uris":{"android":"levelo://app?vid=0564aa7f-efc2-4488-8419-d7be382be993","ios":"levelo://app?vid=0564aa7f-efc2-4488-8419-d7be382be993"},"vehicle_type_id":"4","last_reported":1749917502,"current_range_meters":9600,"station_id":"ce4bhch2rcd13ifvqeug","pricing_plan_id":"cebpf4jnsgd1na2vs0mg"},{"bike_id":"2ab31527-f915-4286-b3a0-0beafd2cdd50","system_id":"levelo_inurba_marseille","lat":43.300174,"lon":5.370059,"is_reserved":false,"is_disabled":false,"rental_uris":{"android":"levelo://app?vid=2ab31527-f915-4286-b3a0-0beafd2cdd50","ios":"levelo://app?vid=2ab31527-f915-4286-b3a0-0beafd2cdd50"},"vehicle_type_id":"4","last_reported":1749917502,"current_range_meters":10000,"station_id":"","pricing_plan_id":"cebpf4jnsgd1na2vs0mg"},{"bike_id":"87c270dc-4fcf-4263-8f57-a07ca944f869","system_id":"levelo_inurba_marseille","lat":43.31257,"lon":5.39475,"is_reserved":false,"is_disabled":false,"rental_uris":{"android":"levelo://app?vid=87c270dc-4fcf-4263-8f57-a07ca944f869","ios":"levelo://app?vid=87c270dc-4fcf-4263-8f57-a07ca944f869"},"vehicle_type_id":"4","last_reported":1749917502,"current_range_meters":10000,"station_id":"","pricing_plan_id":"cebpf4jnsgd1na2vs0mg"},{"bike_id":"1d4c24a3-6950-4441-8c6c-163a35c593c5","system_id":"levelo_inurba_marseille","lat":43.292618,"lon":5.384397,"is_reserved":false,"is_disabled":false,"rental_uris":{"android":"levelo://app?vid=1d4c24a3-6950-4441-8c6c-163a35c593c5","ios":"levelo://app?vid=1d4c24a3-6950-4441-8c6c-163a35c593c5"},"vehicle_type_id":"4","last_reported":1749917502,"current_range_meters":10000,"station_id":"ce4bh692rcd13ifvqea0","pricing_plan_id":"cebpf4jnsgd1na2vs0mg"},{"bike_id":"38f69d32-c07d-4e5d-b2be-a045ca5ffeb4","system_id":"levelo_inurba_marseille","lat":43.26208,"lon":5.37438,"is_reserved":false,"is_disabled":false,"rental_uris":{"android":"levelo://app?vid=38f69d32-c07d-4e5d-b2be-a045ca5ffeb4","ios":"levelo://app?vid=38f69d32-c07d-4e5d-b2be-a045ca5ffeb4"},"vehicle_type_id":"4","last_reported":1749917502,"current_range_meters":10000,"station_id":"ce4bhgp2rcd13ifvqfc0","pricing_plan_id":"cebpf4jnsgd1na2vs0mg"},{"bike_id":"1de81a9a-fa4b-4108-b236-c270548102ac","system_id":"levelo_inurba_marseille","lat":43.255713,"lon":5.38246,"is_reserved":false,"is_disabled":false,"rental_uris":{"android":"levelo://app?vid=1de81a9a-fa4b-4108-b236-c270548102ac","ios":"levelo://app?vid=1de81a9a-fa4b-4108-b236-c270548102ac"},"vehicle_type_id":"4","last_reported":1749917502,"current_range_meters":10000,"station_id":"ce4bhih2rcd13ifvqfs0","pricing_plan_id":"cebpf4jnsgd1na2vs0mg"},{"bike_id":"0a176c0c-78a3-474b-b917-3fc9a4ed2ff7","system_id":"levelo_inurba_marseille","lat":43.25564,"lon":5.38242,"is_reserved":false,"is_disabled":false,"rental_uris":{"android":"levelo://app?vid=0a176c0c-78a3-474b-b917-3fc9a4ed2ff7","ios":"levelo://app?vid=0a176c0c-78a3-474b-b917-3fc9a4ed2ff7"},"vehicle_type_id":"4","last_reported":1749917502,"current_range_meters":10000,"station_id":"ce4bhih2rcd13ifvqfs0","pricing_plan_id":"cebpf4jnsgd1na2vs0mg"},{"bike_id":"a0e69f08-cea5-4ef9-b7b9-44bc54b2adbe","system_id":"levelo_inurba_marseille","lat":43.28157,"lon":5.42637,"is_reserved":false,"is_disabled":false,"rental_uris":{"android":"levelo://app?vid=a0e69f08-cea5-4ef9-b7b9-44bc54b2adbe","ios":"levelo://app?vid=a0e69f08-cea5-4ef9-b7b9-44bc54b2adbe"},"vehicle_type_id":"4","last_reported":1749917502,"current_range_meters":10000,"station_id":"ce4bhnh2rcd13ifvqgug","pricing_plan_id":"cebpf4jnsgd1na2vs0mg"},{"bike_id":"b133fb66-80cd-47bc-92eb-825e1fbb4134","system_id":"levelo_inurba_marseille","lat":43.28718,"lon":5.39963,"is_reserved":false,"is_disabled":false,"rental_uris":{"android":"levelo://app?vid=b133fb66-80cd-47bc-92eb-825e1fbb4134","ios":"levelo://app?vid=b133fb66-80cd-47bc-92eb-825e1fbb4134"},"vehicle_type_id":"4","last_reported":1749917502,"current_range_meters":10000,"station_id":"ce4bho92rcd13ifvqh3g","pricing_plan_id":"cebpf4jnsgd1na2vs0mg"},{"bike_id":"90eb87fa-de1e-449a-8f1d-4bf8a40eab32","system_id":"levelo_inurba_marseille","lat":43.26804,"lon":5.40267,"is_reserved":false,"is_disabled":false,"rental_uris":{"android":"levelo://app?vid=90eb87fa-de1e-449a-8f1d-4bf8a40eab32","ios":"levelo://app?vid=90eb87fa-de1e-449a-8f1d-4bf8a40eab32"},"vehicle_type_id":"4","last_reported":1749917502,"current_range_meters":10000,"station_id":"ce501612rcd8frsf0b60","pricing_plan_id":"cebpf4jnsgd1na2vs0mg"},{"bike_id":"16e66894-8c74-4561-b74c-3470062db52c","system_id":"levelo_inurba_marseille","lat":43.31177,"lon":5.38724,"is_reserved":false,"is_disabled":false,"rental_uris":{"android":"levelo://app?vid=16e66894-8c74-4561-b74c-3470062db52c","ios":"levelo://app?vid=16e66894-8c74-4561-b74c-3470062db52c"},"vehicle_type_id":"4","last_reported":1749917502,"current_range_meters":10800,"station_id":"ce4bgv12rcd13ifvqcp0","pricing_plan_id":"cebpf4jnsgd1na2vs0mg"},{"bike_id":"6546c545-de18-48e5-9150-48ba87222fe5","system_id":"levelo_inurba_marseille","lat":43.28613,"lon":5.35107,"is_reserved":false,"is_disabled":false,"rental_uris":{"android":"levelo://app?vid=6546c545-de18-48e5-9150-48ba87222fe5","ios":"levelo://app?vid=6546c545-de18-48e5-9150-48ba87222fe5"},"vehicle_type_id":"4","last_reported":1749917502,"current_range_meters":10800,"station_id":"ce4bhch2rcd13ifvqeug","pricing_plan_id":"cebpf4jnsgd1na2vs0mg"},{"bike_id":"bd6a90a9-ff3b-478b-823e-14d0ad3ee7ed","system_id":"levelo_inurba_marseille","lat":43.266787,"lon":5.382679,"is_reserved":false,"is_disabled":false,"rental_uris":{"android":"levelo://app?vid=bd6a90a9-ff3b-478b-823e-14d0ad3ee7ed","ios":"levelo://app?vid=bd6a90a9-ff3b-478b-823e-14d0ad3ee7ed"},"vehicle_type_id":"4","last_reported":1749917502,"current_range_meters":10800,"station_id":"ce4bhg92rcd13ifvqf90","pricing_plan_id":"cebpf4jnsgd1na2vs0mg"},{"bike_id":"8f175b80-2b48-4619-b977-cd2489ff3492","system_id":"levelo_inurba_marseille","lat":43.25485,"lon":5.37652,"is_reserved":false,"is_disabled":false,"rental_uris":{"android":"levelo://app?vid=8f175b80-2b48-4619-b977-cd2489ff3492","ios":"levelo://app?vid=8f175b80-2b48-4619-b977-cd2489ff3492"},"vehicle_type_id":"4","last_reported":1749917502,"current_range_meters":10800,"station_id":"ce4bhh12rcd13ifvqff0","pricing_plan_id":"cebpf4jnsgd1na2vs0mg"},{"bike_id":"db696f9f-9ecc-4e26-bd9c-bd73bc64204b","system_id":"levelo_inurba_marseille","lat":43.298909,"lon":5.436789,"is_reserved":false,"is_disabled":false,"rental_uris":{"android":"levelo://app?vid=db696f9f-9ecc-4e26-bd9c-bd73bc64204b","ios":"levelo://app?vid=db696f9f-9ecc-4e26-bd9c-bd73bc64204b"},"vehicle_type_id":"4","last_reported":1749917502,"current_range_meters":10800,"station_id":"ce4bhpp2rcd13ifvqhfg","pricing_plan_id":"cebpf4jnsgd1na2vs0mg"},{"bike_id":"67ce34f9-7ee9-4871-9024-db6244b9d74c","system_id":"levelo_inurba_marseille","lat":43.24162,"lon":5.36388,"is_reserved":false,"is_disabled":false,"rental_uris":{"android":"levelo://app?vid=67ce34f9-7ee9-4871-9024-db6244b9d74c","ios":"levelo://app?vid=67ce34f9-7ee9-4871-9024-db6244b9d74c"},"vehicle_type_id":"4","last_reported":1749917502,"current_range_meters":10800,"station_id":"cpo36qri1sfpv3e86is0","pricing_plan_id":"cebpf4jnsgd1na2vs0mg"},{"bike_id":"81f1b5d0-8bab-4186-b27d-9af31366e9b0","system_id":"levelo_inurba_marseille","lat":43.28044,"lon":5.36945,"is_reserved":false,"is_disabled":false,"rental_uris":{"android":"levelo://app?vid=81f1b5d0-8bab-4186-b27d-9af31366e9b0","ios":"levelo://app?vid=81f1b5d0-8bab-4186-b27d-9af31366e9b0"},"vehicle_type_id":"4","last_reported":1749917502,"current_range_meters":11200,"station_id":"ce4bha12rcd13ifvqef0","pricing_plan_id":"cebpf4jnsgd1na2vs0mg"},{"bike_id":"dcf42c34-08d8-4be9-8aa6-de2dd3deb19f","system_id":"levelo_inurba_marseille","lat":43.28264,"lon":5.35062,"is_reserved":false,"is_disabled":false,"rental_uris":{"android":"levelo://app?vid=dcf42c34-08d8-4be9-8aa6-de2dd3deb19f","ios":"levelo://app?vid=dcf42c34-08d8-4be9-8aa6-de2dd3deb19f"},"vehicle_type_id":"4","last_reported":1749917502,"current_range_meters":11200,"station_id":"ce4bhbp2rcd13ifvqerg","pricing_plan_id":"cebpf4jnsgd1na2vs0mg"},{"bike_id":"8c79cfdc-19a2-456a-8f03-5c5232184a2a","system_id":"levelo_inurba_marseille","lat":43.29289,"lon":5.36826,"is_reserved":false,"is_disabled":false,"rental_uris":{"android":"levelo://app?vid=8c79cfdc-19a2-456a-8f03-5c5232184a2a","ios":"levelo://app?vid=8c79cfdc-19a2-456a-8f03-5c5232184a2a"},"vehicle_type_id":"4","last_reported":1749917502,"current_range_meters":11200,"station_id":"ce4bhbp2rcd13ifvqesg","pricing_plan_id":"cebpf4jnsgd1na2vs0mg"},{"bike_id":"65486a64-98c5-4cbf-83b2-513c6a21535f","system_id":"levelo_inurba_marseille","lat":43.32475,"lon":5.365468,"is_reserved":false,"is_disabled":false,"rental_uris":{"android":"levelo://app?vid=65486a64-98c5-4cbf-83b2-513c6a21535f","ios":"levelo://app?vid=65486a64-98c5-4cbf-83b2-513c6a21535f"},"vehicle_type_id":"4","last_reported":1749917502,"current_range_meters":11600,"station_id":"ce4bhs12rcd13ifvqhvg","pricing_plan_id":"cebpf4jnsgd1na2vs0mg"},{"bike_id":"ab67db2e-29dc-4aa1-ad47-cf91458ba682","system_id":"levelo_inurba_marseille","lat":43.23207,"lon":5.35558,"is_reserved":false,"is_disabled":false,"rental_uris":{"android":"levelo://app?vid=ab67db2e-29dc-4aa1-ad47-cf91458ba682","ios":"levelo://app?vid=ab67db2e-29dc-4aa1-ad47-cf91458ba682"},"vehicle_type_id":"4","last_reported":1749917502,"current_range_meters":11600,"station_id":"ce4bhu92rcd13ifvqi70","pricing_plan_id":"cebpf4jnsgd1na2vs0mg"},{"bike_id":"b9312eae-a72d-4098-9519-2c4b53e86ccd","system_id":"levelo_inurba_marseille","lat":43.21743,"lon":5.34604,"is_reserved":false,"is_disabled":false,"rental_uris":{"android":"levelo://app?vid=b9312eae-a72d-4098-9519-2c4b53e86ccd","ios":"levelo://app?vid=b9312eae-a72d-4098-9519-2c4b53e86ccd"},"vehicle_type_id":"4","last_reported":1749917502,"current_range_meters":11600,"station_id":"st_cvj6r9ubvosntc0bgbag","pricing_plan_id":"cebpf4jnsgd1na2vs0mg"},{"bike_id":"0ee18088-4f47-499b-bea7-caee31faf379","system_id":"levelo_inurba_marseille","lat":43.29514,"lon":5.37496,"is_reserved":false,"is_disabled":false,"rental_uris":{"android":"levelo://app?vid=0ee18088-4f47-499b-bea7-caee31faf379","ios":"levelo://app?vid=0ee18088-4f47-499b-bea7-caee31faf379"},"vehicle_type_id":"4","last_reported":1749917502,"current_range_meters":12000,"station_id":"ce4bgkp2rcd13ifvqbmg","pricing_plan_id":"cebpf4jnsgd1na2vs0mg"},{"bike_id":"b5fa0804-15b3-4aa2-8b3a-a08e8364d2bc","system_id":"levelo_inurba_marseille","lat":43.28678,"lon":5.37403,"is_reserved":false,"is_disabled":false,"rental_uris":{"android":"levelo://app?vid=b5fa0804-15b3-4aa2-8b3a-a08e8364d2bc","ios":"levelo://app?vid=b5fa0804-15b3-4aa2-8b3a-a08e8364d2bc"},"vehicle_type_id":"4","last_reported":1749917502,"current_range_meters":12000,"station_id":"ce4bh3p2rcd13ifvqdq0","pricing_plan_id":"cebpf4jnsgd1na2vs0mg"},{"bike_id":"0b75b775-ccad-4cb5-90b0-a9571010b4d4","system_id":"levelo_inurba_marseille","lat":43.28415,"lon":5.3501,"is_reserved":false,"is_disabled":false,"rental_uris":{"android":"levelo://app?vid=0b75b775-ccad-4cb5-90b0-a9571010b4d4","ios":"levelo://app?vid=0b75b775-ccad-4cb5-90b0-a9571010b4d4"},"vehicle_type_id":"4","last_reported":1749917502,"current_range_meters":12000,"station_id":"ce4bhbh2rcd13ifvqepg","pricing_plan_id":"cebpf4jnsgd1na2vs0mg"},{"bike_id":"33a5ae76-fedf-41f8-94fe-0f03745d1877","system_id":"levelo_inurba_marseille","lat":43.25598,"lon":5.38225,"is_reserved":false,"is_disabled":false,"rental_uris":{"android":"levelo://app?vid=33a5ae76-fedf-41f8-94fe-0f03745d1877","ios":"levelo://app?vid=33a5ae76-fedf-41f8-94fe-0f03745d1877"},"vehicle_type_id":"4","last_reported":1749917502,"current_range_meters":12000,"station_id":"ce4bhih2rcd13ifvqfs0","pricing_plan_id":"cebpf4jnsgd1na2vs0mg"},{"bike_id":"4f92c944-2dbb-4e96-a389-7a33732a442b","system_id":"levelo_inurba_marseille","lat":43.2318,"lon":5.39981,"is_reserved":false,"is_disabled":false,"rental_uris":{"android":"levelo://app?vid=4f92c944-2dbb-4e96-a389-7a33732a442b","ios":"levelo://app?vid=4f92c944-2dbb-4e96-a389-7a33732a442b"},"vehicle_type_id":"4","last_reported":1749917502,"current_range_meters":12000,"station_id":"ce4bhn12rcd13ifvqgqg","pricing_plan_id":"cebpf4jnsgd1na2vs0mg"},{"bike_id":"4f1b1972-6242-4cdd-8089-728aaec00de7","system_id":"levelo_inurba_marseille","lat":43.31751,"lon":5.39013,"is_reserved":false,"is_disabled":false,"rental_uris":{"android":"levelo://app?vid=4f1b1972-6242-4cdd-8089-728aaec00de7","ios":"levelo://app?vid=4f1b1972-6242-4cdd-8089-728aaec00de7"},"vehicle_type_id":"4","last_reported":1749917502,"current_range_meters":12000,"station_id":"ce4bhqp2rcd13ifvqhng","pricing_plan_id":"cebpf4jnsgd1na2vs0mg"},{"bike_id":"efd9c384-daa9-4013-b288-e4e1f794d48f","system_id":"levelo_inurba_marseille","lat":43.30016,"lon":5.40099,"is_reserved":false,"is_disabled":false,"rental_uris":{"android":"levelo://app?vid=efd9c384-daa9-4013-b288-e4e1f794d48f","ios":"levelo://app?vid=efd9c384-daa9-4013-b288-e4e1f794d48f"},"vehicle_type_id":"4","last_reported":1749917502,"current_range_meters":12400,"station_id":"","pricing_plan_id":"cebpf4jnsgd1na2vs0mg"},{"bike_id":"18846849-fecb-48a3-8eaa-e1dc3342c7c1","system_id":"levelo_inurba_marseille","lat":43.29849,"lon":5.36288,"is_reserved":false,"is_disabled":false,"rental_uris":{"android":"levelo://app?vid=18846849-fecb-48a3-8eaa-e1dc3342c7c1","ios":"levelo://app?vid=18846849-fecb-48a3-8eaa-e1dc3342c7c1"},"vehicle_type_id":"4","last_reported":1749917502,"current_range_meters":12400,"station_id":"ce4bgpp2rcd13ifvqc3g","pricing_plan_id":"cebpf4jnsgd1na2vs0mg"},{"bike_id":"ceab8b12-2586-4fd4-aae9-c7e19ec80e27","system_id":"levelo_inurba_marseille","lat":43.24644,"lon":5.38898,"is_reserved":false,"is_disabled":false,"rental_uris":{"android":"levelo://app?vid=ceab8b12-2586-4fd4-aae9-c7e19ec80e27","ios":"levelo://app?vid=ceab8b12-2586-4fd4-aae9-c7e19ec80e27"},"vehicle_type_id":"4","last_reported":1749917502,"current_range_meters":12400,"station_id":"ce4bhg12rcd13ifvqf60","pricing_plan_id":"cebpf4jnsgd1na2vs0mg"},{"bike_id":"2eb2516b-5f9f-4f58-8493-07049b393727","system_id":"levelo_inurba_marseille","lat":43.33724,"lon":5.39187,"is_reserved":false,"is_disabled":false,"rental_uris":{"android":"levelo://app?vid=2eb2516b-5f9f-4f58-8493-07049b393727","ios":"levelo://app?vid=2eb2516b-5f9f-4f58-8493-07049b393727"},"vehicle_type_id":"4","last_reported":1749917502,"current_range_meters":12400,"station_id":"ce4bhr92rcd13ifvqhsg","pricing_plan_id":"cebpf4jnsgd1na2vs0mg"},{"bike_id":"62132a0a-ca03-4421-b805-1ac0c0248c03","system_id":"levelo_inurba_marseille","lat":43.232029,"lon":5.355636,"is_reserved":false,"is_disabled":false,"rental_uris":{"android":"levelo://app?vid=62132a0a-ca03-4421-b805-1ac0c0248c03","ios":"levelo://app?vid=62132a0a-ca03-4421-b805-1ac0c0248c03"},"vehicle_type_id":"4","last_reported":1749917502,"current_range_meters":12400,"station_id":"ce4bhu92rcd13ifvqi70","pricing_plan_id":"cebpf4jnsgd1na2vs0mg"},{"bike_id":"2aa86b84-e014-4ab2-8f30-5be803c9e219","system_id":"levelo_inurba_marseille","lat":43.22506,"lon":5.348,"is_reserved":false,"is_disabled":false,"rental_uris":{"android":"levelo://app?vid=2aa86b84-e014-4ab2-8f30-5be803c9e219","ios":"levelo://app?vid=2aa86b84-e014-4ab2-8f30-5be803c9e219"},"vehicle_type_id":"4","last_reported":1749917502,"current_range_meters":12400,"station_id":"st_cvj5dfep6f1abm77gieg","pricing_plan_id":"cebpf4jnsgd1na2vs0mg"},{"bike_id":"8cd62e92-49cd-4d38-ac02-fb37d2b4e358","system_id":"levelo_inurba_marseille","lat":43.21747,"lon":5.34611,"is_reserved":false,"is_disabled":false,"rental_uris":{"android":"levelo://app?vid=8cd62e92-49cd-4d38-ac02-fb37d2b4e358","ios":"levelo://app?vid=8cd62e92-49cd-4d38-ac02-fb37d2b4e358"},"vehicle_type_id":"4","last_reported":1749917502,"current_range_meters":12400,"station_id":"st_cvj6r9ubvosntc0bgbag","pricing_plan_id":"cebpf4jnsgd1na2vs0mg"},{"bike_id":"83c79b8e-bc8f-4a35-88c8-fd69dfc8e069","system_id":"levelo_inurba_marseille","lat":43.30427,"lon":5.38882,"is_reserved":false,"is_disabled":false,"rental_uris":{"android":"levelo://app?vid=83c79b8e-bc8f-4a35-88c8-fd69dfc8e069","ios":"levelo://app?vid=83c79b8e-bc8f-4a35-88c8-fd69dfc8e069"},"vehicle_type_id":"4","last_reported":1749917502,"current_range_meters":12800,"station_id":"ce4bgk12rcd13ifvqbi0","pricing_plan_id":"cebpf4jnsgd1na2vs0mg"},{"bike_id":"30a46bdc-d5a1-4c16-9f3f-6546ad7e2cb8","system_id":"levelo_inurba_marseille","lat":43.2861,"lon":5.35104,"is_reserved":false,"is_disabled":false,"rental_uris":{"android":"levelo://app?vid=30a46bdc-d5a1-4c16-9f3f-6546ad7e2cb8","ios":"levelo://app?vid=30a46bdc-d5a1-4c16-9f3f-6546ad7e2cb8"},"vehicle_type_id":"4","last_reported":1749917502,"current_range_meters":12800,"station_id":"ce4bhch2rcd13ifvqeug","pricing_plan_id":"cebpf4jnsgd1na2vs0mg"},{"bike_id":"02ddab17-b076-4edc-9770-01b18d1a410e","system_id":"levelo_inurba_marseille","lat":43.24405,"lon":5.37053,"is_reserved":false,"is_disabled":false,"rental_uris":{"android":"levelo://app?vid=02ddab17-b076-4edc-9770-01b18d1a410e","ios":"levelo://app?vid=02ddab17-b076-4edc-9770-01b18d1a410e"},"vehicle_type_id":"4","last_reported":1749917502,"current_range_meters":12800,"station_id":"ce4bhhh2rcd13ifvqfk0","pricing_plan_id":"cebpf4jnsgd1na2vs0mg"},{"bike_id":"06e360ec-d05f-4aef-b88b-13278e5ac82c","system_id":"levelo_inurba_marseille","lat":43.27205,"lon":5.39181,"is_reserved":false,"is_disabled":false,"rental_uris":{"android":"levelo://app?vid=06e360ec-d05f-4aef-b88b-13278e5ac82c","ios":"levelo://app?vid=06e360ec-d05f-4aef-b88b-13278e5ac82c"},"vehicle_type_id":"4","last_reported":1749917502,"current_range_meters":12800,"station_id":"ce4bhhp2rcd13ifvqfm0","pricing_plan_id":"cebpf4jnsgd1na2vs0mg"},{"bike_id":"b28e56ab-6cdb-498a-a2ea-c7969f91d704","system_id":"levelo_inurba_marseille","lat":43.23179,"lon":5.39986,"is_reserved":false,"is_disabled":false,"rental_uris":{"android":"levelo://app?vid=b28e56ab-6cdb-498a-a2ea-c7969f91d704","ios":"levelo://app?vid=b28e56ab-6cdb-498a-a2ea-c7969f91d704"},"vehicle_type_id":"4","last_reported":1749917502,"current_range_meters":12800,"station_id":"ce4bhn12rcd13ifvqgqg","pricing_plan_id":"cebpf4jnsgd1na2vs0mg"},{"bike_id":"7bbea268-7e10-4726-af89-c73005574248","system_id":"levelo_inurba_marseille","lat":43.30373,"lon":5.425,"is_reserved":false,"is_disabled":false,"rental_uris":{"android":"levelo://app?vid=7bbea268-7e10-4726-af89-c73005574248","ios":"levelo://app?vid=7bbea268-7e10-4726-af89-c73005574248"},"vehicle_type_id":"4","last_reported":1749917502,"current_range_meters":12800,"station_id":"ce4bhoh2rcd13ifvqh6g","pricing_plan_id":"cebpf4jnsgd1na2vs0mg"},{"bike_id":"dd2c554f-0c41-4aa0-a7c2-2fab2aadfc93","system_id":"levelo_inurba_marseille","lat":43.23075,"lon":5.35478,"is_reserved":false,"is_disabled":false,"rental_uris":{"android":"levelo://app?vid=dd2c554f-0c41-4aa0-a7c2-2fab2aadfc93","ios":"levelo://app?vid=dd2c554f-0c41-4aa0-a7c2-2fab2aadfc93"},"vehicle_type_id":"4","last_reported":1749917502,"current_range_meters":12800,"station_id":"cpo3342slgdg3j2ifvpg","pricing_plan_id":"cebpf4jnsgd1na2vs0mg"},{"bike_id":"bcf38e33-ea90-4172-8987-071ce146391d","system_id":"levelo_inurba_marseille","lat":43.25116,"lon":5.40321,"is_reserved":false,"is_disabled":false,"rental_uris":{"android":"levelo://app?vid=bcf38e33-ea90-4172-8987-071ce146391d","ios":"levelo://app?vid=bcf38e33-ea90-4172-8987-071ce146391d"},"vehicle_type_id":"4","last_reported":1749917502,"current_range_meters":13600,"station_id":"ce4bhlh2rcd13ifvqgig","pricing_plan_id":"cebpf4jnsgd1na2vs0mg"},{"bike_id":"5a21e497-33bb-4066-baf7-e010c7ab35fe","system_id":"levelo_inurba_marseille","lat":43.24082,"lon":5.37746,"is_reserved":false,"is_disabled":false,"rental_uris":{"android":"levelo://app?vid=5a21e497-33bb-4066-baf7-e010c7ab35fe","ios":"levelo://app?vid=5a21e497-33bb-4066-baf7-e010c7ab35fe"},"vehicle_type_id":"4","last_reported":1749917502,"current_range_meters":13600,"station_id":"ce4bhnp2rcd13ifvqgvg","pricing_plan_id":"cebpf4jnsgd1na2vs0mg"},{"bike_id":"86864168-ee86-4757-8cdd-cb7362b87fee","system_id":"levelo_inurba_marseille","lat":43.26251,"lon":5.40449,"is_reserved":false,"is_disabled":false,"rental_uris":{"android":"levelo://app?vid=86864168-ee86-4757-8cdd-cb7362b87fee","ios":"levelo://app?vid=86864168-ee86-4757-8cdd-cb7362b87fee"},"vehicle_type_id":"4","last_reported":1749917502,"current_range_meters":14000,"station_id":"ce4bhmh2rcd13ifvqgmg","pricing_plan_id":"cebpf4jnsgd1na2vs0mg"},{"bike_id":"bbae50e6-97cc-4981-9da8-21f734a299c3","system_id":"levelo_inurba_marseille","lat":43.24173,"lon":5.36393,"is_reserved":false,"is_disabled":false,"rental_uris":{"android":"levelo://app?vid=bbae50e6-97cc-4981-9da8-21f734a299c3","ios":"levelo://app?vid=bbae50e6-97cc-4981-9da8-21f734a299c3"},"vehicle_type_id":"4","last_reported":1749917502,"current_range_meters":14000,"station_id":"cpo36qri1sfpv3e86is0","pricing_plan_id":"cebpf4jnsgd1na2vs0mg"},{"bike_id":"769efce4-375c-4934-a7cd-61de7e676910","system_id":"levelo_inurba_marseille","lat":43.21171,"lon":5.35053,"is_reserved":false,"is_disabled":false,"rental_uris":{"android":"levelo://app?vid=769efce4-375c-4934-a7cd-61de7e676910","ios":"levelo://app?vid=769efce4-375c-4934-a7cd-61de7e676910"},"vehicle_type_id":"4","last_reported":1749917502,"current_range_meters":14000,"station_id":"st_cvj6sg6p6f1abm77japg","pricing_plan_id":"cebpf4jnsgd1na2vs0mg"},{"bike_id":"d2729172-f4bf-4eb8-9964-c217269a3492","system_id":"levelo_inurba_marseille","lat":43.211931,"lon":5.350806,"is_reserved":false,"is_disabled":false,"rental_uris":{"android":"levelo://app?vid=d2729172-f4bf-4eb8-9964-c217269a3492","ios":"levelo://app?vid=d2729172-f4bf-4eb8-9964-c217269a3492"},"vehicle_type_id":"4","last_reported":1749917502,"current_range_meters":14000,"station_id":"st_cvj6sg6p6f1abm77japg","pricing_plan_id":"cebpf4jnsgd1na2vs0mg"},{"bike_id":"9019c68c-5650-4a39-a491-647acc44b38b","system_id":"levelo_inurba_marseille","lat":43.265468,"lon":5.373255,"is_reserved":false,"is_disabled":false,"rental_uris":{"android":"levelo://app?vid=9019c68c-5650-4a39-a491-647acc44b38b","ios":"levelo://app?vid=9019c68c-5650-4a39-a491-647acc44b38b"},"vehicle_type_id":"4","last_reported":1749917502,"current_range_meters":14400,"station_id":"","pricing_plan_id":"cebpf4jnsgd1na2vs0mg"},{"bike_id":"e11f9c48-3813-4206-93f2-585b425507d4","system_id":"levelo_inurba_marseille","lat":43.2174,"lon":5.34605,"is_reserved":false,"is_disabled":false,"rental_uris":{"android":"levelo://app?vid=e11f9c48-3813-4206-93f2-585b425507d4","ios":"levelo://app?vid=e11f9c48-3813-4206-93f2-585b425507d4"},"vehicle_type_id":"4","last_reported":1749917502,"current_range_meters":14400,"station_id":"st_cvj6r9ubvosntc0bgbag","pricing_plan_id":"cebpf4jnsgd1na2vs0mg"},{"bike_id":"bd081d41-5eed-4495-82ed-9e27cd112239","system_id":"levelo_inurba_marseille","lat":43.249488,"lon":5.396613,"is_reserved":false,"is_disabled":false,"rental_uris":{"android":"levelo://app?vid=bd081d41-5eed-4495-82ed-9e27cd112239","ios":"levelo://app?vid=bd081d41-5eed-4495-82ed-9e27cd112239"},"vehicle_type_id":"4","last_reported":1749917502,"current_range_meters":14800,"station_id":"","pricing_plan_id":"cebpf4jnsgd1na2vs0mg"},{"bike_id":"d54a5f75-c99f-49b6-ab8f-078d40ed90e6","system_id":"levelo_inurba_marseille","lat":43.28863,"lon":5.35834,"is_reserved":false,"is_disabled":false,"rental_uris":{"android":"levelo://app?vid=d54a5f75-c99f-49b6-ab8f-078d40ed90e6","ios":"levelo://app?vid=d54a5f75-c99f-49b6-ab8f-078d40ed90e6"},"vehicle_type_id":"4","last_reported":1749917502,"current_range_meters":14800,"station_id":"ce4bhb12rcd13ifvqem0","pricing_plan_id":"cebpf4jnsgd1na2vs0mg"},{"bike_id":"84b543d2-ae1c-4d14-b678-8cc844c4362a","system_id":"levelo_inurba_marseille","lat":43.28417,"lon":5.34984,"is_reserved":false,"is_disabled":false,"rental_uris":{"android":"levelo://app?vid=84b543d2-ae1c-4d14-b678-8cc844c4362a","ios":"levelo://app?vid=84b543d2-ae1c-4d14-b678-8cc844c4362a"},"vehicle_type_id":"4","last_reported":1749917502,"current_range_meters":14800,"station_id":"ce4bhbh2rcd13ifvqepg","pricing_plan_id":"cebpf4jnsgd1na2vs0mg"},{"bike_id":"631e052f-3df5-4ad9-b4c7-f11a65cfcea6","system_id":"levelo_inurba_marseille","lat":43.295585,"lon":5.378356,"is_reserved":false,"is_disabled":false,"rental_uris":{"android":"levelo://app?vid=631e052f-3df5-4ad9-b4c7-f11a65cfcea6","ios":"levelo://app?vid=631e052f-3df5-4ad9-b4c7-f11a65cfcea6"},"vehicle_type_id":"4","last_reported":1749917502,"current_range_meters":15200,"station_id":"ce4bgkh2rcd13ifvqbl0","pricing_plan_id":"cebpf4jnsgd1na2vs0mg"},{"bike_id":"1c40f6dd-931e-42e2-a60a-2362639bbfb5","system_id":"levelo_inurba_marseille","lat":43.28419,"lon":5.34975,"is_reserved":false,"is_disabled":false,"rental_uris":{"android":"levelo://app?vid=1c40f6dd-931e-42e2-a60a-2362639bbfb5","ios":"levelo://app?vid=1c40f6dd-931e-42e2-a60a-2362639bbfb5"},"vehicle_type_id":"4","last_reported":1749917502,"current_range_meters":15200,"station_id":"ce4bhbh2rcd13ifvqepg","pricing_plan_id":"cebpf4jnsgd1na2vs0mg"},{"bike_id":"ab6edb82-d41e-4f57-95ea-bea7c3726b15","system_id":"levelo_inurba_marseille","lat":43.26218,"lon":5.37424,"is_reserved":false,"is_disabled":false,"rental_uris":{"android":"levelo://app?vid=ab6edb82-d41e-4f57-95ea-bea7c3726b15","ios":"levelo://app?vid=ab6edb82-d41e-4f57-95ea-bea7c3726b15"},"vehicle_type_id":"4","last_reported":1749917502,"current_range_meters":15200,"station_id":"ce4bhgp2rcd13ifvqfc0","pricing_plan_id":"cebpf4jnsgd1na2vs0mg"},{"bike_id":"74924259-12a0-4dc9-b032-135f63128ff9","system_id":"levelo_inurba_marseille","lat":43.32035,"lon":5.41526,"is_reserved":false,"is_disabled":false,"rental_uris":{"android":"levelo://app?vid=74924259-12a0-4dc9-b032-135f63128ff9","ios":"levelo://app?vid=74924259-12a0-4dc9-b032-135f63128ff9"},"vehicle_type_id":"4","last_reported":1749917502,"current_range_meters":15200,"station_id":"ce4bhq92rcd13ifvqhkg","pricing_plan_id":"cebpf4jnsgd1na2vs0mg"},{"bike_id":"3ba53083-f560-4fb5-b3cc-01a71156c6ba","system_id":"levelo_inurba_marseille","lat":43.23188,"lon":5.35554,"is_reserved":false,"is_disabled":false,"rental_uris":{"android":"levelo://app?vid=3ba53083-f560-4fb5-b3cc-01a71156c6ba","ios":"levelo://app?vid=3ba53083-f560-4fb5-b3cc-01a71156c6ba"},"vehicle_type_id":"4","last_reported":1749917502,"current_range_meters":15200,"station_id":"ce4bhu92rcd13ifvqi70","pricing_plan_id":"cebpf4jnsgd1na2vs0mg"},{"bike_id":"914e2703-4b8b-4519-af29-7b778d9d170d","system_id":"levelo_inurba_marseille","lat":43.22926,"lon":5.35374,"is_reserved":false,"is_disabled":false,"rental_uris":{"android":"levelo://app?vid=914e2703-4b8b-4519-af29-7b778d9d170d","ios":"levelo://app?vid=914e2703-4b8b-4519-af29-7b778d9d170d"},"vehicle_type_id":"4","last_reported":1749917502,"current_range_meters":15200,"station_id":"cpo3532slgdg3j2ikp40","pricing_plan_id":"cebpf4jnsgd1na2vs0mg"},{"bike_id":"51c5518e-76de-4264-b70a-dd60046df65b","system_id":"levelo_inurba_marseille","lat":43.2636,"lon":5.37812,"is_reserved":false,"is_disabled":false,"rental_uris":{"android":"levelo://app?vid=51c5518e-76de-4264-b70a-dd60046df65b","ios":"levelo://app?vid=51c5518e-76de-4264-b70a-dd60046df65b"},"vehicle_type_id":"4","last_reported":1749917502,"current_range_meters":15200,"station_id":"st_d163nis0mtpqnht9uue0","pricing_plan_id":"cebpf4jnsgd1na2vs0mg"},{"bike_id":"a8283606-6fdf-49b2-991a-62bc6fc9988a","system_id":"levelo_inurba_marseille","lat":43.22508,"lon":5.34767,"is_reserved":false,"is_disabled":false,"rental_uris":{"android":"levelo://app?vid=a8283606-6fdf-49b2-991a-62bc6fc9988a","ios":"levelo://app?vid=a8283606-6fdf-49b2-991a-62bc6fc9988a"},"vehicle_type_id":"4","last_reported":1749917502,"current_range_meters":16000,"station_id":"","pricing_plan_id":"cebpf4jnsgd1na2vs0mg"},{"bike_id":"61025bc1-ccc8-4567-819d-afcbfb39925a","system_id":"levelo_inurba_marseille","lat":43.267826,"lon":5.394201,"is_reserved":false,"is_disabled":false,"rental_uris":{"android":"levelo://app?vid=61025bc1-ccc8-4567-819d-afcbfb39925a","ios":"levelo://app?vid=61025bc1-ccc8-4567-819d-afcbfb39925a"},"vehicle_type_id":"4","last_reported":1749917502,"current_range_meters":16000,"station_id":"ce4bhh12rcd13ifvqfg0","pricing_plan_id":"cebpf4jnsgd1na2vs0mg"},{"bike_id":"fbdeb5f9-de8f-4137-91be-527c188b7b20","system_id":"levelo_inurba_marseille","lat":43.279968,"lon":5.400061,"is_reserved":false,"is_disabled":false,"rental_uris":{"android":"levelo://app?vid=fbdeb5f9-de8f-4137-91be-527c188b7b20","ios":"levelo://app?vid=fbdeb5f9-de8f-4137-91be-527c188b7b20"},"vehicle_type_id":"4","last_reported":1749917502,"current_range_meters":16000,"station_id":"ce4bho92rcd13ifvqh4g","pricing_plan_id":"cebpf4jnsgd1na2vs0mg"},{"bike_id":"bf37c5a1-fa17-4af5-acac-45fd4bf67ae5","system_id":"levelo_inurba_marseille","lat":43.26942,"lon":5.40259,"is_reserved":false,"is_disabled":false,"rental_uris":{"android":"levelo://app?vid=bf37c5a1-fa17-4af5-acac-45fd4bf67ae5","ios":"levelo://app?vid=bf37c5a1-fa17-4af5-acac-45fd4bf67ae5"},"vehicle_type_id":"4","last_reported":1749917502,"current_range_meters":16000,"station_id":"cjm6bp8fraef2m0cb0m0","pricing_plan_id":"cebpf4jnsgd1na2vs0mg"},{"bike_id":"b2a39d69-7123-480f-b5f0-3477ae80b9dc","system_id":"levelo_inurba_marseille","lat":43.2306,"lon":5.35491,"is_reserved":false,"is_disabled":false,"rental_uris":{"android":"levelo://app?vid=b2a39d69-7123-480f-b5f0-3477ae80b9dc","ios":"levelo://app?vid=b2a39d69-7123-480f-b5f0-3477ae80b9dc"},"vehicle_type_id":"4","last_reported":1749917502,"current_range_meters":16000,"station_id":"cpo3342slgdg3j2ifvpg","pricing_plan_id":"cebpf4jnsgd1na2vs0mg"},{"bike_id":"127d5aca-6fe2-4c70-8b71-fd7c8a447d86","system_id":"levelo_inurba_marseille","lat":43.21765,"lon":5.34593,"is_reserved":false,"is_disabled":false,"rental_uris":{"android":"levelo://app?vid=127d5aca-6fe2-4c70-8b71-fd7c8a447d86","ios":"levelo://app?vid=127d5aca-6fe2-4c70-8b71-fd7c8a447d86"},"vehicle_type_id":"4","last_reported":1749917502,"current_range_meters":16000,"station_id":"st_cvj6r9ubvosntc0bgbag","pricing_plan_id":"cebpf4jnsgd1na2vs0mg"},{"bike_id":"7240a984-bb6d-4c3b-ab8d-aef55ac0bce8","system_id":"levelo_inurba_marseille","lat":43.21185,"lon":5.35071,"is_reserved":false,"is_disabled":false,"rental_uris":{"android":"levelo://app?vid=7240a984-bb6d-4c3b-ab8d-aef55ac0bce8","ios":"levelo://app?vid=7240a984-bb6d-4c3b-ab8d-aef55ac0bce8"},"vehicle_type_id":"4","last_reported":1749917502,"current_range_meters":16000,"station_id":"st_cvj6sg6p6f1abm77japg","pricing_plan_id":"cebpf4jnsgd1na2vs0mg"},{"bike_id":"2ca1ab84-2a33-4ccf-bca6-842bea5d3fb6","system_id":"levelo_inurba_marseille","lat":43.26237,"lon":5.37427,"is_reserved":false,"is_disabled":false,"rental_uris":{"android":"levelo://app?vid=2ca1ab84-2a33-4ccf-bca6-842bea5d3fb6","ios":"levelo://app?vid=2ca1ab84-2a33-4ccf-bca6-842bea5d3fb6"},"vehicle_type_id":"4","last_reported":1749917502,"current_range_meters":16400,"station_id":"","pricing_plan_id":"cebpf4jnsgd1na2vs0mg"},{"bike_id":"176ba34b-0696-476d-aa03-3acb65e36554","system_id":"levelo_inurba_marseille","lat":43.28847,"lon":5.39307,"is_reserved":false,"is_disabled":false,"rental_uris":{"android":"levelo://app?vid=176ba34b-0696-476d-aa03-3acb65e36554","ios":"levelo://app?vid=176ba34b-0696-476d-aa03-3acb65e36554"},"vehicle_type_id":"4","last_reported":1749917502,"current_range_meters":16400,"station_id":"ce4bh2p2rcd13ifvqdi0","pricing_plan_id":"cebpf4jnsgd1na2vs0mg"},{"bike_id":"e6a7d4c6-06f8-4da4-8b4d-22c3418efe11","system_id":"levelo_inurba_marseille","lat":43.28602,"lon":5.35122,"is_reserved":false,"is_disabled":false,"rental_uris":{"android":"levelo://app?vid=e6a7d4c6-06f8-4da4-8b4d-22c3418efe11","ios":"levelo://app?vid=e6a7d4c6-06f8-4da4-8b4d-22c3418efe11"},"vehicle_type_id":"4","last_reported":1749917502,"current_range_meters":16400,"station_id":"ce4bhch2rcd13ifvqeug","pricing_plan_id":"cebpf4jnsgd1na2vs0mg"},{"bike_id":"ac7cd0c7-0c9c-498d-9983-1dc071df725a","system_id":"levelo_inurba_marseille","lat":43.26027,"lon":5.37544,"is_reserved":false,"is_disabled":false,"rental_uris":{"android":"levelo://app?vid=ac7cd0c7-0c9c-498d-9983-1dc071df725a","ios":"levelo://app?vid=ac7cd0c7-0c9c-498d-9983-1dc071df725a"},"vehicle_type_id":"4","last_reported":1749917502,"current_range_meters":16400,"station_id":"ce4bhgh2rcd13ifvqfa0","pricing_plan_id":"cebpf4jnsgd1na2vs0mg"},{"bike_id":"9a90ee41-7d0d-490d-927a-b966569ae4f9","system_id":"levelo_inurba_marseille","lat":43.255,"lon":5.37651,"is_reserved":false,"is_disabled":false,"rental_uris":{"android":"levelo://app?vid=9a90ee41-7d0d-490d-927a-b966569ae4f9","ios":"levelo://app?vid=9a90ee41-7d0d-490d-927a-b966569ae4f9"},"vehicle_type_id":"4","last_reported":1749917502,"current_range_meters":16400,"station_id":"ce4bhh12rcd13ifvqff0","pricing_plan_id":"cebpf4jnsgd1na2vs0mg"},{"bike_id":"6b277668-ca3e-40ac-ac93-918526c3fc38","system_id":"levelo_inurba_marseille","lat":43.26781,"lon":5.39421,"is_reserved":false,"is_disabled":false,"rental_uris":{"android":"levelo://app?vid=6b277668-ca3e-40ac-ac93-918526c3fc38","ios":"levelo://app?vid=6b277668-ca3e-40ac-ac93-918526c3fc38"},"vehicle_type_id":"4","last_reported":1749917502,"current_range_meters":16400,"station_id":"ce4bhh12rcd13ifvqfg0","pricing_plan_id":"cebpf4jnsgd1na2vs0mg"},{"bike_id":"7536ff7d-d058-4d3b-9e79-e03ea5ed4f9f","system_id":"levelo_inurba_marseille","lat":43.26959,"lon":5.38633,"is_reserved":false,"is_disabled":false,"rental_uris":{"android":"levelo://app?vid=7536ff7d-d058-4d3b-9e79-e03ea5ed4f9f","ios":"levelo://app?vid=7536ff7d-d058-4d3b-9e79-e03ea5ed4f9f"},"vehicle_type_id":"4","last_reported":1749917502,"current_range_meters":16400,"station_id":"ce4bhh92rcd13ifvqfh0","pricing_plan_id":"cebpf4jnsgd1na2vs0mg"},{"bike_id":"b70fbe25-d719-453b-999b-7773043b43b6","system_id":"levelo_inurba_marseille","lat":43.2814,"lon":5.42643,"is_reserved":false,"is_disabled":false,"rental_uris":{"android":"levelo://app?vid=b70fbe25-d719-453b-999b-7773043b43b6","ios":"levelo://app?vid=b70fbe25-d719-453b-999b-7773043b43b6"},"vehicle_type_id":"4","last_reported":1749917502,"current_range_meters":16400,"station_id":"ce4bhnh2rcd13ifvqgug","pricing_plan_id":"cebpf4jnsgd1na2vs0mg"},{"bike_id":"d3bc3b9f-7391-4b78-a7ca-1d9d571a0196","system_id":"levelo_inurba_marseille","lat":43.24081,"lon":5.37724,"is_reserved":false,"is_disabled":false,"rental_uris":{"android":"levelo://app?vid=d3bc3b9f-7391-4b78-a7ca-1d9d571a0196","ios":"levelo://app?vid=d3bc3b9f-7391-4b78-a7ca-1d9d571a0196"},"vehicle_type_id":"4","last_reported":1749917502,"current_range_meters":16400,"station_id":"ce4bhnp2rcd13ifvqgvg","pricing_plan_id":"cebpf4jnsgd1na2vs0mg"},{"bike_id":"710d97cb-5291-4f9c-8a23-d89c0b627fd7","system_id":"levelo_inurba_marseille","lat":43.24155,"lon":5.36425,"is_reserved":false,"is_disabled":false,"rental_uris":{"android":"levelo://app?vid=710d97cb-5291-4f9c-8a23-d89c0b627fd7","ios":"levelo://app?vid=710d97cb-5291-4f9c-8a23-d89c0b627fd7"},"vehicle_type_id":"4","last_reported":1749917502,"current_range_meters":16400,"station_id":"cpo36qri1sfpv3e86is0","pricing_plan_id":"cebpf4jnsgd1na2vs0mg"},{"bike_id":"f064fb0a-8676-4fe4-bd69-9d01c82c3c4f","system_id":"levelo_inurba_marseille","lat":43.30731,"lon":5.42438,"is_reserved":false,"is_disabled":false,"rental_uris":{"android":"levelo://app?vid=f064fb0a-8676-4fe4-bd69-9d01c82c3c4f","ios":"levelo://app?vid=f064fb0a-8676-4fe4-bd69-9d01c82c3c4f"},"vehicle_type_id":"4","last_reported":1749917502,"current_range_meters":16400,"station_id":"st_cvj6ca6bvosntc0bfgr0","pricing_plan_id":"cebpf4jnsgd1na2vs0mg"},{"bike_id":"7b0610cf-8cf2-4f88-bf4a-2cfc3f742281","system_id":"levelo_inurba_marseille","lat":43.29617,"lon":5.37162,"is_reserved":false,"is_disabled":false,"rental_uris":{"android":"levelo://app?vid=7b0610cf-8cf2-4f88-bf4a-2cfc3f742281","ios":"levelo://app?vid=7b0610cf-8cf2-4f88-bf4a-2cfc3f742281"},"vehicle_type_id":"4","last_reported":1749917502,"current_range_meters":16800,"station_id":"ce4bgnh2rcd13ifvqc0g","pricing_plan_id":"cebpf4jnsgd1na2vs0mg"},{"bike_id":"0a1378db-e6e0-4f7a-8461-acc653abff7f","system_id":"levelo_inurba_marseille","lat":43.245759,"lon":5.394878,"is_reserved":false,"is_disabled":false,"rental_uris":{"android":"levelo://app?vid=0a1378db-e6e0-4f7a-8461-acc653abff7f","ios":"levelo://app?vid=0a1378db-e6e0-4f7a-8461-acc653abff7f"},"vehicle_type_id":"4","last_reported":1749917502,"current_range_meters":16800,"station_id":"ce4bhlp2rcd13ifvqgjg","pricing_plan_id":"cebpf4jnsgd1na2vs0mg"},{"bike_id":"7e55265f-af08-4274-a924-78b7fea6ed7d","system_id":"levelo_inurba_marseille","lat":43.31714,"lon":5.43706,"is_reserved":false,"is_disabled":false,"rental_uris":{"android":"levelo://app?vid=7e55265f-af08-4274-a924-78b7fea6ed7d","ios":"levelo://app?vid=7e55265f-af08-4274-a924-78b7fea6ed7d"},"vehicle_type_id":"4","last_reported":1749917502,"current_range_meters":16800,"station_id":"ce4bhp92rcd13ifvqhcg","pricing_plan_id":"cebpf4jnsgd1na2vs0mg"},{"bike_id":"0ae89325-9f46-48d2-809a-b5e133aa18de","system_id":"levelo_inurba_marseille","lat":43.21189,"lon":5.35071,"is_reserved":false,"is_disabled":false,"rental_uris":{"android":"levelo://app?vid=0ae89325-9f46-48d2-809a-b5e133aa18de","ios":"levelo://app?vid=0ae89325-9f46-48d2-809a-b5e133aa18de"},"vehicle_type_id":"4","last_reported":1749917502,"current_range_meters":16800,"station_id":"st_cvj6sg6p6f1abm77japg","pricing_plan_id":"cebpf4jnsgd1na2vs0mg"},{"bike_id":"821ffeb7-504e-49a3-aa5e-ded90c45f20e","system_id":"levelo_inurba_marseille","lat":43.3036,"lon":5.41265,"is_reserved":false,"is_disabled":false,"rental_uris":{"android":"levelo://app?vid=821ffeb7-504e-49a3-aa5e-ded90c45f20e","ios":"levelo://app?vid=821ffeb7-504e-49a3-aa5e-ded90c45f20e"},"vehicle_type_id":"4","last_reported":1749917502,"current_range_meters":17200,"station_id":"","pricing_plan_id":"cebpf4jnsgd1na2vs0mg"},{"bike_id":"460820dd-8a2d-487d-a533-05aae9b219a5","system_id":"levelo_inurba_marseille","lat":43.26791,"lon":5.39412,"is_reserved":false,"is_disabled":false,"rental_uris":{"android":"levelo://app?vid=460820dd-8a2d-487d-a533-05aae9b219a5","ios":"levelo://app?vid=460820dd-8a2d-487d-a533-05aae9b219a5"},"vehicle_type_id":"4","last_reported":1749917502,"current_range_meters":17200,"station_id":"ce4bhh12rcd13ifvqfg0","pricing_plan_id":"cebpf4jnsgd1na2vs0mg"},{"bike_id":"e6252fe6-fc59-4c7f-a33a-71a245adf3ca","system_id":"levelo_inurba_marseille","lat":43.276674,"lon":5.388888,"is_reserved":false,"is_disabled":false,"rental_uris":{"android":"levelo://app?vid=e6252fe6-fc59-4c7f-a33a-71a245adf3ca","ios":"levelo://app?vid=e6252fe6-fc59-4c7f-a33a-71a245adf3ca"},"vehicle_type_id":"4","last_reported":1749917502,"current_range_meters":17200,"station_id":"ce4bhi12rcd13ifvqfo0","pricing_plan_id":"cebpf4jnsgd1na2vs0mg"},{"bike_id":"e5b62466-ff9e-49e2-bd3e-be88bf15cda8","system_id":"levelo_inurba_marseille","lat":43.21219,"lon":5.35064,"is_reserved":false,"is_disabled":false,"rental_uris":{"android":"levelo://app?vid=e5b62466-ff9e-49e2-bd3e-be88bf15cda8","ios":"levelo://app?vid=e5b62466-ff9e-49e2-bd3e-be88bf15cda8"},"vehicle_type_id":"4","last_reported":1749917502,"current_range_meters":17200,"station_id":"st_cvj6sg6p6f1abm77japg","pricing_plan_id":"cebpf4jnsgd1na2vs0mg"},{"bike_id":"a123e9fa-df7d-41fb-b2d5-2e4e345456f9","system_id":"levelo_inurba_marseille","lat":43.25318,"lon":5.37477,"is_reserved":false,"is_disabled":false,"rental_uris":{"android":"levelo://app?vid=a123e9fa-df7d-41fb-b2d5-2e4e345456f9","ios":"levelo://app?vid=a123e9fa-df7d-41fb-b2d5-2e4e345456f9"},"vehicle_type_id":"4","last_reported":1749917502,"current_range_meters":17600,"station_id":"","pricing_plan_id":"cebpf4jnsgd1na2vs0mg"},{"bike_id":"4101138a-9cbb-40b9-a7e7-ed70ed85abc3","system_id":"levelo_inurba_marseille","lat":43.23968,"lon":5.36622,"is_reserved":false,"is_disabled":false,"rental_uris":{"android":"levelo://app?vid=4101138a-9cbb-40b9-a7e7-ed70ed85abc3","ios":"levelo://app?vid=4101138a-9cbb-40b9-a7e7-ed70ed85abc3"},"vehicle_type_id":"4","last_reported":1749917502,"current_range_meters":17600,"station_id":"ce4bhi12rcd13ifvqfp0","pricing_plan_id":"cebpf4jnsgd1na2vs0mg"},{"bike_id":"a42da83b-0754-4bfa-a338-c87ce1e67fe4","system_id":"levelo_inurba_marseille","lat":43.22931,"lon":5.3539,"is_reserved":false,"is_disabled":false,"rental_uris":{"android":"levelo://app?vid=a42da83b-0754-4bfa-a338-c87ce1e67fe4","ios":"levelo://app?vid=a42da83b-0754-4bfa-a338-c87ce1e67fe4"},"vehicle_type_id":"4","last_reported":1749917502,"current_range_meters":17600,"station_id":"cpo3532slgdg3j2ikp40","pricing_plan_id":"cebpf4jnsgd1na2vs0mg"},{"bike_id":"bcf8c37a-3b2c-4b4b-a33b-3ca9193b3a10","system_id":"levelo_inurba_marseille","lat":43.26363,"lon":5.37814,"is_reserved":false,"is_disabled":false,"rental_uris":{"android":"levelo://app?vid=bcf8c37a-3b2c-4b4b-a33b-3ca9193b3a10","ios":"levelo://app?vid=bcf8c37a-3b2c-4b4b-a33b-3ca9193b3a10"},"vehicle_type_id":"4","last_reported":1749917502,"current_range_meters":17600,"station_id":"st_d163nis0mtpqnht9uue0","pricing_plan_id":"cebpf4jnsgd1na2vs0mg"},{"bike_id":"2c7ba036-532a-4552-b7f1-5cd9cc98ab0b","system_id":"levelo_inurba_marseille","lat":43.26358,"lon":5.37813,"is_reserved":false,"is_disabled":false,"rental_uris":{"android":"levelo://app?vid=2c7ba036-532a-4552-b7f1-5cd9cc98ab0b","ios":"levelo://app?vid=2c7ba036-532a-4552-b7f1-5cd9cc98ab0b"},"vehicle_type_id":"4","last_reported":1749917502,"current_range_meters":17600,"station_id":"st_d163nis0mtpqnht9uue0","pricing_plan_id":"cebpf4jnsgd1na2vs0mg"},{"bike_id":"af54e57f-f161-4317-9bd4-1d43f8702955","system_id":"levelo_inurba_marseille","lat":43.23192,"lon":5.3556,"is_reserved":false,"is_disabled":false,"rental_uris":{"android":"levelo://app?vid=af54e57f-f161-4317-9bd4-1d43f8702955","ios":"levelo://app?vid=af54e57f-f161-4317-9bd4-1d43f8702955"},"vehicle_type_id":"4","last_reported":1749917502,"current_range_meters":18000,"station_id":"ce4bhu92rcd13ifvqi70","pricing_plan_id":"cebpf4jnsgd1na2vs0mg"},{"bike_id":"5c41052f-6f6b-4710-8e6b-ab38c27267cf","system_id":"levelo_inurba_marseille","lat":43.21718,"lon":5.34614,"is_reserved":false,"is_disabled":false,"rental_uris":{"android":"levelo://app?vid=5c41052f-6f6b-4710-8e6b-ab38c27267cf","ios":"levelo://app?vid=5c41052f-6f6b-4710-8e6b-ab38c27267cf"},"vehicle_type_id":"4","last_reported":1749917502,"current_range_meters":18000,"station_id":"st_cvj6r9ubvosntc0bgbag","pricing_plan_id":"cebpf4jnsgd1na2vs0mg"},{"bike_id":"3e232180-096e-45c2-8101-145150acb1d5","system_id":"levelo_inurba_marseille","lat":43.21199,"lon":5.35033,"is_reserved":false,"is_disabled":false,"rental_uris":{"android":"levelo://app?vid=3e232180-096e-45c2-8101-145150acb1d5","ios":"levelo://app?vid=3e232180-096e-45c2-8101-145150acb1d5"},"vehicle_type_id":"4","last_reported":1749917502,"current_range_meters":18000,"station_id":"st_cvj6sg6p6f1abm77japg","pricing_plan_id":"cebpf4jnsgd1na2vs0mg"},{"bike_id":"3f96fac2-85e8-4f01-be6f-bf8bd1d9101a","system_id":"levelo_inurba_marseille","lat":43.26359,"lon":5.3781,"is_reserved":false,"is_disabled":false,"rental_uris":{"android":"levelo://app?vid=3f96fac2-85e8-4f01-be6f-bf8bd1d9101a","ios":"levelo://app?vid=3f96fac2-85e8-4f01-be6f-bf8bd1d9101a"},"vehicle_type_id":"4","last_reported":1749917502,"current_range_meters":18000,"station_id":"st_d163nis0mtpqnht9uue0","pricing_plan_id":"cebpf4jnsgd1na2vs0mg"},{"bike_id":"d8422a95-3edf-4209-93ab-621da569d780","system_id":"levelo_inurba_marseille","lat":43.26546,"lon":5.37286,"is_reserved":false,"is_disabled":false,"rental_uris":{"android":"levelo://app?vid=d8422a95-3edf-4209-93ab-621da569d780","ios":"levelo://app?vid=d8422a95-3edf-4209-93ab-621da569d780"},"vehicle_type_id":"4","last_reported":1749917502,"current_range_meters":18800,"station_id":"ce4bhg12rcd13ifvqf70","pricing_plan_id":"cebpf4jnsgd1na2vs0mg"},{"bike_id":"3d0d3193-4343-4192-8ea6-6b2a45d4364d","system_id":"levelo_inurba_marseille","lat":43.27967,"lon":5.38737,"is_reserved":false,"is_disabled":false,"rental_uris":{"android":"levelo://app?vid=3d0d3193-4343-4192-8ea6-6b2a45d4364d","ios":"levelo://app?vid=3d0d3193-4343-4192-8ea6-6b2a45d4364d"},"vehicle_type_id":"4","last_reported":1749917502,"current_range_meters":18800,"station_id":"ce4bhg12rcd13ifvqf80","pricing_plan_id":"cebpf4jnsgd1na2vs0mg"},{"bike_id":"1df519e9-a4ef-4561-88a0-d16ccf72dabb","system_id":"levelo_inurba_marseille","lat":43.254944,"lon":5.376473,"is_reserved":false,"is_disabled":false,"rental_uris":{"android":"levelo://app?vid=1df519e9-a4ef-4561-88a0-d16ccf72dabb","ios":"levelo://app?vid=1df519e9-a4ef-4561-88a0-d16ccf72dabb"},"vehicle_type_id":"4","last_reported":1749917502,"current_range_meters":18800,"station_id":"ce4bhh12rcd13ifvqff0","pricing_plan_id":"cebpf4jnsgd1na2vs0mg"},{"bike_id":"b59e873c-f2a3-434c-b699-80fd6fd5dbae","system_id":"levelo_inurba_marseille","lat":43.24075,"lon":5.3776,"is_reserved":false,"is_disabled":false,"rental_uris":{"android":"levelo://app?vid=b59e873c-f2a3-434c-b699-80fd6fd5dbae","ios":"levelo://app?vid=b59e873c-f2a3-434c-b699-80fd6fd5dbae"},"vehicle_type_id":"4","last_reported":1749917502,"current_range_meters":18800,"station_id":"ce4bhnp2rcd13ifvqgvg","pricing_plan_id":"cebpf4jnsgd1na2vs0mg"},{"bike_id":"76cec3ab-0e56-4a42-af63-63ecf5a2ee5c","system_id":"levelo_inurba_marseille","lat":43.28336,"lon":5.38103,"is_reserved":false,"is_disabled":false,"rental_uris":{"android":"levelo://app?vid=76cec3ab-0e56-4a42-af63-63ecf5a2ee5c","ios":"levelo://app?vid=76cec3ab-0e56-4a42-af63-63ecf5a2ee5c"},"vehicle_type_id":"4","last_reported":1749917502,"current_range_meters":19200,"station_id":"ce4bh412rcd13ifvqdr0","pricing_plan_id":"cebpf4jnsgd1na2vs0mg"},{"bike_id":"6cf35a09-66f8-49a6-a747-cbcaafa8fe36","system_id":"levelo_inurba_marseille","lat":43.2842,"lon":5.34996,"is_reserved":false,"is_disabled":false,"rental_uris":{"android":"levelo://app?vid=6cf35a09-66f8-49a6-a747-cbcaafa8fe36","ios":"levelo://app?vid=6cf35a09-66f8-49a6-a747-cbcaafa8fe36"},"vehicle_type_id":"4","last_reported":1749917502,"current_range_meters":19200,"station_id":"ce4bhbh2rcd13ifvqepg","pricing_plan_id":"cebpf4jnsgd1na2vs0mg"},{"bike_id":"145185f8-2bd4-42d8-83d4-c37b0c4b8e4e","system_id":"levelo_inurba_marseille","lat":43.2293,"lon":5.35379,"is_reserved":false,"is_disabled":false,"rental_uris":{"android":"levelo://app?vid=145185f8-2bd4-42d8-83d4-c37b0c4b8e4e","ios":"levelo://app?vid=145185f8-2bd4-42d8-83d4-c37b0c4b8e4e"},"vehicle_type_id":"4","last_reported":1749917502,"current_range_meters":19200,"station_id":"cpo3532slgdg3j2ikp40","pricing_plan_id":"cebpf4jnsgd1na2vs0mg"},{"bike_id":"67d4735d-a812-4e55-90bc-5641f4e35931","system_id":"levelo_inurba_marseille","lat":43.21193,"lon":5.350707,"is_reserved":false,"is_disabled":false,"rental_uris":{"android":"levelo://app?vid=67d4735d-a812-4e55-90bc-5641f4e35931","ios":"levelo://app?vid=67d4735d-a812-4e55-90bc-5641f4e35931"},"vehicle_type_id":"4","last_reported":1749917502,"current_range_meters":19200,"station_id":"st_cvj6sg6p6f1abm77japg","pricing_plan_id":"cebpf4jnsgd1na2vs0mg"},{"bike_id":"cd5c9bbc-a19b-4f68-b01c-4d04bac795f6","system_id":"levelo_inurba_marseille","lat":43.21186,"lon":5.35069,"is_reserved":false,"is_disabled":false,"rental_uris":{"android":"levelo://app?vid=cd5c9bbc-a19b-4f68-b01c-4d04bac795f6","ios":"levelo://app?vid=cd5c9bbc-a19b-4f68-b01c-4d04bac795f6"},"vehicle_type_id":"4","last_reported":1749917502,"current_range_meters":19200,"station_id":"st_cvj6sg6p6f1abm77japg","pricing_plan_id":"cebpf4jnsgd1na2vs0mg"},{"bike_id":"490b7a49-7d58-4595-a928-35ceabd36dff","system_id":"levelo_inurba_marseille","lat":43.24081,"lon":5.37747,"is_reserved":false,"is_disabled":false,"rental_uris":{"android":"levelo://app?vid=490b7a49-7d58-4595-a928-35ceabd36dff","ios":"levelo://app?vid=490b7a49-7d58-4595-a928-35ceabd36dff"},"vehicle_type_id":"4","last_reported":1749917502,"current_range_meters":19600,"station_id":"ce4bhnp2rcd13ifvqgvg","pricing_plan_id":"cebpf4jnsgd1na2vs0mg"},{"bike_id":"53ac5891-3f92-4f9c-970f-ea977897237d","system_id":"levelo_inurba_marseille","lat":43.29951,"lon":5.41317,"is_reserved":false,"is_disabled":false,"rental_uris":{"android":"levelo://app?vid=53ac5891-3f92-4f9c-970f-ea977897237d","ios":"levelo://app?vid=53ac5891-3f92-4f9c-970f-ea977897237d"},"vehicle_type_id":"4","last_reported":1749917502,"current_range_meters":19600,"station_id":"ce4bhp12rcd13ifvqh9g","pricing_plan_id":"cebpf4jnsgd1na2vs0mg"},{"bike_id":"e978c0c4-eb89-40cb-b405-52125ad393ae","system_id":"levelo_inurba_marseille","lat":43.219484,"lon":5.34533,"is_reserved":false,"is_disabled":false,"rental_uris":{"android":"levelo://app?vid=e978c0c4-eb89-40cb-b405-52125ad393ae","ios":"levelo://app?vid=e978c0c4-eb89-40cb-b405-52125ad393ae"},"vehicle_type_id":"4","last_reported":1749917502,"current_range_meters":19600,"station_id":"cpo3342slgdg3j2ifvpg","pricing_plan_id":"cebpf4jnsgd1na2vs0mg"},{"bike_id":"826f0ca3-e5fc-4cf8-8696-cb1fe62172b3","system_id":"levelo_inurba_marseille","lat":43.21158,"lon":5.35068,"is_reserved":false,"is_disabled":false,"rental_uris":{"android":"levelo://app?vid=826f0ca3-e5fc-4cf8-8696-cb1fe62172b3","ios":"levelo://app?vid=826f0ca3-e5fc-4cf8-8696-cb1fe62172b3"},"vehicle_type_id":"4","last_reported":1749917502,"current_range_meters":20000,"station_id":"","pricing_plan_id":"cebpf4jnsgd1na2vs0mg"},{"bike_id":"76968028-b720-4d8a-8dc5-4232bcac8911","system_id":"levelo_inurba_marseille","lat":43.28564,"lon":5.395,"is_reserved":false,"is_disabled":false,"rental_uris":{"android":"levelo://app?vid=76968028-b720-4d8a-8dc5-4232bcac8911","ios":"levelo://app?vid=76968028-b720-4d8a-8dc5-4232bcac8911"},"vehicle_type_id":"4","last_reported":1749917502,"current_range_meters":20000,"station_id":"ce4bh292rcd13ifvqdg0","pricing_plan_id":"cebpf4jnsgd1na2vs0mg"},{"bike_id":"2eada1e3-537e-48d7-9731-1a98403598f1","system_id":"levelo_inurba_marseille","lat":43.28624,"lon":5.35101,"is_reserved":false,"is_disabled":false,"rental_uris":{"android":"levelo://app?vid=2eada1e3-537e-48d7-9731-1a98403598f1","ios":"levelo://app?vid=2eada1e3-537e-48d7-9731-1a98403598f1"},"vehicle_type_id":"4","last_reported":1749917502,"current_range_meters":20000,"station_id":"ce4bhch2rcd13ifvqeug","pricing_plan_id":"cebpf4jnsgd1na2vs0mg"},{"bike_id":"7080591f-26a5-480b-a32d-ef6941ff4529","system_id":"levelo_inurba_marseille","lat":43.24046,"lon":5.3773,"is_reserved":false,"is_disabled":false,"rental_uris":{"android":"levelo://app?vid=7080591f-26a5-480b-a32d-ef6941ff4529","ios":"levelo://app?vid=7080591f-26a5-480b-a32d-ef6941ff4529"},"vehicle_type_id":"4","last_reported":1749917502,"current_range_meters":20000,"station_id":"ce4bhnp2rcd13ifvqgvg","pricing_plan_id":"cebpf4jnsgd1na2vs0mg"},{"bike_id":"546df154-65a3-47e9-bd37-57d76960cc9f","system_id":"levelo_inurba_marseille","lat":43.28438,"lon":5.39197,"is_reserved":false,"is_disabled":false,"rental_uris":{"android":"levelo://app?vid=546df154-65a3-47e9-bd37-57d76960cc9f","ios":"levelo://app?vid=546df154-65a3-47e9-bd37-57d76960cc9f"},"vehicle_type_id":"4","last_reported":1749917502,"current_range_meters":20000,"station_id":"ce4bhoh2rcd13ifvqh5g","pricing_plan_id":"cebpf4jnsgd1na2vs0mg"},{"bike_id":"4e532e24-ef82-4681-84dd-42f55b3ef32e","system_id":"levelo_inurba_marseille","lat":43.22943,"lon":5.35387,"is_reserved":false,"is_disabled":false,"rental_uris":{"android":"levelo://app?vid=4e532e24-ef82-4681-84dd-42f55b3ef32e","ios":"levelo://app?vid=4e532e24-ef82-4681-84dd-42f55b3ef32e"},"vehicle_type_id":"4","last_reported":1749917502,"current_range_meters":20000,"station_id":"cpo3532slgdg3j2ikp40","pricing_plan_id":"cebpf4jnsgd1na2vs0mg"},{"bike_id":"078538e5-911d-4dd0-86e7-bd82a86dade3","system_id":"levelo_inurba_marseille","lat":43.21755,"lon":5.34607,"is_reserved":false,"is_disabled":false,"rental_uris":{"android":"levelo://app?vid=078538e5-911d-4dd0-86e7-bd82a86dade3","ios":"levelo://app?vid=078538e5-911d-4dd0-86e7-bd82a86dade3"},"vehicle_type_id":"4","last_reported":1749917502,"current_range_meters":20000,"station_id":"st_cvj6r9ubvosntc0bgbag","pricing_plan_id":"cebpf4jnsgd1na2vs0mg"},{"bike_id":"38e08ec6-738b-4a04-a092-dec10c6891d3","system_id":"levelo_inurba_marseille","lat":43.26856,"lon":5.40664,"is_reserved":false,"is_disabled":false,"rental_uris":{"android":"levelo://app?vid=38e08ec6-738b-4a04-a092-dec10c6891d3","ios":"levelo://app?vid=38e08ec6-738b-4a04-a092-dec10c6891d3"},"vehicle_type_id":"4","last_reported":1749917502,"current_range_meters":20400,"station_id":"","pricing_plan_id":"cebpf4jnsgd1na2vs0mg"},{"bike_id":"348e2e1e-a616-4de5-acc3-f60a12804964","system_id":"levelo_inurba_marseille","lat":43.29618,"lon":5.37155,"is_reserved":false,"is_disabled":false,"rental_uris":{"android":"levelo://app?vid=348e2e1e-a616-4de5-acc3-f60a12804964","ios":"levelo://app?vid=348e2e1e-a616-4de5-acc3-f60a12804964"},"vehicle_type_id":"4","last_reported":1749917502,"current_range_meters":20400,"station_id":"ce4bgnh2rcd13ifvqc0g","pricing_plan_id":"cebpf4jnsgd1na2vs0mg"},