{"last_updated":1733850531,"ttl":60,"version":"2.2","data":{"bikes":[{"bike_id":"9e840671-2878-4845-b8fb-114afd1f4bc9","system_id":"levelo_inurba_marseille","lat":43.26686,"lon":5.38274,"is_reserved":false,"is_disabled":true,"rental_uris":{"android":"levelo://app?vid=9e840671-2878-4845-b8fb-114afd1f4bc9","ios":"levelo://app?vid=9e840671-2878-4845-b8fb-114afd1f4bc9"},"vehicle_type_id":"4","last_reported":1733850531,"current_range_meters":400,"station_id":"ce4bhg92rcd13ifvqf90","pricing_plan_id":"cebpf4jnsgd1na2vs0mg"},{"bike_id":"8a8f5511-43b5-44ad-bbc3-c14c020cfc90","system_id":"levelo_inurba_marseille","lat":43.26557,"lon":5.37286,"is_reserved":false,"is_disabled":false,"rental_uris":{"android":"levelo://app?vid=8a8f5511-43b5-44ad-bbc3-c14c020cfc90","ios":"levelo://app?vid=8a8f5511-43b5-44ad-bbc3-c14c020cfc90"},"vehicle_type_id":"4","last_reported":1733850531,"current_range_meters":23200,"station_id":"ce4bhg12rcd13ifvqf70","pricing_plan_id":"cebpf4jnsgd1na2vs0mg"},{"bike_id":"8e029eaf-e104-4c5d-858d-6cd39de73d09","system_id":"levelo_inurba_marseille","lat":43.24163,"lon":5.36397,"is_reserved":false,"is_disabled":false,"rental_uris":{"android":"levelo://app?vid=8e029eaf-e104-4c5d-858d-6cd39de73d09","ios":"levelo://app?vid=8e029eaf-e104-4c5d-858d-6cd39de73d09"},"vehicle_type_id":"4","last_reported":1733850531,"current_range_meters":16000,"station_id":"cpo36qri1sfpv3e86is0","pricing_plan_id":"cebpf4jnsgd1na2vs0mg"},{"bike_id":"03085776-2487-41ec-87df-dddb6f99279f","system_id":"levelo_inurba_marseille","lat":43.29535,"lon":5.38543,"is_reserved":false,"is_disabled":false,"rental_uris":{"android":"levelo://app?vid=03085776-2487-41ec-87df-dddb6f99279f","ios":"levelo://app?vid=03085776-2487-41ec-87df-dddb6f99279f"},"vehicle_type_id":"4","last_reported":1733850531,"current_range_meters":24800,"station_id":"ce4bgih2rcd13ifvqba0","pricing_plan_id":"cebpf4jnsgd1na2vs0mg"},{"bike_id":"9fd0ac7c-0144-46a0-b1b2-f558ffbf21a2","system_id":"levelo_inurba_marseille","lat":43.25006,"lon":5.38926,"is_reserved":false,"is_disabled":false,"rental_uris":{"android":"levelo://app?vid=9fd0ac7c-0144-46a0-b1b2-f558ffbf21a2","ios":"levelo://app?vid=9fd0ac7c-0144-46a0-b1b2-f558ffbf21a2"},"vehicle_type_id":"4","last_reported":1733850531,"current_range_meters":33200,"station_id":"ce4bhgp2rcd13ifvqfd0","pricing_plan_id":"cebpf4jnsgd1na2vs0mg"},{"bike_id":"014914cf-eb98-4b5d-8cd3-12a67a219c23","system_id":"levelo_inurba_marseille","lat":43.33618,"lon":5.41025,"is_reserved":false,"is_disabled":true,"rental_uris":{"android":"levelo://app?vid=014914cf-eb98-4b5d-8cd3-12a67a219c23","ios":"levelo://app?vid=014914cf-eb98-4b5d-8cd3-12a67a219c23"},"vehicle_type_id":"4","last_reported":1733850531,"current_range_meters":37600,"station_id":"ce4bhqh2rcd13ifvqhmg","pricing_plan_id":"cebpf4jnsgd1na2vs0mg"},{"bike_id":"c83030f1-3f50-485d-8222-d21cf9b86e00","system_id":"levelo_inurba_marseille","lat":43.27996,"lon":5.41666,"is_reserved":false,"is_disabled":false,"rental_uris":{"android":"levelo://app?vid=c83030f1-3f50-485d-8222-d21cf9b86e00","ios":"levelo://app?vid=c83030f1-3f50-485d-8222-d21cf9b86e00"},"vehicle_type_id":"4","last_reported":1733850531,"current_range_meters":16800,"station_id":"ce4bho12rcd13ifvqh1g","pricing_plan_id":"cebpf4jnsgd1na2vs0mg"},{"bike_id":"5a068132-d097-4150-acbd-330ec6d295a8","system_id":"levelo_inurba_marseille","lat":43.2888,"lon":5.3829,"is_reserved":false,"is_disabled":false,"rental_uris":{"android":"levelo://app?vid=5a068132-d097-4150-acbd-330ec6d295a8","ios":"levelo://app?vid=5a068132-d097-4150-acbd-330ec6d295a8"},"vehicle_type_id":"4","last_reported":1733850531,"current_range_meters":15200,"station_id":"ce4bh9p2rcd13ifvqec0","pricing_plan_id":"cebpf4jnsgd1na2vs0mg"},{"bike_id":"8bd642b2-0279-44c7-9ee2-fc3b57332c83","system_id":"levelo_inurba_marseille","lat":43.27455,"lon":5.40073,"is_reserved":false,"is_disabled":true,"rental_uris":{"android":"levelo://app?vid=8bd642b2-0279-44c7-9ee2-fc3b57332c83","ios":"levelo://app?vid=8bd642b2-0279-44c7-9ee2-fc3b57332c83"},"vehicle_type_id":"4","last_reported":1733850531,"current_range_meters":0,"station_id":"","pricing_plan_id":"cebpf4jnsgd1na2vs0mg"},{"bike_id":"59b0b34c-6f92-4349-9ebf-bf641fd76061","system_id":"levelo_inurba_marseille","lat":43.27062,"lon":5.42277,"is_reserved":false,"is_disabled":true,"rental_uris":{"android":"levelo://app?vid=59b0b34c-6f92-4349-9ebf-bf641fd76061","ios":"levelo://app?vid=59b0b34c-6f92-4349-9ebf-bf641fd76061"},"vehicle_type_id":"4","last_reported":1733850531,"current_range_meters":30400,"station_id":"ce4bhk92rcd13ifvqgb0","pricing_plan_id":"cebpf4jnsgd1na2vs0mg"},{"bike_id":"0e97a4f9-9494-4d18-8014-d897be428619","system_id":"levelo_inurba_marseille","lat":43.30592,"lon":5.40168,"is_reserved":false,"is_disabled":false,"rental_uris":{"android":"levelo://app?vid=0e97a4f9-9494-4d18-8014-d897be428619","ios":"levelo://app?vid=0e97a4f9-9494-4d18-8014-d897be428619"},"vehicle_type_id":"4","last_reported":1733850531,"current_range_meters":22000,"station_id":"","pricing_plan_id":"cebpf4jnsgd1na2vs0mg"},{"bike_id":"19578e2b-56b6-4d68-a1a4-a1c1d1eccdc2","system_id":"levelo_inurba_marseille","lat":43.28444,"lon":5.39202,"is_reserved":false,"is_disabled":false,"rental_uris":{"android":"levelo://app?vid=19578e2b-56b6-4d68-a1a4-a1c1d1eccdc2","ios":"levelo://app?vid=19578e2b-56b6-4d68-a1a4-a1c1d1eccdc2"},"vehicle_type_id":"4","last_reported":1733850531,"current_range_meters":32400,"station_id":"ce4bhoh2rcd13ifvqh5g","pricing_plan_id":"cebpf4jnsgd1na2vs0mg"},{"bike_id":"aebbea8f-e054-4629-b15d-a0dad453f30e","system_id":"levelo_inurba_marseille","lat":43.29038,"lon":5.35913,"is_reserved":false,"is_disabled":false,"rental_uris":{"android":"levelo://app?vid=aebbea8f-e054-4629-b15d-a0dad453f30e","ios":"levelo://app?vid=aebbea8f-e054-4629-b15d-a0dad453f30e"},"vehicle_type_id":"4","last_reported":1733850531,"current_range_meters":11600,"station_id":"ce4bha92rcd13ifvqeg0","pricing_plan_id":"cebpf4jnsgd1na2vs0mg"},{"bike_id":"f09914a1-032a-4233-965f-c73f49a269ba","system_id":"levelo_inurba_marseille","lat":43.337444,"lon":5.374475,"is_reserved":false,"is_disabled":true,"rental_uris":{"android":"levelo://app?vid=f09914a1-032a-4233-965f-c73f49a269ba","ios":"levelo://app?vid=f09914a1-032a-4233-965f-c73f49a269ba"},"vehicle_type_id":"4","last_reported":1733850531,"current_range_meters":0,"station_id":"","pricing_plan_id":"cebpf4jnsgd1na2vs0mg"},{"bike_id":"c1d3fdd9-090b-446a-9a55-c32b915bc6d3","system_id":"levelo_inurba_marseille","lat":43.29226,"lon":5.36066,"is_reserved":false,"is_disabled":false,"rental_uris":{"android":"levelo://app?vid=c1d3fdd9-090b-446a-9a55-c32b915bc6d3","ios":"levelo://app?vid=c1d3fdd9-090b-446a-9a55-c32b915bc6d3"},"vehicle_type_id":"4","last_reported":1733850531,"current_range_meters":26800,"station_id":"ce4bhbh2rcd13ifvqeqg","pricing_plan_id":"cebpf4jnsgd1na2vs0mg"},{"bike_id":"4232301f-62cf-4f72-99fa-7b7e52509b87","system_id":"levelo_inurba_marseille","lat":43.337444,"lon":5.374475,"is_reserved":false,"is_disabled":true,"rental_uris":{"android":"levelo://app?vid=4232301f-62cf-4f72-99fa-7b7e52509b87","ios":"levelo://app?vid=4232301f-62cf-4f72-99fa-7b7e52509b87"},"vehicle_type_id":"4","last_reported":1733850531,"current_range_meters":33200,"station_id":"ce4bhoh2rcd13ifvqh5g","pricing_plan_id":"cebpf4jnsgd1na2vs0mg"},{"bike_id":"f6ceca24-19af-4ed8-b20b-dad7699688ae","system_id":"levelo_inurba_marseille","lat":43.32477,"lon":5.36582,"is_reserved":false,"is_disabled":true,"rental_uris":{"android":"levelo://app?vid=f6ceca24-19af-4ed8-b20b-dad7699688ae","ios":"levelo://app?vid=f6ceca24-19af-4ed8-b20b-dad7699688ae"},"vehicle_type_id":"4","last_reported":1733850531,"current_range_meters":22800,"station_id":"ce4bhs12rcd13ifvqhvg","pricing_plan_id":"cebpf4jnsgd1na2vs0mg"},{"bike_id":"aba1a823-a941-47f5-8b4c-ed2130a1d33b","system_id":"levelo_inurba_marseille","lat":43.29187,"lon":5.35795,"is_reserved":false,"is_disabled":false,"rental_uris":{"android":"levelo://app?vid=aba1a823-a941-47f5-8b4c-ed2130a1d33b","ios":"levelo://app?vid=aba1a823-a941-47f5-8b4c-ed2130a1d33b"},"vehicle_type_id":"4","last_reported":1733850531,"current_range_meters":38400,"station_id":"ce4bhb12rcd13ifvqel0","pricing_plan_id":"cebpf4jnsgd1na2vs0mg"},{"bike_id":"5f91ae6e-ca2e-40ba-a72b-3ba9b7ba12e0","system_id":"levelo_inurba_marseille","lat":43.29602,"lon":5.38099,"is_reserved":false,"is_disabled":false,"rental_uris":{"android":"levelo://app?vid=5f91ae6e-ca2e-40ba-a72b-3ba9b7ba12e0","ios":"levelo://app?vid=5f91ae6e-ca2e-40ba-a72b-3ba9b7ba12e0"},"vehicle_type_id":"4","last_reported":1733850531,"current_range_meters":16000,"station_id":"ce4bgl12rcd13ifvqbo0","pricing_plan_id":"cebpf4jnsgd1na2vs0mg"},{"bike_id":"6547f074-fdd6-40e0-afe2-18e87d9a5a44","system_id":"levelo_inurba_marseille","lat":43.31271,"lon":5.40165,"is_reserved":false,"is_disabled":false,"rental_uris":{"android":"levelo://app?vid=6547f074-fdd6-40e0-afe2-18e87d9a5a44","ios":"levelo://app?vid=6547f074-fdd6-40e0-afe2-18e87d9a5a44"},"vehicle_type_id":"4","last_reported":1733850531,"current_range_meters":38800,"station_id":"ce4bh092rcd13ifvqd30","pricing_plan_id":"cebpf4jnsgd1na2vs0mg"},{"bike_id":"9798a14a-cd61-47ed-aaf1-b8c85e3fdb91","system_id":"levelo_inurba_marseille","lat":43.2894,"lon":5.3663,"is_reserved":false,"is_disabled":true,"rental_uris":{"android":"levelo://app?vid=9798a14a-cd61-47ed-aaf1-b8c85e3fdb91","ios":"levelo://app?vid=9798a14a-cd61-47ed-aaf1-b8c85e3fdb91"},"vehicle_type_id":"4","last_reported":1733850531,"current_range_meters":5600,"station_id":"ce4bhap2rcd13ifvqek0","pricing_plan_id":"cebpf4jnsgd1na2vs0mg"},{"bike_id":"cda71edb-1133-4a0b-abf5-cc10372338cc","system_id":"levelo_inurba_marseille","lat":43.30102,"lon":5.39847,"is_reserved":false,"is_disabled":false,"rental_uris":{"android":"levelo://app?vid=cda71edb-1133-4a0b-abf5-cc10372338cc","ios":"levelo://app?vid=cda71edb-1133-4a0b-abf5-cc10372338cc"},"vehicle_type_id":"4","last_reported":1733850531,"current_range_meters":35200,"station_id":"ce4bh0h2rcd13ifvqd40","pricing_plan_id":"cebpf4jnsgd1na2vs0mg"},{"bike_id":"e8d6a65e-f535-4b14-8d99-b9e26864f42c","system_id":"levelo_inurba_marseille","lat":43.27916,"lon":5.39588,"is_reserved":false,"is_disabled":false,"rental_uris":{"android":"levelo://app?vid=e8d6a65e-f535-4b14-8d99-b9e26864f42c","ios":"levelo://app?vid=e8d6a65e-f535-4b14-8d99-b9e26864f42c"},"vehicle_type_id":"4","last_reported":1733850531,"current_range_meters":38800,"station_id":"ce4bhf92rcd13ifvqf40","pricing_plan_id":"cebpf4jnsgd1na2vs0mg"},{"bike_id":"98307136-80a4-466f-817c-d269e3457acc","system_id":"levelo_inurba_marseille","lat":43.32198,"lon":5.37642,"is_reserved":false,"is_disabled":false,"rental_uris":{"android":"levelo://app?vid=98307136-80a4-466f-817c-d269e3457acc","ios":"levelo://app?vid=98307136-80a4-466f-817c-d269e3457acc"},"vehicle_type_id":"4","last_reported":1733850531,"current_range_meters":32800,"station_id":"","pricing_plan_id":"cebpf4jnsgd1na2vs0mg"},{"bike_id":"320a7c82-42fc-49cd-9ccf-9fa69deb5a56","system_id":"levelo_inurba_marseille","lat":43.23198,"lon":5.35551,"is_reserved":false,"is_disabled":false,"rental_uris":{"android":"levelo://app?vid=320a7c82-42fc-49cd-9ccf-9fa69deb5a56","ios":"levelo://app?vid=320a7c82-42fc-49cd-9ccf-9fa69deb5a56"},"vehicle_type_id":"4","last_reported":1733850531,"current_range_meters":38000,"station_id":"ce4bhu92rcd13ifvqi70","pricing_plan_id":"cebpf4jnsgd1na2vs0mg"},{"bike_id":"712f58b2-0b20-41da-bb7d-e5251d897221","system_id":"levelo_inurba_marseille","lat":43.25579,"lon":5.38227,"is_reserved":false,"is_disabled":false,"rental_uris":{"android":"levelo://app?vid=712f58b2-0b20-41da-bb7d-e5251d897221","ios":"levelo://app?vid=712f58b2-0b20-41da-bb7d-e5251d897221"},"vehicle_type_id":"4","last_reported":1733850531,"current_range_meters":36800,"station_id":"ce4bhih2rcd13ifvqfs0","pricing_plan_id":"cebpf4jnsgd1na2vs0mg"},{"bike_id":"d1bdcee4-3d65-4af4-a341-e1d2febdfb0e","system_id":"levelo_inurba_marseille","lat":43.32369,"lon":5.38885,"is_reserved":false,"is_disabled":false,"rental_uris":{"android":"levelo://app?vid=d1bdcee4-3d65-4af4-a341-e1d2febdfb0e","ios":"levelo://app?vid=d1bdcee4-3d65-4af4-a341-e1d2febdfb0e"},"vehicle_type_id":"4","last_reported":1733850531,"current_range_meters":19200,"station_id":"ce4bhqp2rcd13ifvqhog","pricing_plan_id":"cebpf4jnsgd1na2vs0mg"},{"bike_id":"61a013f3-1d71-48c2-8eca-dfe11cb22708","system_id":"levelo_inurba_marseille","lat":43.29444,"lon":5.39747,"is_reserved":false,"is_disabled":false,"rental_uris":{"android":"levelo://app?vid=61a013f3-1d71-48c2-8eca-dfe11cb22708","ios":"levelo://app?vid=61a013f3-1d71-48c2-8eca-dfe11cb22708"},"vehicle_type_id":"4","last_reported":1733850531,"current_range_meters":39200,"station_id":"ce4bh3h2rcd13ifvqdo0","pricing_plan_id":"cebpf4jnsgd1na2vs0mg"},{"bike_id":"06eb9210-1794-4f84-845d-411d24500349","system_id":"levelo_inurba_marseille","lat":43.29157,"lon":5.3716,"is_reserved":false,"is_disabled":false,"rental_uris":{"android":"levelo://app?vid=06eb9210-1794-4f84-845d-411d24500349","ios":"levelo://app?vid=06eb9210-1794-4f84-845d-411d24500349"},"vehicle_type_id":"4","last_reported":1733850531,"current_range_meters":36800,"station_id":"ce4bha92rcd13ifvqeh0","pricing_plan_id":"cebpf4jnsgd1na2vs0mg"},{"bike_id":"2f3968e7-9336-4ee4-ba78-8e92c0a818cc","system_id":"levelo_inurba_marseille","lat":43.31322,"lon":5.36647,"is_reserved":false,"is_disabled":true,"rental_uris":{"android":"levelo://app?vid=2f3968e7-9336-4ee4-ba78-8e92c0a818cc","ios":"levelo://app?vid=2f3968e7-9336-4ee4-ba78-8e92c0a818cc"},"vehicle_type_id":"4","last_reported":1733850531,"current_range_meters":0,"station_id":"","pricing_plan_id":"cebpf4jnsgd1na2vs0mg"},{"bike_id":"7f31f384-e337-4272-9da9-11946590de52","system_id":"levelo_inurba_marseille","lat":43.32885,"lon":5.39983,"is_reserved":false,"is_disabled":true,"rental_uris":{"android":"levelo://app?vid=7f31f384-e337-4272-9da9-11946590de52","ios":"levelo://app?vid=7f31f384-e337-4272-9da9-11946590de52"},"vehicle_type_id":"4","last_reported":1733850531,"current_range_meters":38800,"station_id":"","pricing_plan_id":"cebpf4jnsgd1na2vs0mg"},{"bike_id":"ce12a7b0-19f4-4644-8671-c4d4f1297f67","system_id":"levelo_inurba_marseille","lat":43.30852,"lon":5.36658,"is_reserved":false,"is_disabled":false,"rental_uris":{"android":"levelo://app?vid=ce12a7b0-19f4-4644-8671-c4d4f1297f67","ios":"levelo://app?vid=ce12a7b0-19f4-4644-8671-c4d4f1297f67"},"vehicle_type_id":"4","last_reported":1733850531,"current_range_meters":35200,"station_id":"","pricing_plan_id":"cebpf4jnsgd1na2vs0mg"},{"bike_id":"125788a5-2178-49b1-a1f7-fbe6972eed07","system_id":"levelo_inurba_marseille","lat":43.28346,"lon":5.38091,"is_reserved":false,"is_disabled":true,"rental_uris":{"android":"levelo://app?vid=125788a5-2178-49b1-a1f7-fbe6972eed07","ios":"levelo://app?vid=125788a5-2178-49b1-a1f7-fbe6972eed07"},"vehicle_type_id":"4","last_reported":1733850531,"current_range_meters":0,"station_id":"ce4bh412rcd13ifvqdr0","pricing_plan_id":"cebpf4jnsgd1na2vs0mg"},{"bike_id":"3622cb3f-35d5-49a7-bc5c-985cbd9a17c1","system_id":"levelo_inurba_marseille","lat":43.24659,"lon":5.38162,"is_reserved":false,"is_disabled":false,"rental_uris":{"android":"levelo://app?vid=3622cb3f-35d5-49a7-bc5c-985cbd9a17c1","ios":"levelo://app?vid=3622cb3f-35d5-49a7-bc5c-985cbd9a17c1"},"vehicle_type_id":"4","last_reported":1733850531,"current_range_meters":16800,"station_id":"ce4bhih2rcd13ifvqfr0","pricing_plan_id":"cebpf4jnsgd1na2vs0mg"},{"bike_id":"02b35678-f4a7-4801-8ef2-5a96033c92be","system_id":"levelo_inurba_marseille","lat":43.31066,"lon":5.38354,"is_reserved":false,"is_disabled":false,"rental_uris":{"android":"levelo://app?vid=02b35678-f4a7-4801-8ef2-5a96033c92be","ios":"levelo://app?vid=02b35678-f4a7-4801-8ef2-5a96033c92be"},"vehicle_type_id":"4","last_reported":1733850531,"current_range_meters":34800,"station_id":"ce4bgv92rcd13ifvqcr0","pricing_plan_id":"cebpf4jnsgd1na2vs0mg"},{"bike_id":"915b4f84-675b-4fc7-96c7-3a9bba32c474","system_id":"levelo_inurba_marseille","lat":43.28834,"lon":5.39325,"is_reserved":false,"is_disabled":false,"rental_uris":{"android":"levelo://app?vid=915b4f84-675b-4fc7-96c7-3a9bba32c474","ios":"levelo://app?vid=915b4f84-675b-4fc7-96c7-3a9bba32c474"},"vehicle_type_id":"4","last_reported":1733850531,"current_range_meters":37600,"station_id":"ce4bh2p2rcd13ifvqdi0","pricing_plan_id":"cebpf4jnsgd1na2vs0mg"},{"bike_id":"014cf524-69c6-4b89-b41e-8fb18927cd86","system_id":"levelo_inurba_marseille","lat":43.30804,"lon":5.43527,"is_reserved":false,"is_disabled":false,"rental_uris":{"android":"levelo://app?vid=014cf524-69c6-4b89-b41e-8fb18927cd86","ios":"levelo://app?vid=014cf524-69c6-4b89-b41e-8fb18927cd86"},"vehicle_type_id":"4","last_reported":1733850531,"current_range_meters":24800,"station_id":"ce4bhph2rcd13ifvqheg","pricing_plan_id":"cebpf4jnsgd1na2vs0mg"},{"bike_id":"12add500-ea1f-403d-bb3c-de83ce61c6f3","system_id":"levelo_inurba_marseille","lat":43.28934,"lon":5.36617,"is_reserved":false,"is_disabled":true,"rental_uris":{"android":"levelo://app?vid=12add500-ea1f-403d-bb3c-de83ce61c6f3","ios":"levelo://app?vid=12add500-ea1f-403d-bb3c-de83ce61c6f3"},"vehicle_type_id":"4","last_reported":1733850531,"current_range_meters":34800,"station_id":"ce4bhap2rcd13ifvqek0","pricing_plan_id":"cebpf4jnsgd1na2vs0mg"},{"bike_id":"ab1765a6-6c00-420c-b72e-88228cba39da","system_id":"levelo_inurba_marseille","lat":43.27199,"lon":5.40974,"is_reserved":false,"is_disabled":false,"rental_uris":{"android":"levelo://app?vid=ab1765a6-6c00-420c-b72e-88228cba39da","ios":"levelo://app?vid=ab1765a6-6c00-420c-b72e-88228cba39da"},"vehicle_type_id":"4","last_reported":1733850531,"current_range_meters":36000,"station_id":"ce4bhl12rcd13ifvqgf0","pricing_plan_id":"cebpf4jnsgd1na2vs0mg"},{"bike_id":"34c91d5f-dd8c-41a9-ba37-356e7f608411","system_id":"levelo_inurba_marseille","lat":43.28417,"lon":5.37506,"is_reserved":false,"is_disabled":false,"rental_uris":{"android":"levelo://app?vid=34c91d5f-dd8c-41a9-ba37-356e7f608411","ios":"levelo://app?vid=34c91d5f-dd8c-41a9-ba37-356e7f608411"},"vehicle_type_id":"4","last_reported":1733850531,"current_range_meters":8800,"station_id":"ce4bh412rcd13ifvqds0","pricing_plan_id":"cebpf4jnsgd1na2vs0mg"},{"bike_id":"ce93eba4-a260-4242-bfd1-eb4a1083d4a6","system_id":"levelo_inurba_marseille","lat":43.27377,"lon":5.36248,"is_reserved":false,"is_disabled":false,"rental_uris":{"android":"levelo://app?vid=ce93eba4-a260-4242-bfd1-eb4a1083d4a6","ios":"levelo://app?vid=ce93eba4-a260-4242-bfd1-eb4a1083d4a6"},"vehicle_type_id":"4","last_reported":1733850531,"current_range_meters":39200,"station_id":"ce4bhbh2rcd13ifvqeo0","pricing_plan_id":"cebpf4jnsgd1na2vs0mg"},{"bike_id":"da7a6b9c-3163-4321-a587-783fd1a0f831","system_id":"levelo_inurba_marseille","lat":43.29417,"lon":5.38622,"is_reserved":false,"is_disabled":false,"rental_uris":{"android":"levelo://app?vid=da7a6b9c-3163-4321-a587-783fd1a0f831","ios":"levelo://app?vid=da7a6b9c-3163-4321-a587-783fd1a0f831"},"vehicle_type_id":"4","last_reported":1733850531,"current_range_meters":31200,"station_id":"ce4bh2h2rcd13ifvqdh0","pricing_plan_id":"cebpf4jnsgd1na2vs0mg"},{"bike_id":"c1af07c0-ed11-49c8-aa2e-1104638a28b7","system_id":"levelo_inurba_marseille","lat":43.23065,"lon":5.35495,"is_reserved":false,"is_disabled":false,"rental_uris":{"android":"levelo://app?vid=c1af07c0-ed11-49c8-aa2e-1104638a28b7","ios":"levelo://app?vid=c1af07c0-ed11-49c8-aa2e-1104638a28b7"},"vehicle_type_id":"4","last_reported":1733850531,"current_range_meters":18000,"station_id":"cpo3342slgdg3j2ifvpg","pricing_plan_id":"cebpf4jnsgd1na2vs0mg"},{"bike_id":"0084a9d1-9e1b-49bf-9a13-b2215967ad3d","system_id":"levelo_inurba_marseille","lat":43.24664,"lon":5.38167,"is_reserved":false,"is_disabled":false,"rental_uris":{"android":"levelo://app?vid=0084a9d1-9e1b-49bf-9a13-b2215967ad3d","ios":"levelo://app?vid=0084a9d1-9e1b-49bf-9a13-b2215967ad3d"},"vehicle_type_id":"4","last_reported":1733850531,"current_range_meters":38800,"station_id":"ce4bhih2rcd13ifvqfr0","pricing_plan_id":"cebpf4jnsgd1na2vs0mg"},{"bike_id":"3e497cde-92d7-47b0-afb7-fe377015d10c","system_id":"levelo_inurba_marseille","lat":43.29545,"lon":5.38545,"is_reserved":false,"is_disabled":false,"rental_uris":{"android":"levelo://app?vid=3e497cde-92d7-47b0-afb7-fe377015d10c","ios":"levelo://app?vid=3e497cde-92d7-47b0-afb7-fe377015d10c"},"vehicle_type_id":"4","last_reported":1733850531,"current_range_meters":28400,"station_id":"ce4bgih2rcd13ifvqba0","pricing_plan_id":"cebpf4jnsgd1na2vs0mg"},{"bike_id":"a9dde08b-6d06-4ebc-b232-3bba2d50b767","system_id":"levelo_inurba_marseille","lat":43.31757,"lon":5.39018,"is_reserved":false,"is_disabled":false,"rental_uris":{"android":"levelo://app?vid=a9dde08b-6d06-4ebc-b232-3bba2d50b767","ios":"levelo://app?vid=a9dde08b-6d06-4ebc-b232-3bba2d50b767"},"vehicle_type_id":"4","last_reported":1733850531,"current_range_meters":37600,"station_id":"ce4bhqp2rcd13ifvqhng","pricing_plan_id":"cebpf4jnsgd1na2vs0mg"},{"bike_id":"dee835e6-f2ba-4a33-9e4b-7ee13e6d35dc","system_id":"levelo_inurba_marseille","lat":43.28616,"lon":5.35102,"is_reserved":false,"is_disabled":false,"rental_uris":{"android":"levelo://app?vid=dee835e6-f2ba-4a33-9e4b-7ee13e6d35dc","ios":"levelo://app?vid=dee835e6-f2ba-4a33-9e4b-7ee13e6d35dc"},"vehicle_type_id":"4","last_reported":1733850531,"current_range_meters":28000,"station_id":"ce4bhch2rcd13ifvqeug","pricing_plan_id":"cebpf4jnsgd1na2vs0mg"},{"bike_id":"6f5aafc4-06b9-4dba-b612-5d926167490b","system_id":"levelo_inurba_marseille","lat":43.32477,"lon":5.36582,"is_reserved":false,"is_disabled":true,"rental_uris":{"android":"levelo://app?vid=6f5aafc4-06b9-4dba-b612-5d926167490b","ios":"levelo://app?vid=6f5aafc4-06b9-4dba-b612-5d926167490b"},"vehicle_type_id":"4","last_reported":1733850531,"current_range_meters":0,"station_id":"ce4bhs12rcd13ifvqhvg","pricing_plan_id":"cebpf4jnsgd1na2vs0mg"},{"bike_id":"cbc7068b-5c25-41e2-96c9-01451e348e9f","system_id":"levelo_inurba_marseille","lat":43.33021,"lon":5.39044,"is_reserved":false,"is_disabled":false,"rental_uris":{"android":"levelo://app?vid=cbc7068b-5c25-41e2-96c9-01451e348e9f","ios":"levelo://app?vid=cbc7068b-5c25-41e2-96c9-01451e348e9f"},"vehicle_type_id":"4","last_reported":1733850531,"current_range_meters":36800,"station_id":"ce4bhr92rcd13ifvqhrg","pricing_plan_id":"cebpf4jnsgd1na2vs0mg"},{"bike_id":"f48981aa-a25e-43c9-9cc6-b5823a525c11","system_id":"levelo_inurba_marseille","lat":43.30901,"lon":5.39657,"is_reserved":false,"is_disabled":false,"rental_uris":{"android":"levelo://app?vid=f48981aa-a25e-43c9-9cc6-b5823a525c11","ios":"levelo://app?vid=f48981aa-a25e-43c9-9cc6-b5823a525c11"},"vehicle_type_id":"4","last_reported":1733850531,"current_range_meters":12000,"station_id":"ce4bh012rcd13ifvqcv0","pricing_plan_id":"cebpf4jnsgd1na2vs0mg"},{"bike_id":"4953acef-b90c-4795-b3b6-31fa443f8ce7","system_id":"levelo_inurba_marseille","lat":43.25109,"lon":5.40317,"is_reserved":false,"is_disabled":true,"rental_uris":{"android":"levelo://app?vid=4953acef-b90c-4795-b3b6-31fa443f8ce7","ios":"levelo://app?vid=4953acef-b90c-4795-b3b6-31fa443f8ce7"},"vehicle_type_id":"4","last_reported":1733850531,"current_range_meters":0,"station_id":"ce4bhlh2rcd13ifvqgig","pricing_plan_id":"cebpf4jnsgd1na2vs0mg"},{"bike_id":"74ddbdc3-b082-4f44-a075-38dfc2e6b2cd","system_id":"levelo_inurba_marseille","lat":43.24167,"lon":5.36387,"is_reserved":false,"is_disabled":false,"rental_uris":{"android":"levelo://app?vid=74ddbdc3-b082-4f44-a075-38dfc2e6b2cd","ios":"levelo://app?vid=74ddbdc3-b082-4f44-a075-38dfc2e6b2cd"},"vehicle_type_id":"4","last_reported":1733850531,"current_range_meters":21600,"station_id":"cpo36qri1sfpv3e86is0","pricing_plan_id":"cebpf4jnsgd1na2vs0mg"},{"bike_id":"c686933c-fda6-483a-93e8-899283bfaa69","system_id":"levelo_inurba_marseille","lat":43.33026,"lon":5.39034,"is_reserved":false,"is_disabled":true,"rental_uris":{"android":"levelo://app?vid=c686933c-fda6-483a-93e8-899283bfaa69","ios":"levelo://app?vid=c686933c-fda6-483a-93e8-899283bfaa69"},"vehicle_type_id":"4","last_reported":1733850531,"current_range_meters":1200,"station_id":"ce4bhr92rcd13ifvqhrg","pricing_plan_id":"cebpf4jnsgd1na2vs0mg"},{"bike_id":"627751bc-d2b6-495a-97de-471267d080a6","system_id":"levelo_inurba_marseille","lat":43.30324,"lon":5.40435,"is_reserved":false,"is_disabled":true,"rental_uris":{"android":"levelo://app?vid=627751bc-d2b6-495a-97de-471267d080a6","ios":"levelo://app?vid=627751bc-d2b6-495a-97de-471267d080a6"},"vehicle_type_id":"4","last_reported":1733850531,"current_range_meters":38000,"station_id":"ce4bh012rcd13ifvqd10","pricing_plan_id":"cebpf4jnsgd1na2vs0mg"},{"bike_id":"9cd79aab-6f4c-4919-b570-803a9e8b35c5","system_id":"levelo_inurba_marseille","lat":43.30464,"lon":5.36709,"is_reserved":false,"is_disabled":true,"rental_uris":{"android":"levelo://app?vid=9cd79aab-6f4c-4919-b570-803a9e8b35c5","ios":"levelo://app?vid=9cd79aab-6f4c-4919-b570-803a9e8b35c5"},"vehicle_type_id":"4","last_reported":1733850531,"current_range_meters":23200,"station_id":"","pricing_plan_id":"cebpf4jnsgd1na2vs0mg"},{"bike_id":"1f82461f-4d7d-4d79-876a-a1d9e5ce8b3a","system_id":"levelo_inurba_marseille","lat":43.29228,"lon":5.3607,"is_reserved":false,"is_disabled":false,"rental_uris":{"android":"levelo://app?vid=1f82461f-4d7d-4d79-876a-a1d9e5ce8b3a","ios":"levelo://app?vid=1f82461f-4d7d-4d79-876a-a1d9e5ce8b3a"},"vehicle_type_id":"4","last_reported":1733850531,"current_range_meters":38400,"station_id":"ce4bhbh2rcd13ifvqeqg","pricing_plan_id":"cebpf4jnsgd1na2vs0mg"},{"bike_id":"d4cf4dc8-25ec-4bf6-92cf-917fbe800064","system_id":"levelo_inurba_marseille","lat":43.2699,"lon":5.38766,"is_reserved":false,"is_disabled":false,"rental_uris":{"android":"levelo://app?vid=d4cf4dc8-25ec-4bf6-92cf-917fbe800064","ios":"levelo://app?vid=d4cf4dc8-25ec-4bf6-92cf-917fbe800064"},"vehicle_type_id":"4","last_reported":1733850531,"current_range_meters":8800,"station_id":"","pricing_plan_id":"cebpf4jnsgd1na2vs0mg"},{"bike_id":"95381e5f-d6b7-4d89-ada8-652b4e8fa3ed","system_id":"levelo_inurba_marseille","lat":43.250865,"lon":5.395319,"is_reserved":false,"is_disabled":true,"rental_uris":{"android":"levelo://app?vid=95381e5f-d6b7-4d89-ada8-652b4e8fa3ed","ios":"levelo://app?vid=95381e5f-d6b7-4d89-ada8-652b4e8fa3ed"},"vehicle_type_id":"4","last_reported":1733850531,"current_range_meters":13600,"station_id":"ce4bhm12rcd13ifvqgkg","pricing_plan_id":"cebpf4jnsgd1na2vs0mg"},{"bike_id":"ac971ab2-b71b-4519-94db-95079d6df5ea","system_id":"levelo_inurba_marseille","lat":43.25084,"lon":5.39524,"is_reserved":false,"is_disabled":true,"rental_uris":{"android":"levelo://app?vid=ac971ab2-b71b-4519-94db-95079d6df5ea","ios":"levelo://app?vid=ac971ab2-b71b-4519-94db-95079d6df5ea"},"vehicle_type_id":"4","last_reported":1733850531,"current_range_meters":0,"station_id":"ce4bhm12rcd13ifvqgkg","pricing_plan_id":"cebpf4jnsgd1na2vs0mg"},{"bike_id":"b858e78e-4aa4-43aa-be95-cec11a51741c","system_id":"levelo_inurba_marseille","lat":43.32363,"lon":5.38888,"is_reserved":false,"is_disabled":false,"rental_uris":{"android":"levelo://app?vid=b858e78e-4aa4-43aa-be95-cec11a51741c","ios":"levelo://app?vid=b858e78e-4aa4-43aa-be95-cec11a51741c"},"vehicle_type_id":"4","last_reported":1733850531,"current_range_meters":38800,"station_id":"ce4bhqp2rcd13ifvqhog","pricing_plan_id":"cebpf4jnsgd1na2vs0mg"},{"bike_id":"543ffcfa-aa63-4350-88ea-e89f19556564","system_id":"levelo_inurba_marseille","lat":43.27177,"lon":5.40998,"is_reserved":false,"is_disabled":false,"rental_uris":{"android":"levelo://app?vid=543ffcfa-aa63-4350-88ea-e89f19556564","ios":"levelo://app?vid=543ffcfa-aa63-4350-88ea-e89f19556564"},"vehicle_type_id":"4","last_reported":1733850531,"current_range_meters":37600,"station_id":"ce4bhl12rcd13ifvqgf0","pricing_plan_id":"cebpf4jnsgd1na2vs0mg"},{"bike_id":"f97ddc52-5758-4192-8ca1-71254ad1a77e","system_id":"levelo_inurba_marseille","lat":43.26196,"lon":5.37452,"is_reserved":false,"is_disabled":false,"rental_uris":{"android":"levelo://app?vid=f97ddc52-5758-4192-8ca1-71254ad1a77e","ios":"levelo://app?vid=f97ddc52-5758-4192-8ca1-71254ad1a77e"},"vehicle_type_id":"4","last_reported":1733850531,"current_range_meters":38800,"station_id":"ce4bhgp2rcd13ifvqfc0","pricing_plan_id":"cebpf4jnsgd1na2vs0mg"},{"bike_id":"11e86528-eb6b-4391-86a5-9b1822d069a4","system_id":"levelo_inurba_marseille","lat":43.278805,"lon":5.388003,"is_reserved":false,"is_disabled":true,"rental_uris":{"android":"levelo://app?vid=11e86528-eb6b-4391-86a5-9b1822d069a4","ios":"levelo://app?vid=11e86528-eb6b-4391-86a5-9b1822d069a4"},"vehicle_type_id":"4","last_reported":1733850531,"current_range_meters":0,"station_id":"","pricing_plan_id":"cebpf4jnsgd1na2vs0mg"},{"bike_id":"6cc6805f-c0ca-4585-bdf1-b5a0339762b0","system_id":"levelo_inurba_marseille","lat":43.29027,"lon":5.42744,"is_reserved":false,"is_disabled":true,"rental_uris":{"android":"levelo://app?vid=6cc6805f-c0ca-4585-bdf1-b5a0339762b0","ios":"levelo://app?vid=6cc6805f-c0ca-4585-bdf1-b5a0339762b0"},"vehicle_type_id":"4","last_reported":1733850531,"current_range_meters":0,"station_id":"","pricing_plan_id":"cebpf4jnsgd1na2vs0mg"},{"bike_id":"080c9623-7190-4a88-b14f-4d131f18aefc","system_id":"levelo_inurba_marseille","lat":43.29429,"lon":5.39756,"is_reserved":false,"is_disabled":true,"rental_uris":{"android":"levelo://app?vid=080c9623-7190-4a88-b14f-4d131f18aefc","ios":"levelo://app?vid=080c9623-7190-4a88-b14f-4d131f18aefc"},"vehicle_type_id":"4","last_reported":1733850531,"current_range_meters":8400,"station_id":"ce4bh3h2rcd13ifvqdo0","pricing_plan_id":"cebpf4jnsgd1na2vs0mg"},{"bike_id":"9f03dca4-237a-49dc-8f4b-3b6a07909c99","system_id":"levelo_inurba_marseille","lat":43.23194,"lon":5.35555,"is_reserved":false,"is_disabled":false,"rental_uris":{"android":"levelo://app?vid=9f03dca4-237a-49dc-8f4b-3b6a07909c99","ios":"levelo://app?vid=9f03dca4-237a-49dc-8f4b-3b6a07909c99"},"vehicle_type_id":"4","last_reported":1733850531,"current_range_meters":36800,"station_id":"ce4bhu92rcd13ifvqi70","pricing_plan_id":"cebpf4jnsgd1na2vs0mg"},{"bike_id":"d0e9b0d9-b932-4d84-83c8-f81795e05f31","system_id":"levelo_inurba_marseille","lat":43.28487,"lon":5.38431,"is_reserved":false,"is_disabled":true,"rental_uris":{"android":"levelo://app?vid=d0e9b0d9-b932-4d84-83c8-f81795e05f31","ios":"levelo://app?vid=d0e9b0d9-b932-4d84-83c8-f81795e05f31"},"vehicle_type_id":"4","last_reported":1733850531,"current_range_meters":2800,"station_id":"ce4bh512rcd13ifvqe3g","pricing_plan_id":"cebpf4jnsgd1na2vs0mg"},{"bike_id":"77fa2346-13e6-415a-b5c8-d9bc79cb81bb","system_id":"levelo_inurba_marseille","lat":43.29529,"lon":5.39037,"is_reserved":false,"is_disabled":false,"rental_uris":{"android":"levelo://app?vid=77fa2346-13e6-415a-b5c8-d9bc79cb81bb","ios":"levelo://app?vid=77fa2346-13e6-415a-b5c8-d9bc79cb81bb"},"vehicle_type_id":"4","last_reported":1733850531,"current_range_meters":14000,"station_id":"ce4bh3p2rcd13ifvqdp0","pricing_plan_id":"cebpf4jnsgd1na2vs0mg"},{"bike_id":"e1050c60-6eac-430b-97ea-02bb69571220","system_id":"levelo_inurba_marseille","lat":43.26199,"lon":5.37449,"is_reserved":false,"is_disabled":false,"rental_uris":{"android":"levelo://app?vid=e1050c60-6eac-430b-97ea-02bb69571220","ios":"levelo://app?vid=e1050c60-6eac-430b-97ea-02bb69571220"},"vehicle_type_id":"4","last_reported":1733850531,"current_range_meters":38800,"station_id":"ce4bhgp2rcd13ifvqfc0","pricing_plan_id":"cebpf4jnsgd1na2vs0mg"},{"bike_id":"28ea0dce-b762-446b-970f-f3693c260d20","system_id":"levelo_inurba_marseille","lat":43.28451,"lon":5.35886,"is_reserved":false,"is_disabled":false,"rental_uris":{"android":"levelo://app?vid=28ea0dce-b762-446b-970f-f3693c260d20","ios":"levelo://app?vid=28ea0dce-b762-446b-970f-f3693c260d20"},"vehicle_type_id":"4","last_reported":1733850531,"current_range_meters":29600,"station_id":"ce4bhah2rcd13ifvqei0","pricing_plan_id":"cebpf4jnsgd1na2vs0mg"},{"bike_id":"3c79c009-cd27-4fde-bd8b-51681d3c2c3b","system_id":"levelo_inurba_marseille","lat":43.25104,"lon":5.4032,"is_reserved":false,"is_disabled":false,"rental_uris":{"android":"levelo://app?vid=3c79c009-cd27-4fde-bd8b-51681d3c2c3b","ios":"levelo://app?vid=3c79c009-cd27-4fde-bd8b-51681d3c2c3b"},"vehicle_type_id":"4","last_reported":1733850531,"current_range_meters":28000,"station_id":"ce4bhlh2rcd13ifvqgig","pricing_plan_id":"cebpf4jnsgd1na2vs0mg"},{"bike_id":"02d3e5cb-2151-45c8-8683-3366af3eec77","system_id":"levelo_inurba_marseille","lat":43.30325,"lon":5.4043,"is_reserved":false,"is_disabled":false,"rental_uris":{"android":"levelo://app?vid=02d3e5cb-2151-45c8-8683-3366af3eec77","ios":"levelo://app?vid=02d3e5cb-2151-45c8-8683-3366af3eec77"},"vehicle_type_id":"4","last_reported":1733850531,"current_range_meters":35200,"station_id":"ce4bh012rcd13ifvqd10","pricing_plan_id":"cebpf4jnsgd1na2vs0mg"},{"bike_id":"6f0b6821-fe37-41c6-8c97-35834532b455","system_id":"levelo_inurba_marseille","lat":43.24802,"lon":5.37458,"is_reserved":false,"is_disabled":false,"rental_uris":{"android":"levelo://app?vid=6f0b6821-fe37-41c6-8c97-35834532b455","ios":"levelo://app?vid=6f0b6821-fe37-41c6-8c97-35834532b455"},"vehicle_type_id":"4","last_reported":1733850531,"current_range_meters":14800,"station_id":"ce4bhgh2rcd13ifvqfb0","pricing_plan_id":"cebpf4jnsgd1na2vs0mg"},{"bike_id":"b27330e6-8ed3-4182-b7c7-adc27c1bd88a","system_id":"levelo_inurba_marseille","lat":43.29619,"lon":5.37212,"is_reserved":false,"is_disabled":false,"rental_uris":{"android":"levelo://app?vid=b27330e6-8ed3-4182-b7c7-adc27c1bd88a","ios":"levelo://app?vid=b27330e6-8ed3-4182-b7c7-adc27c1bd88a"},"vehicle_type_id":"4","last_reported":1733850531,"current_range_meters":24400,"station_id":"ce4bgnh2rcd13ifvqc0g","pricing_plan_id":"cebpf4jnsgd1na2vs0mg"},{"bike_id":"b0a46ba0-c8bc-4621-808f-2274c3b3257e","system_id":"levelo_inurba_marseille","lat":43.32302,"lon":5.38272,"is_reserved":false,"is_disabled":false,"rental_uris":{"android":"levelo://app?vid=b0a46ba0-c8bc-4621-808f-2274c3b3257e","ios":"levelo://app?vid=b0a46ba0-c8bc-4621-808f-2274c3b3257e"},"vehicle_type_id":"4","last_reported":1733850531,"current_range_meters":38800,"station_id":"ce4bhr12rcd13ifvqhqg","pricing_plan_id":"cebpf4jnsgd1na2vs0mg"},{"bike_id":"72369e3c-7a31-4199-a732-76fa73093ac4","system_id":"levelo_inurba_marseille","lat":43.31358,"lon":5.36707,"is_reserved":false,"is_disabled":true,"rental_uris":{"android":"levelo://app?vid=72369e3c-7a31-4199-a732-76fa73093ac4","ios":"levelo://app?vid=72369e3c-7a31-4199-a732-76fa73093ac4"},"vehicle_type_id":"4","last_reported":1733850531,"current_range_meters":23200,"station_id":"ce4bgr92rcd13ifvqc6g","pricing_plan_id":"cebpf4jnsgd1na2vs0mg"},{"bike_id":"94fd1857-87a7-465b-8a7a-cc24038b7742","system_id":"levelo_inurba_marseille","lat":43.33028,"lon":5.39045,"is_reserved":false,"is_disabled":false,"rental_uris":{"android":"levelo://app?vid=94fd1857-87a7-465b-8a7a-cc24038b7742","ios":"levelo://app?vid=94fd1857-87a7-465b-8a7a-cc24038b7742"},"vehicle_type_id":"4","last_reported":1733850531,"current_range_meters":8800,"station_id":"ce4bhr92rcd13ifvqhrg","pricing_plan_id":"cebpf4jnsgd1na2vs0mg"},{"bike_id":"36929024-6b3a-4d14-bb11-0b8fc6a15243","system_id":"levelo_inurba_marseille","lat":43.27938,"lon":5.41043,"is_reserved":false,"is_disabled":true,"rental_uris":{"android":"levelo://app?vid=36929024-6b3a-4d14-bb11-0b8fc6a15243","ios":"levelo://app?vid=36929024-6b3a-4d14-bb11-0b8fc6a15243"},"vehicle_type_id":"4","last_reported":1733850531,"current_range_meters":1200,"station_id":"ce4bhnp2rcd13ifvqh0g","pricing_plan_id":"cebpf4jnsgd1na2vs0mg"},{"bike_id":"e437a4fc-1a6e-4123-94f3-cb4dd3066ed3","system_id":"levelo_inurba_marseille","lat":43.28416,"lon":5.3751,"is_reserved":false,"is_disabled":false,"rental_uris":{"android":"levelo://app?vid=e437a4fc-1a6e-4123-94f3-cb4dd3066ed3","ios":"levelo://app?vid=e437a4fc-1a6e-4123-94f3-cb4dd3066ed3"},"vehicle_type_id":"4","last_reported":1733850531,"current_range_meters":22000,"station_id":"ce4bh412rcd13ifvqds0","pricing_plan_id":"cebpf4jnsgd1na2vs0mg"},{"bike_id":"c7994383-f96a-46b4-9beb-0b15c03b6c60","system_id":"levelo_inurba_marseille","lat":43.28616,"lon":5.35101,"is_reserved":false,"is_disabled":false,"rental_uris":{"android":"levelo://app?vid=c7994383-f96a-46b4-9beb-0b15c03b6c60","ios":"levelo://app?vid=c7994383-f96a-46b4-9beb-0b15c03b6c60"},"vehicle_type_id":"4","last_reported":1733850531,"current_range_meters":28400,"station_id":"ce4bhch2rcd13ifvqeug","pricing_plan_id":"cebpf4jnsgd1na2vs0mg"},{"bike_id":"da1aefdb-caf1-4155-81fa-858ff49c920b","system_id":"levelo_inurba_marseille","lat":43.26212,"lon":5.37441,"is_reserved":false,"is_disabled":false,"rental_uris":{"android":"levelo://app?vid=da1aefdb-caf1-4155-81fa-858ff49c920b","ios":"levelo://app?vid=da1aefdb-caf1-4155-81fa-858ff49c920b"},"vehicle_type_id":"4","last_reported":1733850531,"current_range_meters":38800,"station_id":"ce4bhgp2rcd13ifvqfc0","pricing_plan_id":"cebpf4jnsgd1na2vs0mg"},{"bike_id":"45198f3a-3d20-4e91-a4ae-e342c777e827","system_id":"levelo_inurba_marseille","lat":43.26499,"lon":5.39536,"is_reserved":false,"is_disabled":false,"rental_uris":{"android":"levelo://app?vid=45198f3a-3d20-4e91-a4ae-e342c777e827","ios":"levelo://app?vid=45198f3a-3d20-4e91-a4ae-e342c777e827"},"vehicle_type_id":"4","last_reported":1733850531,"current_range_meters":34000,"station_id":"ce4bhi12rcd13ifvqfq0","pricing_plan_id":"cebpf4jnsgd1na2vs0mg"},{"bike_id":"896d4ccf-3d83-4122-b2f2-1a77a517b0e7","system_id":"levelo_inurba_marseille","lat":43.23962,"lon":5.3663,"is_reserved":false,"is_disabled":false,"rental_uris":{"android":"levelo://app?vid=896d4ccf-3d83-4122-b2f2-1a77a517b0e7","ios":"levelo://app?vid=896d4ccf-3d83-4122-b2f2-1a77a517b0e7"},"vehicle_type_id":"4","last_reported":1733850531,"current_range_meters":38800,"station_id":"ce4bhi12rcd13ifvqfp0","pricing_plan_id":"cebpf4jnsgd1na2vs0mg"},{"bike_id":"5ab05328-df2c-4301-8359-efac20f401a3","system_id":"levelo_inurba_marseille","lat":43.29378,"lon":5.37848,"is_reserved":false,"is_disabled":true,"rental_uris":{"android":"levelo://app?vid=5ab05328-df2c-4301-8359-efac20f401a3","ios":"levelo://app?vid=5ab05328-df2c-4301-8359-efac20f401a3"},"vehicle_type_id":"4","last_reported":1733850531,"current_range_meters":30000,"station_id":"ce4bgjh2rcd13ifvqbf0","pricing_plan_id":"cebpf4jnsgd1na2vs0mg"},{"bike_id":"2227d8cc-bcab-46f5-8b85-d2d591ca1126","system_id":"levelo_inurba_marseille","lat":43.2968,"lon":5.373,"is_reserved":false,"is_disabled":false,"rental_uris":{"android":"levelo://app?vid=2227d8cc-bcab-46f5-8b85-d2d591ca1126","ios":"levelo://app?vid=2227d8cc-bcab-46f5-8b85-d2d591ca1126"},"vehicle_type_id":"4","last_reported":1733850531,"current_range_meters":8800,"station_id":"ce4bgk12rcd13ifvqbj0","pricing_plan_id":"cebpf4jnsgd1na2vs0mg"},{"bike_id":"060bc375-e4fc-4821-97dd-9f42eeba54ac","system_id":"levelo_inurba_marseille","lat":43.27894,"lon":5.38014,"is_reserved":false,"is_disabled":true,"rental_uris":{"android":"levelo://app?vid=060bc375-e4fc-4821-97dd-9f42eeba54ac","ios":"levelo://app?vid=060bc375-e4fc-4821-97dd-9f42eeba54ac"},"vehicle_type_id":"4","last_reported":1733850531,"current_range_meters":400,"station_id":"ce4bhf92rcd13ifvqf50","pricing_plan_id":"cebpf4jnsgd1na2vs0mg"},{"bike_id":"56e60bfb-0729-479c-bbd5-b8de527b41a2","system_id":"levelo_inurba_marseille","lat":43.24801,"lon":5.37443,"is_reserved":false,"is_disabled":false,"rental_uris":{"android":"levelo://app?vid=56e60bfb-0729-479c-bbd5-b8de527b41a2","ios":"levelo://app?vid=56e60bfb-0729-479c-bbd5-b8de527b41a2"},"vehicle_type_id":"4","last_reported":1733850531,"current_range_meters":9600,"station_id":"ce4bhgh2rcd13ifvqfb0","pricing_plan_id":"cebpf4jnsgd1na2vs0mg"},{"bike_id":"b3c5591b-5ccb-49b1-8351-3506fdb656c0","system_id":"levelo_inurba_marseille","lat":43.32288,"lon":5.38259,"is_reserved":false,"is_disabled":false,"rental_uris":{"android":"levelo://app?vid=b3c5591b-5ccb-49b1-8351-3506fdb656c0","ios":"levelo://app?vid=b3c5591b-5ccb-49b1-8351-3506fdb656c0"},"vehicle_type_id":"4","last_reported":1733850531,"current_range_meters":24000,"station_id":"ce4bhr12rcd13ifvqhqg","pricing_plan_id":"cebpf4jnsgd1na2vs0mg"},{"bike_id":"f2ac8dbc-541e-4e37-a88a-d994334bb710","system_id":"levelo_inurba_marseille","lat":43.25504,"lon":5.37652,"is_reserved":false,"is_disabled":false,"rental_uris":{"android":"levelo://app?vid=f2ac8dbc-541e-4e37-a88a-d994334bb710","ios":"levelo://app?vid=f2ac8dbc-541e-4e37-a88a-d994334bb710"},"vehicle_type_id":"4","last_reported":1733850531,"current_range_meters":38400,"station_id":"ce4bhh12rcd13ifvqff0","pricing_plan_id":"cebpf4jnsgd1na2vs0mg"},{"bike_id":"71ede6cb-3773-4924-948e-77ec53727c8f","system_id":"levelo_inurba_marseille","lat":43.31762,"lon":5.37614,"is_reserved":false,"is_disabled":false,"rental_uris":{"android":"levelo://app?vid=71ede6cb-3773-4924-948e-77ec53727c8f","ios":"levelo://app?vid=71ede6cb-3773-4924-948e-77ec53727c8f"},"vehicle_type_id":"4","last_reported":1733850531,"current_range_meters":38000,"station_id":"","pricing_plan_id":"cebpf4jnsgd1na2vs0mg"},{"bike_id":"33e48884-4b3d-4e17-8bfe-d8ab60a0c6ef","system_id":"levelo_inurba_marseille","lat":43.26063,"lon":5.39394,"is_reserved":false,"is_disabled":true,"rental_uris":{"android":"levelo://app?vid=33e48884-4b3d-4e17-8bfe-d8ab60a0c6ef","ios":"levelo://app?vid=33e48884-4b3d-4e17-8bfe-d8ab60a0c6ef"},"vehicle_type_id":"4","last_reported":1733850531,"current_range_meters":38800,"station_id":"ce4bhh92rcd13ifvqfj0","pricing_plan_id":"cebpf4jnsgd1na2vs0mg"},{"bike_id":"8a541c78-58b4-45d9-94a7-3d8383bc9bce","system_id":"levelo_inurba_marseille","lat":43.29413,"lon":5.38602,"is_reserved":false,"is_disabled":true,"rental_uris":{"android":"levelo://app?vid=8a541c78-58b4-45d9-94a7-3d8383bc9bce","ios":"levelo://app?vid=8a541c78-58b4-45d9-94a7-3d8383bc9bce"},"vehicle_type_id":"4","last_reported":1733850531,"current_range_meters":16000,"station_id":"ce4bh2h2rcd13ifvqdh0","pricing_plan_id":"cebpf4jnsgd1na2vs0mg"},{"bike_id":"807b7d58-064c-45c5-a2f6-4f40b0d8857a","system_id":"levelo_inurba_marseille","lat":43.2977,"lon":5.39325,"is_reserved":false,"is_disabled":false,"rental_uris":{"android":"levelo://app?vid=807b7d58-064c-45c5-a2f6-4f40b0d8857a","ios":"levelo://app?vid=807b7d58-064c-45c5-a2f6-4f40b0d8857a"},"vehicle_type_id":"4","last_reported":1733850531,"current_range_meters":24800,"station_id":"chh1huq6cuj3fo74tm60","pricing_plan_id":"cebpf4jnsgd1na2vs0mg"},{"bike_id":"e70c13ef-3ecb-49b0-9fe1-1a98ffde0cb0","system_id":"levelo_inurba_marseille","lat":43.29423,"lon":5.38623,"is_reserved":false,"is_disabled":false,"rental_uris":{"android":"levelo://app?vid=e70c13ef-3ecb-49b0-9fe1-1a98ffde0cb0","ios":"levelo://app?vid=e70c13ef-3ecb-49b0-9fe1-1a98ffde0cb0"},"vehicle_type_id":"4","last_reported":1733850531,"current_range_meters":38800,"station_id":"ce4bh2h2rcd13ifvqdh0","pricing_plan_id":"cebpf4jnsgd1na2vs0mg"},{"bike_id":"9e533191-da82-438a-a837-b070786255db","system_id":"levelo_inurba_marseille","lat":43.23969,"lon":5.36625,"is_reserved":false,"is_disabled":false,"rental_uris":{"android":"levelo://app?vid=9e533191-da82-438a-a837-b070786255db","ios":"levelo://app?vid=9e533191-da82-438a-a837-b070786255db"},"vehicle_type_id":"4","last_reported":1733850531,"current_range_meters":39200,"station_id":"ce4bhi12rcd13ifvqfp0","pricing_plan_id":"cebpf4jnsgd1na2vs0mg"},{"bike_id":"f1e1b83c-6b4c-4d52-9b3f-becfd8274a79","system_id":"levelo_inurba_marseille","lat":43.24997,"lon":5.38937,"is_reserved":false,"is_disabled":false,"rental_uris":{"android":"levelo://app?vid=f1e1b83c-6b4c-4d52-9b3f-becfd8274a79","ios":"levelo://app?vid=f1e1b83c-6b4c-4d52-9b3f-becfd8274a79"},"vehicle_type_id":"4","last_reported":1733850531,"current_range_meters":38400,"station_id":"ce4bhgp2rcd13ifvqfd0","pricing_plan_id":"cebpf4jnsgd1na2vs0mg"},{"bike_id":"e0251b32-b340-44b9-a685-42a1e27fe71d","system_id":"levelo_inurba_marseille","lat":43.25739,"lon":5.41086,"is_reserved":false,"is_disabled":true,"rental_uris":{"android":"levelo://app?vid=e0251b32-b340-44b9-a685-42a1e27fe71d","ios":"levelo://app?vid=e0251b32-b340-44b9-a685-42a1e27fe71d"},"vehicle_type_id":"4","last_reported":1733850531,"current_range_meters":0,"station_id":"ce4bhkp2rcd13ifvqgd0","pricing_plan_id":"cebpf4jnsgd1na2vs0mg"},{"bike_id":"feb8df89-ec90-4db2-83c1-1276a81a894e","system_id":"levelo_inurba_marseille","lat":43.29032,"lon":5.37554,"is_reserved":false,"is_disabled":true,"rental_uris":{"android":"levelo://app?vid=feb8df89-ec90-4db2-83c1-1276a81a894e","ios":"levelo://app?vid=feb8df89-ec90-4db2-83c1-1276a81a894e"},"vehicle_type_id":"4","last_reported":1733850531,"current_range_meters":6400,"station_id":"ce4bh692rcd13ifvqe90","pricing_plan_id":"cebpf4jnsgd1na2vs0mg"},{"bike_id":"2481dc09-09d8-47c5-b803-f3302c727412","system_id":"levelo_inurba_marseille","lat":43.27069,"lon":5.42277,"is_reserved":false,"is_disabled":false,"rental_uris":{"android":"levelo://app?vid=2481dc09-09d8-47c5-b803-f3302c727412","ios":"levelo://app?vid=2481dc09-09d8-47c5-b803-f3302c727412"},"vehicle_type_id":"4","last_reported":1733850531,"current_range_meters":38800,"station_id":"ce4bhk92rcd13ifvqgb0","pricing_plan_id":"cebpf4jnsgd1na2vs0mg"},{"bike_id":"ccca5c70-4081-4ecf-aa2a-cd92bf6e79dc","system_id":"levelo_inurba_marseille","lat":43.26064,"lon":5.39405,"is_reserved":false,"is_disabled":false,"rental_uris":{"android":"levelo://app?vid=ccca5c70-4081-4ecf-aa2a-cd92bf6e79dc","ios":"levelo://app?vid=ccca5c70-4081-4ecf-aa2a-cd92bf6e79dc"},"vehicle_type_id":"4","last_reported":1733850531,"current_range_meters":4800,"station_id":"ce4bhh92rcd13ifvqfj0","pricing_plan_id":"cebpf4jnsgd1na2vs0mg"},{"bike_id":"b135bff0-8e87-4e47-af7a-2fa72d222280","system_id":"levelo_inurba_marseille","lat":43.25721,"lon":5.4111,"is_reserved":false,"is_disabled":false,"rental_uris":{"android":"levelo://app?vid=b135bff0-8e87-4e47-af7a-2fa72d222280","ios":"levelo://app?vid=b135bff0-8e87-4e47-af7a-2fa72d222280"},"vehicle_type_id":"4","last_reported":1733850531,"current_range_meters":32000,"station_id":"ce4bhkp2rcd13ifvqgd0","pricing_plan_id":"cebpf4jnsgd1na2vs0mg"},{"bike_id":"9e1c2a78-e3bf-49be-a2a1-a1a53b24bfd7","system_id":"levelo_inurba_marseille","lat":43.29227,"lon":5.36065,"is_reserved":false,"is_disabled":false,"rental_uris":{"android":"levelo://app?vid=9e1c2a78-e3bf-49be-a2a1-a1a53b24bfd7","ios":"levelo://app?vid=9e1c2a78-e3bf-49be-a2a1-a1a53b24bfd7"},"vehicle_type_id":"4","last_reported":1733850531,"current_range_meters":27600,"station_id":"ce4bhbh2rcd13ifvqeqg","pricing_plan_id":"cebpf4jnsgd1na2vs0mg"},{"bike_id":"24038e93-6c8d-4dcb-8949-05294cdd45c2","system_id":"levelo_inurba_marseille","lat":43.26031,"lon":5.37545,"is_reserved":false,"is_disabled":false,"rental_uris":{"android":"levelo://app?vid=24038e93-6c8d-4dcb-8949-05294cdd45c2","ios":"levelo://app?vid=24038e93-6c8d-4dcb-8949-05294cdd45c2"},"vehicle_type_id":"4","last_reported":1733850531,"current_range_meters":38800,"station_id":"ce4bhgh2rcd13ifvqfa0","pricing_plan_id":"cebpf4jnsgd1na2vs0mg"},{"bike_id":"434713f3-c11c-4451-bee5-ac7c9728c10a","system_id":"levelo_inurba_marseille","lat":43.28448,"lon":5.39193,"is_reserved":false,"is_disabled":false,"rental_uris":{"android":"levelo://app?vid=434713f3-c11c-4451-bee5-ac7c9728c10a","ios":"levelo://app?vid=434713f3-c11c-4451-bee5-ac7c9728c10a"},"vehicle_type_id":"4","last_reported":1733850531,"current_range_meters":36800,"station_id":"ce4bhoh2rcd13ifvqh5g","pricing_plan_id":"cebpf4jnsgd1na2vs0mg"},{"bike_id":"1b2d4db1-cec0-4376-9abf-f3b964e5dcb7","system_id":"levelo_inurba_marseille","lat":43.23189,"lon":5.35541,"is_reserved":false,"is_disabled":false,"rental_uris":{"android":"levelo://app?vid=1b2d4db1-cec0-4376-9abf-f3b964e5dcb7","ios":"levelo://app?vid=1b2d4db1-cec0-4376-9abf-f3b964e5dcb7"},"vehicle_type_id":"4","last_reported":1733850531,"current_range_meters":38800,"station_id":"ce4bhu92rcd13ifvqi70","pricing_plan_id":"cebpf4jnsgd1na2vs0mg"},{"bike_id":"6ebf819e-8ce1-441e-8df7-91dd492912fb","system_id":"levelo_inurba_marseille","lat":43.30922,"lon":5.40148,"is_reserved":false,"is_disabled":false,"rental_uris":{"android":"levelo://app?vid=6ebf819e-8ce1-441e-8df7-91dd492912fb","ios":"levelo://app?vid=6ebf819e-8ce1-441e-8df7-91dd492912fb"},"vehicle_type_id":"4","last_reported":1733850531,"current_range_meters":3600,"station_id":"ce4bgvp2rcd13ifvqct0","pricing_plan_id":"cebpf4jnsgd1na2vs0mg"},{"bike_id":"e867e4df-bdaf-4905-9f4f-695c75d7fdb0","system_id":"levelo_inurba_marseille","lat":43.26218,"lon":5.37436,"is_reserved":false,"is_disabled":false,"rental_uris":{"android":"levelo://app?vid=e867e4df-bdaf-4905-9f4f-695c75d7fdb0","ios":"levelo://app?vid=e867e4df-bdaf-4905-9f4f-695c75d7fdb0"},"vehicle_type_id":"4","last_reported":1733850531,"current_range_meters":38800,"station_id":"ce4bhgp2rcd13ifvqfc0","pricing_plan_id":"cebpf4jnsgd1na2vs0mg"},{"bike_id":"7dd657f7-0f0f-4a48-b8f4-fc9eb41bc2d3","system_id":"levelo_inurba_marseille","lat":43.28074,"lon":5.39665,"is_reserved":false,"is_disabled":false,"rental_uris":{"android":"levelo://app?vid=7dd657f7-0f0f-4a48-b8f4-fc9eb41bc2d3","ios":"levelo://app?vid=7dd657f7-0f0f-4a48-b8f4-fc9eb41bc2d3"},"vehicle_type_id":"4","last_reported":1733850531,"current_range_meters":4800,"station_id":"ce4bho12rcd13ifvqh2g","pricing_plan_id":"cebpf4jnsgd1na2vs0mg"},{"bike_id":"75c0d637-8c37-4b2d-a029-cff38251adcd","system_id":"levelo_inurba_marseille","lat":43.2558,"lon":5.38232,"is_reserved":false,"is_disabled":false,"rental_uris":{"android":"levelo://app?vid=75c0d637-8c37-4b2d-a029-cff38251adcd","ios":"levelo://app?vid=75c0d637-8c37-4b2d-a029-cff38251adcd"},"vehicle_type_id":"4","last_reported":1733850531,"current_range_meters":20800,"station_id":"ce4bhih2rcd13ifvqfs0","pricing_plan_id":"cebpf4jnsgd1na2vs0mg"},{"bike_id":"cdbd9586-ad72-4faf-a732-254b31e5637b","system_id":"levelo_inurba_marseille","lat":43.2844,"lon":5.39192,"is_reserved":false,"is_disabled":false,"rental_uris":{"android":"levelo://app?vid=cdbd9586-ad72-4faf-a732-254b31e5637b","ios":"levelo://app?vid=cdbd9586-ad72-4faf-a732-254b31e5637b"},"vehicle_type_id":"4","last_reported":1733850531,"current_range_meters":38400,"station_id":"ce4bhoh2rcd13ifvqh5g","pricing_plan_id":"cebpf4jnsgd1na2vs0mg"},{"bike_id":"e2e5fff8-dab3-4021-a87d-3c7c833d47d1","system_id":"levelo_inurba_marseille","lat":43.262,"lon":5.37436,"is_reserved":false,"is_disabled":true,"rental_uris":{"android":"levelo://app?vid=e2e5fff8-dab3-4021-a87d-3c7c833d47d1","ios":"levelo://app?vid=e2e5fff8-dab3-4021-a87d-3c7c833d47d1"},"vehicle_type_id":"4","last_reported":1733850531,"current_range_meters":8400,"station_id":"ce4bhgp2rcd13ifvqfc0","pricing_plan_id":"cebpf4jnsgd1na2vs0mg"},{"bike_id":"b4980e4b-5dcc-4f04-b5f1-585ddbd843e1","system_id":"levelo_inurba_marseille","lat":43.29193,"lon":5.358,"is_reserved":false,"is_disabled":true,"rental_uris":{"android":"levelo://app?vid=b4980e4b-5dcc-4f04-b5f1-585ddbd843e1","ios":"levelo://app?vid=b4980e4b-5dcc-4f04-b5f1-585ddbd843e1"},"vehicle_type_id":"4","last_reported":1733850531,"current_range_meters":1200,"station_id":"ce4bhb12rcd13ifvqel0","pricing_plan_id":"cebpf4jnsgd1na2vs0mg"},{"bike_id":"75ae6d39-6dc2-49bc-ad9b-72136961811e","system_id":"levelo_inurba_marseille","lat":43.33023,"lon":5.39041,"is_reserved":false,"is_disabled":false,"rental_uris":{"android":"levelo://app?vid=75ae6d39-6dc2-49bc-ad9b-72136961811e","ios":"levelo://app?vid=75ae6d39-6dc2-49bc-ad9b-72136961811e"},"vehicle_type_id":"4","last_reported":1733850531,"current_range_meters":18000,"station_id":"ce4bhr92rcd13ifvqhrg","pricing_plan_id":"cebpf4jnsgd1na2vs0mg"},{"bike_id":"a4be6f92-a486-4066-8721-45d68bc2e82f","system_id":"levelo_inurba_marseille","lat":43.29003,"lon":5.35617,"is_reserved":false,"is_disabled":false,"rental_uris":{"android":"levelo://app?vid=a4be6f92-a486-4066-8721-45d68bc2e82f","ios":"levelo://app?vid=a4be6f92-a486-4066-8721-45d68bc2e82f"},"vehicle_type_id":"4","last_reported":1733850531,"current_range_meters":8800,"station_id":"ce4bhb92rcd13ifvqen0","pricing_plan_id":"cebpf4jnsgd1na2vs0mg"},{"bike_id":"64382550-dbbb-461a-b720-b2e86033c33f","system_id":"levelo_inurba_marseille","lat":43.29186,"lon":5.35806,"is_reserved":false,"is_disabled":false,"rental_uris":{"android":"levelo://app?vid=64382550-dbbb-461a-b720-b2e86033c33f","ios":"levelo://app?vid=64382550-dbbb-461a-b720-b2e86033c33f"},"vehicle_type_id":"4","last_reported":1733850531,"current_range_meters":15200,"station_id":"ce4bhb12rcd13ifvqel0","pricing_plan_id":"cebpf4jnsgd1na2vs0mg"},{"bike_id":"4cf6df01-f2ac-47e1-af61-09c81b11b11c","system_id":"levelo_inurba_marseille","lat":43.29516,"lon":5.37497,"is_reserved":false,"is_disabled":false,"rental_uris":{"android":"levelo://app?vid=4cf6df01-f2ac-47e1-af61-09c81b11b11c","ios":"levelo://app?vid=4cf6df01-f2ac-47e1-af61-09c81b11b11c"},"vehicle_type_id":"4","last_reported":1733850531,"current_range_meters":15200,"station_id":"ce4bgkp2rcd13ifvqbmg","pricing_plan_id":"cebpf4jnsgd1na2vs0mg"},{"bike_id":"08e46dca-c7ab-473d-8cd7-0439ec94df64","system_id":"levelo_inurba_marseille","lat":43.27204,"lon":5.39191,"is_reserved":false,"is_disabled":true,"rental_uris":{"android":"levelo://app?vid=08e46dca-c7ab-473d-8cd7-0439ec94df64","ios":"levelo://app?vid=08e46dca-c7ab-473d-8cd7-0439ec94df64"},"vehicle_type_id":"4","last_reported":1733850531,"current_range_meters":16400,"station_id":"ce4bhhp2rcd13ifvqfm0","pricing_plan_id":"cebpf4jnsgd1na2vs0mg"},{"bike_id":"94a51bd8-f391-498d-b3a4-6a6c2435fea0","system_id":"levelo_inurba_marseille","lat":43.28849,"lon":5.39313,"is_reserved":false,"is_disabled":false,"rental_uris":{"android":"levelo://app?vid=94a51bd8-f391-498d-b3a4-6a6c2435fea0","ios":"levelo://app?vid=94a51bd8-f391-498d-b3a4-6a6c2435fea0"},"vehicle_type_id":"4","last_reported":1733850531,"current_range_meters":3200,"station_id":"ce4bh2p2rcd13ifvqdi0","pricing_plan_id":"cebpf4jnsgd1na2vs0mg"},{"bike_id":"eb4e32cd-a02d-4e92-a013-1fdc0dd71ccb","system_id":"levelo_inurba_marseille","lat":43.324799,"lon":5.365716,"is_reserved":false,"is_disabled":true,"rental_uris":{"android":"levelo://app?vid=eb4e32cd-a02d-4e92-a013-1fdc0dd71ccb","ios":"levelo://app?vid=eb4e32cd-a02d-4e92-a013-1fdc0dd71ccb"},"vehicle_type_id":"4","last_reported":1733850531,"current_range_meters":0,"station_id":"","pricing_plan_id":"cebpf4jnsgd1na2vs0mg"},{"bike_id":"6ae94912-1798-4139-8681-6a220f445417","system_id":"levelo_inurba_marseille","lat":43.31332,"lon":5.39691,"is_reserved":false,"is_disabled":true,"rental_uris":{"android":"levelo://app?vid=6ae94912-1798-4139-8681-6a220f445417","ios":"levelo://app?vid=6ae94912-1798-4139-8681-6a220f445417"},"vehicle_type_id":"4","last_reported":1733850531,"current_range_meters":400,"station_id":"ce4bgvp2rcd13ifvqcu0","pricing_plan_id":"cebpf4jnsgd1na2vs0mg"},{"bike_id":"85973a80-bc6b-41fb-a908-2ed0a5fe745b","system_id":"levelo_inurba_marseille","lat":43.30879,"lon":5.3963,"is_reserved":false,"is_disabled":false,"rental_uris":{"android":"levelo://app?vid=85973a80-bc6b-41fb-a908-2ed0a5fe745b","ios":"levelo://app?vid=85973a80-bc6b-41fb-a908-2ed0a5fe745b"},"vehicle_type_id":"4","last_reported":1733850531,"current_range_meters":36400,"station_id":"ce4bh012rcd13ifvqcv0","pricing_plan_id":"cebpf4jnsgd1na2vs0mg"},{"bike_id":"26924fb9-4179-4abe-8b03-e0d47c141d92","system_id":"levelo_inurba_marseille","lat":43.2718,"lon":5.40991,"is_reserved":false,"is_disabled":false,"rental_uris":{"android":"levelo://app?vid=26924fb9-4179-4abe-8b03-e0d47c141d92","ios":"levelo://app?vid=26924fb9-4179-4abe-8b03-e0d47c141d92"},"vehicle_type_id":"4","last_reported":1733850531,"current_range_meters":26000,"station_id":"ce4bhl12rcd13ifvqgf0","pricing_plan_id":"cebpf4jnsgd1na2vs0mg"},{"bike_id":"13413a55-efc9-4e48-bc2b-ad373df4b5d3","system_id":"levelo_inurba_marseille","lat":43.2481,"lon":5.37461,"is_reserved":false,"is_disabled":false,"rental_uris":{"android":"levelo://app?vid=13413a55-efc9-4e48-bc2b-ad373df4b5d3","ios":"levelo://app?vid=13413a55-efc9-4e48-bc2b-ad373df4b5d3"},"vehicle_type_id":"4","last_reported":1733850531,"current_range_meters":23200,"station_id":"ce4bhgh2rcd13ifvqfb0","pricing_plan_id":"cebpf4jnsgd1na2vs0mg"},{"bike_id":"2e51fb70-b1be-4661-b646-3870500c9133","system_id":"levelo_inurba_marseille","lat":43.29927,"lon":5.41337,"is_reserved":false,"is_disabled":false,"rental_uris":{"android":"levelo://app?vid=2e51fb70-b1be-4661-b646-3870500c9133","ios":"levelo://app?vid=2e51fb70-b1be-4661-b646-3870500c9133"},"vehicle_type_id":"4","last_reported":1733850531,"current_range_meters":33600,"station_id":"ce4bhp12rcd13ifvqh9g","pricing_plan_id":"cebpf4jnsgd1na2vs0mg"},{"bike_id":"7bdec345-eeec-47c0-a1aa-d0b0f44ab6d1","system_id":"levelo_inurba_marseille","lat":43.32661,"lon":5.40983,"is_reserved":false,"is_disabled":true,"rental_uris":{"android":"levelo://app?vid=7bdec345-eeec-47c0-a1aa-d0b0f44ab6d1","ios":"levelo://app?vid=7bdec345-eeec-47c0-a1aa-d0b0f44ab6d1"},"vehicle_type_id":"4","last_reported":1733850531,"current_range_meters":38000,"station_id":"ce4bhpp2rcd13ifvqhgg","pricing_plan_id":"cebpf4jnsgd1na2vs0mg"},{"bike_id":"8b765fb9-2f71-42e0-ac42-1fe01ce1aebf","system_id":"levelo_inurba_marseille","lat":43.29038,"lon":5.37565,"is_reserved":false,"is_disabled":false,"rental_uris":{"android":"levelo://app?vid=8b765fb9-2f71-42e0-ac42-1fe01ce1aebf","ios":"levelo://app?vid=8b765fb9-2f71-42e0-ac42-1fe01ce1aebf"},"vehicle_type_id":"4","last_reported":1733850531,"current_range_meters":37600,"station_id":"ce4bh692rcd13ifvqe90","pricing_plan_id":"cebpf4jnsgd1na2vs0mg"},{"bike_id":"f86f7e2a-9da2-46ae-ba67-518e13dbcfb7","system_id":"levelo_inurba_marseille","lat":43.27182,"lon":5.40996,"is_reserved":false,"is_disabled":false,"rental_uris":{"android":"levelo://app?vid=f86f7e2a-9da2-46ae-ba67-518e13dbcfb7","ios":"levelo://app?vid=f86f7e2a-9da2-46ae-ba67-518e13dbcfb7"},"vehicle_type_id":"4","last_reported":1733850531,"current_range_meters":4400,"station_id":"ce4bhl12rcd13ifvqgf0","pricing_plan_id":"cebpf4jnsgd1na2vs0mg"},{"bike_id":"eb6a8980-95a3-4c7b-b4a7-ac342a50fdc9","system_id":"levelo_inurba_marseille","lat":43.28411,"lon":5.37524,"is_reserved":false,"is_disabled":false,"rental_uris":{"android":"levelo://app?vid=eb6a8980-95a3-4c7b-b4a7-ac342a50fdc9","ios":"levelo://app?vid=eb6a8980-95a3-4c7b-b4a7-ac342a50fdc9"},"vehicle_type_id":"4","last_reported":1733850531,"current_range_meters":24800,"station_id":"ce4bh412rcd13ifvqds0","pricing_plan_id":"cebpf4jnsgd1na2vs0mg"},{"bike_id":"4b9f2e0c-e6c8-41ae-a354-ab0c34618599","system_id":"levelo_inurba_marseille","lat":43.2397,"lon":5.36627,"is_reserved":false,"is_disabled":false,"rental_uris":{"android":"levelo://app?vid=4b9f2e0c-e6c8-41ae-a354-ab0c34618599","ios":"levelo://app?vid=4b9f2e0c-e6c8-41ae-a354-ab0c34618599"},"vehicle_type_id":"4","last_reported":1733850531,"current_range_meters":37600,"station_id":"ce4bhi12rcd13ifvqfp0","pricing_plan_id":"cebpf4jnsgd1na2vs0mg"},{"bike_id":"0ccd581d-9c76-4795-b702-2d923b116e9d","system_id":"levelo_inurba_marseille","lat":43.27176,"lon":5.40987,"is_reserved":false,"is_disabled":false,"rental_uris":{"android":"levelo://app?vid=0ccd581d-9c76-4795-b702-2d923b116e9d","ios":"levelo://app?vid=0ccd581d-9c76-4795-b702-2d923b116e9d"},"vehicle_type_id":"4","last_reported":1733850531,"current_range_meters":30400,"station_id":"ce4bhl12rcd13ifvqgf0","pricing_plan_id":"cebpf4jnsgd1na2vs0mg"},{"bike_id":"1aaa6a6e-9c19-41e7-984f-88fb6d5c1b30","system_id":"levelo_inurba_marseille","lat":43.29034,"lon":5.39945,"is_reserved":false,"is_disabled":true,"rental_uris":{"android":"levelo://app?vid=1aaa6a6e-9c19-41e7-984f-88fb6d5c1b30","ios":"levelo://app?vid=1aaa6a6e-9c19-41e7-984f-88fb6d5c1b30"},"vehicle_type_id":"4","last_reported":1733850531,"current_range_meters":1200,"station_id":"ce4bh392rcd13ifvqdm0","pricing_plan_id":"cebpf4jnsgd1na2vs0mg"},{"bike_id":"cda007dd-06bb-4a86-b841-00a7ca3fac29","system_id":"levelo_inurba_marseille","lat":43.31753,"lon":5.39015,"is_reserved":false,"is_disabled":false,"rental_uris":{"android":"levelo://app?vid=cda007dd-06bb-4a86-b841-00a7ca3fac29","ios":"levelo://app?vid=cda007dd-06bb-4a86-b841-00a7ca3fac29"},"vehicle_type_id":"4","last_reported":1733850531,"current_range_meters":32800,"station_id":"ce4bhqp2rcd13ifvqhng","pricing_plan_id":"cebpf4jnsgd1na2vs0mg"},{"bike_id":"95d8628d-10b1-47e7-9a42-9b126ec315c6","system_id":"levelo_inurba_marseille","lat":43.23198,"lon":5.35551,"is_reserved":false,"is_disabled":false,"rental_uris":{"android":"levelo://app?vid=95d8628d-10b1-47e7-9a42-9b126ec315c6","ios":"levelo://app?vid=95d8628d-10b1-47e7-9a42-9b126ec315c6"},"vehicle_type_id":"4","last_reported":1733850531,"current_range_meters":24000,"station_id":"ce4bhu92rcd13ifvqi70","pricing_plan_id":"cebpf4jnsgd1na2vs0mg"},{"bike_id":"ff157558-4762-4775-8ebe-d59ef36bd776","system_id":"levelo_inurba_marseille","lat":43.26563,"lon":5.37321,"is_reserved":false,"is_disabled":false,"rental_uris":{"android":"levelo://app?vid=ff157558-4762-4775-8ebe-d59ef36bd776","ios":"levelo://app?vid=ff157558-4762-4775-8ebe-d59ef36bd776"},"vehicle_type_id":"4","last_reported":1733850531,"current_range_meters":12800,"station_id":"ce4bhg12rcd13ifvqf70","pricing_plan_id":"cebpf4jnsgd1na2vs0mg"},{"bike_id":"2a56b40d-03fd-407a-9b33-f7a159d3446e","system_id":"levelo_inurba_marseille","lat":43.2902,"lon":5.38637,"is_reserved":false,"is_disabled":false,"rental_uris":{"android":"levelo://app?vid=2a56b40d-03fd-407a-9b33-f7a159d3446e","ios":"levelo://app?vid=2a56b40d-03fd-407a-9b33-f7a159d3446e"},"vehicle_type_id":"4","last_reported":1733850531,"current_range_meters":13600,"station_id":"ce4bh4p2rcd13ifvqe0g","pricing_plan_id":"cebpf4jnsgd1na2vs0mg"},{"bike_id":"f3913043-72ae-4fb5-9ce8-a8a23602c53e","system_id":"levelo_inurba_marseille","lat":43.29567,"lon":5.42259,"is_reserved":false,"is_disabled":false,"rental_uris":{"android":"levelo://app?vid=f3913043-72ae-4fb5-9ce8-a8a23602c53e","ios":"levelo://app?vid=f3913043-72ae-4fb5-9ce8-a8a23602c53e"},"vehicle_type_id":"4","last_reported":1733850531,"current_range_meters":6400,"station_id":"ce4bhph2rcd13ifvqhdg","pricing_plan_id":"cebpf4jnsgd1na2vs0mg"},{"bike_id":"570bad79-da0a-4f0e-bd71-fcfb4fde31b3","system_id":"levelo_inurba_marseille","lat":43.23962,"lon":5.36624,"is_reserved":false,"is_disabled":true,"rental_uris":{"android":"levelo://app?vid=570bad79-da0a-4f0e-bd71-fcfb4fde31b3","ios":"levelo://app?vid=570bad79-da0a-4f0e-bd71-fcfb4fde31b3"},"vehicle_type_id":"4","last_reported":1733850531,"current_range_meters":32000,"station_id":"ce4bhi12rcd13ifvqfp0","pricing_plan_id":"cebpf4jnsgd1na2vs0mg"},{"bike_id":"0f20b602-7b45-4989-92b6-4d1c64ab5468","system_id":"levelo_inurba_marseille","lat":43.26554,"lon":5.3729,"is_reserved":false,"is_disabled":false,"rental_uris":{"android":"levelo://app?vid=0f20b602-7b45-4989-92b6-4d1c64ab5468","ios":"levelo://app?vid=0f20b602-7b45-4989-92b6-4d1c64ab5468"},"vehicle_type_id":"4","last_reported":1733850531,"current_range_meters":32400,"station_id":"ce4bhg12rcd13ifvqf70","pricing_plan_id":"cebpf4jnsgd1na2vs0mg"},{"bike_id":"a594951f-0274-4429-b56b-19578d6dff3b","system_id":"levelo_inurba_marseille","lat":43.2467,"lon":5.38168,"is_reserved":false,"is_disabled":false,"rental_uris":{"android":"levelo://app?vid=a594951f-0274-4429-b56b-19578d6dff3b","ios":"levelo://app?vid=a594951f-0274-4429-b56b-19578d6dff3b"},"vehicle_type_id":"4","last_reported":1733850531,"current_range_meters":9600,"station_id":"ce4bhih2rcd13ifvqfr0","pricing_plan_id":"cebpf4jnsgd1na2vs0mg"},{"bike_id":"3f7ceb93-1fc5-44cb-8c74-f02c16d5a049","system_id":"levelo_inurba_marseille","lat":43.28925,"lon":5.38734,"is_reserved":false,"is_disabled":false,"rental_uris":{"android":"levelo://app?vid=3f7ceb93-1fc5-44cb-8c74-f02c16d5a049","ios":"levelo://app?vid=3f7ceb93-1fc5-44cb-8c74-f02c16d5a049"},"vehicle_type_id":"4","last_reported":1733850531,"current_range_meters":30000,"station_id":"ce4bh612rcd13ifvqe6g","pricing_plan_id":"cebpf4jnsgd1na2vs0mg"},{"bike_id":"8f223178-6a38-4832-a975-4b3ff773e01b","system_id":"levelo_inurba_marseille","lat":43.2737,"lon":5.36255,"is_reserved":false,"is_disabled":false,"rental_uris":{"android":"levelo://app?vid=8f223178-6a38-4832-a975-4b3ff773e01b","ios":"levelo://app?vid=8f223178-6a38-4832-a975-4b3ff773e01b"},"vehicle_type_id":"4","last_reported":1733850531,"current_range_meters":37600,"station_id":"ce4bhbh2rcd13ifvqeo0","pricing_plan_id":"cebpf4jnsgd1na2vs0mg"},{"bike_id":"b8e7f883-5b9b-422d-81e9-d00c2442da3b","system_id":"levelo_inurba_marseille","lat":43.23064,"lon":5.35494,"is_reserved":false,"is_disabled":false,"rental_uris":{"android":"levelo://app?vid=b8e7f883-5b9b-422d-81e9-d00c2442da3b","ios":"levelo://app?vid=b8e7f883-5b9b-422d-81e9-d00c2442da3b"},"vehicle_type_id":"4","last_reported":1733850531,"current_range_meters":36000,"station_id":"cpo3342slgdg3j2ifvpg","pricing_plan_id":"cebpf4jnsgd1na2vs0mg"},{"bike_id":"e5704969-d072-416c-a215-4659204d7e98","system_id":"levelo_inurba_marseille","lat":43.29416,"lon":5.38631,"is_reserved":false,"is_disabled":false,"rental_uris":{"android":"levelo://app?vid=e5704969-d072-416c-a215-4659204d7e98","ios":"levelo://app?vid=e5704969-d072-416c-a215-4659204d7e98"},"vehicle_type_id":"4","last_reported":1733850531,"current_range_meters":26800,"station_id":"ce4bh2h2rcd13ifvqdh0","pricing_plan_id":"cebpf4jnsgd1na2vs0mg"},{"bike_id":"cd1c4fb4-8eac-4868-9420-a9389a6402c9","system_id":"levelo_inurba_marseille","lat":43.28457,"lon":5.35883,"is_reserved":false,"is_disabled":false,"rental_uris":{"android":"levelo://app?vid=cd1c4fb4-8eac-4868-9420-a9389a6402c9","ios":"levelo://app?vid=cd1c4fb4-8eac-4868-9420-a9389a6402c9"},"vehicle_type_id":"4","last_reported":1733850531,"current_range_meters":29600,"station_id":"ce4bhah2rcd13ifvqei0","pricing_plan_id":"cebpf4jnsgd1na2vs0mg"},{"bike_id":"f78f4e7d-a540-4cbd-99d7-83208916456d","system_id":"levelo_inurba_marseille","lat":43.26212,"lon":5.37442,"is_reserved":false,"is_disabled":false,"rental_uris":{"android":"levelo://app?vid=f78f4e7d-a540-4cbd-99d7-83208916456d","ios":"levelo://app?vid=f78f4e7d-a540-4cbd-99d7-83208916456d"},"vehicle_type_id":"4","last_reported":1733850531,"current_range_meters":4800,"station_id":"ce4bhgp2rcd13ifvqfc0","pricing_plan_id":"cebpf4jnsgd1na2vs0mg"},{"bike_id":"aac345db-d41e-475c-a96f-986bffa1163f","system_id":"levelo_inurba_marseille","lat":43.29607,"lon":5.37715,"is_reserved":false,"is_disabled":true,"rental_uris":{"android":"levelo://app?vid=aac345db-d41e-475c-a96f-986bffa1163f","ios":"levelo://app?vid=aac345db-d41e-475c-a96f-986bffa1163f"},"vehicle_type_id":"4","last_reported":1733850531,"current_range_meters":27600,"station_id":"ce4bgi92rcd13ifvqb90","pricing_plan_id":"cebpf4jnsgd1na2vs0mg"},{"bike_id":"ce5abbb4-3eea-482f-add5-e899e7792d65","system_id":"levelo_inurba_marseille","lat":43.27944,"lon":5.41047,"is_reserved":false,"is_disabled":false,"rental_uris":{"android":"levelo://app?vid=ce5abbb4-3eea-482f-add5-e899e7792d65","ios":"levelo://app?vid=ce5abbb4-3eea-482f-add5-e899e7792d65"},"vehicle_type_id":"4","last_reported":1733850531,"current_range_meters":20400,"station_id":"ce4bhnp2rcd13ifvqh0g","pricing_plan_id":"cebpf4jnsgd1na2vs0mg"},{"bike_id":"a0b44e86-9121-4df3-b62a-0fc9a0d1110c","system_id":"levelo_inurba_marseille","lat":43.23063,"lon":5.35497,"is_reserved":false,"is_disabled":false,"rental_uris":{"android":"levelo://app?vid=a0b44e86-9121-4df3-b62a-0fc9a0d1110c","ios":"levelo://app?vid=a0b44e86-9121-4df3-b62a-0fc9a0d1110c"},"vehicle_type_id":"4","last_reported":1733850531,"current_range_meters":35600,"station_id":"cpo3342slgdg3j2ifvpg","pricing_plan_id":"cebpf4jnsgd1na2vs0mg"},{"bike_id":"a316ab4c-ebda-4cf9-b412-4158daa2af77","system_id":"levelo_inurba_marseille","lat":43.293034,"lon":5.37173,"is_reserved":false,"is_disabled":false,"rental_uris":{"android":"levelo://app?vid=a316ab4c-ebda-4cf9-b412-4158daa2af77","ios":"levelo://app?vid=a316ab4c-ebda-4cf9-b412-4158daa2af77"},"vehicle_type_id":"4","last_reported":1733850531,"current_range_meters":36400,"station_id":"ce4bgh92rcd13ifvqb40","pricing_plan_id":"cebpf4jnsgd1na2vs0mg"},{"bike_id":"9842e302-60c5-4463-a154-2234e3c29308","system_id":"levelo_inurba_marseille","lat":43.26193,"lon":5.37448,"is_reserved":false,"is_disabled":false,"rental_uris":{"android":"levelo://app?vid=9842e302-60c5-4463-a154-2234e3c29308","ios":"levelo://app?vid=9842e302-60c5-4463-a154-2234e3c29308"},"vehicle_type_id":"4","last_reported":1733850531,"current_range_meters":38800,"station_id":"ce4bhgp2rcd13ifvqfc0","pricing_plan_id":"cebpf4jnsgd1na2vs0mg"},{"bike_id":"6ea20716-444d-450a-a176-7f8fb0544a84","system_id":"levelo_inurba_marseille","lat":43.26788,"lon":5.39418,"is_reserved":false,"is_disabled":false,"rental_uris":{"android":"levelo://app?vid=6ea20716-444d-450a-a176-7f8fb0544a84","ios":"levelo://app?vid=6ea20716-444d-450a-a176-7f8fb0544a84"},"vehicle_type_id":"4","last_reported":1733850531,"current_range_meters":37600,"station_id":"ce4bhh12rcd13ifvqfg0","pricing_plan_id":"cebpf4jnsgd1na2vs0mg"},{"bike_id":"19594726-b774-42c6-b374-90bf898070a5","system_id":"levelo_inurba_marseille","lat":43.27826,"lon":5.39215,"is_reserved":false,"is_disabled":false,"rental_uris":{"android":"levelo://app?vid=19594726-b774-42c6-b374-90bf898070a5","ios":"levelo://app?vid=19594726-b774-42c6-b374-90bf898070a5"},"vehicle_type_id":"4","last_reported":1733850531,"current_range_meters":20800,"station_id":"ce4bhjp2rcd13ifvqga0","pricing_plan_id":"cebpf4jnsgd1na2vs0mg"},{"bike_id":"eab7c24e-3533-4637-b397-5e46bc48ccfd","system_id":"levelo_inurba_marseille","lat":43.23131,"lon":5.43707,"is_reserved":false,"is_disabled":true,"rental_uris":{"android":"levelo://app?vid=eab7c24e-3533-4637-b397-5e46bc48ccfd","ios":"levelo://app?vid=eab7c24e-3533-4637-b397-5e46bc48ccfd"},"vehicle_type_id":"4","last_reported":1733850531,"current_range_meters":4800,"station_id":"ce4bhmp2rcd13ifvqgog","pricing_plan_id":"cebpf4jnsgd1na2vs0mg"},{"bike_id":"4f134551-d6f6-408e-b379-86a79e3625e6","system_id":"levelo_inurba_marseille","lat":43.29001,"lon":5.35604,"is_reserved":false,"is_disabled":false,"rental_uris":{"android":"levelo://app?vid=4f134551-d6f6-408e-b379-86a79e3625e6","ios":"levelo://app?vid=4f134551-d6f6-408e-b379-86a79e3625e6"},"vehicle_type_id":"4","last_reported":1733850531,"current_range_meters":32400,"station_id":"ce4bhb92rcd13ifvqen0","pricing_plan_id":"cebpf4jnsgd1na2vs0mg"},{"bike_id":"76413efc-592f-4cec-8705-e324732c6b62","system_id":"levelo_inurba_marseille","lat":43.28454,"lon":5.37432,"is_reserved":false,"is_disabled":false,"rental_uris":{"android":"levelo://app?vid=76413efc-592f-4cec-8705-e324732c6b62","ios":"levelo://app?vid=76413efc-592f-4cec-8705-e324732c6b62"},"vehicle_type_id":"4","last_reported":1733850531,"current_range_meters":32000,"station_id":"ce4bh412rcd13ifvqds0","pricing_plan_id":"cebpf4jnsgd1na2vs0mg"},{"bike_id":"7f16ab3a-9400-4887-ac44-4c0bde05af1a","system_id":"levelo_inurba_marseille","lat":43.30146,"lon":5.38775,"is_reserved":false,"is_disabled":false,"rental_uris":{"android":"levelo://app?vid=7f16ab3a-9400-4887-ac44-4c0bde05af1a","ios":"levelo://app?vid=7f16ab3a-9400-4887-ac44-4c0bde05af1a"},"vehicle_type_id":"4","last_reported":1733850531,"current_range_meters":18800,"station_id":"ce4bghh2rcd13ifvqb60","pricing_plan_id":"cebpf4jnsgd1na2vs0mg"},{"bike_id":"7f739767-6908-4c49-adbc-724120315dbc","system_id":"levelo_inurba_marseille","lat":43.28462,"lon":5.3588,"is_reserved":false,"is_disabled":false,"rental_uris":{"android":"levelo://app?vid=7f739767-6908-4c49-adbc-724120315dbc","ios":"levelo://app?vid=7f739767-6908-4c49-adbc-724120315dbc"},"vehicle_type_id":"4","last_reported":1733850531,"current_range_meters":38000,"station_id":"ce4bhah2rcd13ifvqei0","pricing_plan_id":"cebpf4jnsgd1na2vs0mg"},{"bike_id":"962a96b4-3298-40d0-92e0-1b449f02c0fe","system_id":"levelo_inurba_marseille","lat":43.25494,"lon":5.37647,"is_reserved":false,"is_disabled":true,"rental_uris":{"android":"levelo://app?vid=962a96b4-3298-40d0-92e0-1b449f02c0fe","ios":"levelo://app?vid=962a96b4-3298-40d0-92e0-1b449f02c0fe"},"vehicle_type_id":"4","last_reported":1733850531,"current_range_meters":36000,"station_id":"ce4bhh12rcd13ifvqff0","pricing_plan_id":"cebpf4jnsgd1na2vs0mg"},{"bike_id":"35544088-7b46-45c6-a378-63ec081ab2f0","system_id":"levelo_inurba_marseille","lat":43.30142,"lon":5.37418,"is_reserved":false,"is_disabled":false,"rental_uris":{"android":"levelo://app?vid=35544088-7b46-45c6-a378-63ec081ab2f0","ios":"levelo://app?vid=35544088-7b46-45c6-a378-63ec081ab2f0"},"vehicle_type_id":"4","last_reported":1733850531,"current_range_meters":24400,"station_id":"ce4bgs92rcd13ifvqcc0","pricing_plan_id":"cebpf4jnsgd1na2vs0mg"},{"bike_id":"ba5e4c54-9e0f-419d-acd3-894b4507a88b","system_id":"levelo_inurba_marseille","lat":43.23055,"lon":5.35487,"is_reserved":false,"is_disabled":false,"rental_uris":{"android":"levelo://app?vid=ba5e4c54-9e0f-419d-acd3-894b4507a88b","ios":"levelo://app?vid=ba5e4c54-9e0f-419d-acd3-894b4507a88b"},"vehicle_type_id":"4","last_reported":1733850531,"current_range_meters":25200,"station_id":"cpo3342slgdg3j2ifvpg","pricing_plan_id":"cebpf4jnsgd1na2vs0mg"},{"bike_id":"2781cf07-b2b5-47fa-87df-18e7faf6e26b","system_id":"levelo_inurba_marseille","lat":43.29036,"lon":5.39964,"is_reserved":false,"is_disabled":true,"rental_uris":{"android":"levelo://app?vid=2781cf07-b2b5-47fa-87df-18e7faf6e26b","ios":"levelo://app?vid=2781cf07-b2b5-47fa-87df-18e7faf6e26b"},"vehicle_type_id":"4","last_reported":1733850531,"current_range_meters":6400,"station_id":"ce4bh392rcd13ifvqdm0","pricing_plan_id":"cebpf4jnsgd1na2vs0mg"},{"bike_id":"34679b29-b896-438d-b588-419fd1bef242","system_id":"levelo_inurba_marseille","lat":43.28712,"lon":5.3793,"is_reserved":false,"is_disabled":false,"rental_uris":{"android":"levelo://app?vid=34679b29-b896-438d-b588-419fd1bef242","ios":"levelo://app?vid=34679b29-b896-438d-b588-419fd1bef242"},"vehicle_type_id":"4","last_reported":1733850531,"current_range_meters":10800,"station_id":"ce4bh9p2rcd13ifvqec0","pricing_plan_id":"cebpf4jnsgd1na2vs0mg"},{"bike_id":"acc52d82-ca31-4768-93c8-ce4b1de6e78d","system_id":"levelo_inurba_marseille","lat":43.28271,"lon":5.35071,"is_reserved":false,"is_disabled":false,"rental_uris":{"android":"levelo://app?vid=acc52d82-ca31-4768-93c8-ce4b1de6e78d","ios":"levelo://app?vid=acc52d82-ca31-4768-93c8-ce4b1de6e78d"},"vehicle_type_id":"4","last_reported":1733850531,"current_range_meters":32800,"station_id":"ce4bhbp2rcd13ifvqerg","pricing_plan_id":"cebpf4jnsgd1na2vs0mg"},{"bike_id":"fffa14be-58a4-4d6c-9582-c535b5f77ae9","system_id":"levelo_inurba_marseille","lat":43.27368,"lon":5.36255,"is_reserved":false,"is_disabled":false,"rental_uris":{"android":"levelo://app?vid=fffa14be-58a4-4d6c-9582-c535b5f77ae9","ios":"levelo://app?vid=fffa14be-58a4-4d6c-9582-c535b5f77ae9"},"vehicle_type_id":"4","last_reported":1733850531,"current_range_meters":38400,"station_id":"ce4bhbh2rcd13ifvqeo0","pricing_plan_id":"cebpf4jnsgd1na2vs0mg"},{"bike_id":"155e4552-adf3-45a5-aa6c-6e25fcaf05e5","system_id":"levelo_inurba_marseille","lat":43.27176,"lon":5.40988,"is_reserved":false,"is_disabled":false,"rental_uris":{"android":"levelo://app?vid=155e4552-adf3-45a5-aa6c-6e25fcaf05e5","ios":"levelo://app?vid=155e4552-adf3-45a5-aa6c-6e25fcaf05e5"},"vehicle_type_id":"4","last_reported":1733850531,"current_range_meters":38800,"station_id":"ce4bhl12rcd13ifvqgf0","pricing_plan_id":"cebpf4jnsgd1na2vs0mg"},{"bike_id":"3933b701-ca82-4b18-a882-72a61c67a1e4","system_id":"levelo_inurba_marseille","lat":43.24392,"lon":5.3706,"is_reserved":false,"is_disabled":true,"rental_uris":{"android":"levelo://app?vid=3933b701-ca82-4b18-a882-72a61c67a1e4","ios":"levelo://app?vid=3933b701-ca82-4b18-a882-72a61c67a1e4"},"vehicle_type_id":"4","last_reported":1733850531,"current_range_meters":36800,"station_id":"ce4bhhh2rcd13ifvqfk0","pricing_plan_id":"cebpf4jnsgd1na2vs0mg"},{"bike_id":"6339a1f8-a059-4cc3-8e37-75673e0956d8","system_id":"levelo_inurba_marseille","lat":43.27818,"lon":5.40718,"is_reserved":false,"is_disabled":false,"rental_uris":{"android":"levelo://app?vid=6339a1f8-a059-4cc3-8e37-75673e0956d8","ios":"levelo://app?vid=6339a1f8-a059-4cc3-8e37-75673e0956d8"},"vehicle_type_id":"4","last_reported":1733850531,"current_range_meters":15200,"station_id":"ce4bhnh2rcd13ifvqgtg","pricing_plan_id":"cebpf4jnsgd1na2vs0mg"},{"bike_id":"1fe4d936-c483-4774-ade1-4562896a240c","system_id":"levelo_inurba_marseille","lat":43.23161,"lon":5.39979,"is_reserved":false,"is_disabled":false,"rental_uris":{"android":"levelo://app?vid=1fe4d936-c483-4774-ade1-4562896a240c","ios":"levelo://app?vid=1fe4d936-c483-4774-ade1-4562896a240c"},"vehicle_type_id":"4","last_reported":1733850531,"current_range_meters":8400,"station_id":"ce4bhn12rcd13ifvqgqg","pricing_plan_id":"cebpf4jnsgd1na2vs0mg"},{"bike_id":"3dac4165-5751-47ed-889d-7735dd5c4c86","system_id":"levelo_inurba_marseille","lat":43.29187,"lon":5.35802,"is_reserved":false,"is_disabled":false,"rental_uris":{"android":"levelo://app?vid=3dac4165-5751-47ed-889d-7735dd5c4c86","ios":"levelo://app?vid=3dac4165-5751-47ed-889d-7735dd5c4c86"},"vehicle_type_id":"4","last_reported":1733850531,"current_range_meters":35200,"station_id":"ce4bhb12rcd13ifvqel0","pricing_plan_id":"cebpf4jnsgd1na2vs0mg"},{"bike_id":"49b6301d-d2a3-4bfc-9463-2235e88450de","system_id":"levelo_inurba_marseille","lat":43.2942,"lon":5.38629,"is_reserved":false,"is_disabled":false,"rental_uris":{"android":"levelo://app?vid=49b6301d-d2a3-4bfc-9463-2235e88450de","ios":"levelo://app?vid=49b6301d-d2a3-4bfc-9463-2235e88450de"},"vehicle_type_id":"4","last_reported":1733850531,"current_range_meters":22400,"station_id":"ce4bh2h2rcd13ifvqdh0","pricing_plan_id":"cebpf4jnsgd1na2vs0mg"},{"bike_id":"0b42083b-58f4-4cf9-9761-b7a6c06e3388","system_id":"levelo_inurba_marseille","lat":43.31155,"lon":5.38712,"is_reserved":false,"is_disabled":true,"rental_uris":{"android":"levelo://app?vid=0b42083b-58f4-4cf9-9761-b7a6c06e3388","ios":"levelo://app?vid=0b42083b-58f4-4cf9-9761-b7a6c06e3388"},"vehicle_type_id":"4","last_reported":1733850531,"current_range_meters":0,"station_id":"ce4bgv12rcd13ifvqcp0","pricing_plan_id":"cebpf4jnsgd1na2vs0mg"},{"bike_id":"d7d8a609-2082-4267-bd31-0082f2dab84c","system_id":"levelo_inurba_marseille","lat":43.31329,"lon":5.39694,"is_reserved":false,"is_disabled":false,"rental_uris":{"android":"levelo://app?vid=d7d8a609-2082-4267-bd31-0082f2dab84c","ios":"levelo://app?vid=d7d8a609-2082-4267-bd31-0082f2dab84c"},"vehicle_type_id":"4","last_reported":1733850531,"current_range_meters":6800,"station_id":"ce4bgvp2rcd13ifvqcu0","pricing_plan_id":"cebpf4jnsgd1na2vs0mg"},{"bike_id":"6149d10a-ee53-4413-9592-38357ced78cb","system_id":"levelo_inurba_marseille","lat":43.26187,"lon":5.37449,"is_reserved":false,"is_disabled":true,"rental_uris":{"android":"levelo://app?vid=6149d10a-ee53-4413-9592-38357ced78cb","ios":"levelo://app?vid=6149d10a-ee53-4413-9592-38357ced78cb"},"vehicle_type_id":"4","last_reported":1733850531,"current_range_meters":35200,"station_id":"ce4bhgp2rcd13ifvqfc0","pricing_plan_id":"cebpf4jnsgd1na2vs0mg"},{"bike_id":"be5767c3-2404-4ef5-88bb-d091a56f55a3","system_id":"levelo_inurba_marseille","lat":43.25115,"lon":5.40319,"is_reserved":false,"is_disabled":false,"rental_uris":{"android":"levelo://app?vid=be5767c3-2404-4ef5-88bb-d091a56f55a3","ios":"levelo://app?vid=be5767c3-2404-4ef5-88bb-d091a56f55a3"},"vehicle_type_id":"4","last_reported":1733850531,"current_range_meters":22000,"station_id":"ce4bhlh2rcd13ifvqgig","pricing_plan_id":"cebpf4jnsgd1na2vs0mg"},{"bike_id":"20e9db8d-d68b-4418-94af-d9d63f8c2b96","system_id":"levelo_inurba_marseille","lat":43.337444,"lon":5.374475,"is_reserved":false,"is_disabled":true,"rental_uris":{"android":"levelo://app?vid=20e9db8d-d68b-4418-94af-d9d63f8c2b96","ios":"levelo://app?vid=20e9db8d-d68b-4418-94af-d9d63f8c2b96"},"vehicle_type_id":"4","last_reported":1733850531,"current_range_meters":0,"station_id":"","pricing_plan_id":"cebpf4jnsgd1na2vs0mg"},{"bike_id":"c950160e-6608-4698-8a16-0932f921df7f","system_id":"levelo_inurba_marseille","lat":43.28851,"lon":5.35842,"is_reserved":false,"is_disabled":true,"rental_uris":{"android":"levelo://app?vid=c950160e-6608-4698-8a16-0932f921df7f","ios":"levelo://app?vid=c950160e-6608-4698-8a16-0932f921df7f"},"vehicle_type_id":"4","last_reported":1733850531,"current_range_meters":0,"station_id":"ce4bhb12rcd13ifvqem0","pricing_plan_id":"cebpf4jnsgd1na2vs0mg"},{"bike_id":"d1759abf-a816-44e9-9410-5d5b34634ccb","system_id":"levelo_inurba_marseille","lat":43.28273,"lon":5.35066,"is_reserved":false,"is_disabled":false,"rental_uris":{"android":"levelo://app?vid=d1759abf-a816-44e9-9410-5d5b34634ccb","ios":"levelo://app?vid=d1759abf-a816-44e9-9410-5d5b34634ccb"},"vehicle_type_id":"4","last_reported":1733850531,"current_range_meters":24000,"station_id":"ce4bhbp2rcd13ifvqerg","pricing_plan_id":"cebpf4jnsgd1na2vs0mg"},{"bike_id":"2539a722-3487-4f95-80f9-912fba923be8","system_id":"levelo_inurba_marseille","lat":43.28438,"lon":5.39193,"is_reserved":false,"is_disabled":true,"rental_uris":{"android":"levelo://app?vid=2539a722-3487-4f95-80f9-912fba923be8","ios":"levelo://app?vid=2539a722-3487-4f95-80f9-912fba923be8"},"vehicle_type_id":"4","last_reported":1733850531,"current_range_meters":0,"station_id":"ce4bhoh2rcd13ifvqh5g","pricing_plan_id":"cebpf4jnsgd1na2vs0mg"},{"bike_id":"445ceb1b-e0a6-42cd-bb44-eb8e9b1da8ee","system_id":"levelo_inurba_marseille","lat":43.31742,"lon":5.38766,"is_reserved":false,"is_disabled":false,"rental_uris":{"android":"levelo://app?vid=445ceb1b-e0a6-42cd-bb44-eb8e9b1da8ee","ios":"levelo://app?vid=445ceb1b-e0a6-42cd-bb44-eb8e9b1da8ee"},"vehicle_type_id":"4","last_reported":1733850531,"current_range_meters":15200,"station_id":"","pricing_plan_id":"cebpf4jnsgd1na2vs0mg"},{"bike_id":"f6f6210d-5e07-46dd-93e4-3e102dd7cb0e","system_id":"levelo_inurba_marseille","lat":43.29395,"lon":5.38885,"is_reserved":false,"is_disabled":true,"rental_uris":{"android":"levelo://app?vid=f6f6210d-5e07-46dd-93e4-3e102dd7cb0e","ios":"levelo://app?vid=f6f6210d-5e07-46dd-93e4-3e102dd7cb0e"},"vehicle_type_id":"4","last_reported":1733850531,"current_range_meters":0,"station_id":"","pricing_plan_id":"cebpf4jnsgd1na2vs0mg"},{"bike_id":"f7f2544c-3c95-46c1-a999-054287fb9b85","system_id":"levelo_inurba_marseille","lat":43.29902,"lon":5.37476,"is_reserved":false,"is_disabled":false,"rental_uris":{"android":"levelo://app?vid=f7f2544c-3c95-46c1-a999-054287fb9b85","ios":"levelo://app?vid=f7f2544c-3c95-46c1-a999-054287fb9b85"},"vehicle_type_id":"4","last_reported":1733850531,"current_range_meters":36800,"station_id":"ce4bgjh2rcd13ifvqbg0","pricing_plan_id":"cebpf4jnsgd1na2vs0mg"},{"bike_id":"38f3c452-558d-4592-9fa8-9799374586bf","system_id":"levelo_inurba_marseille","lat":43.30789,"lon":5.37653,"is_reserved":false,"is_disabled":false,"rental_uris":{"android":"levelo://app?vid=38f3c452-558d-4592-9fa8-9799374586bf","ios":"levelo://app?vid=38f3c452-558d-4592-9fa8-9799374586bf"},"vehicle_type_id":"4","last_reported":1733850531,"current_range_meters":36400,"station_id":"ce4bgv92rcd13ifvqcq0","pricing_plan_id":"cebpf4jnsgd1na2vs0mg"},{"bike_id":"010d14a3-6845-4266-b6b3-c64f4f4acacf","system_id":"levelo_inurba_marseille","lat":43.28427,"lon":5.34984,"is_reserved":false,"is_disabled":false,"rental_uris":{"android":"levelo://app?vid=010d14a3-6845-4266-b6b3-c64f4f4acacf","ios":"levelo://app?vid=010d14a3-6845-4266-b6b3-c64f4f4acacf"},"vehicle_type_id":"4","last_reported":1733850531,"current_range_meters":30000,"station_id":"ce4bhbh2rcd13ifvqepg","pricing_plan_id":"cebpf4jnsgd1na2vs0mg"},{"bike_id":"0ad7294e-853a-422c-9faa-f05fa828baf2","system_id":"levelo_inurba_marseille","lat":43.26063,"lon":5.39398,"is_reserved":false,"is_disabled":false,"rental_uris":{"android":"levelo://app?vid=0ad7294e-853a-422c-9faa-f05fa828baf2","ios":"levelo://app?vid=0ad7294e-853a-422c-9faa-f05fa828baf2"},"vehicle_type_id":"4","last_reported":1733850531,"current_range_meters":36000,"station_id":"ce4bhh92rcd13ifvqfj0","pricing_plan_id":"cebpf4jnsgd1na2vs0mg"},{"bike_id":"6c5ce0f2-c82b-4410-a0ea-fb564fc782e4","system_id":"levelo_inurba_marseille","lat":43.337444,"lon":5.374475,"is_reserved":false,"is_disabled":false,"rental_uris":{"android":"levelo://app?vid=6c5ce0f2-c82b-4410-a0ea-fb564fc782e4","ios":"levelo://app?vid=6c5ce0f2-c82b-4410-a0ea-fb564fc782e4"},"vehicle_type_id":"4","last_reported":1733850531,"current_range_meters":36400,"station_id":"","pricing_plan_id":"cebpf4jnsgd1na2vs0mg"},{"bike_id":"fd0805f5-a398-4cff-8d50-0b96555f8650","system_id":"levelo_inurba_marseille","lat":43.2947,"lon":5.37699,"is_reserved":false,"is_disabled":true,"rental_uris":{"android":"levelo://app?vid=fd0805f5-a398-4cff-8d50-0b96555f8650","ios":"levelo://app?vid=fd0805f5-a398-4cff-8d50-0b96555f8650"},"vehicle_type_id":"4","last_reported":1733850531,"current_range_meters":0,"station_id":"","pricing_plan_id":"cebpf4jnsgd1na2vs0mg"},{"bike_id":"88d700a1-f9a9-4c1f-9198-584b0729210d","system_id":"levelo_inurba_marseille","lat":43.23191,"lon":5.35556,"is_reserved":false,"is_disabled":false,"rental_uris":{"android":"levelo://app?vid=88d700a1-f9a9-4c1f-9198-584b0729210d","ios":"levelo://app?vid=88d700a1-f9a9-4c1f-9198-584b0729210d"},"vehicle_type_id":"4","last_reported":1733850531,"current_range_meters":3200,"station_id":"ce4bhu92rcd13ifvqi70","pricing_plan_id":"cebpf4jnsgd1na2vs0mg"},{"bike_id":"fb60a33c-70b6-4f68-89ad-34730e723f45","system_id":"levelo_inurba_marseille","lat":43.28696,"lon":5.39989,"is_reserved":false,"is_disabled":false,"rental_uris":{"android":"levelo://app?vid=fb60a33c-70b6-4f68-89ad-34730e723f45","ios":"levelo://app?vid=fb60a33c-70b6-4f68-89ad-34730e723f45"},"vehicle_type_id":"4","last_reported":1733850531,"current_range_meters":26800,"station_id":"ce4bho92rcd13ifvqh3g","pricing_plan_id":"cebpf4jnsgd1na2vs0mg"},{"bike_id":"ad23fb5f-e08b-4cc9-bd4d-a68b7ea5b0a1","system_id":"levelo_inurba_marseille","lat":43.30532,"lon":5.36559,"is_reserved":false,"is_disabled":false,"rental_uris":{"android":"levelo://app?vid=ad23fb5f-e08b-4cc9-bd4d-a68b7ea5b0a1","ios":"levelo://app?vid=ad23fb5f-e08b-4cc9-bd4d-a68b7ea5b0a1"},"vehicle_type_id":"4","last_reported":1733850531,"current_range_meters":8000,"station_id":"ce4bgs12rcd13ifvqcag","pricing_plan_id":"cebpf4jnsgd1na2vs0mg"},{"bike_id":"17054286-95ff-42dd-8927-95b46a2a45c9","system_id":"levelo_inurba_marseille","lat":43.28454,"lon":5.35885,"is_reserved":false,"is_disabled":false,"rental_uris":{"android":"levelo://app?vid=17054286-95ff-42dd-8927-95b46a2a45c9","ios":"levelo://app?vid=17054286-95ff-42dd-8927-95b46a2a45c9"},"vehicle_type_id":"4","last_reported":1733850531,"current_range_meters":8800,"station_id":"ce4bhah2rcd13ifvqei0","pricing_plan_id":"cebpf4jnsgd1na2vs0mg"},{"bike_id":"0bf8dd1c-24b0-406a-bdc5-9b916a7670bd","system_id":"levelo_inurba_marseille","lat":43.26213,"lon":5.37446,"is_reserved":false,"is_disabled":false,"rental_uris":{"android":"levelo://app?vid=0bf8dd1c-24b0-406a-bdc5-9b916a7670bd","ios":"levelo://app?vid=0bf8dd1c-24b0-406a-bdc5-9b916a7670bd"},"vehicle_type_id":"4","last_reported":1733850531,"current_range_meters":16000,"station_id":"ce4bhgp2rcd13ifvqfc0","pricing_plan_id":"cebpf4jnsgd1na2vs0mg"},{"bike_id":"633466e3-c57e-4424-bb70-58dea6ff4970","system_id":"levelo_inurba_marseille","lat":43.22933,"lon":5.35375,"is_reserved":false,"is_disabled":true,"rental_uris":{"android":"levelo://app?vid=633466e3-c57e-4424-bb70-58dea6ff4970","ios":"levelo://app?vid=633466e3-c57e-4424-bb70-58dea6ff4970"},"vehicle_type_id":"4","last_reported":1733850531,"current_range_meters":6000,"station_id":"cpo3532slgdg3j2ikp40","pricing_plan_id":"cebpf4jnsgd1na2vs0mg"},{"bike_id":"c55cca82-78da-427b-9544-8ebc7ac0dc38","system_id":"levelo_inurba_marseille","lat":43.30134,"lon":5.37417,"is_reserved":false,"is_disabled":false,"rental_uris":{"android":"levelo://app?vid=c55cca82-78da-427b-9544-8ebc7ac0dc38","ios":"levelo://app?vid=c55cca82-78da-427b-9544-8ebc7ac0dc38"},"vehicle_type_id":"4","last_reported":1733850531,"current_range_meters":16800,"station_id":"ce4bgs92rcd13ifvqcc0","pricing_plan_id":"cebpf4jnsgd1na2vs0mg"},{"bike_id":"367d40be-60bb-4a93-af43-3d7dca572f59","system_id":"levelo_inurba_marseille","lat":43.28146,"lon":5.42646,"is_reserved":false,"is_disabled":false,"rental_uris":{"android":"levelo://app?vid=367d40be-60bb-4a93-af43-3d7dca572f59","ios":"levelo://app?vid=367d40be-60bb-4a93-af43-3d7dca572f59"},"vehicle_type_id":"4","last_reported":1733850531,"current_range_meters":8000,"station_id":"ce4bhnh2rcd13ifvqgug","pricing_plan_id":"cebpf4jnsgd1na2vs0mg"},{"bike_id":"55f767c3-9cb9-4087-9888-0c5796a284dc","system_id":"levelo_inurba_marseille","lat":43.28411,"lon":5.34989,"is_reserved":false,"is_disabled":false,"rental_uris":{"android":"levelo://app?vid=55f767c3-9cb9-4087-9888-0c5796a284dc","ios":"levelo://app?vid=55f767c3-9cb9-4087-9888-0c5796a284dc"},"vehicle_type_id":"4","last_reported":1733850531,"current_range_meters":32400,"station_id":"ce4bhbh2rcd13ifvqepg","pricing_plan_id":"cebpf4jnsgd1na2vs0mg"},{"bike_id":"192ec0f2-4fc6-4c2e-a127-97c8c012a668","system_id":"levelo_inurba_marseille","lat":43.28616,"lon":5.35103,"is_reserved":false,"is_disabled":false,"rental_uris":{"android":"levelo://app?vid=192ec0f2-4fc6-4c2e-a127-97c8c012a668","ios":"levelo://app?vid=192ec0f2-4fc6-4c2e-a127-97c8c012a668"},"vehicle_type_id":"4","last_reported":1733850531,"current_range_meters":26000,"station_id":"ce4bhch2rcd13ifvqeug","pricing_plan_id":"cebpf4jnsgd1na2vs0mg"},{"bike_id":"b4ff4c3e-f504-48f2-95ba-bebdaf22fd75","system_id":"levelo_inurba_marseille","lat":43.2841,"lon":5.428961,"is_reserved":false,"is_disabled":true,"rental_uris":{"android":"levelo://app?vid=b4ff4c3e-f504-48f2-95ba-bebdaf22fd75","ios":"levelo://app?vid=b4ff4c3e-f504-48f2-95ba-bebdaf22fd75"},"vehicle_type_id":"4","last_reported":1733850531,"current_range_meters":0,"station_id":"","pricing_plan_id":"cebpf4jnsgd1na2vs0mg"},{"bike_id":"aaa52fe2-daf2-4c5a-85ed-180807d01daa","system_id":"levelo_inurba_marseille","lat":43.31115,"lon":5.37771,"is_reserved":false,"is_disabled":false,"rental_uris":{"android":"levelo://app?vid=aaa52fe2-daf2-4c5a-85ed-180807d01daa","ios":"levelo://app?vid=aaa52fe2-daf2-4c5a-85ed-180807d01daa"},"vehicle_type_id":"4","last_reported":1733850531,"current_range_meters":16800,"station_id":"ce4bgt92rcd13ifvqcg0","pricing_plan_id":"cebpf4jnsgd1na2vs0mg"},{"bike_id":"27bc9e67-e601-4496-b287-7f03c1781e2d","system_id":"levelo_inurba_marseille","lat":43.28609,"lon":5.37064,"is_reserved":false,"is_disabled":false,"rental_uris":{"android":"levelo://app?vid=27bc9e67-e601-4496-b287-7f03c1781e2d","ios":"levelo://app?vid=27bc9e67-e601-4496-b287-7f03c1781e2d"},"vehicle_type_id":"4","last_reported":1733850531,"current_range_meters":36400,"station_id":"ce4bht12rcd13ifvqi60","pricing_plan_id":"cebpf4jnsgd1na2vs0mg"},{"bike_id":"33e9e509-5635-4047-af70-82aae17362ca","system_id":"levelo_inurba_marseille","lat":43.23064,"lon":5.35495,"is_reserved":false,"is_disabled":false,"rental_uris":{"android":"levelo://app?vid=33e9e509-5635-4047-af70-82aae17362ca","ios":"levelo://app?vid=33e9e509-5635-4047-af70-82aae17362ca"},"vehicle_type_id":"4","last_reported":1733850531,"current_range_meters":16000,"station_id":"cpo3342slgdg3j2ifvpg","pricing_plan_id":"cebpf4jnsgd1na2vs0mg"},{"bike_id":"69c1800d-f38d-4fe4-9d38-33fb75caae6c","system_id":"levelo_inurba_marseille","lat":43.28717,"lon":5.36077,"is_reserved":false,"is_disabled":false,"rental_uris":{"android":"levelo://app?vid=69c1800d-f38d-4fe4-9d38-33fb75caae6c","ios":"levelo://app?vid=69c1800d-f38d-4fe4-9d38-33fb75caae6c"},"vehicle_type_id":"4","last_reported":1733850531,"current_range_meters":39200,"station_id":"cki0cbj6b192h4jlfktg","pricing_plan_id":"cebpf4jnsgd1na2vs0mg"},{"bike_id":"c119d723-2faf-40cc-9363-cec2d8098b7d","system_id":"levelo_inurba_marseille","lat":43.30419,"lon":5.41487,"is_reserved":false,"is_disabled":false,"rental_uris":{"android":"levelo://app?vid=c119d723-2faf-40cc-9363-cec2d8098b7d","ios":"levelo://app?vid=c119d723-2faf-40cc-9363-cec2d8098b7d"},"vehicle_type_id":"4","last_reported":1733850531,"current_range_meters":28400,"station_id":"","pricing_plan_id":"cebpf4jnsgd1na2vs0mg"},{"bike_id":"1655ebfb-fff9-4e70-8e87-9d393a7104df","system_id":"levelo_inurba_marseille","lat":43.291,"lon":5.38149,"is_reserved":false,"is_disabled":true,"rental_uris":{"android":"levelo://app?vid=1655ebfb-fff9-4e70-8e87-9d393a7104df","ios":"levelo://app?vid=1655ebfb-fff9-4e70-8e87-9d393a7104df"},"vehicle_type_id":"4","last_reported":1733850531,"current_range_meters":30000,"station_id":"ce4bh512rcd13ifvqe2g","pricing_plan_id":"cebpf4jnsgd1na2vs0mg"},{"bike_id":"c6154393-48fd-48a4-add1-217536787f3b","system_id":"levelo_inurba_marseille","lat":43.25003,"lon":5.38927,"is_reserved":false,"is_disabled":true,"rental_uris":{"android":"levelo://app?vid=c6154393-48fd-48a4-add1-217536787f3b","ios":"levelo://app?vid=c6154393-48fd-48a4-add1-217536787f3b"},"vehicle_type_id":"4","last_reported":1733850531,"current_range_meters":800,"station_id":"ce4bhgp2rcd13ifvqfd0","pricing_plan_id":"cebpf4jnsgd1na2vs0mg"},{"bike_id":"e1842d93-046c-4f2f-a21d-a8a9ad0802ac","system_id":"levelo_inurba_marseille","lat":43.28456,"lon":5.35888,"is_reserved":false,"is_disabled":false,"rental_uris":{"android":"levelo://app?vid=e1842d93-046c-4f2f-a21d-a8a9ad0802ac","ios":"levelo://app?vid=e1842d93-046c-4f2f-a21d-a8a9ad0802ac"},"vehicle_type_id":"4","last_reported":1733850531,"current_range_meters":37600,"station_id":"ce4bhah2rcd13ifvqei0","pricing_plan_id":"cebpf4jnsgd1na2vs0mg"},{"bike_id":"03d0ed64-ea6c-49a2-8b0e-4841b22272d3","system_id":"levelo_inurba_marseille","lat":43.27991,"lon":5.41659,"is_reserved":false,"is_disabled":false,"rental_uris":{"android":"levelo://app?vid=03d0ed64-ea6c-49a2-8b0e-4841b22272d3","ios":"levelo://app?vid=03d0ed64-ea6c-49a2-8b0e-4841b22272d3"},"vehicle_type_id":"4","last_reported":1733850531,"current_range_meters":6800,"station_id":"ce4bho12rcd13ifvqh1g","pricing_plan_id":"cebpf4jnsgd1na2vs0mg"},{"bike_id":"b3735992-7101-4f9a-834e-a2b866edda1b","system_id":"levelo_inurba_marseille","lat":43.28455,"lon":5.38539,"is_reserved":false,"is_disabled":true,"rental_uris":{"android":"levelo://app?vid=b3735992-7101-4f9a-834e-a2b866edda1b","ios":"levelo://app?vid=b3735992-7101-4f9a-834e-a2b866edda1b"},"vehicle_type_id":"4","last_reported":1733850531,"current_range_meters":2000,"station_id":"ce4bh8p2rcd13ifvqeb0","pricing_plan_id":"cebpf4jnsgd1na2vs0mg"},{"bike_id":"781b1c40-d21e-4b5b-a468-351a24b64ecc","system_id":"levelo_inurba_marseille","lat":43.29255,"lon":5.38761,"is_reserved":false,"is_disabled":false,"rental_uris":{"android":"levelo://app?vid=781b1c40-d21e-4b5b-a468-351a24b64ecc","ios":"levelo://app?vid=781b1c40-d21e-4b5b-a468-351a24b64ecc"},"vehicle_type_id":"4","last_reported":1733850531,"current_range_meters":8000,"station_id":"ce4bhoh2rcd13ifvqh5g","pricing_plan_id":"cebpf4jnsgd1na2vs0mg"},{"bike_id":"7a1332ca-192c-48d9-b3ce-47ec2978eada","system_id":"levelo_inurba_marseille","lat":43.32342,"lon":5.40616,"is_reserved":false,"is_disabled":false,"rental_uris":{"android":"levelo://app?vid=7a1332ca-192c-48d9-b3ce-47ec2978eada","ios":"levelo://app?vid=7a1332ca-192c-48d9-b3ce-47ec2978eada"},"vehicle_type_id":"4","last_reported":1733850531,"current_range_meters":36400,"station_id":"ce4bhq92rcd13ifvqhjg","pricing_plan_id":"cebpf4jnsgd1na2vs0mg"},{"bike_id":"2c19ca67-b789-4804-9f7b-5ca29558a077","system_id":"levelo_inurba_marseille","lat":43.27816,"lon":5.40707,"is_reserved":false,"is_disabled":false,"rental_uris":{"android":"levelo://app?vid=2c19ca67-b789-4804-9f7b-5ca29558a077","ios":"levelo://app?vid=2c19ca67-b789-4804-9f7b-5ca29558a077"},"vehicle_type_id":"4","last_reported":1733850531,"current_range_meters":8000,"station_id":"ce4bhnh2rcd13ifvqgtg","pricing_plan_id":"cebpf4jnsgd1na2vs0mg"},{"bike_id":"8d6463b9-5ad7-4c02-a524-744315c20c33","system_id":"levelo_inurba_marseille","lat":43.33026,"lon":5.39037,"is_reserved":false,"is_disabled":false,"rental_uris":{"android":"levelo://app?vid=8d6463b9-5ad7-4c02-a524-744315c20c33","ios":"levelo://app?vid=8d6463b9-5ad7-4c02-a524-744315c20c33"},"vehicle_type_id":"4","last_reported":1733850531,"current_range_meters":38800,"station_id":"ce4bhr92rcd13ifvqhrg","pricing_plan_id":"cebpf4jnsgd1na2vs0mg"},{"bike_id":"2ecad3e5-f9f3-4480-b1f0-2e81d2ce167c","system_id":"levelo_inurba_marseille","lat":43.29096,"lon":5.3815,"is_reserved":false,"is_disabled":false,"rental_uris":{"android":"levelo://app?vid=2ecad3e5-f9f3-4480-b1f0-2e81d2ce167c","ios":"levelo://app?vid=2ecad3e5-f9f3-4480-b1f0-2e81d2ce167c"},"vehicle_type_id":"4","last_reported":1733850531,"current_range_meters":38400,"station_id":"ce4bh692rcd13ifvqe90","pricing_plan_id":"cebpf4jnsgd1na2vs0mg"},{"bike_id":"04acc01c-a275-452f-bb2d-a0e9cc45b1b8","system_id":"levelo_inurba_marseille","lat":43.28711,"lon":5.37389,"is_reserved":false,"is_disabled":false,"rental_uris":{"android":"levelo://app?vid=04acc01c-a275-452f-bb2d-a0e9cc45b1b8","ios":"levelo://app?vid=04acc01c-a275-452f-bb2d-a0e9cc45b1b8"},"vehicle_type_id":"4","last_reported":1733850531,"current_range_meters":38800,"station_id":"ce4bh3p2rcd13ifvqdq0","pricing_plan_id":"cebpf4jnsgd1na2vs0mg"},{"bike_id":"10b450fb-5fd4-4ca4-898c-bcefa45de9f5","system_id":"levelo_inurba_marseille","lat":43.28725,"lon":5.36084,"is_reserved":false,"is_disabled":false,"rental_uris":{"android":"levelo://app?vid=10b450fb-5fd4-4ca4-898c-bcefa45de9f5","ios":"levelo://app?vid=10b450fb-5fd4-4ca4-898c-bcefa45de9f5"},"vehicle_type_id":"4","last_reported":1733850531,"current_range_meters":24000,"station_id":"cki0cbj6b192h4jlfktg","pricing_plan_id":"cebpf4jnsgd1na2vs0mg"},{"bike_id":"12fd66cc-2cc9-4cc9-988d-eb9e7bf5d805","system_id":"levelo_inurba_marseille","lat":43.31072,"lon":5.38349,"is_reserved":false,"is_disabled":false,"rental_uris":{"android":"levelo://app?vid=12fd66cc-2cc9-4cc9-988d-eb9e7bf5d805","ios":"levelo://app?vid=12fd66cc-2cc9-4cc9-988d-eb9e7bf5d805"},"vehicle_type_id":"4","last_reported":1733850531,"current_range_meters":20000,"station_id":"ce4bgv92rcd13ifvqcr0","pricing_plan_id":"cebpf4jnsgd1na2vs0mg"},{"bike_id":"7e9eb822-5431-4327-b9b5-79363b31fddb","system_id":"levelo_inurba_marseille","lat":43.28114,"lon":5.44222,"is_reserved":false,"is_disabled":false,"rental_uris":{"android":"levelo://app?vid=7e9eb822-5431-4327-b9b5-79363b31fddb","ios":"levelo://app?vid=7e9eb822-5431-4327-b9b5-79363b31fddb"},"vehicle_type_id":"4","last_reported":1733850531,"current_range_meters":20000,"station_id":"","pricing_plan_id":"cebpf4jnsgd1na2vs0mg"},{"bike_id":"a75de549-6879-4b20-8648-a04393bfb4f3","system_id":"levelo_inurba_marseille","lat":43.27185,"lon":5.40997,"is_reserved":false,"is_disabled":false,"rental_uris":{"android":"levelo://app?vid=a75de549-6879-4b20-8648-a04393bfb4f3","ios":"levelo://app?vid=a75de549-6879-4b20-8648-a04393bfb4f3"},"vehicle_type_id":"4","last_reported":1733850531,"current_range_meters":11600,"station_id":"ce4bhl12rcd13ifvqgf0","pricing_plan_id":"cebpf4jnsgd1na2vs0mg"},{"bike_id":"494c027c-f7f1-44e1-8142-32f4ecdc60bb","system_id":"levelo_inurba_marseille","lat":43.29707,"lon":5.36589,"is_reserved":false,"is_disabled":false,"rental_uris":{"android":"levelo://app?vid=494c027c-f7f1-44e1-8142-32f4ecdc60bb","ios":"levelo://app?vid=494c027c-f7f1-44e1-8142-32f4ecdc60bb"},"vehicle_type_id":"4","last_reported":1733850531,"current_range_meters":4800,"station_id":"ce4bgn12rcd13ifvqbt0","pricing_plan_id":"cebpf4jnsgd1na2vs0mg"},{"bike_id":"ede15d36-8a2a-46f7-9376-fbbb79648cad","system_id":"levelo_inurba_marseille","lat":43.27179,"lon":5.40995,"is_reserved":false,"is_disabled":false,"rental_uris":{"android":"levelo://app?vid=ede15d36-8a2a-46f7-9376-fbbb79648cad","ios":"levelo://app?vid=ede15d36-8a2a-46f7-9376-fbbb79648cad"},"vehicle_type_id":"4","last_reported":1733850531,"current_range_meters":24400,"station_id":"ce4bhl12rcd13ifvqgf0","pricing_plan_id":"cebpf4jnsgd1na2vs0mg"},{"bike_id":"baa2c9e6-7153-4442-8da7-6b81a61ffd2b","system_id":"levelo_inurba_marseille","lat":43.29267,"lon":5.40124,"is_reserved":false,"is_disabled":true,"rental_uris":{"android":"levelo://app?vid=baa2c9e6-7153-4442-8da7-6b81a61ffd2b","ios":"levelo://app?vid=baa2c9e6-7153-4442-8da7-6b81a61ffd2b"},"vehicle_type_id":"4","last_reported":1733850531,"current_range_meters":24400,"station_id":"ce4bh312rcd13ifvqdk0","pricing_plan_id":"cebpf4jnsgd1na2vs0mg"},