{"last_updated":1751310467,"ttl":60,"version":"2.2","data":{"bikes":[{"bike_id":"3da29fb8-fc97-44c6-b9ac-31dd456b2fd4","system_id":"levelo_inurba_marseille","lat":43.33771,"lon":5.37424,"is_reserved":false,"is_disabled":true,"rental_uris":{"android":"levelo://app?vid=3da29fb8-fc97-44c6-b9ac-31dd456b2fd4","ios":"levelo://app?vid=3da29fb8-fc97-44c6-b9ac-31dd456b2fd4"},"vehicle_type_id":"4","last_reported":1751310467,"current_range_meters":0,"station_id":"","pricing_plan_id":"cebpf4jnsgd1na2vs0mg"},{"bike_id":"01861ad8-a8d7-4be6-816e-651927c87584","system_id":"levelo_inurba_marseille","lat":43.33751,"lon":5.37456,"is_reserved":false,"is_disabled":true,"rental_uris":{"android":"levelo://app?vid=01861ad8-a8d7-4be6-816e-651927c87584","ios":"levelo://app?vid=01861ad8-a8d7-4be6-816e-651927c87584"},"vehicle_type_id":"4","last_reported":1751310467,"current_range_meters":0,"station_id":"","pricing_plan_id":"cebpf4jnsgd1na2vs0mg"},{"bike_id":"29e697ca-26a6-4412-8107-f2c74b259edc","system_id":"levelo_inurba_marseille","lat":43.241759,"lon":5.383938,"is_reserved":false,"is_disabled":true,"rental_uris":{"android":"levelo://app?vid=29e697ca-26a6-4412-8107-f2c74b259edc","ios":"levelo://app?vid=29e697ca-26a6-4412-8107-f2c74b259edc"},"vehicle_type_id":"4","last_reported":1751310467,"current_range_meters":0,"station_id":"","pricing_plan_id":"cebpf4jnsgd1na2vs0mg"},{"bike_id":"f1483ff6-ae8a-4286-a635-7d40887e3e92","system_id":"levelo_inurba_marseille","lat":43.26968,"lon":5.36613,"is_reserved":false,"is_disabled":true,"rental_uris":{"android":"levelo://app?vid=f1483ff6-ae8a-4286-a635-7d40887e3e92","ios":"levelo://app?vid=f1483ff6-ae8a-4286-a635-7d40887e3e92"},"vehicle_type_id":"4","last_reported":1751310467,"current_range_meters":0,"station_id":"","pricing_plan_id":"cebpf4jnsgd1na2vs0mg"},{"bike_id":"69f3e486-7ece-4da3-bef1-7e43be44cf97","system_id":"levelo_inurba_marseille","lat":43.25649,"lon":5.41993,"is_reserved":false,"is_disabled":true,"rental_uris":{"android":"levelo://app?vid=69f3e486-7ece-4da3-bef1-7e43be44cf97","ios":"levelo://app?vid=69f3e486-7ece-4da3-bef1-7e43be44cf97"},"vehicle_type_id":"4","last_reported":1751310467,"current_range_meters":0,"station_id":"","pricing_plan_id":"cebpf4jnsgd1na2vs0mg"},{"bike_id":"a24f34b0-39ea-4314-9c87-5ae05f74564e","system_id":"levelo_inurba_marseille","lat":43.28895,"lon":5.36065,"is_reserved":false,"is_disabled":true,"rental_uris":{"android":"levelo://app?vid=a24f34b0-39ea-4314-9c87-5ae05f74564e","ios":"levelo://app?vid=a24f34b0-39ea-4314-9c87-5ae05f74564e"},"vehicle_type_id":"4","last_reported":1751310467,"current_range_meters":0,"station_id":"","pricing_plan_id":"cebpf4jnsgd1na2vs0mg"},{"bike_id":"aa6c1647-1ec8-42c9-91a4-38cc1052cdf1","system_id":"levelo_inurba_marseille","lat":43.25548,"lon":5.37673,"is_reserved":false,"is_disabled":true,"rental_uris":{"android":"levelo://app?vid=aa6c1647-1ec8-42c9-91a4-38cc1052cdf1","ios":"levelo://app?vid=aa6c1647-1ec8-42c9-91a4-38cc1052cdf1"},"vehicle_type_id":"4","last_reported":1751310467,"current_range_meters":0,"station_id":"","pricing_plan_id":"cebpf4jnsgd1na2vs0mg"},{"bike_id":"4ebf15b3-3d8b-4bc3-8a65-e8d4fdd45257","system_id":"levelo_inurba_marseille","lat":43.2997,"lon":5.38486,"is_reserved":false,"is_disabled":false,"rental_uris":{"android":"levelo://app?vid=4ebf15b3-3d8b-4bc3-8a65-e8d4fdd45257","ios":"levelo://app?vid=4ebf15b3-3d8b-4bc3-8a65-e8d4fdd45257"},"vehicle_type_id":"4","last_reported":1751310467,"current_range_meters":0,"station_id":"ce4bgj92rcd13ifvqbd0","pricing_plan_id":"cebpf4jnsgd1na2vs0mg"},{"bike_id":"4de692e0-b5b9-4a89-ba2b-90d282f75421","system_id":"levelo_inurba_marseille","lat":43.30974,"lon":5.3907,"is_reserved":false,"is_disabled":true,"rental_uris":{"android":"levelo://app?vid=4de692e0-b5b9-4a89-ba2b-90d282f75421","ios":"levelo://app?vid=4de692e0-b5b9-4a89-ba2b-90d282f75421"},"vehicle_type_id":"4","last_reported":1751310467,"current_range_meters":0,"station_id":"ce4bgup2rcd13ifvqco0","pricing_plan_id":"cebpf4jnsgd1na2vs0mg"},{"bike_id":"2770c143-b000-416d-b8af-c5c838a1b9a3","system_id":"levelo_inurba_marseille","lat":43.31079,"lon":5.38368,"is_reserved":false,"is_disabled":true,"rental_uris":{"android":"levelo://app?vid=2770c143-b000-416d-b8af-c5c838a1b9a3","ios":"levelo://app?vid=2770c143-b000-416d-b8af-c5c838a1b9a3"},"vehicle_type_id":"4","last_reported":1751310467,"current_range_meters":0,"station_id":"ce4bgv92rcd13ifvqcr0","pricing_plan_id":"cebpf4jnsgd1na2vs0mg"},{"bike_id":"362c9eab-ea9f-4155-8160-0279d1dec716","system_id":"levelo_inurba_marseille","lat":43.29025,"lon":5.38636,"is_reserved":false,"is_disabled":true,"rental_uris":{"android":"levelo://app?vid=362c9eab-ea9f-4155-8160-0279d1dec716","ios":"levelo://app?vid=362c9eab-ea9f-4155-8160-0279d1dec716"},"vehicle_type_id":"4","last_reported":1751310467,"current_range_meters":0,"station_id":"ce4bh4p2rcd13ifvqe0g","pricing_plan_id":"cebpf4jnsgd1na2vs0mg"},{"bike_id":"ad1d092f-cab0-4363-8211-b656c541f212","system_id":"levelo_inurba_marseille","lat":43.24804,"lon":5.37448,"is_reserved":false,"is_disabled":false,"rental_uris":{"android":"levelo://app?vid=ad1d092f-cab0-4363-8211-b656c541f212","ios":"levelo://app?vid=ad1d092f-cab0-4363-8211-b656c541f212"},"vehicle_type_id":"4","last_reported":1751310467,"current_range_meters":0,"station_id":"ce4bhgh2rcd13ifvqfb0","pricing_plan_id":"cebpf4jnsgd1na2vs0mg"},{"bike_id":"82a34138-11f0-4c52-a54f-ebb167db516f","system_id":"levelo_inurba_marseille","lat":43.24164,"lon":5.3639,"is_reserved":false,"is_disabled":true,"rental_uris":{"android":"levelo://app?vid=82a34138-11f0-4c52-a54f-ebb167db516f","ios":"levelo://app?vid=82a34138-11f0-4c52-a54f-ebb167db516f"},"vehicle_type_id":"4","last_reported":1751310467,"current_range_meters":0,"station_id":"cpo36qri1sfpv3e86is0","pricing_plan_id":"cebpf4jnsgd1na2vs0mg"},{"bike_id":"8233db61-1d36-41a5-a985-c98b6a5f0fb4","system_id":"levelo_inurba_marseille","lat":43.21756,"lon":5.34574,"is_reserved":false,"is_disabled":true,"rental_uris":{"android":"levelo://app?vid=8233db61-1d36-41a5-a985-c98b6a5f0fb4","ios":"levelo://app?vid=8233db61-1d36-41a5-a985-c98b6a5f0fb4"},"vehicle_type_id":"4","last_reported":1751310467,"current_range_meters":0,"station_id":"st_cvj6r9ubvosntc0bgbag","pricing_plan_id":"cebpf4jnsgd1na2vs0mg"},{"bike_id":"b8358384-5010-48ab-82ed-9476d2467db2","system_id":"levelo_inurba_marseille","lat":43.21755,"lon":5.34614,"is_reserved":false,"is_disabled":true,"rental_uris":{"android":"levelo://app?vid=b8358384-5010-48ab-82ed-9476d2467db2","ios":"levelo://app?vid=b8358384-5010-48ab-82ed-9476d2467db2"},"vehicle_type_id":"4","last_reported":1751310467,"current_range_meters":0,"station_id":"st_cvj6r9ubvosntc0bgbag","pricing_plan_id":"cebpf4jnsgd1na2vs0mg"},{"bike_id":"85eb80f1-fdf8-4910-9983-416402de22ff","system_id":"levelo_inurba_marseille","lat":43.276951,"lon":5.415436,"is_reserved":false,"is_disabled":true,"rental_uris":{"android":"levelo://app?vid=85eb80f1-fdf8-4910-9983-416402de22ff","ios":"levelo://app?vid=85eb80f1-fdf8-4910-9983-416402de22ff"},"vehicle_type_id":"4","last_reported":1751310467,"current_range_meters":400,"station_id":"","pricing_plan_id":"cebpf4jnsgd1na2vs0mg"},{"bike_id":"4bb4a733-a9bd-4772-9320-a8c7885ff73b","system_id":"levelo_inurba_marseille","lat":43.27766,"lon":5.35511,"is_reserved":false,"is_disabled":true,"rental_uris":{"android":"levelo://app?vid=4bb4a733-a9bd-4772-9320-a8c7885ff73b","ios":"levelo://app?vid=4bb4a733-a9bd-4772-9320-a8c7885ff73b"},"vehicle_type_id":"4","last_reported":1751310467,"current_range_meters":400,"station_id":"","pricing_plan_id":"cebpf4jnsgd1na2vs0mg"},{"bike_id":"1b2a27b4-6eb8-4ba9-8a08-4d3632c04f79","system_id":"levelo_inurba_marseille","lat":43.30148,"lon":5.38078,"is_reserved":false,"is_disabled":true,"rental_uris":{"android":"levelo://app?vid=1b2a27b4-6eb8-4ba9-8a08-4d3632c04f79","ios":"levelo://app?vid=1b2a27b4-6eb8-4ba9-8a08-4d3632c04f79"},"vehicle_type_id":"4","last_reported":1751310467,"current_range_meters":400,"station_id":"ce4bgjp2rcd13ifvqbh0","pricing_plan_id":"cebpf4jnsgd1na2vs0mg"},{"bike_id":"b6e2fde5-1059-4653-99e8-51bf7c652332","system_id":"levelo_inurba_marseille","lat":43.29971,"lon":5.37176,"is_reserved":false,"is_disabled":true,"rental_uris":{"android":"levelo://app?vid=b6e2fde5-1059-4653-99e8-51bf7c652332","ios":"levelo://app?vid=b6e2fde5-1059-4653-99e8-51bf7c652332"},"vehicle_type_id":"4","last_reported":1751310467,"current_range_meters":400,"station_id":"ce4bgr92rcd13ifvqc7g","pricing_plan_id":"cebpf4jnsgd1na2vs0mg"},{"bike_id":"2452f6e5-ff96-4a3b-aaef-c4e3186048c8","system_id":"levelo_inurba_marseille","lat":43.33173,"lon":5.39935,"is_reserved":false,"is_disabled":true,"rental_uris":{"android":"levelo://app?vid=2452f6e5-ff96-4a3b-aaef-c4e3186048c8","ios":"levelo://app?vid=2452f6e5-ff96-4a3b-aaef-c4e3186048c8"},"vehicle_type_id":"4","last_reported":1751310467,"current_range_meters":800,"station_id":"","pricing_plan_id":"cebpf4jnsgd1na2vs0mg"},{"bike_id":"3d6682be-94ea-4c1b-9917-246351f50e13","system_id":"levelo_inurba_marseille","lat":43.30429,"lon":5.39755,"is_reserved":false,"is_disabled":true,"rental_uris":{"android":"levelo://app?vid=3d6682be-94ea-4c1b-9917-246351f50e13","ios":"levelo://app?vid=3d6682be-94ea-4c1b-9917-246351f50e13"},"vehicle_type_id":"4","last_reported":1751310467,"current_range_meters":800,"station_id":"ce4bh092rcd13ifvqd20","pricing_plan_id":"cebpf4jnsgd1na2vs0mg"},{"bike_id":"755c1cb3-b2dc-489d-b34a-f21420794dca","system_id":"levelo_inurba_marseille","lat":43.29258,"lon":5.40909,"is_reserved":false,"is_disabled":false,"rental_uris":{"android":"levelo://app?vid=755c1cb3-b2dc-489d-b34a-f21420794dca","ios":"levelo://app?vid=755c1cb3-b2dc-489d-b34a-f21420794dca"},"vehicle_type_id":"4","last_reported":1751310467,"current_range_meters":800,"station_id":"ce4bh192rcd13ifvqdc0","pricing_plan_id":"cebpf4jnsgd1na2vs0mg"},{"bike_id":"a37e8def-144c-4d8d-aabf-950aca51f939","system_id":"levelo_inurba_marseille","lat":43.297702,"lon":5.38121,"is_reserved":false,"is_disabled":true,"rental_uris":{"android":"levelo://app?vid=a37e8def-144c-4d8d-aabf-950aca51f939","ios":"levelo://app?vid=a37e8def-144c-4d8d-aabf-950aca51f939"},"vehicle_type_id":"4","last_reported":1751310467,"current_range_meters":1200,"station_id":"","pricing_plan_id":"cebpf4jnsgd1na2vs0mg"},{"bike_id":"1d1e6c06-7ccc-4d30-89e4-6a73faaf9f21","system_id":"levelo_inurba_marseille","lat":43.28853,"lon":5.39296,"is_reserved":false,"is_disabled":true,"rental_uris":{"android":"levelo://app?vid=1d1e6c06-7ccc-4d30-89e4-6a73faaf9f21","ios":"levelo://app?vid=1d1e6c06-7ccc-4d30-89e4-6a73faaf9f21"},"vehicle_type_id":"4","last_reported":1751310467,"current_range_meters":1200,"station_id":"ce4bh2p2rcd13ifvqdi0","pricing_plan_id":"cebpf4jnsgd1na2vs0mg"},{"bike_id":"9e163c86-36ef-4269-bcd8-6c9e6f4075a0","system_id":"levelo_inurba_marseille","lat":43.30278,"lon":5.37167,"is_reserved":false,"is_disabled":true,"rental_uris":{"android":"levelo://app?vid=9e163c86-36ef-4269-bcd8-6c9e6f4075a0","ios":"levelo://app?vid=9e163c86-36ef-4269-bcd8-6c9e6f4075a0"},"vehicle_type_id":"4","last_reported":1751310467,"current_range_meters":1600,"station_id":"","pricing_plan_id":"cebpf4jnsgd1na2vs0mg"},{"bike_id":"d5b5bc74-aaeb-40c0-b979-fb1a262527de","system_id":"levelo_inurba_marseille","lat":43.332291,"lon":5.358571,"is_reserved":false,"is_disabled":true,"rental_uris":{"android":"levelo://app?vid=d5b5bc74-aaeb-40c0-b979-fb1a262527de","ios":"levelo://app?vid=d5b5bc74-aaeb-40c0-b979-fb1a262527de"},"vehicle_type_id":"4","last_reported":1751310467,"current_range_meters":2000,"station_id":"","pricing_plan_id":"cebpf4jnsgd1na2vs0mg"},{"bike_id":"77e12d30-d5cd-4e0f-a247-10b3b84cc3c8","system_id":"levelo_inurba_marseille","lat":43.31853,"lon":5.4245,"is_reserved":false,"is_disabled":true,"rental_uris":{"android":"levelo://app?vid=77e12d30-d5cd-4e0f-a247-10b3b84cc3c8","ios":"levelo://app?vid=77e12d30-d5cd-4e0f-a247-10b3b84cc3c8"},"vehicle_type_id":"4","last_reported":1751310467,"current_range_meters":2000,"station_id":"","pricing_plan_id":"cebpf4jnsgd1na2vs0mg"},{"bike_id":"a88e6f8d-cdc9-4dc3-be2d-0915a24e0a8e","system_id":"levelo_inurba_marseille","lat":43.30298,"lon":5.39206,"is_reserved":false,"is_disabled":true,"rental_uris":{"android":"levelo://app?vid=a88e6f8d-cdc9-4dc3-be2d-0915a24e0a8e","ios":"levelo://app?vid=a88e6f8d-cdc9-4dc3-be2d-0915a24e0a8e"},"vehicle_type_id":"4","last_reported":1751310467,"current_range_meters":2000,"station_id":"ce4bgkh2rcd13ifvqbk0","pricing_plan_id":"cebpf4jnsgd1na2vs0mg"},{"bike_id":"75a46964-dd90-4438-99fb-287861fbed36","system_id":"levelo_inurba_marseille","lat":43.22934,"lon":5.35381,"is_reserved":false,"is_disabled":true,"rental_uris":{"android":"levelo://app?vid=75a46964-dd90-4438-99fb-287861fbed36","ios":"levelo://app?vid=75a46964-dd90-4438-99fb-287861fbed36"},"vehicle_type_id":"4","last_reported":1751310467,"current_range_meters":2000,"station_id":"cpo3532slgdg3j2ikp40","pricing_plan_id":"cebpf4jnsgd1na2vs0mg"},{"bike_id":"14d9fd99-9b30-4153-ba8e-87760ef8d31a","system_id":"levelo_inurba_marseille","lat":43.270094,"lon":5.387476,"is_reserved":false,"is_disabled":false,"rental_uris":{"android":"levelo://app?vid=14d9fd99-9b30-4153-ba8e-87760ef8d31a","ios":"levelo://app?vid=14d9fd99-9b30-4153-ba8e-87760ef8d31a"},"vehicle_type_id":"4","last_reported":1751310467,"current_range_meters":2800,"station_id":"","pricing_plan_id":"cebpf4jnsgd1na2vs0mg"},{"bike_id":"797ce32f-e6a8-42bd-8826-44b2b63fbae1","system_id":"levelo_inurba_marseille","lat":43.29842,"lon":5.36267,"is_reserved":false,"is_disabled":false,"rental_uris":{"android":"levelo://app?vid=797ce32f-e6a8-42bd-8826-44b2b63fbae1","ios":"levelo://app?vid=797ce32f-e6a8-42bd-8826-44b2b63fbae1"},"vehicle_type_id":"4","last_reported":1751310467,"current_range_meters":2800,"station_id":"ce4bgpp2rcd13ifvqc3g","pricing_plan_id":"cebpf4jnsgd1na2vs0mg"},{"bike_id":"f95292b5-79bc-423c-a62b-60f2c212247d","system_id":"levelo_inurba_marseille","lat":43.289398,"lon":5.396278,"is_reserved":false,"is_disabled":false,"rental_uris":{"android":"levelo://app?vid=f95292b5-79bc-423c-a62b-60f2c212247d","ios":"levelo://app?vid=f95292b5-79bc-423c-a62b-60f2c212247d"},"vehicle_type_id":"4","last_reported":1751310467,"current_range_meters":2800,"station_id":"ce4bh3h2rcd13ifvqdn0","pricing_plan_id":"cebpf4jnsgd1na2vs0mg"},{"bike_id":"7eaae56b-c514-47e4-9f36-a8b08cd31f9d","system_id":"levelo_inurba_marseille","lat":43.25504,"lon":5.3765,"is_reserved":false,"is_disabled":false,"rental_uris":{"android":"levelo://app?vid=7eaae56b-c514-47e4-9f36-a8b08cd31f9d","ios":"levelo://app?vid=7eaae56b-c514-47e4-9f36-a8b08cd31f9d"},"vehicle_type_id":"4","last_reported":1751310467,"current_range_meters":2800,"station_id":"ce4bhh12rcd13ifvqff0","pricing_plan_id":"cebpf4jnsgd1na2vs0mg"},{"bike_id":"547af7d0-c304-4f9e-be63-5b6d09761f91","system_id":"levelo_inurba_marseille","lat":43.23066,"lon":5.35489,"is_reserved":false,"is_disabled":false,"rental_uris":{"android":"levelo://app?vid=547af7d0-c304-4f9e-be63-5b6d09761f91","ios":"levelo://app?vid=547af7d0-c304-4f9e-be63-5b6d09761f91"},"vehicle_type_id":"4","last_reported":1751310467,"current_range_meters":2800,"station_id":"cpo3342slgdg3j2ifvpg","pricing_plan_id":"cebpf4jnsgd1na2vs0mg"},{"bike_id":"721165c1-ef6f-40cc-8d33-af3a7999864b","system_id":"levelo_inurba_marseille","lat":43.32611,"lon":5.37876,"is_reserved":false,"is_disabled":false,"rental_uris":{"android":"levelo://app?vid=721165c1-ef6f-40cc-8d33-af3a7999864b","ios":"levelo://app?vid=721165c1-ef6f-40cc-8d33-af3a7999864b"},"vehicle_type_id":"4","last_reported":1751310467,"current_range_meters":3200,"station_id":"","pricing_plan_id":"cebpf4jnsgd1na2vs0mg"},{"bike_id":"bdb4caea-cd83-43cc-a9d1-8c3f8afa0973","system_id":"levelo_inurba_marseille","lat":43.29281,"lon":5.40116,"is_reserved":false,"is_disabled":false,"rental_uris":{"android":"levelo://app?vid=bdb4caea-cd83-43cc-a9d1-8c3f8afa0973","ios":"levelo://app?vid=bdb4caea-cd83-43cc-a9d1-8c3f8afa0973"},"vehicle_type_id":"4","last_reported":1751310467,"current_range_meters":3200,"station_id":"ce4bh312rcd13ifvqdk0","pricing_plan_id":"cebpf4jnsgd1na2vs0mg"},{"bike_id":"48636750-dd58-4456-b9ea-064b8723d9df","system_id":"levelo_inurba_marseille","lat":43.28674,"lon":5.38666,"is_reserved":false,"is_disabled":true,"rental_uris":{"android":"levelo://app?vid=48636750-dd58-4456-b9ea-064b8723d9df","ios":"levelo://app?vid=48636750-dd58-4456-b9ea-064b8723d9df"},"vehicle_type_id":"4","last_reported":1751310467,"current_range_meters":3200,"station_id":"ce4bh492rcd13ifvqdug","pricing_plan_id":"cebpf4jnsgd1na2vs0mg"},{"bike_id":"34c8a7fa-6a4e-4bef-90d2-231387a9b071","system_id":"levelo_inurba_marseille","lat":43.285206,"lon":5.383777,"is_reserved":false,"is_disabled":false,"rental_uris":{"android":"levelo://app?vid=34c8a7fa-6a4e-4bef-90d2-231387a9b071","ios":"levelo://app?vid=34c8a7fa-6a4e-4bef-90d2-231387a9b071"},"vehicle_type_id":"4","last_reported":1751310467,"current_range_meters":3200,"station_id":"ce4bh512rcd13ifvqe3g","pricing_plan_id":"cebpf4jnsgd1na2vs0mg"},{"bike_id":"b933e5fd-bf6d-4ed2-a6c9-33447938360a","system_id":"levelo_inurba_marseille","lat":43.284815,"lon":5.38566,"is_reserved":false,"is_disabled":false,"rental_uris":{"android":"levelo://app?vid=b933e5fd-bf6d-4ed2-a6c9-33447938360a","ios":"levelo://app?vid=b933e5fd-bf6d-4ed2-a6c9-33447938360a"},"vehicle_type_id":"4","last_reported":1751310467,"current_range_meters":3200,"station_id":"ce4bh8p2rcd13ifvqeb0","pricing_plan_id":"cebpf4jnsgd1na2vs0mg"},{"bike_id":"4bd9735b-a9d9-4089-932f-bdf2efa7c428","system_id":"levelo_inurba_marseille","lat":43.2827,"lon":5.35057,"is_reserved":false,"is_disabled":false,"rental_uris":{"android":"levelo://app?vid=4bd9735b-a9d9-4089-932f-bdf2efa7c428","ios":"levelo://app?vid=4bd9735b-a9d9-4089-932f-bdf2efa7c428"},"vehicle_type_id":"4","last_reported":1751310467,"current_range_meters":3200,"station_id":"ce4bhbp2rcd13ifvqerg","pricing_plan_id":"cebpf4jnsgd1na2vs0mg"},{"bike_id":"0284199e-e5b8-46b2-bf2b-504af3d6a421","system_id":"levelo_inurba_marseille","lat":43.29794,"lon":5.39337,"is_reserved":false,"is_disabled":false,"rental_uris":{"android":"levelo://app?vid=0284199e-e5b8-46b2-bf2b-504af3d6a421","ios":"levelo://app?vid=0284199e-e5b8-46b2-bf2b-504af3d6a421"},"vehicle_type_id":"4","last_reported":1751310467,"current_range_meters":3200,"station_id":"chh1huq6cuj3fo74tm60","pricing_plan_id":"cebpf4jnsgd1na2vs0mg"},{"bike_id":"67dab31a-7a34-4d0b-a2ba-af3e5892eada","system_id":"levelo_inurba_marseille","lat":43.29527,"lon":5.38545,"is_reserved":false,"is_disabled":false,"rental_uris":{"android":"levelo://app?vid=67dab31a-7a34-4d0b-a2ba-af3e5892eada","ios":"levelo://app?vid=67dab31a-7a34-4d0b-a2ba-af3e5892eada"},"vehicle_type_id":"4","last_reported":1751310467,"current_range_meters":3600,"station_id":"ce4bgih2rcd13ifvqba0","pricing_plan_id":"cebpf4jnsgd1na2vs0mg"},{"bike_id":"0b120ce6-60b1-462c-81ef-246c7688b2f0","system_id":"levelo_inurba_marseille","lat":43.30944,"lon":5.39032,"is_reserved":false,"is_disabled":false,"rental_uris":{"android":"levelo://app?vid=0b120ce6-60b1-462c-81ef-246c7688b2f0","ios":"levelo://app?vid=0b120ce6-60b1-462c-81ef-246c7688b2f0"},"vehicle_type_id":"4","last_reported":1751310467,"current_range_meters":3600,"station_id":"ce4bgup2rcd13ifvqco0","pricing_plan_id":"cebpf4jnsgd1na2vs0mg"},{"bike_id":"3b0421ea-80a1-48c9-b750-5aa6df415566","system_id":"levelo_inurba_marseille","lat":43.30591,"lon":5.39356,"is_reserved":false,"is_disabled":false,"rental_uris":{"android":"levelo://app?vid=3b0421ea-80a1-48c9-b750-5aa6df415566","ios":"levelo://app?vid=3b0421ea-80a1-48c9-b750-5aa6df415566"},"vehicle_type_id":"4","last_reported":1751310467,"current_range_meters":3600,"station_id":"ce4bh0p2rcd13ifvqd80","pricing_plan_id":"cebpf4jnsgd1na2vs0mg"},{"bike_id":"1b8d5107-16f1-4131-ad94-a917866f4a44","system_id":"levelo_inurba_marseille","lat":43.28476,"lon":5.38404,"is_reserved":false,"is_disabled":false,"rental_uris":{"android":"levelo://app?vid=1b8d5107-16f1-4131-ad94-a917866f4a44","ios":"levelo://app?vid=1b8d5107-16f1-4131-ad94-a917866f4a44"},"vehicle_type_id":"4","last_reported":1751310467,"current_range_meters":3600,"station_id":"ce4bh512rcd13ifvqe3g","pricing_plan_id":"cebpf4jnsgd1na2vs0mg"},{"bike_id":"c87e26db-ffe1-4d14-b60f-1d887590fcb3","system_id":"levelo_inurba_marseille","lat":43.27378,"lon":5.36263,"is_reserved":false,"is_disabled":false,"rental_uris":{"android":"levelo://app?vid=c87e26db-ffe1-4d14-b60f-1d887590fcb3","ios":"levelo://app?vid=c87e26db-ffe1-4d14-b60f-1d887590fcb3"},"vehicle_type_id":"4","last_reported":1751310467,"current_range_meters":3600,"station_id":"ce4bhbh2rcd13ifvqeo0","pricing_plan_id":"cebpf4jnsgd1na2vs0mg"},{"bike_id":"56c80920-81c9-4e78-97c0-60e96c60692a","system_id":"levelo_inurba_marseille","lat":43.29782,"lon":5.39342,"is_reserved":false,"is_disabled":false,"rental_uris":{"android":"levelo://app?vid=56c80920-81c9-4e78-97c0-60e96c60692a","ios":"levelo://app?vid=56c80920-81c9-4e78-97c0-60e96c60692a"},"vehicle_type_id":"4","last_reported":1751310467,"current_range_meters":3600,"station_id":"chh1huq6cuj3fo74tm60","pricing_plan_id":"cebpf4jnsgd1na2vs0mg"},{"bike_id":"87985e62-2823-4157-8a35-599ee9a377ab","system_id":"levelo_inurba_marseille","lat":43.212115,"lon":5.35059,"is_reserved":false,"is_disabled":false,"rental_uris":{"android":"levelo://app?vid=87985e62-2823-4157-8a35-599ee9a377ab","ios":"levelo://app?vid=87985e62-2823-4157-8a35-599ee9a377ab"},"vehicle_type_id":"4","last_reported":1751310467,"current_range_meters":3600,"station_id":"st_cvj6sg6p6f1abm77japg","pricing_plan_id":"cebpf4jnsgd1na2vs0mg"},{"bike_id":"50ba25f4-1e29-4641-a26e-edd57bc110a0","system_id":"levelo_inurba_marseille","lat":43.30212,"lon":5.39453,"is_reserved":false,"is_disabled":false,"rental_uris":{"android":"levelo://app?vid=50ba25f4-1e29-4641-a26e-edd57bc110a0","ios":"levelo://app?vid=50ba25f4-1e29-4641-a26e-edd57bc110a0"},"vehicle_type_id":"4","last_reported":1751310467,"current_range_meters":4000,"station_id":"ce4bh0p2rcd13ifvqd70","pricing_plan_id":"cebpf4jnsgd1na2vs0mg"},{"bike_id":"a6862ed5-a67d-4152-a400-bb2f63a144f7","system_id":"levelo_inurba_marseille","lat":43.30414,"lon":5.41287,"is_reserved":false,"is_disabled":false,"rental_uris":{"android":"levelo://app?vid=a6862ed5-a67d-4152-a400-bb2f63a144f7","ios":"levelo://app?vid=a6862ed5-a67d-4152-a400-bb2f63a144f7"},"vehicle_type_id":"4","last_reported":1751310467,"current_range_meters":4000,"station_id":"ce4bhop2rcd13ifvqh8g","pricing_plan_id":"cebpf4jnsgd1na2vs0mg"},{"bike_id":"1f0dd1c2-9a95-41db-bc5b-2d01eb651e6b","system_id":"levelo_inurba_marseille","lat":43.30433,"lon":5.38895,"is_reserved":false,"is_disabled":false,"rental_uris":{"android":"levelo://app?vid=1f0dd1c2-9a95-41db-bc5b-2d01eb651e6b","ios":"levelo://app?vid=1f0dd1c2-9a95-41db-bc5b-2d01eb651e6b"},"vehicle_type_id":"4","last_reported":1751310467,"current_range_meters":4400,"station_id":"ce4bgk12rcd13ifvqbi0","pricing_plan_id":"cebpf4jnsgd1na2vs0mg"},{"bike_id":"85c42f13-cf0e-42a9-bf1f-e9541dd64d8c","system_id":"levelo_inurba_marseille","lat":43.31165,"lon":5.38716,"is_reserved":false,"is_disabled":false,"rental_uris":{"android":"levelo://app?vid=85c42f13-cf0e-42a9-bf1f-e9541dd64d8c","ios":"levelo://app?vid=85c42f13-cf0e-42a9-bf1f-e9541dd64d8c"},"vehicle_type_id":"4","last_reported":1751310467,"current_range_meters":4400,"station_id":"ce4bgv12rcd13ifvqcp0","pricing_plan_id":"cebpf4jnsgd1na2vs0mg"},{"bike_id":"fbf92401-aea8-4261-a06f-188566a74b5b","system_id":"levelo_inurba_marseille","lat":43.31083,"lon":5.38335,"is_reserved":false,"is_disabled":false,"rental_uris":{"android":"levelo://app?vid=fbf92401-aea8-4261-a06f-188566a74b5b","ios":"levelo://app?vid=fbf92401-aea8-4261-a06f-188566a74b5b"},"vehicle_type_id":"4","last_reported":1751310467,"current_range_meters":4800,"station_id":"ce4bgv92rcd13ifvqcr0","pricing_plan_id":"cebpf4jnsgd1na2vs0mg"},{"bike_id":"3abcac43-4aad-4493-b424-66ee8653d3ca","system_id":"levelo_inurba_marseille","lat":43.29862,"lon":5.39726,"is_reserved":false,"is_disabled":false,"rental_uris":{"android":"levelo://app?vid=3abcac43-4aad-4493-b424-66ee8653d3ca","ios":"levelo://app?vid=3abcac43-4aad-4493-b424-66ee8653d3ca"},"vehicle_type_id":"4","last_reported":1751310467,"current_range_meters":4800,"station_id":"ce4bh0h2rcd13ifvqd50","pricing_plan_id":"cebpf4jnsgd1na2vs0mg"},{"bike_id":"40e9d9fa-caf7-4995-bf74-f47c956b0cce","system_id":"levelo_inurba_marseille","lat":43.30438,"lon":5.389,"is_reserved":false,"is_disabled":false,"rental_uris":{"android":"levelo://app?vid=40e9d9fa-caf7-4995-bf74-f47c956b0cce","ios":"levelo://app?vid=40e9d9fa-caf7-4995-bf74-f47c956b0cce"},"vehicle_type_id":"4","last_reported":1751310467,"current_range_meters":5600,"station_id":"ce4bgk12rcd13ifvqbi0","pricing_plan_id":"cebpf4jnsgd1na2vs0mg"},{"bike_id":"ad6273c9-e6cb-4e2d-ab4a-1dd212c44a50","system_id":"levelo_inurba_marseille","lat":43.287,"lon":5.37387,"is_reserved":false,"is_disabled":false,"rental_uris":{"android":"levelo://app?vid=ad6273c9-e6cb-4e2d-ab4a-1dd212c44a50","ios":"levelo://app?vid=ad6273c9-e6cb-4e2d-ab4a-1dd212c44a50"},"vehicle_type_id":"4","last_reported":1751310467,"current_range_meters":5600,"station_id":"ce4bh3p2rcd13ifvqdq0","pricing_plan_id":"cebpf4jnsgd1na2vs0mg"},{"bike_id":"34ea698b-7276-4608-8bcc-3c3b244d0a60","system_id":"levelo_inurba_marseille","lat":43.29002,"lon":5.35608,"is_reserved":false,"is_disabled":false,"rental_uris":{"android":"levelo://app?vid=34ea698b-7276-4608-8bcc-3c3b244d0a60","ios":"levelo://app?vid=34ea698b-7276-4608-8bcc-3c3b244d0a60"},"vehicle_type_id":"4","last_reported":1751310467,"current_range_meters":5600,"station_id":"ce4bhb92rcd13ifvqen0","pricing_plan_id":"cebpf4jnsgd1na2vs0mg"},{"bike_id":"59cf89b0-431b-4322-8e6b-d72cd3150ba7","system_id":"levelo_inurba_marseille","lat":43.23961,"lon":5.3663,"is_reserved":false,"is_disabled":false,"rental_uris":{"android":"levelo://app?vid=59cf89b0-431b-4322-8e6b-d72cd3150ba7","ios":"levelo://app?vid=59cf89b0-431b-4322-8e6b-d72cd3150ba7"},"vehicle_type_id":"4","last_reported":1751310467,"current_range_meters":5600,"station_id":"ce4bhi12rcd13ifvqfp0","pricing_plan_id":"cebpf4jnsgd1na2vs0mg"},{"bike_id":"31e3c6bd-da6c-4729-9976-572ef7aea106","system_id":"levelo_inurba_marseille","lat":43.307971,"lon":5.435324,"is_reserved":false,"is_disabled":false,"rental_uris":{"android":"levelo://app?vid=31e3c6bd-da6c-4729-9976-572ef7aea106","ios":"levelo://app?vid=31e3c6bd-da6c-4729-9976-572ef7aea106"},"vehicle_type_id":"4","last_reported":1751310467,"current_range_meters":5600,"station_id":"ce4bhph2rcd13ifvqheg","pricing_plan_id":"cebpf4jnsgd1na2vs0mg"},{"bike_id":"7b28ebac-3c6a-43aa-aca9-7bd954b07205","system_id":"levelo_inurba_marseille","lat":43.29639,"lon":5.37933,"is_reserved":false,"is_disabled":false,"rental_uris":{"android":"levelo://app?vid=7b28ebac-3c6a-43aa-aca9-7bd954b07205","ios":"levelo://app?vid=7b28ebac-3c6a-43aa-aca9-7bd954b07205"},"vehicle_type_id":"4","last_reported":1751310467,"current_range_meters":6400,"station_id":"","pricing_plan_id":"cebpf4jnsgd1na2vs0mg"},{"bike_id":"5d402c2a-36c8-40fb-92af-70c932f5b02a","system_id":"levelo_inurba_marseille","lat":43.28679,"lon":5.38653,"is_reserved":false,"is_disabled":false,"rental_uris":{"android":"levelo://app?vid=5d402c2a-36c8-40fb-92af-70c932f5b02a","ios":"levelo://app?vid=5d402c2a-36c8-40fb-92af-70c932f5b02a"},"vehicle_type_id":"4","last_reported":1751310467,"current_range_meters":6400,"station_id":"ce4bh492rcd13ifvqdug","pricing_plan_id":"cebpf4jnsgd1na2vs0mg"},{"bike_id":"cbe8cf16-ee4d-44dc-af26-2dea0d93d494","system_id":"levelo_inurba_marseille","lat":43.337444,"lon":5.374475,"is_reserved":false,"is_disabled":false,"rental_uris":{"android":"levelo://app?vid=cbe8cf16-ee4d-44dc-af26-2dea0d93d494","ios":"levelo://app?vid=cbe8cf16-ee4d-44dc-af26-2dea0d93d494"},"vehicle_type_id":"4","last_reported":1751310467,"current_range_meters":6800,"station_id":"","pricing_plan_id":"cebpf4jnsgd1na2vs0mg"},{"bike_id":"963aa6c4-94db-4e59-98db-4c878cf835e3","system_id":"levelo_inurba_marseille","lat":43.28716,"lon":5.37931,"is_reserved":false,"is_disabled":false,"rental_uris":{"android":"levelo://app?vid=963aa6c4-94db-4e59-98db-4c878cf835e3","ios":"levelo://app?vid=963aa6c4-94db-4e59-98db-4c878cf835e3"},"vehicle_type_id":"4","last_reported":1751310467,"current_range_meters":6800,"station_id":"ce4bh9p2rcd13ifvqec0","pricing_plan_id":"cebpf4jnsgd1na2vs0mg"},{"bike_id":"bb9dd9c7-ad59-4a74-8644-e9b78fd605d0","system_id":"levelo_inurba_marseille","lat":43.28617,"lon":5.35096,"is_reserved":false,"is_disabled":false,"rental_uris":{"android":"levelo://app?vid=bb9dd9c7-ad59-4a74-8644-e9b78fd605d0","ios":"levelo://app?vid=bb9dd9c7-ad59-4a74-8644-e9b78fd605d0"},"vehicle_type_id":"4","last_reported":1751310467,"current_range_meters":6800,"station_id":"ce4bhch2rcd13ifvqeug","pricing_plan_id":"cebpf4jnsgd1na2vs0mg"},{"bike_id":"9fc6b39a-5532-40ac-8f58-975bced56a19","system_id":"levelo_inurba_marseille","lat":43.325802,"lon":5.40463,"is_reserved":false,"is_disabled":false,"rental_uris":{"android":"levelo://app?vid=9fc6b39a-5532-40ac-8f58-975bced56a19","ios":"levelo://app?vid=9fc6b39a-5532-40ac-8f58-975bced56a19"},"vehicle_type_id":"4","last_reported":1751310467,"current_range_meters":7200,"station_id":"","pricing_plan_id":"cebpf4jnsgd1na2vs0mg"},{"bike_id":"d308c658-b19c-49c0-8014-5506ff26f69a","system_id":"levelo_inurba_marseille","lat":43.23212,"lon":5.40449,"is_reserved":false,"is_disabled":false,"rental_uris":{"android":"levelo://app?vid=d308c658-b19c-49c0-8014-5506ff26f69a","ios":"levelo://app?vid=d308c658-b19c-49c0-8014-5506ff26f69a"},"vehicle_type_id":"4","last_reported":1751310467,"current_range_meters":7200,"station_id":"","pricing_plan_id":"cebpf4jnsgd1na2vs0mg"},{"bike_id":"b9132d82-147a-440d-be19-7aa8ace06ec8","system_id":"levelo_inurba_marseille","lat":43.286987,"lon":5.37371,"is_reserved":false,"is_disabled":false,"rental_uris":{"android":"levelo://app?vid=b9132d82-147a-440d-be19-7aa8ace06ec8","ios":"levelo://app?vid=b9132d82-147a-440d-be19-7aa8ace06ec8"},"vehicle_type_id":"4","last_reported":1751310467,"current_range_meters":7200,"station_id":"ce4bh3p2rcd13ifvqdq0","pricing_plan_id":"cebpf4jnsgd1na2vs0mg"},{"bike_id":"90f5841f-8a61-4f04-86cd-7c899afe33ed","system_id":"levelo_inurba_marseille","lat":43.27427,"lon":5.39413,"is_reserved":false,"is_disabled":false,"rental_uris":{"android":"levelo://app?vid=90f5841f-8a61-4f04-86cd-7c899afe33ed","ios":"levelo://app?vid=90f5841f-8a61-4f04-86cd-7c899afe33ed"},"vehicle_type_id":"4","last_reported":1751310467,"current_range_meters":7200,"station_id":"ce4bhdp2rcd13ifvqf20","pricing_plan_id":"cebpf4jnsgd1na2vs0mg"},{"bike_id":"6fc407d8-af85-43e8-9eb1-5b3b86d7ec7b","system_id":"levelo_inurba_marseille","lat":43.24649,"lon":5.38891,"is_reserved":false,"is_disabled":false,"rental_uris":{"android":"levelo://app?vid=6fc407d8-af85-43e8-9eb1-5b3b86d7ec7b","ios":"levelo://app?vid=6fc407d8-af85-43e8-9eb1-5b3b86d7ec7b"},"vehicle_type_id":"4","last_reported":1751310467,"current_range_meters":7200,"station_id":"ce4bhg12rcd13ifvqf60","pricing_plan_id":"cebpf4jnsgd1na2vs0mg"},{"bike_id":"2dab8b45-9c91-4a79-9e61-ccc54c88a13d","system_id":"levelo_inurba_marseille","lat":43.29717,"lon":5.37683,"is_reserved":false,"is_disabled":false,"rental_uris":{"android":"levelo://app?vid=2dab8b45-9c91-4a79-9e61-ccc54c88a13d","ios":"levelo://app?vid=2dab8b45-9c91-4a79-9e61-ccc54c88a13d"},"vehicle_type_id":"4","last_reported":1751310467,"current_range_meters":8000,"station_id":"ce4bgkh2rcd13ifvqbl0","pricing_plan_id":"cebpf4jnsgd1na2vs0mg"},{"bike_id":"120036e1-945c-4ddf-ba61-047361af53a6","system_id":"levelo_inurba_marseille","lat":43.21237,"lon":5.35074,"is_reserved":false,"is_disabled":false,"rental_uris":{"android":"levelo://app?vid=120036e1-945c-4ddf-ba61-047361af53a6","ios":"levelo://app?vid=120036e1-945c-4ddf-ba61-047361af53a6"},"vehicle_type_id":"4","last_reported":1751310467,"current_range_meters":8400,"station_id":"","pricing_plan_id":"cebpf4jnsgd1na2vs0mg"},{"bike_id":"c595d0e1-c778-4abe-9c79-a9dd74f54e27","system_id":"levelo_inurba_marseille","lat":43.24463,"lon":5.37217,"is_reserved":false,"is_disabled":false,"rental_uris":{"android":"levelo://app?vid=c595d0e1-c778-4abe-9c79-a9dd74f54e27","ios":"levelo://app?vid=c595d0e1-c778-4abe-9c79-a9dd74f54e27"},"vehicle_type_id":"4","last_reported":1751310467,"current_range_meters":8400,"station_id":"","pricing_plan_id":"cebpf4jnsgd1na2vs0mg"},{"bike_id":"3035be0e-7c3d-4f7d-a1cb-7a1af59e497b","system_id":"levelo_inurba_marseille","lat":43.29658,"lon":5.35987,"is_reserved":false,"is_disabled":false,"rental_uris":{"android":"levelo://app?vid=3035be0e-7c3d-4f7d-a1cb-7a1af59e497b","ios":"levelo://app?vid=3035be0e-7c3d-4f7d-a1cb-7a1af59e497b"},"vehicle_type_id":"4","last_reported":1751310467,"current_range_meters":8400,"station_id":"","pricing_plan_id":"cebpf4jnsgd1na2vs0mg"},{"bike_id":"2d8cdba8-b87d-4f02-95e0-8c5d06176402","system_id":"levelo_inurba_marseille","lat":43.28259,"lon":5.35066,"is_reserved":false,"is_disabled":false,"rental_uris":{"android":"levelo://app?vid=2d8cdba8-b87d-4f02-95e0-8c5d06176402","ios":"levelo://app?vid=2d8cdba8-b87d-4f02-95e0-8c5d06176402"},"vehicle_type_id":"4","last_reported":1751310467,"current_range_meters":8400,"station_id":"ce4bhbp2rcd13ifvqerg","pricing_plan_id":"cebpf4jnsgd1na2vs0mg"},{"bike_id":"59a074fc-769e-4d5d-a6d4-002d8e573dd6","system_id":"levelo_inurba_marseille","lat":43.212,"lon":5.35068,"is_reserved":false,"is_disabled":false,"rental_uris":{"android":"levelo://app?vid=59a074fc-769e-4d5d-a6d4-002d8e573dd6","ios":"levelo://app?vid=59a074fc-769e-4d5d-a6d4-002d8e573dd6"},"vehicle_type_id":"4","last_reported":1751310467,"current_range_meters":8400,"station_id":"st_cvj6sg6p6f1abm77japg","pricing_plan_id":"cebpf4jnsgd1na2vs0mg"},{"bike_id":"05d3d448-235e-4ac7-88df-050f15d5a616","system_id":"levelo_inurba_marseille","lat":43.27919,"lon":5.42222,"is_reserved":false,"is_disabled":false,"rental_uris":{"android":"levelo://app?vid=05d3d448-235e-4ac7-88df-050f15d5a616","ios":"levelo://app?vid=05d3d448-235e-4ac7-88df-050f15d5a616"},"vehicle_type_id":"4","last_reported":1751310467,"current_range_meters":8800,"station_id":"","pricing_plan_id":"cebpf4jnsgd1na2vs0mg"},{"bike_id":"39ba2af5-3e42-462b-9844-1e0c19624900","system_id":"levelo_inurba_marseille","lat":43.213994,"lon":5.349475,"is_reserved":false,"is_disabled":false,"rental_uris":{"android":"levelo://app?vid=39ba2af5-3e42-462b-9844-1e0c19624900","ios":"levelo://app?vid=39ba2af5-3e42-462b-9844-1e0c19624900"},"vehicle_type_id":"4","last_reported":1751310467,"current_range_meters":8800,"station_id":"","pricing_plan_id":"cebpf4jnsgd1na2vs0mg"},{"bike_id":"9cdd1433-33b6-4c63-b658-a9bff1ea98dc","system_id":"levelo_inurba_marseille","lat":43.29304,"lon":5.37179,"is_reserved":false,"is_disabled":false,"rental_uris":{"android":"levelo://app?vid=9cdd1433-33b6-4c63-b658-a9bff1ea98dc","ios":"levelo://app?vid=9cdd1433-33b6-4c63-b658-a9bff1ea98dc"},"vehicle_type_id":"4","last_reported":1751310467,"current_range_meters":8800,"station_id":"ce4bgh92rcd13ifvqb40","pricing_plan_id":"cebpf4jnsgd1na2vs0mg"},{"bike_id":"64fe8169-a891-4d77-a29f-3dfcafc7c923","system_id":"levelo_inurba_marseille","lat":43.24997,"lon":5.3893,"is_reserved":false,"is_disabled":false,"rental_uris":{"android":"levelo://app?vid=64fe8169-a891-4d77-a29f-3dfcafc7c923","ios":"levelo://app?vid=64fe8169-a891-4d77-a29f-3dfcafc7c923"},"vehicle_type_id":"4","last_reported":1751310467,"current_range_meters":8800,"station_id":"ce4bhgp2rcd13ifvqfd0","pricing_plan_id":"cebpf4jnsgd1na2vs0mg"},{"bike_id":"dc94bced-8633-4f4a-9928-94fb5555744c","system_id":"levelo_inurba_marseille","lat":43.24387,"lon":5.37031,"is_reserved":false,"is_disabled":false,"rental_uris":{"android":"levelo://app?vid=dc94bced-8633-4f4a-9928-94fb5555744c","ios":"levelo://app?vid=dc94bced-8633-4f4a-9928-94fb5555744c"},"vehicle_type_id":"4","last_reported":1751310467,"current_range_meters":8800,"station_id":"ce4bhhh2rcd13ifvqfk0","pricing_plan_id":"cebpf4jnsgd1na2vs0mg"},{"bike_id":"8c17d133-39c7-4917-9f1e-5dea3f8e59e6","system_id":"levelo_inurba_marseille","lat":43.2119,"lon":5.35065,"is_reserved":false,"is_disabled":false,"rental_uris":{"android":"levelo://app?vid=8c17d133-39c7-4917-9f1e-5dea3f8e59e6","ios":"levelo://app?vid=8c17d133-39c7-4917-9f1e-5dea3f8e59e6"},"vehicle_type_id":"4","last_reported":1751310467,"current_range_meters":8800,"station_id":"st_cvj6sg6p6f1abm77japg","pricing_plan_id":"cebpf4jnsgd1na2vs0mg"},{"bike_id":"8fd6277b-336f-4633-8dff-939b932e2fd2","system_id":"levelo_inurba_marseille","lat":43.30882,"lon":5.39651,"is_reserved":false,"is_disabled":false,"rental_uris":{"android":"levelo://app?vid=8fd6277b-336f-4633-8dff-939b932e2fd2","ios":"levelo://app?vid=8fd6277b-336f-4633-8dff-939b932e2fd2"},"vehicle_type_id":"4","last_reported":1751310467,"current_range_meters":9200,"station_id":"ce4bh012rcd13ifvqcv0","pricing_plan_id":"cebpf4jnsgd1na2vs0mg"},{"bike_id":"d04ebb7b-386e-4d00-8fd9-c4126b7c64e3","system_id":"levelo_inurba_marseille","lat":43.31889,"lon":5.40714,"is_reserved":false,"is_disabled":false,"rental_uris":{"android":"levelo://app?vid=d04ebb7b-386e-4d00-8fd9-c4126b7c64e3","ios":"levelo://app?vid=d04ebb7b-386e-4d00-8fd9-c4126b7c64e3"},"vehicle_type_id":"4","last_reported":1751310467,"current_range_meters":9200,"station_id":"ce4bhq12rcd13ifvqhig","pricing_plan_id":"cebpf4jnsgd1na2vs0mg"},{"bike_id":"7d2ebbac-d26c-416a-b58e-5e3abed80858","system_id":"levelo_inurba_marseille","lat":43.21202,"lon":5.35054,"is_reserved":false,"is_disabled":false,"rental_uris":{"android":"levelo://app?vid=7d2ebbac-d26c-416a-b58e-5e3abed80858","ios":"levelo://app?vid=7d2ebbac-d26c-416a-b58e-5e3abed80858"},"vehicle_type_id":"4","last_reported":1751310467,"current_range_meters":9200,"station_id":"st_cvj6sg6p6f1abm77japg","pricing_plan_id":"cebpf4jnsgd1na2vs0mg"},{"bike_id":"6ae7ad13-5d13-4431-81e9-492d5fdbfd8c","system_id":"levelo_inurba_marseille","lat":43.27372,"lon":5.36258,"is_reserved":false,"is_disabled":false,"rental_uris":{"android":"levelo://app?vid=6ae7ad13-5d13-4431-81e9-492d5fdbfd8c","ios":"levelo://app?vid=6ae7ad13-5d13-4431-81e9-492d5fdbfd8c"},"vehicle_type_id":"4","last_reported":1751310467,"current_range_meters":9600,"station_id":"ce4bhbh2rcd13ifvqeo0","pricing_plan_id":"cebpf4jnsgd1na2vs0mg"},{"bike_id":"85209fa6-3fa7-4a50-8848-d5e39e2f8864","system_id":"levelo_inurba_marseille","lat":43.28617,"lon":5.351,"is_reserved":false,"is_disabled":false,"rental_uris":{"android":"levelo://app?vid=85209fa6-3fa7-4a50-8848-d5e39e2f8864","ios":"levelo://app?vid=85209fa6-3fa7-4a50-8848-d5e39e2f8864"},"vehicle_type_id":"4","last_reported":1751310467,"current_range_meters":9600,"station_id":"ce4bhch2rcd13ifvqeug","pricing_plan_id":"cebpf4jnsgd1na2vs0mg"},{"bike_id":"6b6a646f-e1ae-4138-9055-a2e578c870cb","system_id":"levelo_inurba_marseille","lat":43.21766,"lon":5.3458,"is_reserved":false,"is_disabled":false,"rental_uris":{"android":"levelo://app?vid=6b6a646f-e1ae-4138-9055-a2e578c870cb","ios":"levelo://app?vid=6b6a646f-e1ae-4138-9055-a2e578c870cb"},"vehicle_type_id":"4","last_reported":1751310467,"current_range_meters":9600,"station_id":"st_cvj6r9ubvosntc0bgbag","pricing_plan_id":"cebpf4jnsgd1na2vs0mg"},{"bike_id":"7cd73daf-6410-4b72-a872-e5224e9d29ff","system_id":"levelo_inurba_marseille","lat":43.274113,"lon":5.411599,"is_reserved":false,"is_disabled":false,"rental_uris":{"android":"levelo://app?vid=7cd73daf-6410-4b72-a872-e5224e9d29ff","ios":"levelo://app?vid=7cd73daf-6410-4b72-a872-e5224e9d29ff"},"vehicle_type_id":"4","last_reported":1751310467,"current_range_meters":10000,"station_id":"","pricing_plan_id":"cebpf4jnsgd1na2vs0mg"},{"bike_id":"6b72d8e3-8ad6-456b-9ba7-e5a5b359c870","system_id":"levelo_inurba_marseille","lat":43.31341,"lon":5.38407,"is_reserved":false,"is_disabled":false,"rental_uris":{"android":"levelo://app?vid=6b72d8e3-8ad6-456b-9ba7-e5a5b359c870","ios":"levelo://app?vid=6b72d8e3-8ad6-456b-9ba7-e5a5b359c870"},"vehicle_type_id":"4","last_reported":1751310467,"current_range_meters":10000,"station_id":"","pricing_plan_id":"cebpf4jnsgd1na2vs0mg"},{"bike_id":"b05ac08d-847b-4f20-ac36-038a0d69d167","system_id":"levelo_inurba_marseille","lat":43.281337,"lon":5.358704,"is_reserved":false,"is_disabled":false,"rental_uris":{"android":"levelo://app?vid=b05ac08d-847b-4f20-ac36-038a0d69d167","ios":"levelo://app?vid=b05ac08d-847b-4f20-ac36-038a0d69d167"},"vehicle_type_id":"4","last_reported":1751310467,"current_range_meters":10000,"station_id":"","pricing_plan_id":"cebpf4jnsgd1na2vs0mg"},{"bike_id":"aa1af3b6-6797-42c8-99b2-1fda3dda67fb","system_id":"levelo_inurba_marseille","lat":43.30465,"lon":5.37914,"is_reserved":false,"is_disabled":false,"rental_uris":{"android":"levelo://app?vid=aa1af3b6-6797-42c8-99b2-1fda3dda67fb","ios":"levelo://app?vid=aa1af3b6-6797-42c8-99b2-1fda3dda67fb"},"vehicle_type_id":"4","last_reported":1751310467,"current_range_meters":10000,"station_id":"ce4bgup2rcd13ifvqcn0","pricing_plan_id":"cebpf4jnsgd1na2vs0mg"},{"bike_id":"e2261aae-aa8a-49dc-b125-d9dafb81afe2","system_id":"levelo_inurba_marseille","lat":43.29537,"lon":5.39036,"is_reserved":false,"is_disabled":false,"rental_uris":{"android":"levelo://app?vid=e2261aae-aa8a-49dc-b125-d9dafb81afe2","ios":"levelo://app?vid=e2261aae-aa8a-49dc-b125-d9dafb81afe2"},"vehicle_type_id":"4","last_reported":1751310467,"current_range_meters":10000,"station_id":"ce4bh3p2rcd13ifvqdp0","pricing_plan_id":"cebpf4jnsgd1na2vs0mg"},{"bike_id":"7dc148e5-fd7e-4677-bce3-55c94c6ee080","system_id":"levelo_inurba_marseille","lat":43.30677,"lon":5.4093,"is_reserved":false,"is_disabled":false,"rental_uris":{"android":"levelo://app?vid=7dc148e5-fd7e-4677-bce3-55c94c6ee080","ios":"levelo://app?vid=7dc148e5-fd7e-4677-bce3-55c94c6ee080"},"vehicle_type_id":"4","last_reported":1751310467,"current_range_meters":10800,"station_id":"","pricing_plan_id":"cebpf4jnsgd1na2vs0mg"},{"bike_id":"f5c16f07-bc6f-4121-91a7-5ad90eec4f34","system_id":"levelo_inurba_marseille","lat":43.31192,"lon":5.37323,"is_reserved":false,"is_disabled":false,"rental_uris":{"android":"levelo://app?vid=f5c16f07-bc6f-4121-91a7-5ad90eec4f34","ios":"levelo://app?vid=f5c16f07-bc6f-4121-91a7-5ad90eec4f34"},"vehicle_type_id":"4","last_reported":1751310467,"current_range_meters":10800,"station_id":"","pricing_plan_id":"cebpf4jnsgd1na2vs0mg"},{"bike_id":"9df1a13f-e386-4018-9114-9676c3472611","system_id":"levelo_inurba_marseille","lat":43.31536,"lon":5.38039,"is_reserved":false,"is_disabled":false,"rental_uris":{"android":"levelo://app?vid=9df1a13f-e386-4018-9114-9676c3472611","ios":"levelo://app?vid=9df1a13f-e386-4018-9114-9676c3472611"},"vehicle_type_id":"4","last_reported":1751310467,"current_range_meters":10800,"station_id":"ce4bhsp2rcd13ifvqi50","pricing_plan_id":"cebpf4jnsgd1na2vs0mg"},{"bike_id":"bb31cf0c-ca16-409b-a771-f1772ba61197","system_id":"levelo_inurba_marseille","lat":43.29777,"lon":5.39348,"is_reserved":false,"is_disabled":false,"rental_uris":{"android":"levelo://app?vid=bb31cf0c-ca16-409b-a771-f1772ba61197","ios":"levelo://app?vid=bb31cf0c-ca16-409b-a771-f1772ba61197"},"vehicle_type_id":"4","last_reported":1751310467,"current_range_meters":10800,"station_id":"chh1huq6cuj3fo74tm60","pricing_plan_id":"cebpf4jnsgd1na2vs0mg"},{"bike_id":"18fc651b-384b-413b-b24b-b0e3177f227a","system_id":"levelo_inurba_marseille","lat":43.28418,"lon":5.34985,"is_reserved":false,"is_disabled":false,"rental_uris":{"android":"levelo://app?vid=18fc651b-384b-413b-b24b-b0e3177f227a","ios":"levelo://app?vid=18fc651b-384b-413b-b24b-b0e3177f227a"},"vehicle_type_id":"4","last_reported":1751310467,"current_range_meters":11200,"station_id":"ce4bhbh2rcd13ifvqepg","pricing_plan_id":"cebpf4jnsgd1na2vs0mg"},{"bike_id":"d698c4b7-faf9-4945-bd7e-539d3b8ef984","system_id":"levelo_inurba_marseille","lat":43.28256,"lon":5.35074,"is_reserved":false,"is_disabled":false,"rental_uris":{"android":"levelo://app?vid=d698c4b7-faf9-4945-bd7e-539d3b8ef984","ios":"levelo://app?vid=d698c4b7-faf9-4945-bd7e-539d3b8ef984"},"vehicle_type_id":"4","last_reported":1751310467,"current_range_meters":11200,"station_id":"ce4bhbp2rcd13ifvqerg","pricing_plan_id":"cebpf4jnsgd1na2vs0mg"},{"bike_id":"9fb9b96e-82db-47fd-9fa4-6150d2d7ae71","system_id":"levelo_inurba_marseille","lat":43.28409,"lon":5.34961,"is_reserved":false,"is_disabled":false,"rental_uris":{"android":"levelo://app?vid=9fb9b96e-82db-47fd-9fa4-6150d2d7ae71","ios":"levelo://app?vid=9fb9b96e-82db-47fd-9fa4-6150d2d7ae71"},"vehicle_type_id":"4","last_reported":1751310467,"current_range_meters":11600,"station_id":"ce4bhbh2rcd13ifvqepg","pricing_plan_id":"cebpf4jnsgd1na2vs0mg"},{"bike_id":"860ecc02-a6d5-4fbe-ada6-b9197deada15","system_id":"levelo_inurba_marseille","lat":43.32541,"lon":5.3887,"is_reserved":false,"is_disabled":false,"rental_uris":{"android":"levelo://app?vid=860ecc02-a6d5-4fbe-ada6-b9197deada15","ios":"levelo://app?vid=860ecc02-a6d5-4fbe-ada6-b9197deada15"},"vehicle_type_id":"4","last_reported":1751310467,"current_range_meters":12000,"station_id":"","pricing_plan_id":"cebpf4jnsgd1na2vs0mg"},{"bike_id":"2272408f-5376-4c4e-a7ec-44ff9968fac9","system_id":"levelo_inurba_marseille","lat":43.28421,"lon":5.34955,"is_reserved":false,"is_disabled":false,"rental_uris":{"android":"levelo://app?vid=2272408f-5376-4c4e-a7ec-44ff9968fac9","ios":"levelo://app?vid=2272408f-5376-4c4e-a7ec-44ff9968fac9"},"vehicle_type_id":"4","last_reported":1751310467,"current_range_meters":12000,"station_id":"ce4bhbh2rcd13ifvqepg","pricing_plan_id":"cebpf4jnsgd1na2vs0mg"},{"bike_id":"91f40db4-ae6c-4de8-b40f-305d23bf00e6","system_id":"levelo_inurba_marseille","lat":43.23187,"lon":5.39987,"is_reserved":false,"is_disabled":false,"rental_uris":{"android":"levelo://app?vid=91f40db4-ae6c-4de8-b40f-305d23bf00e6","ios":"levelo://app?vid=91f40db4-ae6c-4de8-b40f-305d23bf00e6"},"vehicle_type_id":"4","last_reported":1751310467,"current_range_meters":12000,"station_id":"ce4bhn12rcd13ifvqgqg","pricing_plan_id":"cebpf4jnsgd1na2vs0mg"},{"bike_id":"85b63d4f-ae61-4ad4-8f6a-499d5f2c2978","system_id":"levelo_inurba_marseille","lat":43.240623,"lon":5.377863,"is_reserved":false,"is_disabled":false,"rental_uris":{"android":"levelo://app?vid=85b63d4f-ae61-4ad4-8f6a-499d5f2c2978","ios":"levelo://app?vid=85b63d4f-ae61-4ad4-8f6a-499d5f2c2978"},"vehicle_type_id":"4","last_reported":1751310467,"current_range_meters":12000,"station_id":"ce4bhnp2rcd13ifvqgvg","pricing_plan_id":"cebpf4jnsgd1na2vs0mg"},{"bike_id":"ceb818d5-6a0e-45de-8d40-c9c1b19d5e60","system_id":"levelo_inurba_marseille","lat":43.3237,"lon":5.36746,"is_reserved":false,"is_disabled":false,"rental_uris":{"android":"levelo://app?vid=ceb818d5-6a0e-45de-8d40-c9c1b19d5e60","ios":"levelo://app?vid=ceb818d5-6a0e-45de-8d40-c9c1b19d5e60"},"vehicle_type_id":"4","last_reported":1751310467,"current_range_meters":12000,"station_id":"ce4bhsh2rcd13ifvqi2g","pricing_plan_id":"cebpf4jnsgd1na2vs0mg"},{"bike_id":"eb6e257d-fb46-4a59-847b-174f4068e0ac","system_id":"levelo_inurba_marseille","lat":43.30154,"lon":5.38088,"is_reserved":false,"is_disabled":false,"rental_uris":{"android":"levelo://app?vid=eb6e257d-fb46-4a59-847b-174f4068e0ac","ios":"levelo://app?vid=eb6e257d-fb46-4a59-847b-174f4068e0ac"},"vehicle_type_id":"4","last_reported":1751310467,"current_range_meters":12400,"station_id":"ce4bgjp2rcd13ifvqbh0","pricing_plan_id":"cebpf4jnsgd1na2vs0mg"},{"bike_id":"a1a6e172-9f02-40cd-816e-5a4c7ddef278","system_id":"levelo_inurba_marseille","lat":43.29524,"lon":5.39044,"is_reserved":false,"is_disabled":false,"rental_uris":{"android":"levelo://app?vid=a1a6e172-9f02-40cd-816e-5a4c7ddef278","ios":"levelo://app?vid=a1a6e172-9f02-40cd-816e-5a4c7ddef278"},"vehicle_type_id":"4","last_reported":1751310467,"current_range_meters":12400,"station_id":"ce4bh3p2rcd13ifvqdp0","pricing_plan_id":"cebpf4jnsgd1na2vs0mg"},{"bike_id":"946b563a-0bfe-46ba-a049-c2e6b39b17ef","system_id":"levelo_inurba_marseille","lat":43.28368,"lon":5.3862,"is_reserved":false,"is_disabled":false,"rental_uris":{"android":"levelo://app?vid=946b563a-0bfe-46ba-a049-c2e6b39b17ef","ios":"levelo://app?vid=946b563a-0bfe-46ba-a049-c2e6b39b17ef"},"vehicle_type_id":"4","last_reported":1751310467,"current_range_meters":12400,"station_id":"ce4bh492rcd13ifvqdvg","pricing_plan_id":"cebpf4jnsgd1na2vs0mg"},{"bike_id":"ba3512c9-571b-4d84-9b9a-2df31fd4fa34","system_id":"levelo_inurba_marseille","lat":43.27494,"lon":5.42448,"is_reserved":false,"is_disabled":false,"rental_uris":{"android":"levelo://app?vid=ba3512c9-571b-4d84-9b9a-2df31fd4fa34","ios":"levelo://app?vid=ba3512c9-571b-4d84-9b9a-2df31fd4fa34"},"vehicle_type_id":"4","last_reported":1751310467,"current_range_meters":12400,"station_id":"ce4bhn92rcd13ifvqgrg","pricing_plan_id":"cebpf4jnsgd1na2vs0mg"},{"bike_id":"c13c93ac-6b62-443c-9e36-caf61b27325a","system_id":"levelo_inurba_marseille","lat":43.21191,"lon":5.35062,"is_reserved":false,"is_disabled":false,"rental_uris":{"android":"levelo://app?vid=c13c93ac-6b62-443c-9e36-caf61b27325a","ios":"levelo://app?vid=c13c93ac-6b62-443c-9e36-caf61b27325a"},"vehicle_type_id":"4","last_reported":1751310467,"current_range_meters":12400,"station_id":"st_cvj6sg6p6f1abm77japg","pricing_plan_id":"cebpf4jnsgd1na2vs0mg"},{"bike_id":"4ea7c85b-c5d3-457a-88d2-b31080f62920","system_id":"levelo_inurba_marseille","lat":43.31117,"lon":5.3777,"is_reserved":false,"is_disabled":false,"rental_uris":{"android":"levelo://app?vid=4ea7c85b-c5d3-457a-88d2-b31080f62920","ios":"levelo://app?vid=4ea7c85b-c5d3-457a-88d2-b31080f62920"},"vehicle_type_id":"4","last_reported":1751310467,"current_range_meters":12800,"station_id":"ce4bgt92rcd13ifvqcg0","pricing_plan_id":"cebpf4jnsgd1na2vs0mg"},{"bike_id":"469f0205-2674-4692-9623-a48ceefd5990","system_id":"levelo_inurba_marseille","lat":43.28419,"lon":5.34973,"is_reserved":false,"is_disabled":false,"rental_uris":{"android":"levelo://app?vid=469f0205-2674-4692-9623-a48ceefd5990","ios":"levelo://app?vid=469f0205-2674-4692-9623-a48ceefd5990"},"vehicle_type_id":"4","last_reported":1751310467,"current_range_meters":12800,"station_id":"ce4bhbh2rcd13ifvqepg","pricing_plan_id":"cebpf4jnsgd1na2vs0mg"},{"bike_id":"07ddf3f2-7e29-480c-9052-31ba82bd9b41","system_id":"levelo_inurba_marseille","lat":43.26209,"lon":5.37465,"is_reserved":false,"is_disabled":false,"rental_uris":{"android":"levelo://app?vid=07ddf3f2-7e29-480c-9052-31ba82bd9b41","ios":"levelo://app?vid=07ddf3f2-7e29-480c-9052-31ba82bd9b41"},"vehicle_type_id":"4","last_reported":1751310467,"current_range_meters":12800,"station_id":"ce4bhgp2rcd13ifvqfc0","pricing_plan_id":"cebpf4jnsgd1na2vs0mg"},{"bike_id":"f55df89f-2bda-424c-9d57-5d60ee3904da","system_id":"levelo_inurba_marseille","lat":43.2845,"lon":5.39198,"is_reserved":false,"is_disabled":false,"rental_uris":{"android":"levelo://app?vid=f55df89f-2bda-424c-9d57-5d60ee3904da","ios":"levelo://app?vid=f55df89f-2bda-424c-9d57-5d60ee3904da"},"vehicle_type_id":"4","last_reported":1751310467,"current_range_meters":12800,"station_id":"ce4bhoh2rcd13ifvqh5g","pricing_plan_id":"cebpf4jnsgd1na2vs0mg"},{"bike_id":"6b395ca1-8e13-428f-bce3-868957948c24","system_id":"levelo_inurba_marseille","lat":43.2739,"lon":5.36264,"is_reserved":false,"is_disabled":false,"rental_uris":{"android":"levelo://app?vid=6b395ca1-8e13-428f-bce3-868957948c24","ios":"levelo://app?vid=6b395ca1-8e13-428f-bce3-868957948c24"},"vehicle_type_id":"4","last_reported":1751310467,"current_range_meters":13600,"station_id":"ce4bhbh2rcd13ifvqeo0","pricing_plan_id":"cebpf4jnsgd1na2vs0mg"},{"bike_id":"695cebbe-dec4-4ce0-b4c7-905b7f23b8ee","system_id":"levelo_inurba_marseille","lat":43.2841,"lon":5.35,"is_reserved":false,"is_disabled":false,"rental_uris":{"android":"levelo://app?vid=695cebbe-dec4-4ce0-b4c7-905b7f23b8ee","ios":"levelo://app?vid=695cebbe-dec4-4ce0-b4c7-905b7f23b8ee"},"vehicle_type_id":"4","last_reported":1751310467,"current_range_meters":13600,"station_id":"ce4bhbh2rcd13ifvqepg","pricing_plan_id":"cebpf4jnsgd1na2vs0mg"},{"bike_id":"96e785d3-0c2a-4bec-b011-c91b6e4e90c3","system_id":"levelo_inurba_marseille","lat":43.2622,"lon":5.3744,"is_reserved":false,"is_disabled":false,"rental_uris":{"android":"levelo://app?vid=96e785d3-0c2a-4bec-b011-c91b6e4e90c3","ios":"levelo://app?vid=96e785d3-0c2a-4bec-b011-c91b6e4e90c3"},"vehicle_type_id":"4","last_reported":1751310467,"current_range_meters":13600,"station_id":"ce4bhgp2rcd13ifvqfc0","pricing_plan_id":"cebpf4jnsgd1na2vs0mg"},{"bike_id":"58bd3f83-8d43-432e-a389-948938190aea","system_id":"levelo_inurba_marseille","lat":43.27498,"lon":5.42426,"is_reserved":false,"is_disabled":false,"rental_uris":{"android":"levelo://app?vid=58bd3f83-8d43-432e-a389-948938190aea","ios":"levelo://app?vid=58bd3f83-8d43-432e-a389-948938190aea"},"vehicle_type_id":"4","last_reported":1751310467,"current_range_meters":13600,"station_id":"ce4bhn92rcd13ifvqgrg","pricing_plan_id":"cebpf4jnsgd1na2vs0mg"},{"bike_id":"6b04a8db-f012-4ea9-88f5-d59ff3f24fd9","system_id":"levelo_inurba_marseille","lat":43.29898,"lon":5.43646,"is_reserved":false,"is_disabled":false,"rental_uris":{"android":"levelo://app?vid=6b04a8db-f012-4ea9-88f5-d59ff3f24fd9","ios":"levelo://app?vid=6b04a8db-f012-4ea9-88f5-d59ff3f24fd9"},"vehicle_type_id":"4","last_reported":1751310467,"current_range_meters":13600,"station_id":"ce4bhpp2rcd13ifvqhfg","pricing_plan_id":"cebpf4jnsgd1na2vs0mg"},{"bike_id":"4e47abe4-6598-4756-807d-26ba558e3c39","system_id":"levelo_inurba_marseille","lat":43.29892,"lon":5.43665,"is_reserved":false,"is_disabled":false,"rental_uris":{"android":"levelo://app?vid=4e47abe4-6598-4756-807d-26ba558e3c39","ios":"levelo://app?vid=4e47abe4-6598-4756-807d-26ba558e3c39"},"vehicle_type_id":"4","last_reported":1751310467,"current_range_meters":13600,"station_id":"ce4bhpp2rcd13ifvqhfg","pricing_plan_id":"cebpf4jnsgd1na2vs0mg"},{"bike_id":"aad466d4-9058-4038-a189-895fae6f1c28","system_id":"levelo_inurba_marseille","lat":43.211916,"lon":5.350674,"is_reserved":false,"is_disabled":false,"rental_uris":{"android":"levelo://app?vid=aad466d4-9058-4038-a189-895fae6f1c28","ios":"levelo://app?vid=aad466d4-9058-4038-a189-895fae6f1c28"},"vehicle_type_id":"4","last_reported":1751310467,"current_range_meters":13600,"station_id":"st_cvj6sg6p6f1abm77japg","pricing_plan_id":"cebpf4jnsgd1na2vs0mg"},{"bike_id":"4d56b67c-c8e9-4713-b157-3c6e6d758eff","system_id":"levelo_inurba_marseille","lat":43.24679,"lon":5.38147,"is_reserved":false,"is_disabled":false,"rental_uris":{"android":"levelo://app?vid=4d56b67c-c8e9-4713-b157-3c6e6d758eff","ios":"levelo://app?vid=4d56b67c-c8e9-4713-b157-3c6e6d758eff"},"vehicle_type_id":"4","last_reported":1751310467,"current_range_meters":14000,"station_id":"ce4bhih2rcd13ifvqfr0","pricing_plan_id":"cebpf4jnsgd1na2vs0mg"},{"bike_id":"d8facb10-b967-4a32-9b5c-8cfed4bbd05b","system_id":"levelo_inurba_marseille","lat":43.32153,"lon":5.36711,"is_reserved":false,"is_disabled":false,"rental_uris":{"android":"levelo://app?vid=d8facb10-b967-4a32-9b5c-8cfed4bbd05b","ios":"levelo://app?vid=d8facb10-b967-4a32-9b5c-8cfed4bbd05b"},"vehicle_type_id":"4","last_reported":1751310467,"current_range_meters":14400,"station_id":"","pricing_plan_id":"cebpf4jnsgd1na2vs0mg"},{"bike_id":"eedd300a-9125-4b48-952a-e85df0575cd5","system_id":"levelo_inurba_marseille","lat":43.28037,"lon":5.36948,"is_reserved":false,"is_disabled":false,"rental_uris":{"android":"levelo://app?vid=eedd300a-9125-4b48-952a-e85df0575cd5","ios":"levelo://app?vid=eedd300a-9125-4b48-952a-e85df0575cd5"},"vehicle_type_id":"4","last_reported":1751310467,"current_range_meters":14400,"station_id":"ce4bha12rcd13ifvqef0","pricing_plan_id":"cebpf4jnsgd1na2vs0mg"},{"bike_id":"b0f87d94-b06c-4790-a50d-2c0da56d1f25","system_id":"levelo_inurba_marseille","lat":43.27371,"lon":5.36242,"is_reserved":false,"is_disabled":false,"rental_uris":{"android":"levelo://app?vid=b0f87d94-b06c-4790-a50d-2c0da56d1f25","ios":"levelo://app?vid=b0f87d94-b06c-4790-a50d-2c0da56d1f25"},"vehicle_type_id":"4","last_reported":1751310467,"current_range_meters":14400,"station_id":"ce4bhbh2rcd13ifvqeo0","pricing_plan_id":"cebpf4jnsgd1na2vs0mg"},{"bike_id":"1500544b-db3d-49f0-b46c-dbf2c5a1ca65","system_id":"levelo_inurba_marseille","lat":43.28618,"lon":5.35108,"is_reserved":false,"is_disabled":false,"rental_uris":{"android":"levelo://app?vid=1500544b-db3d-49f0-b46c-dbf2c5a1ca65","ios":"levelo://app?vid=1500544b-db3d-49f0-b46c-dbf2c5a1ca65"},"vehicle_type_id":"4","last_reported":1751310467,"current_range_meters":14400,"station_id":"ce4bhch2rcd13ifvqeug","pricing_plan_id":"cebpf4jnsgd1na2vs0mg"},{"bike_id":"7ba8822f-d95a-4513-9336-917324a5b5ee","system_id":"levelo_inurba_marseille","lat":43.292637,"lon":5.384385,"is_reserved":false,"is_disabled":false,"rental_uris":{"android":"levelo://app?vid=7ba8822f-d95a-4513-9336-917324a5b5ee","ios":"levelo://app?vid=7ba8822f-d95a-4513-9336-917324a5b5ee"},"vehicle_type_id":"4","last_reported":1751310467,"current_range_meters":14400,"station_id":"ce4bhch2rcd13ifvqeug","pricing_plan_id":"cebpf4jnsgd1na2vs0mg"},{"bike_id":"1996d7fd-a23b-4863-ab11-ae2a3c10aa0e","system_id":"levelo_inurba_marseille","lat":43.25833,"lon":5.39427,"is_reserved":false,"is_disabled":false,"rental_uris":{"android":"levelo://app?vid=1996d7fd-a23b-4863-ab11-ae2a3c10aa0e","ios":"levelo://app?vid=1996d7fd-a23b-4863-ab11-ae2a3c10aa0e"},"vehicle_type_id":"4","last_reported":1751310467,"current_range_meters":14400,"station_id":"ce4bhip2rcd13ifvqft0","pricing_plan_id":"cebpf4jnsgd1na2vs0mg"},{"bike_id":"33141837-0ff7-4f61-ab4e-cde3f3736e60","system_id":"levelo_inurba_marseille","lat":43.2319,"lon":5.35546,"is_reserved":false,"is_disabled":false,"rental_uris":{"android":"levelo://app?vid=33141837-0ff7-4f61-ab4e-cde3f3736e60","ios":"levelo://app?vid=33141837-0ff7-4f61-ab4e-cde3f3736e60"},"vehicle_type_id":"4","last_reported":1751310467,"current_range_meters":14400,"station_id":"ce4bhu92rcd13ifvqi70","pricing_plan_id":"cebpf4jnsgd1na2vs0mg"},{"bike_id":"4f97e136-2006-43b5-84b8-8ce28f4647e9","system_id":"levelo_inurba_marseille","lat":43.21195,"lon":5.35056,"is_reserved":false,"is_disabled":false,"rental_uris":{"android":"levelo://app?vid=4f97e136-2006-43b5-84b8-8ce28f4647e9","ios":"levelo://app?vid=4f97e136-2006-43b5-84b8-8ce28f4647e9"},"vehicle_type_id":"4","last_reported":1751310467,"current_range_meters":14400,"station_id":"st_cvj6sg6p6f1abm77japg","pricing_plan_id":"cebpf4jnsgd1na2vs0mg"},{"bike_id":"8ceb2860-ca09-420a-8aab-fcf0c529a0d3","system_id":"levelo_inurba_marseille","lat":43.21184,"lon":5.35079,"is_reserved":false,"is_disabled":false,"rental_uris":{"android":"levelo://app?vid=8ceb2860-ca09-420a-8aab-fcf0c529a0d3","ios":"levelo://app?vid=8ceb2860-ca09-420a-8aab-fcf0c529a0d3"},"vehicle_type_id":"4","last_reported":1751310467,"current_range_meters":14400,"station_id":"st_cvj6sg6p6f1abm77japg","pricing_plan_id":"cebpf4jnsgd1na2vs0mg"},{"bike_id":"c0853448-76bb-4ca4-878f-55828d42d04f","system_id":"levelo_inurba_marseille","lat":43.29772,"lon":5.37105,"is_reserved":false,"is_disabled":false,"rental_uris":{"android":"levelo://app?vid=c0853448-76bb-4ca4-878f-55828d42d04f","ios":"levelo://app?vid=c0853448-76bb-4ca4-878f-55828d42d04f"},"vehicle_type_id":"4","last_reported":1751310467,"current_range_meters":14800,"station_id":"ce4bgop2rcd13ifvqc1g","pricing_plan_id":"cebpf4jnsgd1na2vs0mg"},{"bike_id":"261fc883-5b99-4df9-98e3-79494485c42f","system_id":"levelo_inurba_marseille","lat":43.29274,"lon":5.36837,"is_reserved":false,"is_disabled":false,"rental_uris":{"android":"levelo://app?vid=261fc883-5b99-4df9-98e3-79494485c42f","ios":"levelo://app?vid=261fc883-5b99-4df9-98e3-79494485c42f"},"vehicle_type_id":"4","last_reported":1751310467,"current_range_meters":14800,"station_id":"ce4bhbp2rcd13ifvqesg","pricing_plan_id":"cebpf4jnsgd1na2vs0mg"},{"bike_id":"f20a8994-f325-4592-91af-5fe3229c9cfb","system_id":"levelo_inurba_marseille","lat":43.27835,"lon":5.39204,"is_reserved":false,"is_disabled":false,"rental_uris":{"android":"levelo://app?vid=f20a8994-f325-4592-91af-5fe3229c9cfb","ios":"levelo://app?vid=f20a8994-f325-4592-91af-5fe3229c9cfb"},"vehicle_type_id":"4","last_reported":1751310467,"current_range_meters":14800,"station_id":"ce4bhjp2rcd13ifvqga0","pricing_plan_id":"cebpf4jnsgd1na2vs0mg"},{"bike_id":"afb78327-cc2c-423c-9e7b-9e6a58647879","system_id":"levelo_inurba_marseille","lat":43.33719,"lon":5.3919,"is_reserved":false,"is_disabled":false,"rental_uris":{"android":"levelo://app?vid=afb78327-cc2c-423c-9e7b-9e6a58647879","ios":"levelo://app?vid=afb78327-cc2c-423c-9e7b-9e6a58647879"},"vehicle_type_id":"4","last_reported":1751310467,"current_range_meters":14800,"station_id":"ce4bhr92rcd13ifvqhsg","pricing_plan_id":"cebpf4jnsgd1na2vs0mg"},{"bike_id":"ef56af2f-739b-4071-a865-2862ea606449","system_id":"levelo_inurba_marseille","lat":43.27376,"lon":5.36211,"is_reserved":false,"is_disabled":false,"rental_uris":{"android":"levelo://app?vid=ef56af2f-739b-4071-a865-2862ea606449","ios":"levelo://app?vid=ef56af2f-739b-4071-a865-2862ea606449"},"vehicle_type_id":"4","last_reported":1751310467,"current_range_meters":15200,"station_id":"","pricing_plan_id":"cebpf4jnsgd1na2vs0mg"},{"bike_id":"413dd689-2e26-459f-8001-270da0988fec","system_id":"levelo_inurba_marseille","lat":43.293,"lon":5.37462,"is_reserved":false,"is_disabled":false,"rental_uris":{"android":"levelo://app?vid=413dd689-2e26-459f-8001-270da0988fec","ios":"levelo://app?vid=413dd689-2e26-459f-8001-270da0988fec"},"vehicle_type_id":"4","last_reported":1751310467,"current_range_meters":15200,"station_id":"ce4bgi12rcd13ifvqb70","pricing_plan_id":"cebpf4jnsgd1na2vs0mg"},{"bike_id":"36fbe0ff-ebf7-42c2-b333-d0b1fe25c782","system_id":"levelo_inurba_marseille","lat":43.29526,"lon":5.39403,"is_reserved":false,"is_disabled":false,"rental_uris":{"android":"levelo://app?vid=36fbe0ff-ebf7-42c2-b333-d0b1fe25c782","ios":"levelo://app?vid=36fbe0ff-ebf7-42c2-b333-d0b1fe25c782"},"vehicle_type_id":"4","last_reported":1751310467,"current_range_meters":15200,"station_id":"ce4bh292rcd13ifvqdf0","pricing_plan_id":"cebpf4jnsgd1na2vs0mg"},{"bike_id":"6d05287e-4655-410b-81f2-ec69f81b8b61","system_id":"levelo_inurba_marseille","lat":43.27365,"lon":5.36242,"is_reserved":false,"is_disabled":false,"rental_uris":{"android":"levelo://app?vid=6d05287e-4655-410b-81f2-ec69f81b8b61","ios":"levelo://app?vid=6d05287e-4655-410b-81f2-ec69f81b8b61"},"vehicle_type_id":"4","last_reported":1751310467,"current_range_meters":15200,"station_id":"ce4bhbh2rcd13ifvqeo0","pricing_plan_id":"cebpf4jnsgd1na2vs0mg"},{"bike_id":"ce2c2d47-368a-467f-a655-529eab5b471b","system_id":"levelo_inurba_marseille","lat":43.31329,"lon":5.39703,"is_reserved":false,"is_disabled":false,"rental_uris":{"android":"levelo://app?vid=ce2c2d47-368a-467f-a655-529eab5b471b","ios":"levelo://app?vid=ce2c2d47-368a-467f-a655-529eab5b471b"},"vehicle_type_id":"4","last_reported":1751310467,"current_range_meters":16000,"station_id":"ce4bgvp2rcd13ifvqcu0","pricing_plan_id":"cebpf4jnsgd1na2vs0mg"},{"bike_id":"2a54c07e-f894-4472-8ac6-588ca6aec7c8","system_id":"levelo_inurba_marseille","lat":43.27372,"lon":5.36256,"is_reserved":false,"is_disabled":false,"rental_uris":{"android":"levelo://app?vid=2a54c07e-f894-4472-8ac6-588ca6aec7c8","ios":"levelo://app?vid=2a54c07e-f894-4472-8ac6-588ca6aec7c8"},"vehicle_type_id":"4","last_reported":1751310467,"current_range_meters":16000,"station_id":"ce4bhbh2rcd13ifvqeo0","pricing_plan_id":"cebpf4jnsgd1na2vs0mg"},{"bike_id":"0e1fd179-f6dc-4047-8ba7-96fc9adce901","system_id":"levelo_inurba_marseille","lat":43.28637,"lon":5.35088,"is_reserved":false,"is_disabled":false,"rental_uris":{"android":"levelo://app?vid=0e1fd179-f6dc-4047-8ba7-96fc9adce901","ios":"levelo://app?vid=0e1fd179-f6dc-4047-8ba7-96fc9adce901"},"vehicle_type_id":"4","last_reported":1751310467,"current_range_meters":16000,"station_id":"ce4bhch2rcd13ifvqeug","pricing_plan_id":"cebpf4jnsgd1na2vs0mg"},{"bike_id":"0ac13da7-60dc-4d7b-8c35-2842246345cd","system_id":"levelo_inurba_marseille","lat":43.2619,"lon":5.3745,"is_reserved":false,"is_disabled":false,"rental_uris":{"android":"levelo://app?vid=0ac13da7-60dc-4d7b-8c35-2842246345cd","ios":"levelo://app?vid=0ac13da7-60dc-4d7b-8c35-2842246345cd"},"vehicle_type_id":"4","last_reported":1751310467,"current_range_meters":16000,"station_id":"ce4bhgp2rcd13ifvqfc0","pricing_plan_id":"cebpf4jnsgd1na2vs0mg"},{"bike_id":"737a2d59-03f1-461d-9876-2d1d9e4fbcd3","system_id":"levelo_inurba_marseille","lat":43.241598,"lon":5.364115,"is_reserved":false,"is_disabled":false,"rental_uris":{"android":"levelo://app?vid=737a2d59-03f1-461d-9876-2d1d9e4fbcd3","ios":"levelo://app?vid=737a2d59-03f1-461d-9876-2d1d9e4fbcd3"},"vehicle_type_id":"4","last_reported":1751310467,"current_range_meters":16000,"station_id":"ce4bhi12rcd13ifvqfp0","pricing_plan_id":"cebpf4jnsgd1na2vs0mg"},{"bike_id":"048ec6e9-5fd9-4256-ae6a-a72856ab2acf","system_id":"levelo_inurba_marseille","lat":43.211909,"lon":5.350769,"is_reserved":false,"is_disabled":false,"rental_uris":{"android":"levelo://app?vid=048ec6e9-5fd9-4256-ae6a-a72856ab2acf","ios":"levelo://app?vid=048ec6e9-5fd9-4256-ae6a-a72856ab2acf"},"vehicle_type_id":"4","last_reported":1751310467,"current_range_meters":16000,"station_id":"st_cvj6sg6p6f1abm77japg","pricing_plan_id":"cebpf4jnsgd1na2vs0mg"},{"bike_id":"d5da5bd9-7c2a-48e5-92aa-fa21076cad13","system_id":"levelo_inurba_marseille","lat":43.21196,"lon":5.35061,"is_reserved":false,"is_disabled":false,"rental_uris":{"android":"levelo://app?vid=d5da5bd9-7c2a-48e5-92aa-fa21076cad13","ios":"levelo://app?vid=d5da5bd9-7c2a-48e5-92aa-fa21076cad13"},"vehicle_type_id":"4","last_reported":1751310467,"current_range_meters":16000,"station_id":"st_cvj6sg6p6f1abm77japg","pricing_plan_id":"cebpf4jnsgd1na2vs0mg"},{"bike_id":"8237ec45-a1ed-4542-96b3-f54acd385f13","system_id":"levelo_inurba_marseille","lat":43.28404,"lon":5.34986,"is_reserved":false,"is_disabled":false,"rental_uris":{"android":"levelo://app?vid=8237ec45-a1ed-4542-96b3-f54acd385f13","ios":"levelo://app?vid=8237ec45-a1ed-4542-96b3-f54acd385f13"},"vehicle_type_id":"4","last_reported":1751310467,"current_range_meters":16400,"station_id":"ce4bhbh2rcd13ifvqepg","pricing_plan_id":"cebpf4jnsgd1na2vs0mg"},{"bike_id":"1237bd6a-2563-40da-ab8c-6a124e0aa3ed","system_id":"levelo_inurba_marseille","lat":43.28418,"lon":5.34962,"is_reserved":false,"is_disabled":false,"rental_uris":{"android":"levelo://app?vid=1237bd6a-2563-40da-ab8c-6a124e0aa3ed","ios":"levelo://app?vid=1237bd6a-2563-40da-ab8c-6a124e0aa3ed"},"vehicle_type_id":"4","last_reported":1751310467,"current_range_meters":16400,"station_id":"ce4bhbh2rcd13ifvqepg","pricing_plan_id":"cebpf4jnsgd1na2vs0mg"},{"bike_id":"c28e39dc-72cd-4fd8-89b7-00c27c125c16","system_id":"levelo_inurba_marseille","lat":43.28399,"lon":5.35004,"is_reserved":false,"is_disabled":false,"rental_uris":{"android":"levelo://app?vid=c28e39dc-72cd-4fd8-89b7-00c27c125c16","ios":"levelo://app?vid=c28e39dc-72cd-4fd8-89b7-00c27c125c16"},"vehicle_type_id":"4","last_reported":1751310467,"current_range_meters":16400,"station_id":"ce4bhbh2rcd13ifvqepg","pricing_plan_id":"cebpf4jnsgd1na2vs0mg"},{"bike_id":"e3be0bae-c457-417e-b637-2edfbaf52fd0","system_id":"levelo_inurba_marseille","lat":43.28269,"lon":5.35034,"is_reserved":false,"is_disabled":false,"rental_uris":{"android":"levelo://app?vid=e3be0bae-c457-417e-b637-2edfbaf52fd0","ios":"levelo://app?vid=e3be0bae-c457-417e-b637-2edfbaf52fd0"},"vehicle_type_id":"4","last_reported":1751310467,"current_range_meters":16400,"station_id":"ce4bhbp2rcd13ifvqerg","pricing_plan_id":"cebpf4jnsgd1na2vs0mg"},{"bike_id":"51295896-5ce8-4b8c-a71e-577f5adbafc9","system_id":"levelo_inurba_marseille","lat":43.2862,"lon":5.35092,"is_reserved":false,"is_disabled":false,"rental_uris":{"android":"levelo://app?vid=51295896-5ce8-4b8c-a71e-577f5adbafc9","ios":"levelo://app?vid=51295896-5ce8-4b8c-a71e-577f5adbafc9"},"vehicle_type_id":"4","last_reported":1751310467,"current_range_meters":16400,"station_id":"ce4bhch2rcd13ifvqeug","pricing_plan_id":"cebpf4jnsgd1na2vs0mg"},{"bike_id":"d8f73793-e3e9-4b33-b4e9-88de07786df1","system_id":"levelo_inurba_marseille","lat":43.2863,"lon":5.35106,"is_reserved":false,"is_disabled":false,"rental_uris":{"android":"levelo://app?vid=d8f73793-e3e9-4b33-b4e9-88de07786df1","ios":"levelo://app?vid=d8f73793-e3e9-4b33-b4e9-88de07786df1"},"vehicle_type_id":"4","last_reported":1751310467,"current_range_meters":16400,"station_id":"ce4bhch2rcd13ifvqeug","pricing_plan_id":"cebpf4jnsgd1na2vs0mg"},{"bike_id":"bdc2bbd7-bbd5-49ad-ae3f-f03eb0d4b1ba","system_id":"levelo_inurba_marseille","lat":43.27063,"lon":5.4227,"is_reserved":false,"is_disabled":false,"rental_uris":{"android":"levelo://app?vid=bdc2bbd7-bbd5-49ad-ae3f-f03eb0d4b1ba","ios":"levelo://app?vid=bdc2bbd7-bbd5-49ad-ae3f-f03eb0d4b1ba"},"vehicle_type_id":"4","last_reported":1751310467,"current_range_meters":16400,"station_id":"ce4bhk92rcd13ifvqgb0","pricing_plan_id":"cebpf4jnsgd1na2vs0mg"},{"bike_id":"d90daeb2-baa5-4f84-8ba2-ffc1dcd4b96b","system_id":"levelo_inurba_marseille","lat":43.241704,"lon":5.364029,"is_reserved":false,"is_disabled":false,"rental_uris":{"android":"levelo://app?vid=d90daeb2-baa5-4f84-8ba2-ffc1dcd4b96b","ios":"levelo://app?vid=d90daeb2-baa5-4f84-8ba2-ffc1dcd4b96b"},"vehicle_type_id":"4","last_reported":1751310467,"current_range_meters":16400,"station_id":"cpo36qri1sfpv3e86is0","pricing_plan_id":"cebpf4jnsgd1na2vs0mg"},{"bike_id":"e552832c-7ca2-4106-b0f9-92bbabda27d1","system_id":"levelo_inurba_marseille","lat":43.21192,"lon":5.35066,"is_reserved":false,"is_disabled":false,"rental_uris":{"android":"levelo://app?vid=e552832c-7ca2-4106-b0f9-92bbabda27d1","ios":"levelo://app?vid=e552832c-7ca2-4106-b0f9-92bbabda27d1"},"vehicle_type_id":"4","last_reported":1751310467,"current_range_meters":16400,"station_id":"st_cvj6sg6p6f1abm77japg","pricing_plan_id":"cebpf4jnsgd1na2vs0mg"},{"bike_id":"b13877a6-4825-4d82-b46b-67fa8ad66c5d","system_id":"levelo_inurba_marseille","lat":43.211901,"lon":5.350745,"is_reserved":false,"is_disabled":false,"rental_uris":{"android":"levelo://app?vid=b13877a6-4825-4d82-b46b-67fa8ad66c5d","ios":"levelo://app?vid=b13877a6-4825-4d82-b46b-67fa8ad66c5d"},"vehicle_type_id":"4","last_reported":1751310467,"current_range_meters":16400,"station_id":"st_cvj6sg6p6f1abm77japg","pricing_plan_id":"cebpf4jnsgd1na2vs0mg"},{"bike_id":"c2b72fe0-bae6-4c7b-ad48-9e771b203dc8","system_id":"levelo_inurba_marseille","lat":43.31358,"lon":5.38438,"is_reserved":false,"is_disabled":false,"rental_uris":{"android":"levelo://app?vid=c2b72fe0-bae6-4c7b-ad48-9e771b203dc8","ios":"levelo://app?vid=c2b72fe0-bae6-4c7b-ad48-9e771b203dc8"},"vehicle_type_id":"4","last_reported":1751310467,"current_range_meters":16800,"station_id":"ce4bgt92rcd13ifvqcf0","pricing_plan_id":"cebpf4jnsgd1na2vs0mg"},{"bike_id":"4651bbdd-9493-4a24-b0e0-a04212ffdb75","system_id":"levelo_inurba_marseille","lat":43.29529,"lon":5.39384,"is_reserved":false,"is_disabled":false,"rental_uris":{"android":"levelo://app?vid=4651bbdd-9493-4a24-b0e0-a04212ffdb75","ios":"levelo://app?vid=4651bbdd-9493-4a24-b0e0-a04212ffdb75"},"vehicle_type_id":"4","last_reported":1751310467,"current_range_meters":16800,"station_id":"ce4bh292rcd13ifvqdf0","pricing_plan_id":"cebpf4jnsgd1na2vs0mg"},{"bike_id":"f4bfa86c-cbfe-4edf-8ae6-de726347bc3f","system_id":"levelo_inurba_marseille","lat":43.28417,"lon":5.34978,"is_reserved":false,"is_disabled":false,"rental_uris":{"android":"levelo://app?vid=f4bfa86c-cbfe-4edf-8ae6-de726347bc3f","ios":"levelo://app?vid=f4bfa86c-cbfe-4edf-8ae6-de726347bc3f"},"vehicle_type_id":"4","last_reported":1751310467,"current_range_meters":16800,"station_id":"ce4bhbh2rcd13ifvqepg","pricing_plan_id":"cebpf4jnsgd1na2vs0mg"},{"bike_id":"714e81cc-0a88-4f76-a904-b1c3a28974fe","system_id":"levelo_inurba_marseille","lat":43.286181,"lon":5.351029,"is_reserved":false,"is_disabled":false,"rental_uris":{"android":"levelo://app?vid=714e81cc-0a88-4f76-a904-b1c3a28974fe","ios":"levelo://app?vid=714e81cc-0a88-4f76-a904-b1c3a28974fe"},"vehicle_type_id":"4","last_reported":1751310467,"current_range_meters":16800,"station_id":"ce4bhch2rcd13ifvqeug","pricing_plan_id":"cebpf4jnsgd1na2vs0mg"},{"bike_id":"0d839b5e-baaf-4b32-8658-bb0d20744629","system_id":"levelo_inurba_marseille","lat":43.21187,"lon":5.35088,"is_reserved":false,"is_disabled":false,"rental_uris":{"android":"levelo://app?vid=0d839b5e-baaf-4b32-8658-bb0d20744629","ios":"levelo://app?vid=0d839b5e-baaf-4b32-8658-bb0d20744629"},"vehicle_type_id":"4","last_reported":1751310467,"current_range_meters":16800,"station_id":"st_cvj6sg6p6f1abm77japg","pricing_plan_id":"cebpf4jnsgd1na2vs0mg"},{"bike_id":"cc00e40a-c5cc-4f6a-acb6-8fdcb4bdc87a","system_id":"levelo_inurba_marseille","lat":43.21196,"lon":5.35054,"is_reserved":false,"is_disabled":false,"rental_uris":{"android":"levelo://app?vid=cc00e40a-c5cc-4f6a-acb6-8fdcb4bdc87a","ios":"levelo://app?vid=cc00e40a-c5cc-4f6a-acb6-8fdcb4bdc87a"},"vehicle_type_id":"4","last_reported":1751310467,"current_range_meters":16800,"station_id":"st_cvj6sg6p6f1abm77japg","pricing_plan_id":"cebpf4jnsgd1na2vs0mg"},{"bike_id":"c78e6632-27bf-4d2b-9aaf-08ee3de67dda","system_id":"levelo_inurba_marseille","lat":43.2987,"lon":5.3973,"is_reserved":false,"is_disabled":false,"rental_uris":{"android":"levelo://app?vid=c78e6632-27bf-4d2b-9aaf-08ee3de67dda","ios":"levelo://app?vid=c78e6632-27bf-4d2b-9aaf-08ee3de67dda"},"vehicle_type_id":"4","last_reported":1751310467,"current_range_meters":17200,"station_id":"ce4bh0h2rcd13ifvqd50","pricing_plan_id":"cebpf4jnsgd1na2vs0mg"},{"bike_id":"65890312-b4a6-463f-9b81-132ee12a3ed0","system_id":"levelo_inurba_marseille","lat":43.27376,"lon":5.36258,"is_reserved":false,"is_disabled":false,"rental_uris":{"android":"levelo://app?vid=65890312-b4a6-463f-9b81-132ee12a3ed0","ios":"levelo://app?vid=65890312-b4a6-463f-9b81-132ee12a3ed0"},"vehicle_type_id":"4","last_reported":1751310467,"current_range_meters":17200,"station_id":"ce4bhbh2rcd13ifvqeo0","pricing_plan_id":"cebpf4jnsgd1na2vs0mg"},{"bike_id":"ecd422ac-9e70-41eb-9655-91fc424429f0","system_id":"levelo_inurba_marseille","lat":43.2842,"lon":5.34963,"is_reserved":false,"is_disabled":false,"rental_uris":{"android":"levelo://app?vid=ecd422ac-9e70-41eb-9655-91fc424429f0","ios":"levelo://app?vid=ecd422ac-9e70-41eb-9655-91fc424429f0"},"vehicle_type_id":"4","last_reported":1751310467,"current_range_meters":17200,"station_id":"ce4bhbh2rcd13ifvqepg","pricing_plan_id":"cebpf4jnsgd1na2vs0mg"},{"bike_id":"e25ba395-2bc9-44d2-8b95-073fe9e7fe66","system_id":"levelo_inurba_marseille","lat":43.28627,"lon":5.35133,"is_reserved":false,"is_disabled":false,"rental_uris":{"android":"levelo://app?vid=e25ba395-2bc9-44d2-8b95-073fe9e7fe66","ios":"levelo://app?vid=e25ba395-2bc9-44d2-8b95-073fe9e7fe66"},"vehicle_type_id":"4","last_reported":1751310467,"current_range_meters":17200,"station_id":"ce4bhch2rcd13ifvqeug","pricing_plan_id":"cebpf4jnsgd1na2vs0mg"},{"bike_id":"73ac0a58-5fd1-4b74-9442-00036ae5c2bb","system_id":"levelo_inurba_marseille","lat":43.24076,"lon":5.37744,"is_reserved":false,"is_disabled":false,"rental_uris":{"android":"levelo://app?vid=73ac0a58-5fd1-4b74-9442-00036ae5c2bb","ios":"levelo://app?vid=73ac0a58-5fd1-4b74-9442-00036ae5c2bb"},"vehicle_type_id":"4","last_reported":1751310467,"current_range_meters":17200,"station_id":"ce4bhnp2rcd13ifvqgvg","pricing_plan_id":"cebpf4jnsgd1na2vs0mg"},{"bike_id":"f603f3aa-5bf7-4a19-a8a1-b47909f854c7","system_id":"levelo_inurba_marseille","lat":43.21191,"lon":5.35071,"is_reserved":false,"is_disabled":false,"rental_uris":{"android":"levelo://app?vid=f603f3aa-5bf7-4a19-a8a1-b47909f854c7","ios":"levelo://app?vid=f603f3aa-5bf7-4a19-a8a1-b47909f854c7"},"vehicle_type_id":"4","last_reported":1751310467,"current_range_meters":17200,"station_id":"st_cvj6sg6p6f1abm77japg","pricing_plan_id":"cebpf4jnsgd1na2vs0mg"},{"bike_id":"a0cef316-ad95-4855-8f78-a31341a2b90e","system_id":"levelo_inurba_marseille","lat":43.33676,"lon":5.37796,"is_reserved":false,"is_disabled":false,"rental_uris":{"android":"levelo://app?vid=a0cef316-ad95-4855-8f78-a31341a2b90e","ios":"levelo://app?vid=a0cef316-ad95-4855-8f78-a31341a2b90e"},"vehicle_type_id":"4","last_reported":1751310467,"current_range_meters":17600,"station_id":"","pricing_plan_id":"cebpf4jnsgd1na2vs0mg"},{"bike_id":"df8c937f-19ae-4217-a155-44b2fc5aa9b8","system_id":"levelo_inurba_marseille","lat":43.28269,"lon":5.35066,"is_reserved":false,"is_disabled":false,"rental_uris":{"android":"levelo://app?vid=df8c937f-19ae-4217-a155-44b2fc5aa9b8","ios":"levelo://app?vid=df8c937f-19ae-4217-a155-44b2fc5aa9b8"},"vehicle_type_id":"4","last_reported":1751310467,"current_range_meters":17600,"station_id":"ce4bhbp2rcd13ifvqerg","pricing_plan_id":"cebpf4jnsgd1na2vs0mg"},{"bike_id":"cbd65d27-088b-445e-aa09-31ae3ca5d1a7","system_id":"levelo_inurba_marseille","lat":43.28543,"lon":5.3515,"is_reserved":false,"is_disabled":false,"rental_uris":{"android":"levelo://app?vid=cbd65d27-088b-445e-aa09-31ae3ca5d1a7","ios":"levelo://app?vid=cbd65d27-088b-445e-aa09-31ae3ca5d1a7"},"vehicle_type_id":"4","last_reported":1751310467,"current_range_meters":17600,"station_id":"ce4bhch2rcd13ifvqeug","pricing_plan_id":"cebpf4jnsgd1na2vs0mg"},{"bike_id":"a2864fe7-1184-48ae-a023-a28908a07e8e","system_id":"levelo_inurba_marseille","lat":43.27491,"lon":5.42436,"is_reserved":false,"is_disabled":false,"rental_uris":{"android":"levelo://app?vid=a2864fe7-1184-48ae-a023-a28908a07e8e","ios":"levelo://app?vid=a2864fe7-1184-48ae-a023-a28908a07e8e"},"vehicle_type_id":"4","last_reported":1751310467,"current_range_meters":17600,"station_id":"ce4bhn92rcd13ifvqgrg","pricing_plan_id":"cebpf4jnsgd1na2vs0mg"},{"bike_id":"d8a0c368-7b62-46af-88a0-caea9ca85503","system_id":"levelo_inurba_marseille","lat":43.28434,"lon":5.39202,"is_reserved":false,"is_disabled":false,"rental_uris":{"android":"levelo://app?vid=d8a0c368-7b62-46af-88a0-caea9ca85503","ios":"levelo://app?vid=d8a0c368-7b62-46af-88a0-caea9ca85503"},"vehicle_type_id":"4","last_reported":1751310467,"current_range_meters":17600,"station_id":"ce4bhoh2rcd13ifvqh5g","pricing_plan_id":"cebpf4jnsgd1na2vs0mg"},{"bike_id":"c0228700-5312-4a39-89af-ec53a5d729c5","system_id":"levelo_inurba_marseille","lat":43.28321,"lon":5.43232,"is_reserved":false,"is_disabled":false,"rental_uris":{"android":"levelo://app?vid=c0228700-5312-4a39-89af-ec53a5d729c5","ios":"levelo://app?vid=c0228700-5312-4a39-89af-ec53a5d729c5"},"vehicle_type_id":"4","last_reported":1751310467,"current_range_meters":18000,"station_id":"","pricing_plan_id":"cebpf4jnsgd1na2vs0mg"},{"bike_id":"35beb77a-b7f5-44e4-89e5-65347299d6a4","system_id":"levelo_inurba_marseille","lat":43.2927,"lon":5.38436,"is_reserved":false,"is_disabled":false,"rental_uris":{"android":"levelo://app?vid=35beb77a-b7f5-44e4-89e5-65347299d6a4","ios":"levelo://app?vid=35beb77a-b7f5-44e4-89e5-65347299d6a4"},"vehicle_type_id":"4","last_reported":1751310467,"current_range_meters":18000,"station_id":"ce4bh692rcd13ifvqea0","pricing_plan_id":"cebpf4jnsgd1na2vs0mg"},{"bike_id":"78cac896-d675-425b-b4f0-f4bf14010e59","system_id":"levelo_inurba_marseille","lat":43.29269,"lon":5.38426,"is_reserved":false,"is_disabled":false,"rental_uris":{"android":"levelo://app?vid=78cac896-d675-425b-b4f0-f4bf14010e59","ios":"levelo://app?vid=78cac896-d675-425b-b4f0-f4bf14010e59"},"vehicle_type_id":"4","last_reported":1751310467,"current_range_meters":18000,"station_id":"ce4bh692rcd13ifvqea0","pricing_plan_id":"cebpf4jnsgd1na2vs0mg"},{"bike_id":"0a24663d-7c62-458e-8d52-c21c6564ba2b","system_id":"levelo_inurba_marseille","lat":43.29238,"lon":5.36035,"is_reserved":false,"is_disabled":false,"rental_uris":{"android":"levelo://app?vid=0a24663d-7c62-458e-8d52-c21c6564ba2b","ios":"levelo://app?vid=0a24663d-7c62-458e-8d52-c21c6564ba2b"},"vehicle_type_id":"4","last_reported":1751310467,"current_range_meters":18000,"station_id":"ce4bhbh2rcd13ifvqeqg","pricing_plan_id":"cebpf4jnsgd1na2vs0mg"},{"bike_id":"124b68ad-3fee-4ccf-a549-b19fc6c9fca3","system_id":"levelo_inurba_marseille","lat":43.25487,"lon":5.37652,"is_reserved":false,"is_disabled":false,"rental_uris":{"android":"levelo://app?vid=124b68ad-3fee-4ccf-a549-b19fc6c9fca3","ios":"levelo://app?vid=124b68ad-3fee-4ccf-a549-b19fc6c9fca3"},"vehicle_type_id":"4","last_reported":1751310467,"current_range_meters":18000,"station_id":"ce4bhh12rcd13ifvqff0","pricing_plan_id":"cebpf4jnsgd1na2vs0mg"},{"bike_id":"d0b2f4a7-e242-4703-926d-40f0be1abcaa","system_id":"levelo_inurba_marseille","lat":43.24678,"lon":5.38165,"is_reserved":false,"is_disabled":false,"rental_uris":{"android":"levelo://app?vid=d0b2f4a7-e242-4703-926d-40f0be1abcaa","ios":"levelo://app?vid=d0b2f4a7-e242-4703-926d-40f0be1abcaa"},"vehicle_type_id":"4","last_reported":1751310467,"current_range_meters":18000,"station_id":"ce4bhih2rcd13ifvqfr0","pricing_plan_id":"cebpf4jnsgd1na2vs0mg"},{"bike_id":"0a5a6df3-791d-4e1e-9f7c-cb1cf013a1c7","system_id":"levelo_inurba_marseille","lat":43.25729,"lon":5.41105,"is_reserved":false,"is_disabled":false,"rental_uris":{"android":"levelo://app?vid=0a5a6df3-791d-4e1e-9f7c-cb1cf013a1c7","ios":"levelo://app?vid=0a5a6df3-791d-4e1e-9f7c-cb1cf013a1c7"},"vehicle_type_id":"4","last_reported":1751310467,"current_range_meters":18000,"station_id":"ce4bhkp2rcd13ifvqgd0","pricing_plan_id":"cebpf4jnsgd1na2vs0mg"},{"bike_id":"1caca1fc-4911-4e37-9aeb-383803780faf","system_id":"levelo_inurba_marseille","lat":43.321106,"lon":5.367632,"is_reserved":false,"is_disabled":false,"rental_uris":{"android":"levelo://app?vid=1caca1fc-4911-4e37-9aeb-383803780faf","ios":"levelo://app?vid=1caca1fc-4911-4e37-9aeb-383803780faf"},"vehicle_type_id":"4","last_reported":1751310467,"current_range_meters":18000,"station_id":"ce4bhrh2rcd13ifvqhug","pricing_plan_id":"cebpf4jnsgd1na2vs0mg"},{"bike_id":"c8542b34-a211-4fd0-a74b-85a27b3ff274","system_id":"levelo_inurba_marseille","lat":43.25789,"lon":5.40845,"is_reserved":false,"is_disabled":false,"rental_uris":{"android":"levelo://app?vid=c8542b34-a211-4fd0-a74b-85a27b3ff274","ios":"levelo://app?vid=c8542b34-a211-4fd0-a74b-85a27b3ff274"},"vehicle_type_id":"4","last_reported":1751310467,"current_range_meters":18800,"station_id":"","pricing_plan_id":"cebpf4jnsgd1na2vs0mg"},{"bike_id":"3c77801d-8c82-4018-95c7-af1cfbca3480","system_id":"levelo_inurba_marseille","lat":43.31686,"lon":5.40471,"is_reserved":false,"is_disabled":false,"rental_uris":{"android":"levelo://app?vid=3c77801d-8c82-4018-95c7-af1cfbca3480","ios":"levelo://app?vid=3c77801d-8c82-4018-95c7-af1cfbca3480"},"vehicle_type_id":"4","last_reported":1751310467,"current_range_meters":18800,"station_id":"ce4bh012rcd13ifvqd00","pricing_plan_id":"cebpf4jnsgd1na2vs0mg"},{"bike_id":"c6557751-a017-4ad3-a40d-2534020b8928","system_id":"levelo_inurba_marseille","lat":43.286723,"lon":5.363455,"is_reserved":false,"is_disabled":false,"rental_uris":{"android":"levelo://app?vid=c6557751-a017-4ad3-a40d-2534020b8928","ios":"levelo://app?vid=c6557751-a017-4ad3-a40d-2534020b8928"},"vehicle_type_id":"4","last_reported":1751310467,"current_range_meters":18800,"station_id":"ce4bhah2rcd13ifvqej0","pricing_plan_id":"cebpf4jnsgd1na2vs0mg"},{"bike_id":"6f5d2221-9b3c-4480-b1a5-0e1a4cf0a187","system_id":"levelo_inurba_marseille","lat":43.286214,"lon":5.350929,"is_reserved":false,"is_disabled":false,"rental_uris":{"android":"levelo://app?vid=6f5d2221-9b3c-4480-b1a5-0e1a4cf0a187","ios":"levelo://app?vid=6f5d2221-9b3c-4480-b1a5-0e1a4cf0a187"},"vehicle_type_id":"4","last_reported":1751310467,"current_range_meters":18800,"station_id":"ce4bhch2rcd13ifvqeug","pricing_plan_id":"cebpf4jnsgd1na2vs0mg"},{"bike_id":"8ad53220-e0dc-4223-912a-b0b7e0e87b8e","system_id":"levelo_inurba_marseille","lat":43.24547,"lon":5.395233,"is_reserved":false,"is_disabled":false,"rental_uris":{"android":"levelo://app?vid=8ad53220-e0dc-4223-912a-b0b7e0e87b8e","ios":"levelo://app?vid=8ad53220-e0dc-4223-912a-b0b7e0e87b8e"},"vehicle_type_id":"4","last_reported":1751310467,"current_range_meters":18800,"station_id":"ce4bhlp2rcd13ifvqgjg","pricing_plan_id":"cebpf4jnsgd1na2vs0mg"},{"bike_id":"518354b5-8405-430c-bbfc-0e30bc76b92d","system_id":"levelo_inurba_marseille","lat":43.21773,"lon":5.34585,"is_reserved":false,"is_disabled":false,"rental_uris":{"android":"levelo://app?vid=518354b5-8405-430c-bbfc-0e30bc76b92d","ios":"levelo://app?vid=518354b5-8405-430c-bbfc-0e30bc76b92d"},"vehicle_type_id":"4","last_reported":1751310467,"current_range_meters":18800,"station_id":"st_cvj6r9ubvosntc0bgbag","pricing_plan_id":"cebpf4jnsgd1na2vs0mg"},{"bike_id":"86fa6ce7-8cbe-47ff-b5d3-c2b4938fd05c","system_id":"levelo_inurba_marseille","lat":43.211936,"lon":5.350768,"is_reserved":false,"is_disabled":false,"rental_uris":{"android":"levelo://app?vid=86fa6ce7-8cbe-47ff-b5d3-c2b4938fd05c","ios":"levelo://app?vid=86fa6ce7-8cbe-47ff-b5d3-c2b4938fd05c"},"vehicle_type_id":"4","last_reported":1751310467,"current_range_meters":18800,"station_id":"st_cvj6sg6p6f1abm77japg","pricing_plan_id":"cebpf4jnsgd1na2vs0mg"},{"bike_id":"5767b9e4-81ec-40bf-bccc-db289ba35b4e","system_id":"levelo_inurba_marseille","lat":43.27379,"lon":5.41228,"is_reserved":false,"is_disabled":false,"rental_uris":{"android":"levelo://app?vid=5767b9e4-81ec-40bf-bccc-db289ba35b4e","ios":"levelo://app?vid=5767b9e4-81ec-40bf-bccc-db289ba35b4e"},"vehicle_type_id":"4","last_reported":1751310467,"current_range_meters":19200,"station_id":"","pricing_plan_id":"cebpf4jnsgd1na2vs0mg"},{"bike_id":"e88e3ee2-4b05-4ec6-a6fa-06bc17b46372","system_id":"levelo_inurba_marseille","lat":43.30886,"lon":5.39651,"is_reserved":false,"is_disabled":false,"rental_uris":{"android":"levelo://app?vid=e88e3ee2-4b05-4ec6-a6fa-06bc17b46372","ios":"levelo://app?vid=e88e3ee2-4b05-4ec6-a6fa-06bc17b46372"},"vehicle_type_id":"4","last_reported":1751310467,"current_range_meters":19200,"station_id":"ce4bh012rcd13ifvqcv0","pricing_plan_id":"cebpf4jnsgd1na2vs0mg"},{"bike_id":"fccc37c6-5ffe-4b50-a66a-8a2c67be5191","system_id":"levelo_inurba_marseille","lat":43.28275,"lon":5.35077,"is_reserved":false,"is_disabled":false,"rental_uris":{"android":"levelo://app?vid=fccc37c6-5ffe-4b50-a66a-8a2c67be5191","ios":"levelo://app?vid=fccc37c6-5ffe-4b50-a66a-8a2c67be5191"},"vehicle_type_id":"4","last_reported":1751310467,"current_range_meters":19200,"station_id":"ce4bhbp2rcd13ifvqerg","pricing_plan_id":"cebpf4jnsgd1na2vs0mg"},{"bike_id":"758f30ce-2020-4531-b636-1efe02e6f6bc","system_id":"levelo_inurba_marseille","lat":43.28615,"lon":5.35105,"is_reserved":false,"is_disabled":false,"rental_uris":{"android":"levelo://app?vid=758f30ce-2020-4531-b636-1efe02e6f6bc","ios":"levelo://app?vid=758f30ce-2020-4531-b636-1efe02e6f6bc"},"vehicle_type_id":"4","last_reported":1751310467,"current_range_meters":19200,"station_id":"ce4bhch2rcd13ifvqeug","pricing_plan_id":"cebpf4jnsgd1na2vs0mg"},{"bike_id":"19a4e39f-9f87-477d-bba9-f33e51e9a150","system_id":"levelo_inurba_marseille","lat":43.24388,"lon":5.37058,"is_reserved":false,"is_disabled":false,"rental_uris":{"android":"levelo://app?vid=19a4e39f-9f87-477d-bba9-f33e51e9a150","ios":"levelo://app?vid=19a4e39f-9f87-477d-bba9-f33e51e9a150"},"vehicle_type_id":"4","last_reported":1751310467,"current_range_meters":19200,"station_id":"ce4bhhh2rcd13ifvqfk0","pricing_plan_id":"cebpf4jnsgd1na2vs0mg"},{"bike_id":"95171ed2-058c-4929-97fe-e2cc775d6033","system_id":"levelo_inurba_marseille","lat":43.24667,"lon":5.38156,"is_reserved":false,"is_disabled":false,"rental_uris":{"android":"levelo://app?vid=95171ed2-058c-4929-97fe-e2cc775d6033","ios":"levelo://app?vid=95171ed2-058c-4929-97fe-e2cc775d6033"},"vehicle_type_id":"4","last_reported":1751310467,"current_range_meters":19200,"station_id":"ce4bhih2rcd13ifvqfr0","pricing_plan_id":"cebpf4jnsgd1na2vs0mg"},{"bike_id":"3d0a6053-33e1-4c67-a00f-65dffc166d0b","system_id":"levelo_inurba_marseille","lat":43.279999,"lon":5.400089,"is_reserved":false,"is_disabled":false,"rental_uris":{"android":"levelo://app?vid=3d0a6053-33e1-4c67-a00f-65dffc166d0b","ios":"levelo://app?vid=3d0a6053-33e1-4c67-a00f-65dffc166d0b"},"vehicle_type_id":"4","last_reported":1751310467,"current_range_meters":19200,"station_id":"ce4bho92rcd13ifvqh4g","pricing_plan_id":"cebpf4jnsgd1na2vs0mg"},{"bike_id":"3a33ebd2-49a2-4e39-92d7-f09d7dd08672","system_id":"levelo_inurba_marseille","lat":43.211908,"lon":5.350736,"is_reserved":false,"is_disabled":false,"rental_uris":{"android":"levelo://app?vid=3a33ebd2-49a2-4e39-92d7-f09d7dd08672","ios":"levelo://app?vid=3a33ebd2-49a2-4e39-92d7-f09d7dd08672"},"vehicle_type_id":"4","last_reported":1751310467,"current_range_meters":19200,"station_id":"st_cvj6sg6p6f1abm77japg","pricing_plan_id":"cebpf4jnsgd1na2vs0mg"},{"bike_id":"9fa747cf-7c7e-4401-b119-29552b418a37","system_id":"levelo_inurba_marseille","lat":43.27383,"lon":5.36213,"is_reserved":false,"is_disabled":false,"rental_uris":{"android":"levelo://app?vid=9fa747cf-7c7e-4401-b119-29552b418a37","ios":"levelo://app?vid=9fa747cf-7c7e-4401-b119-29552b418a37"},"vehicle_type_id":"4","last_reported":1751310467,"current_range_meters":19600,"station_id":"","pricing_plan_id":"cebpf4jnsgd1na2vs0mg"},{"bike_id":"e9be9d98-bd5d-4243-87cc-57964b988f1d","system_id":"levelo_inurba_marseille","lat":43.30143,"lon":5.37425,"is_reserved":false,"is_disabled":false,"rental_uris":{"android":"levelo://app?vid=e9be9d98-bd5d-4243-87cc-57964b988f1d","ios":"levelo://app?vid=e9be9d98-bd5d-4243-87cc-57964b988f1d"},"vehicle_type_id":"4","last_reported":1751310467,"current_range_meters":19600,"station_id":"ce4bgs92rcd13ifvqcc0","pricing_plan_id":"cebpf4jnsgd1na2vs0mg"},{"bike_id":"27bf4b55-193f-4b63-bc45-cc50b4bd5b2c","system_id":"levelo_inurba_marseille","lat":43.30805,"lon":5.38138,"is_reserved":false,"is_disabled":false,"rental_uris":{"android":"levelo://app?vid=27bf4b55-193f-4b63-bc45-cc50b4bd5b2c","ios":"levelo://app?vid=27bf4b55-193f-4b63-bc45-cc50b4bd5b2c"},"vehicle_type_id":"4","last_reported":1751310467,"current_range_meters":19600,"station_id":"ce4bgt12rcd13ifvqce0","pricing_plan_id":"cebpf4jnsgd1na2vs0mg"},{"bike_id":"d18eb9d7-9592-46fc-b5a0-f6dfaa4f31f1","system_id":"levelo_inurba_marseille","lat":43.28431,"lon":5.34971,"is_reserved":false,"is_disabled":false,"rental_uris":{"android":"levelo://app?vid=d18eb9d7-9592-46fc-b5a0-f6dfaa4f31f1","ios":"levelo://app?vid=d18eb9d7-9592-46fc-b5a0-f6dfaa4f31f1"},"vehicle_type_id":"4","last_reported":1751310467,"current_range_meters":19600,"station_id":"ce4bhbh2rcd13ifvqepg","pricing_plan_id":"cebpf4jnsgd1na2vs0mg"},{"bike_id":"dda8b503-29c5-44b8-a106-b42fae2c066a","system_id":"levelo_inurba_marseille","lat":43.28617,"lon":5.35099,"is_reserved":false,"is_disabled":false,"rental_uris":{"android":"levelo://app?vid=dda8b503-29c5-44b8-a106-b42fae2c066a","ios":"levelo://app?vid=dda8b503-29c5-44b8-a106-b42fae2c066a"},"vehicle_type_id":"4","last_reported":1751310467,"current_range_meters":19600,"station_id":"ce4bhch2rcd13ifvqeug","pricing_plan_id":"cebpf4jnsgd1na2vs0mg"},{"bike_id":"adf246bc-781b-4d62-b750-0759e4411544","system_id":"levelo_inurba_marseille","lat":43.2465,"lon":5.38894,"is_reserved":false,"is_disabled":false,"rental_uris":{"android":"levelo://app?vid=adf246bc-781b-4d62-b750-0759e4411544","ios":"levelo://app?vid=adf246bc-781b-4d62-b750-0759e4411544"},"vehicle_type_id":"4","last_reported":1751310467,"current_range_meters":19600,"station_id":"ce4bhg12rcd13ifvqf60","pricing_plan_id":"cebpf4jnsgd1na2vs0mg"},{"bike_id":"97cc0eb9-7c0d-42b3-b8bc-0d957723f159","system_id":"levelo_inurba_marseille","lat":43.24395,"lon":5.37045,"is_reserved":false,"is_disabled":false,"rental_uris":{"android":"levelo://app?vid=97cc0eb9-7c0d-42b3-b8bc-0d957723f159","ios":"levelo://app?vid=97cc0eb9-7c0d-42b3-b8bc-0d957723f159"},"vehicle_type_id":"4","last_reported":1751310467,"current_range_meters":19600,"station_id":"ce4bhhh2rcd13ifvqfk0","pricing_plan_id":"cebpf4jnsgd1na2vs0mg"},{"bike_id":"871fb840-1712-4ded-bd4e-46d7276213c8","system_id":"levelo_inurba_marseille","lat":43.24406,"lon":5.37054,"is_reserved":false,"is_disabled":false,"rental_uris":{"android":"levelo://app?vid=871fb840-1712-4ded-bd4e-46d7276213c8","ios":"levelo://app?vid=871fb840-1712-4ded-bd4e-46d7276213c8"},"vehicle_type_id":"4","last_reported":1751310467,"current_range_meters":19600,"station_id":"ce4bhhh2rcd13ifvqfk0","pricing_plan_id":"cebpf4jnsgd1na2vs0mg"},{"bike_id":"d2f72e45-6b0c-4b36-9924-deef3cd98510","system_id":"levelo_inurba_marseille","lat":43.274922,"lon":5.424529,"is_reserved":false,"is_disabled":false,"rental_uris":{"android":"levelo://app?vid=d2f72e45-6b0c-4b36-9924-deef3cd98510","ios":"levelo://app?vid=d2f72e45-6b0c-4b36-9924-deef3cd98510"},"vehicle_type_id":"4","last_reported":1751310467,"current_range_meters":19600,"station_id":"ce4bhn92rcd13ifvqgrg","pricing_plan_id":"cebpf4jnsgd1na2vs0mg"},{"bike_id":"067dc4af-ce5f-4fe4-9eaa-45414d4d8185","system_id":"levelo_inurba_marseille","lat":43.32338,"lon":5.40612,"is_reserved":false,"is_disabled":false,"rental_uris":{"android":"levelo://app?vid=067dc4af-ce5f-4fe4-9eaa-45414d4d8185","ios":"levelo://app?vid=067dc4af-ce5f-4fe4-9eaa-45414d4d8185"},"vehicle_type_id":"4","last_reported":1751310467,"current_range_meters":19600,"station_id":"ce4bhq92rcd13ifvqhjg","pricing_plan_id":"cebpf4jnsgd1na2vs0mg"},{"bike_id":"569afbd4-da57-4911-aecb-840950c33922","system_id":"levelo_inurba_marseille","lat":43.211929,"lon":5.350654,"is_reserved":false,"is_disabled":false,"rental_uris":{"android":"levelo://app?vid=569afbd4-da57-4911-aecb-840950c33922","ios":"levelo://app?vid=569afbd4-da57-4911-aecb-840950c33922"},"vehicle_type_id":"4","last_reported":1751310467,"current_range_meters":19600,"station_id":"st_cvj6sg6p6f1abm77japg","pricing_plan_id":"cebpf4jnsgd1na2vs0mg"},{"bike_id":"59d80a8f-ab2d-40a0-b405-7c4a9960338f","system_id":"levelo_inurba_marseille","lat":43.28253,"lon":5.35076,"is_reserved":false,"is_disabled":false,"rental_uris":{"android":"levelo://app?vid=59d80a8f-ab2d-40a0-b405-7c4a9960338f","ios":"levelo://app?vid=59d80a8f-ab2d-40a0-b405-7c4a9960338f"},"vehicle_type_id":"4","last_reported":1751310467,"current_range_meters":20000,"station_id":"ce4bhbp2rcd13ifvqerg","pricing_plan_id":"cebpf4jnsgd1na2vs0mg"},{"bike_id":"01bd36de-fcad-491e-a758-ffd27de4fcfc","system_id":"levelo_inurba_marseille","lat":43.2826,"lon":5.35047,"is_reserved":false,"is_disabled":false,"rental_uris":{"android":"levelo://app?vid=01bd36de-fcad-491e-a758-ffd27de4fcfc","ios":"levelo://app?vid=01bd36de-fcad-491e-a758-ffd27de4fcfc"},"vehicle_type_id":"4","last_reported":1751310467,"current_range_meters":20000,"station_id":"ce4bhbp2rcd13ifvqerg","pricing_plan_id":"cebpf4jnsgd1na2vs0mg"},{"bike_id":"09f4eeca-0b73-4a4d-b7ec-9e1647808114","system_id":"levelo_inurba_marseille","lat":43.28613,"lon":5.35104,"is_reserved":false,"is_disabled":false,"rental_uris":{"android":"levelo://app?vid=09f4eeca-0b73-4a4d-b7ec-9e1647808114","ios":"levelo://app?vid=09f4eeca-0b73-4a4d-b7ec-9e1647808114"},"vehicle_type_id":"4","last_reported":1751310467,"current_range_meters":20000,"station_id":"ce4bhch2rcd13ifvqeug","pricing_plan_id":"cebpf4jnsgd1na2vs0mg"},{"bike_id":"fceb16de-6a79-427a-b828-bfdb30836d2e","system_id":"levelo_inurba_marseille","lat":43.23186,"lon":5.39974,"is_reserved":false,"is_disabled":false,"rental_uris":{"android":"levelo://app?vid=fceb16de-6a79-427a-b828-bfdb30836d2e","ios":"levelo://app?vid=fceb16de-6a79-427a-b828-bfdb30836d2e"},"vehicle_type_id":"4","last_reported":1751310467,"current_range_meters":20000,"station_id":"ce4bhn12rcd13ifvqgqg","pricing_plan_id":"cebpf4jnsgd1na2vs0mg"},{"bike_id":"d11fe4c9-c130-42ee-bb73-8c70d6efcfc0","system_id":"levelo_inurba_marseille","lat":43.28985,"lon":5.36658,"is_reserved":false,"is_disabled":false,"rental_uris":{"android":"levelo://app?vid=d11fe4c9-c130-42ee-bb73-8c70d6efcfc0","ios":"levelo://app?vid=d11fe4c9-c130-42ee-bb73-8c70d6efcfc0"},"vehicle_type_id":"4","last_reported":1751310467,"current_range_meters":20400,"station_id":"","pricing_plan_id":"cebpf4jnsgd1na2vs0mg"},{"bike_id":"539ed013-9e80-448a-999f-a7819f54786a","system_id":"levelo_inurba_marseille","lat":43.290309,"lon":5.375668,"is_reserved":false,"is_disabled":false,"rental_uris":{"android":"levelo://app?vid=539ed013-9e80-448a-999f-a7819f54786a","ios":"levelo://app?vid=539ed013-9e80-448a-999f-a7819f54786a"},"vehicle_type_id":"4","last_reported":1751310467,"current_range_meters":20400,"station_id":"","pricing_plan_id":"cebpf4jnsgd1na2vs0mg"},{"bike_id":"934beea3-881e-4441-a5ff-95e7b68ba97b","system_id":"levelo_inurba_marseille","lat":43.34451,"lon":5.35974,"is_reserved":false,"is_disabled":false,"rental_uris":{"android":"levelo://app?vid=934beea3-881e-4441-a5ff-95e7b68ba97b","ios":"levelo://app?vid=934beea3-881e-4441-a5ff-95e7b68ba97b"},"vehicle_type_id":"4","last_reported":1751310467,"current_range_meters":20400,"station_id":"","pricing_plan_id":"cebpf4jnsgd1na2vs0mg"},{"bike_id":"080efb24-d814-4588-9124-ae1199efc453","system_id":"levelo_inurba_marseille","lat":43.304406,"lon":5.389204,"is_reserved":false,"is_disabled":false,"rental_uris":{"android":"levelo://app?vid=080efb24-d814-4588-9124-ae1199efc453","ios":"levelo://app?vid=080efb24-d814-4588-9124-ae1199efc453"},"vehicle_type_id":"4","last_reported":1751310467,"current_range_meters":20400,"station_id":"ce4bgk12rcd13ifvqbi0","pricing_plan_id":"cebpf4jnsgd1na2vs0mg"},{"bike_id":"13064423-c700-4c89-b724-19082f9782b6","system_id":"levelo_inurba_marseille","lat":43.23179,"lon":5.3998,"is_reserved":false,"is_disabled":false,"rental_uris":{"android":"levelo://app?vid=13064423-c700-4c89-b724-19082f9782b6","ios":"levelo://app?vid=13064423-c700-4c89-b724-19082f9782b6"},"vehicle_type_id":"4","last_reported":1751310467,"current_range_meters":20400,"station_id":"ce4bhn12rcd13ifvqgqg","pricing_plan_id":"cebpf4jnsgd1na2vs0mg"},{"bike_id":"d07c32de-f9c4-4f1b-b5f1-04fa8247640f","system_id":"levelo_inurba_marseille","lat":43.33716,"lon":5.39177,"is_reserved":false,"is_disabled":false,"rental_uris":{"android":"levelo://app?vid=d07c32de-f9c4-4f1b-b5f1-04fa8247640f","ios":"levelo://app?vid=d07c32de-f9c4-4f1b-b5f1-04fa8247640f"},"vehicle_type_id":"4","last_reported":1751310467,"current_range_meters":20400,"station_id":"ce4bhr92rcd13ifvqhsg","pricing_plan_id":"cebpf4jnsgd1na2vs0mg"},{"bike_id":"0f4dc0e2-030b-4fa4-9cba-48b970c00563","system_id":"levelo_inurba_marseille","lat":43.30135,"lon":5.38781,"is_reserved":false,"is_disabled":false,"rental_uris":{"android":"levelo://app?vid=0f4dc0e2-030b-4fa4-9cba-48b970c00563","ios":"levelo://app?vid=0f4dc0e2-030b-4fa4-9cba-48b970c00563"},"vehicle_type_id":"4","last_reported":1751310467,"current_range_meters":20800,"station_id":"ce4bghh2rcd13ifvqb60","pricing_plan_id":"cebpf4jnsgd1na2vs0mg"},{"bike_id":"3659c3b0-4ff2-485d-8602-fd610c59632d","system_id":"levelo_inurba_marseille","lat":43.28408,"lon":5.34982,"is_reserved":false,"is_disabled":false,"rental_uris":{"android":"levelo://app?vid=3659c3b0-4ff2-485d-8602-fd610c59632d","ios":"levelo://app?vid=3659c3b0-4ff2-485d-8602-fd610c59632d"},"vehicle_type_id":"4","last_reported":1751310467,"current_range_meters":20800,"station_id":"ce4bhbh2rcd13ifvqepg","pricing_plan_id":"cebpf4jnsgd1na2vs0mg"},{"bike_id":"874e5190-254e-4176-a11d-a66952072c83","system_id":"levelo_inurba_marseille","lat":43.28422,"lon":5.34972,"is_reserved":false,"is_disabled":false,"rental_uris":{"android":"levelo://app?vid=874e5190-254e-4176-a11d-a66952072c83","ios":"levelo://app?vid=874e5190-254e-4176-a11d-a66952072c83"},"vehicle_type_id":"4","last_reported":1751310467,"current_range_meters":20800,"station_id":"ce4bhbh2rcd13ifvqepg","pricing_plan_id":"cebpf4jnsgd1na2vs0mg"},{"bike_id":"b06e61ac-becb-45f1-97b2-0b1d0b20ea91","system_id":"levelo_inurba_marseille","lat":43.28407,"lon":5.3497,"is_reserved":false,"is_disabled":false,"rental_uris":{"android":"levelo://app?vid=b06e61ac-becb-45f1-97b2-0b1d0b20ea91","ios":"levelo://app?vid=b06e61ac-becb-45f1-97b2-0b1d0b20ea91"},"vehicle_type_id":"4","last_reported":1751310467,"current_range_meters":20800,"station_id":"ce4bhbh2rcd13ifvqepg","pricing_plan_id":"cebpf4jnsgd1na2vs0mg"},