{"last_updated":1758633650,"ttl":60,"version":"2.2","data":{"bikes":[{"bike_id":"ea22cbdb-c6c0-41c5-9686-bb72bf6216a2","system_id":"levelo_inurba_marseille","lat":43.2884,"lon":5.39318,"is_reserved":false,"is_disabled":false,"rental_uris":{"android":"levelo://app?vid=ea22cbdb-c6c0-41c5-9686-bb72bf6216a2","ios":"levelo://app?vid=ea22cbdb-c6c0-41c5-9686-bb72bf6216a2"},"vehicle_type_id":"4","last_reported":1758633650,"current_range_meters":2800,"station_id":"ce4bh2p2rcd13ifvqdi0","pricing_plan_id":"cebpf4jnsgd1na2vs0mg"},{"bike_id":"e4405f42-3608-4636-b419-04b11e4bed5a","system_id":"levelo_inurba_marseille","lat":43.29601,"lon":5.36748,"is_reserved":false,"is_disabled":false,"rental_uris":{"android":"levelo://app?vid=e4405f42-3608-4636-b419-04b11e4bed5a","ios":"levelo://app?vid=e4405f42-3608-4636-b419-04b11e4bed5a"},"vehicle_type_id":"4","last_reported":1758633650,"current_range_meters":2800,"station_id":"ce4bgph2rcd13ifvqc2g","pricing_plan_id":"cebpf4jnsgd1na2vs0mg"},{"bike_id":"eb097732-2ad6-4446-96ac-580b703f7103","system_id":"levelo_inurba_marseille","lat":43.30424,"lon":5.39753,"is_reserved":false,"is_disabled":false,"rental_uris":{"android":"levelo://app?vid=eb097732-2ad6-4446-96ac-580b703f7103","ios":"levelo://app?vid=eb097732-2ad6-4446-96ac-580b703f7103"},"vehicle_type_id":"4","last_reported":1758633650,"current_range_meters":2800,"station_id":"ce4bh092rcd13ifvqd20","pricing_plan_id":"cebpf4jnsgd1na2vs0mg"},{"bike_id":"b9ecf708-4288-405e-aff8-733a473b0516","system_id":"levelo_inurba_marseille","lat":43.25341,"lon":5.38627,"is_reserved":false,"is_disabled":false,"rental_uris":{"android":"levelo://app?vid=b9ecf708-4288-405e-aff8-733a473b0516","ios":"levelo://app?vid=b9ecf708-4288-405e-aff8-733a473b0516"},"vehicle_type_id":"4","last_reported":1758633650,"current_range_meters":2800,"station_id":"ce4bhih2rcd13ifvqfs0","pricing_plan_id":"cebpf4jnsgd1na2vs0mg"},{"bike_id":"200efc3f-0485-42d0-b63a-67b53a18ecf2","system_id":"levelo_inurba_marseille","lat":43.22929,"lon":5.35373,"is_reserved":false,"is_disabled":false,"rental_uris":{"android":"levelo://app?vid=200efc3f-0485-42d0-b63a-67b53a18ecf2","ios":"levelo://app?vid=200efc3f-0485-42d0-b63a-67b53a18ecf2"},"vehicle_type_id":"4","last_reported":1758633650,"current_range_meters":2800,"station_id":"cpo3532slgdg3j2ikp40","pricing_plan_id":"cebpf4jnsgd1na2vs0mg"},{"bike_id":"9ea87212-5451-47e0-99b7-069587686b41","system_id":"levelo_inurba_marseille","lat":43.26227,"lon":5.40454,"is_reserved":false,"is_disabled":false,"rental_uris":{"android":"levelo://app?vid=9ea87212-5451-47e0-99b7-069587686b41","ios":"levelo://app?vid=9ea87212-5451-47e0-99b7-069587686b41"},"vehicle_type_id":"4","last_reported":1758633650,"current_range_meters":3200,"station_id":"ce4bhmh2rcd13ifvqgmg","pricing_plan_id":"cebpf4jnsgd1na2vs0mg"},{"bike_id":"b9c140de-cf73-42f9-bf17-be39a4f7b520","system_id":"levelo_inurba_marseille","lat":43.29437,"lon":5.39752,"is_reserved":false,"is_disabled":false,"rental_uris":{"android":"levelo://app?vid=b9c140de-cf73-42f9-bf17-be39a4f7b520","ios":"levelo://app?vid=b9c140de-cf73-42f9-bf17-be39a4f7b520"},"vehicle_type_id":"4","last_reported":1758633650,"current_range_meters":2800,"station_id":"ce4bh3h2rcd13ifvqdo0","pricing_plan_id":"cebpf4jnsgd1na2vs0mg"},{"bike_id":"0085988b-feea-41af-a9a4-4cda7db3656d","system_id":"levelo_inurba_marseille","lat":43.21193,"lon":5.35056,"is_reserved":false,"is_disabled":false,"rental_uris":{"android":"levelo://app?vid=0085988b-feea-41af-a9a4-4cda7db3656d","ios":"levelo://app?vid=0085988b-feea-41af-a9a4-4cda7db3656d"},"vehicle_type_id":"4","last_reported":1758633650,"current_range_meters":3200,"station_id":"st_cvj6sg6p6f1abm77japg","pricing_plan_id":"cebpf4jnsgd1na2vs0mg"},{"bike_id":"252ca796-a6b6-4d02-a576-9e0dc18d4ed5","system_id":"levelo_inurba_marseille","lat":43.30584,"lon":5.39357,"is_reserved":false,"is_disabled":false,"rental_uris":{"android":"levelo://app?vid=252ca796-a6b6-4d02-a576-9e0dc18d4ed5","ios":"levelo://app?vid=252ca796-a6b6-4d02-a576-9e0dc18d4ed5"},"vehicle_type_id":"4","last_reported":1758633650,"current_range_meters":3600,"station_id":"ce4bh0p2rcd13ifvqd80","pricing_plan_id":"cebpf4jnsgd1na2vs0mg"},{"bike_id":"922e7484-6e53-4b8d-8a95-cf9f5390d601","system_id":"levelo_inurba_marseille","lat":43.21199,"lon":5.35057,"is_reserved":false,"is_disabled":false,"rental_uris":{"android":"levelo://app?vid=922e7484-6e53-4b8d-8a95-cf9f5390d601","ios":"levelo://app?vid=922e7484-6e53-4b8d-8a95-cf9f5390d601"},"vehicle_type_id":"4","last_reported":1758633650,"current_range_meters":3600,"station_id":"st_cvj6sg6p6f1abm77japg","pricing_plan_id":"cebpf4jnsgd1na2vs0mg"},{"bike_id":"72df89cb-7746-46e6-b269-fbddd2d473fe","system_id":"levelo_inurba_marseille","lat":43.32107,"lon":5.3676,"is_reserved":false,"is_disabled":false,"rental_uris":{"android":"levelo://app?vid=72df89cb-7746-46e6-b269-fbddd2d473fe","ios":"levelo://app?vid=72df89cb-7746-46e6-b269-fbddd2d473fe"},"vehicle_type_id":"4","last_reported":1758633650,"current_range_meters":3600,"station_id":"ce4bhrh2rcd13ifvqhug","pricing_plan_id":"cebpf4jnsgd1na2vs0mg"},{"bike_id":"05977a29-4492-4e42-b026-696e72e1cc93","system_id":"levelo_inurba_marseille","lat":43.28259,"lon":5.37267,"is_reserved":false,"is_disabled":false,"rental_uris":{"android":"levelo://app?vid=05977a29-4492-4e42-b026-696e72e1cc93","ios":"levelo://app?vid=05977a29-4492-4e42-b026-696e72e1cc93"},"vehicle_type_id":"4","last_reported":1758633650,"current_range_meters":4000,"station_id":"","pricing_plan_id":"cebpf4jnsgd1na2vs0mg"},{"bike_id":"5de060c0-2703-44a2-9bd5-341e8e312d37","system_id":"levelo_inurba_marseille","lat":43.304333,"lon":5.397342,"is_reserved":false,"is_disabled":false,"rental_uris":{"android":"levelo://app?vid=5de060c0-2703-44a2-9bd5-341e8e312d37","ios":"levelo://app?vid=5de060c0-2703-44a2-9bd5-341e8e312d37"},"vehicle_type_id":"4","last_reported":1758633650,"current_range_meters":4000,"station_id":"ce4bh092rcd13ifvqd20","pricing_plan_id":"cebpf4jnsgd1na2vs0mg"},{"bike_id":"360fb355-2ef3-4b41-93a0-b5bd181b826a","system_id":"levelo_inurba_marseille","lat":43.28847,"lon":5.39317,"is_reserved":false,"is_disabled":false,"rental_uris":{"android":"levelo://app?vid=360fb355-2ef3-4b41-93a0-b5bd181b826a","ios":"levelo://app?vid=360fb355-2ef3-4b41-93a0-b5bd181b826a"},"vehicle_type_id":"4","last_reported":1758633650,"current_range_meters":4000,"station_id":"ce4bh2p2rcd13ifvqdi0","pricing_plan_id":"cebpf4jnsgd1na2vs0mg"},{"bike_id":"54502de0-09ba-43cd-a1f2-9f84e6e6c1cb","system_id":"levelo_inurba_marseille","lat":43.290149,"lon":5.381283,"is_reserved":false,"is_disabled":false,"rental_uris":{"android":"levelo://app?vid=54502de0-09ba-43cd-a1f2-9f84e6e6c1cb","ios":"levelo://app?vid=54502de0-09ba-43cd-a1f2-9f84e6e6c1cb"},"vehicle_type_id":"4","last_reported":1758633650,"current_range_meters":4000,"station_id":"","pricing_plan_id":"cebpf4jnsgd1na2vs0mg"},{"bike_id":"1b790372-5d34-489f-a29a-5f2319ad70e0","system_id":"levelo_inurba_marseille","lat":43.28261,"lon":5.35048,"is_reserved":false,"is_disabled":true,"rental_uris":{"android":"levelo://app?vid=1b790372-5d34-489f-a29a-5f2319ad70e0","ios":"levelo://app?vid=1b790372-5d34-489f-a29a-5f2319ad70e0"},"vehicle_type_id":"4","last_reported":1758633650,"current_range_meters":4000,"station_id":"ce4bhbp2rcd13ifvqerg","pricing_plan_id":"cebpf4jnsgd1na2vs0mg"},{"bike_id":"43949c98-5d22-4a9b-97cf-f94dfc307d06","system_id":"levelo_inurba_marseille","lat":43.29043,"lon":5.39957,"is_reserved":false,"is_disabled":false,"rental_uris":{"android":"levelo://app?vid=43949c98-5d22-4a9b-97cf-f94dfc307d06","ios":"levelo://app?vid=43949c98-5d22-4a9b-97cf-f94dfc307d06"},"vehicle_type_id":"4","last_reported":1758633650,"current_range_meters":4400,"station_id":"ce4bh392rcd13ifvqdm0","pricing_plan_id":"cebpf4jnsgd1na2vs0mg"},{"bike_id":"02ffde36-df11-4a5b-a597-2f4839a53977","system_id":"levelo_inurba_marseille","lat":43.295282,"lon":5.390452,"is_reserved":false,"is_disabled":false,"rental_uris":{"android":"levelo://app?vid=02ffde36-df11-4a5b-a597-2f4839a53977","ios":"levelo://app?vid=02ffde36-df11-4a5b-a597-2f4839a53977"},"vehicle_type_id":"4","last_reported":1758633650,"current_range_meters":4400,"station_id":"ce4bh3p2rcd13ifvqdp0","pricing_plan_id":"cebpf4jnsgd1na2vs0mg"},{"bike_id":"76724701-f266-4535-8499-be4adc9b6918","system_id":"levelo_inurba_marseille","lat":43.28699,"lon":5.39984,"is_reserved":false,"is_disabled":false,"rental_uris":{"android":"levelo://app?vid=76724701-f266-4535-8499-be4adc9b6918","ios":"levelo://app?vid=76724701-f266-4535-8499-be4adc9b6918"},"vehicle_type_id":"4","last_reported":1758633650,"current_range_meters":4800,"station_id":"ce4bho92rcd13ifvqh3g","pricing_plan_id":"cebpf4jnsgd1na2vs0mg"},{"bike_id":"5dc88848-aaad-4a7a-adc7-b0b869f1e747","system_id":"levelo_inurba_marseille","lat":43.285077,"lon":5.360426,"is_reserved":false,"is_disabled":false,"rental_uris":{"android":"levelo://app?vid=5dc88848-aaad-4a7a-adc7-b0b869f1e747","ios":"levelo://app?vid=5dc88848-aaad-4a7a-adc7-b0b869f1e747"},"vehicle_type_id":"4","last_reported":1758633650,"current_range_meters":4800,"station_id":"ce4bhah2rcd13ifvqei0","pricing_plan_id":"cebpf4jnsgd1na2vs0mg"},{"bike_id":"db039eb9-8741-4ce0-a73f-f380b76fdb17","system_id":"levelo_inurba_marseille","lat":43.26556,"lon":5.37284,"is_reserved":false,"is_disabled":false,"rental_uris":{"android":"levelo://app?vid=db039eb9-8741-4ce0-a73f-f380b76fdb17","ios":"levelo://app?vid=db039eb9-8741-4ce0-a73f-f380b76fdb17"},"vehicle_type_id":"4","last_reported":1758633650,"current_range_meters":4800,"station_id":"ce4bhg12rcd13ifvqf70","pricing_plan_id":"cebpf4jnsgd1na2vs0mg"},{"bike_id":"5cd6485f-4c3c-42f6-8a2d-22b6d2f96ab7","system_id":"levelo_inurba_marseille","lat":43.29523,"lon":5.38535,"is_reserved":false,"is_disabled":false,"rental_uris":{"android":"levelo://app?vid=5cd6485f-4c3c-42f6-8a2d-22b6d2f96ab7","ios":"levelo://app?vid=5cd6485f-4c3c-42f6-8a2d-22b6d2f96ab7"},"vehicle_type_id":"4","last_reported":1758633650,"current_range_meters":4800,"station_id":"ce4bgih2rcd13ifvqba0","pricing_plan_id":"cebpf4jnsgd1na2vs0mg"},{"bike_id":"e89b4882-a351-4193-9d47-f6479514a644","system_id":"levelo_inurba_marseille","lat":43.28423,"lon":5.34975,"is_reserved":false,"is_disabled":false,"rental_uris":{"android":"levelo://app?vid=e89b4882-a351-4193-9d47-f6479514a644","ios":"levelo://app?vid=e89b4882-a351-4193-9d47-f6479514a644"},"vehicle_type_id":"4","last_reported":1758633650,"current_range_meters":4800,"station_id":"ce4bhbh2rcd13ifvqepg","pricing_plan_id":"cebpf4jnsgd1na2vs0mg"},{"bike_id":"af1eb2bc-25ca-4d7d-8614-004f17b4364c","system_id":"levelo_inurba_marseille","lat":43.2937,"lon":5.37861,"is_reserved":false,"is_disabled":false,"rental_uris":{"android":"levelo://app?vid=af1eb2bc-25ca-4d7d-8614-004f17b4364c","ios":"levelo://app?vid=af1eb2bc-25ca-4d7d-8614-004f17b4364c"},"vehicle_type_id":"4","last_reported":1758633650,"current_range_meters":4800,"station_id":"ce4bgjh2rcd13ifvqbf0","pricing_plan_id":"cebpf4jnsgd1na2vs0mg"},{"bike_id":"2c303225-5390-4c11-9977-ba439fb1abac","system_id":"levelo_inurba_marseille","lat":43.29269,"lon":5.40896,"is_reserved":false,"is_disabled":false,"rental_uris":{"android":"levelo://app?vid=2c303225-5390-4c11-9977-ba439fb1abac","ios":"levelo://app?vid=2c303225-5390-4c11-9977-ba439fb1abac"},"vehicle_type_id":"4","last_reported":1758633650,"current_range_meters":4800,"station_id":"ce4bh192rcd13ifvqdc0","pricing_plan_id":"cebpf4jnsgd1na2vs0mg"},{"bike_id":"9176512c-2cc1-4df2-a8e0-6be514fbcdbf","system_id":"levelo_inurba_marseille","lat":43.33748,"lon":5.37465,"is_reserved":false,"is_disabled":false,"rental_uris":{"android":"levelo://app?vid=9176512c-2cc1-4df2-a8e0-6be514fbcdbf","ios":"levelo://app?vid=9176512c-2cc1-4df2-a8e0-6be514fbcdbf"},"vehicle_type_id":"4","last_reported":1758633650,"current_range_meters":5600,"station_id":"","pricing_plan_id":"cebpf4jnsgd1na2vs0mg"},{"bike_id":"438ead59-de14-4fa0-a61d-03a70a4122ae","system_id":"levelo_inurba_marseille","lat":43.97285,"lon":4.89134,"is_reserved":false,"is_disabled":true,"rental_uris":{"android":"levelo://app?vid=438ead59-de14-4fa0-a61d-03a70a4122ae","ios":"levelo://app?vid=438ead59-de14-4fa0-a61d-03a70a4122ae"},"vehicle_type_id":"4","last_reported":1758633650,"current_range_meters":5600,"station_id":"","pricing_plan_id":"cebpf4jnsgd1na2vs0mg"},{"bike_id":"9b087a65-9596-4376-9690-36385cd26a2f","system_id":"levelo_inurba_marseille","lat":43.29792,"lon":5.38091,"is_reserved":false,"is_disabled":false,"rental_uris":{"android":"levelo://app?vid=9b087a65-9596-4376-9690-36385cd26a2f","ios":"levelo://app?vid=9b087a65-9596-4376-9690-36385cd26a2f"},"vehicle_type_id":"4","last_reported":1758633650,"current_range_meters":5600,"station_id":"ce4bgip2rcd13ifvqbb0","pricing_plan_id":"cebpf4jnsgd1na2vs0mg"},{"bike_id":"be608c09-73bf-4ef4-935c-b54eff4b15be","system_id":"levelo_inurba_marseille","lat":43.29978,"lon":5.37149,"is_reserved":false,"is_disabled":false,"rental_uris":{"android":"levelo://app?vid=be608c09-73bf-4ef4-935c-b54eff4b15be","ios":"levelo://app?vid=be608c09-73bf-4ef4-935c-b54eff4b15be"},"vehicle_type_id":"4","last_reported":1758633650,"current_range_meters":5600,"station_id":"ce4bgr92rcd13ifvqc7g","pricing_plan_id":"cebpf4jnsgd1na2vs0mg"},{"bike_id":"146fa480-dedb-488f-bea0-81c7e6508a36","system_id":"levelo_inurba_marseille","lat":43.30294,"lon":5.39197,"is_reserved":false,"is_disabled":false,"rental_uris":{"android":"levelo://app?vid=146fa480-dedb-488f-bea0-81c7e6508a36","ios":"levelo://app?vid=146fa480-dedb-488f-bea0-81c7e6508a36"},"vehicle_type_id":"4","last_reported":1758633650,"current_range_meters":6000,"station_id":"ce4bgkh2rcd13ifvqbk0","pricing_plan_id":"cebpf4jnsgd1na2vs0mg"},{"bike_id":"cf15f0ab-4027-43c7-82dc-a40724160eb1","system_id":"levelo_inurba_marseille","lat":43.21737,"lon":5.34585,"is_reserved":false,"is_disabled":false,"rental_uris":{"android":"levelo://app?vid=cf15f0ab-4027-43c7-82dc-a40724160eb1","ios":"levelo://app?vid=cf15f0ab-4027-43c7-82dc-a40724160eb1"},"vehicle_type_id":"4","last_reported":1758633650,"current_range_meters":6000,"station_id":"st_cvj6r9ubvosntc0bgbag","pricing_plan_id":"cebpf4jnsgd1na2vs0mg"},{"bike_id":"493fb070-22be-412f-9f52-aa1f58253258","system_id":"levelo_inurba_marseille","lat":43.31116,"lon":5.37779,"is_reserved":false,"is_disabled":false,"rental_uris":{"android":"levelo://app?vid=493fb070-22be-412f-9f52-aa1f58253258","ios":"levelo://app?vid=493fb070-22be-412f-9f52-aa1f58253258"},"vehicle_type_id":"4","last_reported":1758633650,"current_range_meters":6000,"station_id":"ce4bgt92rcd13ifvqcg0","pricing_plan_id":"cebpf4jnsgd1na2vs0mg"},{"bike_id":"c1727d00-2514-40a1-8f30-0e0b18ad53ac","system_id":"levelo_inurba_marseille","lat":43.29615,"lon":5.37731,"is_reserved":false,"is_disabled":false,"rental_uris":{"android":"levelo://app?vid=c1727d00-2514-40a1-8f30-0e0b18ad53ac","ios":"levelo://app?vid=c1727d00-2514-40a1-8f30-0e0b18ad53ac"},"vehicle_type_id":"4","last_reported":1758633650,"current_range_meters":6000,"station_id":"ce4bgi92rcd13ifvqb90","pricing_plan_id":"cebpf4jnsgd1na2vs0mg"},{"bike_id":"2289a0ff-9c3e-4f79-ad38-4b41158d6057","system_id":"levelo_inurba_marseille","lat":43.29882,"lon":5.37911,"is_reserved":false,"is_disabled":false,"rental_uris":{"android":"levelo://app?vid=2289a0ff-9c3e-4f79-ad38-4b41158d6057","ios":"levelo://app?vid=2289a0ff-9c3e-4f79-ad38-4b41158d6057"},"vehicle_type_id":"4","last_reported":1758633650,"current_range_meters":6000,"station_id":"","pricing_plan_id":"cebpf4jnsgd1na2vs0mg"},{"bike_id":"9c1769dd-044f-4f13-a222-827b2a2cde3d","system_id":"levelo_inurba_marseille","lat":43.2512,"lon":5.40317,"is_reserved":false,"is_disabled":false,"rental_uris":{"android":"levelo://app?vid=9c1769dd-044f-4f13-a222-827b2a2cde3d","ios":"levelo://app?vid=9c1769dd-044f-4f13-a222-827b2a2cde3d"},"vehicle_type_id":"4","last_reported":1758633650,"current_range_meters":10000,"station_id":"ce4bhlh2rcd13ifvqgig","pricing_plan_id":"cebpf4jnsgd1na2vs0mg"},{"bike_id":"9fd77543-f18d-4c23-af18-b4fabf18caa2","system_id":"levelo_inurba_marseille","lat":43.28139,"lon":5.42641,"is_reserved":false,"is_disabled":false,"rental_uris":{"android":"levelo://app?vid=9fd77543-f18d-4c23-af18-b4fabf18caa2","ios":"levelo://app?vid=9fd77543-f18d-4c23-af18-b4fabf18caa2"},"vehicle_type_id":"4","last_reported":1758633650,"current_range_meters":6000,"station_id":"ce4bhnh2rcd13ifvqgug","pricing_plan_id":"cebpf4jnsgd1na2vs0mg"},{"bike_id":"296a72b0-6395-47a8-b78a-d3904027bf5a","system_id":"levelo_inurba_marseille","lat":43.28618,"lon":5.35114,"is_reserved":false,"is_disabled":false,"rental_uris":{"android":"levelo://app?vid=296a72b0-6395-47a8-b78a-d3904027bf5a","ios":"levelo://app?vid=296a72b0-6395-47a8-b78a-d3904027bf5a"},"vehicle_type_id":"4","last_reported":1758633650,"current_range_meters":6000,"station_id":"ce4bhch2rcd13ifvqeug","pricing_plan_id":"cebpf4jnsgd1na2vs0mg"},{"bike_id":"cfcf24f8-59d7-45dc-8f1c-50c452287a6e","system_id":"levelo_inurba_marseille","lat":43.28913,"lon":5.38378,"is_reserved":false,"is_disabled":false,"rental_uris":{"android":"levelo://app?vid=cfcf24f8-59d7-45dc-8f1c-50c452287a6e","ios":"levelo://app?vid=cfcf24f8-59d7-45dc-8f1c-50c452287a6e"},"vehicle_type_id":"4","last_reported":1758633650,"current_range_meters":6000,"station_id":"ce4bh612rcd13ifvqe6g","pricing_plan_id":"cebpf4jnsgd1na2vs0mg"},{"bike_id":"698a1659-1be4-4464-8e40-0054e6845364","system_id":"levelo_inurba_marseille","lat":43.29371,"lon":5.40348,"is_reserved":false,"is_disabled":false,"rental_uris":{"android":"levelo://app?vid=698a1659-1be4-4464-8e40-0054e6845364","ios":"levelo://app?vid=698a1659-1be4-4464-8e40-0054e6845364"},"vehicle_type_id":"4","last_reported":1758633650,"current_range_meters":6400,"station_id":"","pricing_plan_id":"cebpf4jnsgd1na2vs0mg"},{"bike_id":"064dce27-e44c-43b7-914a-6f4b3d10bbd2","system_id":"levelo_inurba_marseille","lat":43.26775,"lon":5.39424,"is_reserved":false,"is_disabled":false,"rental_uris":{"android":"levelo://app?vid=064dce27-e44c-43b7-914a-6f4b3d10bbd2","ios":"levelo://app?vid=064dce27-e44c-43b7-914a-6f4b3d10bbd2"},"vehicle_type_id":"4","last_reported":1758633650,"current_range_meters":6400,"station_id":"ce4bhh12rcd13ifvqfg0","pricing_plan_id":"cebpf4jnsgd1na2vs0mg"},{"bike_id":"4b4f907b-bb93-4310-9708-a4a54af2bd14","system_id":"levelo_inurba_marseille","lat":43.30433,"lon":5.39743,"is_reserved":false,"is_disabled":false,"rental_uris":{"android":"levelo://app?vid=4b4f907b-bb93-4310-9708-a4a54af2bd14","ios":"levelo://app?vid=4b4f907b-bb93-4310-9708-a4a54af2bd14"},"vehicle_type_id":"4","last_reported":1758633650,"current_range_meters":6400,"station_id":"ce4bh092rcd13ifvqd20","pricing_plan_id":"cebpf4jnsgd1na2vs0mg"},{"bike_id":"6ea3e0ce-29b0-4b08-881d-ec13a41e32ba","system_id":"levelo_inurba_marseille","lat":43.282686,"lon":5.350491,"is_reserved":false,"is_disabled":false,"rental_uris":{"android":"levelo://app?vid=6ea3e0ce-29b0-4b08-881d-ec13a41e32ba","ios":"levelo://app?vid=6ea3e0ce-29b0-4b08-881d-ec13a41e32ba"},"vehicle_type_id":"4","last_reported":1758633650,"current_range_meters":6800,"station_id":"","pricing_plan_id":"cebpf4jnsgd1na2vs0mg"},{"bike_id":"b968685a-9fb9-42dd-8cd7-e7fb7ba27bb6","system_id":"levelo_inurba_marseille","lat":43.3112,"lon":5.37758,"is_reserved":false,"is_disabled":false,"rental_uris":{"android":"levelo://app?vid=b968685a-9fb9-42dd-8cd7-e7fb7ba27bb6","ios":"levelo://app?vid=b968685a-9fb9-42dd-8cd7-e7fb7ba27bb6"},"vehicle_type_id":"4","last_reported":1758633650,"current_range_meters":6800,"station_id":"ce4bgt92rcd13ifvqcg0","pricing_plan_id":"cebpf4jnsgd1na2vs0mg"},{"bike_id":"76f99441-8513-48a1-9281-7d7385be543b","system_id":"levelo_inurba_marseille","lat":43.29797,"lon":5.38112,"is_reserved":false,"is_disabled":false,"rental_uris":{"android":"levelo://app?vid=76f99441-8513-48a1-9281-7d7385be543b","ios":"levelo://app?vid=76f99441-8513-48a1-9281-7d7385be543b"},"vehicle_type_id":"4","last_reported":1758633650,"current_range_meters":6800,"station_id":"ce4bgip2rcd13ifvqbb0","pricing_plan_id":"cebpf4jnsgd1na2vs0mg"},{"bike_id":"3d3616ae-55ab-4319-9346-2104e95c171f","system_id":"levelo_inurba_marseille","lat":43.30978,"lon":5.37958,"is_reserved":false,"is_disabled":false,"rental_uris":{"android":"levelo://app?vid=3d3616ae-55ab-4319-9346-2104e95c171f","ios":"levelo://app?vid=3d3616ae-55ab-4319-9346-2104e95c171f"},"vehicle_type_id":"4","last_reported":1758633650,"current_range_meters":7200,"station_id":"","pricing_plan_id":"cebpf4jnsgd1na2vs0mg"},{"bike_id":"fd521206-5bcf-41c0-bb36-20407dead8bc","system_id":"levelo_inurba_marseille","lat":43.30646,"lon":5.40095,"is_reserved":false,"is_disabled":false,"rental_uris":{"android":"levelo://app?vid=fd521206-5bcf-41c0-bb36-20407dead8bc","ios":"levelo://app?vid=fd521206-5bcf-41c0-bb36-20407dead8bc"},"vehicle_type_id":"4","last_reported":1758633650,"current_range_meters":7200,"station_id":"ce4bh112rcd13ifvqda0","pricing_plan_id":"cebpf4jnsgd1na2vs0mg"},{"bike_id":"13d357ad-eb33-49bb-b9eb-67759ddade19","system_id":"levelo_inurba_marseille","lat":43.30378,"lon":5.42486,"is_reserved":false,"is_disabled":false,"rental_uris":{"android":"levelo://app?vid=13d357ad-eb33-49bb-b9eb-67759ddade19","ios":"levelo://app?vid=13d357ad-eb33-49bb-b9eb-67759ddade19"},"vehicle_type_id":"4","last_reported":1758633650,"current_range_meters":7200,"station_id":"ce4bhoh2rcd13ifvqh6g","pricing_plan_id":"cebpf4jnsgd1na2vs0mg"},{"bike_id":"41e03531-d926-4714-9cb0-33d759375f30","system_id":"levelo_inurba_marseille","lat":43.312171,"lon":5.368161,"is_reserved":false,"is_disabled":false,"rental_uris":{"android":"levelo://app?vid=41e03531-d926-4714-9cb0-33d759375f30","ios":"levelo://app?vid=41e03531-d926-4714-9cb0-33d759375f30"},"vehicle_type_id":"4","last_reported":1758633650,"current_range_meters":7200,"station_id":"ce4bgl92rcd13ifvqbq0","pricing_plan_id":"cebpf4jnsgd1na2vs0mg"},{"bike_id":"af29bd4a-51c0-47f1-bce0-b9ca138339ea","system_id":"levelo_inurba_marseille","lat":43.317114,"lon":5.437035,"is_reserved":false,"is_disabled":false,"rental_uris":{"android":"levelo://app?vid=af29bd4a-51c0-47f1-bce0-b9ca138339ea","ios":"levelo://app?vid=af29bd4a-51c0-47f1-bce0-b9ca138339ea"},"vehicle_type_id":"4","last_reported":1758633650,"current_range_meters":8000,"station_id":"ce4bhp92rcd13ifvqhcg","pricing_plan_id":"cebpf4jnsgd1na2vs0mg"},{"bike_id":"7fd14ad2-a454-423d-bbfa-04d2678cc6ac","system_id":"levelo_inurba_marseille","lat":43.2977,"lon":5.38121,"is_reserved":false,"is_disabled":false,"rental_uris":{"android":"levelo://app?vid=7fd14ad2-a454-423d-bbfa-04d2678cc6ac","ios":"levelo://app?vid=7fd14ad2-a454-423d-bbfa-04d2678cc6ac"},"vehicle_type_id":"4","last_reported":1758633650,"current_range_meters":8000,"station_id":"ce4bgip2rcd13ifvqbb0","pricing_plan_id":"cebpf4jnsgd1na2vs0mg"},{"bike_id":"87828865-c641-4a92-96cc-2a9d2b51cfba","system_id":"levelo_inurba_marseille","lat":43.21766,"lon":5.34585,"is_reserved":false,"is_disabled":false,"rental_uris":{"android":"levelo://app?vid=87828865-c641-4a92-96cc-2a9d2b51cfba","ios":"levelo://app?vid=87828865-c641-4a92-96cc-2a9d2b51cfba"},"vehicle_type_id":"4","last_reported":1758633650,"current_range_meters":8000,"station_id":"st_cvj6r9ubvosntc0bgbag","pricing_plan_id":"cebpf4jnsgd1na2vs0mg"},{"bike_id":"ca000825-5d13-495e-af19-915ae846db43","system_id":"levelo_inurba_marseille","lat":43.33022,"lon":5.39053,"is_reserved":false,"is_disabled":false,"rental_uris":{"android":"levelo://app?vid=ca000825-5d13-495e-af19-915ae846db43","ios":"levelo://app?vid=ca000825-5d13-495e-af19-915ae846db43"},"vehicle_type_id":"4","last_reported":1758633650,"current_range_meters":8000,"station_id":"ce4bhr92rcd13ifvqhrg","pricing_plan_id":"cebpf4jnsgd1na2vs0mg"},{"bike_id":"0d6d7c79-1fa3-42b7-828e-912eec7cea4c","system_id":"levelo_inurba_marseille","lat":43.29558,"lon":5.38174,"is_reserved":false,"is_disabled":false,"rental_uris":{"android":"levelo://app?vid=0d6d7c79-1fa3-42b7-828e-912eec7cea4c","ios":"levelo://app?vid=0d6d7c79-1fa3-42b7-828e-912eec7cea4c"},"vehicle_type_id":"4","last_reported":1758633650,"current_range_meters":8000,"station_id":"","pricing_plan_id":"cebpf4jnsgd1na2vs0mg"},{"bike_id":"fce92153-b339-4eb4-abcf-5410df74c174","system_id":"levelo_inurba_marseille","lat":43.28571,"lon":5.39488,"is_reserved":false,"is_disabled":false,"rental_uris":{"android":"levelo://app?vid=fce92153-b339-4eb4-abcf-5410df74c174","ios":"levelo://app?vid=fce92153-b339-4eb4-abcf-5410df74c174"},"vehicle_type_id":"4","last_reported":1758633650,"current_range_meters":7200,"station_id":"ce4bh292rcd13ifvqdg0","pricing_plan_id":"cebpf4jnsgd1na2vs0mg"},{"bike_id":"a15e48c8-16c3-437e-a237-62b9e19d84cb","system_id":"levelo_inurba_marseille","lat":43.21754,"lon":5.34601,"is_reserved":false,"is_disabled":false,"rental_uris":{"android":"levelo://app?vid=a15e48c8-16c3-437e-a237-62b9e19d84cb","ios":"levelo://app?vid=a15e48c8-16c3-437e-a237-62b9e19d84cb"},"vehicle_type_id":"4","last_reported":1758633650,"current_range_meters":8400,"station_id":"st_cvj6r9ubvosntc0bgbag","pricing_plan_id":"cebpf4jnsgd1na2vs0mg"},{"bike_id":"b91210f7-f00a-4d9c-b3ce-53027021b259","system_id":"levelo_inurba_marseille","lat":43.28486,"lon":5.38555,"is_reserved":false,"is_disabled":false,"rental_uris":{"android":"levelo://app?vid=b91210f7-f00a-4d9c-b3ce-53027021b259","ios":"levelo://app?vid=b91210f7-f00a-4d9c-b3ce-53027021b259"},"vehicle_type_id":"4","last_reported":1758633650,"current_range_meters":8400,"station_id":"ce4bh8p2rcd13ifvqeb0","pricing_plan_id":"cebpf4jnsgd1na2vs0mg"},{"bike_id":"2f1023ac-59a6-429d-9923-192594cea041","system_id":"levelo_inurba_marseille","lat":43.295718,"lon":5.399842,"is_reserved":false,"is_disabled":false,"rental_uris":{"android":"levelo://app?vid=2f1023ac-59a6-429d-9923-192594cea041","ios":"levelo://app?vid=2f1023ac-59a6-429d-9923-192594cea041"},"vehicle_type_id":"4","last_reported":1758633650,"current_range_meters":8400,"station_id":"ce4bh312rcd13ifvqdj0","pricing_plan_id":"cebpf4jnsgd1na2vs0mg"},{"bike_id":"bdecd53d-5bb8-4133-aec7-83282f2f4ba4","system_id":"levelo_inurba_marseille","lat":43.30894,"lon":5.37187,"is_reserved":false,"is_disabled":false,"rental_uris":{"android":"levelo://app?vid=bdecd53d-5bb8-4133-aec7-83282f2f4ba4","ios":"levelo://app?vid=bdecd53d-5bb8-4133-aec7-83282f2f4ba4"},"vehicle_type_id":"4","last_reported":1758633650,"current_range_meters":8000,"station_id":"ce4bguh2rcd13ifvqckg","pricing_plan_id":"cebpf4jnsgd1na2vs0mg"},{"bike_id":"f7b6108f-c38f-4ef7-82f1-ce08cf51e4f1","system_id":"levelo_inurba_marseille","lat":43.29262,"lon":5.38438,"is_reserved":false,"is_disabled":true,"rental_uris":{"android":"levelo://app?vid=f7b6108f-c38f-4ef7-82f1-ce08cf51e4f1","ios":"levelo://app?vid=f7b6108f-c38f-4ef7-82f1-ce08cf51e4f1"},"vehicle_type_id":"4","last_reported":1758633650,"current_range_meters":8400,"station_id":"ce4bh692rcd13ifvqea0","pricing_plan_id":"cebpf4jnsgd1na2vs0mg"},{"bike_id":"20fd71da-81fd-49c8-8c8b-86353433d687","system_id":"levelo_inurba_marseille","lat":43.28104,"lon":5.37843,"is_reserved":false,"is_disabled":false,"rental_uris":{"android":"levelo://app?vid=20fd71da-81fd-49c8-8c8b-86353433d687","ios":"levelo://app?vid=20fd71da-81fd-49c8-8c8b-86353433d687"},"vehicle_type_id":"4","last_reported":1758633650,"current_range_meters":8400,"station_id":"ce4bha12rcd13ifvqee0","pricing_plan_id":"cebpf4jnsgd1na2vs0mg"},{"bike_id":"a6b1a945-7555-40ea-87d7-a002a606ba79","system_id":"levelo_inurba_marseille","lat":43.24807,"lon":5.37463,"is_reserved":false,"is_disabled":false,"rental_uris":{"android":"levelo://app?vid=a6b1a945-7555-40ea-87d7-a002a606ba79","ios":"levelo://app?vid=a6b1a945-7555-40ea-87d7-a002a606ba79"},"vehicle_type_id":"4","last_reported":1758633650,"current_range_meters":8800,"station_id":"ce4bhgh2rcd13ifvqfb0","pricing_plan_id":"cebpf4jnsgd1na2vs0mg"},{"bike_id":"809d9c54-c072-46e5-9088-1f41e70a6537","system_id":"levelo_inurba_marseille","lat":43.28962,"lon":5.37833,"is_reserved":false,"is_disabled":false,"rental_uris":{"android":"levelo://app?vid=809d9c54-c072-46e5-9088-1f41e70a6537","ios":"levelo://app?vid=809d9c54-c072-46e5-9088-1f41e70a6537"},"vehicle_type_id":"4","last_reported":1758633650,"current_range_meters":8800,"station_id":"ce4bh9p2rcd13ifvqed0","pricing_plan_id":"cebpf4jnsgd1na2vs0mg"},{"bike_id":"9711350c-d6a5-47ae-b6a8-5e3cf09d491d","system_id":"levelo_inurba_marseille","lat":43.32654,"lon":5.41003,"is_reserved":false,"is_disabled":false,"rental_uris":{"android":"levelo://app?vid=9711350c-d6a5-47ae-b6a8-5e3cf09d491d","ios":"levelo://app?vid=9711350c-d6a5-47ae-b6a8-5e3cf09d491d"},"vehicle_type_id":"4","last_reported":1758633650,"current_range_meters":8800,"station_id":"ce4bhpp2rcd13ifvqhgg","pricing_plan_id":"cebpf4jnsgd1na2vs0mg"},{"bike_id":"e66d85c8-a42d-4741-a0e8-e0b1b1f66404","system_id":"levelo_inurba_marseille","lat":43.28944,"lon":5.39633,"is_reserved":false,"is_disabled":false,"rental_uris":{"android":"levelo://app?vid=e66d85c8-a42d-4741-a0e8-e0b1b1f66404","ios":"levelo://app?vid=e66d85c8-a42d-4741-a0e8-e0b1b1f66404"},"vehicle_type_id":"4","last_reported":1758633650,"current_range_meters":8800,"station_id":"ce4bh3h2rcd13ifvqdn0","pricing_plan_id":"cebpf4jnsgd1na2vs0mg"},{"bike_id":"0b2230e3-adb9-421c-91b1-c113eb397705","system_id":"levelo_inurba_marseille","lat":43.288922,"lon":5.376628,"is_reserved":false,"is_disabled":false,"rental_uris":{"android":"levelo://app?vid=0b2230e3-adb9-421c-91b1-c113eb397705","ios":"levelo://app?vid=0b2230e3-adb9-421c-91b1-c113eb397705"},"vehicle_type_id":"4","last_reported":1758633650,"current_range_meters":9200,"station_id":"","pricing_plan_id":"cebpf4jnsgd1na2vs0mg"},{"bike_id":"c3e48ccc-65c6-4ebf-8cf7-ad2b8d3ed03f","system_id":"levelo_inurba_marseille","lat":43.28839,"lon":5.3584,"is_reserved":false,"is_disabled":false,"rental_uris":{"android":"levelo://app?vid=c3e48ccc-65c6-4ebf-8cf7-ad2b8d3ed03f","ios":"levelo://app?vid=c3e48ccc-65c6-4ebf-8cf7-ad2b8d3ed03f"},"vehicle_type_id":"4","last_reported":1758633650,"current_range_meters":9200,"station_id":"ce4bhb12rcd13ifvqem0","pricing_plan_id":"cebpf4jnsgd1na2vs0mg"},{"bike_id":"10aef20e-e891-486f-a4bd-208c31b19abb","system_id":"levelo_inurba_marseille","lat":43.22933,"lon":5.35379,"is_reserved":false,"is_disabled":false,"rental_uris":{"android":"levelo://app?vid=10aef20e-e891-486f-a4bd-208c31b19abb","ios":"levelo://app?vid=10aef20e-e891-486f-a4bd-208c31b19abb"},"vehicle_type_id":"4","last_reported":1758633650,"current_range_meters":9200,"station_id":"cpo3532slgdg3j2ikp40","pricing_plan_id":"cebpf4jnsgd1na2vs0mg"},{"bike_id":"d46536c1-b7ad-4df6-a9a1-6c4b8943878b","system_id":"levelo_inurba_marseille","lat":43.32356,"lon":5.38883,"is_reserved":false,"is_disabled":false,"rental_uris":{"android":"levelo://app?vid=d46536c1-b7ad-4df6-a9a1-6c4b8943878b","ios":"levelo://app?vid=d46536c1-b7ad-4df6-a9a1-6c4b8943878b"},"vehicle_type_id":"4","last_reported":1758633650,"current_range_meters":9200,"station_id":"ce4bhqp2rcd13ifvqhog","pricing_plan_id":"cebpf4jnsgd1na2vs0mg"},{"bike_id":"e341fb50-63d1-4a5b-959d-47084f172869","system_id":"levelo_inurba_marseille","lat":43.30141,"lon":5.37409,"is_reserved":false,"is_disabled":false,"rental_uris":{"android":"levelo://app?vid=e341fb50-63d1-4a5b-959d-47084f172869","ios":"levelo://app?vid=e341fb50-63d1-4a5b-959d-47084f172869"},"vehicle_type_id":"4","last_reported":1758633650,"current_range_meters":9200,"station_id":"ce4bgs92rcd13ifvqcc0","pricing_plan_id":"cebpf4jnsgd1na2vs0mg"},{"bike_id":"b380c6ac-1e53-42a4-910d-fd28e98be154","system_id":"levelo_inurba_marseille","lat":43.31487,"lon":5.3731,"is_reserved":false,"is_disabled":false,"rental_uris":{"android":"levelo://app?vid=b380c6ac-1e53-42a4-910d-fd28e98be154","ios":"levelo://app?vid=b380c6ac-1e53-42a4-910d-fd28e98be154"},"vehicle_type_id":"4","last_reported":1758633650,"current_range_meters":9200,"station_id":"ce4bgt12rcd13ifvqcd0","pricing_plan_id":"cebpf4jnsgd1na2vs0mg"},{"bike_id":"2c711369-8be1-455d-8685-36c6ff241076","system_id":"levelo_inurba_marseille","lat":43.30468,"lon":5.37904,"is_reserved":false,"is_disabled":false,"rental_uris":{"android":"levelo://app?vid=2c711369-8be1-455d-8685-36c6ff241076","ios":"levelo://app?vid=2c711369-8be1-455d-8685-36c6ff241076"},"vehicle_type_id":"4","last_reported":1758633650,"current_range_meters":9600,"station_id":"ce4bgup2rcd13ifvqcn0","pricing_plan_id":"cebpf4jnsgd1na2vs0mg"},{"bike_id":"663f8247-86bc-4b09-a190-0c1a85a6e340","system_id":"levelo_inurba_marseille","lat":43.30324,"lon":5.40444,"is_reserved":false,"is_disabled":false,"rental_uris":{"android":"levelo://app?vid=663f8247-86bc-4b09-a190-0c1a85a6e340","ios":"levelo://app?vid=663f8247-86bc-4b09-a190-0c1a85a6e340"},"vehicle_type_id":"4","last_reported":1758633650,"current_range_meters":9600,"station_id":"ce4bh012rcd13ifvqd10","pricing_plan_id":"cebpf4jnsgd1na2vs0mg"},{"bike_id":"0327d077-f115-4fbe-8ae3-e10ac77c2ce5","system_id":"levelo_inurba_marseille","lat":43.29203,"lon":5.39338,"is_reserved":false,"is_disabled":false,"rental_uris":{"android":"levelo://app?vid=0327d077-f115-4fbe-8ae3-e10ac77c2ce5","ios":"levelo://app?vid=0327d077-f115-4fbe-8ae3-e10ac77c2ce5"},"vehicle_type_id":"4","last_reported":1758633650,"current_range_meters":9600,"station_id":"ce4bh192rcd13ifvqdd0","pricing_plan_id":"cebpf4jnsgd1na2vs0mg"},{"bike_id":"41b8e3f6-b6ac-4ea6-9b1e-03e1a32a2cab","system_id":"levelo_inurba_marseille","lat":43.29961,"lon":5.38988,"is_reserved":false,"is_disabled":false,"rental_uris":{"android":"levelo://app?vid=41b8e3f6-b6ac-4ea6-9b1e-03e1a32a2cab","ios":"levelo://app?vid=41b8e3f6-b6ac-4ea6-9b1e-03e1a32a2cab"},"vehicle_type_id":"4","last_reported":1758633650,"current_range_meters":9600,"station_id":"","pricing_plan_id":"cebpf4jnsgd1na2vs0mg"},{"bike_id":"03a16c18-699b-4caf-b15f-331569c56d6a","system_id":"levelo_inurba_marseille","lat":43.2904,"lon":5.35892,"is_reserved":false,"is_disabled":false,"rental_uris":{"android":"levelo://app?vid=03a16c18-699b-4caf-b15f-331569c56d6a","ios":"levelo://app?vid=03a16c18-699b-4caf-b15f-331569c56d6a"},"vehicle_type_id":"4","last_reported":1758633650,"current_range_meters":9600,"station_id":"ce4bha92rcd13ifvqeg0","pricing_plan_id":"cebpf4jnsgd1na2vs0mg"},{"bike_id":"d20fed51-8110-4224-8d70-0ca80c718659","system_id":"levelo_inurba_marseille","lat":43.28068,"lon":5.39631,"is_reserved":false,"is_disabled":false,"rental_uris":{"android":"levelo://app?vid=d20fed51-8110-4224-8d70-0ca80c718659","ios":"levelo://app?vid=d20fed51-8110-4224-8d70-0ca80c718659"},"vehicle_type_id":"4","last_reported":1758633650,"current_range_meters":10000,"station_id":"ce4bho12rcd13ifvqh2g","pricing_plan_id":"cebpf4jnsgd1na2vs0mg"},{"bike_id":"d195bf49-df30-4733-96fd-42cb8304f011","system_id":"levelo_inurba_marseille","lat":43.2781,"lon":5.40715,"is_reserved":false,"is_disabled":false,"rental_uris":{"android":"levelo://app?vid=d195bf49-df30-4733-96fd-42cb8304f011","ios":"levelo://app?vid=d195bf49-df30-4733-96fd-42cb8304f011"},"vehicle_type_id":"4","last_reported":1758633650,"current_range_meters":10000,"station_id":"ce4bhnh2rcd13ifvqgtg","pricing_plan_id":"cebpf4jnsgd1na2vs0mg"},{"bike_id":"3d176c2b-dbe3-4175-aaf9-67070422659d","system_id":"levelo_inurba_marseille","lat":43.247426,"lon":5.399998,"is_reserved":false,"is_disabled":false,"rental_uris":{"android":"levelo://app?vid=3d176c2b-dbe3-4175-aaf9-67070422659d","ios":"levelo://app?vid=3d176c2b-dbe3-4175-aaf9-67070422659d"},"vehicle_type_id":"4","last_reported":1758633650,"current_range_meters":10000,"station_id":"ce4bhn12rcd13ifvqgqg","pricing_plan_id":"cebpf4jnsgd1na2vs0mg"},{"bike_id":"6c5c4bc4-9f87-4032-830b-7e1c63f1b84c","system_id":"levelo_inurba_marseille","lat":43.27054,"lon":5.40264,"is_reserved":false,"is_disabled":false,"rental_uris":{"android":"levelo://app?vid=6c5c4bc4-9f87-4032-830b-7e1c63f1b84c","ios":"levelo://app?vid=6c5c4bc4-9f87-4032-830b-7e1c63f1b84c"},"vehicle_type_id":"4","last_reported":1758633650,"current_range_meters":10000,"station_id":"ce4bhk92rcd13ifvqgc0","pricing_plan_id":"cebpf4jnsgd1na2vs0mg"},{"bike_id":"1bd8b613-bf94-45c9-bf6e-ee4a207f9a0e","system_id":"levelo_inurba_marseille","lat":43.26774,"lon":5.39455,"is_reserved":false,"is_disabled":false,"rental_uris":{"android":"levelo://app?vid=1bd8b613-bf94-45c9-bf6e-ee4a207f9a0e","ios":"levelo://app?vid=1bd8b613-bf94-45c9-bf6e-ee4a207f9a0e"},"vehicle_type_id":"4","last_reported":1758633650,"current_range_meters":10000,"station_id":"ce4bhh12rcd13ifvqfg0","pricing_plan_id":"cebpf4jnsgd1na2vs0mg"},{"bike_id":"1efddf8d-578f-4e4c-8c3f-e3a8bd592ba4","system_id":"levelo_inurba_marseille","lat":43.29979,"lon":5.37441,"is_reserved":false,"is_disabled":false,"rental_uris":{"android":"levelo://app?vid=1efddf8d-578f-4e4c-8c3f-e3a8bd592ba4","ios":"levelo://app?vid=1efddf8d-578f-4e4c-8c3f-e3a8bd592ba4"},"vehicle_type_id":"4","last_reported":1758633650,"current_range_meters":10800,"station_id":"","pricing_plan_id":"cebpf4jnsgd1na2vs0mg"},{"bike_id":"ef75d15d-c28a-4fe7-853a-ed887e41d629","system_id":"levelo_inurba_marseille","lat":43.21755,"lon":5.34598,"is_reserved":false,"is_disabled":false,"rental_uris":{"android":"levelo://app?vid=ef75d15d-c28a-4fe7-853a-ed887e41d629","ios":"levelo://app?vid=ef75d15d-c28a-4fe7-853a-ed887e41d629"},"vehicle_type_id":"4","last_reported":1758633650,"current_range_meters":10800,"station_id":"st_cvj6r9ubvosntc0bgbag","pricing_plan_id":"cebpf4jnsgd1na2vs0mg"},{"bike_id":"94d430e6-52b3-4d21-80c9-c6dd4519a8fb","system_id":"levelo_inurba_marseille","lat":43.31778,"lon":5.38285,"is_reserved":false,"is_disabled":false,"rental_uris":{"android":"levelo://app?vid=94d430e6-52b3-4d21-80c9-c6dd4519a8fb","ios":"levelo://app?vid=94d430e6-52b3-4d21-80c9-c6dd4519a8fb"},"vehicle_type_id":"4","last_reported":1758633650,"current_range_meters":10800,"station_id":"","pricing_plan_id":"cebpf4jnsgd1na2vs0mg"},{"bike_id":"12df1901-85ee-4858-bef8-feee79222128","system_id":"levelo_inurba_marseille","lat":43.28269,"lon":5.35061,"is_reserved":false,"is_disabled":false,"rental_uris":{"android":"levelo://app?vid=12df1901-85ee-4858-bef8-feee79222128","ios":"levelo://app?vid=12df1901-85ee-4858-bef8-feee79222128"},"vehicle_type_id":"4","last_reported":1758633650,"current_range_meters":13600,"station_id":"ce4bhbp2rcd13ifvqerg","pricing_plan_id":"cebpf4jnsgd1na2vs0mg"},{"bike_id":"1b4c2ecf-7f42-4c97-956f-a07a56e45ff5","system_id":"levelo_inurba_marseille","lat":43.32036,"lon":5.41547,"is_reserved":false,"is_disabled":false,"rental_uris":{"android":"levelo://app?vid=1b4c2ecf-7f42-4c97-956f-a07a56e45ff5","ios":"levelo://app?vid=1b4c2ecf-7f42-4c97-956f-a07a56e45ff5"},"vehicle_type_id":"4","last_reported":1758633650,"current_range_meters":10800,"station_id":"ce4bhq92rcd13ifvqhkg","pricing_plan_id":"cebpf4jnsgd1na2vs0mg"},{"bike_id":"156ba3ee-2d05-4060-9b3c-44e608592be0","system_id":"levelo_inurba_marseille","lat":43.28006,"lon":5.41664,"is_reserved":false,"is_disabled":false,"rental_uris":{"android":"levelo://app?vid=156ba3ee-2d05-4060-9b3c-44e608592be0","ios":"levelo://app?vid=156ba3ee-2d05-4060-9b3c-44e608592be0"},"vehicle_type_id":"4","last_reported":1758633650,"current_range_meters":10800,"station_id":"ce4bho12rcd13ifvqh1g","pricing_plan_id":"cebpf4jnsgd1na2vs0mg"},{"bike_id":"8d243e83-cc74-44d3-bf18-f20421549672","system_id":"levelo_inurba_marseille","lat":43.28944,"lon":5.35966,"is_reserved":false,"is_disabled":false,"rental_uris":{"android":"levelo://app?vid=8d243e83-cc74-44d3-bf18-f20421549672","ios":"levelo://app?vid=8d243e83-cc74-44d3-bf18-f20421549672"},"vehicle_type_id":"4","last_reported":1758633650,"current_range_meters":10800,"station_id":"","pricing_plan_id":"cebpf4jnsgd1na2vs0mg"},{"bike_id":"d6892ced-68b2-4c0a-8b78-e0080257d6fa","system_id":"levelo_inurba_marseille","lat":43.31226,"lon":5.36859,"is_reserved":false,"is_disabled":false,"rental_uris":{"android":"levelo://app?vid=d6892ced-68b2-4c0a-8b78-e0080257d6fa","ios":"levelo://app?vid=d6892ced-68b2-4c0a-8b78-e0080257d6fa"},"vehicle_type_id":"4","last_reported":1758633650,"current_range_meters":11200,"station_id":"ce4bgl92rcd13ifvqbq0","pricing_plan_id":"cebpf4jnsgd1na2vs0mg"},{"bike_id":"122f86cd-88cc-48fb-8ae2-c6f3b25cc72b","system_id":"levelo_inurba_marseille","lat":43.24804,"lon":5.37454,"is_reserved":false,"is_disabled":false,"rental_uris":{"android":"levelo://app?vid=122f86cd-88cc-48fb-8ae2-c6f3b25cc72b","ios":"levelo://app?vid=122f86cd-88cc-48fb-8ae2-c6f3b25cc72b"},"vehicle_type_id":"4","last_reported":1758633650,"current_range_meters":11200,"station_id":"ce4bhgh2rcd13ifvqfb0","pricing_plan_id":"cebpf4jnsgd1na2vs0mg"},{"bike_id":"57078226-9624-498c-9d33-abb05ac16cb0","system_id":"levelo_inurba_marseille","lat":43.28612,"lon":5.35088,"is_reserved":false,"is_disabled":false,"rental_uris":{"android":"levelo://app?vid=57078226-9624-498c-9d33-abb05ac16cb0","ios":"levelo://app?vid=57078226-9624-498c-9d33-abb05ac16cb0"},"vehicle_type_id":"4","last_reported":1758633650,"current_range_meters":11200,"station_id":"ce4bhch2rcd13ifvqeug","pricing_plan_id":"cebpf4jnsgd1na2vs0mg"},{"bike_id":"e8787da6-0f2b-41ca-a600-3cac7a0d3992","system_id":"levelo_inurba_marseille","lat":43.31235,"lon":5.36863,"is_reserved":false,"is_disabled":false,"rental_uris":{"android":"levelo://app?vid=e8787da6-0f2b-41ca-a600-3cac7a0d3992","ios":"levelo://app?vid=e8787da6-0f2b-41ca-a600-3cac7a0d3992"},"vehicle_type_id":"4","last_reported":1758633650,"current_range_meters":11200,"station_id":"ce4bgl92rcd13ifvqbq0","pricing_plan_id":"cebpf4jnsgd1na2vs0mg"},{"bike_id":"6e95c6bc-cf72-4d41-924f-55f972762641","system_id":"levelo_inurba_marseille","lat":43.30871,"lon":5.37197,"is_reserved":false,"is_disabled":false,"rental_uris":{"android":"levelo://app?vid=6e95c6bc-cf72-4d41-924f-55f972762641","ios":"levelo://app?vid=6e95c6bc-cf72-4d41-924f-55f972762641"},"vehicle_type_id":"4","last_reported":1758633650,"current_range_meters":10800,"station_id":"ce4bguh2rcd13ifvqckg","pricing_plan_id":"cebpf4jnsgd1na2vs0mg"},{"bike_id":"d7688c97-8757-46a9-a367-1702f9b408d8","system_id":"levelo_inurba_marseille","lat":43.24169,"lon":5.36386,"is_reserved":false,"is_disabled":false,"rental_uris":{"android":"levelo://app?vid=d7688c97-8757-46a9-a367-1702f9b408d8","ios":"levelo://app?vid=d7688c97-8757-46a9-a367-1702f9b408d8"},"vehicle_type_id":"4","last_reported":1758633650,"current_range_meters":11200,"station_id":"cpo36qri1sfpv3e86is0","pricing_plan_id":"cebpf4jnsgd1na2vs0mg"},{"bike_id":"d5aed11c-b49e-41f8-bf47-70f839f509a7","system_id":"levelo_inurba_marseille","lat":43.26947,"lon":5.38631,"is_reserved":false,"is_disabled":false,"rental_uris":{"android":"levelo://app?vid=d5aed11c-b49e-41f8-bf47-70f839f509a7","ios":"levelo://app?vid=d5aed11c-b49e-41f8-bf47-70f839f509a7"},"vehicle_type_id":"4","last_reported":1758633650,"current_range_meters":11600,"station_id":"ce4bhh92rcd13ifvqfh0","pricing_plan_id":"cebpf4jnsgd1na2vs0mg"},{"bike_id":"769f1e28-7007-4b21-9d1f-c77defb80909","system_id":"levelo_inurba_marseille","lat":43.25724,"lon":5.41098,"is_reserved":false,"is_disabled":false,"rental_uris":{"android":"levelo://app?vid=769f1e28-7007-4b21-9d1f-c77defb80909","ios":"levelo://app?vid=769f1e28-7007-4b21-9d1f-c77defb80909"},"vehicle_type_id":"4","last_reported":1758633650,"current_range_meters":11600,"station_id":"ce4bhkp2rcd13ifvqgd0","pricing_plan_id":"cebpf4jnsgd1na2vs0mg"},{"bike_id":"1524e6c0-4ed0-43ec-8c3d-b5c4246bcf5e","system_id":"levelo_inurba_marseille","lat":43.28259,"lon":5.35058,"is_reserved":false,"is_disabled":false,"rental_uris":{"android":"levelo://app?vid=1524e6c0-4ed0-43ec-8c3d-b5c4246bcf5e","ios":"levelo://app?vid=1524e6c0-4ed0-43ec-8c3d-b5c4246bcf5e"},"vehicle_type_id":"4","last_reported":1758633650,"current_range_meters":11600,"station_id":"ce4bhbp2rcd13ifvqerg","pricing_plan_id":"cebpf4jnsgd1na2vs0mg"},{"bike_id":"b259f3f0-67b3-41cc-9e7c-093f9815b47a","system_id":"levelo_inurba_marseille","lat":43.26676,"lon":5.38267,"is_reserved":false,"is_disabled":false,"rental_uris":{"android":"levelo://app?vid=b259f3f0-67b3-41cc-9e7c-093f9815b47a","ios":"levelo://app?vid=b259f3f0-67b3-41cc-9e7c-093f9815b47a"},"vehicle_type_id":"4","last_reported":1758633650,"current_range_meters":12000,"station_id":"ce4bhg92rcd13ifvqf90","pricing_plan_id":"cebpf4jnsgd1na2vs0mg"},{"bike_id":"729a6b8f-5f5b-457f-95e1-bbd1c76d5149","system_id":"levelo_inurba_marseille","lat":43.31344,"lon":5.3672,"is_reserved":false,"is_disabled":false,"rental_uris":{"android":"levelo://app?vid=729a6b8f-5f5b-457f-95e1-bbd1c76d5149","ios":"levelo://app?vid=729a6b8f-5f5b-457f-95e1-bbd1c76d5149"},"vehicle_type_id":"4","last_reported":1758633650,"current_range_meters":11600,"station_id":"ce4bgr92rcd13ifvqc6g","pricing_plan_id":"cebpf4jnsgd1na2vs0mg"},{"bike_id":"a60ea823-6ee0-47b9-a522-d89a0ee4cec8","system_id":"levelo_inurba_marseille","lat":43.29779,"lon":5.38122,"is_reserved":false,"is_disabled":false,"rental_uris":{"android":"levelo://app?vid=a60ea823-6ee0-47b9-a522-d89a0ee4cec8","ios":"levelo://app?vid=a60ea823-6ee0-47b9-a522-d89a0ee4cec8"},"vehicle_type_id":"4","last_reported":1758633650,"current_range_meters":12000,"station_id":"ce4bgip2rcd13ifvqbb0","pricing_plan_id":"cebpf4jnsgd1na2vs0mg"},{"bike_id":"bcef0c24-899d-44b7-8cad-56e2f77ea886","system_id":"levelo_inurba_marseille","lat":43.270582,"lon":5.402639,"is_reserved":false,"is_disabled":false,"rental_uris":{"android":"levelo://app?vid=bcef0c24-899d-44b7-8cad-56e2f77ea886","ios":"levelo://app?vid=bcef0c24-899d-44b7-8cad-56e2f77ea886"},"vehicle_type_id":"4","last_reported":1758633650,"current_range_meters":12000,"station_id":"ce4bhk92rcd13ifvqgc0","pricing_plan_id":"cebpf4jnsgd1na2vs0mg"},{"bike_id":"071eba3f-03d9-4496-bbb4-ef175d240ac4","system_id":"levelo_inurba_marseille","lat":43.32365,"lon":5.38889,"is_reserved":false,"is_disabled":false,"rental_uris":{"android":"levelo://app?vid=071eba3f-03d9-4496-bbb4-ef175d240ac4","ios":"levelo://app?vid=071eba3f-03d9-4496-bbb4-ef175d240ac4"},"vehicle_type_id":"4","last_reported":1758633650,"current_range_meters":12400,"station_id":"ce4bhqp2rcd13ifvqhog","pricing_plan_id":"cebpf4jnsgd1na2vs0mg"},{"bike_id":"6875e661-a2e3-423d-a4f5-d79cdbcc11b6","system_id":"levelo_inurba_marseille","lat":43.29598,"lon":5.36733,"is_reserved":false,"is_disabled":false,"rental_uris":{"android":"levelo://app?vid=6875e661-a2e3-423d-a4f5-d79cdbcc11b6","ios":"levelo://app?vid=6875e661-a2e3-423d-a4f5-d79cdbcc11b6"},"vehicle_type_id":"4","last_reported":1758633650,"current_range_meters":12400,"station_id":"ce4bgph2rcd13ifvqc2g","pricing_plan_id":"cebpf4jnsgd1na2vs0mg"},{"bike_id":"39e96fb7-1cc6-4104-a0db-9ca53e9d46ba","system_id":"levelo_inurba_marseille","lat":43.29874,"lon":5.39746,"is_reserved":false,"is_disabled":false,"rental_uris":{"android":"levelo://app?vid=39e96fb7-1cc6-4104-a0db-9ca53e9d46ba","ios":"levelo://app?vid=39e96fb7-1cc6-4104-a0db-9ca53e9d46ba"},"vehicle_type_id":"4","last_reported":1758633650,"current_range_meters":12400,"station_id":"ce4bh0h2rcd13ifvqd50","pricing_plan_id":"cebpf4jnsgd1na2vs0mg"},{"bike_id":"2a2f1ce0-5eb2-4ab6-a692-64d9649dcb94","system_id":"levelo_inurba_marseille","lat":43.22567,"lon":5.41629,"is_reserved":false,"is_disabled":false,"rental_uris":{"android":"levelo://app?vid=2a2f1ce0-5eb2-4ab6-a692-64d9649dcb94","ios":"levelo://app?vid=2a2f1ce0-5eb2-4ab6-a692-64d9649dcb94"},"vehicle_type_id":"4","last_reported":1758633650,"current_range_meters":12400,"station_id":"st_d2o4gvlbi1j2169b742g","pricing_plan_id":"cebpf4jnsgd1na2vs0mg"},{"bike_id":"5c2b9598-88ff-4d7f-bde2-ae259279d64e","system_id":"levelo_inurba_marseille","lat":43.21187,"lon":5.35057,"is_reserved":false,"is_disabled":false,"rental_uris":{"android":"levelo://app?vid=5c2b9598-88ff-4d7f-bde2-ae259279d64e","ios":"levelo://app?vid=5c2b9598-88ff-4d7f-bde2-ae259279d64e"},"vehicle_type_id":"4","last_reported":1758633650,"current_range_meters":12400,"station_id":"st_cvj6sg6p6f1abm77japg","pricing_plan_id":"cebpf4jnsgd1na2vs0mg"},{"bike_id":"d767812b-520a-4a76-a97d-9130fbba3b89","system_id":"levelo_inurba_marseille","lat":43.2694,"lon":5.38632,"is_reserved":false,"is_disabled":false,"rental_uris":{"android":"levelo://app?vid=d767812b-520a-4a76-a97d-9130fbba3b89","ios":"levelo://app?vid=d767812b-520a-4a76-a97d-9130fbba3b89"},"vehicle_type_id":"4","last_reported":1758633650,"current_range_meters":12400,"station_id":"ce4bhh92rcd13ifvqfh0","pricing_plan_id":"cebpf4jnsgd1na2vs0mg"},{"bike_id":"d8bc27a2-6eef-4457-8aeb-64b3a82fb281","system_id":"levelo_inurba_marseille","lat":43.273075,"lon":5.390647,"is_reserved":false,"is_disabled":false,"rental_uris":{"android":"levelo://app?vid=d8bc27a2-6eef-4457-8aeb-64b3a82fb281","ios":"levelo://app?vid=d8bc27a2-6eef-4457-8aeb-64b3a82fb281"},"vehicle_type_id":"4","last_reported":1758633650,"current_range_meters":12400,"station_id":"ce4bhgh2rcd13ifvqfa0","pricing_plan_id":"cebpf4jnsgd1na2vs0mg"},{"bike_id":"0d93d80f-23fc-4b4f-918d-28fde704208b","system_id":"levelo_inurba_marseille","lat":43.24173,"lon":5.36387,"is_reserved":false,"is_disabled":false,"rental_uris":{"android":"levelo://app?vid=0d93d80f-23fc-4b4f-918d-28fde704208b","ios":"levelo://app?vid=0d93d80f-23fc-4b4f-918d-28fde704208b"},"vehicle_type_id":"4","last_reported":1758633650,"current_range_meters":12800,"station_id":"cpo36qri1sfpv3e86is0","pricing_plan_id":"cebpf4jnsgd1na2vs0mg"},{"bike_id":"9c11d299-fcdf-4a88-bb48-b6d3c5578810","system_id":"levelo_inurba_marseille","lat":43.317,"lon":5.40489,"is_reserved":false,"is_disabled":false,"rental_uris":{"android":"levelo://app?vid=9c11d299-fcdf-4a88-bb48-b6d3c5578810","ios":"levelo://app?vid=9c11d299-fcdf-4a88-bb48-b6d3c5578810"},"vehicle_type_id":"4","last_reported":1758633650,"current_range_meters":12800,"station_id":"ce4bh012rcd13ifvqd00","pricing_plan_id":"cebpf4jnsgd1na2vs0mg"},{"bike_id":"8b0c4c45-0644-4db0-971f-36e926bbc54d","system_id":"levelo_inurba_marseille","lat":43.301431,"lon":5.374238,"is_reserved":false,"is_disabled":false,"rental_uris":{"android":"levelo://app?vid=8b0c4c45-0644-4db0-971f-36e926bbc54d","ios":"levelo://app?vid=8b0c4c45-0644-4db0-971f-36e926bbc54d"},"vehicle_type_id":"4","last_reported":1758633650,"current_range_meters":12400,"station_id":"ce4bgs92rcd13ifvqcc0","pricing_plan_id":"cebpf4jnsgd1na2vs0mg"},{"bike_id":"35ff6bf7-11b3-4c8e-a317-cc70d6399a8c","system_id":"levelo_inurba_marseille","lat":43.239657,"lon":5.366273,"is_reserved":false,"is_disabled":false,"rental_uris":{"android":"levelo://app?vid=35ff6bf7-11b3-4c8e-a317-cc70d6399a8c","ios":"levelo://app?vid=35ff6bf7-11b3-4c8e-a317-cc70d6399a8c"},"vehicle_type_id":"4","last_reported":1758633650,"current_range_meters":12800,"station_id":"ce4bhi12rcd13ifvqfp0","pricing_plan_id":"cebpf4jnsgd1na2vs0mg"},{"bike_id":"17f5b93a-35d3-4d38-9f6e-84c446be8366","system_id":"levelo_inurba_marseille","lat":43.28138,"lon":5.42627,"is_reserved":false,"is_disabled":false,"rental_uris":{"android":"levelo://app?vid=17f5b93a-35d3-4d38-9f6e-84c446be8366","ios":"levelo://app?vid=17f5b93a-35d3-4d38-9f6e-84c446be8366"},"vehicle_type_id":"4","last_reported":1758633650,"current_range_meters":12800,"station_id":"ce4bhnh2rcd13ifvqgug","pricing_plan_id":"cebpf4jnsgd1na2vs0mg"},{"bike_id":"fae7e526-e4bc-4bca-bbd8-dfec2f6559ba","system_id":"levelo_inurba_marseille","lat":43.31997,"lon":5.38155,"is_reserved":false,"is_disabled":false,"rental_uris":{"android":"levelo://app?vid=fae7e526-e4bc-4bca-bbd8-dfec2f6559ba","ios":"levelo://app?vid=fae7e526-e4bc-4bca-bbd8-dfec2f6559ba"},"vehicle_type_id":"4","last_reported":1758633650,"current_range_meters":13600,"station_id":"ce4bhr12rcd13ifvqhpg","pricing_plan_id":"cebpf4jnsgd1na2vs0mg"},{"bike_id":"5c6070a0-0fa7-40a1-bae4-90214c4809f1","system_id":"levelo_inurba_marseille","lat":43.28621,"lon":5.35088,"is_reserved":false,"is_disabled":false,"rental_uris":{"android":"levelo://app?vid=5c6070a0-0fa7-40a1-bae4-90214c4809f1","ios":"levelo://app?vid=5c6070a0-0fa7-40a1-bae4-90214c4809f1"},"vehicle_type_id":"4","last_reported":1758633650,"current_range_meters":13600,"station_id":"ce4bhch2rcd13ifvqeug","pricing_plan_id":"cebpf4jnsgd1na2vs0mg"},{"bike_id":"8f63bb28-daf3-434a-b520-4ffc9e66dc1c","system_id":"levelo_inurba_marseille","lat":43.25619,"lon":5.41166,"is_reserved":false,"is_disabled":false,"rental_uris":{"android":"levelo://app?vid=8f63bb28-daf3-434a-b520-4ffc9e66dc1c","ios":"levelo://app?vid=8f63bb28-daf3-434a-b520-4ffc9e66dc1c"},"vehicle_type_id":"4","last_reported":1758633650,"current_range_meters":13600,"station_id":"","pricing_plan_id":"cebpf4jnsgd1na2vs0mg"},{"bike_id":"a2ea1ae9-c0aa-4bcd-bd4f-7cfc9fdcafb5","system_id":"levelo_inurba_marseille","lat":43.271659,"lon":5.389338,"is_reserved":false,"is_disabled":false,"rental_uris":{"android":"levelo://app?vid=a2ea1ae9-c0aa-4bcd-bd4f-7cfc9fdcafb5","ios":"levelo://app?vid=a2ea1ae9-c0aa-4bcd-bd4f-7cfc9fdcafb5"},"vehicle_type_id":"4","last_reported":1758633650,"current_range_meters":12800,"station_id":"ce4bhgh2rcd13ifvqfa0","pricing_plan_id":"cebpf4jnsgd1na2vs0mg"},{"bike_id":"30bb83fe-1759-4439-94c7-873da2c2a5e5","system_id":"levelo_inurba_marseille","lat":43.2315,"lon":5.43693,"is_reserved":false,"is_disabled":false,"rental_uris":{"android":"levelo://app?vid=30bb83fe-1759-4439-94c7-873da2c2a5e5","ios":"levelo://app?vid=30bb83fe-1759-4439-94c7-873da2c2a5e5"},"vehicle_type_id":"4","last_reported":1758633650,"current_range_meters":13600,"station_id":"ce4bhmp2rcd13ifvqgog","pricing_plan_id":"cebpf4jnsgd1na2vs0mg"},{"bike_id":"045dcef2-28ec-4412-be13-3a51107c7171","system_id":"levelo_inurba_marseille","lat":43.24385,"lon":5.37059,"is_reserved":false,"is_disabled":false,"rental_uris":{"android":"levelo://app?vid=045dcef2-28ec-4412-be13-3a51107c7171","ios":"levelo://app?vid=045dcef2-28ec-4412-be13-3a51107c7171"},"vehicle_type_id":"4","last_reported":1758633650,"current_range_meters":13600,"station_id":"ce4bhhh2rcd13ifvqfk0","pricing_plan_id":"cebpf4jnsgd1na2vs0mg"},{"bike_id":"51b93413-1342-426f-8416-856b80eac246","system_id":"levelo_inurba_marseille","lat":43.28274,"lon":5.35081,"is_reserved":false,"is_disabled":false,"rental_uris":{"android":"levelo://app?vid=51b93413-1342-426f-8416-856b80eac246","ios":"levelo://app?vid=51b93413-1342-426f-8416-856b80eac246"},"vehicle_type_id":"4","last_reported":1758633650,"current_range_meters":14000,"station_id":"ce4bhbp2rcd13ifvqerg","pricing_plan_id":"cebpf4jnsgd1na2vs0mg"},{"bike_id":"9a013cb9-1ab0-461a-8d98-0949cea720de","system_id":"levelo_inurba_marseille","lat":43.29968,"lon":5.38495,"is_reserved":false,"is_disabled":false,"rental_uris":{"android":"levelo://app?vid=9a013cb9-1ab0-461a-8d98-0949cea720de","ios":"levelo://app?vid=9a013cb9-1ab0-461a-8d98-0949cea720de"},"vehicle_type_id":"4","last_reported":1758633650,"current_range_meters":14000,"station_id":"ce4bgj92rcd13ifvqbd0","pricing_plan_id":"cebpf4jnsgd1na2vs0mg"},{"bike_id":"6ac17a81-0487-4557-9f83-8f554f6e083e","system_id":"levelo_inurba_marseille","lat":43.31971,"lon":5.37155,"is_reserved":false,"is_disabled":false,"rental_uris":{"android":"levelo://app?vid=6ac17a81-0487-4557-9f83-8f554f6e083e","ios":"levelo://app?vid=6ac17a81-0487-4557-9f83-8f554f6e083e"},"vehicle_type_id":"4","last_reported":1758633650,"current_range_meters":14000,"station_id":"","pricing_plan_id":"cebpf4jnsgd1na2vs0mg"},{"bike_id":"4c657e84-6818-4929-a977-8506ea5f576e","system_id":"levelo_inurba_marseille","lat":43.24955,"lon":5.405,"is_reserved":false,"is_disabled":false,"rental_uris":{"android":"levelo://app?vid=4c657e84-6818-4929-a977-8506ea5f576e","ios":"levelo://app?vid=4c657e84-6818-4929-a977-8506ea5f576e"},"vehicle_type_id":"4","last_reported":1758633650,"current_range_meters":14000,"station_id":"st_d2ngiaodas8pm72gd1h0","pricing_plan_id":"cebpf4jnsgd1na2vs0mg"},{"bike_id":"79f8e353-9acc-4fe7-9bee-2d94548c2f8e","system_id":"levelo_inurba_marseille","lat":43.30458,"lon":5.37906,"is_reserved":false,"is_disabled":false,"rental_uris":{"android":"levelo://app?vid=79f8e353-9acc-4fe7-9bee-2d94548c2f8e","ios":"levelo://app?vid=79f8e353-9acc-4fe7-9bee-2d94548c2f8e"},"vehicle_type_id":"4","last_reported":1758633650,"current_range_meters":14000,"station_id":"ce4bgup2rcd13ifvqcn0","pricing_plan_id":"cebpf4jnsgd1na2vs0mg"},{"bike_id":"3025cf20-d4d0-4a70-ad1f-fa415b19a070","system_id":"levelo_inurba_marseille","lat":43.31345,"lon":5.36706,"is_reserved":false,"is_disabled":false,"rental_uris":{"android":"levelo://app?vid=3025cf20-d4d0-4a70-ad1f-fa415b19a070","ios":"levelo://app?vid=3025cf20-d4d0-4a70-ad1f-fa415b19a070"},"vehicle_type_id":"4","last_reported":1758633650,"current_range_meters":14000,"station_id":"ce4bgr92rcd13ifvqc6g","pricing_plan_id":"cebpf4jnsgd1na2vs0mg"},{"bike_id":"25b3bb23-dbff-4a87-9609-0895cae72469","system_id":"levelo_inurba_marseille","lat":43.28151,"lon":5.42646,"is_reserved":false,"is_disabled":false,"rental_uris":{"android":"levelo://app?vid=25b3bb23-dbff-4a87-9609-0895cae72469","ios":"levelo://app?vid=25b3bb23-dbff-4a87-9609-0895cae72469"},"vehicle_type_id":"4","last_reported":1758633650,"current_range_meters":14000,"station_id":"ce4bhnh2rcd13ifvqgug","pricing_plan_id":"cebpf4jnsgd1na2vs0mg"},{"bike_id":"eba01587-aeed-4123-b2ce-9abc98879f91","system_id":"levelo_inurba_marseille","lat":43.27071,"lon":5.42283,"is_reserved":false,"is_disabled":false,"rental_uris":{"android":"levelo://app?vid=eba01587-aeed-4123-b2ce-9abc98879f91","ios":"levelo://app?vid=eba01587-aeed-4123-b2ce-9abc98879f91"},"vehicle_type_id":"4","last_reported":1758633650,"current_range_meters":14400,"station_id":"ce4bhk92rcd13ifvqgb0","pricing_plan_id":"cebpf4jnsgd1na2vs0mg"},{"bike_id":"7a4b4c71-9aa8-43e6-b89d-8f51da31e41f","system_id":"levelo_inurba_marseille","lat":43.26561,"lon":5.37298,"is_reserved":false,"is_disabled":false,"rental_uris":{"android":"levelo://app?vid=7a4b4c71-9aa8-43e6-b89d-8f51da31e41f","ios":"levelo://app?vid=7a4b4c71-9aa8-43e6-b89d-8f51da31e41f"},"vehicle_type_id":"4","last_reported":1758633650,"current_range_meters":14400,"station_id":"ce4bhg12rcd13ifvqf70","pricing_plan_id":"cebpf4jnsgd1na2vs0mg"},{"bike_id":"e4f70bd8-0fbe-44d9-ba11-1b02f4dc9638","system_id":"levelo_inurba_marseille","lat":43.31226,"lon":5.36875,"is_reserved":false,"is_disabled":false,"rental_uris":{"android":"levelo://app?vid=e4f70bd8-0fbe-44d9-ba11-1b02f4dc9638","ios":"levelo://app?vid=e4f70bd8-0fbe-44d9-ba11-1b02f4dc9638"},"vehicle_type_id":"4","last_reported":1758633650,"current_range_meters":14400,"station_id":"ce4bgl92rcd13ifvqbq0","pricing_plan_id":"cebpf4jnsgd1na2vs0mg"},{"bike_id":"7c0482c3-9253-4d1b-b4f3-be55cdb7721d","system_id":"levelo_inurba_marseille","lat":43.33757,"lon":5.37466,"is_reserved":false,"is_disabled":false,"rental_uris":{"android":"levelo://app?vid=7c0482c3-9253-4d1b-b4f3-be55cdb7721d","ios":"levelo://app?vid=7c0482c3-9253-4d1b-b4f3-be55cdb7721d"},"vehicle_type_id":"4","last_reported":1758633650,"current_range_meters":14400,"station_id":"","pricing_plan_id":"cebpf4jnsgd1na2vs0mg"},{"bike_id":"983f2a71-4215-4656-b290-d209deb07ec1","system_id":"levelo_inurba_marseille","lat":43.24801,"lon":5.37458,"is_reserved":false,"is_disabled":false,"rental_uris":{"android":"levelo://app?vid=983f2a71-4215-4656-b290-d209deb07ec1","ios":"levelo://app?vid=983f2a71-4215-4656-b290-d209deb07ec1"},"vehicle_type_id":"4","last_reported":1758633650,"current_range_meters":14400,"station_id":"ce4bhgh2rcd13ifvqfb0","pricing_plan_id":"cebpf4jnsgd1na2vs0mg"},{"bike_id":"1cd32492-01d3-4698-85a3-f552c709f67e","system_id":"levelo_inurba_marseille","lat":43.2873,"lon":5.39987,"is_reserved":false,"is_disabled":false,"rental_uris":{"android":"levelo://app?vid=1cd32492-01d3-4698-85a3-f552c709f67e","ios":"levelo://app?vid=1cd32492-01d3-4698-85a3-f552c709f67e"},"vehicle_type_id":"4","last_reported":1758633650,"current_range_meters":14400,"station_id":"ce4bho92rcd13ifvqh3g","pricing_plan_id":"cebpf4jnsgd1na2vs0mg"},{"bike_id":"5b1a36c8-304b-48bf-aa9d-28113bdf9ed6","system_id":"levelo_inurba_marseille","lat":43.30379,"lon":5.42477,"is_reserved":false,"is_disabled":false,"rental_uris":{"android":"levelo://app?vid=5b1a36c8-304b-48bf-aa9d-28113bdf9ed6","ios":"levelo://app?vid=5b1a36c8-304b-48bf-aa9d-28113bdf9ed6"},"vehicle_type_id":"4","last_reported":1758633650,"current_range_meters":14400,"station_id":"ce4bhoh2rcd13ifvqh6g","pricing_plan_id":"cebpf4jnsgd1na2vs0mg"},{"bike_id":"6b452a99-5e7a-4927-85c4-bece5ae2be9b","system_id":"levelo_inurba_marseille","lat":43.30793,"lon":5.3816,"is_reserved":false,"is_disabled":false,"rental_uris":{"android":"levelo://app?vid=6b452a99-5e7a-4927-85c4-bece5ae2be9b","ios":"levelo://app?vid=6b452a99-5e7a-4927-85c4-bece5ae2be9b"},"vehicle_type_id":"4","last_reported":1758633650,"current_range_meters":14000,"station_id":"ce4bgt12rcd13ifvqce0","pricing_plan_id":"cebpf4jnsgd1na2vs0mg"},{"bike_id":"43d57fd4-047e-4ac8-97e5-ec9b96239472","system_id":"levelo_inurba_marseille","lat":43.33231,"lon":5.39821,"is_reserved":false,"is_disabled":false,"rental_uris":{"android":"levelo://app?vid=43d57fd4-047e-4ac8-97e5-ec9b96239472","ios":"levelo://app?vid=43d57fd4-047e-4ac8-97e5-ec9b96239472"},"vehicle_type_id":"4","last_reported":1758633650,"current_range_meters":14400,"station_id":"","pricing_plan_id":"cebpf4jnsgd1na2vs0mg"},{"bike_id":"f1d27119-2515-4ad8-9c31-fcfb75987a13","system_id":"levelo_inurba_marseille","lat":43.29036,"lon":5.39971,"is_reserved":false,"is_disabled":false,"rental_uris":{"android":"levelo://app?vid=f1d27119-2515-4ad8-9c31-fcfb75987a13","ios":"levelo://app?vid=f1d27119-2515-4ad8-9c31-fcfb75987a13"},"vehicle_type_id":"4","last_reported":1758633650,"current_range_meters":15200,"station_id":"ce4bh392rcd13ifvqdm0","pricing_plan_id":"cebpf4jnsgd1na2vs0mg"},{"bike_id":"0c5c6f42-d2cf-489b-8e01-3cee334b1df6","system_id":"levelo_inurba_marseille","lat":43.32477,"lon":5.36574,"is_reserved":false,"is_disabled":false,"rental_uris":{"android":"levelo://app?vid=0c5c6f42-d2cf-489b-8e01-3cee334b1df6","ios":"levelo://app?vid=0c5c6f42-d2cf-489b-8e01-3cee334b1df6"},"vehicle_type_id":"4","last_reported":1758633650,"current_range_meters":14800,"station_id":"ce4bhs12rcd13ifvqhvg","pricing_plan_id":"cebpf4jnsgd1na2vs0mg"},{"bike_id":"06a24bce-028d-4b4a-b4a3-d45296145db5","system_id":"levelo_inurba_marseille","lat":43.28425,"lon":5.34991,"is_reserved":false,"is_disabled":true,"rental_uris":{"android":"levelo://app?vid=06a24bce-028d-4b4a-b4a3-d45296145db5","ios":"levelo://app?vid=06a24bce-028d-4b4a-b4a3-d45296145db5"},"vehicle_type_id":"4","last_reported":1758633650,"current_range_meters":14800,"station_id":"ce4bhch2rcd13ifvqeug","pricing_plan_id":"cebpf4jnsgd1na2vs0mg"},{"bike_id":"e12358d0-63f7-40ef-a37a-c76bc109cc63","system_id":"levelo_inurba_marseille","lat":43.296206,"lon":5.377193,"is_reserved":false,"is_disabled":false,"rental_uris":{"android":"levelo://app?vid=e12358d0-63f7-40ef-a37a-c76bc109cc63","ios":"levelo://app?vid=e12358d0-63f7-40ef-a37a-c76bc109cc63"},"vehicle_type_id":"4","last_reported":1758633650,"current_range_meters":14800,"station_id":"ce4bgi92rcd13ifvqb90","pricing_plan_id":"cebpf4jnsgd1na2vs0mg"},{"bike_id":"daa8c5e0-271c-4473-9fcf-fef1f6636825","system_id":"levelo_inurba_marseille","lat":43.28422,"lon":5.37518,"is_reserved":false,"is_disabled":false,"rental_uris":{"android":"levelo://app?vid=daa8c5e0-271c-4473-9fcf-fef1f6636825","ios":"levelo://app?vid=daa8c5e0-271c-4473-9fcf-fef1f6636825"},"vehicle_type_id":"4","last_reported":1758633650,"current_range_meters":14800,"station_id":"ce4bh412rcd13ifvqds0","pricing_plan_id":"cebpf4jnsgd1na2vs0mg"},{"bike_id":"064744f1-b5cd-41e9-b136-ab542c48f63e","system_id":"levelo_inurba_marseille","lat":43.28269,"lon":5.35058,"is_reserved":false,"is_disabled":false,"rental_uris":{"android":"levelo://app?vid=064744f1-b5cd-41e9-b136-ab542c48f63e","ios":"levelo://app?vid=064744f1-b5cd-41e9-b136-ab542c48f63e"},"vehicle_type_id":"4","last_reported":1758633650,"current_range_meters":14800,"station_id":"ce4bhbp2rcd13ifvqerg","pricing_plan_id":"cebpf4jnsgd1na2vs0mg"},{"bike_id":"9a187411-b8c9-47a4-8c1f-71b82136c99b","system_id":"levelo_inurba_marseille","lat":43.26784,"lon":5.39412,"is_reserved":false,"is_disabled":false,"rental_uris":{"android":"levelo://app?vid=9a187411-b8c9-47a4-8c1f-71b82136c99b","ios":"levelo://app?vid=9a187411-b8c9-47a4-8c1f-71b82136c99b"},"vehicle_type_id":"4","last_reported":1758633650,"current_range_meters":15200,"station_id":"ce4bhh12rcd13ifvqfg0","pricing_plan_id":"cebpf4jnsgd1na2vs0mg"},{"bike_id":"9c7a180f-bee6-48c2-9ad2-181dea55ce36","system_id":"levelo_inurba_marseille","lat":43.31754,"lon":5.43715,"is_reserved":false,"is_disabled":false,"rental_uris":{"android":"levelo://app?vid=9c7a180f-bee6-48c2-9ad2-181dea55ce36","ios":"levelo://app?vid=9c7a180f-bee6-48c2-9ad2-181dea55ce36"},"vehicle_type_id":"4","last_reported":1758633650,"current_range_meters":15200,"station_id":"ce4bhp92rcd13ifvqhcg","pricing_plan_id":"cebpf4jnsgd1na2vs0mg"},{"bike_id":"2d609110-bee7-43c3-8310-cca2017767cf","system_id":"levelo_inurba_marseille","lat":43.28614,"lon":5.35111,"is_reserved":false,"is_disabled":false,"rental_uris":{"android":"levelo://app?vid=2d609110-bee7-43c3-8310-cca2017767cf","ios":"levelo://app?vid=2d609110-bee7-43c3-8310-cca2017767cf"},"vehicle_type_id":"4","last_reported":1758633650,"current_range_meters":15200,"station_id":"ce4bhch2rcd13ifvqeug","pricing_plan_id":"cebpf4jnsgd1na2vs0mg"},{"bike_id":"81b766fc-bfa9-44da-a8d2-523ab64a5d7f","system_id":"levelo_inurba_marseille","lat":43.28154,"lon":5.42649,"is_reserved":false,"is_disabled":false,"rental_uris":{"android":"levelo://app?vid=81b766fc-bfa9-44da-a8d2-523ab64a5d7f","ios":"levelo://app?vid=81b766fc-bfa9-44da-a8d2-523ab64a5d7f"},"vehicle_type_id":"4","last_reported":1758633650,"current_range_meters":16000,"station_id":"ce4bhnh2rcd13ifvqgug","pricing_plan_id":"cebpf4jnsgd1na2vs0mg"},{"bike_id":"2e86854b-25f6-4d9b-a3a1-fb7c707a145b","system_id":"levelo_inurba_marseille","lat":43.24175,"lon":5.39729,"is_reserved":false,"is_disabled":false,"rental_uris":{"android":"levelo://app?vid=2e86854b-25f6-4d9b-a3a1-fb7c707a145b","ios":"levelo://app?vid=2e86854b-25f6-4d9b-a3a1-fb7c707a145b"},"vehicle_type_id":"4","last_reported":1758633650,"current_range_meters":16000,"station_id":"ce4bhn12rcd13ifvqgpg","pricing_plan_id":"cebpf4jnsgd1na2vs0mg"},{"bike_id":"32367d71-1c30-4697-8611-c2a41fc71423","system_id":"levelo_inurba_marseille","lat":43.29869,"lon":5.39725,"is_reserved":false,"is_disabled":false,"rental_uris":{"android":"levelo://app?vid=32367d71-1c30-4697-8611-c2a41fc71423","ios":"levelo://app?vid=32367d71-1c30-4697-8611-c2a41fc71423"},"vehicle_type_id":"4","last_reported":1758633650,"current_range_meters":16000,"station_id":"ce4bh0h2rcd13ifvqd50","pricing_plan_id":"cebpf4jnsgd1na2vs0mg"},{"bike_id":"adc9b767-fa5a-487c-b17d-fb3c376c3f08","system_id":"levelo_inurba_marseille","lat":43.2976,"lon":5.37708,"is_reserved":false,"is_disabled":false,"rental_uris":{"android":"levelo://app?vid=adc9b767-fa5a-487c-b17d-fb3c376c3f08","ios":"levelo://app?vid=adc9b767-fa5a-487c-b17d-fb3c376c3f08"},"vehicle_type_id":"4","last_reported":1758633650,"current_range_meters":16000,"station_id":"","pricing_plan_id":"cebpf4jnsgd1na2vs0mg"},{"bike_id":"ec998397-70b6-4c87-8660-ea0f660bcbd7","system_id":"levelo_inurba_marseille","lat":43.28068,"lon":5.3964,"is_reserved":false,"is_disabled":false,"rental_uris":{"android":"levelo://app?vid=ec998397-70b6-4c87-8660-ea0f660bcbd7","ios":"levelo://app?vid=ec998397-70b6-4c87-8660-ea0f660bcbd7"},"vehicle_type_id":"4","last_reported":1758633650,"current_range_meters":16000,"station_id":"ce4bho12rcd13ifvqh2g","pricing_plan_id":"cebpf4jnsgd1na2vs0mg"},{"bike_id":"759ff0b9-e6eb-4979-803c-fe2d01810812","system_id":"levelo_inurba_marseille","lat":43.3053,"lon":5.36693,"is_reserved":false,"is_disabled":false,"rental_uris":{"android":"levelo://app?vid=759ff0b9-e6eb-4979-803c-fe2d01810812","ios":"levelo://app?vid=759ff0b9-e6eb-4979-803c-fe2d01810812"},"vehicle_type_id":"4","last_reported":1758633650,"current_range_meters":15200,"station_id":"ce4bgrp2rcd13ifvqc9g","pricing_plan_id":"cebpf4jnsgd1na2vs0mg"},{"bike_id":"83235b65-f295-4276-be22-e987273be0aa","system_id":"levelo_inurba_marseille","lat":43.23157,"lon":5.43708,"is_reserved":false,"is_disabled":false,"rental_uris":{"android":"levelo://app?vid=83235b65-f295-4276-be22-e987273be0aa","ios":"levelo://app?vid=83235b65-f295-4276-be22-e987273be0aa"},"vehicle_type_id":"4","last_reported":1758633650,"current_range_meters":16000,"station_id":"ce4bhmp2rcd13ifvqgog","pricing_plan_id":"cebpf4jnsgd1na2vs0mg"},{"bike_id":"b46318e1-3483-48e5-877a-b1e76a985abd","system_id":"levelo_inurba_marseille","lat":43.25342,"lon":5.42169,"is_reserved":false,"is_disabled":false,"rental_uris":{"android":"levelo://app?vid=b46318e1-3483-48e5-877a-b1e76a985abd","ios":"levelo://app?vid=b46318e1-3483-48e5-877a-b1e76a985abd"},"vehicle_type_id":"4","last_reported":1758633650,"current_range_meters":16000,"station_id":"st_d2m65c5bi1j21697t3ng","pricing_plan_id":"cebpf4jnsgd1na2vs0mg"},{"bike_id":"e593190a-622e-4a29-8368-9b291650611b","system_id":"levelo_inurba_marseille","lat":43.27674,"lon":5.38901,"is_reserved":false,"is_disabled":false,"rental_uris":{"android":"levelo://app?vid=e593190a-622e-4a29-8368-9b291650611b","ios":"levelo://app?vid=e593190a-622e-4a29-8368-9b291650611b"},"vehicle_type_id":"4","last_reported":1758633650,"current_range_meters":16400,"station_id":"ce4bhi12rcd13ifvqfo0","pricing_plan_id":"cebpf4jnsgd1na2vs0mg"},{"bike_id":"1a736a3e-45ac-4358-8cb6-c01ca17f9987","system_id":"levelo_inurba_marseille","lat":43.34159,"lon":5.40925,"is_reserved":false,"is_disabled":false,"rental_uris":{"android":"levelo://app?vid=1a736a3e-45ac-4358-8cb6-c01ca17f9987","ios":"levelo://app?vid=1a736a3e-45ac-4358-8cb6-c01ca17f9987"},"vehicle_type_id":"4","last_reported":1758633650,"current_range_meters":16400,"station_id":"ce4bhqh2rcd13ifvqhlg","pricing_plan_id":"cebpf4jnsgd1na2vs0mg"},{"bike_id":"36b3256f-e0f6-460c-a60f-2f0e37613f5a","system_id":"levelo_inurba_marseille","lat":43.28615,"lon":5.35105,"is_reserved":false,"is_disabled":false,"rental_uris":{"android":"levelo://app?vid=36b3256f-e0f6-460c-a60f-2f0e37613f5a","ios":"levelo://app?vid=36b3256f-e0f6-460c-a60f-2f0e37613f5a"},"vehicle_type_id":"4","last_reported":1758633650,"current_range_meters":16400,"station_id":"ce4bhch2rcd13ifvqeug","pricing_plan_id":"cebpf4jnsgd1na2vs0mg"},{"bike_id":"4c0b651b-953c-4759-a0f7-0074f59a45eb","system_id":"levelo_inurba_marseille","lat":43.25805,"lon":5.39317,"is_reserved":false,"is_disabled":false,"rental_uris":{"android":"levelo://app?vid=4c0b651b-953c-4759-a0f7-0074f59a45eb","ios":"levelo://app?vid=4c0b651b-953c-4759-a0f7-0074f59a45eb"},"vehicle_type_id":"4","last_reported":1758633650,"current_range_meters":16400,"station_id":"","pricing_plan_id":"cebpf4jnsgd1na2vs0mg"},{"bike_id":"3c0fa725-f739-4599-965d-e73d3e7b2c8f","system_id":"levelo_inurba_marseille","lat":43.32361,"lon":5.36742,"is_reserved":false,"is_disabled":false,"rental_uris":{"android":"levelo://app?vid=3c0fa725-f739-4599-965d-e73d3e7b2c8f","ios":"levelo://app?vid=3c0fa725-f739-4599-965d-e73d3e7b2c8f"},"vehicle_type_id":"4","last_reported":1758633650,"current_range_meters":16800,"station_id":"ce4bhsh2rcd13ifvqi2g","pricing_plan_id":"cebpf4jnsgd1na2vs0mg"},{"bike_id":"6d79a709-6b99-4cb4-8eb4-4fffa24b3b88","system_id":"levelo_inurba_marseille","lat":43.29744,"lon":5.36618,"is_reserved":false,"is_disabled":false,"rental_uris":{"android":"levelo://app?vid=6d79a709-6b99-4cb4-8eb4-4fffa24b3b88","ios":"levelo://app?vid=6d79a709-6b99-4cb4-8eb4-4fffa24b3b88"},"vehicle_type_id":"4","last_reported":1758633650,"current_range_meters":16400,"station_id":"ce4bgn12rcd13ifvqbt0","pricing_plan_id":"cebpf4jnsgd1na2vs0mg"},{"bike_id":"b6313865-f408-42f4-926c-64a746e1599a","system_id":"levelo_inurba_marseille","lat":43.31324,"lon":5.3969,"is_reserved":false,"is_disabled":false,"rental_uris":{"android":"levelo://app?vid=b6313865-f408-42f4-926c-64a746e1599a","ios":"levelo://app?vid=b6313865-f408-42f4-926c-64a746e1599a"},"vehicle_type_id":"4","last_reported":1758633650,"current_range_meters":16800,"station_id":"ce4bgvp2rcd13ifvqcu0","pricing_plan_id":"cebpf4jnsgd1na2vs0mg"},{"bike_id":"92d90964-690c-49a3-bce6-d801e716cb8e","system_id":"levelo_inurba_marseille","lat":43.29577,"lon":5.37516,"is_reserved":false,"is_disabled":false,"rental_uris":{"android":"levelo://app?vid=92d90964-690c-49a3-bce6-d801e716cb8e","ios":"levelo://app?vid=92d90964-690c-49a3-bce6-d801e716cb8e"},"vehicle_type_id":"4","last_reported":1758633650,"current_range_meters":16400,"station_id":"ce4bgh92rcd13ifvqb50","pricing_plan_id":"cebpf4jnsgd1na2vs0mg"},{"bike_id":"dddca5ef-4a33-499b-936a-6d8e6136a417","system_id":"levelo_inurba_marseille","lat":43.22936,"lon":5.35377,"is_reserved":false,"is_disabled":false,"rental_uris":{"android":"levelo://app?vid=dddca5ef-4a33-499b-936a-6d8e6136a417","ios":"levelo://app?vid=dddca5ef-4a33-499b-936a-6d8e6136a417"},"vehicle_type_id":"4","last_reported":1758633650,"current_range_meters":16400,"station_id":"cpo3532slgdg3j2ikp40","pricing_plan_id":"cebpf4jnsgd1na2vs0mg"},{"bike_id":"547121a6-ed50-4d48-bad3-f73539aaa9d7","system_id":"levelo_inurba_marseille","lat":43.21211,"lon":5.35059,"is_reserved":false,"is_disabled":false,"rental_uris":{"android":"levelo://app?vid=547121a6-ed50-4d48-bad3-f73539aaa9d7","ios":"levelo://app?vid=547121a6-ed50-4d48-bad3-f73539aaa9d7"},"vehicle_type_id":"4","last_reported":1758633650,"current_range_meters":16400,"station_id":"st_cvj6sg6p6f1abm77japg","pricing_plan_id":"cebpf4jnsgd1na2vs0mg"},{"bike_id":"8552fe36-10d8-46fd-997b-c97d2970480a","system_id":"levelo_inurba_marseille","lat":43.323561,"lon":5.367437,"is_reserved":false,"is_disabled":false,"rental_uris":{"android":"levelo://app?vid=8552fe36-10d8-46fd-997b-c97d2970480a","ios":"levelo://app?vid=8552fe36-10d8-46fd-997b-c97d2970480a"},"vehicle_type_id":"4","last_reported":1758633650,"current_range_meters":16400,"station_id":"ce4bhsh2rcd13ifvqi2g","pricing_plan_id":"cebpf4jnsgd1na2vs0mg"},{"bike_id":"f7a280eb-f969-4743-91fc-4d1debf8620f","system_id":"levelo_inurba_marseille","lat":43.25091,"lon":5.39517,"is_reserved":false,"is_disabled":false,"rental_uris":{"android":"levelo://app?vid=f7a280eb-f969-4743-91fc-4d1debf8620f","ios":"levelo://app?vid=f7a280eb-f969-4743-91fc-4d1debf8620f"},"vehicle_type_id":"4","last_reported":1758633650,"current_range_meters":16800,"station_id":"ce4bhm12rcd13ifvqgkg","pricing_plan_id":"cebpf4jnsgd1na2vs0mg"},{"bike_id":"543b475b-fea4-4d90-8290-2279210212f4","system_id":"levelo_inurba_marseille","lat":43.28413,"lon":5.34978,"is_reserved":false,"is_disabled":false,"rental_uris":{"android":"levelo://app?vid=543b475b-fea4-4d90-8290-2279210212f4","ios":"levelo://app?vid=543b475b-fea4-4d90-8290-2279210212f4"},"vehicle_type_id":"4","last_reported":1758633650,"current_range_meters":16800,"station_id":"ce4bhbh2rcd13ifvqepg","pricing_plan_id":"cebpf4jnsgd1na2vs0mg"},{"bike_id":"5d53eb67-96ad-4e5c-b29f-8ffd181f1c5d","system_id":"levelo_inurba_marseille","lat":43.29192,"lon":5.3931,"is_reserved":false,"is_disabled":false,"rental_uris":{"android":"levelo://app?vid=5d53eb67-96ad-4e5c-b29f-8ffd181f1c5d","ios":"levelo://app?vid=5d53eb67-96ad-4e5c-b29f-8ffd181f1c5d"},"vehicle_type_id":"4","last_reported":1758633650,"current_range_meters":16800,"station_id":"ce4bh192rcd13ifvqdd0","pricing_plan_id":"cebpf4jnsgd1na2vs0mg"},{"bike_id":"9524be74-c097-42b1-a700-a43986d10e9c","system_id":"levelo_inurba_marseille","lat":43.26207,"lon":5.40412,"is_reserved":false,"is_disabled":false,"rental_uris":{"android":"levelo://app?vid=9524be74-c097-42b1-a700-a43986d10e9c","ios":"levelo://app?vid=9524be74-c097-42b1-a700-a43986d10e9c"},"vehicle_type_id":"4","last_reported":1758633650,"current_range_meters":16800,"station_id":"ce4bhmh2rcd13ifvqgmg","pricing_plan_id":"cebpf4jnsgd1na2vs0mg"},{"bike_id":"c8f3c8da-edc9-4118-a2a2-80f74b9d6e48","system_id":"levelo_inurba_marseille","lat":43.25082,"lon":5.39496,"is_reserved":false,"is_disabled":false,"rental_uris":{"android":"levelo://app?vid=c8f3c8da-edc9-4118-a2a2-80f74b9d6e48","ios":"levelo://app?vid=c8f3c8da-edc9-4118-a2a2-80f74b9d6e48"},"vehicle_type_id":"4","last_reported":1758633650,"current_range_meters":16800,"station_id":"ce4bhm12rcd13ifvqgkg","pricing_plan_id":"cebpf4jnsgd1na2vs0mg"},{"bike_id":"9feb0e0f-24fa-4463-b0f3-30472830c043","system_id":"levelo_inurba_marseille","lat":43.31757,"lon":5.39002,"is_reserved":false,"is_disabled":false,"rental_uris":{"android":"levelo://app?vid=9feb0e0f-24fa-4463-b0f3-30472830c043","ios":"levelo://app?vid=9feb0e0f-24fa-4463-b0f3-30472830c043"},"vehicle_type_id":"4","last_reported":1758633650,"current_range_meters":17200,"station_id":"ce4bhqp2rcd13ifvqhng","pricing_plan_id":"cebpf4jnsgd1na2vs0mg"},{"bike_id":"067caab9-36ad-4974-8668-7e6e926a8fee","system_id":"levelo_inurba_marseille","lat":43.27668,"lon":5.38886,"is_reserved":false,"is_disabled":false,"rental_uris":{"android":"levelo://app?vid=067caab9-36ad-4974-8668-7e6e926a8fee","ios":"levelo://app?vid=067caab9-36ad-4974-8668-7e6e926a8fee"},"vehicle_type_id":"4","last_reported":1758633650,"current_range_meters":17200,"station_id":"ce4bhi12rcd13ifvqfo0","pricing_plan_id":"cebpf4jnsgd1na2vs0mg"},{"bike_id":"b1cb201c-d2e1-4fe3-9601-95a73a0e6b51","system_id":"levelo_inurba_marseille","lat":43.29001,"lon":5.35619,"is_reserved":false,"is_disabled":false,"rental_uris":{"android":"levelo://app?vid=b1cb201c-d2e1-4fe3-9601-95a73a0e6b51","ios":"levelo://app?vid=b1cb201c-d2e1-4fe3-9601-95a73a0e6b51"},"vehicle_type_id":"4","last_reported":1758633650,"current_range_meters":17200,"station_id":"ce4bhb92rcd13ifvqen0","pricing_plan_id":"cebpf4jnsgd1na2vs0mg"},{"bike_id":"1ee2e3a7-0129-4f7e-bddc-803fa343746b","system_id":"levelo_inurba_marseille","lat":43.34161,"lon":5.40877,"is_reserved":false,"is_disabled":false,"rental_uris":{"android":"levelo://app?vid=1ee2e3a7-0129-4f7e-bddc-803fa343746b","ios":"levelo://app?vid=1ee2e3a7-0129-4f7e-bddc-803fa343746b"},"vehicle_type_id":"4","last_reported":1758633650,"current_range_meters":17200,"station_id":"ce4bhqh2rcd13ifvqhlg","pricing_plan_id":"cebpf4jnsgd1na2vs0mg"},{"bike_id":"a60abba9-f9b8-477b-8786-175fc2b6218b","system_id":"levelo_inurba_marseille","lat":43.30869,"lon":5.37167,"is_reserved":false,"is_disabled":false,"rental_uris":{"android":"levelo://app?vid=a60abba9-f9b8-477b-8786-175fc2b6218b","ios":"levelo://app?vid=a60abba9-f9b8-477b-8786-175fc2b6218b"},"vehicle_type_id":"4","last_reported":1758633650,"current_range_meters":17200,"station_id":"ce4bguh2rcd13ifvqckg","pricing_plan_id":"cebpf4jnsgd1na2vs0mg"},{"bike_id":"ae140a32-5f79-427f-90a7-d410e17b7823","system_id":"levelo_inurba_marseille","lat":43.26682,"lon":5.38276,"is_reserved":false,"is_disabled":true,"rental_uris":{"android":"levelo://app?vid=ae140a32-5f79-427f-90a7-d410e17b7823","ios":"levelo://app?vid=ae140a32-5f79-427f-90a7-d410e17b7823"},"vehicle_type_id":"4","last_reported":1758633650,"current_range_meters":17200,"station_id":"ce4bhg92rcd13ifvqf90","pricing_plan_id":"cebpf4jnsgd1na2vs0mg"},{"bike_id":"93f8abc5-7bf2-42ae-a85e-b4a1a5de88d5","system_id":"levelo_inurba_marseille","lat":43.337444,"lon":5.374475,"is_reserved":false,"is_disabled":false,"rental_uris":{"android":"levelo://app?vid=93f8abc5-7bf2-42ae-a85e-b4a1a5de88d5","ios":"levelo://app?vid=93f8abc5-7bf2-42ae-a85e-b4a1a5de88d5"},"vehicle_type_id":"4","last_reported":1758633650,"current_range_meters":17200,"station_id":"","pricing_plan_id":"cebpf4jnsgd1na2vs0mg"},{"bike_id":"95092148-5f75-4663-be7d-7c8aa2863391","system_id":"levelo_inurba_marseille","lat":43.24173,"lon":5.36397,"is_reserved":false,"is_disabled":false,"rental_uris":{"android":"levelo://app?vid=95092148-5f75-4663-be7d-7c8aa2863391","ios":"levelo://app?vid=95092148-5f75-4663-be7d-7c8aa2863391"},"vehicle_type_id":"4","last_reported":1758633650,"current_range_meters":17200,"station_id":"cpo36qri1sfpv3e86is0","pricing_plan_id":"cebpf4jnsgd1na2vs0mg"},{"bike_id":"682e1b2b-0e77-4164-98d1-c3f651903e98","system_id":"levelo_inurba_marseille","lat":43.30089,"lon":5.39081,"is_reserved":false,"is_disabled":false,"rental_uris":{"android":"levelo://app?vid=682e1b2b-0e77-4164-98d1-c3f651903e98","ios":"levelo://app?vid=682e1b2b-0e77-4164-98d1-c3f651903e98"},"vehicle_type_id":"4","last_reported":1758633650,"current_range_meters":17200,"station_id":"ce4bh192rcd13ifvqdb0","pricing_plan_id":"cebpf4jnsgd1na2vs0mg"},{"bike_id":"2e257bfa-3e56-47cd-8d78-9e9b50aac565","system_id":"levelo_inurba_marseille","lat":43.32358,"lon":5.36752,"is_reserved":false,"is_disabled":false,"rental_uris":{"android":"levelo://app?vid=2e257bfa-3e56-47cd-8d78-9e9b50aac565","ios":"levelo://app?vid=2e257bfa-3e56-47cd-8d78-9e9b50aac565"},"vehicle_type_id":"4","last_reported":1758633650,"current_range_meters":17200,"station_id":"ce4bhsh2rcd13ifvqi2g","pricing_plan_id":"cebpf4jnsgd1na2vs0mg"},{"bike_id":"d98f70b4-a68e-4a59-a9b0-98ea4b085948","system_id":"levelo_inurba_marseille","lat":43.27999,"lon":5.41668,"is_reserved":false,"is_disabled":false,"rental_uris":{"android":"levelo://app?vid=d98f70b4-a68e-4a59-a9b0-98ea4b085948","ios":"levelo://app?vid=d98f70b4-a68e-4a59-a9b0-98ea4b085948"},"vehicle_type_id":"4","last_reported":1758633650,"current_range_meters":17600,"station_id":"ce4bho12rcd13ifvqh1g","pricing_plan_id":"cebpf4jnsgd1na2vs0mg"},{"bike_id":"c3bd2f77-da4f-466f-9814-f89261577fef","system_id":"levelo_inurba_marseille","lat":43.25504,"lon":5.37652,"is_reserved":false,"is_disabled":false,"rental_uris":{"android":"levelo://app?vid=c3bd2f77-da4f-466f-9814-f89261577fef","ios":"levelo://app?vid=c3bd2f77-da4f-466f-9814-f89261577fef"},"vehicle_type_id":"4","last_reported":1758633650,"current_range_meters":17600,"station_id":"ce4bhh12rcd13ifvqff0","pricing_plan_id":"cebpf4jnsgd1na2vs0mg"},{"bike_id":"b5097eea-9912-4be2-9cf9-14c224c5fab6","system_id":"levelo_inurba_marseille","lat":43.23202,"lon":5.35553,"is_reserved":false,"is_disabled":false,"rental_uris":{"android":"levelo://app?vid=b5097eea-9912-4be2-9cf9-14c224c5fab6","ios":"levelo://app?vid=b5097eea-9912-4be2-9cf9-14c224c5fab6"},"vehicle_type_id":"4","last_reported":1758633650,"current_range_meters":17600,"station_id":"ce4bhu92rcd13ifvqi70","pricing_plan_id":"cebpf4jnsgd1na2vs0mg"},{"bike_id":"e34a534e-40a2-424f-9a9f-8dd078555d70","system_id":"levelo_inurba_marseille","lat":43.31362,"lon":5.36712,"is_reserved":false,"is_disabled":false,"rental_uris":{"android":"levelo://app?vid=e34a534e-40a2-424f-9a9f-8dd078555d70","ios":"levelo://app?vid=e34a534e-40a2-424f-9a9f-8dd078555d70"},"vehicle_type_id":"4","last_reported":1758633650,"current_range_meters":17600,"station_id":"ce4bgr92rcd13ifvqc6g","pricing_plan_id":"cebpf4jnsgd1na2vs0mg"},{"bike_id":"40c64546-9a1f-4cc6-8114-54e8d2b88e8a","system_id":"levelo_inurba_marseille","lat":43.286675,"lon":5.386673,"is_reserved":false,"is_disabled":false,"rental_uris":{"android":"levelo://app?vid=40c64546-9a1f-4cc6-8114-54e8d2b88e8a","ios":"levelo://app?vid=40c64546-9a1f-4cc6-8114-54e8d2b88e8a"},"vehicle_type_id":"4","last_reported":1758633650,"current_range_meters":17600,"station_id":"ce4bh492rcd13ifvqdug","pricing_plan_id":"cebpf4jnsgd1na2vs0mg"},{"bike_id":"ca5534d1-158a-4ad4-8599-5de4f2ca998c","system_id":"levelo_inurba_marseille","lat":43.290393,"lon":5.39965,"is_reserved":false,"is_disabled":false,"rental_uris":{"android":"levelo://app?vid=ca5534d1-158a-4ad4-8599-5de4f2ca998c","ios":"levelo://app?vid=ca5534d1-158a-4ad4-8599-5de4f2ca998c"},"vehicle_type_id":"4","last_reported":1758633650,"current_range_meters":17600,"station_id":"","pricing_plan_id":"cebpf4jnsgd1na2vs0mg"},{"bike_id":"878212e1-9f3a-4147-b86c-65eaf928a45d","system_id":"levelo_inurba_marseille","lat":43.21757,"lon":5.3461,"is_reserved":false,"is_disabled":false,"rental_uris":{"android":"levelo://app?vid=878212e1-9f3a-4147-b86c-65eaf928a45d","ios":"levelo://app?vid=878212e1-9f3a-4147-b86c-65eaf928a45d"},"vehicle_type_id":"4","last_reported":1758633650,"current_range_meters":17600,"station_id":"","pricing_plan_id":"cebpf4jnsgd1na2vs0mg"},{"bike_id":"c5675042-61b3-468a-93da-f8441c6f50f7","system_id":"levelo_inurba_marseille","lat":43.30589,"lon":5.39361,"is_reserved":false,"is_disabled":false,"rental_uris":{"android":"levelo://app?vid=c5675042-61b3-468a-93da-f8441c6f50f7","ios":"levelo://app?vid=c5675042-61b3-468a-93da-f8441c6f50f7"},"vehicle_type_id":"4","last_reported":1758633650,"current_range_meters":17600,"station_id":"ce4bh0p2rcd13ifvqd80","pricing_plan_id":"cebpf4jnsgd1na2vs0mg"},{"bike_id":"2e47fd0c-8dc7-4606-ae83-f4460405e6a3","system_id":"levelo_inurba_marseille","lat":43.303797,"lon":5.424887,"is_reserved":false,"is_disabled":false,"rental_uris":{"android":"levelo://app?vid=2e47fd0c-8dc7-4606-ae83-f4460405e6a3","ios":"levelo://app?vid=2e47fd0c-8dc7-4606-ae83-f4460405e6a3"},"vehicle_type_id":"4","last_reported":1758633650,"current_range_meters":17600,"station_id":"ce4bhoh2rcd13ifvqh6g","pricing_plan_id":"cebpf4jnsgd1na2vs0mg"},{"bike_id":"fa8de973-0d37-46ed-a97a-026fc29b3a1f","system_id":"levelo_inurba_marseille","lat":43.29196,"lon":5.35804,"is_reserved":false,"is_disabled":false,"rental_uris":{"android":"levelo://app?vid=fa8de973-0d37-46ed-a97a-026fc29b3a1f","ios":"levelo://app?vid=fa8de973-0d37-46ed-a97a-026fc29b3a1f"},"vehicle_type_id":"4","last_reported":1758633650,"current_range_meters":17600,"station_id":"ce4bhb12rcd13ifvqel0","pricing_plan_id":"cebpf4jnsgd1na2vs0mg"},{"bike_id":"45d97ba3-b04a-43ac-8719-c9e530fef261","system_id":"levelo_inurba_marseille","lat":43.29797,"lon":5.38114,"is_reserved":false,"is_disabled":false,"rental_uris":{"android":"levelo://app?vid=45d97ba3-b04a-43ac-8719-c9e530fef261","ios":"levelo://app?vid=45d97ba3-b04a-43ac-8719-c9e530fef261"},"vehicle_type_id":"4","last_reported":1758633650,"current_range_meters":18000,"station_id":"ce4bgip2rcd13ifvqbb0","pricing_plan_id":"cebpf4jnsgd1na2vs0mg"},{"bike_id":"7d0caa8a-aeb2-418d-ae62-a6b7b9bc68f2","system_id":"levelo_inurba_marseille","lat":43.29915,"lon":5.38138,"is_reserved":false,"is_disabled":false,"rental_uris":{"android":"levelo://app?vid=7d0caa8a-aeb2-418d-ae62-a6b7b9bc68f2","ios":"levelo://app?vid=7d0caa8a-aeb2-418d-ae62-a6b7b9bc68f2"},"vehicle_type_id":"4","last_reported":1758633650,"current_range_meters":18000,"station_id":"ce4bgj12rcd13ifvqbc0","pricing_plan_id":"cebpf4jnsgd1na2vs0mg"},{"bike_id":"03ffa296-619e-47ea-9c24-d67ec81c0f83","system_id":"levelo_inurba_marseille","lat":43.295703,"lon":5.398422,"is_reserved":false,"is_disabled":false,"rental_uris":{"android":"levelo://app?vid=03ffa296-619e-47ea-9c24-d67ec81c0f83","ios":"levelo://app?vid=03ffa296-619e-47ea-9c24-d67ec81c0f83"},"vehicle_type_id":"4","last_reported":1758633650,"current_range_meters":18000,"station_id":"ce4bh312rcd13ifvqdj0","pricing_plan_id":"cebpf4jnsgd1na2vs0mg"},{"bike_id":"33c3bc37-b0fb-4bbc-94c6-23e7c0c2d46f","system_id":"levelo_inurba_marseille","lat":43.313768,"lon":5.367067,"is_reserved":false,"is_disabled":false,"rental_uris":{"android":"levelo://app?vid=33c3bc37-b0fb-4bbc-94c6-23e7c0c2d46f","ios":"levelo://app?vid=33c3bc37-b0fb-4bbc-94c6-23e7c0c2d46f"},"vehicle_type_id":"4","last_reported":1758633650,"current_range_meters":18000,"station_id":"ce4bgr92rcd13ifvqc6g","pricing_plan_id":"cebpf4jnsgd1na2vs0mg"},{"bike_id":"dd840919-ac5e-4fd7-a76d-94fb3aeade9f","system_id":"levelo_inurba_marseille","lat":43.2893,"lon":5.39622,"is_reserved":false,"is_disabled":false,"rental_uris":{"android":"levelo://app?vid=dd840919-ac5e-4fd7-a76d-94fb3aeade9f","ios":"levelo://app?vid=dd840919-ac5e-4fd7-a76d-94fb3aeade9f"},"vehicle_type_id":"4","last_reported":1758633650,"current_range_meters":18000,"station_id":"ce4bh3h2rcd13ifvqdn0","pricing_plan_id":"cebpf4jnsgd1na2vs0mg"},{"bike_id":"9ea05566-3b94-432b-b3e5-db100f99f124","system_id":"levelo_inurba_marseille","lat":43.2573,"lon":5.41102,"is_reserved":false,"is_disabled":false,"rental_uris":{"android":"levelo://app?vid=9ea05566-3b94-432b-b3e5-db100f99f124","ios":"levelo://app?vid=9ea05566-3b94-432b-b3e5-db100f99f124"},"vehicle_type_id":"4","last_reported":1758633650,"current_range_meters":18000,"station_id":"ce4bhkp2rcd13ifvqgd0","pricing_plan_id":"cebpf4jnsgd1na2vs0mg"},{"bike_id":"ebd45b5d-0ed8-4e09-9086-a837608bf74c","system_id":"levelo_inurba_marseille","lat":43.28418,"lon":5.34985,"is_reserved":false,"is_disabled":false,"rental_uris":{"android":"levelo://app?vid=ebd45b5d-0ed8-4e09-9086-a837608bf74c","ios":"levelo://app?vid=ebd45b5d-0ed8-4e09-9086-a837608bf74c"},"vehicle_type_id":"4","last_reported":1758633650,"current_range_meters":18000,"station_id":"ce4bhbh2rcd13ifvqepg","pricing_plan_id":"cebpf4jnsgd1na2vs0mg"},{"bike_id":"7f9f9203-a30f-40db-89cc-a52ce642ca3a","system_id":"levelo_inurba_marseille","lat":43.341448,"lon":5.409034,"is_reserved":false,"is_disabled":false,"rental_uris":{"android":"levelo://app?vid=7f9f9203-a30f-40db-89cc-a52ce642ca3a","ios":"levelo://app?vid=7f9f9203-a30f-40db-89cc-a52ce642ca3a"},"vehicle_type_id":"4","last_reported":1758633650,"current_range_meters":18000,"station_id":"ce4bhqh2rcd13ifvqhlg","pricing_plan_id":"cebpf4jnsgd1na2vs0mg"},{"bike_id":"b312f3fd-1c71-4ab3-8166-99a5e0aff6b3","system_id":"levelo_inurba_marseille","lat":43.3124,"lon":5.36849,"is_reserved":false,"is_disabled":false,"rental_uris":{"android":"levelo://app?vid=b312f3fd-1c71-4ab3-8166-99a5e0aff6b3","ios":"levelo://app?vid=b312f3fd-1c71-4ab3-8166-99a5e0aff6b3"},"vehicle_type_id":"4","last_reported":1758633650,"current_range_meters":18000,"station_id":"ce4bgl92rcd13ifvqbq0","pricing_plan_id":"cebpf4jnsgd1na2vs0mg"},{"bike_id":"d68b9cdd-055c-48e6-b5c7-c6c683b923e5","system_id":"levelo_inurba_marseille","lat":43.28611,"lon":5.35108,"is_reserved":false,"is_disabled":true,"rental_uris":{"android":"levelo://app?vid=d68b9cdd-055c-48e6-b5c7-c6c683b923e5","ios":"levelo://app?vid=d68b9cdd-055c-48e6-b5c7-c6c683b923e5"},"vehicle_type_id":"4","last_reported":1758633650,"current_range_meters":18000,"station_id":"ce4bhch2rcd13ifvqeug","pricing_plan_id":"cebpf4jnsgd1na2vs0mg"},{"bike_id":"c7915601-8ada-4b41-a709-06d52df9dd97","system_id":"levelo_inurba_marseille","lat":43.307962,"lon":5.38149,"is_reserved":false,"is_disabled":false,"rental_uris":{"android":"levelo://app?vid=c7915601-8ada-4b41-a709-06d52df9dd97","ios":"levelo://app?vid=c7915601-8ada-4b41-a709-06d52df9dd97"},"vehicle_type_id":"4","last_reported":1758633650,"current_range_meters":18000,"station_id":"ce4bgt12rcd13ifvqce0","pricing_plan_id":"cebpf4jnsgd1na2vs0mg"},{"bike_id":"b816d576-d71a-41a1-96e0-049d5941d5d6","system_id":"levelo_inurba_marseille","lat":43.26691,"lon":5.38261,"is_reserved":false,"is_disabled":false,"rental_uris":{"android":"levelo://app?vid=b816d576-d71a-41a1-96e0-049d5941d5d6","ios":"levelo://app?vid=b816d576-d71a-41a1-96e0-049d5941d5d6"},"vehicle_type_id":"4","last_reported":1758633650,"current_range_meters":18800,"station_id":"ce4bhg92rcd13ifvqf90","pricing_plan_id":"cebpf4jnsgd1na2vs0mg"},{"bike_id":"84ed6c5f-ee83-4d29-9c03-bc2c90d6c59c","system_id":"levelo_inurba_marseille","lat":43.30539,"lon":5.36717,"is_reserved":false,"is_disabled":false,"rental_uris":{"android":"levelo://app?vid=84ed6c5f-ee83-4d29-9c03-bc2c90d6c59c","ios":"levelo://app?vid=84ed6c5f-ee83-4d29-9c03-bc2c90d6c59c"},"vehicle_type_id":"4","last_reported":1758633650,"current_range_meters":18000,"station_id":"ce4bgrp2rcd13ifvqc9g","pricing_plan_id":"cebpf4jnsgd1na2vs0mg"},{"bike_id":"891d779a-3787-40fe-807e-436cf621bf41","system_id":"levelo_inurba_marseille","lat":43.29977,"lon":5.37165,"is_reserved":false,"is_disabled":false,"rental_uris":{"android":"levelo://app?vid=891d779a-3787-40fe-807e-436cf621bf41","ios":"levelo://app?vid=891d779a-3787-40fe-807e-436cf621bf41"},"vehicle_type_id":"4","last_reported":1758633650,"current_range_meters":19200,"station_id":"ce4bgr92rcd13ifvqc7g","pricing_plan_id":"cebpf4jnsgd1na2vs0mg"},{"bike_id":"4d1696d1-fee5-4cbb-b6cf-473bb9852d90","system_id":"levelo_inurba_marseille","lat":43.29725,"lon":5.37664,"is_reserved":false,"is_disabled":false,"rental_uris":{"android":"levelo://app?vid=4d1696d1-fee5-4cbb-b6cf-473bb9852d90","ios":"levelo://app?vid=4d1696d1-fee5-4cbb-b6cf-473bb9852d90"},"vehicle_type_id":"4","last_reported":1758633650,"current_range_meters":18800,"station_id":"ce4bgkh2rcd13ifvqbl0","pricing_plan_id":"cebpf4jnsgd1na2vs0mg"},{"bike_id":"0ee7c44f-23ce-458a-9e87-469204bb5d2d","system_id":"levelo_inurba_marseille","lat":43.29991,"lon":5.40109,"is_reserved":false,"is_disabled":false,"rental_uris":{"android":"levelo://app?vid=0ee7c44f-23ce-458a-9e87-469204bb5d2d","ios":"levelo://app?vid=0ee7c44f-23ce-458a-9e87-469204bb5d2d"},"vehicle_type_id":"4","last_reported":1758633650,"current_range_meters":18800,"station_id":"","pricing_plan_id":"cebpf4jnsgd1na2vs0mg"},{"bike_id":"0306c5d5-8061-4818-a9c1-9604d16570d9","system_id":"levelo_inurba_marseille","lat":43.24148,"lon":5.36417,"is_reserved":false,"is_disabled":false,"rental_uris":{"android":"levelo://app?vid=0306c5d5-8061-4818-a9c1-9604d16570d9","ios":"levelo://app?vid=0306c5d5-8061-4818-a9c1-9604d16570d9"},"vehicle_type_id":"4","last_reported":1758633650,"current_range_meters":18800,"station_id":"cpo36qri1sfpv3e86is0","pricing_plan_id":"cebpf4jnsgd1na2vs0mg"},{"bike_id":"0f512ca8-d847-43b5-81a7-81032ad4f2ec","system_id":"levelo_inurba_marseille","lat":43.32041,"lon":5.41564,"is_reserved":false,"is_disabled":false,"rental_uris":{"android":"levelo://app?vid=0f512ca8-d847-43b5-81a7-81032ad4f2ec","ios":"levelo://app?vid=0f512ca8-d847-43b5-81a7-81032ad4f2ec"},"vehicle_type_id":"4","last_reported":1758633650,"current_range_meters":18800,"station_id":"ce4bhq92rcd13ifvqhkg","pricing_plan_id":"cebpf4jnsgd1na2vs0mg"},{"bike_id":"781ec3f5-b9cc-4e84-aa29-d17ad816a188","system_id":"levelo_inurba_marseille","lat":43.29674,"lon":5.37293,"is_reserved":false,"is_disabled":false,"rental_uris":{"android":"levelo://app?vid=781ec3f5-b9cc-4e84-aa29-d17ad816a188","ios":"levelo://app?vid=781ec3f5-b9cc-4e84-aa29-d17ad816a188"},"vehicle_type_id":"4","last_reported":1758633650,"current_range_meters":18800,"station_id":"ce4bgk12rcd13ifvqbj0","pricing_plan_id":"cebpf4jnsgd1na2vs0mg"},{"bike_id":"431584b9-9533-4e87-b579-39a7a7301948","system_id":"levelo_inurba_marseille","lat":43.258241,"lon":5.39439,"is_reserved":false,"is_disabled":false,"rental_uris":{"android":"levelo://app?vid=431584b9-9533-4e87-b579-39a7a7301948","ios":"levelo://app?vid=431584b9-9533-4e87-b579-39a7a7301948"},"vehicle_type_id":"4","last_reported":1758633650,"current_range_meters":18800,"station_id":"ce4bhip2rcd13ifvqft0","pricing_plan_id":"cebpf4jnsgd1na2vs0mg"},{"bike_id":"36b070bb-df09-4433-b99c-aab79ada22d5","system_id":"levelo_inurba_marseille","lat":43.29287,"lon":5.3744,"is_reserved":false,"is_disabled":false,"rental_uris":{"android":"levelo://app?vid=36b070bb-df09-4433-b99c-aab79ada22d5","ios":"levelo://app?vid=36b070bb-df09-4433-b99c-aab79ada22d5"},"vehicle_type_id":"4","last_reported":1758633650,"current_range_meters":18800,"station_id":"","pricing_plan_id":"cebpf4jnsgd1na2vs0mg"},{"bike_id":"d8776e6e-502b-419b-a2ba-53f094ba2c15","system_id":"levelo_inurba_marseille","lat":43.25719,"lon":5.41101,"is_reserved":false,"is_disabled":false,"rental_uris":{"android":"levelo://app?vid=d8776e6e-502b-419b-a2ba-53f094ba2c15","ios":"levelo://app?vid=d8776e6e-502b-419b-a2ba-53f094ba2c15"},"vehicle_type_id":"4","last_reported":1758633650,"current_range_meters":18800,"station_id":"ce4bhkp2rcd13ifvqgd0","pricing_plan_id":"cebpf4jnsgd1na2vs0mg"},{"bike_id":"e2017298-7010-4fcc-9644-9ccfb0f46125","system_id":"levelo_inurba_marseille","lat":43.30107,"lon":5.41521,"is_reserved":false,"is_disabled":false,"rental_uris":{"android":"levelo://app?vid=e2017298-7010-4fcc-9644-9ccfb0f46125","ios":"levelo://app?vid=e2017298-7010-4fcc-9644-9ccfb0f46125"},"vehicle_type_id":"4","last_reported":1758633650,"current_range_meters":18800,"station_id":"","pricing_plan_id":"cebpf4jnsgd1na2vs0mg"},{"bike_id":"aa3d9edd-9157-46a5-bd96-2dadc511d4c4","system_id":"levelo_inurba_marseille","lat":43.26215,"lon":5.37442,"is_reserved":false,"is_disabled":false,"rental_uris":{"android":"levelo://app?vid=aa3d9edd-9157-46a5-bd96-2dadc511d4c4","ios":"levelo://app?vid=aa3d9edd-9157-46a5-bd96-2dadc511d4c4"},"vehicle_type_id":"4","last_reported":1758633650,"current_range_meters":18800,"station_id":"ce4bhgp2rcd13ifvqfc0","pricing_plan_id":"cebpf4jnsgd1na2vs0mg"},{"bike_id":"628fb4e3-3a3e-4d00-aa05-5300ce9756e6","system_id":"levelo_inurba_marseille","lat":43.29906,"lon":5.36502,"is_reserved":false,"is_disabled":false,"rental_uris":{"android":"levelo://app?vid=628fb4e3-3a3e-4d00-aa05-5300ce9756e6","ios":"levelo://app?vid=628fb4e3-3a3e-4d00-aa05-5300ce9756e6"},"vehicle_type_id":"4","last_reported":1758633650,"current_range_meters":19200,"station_id":"ce4bgm92rcd13ifvqbr0","pricing_plan_id":"cebpf4jnsgd1na2vs0mg"},{"bike_id":"ef00c611-56e3-4d87-83a8-6fad9627913a","system_id":"levelo_inurba_marseille","lat":43.308894,"lon":5.371943,"is_reserved":false,"is_disabled":false,"rental_uris":{"android":"levelo://app?vid=ef00c611-56e3-4d87-83a8-6fad9627913a","ios":"levelo://app?vid=ef00c611-56e3-4d87-83a8-6fad9627913a"},"vehicle_type_id":"4","last_reported":1758633650,"current_range_meters":19200,"station_id":"ce4bguh2rcd13ifvqckg","pricing_plan_id":"cebpf4jnsgd1na2vs0mg"},{"bike_id":"c1b26766-9f78-4ebc-b12b-f5ebd91674ce","system_id":"levelo_inurba_marseille","lat":43.31114,"lon":5.37775,"is_reserved":false,"is_disabled":false,"rental_uris":{"android":"levelo://app?vid=c1b26766-9f78-4ebc-b12b-f5ebd91674ce","ios":"levelo://app?vid=c1b26766-9f78-4ebc-b12b-f5ebd91674ce"},"vehicle_type_id":"4","last_reported":1758633650,"current_range_meters":19200,"station_id":"ce4bgt92rcd13ifvqcg0","pricing_plan_id":"cebpf4jnsgd1na2vs0mg"},{"bike_id":"4a9a978a-712d-4a16-907b-c03240f6abbd","system_id":"levelo_inurba_marseille","lat":43.23058,"lon":5.35491,"is_reserved":false,"is_disabled":false,"rental_uris":{"android":"levelo://app?vid=4a9a978a-712d-4a16-907b-c03240f6abbd","ios":"levelo://app?vid=4a9a978a-712d-4a16-907b-c03240f6abbd"},"vehicle_type_id":"4","last_reported":1758633650,"current_range_meters":19200,"station_id":"cpo3342slgdg3j2ifvpg","pricing_plan_id":"cebpf4jnsgd1na2vs0mg"},{"bike_id":"bdd37a6a-29fd-49f3-86ee-26a3c01098d9","system_id":"levelo_inurba_marseille","lat":43.30469,"lon":5.37912,"is_reserved":false,"is_disabled":false,"rental_uris":{"android":"levelo://app?vid=bdd37a6a-29fd-49f3-86ee-26a3c01098d9","ios":"levelo://app?vid=bdd37a6a-29fd-49f3-86ee-26a3c01098d9"},"vehicle_type_id":"4","last_reported":1758633650,"current_range_meters":19200,"station_id":"ce4bgup2rcd13ifvqcn0","pricing_plan_id":"cebpf4jnsgd1na2vs0mg"},{"bike_id":"835d9e30-d645-4496-b473-4ca9ddc55722","system_id":"levelo_inurba_marseille","lat":43.23153,"lon":5.43712,"is_reserved":false,"is_disabled":false,"rental_uris":{"android":"levelo://app?vid=835d9e30-d645-4496-b473-4ca9ddc55722","ios":"levelo://app?vid=835d9e30-d645-4496-b473-4ca9ddc55722"},"vehicle_type_id":"4","last_reported":1758633650,"current_range_meters":14800,"station_id":"ce4bhmp2rcd13ifvqgog","pricing_plan_id":"cebpf4jnsgd1na2vs0mg"},{"bike_id":"1548b01c-809f-4ef3-a594-c6e5057536bd","system_id":"levelo_inurba_marseille","lat":43.31163,"lon":5.38724,"is_reserved":false,"is_disabled":false,"rental_uris":{"android":"levelo://app?vid=1548b01c-809f-4ef3-a594-c6e5057536bd","ios":"levelo://app?vid=1548b01c-809f-4ef3-a594-c6e5057536bd"},"vehicle_type_id":"4","last_reported":1758633650,"current_range_meters":19200,"station_id":"ce4bgv12rcd13ifvqcp0","pricing_plan_id":"cebpf4jnsgd1na2vs0mg"},{"bike_id":"36e14a01-13aa-45ae-8743-fe096043a807","system_id":"levelo_inurba_marseille","lat":43.3249,"lon":5.36578,"is_reserved":false,"is_disabled":false,"rental_uris":{"android":"levelo://app?vid=36e14a01-13aa-45ae-8743-fe096043a807","ios":"levelo://app?vid=36e14a01-13aa-45ae-8743-fe096043a807"},"vehicle_type_id":"4","last_reported":1758633650,"current_range_meters":19200,"station_id":"ce4bhs12rcd13ifvqhvg","pricing_plan_id":"cebpf4jnsgd1na2vs0mg"},{"bike_id":"4796f8dd-32eb-4509-9581-a84d0e462484","system_id":"levelo_inurba_marseille","lat":43.28918,"lon":5.38386,"is_reserved":false,"is_disabled":false,"rental_uris":{"android":"levelo://app?vid=4796f8dd-32eb-4509-9581-a84d0e462484","ios":"levelo://app?vid=4796f8dd-32eb-4509-9581-a84d0e462484"},