{"last_updated":1707671211,"ttl":30,"version":"2.2","data":{"bikes":[{"bike_id":"31ab7abf-dd6e-4bbf-adc5-7db95e85ecfe","system_id":"levelo_inurba_marseille","lat":43.313391,"lon":5.36706,"is_reserved":false,"is_disabled":false,"rental_uris":{"android":"levelo://app?vid=31ab7abf-dd6e-4bbf-adc5-7db95e85ecfe","ios":"levelo://app?vid=31ab7abf-dd6e-4bbf-adc5-7db95e85ecfe"},"vehicle_type_id":"4","last_reported":1707671211,"current_range_meters":9200,"station_id":"ce4bgr92rcd13ifvqc6g","pricing_plan_id":"free"},{"bike_id":"424989ab-5f90-47c5-9452-6900e12626e7","system_id":"levelo_inurba_marseille","lat":43.313391,"lon":5.36706,"is_reserved":false,"is_disabled":false,"rental_uris":{"android":"levelo://app?vid=424989ab-5f90-47c5-9452-6900e12626e7","ios":"levelo://app?vid=424989ab-5f90-47c5-9452-6900e12626e7"},"vehicle_type_id":"4","last_reported":1707671211,"current_range_meters":26800,"station_id":"ce4bgr92rcd13ifvqc6g","pricing_plan_id":"free"},{"bike_id":"baa312f7-e4fd-4f93-b192-5ccf078f8e73","system_id":"levelo_inurba_marseille","lat":43.312226,"lon":5.368468,"is_reserved":false,"is_disabled":false,"rental_uris":{"android":"levelo://app?vid=baa312f7-e4fd-4f93-b192-5ccf078f8e73","ios":"levelo://app?vid=baa312f7-e4fd-4f93-b192-5ccf078f8e73"},"vehicle_type_id":"4","last_reported":1707671211,"current_range_meters":27200,"station_id":"ce4bgl92rcd13ifvqbq0","pricing_plan_id":"free"},{"bike_id":"090d47bd-db56-4ce3-bcc5-ffceb6f7a46d","system_id":"levelo_inurba_marseille","lat":43.312239,"lon":5.368562,"is_reserved":false,"is_disabled":false,"rental_uris":{"android":"levelo://app?vid=090d47bd-db56-4ce3-bcc5-ffceb6f7a46d","ios":"levelo://app?vid=090d47bd-db56-4ce3-bcc5-ffceb6f7a46d"},"vehicle_type_id":"4","last_reported":1707671211,"current_range_meters":28000,"station_id":"ce4bgl92rcd13ifvqbq0","pricing_plan_id":"free"},{"bike_id":"d53b05b4-69cf-403b-ab16-476e59db4bcd","system_id":"levelo_inurba_marseille","lat":43.312239,"lon":5.368562,"is_reserved":false,"is_disabled":false,"rental_uris":{"android":"levelo://app?vid=d53b05b4-69cf-403b-ab16-476e59db4bcd","ios":"levelo://app?vid=d53b05b4-69cf-403b-ab16-476e59db4bcd"},"vehicle_type_id":"4","last_reported":1707671211,"current_range_meters":28400,"station_id":"ce4bgl92rcd13ifvqbq0","pricing_plan_id":"free"},{"bike_id":"be21b2e7-db47-4004-a664-2cf030647097","system_id":"levelo_inurba_marseille","lat":43.3123,"lon":5.36869,"is_reserved":false,"is_disabled":false,"rental_uris":{"android":"levelo://app?vid=be21b2e7-db47-4004-a664-2cf030647097","ios":"levelo://app?vid=be21b2e7-db47-4004-a664-2cf030647097"},"vehicle_type_id":"4","last_reported":1707671211,"current_range_meters":4000,"station_id":"ce4bgl92rcd13ifvqbq0","pricing_plan_id":"free"},{"bike_id":"0e600883-46b7-4a7f-8cdb-8f08b964ad1a","system_id":"levelo_inurba_marseille","lat":43.312239,"lon":5.368562,"is_reserved":false,"is_disabled":false,"rental_uris":{"android":"levelo://app?vid=0e600883-46b7-4a7f-8cdb-8f08b964ad1a","ios":"levelo://app?vid=0e600883-46b7-4a7f-8cdb-8f08b964ad1a"},"vehicle_type_id":"4","last_reported":1707671211,"current_range_meters":28800,"station_id":"ce4bgl92rcd13ifvqbq0","pricing_plan_id":"free"},{"bike_id":"f5d7533f-7dd0-43e3-81a3-1967252838f0","system_id":"levelo_inurba_marseille","lat":43.312239,"lon":5.368562,"is_reserved":false,"is_disabled":false,"rental_uris":{"android":"levelo://app?vid=f5d7533f-7dd0-43e3-81a3-1967252838f0","ios":"levelo://app?vid=f5d7533f-7dd0-43e3-81a3-1967252838f0"},"vehicle_type_id":"4","last_reported":1707671211,"current_range_meters":18400,"station_id":"ce4bgl92rcd13ifvqbq0","pricing_plan_id":"free"},{"bike_id":"8a15ba2b-50a0-4a9c-be78-503a97b4200a","system_id":"levelo_inurba_marseille","lat":43.312239,"lon":5.368562,"is_reserved":false,"is_disabled":false,"rental_uris":{"android":"levelo://app?vid=8a15ba2b-50a0-4a9c-be78-503a97b4200a","ios":"levelo://app?vid=8a15ba2b-50a0-4a9c-be78-503a97b4200a"},"vehicle_type_id":"4","last_reported":1707671211,"current_range_meters":20000,"station_id":"ce4bgl92rcd13ifvqbq0","pricing_plan_id":"free"},{"bike_id":"69b83784-0c87-4876-a5bd-ed33fdf27c5a","system_id":"levelo_inurba_marseille","lat":43.312239,"lon":5.368562,"is_reserved":false,"is_disabled":false,"rental_uris":{"android":"levelo://app?vid=69b83784-0c87-4876-a5bd-ed33fdf27c5a","ios":"levelo://app?vid=69b83784-0c87-4876-a5bd-ed33fdf27c5a"},"vehicle_type_id":"4","last_reported":1707671211,"current_range_meters":29200,"station_id":"ce4bgl92rcd13ifvqbq0","pricing_plan_id":"free"},{"bike_id":"8f79281e-99be-434e-8d71-d02a0098911e","system_id":"levelo_inurba_marseille","lat":43.312354,"lon":5.368774,"is_reserved":false,"is_disabled":false,"rental_uris":{"android":"levelo://app?vid=8f79281e-99be-434e-8d71-d02a0098911e","ios":"levelo://app?vid=8f79281e-99be-434e-8d71-d02a0098911e"},"vehicle_type_id":"4","last_reported":1707671211,"current_range_meters":16000,"station_id":"ce4bgl92rcd13ifvqbq0","pricing_plan_id":"free"},{"bike_id":"84d6dfa0-d329-40d3-ae10-f4860c7bc228","system_id":"levelo_inurba_marseille","lat":43.309076,"lon":5.368465,"is_reserved":false,"is_disabled":false,"rental_uris":{"android":"levelo://app?vid=84d6dfa0-d329-40d3-ae10-f4860c7bc228","ios":"levelo://app?vid=84d6dfa0-d329-40d3-ae10-f4860c7bc228"},"vehicle_type_id":"4","last_reported":1707671211,"current_range_meters":29600,"station_id":"ce4bgn92rcd13ifvqbvg","pricing_plan_id":"free"},{"bike_id":"69d61244-4401-4706-9010-7dcd29b5c215","system_id":"levelo_inurba_marseille","lat":43.3169,"lon":5.369953,"is_reserved":false,"is_disabled":false,"rental_uris":{"android":"levelo://app?vid=69d61244-4401-4706-9010-7dcd29b5c215","ios":"levelo://app?vid=69d61244-4401-4706-9010-7dcd29b5c215"},"vehicle_type_id":"4","last_reported":1707671211,"current_range_meters":5200,"station_id":"","pricing_plan_id":"free"},{"bike_id":"18697225-9e0d-41dc-a20b-1e29ba2380d2","system_id":"levelo_inurba_marseille","lat":43.309039,"lon":5.371797,"is_reserved":false,"is_disabled":false,"rental_uris":{"android":"levelo://app?vid=18697225-9e0d-41dc-a20b-1e29ba2380d2","ios":"levelo://app?vid=18697225-9e0d-41dc-a20b-1e29ba2380d2"},"vehicle_type_id":"4","last_reported":1707671211,"current_range_meters":23200,"station_id":"ce4bguh2rcd13ifvqckg","pricing_plan_id":"free"},{"bike_id":"b9e48ac8-61b6-48b7-8ad4-35c29435a4da","system_id":"levelo_inurba_marseille","lat":43.316217,"lon":5.37319,"is_reserved":false,"is_disabled":false,"rental_uris":{"android":"levelo://app?vid=b9e48ac8-61b6-48b7-8ad4-35c29435a4da","ios":"levelo://app?vid=b9e48ac8-61b6-48b7-8ad4-35c29435a4da"},"vehicle_type_id":"4","last_reported":1707671211,"current_range_meters":25200,"station_id":"","pricing_plan_id":"free"},{"bike_id":"81c944f6-9d54-46f5-861d-389eaef68254","system_id":"levelo_inurba_marseille","lat":43.30537,"lon":5.367345,"is_reserved":false,"is_disabled":false,"rental_uris":{"android":"levelo://app?vid=81c944f6-9d54-46f5-861d-389eaef68254","ios":"levelo://app?vid=81c944f6-9d54-46f5-861d-389eaef68254"},"vehicle_type_id":"4","last_reported":1707671211,"current_range_meters":4000,"station_id":"ce4bgrp2rcd13ifvqc9g","pricing_plan_id":"free"},{"bike_id":"536ebbde-74d9-4163-8435-e740e11271a6","system_id":"levelo_inurba_marseille","lat":43.30537,"lon":5.367345,"is_reserved":false,"is_disabled":false,"rental_uris":{"android":"levelo://app?vid=536ebbde-74d9-4163-8435-e740e11271a6","ios":"levelo://app?vid=536ebbde-74d9-4163-8435-e740e11271a6"},"vehicle_type_id":"4","last_reported":1707671211,"current_range_meters":4000,"station_id":"ce4bgrp2rcd13ifvqc9g","pricing_plan_id":"free"},{"bike_id":"b7079aa1-3450-446d-8af4-3ba56009a340","system_id":"levelo_inurba_marseille","lat":43.30557,"lon":5.36555,"is_reserved":false,"is_disabled":false,"rental_uris":{"android":"levelo://app?vid=b7079aa1-3450-446d-8af4-3ba56009a340","ios":"levelo://app?vid=b7079aa1-3450-446d-8af4-3ba56009a340"},"vehicle_type_id":"4","last_reported":1707671211,"current_range_meters":0,"station_id":"ce4bgs12rcd13ifvqcag","pricing_plan_id":"free"},{"bike_id":"7fd3cced-5cea-40b6-b67f-1fe944cb913d","system_id":"levelo_inurba_marseille","lat":43.30557,"lon":5.36537,"is_reserved":false,"is_disabled":false,"rental_uris":{"android":"levelo://app?vid=7fd3cced-5cea-40b6-b67f-1fe944cb913d","ios":"levelo://app?vid=7fd3cced-5cea-40b6-b67f-1fe944cb913d"},"vehicle_type_id":"4","last_reported":1707671211,"current_range_meters":7600,"station_id":"ce4bgs12rcd13ifvqcag","pricing_plan_id":"free"},{"bike_id":"366e10df-2302-40e1-a245-ecd129f3443d","system_id":"levelo_inurba_marseille","lat":43.30537,"lon":5.367345,"is_reserved":false,"is_disabled":false,"rental_uris":{"android":"levelo://app?vid=366e10df-2302-40e1-a245-ecd129f3443d","ios":"levelo://app?vid=366e10df-2302-40e1-a245-ecd129f3443d"},"vehicle_type_id":"4","last_reported":1707671211,"current_range_meters":0,"station_id":"ce4bgrp2rcd13ifvqc9g","pricing_plan_id":"free"},{"bike_id":"a0fe61d4-e260-4d78-a743-3672f4d03c04","system_id":"levelo_inurba_marseille","lat":43.305368,"lon":5.367343,"is_reserved":false,"is_disabled":false,"rental_uris":{"android":"levelo://app?vid=a0fe61d4-e260-4d78-a743-3672f4d03c04","ios":"levelo://app?vid=a0fe61d4-e260-4d78-a743-3672f4d03c04"},"vehicle_type_id":"4","last_reported":1707671211,"current_range_meters":3200,"station_id":"ce4bgrp2rcd13ifvqc9g","pricing_plan_id":"free"},{"bike_id":"9e841249-9b30-4068-ad9f-6332d7f716ec","system_id":"levelo_inurba_marseille","lat":43.30537,"lon":5.367345,"is_reserved":false,"is_disabled":false,"rental_uris":{"android":"levelo://app?vid=9e841249-9b30-4068-ad9f-6332d7f716ec","ios":"levelo://app?vid=9e841249-9b30-4068-ad9f-6332d7f716ec"},"vehicle_type_id":"4","last_reported":1707671211,"current_range_meters":15200,"station_id":"ce4bgrp2rcd13ifvqc9g","pricing_plan_id":"free"},{"bike_id":"9e9013be-d2f7-42ce-91e9-048d6a456406","system_id":"levelo_inurba_marseille","lat":43.30535,"lon":5.36738,"is_reserved":false,"is_disabled":false,"rental_uris":{"android":"levelo://app?vid=9e9013be-d2f7-42ce-91e9-048d6a456406","ios":"levelo://app?vid=9e9013be-d2f7-42ce-91e9-048d6a456406"},"vehicle_type_id":"4","last_reported":1707671211,"current_range_meters":9200,"station_id":"ce4bgrp2rcd13ifvqc9g","pricing_plan_id":"free"},{"bike_id":"d8fd8503-0bc7-44fa-8231-7174ec0274b7","system_id":"levelo_inurba_marseille","lat":43.305368,"lon":5.367343,"is_reserved":false,"is_disabled":false,"rental_uris":{"android":"levelo://app?vid=d8fd8503-0bc7-44fa-8231-7174ec0274b7","ios":"levelo://app?vid=d8fd8503-0bc7-44fa-8231-7174ec0274b7"},"vehicle_type_id":"4","last_reported":1707671211,"current_range_meters":1200,"station_id":"ce4bgrp2rcd13ifvqc9g","pricing_plan_id":"free"},{"bike_id":"e0a40dea-82c9-4879-b342-3b366757b5e1","system_id":"levelo_inurba_marseille","lat":43.3054,"lon":5.3656,"is_reserved":false,"is_disabled":false,"rental_uris":{"android":"levelo://app?vid=e0a40dea-82c9-4879-b342-3b366757b5e1","ios":"levelo://app?vid=e0a40dea-82c9-4879-b342-3b366757b5e1"},"vehicle_type_id":"4","last_reported":1707671211,"current_range_meters":30000,"station_id":"ce4bgs12rcd13ifvqcag","pricing_plan_id":"free"},{"bike_id":"92f1b7f6-7338-41d1-8755-16c5308f1119","system_id":"levelo_inurba_marseille","lat":43.305298,"lon":5.367102,"is_reserved":false,"is_disabled":false,"rental_uris":{"android":"levelo://app?vid=92f1b7f6-7338-41d1-8755-16c5308f1119","ios":"levelo://app?vid=92f1b7f6-7338-41d1-8755-16c5308f1119"},"vehicle_type_id":"4","last_reported":1707671211,"current_range_meters":7200,"station_id":"ce4bgrp2rcd13ifvqc9g","pricing_plan_id":"free"},{"bike_id":"b0a804b4-2326-45b0-b5a2-c19a385c3244","system_id":"levelo_inurba_marseille","lat":43.30531,"lon":5.36549,"is_reserved":false,"is_disabled":false,"rental_uris":{"android":"levelo://app?vid=b0a804b4-2326-45b0-b5a2-c19a385c3244","ios":"levelo://app?vid=b0a804b4-2326-45b0-b5a2-c19a385c3244"},"vehicle_type_id":"4","last_reported":1707671211,"current_range_meters":30800,"station_id":"ce4bgs12rcd13ifvqcag","pricing_plan_id":"free"},{"bike_id":"8d7bd145-e66b-4edf-b5e6-c55776c10442","system_id":"levelo_inurba_marseille","lat":43.3053,"lon":5.36557,"is_reserved":false,"is_disabled":false,"rental_uris":{"android":"levelo://app?vid=8d7bd145-e66b-4edf-b5e6-c55776c10442","ios":"levelo://app?vid=8d7bd145-e66b-4edf-b5e6-c55776c10442"},"vehicle_type_id":"4","last_reported":1707671211,"current_range_meters":31200,"station_id":"ce4bgs12rcd13ifvqcag","pricing_plan_id":"free"},{"bike_id":"736bdea5-6359-4131-825d-62f1b31852ba","system_id":"levelo_inurba_marseille","lat":43.305989,"lon":5.37225,"is_reserved":false,"is_disabled":false,"rental_uris":{"android":"levelo://app?vid=736bdea5-6359-4131-825d-62f1b31852ba","ios":"levelo://app?vid=736bdea5-6359-4131-825d-62f1b31852ba"},"vehicle_type_id":"4","last_reported":1707671211,"current_range_meters":31200,"station_id":"ce4bgqh2rcd13ifvqc4g","pricing_plan_id":"free"},{"bike_id":"13b1a8c3-6d84-4cbb-815b-68acad6c83aa","system_id":"levelo_inurba_marseille","lat":43.305989,"lon":5.37225,"is_reserved":false,"is_disabled":false,"rental_uris":{"android":"levelo://app?vid=13b1a8c3-6d84-4cbb-815b-68acad6c83aa","ios":"levelo://app?vid=13b1a8c3-6d84-4cbb-815b-68acad6c83aa"},"vehicle_type_id":"4","last_reported":1707671211,"current_range_meters":31600,"station_id":"ce4bgqh2rcd13ifvqc4g","pricing_plan_id":"free"},{"bike_id":"43b75d9a-336a-4d56-bb8f-02e418050959","system_id":"levelo_inurba_marseille","lat":43.305989,"lon":5.37225,"is_reserved":false,"is_disabled":false,"rental_uris":{"android":"levelo://app?vid=43b75d9a-336a-4d56-bb8f-02e418050959","ios":"levelo://app?vid=43b75d9a-336a-4d56-bb8f-02e418050959"},"vehicle_type_id":"4","last_reported":1707671211,"current_range_meters":30000,"station_id":"ce4bgqh2rcd13ifvqc4g","pricing_plan_id":"free"},{"bike_id":"f9f239c7-b99d-402d-bda2-b8adb8b6bf19","system_id":"levelo_inurba_marseille","lat":43.305989,"lon":5.37225,"is_reserved":false,"is_disabled":false,"rental_uris":{"android":"levelo://app?vid=f9f239c7-b99d-402d-bda2-b8adb8b6bf19","ios":"levelo://app?vid=f9f239c7-b99d-402d-bda2-b8adb8b6bf19"},"vehicle_type_id":"4","last_reported":1707671211,"current_range_meters":18800,"station_id":"ce4bgqh2rcd13ifvqc4g","pricing_plan_id":"free"},{"bike_id":"857681bd-570f-4c1d-bc19-1586f0defdb4","system_id":"levelo_inurba_marseille","lat":43.305989,"lon":5.37225,"is_reserved":false,"is_disabled":false,"rental_uris":{"android":"levelo://app?vid=857681bd-570f-4c1d-bc19-1586f0defdb4","ios":"levelo://app?vid=857681bd-570f-4c1d-bc19-1586f0defdb4"},"vehicle_type_id":"4","last_reported":1707671211,"current_range_meters":25600,"station_id":"ce4bgqh2rcd13ifvqc4g","pricing_plan_id":"free"},{"bike_id":"c8512ff2-f2c1-4d25-805e-33c6476a6493","system_id":"levelo_inurba_marseille","lat":43.311131,"lon":5.377651,"is_reserved":false,"is_disabled":false,"rental_uris":{"android":"levelo://app?vid=c8512ff2-f2c1-4d25-805e-33c6476a6493","ios":"levelo://app?vid=c8512ff2-f2c1-4d25-805e-33c6476a6493"},"vehicle_type_id":"4","last_reported":1707671211,"current_range_meters":22800,"station_id":"ce4bgt92rcd13ifvqcg0","pricing_plan_id":"free"},{"bike_id":"30d3be02-ec36-4d73-ac5b-383818a11c1d","system_id":"levelo_inurba_marseille","lat":43.311125,"lon":5.377624,"is_reserved":false,"is_disabled":false,"rental_uris":{"android":"levelo://app?vid=30d3be02-ec36-4d73-ac5b-383818a11c1d","ios":"levelo://app?vid=30d3be02-ec36-4d73-ac5b-383818a11c1d"},"vehicle_type_id":"4","last_reported":1707671211,"current_range_meters":3200,"station_id":"ce4bgt92rcd13ifvqcg0","pricing_plan_id":"free"},{"bike_id":"ca0864a2-3254-4fd1-9017-59606035af48","system_id":"levelo_inurba_marseille","lat":43.307945,"lon":5.376487,"is_reserved":false,"is_disabled":false,"rental_uris":{"android":"levelo://app?vid=ca0864a2-3254-4fd1-9017-59606035af48","ios":"levelo://app?vid=ca0864a2-3254-4fd1-9017-59606035af48"},"vehicle_type_id":"4","last_reported":1707671211,"current_range_meters":5600,"station_id":"ce4bgv92rcd13ifvqcq0","pricing_plan_id":"free"},{"bike_id":"28fae585-92ec-4f82-ba97-d1e4edde2db9","system_id":"levelo_inurba_marseille","lat":43.317075,"lon":5.377367,"is_reserved":false,"is_disabled":false,"rental_uris":{"android":"levelo://app?vid=28fae585-92ec-4f82-ba97-d1e4edde2db9","ios":"levelo://app?vid=28fae585-92ec-4f82-ba97-d1e4edde2db9"},"vehicle_type_id":"4","last_reported":1707671211,"current_range_meters":19200,"station_id":"ce4bgth2rcd13ifvqch0","pricing_plan_id":"free"},{"bike_id":"ed28bf21-417e-4335-aa3a-0510fb876c9b","system_id":"levelo_inurba_marseille","lat":43.30324,"lon":5.36909,"is_reserved":false,"is_disabled":false,"rental_uris":{"android":"levelo://app?vid=ed28bf21-417e-4335-aa3a-0510fb876c9b","ios":"levelo://app?vid=ed28bf21-417e-4335-aa3a-0510fb876c9b"},"vehicle_type_id":"4","last_reported":1707671211,"current_range_meters":7600,"station_id":"ce4bgqh2rcd13ifvqc5g","pricing_plan_id":"free"},{"bike_id":"a95c0a32-159b-4bd2-85e3-c509287456ad","system_id":"levelo_inurba_marseille","lat":43.30304,"lon":5.368987,"is_reserved":false,"is_disabled":false,"rental_uris":{"android":"levelo://app?vid=a95c0a32-159b-4bd2-85e3-c509287456ad","ios":"levelo://app?vid=a95c0a32-159b-4bd2-85e3-c509287456ad"},"vehicle_type_id":"4","last_reported":1707671211,"current_range_meters":3600,"station_id":"ce4bgqh2rcd13ifvqc5g","pricing_plan_id":"free"},{"bike_id":"627e40d5-8b44-4ddf-bbc1-994b7692ca18","system_id":"levelo_inurba_marseille","lat":43.303093,"lon":5.368847,"is_reserved":false,"is_disabled":false,"rental_uris":{"android":"levelo://app?vid=627e40d5-8b44-4ddf-bbc1-994b7692ca18","ios":"levelo://app?vid=627e40d5-8b44-4ddf-bbc1-994b7692ca18"},"vehicle_type_id":"4","last_reported":1707671211,"current_range_meters":0,"station_id":"ce4bgqh2rcd13ifvqc5g","pricing_plan_id":"free"},{"bike_id":"dca02982-a8ca-4f8f-99aa-c4c50c3dc6cf","system_id":"levelo_inurba_marseille","lat":43.32273,"lon":5.36961,"is_reserved":false,"is_disabled":false,"rental_uris":{"android":"levelo://app?vid=dca02982-a8ca-4f8f-99aa-c4c50c3dc6cf","ios":"levelo://app?vid=dca02982-a8ca-4f8f-99aa-c4c50c3dc6cf"},"vehicle_type_id":"4","last_reported":1707671211,"current_range_meters":18000,"station_id":"","pricing_plan_id":"free"},{"bike_id":"08af8303-6a03-488d-84e7-d2af34b1d6b8","system_id":"levelo_inurba_marseille","lat":43.301939,"lon":5.366286,"is_reserved":false,"is_disabled":false,"rental_uris":{"android":"levelo://app?vid=08af8303-6a03-488d-84e7-d2af34b1d6b8","ios":"levelo://app?vid=08af8303-6a03-488d-84e7-d2af34b1d6b8"},"vehicle_type_id":"4","last_reported":1707671211,"current_range_meters":11200,"station_id":"ce4bgrh2rcd13ifvqc8g","pricing_plan_id":"free"},{"bike_id":"3ab732c0-26d0-4585-a0b6-1da2fc2ba4b6","system_id":"levelo_inurba_marseille","lat":43.301939,"lon":5.366286,"is_reserved":false,"is_disabled":false,"rental_uris":{"android":"levelo://app?vid=3ab732c0-26d0-4585-a0b6-1da2fc2ba4b6","ios":"levelo://app?vid=3ab732c0-26d0-4585-a0b6-1da2fc2ba4b6"},"vehicle_type_id":"4","last_reported":1707671211,"current_range_meters":0,"station_id":"ce4bgrh2rcd13ifvqc8g","pricing_plan_id":"free"},{"bike_id":"b1b2fb71-0548-4e6d-89c0-ca83ef467c4b","system_id":"levelo_inurba_marseille","lat":43.304606,"lon":5.379026,"is_reserved":false,"is_disabled":false,"rental_uris":{"android":"levelo://app?vid=b1b2fb71-0548-4e6d-89c0-ca83ef467c4b","ios":"levelo://app?vid=b1b2fb71-0548-4e6d-89c0-ca83ef467c4b"},"vehicle_type_id":"4","last_reported":1707671211,"current_range_meters":1200,"station_id":"ce4bgup2rcd13ifvqcn0","pricing_plan_id":"free"},{"bike_id":"3f04d5fa-3318-47bc-aeec-bdb3b86a6ae8","system_id":"levelo_inurba_marseille","lat":43.304606,"lon":5.379026,"is_reserved":false,"is_disabled":false,"rental_uris":{"android":"levelo://app?vid=3f04d5fa-3318-47bc-aeec-bdb3b86a6ae8","ios":"levelo://app?vid=3f04d5fa-3318-47bc-aeec-bdb3b86a6ae8"},"vehicle_type_id":"4","last_reported":1707671211,"current_range_meters":1600,"station_id":"ce4bgup2rcd13ifvqcn0","pricing_plan_id":"free"},{"bike_id":"a34a2f83-cbcd-4c60-acc0-2f59774cd82e","system_id":"levelo_inurba_marseille","lat":43.324771,"lon":5.36557,"is_reserved":false,"is_disabled":false,"rental_uris":{"android":"levelo://app?vid=a34a2f83-cbcd-4c60-acc0-2f59774cd82e","ios":"levelo://app?vid=a34a2f83-cbcd-4c60-acc0-2f59774cd82e"},"vehicle_type_id":"4","last_reported":1707671211,"current_range_meters":10000,"station_id":"ce4bhs12rcd13ifvqhvg","pricing_plan_id":"free"},{"bike_id":"88757b7e-6a70-4dfc-b04c-255bba11b422","system_id":"levelo_inurba_marseille","lat":43.324771,"lon":5.36557,"is_reserved":false,"is_disabled":false,"rental_uris":{"android":"levelo://app?vid=88757b7e-6a70-4dfc-b04c-255bba11b422","ios":"levelo://app?vid=88757b7e-6a70-4dfc-b04c-255bba11b422"},"vehicle_type_id":"4","last_reported":1707671211,"current_range_meters":0,"station_id":"ce4bhs12rcd13ifvqhvg","pricing_plan_id":"free"},{"bike_id":"11f01369-a7c5-4ba3-8875-c0638819e40c","system_id":"levelo_inurba_marseille","lat":43.324771,"lon":5.36557,"is_reserved":false,"is_disabled":false,"rental_uris":{"android":"levelo://app?vid=11f01369-a7c5-4ba3-8875-c0638819e40c","ios":"levelo://app?vid=11f01369-a7c5-4ba3-8875-c0638819e40c"},"vehicle_type_id":"4","last_reported":1707671211,"current_range_meters":12400,"station_id":"ce4bhs12rcd13ifvqhvg","pricing_plan_id":"free"},{"bike_id":"4b938ca4-1902-4f7a-ae5d-4a15896eebd9","system_id":"levelo_inurba_marseille","lat":43.324771,"lon":5.36557,"is_reserved":false,"is_disabled":false,"rental_uris":{"android":"levelo://app?vid=4b938ca4-1902-4f7a-ae5d-4a15896eebd9","ios":"levelo://app?vid=4b938ca4-1902-4f7a-ae5d-4a15896eebd9"},"vehicle_type_id":"4","last_reported":1707671211,"current_range_meters":28400,"station_id":"ce4bhs12rcd13ifvqhvg","pricing_plan_id":"free"},{"bike_id":"744a319b-a01d-4d96-a7b5-c0e2a04c1298","system_id":"levelo_inurba_marseille","lat":43.324771,"lon":5.36557,"is_reserved":false,"is_disabled":false,"rental_uris":{"android":"levelo://app?vid=744a319b-a01d-4d96-a7b5-c0e2a04c1298","ios":"levelo://app?vid=744a319b-a01d-4d96-a7b5-c0e2a04c1298"},"vehicle_type_id":"4","last_reported":1707671211,"current_range_meters":10000,"station_id":"ce4bhs12rcd13ifvqhvg","pricing_plan_id":"free"},{"bike_id":"a25a4e72-39fb-4e4c-b007-4f94627eaa37","system_id":"levelo_inurba_marseille","lat":43.324771,"lon":5.36557,"is_reserved":false,"is_disabled":false,"rental_uris":{"android":"levelo://app?vid=a25a4e72-39fb-4e4c-b007-4f94627eaa37","ios":"levelo://app?vid=a25a4e72-39fb-4e4c-b007-4f94627eaa37"},"vehicle_type_id":"4","last_reported":1707671211,"current_range_meters":21200,"station_id":"ce4bhs12rcd13ifvqhvg","pricing_plan_id":"free"},{"bike_id":"97f71f75-d414-4d74-9636-20377fab8590","system_id":"levelo_inurba_marseille","lat":43.324771,"lon":5.36557,"is_reserved":false,"is_disabled":false,"rental_uris":{"android":"levelo://app?vid=97f71f75-d414-4d74-9636-20377fab8590","ios":"levelo://app?vid=97f71f75-d414-4d74-9636-20377fab8590"},"vehicle_type_id":"4","last_reported":1707671211,"current_range_meters":7200,"station_id":"ce4bhs12rcd13ifvqhvg","pricing_plan_id":"free"},{"bike_id":"73dd03cd-847b-46a2-a69f-9cd97061dc72","system_id":"levelo_inurba_marseille","lat":43.324771,"lon":5.36557,"is_reserved":false,"is_disabled":false,"rental_uris":{"android":"levelo://app?vid=73dd03cd-847b-46a2-a69f-9cd97061dc72","ios":"levelo://app?vid=73dd03cd-847b-46a2-a69f-9cd97061dc72"},"vehicle_type_id":"4","last_reported":1707671211,"current_range_meters":17600,"station_id":"ce4bhs12rcd13ifvqhvg","pricing_plan_id":"free"},{"bike_id":"e66198d1-5c87-4529-b915-2ad03f5d52cf","system_id":"levelo_inurba_marseille","lat":43.310804,"lon":5.38359,"is_reserved":false,"is_disabled":false,"rental_uris":{"android":"levelo://app?vid=e66198d1-5c87-4529-b915-2ad03f5d52cf","ios":"levelo://app?vid=e66198d1-5c87-4529-b915-2ad03f5d52cf"},"vehicle_type_id":"4","last_reported":1707671211,"current_range_meters":17600,"station_id":"ce4bgv92rcd13ifvqcr0","pricing_plan_id":"free"},{"bike_id":"a492622d-1b73-4f05-be17-c275b2336d20","system_id":"levelo_inurba_marseille","lat":43.301429,"lon":5.37413,"is_reserved":false,"is_disabled":false,"rental_uris":{"android":"levelo://app?vid=a492622d-1b73-4f05-be17-c275b2336d20","ios":"levelo://app?vid=a492622d-1b73-4f05-be17-c275b2336d20"},"vehicle_type_id":"4","last_reported":1707671211,"current_range_meters":32000,"station_id":"ce4bgs92rcd13ifvqcc0","pricing_plan_id":"free"},{"bike_id":"32a4d248-57f4-47ab-9e20-8f508820b29c","system_id":"levelo_inurba_marseille","lat":43.30143,"lon":5.37413,"is_reserved":false,"is_disabled":false,"rental_uris":{"android":"levelo://app?vid=32a4d248-57f4-47ab-9e20-8f508820b29c","ios":"levelo://app?vid=32a4d248-57f4-47ab-9e20-8f508820b29c"},"vehicle_type_id":"4","last_reported":1707671211,"current_range_meters":4800,"station_id":"ce4bgs92rcd13ifvqcc0","pricing_plan_id":"free"},{"bike_id":"95de0d0d-5907-4a90-bd50-59e5706a1568","system_id":"levelo_inurba_marseille","lat":43.30143,"lon":5.37413,"is_reserved":false,"is_disabled":false,"rental_uris":{"android":"levelo://app?vid=95de0d0d-5907-4a90-bd50-59e5706a1568","ios":"levelo://app?vid=95de0d0d-5907-4a90-bd50-59e5706a1568"},"vehicle_type_id":"4","last_reported":1707671211,"current_range_meters":0,"station_id":"ce4bgs92rcd13ifvqcc0","pricing_plan_id":"free"},{"bike_id":"0eb65560-c12d-42b3-83b5-e3dfa0419189","system_id":"levelo_inurba_marseille","lat":43.301429,"lon":5.37413,"is_reserved":false,"is_disabled":false,"rental_uris":{"android":"levelo://app?vid=0eb65560-c12d-42b3-83b5-e3dfa0419189","ios":"levelo://app?vid=0eb65560-c12d-42b3-83b5-e3dfa0419189"},"vehicle_type_id":"4","last_reported":1707671211,"current_range_meters":31600,"station_id":"ce4bgs92rcd13ifvqcc0","pricing_plan_id":"free"},{"bike_id":"895a9455-4ea2-4e94-ac0e-16ec81c77a43","system_id":"levelo_inurba_marseille","lat":43.301429,"lon":5.37413,"is_reserved":false,"is_disabled":false,"rental_uris":{"android":"levelo://app?vid=895a9455-4ea2-4e94-ac0e-16ec81c77a43","ios":"levelo://app?vid=895a9455-4ea2-4e94-ac0e-16ec81c77a43"},"vehicle_type_id":"4","last_reported":1707671211,"current_range_meters":32000,"station_id":"ce4bgs92rcd13ifvqcc0","pricing_plan_id":"free"},{"bike_id":"b0e9c3f5-6879-498f-a361-803479ec81f3","system_id":"levelo_inurba_marseille","lat":43.30143,"lon":5.37413,"is_reserved":false,"is_disabled":false,"rental_uris":{"android":"levelo://app?vid=b0e9c3f5-6879-498f-a361-803479ec81f3","ios":"levelo://app?vid=b0e9c3f5-6879-498f-a361-803479ec81f3"},"vehicle_type_id":"4","last_reported":1707671211,"current_range_meters":3600,"station_id":"ce4bgs92rcd13ifvqcc0","pricing_plan_id":"free"},{"bike_id":"af821cc2-48bb-4a10-a5ed-eed31ceaa93a","system_id":"levelo_inurba_marseille","lat":43.301429,"lon":5.37413,"is_reserved":false,"is_disabled":false,"rental_uris":{"android":"levelo://app?vid=af821cc2-48bb-4a10-a5ed-eed31ceaa93a","ios":"levelo://app?vid=af821cc2-48bb-4a10-a5ed-eed31ceaa93a"},"vehicle_type_id":"4","last_reported":1707671211,"current_range_meters":9600,"station_id":"ce4bgs92rcd13ifvqcc0","pricing_plan_id":"free"},{"bike_id":"752eb8ef-7106-44a6-af74-1fc5d312ea37","system_id":"levelo_inurba_marseille","lat":43.30143,"lon":5.37413,"is_reserved":false,"is_disabled":false,"rental_uris":{"android":"levelo://app?vid=752eb8ef-7106-44a6-af74-1fc5d312ea37","ios":"levelo://app?vid=752eb8ef-7106-44a6-af74-1fc5d312ea37"},"vehicle_type_id":"4","last_reported":1707671211,"current_range_meters":26000,"station_id":"ce4bgs92rcd13ifvqcc0","pricing_plan_id":"free"},{"bike_id":"83e621d3-8454-4a20-a1f9-0d10b3e8bd40","system_id":"levelo_inurba_marseille","lat":43.30143,"lon":5.37413,"is_reserved":false,"is_disabled":false,"rental_uris":{"android":"levelo://app?vid=83e621d3-8454-4a20-a1f9-0d10b3e8bd40","ios":"levelo://app?vid=83e621d3-8454-4a20-a1f9-0d10b3e8bd40"},"vehicle_type_id":"4","last_reported":1707671211,"current_range_meters":30800,"station_id":"ce4bgs92rcd13ifvqcc0","pricing_plan_id":"free"},{"bike_id":"f3adfb4d-f0b1-4cf5-b3df-89abfa30c2ac","system_id":"levelo_inurba_marseille","lat":43.301429,"lon":5.37413,"is_reserved":false,"is_disabled":false,"rental_uris":{"android":"levelo://app?vid=f3adfb4d-f0b1-4cf5-b3df-89abfa30c2ac","ios":"levelo://app?vid=f3adfb4d-f0b1-4cf5-b3df-89abfa30c2ac"},"vehicle_type_id":"4","last_reported":1707671211,"current_range_meters":16800,"station_id":"ce4bgs92rcd13ifvqcc0","pricing_plan_id":"free"},{"bike_id":"197e2d22-1ad5-47b2-8c09-70933158ca5e","system_id":"levelo_inurba_marseille","lat":43.319935,"lon":5.381699,"is_reserved":false,"is_disabled":false,"rental_uris":{"android":"levelo://app?vid=197e2d22-1ad5-47b2-8c09-70933158ca5e","ios":"levelo://app?vid=197e2d22-1ad5-47b2-8c09-70933158ca5e"},"vehicle_type_id":"4","last_reported":1707671211,"current_range_meters":8000,"station_id":"ce4bhr12rcd13ifvqhpg","pricing_plan_id":"free"},{"bike_id":"52ce10df-218c-4855-ab5a-cd0f3cd6dffb","system_id":"levelo_inurba_marseille","lat":43.319935,"lon":5.381699,"is_reserved":false,"is_disabled":false,"rental_uris":{"android":"levelo://app?vid=52ce10df-218c-4855-ab5a-cd0f3cd6dffb","ios":"levelo://app?vid=52ce10df-218c-4855-ab5a-cd0f3cd6dffb"},"vehicle_type_id":"4","last_reported":1707671211,"current_range_meters":22000,"station_id":"ce4bhr12rcd13ifvqhpg","pricing_plan_id":"free"},{"bike_id":"18ba3cf5-3073-48a5-9856-ec814a6af0b4","system_id":"levelo_inurba_marseille","lat":43.319935,"lon":5.381699,"is_reserved":false,"is_disabled":false,"rental_uris":{"android":"levelo://app?vid=18ba3cf5-3073-48a5-9856-ec814a6af0b4","ios":"levelo://app?vid=18ba3cf5-3073-48a5-9856-ec814a6af0b4"},"vehicle_type_id":"4","last_reported":1707671211,"current_range_meters":26000,"station_id":"ce4bhr12rcd13ifvqhpg","pricing_plan_id":"free"},{"bike_id":"42302475-4ad9-48dc-929e-1553ef9d55fd","system_id":"levelo_inurba_marseille","lat":43.313571,"lon":5.384829,"is_reserved":false,"is_disabled":false,"rental_uris":{"android":"levelo://app?vid=42302475-4ad9-48dc-929e-1553ef9d55fd","ios":"levelo://app?vid=42302475-4ad9-48dc-929e-1553ef9d55fd"},"vehicle_type_id":"4","last_reported":1707671211,"current_range_meters":13200,"station_id":"ce4bgt92rcd13ifvqcf0","pricing_plan_id":"free"},{"bike_id":"99562c58-f17d-446f-afb5-48ccc1eb0fbe","system_id":"levelo_inurba_marseille","lat":43.313571,"lon":5.384829,"is_reserved":false,"is_disabled":false,"rental_uris":{"android":"levelo://app?vid=99562c58-f17d-446f-afb5-48ccc1eb0fbe","ios":"levelo://app?vid=99562c58-f17d-446f-afb5-48ccc1eb0fbe"},"vehicle_type_id":"4","last_reported":1707671211,"current_range_meters":16400,"station_id":"ce4bgt92rcd13ifvqcf0","pricing_plan_id":"free"},{"bike_id":"6c7eb289-c43e-402b-a39b-aeff7faf73e6","system_id":"levelo_inurba_marseille","lat":43.30418,"lon":5.38112,"is_reserved":false,"is_disabled":false,"rental_uris":{"android":"levelo://app?vid=6c7eb289-c43e-402b-a39b-aeff7faf73e6","ios":"levelo://app?vid=6c7eb289-c43e-402b-a39b-aeff7faf73e6"},"vehicle_type_id":"4","last_reported":1707671211,"current_range_meters":6400,"station_id":"","pricing_plan_id":"free"},{"bike_id":"3e7e1748-ed0c-465a-b1f8-17e45577f603","system_id":"levelo_inurba_marseille","lat":43.2986,"lon":5.36282,"is_reserved":false,"is_disabled":false,"rental_uris":{"android":"levelo://app?vid=3e7e1748-ed0c-465a-b1f8-17e45577f603","ios":"levelo://app?vid=3e7e1748-ed0c-465a-b1f8-17e45577f603"},"vehicle_type_id":"4","last_reported":1707671211,"current_range_meters":17600,"station_id":"ce4bgpp2rcd13ifvqc3g","pricing_plan_id":"free"},{"bike_id":"1195e01a-b78d-433f-b86a-b6c35dd72bde","system_id":"levelo_inurba_marseille","lat":43.298433,"lon":5.362774,"is_reserved":false,"is_disabled":false,"rental_uris":{"android":"levelo://app?vid=1195e01a-b78d-433f-b86a-b6c35dd72bde","ios":"levelo://app?vid=1195e01a-b78d-433f-b86a-b6c35dd72bde"},"vehicle_type_id":"4","last_reported":1707671211,"current_range_meters":12400,"station_id":"ce4bgpp2rcd13ifvqc3g","pricing_plan_id":"free"},{"bike_id":"5a8fa001-e3bf-4287-9f59-de66fa4179c0","system_id":"levelo_inurba_marseille","lat":43.311539,"lon":5.386759,"is_reserved":false,"is_disabled":false,"rental_uris":{"android":"levelo://app?vid=5a8fa001-e3bf-4287-9f59-de66fa4179c0","ios":"levelo://app?vid=5a8fa001-e3bf-4287-9f59-de66fa4179c0"},"vehicle_type_id":"4","last_reported":1707671211,"current_range_meters":23600,"station_id":"ce4bgv12rcd13ifvqcp0","pricing_plan_id":"free"},{"bike_id":"5f17a090-96bc-4f5b-a464-2c13d11530e8","system_id":"levelo_inurba_marseille","lat":43.298433,"lon":5.362774,"is_reserved":false,"is_disabled":false,"rental_uris":{"android":"levelo://app?vid=5f17a090-96bc-4f5b-a464-2c13d11530e8","ios":"levelo://app?vid=5f17a090-96bc-4f5b-a464-2c13d11530e8"},"vehicle_type_id":"4","last_reported":1707671211,"current_range_meters":24400,"station_id":"ce4bgpp2rcd13ifvqc3g","pricing_plan_id":"free"},{"bike_id":"26771657-02d6-4bb0-89e1-d5ee242592bc","system_id":"levelo_inurba_marseille","lat":43.298433,"lon":5.362774,"is_reserved":false,"is_disabled":false,"rental_uris":{"android":"levelo://app?vid=26771657-02d6-4bb0-89e1-d5ee242592bc","ios":"levelo://app?vid=26771657-02d6-4bb0-89e1-d5ee242592bc"},"vehicle_type_id":"4","last_reported":1707671211,"current_range_meters":22000,"station_id":"ce4bgpp2rcd13ifvqc3g","pricing_plan_id":"free"},{"bike_id":"bc9d0828-3280-4632-ba61-6d143638b131","system_id":"levelo_inurba_marseille","lat":43.298527,"lon":5.36288,"is_reserved":false,"is_disabled":false,"rental_uris":{"android":"levelo://app?vid=bc9d0828-3280-4632-ba61-6d143638b131","ios":"levelo://app?vid=bc9d0828-3280-4632-ba61-6d143638b131"},"vehicle_type_id":"4","last_reported":1707671211,"current_range_meters":7200,"station_id":"ce4bgpp2rcd13ifvqc3g","pricing_plan_id":"free"},{"bike_id":"e27a2d58-5ece-40b2-ad99-3da71becd743","system_id":"levelo_inurba_marseille","lat":43.298433,"lon":5.362774,"is_reserved":false,"is_disabled":false,"rental_uris":{"android":"levelo://app?vid=e27a2d58-5ece-40b2-ad99-3da71becd743","ios":"levelo://app?vid=e27a2d58-5ece-40b2-ad99-3da71becd743"},"vehicle_type_id":"4","last_reported":1707671211,"current_range_meters":22800,"station_id":"ce4bgpp2rcd13ifvqc3g","pricing_plan_id":"free"},{"bike_id":"f8ac3af1-4ae1-47ef-9d52-91500b383ae0","system_id":"levelo_inurba_marseille","lat":43.298433,"lon":5.362774,"is_reserved":false,"is_disabled":false,"rental_uris":{"android":"levelo://app?vid=f8ac3af1-4ae1-47ef-9d52-91500b383ae0","ios":"levelo://app?vid=f8ac3af1-4ae1-47ef-9d52-91500b383ae0"},"vehicle_type_id":"4","last_reported":1707671211,"current_range_meters":6400,"station_id":"ce4bgpp2rcd13ifvqc3g","pricing_plan_id":"free"},{"bike_id":"05a10a75-4fe4-4966-b5e4-9fbc73f80396","system_id":"levelo_inurba_marseille","lat":43.29849,"lon":5.36287,"is_reserved":false,"is_disabled":false,"rental_uris":{"android":"levelo://app?vid=05a10a75-4fe4-4966-b5e4-9fbc73f80396","ios":"levelo://app?vid=05a10a75-4fe4-4966-b5e4-9fbc73f80396"},"vehicle_type_id":"4","last_reported":1707671211,"current_range_meters":6000,"station_id":"ce4bgpp2rcd13ifvqc3g","pricing_plan_id":"free"},{"bike_id":"72004525-4512-4b26-ac87-32d5aca10435","system_id":"levelo_inurba_marseille","lat":43.305364,"lon":5.384119,"is_reserved":false,"is_disabled":false,"rental_uris":{"android":"levelo://app?vid=72004525-4512-4b26-ac87-32d5aca10435","ios":"levelo://app?vid=72004525-4512-4b26-ac87-32d5aca10435"},"vehicle_type_id":"4","last_reported":1707671211,"current_range_meters":28000,"station_id":"ce4bgg92rcd13ifvqb30","pricing_plan_id":"free"},{"bike_id":"f3394f2e-1d96-49ad-bfce-c64b567a5e8c","system_id":"levelo_inurba_marseille","lat":43.298433,"lon":5.362774,"is_reserved":false,"is_disabled":false,"rental_uris":{"android":"levelo://app?vid=f3394f2e-1d96-49ad-bfce-c64b567a5e8c","ios":"levelo://app?vid=f3394f2e-1d96-49ad-bfce-c64b567a5e8c"},"vehicle_type_id":"4","last_reported":1707671211,"current_range_meters":400,"station_id":"ce4bgpp2rcd13ifvqc3g","pricing_plan_id":"free"},{"bike_id":"7e7da6a6-d197-4186-8135-c1a23f7e7500","system_id":"levelo_inurba_marseille","lat":43.2984,"lon":5.36273,"is_reserved":false,"is_disabled":false,"rental_uris":{"android":"levelo://app?vid=7e7da6a6-d197-4186-8135-c1a23f7e7500","ios":"levelo://app?vid=7e7da6a6-d197-4186-8135-c1a23f7e7500"},"vehicle_type_id":"4","last_reported":1707671211,"current_range_meters":0,"station_id":"ce4bgpp2rcd13ifvqc3g","pricing_plan_id":"free"},{"bike_id":"f91c7fe3-070e-4347-8431-c9523c66baa9","system_id":"levelo_inurba_marseille","lat":43.2984,"lon":5.36269,"is_reserved":false,"is_disabled":false,"rental_uris":{"android":"levelo://app?vid=f91c7fe3-070e-4347-8431-c9523c66baa9","ios":"levelo://app?vid=f91c7fe3-070e-4347-8431-c9523c66baa9"},"vehicle_type_id":"4","last_reported":1707671211,"current_range_meters":25600,"station_id":"ce4bgpp2rcd13ifvqc3g","pricing_plan_id":"free"},{"bike_id":"60a6d36b-8189-49ac-a707-fde0cca0e1e6","system_id":"levelo_inurba_marseille","lat":43.29922,"lon":5.3748,"is_reserved":false,"is_disabled":false,"rental_uris":{"android":"levelo://app?vid=60a6d36b-8189-49ac-a707-fde0cca0e1e6","ios":"levelo://app?vid=60a6d36b-8189-49ac-a707-fde0cca0e1e6"},"vehicle_type_id":"4","last_reported":1707671211,"current_range_meters":5600,"station_id":"ce4bgjh2rcd13ifvqbg0","pricing_plan_id":"free"},{"bike_id":"30011354-4f97-4031-8772-9bc3d5431442","system_id":"levelo_inurba_marseille","lat":43.299216,"lon":5.374866,"is_reserved":false,"is_disabled":false,"rental_uris":{"android":"levelo://app?vid=30011354-4f97-4031-8772-9bc3d5431442","ios":"levelo://app?vid=30011354-4f97-4031-8772-9bc3d5431442"},"vehicle_type_id":"4","last_reported":1707671211,"current_range_meters":3200,"station_id":"ce4bgjh2rcd13ifvqbg0","pricing_plan_id":"free"},{"bike_id":"3721cd39-dade-4485-8e76-aba607724c6e","system_id":"levelo_inurba_marseille","lat":43.311722,"lon":5.387247,"is_reserved":false,"is_disabled":false,"rental_uris":{"android":"levelo://app?vid=3721cd39-dade-4485-8e76-aba607724c6e","ios":"levelo://app?vid=3721cd39-dade-4485-8e76-aba607724c6e"},"vehicle_type_id":"4","last_reported":1707671211,"current_range_meters":21600,"station_id":"ce4bgv12rcd13ifvqcp0","pricing_plan_id":"free"},{"bike_id":"557c6768-0e0d-4a15-8a6a-b8a1676a8eb7","system_id":"levelo_inurba_marseille","lat":43.299243,"lon":5.37481,"is_reserved":false,"is_disabled":false,"rental_uris":{"android":"levelo://app?vid=557c6768-0e0d-4a15-8a6a-b8a1676a8eb7","ios":"levelo://app?vid=557c6768-0e0d-4a15-8a6a-b8a1676a8eb7"},"vehicle_type_id":"4","last_reported":1707671211,"current_range_meters":0,"station_id":"ce4bgjh2rcd13ifvqbg0","pricing_plan_id":"free"},{"bike_id":"7f3fb8f5-0f0c-45f1-9b91-184855e5a9cc","system_id":"levelo_inurba_marseille","lat":43.327934,"lon":5.366887,"is_reserved":false,"is_disabled":false,"rental_uris":{"android":"levelo://app?vid=7f3fb8f5-0f0c-45f1-9b91-184855e5a9cc","ios":"levelo://app?vid=7f3fb8f5-0f0c-45f1-9b91-184855e5a9cc"},"vehicle_type_id":"4","last_reported":1707671211,"current_range_meters":25600,"station_id":"ce4bhs92rcd13ifvqi0g","pricing_plan_id":"free"},{"bike_id":"1a584bd8-d11f-429e-88a7-aaed7dc1afb6","system_id":"levelo_inurba_marseille","lat":43.322872,"lon":5.382756,"is_reserved":false,"is_disabled":false,"rental_uris":{"android":"levelo://app?vid=1a584bd8-d11f-429e-88a7-aaed7dc1afb6","ios":"levelo://app?vid=1a584bd8-d11f-429e-88a7-aaed7dc1afb6"},"vehicle_type_id":"4","last_reported":1707671211,"current_range_meters":1600,"station_id":"ce4bhr12rcd13ifvqhqg","pricing_plan_id":"free"},{"bike_id":"c3332315-777e-4af8-b68a-18a46d9c4f28","system_id":"levelo_inurba_marseille","lat":43.322872,"lon":5.382756,"is_reserved":false,"is_disabled":false,"rental_uris":{"android":"levelo://app?vid=c3332315-777e-4af8-b68a-18a46d9c4f28","ios":"levelo://app?vid=c3332315-777e-4af8-b68a-18a46d9c4f28"},"vehicle_type_id":"4","last_reported":1707671211,"current_range_meters":31200,"station_id":"ce4bhr12rcd13ifvqhqg","pricing_plan_id":"free"},{"bike_id":"e5750477-e3f2-40a2-b1f6-91d5216398f6","system_id":"levelo_inurba_marseille","lat":43.322872,"lon":5.382756,"is_reserved":false,"is_disabled":false,"rental_uris":{"android":"levelo://app?vid=e5750477-e3f2-40a2-b1f6-91d5216398f6","ios":"levelo://app?vid=e5750477-e3f2-40a2-b1f6-91d5216398f6"},"vehicle_type_id":"4","last_reported":1707671211,"current_range_meters":28000,"station_id":"ce4bhr12rcd13ifvqhqg","pricing_plan_id":"free"},{"bike_id":"33170a3c-d249-42cf-a23e-db8cbeecfd39","system_id":"levelo_inurba_marseille","lat":43.322872,"lon":5.382756,"is_reserved":false,"is_disabled":false,"rental_uris":{"android":"levelo://app?vid=33170a3c-d249-42cf-a23e-db8cbeecfd39","ios":"levelo://app?vid=33170a3c-d249-42cf-a23e-db8cbeecfd39"},"vehicle_type_id":"4","last_reported":1707671211,"current_range_meters":14400,"station_id":"ce4bhr12rcd13ifvqhqg","pricing_plan_id":"free"},{"bike_id":"d16915ab-365b-49c0-8e2e-1059f74f084d","system_id":"levelo_inurba_marseille","lat":43.322872,"lon":5.382756,"is_reserved":false,"is_disabled":false,"rental_uris":{"android":"levelo://app?vid=d16915ab-365b-49c0-8e2e-1059f74f084d","ios":"levelo://app?vid=d16915ab-365b-49c0-8e2e-1059f74f084d"},"vehicle_type_id":"4","last_reported":1707671211,"current_range_meters":27600,"station_id":"ce4bhr12rcd13ifvqhqg","pricing_plan_id":"free"},{"bike_id":"7c59bca1-a347-4cb9-b145-64f6481277fc","system_id":"levelo_inurba_marseille","lat":43.322872,"lon":5.382756,"is_reserved":false,"is_disabled":false,"rental_uris":{"android":"levelo://app?vid=7c59bca1-a347-4cb9-b145-64f6481277fc","ios":"levelo://app?vid=7c59bca1-a347-4cb9-b145-64f6481277fc"},"vehicle_type_id":"4","last_reported":1707671211,"current_range_meters":31200,"station_id":"ce4bhr12rcd13ifvqhqg","pricing_plan_id":"free"},{"bike_id":"2ac1f315-5daf-4bcd-9ff8-b6cb88127386","system_id":"levelo_inurba_marseille","lat":43.322872,"lon":5.382756,"is_reserved":false,"is_disabled":false,"rental_uris":{"android":"levelo://app?vid=2ac1f315-5daf-4bcd-9ff8-b6cb88127386","ios":"levelo://app?vid=2ac1f315-5daf-4bcd-9ff8-b6cb88127386"},"vehicle_type_id":"4","last_reported":1707671211,"current_range_meters":4800,"station_id":"ce4bhr12rcd13ifvqhqg","pricing_plan_id":"free"},{"bike_id":"abd329cb-35b6-432f-a467-7e380a9ce776","system_id":"levelo_inurba_marseille","lat":43.322872,"lon":5.382756,"is_reserved":false,"is_disabled":false,"rental_uris":{"android":"levelo://app?vid=abd329cb-35b6-432f-a467-7e380a9ce776","ios":"levelo://app?vid=abd329cb-35b6-432f-a467-7e380a9ce776"},"vehicle_type_id":"4","last_reported":1707671211,"current_range_meters":6400,"station_id":"ce4bhr12rcd13ifvqhqg","pricing_plan_id":"free"},{"bike_id":"c780842c-e95f-47ff-a149-ed36c8a413db","system_id":"levelo_inurba_marseille","lat":43.322872,"lon":5.382756,"is_reserved":false,"is_disabled":false,"rental_uris":{"android":"levelo://app?vid=c780842c-e95f-47ff-a149-ed36c8a413db","ios":"levelo://app?vid=c780842c-e95f-47ff-a149-ed36c8a413db"},"vehicle_type_id":"4","last_reported":1707671211,"current_range_meters":31600,"station_id":"ce4bhr12rcd13ifvqhqg","pricing_plan_id":"free"},{"bike_id":"64013356-5f58-47c1-bf3d-bed7335409fd","system_id":"levelo_inurba_marseille","lat":43.32819,"lon":5.36673,"is_reserved":false,"is_disabled":false,"rental_uris":{"android":"levelo://app?vid=64013356-5f58-47c1-bf3d-bed7335409fd","ios":"levelo://app?vid=64013356-5f58-47c1-bf3d-bed7335409fd"},"vehicle_type_id":"4","last_reported":1707671211,"current_range_meters":24000,"station_id":"ce4bhs92rcd13ifvqi0g","pricing_plan_id":"free"},{"bike_id":"1a66b616-9202-459b-a728-2ec0d016a489","system_id":"levelo_inurba_marseille","lat":43.322872,"lon":5.382756,"is_reserved":false,"is_disabled":false,"rental_uris":{"android":"levelo://app?vid=1a66b616-9202-459b-a728-2ec0d016a489","ios":"levelo://app?vid=1a66b616-9202-459b-a728-2ec0d016a489"},"vehicle_type_id":"4","last_reported":1707671211,"current_range_meters":2000,"station_id":"ce4bhr12rcd13ifvqhqg","pricing_plan_id":"free"},{"bike_id":"a44933ef-03a0-4282-9ff6-bcc91878fda0","system_id":"levelo_inurba_marseille","lat":43.32822,"lon":5.36681,"is_reserved":false,"is_disabled":false,"rental_uris":{"android":"levelo://app?vid=a44933ef-03a0-4282-9ff6-bcc91878fda0","ios":"levelo://app?vid=a44933ef-03a0-4282-9ff6-bcc91878fda0"},"vehicle_type_id":"4","last_reported":1707671211,"current_range_meters":12000,"station_id":"ce4bhs92rcd13ifvqi0g","pricing_plan_id":"free"},{"bike_id":"9aa15d81-4547-4dcd-a953-444d2c97f15f","system_id":"levelo_inurba_marseille","lat":43.32822,"lon":5.36679,"is_reserved":false,"is_disabled":false,"rental_uris":{"android":"levelo://app?vid=9aa15d81-4547-4dcd-a953-444d2c97f15f","ios":"levelo://app?vid=9aa15d81-4547-4dcd-a953-444d2c97f15f"},"vehicle_type_id":"4","last_reported":1707671211,"current_range_meters":4000,"station_id":"ce4bhs92rcd13ifvqi0g","pricing_plan_id":"free"},{"bike_id":"c7a4a93f-e9ae-4e04-8011-441e8455160b","system_id":"levelo_inurba_marseille","lat":43.328245,"lon":5.366775,"is_reserved":false,"is_disabled":false,"rental_uris":{"android":"levelo://app?vid=c7a4a93f-e9ae-4e04-8011-441e8455160b","ios":"levelo://app?vid=c7a4a93f-e9ae-4e04-8011-441e8455160b"},"vehicle_type_id":"4","last_reported":1707671211,"current_range_meters":24000,"station_id":"ce4bhs92rcd13ifvqi0g","pricing_plan_id":"free"},{"bike_id":"03730dd5-0a88-4239-8528-528347df93a2","system_id":"levelo_inurba_marseille","lat":43.328371,"lon":5.366909,"is_reserved":false,"is_disabled":false,"rental_uris":{"android":"levelo://app?vid=03730dd5-0a88-4239-8528-528347df93a2","ios":"levelo://app?vid=03730dd5-0a88-4239-8528-528347df93a2"},"vehicle_type_id":"4","last_reported":1707671211,"current_range_meters":11600,"station_id":"ce4bhs92rcd13ifvqi0g","pricing_plan_id":"free"},{"bike_id":"e4aa0c2e-eb2c-4a01-8f5f-8899f6b1b542","system_id":"levelo_inurba_marseille","lat":43.32827,"lon":5.3668,"is_reserved":false,"is_disabled":false,"rental_uris":{"android":"levelo://app?vid=e4aa0c2e-eb2c-4a01-8f5f-8899f6b1b542","ios":"levelo://app?vid=e4aa0c2e-eb2c-4a01-8f5f-8899f6b1b542"},"vehicle_type_id":"4","last_reported":1707671211,"current_range_meters":14000,"station_id":"ce4bhs92rcd13ifvqi0g","pricing_plan_id":"free"},{"bike_id":"5eb8c91c-2b41-4db6-916b-67d3fd0c5f1d","system_id":"levelo_inurba_marseille","lat":43.328371,"lon":5.366909,"is_reserved":false,"is_disabled":false,"rental_uris":{"android":"levelo://app?vid=5eb8c91c-2b41-4db6-916b-67d3fd0c5f1d","ios":"levelo://app?vid=5eb8c91c-2b41-4db6-916b-67d3fd0c5f1d"},"vehicle_type_id":"4","last_reported":1707671211,"current_range_meters":7200,"station_id":"ce4bhs92rcd13ifvqi0g","pricing_plan_id":"free"},{"bike_id":"ae92069e-3151-4c16-a6fc-2a7ad8ae61ec","system_id":"levelo_inurba_marseille","lat":43.328371,"lon":5.366909,"is_reserved":false,"is_disabled":false,"rental_uris":{"android":"levelo://app?vid=ae92069e-3151-4c16-a6fc-2a7ad8ae61ec","ios":"levelo://app?vid=ae92069e-3151-4c16-a6fc-2a7ad8ae61ec"},"vehicle_type_id":"4","last_reported":1707671211,"current_range_meters":18000,"station_id":"ce4bhs92rcd13ifvqi0g","pricing_plan_id":"free"},{"bike_id":"de562f14-ffaa-41a8-9815-6c8ff06728a2","system_id":"levelo_inurba_marseille","lat":43.32829,"lon":5.36674,"is_reserved":false,"is_disabled":false,"rental_uris":{"android":"levelo://app?vid=de562f14-ffaa-41a8-9815-6c8ff06728a2","ios":"levelo://app?vid=de562f14-ffaa-41a8-9815-6c8ff06728a2"},"vehicle_type_id":"4","last_reported":1707671211,"current_range_meters":22800,"station_id":"ce4bhs92rcd13ifvqi0g","pricing_plan_id":"free"},{"bike_id":"e9b1ff74-cd13-466f-a875-2e1fdf44e104","system_id":"levelo_inurba_marseille","lat":43.328298,"lon":5.366875,"is_reserved":false,"is_disabled":false,"rental_uris":{"android":"levelo://app?vid=e9b1ff74-cd13-466f-a875-2e1fdf44e104","ios":"levelo://app?vid=e9b1ff74-cd13-466f-a875-2e1fdf44e104"},"vehicle_type_id":"4","last_reported":1707671211,"current_range_meters":15600,"station_id":"ce4bhs92rcd13ifvqi0g","pricing_plan_id":"free"},{"bike_id":"d974a6e6-7f9c-40ba-b257-f1959c183003","system_id":"levelo_inurba_marseille","lat":43.3283,"lon":5.36672,"is_reserved":false,"is_disabled":false,"rental_uris":{"android":"levelo://app?vid=d974a6e6-7f9c-40ba-b257-f1959c183003","ios":"levelo://app?vid=d974a6e6-7f9c-40ba-b257-f1959c183003"},"vehicle_type_id":"4","last_reported":1707671211,"current_range_meters":12800,"station_id":"ce4bhs92rcd13ifvqi0g","pricing_plan_id":"free"},{"bike_id":"25e6ca51-5074-4e18-b6cc-f70b3886acfe","system_id":"levelo_inurba_marseille","lat":43.297163,"lon":5.365866,"is_reserved":false,"is_disabled":false,"rental_uris":{"android":"levelo://app?vid=25e6ca51-5074-4e18-b6cc-f70b3886acfe","ios":"levelo://app?vid=25e6ca51-5074-4e18-b6cc-f70b3886acfe"},"vehicle_type_id":"4","last_reported":1707671211,"current_range_meters":24800,"station_id":"ce4bgn12rcd13ifvqbt0","pricing_plan_id":"free"},{"bike_id":"171ee2d2-1631-4a1c-83c3-66174661662b","system_id":"levelo_inurba_marseille","lat":43.297163,"lon":5.365866,"is_reserved":false,"is_disabled":false,"rental_uris":{"android":"levelo://app?vid=171ee2d2-1631-4a1c-83c3-66174661662b","ios":"levelo://app?vid=171ee2d2-1631-4a1c-83c3-66174661662b"},"vehicle_type_id":"4","last_reported":1707671211,"current_range_meters":5600,"station_id":"ce4bgn12rcd13ifvqbt0","pricing_plan_id":"free"},{"bike_id":"77ee226d-0dfd-4cae-9685-a65609eeb93f","system_id":"levelo_inurba_marseille","lat":43.297163,"lon":5.365866,"is_reserved":false,"is_disabled":false,"rental_uris":{"android":"levelo://app?vid=77ee226d-0dfd-4cae-9685-a65609eeb93f","ios":"levelo://app?vid=77ee226d-0dfd-4cae-9685-a65609eeb93f"},"vehicle_type_id":"4","last_reported":1707671211,"current_range_meters":15600,"station_id":"ce4bgn12rcd13ifvqbt0","pricing_plan_id":"free"},{"bike_id":"9dc43126-690c-4033-80cc-d8c45967e0b8","system_id":"levelo_inurba_marseille","lat":43.3284,"lon":5.36657,"is_reserved":false,"is_disabled":false,"rental_uris":{"android":"levelo://app?vid=9dc43126-690c-4033-80cc-d8c45967e0b8","ios":"levelo://app?vid=9dc43126-690c-4033-80cc-d8c45967e0b8"},"vehicle_type_id":"4","last_reported":1707671211,"current_range_meters":24800,"station_id":"ce4bhs92rcd13ifvqi0g","pricing_plan_id":"free"},{"bike_id":"1dd61976-0d62-4299-9726-a4b5a7bd8b01","system_id":"levelo_inurba_marseille","lat":43.297163,"lon":5.365866,"is_reserved":false,"is_disabled":false,"rental_uris":{"android":"levelo://app?vid=1dd61976-0d62-4299-9726-a4b5a7bd8b01","ios":"levelo://app?vid=1dd61976-0d62-4299-9726-a4b5a7bd8b01"},"vehicle_type_id":"4","last_reported":1707671211,"current_range_meters":8800,"station_id":"ce4bgn12rcd13ifvqbt0","pricing_plan_id":"free"},{"bike_id":"94873a3a-7078-4fed-bf1f-abe7416a06a4","system_id":"levelo_inurba_marseille","lat":43.297163,"lon":5.365866,"is_reserved":false,"is_disabled":false,"rental_uris":{"android":"levelo://app?vid=94873a3a-7078-4fed-bf1f-abe7416a06a4","ios":"levelo://app?vid=94873a3a-7078-4fed-bf1f-abe7416a06a4"},"vehicle_type_id":"4","last_reported":1707671211,"current_range_meters":18400,"station_id":"ce4bgn12rcd13ifvqbt0","pricing_plan_id":"free"},{"bike_id":"49db1028-43b9-449e-8469-85dffcc57f57","system_id":"levelo_inurba_marseille","lat":43.296131,"lon":5.370791,"is_reserved":false,"is_disabled":false,"rental_uris":{"android":"levelo://app?vid=49db1028-43b9-449e-8469-85dffcc57f57","ios":"levelo://app?vid=49db1028-43b9-449e-8469-85dffcc57f57"},"vehicle_type_id":"4","last_reported":1707671211,"current_range_meters":30400,"station_id":"ce4bgnh2rcd13ifvqc0g","pricing_plan_id":"free"},{"bike_id":"e917a9f7-b468-4798-b9b4-ad20a7d11748","system_id":"levelo_inurba_marseille","lat":43.301939,"lon":5.366286,"is_reserved":false,"is_disabled":false,"rental_uris":{"android":"levelo://app?vid=e917a9f7-b468-4798-b9b4-ad20a7d11748","ios":"levelo://app?vid=e917a9f7-b468-4798-b9b4-ad20a7d11748"},"vehicle_type_id":"4","last_reported":1707671211,"current_range_meters":1200,"station_id":"ce4bgrh2rcd13ifvqc8g","pricing_plan_id":"free"},{"bike_id":"d7020d7a-052e-452a-b32d-6b26c335f470","system_id":"levelo_inurba_marseille","lat":43.29573,"lon":5.367355,"is_reserved":false,"is_disabled":false,"rental_uris":{"android":"levelo://app?vid=d7020d7a-052e-452a-b32d-6b26c335f470","ios":"levelo://app?vid=d7020d7a-052e-452a-b32d-6b26c335f470"},"vehicle_type_id":"4","last_reported":1707671211,"current_range_meters":19600,"station_id":"ce4bgph2rcd13ifvqc2g","pricing_plan_id":"free"},{"bike_id":"ee0d887c-1664-47cd-b52f-b1ea76ce7783","system_id":"levelo_inurba_marseille","lat":43.299028,"lon":5.381509,"is_reserved":false,"is_disabled":false,"rental_uris":{"android":"levelo://app?vid=ee0d887c-1664-47cd-b52f-b1ea76ce7783","ios":"levelo://app?vid=ee0d887c-1664-47cd-b52f-b1ea76ce7783"},"vehicle_type_id":"4","last_reported":1707671211,"current_range_meters":29200,"station_id":"ce4bgj12rcd13ifvqbc0","pricing_plan_id":"free"},{"bike_id":"4fdde57a-66ef-4518-a355-f371fe3a8425","system_id":"levelo_inurba_marseille","lat":43.296921,"lon":5.376579,"is_reserved":false,"is_disabled":false,"rental_uris":{"android":"levelo://app?vid=4fdde57a-66ef-4518-a355-f371fe3a8425","ios":"levelo://app?vid=4fdde57a-66ef-4518-a355-f371fe3a8425"},"vehicle_type_id":"4","last_reported":1707671211,"current_range_meters":16000,"station_id":"ce4bgkh2rcd13ifvqbl0","pricing_plan_id":"free"},{"bike_id":"e8224418-f56a-4453-87bf-c612863e7aca","system_id":"levelo_inurba_marseille","lat":43.299028,"lon":5.381509,"is_reserved":false,"is_disabled":false,"rental_uris":{"android":"levelo://app?vid=e8224418-f56a-4453-87bf-c612863e7aca","ios":"levelo://app?vid=e8224418-f56a-4453-87bf-c612863e7aca"},"vehicle_type_id":"4","last_reported":1707671211,"current_range_meters":20800,"station_id":"ce4bgj12rcd13ifvqbc0","pricing_plan_id":"free"},{"bike_id":"dea46f05-2bf4-4f87-8bd1-ce9498680547","system_id":"levelo_inurba_marseille","lat":43.299081,"lon":5.381335,"is_reserved":false,"is_disabled":false,"rental_uris":{"android":"levelo://app?vid=dea46f05-2bf4-4f87-8bd1-ce9498680547","ios":"levelo://app?vid=dea46f05-2bf4-4f87-8bd1-ce9498680547"},"vehicle_type_id":"4","last_reported":1707671211,"current_range_meters":800,"station_id":"","pricing_plan_id":"free"},{"bike_id":"aa894a51-88b8-4b2b-a40a-0fddda6b8af4","system_id":"levelo_inurba_marseille","lat":43.309589,"lon":5.390258,"is_reserved":false,"is_disabled":false,"rental_uris":{"android":"levelo://app?vid=aa894a51-88b8-4b2b-a40a-0fddda6b8af4","ios":"levelo://app?vid=aa894a51-88b8-4b2b-a40a-0fddda6b8af4"},"vehicle_type_id":"4","last_reported":1707671211,"current_range_meters":26800,"station_id":"ce4bgup2rcd13ifvqco0","pricing_plan_id":"free"},{"bike_id":"8b926abb-45aa-4611-a6f8-af1b30d07103","system_id":"levelo_inurba_marseille","lat":43.299028,"lon":5.381509,"is_reserved":false,"is_disabled":false,"rental_uris":{"android":"levelo://app?vid=8b926abb-45aa-4611-a6f8-af1b30d07103","ios":"levelo://app?vid=8b926abb-45aa-4611-a6f8-af1b30d07103"},"vehicle_type_id":"4","last_reported":1707671211,"current_range_meters":22400,"station_id":"ce4bgj12rcd13ifvqbc0","pricing_plan_id":"free"},{"bike_id":"cd8baeb6-48e1-4cff-9d25-79e2edcc6018","system_id":"levelo_inurba_marseille","lat":43.299028,"lon":5.381509,"is_reserved":false,"is_disabled":false,"rental_uris":{"android":"levelo://app?vid=cd8baeb6-48e1-4cff-9d25-79e2edcc6018","ios":"levelo://app?vid=cd8baeb6-48e1-4cff-9d25-79e2edcc6018"},"vehicle_type_id":"4","last_reported":1707671211,"current_range_meters":28000,"station_id":"ce4bgj12rcd13ifvqbc0","pricing_plan_id":"free"},{"bike_id":"62d9b70d-20e9-461e-9fa1-fe92ddd70343","system_id":"levelo_inurba_marseille","lat":43.317557,"lon":5.390173,"is_reserved":false,"is_disabled":false,"rental_uris":{"android":"levelo://app?vid=62d9b70d-20e9-461e-9fa1-fe92ddd70343","ios":"levelo://app?vid=62d9b70d-20e9-461e-9fa1-fe92ddd70343"},"vehicle_type_id":"4","last_reported":1707671211,"current_range_meters":18400,"station_id":"ce4bhqp2rcd13ifvqhng","pricing_plan_id":"free"},{"bike_id":"7e213e69-5b20-4804-9d06-4ccb7e874be7","system_id":"levelo_inurba_marseille","lat":43.317557,"lon":5.390173,"is_reserved":false,"is_disabled":false,"rental_uris":{"android":"levelo://app?vid=7e213e69-5b20-4804-9d06-4ccb7e874be7","ios":"levelo://app?vid=7e213e69-5b20-4804-9d06-4ccb7e874be7"},"vehicle_type_id":"4","last_reported":1707671211,"current_range_meters":31200,"station_id":"ce4bhqp2rcd13ifvqhng","pricing_plan_id":"free"},{"bike_id":"094ad5ed-15b5-4b8e-9769-6e4dfda97318","system_id":"levelo_inurba_marseille","lat":43.317557,"lon":5.390173,"is_reserved":false,"is_disabled":false,"rental_uris":{"android":"levelo://app?vid=094ad5ed-15b5-4b8e-9769-6e4dfda97318","ios":"levelo://app?vid=094ad5ed-15b5-4b8e-9769-6e4dfda97318"},"vehicle_type_id":"4","last_reported":1707671211,"current_range_meters":6400,"station_id":"ce4bhqp2rcd13ifvqhng","pricing_plan_id":"free"},{"bike_id":"091a357c-7c01-41cb-b81d-782dce7b8678","system_id":"levelo_inurba_marseille","lat":43.295748,"lon":5.37522,"is_reserved":false,"is_disabled":false,"rental_uris":{"android":"levelo://app?vid=091a357c-7c01-41cb-b81d-782dce7b8678","ios":"levelo://app?vid=091a357c-7c01-41cb-b81d-782dce7b8678"},"vehicle_type_id":"4","last_reported":1707671211,"current_range_meters":16000,"station_id":"ce4bgh92rcd13ifvqb50","pricing_plan_id":"free"},{"bike_id":"791ce097-d513-4427-8fb1-8e4a0bc57def","system_id":"levelo_inurba_marseille","lat":43.298037,"lon":5.381066,"is_reserved":false,"is_disabled":false,"rental_uris":{"android":"levelo://app?vid=791ce097-d513-4427-8fb1-8e4a0bc57def","ios":"levelo://app?vid=791ce097-d513-4427-8fb1-8e4a0bc57def"},"vehicle_type_id":"4","last_reported":1707671211,"current_range_meters":11200,"station_id":"ce4bgip2rcd13ifvqbb0","pricing_plan_id":"free"},{"bike_id":"64e25af4-e5d9-4209-964e-11355d50e251","system_id":"levelo_inurba_marseille","lat":43.298037,"lon":5.381066,"is_reserved":false,"is_disabled":false,"rental_uris":{"android":"levelo://app?vid=64e25af4-e5d9-4209-964e-11355d50e251","ios":"levelo://app?vid=64e25af4-e5d9-4209-964e-11355d50e251"},"vehicle_type_id":"4","last_reported":1707671211,"current_range_meters":22400,"station_id":"ce4bgip2rcd13ifvqbb0","pricing_plan_id":"free"},{"bike_id":"8b98b6ab-2511-432a-8331-271054b7af33","system_id":"levelo_inurba_marseille","lat":43.298037,"lon":5.381066,"is_reserved":false,"is_disabled":false,"rental_uris":{"android":"levelo://app?vid=8b98b6ab-2511-432a-8331-271054b7af33","ios":"levelo://app?vid=8b98b6ab-2511-432a-8331-271054b7af33"},"vehicle_type_id":"4","last_reported":1707671211,"current_range_meters":9600,"station_id":"ce4bgip2rcd13ifvqbb0","pricing_plan_id":"free"},{"bike_id":"2ff40d3e-2e43-4147-bc42-745881219526","system_id":"levelo_inurba_marseille","lat":43.295748,"lon":5.37522,"is_reserved":false,"is_disabled":false,"rental_uris":{"android":"levelo://app?vid=2ff40d3e-2e43-4147-bc42-745881219526","ios":"levelo://app?vid=2ff40d3e-2e43-4147-bc42-745881219526"},"vehicle_type_id":"4","last_reported":1707671211,"current_range_meters":1200,"station_id":"ce4bgh92rcd13ifvqb50","pricing_plan_id":"free"},{"bike_id":"61a614ad-e43c-4ee3-a648-1fb99693d652","system_id":"levelo_inurba_marseille","lat":43.304278,"lon":5.388868,"is_reserved":false,"is_disabled":false,"rental_uris":{"android":"levelo://app?vid=61a614ad-e43c-4ee3-a648-1fb99693d652","ios":"levelo://app?vid=61a614ad-e43c-4ee3-a648-1fb99693d652"},"vehicle_type_id":"4","last_reported":1707671211,"current_range_meters":5600,"station_id":"ce4bgk12rcd13ifvqbi0","pricing_plan_id":"free"},{"bike_id":"77781a26-90fd-4566-975e-bd428e86cc56","system_id":"levelo_inurba_marseille","lat":43.29569,"lon":5.37524,"is_reserved":false,"is_disabled":false,"rental_uris":{"android":"levelo://app?vid=77781a26-90fd-4566-975e-bd428e86cc56","ios":"levelo://app?vid=77781a26-90fd-4566-975e-bd428e86cc56"},"vehicle_type_id":"4","last_reported":1707671211,"current_range_meters":0,"station_id":"ce4bgh92rcd13ifvqb50","pricing_plan_id":"free"},{"bike_id":"2fb4685e-ce18-4d07-b64a-9fbb707f5808","system_id":"levelo_inurba_marseille","lat":43.298037,"lon":5.381066,"is_reserved":false,"is_disabled":false,"rental_uris":{"android":"levelo://app?vid=2fb4685e-ce18-4d07-b64a-9fbb707f5808","ios":"levelo://app?vid=2fb4685e-ce18-4d07-b64a-9fbb707f5808"},"vehicle_type_id":"4","last_reported":1707671211,"current_range_meters":17600,"station_id":"ce4bgip2rcd13ifvqbb0","pricing_plan_id":"free"},{"bike_id":"386f609d-a1e9-487a-a429-5e9f2499fe68","system_id":"levelo_inurba_marseille","lat":43.298037,"lon":5.381066,"is_reserved":false,"is_disabled":false,"rental_uris":{"android":"levelo://app?vid=386f609d-a1e9-487a-a429-5e9f2499fe68","ios":"levelo://app?vid=386f609d-a1e9-487a-a429-5e9f2499fe68"},"vehicle_type_id":"4","last_reported":1707671211,"current_range_meters":19600,"station_id":"ce4bgip2rcd13ifvqbb0","pricing_plan_id":"free"},{"bike_id":"5f86653e-6495-4b42-b284-9f125d7c848f","system_id":"levelo_inurba_marseille","lat":43.296277,"lon":5.377108,"is_reserved":false,"is_disabled":false,"rental_uris":{"android":"levelo://app?vid=5f86653e-6495-4b42-b284-9f125d7c848f","ios":"levelo://app?vid=5f86653e-6495-4b42-b284-9f125d7c848f"},"vehicle_type_id":"4","last_reported":1707671211,"current_range_meters":4000,"station_id":"ce4bgi92rcd13ifvqb90","pricing_plan_id":"free"},{"bike_id":"04073ca0-6171-4330-a1dd-a6fff56bcb07","system_id":"levelo_inurba_marseille","lat":43.296277,"lon":5.377108,"is_reserved":false,"is_disabled":false,"rental_uris":{"android":"levelo://app?vid=04073ca0-6171-4330-a1dd-a6fff56bcb07","ios":"levelo://app?vid=04073ca0-6171-4330-a1dd-a6fff56bcb07"},"vehicle_type_id":"4","last_reported":1707671211,"current_range_meters":24000,"station_id":"ce4bgi92rcd13ifvqb90","pricing_plan_id":"free"},{"bike_id":"208767a5-2dba-4860-8051-6f56a5157120","system_id":"levelo_inurba_marseille","lat":43.296277,"lon":5.377108,"is_reserved":false,"is_disabled":false,"rental_uris":{"android":"levelo://app?vid=208767a5-2dba-4860-8051-6f56a5157120","ios":"levelo://app?vid=208767a5-2dba-4860-8051-6f56a5157120"},"vehicle_type_id":"4","last_reported":1707671211,"current_range_meters":7600,"station_id":"ce4bgi92rcd13ifvqb90","pricing_plan_id":"free"},{"bike_id":"742f7cfc-1e9f-4d6b-9535-94f1fbfa8886","system_id":"levelo_inurba_marseille","lat":43.296277,"lon":5.377108,"is_reserved":false,"is_disabled":false,"rental_uris":{"android":"levelo://app?vid=742f7cfc-1e9f-4d6b-9535-94f1fbfa8886","ios":"levelo://app?vid=742f7cfc-1e9f-4d6b-9535-94f1fbfa8886"},"vehicle_type_id":"4","last_reported":1707671211,"current_range_meters":4800,"station_id":"ce4bgi92rcd13ifvqb90","pricing_plan_id":"free"},{"bike_id":"cdc84c2e-795a-4d18-9f5d-37f313f885fe","system_id":"levelo_inurba_marseille","lat":43.296277,"lon":5.377108,"is_reserved":false,"is_disabled":false,"rental_uris":{"android":"levelo://app?vid=cdc84c2e-795a-4d18-9f5d-37f313f885fe","ios":"levelo://app?vid=cdc84c2e-795a-4d18-9f5d-37f313f885fe"},"vehicle_type_id":"4","last_reported":1707671211,"current_range_meters":5600,"station_id":"ce4bgi92rcd13ifvqb90","pricing_plan_id":"free"},{"bike_id":"38a8abb3-5aaf-43b7-a2d2-95b59625bdfd","system_id":"levelo_inurba_marseille","lat":43.299707,"lon":5.384859,"is_reserved":false,"is_disabled":false,"rental_uris":{"android":"levelo://app?vid=38a8abb3-5aaf-43b7-a2d2-95b59625bdfd","ios":"levelo://app?vid=38a8abb3-5aaf-43b7-a2d2-95b59625bdfd"},"vehicle_type_id":"4","last_reported":1707671211,"current_range_meters":15200,"station_id":"ce4bgj92rcd13ifvqbd0","pricing_plan_id":"free"},{"bike_id":"ca658223-0c84-43e8-a420-f65a67ddf378","system_id":"levelo_inurba_marseille","lat":43.295279,"lon":5.375048,"is_reserved":false,"is_disabled":false,"rental_uris":{"android":"levelo://app?vid=ca658223-0c84-43e8-a420-f65a67ddf378","ios":"levelo://app?vid=ca658223-0c84-43e8-a420-f65a67ddf378"},"vehicle_type_id":"4","last_reported":1707671211,"current_range_meters":20000,"station_id":"ce4bgkp2rcd13ifvqbmg","pricing_plan_id":"free"},{"bike_id":"e1c5c8eb-63f6-4b8e-b9dd-0783ca26b249","system_id":"levelo_inurba_marseille","lat":43.32367,"lon":5.388836,"is_reserved":false,"is_disabled":false,"rental_uris":{"android":"levelo://app?vid=e1c5c8eb-63f6-4b8e-b9dd-0783ca26b249","ios":"levelo://app?vid=e1c5c8eb-63f6-4b8e-b9dd-0783ca26b249"},"vehicle_type_id":"4","last_reported":1707671211,"current_range_meters":23600,"station_id":"ce4bhqp2rcd13ifvqhog","pricing_plan_id":"free"},{"bike_id":"55769c3e-d570-4ade-829b-4a0316d221aa","system_id":"levelo_inurba_marseille","lat":43.32374,"lon":5.38878,"is_reserved":false,"is_disabled":false,"rental_uris":{"android":"levelo://app?vid=55769c3e-d570-4ade-829b-4a0316d221aa","ios":"levelo://app?vid=55769c3e-d570-4ade-829b-4a0316d221aa"},"vehicle_type_id":"4","last_reported":1707671211,"current_range_meters":3200,"station_id":"ce4bhqp2rcd13ifvqhog","pricing_plan_id":"free"},{"bike_id":"fab4d6e6-5dad-4b4f-bfaf-2d527ea5f7bf","system_id":"levelo_inurba_marseille","lat":43.3237,"lon":5.38882,"is_reserved":false,"is_disabled":false,"rental_uris":{"android":"levelo://app?vid=fab4d6e6-5dad-4b4f-bfaf-2d527ea5f7bf","ios":"levelo://app?vid=fab4d6e6-5dad-4b4f-bfaf-2d527ea5f7bf"},"vehicle_type_id":"4","last_reported":1707671211,"current_range_meters":10400,"station_id":"ce4bhqp2rcd13ifvqhog","pricing_plan_id":"free"},{"bike_id":"578912fe-c109-4d10-9ba9-d2ca7b64428b","system_id":"levelo_inurba_marseille","lat":43.32367,"lon":5.388836,"is_reserved":false,"is_disabled":false,"rental_uris":{"android":"levelo://app?vid=578912fe-c109-4d10-9ba9-d2ca7b64428b","ios":"levelo://app?vid=578912fe-c109-4d10-9ba9-d2ca7b64428b"},"vehicle_type_id":"4","last_reported":1707671211,"current_range_meters":9200,"station_id":"ce4bhqp2rcd13ifvqhog","pricing_plan_id":"free"},{"bike_id":"8c67e61e-e7d9-4bb7-9545-eb36146dd69c","system_id":"levelo_inurba_marseille","lat":43.32366,"lon":5.38893,"is_reserved":false,"is_disabled":false,"rental_uris":{"android":"levelo://app?vid=8c67e61e-e7d9-4bb7-9545-eb36146dd69c","ios":"levelo://app?vid=8c67e61e-e7d9-4bb7-9545-eb36146dd69c"},"vehicle_type_id":"4","last_reported":1707671211,"current_range_meters":15200,"station_id":"ce4bhqp2rcd13ifvqhog","pricing_plan_id":"free"},{"bike_id":"00143bcd-3f92-4226-92d6-52e935b7e4aa","system_id":"levelo_inurba_marseille","lat":43.296301,"lon":5.381053,"is_reserved":false,"is_disabled":false,"rental_uris":{"android":"levelo://app?vid=00143bcd-3f92-4226-92d6-52e935b7e4aa","ios":"levelo://app?vid=00143bcd-3f92-4226-92d6-52e935b7e4aa"},"vehicle_type_id":"4","last_reported":1707671211,"current_range_meters":15200,"station_id":"ce4bgl12rcd13ifvqbo0","pricing_plan_id":"free"},{"bike_id":"c29e56db-238a-47eb-8698-bfb17c7df58d","system_id":"levelo_inurba_marseille","lat":43.292749,"lon":5.368402,"is_reserved":false,"is_disabled":false,"rental_uris":{"android":"levelo://app?vid=c29e56db-238a-47eb-8698-bfb17c7df58d","ios":"levelo://app?vid=c29e56db-238a-47eb-8698-bfb17c7df58d"},"vehicle_type_id":"4","last_reported":1707671211,"current_range_meters":31200,"station_id":"ce4bhbp2rcd13ifvqesg","pricing_plan_id":"free"},{"bike_id":"f54a275c-c81e-4213-836f-38e241e4ad2c","system_id":"levelo_inurba_marseille","lat":43.292749,"lon":5.368402,"is_reserved":false,"is_disabled":false,"rental_uris":{"android":"levelo://app?vid=f54a275c-c81e-4213-836f-38e241e4ad2c","ios":"levelo://app?vid=f54a275c-c81e-4213-836f-38e241e4ad2c"},"vehicle_type_id":"4","last_reported":1707671211,"current_range_meters":15200,"station_id":"ce4bhbp2rcd13ifvqesg","pricing_plan_id":"free"},{"bike_id":"de8fe52f-ecd3-44f2-bbf4-571b025393e2","system_id":"levelo_inurba_marseille","lat":43.29281,"lon":5.36844,"is_reserved":false,"is_disabled":false,"rental_uris":{"android":"levelo://app?vid=de8fe52f-ecd3-44f2-bbf4-571b025393e2","ios":"levelo://app?vid=de8fe52f-ecd3-44f2-bbf4-571b025393e2"},"vehicle_type_id":"4","last_reported":1707671211,"current_range_meters":28400,"station_id":"ce4bhbp2rcd13ifvqesg","pricing_plan_id":"free"},{"bike_id":"c9fbc53d-5047-469f-a599-8876fb267ab4","system_id":"levelo_inurba_marseille","lat":43.293259,"lon":5.371586,"is_reserved":false,"is_disabled":false,"rental_uris":{"android":"levelo://app?vid=c9fbc53d-5047-469f-a599-8876fb267ab4","ios":"levelo://app?vid=c9fbc53d-5047-469f-a599-8876fb267ab4"},"vehicle_type_id":"4","last_reported":1707671211,"current_range_meters":16400,"station_id":"ce4bgh92rcd13ifvqb40","pricing_plan_id":"free"},{"bike_id":"3d1282b5-0cea-4e3d-b19f-6f86e7d95c32","system_id":"levelo_inurba_marseille","lat":43.293259,"lon":5.371586,"is_reserved":false,"is_disabled":false,"rental_uris":{"android":"levelo://app?vid=3d1282b5-0cea-4e3d-b19f-6f86e7d95c32","ios":"levelo://app?vid=3d1282b5-0cea-4e3d-b19f-6f86e7d95c32"},"vehicle_type_id":"4","last_reported":1707671211,"current_range_meters":22800,"station_id":"ce4bgh92rcd13ifvqb40","pricing_plan_id":"free"},{"bike_id":"4c7a6e20-9232-4703-8388-ca81ec24906d","system_id":"levelo_inurba_marseille","lat":43.29271,"lon":5.36841,"is_reserved":false,"is_disabled":false,"rental_uris":{"android":"levelo://app?vid=4c7a6e20-9232-4703-8388-ca81ec24906d","ios":"levelo://app?vid=4c7a6e20-9232-4703-8388-ca81ec24906d"},"vehicle_type_id":"4","last_reported":1707671211,"current_range_meters":0,"station_id":"ce4bhbp2rcd13ifvqesg","pricing_plan_id":"free"},{"bike_id":"d690466c-a7f4-4572-9139-ef4bc8918546","system_id":"levelo_inurba_marseille","lat":43.305994,"lon":5.393687,"is_reserved":false,"is_disabled":false,"rental_uris":{"android":"levelo://app?vid=d690466c-a7f4-4572-9139-ef4bc8918546","ios":"levelo://app?vid=d690466c-a7f4-4572-9139-ef4bc8918546"},"vehicle_type_id":"4","last_reported":1707671211,"current_range_meters":30800,"station_id":"ce4bh0p2rcd13ifvqd80","pricing_plan_id":"free"},{"bike_id":"7199bc24-e9e3-41c9-aea9-d697a9bd6328","system_id":"levelo_inurba_marseille","lat":43.305994,"lon":5.393687,"is_reserved":false,"is_disabled":false,"rental_uris":{"android":"levelo://app?vid=7199bc24-e9e3-41c9-aea9-d697a9bd6328","ios":"levelo://app?vid=7199bc24-e9e3-41c9-aea9-d697a9bd6328"},"vehicle_type_id":"4","last_reported":1707671211,"current_range_meters":12000,"station_id":"ce4bh0p2rcd13ifvqd80","pricing_plan_id":"free"},{"bike_id":"9ec1fb2e-479f-44d2-b72d-642bb2a6b279","system_id":"levelo_inurba_marseille","lat":43.305994,"lon":5.393687,"is_reserved":false,"is_disabled":false,"rental_uris":{"android":"levelo://app?vid=9ec1fb2e-479f-44d2-b72d-642bb2a6b279","ios":"levelo://app?vid=9ec1fb2e-479f-44d2-b72d-642bb2a6b279"},"vehicle_type_id":"4","last_reported":1707671211,"current_range_meters":12400,"station_id":"ce4bh0p2rcd13ifvqd80","pricing_plan_id":"free"},{"bike_id":"478e0600-6e2a-4b47-be6d-eda3666f67b3","system_id":"levelo_inurba_marseille","lat":43.2936,"lon":5.37835,"is_reserved":false,"is_disabled":false,"rental_uris":{"android":"levelo://app?vid=478e0600-6e2a-4b47-be6d-eda3666f67b3","ios":"levelo://app?vid=478e0600-6e2a-4b47-be6d-eda3666f67b3"},"vehicle_type_id":"4","last_reported":1707671211,"current_range_meters":7600,"station_id":"ce4bgjh2rcd13ifvqbf0","pricing_plan_id":"free"},{"bike_id":"09224000-9d86-4475-af16-65c0e32637f1","system_id":"levelo_inurba_marseille","lat":43.2936,"lon":5.37835,"is_reserved":false,"is_disabled":false,"rental_uris":{"android":"levelo://app?vid=09224000-9d86-4475-af16-65c0e32637f1","ios":"levelo://app?vid=09224000-9d86-4475-af16-65c0e32637f1"},"vehicle_type_id":"4","last_reported":1707671211,"current_range_meters":3200,"station_id":"ce4bgjh2rcd13ifvqbf0","pricing_plan_id":"free"},{"bike_id":"9e25d580-77bf-4971-968e-a46344f32df5","system_id":"levelo_inurba_marseille","lat":43.2936,"lon":5.37835,"is_reserved":false,"is_disabled":false,"rental_uris":{"android":"levelo://app?vid=9e25d580-77bf-4971-968e-a46344f32df5","ios":"levelo://app?vid=9e25d580-77bf-4971-968e-a46344f32df5"},"vehicle_type_id":"4","last_reported":1707671211,"current_range_meters":0,"station_id":"ce4bgjh2rcd13ifvqbf0","pricing_plan_id":"free"},{"bike_id":"b1000953-8b11-458a-82b8-c0de67e19e91","system_id":"levelo_inurba_marseille","lat":43.2936,"lon":5.37835,"is_reserved":false,"is_disabled":false,"rental_uris":{"android":"levelo://app?vid=b1000953-8b11-458a-82b8-c0de67e19e91","ios":"levelo://app?vid=b1000953-8b11-458a-82b8-c0de67e19e91"},"vehicle_type_id":"4","last_reported":1707671211,"current_range_meters":0,"station_id":"ce4bgjh2rcd13ifvqbf0","pricing_plan_id":"free"},{"bike_id":"d17c3698-4be9-4064-b75b-b36ee23992da","system_id":"levelo_inurba_marseille","lat":43.302992,"lon":5.392136,"is_reserved":false,"is_disabled":false,"rental_uris":{"android":"levelo://app?vid=d17c3698-4be9-4064-b75b-b36ee23992da","ios":"levelo://app?vid=d17c3698-4be9-4064-b75b-b36ee23992da"},"vehicle_type_id":"4","last_reported":1707671211,"current_range_meters":11200,"station_id":"ce4bgkh2rcd13ifvqbk0","pricing_plan_id":"free"},{"bike_id":"82305e48-f39c-47e2-af58-e91a2aa742a4","system_id":"levelo_inurba_marseille","lat":43.300852,"lon":5.390859,"is_reserved":false,"is_disabled":false,"rental_uris":{"android":"levelo://app?vid=82305e48-f39c-47e2-af58-e91a2aa742a4","ios":"levelo://app?vid=82305e48-f39c-47e2-af58-e91a2aa742a4"},"vehicle_type_id":"4","last_reported":1707671211,"current_range_meters":6400,"station_id":"ce4bh192rcd13ifvqdb0","pricing_plan_id":"free"},{"bike_id":"f6059228-1efb-4483-8eae-647071d57fda","system_id":"levelo_inurba_marseille","lat":43.300852,"lon":5.390859,"is_reserved":false,"is_disabled":false,"rental_uris":{"android":"levelo://app?vid=f6059228-1efb-4483-8eae-647071d57fda","ios":"levelo://app?vid=f6059228-1efb-4483-8eae-647071d57fda"},"vehicle_type_id":"4","last_reported":1707671211,"current_range_meters":18400,"station_id":"ce4bh192rcd13ifvqdb0","pricing_plan_id":"free"},{"bike_id":"d8879a07-1bb5-4334-8bab-755b4a027cda","system_id":"levelo_inurba_marseille","lat":43.298764,"lon":5.388973,"is_reserved":false,"is_disabled":false,"rental_uris":{"android":"levelo://app?vid=d8879a07-1bb5-4334-8bab-755b4a027cda","ios":"levelo://app?vid=d8879a07-1bb5-4334-8bab-755b4a027cda"},"vehicle_type_id":"4","last_reported":1707671211,"current_range_meters":1200,"station_id":"ce4bh392rcd13ifvqdl0","pricing_plan_id":"free"},{"bike_id":"eb73ca92-8649-44fe-8e3a-dbcd6c289cd9","system_id":"levelo_inurba_marseille","lat":43.293009,"lon":5.374584,"is_reserved":false,"is_disabled":false,"rental_uris":{"android":"levelo://app?vid=eb73ca92-8649-44fe-8e3a-dbcd6c289cd9","ios":"levelo://app?vid=eb73ca92-8649-44fe-8e3a-dbcd6c289cd9"},"vehicle_type_id":"4","last_reported":1707671211,"current_range_meters":8400,"station_id":"ce4bgi12rcd13ifvqb70","pricing_plan_id":"free"},{"bike_id":"e25fbe08-9812-4939-9c31-d32578ecbca5","system_id":"levelo_inurba_marseille","lat":43.293009,"lon":5.374584,"is_reserved":false,"is_disabled":false,"rental_uris":{"android":"levelo://app?vid=e25fbe08-9812-4939-9c31-d32578ecbca5","ios":"levelo://app?vid=e25fbe08-9812-4939-9c31-d32578ecbca5"},"vehicle_type_id":"4","last_reported":1707671211,"current_range_meters":17200,"station_id":"ce4bgi12rcd13ifvqb70","pricing_plan_id":"free"},{"bike_id":"7bf3b289-d6d5-408e-b592-9dbb68d8f44b","system_id":"levelo_inurba_marseille","lat":43.298764,"lon":5.388973,"is_reserved":false,"is_disabled":false,"rental_uris":{"android":"levelo://app?vid=7bf3b289-d6d5-408e-b592-9dbb68d8f44b","ios":"levelo://app?vid=7bf3b289-d6d5-408e-b592-9dbb68d8f44b"},"vehicle_type_id":"4","last_reported":1707671211,"current_range_meters":8400,"station_id":"ce4bh392rcd13ifvqdl0","pricing_plan_id":"free"},{"bike_id":"e23b6a27-9c41-4141-a12e-3190f7dc3f8a","system_id":"levelo_inurba_marseille","lat":43.298764,"lon":5.388973,"is_reserved":false,"is_disabled":false,"rental_uris":{"android":"levelo://app?vid=e23b6a27-9c41-4141-a12e-3190f7dc3f8a","ios":"levelo://app?vid=e23b6a27-9c41-4141-a12e-3190f7dc3f8a"},"vehicle_type_id":"4","last_reported":1707671211,"current_range_meters":4000,"station_id":"ce4bh392rcd13ifvqdl0","pricing_plan_id":"free"},{"bike_id":"bf271094-ff2d-4a30-b4f3-0bfce539acfe","system_id":"levelo_inurba_marseille","lat":43.298764,"lon":5.388973,"is_reserved":false,"is_disabled":false,"rental_uris":{"android":"levelo://app?vid=bf271094-ff2d-4a30-b4f3-0bfce539acfe","ios":"levelo://app?vid=bf271094-ff2d-4a30-b4f3-0bfce539acfe"},"vehicle_type_id":"4","last_reported":1707671211,"current_range_meters":12400,"station_id":"ce4bh392rcd13ifvqdl0","pricing_plan_id":"free"},{"bike_id":"5dba8589-c48d-43d1-9d1b-3429ce34f994","system_id":"levelo_inurba_marseille","lat":43.291994,"lon":5.357886,"is_reserved":false,"is_disabled":false,"rental_uris":{"android":"levelo://app?vid=5dba8589-c48d-43d1-9d1b-3429ce34f994","ios":"levelo://app?vid=5dba8589-c48d-43d1-9d1b-3429ce34f994"},"vehicle_type_id":"4","last_reported":1707671211,"current_range_meters":0,"station_id":"ce4bhb12rcd13ifvqel0","pricing_plan_id":"free"},{"bike_id":"36b16d9d-af04-4c6b-99aa-83abc778fdd0","system_id":"levelo_inurba_marseille","lat":43.30888,"lon":5.39641,"is_reserved":false,"is_disabled":false,"rental_uris":{"android":"levelo://app?vid=36b16d9d-af04-4c6b-99aa-83abc778fdd0","ios":"levelo://app?vid=36b16d9d-af04-4c6b-99aa-83abc778fdd0"},"vehicle_type_id":"4","last_reported":1707671211,"current_range_meters":0,"station_id":"ce4bh012rcd13ifvqcv0","pricing_plan_id":"free"},{"bike_id":"7bb865da-2acd-4de6-b94d-6a12f32e4e89","system_id":"levelo_inurba_marseille","lat":43.309047,"lon":5.396551,"is_reserved":false,"is_disabled":false,"rental_uris":{"android":"levelo://app?vid=7bb865da-2acd-4de6-b94d-6a12f32e4e89","ios":"levelo://app?vid=7bb865da-2acd-4de6-b94d-6a12f32e4e89"},"vehicle_type_id":"4","last_reported":1707671211,"current_range_meters":17200,"station_id":"ce4bh012rcd13ifvqcv0","pricing_plan_id":"free"},{"bike_id":"8468ef98-ed89-4c20-8d22-0031ccbe1292","system_id":"levelo_inurba_marseille","lat":43.309038,"lon":5.396546,"is_reserved":false,"is_disabled":false,"rental_uris":{"android":"levelo://app?vid=8468ef98-ed89-4c20-8d22-0031ccbe1292","ios":"levelo://app?vid=8468ef98-ed89-4c20-8d22-0031ccbe1292"},"vehicle_type_id":"4","last_reported":1707671211,"current_range_meters":9600,"station_id":"ce4bh012rcd13ifvqcv0","pricing_plan_id":"free"},{"bike_id":"57e403b2-07a0-470c-9618-376a5d33861e","system_id":"levelo_inurba_marseille","lat":43.29529,"lon":5.385581,"is_reserved":false,"is_disabled":false,"rental_uris":{"android":"levelo://app?vid=57e403b2-07a0-470c-9618-376a5d33861e","ios":"levelo://app?vid=57e403b2-07a0-470c-9618-376a5d33861e"},"vehicle_type_id":"4","last_reported":1707671211,"current_range_meters":0,"station_id":"ce4bgih2rcd13ifvqba0","pricing_plan_id":"free"},{"bike_id":"652b9798-5c88-44d6-ba4c-4d34cdaab144","system_id":"levelo_inurba_marseille","lat":43.29532,"lon":5.38541,"is_reserved":false,"is_disabled":false,"rental_uris":{"android":"levelo://app?vid=652b9798-5c88-44d6-ba4c-4d34cdaab144","ios":"levelo://app?vid=652b9798-5c88-44d6-ba4c-4d34cdaab144"},"vehicle_type_id":"4","last_reported":1707671211,"current_range_meters":0,"station_id":"ce4bgih2rcd13ifvqba0","pricing_plan_id":"free"},{"bike_id":"df4e29de-7286-409a-bf19-c24d8d066b99","system_id":"levelo_inurba_marseille","lat":43.29529,"lon":5.385581,"is_reserved":false,"is_disabled":false,"rental_uris":{"android":"levelo://app?vid=df4e29de-7286-409a-bf19-c24d8d066b99","ios":"levelo://app?vid=df4e29de-7286-409a-bf19-c24d8d066b99"},"vehicle_type_id":"4","last_reported":1707671211,"current_range_meters":19600,"station_id":"ce4bgih2rcd13ifvqba0","pricing_plan_id":"free"},{"bike_id":"8efda0e6-0c32-4a56-9a6f-debb30cfb45d","system_id":"levelo_inurba_marseille","lat":43.290779,"lon":5.371482,"is_reserved":false,"is_disabled":false,"rental_uris":{"android":"levelo://app?vid=8efda0e6-0c32-4a56-9a6f-debb30cfb45d","ios":"levelo://app?vid=8efda0e6-0c32-4a56-9a6f-debb30cfb45d"},"vehicle_type_id":"4","last_reported":1707671211,"current_range_meters":20000,"station_id":"ce4bh5p2rcd13ifvqe4g","pricing_plan_id":"free"},{"bike_id":"af1ac64f-a8ff-413c-98ad-e66bfa720210","system_id":"levelo_inurba_marseille","lat":43.290779,"lon":5.371482,"is_reserved":false,"is_disabled":false,"rental_uris":{"android":"levelo://app?vid=af1ac64f-a8ff-413c-98ad-e66bfa720210","ios":"levelo://app?vid=af1ac64f-a8ff-413c-98ad-e66bfa720210"},"vehicle_type_id":"4","last_reported":1707671211,"current_range_meters":400,"station_id":"ce4bh5p2rcd13ifvqe4g","pricing_plan_id":"free"},{"bike_id":"5f5ec23d-abf7-4ad4-82e7-7c38ca4c07ac","system_id":"levelo_inurba_marseille","lat":43.290779,"lon":5.371482,"is_reserved":false,"is_disabled":false,"rental_uris":{"android":"levelo://app?vid=5f5ec23d-abf7-4ad4-82e7-7c38ca4c07ac","ios":"levelo://app?vid=5f5ec23d-abf7-4ad4-82e7-7c38ca4c07ac"},"vehicle_type_id":"4","last_reported":1707671211,"current_range_meters":6400,"station_id":"ce4bh5p2rcd13ifvqe4g","pricing_plan_id":"free"},{"bike_id":"6d4a6b2e-1aaf-4f55-8104-ba1c76f03936","system_id":"levelo_inurba_marseille","lat":43.29073,"lon":5.37168,"is_reserved":false,"is_disabled":false,"rental_uris":{"android":"levelo://app?vid=6d4a6b2e-1aaf-4f55-8104-ba1c76f03936","ios":"levelo://app?vid=6d4a6b2e-1aaf-4f55-8104-ba1c76f03936"},"vehicle_type_id":"4","last_reported":1707671211,"current_range_meters":26800,"station_id":"ce4bh5p2rcd13ifvqe4g","pricing_plan_id":"free"},{"bike_id":"9695779a-1c57-4242-9f71-9d5fefe9d7a9","system_id":"levelo_inurba_marseille","lat":43.29066,"lon":5.37159,"is_reserved":false,"is_disabled":false,"rental_uris":{"android":"levelo://app?vid=9695779a-1c57-4242-9f71-9d5fefe9d7a9","ios":"levelo://app?vid=9695779a-1c57-4242-9f71-9d5fefe9d7a9"},"vehicle_type_id":"4","last_reported":1707671211,"current_range_meters":5200,"station_id":"ce4bh5p2rcd13ifvqe4g","pricing_plan_id":"free"},{"bike_id":"06178b1a-ab1f-4f42-898f-c58d90dba05a","system_id":"levelo_inurba_marseille","lat":43.2942,"lon":5.38626,"is_reserved":false,"is_disabled":false,"rental_uris":{"android":"levelo://app?vid=06178b1a-ab1f-4f42-898f-c58d90dba05a","ios":"levelo://app?vid=06178b1a-ab1f-4f42-898f-c58d90dba05a"},"vehicle_type_id":"4","last_reported":1707671211,"current_range_meters":0,"station_id":"ce4bh2h2rcd13ifvqdh0","pricing_plan_id":"free"},{"bike_id":"b2471871-9327-4c66-b0fc-a4cceee1f8e9","system_id":"levelo_inurba_marseille","lat":43.28946,"lon":5.36645,"is_reserved":false,"is_disabled":false,"rental_uris":{"android":"levelo://app?vid=b2471871-9327-4c66-b0fc-a4cceee1f8e9","ios":"levelo://app?vid=b2471871-9327-4c66-b0fc-a4cceee1f8e9"},"vehicle_type_id":"4","last_reported":1707671211,"current_range_meters":0,"station_id":"ce4bhap2rcd13ifvqek0","pricing_plan_id":"free"},{"bike_id":"a45e8ce7-976f-42a1-a8bb-8237018adf18","system_id":"levelo_inurba_marseille","lat":43.289468,"lon":5.363719,"is_reserved":false,"is_disabled":false,"rental_uris":{"android":"levelo://app?vid=a45e8ce7-976f-42a1-a8bb-8237018adf18","ios":"levelo://app?vid=a45e8ce7-976f-42a1-a8bb-8237018adf18"},"vehicle_type_id":"4","last_reported":1707671211,"current_range_meters":1200,"station_id":"ce4bhc92rcd13ifvqetg","pricing_plan_id":"free"},{"bike_id":"42fab0bf-c7d3-4ecc-aba1-bfdcc5a6df2e","system_id":"levelo_inurba_marseille","lat":43.289468,"lon":5.363719,"is_reserved":false,"is_disabled":false,"rental_uris":{"android":"levelo://app?vid=42fab0bf-c7d3-4ecc-aba1-bfdcc5a6df2e","ios":"levelo://app?vid=42fab0bf-c7d3-4ecc-aba1-bfdcc5a6df2e"},"vehicle_type_id":"4","last_reported":1707671211,"current_range_meters":22800,"station_id":"ce4bhc92rcd13ifvqetg","pricing_plan_id":"free"},{"bike_id":"2f9d8760-7f47-4402-acad-30ddc4ee78fa","system_id":"levelo_inurba_marseille","lat":43.292644,"lon":5.384257,"is_reserved":false,"is_disabled":false,"rental_uris":{"android":"levelo://app?vid=2f9d8760-7f47-4402-acad-30ddc4ee78fa","ios":"levelo://app?vid=2f9d8760-7f47-4402-acad-30ddc4ee78fa"},"vehicle_type_id":"4","last_reported":1707671211,"current_range_meters":5200,"station_id":"ce4bh692rcd13ifvqea0","pricing_plan_id":"free"},{"bike_id":"3711a31e-9414-458a-b4c8-4818361cad0d","system_id":"levelo_inurba_marseille","lat":43.304274,"lon":5.397513,"is_reserved":false,"is_disabled":false,"rental_uris":{"android":"levelo://app?vid=3711a31e-9414-458a-b4c8-4818361cad0d","ios":"levelo://app?vid=3711a31e-9414-458a-b4c8-4818361cad0d"},"vehicle_type_id":"4","last_reported":1707671211,"current_range_meters":18000,"station_id":"ce4bh092rcd13ifvqd20","pricing_plan_id":"free"},{"bike_id":"8d7a8473-8d1e-41d4-8723-79936b5bfe3a","system_id":"levelo_inurba_marseille","lat":43.304274,"lon":5.397513,"is_reserved":false,"is_disabled":false,"rental_uris":{"android":"levelo://app?vid=8d7a8473-8d1e-41d4-8723-79936b5bfe3a","ios":"levelo://app?vid=8d7a8473-8d1e-41d4-8723-79936b5bfe3a"},"vehicle_type_id":"4","last_reported":1707671211,"current_range_meters":9600,"station_id":"ce4bh092rcd13ifvqd20","pricing_plan_id":"free"},{"bike_id":"c82fc6f1-f071-45ed-b551-6adb6a203357","system_id":"levelo_inurba_marseille","lat":43.292644,"lon":5.384257,"is_reserved":false,"is_disabled":false,"rental_uris":{"android":"levelo://app?vid=c82fc6f1-f071-45ed-b551-6adb6a203357","ios":"levelo://app?vid=c82fc6f1-f071-45ed-b551-6adb6a203357"},"vehicle_type_id":"4","last_reported":1707671211,"current_range_meters":23200,"station_id":"ce4bh692rcd13ifvqea0","pricing_plan_id":"free"},{"bike_id":"921b3710-ae15-4017-9321-709121ebb809","system_id":"levelo_inurba_marseille","lat":43.304296,"lon":5.397513,"is_reserved":false,"is_disabled":false,"rental_uris":{"android":"levelo://app?vid=921b3710-ae15-4017-9321-709121ebb809","ios":"levelo://app?vid=921b3710-ae15-4017-9321-709121ebb809"},"vehicle_type_id":"4","last_reported":1707671211,"current_range_meters":17600,"station_id":"ce4bh092rcd13ifvqd20","pricing_plan_id":"free"},{"bike_id":"36da5920-b0e0-485a-932a-59c76621e961","system_id":"levelo_inurba_marseille","lat":43.304296,"lon":5.397513,"is_reserved":false,"is_disabled":false,"rental_uris":{"android":"levelo://app?vid=36da5920-b0e0-485a-932a-59c76621e961","ios":"levelo://app?vid=36da5920-b0e0-485a-932a-59c76621e961"},"vehicle_type_id":"4","last_reported":1707671211,"current_range_meters":4000,"station_id":"ce4bh092rcd13ifvqd20","pricing_plan_id":"free"},{"bike_id":"70081550-c01e-4c08-aedf-e5d925002d9f","system_id":"levelo_inurba_marseille","lat":43.290103,"lon":5.356114,"is_reserved":false,"is_disabled":false,"rental_uris":{"android":"levelo://app?vid=70081550-c01e-4c08-aedf-e5d925002d9f","ios":"levelo://app?vid=70081550-c01e-4c08-aedf-e5d925002d9f"},"vehicle_type_id":"4","last_reported":1707671211,"current_range_meters":13600,"station_id":"ce4bhb92rcd13ifvqen0","pricing_plan_id":"free"},{"bike_id":"900b0f00-310b-4969-b77c-02cb4d7e5b4f","system_id":"levelo_inurba_marseille","lat":43.290104,"lon":5.356111,"is_reserved":false,"is_disabled":false,"rental_uris":{"android":"levelo://app?vid=900b0f00-310b-4969-b77c-02cb4d7e5b4f","ios":"levelo://app?vid=900b0f00-310b-4969-b77c-02cb4d7e5b4f"},"vehicle_type_id":"4","last_reported":1707671211,"current_range_meters":1600,"station_id":"ce4bhb92rcd13ifvqen0","pricing_plan_id":"free"},{"bike_id":"97ff6e1f-cfd5-4b39-9425-85f2d03525cd","system_id":"levelo_inurba_marseille","lat":43.290104,"lon":5.356111,"is_reserved":false,"is_disabled":false,"rental_uris":{"android":"levelo://app?vid=97ff6e1f-cfd5-4b39-9425-85f2d03525cd","ios":"levelo://app?vid=97ff6e1f-cfd5-4b39-9425-85f2d03525cd"},"vehicle_type_id":"4","last_reported":1707671211,"current_range_meters":16000,"station_id":"ce4bhb92rcd13ifvqen0","pricing_plan_id":"free"},{"bike_id":"4d2dd10c-efc1-4b08-b742-49b5fe8a6d7b","system_id":"levelo_inurba_marseille","lat":43.290104,"lon":5.356111,"is_reserved":false,"is_disabled":false,"rental_uris":{"android":"levelo://app?vid=4d2dd10c-efc1-4b08-b742-49b5fe8a6d7b","ios":"levelo://app?vid=4d2dd10c-efc1-4b08-b742-49b5fe8a6d7b"},"vehicle_type_id":"4","last_reported":1707671211,"current_range_meters":1600,"station_id":"ce4bhb92rcd13ifvqen0","pricing_plan_id":"free"},{"bike_id":"645c7774-9efe-433d-bf92-ff3cb14ff207","system_id":"levelo_inurba_marseille","lat":43.290103,"lon":5.356114,"is_reserved":false,"is_disabled":false,"rental_uris":{"android":"levelo://app?vid=645c7774-9efe-433d-bf92-ff3cb14ff207","ios":"levelo://app?vid=645c7774-9efe-433d-bf92-ff3cb14ff207"},"vehicle_type_id":"4","last_reported":1707671211,"current_range_meters":0,"station_id":"ce4bhb92rcd13ifvqen0","pricing_plan_id":"free"},{"bike_id":"26c1fe03-2daa-43f0-8ab0-b7913f7bc7b7","system_id":"levelo_inurba_marseille","lat":43.297833,"lon":5.39329,"is_reserved":false,"is_disabled":false,"rental_uris":{"android":"levelo://app?vid=26c1fe03-2daa-43f0-8ab0-b7913f7bc7b7","ios":"levelo://app?vid=26c1fe03-2daa-43f0-8ab0-b7913f7bc7b7"},"vehicle_type_id":"4","last_reported":1707671211,"current_range_meters":3200,"station_id":"chh1huq6cuj3fo74tm60","pricing_plan_id":"free"},{"bike_id":"2bd79669-70cb-4bd9-bb70-31d4ccaca8a7","system_id":"levelo_inurba_marseille","lat":43.29797,"lon":5.39347,"is_reserved":false,"is_disabled":false,"rental_uris":{"android":"levelo://app?vid=2bd79669-70cb-4bd9-bb70-31d4ccaca8a7","ios":"levelo://app?vid=2bd79669-70cb-4bd9-bb70-31d4ccaca8a7"},"vehicle_type_id":"4","last_reported":1707671211,"current_range_meters":16000,"station_id":"chh1huq6cuj3fo74tm60","pricing_plan_id":"free"},{"bike_id":"81f93ebb-3ea8-41d4-ad3c-86f40f4889c3","system_id":"levelo_inurba_marseille","lat":43.29789,"lon":5.39342,"is_reserved":false,"is_disabled":false,"rental_uris":{"android":"levelo://app?vid=81f93ebb-3ea8-41d4-ad3c-86f40f4889c3","ios":"levelo://app?vid=81f93ebb-3ea8-41d4-ad3c-86f40f4889c3"},"vehicle_type_id":"4","last_reported":1707671211,"current_range_meters":5200,"station_id":"chh1huq6cuj3fo74tm60","pricing_plan_id":"free"},{"bike_id":"2de443a2-59d9-4ee5-a3c1-9ca47450685f","system_id":"levelo_inurba_marseille","lat":43.29785,"lon":5.39342,"is_reserved":false,"is_disabled":false,"rental_uris":{"android":"levelo://app?vid=2de443a2-59d9-4ee5-a3c1-9ca47450685f","ios":"levelo://app?vid=2de443a2-59d9-4ee5-a3c1-9ca47450685f"},"vehicle_type_id":"4","last_reported":1707671211,"current_range_meters":16800,"station_id":"chh1huq6cuj3fo74tm60","pricing_plan_id":"free"},{"bike_id":"845c6a1f-214f-4cad-a6b3-0cd3f1d8b125","system_id":"levelo_inurba_marseille","lat":43.29787,"lon":5.39345,"is_reserved":false,"is_disabled":false,"rental_uris":{"android":"levelo://app?vid=845c6a1f-214f-4cad-a6b3-0cd3f1d8b125","ios":"levelo://app?vid=845c6a1f-214f-4cad-a6b3-0cd3f1d8b125"},"vehicle_type_id":"4","last_reported":1707671211,"current_range_meters":18000,"station_id":"chh1huq6cuj3fo74tm60","pricing_plan_id":"free"},{"bike_id":"0bb73f05-5a6b-4f46-8db9-cff4df97225c","system_id":"levelo_inurba_marseille","lat":43.33021,"lon":5.39032,"is_reserved":false,"is_disabled":false,"rental_uris":{"android":"levelo://app?vid=0bb73f05-5a6b-4f46-8db9-cff4df97225c","ios":"levelo://app?vid=0bb73f05-5a6b-4f46-8db9-cff4df97225c"},"vehicle_type_id":"4","last_reported":1707671211,"current_range_meters":11600,"station_id":"ce4bhr92rcd13ifvqhrg","pricing_plan_id":"free"},{"bike_id":"15deb984-f6bb-4602-9c85-af3956663ee9","system_id":"levelo_inurba_marseille","lat":43.33021,"lon":5.39034,"is_reserved":false,"is_disabled":false,"rental_uris":{"android":"levelo://app?vid=15deb984-f6bb-4602-9c85-af3956663ee9","ios":"levelo://app?vid=15deb984-f6bb-4602-9c85-af3956663ee9"},"vehicle_type_id":"4","last_reported":1707671211,"current_range_meters":3600,"station_id":"ce4bhr92rcd13ifvqhrg","pricing_plan_id":"free"},{"bike_id":"c1b36393-798b-4504-88b3-a7646b8a5044","system_id":"levelo_inurba_marseille","lat":43.33021,"lon":5.39035,"is_reserved":false,"is_disabled":false,"rental_uris":{"android":"levelo://app?vid=c1b36393-798b-4504-88b3-a7646b8a5044","ios":"levelo://app?vid=c1b36393-798b-4504-88b3-a7646b8a5044"},"vehicle_type_id":"4","last_reported":1707671211,"current_range_meters":18400,"station_id":"ce4bhr92rcd13ifvqhrg","pricing_plan_id":"free"},{"bike_id":"e3cdd8db-1a8c-42b0-8a1d-74e27724a81e","system_id":"levelo_inurba_marseille","lat":43.330175,"lon":5.3904,"is_reserved":false,"is_disabled":false,"rental_uris":{"android":"levelo://app?vid=e3cdd8db-1a8c-42b0-8a1d-74e27724a81e","ios":"levelo://app?vid=e3cdd8db-1a8c-42b0-8a1d-74e27724a81e"},"vehicle_type_id":"4","last_reported":1707671211,"current_range_meters":7600,"station_id":"ce4bhr92rcd13ifvqhrg","pricing_plan_id":"free"},{"bike_id":"84c612fa-d1d7-4abf-9a85-0f2fae371c35","system_id":"levelo_inurba_marseille","lat":43.33023,"lon":5.39034,"is_reserved":false,"is_disabled":false,"rental_uris":{"android":"levelo://app?vid=84c612fa-d1d7-4abf-9a85-0f2fae371c35","ios":"levelo://app?vid=84c612fa-d1d7-4abf-9a85-0f2fae371c35"},"vehicle_type_id":"4","last_reported":1707671211,"current_range_meters":3200,"station_id":"ce4bhr92rcd13ifvqhrg","pricing_plan_id":"free"},{"bike_id":"b223f89c-dde0-4be3-9179-edbff6adf1cf","system_id":"levelo_inurba_marseille","lat":43.29788,"lon":5.39355,"is_reserved":false,"is_disabled":false,"rental_uris":{"android":"levelo://app?vid=b223f89c-dde0-4be3-9179-edbff6adf1cf","ios":"levelo://app?vid=b223f89c-dde0-4be3-9179-edbff6adf1cf"},"vehicle_type_id":"4","last_reported":1707671211,"current_range_meters":0,"station_id":"chh1huq6cuj3fo74tm60","pricing_plan_id":"free"},{"bike_id":"52b1c4ba-1367-461b-9d7b-682e89718428","system_id":"levelo_inurba_marseille","lat":43.330249,"lon":5.390331,"is_reserved":false,"is_disabled":false,"rental_uris":{"android":"levelo://app?vid=52b1c4ba-1367-461b-9d7b-682e89718428","ios":"levelo://app?vid=52b1c4ba-1367-461b-9d7b-682e89718428"},"vehicle_type_id":"4","last_reported":1707671211,"current_range_meters":9600,"station_id":"ce4bhr92rcd13ifvqhrg","pricing_plan_id":"free"},{"bike_id":"0f71ff6e-0d84-48a5-9a7d-80d0d4be1278","system_id":"levelo_inurba_marseille","lat":43.302759,"lon":5.400793,"is_reserved":false,"is_disabled":false,"rental_uris":{"android":"levelo://app?vid=0f71ff6e-0d84-48a5-9a7d-80d0d4be1278","ios":"levelo://app?vid=0f71ff6e-0d84-48a5-9a7d-80d0d4be1278"},"vehicle_type_id":"4","last_reported":1707671211,"current_range_meters":29200,"station_id":"ce4bgvh2rcd13ifvqcs0","pricing_plan_id":"free"},{"bike_id":"8ac029f7-b9b3-4582-b8f8-423bd8dd6533","system_id":"levelo_inurba_marseille","lat":43.3302,"lon":5.39041,"is_reserved":false,"is_disabled":false,"rental_uris":{"android":"levelo://app?vid=8ac029f7-b9b3-4582-b8f8-423bd8dd6533","ios":"levelo://app?vid=8ac029f7-b9b3-4582-b8f8-423bd8dd6533"},"vehicle_type_id":"4","last_reported":1707671211,"current_range_meters":8000,"station_id":"ce4bhr92rcd13ifvqhrg","pricing_plan_id":"free"},{"bike_id":"05754e72-842e-4824-b463-16b77b6c9f5f","system_id":"levelo_inurba_marseille","lat":43.33018,"lon":5.39044,"is_reserved":false,"is_disabled":false,"rental_uris":{"android":"levelo://app?vid=05754e72-842e-4824-b463-16b77b6c9f5f","ios":"levelo://app?vid=05754e72-842e-4824-b463-16b77b6c9f5f"},"vehicle_type_id":"4","last_reported":1707671211,"current_range_meters":19200,"station_id":"ce4bhr92rcd13ifvqhrg","pricing_plan_id":"free"},{"bike_id":"46dae732-6cd2-4bdd-8595-b9a46e38e12d","system_id":"levelo_inurba_marseille","lat":43.33021,"lon":5.3904,"is_reserved":false,"is_disabled":false,"rental_uris":{"android":"levelo://app?vid=46dae732-6cd2-4bdd-8595-b9a46e38e12d","ios":"levelo://app?vid=46dae732-6cd2-4bdd-8595-b9a46e38e12d"},"vehicle_type_id":"4","last_reported":1707671211,"current_range_meters":15200,"station_id":"ce4bhr92rcd13ifvqhrg","pricing_plan_id":"free"},{"bike_id":"ee1d06f2-edcb-44d3-8e2e-df8be3cfa85f","system_id":"levelo_inurba_marseille","lat":43.33019,"lon":5.39043,"is_reserved":false,"is_disabled":false,"rental_uris":{"android":"levelo://app?vid=ee1d06f2-edcb-44d3-8e2e-df8be3cfa85f","ios":"levelo://app?vid=ee1d06f2-edcb-44d3-8e2e-df8be3cfa85f"},"vehicle_type_id":"4","last_reported":1707671211,"current_range_meters":8400,"station_id":"ce4bhr92rcd13ifvqhrg","pricing_plan_id":"free"},{"bike_id":"57684a67-5c6b-42d1-9a4e-a6134838c612","system_id":"levelo_inurba_marseille","lat":43.33019,"lon":5.39043,"is_reserved":false,"is_disabled":false,"rental_uris":{"android":"levelo://app?vid=57684a67-5c6b-42d1-9a4e-a6134838c612","ios":"levelo://app?vid=57684a67-5c6b-42d1-9a4e-a6134838c612"},"vehicle_type_id":"4","last_reported":1707671211,"current_range_meters":28400,"station_id":"ce4bhr92rcd13ifvqhrg","pricing_plan_id":"free"},{"bike_id":"b4c77a84-9e62-4a6d-b8d6-bb89dc72d115","system_id":"levelo_inurba_marseille","lat":43.33024,"lon":5.39036,"is_reserved":false,"is_disabled":false,"rental_uris":{"android":"levelo://app?vid=b4c77a84-9e62-4a6d-b8d6-bb89dc72d115","ios":"levelo://app?vid=b4c77a84-9e62-4a6d-b8d6-bb89dc72d115"},"vehicle_type_id":"4","last_reported":1707671211,"current_range_meters":10000,"station_id":"ce4bhr92rcd13ifvqhrg","pricing_plan_id":"free"},{"bike_id":"47f09297-ca42-4e52-9568-386405c17dff","system_id":"levelo_inurba_marseille","lat":43.33019,"lon":5.39046,"is_reserved":false,"is_disabled":false,"rental_uris":{"android":"levelo://app?vid=47f09297-ca42-4e52-9568-386405c17dff","ios":"levelo://app?vid=47f09297-ca42-4e52-9568-386405c17dff"},"vehicle_type_id":"4","last_reported":1707671211,"current_range_meters":11200,"station_id":"ce4bhr92rcd13ifvqhrg","pricing_plan_id":"free"},{"bike_id":"ba7895df-fdf0-43d4-b40a-e7e64d29137d","system_id":"levelo_inurba_marseille","lat":43.330198,"lon":5.390454,"is_reserved":false,"is_disabled":false,"rental_uris":{"android":"levelo://app?vid=ba7895df-fdf0-43d4-b40a-e7e64d29137d","ios":"levelo://app?vid=ba7895df-fdf0-43d4-b40a-e7e64d29137d"},"vehicle_type_id":"4","last_reported":1707671211,"current_range_meters":27200,"station_id":"ce4bhr92rcd13ifvqhrg","pricing_plan_id":"free"},{"bike_id":"c049a4bb-b2d8-42f6-99d6-c0be769574ba","system_id":"levelo_inurba_marseille","lat":43.33021,"lon":5.39044,"is_reserved":false,"is_disabled":false,"rental_uris":{"android":"levelo://app?vid=c049a4bb-b2d8-42f6-99d6-c0be769574ba","ios":"levelo://app?vid=c049a4bb-b2d8-42f6-99d6-c0be769574ba"},"vehicle_type_id":"4","last_reported":1707671211,"current_range_meters":16800,"station_id":"ce4bhr92rcd13ifvqhrg","pricing_plan_id":"free"},{"bike_id":"ca21e58c-40c8-4549-92f0-c57d86be085e","system_id":"levelo_inurba_marseille","lat":43.33024,"lon":5.39041,"is_reserved":false,"is_disabled":false,"rental_uris":{"android":"levelo://app?vid=ca21e58c-40c8-4549-92f0-c57d86be085e","ios":"levelo://app?vid=ca21e58c-40c8-4549-92f0-c57d86be085e"},"vehicle_type_id":"4","last_reported":1707671211,"current_range_meters":14400,"station_id":"ce4bhr92rcd13ifvqhrg","pricing_plan_id":"free"},{"bike_id":"44de19a6-b63d-4148-9680-2b2c2d104bb7","system_id":"levelo_inurba_marseille","lat":43.330247,"lon":5.390403,"is_reserved":false,"is_disabled":false,"rental_uris":{"android":"levelo://app?vid=44de19a6-b63d-4148-9680-2b2c2d104bb7","ios":"levelo://app?vid=44de19a6-b63d-4148-9680-2b2c2d104bb7"},"vehicle_type_id":"4","last_reported":1707671211,"current_range_meters":7600,"station_id":"ce4bhr92rcd13ifvqhrg","pricing_plan_id":"free"},{"bike_id":"b026d6b2-c906-44b0-96bf-b38ddd006345","system_id":"levelo_inurba_marseille","lat":43.33025,"lon":5.3904,"is_reserved":false,"is_disabled":false,"rental_uris":{"android":"levelo://app?vid=b026d6b2-c906-44b0-96bf-b38ddd006345","ios":"levelo://app?vid=b026d6b2-c906-44b0-96bf-b38ddd006345"},"vehicle_type_id":"4","last_reported":1707671211,"current_range_meters":1200,"station_id":"ce4bhr92rcd13ifvqhrg","pricing_plan_id":"free"},{"bike_id":"f0dd3082-5565-475e-a771-5567c92069c7","system_id":"levelo_inurba_marseille","lat":43.33027,"lon":5.39039,"is_reserved":false,"is_disabled":false,"rental_uris":{"android":"levelo://app?vid=f0dd3082-5565-475e-a771-5567c92069c7","ios":"levelo://app?vid=f0dd3082-5565-475e-a771-5567c92069c7"},"vehicle_type_id":"4","last_reported":1707671211,"current_range_meters":8800,"station_id":"ce4bhr92rcd13ifvqhrg","pricing_plan_id":"free"},{"bike_id":"6143b246-3fa0-4c50-967f-81b19f2106fa","system_id":"levelo_inurba_marseille","lat":43.33029,"lon":5.39037,"is_reserved":false,"is_disabled":false,"rental_uris":{"android":"levelo://app?vid=6143b246-3fa0-4c50-967f-81b19f2106fa","ios":"levelo://app?vid=6143b246-3fa0-4c50-967f-81b19f2106fa"},"vehicle_type_id":"4","last_reported":1707671211,"current_range_meters":9200,"station_id":"ce4bhr92rcd13ifvqhrg","pricing_plan_id":"free"},