{"last_updated":1773782844,"ttl":60,"version":"2.2","data":{"bikes":[{"bike_id":"2d475c7c-0764-4ac9-8950-41d5059b573b","system_id":"levelo_inurba_marseille","lat":43.2846,"lon":5.48397,"is_reserved":false,"is_disabled":false,"rental_uris":{"android":"levelo://app?vid=2d475c7c-0764-4ac9-8950-41d5059b573b","ios":"levelo://app?vid=2d475c7c-0764-4ac9-8950-41d5059b573b"},"vehicle_type_id":"4","last_reported":1773782844,"current_range_meters":2800,"station_id":"","pricing_plan_id":"cebpf4jnsgd1na2vs0mg"},{"bike_id":"70dc4d05-aae3-4732-b154-15fa01d1cd08","system_id":"levelo_inurba_marseille","lat":43.27803,"lon":5.40723,"is_reserved":false,"is_disabled":false,"rental_uris":{"android":"levelo://app?vid=70dc4d05-aae3-4732-b154-15fa01d1cd08","ios":"levelo://app?vid=70dc4d05-aae3-4732-b154-15fa01d1cd08"},"vehicle_type_id":"4","last_reported":1773782844,"current_range_meters":2800,"station_id":"ce4bhnh2rcd13ifvqgtg","pricing_plan_id":"cebpf4jnsgd1na2vs0mg"},{"bike_id":"2f6af145-9965-4232-ba20-a2113c18cb78","system_id":"levelo_inurba_marseille","lat":43.29553,"lon":5.4,"is_reserved":false,"is_disabled":true,"rental_uris":{"android":"levelo://app?vid=2f6af145-9965-4232-ba20-a2113c18cb78","ios":"levelo://app?vid=2f6af145-9965-4232-ba20-a2113c18cb78"},"vehicle_type_id":"4","last_reported":1773782844,"current_range_meters":2800,"station_id":"ce4bh312rcd13ifvqdj0","pricing_plan_id":"cebpf4jnsgd1na2vs0mg"},{"bike_id":"38afc365-b4dc-4d8f-8c4c-2f18d9a71f42","system_id":"levelo_inurba_marseille","lat":43.28204,"lon":5.39055,"is_reserved":false,"is_disabled":false,"rental_uris":{"android":"levelo://app?vid=38afc365-b4dc-4d8f-8c4c-2f18d9a71f42","ios":"levelo://app?vid=38afc365-b4dc-4d8f-8c4c-2f18d9a71f42"},"vehicle_type_id":"4","last_reported":1773782844,"current_range_meters":2800,"station_id":"ce4bhn92rcd13ifvqgsg","pricing_plan_id":"cebpf4jnsgd1na2vs0mg"},{"bike_id":"8b48ffe8-6321-490c-a94d-24035df987b7","system_id":"levelo_inurba_marseille","lat":43.28458,"lon":5.35878,"is_reserved":false,"is_disabled":false,"rental_uris":{"android":"levelo://app?vid=8b48ffe8-6321-490c-a94d-24035df987b7","ios":"levelo://app?vid=8b48ffe8-6321-490c-a94d-24035df987b7"},"vehicle_type_id":"4","last_reported":1773782844,"current_range_meters":2800,"station_id":"ce4bhah2rcd13ifvqei0","pricing_plan_id":"cebpf4jnsgd1na2vs0mg"},{"bike_id":"5ceea874-16bc-4dc6-9858-1b3ce34dfda6","system_id":"levelo_inurba_marseille","lat":43.28473,"lon":5.48386,"is_reserved":false,"is_disabled":false,"rental_uris":{"android":"levelo://app?vid=5ceea874-16bc-4dc6-9858-1b3ce34dfda6","ios":"levelo://app?vid=5ceea874-16bc-4dc6-9858-1b3ce34dfda6"},"vehicle_type_id":"4","last_reported":1773782844,"current_range_meters":2800,"station_id":"st_d3svhcjqgbts73a3dn0g","pricing_plan_id":"cebpf4jnsgd1na2vs0mg"},{"bike_id":"5c13d3bc-3946-4016-b223-a96c424763ee","system_id":"levelo_inurba_marseille","lat":43.24158,"lon":5.36407,"is_reserved":false,"is_disabled":false,"rental_uris":{"android":"levelo://app?vid=5c13d3bc-3946-4016-b223-a96c424763ee","ios":"levelo://app?vid=5c13d3bc-3946-4016-b223-a96c424763ee"},"vehicle_type_id":"4","last_reported":1773782844,"current_range_meters":2800,"station_id":"cpo36qri1sfpv3e86is0","pricing_plan_id":"cebpf4jnsgd1na2vs0mg"},{"bike_id":"e8db0a3c-5ae3-4f3d-a1be-8fd486421ac9","system_id":"levelo_inurba_marseille","lat":43.29538,"lon":5.38555,"is_reserved":false,"is_disabled":false,"rental_uris":{"android":"levelo://app?vid=e8db0a3c-5ae3-4f3d-a1be-8fd486421ac9","ios":"levelo://app?vid=e8db0a3c-5ae3-4f3d-a1be-8fd486421ac9"},"vehicle_type_id":"4","last_reported":1773782844,"current_range_meters":2800,"station_id":"ce4bgih2rcd13ifvqba0","pricing_plan_id":"cebpf4jnsgd1na2vs0mg"},{"bike_id":"ba660dae-40dc-42cc-9dd4-38c62514347b","system_id":"levelo_inurba_marseille","lat":43.23802,"lon":5.36627,"is_reserved":false,"is_disabled":false,"rental_uris":{"android":"levelo://app?vid=ba660dae-40dc-42cc-9dd4-38c62514347b","ios":"levelo://app?vid=ba660dae-40dc-42cc-9dd4-38c62514347b"},"vehicle_type_id":"4","last_reported":1773782844,"current_range_meters":2800,"station_id":"st_d3nk18o9ro0c73en2l3g","pricing_plan_id":"cebpf4jnsgd1na2vs0mg"},{"bike_id":"de9272f4-17e3-4156-942a-56570de453fb","system_id":"levelo_inurba_marseille","lat":43.26566,"lon":5.39013,"is_reserved":false,"is_disabled":false,"rental_uris":{"android":"levelo://app?vid=de9272f4-17e3-4156-942a-56570de453fb","ios":"levelo://app?vid=de9272f4-17e3-4156-942a-56570de453fb"},"vehicle_type_id":"4","last_reported":1773782844,"current_range_meters":2800,"station_id":"ce4bhe12rcd13ifvqf30","pricing_plan_id":"cebpf4jnsgd1na2vs0mg"},{"bike_id":"06601fe6-7e75-4b1b-8ebc-99db5c5bc65f","system_id":"levelo_inurba_marseille","lat":43.30047,"lon":5.37832,"is_reserved":false,"is_disabled":false,"rental_uris":{"android":"levelo://app?vid=06601fe6-7e75-4b1b-8ebc-99db5c5bc65f","ios":"levelo://app?vid=06601fe6-7e75-4b1b-8ebc-99db5c5bc65f"},"vehicle_type_id":"4","last_reported":1773782844,"current_range_meters":2800,"station_id":"","pricing_plan_id":"cebpf4jnsgd1na2vs0mg"},{"bike_id":"ecb2777e-bfa4-4bd5-8fba-2eff803023e4","system_id":"levelo_inurba_marseille","lat":43.28397,"lon":5.37504,"is_reserved":false,"is_disabled":false,"rental_uris":{"android":"levelo://app?vid=ecb2777e-bfa4-4bd5-8fba-2eff803023e4","ios":"levelo://app?vid=ecb2777e-bfa4-4bd5-8fba-2eff803023e4"},"vehicle_type_id":"4","last_reported":1773782844,"current_range_meters":2800,"station_id":"ce4bh412rcd13ifvqds0","pricing_plan_id":"cebpf4jnsgd1na2vs0mg"},{"bike_id":"8be39cc8-f960-4e83-a50a-77058fece699","system_id":"levelo_inurba_marseille","lat":43.28444,"lon":5.39221,"is_reserved":false,"is_disabled":false,"rental_uris":{"android":"levelo://app?vid=8be39cc8-f960-4e83-a50a-77058fece699","ios":"levelo://app?vid=8be39cc8-f960-4e83-a50a-77058fece699"},"vehicle_type_id":"4","last_reported":1773782844,"current_range_meters":2800,"station_id":"ce4bhoh2rcd13ifvqh5g","pricing_plan_id":"cebpf4jnsgd1na2vs0mg"},{"bike_id":"ad461d59-3952-4e29-afa1-ccd3ad758a93","system_id":"levelo_inurba_marseille","lat":43.28477,"lon":5.38442,"is_reserved":false,"is_disabled":false,"rental_uris":{"android":"levelo://app?vid=ad461d59-3952-4e29-afa1-ccd3ad758a93","ios":"levelo://app?vid=ad461d59-3952-4e29-afa1-ccd3ad758a93"},"vehicle_type_id":"4","last_reported":1773782844,"current_range_meters":2800,"station_id":"ce4bh512rcd13ifvqe3g","pricing_plan_id":"cebpf4jnsgd1na2vs0mg"},{"bike_id":"963f0a96-4b4f-40e1-a6e6-9f2d21eb0b8e","system_id":"levelo_inurba_marseille","lat":43.22924,"lon":5.35373,"is_reserved":false,"is_disabled":false,"rental_uris":{"android":"levelo://app?vid=963f0a96-4b4f-40e1-a6e6-9f2d21eb0b8e","ios":"levelo://app?vid=963f0a96-4b4f-40e1-a6e6-9f2d21eb0b8e"},"vehicle_type_id":"4","last_reported":1773782844,"current_range_meters":2800,"station_id":"cpo3532slgdg3j2ikp40","pricing_plan_id":"cebpf4jnsgd1na2vs0mg"},{"bike_id":"550c6f48-64d4-43bc-a0e4-444a1f8184af","system_id":"levelo_inurba_marseille","lat":43.21763,"lon":5.3461,"is_reserved":false,"is_disabled":false,"rental_uris":{"android":"levelo://app?vid=550c6f48-64d4-43bc-a0e4-444a1f8184af","ios":"levelo://app?vid=550c6f48-64d4-43bc-a0e4-444a1f8184af"},"vehicle_type_id":"4","last_reported":1773782844,"current_range_meters":2800,"station_id":"st_cvj6r9ubvosntc0bgbag","pricing_plan_id":"cebpf4jnsgd1na2vs0mg"},{"bike_id":"6d13c320-95a0-45b1-822b-d3d1dac724de","system_id":"levelo_inurba_marseille","lat":43.29021,"lon":5.38633,"is_reserved":false,"is_disabled":false,"rental_uris":{"android":"levelo://app?vid=6d13c320-95a0-45b1-822b-d3d1dac724de","ios":"levelo://app?vid=6d13c320-95a0-45b1-822b-d3d1dac724de"},"vehicle_type_id":"4","last_reported":1773782844,"current_range_meters":2800,"station_id":"ce4bh4p2rcd13ifvqe0g","pricing_plan_id":"cebpf4jnsgd1na2vs0mg"},{"bike_id":"7a9d73de-2380-493c-8aac-f7476422b0ab","system_id":"levelo_inurba_marseille","lat":43.2843,"lon":5.39193,"is_reserved":false,"is_disabled":false,"rental_uris":{"android":"levelo://app?vid=7a9d73de-2380-493c-8aac-f7476422b0ab","ios":"levelo://app?vid=7a9d73de-2380-493c-8aac-f7476422b0ab"},"vehicle_type_id":"4","last_reported":1773782844,"current_range_meters":3200,"station_id":"ce4bhoh2rcd13ifvqh5g","pricing_plan_id":"cebpf4jnsgd1na2vs0mg"},{"bike_id":"9b6a8144-95f4-4632-bcc2-5dcb99c6f5c4","system_id":"levelo_inurba_marseille","lat":43.29182,"lon":5.38835,"is_reserved":false,"is_disabled":false,"rental_uris":{"android":"levelo://app?vid=9b6a8144-95f4-4632-bcc2-5dcb99c6f5c4","ios":"levelo://app?vid=9b6a8144-95f4-4632-bcc2-5dcb99c6f5c4"},"vehicle_type_id":"4","last_reported":1773782844,"current_range_meters":3200,"station_id":"","pricing_plan_id":"cebpf4jnsgd1na2vs0mg"},{"bike_id":"7fee35ce-b86d-49fe-8ff4-ee25d80239c7","system_id":"levelo_inurba_marseille","lat":43.28445,"lon":5.35873,"is_reserved":false,"is_disabled":false,"rental_uris":{"android":"levelo://app?vid=7fee35ce-b86d-49fe-8ff4-ee25d80239c7","ios":"levelo://app?vid=7fee35ce-b86d-49fe-8ff4-ee25d80239c7"},"vehicle_type_id":"4","last_reported":1773782844,"current_range_meters":3200,"station_id":"ce4bhah2rcd13ifvqei0","pricing_plan_id":"cebpf4jnsgd1na2vs0mg"},{"bike_id":"0f53d472-bee4-40de-8ab2-7656a789b4f7","system_id":"levelo_inurba_marseille","lat":43.22549,"lon":5.34935,"is_reserved":false,"is_disabled":false,"rental_uris":{"android":"levelo://app?vid=0f53d472-bee4-40de-8ab2-7656a789b4f7","ios":"levelo://app?vid=0f53d472-bee4-40de-8ab2-7656a789b4f7"},"vehicle_type_id":"4","last_reported":1773782844,"current_range_meters":3200,"station_id":"","pricing_plan_id":"cebpf4jnsgd1na2vs0mg"},{"bike_id":"89f6044f-7e57-49f5-8263-c2e55e117b58","system_id":"levelo_inurba_marseille","lat":43.27819,"lon":5.40718,"is_reserved":false,"is_disabled":false,"rental_uris":{"android":"levelo://app?vid=89f6044f-7e57-49f5-8263-c2e55e117b58","ios":"levelo://app?vid=89f6044f-7e57-49f5-8263-c2e55e117b58"},"vehicle_type_id":"4","last_reported":1773782844,"current_range_meters":3200,"station_id":"ce4bhnh2rcd13ifvqgtg","pricing_plan_id":"cebpf4jnsgd1na2vs0mg"},{"bike_id":"136e19d8-4441-48b6-92a5-e128c8c01ed2","system_id":"levelo_inurba_marseille","lat":43.28524,"lon":5.42947,"is_reserved":false,"is_disabled":false,"rental_uris":{"android":"levelo://app?vid=136e19d8-4441-48b6-92a5-e128c8c01ed2","ios":"levelo://app?vid=136e19d8-4441-48b6-92a5-e128c8c01ed2"},"vehicle_type_id":"4","last_reported":1773782844,"current_range_meters":3200,"station_id":"","pricing_plan_id":"cebpf4jnsgd1na2vs0mg"},{"bike_id":"57264616-87ca-45a0-8f45-a447d5327bb3","system_id":"levelo_inurba_marseille","lat":43.29005,"lon":5.38143,"is_reserved":false,"is_disabled":false,"rental_uris":{"android":"levelo://app?vid=57264616-87ca-45a0-8f45-a447d5327bb3","ios":"levelo://app?vid=57264616-87ca-45a0-8f45-a447d5327bb3"},"vehicle_type_id":"4","last_reported":1773782844,"current_range_meters":3200,"station_id":"ce4bh4p2rcd13ifvqe1g","pricing_plan_id":"cebpf4jnsgd1na2vs0mg"},{"bike_id":"6e469e16-801e-4eab-bb77-305ff36b2b06","system_id":"levelo_inurba_marseille","lat":43.31327,"lon":5.39687,"is_reserved":false,"is_disabled":false,"rental_uris":{"android":"levelo://app?vid=6e469e16-801e-4eab-bb77-305ff36b2b06","ios":"levelo://app?vid=6e469e16-801e-4eab-bb77-305ff36b2b06"},"vehicle_type_id":"4","last_reported":1773782844,"current_range_meters":3200,"station_id":"ce4bgvp2rcd13ifvqcu0","pricing_plan_id":"cebpf4jnsgd1na2vs0mg"},{"bike_id":"44f735ae-e2e5-45f6-865f-eeafcc3120b5","system_id":"levelo_inurba_marseille","lat":43.24073,"lon":5.3776,"is_reserved":false,"is_disabled":false,"rental_uris":{"android":"levelo://app?vid=44f735ae-e2e5-45f6-865f-eeafcc3120b5","ios":"levelo://app?vid=44f735ae-e2e5-45f6-865f-eeafcc3120b5"},"vehicle_type_id":"4","last_reported":1773782844,"current_range_meters":3200,"station_id":"ce4bhnp2rcd13ifvqgvg","pricing_plan_id":"cebpf4jnsgd1na2vs0mg"},{"bike_id":"c689c5db-592c-47e9-a293-c7e9eb6b0cc4","system_id":"levelo_inurba_marseille","lat":43.30483,"lon":5.39011,"is_reserved":false,"is_disabled":false,"rental_uris":{"android":"levelo://app?vid=c689c5db-592c-47e9-a293-c7e9eb6b0cc4","ios":"levelo://app?vid=c689c5db-592c-47e9-a293-c7e9eb6b0cc4"},"vehicle_type_id":"4","last_reported":1773782844,"current_range_meters":3200,"station_id":"","pricing_plan_id":"cebpf4jnsgd1na2vs0mg"},{"bike_id":"8e1dfafb-6a2c-4e04-9255-bbac0a558e7f","system_id":"levelo_inurba_marseille","lat":43.24051,"lon":5.37776,"is_reserved":false,"is_disabled":false,"rental_uris":{"android":"levelo://app?vid=8e1dfafb-6a2c-4e04-9255-bbac0a558e7f","ios":"levelo://app?vid=8e1dfafb-6a2c-4e04-9255-bbac0a558e7f"},"vehicle_type_id":"4","last_reported":1773782844,"current_range_meters":3200,"station_id":"ce4bhnp2rcd13ifvqgvg","pricing_plan_id":"cebpf4jnsgd1na2vs0mg"},{"bike_id":"fb22ab39-4722-4e5e-938b-dc20094c7233","system_id":"levelo_inurba_marseille","lat":43.21177,"lon":5.35091,"is_reserved":false,"is_disabled":false,"rental_uris":{"android":"levelo://app?vid=fb22ab39-4722-4e5e-938b-dc20094c7233","ios":"levelo://app?vid=fb22ab39-4722-4e5e-938b-dc20094c7233"},"vehicle_type_id":"4","last_reported":1773782844,"current_range_meters":3200,"station_id":"st_cvj6sg6p6f1abm77japg","pricing_plan_id":"cebpf4jnsgd1na2vs0mg"},{"bike_id":"25be817e-1134-4708-a37c-4378c1d913fa","system_id":"levelo_inurba_marseille","lat":43.29005,"lon":5.38636,"is_reserved":false,"is_disabled":false,"rental_uris":{"android":"levelo://app?vid=25be817e-1134-4708-a37c-4378c1d913fa","ios":"levelo://app?vid=25be817e-1134-4708-a37c-4378c1d913fa"},"vehicle_type_id":"4","last_reported":1773782844,"current_range_meters":3200,"station_id":"ce4bh4p2rcd13ifvqe0g","pricing_plan_id":"cebpf4jnsgd1na2vs0mg"},{"bike_id":"36671e40-c5fb-4fc2-9481-a6bb206a5c77","system_id":"levelo_inurba_marseille","lat":43.30875,"lon":5.39634,"is_reserved":false,"is_disabled":false,"rental_uris":{"android":"levelo://app?vid=36671e40-c5fb-4fc2-9481-a6bb206a5c77","ios":"levelo://app?vid=36671e40-c5fb-4fc2-9481-a6bb206a5c77"},"vehicle_type_id":"4","last_reported":1773782844,"current_range_meters":3200,"station_id":"ce4bh012rcd13ifvqcv0","pricing_plan_id":"cebpf4jnsgd1na2vs0mg"},{"bike_id":"d06b1804-70fd-40ad-8edd-a00949173812","system_id":"levelo_inurba_marseille","lat":43.2317,"lon":5.4,"is_reserved":false,"is_disabled":false,"rental_uris":{"android":"levelo://app?vid=d06b1804-70fd-40ad-8edd-a00949173812","ios":"levelo://app?vid=d06b1804-70fd-40ad-8edd-a00949173812"},"vehicle_type_id":"4","last_reported":1773782844,"current_range_meters":3200,"station_id":"ce4bhn12rcd13ifvqgqg","pricing_plan_id":"cebpf4jnsgd1na2vs0mg"},{"bike_id":"255e2668-c044-43c7-9ee3-83284eb52cfe","system_id":"levelo_inurba_marseille","lat":43.29728,"lon":5.3661,"is_reserved":false,"is_disabled":false,"rental_uris":{"android":"levelo://app?vid=255e2668-c044-43c7-9ee3-83284eb52cfe","ios":"levelo://app?vid=255e2668-c044-43c7-9ee3-83284eb52cfe"},"vehicle_type_id":"4","last_reported":1773782844,"current_range_meters":3200,"station_id":"ce4bgn12rcd13ifvqbt0","pricing_plan_id":"cebpf4jnsgd1na2vs0mg"},{"bike_id":"a103ffa7-fc0d-43c9-b4f9-49982aeb8701","system_id":"levelo_inurba_marseille","lat":43.30609,"lon":5.37214,"is_reserved":false,"is_disabled":false,"rental_uris":{"android":"levelo://app?vid=a103ffa7-fc0d-43c9-b4f9-49982aeb8701","ios":"levelo://app?vid=a103ffa7-fc0d-43c9-b4f9-49982aeb8701"},"vehicle_type_id":"4","last_reported":1773782844,"current_range_meters":3200,"station_id":"ce4bgqh2rcd13ifvqc4g","pricing_plan_id":"cebpf4jnsgd1na2vs0mg"},{"bike_id":"cace3d1d-1bca-4b13-a9d9-15d4fe451dee","system_id":"levelo_inurba_marseille","lat":43.24628,"lon":5.43164,"is_reserved":false,"is_disabled":false,"rental_uris":{"android":"levelo://app?vid=cace3d1d-1bca-4b13-a9d9-15d4fe451dee","ios":"levelo://app?vid=cace3d1d-1bca-4b13-a9d9-15d4fe451dee"},"vehicle_type_id":"4","last_reported":1773782844,"current_range_meters":3200,"station_id":"","pricing_plan_id":"cebpf4jnsgd1na2vs0mg"},{"bike_id":"4988e8b0-1eff-4446-b462-5b8c9027a577","system_id":"levelo_inurba_marseille","lat":43.31274,"lon":5.40171,"is_reserved":false,"is_disabled":false,"rental_uris":{"android":"levelo://app?vid=4988e8b0-1eff-4446-b462-5b8c9027a577","ios":"levelo://app?vid=4988e8b0-1eff-4446-b462-5b8c9027a577"},"vehicle_type_id":"4","last_reported":1773782844,"current_range_meters":3200,"station_id":"ce4bh092rcd13ifvqd30","pricing_plan_id":"cebpf4jnsgd1na2vs0mg"},{"bike_id":"3a4c5940-fb7b-4141-92ed-b93b9045a12f","system_id":"levelo_inurba_marseille","lat":43.29541,"lon":5.38561,"is_reserved":false,"is_disabled":false,"rental_uris":{"android":"levelo://app?vid=3a4c5940-fb7b-4141-92ed-b93b9045a12f","ios":"levelo://app?vid=3a4c5940-fb7b-4141-92ed-b93b9045a12f"},"vehicle_type_id":"4","last_reported":1773782844,"current_range_meters":3200,"station_id":"ce4bgih2rcd13ifvqba0","pricing_plan_id":"cebpf4jnsgd1na2vs0mg"},{"bike_id":"47d16e66-4ace-4814-a85a-ea33307113f6","system_id":"levelo_inurba_marseille","lat":43.2951,"lon":5.39406,"is_reserved":false,"is_disabled":false,"rental_uris":{"android":"levelo://app?vid=47d16e66-4ace-4814-a85a-ea33307113f6","ios":"levelo://app?vid=47d16e66-4ace-4814-a85a-ea33307113f6"},"vehicle_type_id":"4","last_reported":1773782844,"current_range_meters":3600,"station_id":"ce4bh292rcd13ifvqdf0","pricing_plan_id":"cebpf4jnsgd1na2vs0mg"},{"bike_id":"1a06880f-d956-4b24-af36-bd096fd8331b","system_id":"levelo_inurba_marseille","lat":43.3014,"lon":5.39875,"is_reserved":false,"is_disabled":false,"rental_uris":{"android":"levelo://app?vid=1a06880f-d956-4b24-af36-bd096fd8331b","ios":"levelo://app?vid=1a06880f-d956-4b24-af36-bd096fd8331b"},"vehicle_type_id":"4","last_reported":1773782844,"current_range_meters":3600,"station_id":"ce4bh0h2rcd13ifvqd40","pricing_plan_id":"cebpf4jnsgd1na2vs0mg"},{"bike_id":"5db3acbf-a67d-4809-8e60-f78bd88aad8f","system_id":"levelo_inurba_marseille","lat":43.24956,"lon":5.40503,"is_reserved":false,"is_disabled":false,"rental_uris":{"android":"levelo://app?vid=5db3acbf-a67d-4809-8e60-f78bd88aad8f","ios":"levelo://app?vid=5db3acbf-a67d-4809-8e60-f78bd88aad8f"},"vehicle_type_id":"4","last_reported":1773782844,"current_range_meters":3600,"station_id":"st_d2ngiaodas8pm72gd1h0","pricing_plan_id":"cebpf4jnsgd1na2vs0mg"},{"bike_id":"a5825b67-70c9-4265-8c64-85da9bd3f737","system_id":"levelo_inurba_marseille","lat":43.31358,"lon":5.38354,"is_reserved":false,"is_disabled":false,"rental_uris":{"android":"levelo://app?vid=a5825b67-70c9-4265-8c64-85da9bd3f737","ios":"levelo://app?vid=a5825b67-70c9-4265-8c64-85da9bd3f737"},"vehicle_type_id":"4","last_reported":1773782844,"current_range_meters":3600,"station_id":"","pricing_plan_id":"cebpf4jnsgd1na2vs0mg"},{"bike_id":"79d7e2d8-96ed-465e-b31b-1696801515fd","system_id":"levelo_inurba_marseille","lat":43.24171,"lon":5.36392,"is_reserved":false,"is_disabled":false,"rental_uris":{"android":"levelo://app?vid=79d7e2d8-96ed-465e-b31b-1696801515fd","ios":"levelo://app?vid=79d7e2d8-96ed-465e-b31b-1696801515fd"},"vehicle_type_id":"4","last_reported":1773782844,"current_range_meters":3600,"station_id":"cpo36qri1sfpv3e86is0","pricing_plan_id":"cebpf4jnsgd1na2vs0mg"},{"bike_id":"3e799d01-bc3b-4776-b695-faeeae742520","system_id":"levelo_inurba_marseille","lat":43.31173,"lon":5.38717,"is_reserved":false,"is_disabled":false,"rental_uris":{"android":"levelo://app?vid=3e799d01-bc3b-4776-b695-faeeae742520","ios":"levelo://app?vid=3e799d01-bc3b-4776-b695-faeeae742520"},"vehicle_type_id":"4","last_reported":1773782844,"current_range_meters":3600,"station_id":"ce4bgv12rcd13ifvqcp0","pricing_plan_id":"cebpf4jnsgd1na2vs0mg"},{"bike_id":"232b6ff7-2c3c-4ecc-9c1d-f042e0f1ff82","system_id":"levelo_inurba_marseille","lat":43.27998,"lon":5.40029,"is_reserved":false,"is_disabled":false,"rental_uris":{"android":"levelo://app?vid=232b6ff7-2c3c-4ecc-9c1d-f042e0f1ff82","ios":"levelo://app?vid=232b6ff7-2c3c-4ecc-9c1d-f042e0f1ff82"},"vehicle_type_id":"4","last_reported":1773782844,"current_range_meters":3600,"station_id":"ce4bho92rcd13ifvqh4g","pricing_plan_id":"cebpf4jnsgd1na2vs0mg"},{"bike_id":"83dbadf3-28ab-4490-bddc-afb3a95ebd06","system_id":"levelo_inurba_marseille","lat":43.3079,"lon":5.37643,"is_reserved":false,"is_disabled":false,"rental_uris":{"android":"levelo://app?vid=83dbadf3-28ab-4490-bddc-afb3a95ebd06","ios":"levelo://app?vid=83dbadf3-28ab-4490-bddc-afb3a95ebd06"},"vehicle_type_id":"4","last_reported":1773782844,"current_range_meters":3600,"station_id":"ce4bgv92rcd13ifvqcq0","pricing_plan_id":"cebpf4jnsgd1na2vs0mg"},{"bike_id":"902c2f9e-4de4-4bf6-9bc8-369118199ac8","system_id":"levelo_inurba_marseille","lat":43.28704,"lon":5.37387,"is_reserved":false,"is_disabled":false,"rental_uris":{"android":"levelo://app?vid=902c2f9e-4de4-4bf6-9bc8-369118199ac8","ios":"levelo://app?vid=902c2f9e-4de4-4bf6-9bc8-369118199ac8"},"vehicle_type_id":"4","last_reported":1773782844,"current_range_meters":3600,"station_id":"ce4bh3p2rcd13ifvqdq0","pricing_plan_id":"cebpf4jnsgd1na2vs0mg"},{"bike_id":"bb0e2138-e060-42b5-a506-af38d5003c0e","system_id":"levelo_inurba_marseille","lat":43.30883,"lon":5.39651,"is_reserved":false,"is_disabled":false,"rental_uris":{"android":"levelo://app?vid=bb0e2138-e060-42b5-a506-af38d5003c0e","ios":"levelo://app?vid=bb0e2138-e060-42b5-a506-af38d5003c0e"},"vehicle_type_id":"4","last_reported":1773782844,"current_range_meters":3600,"station_id":"ce4bh012rcd13ifvqcv0","pricing_plan_id":"cebpf4jnsgd1na2vs0mg"},{"bike_id":"fb552125-e0d7-4ca3-afe5-6fe2fd063780","system_id":"levelo_inurba_marseille","lat":43.28666,"lon":5.38657,"is_reserved":false,"is_disabled":false,"rental_uris":{"android":"levelo://app?vid=fb552125-e0d7-4ca3-afe5-6fe2fd063780","ios":"levelo://app?vid=fb552125-e0d7-4ca3-afe5-6fe2fd063780"},"vehicle_type_id":"4","last_reported":1773782844,"current_range_meters":3600,"station_id":"ce4bh492rcd13ifvqdug","pricing_plan_id":"cebpf4jnsgd1na2vs0mg"},{"bike_id":"04221791-5579-477c-b6e0-a5c07615d123","system_id":"levelo_inurba_marseille","lat":43.30788,"lon":5.38134,"is_reserved":false,"is_disabled":false,"rental_uris":{"android":"levelo://app?vid=04221791-5579-477c-b6e0-a5c07615d123","ios":"levelo://app?vid=04221791-5579-477c-b6e0-a5c07615d123"},"vehicle_type_id":"4","last_reported":1773782844,"current_range_meters":3600,"station_id":"ce4bgt12rcd13ifvqce0","pricing_plan_id":"cebpf4jnsgd1na2vs0mg"},{"bike_id":"7550da9b-51c7-4df9-a687-f9b1ce4ee619","system_id":"levelo_inurba_marseille","lat":43.29182,"lon":5.358,"is_reserved":false,"is_disabled":false,"rental_uris":{"android":"levelo://app?vid=7550da9b-51c7-4df9-a687-f9b1ce4ee619","ios":"levelo://app?vid=7550da9b-51c7-4df9-a687-f9b1ce4ee619"},"vehicle_type_id":"4","last_reported":1773782844,"current_range_meters":3600,"station_id":"ce4bhb12rcd13ifvqel0","pricing_plan_id":"cebpf4jnsgd1na2vs0mg"},{"bike_id":"a7cce97e-0266-4daa-8a7d-a607b893ac41","system_id":"levelo_inurba_marseille","lat":43.29301,"lon":5.37169,"is_reserved":false,"is_disabled":false,"rental_uris":{"android":"levelo://app?vid=a7cce97e-0266-4daa-8a7d-a607b893ac41","ios":"levelo://app?vid=a7cce97e-0266-4daa-8a7d-a607b893ac41"},"vehicle_type_id":"4","last_reported":1773782844,"current_range_meters":3600,"station_id":"ce4bgh92rcd13ifvqb40","pricing_plan_id":"cebpf4jnsgd1na2vs0mg"},{"bike_id":"c8c684d7-a426-4755-8bca-b9fcd79e0117","system_id":"levelo_inurba_marseille","lat":43.29782,"lon":5.39345,"is_reserved":false,"is_disabled":false,"rental_uris":{"android":"levelo://app?vid=c8c684d7-a426-4755-8bca-b9fcd79e0117","ios":"levelo://app?vid=c8c684d7-a426-4755-8bca-b9fcd79e0117"},"vehicle_type_id":"4","last_reported":1773782844,"current_range_meters":3600,"station_id":"chh1huq6cuj3fo74tm60","pricing_plan_id":"cebpf4jnsgd1na2vs0mg"},{"bike_id":"9bca5011-706b-4d29-81bb-d031e7b5c35e","system_id":"levelo_inurba_marseille","lat":43.3117,"lon":5.38748,"is_reserved":false,"is_disabled":false,"rental_uris":{"android":"levelo://app?vid=9bca5011-706b-4d29-81bb-d031e7b5c35e","ios":"levelo://app?vid=9bca5011-706b-4d29-81bb-d031e7b5c35e"},"vehicle_type_id":"4","last_reported":1773782844,"current_range_meters":3600,"station_id":"ce4bgv12rcd13ifvqcp0","pricing_plan_id":"cebpf4jnsgd1na2vs0mg"},{"bike_id":"29a54209-1805-4985-95a0-2df2873998c5","system_id":"levelo_inurba_marseille","lat":43.28411,"lon":5.34984,"is_reserved":false,"is_disabled":false,"rental_uris":{"android":"levelo://app?vid=29a54209-1805-4985-95a0-2df2873998c5","ios":"levelo://app?vid=29a54209-1805-4985-95a0-2df2873998c5"},"vehicle_type_id":"4","last_reported":1773782844,"current_range_meters":3600,"station_id":"ce4bhbh2rcd13ifvqepg","pricing_plan_id":"cebpf4jnsgd1na2vs0mg"},{"bike_id":"e6dadaf5-66ae-4c80-8431-b42678b207d2","system_id":"levelo_inurba_marseille","lat":43.28465,"lon":5.35864,"is_reserved":false,"is_disabled":false,"rental_uris":{"android":"levelo://app?vid=e6dadaf5-66ae-4c80-8431-b42678b207d2","ios":"levelo://app?vid=e6dadaf5-66ae-4c80-8431-b42678b207d2"},"vehicle_type_id":"4","last_reported":1773782844,"current_range_meters":3600,"station_id":"ce4bhah2rcd13ifvqei0","pricing_plan_id":"cebpf4jnsgd1na2vs0mg"},{"bike_id":"d383a635-5850-4a3a-a308-35a39af9f58c","system_id":"levelo_inurba_marseille","lat":43.28498,"lon":5.38564,"is_reserved":false,"is_disabled":false,"rental_uris":{"android":"levelo://app?vid=d383a635-5850-4a3a-a308-35a39af9f58c","ios":"levelo://app?vid=d383a635-5850-4a3a-a308-35a39af9f58c"},"vehicle_type_id":"4","last_reported":1773782844,"current_range_meters":3600,"station_id":"ce4bh8p2rcd13ifvqeb0","pricing_plan_id":"cebpf4jnsgd1na2vs0mg"},{"bike_id":"18f98a8b-c03e-4c31-a9b6-807ac49b4a98","system_id":"levelo_inurba_marseille","lat":43.29505,"lon":5.39397,"is_reserved":false,"is_disabled":false,"rental_uris":{"android":"levelo://app?vid=18f98a8b-c03e-4c31-a9b6-807ac49b4a98","ios":"levelo://app?vid=18f98a8b-c03e-4c31-a9b6-807ac49b4a98"},"vehicle_type_id":"4","last_reported":1773782844,"current_range_meters":3600,"station_id":"ce4bh292rcd13ifvqdf0","pricing_plan_id":"cebpf4jnsgd1na2vs0mg"},{"bike_id":"68047b7a-af0b-4683-a5e8-dc72ce95d234","system_id":"levelo_inurba_marseille","lat":43.33027,"lon":5.39046,"is_reserved":false,"is_disabled":false,"rental_uris":{"android":"levelo://app?vid=68047b7a-af0b-4683-a5e8-dc72ce95d234","ios":"levelo://app?vid=68047b7a-af0b-4683-a5e8-dc72ce95d234"},"vehicle_type_id":"4","last_reported":1773782844,"current_range_meters":3600,"station_id":"ce4bhr92rcd13ifvqhrg","pricing_plan_id":"cebpf4jnsgd1na2vs0mg"},{"bike_id":"652715fd-f3fd-4381-9f8e-80d0fdbff2b6","system_id":"levelo_inurba_marseille","lat":43.31324,"lon":5.39687,"is_reserved":false,"is_disabled":false,"rental_uris":{"android":"levelo://app?vid=652715fd-f3fd-4381-9f8e-80d0fdbff2b6","ios":"levelo://app?vid=652715fd-f3fd-4381-9f8e-80d0fdbff2b6"},"vehicle_type_id":"4","last_reported":1773782844,"current_range_meters":3600,"station_id":"ce4bgvp2rcd13ifvqcu0","pricing_plan_id":"cebpf4jnsgd1na2vs0mg"},{"bike_id":"1b962b4e-5dbf-4eb7-a2f0-d86e8fad59fa","system_id":"levelo_inurba_marseille","lat":43.31483,"lon":5.37314,"is_reserved":false,"is_disabled":false,"rental_uris":{"android":"levelo://app?vid=1b962b4e-5dbf-4eb7-a2f0-d86e8fad59fa","ios":"levelo://app?vid=1b962b4e-5dbf-4eb7-a2f0-d86e8fad59fa"},"vehicle_type_id":"4","last_reported":1773782844,"current_range_meters":3600,"station_id":"ce4bgt12rcd13ifvqcd0","pricing_plan_id":"cebpf4jnsgd1na2vs0mg"},{"bike_id":"464d46c4-c65b-4ebf-ac5c-3e1056acffce","system_id":"levelo_inurba_marseille","lat":43.29742,"lon":5.37028,"is_reserved":false,"is_disabled":false,"rental_uris":{"android":"levelo://app?vid=464d46c4-c65b-4ebf-ac5c-3e1056acffce","ios":"levelo://app?vid=464d46c4-c65b-4ebf-ac5c-3e1056acffce"},"vehicle_type_id":"4","last_reported":1773782844,"current_range_meters":3600,"station_id":"","pricing_plan_id":"cebpf4jnsgd1na2vs0mg"},{"bike_id":"fcc16676-bdcc-453d-943e-a6082336e83f","system_id":"levelo_inurba_marseille","lat":43.29798,"lon":5.44028,"is_reserved":false,"is_disabled":false,"rental_uris":{"android":"levelo://app?vid=fcc16676-bdcc-453d-943e-a6082336e83f","ios":"levelo://app?vid=fcc16676-bdcc-453d-943e-a6082336e83f"},"vehicle_type_id":"4","last_reported":1773782844,"current_range_meters":4000,"station_id":"st_d3jp68qikq2c7381ktn0","pricing_plan_id":"cebpf4jnsgd1na2vs0mg"},{"bike_id":"03fc9476-1e7a-47c9-a89b-ab8c5a9ef4f0","system_id":"levelo_inurba_marseille","lat":43.24807,"lon":5.37429,"is_reserved":false,"is_disabled":false,"rental_uris":{"android":"levelo://app?vid=03fc9476-1e7a-47c9-a89b-ab8c5a9ef4f0","ios":"levelo://app?vid=03fc9476-1e7a-47c9-a89b-ab8c5a9ef4f0"},"vehicle_type_id":"4","last_reported":1773782844,"current_range_meters":4000,"station_id":"ce4bhgh2rcd13ifvqfb0","pricing_plan_id":"cebpf4jnsgd1na2vs0mg"},{"bike_id":"69d2e5d2-aab9-4fc9-a42e-b520c7e8b4f1","system_id":"levelo_inurba_marseille","lat":43.23045,"lon":5.35492,"is_reserved":false,"is_disabled":false,"rental_uris":{"android":"levelo://app?vid=69d2e5d2-aab9-4fc9-a42e-b520c7e8b4f1","ios":"levelo://app?vid=69d2e5d2-aab9-4fc9-a42e-b520c7e8b4f1"},"vehicle_type_id":"4","last_reported":1773782844,"current_range_meters":4000,"station_id":"cpo3342slgdg3j2ifvpg","pricing_plan_id":"cebpf4jnsgd1na2vs0mg"},{"bike_id":"80e6734b-3764-4853-8c63-15cb07f7249f","system_id":"levelo_inurba_marseille","lat":43.29828,"lon":5.44067,"is_reserved":false,"is_disabled":false,"rental_uris":{"android":"levelo://app?vid=80e6734b-3764-4853-8c63-15cb07f7249f","ios":"levelo://app?vid=80e6734b-3764-4853-8c63-15cb07f7249f"},"vehicle_type_id":"4","last_reported":1773782844,"current_range_meters":4000,"station_id":"st_d3jp68qikq2c7381ktn0","pricing_plan_id":"cebpf4jnsgd1na2vs0mg"},{"bike_id":"8fd448dc-dc7c-417d-97c3-f57de3be53ac","system_id":"levelo_inurba_marseille","lat":43.28303,"lon":5.38139,"is_reserved":false,"is_disabled":false,"rental_uris":{"android":"levelo://app?vid=8fd448dc-dc7c-417d-97c3-f57de3be53ac","ios":"levelo://app?vid=8fd448dc-dc7c-417d-97c3-f57de3be53ac"},"vehicle_type_id":"4","last_reported":1773782844,"current_range_meters":4000,"station_id":"","pricing_plan_id":"cebpf4jnsgd1na2vs0mg"},{"bike_id":"b68ea69f-06b3-4331-8f20-70db396c090a","system_id":"levelo_inurba_marseille","lat":43.2952,"lon":5.39418,"is_reserved":false,"is_disabled":false,"rental_uris":{"android":"levelo://app?vid=b68ea69f-06b3-4331-8f20-70db396c090a","ios":"levelo://app?vid=b68ea69f-06b3-4331-8f20-70db396c090a"},"vehicle_type_id":"4","last_reported":1773782844,"current_range_meters":4000,"station_id":"ce4bh292rcd13ifvqdf0","pricing_plan_id":"cebpf4jnsgd1na2vs0mg"},{"bike_id":"38eba9af-987b-45b6-b3c0-f366153b6fd5","system_id":"levelo_inurba_marseille","lat":43.32006,"lon":5.38154,"is_reserved":false,"is_disabled":false,"rental_uris":{"android":"levelo://app?vid=38eba9af-987b-45b6-b3c0-f366153b6fd5","ios":"levelo://app?vid=38eba9af-987b-45b6-b3c0-f366153b6fd5"},"vehicle_type_id":"4","last_reported":1773782844,"current_range_meters":4000,"station_id":"ce4bhr12rcd13ifvqhpg","pricing_plan_id":"cebpf4jnsgd1na2vs0mg"},{"bike_id":"ca2786e6-5157-4ab3-8916-81d583d6acde","system_id":"levelo_inurba_marseille","lat":43.22952,"lon":5.35357,"is_reserved":false,"is_disabled":false,"rental_uris":{"android":"levelo://app?vid=ca2786e6-5157-4ab3-8916-81d583d6acde","ios":"levelo://app?vid=ca2786e6-5157-4ab3-8916-81d583d6acde"},"vehicle_type_id":"4","last_reported":1773782844,"current_range_meters":4000,"station_id":"cpo3532slgdg3j2ikp40","pricing_plan_id":"cebpf4jnsgd1na2vs0mg"},{"bike_id":"f52404f4-49e0-415f-b5b2-f416addddb9e","system_id":"levelo_inurba_marseille","lat":43.29268,"lon":5.38435,"is_reserved":false,"is_disabled":false,"rental_uris":{"android":"levelo://app?vid=f52404f4-49e0-415f-b5b2-f416addddb9e","ios":"levelo://app?vid=f52404f4-49e0-415f-b5b2-f416addddb9e"},"vehicle_type_id":"4","last_reported":1773782844,"current_range_meters":4000,"station_id":"ce4bh692rcd13ifvqea0","pricing_plan_id":"cebpf4jnsgd1na2vs0mg"},{"bike_id":"f7ecc266-1639-4063-a0fb-e173ee597dff","system_id":"levelo_inurba_marseille","lat":43.29494,"lon":5.3906,"is_reserved":false,"is_disabled":false,"rental_uris":{"android":"levelo://app?vid=f7ecc266-1639-4063-a0fb-e173ee597dff","ios":"levelo://app?vid=f7ecc266-1639-4063-a0fb-e173ee597dff"},"vehicle_type_id":"4","last_reported":1773782844,"current_range_meters":4000,"station_id":"ce4bh3p2rcd13ifvqdp0","pricing_plan_id":"cebpf4jnsgd1na2vs0mg"},{"bike_id":"e9035fc2-ef39-46bc-ae8c-0655c8dca1e0","system_id":"levelo_inurba_marseille","lat":43.29956,"lon":5.38471,"is_reserved":false,"is_disabled":false,"rental_uris":{"android":"levelo://app?vid=e9035fc2-ef39-46bc-ae8c-0655c8dca1e0","ios":"levelo://app?vid=e9035fc2-ef39-46bc-ae8c-0655c8dca1e0"},"vehicle_type_id":"4","last_reported":1773782844,"current_range_meters":4000,"station_id":"ce4bgj92rcd13ifvqbd0","pricing_plan_id":"cebpf4jnsgd1na2vs0mg"},{"bike_id":"11ff61a0-a636-48df-ba6b-194120ca29c3","system_id":"levelo_inurba_marseille","lat":43.29771,"lon":5.4274,"is_reserved":false,"is_disabled":false,"rental_uris":{"android":"levelo://app?vid=11ff61a0-a636-48df-ba6b-194120ca29c3","ios":"levelo://app?vid=11ff61a0-a636-48df-ba6b-194120ca29c3"},"vehicle_type_id":"4","last_reported":1773782844,"current_range_meters":4000,"station_id":"st_d3md5207bmas73dh9klg","pricing_plan_id":"cebpf4jnsgd1na2vs0mg"},{"bike_id":"45b3e7e5-61e2-4235-a8cd-38592e76ad4f","system_id":"levelo_inurba_marseille","lat":43.29553,"lon":5.39019,"is_reserved":false,"is_disabled":false,"rental_uris":{"android":"levelo://app?vid=45b3e7e5-61e2-4235-a8cd-38592e76ad4f","ios":"levelo://app?vid=45b3e7e5-61e2-4235-a8cd-38592e76ad4f"},"vehicle_type_id":"4","last_reported":1773782844,"current_range_meters":4000,"station_id":"ce4bh3p2rcd13ifvqdp0","pricing_plan_id":"cebpf4jnsgd1na2vs0mg"},{"bike_id":"96dac97a-0c76-4079-a74f-d3b50e0ff04c","system_id":"levelo_inurba_marseille","lat":43.21192,"lon":5.35075,"is_reserved":false,"is_disabled":false,"rental_uris":{"android":"levelo://app?vid=96dac97a-0c76-4079-a74f-d3b50e0ff04c","ios":"levelo://app?vid=96dac97a-0c76-4079-a74f-d3b50e0ff04c"},"vehicle_type_id":"4","last_reported":1773782844,"current_range_meters":4000,"station_id":"st_cvj6sg6p6f1abm77japg","pricing_plan_id":"cebpf4jnsgd1na2vs0mg"},{"bike_id":"09c1effa-8f56-424c-9acd-cfe74ffbb741","system_id":"levelo_inurba_marseille","lat":43.29225,"lon":5.39346,"is_reserved":false,"is_disabled":false,"rental_uris":{"android":"levelo://app?vid=09c1effa-8f56-424c-9acd-cfe74ffbb741","ios":"levelo://app?vid=09c1effa-8f56-424c-9acd-cfe74ffbb741"},"vehicle_type_id":"4","last_reported":1773782844,"current_range_meters":4000,"station_id":"ce4bh192rcd13ifvqdd0","pricing_plan_id":"cebpf4jnsgd1na2vs0mg"},{"bike_id":"33dcbdfa-683b-4c52-af37-99fbfa9fbbea","system_id":"levelo_inurba_marseille","lat":43.284867,"lon":5.38415,"is_reserved":false,"is_disabled":false,"rental_uris":{"android":"levelo://app?vid=33dcbdfa-683b-4c52-af37-99fbfa9fbbea","ios":"levelo://app?vid=33dcbdfa-683b-4c52-af37-99fbfa9fbbea"},"vehicle_type_id":"4","last_reported":1773782844,"current_range_meters":4000,"station_id":"ce4bh512rcd13ifvqe3g","pricing_plan_id":"cebpf4jnsgd1na2vs0mg"},{"bike_id":"b6bdaefa-878d-48c0-8e40-e4584d911860","system_id":"levelo_inurba_marseille","lat":43.2811,"lon":5.37848,"is_reserved":false,"is_disabled":false,"rental_uris":{"android":"levelo://app?vid=b6bdaefa-878d-48c0-8e40-e4584d911860","ios":"levelo://app?vid=b6bdaefa-878d-48c0-8e40-e4584d911860"},"vehicle_type_id":"4","last_reported":1773782844,"current_range_meters":4000,"station_id":"ce4bha12rcd13ifvqee0","pricing_plan_id":"cebpf4jnsgd1na2vs0mg"},{"bike_id":"7487decf-0d89-422a-9b2b-a8975ba0b40a","system_id":"levelo_inurba_marseille","lat":43.28429,"lon":5.39202,"is_reserved":false,"is_disabled":false,"rental_uris":{"android":"levelo://app?vid=7487decf-0d89-422a-9b2b-a8975ba0b40a","ios":"levelo://app?vid=7487decf-0d89-422a-9b2b-a8975ba0b40a"},"vehicle_type_id":"4","last_reported":1773782844,"current_range_meters":4000,"station_id":"ce4bhoh2rcd13ifvqh5g","pricing_plan_id":"cebpf4jnsgd1na2vs0mg"},{"bike_id":"9f642171-116f-4abe-84a7-946583a6049c","system_id":"levelo_inurba_marseille","lat":43.25002,"lon":5.38924,"is_reserved":false,"is_disabled":false,"rental_uris":{"android":"levelo://app?vid=9f642171-116f-4abe-84a7-946583a6049c","ios":"levelo://app?vid=9f642171-116f-4abe-84a7-946583a6049c"},"vehicle_type_id":"4","last_reported":1773782844,"current_range_meters":4000,"station_id":"ce4bhgp2rcd13ifvqfd0","pricing_plan_id":"cebpf4jnsgd1na2vs0mg"},{"bike_id":"2df048df-d180-4cdd-8c6c-8e45106d12df","system_id":"levelo_inurba_marseille","lat":43.21734,"lon":5.346,"is_reserved":false,"is_disabled":false,"rental_uris":{"android":"levelo://app?vid=2df048df-d180-4cdd-8c6c-8e45106d12df","ios":"levelo://app?vid=2df048df-d180-4cdd-8c6c-8e45106d12df"},"vehicle_type_id":"4","last_reported":1773782844,"current_range_meters":4000,"station_id":"st_cvj6r9ubvosntc0bgbag","pricing_plan_id":"cebpf4jnsgd1na2vs0mg"},{"bike_id":"3a0800f0-ed31-41b9-b778-37565d5dad94","system_id":"levelo_inurba_marseille","lat":43.30321,"lon":5.40445,"is_reserved":false,"is_disabled":false,"rental_uris":{"android":"levelo://app?vid=3a0800f0-ed31-41b9-b778-37565d5dad94","ios":"levelo://app?vid=3a0800f0-ed31-41b9-b778-37565d5dad94"},"vehicle_type_id":"4","last_reported":1773782844,"current_range_meters":4400,"station_id":"ce4bh012rcd13ifvqd10","pricing_plan_id":"cebpf4jnsgd1na2vs0mg"},{"bike_id":"b24db929-4275-44f4-9b3a-a040d34ba4b2","system_id":"levelo_inurba_marseille","lat":43.28709,"lon":5.36382,"is_reserved":false,"is_disabled":false,"rental_uris":{"android":"levelo://app?vid=b24db929-4275-44f4-9b3a-a040d34ba4b2","ios":"levelo://app?vid=b24db929-4275-44f4-9b3a-a040d34ba4b2"},"vehicle_type_id":"4","last_reported":1773782844,"current_range_meters":4400,"station_id":"","pricing_plan_id":"cebpf4jnsgd1na2vs0mg"},{"bike_id":"2308325c-0d1f-40b6-8813-c48c20aa4af8","system_id":"levelo_inurba_marseille","lat":43.22917,"lon":5.35394,"is_reserved":false,"is_disabled":false,"rental_uris":{"android":"levelo://app?vid=2308325c-0d1f-40b6-8813-c48c20aa4af8","ios":"levelo://app?vid=2308325c-0d1f-40b6-8813-c48c20aa4af8"},"vehicle_type_id":"4","last_reported":1773782844,"current_range_meters":4400,"station_id":"cpo3532slgdg3j2ikp40","pricing_plan_id":"cebpf4jnsgd1na2vs0mg"},{"bike_id":"55ad6576-3c79-4a6b-881b-323a7e8b70a1","system_id":"levelo_inurba_marseille","lat":43.24977,"lon":5.38959,"is_reserved":false,"is_disabled":false,"rental_uris":{"android":"levelo://app?vid=55ad6576-3c79-4a6b-881b-323a7e8b70a1","ios":"levelo://app?vid=55ad6576-3c79-4a6b-881b-323a7e8b70a1"},"vehicle_type_id":"4","last_reported":1773782844,"current_range_meters":4400,"station_id":"ce4bhgp2rcd13ifvqfd0","pricing_plan_id":"cebpf4jnsgd1na2vs0mg"},{"bike_id":"30e91dd9-b7d3-4172-af75-6a5ba4b242cb","system_id":"levelo_inurba_marseille","lat":43.29176,"lon":5.3932,"is_reserved":false,"is_disabled":false,"rental_uris":{"android":"levelo://app?vid=30e91dd9-b7d3-4172-af75-6a5ba4b242cb","ios":"levelo://app?vid=30e91dd9-b7d3-4172-af75-6a5ba4b242cb"},"vehicle_type_id":"4","last_reported":1773782844,"current_range_meters":4400,"station_id":"ce4bh192rcd13ifvqdd0","pricing_plan_id":"cebpf4jnsgd1na2vs0mg"},{"bike_id":"3e31868c-16f5-443c-b204-6671d1ea3f46","system_id":"levelo_inurba_marseille","lat":43.30117,"lon":5.3986,"is_reserved":false,"is_disabled":false,"rental_uris":{"android":"levelo://app?vid=3e31868c-16f5-443c-b204-6671d1ea3f46","ios":"levelo://app?vid=3e31868c-16f5-443c-b204-6671d1ea3f46"},"vehicle_type_id":"4","last_reported":1773782844,"current_range_meters":4400,"station_id":"ce4bh0h2rcd13ifvqd40","pricing_plan_id":"cebpf4jnsgd1na2vs0mg"},{"bike_id":"3ee20e24-ce5b-4d2b-a227-79f9d22e4d4c","system_id":"levelo_inurba_marseille","lat":43.31162,"lon":5.3873,"is_reserved":false,"is_disabled":false,"rental_uris":{"android":"levelo://app?vid=3ee20e24-ce5b-4d2b-a227-79f9d22e4d4c","ios":"levelo://app?vid=3ee20e24-ce5b-4d2b-a227-79f9d22e4d4c"},"vehicle_type_id":"4","last_reported":1773782844,"current_range_meters":4400,"station_id":"ce4bgv12rcd13ifvqcp0","pricing_plan_id":"cebpf4jnsgd1na2vs0mg"},{"bike_id":"bca8eef2-ef7f-439c-b224-1b9bc2637db5","system_id":"levelo_inurba_marseille","lat":43.29903,"lon":5.38442,"is_reserved":false,"is_disabled":false,"rental_uris":{"android":"levelo://app?vid=bca8eef2-ef7f-439c-b224-1b9bc2637db5","ios":"levelo://app?vid=bca8eef2-ef7f-439c-b224-1b9bc2637db5"},"vehicle_type_id":"4","last_reported":1773782844,"current_range_meters":4400,"station_id":"","pricing_plan_id":"cebpf4jnsgd1na2vs0mg"},{"bike_id":"fc47abe7-cfea-4603-9b16-e89f62a15b75","system_id":"levelo_inurba_marseille","lat":43.29971,"lon":5.38491,"is_reserved":false,"is_disabled":true,"rental_uris":{"android":"levelo://app?vid=fc47abe7-cfea-4603-9b16-e89f62a15b75","ios":"levelo://app?vid=fc47abe7-cfea-4603-9b16-e89f62a15b75"},"vehicle_type_id":"4","last_reported":1773782844,"current_range_meters":4400,"station_id":"ce4bgj92rcd13ifvqbd0","pricing_plan_id":"cebpf4jnsgd1na2vs0mg"},{"bike_id":"431e85d1-4fea-4dbe-ad19-b9eae39a6993","system_id":"levelo_inurba_marseille","lat":43.30799,"lon":5.38152,"is_reserved":false,"is_disabled":false,"rental_uris":{"android":"levelo://app?vid=431e85d1-4fea-4dbe-ad19-b9eae39a6993","ios":"levelo://app?vid=431e85d1-4fea-4dbe-ad19-b9eae39a6993"},"vehicle_type_id":"4","last_reported":1773782844,"current_range_meters":4400,"station_id":"ce4bgt12rcd13ifvqce0","pricing_plan_id":"cebpf4jnsgd1na2vs0mg"},{"bike_id":"880f606a-acb1-494d-8d28-ce6b12c4f2e1","system_id":"levelo_inurba_marseille","lat":43.29779,"lon":5.36569,"is_reserved":false,"is_disabled":false,"rental_uris":{"android":"levelo://app?vid=880f606a-acb1-494d-8d28-ce6b12c4f2e1","ios":"levelo://app?vid=880f606a-acb1-494d-8d28-ce6b12c4f2e1"},"vehicle_type_id":"4","last_reported":1773782844,"current_range_meters":4400,"station_id":"","pricing_plan_id":"cebpf4jnsgd1na2vs0mg"},{"bike_id":"88858f89-fe21-45f8-acbb-9ce67472ddb3","system_id":"levelo_inurba_marseille","lat":43.22924,"lon":5.35382,"is_reserved":false,"is_disabled":false,"rental_uris":{"android":"levelo://app?vid=88858f89-fe21-45f8-acbb-9ce67472ddb3","ios":"levelo://app?vid=88858f89-fe21-45f8-acbb-9ce67472ddb3"},"vehicle_type_id":"4","last_reported":1773782844,"current_range_meters":4400,"station_id":"cpo3532slgdg3j2ikp40","pricing_plan_id":"cebpf4jnsgd1na2vs0mg"},{"bike_id":"036d36b8-2123-4d03-b978-184c097cec12","system_id":"levelo_inurba_marseille","lat":43.29034,"lon":5.35924,"is_reserved":false,"is_disabled":false,"rental_uris":{"android":"levelo://app?vid=036d36b8-2123-4d03-b978-184c097cec12","ios":"levelo://app?vid=036d36b8-2123-4d03-b978-184c097cec12"},"vehicle_type_id":"4","last_reported":1773782844,"current_range_meters":4400,"station_id":"ce4bha92rcd13ifvqeg0","pricing_plan_id":"cebpf4jnsgd1na2vs0mg"},{"bike_id":"824da76a-4f36-46fb-bef5-95d812b4dd83","system_id":"levelo_inurba_marseille","lat":43.29545,"lon":5.39057,"is_reserved":false,"is_disabled":false,"rental_uris":{"android":"levelo://app?vid=824da76a-4f36-46fb-bef5-95d812b4dd83","ios":"levelo://app?vid=824da76a-4f36-46fb-bef5-95d812b4dd83"},"vehicle_type_id":"4","last_reported":1773782844,"current_range_meters":4400,"station_id":"ce4bh3p2rcd13ifvqdp0","pricing_plan_id":"cebpf4jnsgd1na2vs0mg"},{"bike_id":"b3e3399c-3837-42b8-afac-39674642005e","system_id":"levelo_inurba_marseille","lat":43.29727,"lon":5.42718,"is_reserved":false,"is_disabled":false,"rental_uris":{"android":"levelo://app?vid=b3e3399c-3837-42b8-afac-39674642005e","ios":"levelo://app?vid=b3e3399c-3837-42b8-afac-39674642005e"},"vehicle_type_id":"4","last_reported":1773782844,"current_range_meters":4400,"station_id":"","pricing_plan_id":"cebpf4jnsgd1na2vs0mg"},{"bike_id":"da15407c-b052-4cba-96e5-d14b28dc9cbe","system_id":"levelo_inurba_marseille","lat":43.28383,"lon":5.37553,"is_reserved":false,"is_disabled":false,"rental_uris":{"android":"levelo://app?vid=da15407c-b052-4cba-96e5-d14b28dc9cbe","ios":"levelo://app?vid=da15407c-b052-4cba-96e5-d14b28dc9cbe"},"vehicle_type_id":"4","last_reported":1773782844,"current_range_meters":4400,"station_id":"ce4bh412rcd13ifvqds0","pricing_plan_id":"cebpf4jnsgd1na2vs0mg"},{"bike_id":"a5e47dd5-709e-4cb1-ae5e-d9b5a3f23a3b","system_id":"levelo_inurba_marseille","lat":43.29306,"lon":5.37174,"is_reserved":false,"is_disabled":false,"rental_uris":{"android":"levelo://app?vid=a5e47dd5-709e-4cb1-ae5e-d9b5a3f23a3b","ios":"levelo://app?vid=a5e47dd5-709e-4cb1-ae5e-d9b5a3f23a3b"},"vehicle_type_id":"4","last_reported":1773782844,"current_range_meters":4400,"station_id":"ce4bgh92rcd13ifvqb40","pricing_plan_id":"cebpf4jnsgd1na2vs0mg"},{"bike_id":"ab590e8d-a6c9-4d54-a5ce-91ca13a2c118","system_id":"levelo_inurba_marseille","lat":43.29802,"lon":5.39337,"is_reserved":false,"is_disabled":false,"rental_uris":{"android":"levelo://app?vid=ab590e8d-a6c9-4d54-a5ce-91ca13a2c118","ios":"levelo://app?vid=ab590e8d-a6c9-4d54-a5ce-91ca13a2c118"},"vehicle_type_id":"4","last_reported":1773782844,"current_range_meters":4400,"station_id":"chh1huq6cuj3fo74tm60","pricing_plan_id":"cebpf4jnsgd1na2vs0mg"},{"bike_id":"feaf2e83-6bc7-46d3-b8dc-e52b9fc8cf3e","system_id":"levelo_inurba_marseille","lat":43.22561,"lon":5.41637,"is_reserved":false,"is_disabled":false,"rental_uris":{"android":"levelo://app?vid=feaf2e83-6bc7-46d3-b8dc-e52b9fc8cf3e","ios":"levelo://app?vid=feaf2e83-6bc7-46d3-b8dc-e52b9fc8cf3e"},"vehicle_type_id":"4","last_reported":1773782844,"current_range_meters":4800,"station_id":"st_d2o4gvlbi1j2169b742g","pricing_plan_id":"cebpf4jnsgd1na2vs0mg"},{"bike_id":"f4380cc6-e1bf-40c0-a6c3-4f05e5f6a82d","system_id":"levelo_inurba_marseille","lat":43.30329,"lon":5.40439,"is_reserved":false,"is_disabled":false,"rental_uris":{"android":"levelo://app?vid=f4380cc6-e1bf-40c0-a6c3-4f05e5f6a82d","ios":"levelo://app?vid=f4380cc6-e1bf-40c0-a6c3-4f05e5f6a82d"},"vehicle_type_id":"4","last_reported":1773782844,"current_range_meters":4800,"station_id":"ce4bh012rcd13ifvqd10","pricing_plan_id":"cebpf4jnsgd1na2vs0mg"},{"bike_id":"07b2a149-dcbc-4081-ae8c-4b0d91f479bb","system_id":"levelo_inurba_marseille","lat":43.30129,"lon":5.39873,"is_reserved":false,"is_disabled":false,"rental_uris":{"android":"levelo://app?vid=07b2a149-dcbc-4081-ae8c-4b0d91f479bb","ios":"levelo://app?vid=07b2a149-dcbc-4081-ae8c-4b0d91f479bb"},"vehicle_type_id":"4","last_reported":1773782844,"current_range_meters":4800,"station_id":"ce4bh0h2rcd13ifvqd40","pricing_plan_id":"cebpf4jnsgd1na2vs0mg"},{"bike_id":"03812eec-b185-465c-8c48-7984e651c3d0","system_id":"levelo_inurba_marseille","lat":43.33032,"lon":5.39039,"is_reserved":false,"is_disabled":false,"rental_uris":{"android":"levelo://app?vid=03812eec-b185-465c-8c48-7984e651c3d0","ios":"levelo://app?vid=03812eec-b185-465c-8c48-7984e651c3d0"},"vehicle_type_id":"4","last_reported":1773782844,"current_range_meters":4800,"station_id":"ce4bhr92rcd13ifvqhrg","pricing_plan_id":"cebpf4jnsgd1na2vs0mg"},{"bike_id":"d99d7032-2858-4183-bf28-a7f23544bbaa","system_id":"levelo_inurba_marseille","lat":43.31713,"lon":5.42407,"is_reserved":false,"is_disabled":false,"rental_uris":{"android":"levelo://app?vid=d99d7032-2858-4183-bf28-a7f23544bbaa","ios":"levelo://app?vid=d99d7032-2858-4183-bf28-a7f23544bbaa"},"vehicle_type_id":"4","last_reported":1773782844,"current_range_meters":4800,"station_id":"ce4bhp92rcd13ifvqhbg","pricing_plan_id":"cebpf4jnsgd1na2vs0mg"},{"bike_id":"ac1081df-d523-4740-b43b-63e0a1a216cd","system_id":"levelo_inurba_marseille","lat":43.29535,"lon":5.39399,"is_reserved":false,"is_disabled":false,"rental_uris":{"android":"levelo://app?vid=ac1081df-d523-4740-b43b-63e0a1a216cd","ios":"levelo://app?vid=ac1081df-d523-4740-b43b-63e0a1a216cd"},"vehicle_type_id":"4","last_reported":1773782844,"current_range_meters":4800,"station_id":"ce4bh292rcd13ifvqdf0","pricing_plan_id":"cebpf4jnsgd1na2vs0mg"},{"bike_id":"4331183c-b3d2-472f-a3b5-2958171fa0b7","system_id":"levelo_inurba_marseille","lat":43.29687,"lon":5.38241,"is_reserved":false,"is_disabled":false,"rental_uris":{"android":"levelo://app?vid=4331183c-b3d2-472f-a3b5-2958171fa0b7","ios":"levelo://app?vid=4331183c-b3d2-472f-a3b5-2958171fa0b7"},"vehicle_type_id":"4","last_reported":1773782844,"current_range_meters":4800,"station_id":"","pricing_plan_id":"cebpf4jnsgd1na2vs0mg"},{"bike_id":"2a394174-fa6b-4212-913a-1ddaad9b7087","system_id":"levelo_inurba_marseille","lat":43.22918,"lon":5.35385,"is_reserved":false,"is_disabled":false,"rental_uris":{"android":"levelo://app?vid=2a394174-fa6b-4212-913a-1ddaad9b7087","ios":"levelo://app?vid=2a394174-fa6b-4212-913a-1ddaad9b7087"},"vehicle_type_id":"4","last_reported":1773782844,"current_range_meters":4800,"station_id":"cpo3532slgdg3j2ikp40","pricing_plan_id":"cebpf4jnsgd1na2vs0mg"},{"bike_id":"d6f4fcc9-529e-44c9-8ab1-66a46ec0a2d7","system_id":"levelo_inurba_marseille","lat":43.29658,"lon":5.37461,"is_reserved":false,"is_disabled":false,"rental_uris":{"android":"levelo://app?vid=d6f4fcc9-529e-44c9-8ab1-66a46ec0a2d7","ios":"levelo://app?vid=d6f4fcc9-529e-44c9-8ab1-66a46ec0a2d7"},"vehicle_type_id":"4","last_reported":1773782844,"current_range_meters":4800,"station_id":"","pricing_plan_id":"cebpf4jnsgd1na2vs0mg"},{"bike_id":"8fd49321-6401-4fc8-8878-58eb4a3e3da3","system_id":"levelo_inurba_marseille","lat":43.30141,"lon":5.39864,"is_reserved":false,"is_disabled":false,"rental_uris":{"android":"levelo://app?vid=8fd49321-6401-4fc8-8878-58eb4a3e3da3","ios":"levelo://app?vid=8fd49321-6401-4fc8-8878-58eb4a3e3da3"},"vehicle_type_id":"4","last_reported":1773782844,"current_range_meters":4800,"station_id":"ce4bh0h2rcd13ifvqd40","pricing_plan_id":"cebpf4jnsgd1na2vs0mg"},{"bike_id":"825611e0-923b-4202-baff-3bfea98badb9","system_id":"levelo_inurba_marseille","lat":43.29027,"lon":5.3865,"is_reserved":false,"is_disabled":false,"rental_uris":{"android":"levelo://app?vid=825611e0-923b-4202-baff-3bfea98badb9","ios":"levelo://app?vid=825611e0-923b-4202-baff-3bfea98badb9"},"vehicle_type_id":"4","last_reported":1773782844,"current_range_meters":4800,"station_id":"ce4bh4p2rcd13ifvqe0g","pricing_plan_id":"cebpf4jnsgd1na2vs0mg"},{"bike_id":"dc33a33b-693b-408a-8296-40c638246513","system_id":"levelo_inurba_marseille","lat":43.29539,"lon":5.38537,"is_reserved":false,"is_disabled":false,"rental_uris":{"android":"levelo://app?vid=dc33a33b-693b-408a-8296-40c638246513","ios":"levelo://app?vid=dc33a33b-693b-408a-8296-40c638246513"},"vehicle_type_id":"4","last_reported":1773782844,"current_range_meters":4800,"station_id":"ce4bgih2rcd13ifvqba0","pricing_plan_id":"cebpf4jnsgd1na2vs0mg"},{"bike_id":"491a35c9-0af9-416f-b413-658a88aa8d21","system_id":"levelo_inurba_marseille","lat":43.31708,"lon":5.37731,"is_reserved":false,"is_disabled":false,"rental_uris":{"android":"levelo://app?vid=491a35c9-0af9-416f-b413-658a88aa8d21","ios":"levelo://app?vid=491a35c9-0af9-416f-b413-658a88aa8d21"},"vehicle_type_id":"4","last_reported":1773782844,"current_range_meters":4800,"station_id":"ce4bgth2rcd13ifvqch0","pricing_plan_id":"cebpf4jnsgd1na2vs0mg"},{"bike_id":"e7518c60-1015-42b4-9c82-ed42cde86d2d","system_id":"levelo_inurba_marseille","lat":43.2985,"lon":5.3971,"is_reserved":false,"is_disabled":false,"rental_uris":{"android":"levelo://app?vid=e7518c60-1015-42b4-9c82-ed42cde86d2d","ios":"levelo://app?vid=e7518c60-1015-42b4-9c82-ed42cde86d2d"},"vehicle_type_id":"4","last_reported":1773782844,"current_range_meters":4800,"station_id":"ce4bh0h2rcd13ifvqd50","pricing_plan_id":"cebpf4jnsgd1na2vs0mg"},{"bike_id":"6143b1cb-332a-47ea-b076-e3f92c1d984d","system_id":"levelo_inurba_marseille","lat":43.2871,"lon":5.37422,"is_reserved":false,"is_disabled":false,"rental_uris":{"android":"levelo://app?vid=6143b1cb-332a-47ea-b076-e3f92c1d984d","ios":"levelo://app?vid=6143b1cb-332a-47ea-b076-e3f92c1d984d"},"vehicle_type_id":"4","last_reported":1773782844,"current_range_meters":4800,"station_id":"ce4bh3p2rcd13ifvqdq0","pricing_plan_id":"cebpf4jnsgd1na2vs0mg"},{"bike_id":"0329e7d3-140c-492b-b1cc-46c2ce34aeb3","system_id":"levelo_inurba_marseille","lat":43.30212,"lon":5.39475,"is_reserved":false,"is_disabled":false,"rental_uris":{"android":"levelo://app?vid=0329e7d3-140c-492b-b1cc-46c2ce34aeb3","ios":"levelo://app?vid=0329e7d3-140c-492b-b1cc-46c2ce34aeb3"},"vehicle_type_id":"4","last_reported":1773782844,"current_range_meters":4800,"station_id":"ce4bh0p2rcd13ifvqd70","pricing_plan_id":"cebpf4jnsgd1na2vs0mg"},{"bike_id":"36bcefea-1744-478b-a4f4-a282d99e8251","system_id":"levelo_inurba_marseille","lat":43.24536,"lon":5.39539,"is_reserved":false,"is_disabled":true,"rental_uris":{"android":"levelo://app?vid=36bcefea-1744-478b-a4f4-a282d99e8251","ios":"levelo://app?vid=36bcefea-1744-478b-a4f4-a282d99e8251"},"vehicle_type_id":"4","last_reported":1773782844,"current_range_meters":4800,"station_id":"ce4bhlp2rcd13ifvqgjg","pricing_plan_id":"cebpf4jnsgd1na2vs0mg"},{"bike_id":"4edc1e69-f919-4c2f-a6b8-66257e87a54f","system_id":"levelo_inurba_marseille","lat":43.28449,"lon":5.48412,"is_reserved":false,"is_disabled":false,"rental_uris":{"android":"levelo://app?vid=4edc1e69-f919-4c2f-a6b8-66257e87a54f","ios":"levelo://app?vid=4edc1e69-f919-4c2f-a6b8-66257e87a54f"},"vehicle_type_id":"4","last_reported":1773782844,"current_range_meters":4800,"station_id":"","pricing_plan_id":"cebpf4jnsgd1na2vs0mg"},{"bike_id":"e4b515b3-5a64-4f24-8a63-3407e3500a15","system_id":"levelo_inurba_marseille","lat":43.24321,"lon":5.40228,"is_reserved":false,"is_disabled":false,"rental_uris":{"android":"levelo://app?vid=e4b515b3-5a64-4f24-8a63-3407e3500a15","ios":"levelo://app?vid=e4b515b3-5a64-4f24-8a63-3407e3500a15"},"vehicle_type_id":"4","last_reported":1773782844,"current_range_meters":4800,"station_id":"","pricing_plan_id":"cebpf4jnsgd1na2vs0mg"},{"bike_id":"a2128824-b012-4ddb-8435-e1a19640083a","system_id":"levelo_inurba_marseille","lat":43.24658,"lon":5.38165,"is_reserved":false,"is_disabled":false,"rental_uris":{"android":"levelo://app?vid=a2128824-b012-4ddb-8435-e1a19640083a","ios":"levelo://app?vid=a2128824-b012-4ddb-8435-e1a19640083a"},"vehicle_type_id":"4","last_reported":1773782844,"current_range_meters":4800,"station_id":"ce4bhih2rcd13ifvqfr0","pricing_plan_id":"cebpf4jnsgd1na2vs0mg"},{"bike_id":"f1b31b50-7346-4060-bd16-c8e322c0ce29","system_id":"levelo_inurba_marseille","lat":43.29275,"lon":5.40131,"is_reserved":false,"is_disabled":false,"rental_uris":{"android":"levelo://app?vid=f1b31b50-7346-4060-bd16-c8e322c0ce29","ios":"levelo://app?vid=f1b31b50-7346-4060-bd16-c8e322c0ce29"},"vehicle_type_id":"4","last_reported":1773782844,"current_range_meters":4800,"station_id":"ce4bh312rcd13ifvqdk0","pricing_plan_id":"cebpf4jnsgd1na2vs0mg"},{"bike_id":"58eb4a9a-0b11-4eb9-b165-20c7c2dfd08b","system_id":"levelo_inurba_marseille","lat":43.30301,"lon":5.39206,"is_reserved":false,"is_disabled":false,"rental_uris":{"android":"levelo://app?vid=58eb4a9a-0b11-4eb9-b165-20c7c2dfd08b","ios":"levelo://app?vid=58eb4a9a-0b11-4eb9-b165-20c7c2dfd08b"},"vehicle_type_id":"4","last_reported":1773782844,"current_range_meters":5600,"station_id":"ce4bgkh2rcd13ifvqbk0","pricing_plan_id":"cebpf4jnsgd1na2vs0mg"},{"bike_id":"43d3bab4-9d1f-40c9-a425-27ad2540b012","system_id":"levelo_inurba_marseille","lat":43.28636,"lon":5.38681,"is_reserved":false,"is_disabled":false,"rental_uris":{"android":"levelo://app?vid=43d3bab4-9d1f-40c9-a425-27ad2540b012","ios":"levelo://app?vid=43d3bab4-9d1f-40c9-a425-27ad2540b012"},"vehicle_type_id":"4","last_reported":1773782844,"current_range_meters":5600,"station_id":"ce4bh492rcd13ifvqdug","pricing_plan_id":"cebpf4jnsgd1na2vs0mg"},{"bike_id":"01a3571c-e8a5-4291-abe2-290bb44b75ab","system_id":"levelo_inurba_marseille","lat":43.29666,"lon":5.38707,"is_reserved":false,"is_disabled":false,"rental_uris":{"android":"levelo://app?vid=01a3571c-e8a5-4291-abe2-290bb44b75ab","ios":"levelo://app?vid=01a3571c-e8a5-4291-abe2-290bb44b75ab"},"vehicle_type_id":"4","last_reported":1773782844,"current_range_meters":5600,"station_id":"","pricing_plan_id":"cebpf4jnsgd1na2vs0mg"},{"bike_id":"3aa3d11b-ad41-4898-aa7f-dcaaf47f06cb","system_id":"levelo_inurba_marseille","lat":43.33536,"lon":5.37468,"is_reserved":false,"is_disabled":false,"rental_uris":{"android":"levelo://app?vid=3aa3d11b-ad41-4898-aa7f-dcaaf47f06cb","ios":"levelo://app?vid=3aa3d11b-ad41-4898-aa7f-dcaaf47f06cb"},"vehicle_type_id":"4","last_reported":1773782844,"current_range_meters":5600,"station_id":"st_d46tts09ee8s73dlu43g","pricing_plan_id":"cebpf4jnsgd1na2vs0mg"},{"bike_id":"74b8b5d0-586c-4a88-b891-f5dc5b242cb3","system_id":"levelo_inurba_marseille","lat":43.29203,"lon":5.39341,"is_reserved":false,"is_disabled":false,"rental_uris":{"android":"levelo://app?vid=74b8b5d0-586c-4a88-b891-f5dc5b242cb3","ios":"levelo://app?vid=74b8b5d0-586c-4a88-b891-f5dc5b242cb3"},"vehicle_type_id":"4","last_reported":1773782844,"current_range_meters":5600,"station_id":"ce4bh192rcd13ifvqdd0","pricing_plan_id":"cebpf4jnsgd1na2vs0mg"},{"bike_id":"c84865df-58a0-485a-b466-02fb26eb4ff0","system_id":"levelo_inurba_marseille","lat":43.23193,"lon":5.35542,"is_reserved":false,"is_disabled":false,"rental_uris":{"android":"levelo://app?vid=c84865df-58a0-485a-b466-02fb26eb4ff0","ios":"levelo://app?vid=c84865df-58a0-485a-b466-02fb26eb4ff0"},"vehicle_type_id":"4","last_reported":1773782844,"current_range_meters":5600,"station_id":"ce4bhu92rcd13ifvqi70","pricing_plan_id":"cebpf4jnsgd1na2vs0mg"},{"bike_id":"141798c6-b33f-46b1-a681-bc0576000feb","system_id":"levelo_inurba_marseille","lat":43.29025,"lon":5.38637,"is_reserved":false,"is_disabled":false,"rental_uris":{"android":"levelo://app?vid=141798c6-b33f-46b1-a681-bc0576000feb","ios":"levelo://app?vid=141798c6-b33f-46b1-a681-bc0576000feb"},"vehicle_type_id":"4","last_reported":1773782844,"current_range_meters":5600,"station_id":"ce4bh4p2rcd13ifvqe0g","pricing_plan_id":"cebpf4jnsgd1na2vs0mg"},{"bike_id":"e5efebc9-358f-4282-a7c0-029d88835777","system_id":"levelo_inurba_marseille","lat":43.28321,"lon":5.38122,"is_reserved":false,"is_disabled":false,"rental_uris":{"android":"levelo://app?vid=e5efebc9-358f-4282-a7c0-029d88835777","ios":"levelo://app?vid=e5efebc9-358f-4282-a7c0-029d88835777"},"vehicle_type_id":"4","last_reported":1773782844,"current_range_meters":5600,"station_id":"ce4bh412rcd13ifvqdr0","pricing_plan_id":"cebpf4jnsgd1na2vs0mg"},{"bike_id":"aaccfe46-aedb-4040-9206-77b4f3016901","system_id":"levelo_inurba_marseille","lat":43.29887,"lon":5.38901,"is_reserved":false,"is_disabled":false,"rental_uris":{"android":"levelo://app?vid=aaccfe46-aedb-4040-9206-77b4f3016901","ios":"levelo://app?vid=aaccfe46-aedb-4040-9206-77b4f3016901"},"vehicle_type_id":"4","last_reported":1773782844,"current_range_meters":5600,"station_id":"ce4bh392rcd13ifvqdl0","pricing_plan_id":"cebpf4jnsgd1na2vs0mg"},{"bike_id":"a5d276a3-3d3f-48e3-9e83-c8484aa57750","system_id":"levelo_inurba_marseille","lat":43.28362,"lon":5.38627,"is_reserved":false,"is_disabled":false,"rental_uris":{"android":"levelo://app?vid=a5d276a3-3d3f-48e3-9e83-c8484aa57750","ios":"levelo://app?vid=a5d276a3-3d3f-48e3-9e83-c8484aa57750"},"vehicle_type_id":"4","last_reported":1773782844,"current_range_meters":5600,"station_id":"ce4bh492rcd13ifvqdvg","pricing_plan_id":"cebpf4jnsgd1na2vs0mg"},{"bike_id":"a3815369-41fb-4241-887d-a16e43493bd5","system_id":"levelo_inurba_marseille","lat":43.30638,"lon":5.40097,"is_reserved":false,"is_disabled":false,"rental_uris":{"android":"levelo://app?vid=a3815369-41fb-4241-887d-a16e43493bd5","ios":"levelo://app?vid=a3815369-41fb-4241-887d-a16e43493bd5"},"vehicle_type_id":"4","last_reported":1773782844,"current_range_meters":5600,"station_id":"ce4bh112rcd13ifvqda0","pricing_plan_id":"cebpf4jnsgd1na2vs0mg"},{"bike_id":"7c245f6b-63fb-4c36-8493-afb8fd5288f8","system_id":"levelo_inurba_marseille","lat":43.31191,"lon":5.39055,"is_reserved":false,"is_disabled":false,"rental_uris":{"android":"levelo://app?vid=7c245f6b-63fb-4c36-8493-afb8fd5288f8","ios":"levelo://app?vid=7c245f6b-63fb-4c36-8493-afb8fd5288f8"},"vehicle_type_id":"4","last_reported":1773782844,"current_range_meters":5600,"station_id":"","pricing_plan_id":"cebpf4jnsgd1na2vs0mg"},{"bike_id":"f6c860f4-9c2e-4a13-b509-50fb1709859b","system_id":"levelo_inurba_marseille","lat":43.21165,"lon":5.35069,"is_reserved":false,"is_disabled":false,"rental_uris":{"android":"levelo://app?vid=f6c860f4-9c2e-4a13-b509-50fb1709859b","ios":"levelo://app?vid=f6c860f4-9c2e-4a13-b509-50fb1709859b"},"vehicle_type_id":"4","last_reported":1773782844,"current_range_meters":6000,"station_id":"st_cvj6sg6p6f1abm77japg","pricing_plan_id":"cebpf4jnsgd1na2vs0mg"},{"bike_id":"02069907-22a3-4b54-8d6a-4533b0f28256","system_id":"levelo_inurba_marseille","lat":43.30576,"lon":5.3725,"is_reserved":false,"is_disabled":false,"rental_uris":{"android":"levelo://app?vid=02069907-22a3-4b54-8d6a-4533b0f28256","ios":"levelo://app?vid=02069907-22a3-4b54-8d6a-4533b0f28256"},"vehicle_type_id":"4","last_reported":1773782844,"current_range_meters":6000,"station_id":"ce4bgqh2rcd13ifvqc4g","pricing_plan_id":"cebpf4jnsgd1na2vs0mg"},{"bike_id":"e2f59dc4-6b6d-4944-b537-ab39a47a3ac2","system_id":"levelo_inurba_marseille","lat":43.29814,"lon":5.39326,"is_reserved":false,"is_disabled":false,"rental_uris":{"android":"levelo://app?vid=e2f59dc4-6b6d-4944-b537-ab39a47a3ac2","ios":"levelo://app?vid=e2f59dc4-6b6d-4944-b537-ab39a47a3ac2"},"vehicle_type_id":"4","last_reported":1773782844,"current_range_meters":6000,"station_id":"chh1huq6cuj3fo74tm60","pricing_plan_id":"cebpf4jnsgd1na2vs0mg"},{"bike_id":"57f59ea7-9661-484b-ab62-8930e39b76a3","system_id":"levelo_inurba_marseille","lat":43.238,"lon":5.36613,"is_reserved":false,"is_disabled":false,"rental_uris":{"android":"levelo://app?vid=57f59ea7-9661-484b-ab62-8930e39b76a3","ios":"levelo://app?vid=57f59ea7-9661-484b-ab62-8930e39b76a3"},"vehicle_type_id":"4","last_reported":1773782844,"current_range_meters":6000,"station_id":"st_d3nk18o9ro0c73en2l3g","pricing_plan_id":"cebpf4jnsgd1na2vs0mg"},{"bike_id":"4eeecf6d-6108-42a0-b77f-fc0c0b55b73c","system_id":"levelo_inurba_marseille","lat":43.29937,"lon":5.37444,"is_reserved":false,"is_disabled":true,"rental_uris":{"android":"levelo://app?vid=4eeecf6d-6108-42a0-b77f-fc0c0b55b73c","ios":"levelo://app?vid=4eeecf6d-6108-42a0-b77f-fc0c0b55b73c"},"vehicle_type_id":"4","last_reported":1773782844,"current_range_meters":6000,"station_id":"ce4bgjh2rcd13ifvqbg0","pricing_plan_id":"cebpf4jnsgd1na2vs0mg"},{"bike_id":"58df6535-2746-4ca5-8ec4-a2736cc7519f","system_id":"levelo_inurba_marseille","lat":43.21183,"lon":5.35068,"is_reserved":false,"is_disabled":false,"rental_uris":{"android":"levelo://app?vid=58df6535-2746-4ca5-8ec4-a2736cc7519f","ios":"levelo://app?vid=58df6535-2746-4ca5-8ec4-a2736cc7519f"},"vehicle_type_id":"4","last_reported":1773782844,"current_range_meters":6000,"station_id":"st_cvj6sg6p6f1abm77japg","pricing_plan_id":"cebpf4jnsgd1na2vs0mg"},{"bike_id":"9581202a-9f0b-4e3d-8ba8-487d1612fe8d","system_id":"levelo_inurba_marseille","lat":43.29915,"lon":5.37937,"is_reserved":false,"is_disabled":false,"rental_uris":{"android":"levelo://app?vid=9581202a-9f0b-4e3d-8ba8-487d1612fe8d","ios":"levelo://app?vid=9581202a-9f0b-4e3d-8ba8-487d1612fe8d"},"vehicle_type_id":"4","last_reported":1773782844,"current_range_meters":6000,"station_id":"","pricing_plan_id":"cebpf4jnsgd1na2vs0mg"},{"bike_id":"a650f10d-9ab2-42e1-a1ec-b23d66310508","system_id":"levelo_inurba_marseille","lat":43.27351,"lon":5.42396,"is_reserved":false,"is_disabled":true,"rental_uris":{"android":"levelo://app?vid=a650f10d-9ab2-42e1-a1ec-b23d66310508","ios":"levelo://app?vid=a650f10d-9ab2-42e1-a1ec-b23d66310508"},"vehicle_type_id":"4","last_reported":1773782844,"current_range_meters":6000,"station_id":"","pricing_plan_id":"cebpf4jnsgd1na2vs0mg"},{"bike_id":"8f9fb6c5-515a-4134-b8b7-8ef7c569799d","system_id":"levelo_inurba_marseille","lat":43.27994,"lon":5.4001,"is_reserved":false,"is_disabled":false,"rental_uris":{"android":"levelo://app?vid=8f9fb6c5-515a-4134-b8b7-8ef7c569799d","ios":"levelo://app?vid=8f9fb6c5-515a-4134-b8b7-8ef7c569799d"},"vehicle_type_id":"4","last_reported":1773782844,"current_range_meters":6000,"station_id":"ce4bho92rcd13ifvqh4g","pricing_plan_id":"cebpf4jnsgd1na2vs0mg"},{"bike_id":"c23e78c1-b52f-46b2-8f14-0efe3b06f55f","system_id":"levelo_inurba_marseille","lat":43.28706,"lon":5.37425,"is_reserved":false,"is_disabled":false,"rental_uris":{"android":"levelo://app?vid=c23e78c1-b52f-46b2-8f14-0efe3b06f55f","ios":"levelo://app?vid=c23e78c1-b52f-46b2-8f14-0efe3b06f55f"},"vehicle_type_id":"4","last_reported":1773782844,"current_range_meters":6000,"station_id":"ce4bh3p2rcd13ifvqdq0","pricing_plan_id":"cebpf4jnsgd1na2vs0mg"},{"bike_id":"5fb3367a-3f54-4644-b869-3b2e4fa4bcf1","system_id":"levelo_inurba_marseille","lat":43.29033,"lon":5.3865,"is_reserved":false,"is_disabled":false,"rental_uris":{"android":"levelo://app?vid=5fb3367a-3f54-4644-b869-3b2e4fa4bcf1","ios":"levelo://app?vid=5fb3367a-3f54-4644-b869-3b2e4fa4bcf1"},"vehicle_type_id":"4","last_reported":1773782844,"current_range_meters":6000,"station_id":"ce4bh4p2rcd13ifvqe0g","pricing_plan_id":"cebpf4jnsgd1na2vs0mg"},{"bike_id":"23caabbc-f147-44b5-9c9f-661c0c3bc87f","system_id":"levelo_inurba_marseille","lat":43.30142,"lon":5.39858,"is_reserved":false,"is_disabled":false,"rental_uris":{"android":"levelo://app?vid=23caabbc-f147-44b5-9c9f-661c0c3bc87f","ios":"levelo://app?vid=23caabbc-f147-44b5-9c9f-661c0c3bc87f"},"vehicle_type_id":"4","last_reported":1773782844,"current_range_meters":6000,"station_id":"ce4bh0h2rcd13ifvqd40","pricing_plan_id":"cebpf4jnsgd1na2vs0mg"},{"bike_id":"7488e19d-d9b7-454f-90f3-1b4a81993d8a","system_id":"levelo_inurba_marseille","lat":43.29193,"lon":5.3932,"is_reserved":false,"is_disabled":false,"rental_uris":{"android":"levelo://app?vid=7488e19d-d9b7-454f-90f3-1b4a81993d8a","ios":"levelo://app?vid=7488e19d-d9b7-454f-90f3-1b4a81993d8a"},"vehicle_type_id":"4","last_reported":1773782844,"current_range_meters":6000,"station_id":"ce4bh192rcd13ifvqdd0","pricing_plan_id":"cebpf4jnsgd1na2vs0mg"},{"bike_id":"66306e08-d883-479c-9bea-b29d77f64f8b","system_id":"levelo_inurba_marseille","lat":43.28993,"lon":5.38573,"is_reserved":false,"is_disabled":false,"rental_uris":{"android":"levelo://app?vid=66306e08-d883-479c-9bea-b29d77f64f8b","ios":"levelo://app?vid=66306e08-d883-479c-9bea-b29d77f64f8b"},"vehicle_type_id":"4","last_reported":1773782844,"current_range_meters":6000,"station_id":"","pricing_plan_id":"cebpf4jnsgd1na2vs0mg"},{"bike_id":"5fe453e8-63f8-45b7-a117-7a751d4a202c","system_id":"levelo_inurba_marseille","lat":43.2294,"lon":5.35363,"is_reserved":false,"is_disabled":false,"rental_uris":{"android":"levelo://app?vid=5fe453e8-63f8-45b7-a117-7a751d4a202c","ios":"levelo://app?vid=5fe453e8-63f8-45b7-a117-7a751d4a202c"},"vehicle_type_id":"4","last_reported":1773782844,"current_range_meters":6000,"station_id":"cpo3532slgdg3j2ikp40","pricing_plan_id":"cebpf4jnsgd1na2vs0mg"},{"bike_id":"a0c5c5f8-8fc8-49f2-af86-114516413325","system_id":"levelo_inurba_marseille","lat":43.32099,"lon":5.36766,"is_reserved":false,"is_disabled":false,"rental_uris":{"android":"levelo://app?vid=a0c5c5f8-8fc8-49f2-af86-114516413325","ios":"levelo://app?vid=a0c5c5f8-8fc8-49f2-af86-114516413325"},"vehicle_type_id":"4","last_reported":1773782844,"current_range_meters":6000,"station_id":"ce4bhrh2rcd13ifvqhug","pricing_plan_id":"cebpf4jnsgd1na2vs0mg"},{"bike_id":"ebd201db-6b0d-4b0b-afef-9306224c354d","system_id":"levelo_inurba_marseille","lat":43.29553,"lon":5.39007,"is_reserved":false,"is_disabled":true,"rental_uris":{"android":"levelo://app?vid=ebd201db-6b0d-4b0b-afef-9306224c354d","ios":"levelo://app?vid=ebd201db-6b0d-4b0b-afef-9306224c354d"},"vehicle_type_id":"4","last_reported":1773782844,"current_range_meters":6000,"station_id":"ce4bh3p2rcd13ifvqdp0","pricing_plan_id":"cebpf4jnsgd1na2vs0mg"},{"bike_id":"ec523bc2-ce78-41fa-a251-f713eed8673f","system_id":"levelo_inurba_marseille","lat":43.28092,"lon":5.37851,"is_reserved":false,"is_disabled":false,"rental_uris":{"android":"levelo://app?vid=ec523bc2-ce78-41fa-a251-f713eed8673f","ios":"levelo://app?vid=ec523bc2-ce78-41fa-a251-f713eed8673f"},"vehicle_type_id":"4","last_reported":1773782844,"current_range_meters":6000,"station_id":"ce4bha12rcd13ifvqee0","pricing_plan_id":"cebpf4jnsgd1na2vs0mg"},{"bike_id":"3b8f7844-cde3-4f5f-b664-fe420bcd9e4f","system_id":"levelo_inurba_marseille","lat":43.30882,"lon":5.39646,"is_reserved":false,"is_disabled":false,"rental_uris":{"android":"levelo://app?vid=3b8f7844-cde3-4f5f-b664-fe420bcd9e4f","ios":"levelo://app?vid=3b8f7844-cde3-4f5f-b664-fe420bcd9e4f"},"vehicle_type_id":"4","last_reported":1773782844,"current_range_meters":6000,"station_id":"ce4bh012rcd13ifvqcv0","pricing_plan_id":"cebpf4jnsgd1na2vs0mg"},{"bike_id":"34d11841-5fe4-4ca3-abe1-f37a08f0ed2d","system_id":"levelo_inurba_marseille","lat":43.25515,"lon":5.37681,"is_reserved":false,"is_disabled":false,"rental_uris":{"android":"levelo://app?vid=34d11841-5fe4-4ca3-abe1-f37a08f0ed2d","ios":"levelo://app?vid=34d11841-5fe4-4ca3-abe1-f37a08f0ed2d"},"vehicle_type_id":"4","last_reported":1773782844,"current_range_meters":6400,"station_id":"ce4bhh12rcd13ifvqff0","pricing_plan_id":"cebpf4jnsgd1na2vs0mg"},{"bike_id":"bfcc8fdd-63e4-4461-98fe-26f3cee9722d","system_id":"levelo_inurba_marseille","lat":43.27993,"lon":5.40009,"is_reserved":false,"is_disabled":false,"rental_uris":{"android":"levelo://app?vid=bfcc8fdd-63e4-4461-98fe-26f3cee9722d","ios":"levelo://app?vid=bfcc8fdd-63e4-4461-98fe-26f3cee9722d"},"vehicle_type_id":"4","last_reported":1773782844,"current_range_meters":6400,"station_id":"ce4bho92rcd13ifvqh4g","pricing_plan_id":"cebpf4jnsgd1na2vs0mg"},{"bike_id":"7bd419bf-7063-4648-840f-e4e63ac8cb30","system_id":"levelo_inurba_marseille","lat":43.27988,"lon":5.40017,"is_reserved":false,"is_disabled":true,"rental_uris":{"android":"levelo://app?vid=7bd419bf-7063-4648-840f-e4e63ac8cb30","ios":"levelo://app?vid=7bd419bf-7063-4648-840f-e4e63ac8cb30"},"vehicle_type_id":"4","last_reported":1773782844,"current_range_meters":6400,"station_id":"ce4bho92rcd13ifvqh4g","pricing_plan_id":"cebpf4jnsgd1na2vs0mg"},{"bike_id":"9f165d77-ec02-4a27-95b3-ea36b28adc99","system_id":"levelo_inurba_marseille","lat":43.28934,"lon":5.36652,"is_reserved":false,"is_disabled":false,"rental_uris":{"android":"levelo://app?vid=9f165d77-ec02-4a27-95b3-ea36b28adc99","ios":"levelo://app?vid=9f165d77-ec02-4a27-95b3-ea36b28adc99"},"vehicle_type_id":"4","last_reported":1773782844,"current_range_meters":6400,"station_id":"ce4bhap2rcd13ifvqek0","pricing_plan_id":"cebpf4jnsgd1na2vs0mg"},{"bike_id":"1d851264-6ba3-48c2-86f6-b84e8d5a0c62","system_id":"levelo_inurba_marseille","lat":43.29166,"lon":5.35804,"is_reserved":false,"is_disabled":true,"rental_uris":{"android":"levelo://app?vid=1d851264-6ba3-48c2-86f6-b84e8d5a0c62","ios":"levelo://app?vid=1d851264-6ba3-48c2-86f6-b84e8d5a0c62"},"vehicle_type_id":"4","last_reported":1773782844,"current_range_meters":6400,"station_id":"ce4bhb12rcd13ifvqel0","pricing_plan_id":"cebpf4jnsgd1na2vs0mg"},{"bike_id":"8afa82e0-443b-485e-812c-b0c0213ccf6b","system_id":"levelo_inurba_marseille","lat":43.29687,"lon":5.37672,"is_reserved":false,"is_disabled":true,"rental_uris":{"android":"levelo://app?vid=8afa82e0-443b-485e-812c-b0c0213ccf6b","ios":"levelo://app?vid=8afa82e0-443b-485e-812c-b0c0213ccf6b"},"vehicle_type_id":"4","last_reported":1773782844,"current_range_meters":6400,"station_id":"ce4bgkh2rcd13ifvqbl0","pricing_plan_id":"cebpf4jnsgd1na2vs0mg"},{"bike_id":"53336338-5141-44ec-bb59-6df2460b79a8","system_id":"levelo_inurba_marseille","lat":43.3021,"lon":5.39444,"is_reserved":false,"is_disabled":true,"rental_uris":{"android":"levelo://app?vid=53336338-5141-44ec-bb59-6df2460b79a8","ios":"levelo://app?vid=53336338-5141-44ec-bb59-6df2460b79a8"},"vehicle_type_id":"4","last_reported":1773782844,"current_range_meters":6400,"station_id":"ce4bh0p2rcd13ifvqd70","pricing_plan_id":"cebpf4jnsgd1na2vs0mg"},{"bike_id":"87f1ddcb-f488-4ce4-812b-62839b2f87a5","system_id":"levelo_inurba_marseille","lat":43.28418,"lon":5.38016,"is_reserved":false,"is_disabled":false,"rental_uris":{"android":"levelo://app?vid=87f1ddcb-f488-4ce4-812b-62839b2f87a5","ios":"levelo://app?vid=87f1ddcb-f488-4ce4-812b-62839b2f87a5"},"vehicle_type_id":"4","last_reported":1773782844,"current_range_meters":6400,"station_id":"","pricing_plan_id":"cebpf4jnsgd1na2vs0mg"},{"bike_id":"88dbdb16-ecaf-4ede-ba64-5046b576ddb1","system_id":"levelo_inurba_marseille","lat":43.29886,"lon":5.38912,"is_reserved":false,"is_disabled":false,"rental_uris":{"android":"levelo://app?vid=88dbdb16-ecaf-4ede-ba64-5046b576ddb1","ios":"levelo://app?vid=88dbdb16-ecaf-4ede-ba64-5046b576ddb1"},"vehicle_type_id":"4","last_reported":1773782844,"current_range_meters":6400,"station_id":"ce4bh392rcd13ifvqdl0","pricing_plan_id":"cebpf4jnsgd1na2vs0mg"},{"bike_id":"dc9d9411-d96a-454d-ab6e-ac2d0d91d96b","system_id":"levelo_inurba_marseille","lat":43.24817,"lon":5.37449,"is_reserved":false,"is_disabled":false,"rental_uris":{"android":"levelo://app?vid=dc9d9411-d96a-454d-ab6e-ac2d0d91d96b","ios":"levelo://app?vid=dc9d9411-d96a-454d-ab6e-ac2d0d91d96b"},"vehicle_type_id":"4","last_reported":1773782844,"current_range_meters":6400,"station_id":"ce4bhgh2rcd13ifvqfb0","pricing_plan_id":"cebpf4jnsgd1na2vs0mg"},{"bike_id":"7b53ad79-bc40-43ac-8de2-db7f5a581fb2","system_id":"levelo_inurba_marseille","lat":43.25708,"lon":5.41122,"is_reserved":false,"is_disabled":false,"rental_uris":{"android":"levelo://app?vid=7b53ad79-bc40-43ac-8de2-db7f5a581fb2","ios":"levelo://app?vid=7b53ad79-bc40-43ac-8de2-db7f5a581fb2"},"vehicle_type_id":"4","last_reported":1773782844,"current_range_meters":6400,"station_id":"ce4bhkp2rcd13ifvqgd0","pricing_plan_id":"cebpf4jnsgd1na2vs0mg"},{"bike_id":"4e4ba8f7-60dc-4959-9a01-6da668abb084","system_id":"levelo_inurba_marseille","lat":43.21189,"lon":5.35055,"is_reserved":false,"is_disabled":false,"rental_uris":{"android":"levelo://app?vid=4e4ba8f7-60dc-4959-9a01-6da668abb084","ios":"levelo://app?vid=4e4ba8f7-60dc-4959-9a01-6da668abb084"},"vehicle_type_id":"4","last_reported":1773782844,"current_range_meters":6400,"station_id":"st_cvj6sg6p6f1abm77japg","pricing_plan_id":"cebpf4jnsgd1na2vs0mg"},{"bike_id":"e0d6593a-0328-44a4-af3c-98c409d8dd20","system_id":"levelo_inurba_marseille","lat":43.29516,"lon":5.38669,"is_reserved":false,"is_disabled":false,"rental_uris":{"android":"levelo://app?vid=e0d6593a-0328-44a4-af3c-98c409d8dd20","ios":"levelo://app?vid=e0d6593a-0328-44a4-af3c-98c409d8dd20"},"vehicle_type_id":"4","last_reported":1773782844,"current_range_meters":6400,"station_id":"","pricing_plan_id":"cebpf4jnsgd1na2vs0mg"},{"bike_id":"c2e98a5d-53fe-4a80-8419-90b0be0d3ccd","system_id":"levelo_inurba_marseille","lat":43.29033,"lon":5.38622,"is_reserved":false,"is_disabled":false,"rental_uris":{"android":"levelo://app?vid=c2e98a5d-53fe-4a80-8419-90b0be0d3ccd","ios":"levelo://app?vid=c2e98a5d-53fe-4a80-8419-90b0be0d3ccd"},"vehicle_type_id":"4","last_reported":1773782844,"current_range_meters":6400,"station_id":"ce4bh4p2rcd13ifvqe0g","pricing_plan_id":"cebpf4jnsgd1na2vs0mg"},{"bike_id":"f6e98244-31f2-45f7-8549-66a2825166a4","system_id":"levelo_inurba_marseille","lat":43.31988,"lon":5.38161,"is_reserved":false,"is_disabled":false,"rental_uris":{"android":"levelo://app?vid=f6e98244-31f2-45f7-8549-66a2825166a4","ios":"levelo://app?vid=f6e98244-31f2-45f7-8549-66a2825166a4"},"vehicle_type_id":"4","last_reported":1773782844,"current_range_meters":6400,"station_id":"ce4bhr12rcd13ifvqhpg","pricing_plan_id":"cebpf4jnsgd1na2vs0mg"},{"bike_id":"9c14d8ed-f52c-4a3d-92f0-138966bd1a86","system_id":"levelo_inurba_marseille","lat":43.27993,"lon":5.3992,"is_reserved":false,"is_disabled":false,"rental_uris":{"android":"levelo://app?vid=9c14d8ed-f52c-4a3d-92f0-138966bd1a86","ios":"levelo://app?vid=9c14d8ed-f52c-4a3d-92f0-138966bd1a86"},"vehicle_type_id":"4","last_reported":1773782844,"current_range_meters":6400,"station_id":"","pricing_plan_id":"cebpf4jnsgd1na2vs0mg"},{"bike_id":"51d26f3c-b1ea-48f5-846f-ef57458c2065","system_id":"levelo_inurba_marseille","lat":43.29525,"lon":5.39043,"is_reserved":false,"is_disabled":false,"rental_uris":{"android":"levelo://app?vid=51d26f3c-b1ea-48f5-846f-ef57458c2065","ios":"levelo://app?vid=51d26f3c-b1ea-48f5-846f-ef57458c2065"},"vehicle_type_id":"4","last_reported":1773782844,"current_range_meters":6400,"station_id":"ce4bh3p2rcd13ifvqdp0","pricing_plan_id":"cebpf4jnsgd1na2vs0mg"},{"bike_id":"a94c43d9-0b31-467d-8924-49ba4857759f","system_id":"levelo_inurba_marseille","lat":43.29336,"lon":5.40214,"is_reserved":false,"is_disabled":false,"rental_uris":{"android":"levelo://app?vid=a94c43d9-0b31-467d-8924-49ba4857759f","ios":"levelo://app?vid=a94c43d9-0b31-467d-8924-49ba4857759f"},"vehicle_type_id":"4","last_reported":1773782844,"current_range_meters":6400,"station_id":"","pricing_plan_id":"cebpf4jnsgd1na2vs0mg"},{"bike_id":"a4456d89-d17c-400e-b5f6-bacb94ff5823","system_id":"levelo_inurba_marseille","lat":43.28161,"lon":5.42633,"is_reserved":false,"is_disabled":false,"rental_uris":{"android":"levelo://app?vid=a4456d89-d17c-400e-b5f6-bacb94ff5823","ios":"levelo://app?vid=a4456d89-d17c-400e-b5f6-bacb94ff5823"},"vehicle_type_id":"4","last_reported":1773782844,"current_range_meters":6800,"station_id":"ce4bhnh2rcd13ifvqgug","pricing_plan_id":"cebpf4jnsgd1na2vs0mg"},{"bike_id":"9fc44211-c662-4f66-9a1f-0c72040d8ccf","system_id":"levelo_inurba_marseille","lat":43.29523,"lon":5.39024,"is_reserved":false,"is_disabled":false,"rental_uris":{"android":"levelo://app?vid=9fc44211-c662-4f66-9a1f-0c72040d8ccf","ios":"levelo://app?vid=9fc44211-c662-4f66-9a1f-0c72040d8ccf"},"vehicle_type_id":"4","last_reported":1773782844,"current_range_meters":6800,"station_id":"ce4bh3p2rcd13ifvqdp0","pricing_plan_id":"cebpf4jnsgd1na2vs0mg"},{"bike_id":"7a73b128-6eb2-47bb-8ea6-432d8e929d53","system_id":"levelo_inurba_marseille","lat":43.2993,"lon":5.41334,"is_reserved":false,"is_disabled":false,"rental_uris":{"android":"levelo://app?vid=7a73b128-6eb2-47bb-8ea6-432d8e929d53","ios":"levelo://app?vid=7a73b128-6eb2-47bb-8ea6-432d8e929d53"},"vehicle_type_id":"4","last_reported":1773782844,"current_range_meters":6800,"station_id":"ce4bhp12rcd13ifvqh9g","pricing_plan_id":"cebpf4jnsgd1na2vs0mg"},{"bike_id":"fe12b3d7-6bf8-4025-b6cd-96298bb73495","system_id":"levelo_inurba_marseille","lat":43.31171,"lon":5.3872,"is_reserved":false,"is_disabled":false,"rental_uris":{"android":"levelo://app?vid=fe12b3d7-6bf8-4025-b6cd-96298bb73495","ios":"levelo://app?vid=fe12b3d7-6bf8-4025-b6cd-96298bb73495"},"vehicle_type_id":"4","last_reported":1773782844,"current_range_meters":6800,"station_id":"ce4bgv12rcd13ifvqcp0","pricing_plan_id":"cebpf4jnsgd1na2vs0mg"},{"bike_id":"b5b8b144-cfaf-4287-9933-5469d18ff1ca","system_id":"levelo_inurba_marseille","lat":43.28714,"lon":5.37956,"is_reserved":false,"is_disabled":true,"rental_uris":{"android":"levelo://app?vid=b5b8b144-cfaf-4287-9933-5469d18ff1ca","ios":"levelo://app?vid=b5b8b144-cfaf-4287-9933-5469d18ff1ca"},"vehicle_type_id":"4","last_reported":1773782844,"current_range_meters":6800,"station_id":"ce4bh9p2rcd13ifvqec0","pricing_plan_id":"cebpf4jnsgd1na2vs0mg"},{"bike_id":"d3e94903-0c82-4aae-a25c-6c68c75bb154","system_id":"levelo_inurba_marseille","lat":43.29006,"lon":5.38602,"is_reserved":false,"is_disabled":false,"rental_uris":{"android":"levelo://app?vid=d3e94903-0c82-4aae-a25c-6c68c75bb154","ios":"levelo://app?vid=d3e94903-0c82-4aae-a25c-6c68c75bb154"},"vehicle_type_id":"4","last_reported":1773782844,"current_range_meters":6800,"station_id":"ce4bh4p2rcd13ifvqe0g","pricing_plan_id":"cebpf4jnsgd1na2vs0mg"},{"bike_id":"e7ceac1c-7ef4-4e4d-83d0-1728bbf7b637","system_id":"levelo_inurba_marseille","lat":43.31249,"lon":5.40164,"is_reserved":false,"is_disabled":false,"rental_uris":{"android":"levelo://app?vid=e7ceac1c-7ef4-4e4d-83d0-1728bbf7b637","ios":"levelo://app?vid=e7ceac1c-7ef4-4e4d-83d0-1728bbf7b637"},"vehicle_type_id":"4","last_reported":1773782844,"current_range_meters":6800,"station_id":"ce4bh092rcd13ifvqd30","pricing_plan_id":"cebpf4jnsgd1na2vs0mg"},{"bike_id":"0d33946c-dda7-4b3f-9757-2c7ef637d9ab","system_id":"levelo_inurba_marseille","lat":43.29251,"lon":5.40906,"is_reserved":false,"is_disabled":true,"rental_uris":{"android":"levelo://app?vid=0d33946c-dda7-4b3f-9757-2c7ef637d9ab","ios":"levelo://app?vid=0d33946c-dda7-4b3f-9757-2c7ef637d9ab"},"vehicle_type_id":"4","last_reported":1773782844,"current_range_meters":6800,"station_id":"ce4bh192rcd13ifvqdc0","pricing_plan_id":"cebpf4jnsgd1na2vs0mg"},{"bike_id":"ab2125f0-f477-425b-9c9a-e4231f7f002b","system_id":"levelo_inurba_marseille","lat":43.21746,"lon":5.34615,"is_reserved":false,"is_disabled":true,"rental_uris":{"android":"levelo://app?vid=ab2125f0-f477-425b-9c9a-e4231f7f002b","ios":"levelo://app?vid=ab2125f0-f477-425b-9c9a-e4231f7f002b"},"vehicle_type_id":"4","last_reported":1773782844,"current_range_meters":6800,"station_id":"st_cvj6r9ubvosntc0bgbag","pricing_plan_id":"cebpf4jnsgd1na2vs0mg"},{"bike_id":"dc63c008-cd1d-4f84-ac47-20c8246e9b61","system_id":"levelo_inurba_marseille","lat":43.30315,"lon":5.40433,"is_reserved":false,"is_disabled":false,"rental_uris":{"android":"levelo://app?vid=dc63c008-cd1d-4f84-ac47-20c8246e9b61","ios":"levelo://app?vid=dc63c008-cd1d-4f84-ac47-20c8246e9b61"},"vehicle_type_id":"4","last_reported":1773782844,"current_range_meters":6800,"station_id":"ce4bh012rcd13ifvqd10","pricing_plan_id":"cebpf4jnsgd1na2vs0mg"},{"bike_id":"2be4c2db-a947-4903-b865-0449b707427e","system_id":"levelo_inurba_marseille","lat":43.30304,"lon":5.36919,"is_reserved":false,"is_disabled":false,"rental_uris":{"android":"levelo://app?vid=2be4c2db-a947-4903-b865-0449b707427e","ios":"levelo://app?vid=2be4c2db-a947-4903-b865-0449b707427e"},"vehicle_type_id":"4","last_reported":1773782844,"current_range_meters":6800,"station_id":"ce4bgqh2rcd13ifvqc5g","pricing_plan_id":"cebpf4jnsgd1na2vs0mg"},{"bike_id":"6c7da26a-6e3c-4915-81a4-435886bc144f","system_id":"levelo_inurba_marseille","lat":43.23186,"lon":5.35562,"is_reserved":false,"is_disabled":false,"rental_uris":{"android":"levelo://app?vid=6c7da26a-6e3c-4915-81a4-435886bc144f","ios":"levelo://app?vid=6c7da26a-6e3c-4915-81a4-435886bc144f"},"vehicle_type_id":"4","last_reported":1773782844,"current_range_meters":6800,"station_id":"ce4bhu92rcd13ifvqi70","pricing_plan_id":"cebpf4jnsgd1na2vs0mg"},{"bike_id":"94d6ec7e-087e-4ac8-ae78-ada4e839ad0f","system_id":"levelo_inurba_marseille","lat":43.30433,"lon":5.37924,"is_reserved":false,"is_disabled":false,"rental_uris":{"android":"levelo://app?vid=94d6ec7e-087e-4ac8-ae78-ada4e839ad0f","ios":"levelo://app?vid=94d6ec7e-087e-4ac8-ae78-ada4e839ad0f"},"vehicle_type_id":"4","last_reported":1773782844,"current_range_meters":6800,"station_id":"","pricing_plan_id":"cebpf4jnsgd1na2vs0mg"},{"bike_id":"a1cfb408-da52-4413-a934-9b5c4a9189a4","system_id":"levelo_inurba_marseille","lat":43.29584,"lon":5.37524,"is_reserved":false,"is_disabled":false,"rental_uris":{"android":"levelo://app?vid=a1cfb408-da52-4413-a934-9b5c4a9189a4","ios":"levelo://app?vid=a1cfb408-da52-4413-a934-9b5c4a9189a4"},"vehicle_type_id":"4","last_reported":1773782844,"current_range_meters":6800,"station_id":"ce4bgh92rcd13ifvqb50","pricing_plan_id":"cebpf4jnsgd1na2vs0mg"},{"bike_id":"a01c90e5-94b3-456e-a3f5-7cc5cb581b41","system_id":"levelo_inurba_marseille","lat":43.29238,"lon":5.40913,"is_reserved":false,"is_disabled":false,"rental_uris":{"android":"levelo://app?vid=a01c90e5-94b3-456e-a3f5-7cc5cb581b41","ios":"levelo://app?vid=a01c90e5-94b3-456e-a3f5-7cc5cb581b41"},"vehicle_type_id":"4","last_reported":1773782844,"current_range_meters":6800,"station_id":"ce4bh192rcd13ifvqdc0","pricing_plan_id":"cebpf4jnsgd1na2vs0mg"},{"bike_id":"fd5046c0-5dee-4acc-81ce-1eba9607bc0d","system_id":"levelo_inurba_marseille","lat":43.31169,"lon":5.38736,"is_reserved":false,"is_disabled":false,"rental_uris":{"android":"levelo://app?vid=fd5046c0-5dee-4acc-81ce-1eba9607bc0d","ios":"levelo://app?vid=fd5046c0-5dee-4acc-81ce-1eba9607bc0d"},"vehicle_type_id":"4","last_reported":1773782844,"current_range_meters":7200,"station_id":"ce4bgv12rcd13ifvqcp0","pricing_plan_id":"cebpf4jnsgd1na2vs0mg"},{"bike_id":"3ec376dd-9cda-4bb4-955e-bc624f0b91bd","system_id":"levelo_inurba_marseille","lat":43.29185,"lon":5.36047,"is_reserved":false,"is_disabled":false,"rental_uris":{"android":"levelo://app?vid=3ec376dd-9cda-4bb4-955e-bc624f0b91bd","ios":"levelo://app?vid=3ec376dd-9cda-4bb4-955e-bc624f0b91bd"},"vehicle_type_id":"4","last_reported":1773782844,"current_range_meters":7200,"station_id":"ce4bhbh2rcd13ifvqeqg","pricing_plan_id":"cebpf4jnsgd1na2vs0mg"},{"bike_id":"458f604b-e062-47bf-ac14-a001a31d10d8","system_id":"levelo_inurba_marseille","lat":43.28472,"lon":5.4839,"is_reserved":false,"is_disabled":false,"rental_uris":{"android":"levelo://app?vid=458f604b-e062-47bf-ac14-a001a31d10d8","ios":"levelo://app?vid=458f604b-e062-47bf-ac14-a001a31d10d8"},"vehicle_type_id":"4","last_reported":1773782844,"current_range_meters":7200,"station_id":"","pricing_plan_id":"cebpf4jnsgd1na2vs0mg"},{"bike_id":"1e21c33a-4940-4e7e-acd7-df31f61f9fb2","system_id":"levelo_inurba_marseille","lat":43.29518,"lon":5.39033,"is_reserved":false,"is_disabled":false,"rental_uris":{"android":"levelo://app?vid=1e21c33a-4940-4e7e-acd7-df31f61f9fb2","ios":"levelo://app?vid=1e21c33a-4940-4e7e-acd7-df31f61f9fb2"},"vehicle_type_id":"4","last_reported":1773782844,"current_range_meters":7200,"station_id":"ce4bh3p2rcd13ifvqdp0","pricing_plan_id":"cebpf4jnsgd1na2vs0mg"},{"bike_id":"cd9481c0-b5d7-434f-91c1-948de64ef83e","system_id":"levelo_inurba_marseille","lat":43.29232,"lon":5.39345,"is_reserved":false,"is_disabled":false,"rental_uris":{"android":"levelo://app?vid=cd9481c0-b5d7-434f-91c1-948de64ef83e","ios":"levelo://app?vid=cd9481c0-b5d7-434f-91c1-948de64ef83e"},"vehicle_type_id":"4","last_reported":1773782844,"current_range_meters":7200,"station_id":"","pricing_plan_id":"cebpf4jnsgd1na2vs0mg"},{"bike_id":"cfb2e14b-73a8-4466-83b0-51755dfd9dbb","system_id":"levelo_inurba_marseille","lat":43.23234,"lon":5.39953,"is_reserved":false,"is_disabled":false,"rental_uris":{"android":"levelo://app?vid=cfb2e14b-73a8-4466-83b0-51755dfd9dbb","ios":"levelo://app?vid=cfb2e14b-73a8-4466-83b0-51755dfd9dbb"},"vehicle_type_id":"4","last_reported":1773782844,"current_range_meters":7200,"station_id":"","pricing_plan_id":"cebpf4jnsgd1na2vs0mg"},{"bike_id":"2134a193-4b3a-4038-a280-1a0ba6458570","system_id":"levelo_inurba_marseille","lat":43.29777,"lon":5.42146,"is_reserved":false,"is_disabled":false,"rental_uris":{"android":"levelo://app?vid=2134a193-4b3a-4038-a280-1a0ba6458570","ios":"levelo://app?vid=2134a193-4b3a-4038-a280-1a0ba6458570"},"vehicle_type_id":"4","last_reported":1773782844,"current_range_meters":7200,"station_id":"","pricing_plan_id":"cebpf4jnsgd1na2vs0mg"},{"bike_id":"bf6a3964-59b8-4a44-8aea-27ace606ed1b","system_id":"levelo_inurba_marseille","lat":43.27992,"lon":5.40004,"is_reserved":false,"is_disabled":false,"rental_uris":{"android":"levelo://app?vid=bf6a3964-59b8-4a44-8aea-27ace606ed1b","ios":"levelo://app?vid=bf6a3964-59b8-4a44-8aea-27ace606ed1b"},"vehicle_type_id":"4","last_reported":1773782844,"current_range_meters":7200,"station_id":"ce4bho92rcd13ifvqh4g","pricing_plan_id":"cebpf4jnsgd1na2vs0mg"},{"bike_id":"7e372e61-a4a4-4320-b78e-0115edf72ed5","system_id":"levelo_inurba_marseille","lat":43.24174,"lon":5.36401,"is_reserved":false,"is_disabled":true,"rental_uris":{"android":"levelo://app?vid=7e372e61-a4a4-4320-b78e-0115edf72ed5","ios":"levelo://app?vid=7e372e61-a4a4-4320-b78e-0115edf72ed5"},"vehicle_type_id":"4","last_reported":1773782844,"current_range_meters":7200,"station_id":"cpo36qri1sfpv3e86is0","pricing_plan_id":"cebpf4jnsgd1na2vs0mg"},{"bike_id":"9fde0fe3-8f8d-48af-a746-ee29624591e8","system_id":"levelo_inurba_marseille","lat":43.24542,"lon":5.39537,"is_reserved":false,"is_disabled":false,"rental_uris":{"android":"levelo://app?vid=9fde0fe3-8f8d-48af-a746-ee29624591e8","ios":"levelo://app?vid=9fde0fe3-8f8d-48af-a746-ee29624591e8"},"vehicle_type_id":"4","last_reported":1773782844,"current_range_meters":7200,"station_id":"ce4bhlp2rcd13ifvqgjg","pricing_plan_id":"cebpf4jnsgd1na2vs0mg"},{"bike_id":"83dfe6d5-7b4e-4962-9169-24132413c1be","system_id":"levelo_inurba_marseille","lat":43.31698,"lon":5.42406,"is_reserved":false,"is_disabled":false,"rental_uris":{"android":"levelo://app?vid=83dfe6d5-7b4e-4962-9169-24132413c1be","ios":"levelo://app?vid=83dfe6d5-7b4e-4962-9169-24132413c1be"},"vehicle_type_id":"4","last_reported":1773782844,"current_range_meters":7200,"station_id":"ce4bhp92rcd13ifvqhbg","pricing_plan_id":"cebpf4jnsgd1na2vs0mg"},{"bike_id":"efd94f72-33b8-41df-a504-b85d1ec1745b","system_id":"levelo_inurba_marseille","lat":43.29523,"lon":5.39043,"is_reserved":false,"is_disabled":false,"rental_uris":{"android":"levelo://app?vid=efd94f72-33b8-41df-a504-b85d1ec1745b","ios":"levelo://app?vid=efd94f72-33b8-41df-a504-b85d1ec1745b"},"vehicle_type_id":"4","last_reported":1773782844,"current_range_meters":7200,"station_id":"ce4bh3p2rcd13ifvqdp0","pricing_plan_id":"cebpf4jnsgd1na2vs0mg"},{"bike_id":"54b098c2-e7e6-4f8b-91ab-3116855484f9","system_id":"levelo_inurba_marseille","lat":43.29914,"lon":5.37463,"is_reserved":false,"is_disabled":false,"rental_uris":{"android":"levelo://app?vid=54b098c2-e7e6-4f8b-91ab-3116855484f9","ios":"levelo://app?vid=54b098c2-e7e6-4f8b-91ab-3116855484f9"},"vehicle_type_id":"4","last_reported":1773782844,"current_range_meters":7200,"station_id":"ce4bgjh2rcd13ifvqbg0","pricing_plan_id":"cebpf4jnsgd1na2vs0mg"},{"bike_id":"d1ee7254-e816-40d1-9d55-0d3b3c923613","system_id":"levelo_inurba_marseille","lat":43.29255,"lon":5.40907,"is_reserved":false,"is_disabled":false,"rental_uris":{"android":"levelo://app?vid=d1ee7254-e816-40d1-9d55-0d3b3c923613","ios":"levelo://app?vid=d1ee7254-e816-40d1-9d55-0d3b3c923613"},"vehicle_type_id":"4","last_reported":1773782844,"current_range_meters":7200,"station_id":"ce4bh192rcd13ifvqdc0","pricing_plan_id":"cebpf4jnsgd1na2vs0mg"},{"bike_id":"64e4942c-04ec-475a-8745-de522dcf5faa","system_id":"levelo_inurba_marseille","lat":43.22957,"lon":5.35346,"is_reserved":false,"is_disabled":false,"rental_uris":{"android":"levelo://app?vid=64e4942c-04ec-475a-8745-de522dcf5faa","ios":"levelo://app?vid=64e4942c-04ec-475a-8745-de522dcf5faa"},"vehicle_type_id":"4","last_reported":1773782844,"current_range_meters":7200,"station_id":"cpo3532slgdg3j2ikp40","pricing_plan_id":"cebpf4jnsgd1na2vs0mg"},{"bike_id":"b1df71fc-dab0-455a-bfdb-973c59765d16","system_id":"levelo_inurba_marseille","lat":43.27552,"lon":5.38425,"is_reserved":false,"is_disabled":false,"rental_uris":{"android":"levelo://app?vid=b1df71fc-dab0-455a-bfdb-973c59765d16","ios":"levelo://app?vid=b1df71fc-dab0-455a-bfdb-973c59765d16"},"vehicle_type_id":"4","last_reported":1773782844,"current_range_meters":7200,"station_id":"ce4bhh92rcd13ifvqfi0","pricing_plan_id":"cebpf4jnsgd1na2vs0mg"},{"bike_id":"6d61f6b8-a7aa-4768-8348-c77a41cfab72","system_id":"levelo_inurba_marseille","lat":43.28397,"lon":5.3755,"is_reserved":false,"is_disabled":false,"rental_uris":{"android":"levelo://app?vid=6d61f6b8-a7aa-4768-8348-c77a41cfab72","ios":"levelo://app?vid=6d61f6b8-a7aa-4768-8348-c77a41cfab72"},"vehicle_type_id":"4","last_reported":1773782844,"current_range_meters":7200,"station_id":"ce4bh412rcd13ifvqds0","pricing_plan_id":"cebpf4jnsgd1na2vs0mg"},{"bike_id":"7cba03c9-0a19-4549-9013-8e4ca692f1cb","system_id":"levelo_inurba_marseille","lat":43.29471,"lon":5.39059,"is_reserved":false,"is_disabled":false,"rental_uris":{"android":"levelo://app?vid=7cba03c9-0a19-4549-9013-8e4ca692f1cb","ios":"levelo://app?vid=7cba03c9-0a19-4549-9013-8e4ca692f1cb"},"vehicle_type_id":"4","last_reported":1773782844,"current_range_meters":7200,"station_id":"","pricing_plan_id":"cebpf4jnsgd1na2vs0mg"},{"bike_id":"6e6fd4f6-16f4-4273-95fd-b590fd9443d4","system_id":"levelo_inurba_marseille","lat":43.28346,"lon":5.38114,"is_reserved":false,"is_disabled":false,"rental_uris":{"android":"levelo://app?vid=6e6fd4f6-16f4-4273-95fd-b590fd9443d4","ios":"levelo://app?vid=6e6fd4f6-16f4-4273-95fd-b590fd9443d4"},"vehicle_type_id":"4","last_reported":1773782844,"current_range_meters":7200,"station_id":"ce4bh412rcd13ifvqdr0","pricing_plan_id":"cebpf4jnsgd1na2vs0mg"},{"bike_id":"811cb60e-c2e0-4eff-a720-ab1d90d9f80a","system_id":"levelo_inurba_marseille","lat":43.23368,"lon":5.41238,"is_reserved":false,"is_disabled":false,"rental_uris":{"android":"levelo://app?vid=811cb60e-c2e0-4eff-a720-ab1d90d9f80a","ios":"levelo://app?vid=811cb60e-c2e0-4eff-a720-ab1d90d9f80a"},"vehicle_type_id":"4","last_reported":1773782844,"current_range_meters":7200,"station_id":"","pricing_plan_id":"cebpf4jnsgd1na2vs0mg"},{"bike_id":"c2c7c530-5d90-493e-bc68-4654d00e1dc7","system_id":"levelo_inurba_marseille","lat":43.25194,"lon":5.40616,"is_reserved":false,"is_disabled":false,"rental_uris":{"android":"levelo://app?vid=c2c7c530-5d90-493e-bc68-4654d00e1dc7","ios":"levelo://app?vid=c2c7c530-5d90-493e-bc68-4654d00e1dc7"},"vehicle_type_id":"4","last_reported":1773782844,"current_range_meters":7200,"station_id":"","pricing_plan_id":"cebpf4jnsgd1na2vs0mg"},{"bike_id":"d9eb4d3a-9aa0-4bfd-877a-fe39eaf222f8","system_id":"levelo_inurba_marseille","lat":43.29811,"lon":5.37946,"is_reserved":false,"is_disabled":false,"rental_uris":{"android":"levelo://app?vid=d9eb4d3a-9aa0-4bfd-877a-fe39eaf222f8","ios":"levelo://app?vid=d9eb4d3a-9aa0-4bfd-877a-fe39eaf222f8"},"vehicle_type_id":"4","last_reported":1773782844,"current_range_meters":8000,"station_id":"","pricing_plan_id":"cebpf4jnsgd1na2vs0mg"},{"bike_id":"f51901c8-fc84-4015-816f-3bf53c456ace","system_id":"levelo_inurba_marseille","lat":43.29957,"lon":5.38504,"is_reserved":false,"is_disabled":false,"rental_uris":{"android":"levelo://app?vid=f51901c8-fc84-4015-816f-3bf53c456ace","ios":"levelo://app?vid=f51901c8-fc84-4015-816f-3bf53c456ace"},"vehicle_type_id":"4","last_reported":1773782844,"current_range_meters":8000,"station_id":"ce4bgj92rcd13ifvqbd0","pricing_plan_id":"cebpf4jnsgd1na2vs0mg"},{"bike_id":"09b50b48-1342-4da7-892a-788b7c7b0016","system_id":"levelo_inurba_marseille","lat":43.33587,"lon":5.41023,"is_reserved":false,"is_disabled":false,"rental_uris":{"android":"levelo://app?vid=09b50b48-1342-4da7-892a-788b7c7b0016","ios":"levelo://app?vid=09b50b48-1342-4da7-892a-788b7c7b0016"},"vehicle_type_id":"4","last_reported":1773782844,"current_range_meters":8000,"station_id":"ce4bhqh2rcd13ifvqhmg","pricing_plan_id":"cebpf4jnsgd1na2vs0mg"},{"bike_id":"faf9f9af-256a-4053-b085-29bf6e1ab79a","system_id":"levelo_inurba_marseille","lat":43.29518,"lon":5.39404,"is_reserved":false,"is_disabled":false,"rental_uris":{"android":"levelo://app?vid=faf9f9af-256a-4053-b085-29bf6e1ab79a","ios":"levelo://app?vid=faf9f9af-256a-4053-b085-29bf6e1ab79a"},"vehicle_type_id":"4","last_reported":1773782844,"current_range_meters":8000,"station_id":"ce4bh292rcd13ifvqdf0","pricing_plan_id":"cebpf4jnsgd1na2vs0mg"},{"bike_id":"a9ab5a39-2731-4734-97ce-71106411e1b9","system_id":"levelo_inurba_marseille","lat":43.21742,"lon":5.34612,"is_reserved":false,"is_disabled":false,"rental_uris":{"android":"levelo://app?vid=a9ab5a39-2731-4734-97ce-71106411e1b9","ios":"levelo://app?vid=a9ab5a39-2731-4734-97ce-71106411e1b9"},"vehicle_type_id":"4","last_reported":1773782844,"current_range_meters":8000,"station_id":"st_cvj6r9ubvosntc0bgbag","pricing_plan_id":"cebpf4jnsgd1na2vs0mg"},{"bike_id":"7ada2641-316b-4e07-8cf0-f1c79c755356","system_id":"levelo_inurba_marseille","lat":43.24953,"lon":5.40484,"is_reserved":false,"is_disabled":false,"rental_uris":{"android":"levelo://app?vid=7ada2641-316b-4e07-8cf0-f1c79c755356","ios":"levelo://app?vid=7ada2641-316b-4e07-8cf0-f1c79c755356"},"vehicle_type_id":"4","last_reported":1773782844,"current_range_meters":8000,"station_id":"st_d2ngiaodas8pm72gd1h0","pricing_plan_id":"cebpf4jnsgd1na2vs0mg"},{"bike_id":"d0531cf6-931f-42d7-8bd6-b76a601aab09","system_id":"levelo_inurba_marseille","lat":43.28002,"lon":5.40006,"is_reserved":false,"is_disabled":false,"rental_uris":{"android":"levelo://app?vid=d0531cf6-931f-42d7-8bd6-b76a601aab09","ios":"levelo://app?vid=d0531cf6-931f-42d7-8bd6-b76a601aab09"},"vehicle_type_id":"4","last_reported":1773782844,"current_range_meters":8000,"station_id":"ce4bho92rcd13ifvqh4g","pricing_plan_id":"cebpf4jnsgd1na2vs0mg"},{"bike_id":"9761ea07-5436-44a3-b47a-edd5aaaf46a7","system_id":"levelo_inurba_marseille","lat":43.24807,"lon":5.37434,"is_reserved":false,"is_disabled":false,"rental_uris":{"android":"levelo://app?vid=9761ea07-5436-44a3-b47a-edd5aaaf46a7","ios":"levelo://app?vid=9761ea07-5436-44a3-b47a-edd5aaaf46a7"},"vehicle_type_id":"4","last_reported":1773782844,"current_range_meters":8000,"station_id":"ce4bhgh2rcd13ifvqfb0","pricing_plan_id":"cebpf4jnsgd1na2vs0mg"},{"bike_id":"f7e79517-161a-451a-8a95-bb710b1b4d21","system_id":"levelo_inurba_marseille","lat":43.29634,"lon":5.36729,"is_reserved":false,"is_disabled":true,"rental_uris":{"android":"levelo://app?vid=f7e79517-161a-451a-8a95-bb710b1b4d21","ios":"levelo://app?vid=f7e79517-161a-451a-8a95-bb710b1b4d21"},"vehicle_type_id":"4","last_reported":1773782844,"current_range_meters":8000,"station_id":"","pricing_plan_id":"cebpf4jnsgd1na2vs0mg"},{"bike_id":"57c0f83b-ccf2-44c3-9824-92fd12779aae","system_id":"levelo_inurba_marseille","lat":43.31351,"lon":5.38509,"is_reserved":false,"is_disabled":false,"rental_uris":{"android":"levelo://app?vid=57c0f83b-ccf2-44c3-9824-92fd12779aae","ios":"levelo://app?vid=57c0f83b-ccf2-44c3-9824-92fd12779aae"},"vehicle_type_id":"4","last_reported":1773782844,"current_range_meters":8000,"station_id":"ce4bgt92rcd13ifvqcf0","pricing_plan_id":"cebpf4jnsgd1na2vs0mg"},{"bike_id":"7d9d7aa8-fbf6-4ec2-9dd9-58e4fbfbf40b","system_id":"levelo_inurba_marseille","lat":43.33727,"lon":5.392,"is_reserved":false,"is_disabled":false,"rental_uris":{"android":"levelo://app?vid=7d9d7aa8-fbf6-4ec2-9dd9-58e4fbfbf40b","ios":"levelo://app?vid=7d9d7aa8-fbf6-4ec2-9dd9-58e4fbfbf40b"},"vehicle_type_id":"4","last_reported":1773782844,"current_range_meters":8000,"station_id":"ce4bhr92rcd13ifvqhsg","pricing_plan_id":"cebpf4jnsgd1na2vs0mg"},{"bike_id":"698b4e85-2a93-4d81-8d91-8448ea5a63aa","system_id":"levelo_inurba_marseille","lat":43.29196,"lon":5.35796,"is_reserved":false,"is_disabled":false,"rental_uris":{"android":"levelo://app?vid=698b4e85-2a93-4d81-8d91-8448ea5a63aa","ios":"levelo://app?vid=698b4e85-2a93-4d81-8d91-8448ea5a63aa"},"vehicle_type_id":"4","last_reported":1773782844,"current_range_meters":8000,"station_id":"ce4bhb12rcd13ifvqel0","pricing_plan_id":"cebpf4jnsgd1na2vs0mg"},{"bike_id":"145cf909-0a6f-49d8-9ad7-e55b549465ae","system_id":"levelo_inurba_marseille","lat":43.25612,"lon":5.38541,"is_reserved":false,"is_disabled":false,"rental_uris":{"android":"levelo://app?vid=145cf909-0a6f-49d8-9ad7-e55b549465ae","ios":"levelo://app?vid=145cf909-0a6f-49d8-9ad7-e55b549465ae"},"vehicle_type_id":"4","last_reported":1773782844,"current_range_meters":8000,"station_id":"","pricing_plan_id":"cebpf4jnsgd1na2vs0mg"},{"bike_id":"2567a655-2c75-4ae5-a8b5-6cd436626987","system_id":"levelo_inurba_marseille","lat":43.28125,"lon":5.42649,"is_reserved":false,"is_disabled":false,"rental_uris":{"android":"levelo://app?vid=2567a655-2c75-4ae5-a8b5-6cd436626987","ios":"levelo://app?vid=2567a655-2c75-4ae5-a8b5-6cd436626987"},"vehicle_type_id":"4","last_reported":1773782844,"current_range_meters":8000,"station_id":"ce4bhnh2rcd13ifvqgug","pricing_plan_id":"cebpf4jnsgd1na2vs0mg"},{"bike_id":"e19bbcec-af9d-483d-ac29-18df3b9c0ab9","system_id":"levelo_inurba_marseille","lat":43.28482,"lon":5.4839,"is_reserved":false,"is_disabled":false,"rental_uris":{"android":"levelo://app?vid=e19bbcec-af9d-483d-ac29-18df3b9c0ab9","ios":"levelo://app?vid=e19bbcec-af9d-483d-ac29-18df3b9c0ab9"},"vehicle_type_id":"4","last_reported":1773782844,"current_range_meters":8000,"station_id":"st_d3svhcjqgbts73a3dn0g","pricing_plan_id":"cebpf4jnsgd1na2vs0mg"},{"bike_id":"793135ab-9996-488f-a0fa-033287c5b1a0","system_id":"levelo_inurba_marseille","lat":43.27047,"lon":5.38292,"is_reserved":false,"is_disabled":false,"rental_uris":{"android":"levelo://app?vid=793135ab-9996-488f-a0fa-033287c5b1a0","ios":"levelo://app?vid=793135ab-9996-488f-a0fa-033287c5b1a0"},