{"last_updated":1713906419,"ttl":30,"version":"2.2","data":{"bikes":[{"bike_id":"df71d369-7ba9-42d4-9ef0-8b34641d2da9","system_id":"levelo_inurba_marseille","lat":43.313391,"lon":5.36706,"is_reserved":false,"is_disabled":false,"rental_uris":{"android":"levelo://app?vid=df71d369-7ba9-42d4-9ef0-8b34641d2da9","ios":"levelo://app?vid=df71d369-7ba9-42d4-9ef0-8b34641d2da9"},"vehicle_type_id":"4","last_reported":1713906419,"current_range_meters":23200,"station_id":"ce4bgr92rcd13ifvqc6g","pricing_plan_id":"cebpf4jnsgd1na2vs0mg"},{"bike_id":"a43e6126-c9f7-49ab-b6bc-14dd281c0e91","system_id":"levelo_inurba_marseille","lat":43.312239,"lon":5.368562,"is_reserved":false,"is_disabled":false,"rental_uris":{"android":"levelo://app?vid=a43e6126-c9f7-49ab-b6bc-14dd281c0e91","ios":"levelo://app?vid=a43e6126-c9f7-49ab-b6bc-14dd281c0e91"},"vehicle_type_id":"4","last_reported":1713906419,"current_range_meters":8400,"station_id":"ce4bgl92rcd13ifvqbq0","pricing_plan_id":"cebpf4jnsgd1na2vs0mg"},{"bike_id":"58552463-c847-47af-8ff0-64dfe533a5b7","system_id":"levelo_inurba_marseille","lat":43.312239,"lon":5.368562,"is_reserved":false,"is_disabled":false,"rental_uris":{"android":"levelo://app?vid=58552463-c847-47af-8ff0-64dfe533a5b7","ios":"levelo://app?vid=58552463-c847-47af-8ff0-64dfe533a5b7"},"vehicle_type_id":"4","last_reported":1713906419,"current_range_meters":10400,"station_id":"ce4bgl92rcd13ifvqbq0","pricing_plan_id":"cebpf4jnsgd1na2vs0mg"},{"bike_id":"e75db4e1-4edb-4d9a-95da-b8282847cea0","system_id":"levelo_inurba_marseille","lat":43.309034,"lon":5.371783,"is_reserved":false,"is_disabled":false,"rental_uris":{"android":"levelo://app?vid=e75db4e1-4edb-4d9a-95da-b8282847cea0","ios":"levelo://app?vid=e75db4e1-4edb-4d9a-95da-b8282847cea0"},"vehicle_type_id":"4","last_reported":1713906419,"current_range_meters":18800,"station_id":"ce4bguh2rcd13ifvqckg","pricing_plan_id":"cebpf4jnsgd1na2vs0mg"},{"bike_id":"9c3e4da5-6173-4f52-9cb4-7ffb8dbbb74a","system_id":"levelo_inurba_marseille","lat":43.309039,"lon":5.371797,"is_reserved":false,"is_disabled":false,"rental_uris":{"android":"levelo://app?vid=9c3e4da5-6173-4f52-9cb4-7ffb8dbbb74a","ios":"levelo://app?vid=9c3e4da5-6173-4f52-9cb4-7ffb8dbbb74a"},"vehicle_type_id":"4","last_reported":1713906419,"current_range_meters":22800,"station_id":"ce4bguh2rcd13ifvqckg","pricing_plan_id":"cebpf4jnsgd1na2vs0mg"},{"bike_id":"8c395149-c248-44f3-9ed5-11a7c51301c3","system_id":"levelo_inurba_marseille","lat":43.30694,"lon":5.365528,"is_reserved":false,"is_disabled":false,"rental_uris":{"android":"levelo://app?vid=8c395149-c248-44f3-9ed5-11a7c51301c3","ios":"levelo://app?vid=8c395149-c248-44f3-9ed5-11a7c51301c3"},"vehicle_type_id":"4","last_reported":1713906419,"current_range_meters":5200,"station_id":"","pricing_plan_id":"cebpf4jnsgd1na2vs0mg"},{"bike_id":"5c364b34-2835-4673-bb7a-2812b10983fa","system_id":"levelo_inurba_marseille","lat":43.30537,"lon":5.367345,"is_reserved":false,"is_disabled":false,"rental_uris":{"android":"levelo://app?vid=5c364b34-2835-4673-bb7a-2812b10983fa","ios":"levelo://app?vid=5c364b34-2835-4673-bb7a-2812b10983fa"},"vehicle_type_id":"4","last_reported":1713906419,"current_range_meters":10400,"station_id":"ce4bgrp2rcd13ifvqc9g","pricing_plan_id":"cebpf4jnsgd1na2vs0mg"},{"bike_id":"c4bbf80e-b998-4b5a-9791-adc3d551c303","system_id":"levelo_inurba_marseille","lat":43.30607,"lon":5.37231,"is_reserved":false,"is_disabled":false,"rental_uris":{"android":"levelo://app?vid=c4bbf80e-b998-4b5a-9791-adc3d551c303","ios":"levelo://app?vid=c4bbf80e-b998-4b5a-9791-adc3d551c303"},"vehicle_type_id":"4","last_reported":1713906419,"current_range_meters":2800,"station_id":"ce4bgqh2rcd13ifvqc4g","pricing_plan_id":"cebpf4jnsgd1na2vs0mg"},{"bike_id":"f5b25fbc-37ec-4b07-95ea-80a1cca2a677","system_id":"levelo_inurba_marseille","lat":43.305989,"lon":5.37225,"is_reserved":false,"is_disabled":false,"rental_uris":{"android":"levelo://app?vid=f5b25fbc-37ec-4b07-95ea-80a1cca2a677","ios":"levelo://app?vid=f5b25fbc-37ec-4b07-95ea-80a1cca2a677"},"vehicle_type_id":"4","last_reported":1713906419,"current_range_meters":10400,"station_id":"ce4bgqh2rcd13ifvqc4g","pricing_plan_id":"cebpf4jnsgd1na2vs0mg"},{"bike_id":"c6fe8a6b-f449-471e-a8a2-932775bd53c3","system_id":"levelo_inurba_marseille","lat":43.305989,"lon":5.37225,"is_reserved":false,"is_disabled":false,"rental_uris":{"android":"levelo://app?vid=c6fe8a6b-f449-471e-a8a2-932775bd53c3","ios":"levelo://app?vid=c6fe8a6b-f449-471e-a8a2-932775bd53c3"},"vehicle_type_id":"4","last_reported":1713906419,"current_range_meters":28000,"station_id":"ce4bgqh2rcd13ifvqc4g","pricing_plan_id":"cebpf4jnsgd1na2vs0mg"},{"bike_id":"69194278-55b3-4703-b7a9-71c9f01ab6b9","system_id":"levelo_inurba_marseille","lat":43.305989,"lon":5.37225,"is_reserved":false,"is_disabled":false,"rental_uris":{"android":"levelo://app?vid=69194278-55b3-4703-b7a9-71c9f01ab6b9","ios":"levelo://app?vid=69194278-55b3-4703-b7a9-71c9f01ab6b9"},"vehicle_type_id":"4","last_reported":1713906419,"current_range_meters":18800,"station_id":"ce4bgqh2rcd13ifvqc4g","pricing_plan_id":"cebpf4jnsgd1na2vs0mg"},{"bike_id":"99e030f1-2a19-49ce-9976-5757b6f52f79","system_id":"levelo_inurba_marseille","lat":43.305989,"lon":5.37225,"is_reserved":false,"is_disabled":false,"rental_uris":{"android":"levelo://app?vid=99e030f1-2a19-49ce-9976-5757b6f52f79","ios":"levelo://app?vid=99e030f1-2a19-49ce-9976-5757b6f52f79"},"vehicle_type_id":"4","last_reported":1713906419,"current_range_meters":26400,"station_id":"ce4bgqh2rcd13ifvqc4g","pricing_plan_id":"cebpf4jnsgd1na2vs0mg"},{"bike_id":"ed4bb502-d5a2-4ee6-94d1-22499903bd28","system_id":"levelo_inurba_marseille","lat":43.31127,"lon":5.37752,"is_reserved":false,"is_disabled":false,"rental_uris":{"android":"levelo://app?vid=ed4bb502-d5a2-4ee6-94d1-22499903bd28","ios":"levelo://app?vid=ed4bb502-d5a2-4ee6-94d1-22499903bd28"},"vehicle_type_id":"4","last_reported":1713906419,"current_range_meters":2800,"station_id":"ce4bgt92rcd13ifvqcg0","pricing_plan_id":"cebpf4jnsgd1na2vs0mg"},{"bike_id":"fcd11b24-4b3f-4a50-a216-9b3799c0db75","system_id":"levelo_inurba_marseille","lat":43.305989,"lon":5.37225,"is_reserved":false,"is_disabled":false,"rental_uris":{"android":"levelo://app?vid=fcd11b24-4b3f-4a50-a216-9b3799c0db75","ios":"levelo://app?vid=fcd11b24-4b3f-4a50-a216-9b3799c0db75"},"vehicle_type_id":"4","last_reported":1713906419,"current_range_meters":10800,"station_id":"ce4bgqh2rcd13ifvqc4g","pricing_plan_id":"cebpf4jnsgd1na2vs0mg"},{"bike_id":"2bab40b1-9dfa-4d08-bb43-b712e69d7860","system_id":"levelo_inurba_marseille","lat":43.305989,"lon":5.37225,"is_reserved":false,"is_disabled":false,"rental_uris":{"android":"levelo://app?vid=2bab40b1-9dfa-4d08-bb43-b712e69d7860","ios":"levelo://app?vid=2bab40b1-9dfa-4d08-bb43-b712e69d7860"},"vehicle_type_id":"4","last_reported":1713906419,"current_range_meters":14800,"station_id":"ce4bgqh2rcd13ifvqc4g","pricing_plan_id":"cebpf4jnsgd1na2vs0mg"},{"bike_id":"357e0c4a-99b7-4017-973b-1fe7181be160","system_id":"levelo_inurba_marseille","lat":43.31122,"lon":5.37768,"is_reserved":false,"is_disabled":false,"rental_uris":{"android":"levelo://app?vid=357e0c4a-99b7-4017-973b-1fe7181be160","ios":"levelo://app?vid=357e0c4a-99b7-4017-973b-1fe7181be160"},"vehicle_type_id":"4","last_reported":1713906419,"current_range_meters":0,"station_id":"ce4bgt92rcd13ifvqcg0","pricing_plan_id":"cebpf4jnsgd1na2vs0mg"},{"bike_id":"2707546f-613d-4bad-9cb9-670f9b183da1","system_id":"levelo_inurba_marseille","lat":43.31118,"lon":5.37769,"is_reserved":false,"is_disabled":false,"rental_uris":{"android":"levelo://app?vid=2707546f-613d-4bad-9cb9-670f9b183da1","ios":"levelo://app?vid=2707546f-613d-4bad-9cb9-670f9b183da1"},"vehicle_type_id":"4","last_reported":1713906419,"current_range_meters":12000,"station_id":"ce4bgt92rcd13ifvqcg0","pricing_plan_id":"cebpf4jnsgd1na2vs0mg"},{"bike_id":"ec63e95b-0d31-4fc0-84d5-203b410662aa","system_id":"levelo_inurba_marseille","lat":43.31116,"lon":5.37772,"is_reserved":false,"is_disabled":false,"rental_uris":{"android":"levelo://app?vid=ec63e95b-0d31-4fc0-84d5-203b410662aa","ios":"levelo://app?vid=ec63e95b-0d31-4fc0-84d5-203b410662aa"},"vehicle_type_id":"4","last_reported":1713906419,"current_range_meters":20400,"station_id":"ce4bh192rcd13ifvqdc0","pricing_plan_id":"cebpf4jnsgd1na2vs0mg"},{"bike_id":"b08e4d05-1245-4fe7-8616-c623edd6248d","system_id":"levelo_inurba_marseille","lat":43.311161,"lon":5.377722,"is_reserved":false,"is_disabled":false,"rental_uris":{"android":"levelo://app?vid=b08e4d05-1245-4fe7-8616-c623edd6248d","ios":"levelo://app?vid=b08e4d05-1245-4fe7-8616-c623edd6248d"},"vehicle_type_id":"4","last_reported":1713906419,"current_range_meters":0,"station_id":"ce4bgt92rcd13ifvqcg0","pricing_plan_id":"cebpf4jnsgd1na2vs0mg"},{"bike_id":"73d8b4b6-3f91-4f14-a84b-93df2118ac6b","system_id":"levelo_inurba_marseille","lat":43.307945,"lon":5.376487,"is_reserved":false,"is_disabled":false,"rental_uris":{"android":"levelo://app?vid=73d8b4b6-3f91-4f14-a84b-93df2118ac6b","ios":"levelo://app?vid=73d8b4b6-3f91-4f14-a84b-93df2118ac6b"},"vehicle_type_id":"4","last_reported":1713906419,"current_range_meters":13200,"station_id":"ce4bgv92rcd13ifvqcq0","pricing_plan_id":"cebpf4jnsgd1na2vs0mg"},{"bike_id":"11d29c44-25c3-4cfd-a8fd-cbb3659711d3","system_id":"levelo_inurba_marseille","lat":43.307945,"lon":5.376487,"is_reserved":false,"is_disabled":false,"rental_uris":{"android":"levelo://app?vid=11d29c44-25c3-4cfd-a8fd-cbb3659711d3","ios":"levelo://app?vid=11d29c44-25c3-4cfd-a8fd-cbb3659711d3"},"vehicle_type_id":"4","last_reported":1713906419,"current_range_meters":29600,"station_id":"ce4bgv92rcd13ifvqcq0","pricing_plan_id":"cebpf4jnsgd1na2vs0mg"},{"bike_id":"08e3e0ee-05fe-4ee2-a7e5-e2082aaad53f","system_id":"levelo_inurba_marseille","lat":43.307945,"lon":5.376487,"is_reserved":false,"is_disabled":false,"rental_uris":{"android":"levelo://app?vid=08e3e0ee-05fe-4ee2-a7e5-e2082aaad53f","ios":"levelo://app?vid=08e3e0ee-05fe-4ee2-a7e5-e2082aaad53f"},"vehicle_type_id":"4","last_reported":1713906419,"current_range_meters":26400,"station_id":"ce4bgv92rcd13ifvqcq0","pricing_plan_id":"cebpf4jnsgd1na2vs0mg"},{"bike_id":"bcd00e71-3c5e-408c-9f39-c7caf7f9f1d6","system_id":"levelo_inurba_marseille","lat":43.307945,"lon":5.376487,"is_reserved":false,"is_disabled":false,"rental_uris":{"android":"levelo://app?vid=bcd00e71-3c5e-408c-9f39-c7caf7f9f1d6","ios":"levelo://app?vid=bcd00e71-3c5e-408c-9f39-c7caf7f9f1d6"},"vehicle_type_id":"4","last_reported":1713906419,"current_range_meters":31200,"station_id":"ce4bgv92rcd13ifvqcq0","pricing_plan_id":"cebpf4jnsgd1na2vs0mg"},{"bike_id":"88031a16-c107-438f-b4bf-7a98330b2a89","system_id":"levelo_inurba_marseille","lat":43.307945,"lon":5.376487,"is_reserved":false,"is_disabled":false,"rental_uris":{"android":"levelo://app?vid=88031a16-c107-438f-b4bf-7a98330b2a89","ios":"levelo://app?vid=88031a16-c107-438f-b4bf-7a98330b2a89"},"vehicle_type_id":"4","last_reported":1713906419,"current_range_meters":20800,"station_id":"ce4bgv92rcd13ifvqcq0","pricing_plan_id":"cebpf4jnsgd1na2vs0mg"},{"bike_id":"40ac654f-0367-405c-a54e-ded371a72343","system_id":"levelo_inurba_marseille","lat":43.307945,"lon":5.376487,"is_reserved":false,"is_disabled":false,"rental_uris":{"android":"levelo://app?vid=40ac654f-0367-405c-a54e-ded371a72343","ios":"levelo://app?vid=40ac654f-0367-405c-a54e-ded371a72343"},"vehicle_type_id":"4","last_reported":1713906419,"current_range_meters":10800,"station_id":"ce4bgv92rcd13ifvqcq0","pricing_plan_id":"cebpf4jnsgd1na2vs0mg"},{"bike_id":"e65ae59b-5b71-4f71-a427-1a748fe8bada","system_id":"levelo_inurba_marseille","lat":43.307945,"lon":5.376487,"is_reserved":false,"is_disabled":false,"rental_uris":{"android":"levelo://app?vid=e65ae59b-5b71-4f71-a427-1a748fe8bada","ios":"levelo://app?vid=e65ae59b-5b71-4f71-a427-1a748fe8bada"},"vehicle_type_id":"4","last_reported":1713906419,"current_range_meters":22400,"station_id":"ce4bgv92rcd13ifvqcq0","pricing_plan_id":"cebpf4jnsgd1na2vs0mg"},{"bike_id":"7629a1d1-6520-4201-a7bc-897f35f9a055","system_id":"levelo_inurba_marseille","lat":43.307945,"lon":5.376487,"is_reserved":false,"is_disabled":false,"rental_uris":{"android":"levelo://app?vid=7629a1d1-6520-4201-a7bc-897f35f9a055","ios":"levelo://app?vid=7629a1d1-6520-4201-a7bc-897f35f9a055"},"vehicle_type_id":"4","last_reported":1713906419,"current_range_meters":31200,"station_id":"ce4bgv92rcd13ifvqcq0","pricing_plan_id":"cebpf4jnsgd1na2vs0mg"},{"bike_id":"2775bb1f-91bb-4b61-bd58-b93d2d567984","system_id":"levelo_inurba_marseille","lat":43.307945,"lon":5.376487,"is_reserved":false,"is_disabled":false,"rental_uris":{"android":"levelo://app?vid=2775bb1f-91bb-4b61-bd58-b93d2d567984","ios":"levelo://app?vid=2775bb1f-91bb-4b61-bd58-b93d2d567984"},"vehicle_type_id":"4","last_reported":1713906419,"current_range_meters":13200,"station_id":"ce4bgv92rcd13ifvqcq0","pricing_plan_id":"cebpf4jnsgd1na2vs0mg"},{"bike_id":"aa5ec48f-9f21-4e10-94f1-5cf77fa622c0","system_id":"levelo_inurba_marseille","lat":43.317105,"lon":5.37729,"is_reserved":false,"is_disabled":false,"rental_uris":{"android":"levelo://app?vid=aa5ec48f-9f21-4e10-94f1-5cf77fa622c0","ios":"levelo://app?vid=aa5ec48f-9f21-4e10-94f1-5cf77fa622c0"},"vehicle_type_id":"4","last_reported":1713906419,"current_range_meters":18400,"station_id":"ce4bgth2rcd13ifvqch0","pricing_plan_id":"cebpf4jnsgd1na2vs0mg"},{"bike_id":"05d05ad0-4bb8-499d-82f0-aa0297336982","system_id":"levelo_inurba_marseille","lat":43.317075,"lon":5.377367,"is_reserved":false,"is_disabled":false,"rental_uris":{"android":"levelo://app?vid=05d05ad0-4bb8-499d-82f0-aa0297336982","ios":"levelo://app?vid=05d05ad0-4bb8-499d-82f0-aa0297336982"},"vehicle_type_id":"4","last_reported":1713906419,"current_range_meters":14400,"station_id":"ce4bgth2rcd13ifvqch0","pricing_plan_id":"cebpf4jnsgd1na2vs0mg"},{"bike_id":"26a83e33-4035-4a6d-9aef-71ac3cf3553f","system_id":"levelo_inurba_marseille","lat":43.317075,"lon":5.377367,"is_reserved":false,"is_disabled":false,"rental_uris":{"android":"levelo://app?vid=26a83e33-4035-4a6d-9aef-71ac3cf3553f","ios":"levelo://app?vid=26a83e33-4035-4a6d-9aef-71ac3cf3553f"},"vehicle_type_id":"4","last_reported":1713906419,"current_range_meters":22000,"station_id":"ce4bgth2rcd13ifvqch0","pricing_plan_id":"cebpf4jnsgd1na2vs0mg"},{"bike_id":"fbcbf667-d3c4-44bf-85de-e0b584ae4169","system_id":"levelo_inurba_marseille","lat":43.317075,"lon":5.377367,"is_reserved":false,"is_disabled":false,"rental_uris":{"android":"levelo://app?vid=fbcbf667-d3c4-44bf-85de-e0b584ae4169","ios":"levelo://app?vid=fbcbf667-d3c4-44bf-85de-e0b584ae4169"},"vehicle_type_id":"4","last_reported":1713906419,"current_range_meters":24800,"station_id":"ce4bgth2rcd13ifvqch0","pricing_plan_id":"cebpf4jnsgd1na2vs0mg"},{"bike_id":"b4854735-77a2-4b8e-975d-f5ec26df9228","system_id":"levelo_inurba_marseille","lat":43.317075,"lon":5.377367,"is_reserved":false,"is_disabled":false,"rental_uris":{"android":"levelo://app?vid=b4854735-77a2-4b8e-975d-f5ec26df9228","ios":"levelo://app?vid=b4854735-77a2-4b8e-975d-f5ec26df9228"},"vehicle_type_id":"4","last_reported":1713906419,"current_range_meters":21600,"station_id":"ce4bgth2rcd13ifvqch0","pricing_plan_id":"cebpf4jnsgd1na2vs0mg"},{"bike_id":"e379bf47-ad04-4efa-9ec0-0353364b93cd","system_id":"levelo_inurba_marseille","lat":43.31702,"lon":5.37765,"is_reserved":false,"is_disabled":false,"rental_uris":{"android":"levelo://app?vid=e379bf47-ad04-4efa-9ec0-0353364b93cd","ios":"levelo://app?vid=e379bf47-ad04-4efa-9ec0-0353364b93cd"},"vehicle_type_id":"4","last_reported":1713906419,"current_range_meters":2000,"station_id":"ce4bgth2rcd13ifvqch0","pricing_plan_id":"cebpf4jnsgd1na2vs0mg"},{"bike_id":"46c7c557-d915-4b51-b03a-2861bc6fe337","system_id":"levelo_inurba_marseille","lat":43.317075,"lon":5.377367,"is_reserved":false,"is_disabled":false,"rental_uris":{"android":"levelo://app?vid=46c7c557-d915-4b51-b03a-2861bc6fe337","ios":"levelo://app?vid=46c7c557-d915-4b51-b03a-2861bc6fe337"},"vehicle_type_id":"4","last_reported":1713906419,"current_range_meters":28000,"station_id":"ce4bgth2rcd13ifvqch0","pricing_plan_id":"cebpf4jnsgd1na2vs0mg"},{"bike_id":"7bd9dcd7-cfa4-4720-b545-724872c01541","system_id":"levelo_inurba_marseille","lat":43.317154,"lon":5.377726,"is_reserved":false,"is_disabled":false,"rental_uris":{"android":"levelo://app?vid=7bd9dcd7-cfa4-4720-b545-724872c01541","ios":"levelo://app?vid=7bd9dcd7-cfa4-4720-b545-724872c01541"},"vehicle_type_id":"4","last_reported":1713906419,"current_range_meters":21200,"station_id":"ce4bgth2rcd13ifvqch0","pricing_plan_id":"cebpf4jnsgd1na2vs0mg"},{"bike_id":"c97d8856-dac4-4257-ac35-4922a996e41c","system_id":"levelo_inurba_marseille","lat":43.303171,"lon":5.368965,"is_reserved":false,"is_disabled":false,"rental_uris":{"android":"levelo://app?vid=c97d8856-dac4-4257-ac35-4922a996e41c","ios":"levelo://app?vid=c97d8856-dac4-4257-ac35-4922a996e41c"},"vehicle_type_id":"4","last_reported":1713906419,"current_range_meters":29600,"station_id":"ce4bgqh2rcd13ifvqc5g","pricing_plan_id":"cebpf4jnsgd1na2vs0mg"},{"bike_id":"0e0bc62f-f506-4ded-abc0-952636d5bedc","system_id":"levelo_inurba_marseille","lat":43.303046,"lon":5.368981,"is_reserved":false,"is_disabled":false,"rental_uris":{"android":"levelo://app?vid=0e0bc62f-f506-4ded-abc0-952636d5bedc","ios":"levelo://app?vid=0e0bc62f-f506-4ded-abc0-952636d5bedc"},"vehicle_type_id":"4","last_reported":1713906419,"current_range_meters":4000,"station_id":"ce4bgqh2rcd13ifvqc5g","pricing_plan_id":"cebpf4jnsgd1na2vs0mg"},{"bike_id":"77d694b5-63f6-42c3-b39d-7bc4412afa1b","system_id":"levelo_inurba_marseille","lat":43.315289,"lon":5.380349,"is_reserved":false,"is_disabled":false,"rental_uris":{"android":"levelo://app?vid=77d694b5-63f6-42c3-b39d-7bc4412afa1b","ios":"levelo://app?vid=77d694b5-63f6-42c3-b39d-7bc4412afa1b"},"vehicle_type_id":"4","last_reported":1713906419,"current_range_meters":7200,"station_id":"ce4bhsp2rcd13ifvqi50","pricing_plan_id":"cebpf4jnsgd1na2vs0mg"},{"bike_id":"4416f9eb-29a0-47b7-9110-55b6f01fec00","system_id":"levelo_inurba_marseille","lat":43.315289,"lon":5.380349,"is_reserved":false,"is_disabled":false,"rental_uris":{"android":"levelo://app?vid=4416f9eb-29a0-47b7-9110-55b6f01fec00","ios":"levelo://app?vid=4416f9eb-29a0-47b7-9110-55b6f01fec00"},"vehicle_type_id":"4","last_reported":1713906419,"current_range_meters":8400,"station_id":"ce4bhsp2rcd13ifvqi50","pricing_plan_id":"cebpf4jnsgd1na2vs0mg"},{"bike_id":"20617b6f-01e4-4823-8a20-199bfedddf1d","system_id":"levelo_inurba_marseille","lat":43.315289,"lon":5.380349,"is_reserved":false,"is_disabled":false,"rental_uris":{"android":"levelo://app?vid=20617b6f-01e4-4823-8a20-199bfedddf1d","ios":"levelo://app?vid=20617b6f-01e4-4823-8a20-199bfedddf1d"},"vehicle_type_id":"4","last_reported":1713906419,"current_range_meters":31600,"station_id":"ce4bhsp2rcd13ifvqi50","pricing_plan_id":"cebpf4jnsgd1na2vs0mg"},{"bike_id":"cc07bd6d-9a62-4304-9872-709067a18b62","system_id":"levelo_inurba_marseille","lat":43.315289,"lon":5.380349,"is_reserved":false,"is_disabled":false,"rental_uris":{"android":"levelo://app?vid=cc07bd6d-9a62-4304-9872-709067a18b62","ios":"levelo://app?vid=cc07bd6d-9a62-4304-9872-709067a18b62"},"vehicle_type_id":"4","last_reported":1713906419,"current_range_meters":30000,"station_id":"ce4bhsp2rcd13ifvqi50","pricing_plan_id":"cebpf4jnsgd1na2vs0mg"},{"bike_id":"7101a349-7118-40ef-a725-f184781cbb70","system_id":"levelo_inurba_marseille","lat":43.315289,"lon":5.380349,"is_reserved":false,"is_disabled":false,"rental_uris":{"android":"levelo://app?vid=7101a349-7118-40ef-a725-f184781cbb70","ios":"levelo://app?vid=7101a349-7118-40ef-a725-f184781cbb70"},"vehicle_type_id":"4","last_reported":1713906419,"current_range_meters":31200,"station_id":"ce4bhsp2rcd13ifvqi50","pricing_plan_id":"cebpf4jnsgd1na2vs0mg"},{"bike_id":"f356d1d8-0505-46f2-bd58-eca6e251500c","system_id":"levelo_inurba_marseille","lat":43.315293,"lon":5.380349,"is_reserved":false,"is_disabled":false,"rental_uris":{"android":"levelo://app?vid=f356d1d8-0505-46f2-bd58-eca6e251500c","ios":"levelo://app?vid=f356d1d8-0505-46f2-bd58-eca6e251500c"},"vehicle_type_id":"4","last_reported":1713906419,"current_range_meters":28000,"station_id":"ce4bhsp2rcd13ifvqi50","pricing_plan_id":"cebpf4jnsgd1na2vs0mg"},{"bike_id":"8b20c80b-7f14-4386-b781-00117ef1886a","system_id":"levelo_inurba_marseille","lat":43.308012,"lon":5.381511,"is_reserved":false,"is_disabled":false,"rental_uris":{"android":"levelo://app?vid=8b20c80b-7f14-4386-b781-00117ef1886a","ios":"levelo://app?vid=8b20c80b-7f14-4386-b781-00117ef1886a"},"vehicle_type_id":"4","last_reported":1713906419,"current_range_meters":12000,"station_id":"ce4bgt12rcd13ifvqce0","pricing_plan_id":"cebpf4jnsgd1na2vs0mg"},{"bike_id":"3bd4a468-2f80-4a7d-8554-379e03286128","system_id":"levelo_inurba_marseille","lat":43.308012,"lon":5.381511,"is_reserved":false,"is_disabled":false,"rental_uris":{"android":"levelo://app?vid=3bd4a468-2f80-4a7d-8554-379e03286128","ios":"levelo://app?vid=3bd4a468-2f80-4a7d-8554-379e03286128"},"vehicle_type_id":"4","last_reported":1713906419,"current_range_meters":8000,"station_id":"ce4bgt12rcd13ifvqce0","pricing_plan_id":"cebpf4jnsgd1na2vs0mg"},{"bike_id":"30f4a96a-6abe-45ab-a8ee-c6704f2b7844","system_id":"levelo_inurba_marseille","lat":43.308012,"lon":5.381511,"is_reserved":false,"is_disabled":false,"rental_uris":{"android":"levelo://app?vid=30f4a96a-6abe-45ab-a8ee-c6704f2b7844","ios":"levelo://app?vid=30f4a96a-6abe-45ab-a8ee-c6704f2b7844"},"vehicle_type_id":"4","last_reported":1713906419,"current_range_meters":15600,"station_id":"ce4bgt12rcd13ifvqce0","pricing_plan_id":"cebpf4jnsgd1na2vs0mg"},{"bike_id":"d225a73a-1e65-4b20-ac44-f0fed6d9e1c7","system_id":"levelo_inurba_marseille","lat":43.308012,"lon":5.381511,"is_reserved":false,"is_disabled":false,"rental_uris":{"android":"levelo://app?vid=d225a73a-1e65-4b20-ac44-f0fed6d9e1c7","ios":"levelo://app?vid=d225a73a-1e65-4b20-ac44-f0fed6d9e1c7"},"vehicle_type_id":"4","last_reported":1713906419,"current_range_meters":1600,"station_id":"ce4bgt12rcd13ifvqce0","pricing_plan_id":"cebpf4jnsgd1na2vs0mg"},{"bike_id":"28411cf7-e085-4408-878e-b3c04df65bb7","system_id":"levelo_inurba_marseille","lat":43.304606,"lon":5.379026,"is_reserved":false,"is_disabled":false,"rental_uris":{"android":"levelo://app?vid=28411cf7-e085-4408-878e-b3c04df65bb7","ios":"levelo://app?vid=28411cf7-e085-4408-878e-b3c04df65bb7"},"vehicle_type_id":"4","last_reported":1713906419,"current_range_meters":21600,"station_id":"ce4bgup2rcd13ifvqcn0","pricing_plan_id":"cebpf4jnsgd1na2vs0mg"},{"bike_id":"29ddf937-22d2-4279-a7e7-25c33a465fcf","system_id":"levelo_inurba_marseille","lat":43.324771,"lon":5.36557,"is_reserved":false,"is_disabled":false,"rental_uris":{"android":"levelo://app?vid=29ddf937-22d2-4279-a7e7-25c33a465fcf","ios":"levelo://app?vid=29ddf937-22d2-4279-a7e7-25c33a465fcf"},"vehicle_type_id":"4","last_reported":1713906419,"current_range_meters":8400,"station_id":"ce4bhs12rcd13ifvqhvg","pricing_plan_id":"cebpf4jnsgd1na2vs0mg"},{"bike_id":"87328225-374d-482b-b29a-234f51af0729","system_id":"levelo_inurba_marseille","lat":43.31079,"lon":5.38352,"is_reserved":false,"is_disabled":false,"rental_uris":{"android":"levelo://app?vid=87328225-374d-482b-b29a-234f51af0729","ios":"levelo://app?vid=87328225-374d-482b-b29a-234f51af0729"},"vehicle_type_id":"4","last_reported":1713906419,"current_range_meters":14800,"station_id":"ce4bgv92rcd13ifvqcr0","pricing_plan_id":"cebpf4jnsgd1na2vs0mg"},{"bike_id":"c51a081b-60df-4890-bc40-c5189d12b1e0","system_id":"levelo_inurba_marseille","lat":43.310804,"lon":5.38359,"is_reserved":false,"is_disabled":false,"rental_uris":{"android":"levelo://app?vid=c51a081b-60df-4890-bc40-c5189d12b1e0","ios":"levelo://app?vid=c51a081b-60df-4890-bc40-c5189d12b1e0"},"vehicle_type_id":"4","last_reported":1713906419,"current_range_meters":2400,"station_id":"ce4bgv92rcd13ifvqcr0","pricing_plan_id":"cebpf4jnsgd1na2vs0mg"},{"bike_id":"33f06f6f-02ef-4f71-9401-90b1fc48f968","system_id":"levelo_inurba_marseille","lat":43.302784,"lon":5.377158,"is_reserved":false,"is_disabled":false,"rental_uris":{"android":"levelo://app?vid=33f06f6f-02ef-4f71-9401-90b1fc48f968","ios":"levelo://app?vid=33f06f6f-02ef-4f71-9401-90b1fc48f968"},"vehicle_type_id":"4","last_reported":1713906419,"current_range_meters":24800,"station_id":"ce4bguh2rcd13ifvqcj0","pricing_plan_id":"cebpf4jnsgd1na2vs0mg"},{"bike_id":"a030ab10-f97c-433b-b6b4-a2b5245b6638","system_id":"levelo_inurba_marseille","lat":43.30143,"lon":5.37413,"is_reserved":false,"is_disabled":false,"rental_uris":{"android":"levelo://app?vid=a030ab10-f97c-433b-b6b4-a2b5245b6638","ios":"levelo://app?vid=a030ab10-f97c-433b-b6b4-a2b5245b6638"},"vehicle_type_id":"4","last_reported":1713906419,"current_range_meters":12800,"station_id":"ce4bgs92rcd13ifvqcc0","pricing_plan_id":"cebpf4jnsgd1na2vs0mg"},{"bike_id":"57ab597c-df0b-468b-a9ee-d67f13ade94f","system_id":"levelo_inurba_marseille","lat":43.299222,"lon":5.365554,"is_reserved":false,"is_disabled":false,"rental_uris":{"android":"levelo://app?vid=57ab597c-df0b-468b-a9ee-d67f13ade94f","ios":"levelo://app?vid=57ab597c-df0b-468b-a9ee-d67f13ade94f"},"vehicle_type_id":"4","last_reported":1713906419,"current_range_meters":31200,"station_id":"ce4bgm92rcd13ifvqbr0","pricing_plan_id":"cebpf4jnsgd1na2vs0mg"},{"bike_id":"fd0a37e9-f67e-454a-96b4-2b4e2b256e71","system_id":"levelo_inurba_marseille","lat":43.31996,"lon":5.38159,"is_reserved":false,"is_disabled":false,"rental_uris":{"android":"levelo://app?vid=fd0a37e9-f67e-454a-96b4-2b4e2b256e71","ios":"levelo://app?vid=fd0a37e9-f67e-454a-96b4-2b4e2b256e71"},"vehicle_type_id":"4","last_reported":1713906419,"current_range_meters":1600,"station_id":"ce4bhr12rcd13ifvqhpg","pricing_plan_id":"cebpf4jnsgd1na2vs0mg"},{"bike_id":"8c64ce1e-6247-4d26-b24c-48fb14582ac3","system_id":"levelo_inurba_marseille","lat":43.313571,"lon":5.384829,"is_reserved":false,"is_disabled":false,"rental_uris":{"android":"levelo://app?vid=8c64ce1e-6247-4d26-b24c-48fb14582ac3","ios":"levelo://app?vid=8c64ce1e-6247-4d26-b24c-48fb14582ac3"},"vehicle_type_id":"4","last_reported":1713906419,"current_range_meters":26400,"station_id":"ce4bgt92rcd13ifvqcf0","pricing_plan_id":"cebpf4jnsgd1na2vs0mg"},{"bike_id":"f409f865-4aac-4833-a87c-844769bfb2f4","system_id":"levelo_inurba_marseille","lat":43.31357,"lon":5.38491,"is_reserved":false,"is_disabled":false,"rental_uris":{"android":"levelo://app?vid=f409f865-4aac-4833-a87c-844769bfb2f4","ios":"levelo://app?vid=f409f865-4aac-4833-a87c-844769bfb2f4"},"vehicle_type_id":"4","last_reported":1713906419,"current_range_meters":3200,"station_id":"ce4bgt92rcd13ifvqcf0","pricing_plan_id":"cebpf4jnsgd1na2vs0mg"},{"bike_id":"8e5a68c3-ddf9-41cb-97c2-273d49df1dcb","system_id":"levelo_inurba_marseille","lat":43.313571,"lon":5.384829,"is_reserved":false,"is_disabled":false,"rental_uris":{"android":"levelo://app?vid=8e5a68c3-ddf9-41cb-97c2-273d49df1dcb","ios":"levelo://app?vid=8e5a68c3-ddf9-41cb-97c2-273d49df1dcb"},"vehicle_type_id":"4","last_reported":1713906419,"current_range_meters":9200,"station_id":"ce4bgt92rcd13ifvqcf0","pricing_plan_id":"cebpf4jnsgd1na2vs0mg"},{"bike_id":"cc4c9fd1-5ab9-437a-baef-cc45b453f9db","system_id":"levelo_inurba_marseille","lat":43.313637,"lon":5.384937,"is_reserved":false,"is_disabled":false,"rental_uris":{"android":"levelo://app?vid=cc4c9fd1-5ab9-437a-baef-cc45b453f9db","ios":"levelo://app?vid=cc4c9fd1-5ab9-437a-baef-cc45b453f9db"},"vehicle_type_id":"4","last_reported":1713906419,"current_range_meters":23200,"station_id":"ce4bgt92rcd13ifvqcf0","pricing_plan_id":"cebpf4jnsgd1na2vs0mg"},{"bike_id":"ef63a35a-81b3-4729-9508-c995a37b00d4","system_id":"levelo_inurba_marseille","lat":43.313571,"lon":5.384829,"is_reserved":false,"is_disabled":false,"rental_uris":{"android":"levelo://app?vid=ef63a35a-81b3-4729-9508-c995a37b00d4","ios":"levelo://app?vid=ef63a35a-81b3-4729-9508-c995a37b00d4"},"vehicle_type_id":"4","last_reported":1713906419,"current_range_meters":12000,"station_id":"ce4bgt92rcd13ifvqcf0","pricing_plan_id":"cebpf4jnsgd1na2vs0mg"},{"bike_id":"45885ea6-f0f5-4bca-ba3d-51a6701a202f","system_id":"levelo_inurba_marseille","lat":43.31369,"lon":5.38497,"is_reserved":false,"is_disabled":false,"rental_uris":{"android":"levelo://app?vid=45885ea6-f0f5-4bca-ba3d-51a6701a202f","ios":"levelo://app?vid=45885ea6-f0f5-4bca-ba3d-51a6701a202f"},"vehicle_type_id":"4","last_reported":1713906419,"current_range_meters":800,"station_id":"ce4bgt92rcd13ifvqcf0","pricing_plan_id":"cebpf4jnsgd1na2vs0mg"},{"bike_id":"1580ea5e-9255-4da5-b4f9-27d550dae5ae","system_id":"levelo_inurba_marseille","lat":43.31361,"lon":5.38504,"is_reserved":false,"is_disabled":false,"rental_uris":{"android":"levelo://app?vid=1580ea5e-9255-4da5-b4f9-27d550dae5ae","ios":"levelo://app?vid=1580ea5e-9255-4da5-b4f9-27d550dae5ae"},"vehicle_type_id":"4","last_reported":1713906419,"current_range_meters":13600,"station_id":"","pricing_plan_id":"cebpf4jnsgd1na2vs0mg"},{"bike_id":"28571ece-6095-4ef7-a014-b2d50ca28a28","system_id":"levelo_inurba_marseille","lat":43.31364,"lon":5.38504,"is_reserved":false,"is_disabled":false,"rental_uris":{"android":"levelo://app?vid=28571ece-6095-4ef7-a014-b2d50ca28a28","ios":"levelo://app?vid=28571ece-6095-4ef7-a014-b2d50ca28a28"},"vehicle_type_id":"4","last_reported":1713906419,"current_range_meters":17200,"station_id":"ce4bgt92rcd13ifvqcf0","pricing_plan_id":"cebpf4jnsgd1na2vs0mg"},{"bike_id":"4f080db7-3ce1-40de-ad41-b2d1fdb3f975","system_id":"levelo_inurba_marseille","lat":43.299222,"lon":5.365554,"is_reserved":false,"is_disabled":false,"rental_uris":{"android":"levelo://app?vid=4f080db7-3ce1-40de-ad41-b2d1fdb3f975","ios":"levelo://app?vid=4f080db7-3ce1-40de-ad41-b2d1fdb3f975"},"vehicle_type_id":"4","last_reported":1713906419,"current_range_meters":29600,"station_id":"ce4bgm92rcd13ifvqbr0","pricing_plan_id":"cebpf4jnsgd1na2vs0mg"},{"bike_id":"fd0292e8-40a2-421e-9b9f-98e0a917ddf4","system_id":"levelo_inurba_marseille","lat":43.2998,"lon":5.37176,"is_reserved":false,"is_disabled":false,"rental_uris":{"android":"levelo://app?vid=fd0292e8-40a2-421e-9b9f-98e0a917ddf4","ios":"levelo://app?vid=fd0292e8-40a2-421e-9b9f-98e0a917ddf4"},"vehicle_type_id":"4","last_reported":1713906419,"current_range_meters":29600,"station_id":"ce4bgr92rcd13ifvqc7g","pricing_plan_id":"cebpf4jnsgd1na2vs0mg"},{"bike_id":"95cd0611-a969-4f78-91b7-2baf601378ba","system_id":"levelo_inurba_marseille","lat":43.299367,"lon":5.365423,"is_reserved":false,"is_disabled":false,"rental_uris":{"android":"levelo://app?vid=95cd0611-a969-4f78-91b7-2baf601378ba","ios":"levelo://app?vid=95cd0611-a969-4f78-91b7-2baf601378ba"},"vehicle_type_id":"4","last_reported":1713906419,"current_range_meters":31200,"station_id":"ce4bgm92rcd13ifvqbr0","pricing_plan_id":"cebpf4jnsgd1na2vs0mg"},{"bike_id":"df6da61d-b117-449a-8fc7-9523d6090c7c","system_id":"levelo_inurba_marseille","lat":43.299222,"lon":5.365554,"is_reserved":false,"is_disabled":false,"rental_uris":{"android":"levelo://app?vid=df6da61d-b117-449a-8fc7-9523d6090c7c","ios":"levelo://app?vid=df6da61d-b117-449a-8fc7-9523d6090c7c"},"vehicle_type_id":"4","last_reported":1713906419,"current_range_meters":27600,"station_id":"ce4bgm92rcd13ifvqbr0","pricing_plan_id":"cebpf4jnsgd1na2vs0mg"},{"bike_id":"5194a89f-f42e-4069-85fb-8245decce2ee","system_id":"levelo_inurba_marseille","lat":43.299222,"lon":5.365554,"is_reserved":false,"is_disabled":false,"rental_uris":{"android":"levelo://app?vid=5194a89f-f42e-4069-85fb-8245decce2ee","ios":"levelo://app?vid=5194a89f-f42e-4069-85fb-8245decce2ee"},"vehicle_type_id":"4","last_reported":1713906419,"current_range_meters":5200,"station_id":"ce4bgm92rcd13ifvqbr0","pricing_plan_id":"cebpf4jnsgd1na2vs0mg"},{"bike_id":"0877b330-3d98-4e8a-9b14-2ef4983eaccb","system_id":"levelo_inurba_marseille","lat":43.299222,"lon":5.365554,"is_reserved":false,"is_disabled":false,"rental_uris":{"android":"levelo://app?vid=0877b330-3d98-4e8a-9b14-2ef4983eaccb","ios":"levelo://app?vid=0877b330-3d98-4e8a-9b14-2ef4983eaccb"},"vehicle_type_id":"4","last_reported":1713906419,"current_range_meters":20800,"station_id":"ce4bgm92rcd13ifvqbr0","pricing_plan_id":"cebpf4jnsgd1na2vs0mg"},{"bike_id":"2cfbc820-fa3e-4b97-9f80-bb8a7d31789b","system_id":"levelo_inurba_marseille","lat":43.29935,"lon":5.36531,"is_reserved":false,"is_disabled":false,"rental_uris":{"android":"levelo://app?vid=2cfbc820-fa3e-4b97-9f80-bb8a7d31789b","ios":"levelo://app?vid=2cfbc820-fa3e-4b97-9f80-bb8a7d31789b"},"vehicle_type_id":"4","last_reported":1713906419,"current_range_meters":31200,"station_id":"ce4bgm92rcd13ifvqbr0","pricing_plan_id":"cebpf4jnsgd1na2vs0mg"},{"bike_id":"32ef547c-7fb8-464d-adfe-9a0defba5b04","system_id":"levelo_inurba_marseille","lat":43.299222,"lon":5.365554,"is_reserved":false,"is_disabled":false,"rental_uris":{"android":"levelo://app?vid=32ef547c-7fb8-464d-adfe-9a0defba5b04","ios":"levelo://app?vid=32ef547c-7fb8-464d-adfe-9a0defba5b04"},"vehicle_type_id":"4","last_reported":1713906419,"current_range_meters":24400,"station_id":"ce4bgm92rcd13ifvqbr0","pricing_plan_id":"cebpf4jnsgd1na2vs0mg"},{"bike_id":"8aaf5688-c0b8-4758-89aa-3a41bd9a05f9","system_id":"levelo_inurba_marseille","lat":43.299222,"lon":5.365554,"is_reserved":false,"is_disabled":false,"rental_uris":{"android":"levelo://app?vid=8aaf5688-c0b8-4758-89aa-3a41bd9a05f9","ios":"levelo://app?vid=8aaf5688-c0b8-4758-89aa-3a41bd9a05f9"},"vehicle_type_id":"4","last_reported":1713906419,"current_range_meters":31200,"station_id":"ce4bgm92rcd13ifvqbr0","pricing_plan_id":"cebpf4jnsgd1na2vs0mg"},{"bike_id":"acf9fa8e-453c-47d1-890c-0eeb078803d3","system_id":"levelo_inurba_marseille","lat":43.290995,"lon":5.381361,"is_reserved":false,"is_disabled":false,"rental_uris":{"android":"levelo://app?vid=acf9fa8e-453c-47d1-890c-0eeb078803d3","ios":"levelo://app?vid=acf9fa8e-453c-47d1-890c-0eeb078803d3"},"vehicle_type_id":"4","last_reported":1713906419,"current_range_meters":23600,"station_id":"ce4bh512rcd13ifvqe2g","pricing_plan_id":"cebpf4jnsgd1na2vs0mg"},{"bike_id":"74a26ebb-ea05-4494-b228-79107fda0673","system_id":"levelo_inurba_marseille","lat":43.305364,"lon":5.384119,"is_reserved":false,"is_disabled":false,"rental_uris":{"android":"levelo://app?vid=74a26ebb-ea05-4494-b228-79107fda0673","ios":"levelo://app?vid=74a26ebb-ea05-4494-b228-79107fda0673"},"vehicle_type_id":"4","last_reported":1713906419,"current_range_meters":14400,"station_id":"ce4bgg92rcd13ifvqb30","pricing_plan_id":"cebpf4jnsgd1na2vs0mg"},{"bike_id":"a261f7d9-9477-4c03-a9ec-62edde1bb337","system_id":"levelo_inurba_marseille","lat":43.311722,"lon":5.387247,"is_reserved":false,"is_disabled":false,"rental_uris":{"android":"levelo://app?vid=a261f7d9-9477-4c03-a9ec-62edde1bb337","ios":"levelo://app?vid=a261f7d9-9477-4c03-a9ec-62edde1bb337"},"vehicle_type_id":"4","last_reported":1713906419,"current_range_meters":4800,"station_id":"ce4bgv12rcd13ifvqcp0","pricing_plan_id":"cebpf4jnsgd1na2vs0mg"},{"bike_id":"7422ae7e-e096-4284-9b9e-61f79a7a1cd4","system_id":"levelo_inurba_marseille","lat":43.311722,"lon":5.387247,"is_reserved":false,"is_disabled":false,"rental_uris":{"android":"levelo://app?vid=7422ae7e-e096-4284-9b9e-61f79a7a1cd4","ios":"levelo://app?vid=7422ae7e-e096-4284-9b9e-61f79a7a1cd4"},"vehicle_type_id":"4","last_reported":1713906419,"current_range_meters":25200,"station_id":"ce4bgv12rcd13ifvqcp0","pricing_plan_id":"cebpf4jnsgd1na2vs0mg"},{"bike_id":"83c697bc-815a-4b7c-8a34-0b87c4bcc25b","system_id":"levelo_inurba_marseille","lat":43.311722,"lon":5.387247,"is_reserved":false,"is_disabled":false,"rental_uris":{"android":"levelo://app?vid=83c697bc-815a-4b7c-8a34-0b87c4bcc25b","ios":"levelo://app?vid=83c697bc-815a-4b7c-8a34-0b87c4bcc25b"},"vehicle_type_id":"4","last_reported":1713906419,"current_range_meters":24000,"station_id":"ce4bgv12rcd13ifvqcp0","pricing_plan_id":"cebpf4jnsgd1na2vs0mg"},{"bike_id":"623effa6-a2eb-483a-96c6-f9c6177b8c44","system_id":"levelo_inurba_marseille","lat":43.31174,"lon":5.38725,"is_reserved":false,"is_disabled":false,"rental_uris":{"android":"levelo://app?vid=623effa6-a2eb-483a-96c6-f9c6177b8c44","ios":"levelo://app?vid=623effa6-a2eb-483a-96c6-f9c6177b8c44"},"vehicle_type_id":"4","last_reported":1713906419,"current_range_meters":0,"station_id":"ce4bgv12rcd13ifvqcp0","pricing_plan_id":"cebpf4jnsgd1na2vs0mg"},{"bike_id":"a4c8b2ff-6e72-404e-847b-c34b477643f1","system_id":"levelo_inurba_marseille","lat":43.31163,"lon":5.38726,"is_reserved":false,"is_disabled":false,"rental_uris":{"android":"levelo://app?vid=a4c8b2ff-6e72-404e-847b-c34b477643f1","ios":"levelo://app?vid=a4c8b2ff-6e72-404e-847b-c34b477643f1"},"vehicle_type_id":"4","last_reported":1713906419,"current_range_meters":26400,"station_id":"ce4bgv12rcd13ifvqcp0","pricing_plan_id":"cebpf4jnsgd1na2vs0mg"},{"bike_id":"6e4153e4-b1a0-4055-9fb2-029cb9bde5f6","system_id":"levelo_inurba_marseille","lat":43.297774,"lon":5.370875,"is_reserved":false,"is_disabled":false,"rental_uris":{"android":"levelo://app?vid=6e4153e4-b1a0-4055-9fb2-029cb9bde5f6","ios":"levelo://app?vid=6e4153e4-b1a0-4055-9fb2-029cb9bde5f6"},"vehicle_type_id":"4","last_reported":1713906419,"current_range_meters":27600,"station_id":"ce4bgop2rcd13ifvqc1g","pricing_plan_id":"cebpf4jnsgd1na2vs0mg"},{"bike_id":"0baa2e0a-abf1-4761-a1c6-036608f3e9a9","system_id":"levelo_inurba_marseille","lat":43.297794,"lon":5.370888,"is_reserved":false,"is_disabled":false,"rental_uris":{"android":"levelo://app?vid=0baa2e0a-abf1-4761-a1c6-036608f3e9a9","ios":"levelo://app?vid=0baa2e0a-abf1-4761-a1c6-036608f3e9a9"},"vehicle_type_id":"4","last_reported":1713906419,"current_range_meters":16400,"station_id":"ce4bgop2rcd13ifvqc1g","pricing_plan_id":"cebpf4jnsgd1na2vs0mg"},{"bike_id":"27ed7e3b-1e10-4778-b7ec-a12b5d711d4d","system_id":"levelo_inurba_marseille","lat":43.322872,"lon":5.382756,"is_reserved":false,"is_disabled":false,"rental_uris":{"android":"levelo://app?vid=27ed7e3b-1e10-4778-b7ec-a12b5d711d4d","ios":"levelo://app?vid=27ed7e3b-1e10-4778-b7ec-a12b5d711d4d"},"vehicle_type_id":"4","last_reported":1713906419,"current_range_meters":26000,"station_id":"ce4bhr12rcd13ifvqhqg","pricing_plan_id":"cebpf4jnsgd1na2vs0mg"},{"bike_id":"6c8ea290-8b93-49cb-8f44-70ec1c92c681","system_id":"levelo_inurba_marseille","lat":43.297774,"lon":5.370875,"is_reserved":false,"is_disabled":false,"rental_uris":{"android":"levelo://app?vid=6c8ea290-8b93-49cb-8f44-70ec1c92c681","ios":"levelo://app?vid=6c8ea290-8b93-49cb-8f44-70ec1c92c681"},"vehicle_type_id":"4","last_reported":1713906419,"current_range_meters":16400,"station_id":"ce4bgop2rcd13ifvqc1g","pricing_plan_id":"cebpf4jnsgd1na2vs0mg"},{"bike_id":"ae305476-d332-41e9-a660-161b3f2e50d5","system_id":"levelo_inurba_marseille","lat":43.322872,"lon":5.382756,"is_reserved":false,"is_disabled":false,"rental_uris":{"android":"levelo://app?vid=ae305476-d332-41e9-a660-161b3f2e50d5","ios":"levelo://app?vid=ae305476-d332-41e9-a660-161b3f2e50d5"},"vehicle_type_id":"4","last_reported":1713906419,"current_range_meters":4400,"station_id":"ce4bhr12rcd13ifvqhqg","pricing_plan_id":"cebpf4jnsgd1na2vs0mg"},{"bike_id":"b9ec29b6-b6bb-400d-ab8c-da1fe7ce1b0e","system_id":"levelo_inurba_marseille","lat":43.322872,"lon":5.382756,"is_reserved":false,"is_disabled":false,"rental_uris":{"android":"levelo://app?vid=b9ec29b6-b6bb-400d-ab8c-da1fe7ce1b0e","ios":"levelo://app?vid=b9ec29b6-b6bb-400d-ab8c-da1fe7ce1b0e"},"vehicle_type_id":"4","last_reported":1713906419,"current_range_meters":27200,"station_id":"ce4bhr12rcd13ifvqhqg","pricing_plan_id":"cebpf4jnsgd1na2vs0mg"},{"bike_id":"0748efb8-2dec-4add-a4a0-bf67f45f2495","system_id":"levelo_inurba_marseille","lat":43.322892,"lon":5.382846,"is_reserved":false,"is_disabled":false,"rental_uris":{"android":"levelo://app?vid=0748efb8-2dec-4add-a4a0-bf67f45f2495","ios":"levelo://app?vid=0748efb8-2dec-4add-a4a0-bf67f45f2495"},"vehicle_type_id":"4","last_reported":1713906419,"current_range_meters":1200,"station_id":"ce4bhr12rcd13ifvqhqg","pricing_plan_id":"cebpf4jnsgd1na2vs0mg"},{"bike_id":"3a84c83f-8a80-487e-989c-737bf5c752e1","system_id":"levelo_inurba_marseille","lat":43.2968,"lon":5.37291,"is_reserved":false,"is_disabled":false,"rental_uris":{"android":"levelo://app?vid=3a84c83f-8a80-487e-989c-737bf5c752e1","ios":"levelo://app?vid=3a84c83f-8a80-487e-989c-737bf5c752e1"},"vehicle_type_id":"4","last_reported":1713906419,"current_range_meters":22400,"station_id":"ce4bgk12rcd13ifvqbj0","pricing_plan_id":"cebpf4jnsgd1na2vs0mg"},{"bike_id":"22ee16ca-a245-4dc1-ad8a-db06da73955c","system_id":"levelo_inurba_marseille","lat":43.29597,"lon":5.36877,"is_reserved":false,"is_disabled":false,"rental_uris":{"android":"levelo://app?vid=22ee16ca-a245-4dc1-ad8a-db06da73955c","ios":"levelo://app?vid=22ee16ca-a245-4dc1-ad8a-db06da73955c"},"vehicle_type_id":"4","last_reported":1713906419,"current_range_meters":12000,"station_id":"","pricing_plan_id":"cebpf4jnsgd1na2vs0mg"},{"bike_id":"832d8d7c-7b03-46b5-8eb8-b7917defafdd","system_id":"levelo_inurba_marseille","lat":43.297237,"lon":5.376327,"is_reserved":false,"is_disabled":false,"rental_uris":{"android":"levelo://app?vid=832d8d7c-7b03-46b5-8eb8-b7917defafdd","ios":"levelo://app?vid=832d8d7c-7b03-46b5-8eb8-b7917defafdd"},"vehicle_type_id":"4","last_reported":1713906419,"current_range_meters":12000,"station_id":"ce4bgkh2rcd13ifvqbl0","pricing_plan_id":"cebpf4jnsgd1na2vs0mg"},{"bike_id":"bbe08d71-294b-4c90-9f60-122241331af7","system_id":"levelo_inurba_marseille","lat":43.309589,"lon":5.390258,"is_reserved":false,"is_disabled":false,"rental_uris":{"android":"levelo://app?vid=bbe08d71-294b-4c90-9f60-122241331af7","ios":"levelo://app?vid=bbe08d71-294b-4c90-9f60-122241331af7"},"vehicle_type_id":"4","last_reported":1713906419,"current_range_meters":25600,"station_id":"ce4bgup2rcd13ifvqco0","pricing_plan_id":"cebpf4jnsgd1na2vs0mg"},{"bike_id":"3c5e52be-cc1d-4d08-8482-bafcde4252c5","system_id":"levelo_inurba_marseille","lat":43.309589,"lon":5.390258,"is_reserved":false,"is_disabled":false,"rental_uris":{"android":"levelo://app?vid=3c5e52be-cc1d-4d08-8482-bafcde4252c5","ios":"levelo://app?vid=3c5e52be-cc1d-4d08-8482-bafcde4252c5"},"vehicle_type_id":"4","last_reported":1713906419,"current_range_meters":10000,"station_id":"ce4bgup2rcd13ifvqco0","pricing_plan_id":"cebpf4jnsgd1na2vs0mg"},{"bike_id":"f7fde4e5-aadc-482f-aed4-95a0538d34be","system_id":"levelo_inurba_marseille","lat":43.302784,"lon":5.377158,"is_reserved":false,"is_disabled":false,"rental_uris":{"android":"levelo://app?vid=f7fde4e5-aadc-482f-aed4-95a0538d34be","ios":"levelo://app?vid=f7fde4e5-aadc-482f-aed4-95a0538d34be"},"vehicle_type_id":"4","last_reported":1713906419,"current_range_meters":9200,"station_id":"ce4bguh2rcd13ifvqcj0","pricing_plan_id":"cebpf4jnsgd1na2vs0mg"},{"bike_id":"9e664781-9a2f-4055-8dc1-713f39d3394a","system_id":"levelo_inurba_marseille","lat":43.317557,"lon":5.390173,"is_reserved":false,"is_disabled":false,"rental_uris":{"android":"levelo://app?vid=9e664781-9a2f-4055-8dc1-713f39d3394a","ios":"levelo://app?vid=9e664781-9a2f-4055-8dc1-713f39d3394a"},"vehicle_type_id":"4","last_reported":1713906419,"current_range_meters":6000,"station_id":"ce4bhqp2rcd13ifvqhng","pricing_plan_id":"cebpf4jnsgd1na2vs0mg"},{"bike_id":"8ca3ec5b-cca1-46c0-81d0-be883cff6b3e","system_id":"levelo_inurba_marseille","lat":43.317557,"lon":5.390173,"is_reserved":false,"is_disabled":false,"rental_uris":{"android":"levelo://app?vid=8ca3ec5b-cca1-46c0-81d0-be883cff6b3e","ios":"levelo://app?vid=8ca3ec5b-cca1-46c0-81d0-be883cff6b3e"},"vehicle_type_id":"4","last_reported":1713906419,"current_range_meters":31200,"station_id":"ce4bhqp2rcd13ifvqhng","pricing_plan_id":"cebpf4jnsgd1na2vs0mg"},{"bike_id":"b3162447-a02b-4826-b223-727a02d3ae9f","system_id":"levelo_inurba_marseille","lat":43.31757,"lon":5.3902,"is_reserved":false,"is_disabled":false,"rental_uris":{"android":"levelo://app?vid=b3162447-a02b-4826-b223-727a02d3ae9f","ios":"levelo://app?vid=b3162447-a02b-4826-b223-727a02d3ae9f"},"vehicle_type_id":"4","last_reported":1713906419,"current_range_meters":11600,"station_id":"ce4bhqp2rcd13ifvqhng","pricing_plan_id":"cebpf4jnsgd1na2vs0mg"},{"bike_id":"e9c6a310-d581-485b-96a5-a51d288a12eb","system_id":"levelo_inurba_marseille","lat":43.317557,"lon":5.390173,"is_reserved":false,"is_disabled":false,"rental_uris":{"android":"levelo://app?vid=e9c6a310-d581-485b-96a5-a51d288a12eb","ios":"levelo://app?vid=e9c6a310-d581-485b-96a5-a51d288a12eb"},"vehicle_type_id":"4","last_reported":1713906419,"current_range_meters":23200,"station_id":"ce4bhqp2rcd13ifvqhng","pricing_plan_id":"cebpf4jnsgd1na2vs0mg"},{"bike_id":"47a80bb3-a408-483e-9d6a-de83dab03df4","system_id":"levelo_inurba_marseille","lat":43.304274,"lon":5.388873,"is_reserved":false,"is_disabled":false,"rental_uris":{"android":"levelo://app?vid=47a80bb3-a408-483e-9d6a-de83dab03df4","ios":"levelo://app?vid=47a80bb3-a408-483e-9d6a-de83dab03df4"},"vehicle_type_id":"4","last_reported":1713906419,"current_range_meters":10400,"station_id":"ce4bgk12rcd13ifvqbi0","pricing_plan_id":"cebpf4jnsgd1na2vs0mg"},{"bike_id":"bbae126f-0126-4df8-8b3e-322752d7dfe2","system_id":"levelo_inurba_marseille","lat":43.304274,"lon":5.388873,"is_reserved":false,"is_disabled":false,"rental_uris":{"android":"levelo://app?vid=bbae126f-0126-4df8-8b3e-322752d7dfe2","ios":"levelo://app?vid=bbae126f-0126-4df8-8b3e-322752d7dfe2"},"vehicle_type_id":"4","last_reported":1713906419,"current_range_meters":26000,"station_id":"ce4bgk12rcd13ifvqbi0","pricing_plan_id":"cebpf4jnsgd1na2vs0mg"},{"bike_id":"2c636e85-c5ca-4ad9-ab6c-a0c4b050543a","system_id":"levelo_inurba_marseille","lat":43.304278,"lon":5.388868,"is_reserved":false,"is_disabled":false,"rental_uris":{"android":"levelo://app?vid=2c636e85-c5ca-4ad9-ab6c-a0c4b050543a","ios":"levelo://app?vid=2c636e85-c5ca-4ad9-ab6c-a0c4b050543a"},"vehicle_type_id":"4","last_reported":1713906419,"current_range_meters":26400,"station_id":"ce4bgk12rcd13ifvqbi0","pricing_plan_id":"cebpf4jnsgd1na2vs0mg"},{"bike_id":"a00b3990-a373-4fdc-88cb-7bc4f571c907","system_id":"levelo_inurba_marseille","lat":43.304278,"lon":5.388868,"is_reserved":false,"is_disabled":false,"rental_uris":{"android":"levelo://app?vid=a00b3990-a373-4fdc-88cb-7bc4f571c907","ios":"levelo://app?vid=a00b3990-a373-4fdc-88cb-7bc4f571c907"},"vehicle_type_id":"4","last_reported":1713906419,"current_range_meters":10000,"station_id":"ce4bgk12rcd13ifvqbi0","pricing_plan_id":"cebpf4jnsgd1na2vs0mg"},{"bike_id":"1593f166-ac0a-48cc-943f-cd9d2fea8de3","system_id":"levelo_inurba_marseille","lat":43.304372,"lon":5.388914,"is_reserved":false,"is_disabled":false,"rental_uris":{"android":"levelo://app?vid=1593f166-ac0a-48cc-943f-cd9d2fea8de3","ios":"levelo://app?vid=1593f166-ac0a-48cc-943f-cd9d2fea8de3"},"vehicle_type_id":"4","last_reported":1713906419,"current_range_meters":800,"station_id":"ce4bgk12rcd13ifvqbi0","pricing_plan_id":"cebpf4jnsgd1na2vs0mg"},{"bike_id":"75534077-5cef-4f58-a8a7-7958b47e2240","system_id":"levelo_inurba_marseille","lat":43.304274,"lon":5.388873,"is_reserved":false,"is_disabled":false,"rental_uris":{"android":"levelo://app?vid=75534077-5cef-4f58-a8a7-7958b47e2240","ios":"levelo://app?vid=75534077-5cef-4f58-a8a7-7958b47e2240"},"vehicle_type_id":"4","last_reported":1713906419,"current_range_meters":5200,"station_id":"ce4bgk12rcd13ifvqbi0","pricing_plan_id":"cebpf4jnsgd1na2vs0mg"},{"bike_id":"958f8321-5eb0-461c-b31b-c6efbfa33b2d","system_id":"levelo_inurba_marseille","lat":43.304274,"lon":5.388873,"is_reserved":false,"is_disabled":false,"rental_uris":{"android":"levelo://app?vid=958f8321-5eb0-461c-b31b-c6efbfa33b2d","ios":"levelo://app?vid=958f8321-5eb0-461c-b31b-c6efbfa33b2d"},"vehicle_type_id":"4","last_reported":1713906419,"current_range_meters":29200,"station_id":"ce4bgk12rcd13ifvqbi0","pricing_plan_id":"cebpf4jnsgd1na2vs0mg"},{"bike_id":"2b9f798a-ebf8-4922-957a-f61742719a64","system_id":"levelo_inurba_marseille","lat":43.29569,"lon":5.37515,"is_reserved":false,"is_disabled":false,"rental_uris":{"android":"levelo://app?vid=2b9f798a-ebf8-4922-957a-f61742719a64","ios":"levelo://app?vid=2b9f798a-ebf8-4922-957a-f61742719a64"},"vehicle_type_id":"4","last_reported":1713906419,"current_range_meters":0,"station_id":"ce4bgh92rcd13ifvqb50","pricing_plan_id":"cebpf4jnsgd1na2vs0mg"},{"bike_id":"0e09c011-2325-4840-9b70-b4918b7608c5","system_id":"levelo_inurba_marseille","lat":43.304278,"lon":5.388868,"is_reserved":false,"is_disabled":false,"rental_uris":{"android":"levelo://app?vid=0e09c011-2325-4840-9b70-b4918b7608c5","ios":"levelo://app?vid=0e09c011-2325-4840-9b70-b4918b7608c5"},"vehicle_type_id":"4","last_reported":1713906419,"current_range_meters":800,"station_id":"ce4bgk12rcd13ifvqbi0","pricing_plan_id":"cebpf4jnsgd1na2vs0mg"},{"bike_id":"58240108-b83f-492f-9c44-b0c16daa3250","system_id":"levelo_inurba_marseille","lat":43.304274,"lon":5.388873,"is_reserved":false,"is_disabled":false,"rental_uris":{"android":"levelo://app?vid=58240108-b83f-492f-9c44-b0c16daa3250","ios":"levelo://app?vid=58240108-b83f-492f-9c44-b0c16daa3250"},"vehicle_type_id":"4","last_reported":1713906419,"current_range_meters":27200,"station_id":"ce4bgk12rcd13ifvqbi0","pricing_plan_id":"cebpf4jnsgd1na2vs0mg"},{"bike_id":"5a17ab96-1138-48e7-83c5-d6e4c7e31bd9","system_id":"levelo_inurba_marseille","lat":43.304271,"lon":5.388886,"is_reserved":false,"is_disabled":false,"rental_uris":{"android":"levelo://app?vid=5a17ab96-1138-48e7-83c5-d6e4c7e31bd9","ios":"levelo://app?vid=5a17ab96-1138-48e7-83c5-d6e4c7e31bd9"},"vehicle_type_id":"4","last_reported":1713906419,"current_range_meters":17600,"station_id":"ce4bgk12rcd13ifvqbi0","pricing_plan_id":"cebpf4jnsgd1na2vs0mg"},{"bike_id":"e84a950c-fff5-479b-a747-42e67ebf37eb","system_id":"levelo_inurba_marseille","lat":43.304274,"lon":5.388873,"is_reserved":false,"is_disabled":false,"rental_uris":{"android":"levelo://app?vid=e84a950c-fff5-479b-a747-42e67ebf37eb","ios":"levelo://app?vid=e84a950c-fff5-479b-a747-42e67ebf37eb"},"vehicle_type_id":"4","last_reported":1713906419,"current_range_meters":26800,"station_id":"ce4bgk12rcd13ifvqbi0","pricing_plan_id":"cebpf4jnsgd1na2vs0mg"},{"bike_id":"b292cbdb-5892-4a6e-8e75-8c698df30c1f","system_id":"levelo_inurba_marseille","lat":43.3044,"lon":5.38899,"is_reserved":false,"is_disabled":false,"rental_uris":{"android":"levelo://app?vid=b292cbdb-5892-4a6e-8e75-8c698df30c1f","ios":"levelo://app?vid=b292cbdb-5892-4a6e-8e75-8c698df30c1f"},"vehicle_type_id":"4","last_reported":1713906419,"current_range_meters":0,"station_id":"ce4bgk12rcd13ifvqbi0","pricing_plan_id":"cebpf4jnsgd1na2vs0mg"},{"bike_id":"d53764c1-5a05-4117-90db-b4f4290835cd","system_id":"levelo_inurba_marseille","lat":43.304357,"lon":5.388962,"is_reserved":false,"is_disabled":false,"rental_uris":{"android":"levelo://app?vid=d53764c1-5a05-4117-90db-b4f4290835cd","ios":"levelo://app?vid=d53764c1-5a05-4117-90db-b4f4290835cd"},"vehicle_type_id":"4","last_reported":1713906419,"current_range_meters":12000,"station_id":"ce4bgk12rcd13ifvqbi0","pricing_plan_id":"cebpf4jnsgd1na2vs0mg"},{"bike_id":"9da2691a-c827-40fe-ae5e-390cac7e17b9","system_id":"levelo_inurba_marseille","lat":43.304274,"lon":5.388873,"is_reserved":false,"is_disabled":false,"rental_uris":{"android":"levelo://app?vid=9da2691a-c827-40fe-ae5e-390cac7e17b9","ios":"levelo://app?vid=9da2691a-c827-40fe-ae5e-390cac7e17b9"},"vehicle_type_id":"4","last_reported":1713906419,"current_range_meters":24000,"station_id":"ce4bgk12rcd13ifvqbi0","pricing_plan_id":"cebpf4jnsgd1na2vs0mg"},{"bike_id":"23dc7b60-2004-4f58-856a-129617d82d35","system_id":"levelo_inurba_marseille","lat":43.304395,"lon":5.389007,"is_reserved":false,"is_disabled":false,"rental_uris":{"android":"levelo://app?vid=23dc7b60-2004-4f58-856a-129617d82d35","ios":"levelo://app?vid=23dc7b60-2004-4f58-856a-129617d82d35"},"vehicle_type_id":"4","last_reported":1713906419,"current_range_meters":7200,"station_id":"ce4bgk12rcd13ifvqbi0","pricing_plan_id":"cebpf4jnsgd1na2vs0mg"},{"bike_id":"3f9ad79f-39a3-4062-97ce-203091f78020","system_id":"levelo_inurba_marseille","lat":43.304274,"lon":5.388873,"is_reserved":false,"is_disabled":false,"rental_uris":{"android":"levelo://app?vid=3f9ad79f-39a3-4062-97ce-203091f78020","ios":"levelo://app?vid=3f9ad79f-39a3-4062-97ce-203091f78020"},"vehicle_type_id":"4","last_reported":1713906419,"current_range_meters":14000,"station_id":"ce4bgk12rcd13ifvqbi0","pricing_plan_id":"cebpf4jnsgd1na2vs0mg"},{"bike_id":"354dccda-ff61-43d1-bd93-5798e9aed82f","system_id":"levelo_inurba_marseille","lat":43.304274,"lon":5.388873,"is_reserved":false,"is_disabled":false,"rental_uris":{"android":"levelo://app?vid=354dccda-ff61-43d1-bd93-5798e9aed82f","ios":"levelo://app?vid=354dccda-ff61-43d1-bd93-5798e9aed82f"},"vehicle_type_id":"4","last_reported":1713906419,"current_range_meters":9200,"station_id":"ce4bgk12rcd13ifvqbi0","pricing_plan_id":"cebpf4jnsgd1na2vs0mg"},{"bike_id":"5402491b-4c2e-4d16-b02f-3b2e69eb8a5d","system_id":"levelo_inurba_marseille","lat":43.304274,"lon":5.388873,"is_reserved":false,"is_disabled":false,"rental_uris":{"android":"levelo://app?vid=5402491b-4c2e-4d16-b02f-3b2e69eb8a5d","ios":"levelo://app?vid=5402491b-4c2e-4d16-b02f-3b2e69eb8a5d"},"vehicle_type_id":"4","last_reported":1713906419,"current_range_meters":13200,"station_id":"ce4bgk12rcd13ifvqbi0","pricing_plan_id":"cebpf4jnsgd1na2vs0mg"},{"bike_id":"373cba61-4aa4-47e6-8dd7-2742fbcc2887","system_id":"levelo_inurba_marseille","lat":43.30434,"lon":5.38903,"is_reserved":false,"is_disabled":false,"rental_uris":{"android":"levelo://app?vid=373cba61-4aa4-47e6-8dd7-2742fbcc2887","ios":"levelo://app?vid=373cba61-4aa4-47e6-8dd7-2742fbcc2887"},"vehicle_type_id":"4","last_reported":1713906419,"current_range_meters":16800,"station_id":"ce4bgk12rcd13ifvqbi0","pricing_plan_id":"cebpf4jnsgd1na2vs0mg"},{"bike_id":"534dae06-7421-4aa3-a216-9fb168f0aa39","system_id":"levelo_inurba_marseille","lat":43.296263,"lon":5.377094,"is_reserved":false,"is_disabled":false,"rental_uris":{"android":"levelo://app?vid=534dae06-7421-4aa3-a216-9fb168f0aa39","ios":"levelo://app?vid=534dae06-7421-4aa3-a216-9fb168f0aa39"},"vehicle_type_id":"4","last_reported":1713906419,"current_range_meters":28000,"station_id":"ce4bgi92rcd13ifvqb90","pricing_plan_id":"cebpf4jnsgd1na2vs0mg"},{"bike_id":"d4b3bb9a-1770-41d1-9cd8-a9b08b270f13","system_id":"levelo_inurba_marseille","lat":43.299717,"lon":5.384845,"is_reserved":false,"is_disabled":false,"rental_uris":{"android":"levelo://app?vid=d4b3bb9a-1770-41d1-9cd8-a9b08b270f13","ios":"levelo://app?vid=d4b3bb9a-1770-41d1-9cd8-a9b08b270f13"},"vehicle_type_id":"4","last_reported":1713906419,"current_range_meters":23200,"station_id":"ce4bgj92rcd13ifvqbd0","pricing_plan_id":"cebpf4jnsgd1na2vs0mg"},{"bike_id":"0b695e1c-647f-480e-8712-dbb92db41e5b","system_id":"levelo_inurba_marseille","lat":43.314265,"lon":5.393151,"is_reserved":false,"is_disabled":false,"rental_uris":{"android":"levelo://app?vid=0b695e1c-647f-480e-8712-dbb92db41e5b","ios":"levelo://app?vid=0b695e1c-647f-480e-8712-dbb92db41e5b"},"vehicle_type_id":"4","last_reported":1713906419,"current_range_meters":12400,"station_id":"","pricing_plan_id":"cebpf4jnsgd1na2vs0mg"},{"bike_id":"4dbc8b81-0b61-4471-aaeb-d9f418bf7f91","system_id":"levelo_inurba_marseille","lat":43.32365,"lon":5.38885,"is_reserved":false,"is_disabled":false,"rental_uris":{"android":"levelo://app?vid=4dbc8b81-0b61-4471-aaeb-d9f418bf7f91","ios":"levelo://app?vid=4dbc8b81-0b61-4471-aaeb-d9f418bf7f91"},"vehicle_type_id":"4","last_reported":1713906419,"current_range_meters":5200,"station_id":"ce4bhqp2rcd13ifvqhog","pricing_plan_id":"cebpf4jnsgd1na2vs0mg"},{"bike_id":"a000529a-a102-4360-acf8-d9196b59a845","system_id":"levelo_inurba_marseille","lat":43.32367,"lon":5.388836,"is_reserved":false,"is_disabled":false,"rental_uris":{"android":"levelo://app?vid=a000529a-a102-4360-acf8-d9196b59a845","ios":"levelo://app?vid=a000529a-a102-4360-acf8-d9196b59a845"},"vehicle_type_id":"4","last_reported":1713906419,"current_range_meters":12800,"station_id":"ce4bhqp2rcd13ifvqhog","pricing_plan_id":"cebpf4jnsgd1na2vs0mg"},{"bike_id":"437b6ff4-564c-44ca-8cae-3258f357c106","system_id":"levelo_inurba_marseille","lat":43.32367,"lon":5.388836,"is_reserved":false,"is_disabled":false,"rental_uris":{"android":"levelo://app?vid=437b6ff4-564c-44ca-8cae-3258f357c106","ios":"levelo://app?vid=437b6ff4-564c-44ca-8cae-3258f357c106"},"vehicle_type_id":"4","last_reported":1713906419,"current_range_meters":12000,"station_id":"ce4bhqp2rcd13ifvqhog","pricing_plan_id":"cebpf4jnsgd1na2vs0mg"},{"bike_id":"dd46e51e-134f-4778-99d2-f9d7843b6aaf","system_id":"levelo_inurba_marseille","lat":43.32367,"lon":5.388836,"is_reserved":false,"is_disabled":false,"rental_uris":{"android":"levelo://app?vid=dd46e51e-134f-4778-99d2-f9d7843b6aaf","ios":"levelo://app?vid=dd46e51e-134f-4778-99d2-f9d7843b6aaf"},"vehicle_type_id":"4","last_reported":1713906419,"current_range_meters":22000,"station_id":"ce4bhqp2rcd13ifvqhog","pricing_plan_id":"cebpf4jnsgd1na2vs0mg"},{"bike_id":"87e886b3-38dc-499c-a1dd-e1030203b86d","system_id":"levelo_inurba_marseille","lat":43.29602,"lon":5.381084,"is_reserved":false,"is_disabled":false,"rental_uris":{"android":"levelo://app?vid=87e886b3-38dc-499c-a1dd-e1030203b86d","ios":"levelo://app?vid=87e886b3-38dc-499c-a1dd-e1030203b86d"},"vehicle_type_id":"4","last_reported":1713906419,"current_range_meters":16800,"station_id":"ce4bgl12rcd13ifvqbo0","pricing_plan_id":"cebpf4jnsgd1na2vs0mg"},{"bike_id":"9c01ed1b-ea61-44e8-9033-b147ef470d9e","system_id":"levelo_inurba_marseille","lat":43.293259,"lon":5.371586,"is_reserved":false,"is_disabled":false,"rental_uris":{"android":"levelo://app?vid=9c01ed1b-ea61-44e8-9033-b147ef470d9e","ios":"levelo://app?vid=9c01ed1b-ea61-44e8-9033-b147ef470d9e"},"vehicle_type_id":"4","last_reported":1713906419,"current_range_meters":10800,"station_id":"ce4bgh92rcd13ifvqb40","pricing_plan_id":"cebpf4jnsgd1na2vs0mg"},{"bike_id":"42b9a66a-2552-4fe1-9aba-a0ce1d65c429","system_id":"levelo_inurba_marseille","lat":43.292749,"lon":5.368402,"is_reserved":false,"is_disabled":false,"rental_uris":{"android":"levelo://app?vid=42b9a66a-2552-4fe1-9aba-a0ce1d65c429","ios":"levelo://app?vid=42b9a66a-2552-4fe1-9aba-a0ce1d65c429"},"vehicle_type_id":"4","last_reported":1713906419,"current_range_meters":1600,"station_id":"ce4bhbp2rcd13ifvqesg","pricing_plan_id":"cebpf4jnsgd1na2vs0mg"},{"bike_id":"8457d0ee-8c14-4521-9251-84fa006ea74b","system_id":"levelo_inurba_marseille","lat":43.29304,"lon":5.37166,"is_reserved":false,"is_disabled":false,"rental_uris":{"android":"levelo://app?vid=8457d0ee-8c14-4521-9251-84fa006ea74b","ios":"levelo://app?vid=8457d0ee-8c14-4521-9251-84fa006ea74b"},"vehicle_type_id":"4","last_reported":1713906419,"current_range_meters":29600,"station_id":"ce4bgh92rcd13ifvqb40","pricing_plan_id":"cebpf4jnsgd1na2vs0mg"},{"bike_id":"e5e4321d-9a15-4438-bb1a-956ae8bd001d","system_id":"levelo_inurba_marseille","lat":43.293259,"lon":5.371586,"is_reserved":false,"is_disabled":false,"rental_uris":{"android":"levelo://app?vid=e5e4321d-9a15-4438-bb1a-956ae8bd001d","ios":"levelo://app?vid=e5e4321d-9a15-4438-bb1a-956ae8bd001d"},"vehicle_type_id":"4","last_reported":1713906419,"current_range_meters":0,"station_id":"ce4bgh92rcd13ifvqb40","pricing_plan_id":"cebpf4jnsgd1na2vs0mg"},{"bike_id":"0d423177-0db7-470d-9e88-70ab3294cebd","system_id":"levelo_inurba_marseille","lat":43.293259,"lon":5.371586,"is_reserved":false,"is_disabled":false,"rental_uris":{"android":"levelo://app?vid=0d423177-0db7-470d-9e88-70ab3294cebd","ios":"levelo://app?vid=0d423177-0db7-470d-9e88-70ab3294cebd"},"vehicle_type_id":"4","last_reported":1713906419,"current_range_meters":24800,"station_id":"ce4bgh92rcd13ifvqb40","pricing_plan_id":"cebpf4jnsgd1na2vs0mg"},{"bike_id":"4fb947dd-f950-4965-96c2-205dfdd54f57","system_id":"levelo_inurba_marseille","lat":43.293259,"lon":5.371586,"is_reserved":false,"is_disabled":false,"rental_uris":{"android":"levelo://app?vid=4fb947dd-f950-4965-96c2-205dfdd54f57","ios":"levelo://app?vid=4fb947dd-f950-4965-96c2-205dfdd54f57"},"vehicle_type_id":"4","last_reported":1713906419,"current_range_meters":27600,"station_id":"ce4bgh92rcd13ifvqb40","pricing_plan_id":"cebpf4jnsgd1na2vs0mg"},{"bike_id":"2c62173c-9008-4d50-8fb8-b6753eba37ac","system_id":"levelo_inurba_marseille","lat":43.305994,"lon":5.393687,"is_reserved":false,"is_disabled":false,"rental_uris":{"android":"levelo://app?vid=2c62173c-9008-4d50-8fb8-b6753eba37ac","ios":"levelo://app?vid=2c62173c-9008-4d50-8fb8-b6753eba37ac"},"vehicle_type_id":"4","last_reported":1713906419,"current_range_meters":6000,"station_id":"ce4bh0p2rcd13ifvqd80","pricing_plan_id":"cebpf4jnsgd1na2vs0mg"},{"bike_id":"820305d9-a447-4af3-810b-a6a5f71dcea1","system_id":"levelo_inurba_marseille","lat":43.305994,"lon":5.393687,"is_reserved":false,"is_disabled":false,"rental_uris":{"android":"levelo://app?vid=820305d9-a447-4af3-810b-a6a5f71dcea1","ios":"levelo://app?vid=820305d9-a447-4af3-810b-a6a5f71dcea1"},"vehicle_type_id":"4","last_reported":1713906419,"current_range_meters":17200,"station_id":"ce4bh0p2rcd13ifvqd80","pricing_plan_id":"cebpf4jnsgd1na2vs0mg"},{"bike_id":"62dcc406-826d-47b2-832c-39f60b9616ae","system_id":"levelo_inurba_marseille","lat":43.305994,"lon":5.393687,"is_reserved":false,"is_disabled":false,"rental_uris":{"android":"levelo://app?vid=62dcc406-826d-47b2-832c-39f60b9616ae","ios":"levelo://app?vid=62dcc406-826d-47b2-832c-39f60b9616ae"},"vehicle_type_id":"4","last_reported":1713906419,"current_range_meters":0,"station_id":"ce4bh0p2rcd13ifvqd80","pricing_plan_id":"cebpf4jnsgd1na2vs0mg"},{"bike_id":"9c1d6998-bfbc-4ac6-8db7-7ecaddd52b7d","system_id":"levelo_inurba_marseille","lat":43.305994,"lon":5.393687,"is_reserved":false,"is_disabled":false,"rental_uris":{"android":"levelo://app?vid=9c1d6998-bfbc-4ac6-8db7-7ecaddd52b7d","ios":"levelo://app?vid=9c1d6998-bfbc-4ac6-8db7-7ecaddd52b7d"},"vehicle_type_id":"4","last_reported":1713906419,"current_range_meters":22000,"station_id":"ce4bh0p2rcd13ifvqd80","pricing_plan_id":"cebpf4jnsgd1na2vs0mg"},{"bike_id":"d53d295b-81b7-47b1-ac1d-e560fbe39551","system_id":"levelo_inurba_marseille","lat":43.302992,"lon":5.392136,"is_reserved":false,"is_disabled":false,"rental_uris":{"android":"levelo://app?vid=d53d295b-81b7-47b1-ac1d-e560fbe39551","ios":"levelo://app?vid=d53d295b-81b7-47b1-ac1d-e560fbe39551"},"vehicle_type_id":"4","last_reported":1713906419,"current_range_meters":18000,"station_id":"ce4bgkh2rcd13ifvqbk0","pricing_plan_id":"cebpf4jnsgd1na2vs0mg"},{"bike_id":"2b521692-85ee-4fab-ac75-41bc8e2c60aa","system_id":"levelo_inurba_marseille","lat":43.29357,"lon":5.37859,"is_reserved":false,"is_disabled":false,"rental_uris":{"android":"levelo://app?vid=2b521692-85ee-4fab-ac75-41bc8e2c60aa","ios":"levelo://app?vid=2b521692-85ee-4fab-ac75-41bc8e2c60aa"},"vehicle_type_id":"4","last_reported":1713906419,"current_range_meters":0,"station_id":"ce4bgjh2rcd13ifvqbf0","pricing_plan_id":"cebpf4jnsgd1na2vs0mg"},{"bike_id":"d1c91917-49c6-4c84-a011-e2e34f781b55","system_id":"levelo_inurba_marseille","lat":43.292311,"lon":5.360731,"is_reserved":false,"is_disabled":false,"rental_uris":{"android":"levelo://app?vid=d1c91917-49c6-4c84-a011-e2e34f781b55","ios":"levelo://app?vid=d1c91917-49c6-4c84-a011-e2e34f781b55"},"vehicle_type_id":"4","last_reported":1713906419,"current_range_meters":31200,"station_id":"ce4bhbh2rcd13ifvqeqg","pricing_plan_id":"cebpf4jnsgd1na2vs0mg"},{"bike_id":"2c507261-9558-4840-a319-26f5ca091b7d","system_id":"levelo_inurba_marseille","lat":43.300852,"lon":5.390859,"is_reserved":false,"is_disabled":false,"rental_uris":{"android":"levelo://app?vid=2c507261-9558-4840-a319-26f5ca091b7d","ios":"levelo://app?vid=2c507261-9558-4840-a319-26f5ca091b7d"},"vehicle_type_id":"4","last_reported":1713906419,"current_range_meters":19600,"station_id":"ce4bh192rcd13ifvqdb0","pricing_plan_id":"cebpf4jnsgd1na2vs0mg"},{"bike_id":"ba4c5c89-4f53-4763-a692-650cd3fb3c2d","system_id":"levelo_inurba_marseille","lat":43.292311,"lon":5.360731,"is_reserved":false,"is_disabled":false,"rental_uris":{"android":"levelo://app?vid=ba4c5c89-4f53-4763-a692-650cd3fb3c2d","ios":"levelo://app?vid=ba4c5c89-4f53-4763-a692-650cd3fb3c2d"},"vehicle_type_id":"4","last_reported":1713906419,"current_range_meters":27600,"station_id":"ce4bhbh2rcd13ifvqeqg","pricing_plan_id":"cebpf4jnsgd1na2vs0mg"},{"bike_id":"63acaea3-0ae1-4fc5-adee-c08880912c69","system_id":"levelo_inurba_marseille","lat":43.298764,"lon":5.388973,"is_reserved":false,"is_disabled":false,"rental_uris":{"android":"levelo://app?vid=63acaea3-0ae1-4fc5-adee-c08880912c69","ios":"levelo://app?vid=63acaea3-0ae1-4fc5-adee-c08880912c69"},"vehicle_type_id":"4","last_reported":1713906419,"current_range_meters":8400,"station_id":"ce4bh392rcd13ifvqdl0","pricing_plan_id":"cebpf4jnsgd1na2vs0mg"},{"bike_id":"ec73e063-1251-4c09-bde2-7b8f5ad12e31","system_id":"levelo_inurba_marseille","lat":43.298764,"lon":5.388973,"is_reserved":false,"is_disabled":false,"rental_uris":{"android":"levelo://app?vid=ec73e063-1251-4c09-bde2-7b8f5ad12e31","ios":"levelo://app?vid=ec73e063-1251-4c09-bde2-7b8f5ad12e31"},"vehicle_type_id":"4","last_reported":1713906419,"current_range_meters":18800,"station_id":"ce4bh392rcd13ifvqdl0","pricing_plan_id":"cebpf4jnsgd1na2vs0mg"},{"bike_id":"172bd764-1a79-4717-a22d-bad353fbe96c","system_id":"levelo_inurba_marseille","lat":43.298764,"lon":5.388973,"is_reserved":false,"is_disabled":false,"rental_uris":{"android":"levelo://app?vid=172bd764-1a79-4717-a22d-bad353fbe96c","ios":"levelo://app?vid=172bd764-1a79-4717-a22d-bad353fbe96c"},"vehicle_type_id":"4","last_reported":1713906419,"current_range_meters":1600,"station_id":"ce4bh392rcd13ifvqdl0","pricing_plan_id":"cebpf4jnsgd1na2vs0mg"},{"bike_id":"1010e9bb-333a-43b6-824f-bb4b2754d017","system_id":"levelo_inurba_marseille","lat":43.298764,"lon":5.388973,"is_reserved":false,"is_disabled":false,"rental_uris":{"android":"levelo://app?vid=1010e9bb-333a-43b6-824f-bb4b2754d017","ios":"levelo://app?vid=1010e9bb-333a-43b6-824f-bb4b2754d017"},"vehicle_type_id":"4","last_reported":1713906419,"current_range_meters":23200,"station_id":"ce4bh392rcd13ifvqdl0","pricing_plan_id":"cebpf4jnsgd1na2vs0mg"},{"bike_id":"f3a490ef-c781-41d7-a8e2-4bc2ed897461","system_id":"levelo_inurba_marseille","lat":43.298764,"lon":5.388973,"is_reserved":false,"is_disabled":false,"rental_uris":{"android":"levelo://app?vid=f3a490ef-c781-41d7-a8e2-4bc2ed897461","ios":"levelo://app?vid=f3a490ef-c781-41d7-a8e2-4bc2ed897461"},"vehicle_type_id":"4","last_reported":1713906419,"current_range_meters":31200,"station_id":"ce4bh392rcd13ifvqdl0","pricing_plan_id":"cebpf4jnsgd1na2vs0mg"},{"bike_id":"2281b933-6499-49dd-bbf2-656218c7c3ec","system_id":"levelo_inurba_marseille","lat":43.2988,"lon":5.38915,"is_reserved":false,"is_disabled":false,"rental_uris":{"android":"levelo://app?vid=2281b933-6499-49dd-bbf2-656218c7c3ec","ios":"levelo://app?vid=2281b933-6499-49dd-bbf2-656218c7c3ec"},"vehicle_type_id":"4","last_reported":1713906419,"current_range_meters":5600,"station_id":"ce4bh392rcd13ifvqdl0","pricing_plan_id":"cebpf4jnsgd1na2vs0mg"},{"bike_id":"c64ec0f4-d1e1-4f8d-9839-1ef147ed1653","system_id":"levelo_inurba_marseille","lat":43.298764,"lon":5.388973,"is_reserved":false,"is_disabled":false,"rental_uris":{"android":"levelo://app?vid=c64ec0f4-d1e1-4f8d-9839-1ef147ed1653","ios":"levelo://app?vid=c64ec0f4-d1e1-4f8d-9839-1ef147ed1653"},"vehicle_type_id":"4","last_reported":1713906419,"current_range_meters":22000,"station_id":"ce4bh392rcd13ifvqdl0","pricing_plan_id":"cebpf4jnsgd1na2vs0mg"},{"bike_id":"2a2a69fe-b5fc-4e48-9480-6e0d10cac973","system_id":"levelo_inurba_marseille","lat":43.292005,"lon":5.357875,"is_reserved":false,"is_disabled":false,"rental_uris":{"android":"levelo://app?vid=2a2a69fe-b5fc-4e48-9480-6e0d10cac973","ios":"levelo://app?vid=2a2a69fe-b5fc-4e48-9480-6e0d10cac973"},"vehicle_type_id":"4","last_reported":1713906419,"current_range_meters":6400,"station_id":"ce4bhb12rcd13ifvqel0","pricing_plan_id":"cebpf4jnsgd1na2vs0mg"},{"bike_id":"779b74e6-1af6-4c85-b1a1-cd07fc68f0c5","system_id":"levelo_inurba_marseille","lat":43.30888,"lon":5.39633,"is_reserved":false,"is_disabled":false,"rental_uris":{"android":"levelo://app?vid=779b74e6-1af6-4c85-b1a1-cd07fc68f0c5","ios":"levelo://app?vid=779b74e6-1af6-4c85-b1a1-cd07fc68f0c5"},"vehicle_type_id":"4","last_reported":1713906419,"current_range_meters":5600,"station_id":"ce4bh012rcd13ifvqcv0","pricing_plan_id":"cebpf4jnsgd1na2vs0mg"},{"bike_id":"e3929873-82e8-499b-ab44-11cc6d9b7efe","system_id":"levelo_inurba_marseille","lat":43.30888,"lon":5.39637,"is_reserved":false,"is_disabled":false,"rental_uris":{"android":"levelo://app?vid=e3929873-82e8-499b-ab44-11cc6d9b7efe","ios":"levelo://app?vid=e3929873-82e8-499b-ab44-11cc6d9b7efe"},"vehicle_type_id":"4","last_reported":1713906419,"current_range_meters":6000,"station_id":"ce4bh012rcd13ifvqcv0","pricing_plan_id":"cebpf4jnsgd1na2vs0mg"},{"bike_id":"988e45bb-4a60-439a-842a-a194c5547e71","system_id":"levelo_inurba_marseille","lat":43.309047,"lon":5.396551,"is_reserved":false,"is_disabled":false,"rental_uris":{"android":"levelo://app?vid=988e45bb-4a60-439a-842a-a194c5547e71","ios":"levelo://app?vid=988e45bb-4a60-439a-842a-a194c5547e71"},"vehicle_type_id":"4","last_reported":1713906419,"current_range_meters":20400,"station_id":"ce4bh012rcd13ifvqcv0","pricing_plan_id":"cebpf4jnsgd1na2vs0mg"},{"bike_id":"5a30c998-dade-47ab-b7fe-4d190451f04d","system_id":"levelo_inurba_marseille","lat":43.292005,"lon":5.357875,"is_reserved":false,"is_disabled":false,"rental_uris":{"android":"levelo://app?vid=5a30c998-dade-47ab-b7fe-4d190451f04d","ios":"levelo://app?vid=5a30c998-dade-47ab-b7fe-4d190451f04d"},"vehicle_type_id":"4","last_reported":1713906419,"current_range_meters":10800,"station_id":"ce4bhb12rcd13ifvqel0","pricing_plan_id":"cebpf4jnsgd1na2vs0mg"},{"bike_id":"e321408b-0e43-41da-993e-0db2c5de41c4","system_id":"levelo_inurba_marseille","lat":43.308819,"lon":5.396403,"is_reserved":false,"is_disabled":false,"rental_uris":{"android":"levelo://app?vid=e321408b-0e43-41da-993e-0db2c5de41c4","ios":"levelo://app?vid=e321408b-0e43-41da-993e-0db2c5de41c4"},"vehicle_type_id":"4","last_reported":1713906419,"current_range_meters":2000,"station_id":"ce4bh012rcd13ifvqcv0","pricing_plan_id":"cebpf4jnsgd1na2vs0mg"},{"bike_id":"d862329d-80d5-4286-a5e1-150e5a08af4b","system_id":"levelo_inurba_marseille","lat":43.313291,"lon":5.396838,"is_reserved":false,"is_disabled":false,"rental_uris":{"android":"levelo://app?vid=d862329d-80d5-4286-a5e1-150e5a08af4b","ios":"levelo://app?vid=d862329d-80d5-4286-a5e1-150e5a08af4b"},"vehicle_type_id":"4","last_reported":1713906419,"current_range_meters":1600,"station_id":"ce4bgvp2rcd13ifvqcu0","pricing_plan_id":"cebpf4jnsgd1na2vs0mg"},{"bike_id":"abcc733a-6b50-4997-899d-6817c31810da","system_id":"levelo_inurba_marseille","lat":43.309047,"lon":5.396551,"is_reserved":false,"is_disabled":false,"rental_uris":{"android":"levelo://app?vid=abcc733a-6b50-4997-899d-6817c31810da","ios":"levelo://app?vid=abcc733a-6b50-4997-899d-6817c31810da"},"vehicle_type_id":"4","last_reported":1713906419,"current_range_meters":31200,"station_id":"ce4bh012rcd13ifvqcv0","pricing_plan_id":"cebpf4jnsgd1na2vs0mg"},{"bike_id":"979e9711-3aed-4d8c-b424-ea164e47cc55","system_id":"levelo_inurba_marseille","lat":43.291994,"lon":5.357886,"is_reserved":false,"is_disabled":false,"rental_uris":{"android":"levelo://app?vid=979e9711-3aed-4d8c-b424-ea164e47cc55","ios":"levelo://app?vid=979e9711-3aed-4d8c-b424-ea164e47cc55"},"vehicle_type_id":"4","last_reported":1713906419,"current_range_meters":27600,"station_id":"ce4bhb12rcd13ifvqel0","pricing_plan_id":"cebpf4jnsgd1na2vs0mg"},{"bike_id":"09ac5ef4-0872-43a5-a251-263d8ee24ba8","system_id":"levelo_inurba_marseille","lat":43.313291,"lon":5.396838,"is_reserved":false,"is_disabled":false,"rental_uris":{"android":"levelo://app?vid=09ac5ef4-0872-43a5-a251-263d8ee24ba8","ios":"levelo://app?vid=09ac5ef4-0872-43a5-a251-263d8ee24ba8"},"vehicle_type_id":"4","last_reported":1713906419,"current_range_meters":0,"station_id":"ce4bgvp2rcd13ifvqcu0","pricing_plan_id":"cebpf4jnsgd1na2vs0mg"},{"bike_id":"f5785a2e-b517-4871-9602-0cb15eddc062","system_id":"levelo_inurba_marseille","lat":43.308812,"lon":5.396445,"is_reserved":false,"is_disabled":false,"rental_uris":{"android":"levelo://app?vid=f5785a2e-b517-4871-9602-0cb15eddc062","ios":"levelo://app?vid=f5785a2e-b517-4871-9602-0cb15eddc062"},"vehicle_type_id":"4","last_reported":1713906419,"current_range_meters":18000,"station_id":"ce4bh012rcd13ifvqcv0","pricing_plan_id":"cebpf4jnsgd1na2vs0mg"},{"bike_id":"585944e5-b174-4f1c-a9ed-aedd20aef470","system_id":"levelo_inurba_marseille","lat":43.309047,"lon":5.396551,"is_reserved":false,"is_disabled":false,"rental_uris":{"android":"levelo://app?vid=585944e5-b174-4f1c-a9ed-aedd20aef470","ios":"levelo://app?vid=585944e5-b174-4f1c-a9ed-aedd20aef470"},"vehicle_type_id":"4","last_reported":1713906419,"current_range_meters":28400,"station_id":"ce4bh012rcd13ifvqcv0","pricing_plan_id":"cebpf4jnsgd1na2vs0mg"},{"bike_id":"0546aa91-605d-43b5-a337-7d5b81c37a54","system_id":"levelo_inurba_marseille","lat":43.313291,"lon":5.396838,"is_reserved":false,"is_disabled":false,"rental_uris":{"android":"levelo://app?vid=0546aa91-605d-43b5-a337-7d5b81c37a54","ios":"levelo://app?vid=0546aa91-605d-43b5-a337-7d5b81c37a54"},"vehicle_type_id":"4","last_reported":1713906419,"current_range_meters":2400,"station_id":"ce4bgvp2rcd13ifvqcu0","pricing_plan_id":"cebpf4jnsgd1na2vs0mg"},{"bike_id":"56b816ab-7b87-4af3-8ddd-d31db3582aac","system_id":"levelo_inurba_marseille","lat":43.30884,"lon":5.39646,"is_reserved":false,"is_disabled":false,"rental_uris":{"android":"levelo://app?vid=56b816ab-7b87-4af3-8ddd-d31db3582aac","ios":"levelo://app?vid=56b816ab-7b87-4af3-8ddd-d31db3582aac"},"vehicle_type_id":"4","last_reported":1713906419,"current_range_meters":0,"station_id":"ce4bh012rcd13ifvqcv0","pricing_plan_id":"cebpf4jnsgd1na2vs0mg"},{"bike_id":"e9c9b1db-d2af-4536-bcf2-d744a358203d","system_id":"levelo_inurba_marseille","lat":43.313291,"lon":5.396838,"is_reserved":false,"is_disabled":false,"rental_uris":{"android":"levelo://app?vid=e9c9b1db-d2af-4536-bcf2-d744a358203d","ios":"levelo://app?vid=e9c9b1db-d2af-4536-bcf2-d744a358203d"},"vehicle_type_id":"4","last_reported":1713906419,"current_range_meters":2800,"station_id":"ce4bgvp2rcd13ifvqcu0","pricing_plan_id":"cebpf4jnsgd1na2vs0mg"},{"bike_id":"b88f83f4-0b17-4bea-a1e4-f3aab1e4e5ba","system_id":"levelo_inurba_marseille","lat":43.313291,"lon":5.396838,"is_reserved":false,"is_disabled":false,"rental_uris":{"android":"levelo://app?vid=b88f83f4-0b17-4bea-a1e4-f3aab1e4e5ba","ios":"levelo://app?vid=b88f83f4-0b17-4bea-a1e4-f3aab1e4e5ba"},"vehicle_type_id":"4","last_reported":1713906419,"current_range_meters":16000,"station_id":"ce4bgvp2rcd13ifvqcu0","pricing_plan_id":"cebpf4jnsgd1na2vs0mg"},{"bike_id":"83501032-af2e-463a-9de0-0528231ccf5d","system_id":"levelo_inurba_marseille","lat":43.30892,"lon":5.39649,"is_reserved":false,"is_disabled":false,"rental_uris":{"android":"levelo://app?vid=83501032-af2e-463a-9de0-0528231ccf5d","ios":"levelo://app?vid=83501032-af2e-463a-9de0-0528231ccf5d"},"vehicle_type_id":"4","last_reported":1713906419,"current_range_meters":0,"station_id":"ce4bh012rcd13ifvqcv0","pricing_plan_id":"cebpf4jnsgd1na2vs0mg"},{"bike_id":"0877e327-e0dc-4d90-9a35-fb9bc0dab67f","system_id":"levelo_inurba_marseille","lat":43.308868,"lon":5.396479,"is_reserved":false,"is_disabled":false,"rental_uris":{"android":"levelo://app?vid=0877e327-e0dc-4d90-9a35-fb9bc0dab67f","ios":"levelo://app?vid=0877e327-e0dc-4d90-9a35-fb9bc0dab67f"},"vehicle_type_id":"4","last_reported":1713906419,"current_range_meters":14800,"station_id":"ce4bh012rcd13ifvqcv0","pricing_plan_id":"cebpf4jnsgd1na2vs0mg"},{"bike_id":"d66d9a5e-c172-4943-89d3-d2f5631d06a5","system_id":"levelo_inurba_marseille","lat":43.308877,"lon":5.396483,"is_reserved":false,"is_disabled":false,"rental_uris":{"android":"levelo://app?vid=d66d9a5e-c172-4943-89d3-d2f5631d06a5","ios":"levelo://app?vid=d66d9a5e-c172-4943-89d3-d2f5631d06a5"},"vehicle_type_id":"4","last_reported":1713906419,"current_range_meters":3600,"station_id":"ce4bh012rcd13ifvqcv0","pricing_plan_id":"cebpf4jnsgd1na2vs0mg"},{"bike_id":"492f64a9-3812-4ebb-a564-705b63508815","system_id":"levelo_inurba_marseille","lat":43.30886,"lon":5.39648,"is_reserved":false,"is_disabled":false,"rental_uris":{"android":"levelo://app?vid=492f64a9-3812-4ebb-a564-705b63508815","ios":"levelo://app?vid=492f64a9-3812-4ebb-a564-705b63508815"},"vehicle_type_id":"4","last_reported":1713906419,"current_range_meters":4000,"station_id":"ce4bh012rcd13ifvqcv0","pricing_plan_id":"cebpf4jnsgd1na2vs0mg"},{"bike_id":"429ff299-a5b6-492d-948a-a5a6be2f2801","system_id":"levelo_inurba_marseille","lat":43.313291,"lon":5.396838,"is_reserved":false,"is_disabled":false,"rental_uris":{"android":"levelo://app?vid=429ff299-a5b6-492d-948a-a5a6be2f2801","ios":"levelo://app?vid=429ff299-a5b6-492d-948a-a5a6be2f2801"},"vehicle_type_id":"4","last_reported":1713906419,"current_range_meters":25200,"station_id":"ce4bgvp2rcd13ifvqcu0","pricing_plan_id":"cebpf4jnsgd1na2vs0mg"},{"bike_id":"b30e7edd-4d60-409e-9a56-ed46e4c3cda1","system_id":"levelo_inurba_marseille","lat":43.309038,"lon":5.396546,"is_reserved":false,"is_disabled":false,"rental_uris":{"android":"levelo://app?vid=b30e7edd-4d60-409e-9a56-ed46e4c3cda1","ios":"levelo://app?vid=b30e7edd-4d60-409e-9a56-ed46e4c3cda1"},"vehicle_type_id":"4","last_reported":1713906419,"current_range_meters":16000,"station_id":"ce4bh012rcd13ifvqcv0","pricing_plan_id":"cebpf4jnsgd1na2vs0mg"},{"bike_id":"b8d3d99f-1a52-4caa-a75d-eb88999b9fd9","system_id":"levelo_inurba_marseille","lat":43.308898,"lon":5.396528,"is_reserved":false,"is_disabled":false,"rental_uris":{"android":"levelo://app?vid=b8d3d99f-1a52-4caa-a75d-eb88999b9fd9","ios":"levelo://app?vid=b8d3d99f-1a52-4caa-a75d-eb88999b9fd9"},"vehicle_type_id":"4","last_reported":1713906419,"current_range_meters":11200,"station_id":"ce4bh012rcd13ifvqcv0","pricing_plan_id":"cebpf4jnsgd1na2vs0mg"},{"bike_id":"000b1709-3316-4747-a950-00540ffbb5e8","system_id":"levelo_inurba_marseille","lat":43.308875,"lon":5.39653,"is_reserved":false,"is_disabled":false,"rental_uris":{"android":"levelo://app?vid=000b1709-3316-4747-a950-00540ffbb5e8","ios":"levelo://app?vid=000b1709-3316-4747-a950-00540ffbb5e8"},"vehicle_type_id":"4","last_reported":1713906419,"current_range_meters":10400,"station_id":"ce4bh012rcd13ifvqcv0","pricing_plan_id":"cebpf4jnsgd1na2vs0mg"},{"bike_id":"70025965-aac5-43ab-84d4-98a3dc9c505f","system_id":"levelo_inurba_marseille","lat":43.291994,"lon":5.357886,"is_reserved":false,"is_disabled":false,"rental_uris":{"android":"levelo://app?vid=70025965-aac5-43ab-84d4-98a3dc9c505f","ios":"levelo://app?vid=70025965-aac5-43ab-84d4-98a3dc9c505f"},"vehicle_type_id":"4","last_reported":1713906419,"current_range_meters":31200,"station_id":"ce4bhb12rcd13ifvqel0","pricing_plan_id":"cebpf4jnsgd1na2vs0mg"},{"bike_id":"78de36d7-6df8-4fc5-8535-1faf25075482","system_id":"levelo_inurba_marseille","lat":43.309047,"lon":5.396551,"is_reserved":false,"is_disabled":false,"rental_uris":{"android":"levelo://app?vid=78de36d7-6df8-4fc5-8535-1faf25075482","ios":"levelo://app?vid=78de36d7-6df8-4fc5-8535-1faf25075482"},"vehicle_type_id":"4","last_reported":1713906419,"current_range_meters":27200,"station_id":"ce4bh012rcd13ifvqcv0","pricing_plan_id":"cebpf4jnsgd1na2vs0mg"},{"bike_id":"7940df6f-387d-42f2-b559-0192573ef399","system_id":"levelo_inurba_marseille","lat":43.308941,"lon":5.396581,"is_reserved":false,"is_disabled":false,"rental_uris":{"android":"levelo://app?vid=7940df6f-387d-42f2-b559-0192573ef399","ios":"levelo://app?vid=7940df6f-387d-42f2-b559-0192573ef399"},"vehicle_type_id":"4","last_reported":1713906419,"current_range_meters":20000,"station_id":"ce4bh012rcd13ifvqcv0","pricing_plan_id":"cebpf4jnsgd1na2vs0mg"},{"bike_id":"80da3796-d2b3-4cca-8abf-435ad8e24d4e","system_id":"levelo_inurba_marseille","lat":43.308849,"lon":5.396564,"is_reserved":false,"is_disabled":false,"rental_uris":{"android":"levelo://app?vid=80da3796-d2b3-4cca-8abf-435ad8e24d4e","ios":"levelo://app?vid=80da3796-d2b3-4cca-8abf-435ad8e24d4e"},"vehicle_type_id":"4","last_reported":1713906419,"current_range_meters":14800,"station_id":"ce4bh012rcd13ifvqcv0","pricing_plan_id":"cebpf4jnsgd1na2vs0mg"},{"bike_id":"d6a1a1fa-785d-4343-b8f6-a9348be5f30f","system_id":"levelo_inurba_marseille","lat":43.29529,"lon":5.385581,"is_reserved":false,"is_disabled":false,"rental_uris":{"android":"levelo://app?vid=d6a1a1fa-785d-4343-b8f6-a9348be5f30f","ios":"levelo://app?vid=d6a1a1fa-785d-4343-b8f6-a9348be5f30f"},"vehicle_type_id":"4","last_reported":1713906419,"current_range_meters":31600,"station_id":"ce4bgih2rcd13ifvqba0","pricing_plan_id":"cebpf4jnsgd1na2vs0mg"},{"bike_id":"339f095d-8be0-450f-8f23-1a59ba05b362","system_id":"levelo_inurba_marseille","lat":43.29529,"lon":5.385581,"is_reserved":false,"is_disabled":false,"rental_uris":{"android":"levelo://app?vid=339f095d-8be0-450f-8f23-1a59ba05b362","ios":"levelo://app?vid=339f095d-8be0-450f-8f23-1a59ba05b362"},"vehicle_type_id":"4","last_reported":1713906419,"current_range_meters":12800,"station_id":"ce4bgih2rcd13ifvqba0","pricing_plan_id":"cebpf4jnsgd1na2vs0mg"},{"bike_id":"ddc0faac-de68-4bb4-b567-e4c319c4f59a","system_id":"levelo_inurba_marseille","lat":43.29529,"lon":5.385581,"is_reserved":false,"is_disabled":false,"rental_uris":{"android":"levelo://app?vid=ddc0faac-de68-4bb4-b567-e4c319c4f59a","ios":"levelo://app?vid=ddc0faac-de68-4bb4-b567-e4c319c4f59a"},"vehicle_type_id":"4","last_reported":1713906419,"current_range_meters":7600,"station_id":"ce4bgih2rcd13ifvqba0","pricing_plan_id":"cebpf4jnsgd1na2vs0mg"},{"bike_id":"1c600d03-1e1b-482f-bab9-f6d8cd581e17","system_id":"levelo_inurba_marseille","lat":43.29529,"lon":5.385581,"is_reserved":false,"is_disabled":false,"rental_uris":{"android":"levelo://app?vid=1c600d03-1e1b-482f-bab9-f6d8cd581e17","ios":"levelo://app?vid=1c600d03-1e1b-482f-bab9-f6d8cd581e17"},"vehicle_type_id":"4","last_reported":1713906419,"current_range_meters":26800,"station_id":"ce4bgih2rcd13ifvqba0","pricing_plan_id":"cebpf4jnsgd1na2vs0mg"},{"bike_id":"02230193-af71-4a20-8901-5f9a16103a51","system_id":"levelo_inurba_marseille","lat":43.29529,"lon":5.385581,"is_reserved":false,"is_disabled":false,"rental_uris":{"android":"levelo://app?vid=02230193-af71-4a20-8901-5f9a16103a51","ios":"levelo://app?vid=02230193-af71-4a20-8901-5f9a16103a51"},"vehicle_type_id":"4","last_reported":1713906419,"current_range_meters":31200,"station_id":"ce4bgih2rcd13ifvqba0","pricing_plan_id":"cebpf4jnsgd1na2vs0mg"},{"bike_id":"57a1b444-a0de-447e-9acc-75ce2f1fc709","system_id":"levelo_inurba_marseille","lat":43.29532,"lon":5.38547,"is_reserved":false,"is_disabled":false,"rental_uris":{"android":"levelo://app?vid=57a1b444-a0de-447e-9acc-75ce2f1fc709","ios":"levelo://app?vid=57a1b444-a0de-447e-9acc-75ce2f1fc709"},"vehicle_type_id":"4","last_reported":1713906419,"current_range_meters":800,"station_id":"ce4bgih2rcd13ifvqba0","pricing_plan_id":"cebpf4jnsgd1na2vs0mg"},{"bike_id":"7f226c65-311d-47c6-b702-65f9fa5194ea","system_id":"levelo_inurba_marseille","lat":43.29529,"lon":5.385581,"is_reserved":false,"is_disabled":false,"rental_uris":{"android":"levelo://app?vid=7f226c65-311d-47c6-b702-65f9fa5194ea","ios":"levelo://app?vid=7f226c65-311d-47c6-b702-65f9fa5194ea"},"vehicle_type_id":"4","last_reported":1713906419,"current_range_meters":21200,"station_id":"ce4bgih2rcd13ifvqba0","pricing_plan_id":"cebpf4jnsgd1na2vs0mg"},{"bike_id":"de8d9a15-ff71-4811-8732-be8c8ecfe7cf","system_id":"levelo_inurba_marseille","lat":43.305364,"lon":5.384119,"is_reserved":false,"is_disabled":false,"rental_uris":{"android":"levelo://app?vid=de8d9a15-ff71-4811-8732-be8c8ecfe7cf","ios":"levelo://app?vid=de8d9a15-ff71-4811-8732-be8c8ecfe7cf"},"vehicle_type_id":"4","last_reported":1713906419,"current_range_meters":16000,"station_id":"ce4bgg92rcd13ifvqb30","pricing_plan_id":"cebpf4jnsgd1na2vs0mg"},{"bike_id":"3e51a3d9-d0bc-4402-97c8-5f7bf9b57b00","system_id":"levelo_inurba_marseille","lat":43.29529,"lon":5.385581,"is_reserved":false,"is_disabled":false,"rental_uris":{"android":"levelo://app?vid=3e51a3d9-d0bc-4402-97c8-5f7bf9b57b00","ios":"levelo://app?vid=3e51a3d9-d0bc-4402-97c8-5f7bf9b57b00"},"vehicle_type_id":"4","last_reported":1713906419,"current_range_meters":19600,"station_id":"ce4bgih2rcd13ifvqba0","pricing_plan_id":"cebpf4jnsgd1na2vs0mg"},{"bike_id":"3ea77f8d-907f-4c9f-9e55-8a2334f3d060","system_id":"levelo_inurba_marseille","lat":43.29529,"lon":5.385581,"is_reserved":false,"is_disabled":false,"rental_uris":{"android":"levelo://app?vid=3ea77f8d-907f-4c9f-9e55-8a2334f3d060","ios":"levelo://app?vid=3ea77f8d-907f-4c9f-9e55-8a2334f3d060"},"vehicle_type_id":"4","last_reported":1713906419,"current_range_meters":0,"station_id":"ce4bgih2rcd13ifvqba0","pricing_plan_id":"cebpf4jnsgd1na2vs0mg"},{"bike_id":"61ec7cef-3d5d-4e88-83fd-3b9916363d4d","system_id":"levelo_inurba_marseille","lat":43.29529,"lon":5.385581,"is_reserved":false,"is_disabled":false,"rental_uris":{"android":"levelo://app?vid=61ec7cef-3d5d-4e88-83fd-3b9916363d4d","ios":"levelo://app?vid=61ec7cef-3d5d-4e88-83fd-3b9916363d4d"},"vehicle_type_id":"4","last_reported":1713906419,"current_range_meters":24800,"station_id":"ce4bgih2rcd13ifvqba0","pricing_plan_id":"cebpf4jnsgd1na2vs0mg"},{"bike_id":"7bb2d259-6465-4114-acb4-580e10becc4a","system_id":"levelo_inurba_marseille","lat":43.29529,"lon":5.385581,"is_reserved":false,"is_disabled":false,"rental_uris":{"android":"levelo://app?vid=7bb2d259-6465-4114-acb4-580e10becc4a","ios":"levelo://app?vid=7bb2d259-6465-4114-acb4-580e10becc4a"},"vehicle_type_id":"4","last_reported":1713906419,"current_range_meters":18800,"station_id":"ce4bgih2rcd13ifvqba0","pricing_plan_id":"cebpf4jnsgd1na2vs0mg"},{"bike_id":"4e4c75b7-4a12-468e-90ea-d78d89f1348d","system_id":"levelo_inurba_marseille","lat":43.2953,"lon":5.38551,"is_reserved":false,"is_disabled":false,"rental_uris":{"android":"levelo://app?vid=4e4c75b7-4a12-468e-90ea-d78d89f1348d","ios":"levelo://app?vid=4e4c75b7-4a12-468e-90ea-d78d89f1348d"},"vehicle_type_id":"4","last_reported":1713906419,"current_range_meters":0,"station_id":"ce4bgih2rcd13ifvqba0","pricing_plan_id":"cebpf4jnsgd1na2vs0mg"},{"bike_id":"b736af03-92ba-4cd5-9447-ad1e95d65aba","system_id":"levelo_inurba_marseille","lat":43.3328,"lon":5.37969,"is_reserved":false,"is_disabled":false,"rental_uris":{"android":"levelo://app?vid=b736af03-92ba-4cd5-9447-ad1e95d65aba","ios":"levelo://app?vid=b736af03-92ba-4cd5-9447-ad1e95d65aba"},"vehicle_type_id":"4","last_reported":1713906419,"current_range_meters":0,"station_id":"","pricing_plan_id":"cebpf4jnsgd1na2vs0mg"},{"bike_id":"e8f8870b-4846-4c34-89d4-7145e94f3f7b","system_id":"levelo_inurba_marseille","lat":43.290779,"lon":5.371482,"is_reserved":false,"is_disabled":false,"rental_uris":{"android":"levelo://app?vid=e8f8870b-4846-4c34-89d4-7145e94f3f7b","ios":"levelo://app?vid=e8f8870b-4846-4c34-89d4-7145e94f3f7b"},"vehicle_type_id":"4","last_reported":1713906419,"current_range_meters":31200,"station_id":"ce4bh5p2rcd13ifvqe4g","pricing_plan_id":"cebpf4jnsgd1na2vs0mg"},{"bike_id":"f80cd6ac-48a7-418b-b34f-6ca2b325756f","system_id":"levelo_inurba_marseille","lat":43.290779,"lon":5.371482,"is_reserved":false,"is_disabled":false,"rental_uris":{"android":"levelo://app?vid=f80cd6ac-48a7-418b-b34f-6ca2b325756f","ios":"levelo://app?vid=f80cd6ac-48a7-418b-b34f-6ca2b325756f"},"vehicle_type_id":"4","last_reported":1713906419,"current_range_meters":31200,"station_id":"ce4bh5p2rcd13ifvqe4g","pricing_plan_id":"cebpf4jnsgd1na2vs0mg"},{"bike_id":"e169c40a-40b0-431a-a47e-f4f7914c336f","system_id":"levelo_inurba_marseille","lat":43.290631,"lon":5.359244,"is_reserved":false,"is_disabled":false,"rental_uris":{"android":"levelo://app?vid=e169c40a-40b0-431a-a47e-f4f7914c336f","ios":"levelo://app?vid=e169c40a-40b0-431a-a47e-f4f7914c336f"},"vehicle_type_id":"4","last_reported":1713906419,"current_range_meters":12000,"station_id":"ce4bha92rcd13ifvqeg0","pricing_plan_id":"cebpf4jnsgd1na2vs0mg"},{"bike_id":"b6053d3c-1aa0-4869-98fb-e3ab6fcfc631","system_id":"levelo_inurba_marseille","lat":43.294153,"lon":5.386305,"is_reserved":false,"is_disabled":false,"rental_uris":{"android":"levelo://app?vid=b6053d3c-1aa0-4869-98fb-e3ab6fcfc631","ios":"levelo://app?vid=b6053d3c-1aa0-4869-98fb-e3ab6fcfc631"},"vehicle_type_id":"4","last_reported":1713906419,"current_range_meters":14800,"station_id":"ce4bh2h2rcd13ifvqdh0","pricing_plan_id":"cebpf4jnsgd1na2vs0mg"},{"bike_id":"f0d6bafc-e10a-4a87-8e69-614ded42fb4f","system_id":"levelo_inurba_marseille","lat":43.294153,"lon":5.386305,"is_reserved":false,"is_disabled":false,"rental_uris":{"android":"levelo://app?vid=f0d6bafc-e10a-4a87-8e69-614ded42fb4f","ios":"levelo://app?vid=f0d6bafc-e10a-4a87-8e69-614ded42fb4f"},"vehicle_type_id":"4","last_reported":1713906419,"current_range_meters":0,"station_id":"ce4bh2h2rcd13ifvqdh0","pricing_plan_id":"cebpf4jnsgd1na2vs0mg"},{"bike_id":"3443e09c-f4f8-4b44-bc72-d5251a5c04e4","system_id":"levelo_inurba_marseille","lat":43.294153,"lon":5.386305,"is_reserved":false,"is_disabled":false,"rental_uris":{"android":"levelo://app?vid=3443e09c-f4f8-4b44-bc72-d5251a5c04e4","ios":"levelo://app?vid=3443e09c-f4f8-4b44-bc72-d5251a5c04e4"},"vehicle_type_id":"4","last_reported":1713906419,"current_range_meters":0,"station_id":"ce4bh2h2rcd13ifvqdh0","pricing_plan_id":"cebpf4jnsgd1na2vs0mg"},{"bike_id":"92b07895-045f-4819-a7fd-bedb7debb83f","system_id":"levelo_inurba_marseille","lat":43.29418,"lon":5.38623,"is_reserved":false,"is_disabled":false,"rental_uris":{"android":"levelo://app?vid=92b07895-045f-4819-a7fd-bedb7debb83f","ios":"levelo://app?vid=92b07895-045f-4819-a7fd-bedb7debb83f"},"vehicle_type_id":"4","last_reported":1713906419,"current_range_meters":19200,"station_id":"ce4bh2h2rcd13ifvqdh0","pricing_plan_id":"cebpf4jnsgd1na2vs0mg"},{"bike_id":"1091843d-43f9-4105-9b00-689a042e2e28","system_id":"levelo_inurba_marseille","lat":43.310804,"lon":5.38359,"is_reserved":false,"is_disabled":false,"rental_uris":{"android":"levelo://app?vid=1091843d-43f9-4105-9b00-689a042e2e28","ios":"levelo://app?vid=1091843d-43f9-4105-9b00-689a042e2e28"},"vehicle_type_id":"4","last_reported":1713906419,"current_range_meters":18000,"station_id":"ce4bgv92rcd13ifvqcr0","pricing_plan_id":"cebpf4jnsgd1na2vs0mg"},{"bike_id":"4e58720a-6f4c-4217-b6e0-2038526a0980","system_id":"levelo_inurba_marseille","lat":43.294153,"lon":5.386305,"is_reserved":false,"is_disabled":false,"rental_uris":{"android":"levelo://app?vid=4e58720a-6f4c-4217-b6e0-2038526a0980","ios":"levelo://app?vid=4e58720a-6f4c-4217-b6e0-2038526a0980"},"vehicle_type_id":"4","last_reported":1713906419,"current_range_meters":28800,"station_id":"ce4bh2h2rcd13ifvqdh0","pricing_plan_id":"cebpf4jnsgd1na2vs0mg"},{"bike_id":"906cea06-9ff5-4594-9990-4088de8630fb","system_id":"levelo_inurba_marseille","lat":43.290319,"lon":5.375732,"is_reserved":false,"is_disabled":false,"rental_uris":{"android":"levelo://app?vid=906cea06-9ff5-4594-9990-4088de8630fb","ios":"levelo://app?vid=906cea06-9ff5-4594-9990-4088de8630fb"},"vehicle_type_id":"4","last_reported":1713906419,"current_range_meters":16000,"station_id":"ce4bh692rcd13ifvqe90","pricing_plan_id":"cebpf4jnsgd1na2vs0mg"},{"bike_id":"b8ad5140-a5e7-4e44-ab92-b60518a34257","system_id":"levelo_inurba_marseille","lat":43.294153,"lon":5.386305,"is_reserved":false,"is_disabled":false,"rental_uris":{"android":"levelo://app?vid=b8ad5140-a5e7-4e44-ab92-b60518a34257","ios":"levelo://app?vid=b8ad5140-a5e7-4e44-ab92-b60518a34257"},"vehicle_type_id":"4","last_reported":1713906419,"current_range_meters":8400,"station_id":"ce4bh2h2rcd13ifvqdh0","pricing_plan_id":"cebpf4jnsgd1na2vs0mg"},{"bike_id":"f54abd96-4262-4f36-9b6f-96ad4bcbffd1","system_id":"levelo_inurba_marseille","lat":43.286039,"lon":5.370679,"is_reserved":false,"is_disabled":false,"rental_uris":{"android":"levelo://app?vid=f54abd96-4262-4f36-9b6f-96ad4bcbffd1","ios":"levelo://app?vid=f54abd96-4262-4f36-9b6f-96ad4bcbffd1"},"vehicle_type_id":"4","last_reported":1713906419,"current_range_meters":14000,"station_id":"ce4bht12rcd13ifvqi60","pricing_plan_id":"cebpf4jnsgd1na2vs0mg"},{"bike_id":"fb00486c-0166-4e91-9a8f-bfd5299bf668","system_id":"levelo_inurba_marseille","lat":43.29418,"lon":5.38629,"is_reserved":false,"is_disabled":false,"rental_uris":{"android":"levelo://app?vid=fb00486c-0166-4e91-9a8f-bfd5299bf668","ios":"levelo://app?vid=fb00486c-0166-4e91-9a8f-bfd5299bf668"},"vehicle_type_id":"4","last_reported":1713906419,"current_range_meters":11200,"station_id":"ce4bh2h2rcd13ifvqdh0","pricing_plan_id":"cebpf4jnsgd1na2vs0mg"},{"bike_id":"0a0f32a4-c25f-4f74-9039-a99ef138c1f1","system_id":"levelo_inurba_marseille","lat":43.29419,"lon":5.38632,"is_reserved":false,"is_disabled":false,"rental_uris":{"android":"levelo://app?vid=0a0f32a4-c25f-4f74-9039-a99ef138c1f1","ios":"levelo://app?vid=0a0f32a4-c25f-4f74-9039-a99ef138c1f1"},"vehicle_type_id":"4","last_reported":1713906419,"current_range_meters":15200,"station_id":"ce4bh2h2rcd13ifvqdh0","pricing_plan_id":"cebpf4jnsgd1na2vs0mg"},{"bike_id":"33f8751f-647d-4780-bf2c-a65e3604000c","system_id":"levelo_inurba_marseille","lat":43.29415,"lon":5.38627,"is_reserved":false,"is_disabled":false,"rental_uris":{"android":"levelo://app?vid=33f8751f-647d-4780-bf2c-a65e3604000c","ios":"levelo://app?vid=33f8751f-647d-4780-bf2c-a65e3604000c"},"vehicle_type_id":"4","last_reported":1713906419,"current_range_meters":4800,"station_id":"ce4bh2h2rcd13ifvqdh0","pricing_plan_id":"cebpf4jnsgd1na2vs0mg"},{"bike_id":"54419bee-a9d5-449e-88a5-2f79e2429cd7","system_id":"levelo_inurba_marseille","lat":43.29415,"lon":5.38629,"is_reserved":false,"is_disabled":false,"rental_uris":{"android":"levelo://app?vid=54419bee-a9d5-449e-88a5-2f79e2429cd7","ios":"levelo://app?vid=54419bee-a9d5-449e-88a5-2f79e2429cd7"},"vehicle_type_id":"4","last_reported":1713906419,"current_range_meters":12000,"station_id":"ce4bh2h2rcd13ifvqdh0","pricing_plan_id":"cebpf4jnsgd1na2vs0mg"},{"bike_id":"5d5734ab-cf44-41c1-bcd8-d3ed5bb42da8","system_id":"levelo_inurba_marseille","lat":43.290327,"lon":5.375711,"is_reserved":false,"is_disabled":false,"rental_uris":{"android":"levelo://app?vid=5d5734ab-cf44-41c1-bcd8-d3ed5bb42da8","ios":"levelo://app?vid=5d5734ab-cf44-41c1-bcd8-d3ed5bb42da8"},"vehicle_type_id":"4","last_reported":1713906419,"current_range_meters":10400,"station_id":"ce4bh692rcd13ifvqe90","pricing_plan_id":"cebpf4jnsgd1na2vs0mg"},{"bike_id":"0682e91f-4b0b-41d2-af3a-69dfeb2824ef","system_id":"levelo_inurba_marseille","lat":43.29411,"lon":5.38626,"is_reserved":false,"is_disabled":false,"rental_uris":{"android":"levelo://app?vid=0682e91f-4b0b-41d2-af3a-69dfeb2824ef","ios":"levelo://app?vid=0682e91f-4b0b-41d2-af3a-69dfeb2824ef"},"vehicle_type_id":"4","last_reported":1713906419,"current_range_meters":9600,"station_id":"ce4bh2h2rcd13ifvqdh0","pricing_plan_id":"cebpf4jnsgd1na2vs0mg"},{"bike_id":"0c191d29-81a8-4e86-a099-ce2f1b338d4b","system_id":"levelo_inurba_marseille","lat":43.29413,"lon":5.3863,"is_reserved":false,"is_disabled":false,"rental_uris":{"android":"levelo://app?vid=0c191d29-81a8-4e86-a099-ce2f1b338d4b","ios":"levelo://app?vid=0c191d29-81a8-4e86-a099-ce2f1b338d4b"},"vehicle_type_id":"4","last_reported":1713906419,"current_range_meters":5600,"station_id":"ce4bh2h2rcd13ifvqdh0","pricing_plan_id":"cebpf4jnsgd1na2vs0mg"},{"bike_id":"3ae73c22-b6c6-47ad-9bae-04e84fca2349","system_id":"levelo_inurba_marseille","lat":43.290319,"lon":5.375732,"is_reserved":false,"is_disabled":false,"rental_uris":{"android":"levelo://app?vid=3ae73c22-b6c6-47ad-9bae-04e84fca2349","ios":"levelo://app?vid=3ae73c22-b6c6-47ad-9bae-04e84fca2349"},"vehicle_type_id":"4","last_reported":1713906419,"current_range_meters":30000,"station_id":"ce4bh692rcd13ifvqe90","pricing_plan_id":"cebpf4jnsgd1na2vs0mg"},{"bike_id":"228cf0de-60e9-451d-9d9a-660b90700ed8","system_id":"levelo_inurba_marseille","lat":43.290327,"lon":5.375711,"is_reserved":false,"is_disabled":false,"rental_uris":{"android":"levelo://app?vid=228cf0de-60e9-451d-9d9a-660b90700ed8","ios":"levelo://app?vid=228cf0de-60e9-451d-9d9a-660b90700ed8"},"vehicle_type_id":"4","last_reported":1713906419,"current_range_meters":14400,"station_id":"ce4bh692rcd13ifvqe90","pricing_plan_id":"cebpf4jnsgd1na2vs0mg"},{"bike_id":"f7f5fc98-ce27-4de9-b07b-f73ed71c9583","system_id":"levelo_inurba_marseille","lat":43.29414,"lon":5.38636,"is_reserved":false,"is_disabled":false,"rental_uris":{"android":"levelo://app?vid=f7f5fc98-ce27-4de9-b07b-f73ed71c9583","ios":"levelo://app?vid=f7f5fc98-ce27-4de9-b07b-f73ed71c9583"},"vehicle_type_id":"4","last_reported":1713906419,"current_range_meters":14000,"station_id":"ce4bh2h2rcd13ifvqdh0","pricing_plan_id":"cebpf4jnsgd1na2vs0mg"},{"bike_id":"3f3616f1-b5b0-4c0d-9121-39f5ff259f8c","system_id":"levelo_inurba_marseille","lat":43.289375,"lon":5.366342,"is_reserved":false,"is_disabled":false,"rental_uris":{"android":"levelo://app?vid=3f3616f1-b5b0-4c0d-9121-39f5ff259f8c","ios":"levelo://app?vid=3f3616f1-b5b0-4c0d-9121-39f5ff259f8c"},"vehicle_type_id":"4","last_reported":1713906419,"current_range_meters":7200,"station_id":"ce4bhap2rcd13ifvqek0","pricing_plan_id":"cebpf4jnsgd1na2vs0mg"},{"bike_id":"10634130-116f-49a8-bbb3-83f97792a209","system_id":"levelo_inurba_marseille","lat":43.28947,"lon":5.36395,"is_reserved":false,"is_disabled":false,"rental_uris":{"android":"levelo://app?vid=10634130-116f-49a8-bbb3-83f97792a209","ios":"levelo://app?vid=10634130-116f-49a8-bbb3-83f97792a209"},"vehicle_type_id":"4","last_reported":1713906419,"current_range_meters":6400,"station_id":"ce4bhc92rcd13ifvqetg","pricing_plan_id":"cebpf4jnsgd1na2vs0mg"},{"bike_id":"cc5fd76e-2528-42da-af7f-4e1f824e0cdb","system_id":"levelo_inurba_marseille","lat":43.28936,"lon":5.36632,"is_reserved":false,"is_disabled":false,"rental_uris":{"android":"levelo://app?vid=cc5fd76e-2528-42da-af7f-4e1f824e0cdb","ios":"levelo://app?vid=cc5fd76e-2528-42da-af7f-4e1f824e0cdb"},"vehicle_type_id":"4","last_reported":1713906419,"current_range_meters":6000,"station_id":"ce4bhap2rcd13ifvqek0","pricing_plan_id":"cebpf4jnsgd1na2vs0mg"},{"bike_id":"b132d2a3-80fa-4aea-a881-6b208afd52db","system_id":"levelo_inurba_marseille","lat":43.290319,"lon":5.375732,"is_reserved":false,"is_disabled":false,"rental_uris":{"android":"levelo://app?vid=b132d2a3-80fa-4aea-a881-6b208afd52db","ios":"levelo://app?vid=b132d2a3-80fa-4aea-a881-6b208afd52db"},"vehicle_type_id":"4","last_reported":1713906419,"current_range_meters":6000,"station_id":"ce4bh692rcd13ifvqe90","pricing_plan_id":"cebpf4jnsgd1na2vs0mg"},{"bike_id":"1cb05dcb-2dc5-4e8b-8b00-8be6f6e24f3d","system_id":"levelo_inurba_marseille","lat":43.28935,"lon":5.36638,"is_reserved":false,"is_disabled":false,"rental_uris":{"android":"levelo://app?vid=1cb05dcb-2dc5-4e8b-8b00-8be6f6e24f3d","ios":"levelo://app?vid=1cb05dcb-2dc5-4e8b-8b00-8be6f6e24f3d"},"vehicle_type_id":"4","last_reported":1713906419,"current_range_meters":31200,"station_id":"ce4bhap2rcd13ifvqek0","pricing_plan_id":"cebpf4jnsgd1na2vs0mg"},{"bike_id":"9f5f253f-ce66-4662-9ebd-e72f37cae3f4","system_id":"levelo_inurba_marseille","lat":43.289184,"lon":5.366408,"is_reserved":false,"is_disabled":false,"rental_uris":{"android":"levelo://app?vid=9f5f253f-ce66-4662-9ebd-e72f37cae3f4","ios":"levelo://app?vid=9f5f253f-ce66-4662-9ebd-e72f37cae3f4"},"vehicle_type_id":"4","last_reported":1713906419,"current_range_meters":27600,"station_id":"ce4bhap2rcd13ifvqek0","pricing_plan_id":"cebpf4jnsgd1na2vs0mg"},{"bike_id":"e63a0e19-2d6c-4792-b524-f0fb4860c756","system_id":"levelo_inurba_marseille","lat":43.28944,"lon":5.363988,"is_reserved":false,"is_disabled":false,"rental_uris":{"android":"levelo://app?vid=e63a0e19-2d6c-4792-b524-f0fb4860c756","ios":"levelo://app?vid=e63a0e19-2d6c-4792-b524-f0fb4860c756"},"vehicle_type_id":"4","last_reported":1713906419,"current_range_meters":24800,"station_id":"ce4bhc92rcd13ifvqetg","pricing_plan_id":"cebpf4jnsgd1na2vs0mg"},