{"last_updated":1759234848,"ttl":60,"version":"2.2","data":{"bikes":[{"bike_id":"73527068-5a1b-4c89-b453-5d3981a4f329","system_id":"levelo_inurba_marseille","lat":43.28933,"lon":5.39636,"is_reserved":false,"is_disabled":false,"rental_uris":{"android":"levelo://app?vid=73527068-5a1b-4c89-b453-5d3981a4f329","ios":"levelo://app?vid=73527068-5a1b-4c89-b453-5d3981a4f329"},"vehicle_type_id":"4","last_reported":1759234848,"current_range_meters":2800,"station_id":"ce4bh3h2rcd13ifvqdn0","pricing_plan_id":"cebpf4jnsgd1na2vs0mg"},{"bike_id":"54a19335-4a36-4843-a2ea-185dc5675d18","system_id":"levelo_inurba_marseille","lat":43.30592,"lon":5.39358,"is_reserved":false,"is_disabled":false,"rental_uris":{"android":"levelo://app?vid=54a19335-4a36-4843-a2ea-185dc5675d18","ios":"levelo://app?vid=54a19335-4a36-4843-a2ea-185dc5675d18"},"vehicle_type_id":"4","last_reported":1759234848,"current_range_meters":2800,"station_id":"ce4bh0p2rcd13ifvqd80","pricing_plan_id":"cebpf4jnsgd1na2vs0mg"},{"bike_id":"95f02cd1-b0cf-4e3d-8708-b9107583e9a0","system_id":"levelo_inurba_marseille","lat":43.274935,"lon":5.424571,"is_reserved":false,"is_disabled":true,"rental_uris":{"android":"levelo://app?vid=95f02cd1-b0cf-4e3d-8708-b9107583e9a0","ios":"levelo://app?vid=95f02cd1-b0cf-4e3d-8708-b9107583e9a0"},"vehicle_type_id":"4","last_reported":1759234848,"current_range_meters":2800,"station_id":"ce4bhn92rcd13ifvqgrg","pricing_plan_id":"cebpf4jnsgd1na2vs0mg"},{"bike_id":"b09f6173-ddf3-410d-9556-1e08837639eb","system_id":"levelo_inurba_marseille","lat":43.24102,"lon":5.37741,"is_reserved":false,"is_disabled":false,"rental_uris":{"android":"levelo://app?vid=b09f6173-ddf3-410d-9556-1e08837639eb","ios":"levelo://app?vid=b09f6173-ddf3-410d-9556-1e08837639eb"},"vehicle_type_id":"4","last_reported":1759234848,"current_range_meters":2800,"station_id":"","pricing_plan_id":"cebpf4jnsgd1na2vs0mg"},{"bike_id":"c2c2ac51-3b42-4632-befe-88772ae8564f","system_id":"levelo_inurba_marseille","lat":43.23151,"lon":5.4372,"is_reserved":false,"is_disabled":false,"rental_uris":{"android":"levelo://app?vid=c2c2ac51-3b42-4632-befe-88772ae8564f","ios":"levelo://app?vid=c2c2ac51-3b42-4632-befe-88772ae8564f"},"vehicle_type_id":"4","last_reported":1759234848,"current_range_meters":2800,"station_id":"ce4bhmp2rcd13ifvqgog","pricing_plan_id":"cebpf4jnsgd1na2vs0mg"},{"bike_id":"be7dae0d-94d7-4a0d-89d8-07c528e32b57","system_id":"levelo_inurba_marseille","lat":43.32616,"lon":5.39048,"is_reserved":false,"is_disabled":false,"rental_uris":{"android":"levelo://app?vid=be7dae0d-94d7-4a0d-89d8-07c528e32b57","ios":"levelo://app?vid=be7dae0d-94d7-4a0d-89d8-07c528e32b57"},"vehicle_type_id":"4","last_reported":1759234848,"current_range_meters":2800,"station_id":"","pricing_plan_id":"cebpf4jnsgd1na2vs0mg"},{"bike_id":"5bb9424a-544d-4c70-8a63-e548e36d36d1","system_id":"levelo_inurba_marseille","lat":43.295281,"lon":5.383634,"is_reserved":false,"is_disabled":false,"rental_uris":{"android":"levelo://app?vid=5bb9424a-544d-4c70-8a63-e548e36d36d1","ios":"levelo://app?vid=5bb9424a-544d-4c70-8a63-e548e36d36d1"},"vehicle_type_id":"4","last_reported":1759234848,"current_range_meters":2000,"station_id":"ce4bgih2rcd13ifvqba0","pricing_plan_id":"cebpf4jnsgd1na2vs0mg"},{"bike_id":"24399bef-9e01-47de-91ac-722e1863e73f","system_id":"levelo_inurba_marseille","lat":43.27617,"lon":5.36106,"is_reserved":false,"is_disabled":false,"rental_uris":{"android":"levelo://app?vid=24399bef-9e01-47de-91ac-722e1863e73f","ios":"levelo://app?vid=24399bef-9e01-47de-91ac-722e1863e73f"},"vehicle_type_id":"4","last_reported":1759234848,"current_range_meters":2800,"station_id":"ce4bgj92rcd13ifvqbe0","pricing_plan_id":"cebpf4jnsgd1na2vs0mg"},{"bike_id":"ca3e92e8-399c-476e-97e0-e50a8a66c301","system_id":"levelo_inurba_marseille","lat":43.28272,"lon":5.35051,"is_reserved":false,"is_disabled":false,"rental_uris":{"android":"levelo://app?vid=ca3e92e8-399c-476e-97e0-e50a8a66c301","ios":"levelo://app?vid=ca3e92e8-399c-476e-97e0-e50a8a66c301"},"vehicle_type_id":"4","last_reported":1759234848,"current_range_meters":3200,"station_id":"ce4bhbp2rcd13ifvqerg","pricing_plan_id":"cebpf4jnsgd1na2vs0mg"},{"bike_id":"fef5228d-9618-413e-849c-cc21faf34c42","system_id":"levelo_inurba_marseille","lat":43.33025,"lon":5.39041,"is_reserved":false,"is_disabled":false,"rental_uris":{"android":"levelo://app?vid=fef5228d-9618-413e-849c-cc21faf34c42","ios":"levelo://app?vid=fef5228d-9618-413e-849c-cc21faf34c42"},"vehicle_type_id":"4","last_reported":1759234848,"current_range_meters":3200,"station_id":"ce4bhr92rcd13ifvqhrg","pricing_plan_id":"cebpf4jnsgd1na2vs0mg"},{"bike_id":"7aebffa7-b99a-4576-9b3e-417672d33731","system_id":"levelo_inurba_marseille","lat":43.28934,"lon":5.36641,"is_reserved":false,"is_disabled":false,"rental_uris":{"android":"levelo://app?vid=7aebffa7-b99a-4576-9b3e-417672d33731","ios":"levelo://app?vid=7aebffa7-b99a-4576-9b3e-417672d33731"},"vehicle_type_id":"4","last_reported":1759234848,"current_range_meters":3600,"station_id":"ce4bhap2rcd13ifvqek0","pricing_plan_id":"cebpf4jnsgd1na2vs0mg"},{"bike_id":"f8058b12-7c07-446b-8ef7-70d59c3d08db","system_id":"levelo_inurba_marseille","lat":43.2315,"lon":5.4371,"is_reserved":false,"is_disabled":false,"rental_uris":{"android":"levelo://app?vid=f8058b12-7c07-446b-8ef7-70d59c3d08db","ios":"levelo://app?vid=f8058b12-7c07-446b-8ef7-70d59c3d08db"},"vehicle_type_id":"4","last_reported":1759234848,"current_range_meters":3600,"station_id":"ce4bhmp2rcd13ifvqgog","pricing_plan_id":"cebpf4jnsgd1na2vs0mg"},{"bike_id":"8d997cec-b2b5-4a7f-b160-a25d1b43dbec","system_id":"levelo_inurba_marseille","lat":43.231931,"lon":5.355542,"is_reserved":false,"is_disabled":false,"rental_uris":{"android":"levelo://app?vid=8d997cec-b2b5-4a7f-b160-a25d1b43dbec","ios":"levelo://app?vid=8d997cec-b2b5-4a7f-b160-a25d1b43dbec"},"vehicle_type_id":"4","last_reported":1759234848,"current_range_meters":3600,"station_id":"ce4bhu92rcd13ifvqi70","pricing_plan_id":"cebpf4jnsgd1na2vs0mg"},{"bike_id":"5538b1fd-9d84-4445-9376-ed1160d3c6e9","system_id":"levelo_inurba_marseille","lat":43.25504,"lon":5.37655,"is_reserved":false,"is_disabled":false,"rental_uris":{"android":"levelo://app?vid=5538b1fd-9d84-4445-9376-ed1160d3c6e9","ios":"levelo://app?vid=5538b1fd-9d84-4445-9376-ed1160d3c6e9"},"vehicle_type_id":"4","last_reported":1759234848,"current_range_meters":3600,"station_id":"ce4bhh12rcd13ifvqff0","pricing_plan_id":"cebpf4jnsgd1na2vs0mg"},{"bike_id":"8a4a8404-2223-404b-b9d6-fda388efd3eb","system_id":"levelo_inurba_marseille","lat":43.225399,"lon":5.348524,"is_reserved":false,"is_disabled":false,"rental_uris":{"android":"levelo://app?vid=8a4a8404-2223-404b-b9d6-fda388efd3eb","ios":"levelo://app?vid=8a4a8404-2223-404b-b9d6-fda388efd3eb"},"vehicle_type_id":"4","last_reported":1759234848,"current_range_meters":3600,"station_id":"","pricing_plan_id":"cebpf4jnsgd1na2vs0mg"},{"bike_id":"7eb1881f-7e98-42c3-8f3e-3bdbb3d47950","system_id":"levelo_inurba_marseille","lat":43.25937,"lon":5.40909,"is_reserved":false,"is_disabled":false,"rental_uris":{"android":"levelo://app?vid=7eb1881f-7e98-42c3-8f3e-3bdbb3d47950","ios":"levelo://app?vid=7eb1881f-7e98-42c3-8f3e-3bdbb3d47950"},"vehicle_type_id":"4","last_reported":1759234848,"current_range_meters":3600,"station_id":"ce4bhm92rcd13ifvqglg","pricing_plan_id":"cebpf4jnsgd1na2vs0mg"},{"bike_id":"258ab053-1083-4ca9-a32a-1e85f085fc22","system_id":"levelo_inurba_marseille","lat":43.337444,"lon":5.374475,"is_reserved":false,"is_disabled":false,"rental_uris":{"android":"levelo://app?vid=258ab053-1083-4ca9-a32a-1e85f085fc22","ios":"levelo://app?vid=258ab053-1083-4ca9-a32a-1e85f085fc22"},"vehicle_type_id":"4","last_reported":1759234848,"current_range_meters":3600,"station_id":"","pricing_plan_id":"cebpf4jnsgd1na2vs0mg"},{"bike_id":"73cdf524-fa11-49fe-8f97-06edb7a4d5af","system_id":"levelo_inurba_marseille","lat":43.29612,"lon":5.38101,"is_reserved":false,"is_disabled":false,"rental_uris":{"android":"levelo://app?vid=73cdf524-fa11-49fe-8f97-06edb7a4d5af","ios":"levelo://app?vid=73cdf524-fa11-49fe-8f97-06edb7a4d5af"},"vehicle_type_id":"4","last_reported":1759234848,"current_range_meters":4000,"station_id":"ce4bgl12rcd13ifvqbo0","pricing_plan_id":"cebpf4jnsgd1na2vs0mg"},{"bike_id":"fd7546fc-7b2c-4c94-8188-2aeba9afa9ea","system_id":"levelo_inurba_marseille","lat":43.24389,"lon":5.37066,"is_reserved":false,"is_disabled":false,"rental_uris":{"android":"levelo://app?vid=fd7546fc-7b2c-4c94-8188-2aeba9afa9ea","ios":"levelo://app?vid=fd7546fc-7b2c-4c94-8188-2aeba9afa9ea"},"vehicle_type_id":"4","last_reported":1759234848,"current_range_meters":4000,"station_id":"ce4bhhh2rcd13ifvqfk0","pricing_plan_id":"cebpf4jnsgd1na2vs0mg"},{"bike_id":"7e451f37-b9cf-45a0-8f59-a7df1f2fc39d","system_id":"levelo_inurba_marseille","lat":43.301468,"lon":5.380821,"is_reserved":false,"is_disabled":false,"rental_uris":{"android":"levelo://app?vid=7e451f37-b9cf-45a0-8f59-a7df1f2fc39d","ios":"levelo://app?vid=7e451f37-b9cf-45a0-8f59-a7df1f2fc39d"},"vehicle_type_id":"4","last_reported":1759234848,"current_range_meters":4000,"station_id":"ce4bgjp2rcd13ifvqbh0","pricing_plan_id":"cebpf4jnsgd1na2vs0mg"},{"bike_id":"8b353c9e-13c5-42ee-a76f-ccbd6269a3dc","system_id":"levelo_inurba_marseille","lat":43.30444,"lon":5.36689,"is_reserved":false,"is_disabled":false,"rental_uris":{"android":"levelo://app?vid=8b353c9e-13c5-42ee-a76f-ccbd6269a3dc","ios":"levelo://app?vid=8b353c9e-13c5-42ee-a76f-ccbd6269a3dc"},"vehicle_type_id":"4","last_reported":1759234848,"current_range_meters":4400,"station_id":"","pricing_plan_id":"cebpf4jnsgd1na2vs0mg"},{"bike_id":"c4163086-fe70-4165-8078-405ec7707fb0","system_id":"levelo_inurba_marseille","lat":43.28478,"lon":5.38438,"is_reserved":false,"is_disabled":false,"rental_uris":{"android":"levelo://app?vid=c4163086-fe70-4165-8078-405ec7707fb0","ios":"levelo://app?vid=c4163086-fe70-4165-8078-405ec7707fb0"},"vehicle_type_id":"4","last_reported":1759234848,"current_range_meters":4400,"station_id":"ce4bh512rcd13ifvqe3g","pricing_plan_id":"cebpf4jnsgd1na2vs0mg"},{"bike_id":"2c6518be-b3f0-42d2-93c9-c1de9e54885f","system_id":"levelo_inurba_marseille","lat":43.29227,"lon":5.38219,"is_reserved":false,"is_disabled":false,"rental_uris":{"android":"levelo://app?vid=2c6518be-b3f0-42d2-93c9-c1de9e54885f","ios":"levelo://app?vid=2c6518be-b3f0-42d2-93c9-c1de9e54885f"},"vehicle_type_id":"4","last_reported":1759234848,"current_range_meters":4400,"station_id":"","pricing_plan_id":"cebpf4jnsgd1na2vs0mg"},{"bike_id":"ffd2d774-0c92-4603-857e-5bcc2887c5e4","system_id":"levelo_inurba_marseille","lat":43.29305,"lon":5.37468,"is_reserved":false,"is_disabled":false,"rental_uris":{"android":"levelo://app?vid=ffd2d774-0c92-4603-857e-5bcc2887c5e4","ios":"levelo://app?vid=ffd2d774-0c92-4603-857e-5bcc2887c5e4"},"vehicle_type_id":"4","last_reported":1759234848,"current_range_meters":2800,"station_id":"ce4bgi12rcd13ifvqb70","pricing_plan_id":"cebpf4jnsgd1na2vs0mg"},{"bike_id":"1e8d78db-9fbf-4eea-973c-f28ca2d7d5e6","system_id":"levelo_inurba_marseille","lat":43.29046,"lon":5.39949,"is_reserved":false,"is_disabled":false,"rental_uris":{"android":"levelo://app?vid=1e8d78db-9fbf-4eea-973c-f28ca2d7d5e6","ios":"levelo://app?vid=1e8d78db-9fbf-4eea-973c-f28ca2d7d5e6"},"vehicle_type_id":"4","last_reported":1759234848,"current_range_meters":4400,"station_id":"ce4bh392rcd13ifvqdm0","pricing_plan_id":"cebpf4jnsgd1na2vs0mg"},{"bike_id":"1dad2113-89e2-44fc-a0b6-ddd6a09baff1","system_id":"levelo_inurba_marseille","lat":43.337444,"lon":5.374475,"is_reserved":false,"is_disabled":false,"rental_uris":{"android":"levelo://app?vid=1dad2113-89e2-44fc-a0b6-ddd6a09baff1","ios":"levelo://app?vid=1dad2113-89e2-44fc-a0b6-ddd6a09baff1"},"vehicle_type_id":"4","last_reported":1759234848,"current_range_meters":4400,"station_id":"","pricing_plan_id":"cebpf4jnsgd1na2vs0mg"},{"bike_id":"9a9a4ea7-6c73-4cbe-ac81-997c652189ad","system_id":"levelo_inurba_marseille","lat":43.29973,"lon":5.38491,"is_reserved":false,"is_disabled":false,"rental_uris":{"android":"levelo://app?vid=9a9a4ea7-6c73-4cbe-ac81-997c652189ad","ios":"levelo://app?vid=9a9a4ea7-6c73-4cbe-ac81-997c652189ad"},"vehicle_type_id":"4","last_reported":1759234848,"current_range_meters":5600,"station_id":"ce4bgj92rcd13ifvqbd0","pricing_plan_id":"cebpf4jnsgd1na2vs0mg"},{"bike_id":"ca660db5-13a2-4b17-89f6-c4a43f402701","system_id":"levelo_inurba_marseille","lat":43.31866,"lon":5.3705,"is_reserved":false,"is_disabled":false,"rental_uris":{"android":"levelo://app?vid=ca660db5-13a2-4b17-89f6-c4a43f402701","ios":"levelo://app?vid=ca660db5-13a2-4b17-89f6-c4a43f402701"},"vehicle_type_id":"4","last_reported":1759234848,"current_range_meters":5600,"station_id":"","pricing_plan_id":"cebpf4jnsgd1na2vs0mg"},{"bike_id":"0b946c2d-b649-48ce-9798-a36cb6074134","system_id":"levelo_inurba_marseille","lat":43.24752,"lon":5.389682,"is_reserved":false,"is_disabled":false,"rental_uris":{"android":"levelo://app?vid=0b946c2d-b649-48ce-9798-a36cb6074134","ios":"levelo://app?vid=0b946c2d-b649-48ce-9798-a36cb6074134"},"vehicle_type_id":"4","last_reported":1759234848,"current_range_meters":5600,"station_id":"ce4bhg12rcd13ifvqf60","pricing_plan_id":"cebpf4jnsgd1na2vs0mg"},{"bike_id":"732d469e-cd1b-4359-82fd-bb6d00429865","system_id":"levelo_inurba_marseille","lat":43.28612,"lon":5.37067,"is_reserved":false,"is_disabled":false,"rental_uris":{"android":"levelo://app?vid=732d469e-cd1b-4359-82fd-bb6d00429865","ios":"levelo://app?vid=732d469e-cd1b-4359-82fd-bb6d00429865"},"vehicle_type_id":"4","last_reported":1759234848,"current_range_meters":5600,"station_id":"ce4bht12rcd13ifvqi60","pricing_plan_id":"cebpf4jnsgd1na2vs0mg"},{"bike_id":"bd55cd62-941b-4a37-a5ad-c39576515a68","system_id":"levelo_inurba_marseille","lat":43.325388,"lon":5.410035,"is_reserved":false,"is_disabled":false,"rental_uris":{"android":"levelo://app?vid=bd55cd62-941b-4a37-a5ad-c39576515a68","ios":"levelo://app?vid=bd55cd62-941b-4a37-a5ad-c39576515a68"},"vehicle_type_id":"4","last_reported":1759234848,"current_range_meters":5600,"station_id":"ce4bhpp2rcd13ifvqhgg","pricing_plan_id":"cebpf4jnsgd1na2vs0mg"},{"bike_id":"8eba698c-1343-4776-a7ef-1194c9c853da","system_id":"levelo_inurba_marseille","lat":43.26538,"lon":5.39222,"is_reserved":false,"is_disabled":false,"rental_uris":{"android":"levelo://app?vid=8eba698c-1343-4776-a7ef-1194c9c853da","ios":"levelo://app?vid=8eba698c-1343-4776-a7ef-1194c9c853da"},"vehicle_type_id":"4","last_reported":1759234848,"current_range_meters":6000,"station_id":"","pricing_plan_id":"cebpf4jnsgd1na2vs0mg"},{"bike_id":"a8a2c426-5255-41b1-b432-afd9ebbe6618","system_id":"levelo_inurba_marseille","lat":43.24384,"lon":5.3706,"is_reserved":false,"is_disabled":false,"rental_uris":{"android":"levelo://app?vid=a8a2c426-5255-41b1-b432-afd9ebbe6618","ios":"levelo://app?vid=a8a2c426-5255-41b1-b432-afd9ebbe6618"},"vehicle_type_id":"4","last_reported":1759234848,"current_range_meters":6000,"station_id":"ce4bhhh2rcd13ifvqfk0","pricing_plan_id":"cebpf4jnsgd1na2vs0mg"},{"bike_id":"70794636-f10e-45ec-b990-278c094ff92f","system_id":"levelo_inurba_marseille","lat":43.314895,"lon":5.373068,"is_reserved":false,"is_disabled":false,"rental_uris":{"android":"levelo://app?vid=70794636-f10e-45ec-b990-278c094ff92f","ios":"levelo://app?vid=70794636-f10e-45ec-b990-278c094ff92f"},"vehicle_type_id":"4","last_reported":1759234848,"current_range_meters":6000,"station_id":"ce4bgt12rcd13ifvqcd0","pricing_plan_id":"cebpf4jnsgd1na2vs0mg"},{"bike_id":"00633dfe-4b45-4840-b491-b97f698f4343","system_id":"levelo_inurba_marseille","lat":43.30305,"lon":5.36882,"is_reserved":false,"is_disabled":false,"rental_uris":{"android":"levelo://app?vid=00633dfe-4b45-4840-b491-b97f698f4343","ios":"levelo://app?vid=00633dfe-4b45-4840-b491-b97f698f4343"},"vehicle_type_id":"4","last_reported":1759234848,"current_range_meters":5600,"station_id":"ce4bgqh2rcd13ifvqc5g","pricing_plan_id":"cebpf4jnsgd1na2vs0mg"},{"bike_id":"35e8f722-b82a-4247-beb8-7e2827829ce6","system_id":"levelo_inurba_marseille","lat":43.32405,"lon":5.3911,"is_reserved":false,"is_disabled":false,"rental_uris":{"android":"levelo://app?vid=35e8f722-b82a-4247-beb8-7e2827829ce6","ios":"levelo://app?vid=35e8f722-b82a-4247-beb8-7e2827829ce6"},"vehicle_type_id":"4","last_reported":1759234848,"current_range_meters":6000,"station_id":"","pricing_plan_id":"cebpf4jnsgd1na2vs0mg"},{"bike_id":"3443dc86-76ef-4be8-9269-11f736bbe175","system_id":"levelo_inurba_marseille","lat":43.21744,"lon":5.34603,"is_reserved":false,"is_disabled":false,"rental_uris":{"android":"levelo://app?vid=3443dc86-76ef-4be8-9269-11f736bbe175","ios":"levelo://app?vid=3443dc86-76ef-4be8-9269-11f736bbe175"},"vehicle_type_id":"4","last_reported":1759234848,"current_range_meters":6000,"station_id":"st_cvj6r9ubvosntc0bgbag","pricing_plan_id":"cebpf4jnsgd1na2vs0mg"},{"bike_id":"e5378695-fba9-432a-9cfb-3b5b05e40fec","system_id":"levelo_inurba_marseille","lat":43.337986,"lon":5.374304,"is_reserved":false,"is_disabled":false,"rental_uris":{"android":"levelo://app?vid=e5378695-fba9-432a-9cfb-3b5b05e40fec","ios":"levelo://app?vid=e5378695-fba9-432a-9cfb-3b5b05e40fec"},"vehicle_type_id":"4","last_reported":1759234848,"current_range_meters":6000,"station_id":"","pricing_plan_id":"cebpf4jnsgd1na2vs0mg"},{"bike_id":"20c10de6-2078-4e8d-b2e1-cc6f7a79502f","system_id":"levelo_inurba_marseille","lat":43.28073,"lon":5.38671,"is_reserved":false,"is_disabled":false,"rental_uris":{"android":"levelo://app?vid=20c10de6-2078-4e8d-b2e1-cc6f7a79502f","ios":"levelo://app?vid=20c10de6-2078-4e8d-b2e1-cc6f7a79502f"},"vehicle_type_id":"4","last_reported":1759234848,"current_range_meters":6400,"station_id":"","pricing_plan_id":"cebpf4jnsgd1na2vs0mg"},{"bike_id":"78c63b89-ec32-429c-80fa-5d83440aca8f","system_id":"levelo_inurba_marseille","lat":43.28497,"lon":5.38559,"is_reserved":false,"is_disabled":false,"rental_uris":{"android":"levelo://app?vid=78c63b89-ec32-429c-80fa-5d83440aca8f","ios":"levelo://app?vid=78c63b89-ec32-429c-80fa-5d83440aca8f"},"vehicle_type_id":"4","last_reported":1759234848,"current_range_meters":6800,"station_id":"ce4bh8p2rcd13ifvqeb0","pricing_plan_id":"cebpf4jnsgd1na2vs0mg"},{"bike_id":"803a52fa-5f2c-4a2a-a3be-740c021d8a48","system_id":"levelo_inurba_marseille","lat":43.24393,"lon":5.37054,"is_reserved":false,"is_disabled":false,"rental_uris":{"android":"levelo://app?vid=803a52fa-5f2c-4a2a-a3be-740c021d8a48","ios":"levelo://app?vid=803a52fa-5f2c-4a2a-a3be-740c021d8a48"},"vehicle_type_id":"4","last_reported":1759234848,"current_range_meters":6800,"station_id":"ce4bhhh2rcd13ifvqfk0","pricing_plan_id":"cebpf4jnsgd1na2vs0mg"},{"bike_id":"80b98ce0-3233-47ce-84db-722943723d1e","system_id":"levelo_inurba_marseille","lat":43.269329,"lon":5.38928,"is_reserved":false,"is_disabled":true,"rental_uris":{"android":"levelo://app?vid=80b98ce0-3233-47ce-84db-722943723d1e","ios":"levelo://app?vid=80b98ce0-3233-47ce-84db-722943723d1e"},"vehicle_type_id":"4","last_reported":1759234848,"current_range_meters":6800,"station_id":"","pricing_plan_id":"cebpf4jnsgd1na2vs0mg"},{"bike_id":"03350417-1098-4d6c-b8fe-9e64358744bf","system_id":"levelo_inurba_marseille","lat":43.32942,"lon":5.36446,"is_reserved":false,"is_disabled":false,"rental_uris":{"android":"levelo://app?vid=03350417-1098-4d6c-b8fe-9e64358744bf","ios":"levelo://app?vid=03350417-1098-4d6c-b8fe-9e64358744bf"},"vehicle_type_id":"4","last_reported":1759234848,"current_range_meters":6800,"station_id":"","pricing_plan_id":"cebpf4jnsgd1na2vs0mg"},{"bike_id":"13062117-10cc-45d5-ae85-97f2cc1b8809","system_id":"levelo_inurba_marseille","lat":43.2257,"lon":5.4163,"is_reserved":false,"is_disabled":false,"rental_uris":{"android":"levelo://app?vid=13062117-10cc-45d5-ae85-97f2cc1b8809","ios":"levelo://app?vid=13062117-10cc-45d5-ae85-97f2cc1b8809"},"vehicle_type_id":"4","last_reported":1759234848,"current_range_meters":7200,"station_id":"st_d2o4gvlbi1j2169b742g","pricing_plan_id":"cebpf4jnsgd1na2vs0mg"},{"bike_id":"43adddc6-1eb4-49fe-9eec-6e3f77515a1b","system_id":"levelo_inurba_marseille","lat":43.28853,"lon":5.358678,"is_reserved":false,"is_disabled":false,"rental_uris":{"android":"levelo://app?vid=43adddc6-1eb4-49fe-9eec-6e3f77515a1b","ios":"levelo://app?vid=43adddc6-1eb4-49fe-9eec-6e3f77515a1b"},"vehicle_type_id":"4","last_reported":1759234848,"current_range_meters":7200,"station_id":"ce4bhb12rcd13ifvqem0","pricing_plan_id":"cebpf4jnsgd1na2vs0mg"},{"bike_id":"30369c8f-6895-4e24-b2df-5d317aa542ed","system_id":"levelo_inurba_marseille","lat":43.2481,"lon":5.37457,"is_reserved":false,"is_disabled":false,"rental_uris":{"android":"levelo://app?vid=30369c8f-6895-4e24-b2df-5d317aa542ed","ios":"levelo://app?vid=30369c8f-6895-4e24-b2df-5d317aa542ed"},"vehicle_type_id":"4","last_reported":1759234848,"current_range_meters":7200,"station_id":"ce4bhgh2rcd13ifvqfb0","pricing_plan_id":"cebpf4jnsgd1na2vs0mg"},{"bike_id":"29fb0313-96d0-4699-a2b9-d9bfae768dba","system_id":"levelo_inurba_marseille","lat":43.2815,"lon":5.426,"is_reserved":false,"is_disabled":true,"rental_uris":{"android":"levelo://app?vid=29fb0313-96d0-4699-a2b9-d9bfae768dba","ios":"levelo://app?vid=29fb0313-96d0-4699-a2b9-d9bfae768dba"},"vehicle_type_id":"4","last_reported":1759234848,"current_range_meters":7200,"station_id":"ce4bhnh2rcd13ifvqgug","pricing_plan_id":"cebpf4jnsgd1na2vs0mg"},{"bike_id":"7952d0c5-c3b4-4c29-bacd-f59ef155894d","system_id":"levelo_inurba_marseille","lat":43.30101,"lon":5.39099,"is_reserved":false,"is_disabled":false,"rental_uris":{"android":"levelo://app?vid=7952d0c5-c3b4-4c29-bacd-f59ef155894d","ios":"levelo://app?vid=7952d0c5-c3b4-4c29-bacd-f59ef155894d"},"vehicle_type_id":"4","last_reported":1759234848,"current_range_meters":7200,"station_id":"ce4bh192rcd13ifvqdb0","pricing_plan_id":"cebpf4jnsgd1na2vs0mg"},{"bike_id":"459e53c8-ac59-44c5-8f21-edc84c998508","system_id":"levelo_inurba_marseille","lat":43.29027,"lon":5.3998,"is_reserved":false,"is_disabled":false,"rental_uris":{"android":"levelo://app?vid=459e53c8-ac59-44c5-8f21-edc84c998508","ios":"levelo://app?vid=459e53c8-ac59-44c5-8f21-edc84c998508"},"vehicle_type_id":"4","last_reported":1759234848,"current_range_meters":7200,"station_id":"ce4bh392rcd13ifvqdm0","pricing_plan_id":"cebpf4jnsgd1na2vs0mg"},{"bike_id":"a850bae8-ac78-48f2-b141-e98a3f257eb6","system_id":"levelo_inurba_marseille","lat":43.276807,"lon":5.388785,"is_reserved":false,"is_disabled":false,"rental_uris":{"android":"levelo://app?vid=a850bae8-ac78-48f2-b141-e98a3f257eb6","ios":"levelo://app?vid=a850bae8-ac78-48f2-b141-e98a3f257eb6"},"vehicle_type_id":"4","last_reported":1759234848,"current_range_meters":6800,"station_id":"ce4bhi12rcd13ifvqfo0","pricing_plan_id":"cebpf4jnsgd1na2vs0mg"},{"bike_id":"ea59b303-6900-42ad-9e79-5b0f95bedd6c","system_id":"levelo_inurba_marseille","lat":43.30431,"lon":5.36876,"is_reserved":false,"is_disabled":false,"rental_uris":{"android":"levelo://app?vid=ea59b303-6900-42ad-9e79-5b0f95bedd6c","ios":"levelo://app?vid=ea59b303-6900-42ad-9e79-5b0f95bedd6c"},"vehicle_type_id":"4","last_reported":1759234848,"current_range_meters":7200,"station_id":"","pricing_plan_id":"cebpf4jnsgd1na2vs0mg"},{"bike_id":"48f69c2d-167e-4bb6-adaf-6bf5ddb03520","system_id":"levelo_inurba_marseille","lat":43.31223,"lon":5.36855,"is_reserved":false,"is_disabled":false,"rental_uris":{"android":"levelo://app?vid=48f69c2d-167e-4bb6-adaf-6bf5ddb03520","ios":"levelo://app?vid=48f69c2d-167e-4bb6-adaf-6bf5ddb03520"},"vehicle_type_id":"4","last_reported":1759234848,"current_range_meters":6800,"station_id":"ce4bgl92rcd13ifvqbq0","pricing_plan_id":"cebpf4jnsgd1na2vs0mg"},{"bike_id":"a9954192-4802-4f98-b97a-ebe9ab75d705","system_id":"levelo_inurba_marseille","lat":43.34146,"lon":5.40909,"is_reserved":false,"is_disabled":false,"rental_uris":{"android":"levelo://app?vid=a9954192-4802-4f98-b97a-ebe9ab75d705","ios":"levelo://app?vid=a9954192-4802-4f98-b97a-ebe9ab75d705"},"vehicle_type_id":"4","last_reported":1759234848,"current_range_meters":8000,"station_id":"ce4bhqh2rcd13ifvqhlg","pricing_plan_id":"cebpf4jnsgd1na2vs0mg"},{"bike_id":"87a2ef25-659a-4ad2-baa9-ec626fba8ea6","system_id":"levelo_inurba_marseille","lat":43.32039,"lon":5.4155,"is_reserved":false,"is_disabled":false,"rental_uris":{"android":"levelo://app?vid=87a2ef25-659a-4ad2-baa9-ec626fba8ea6","ios":"levelo://app?vid=87a2ef25-659a-4ad2-baa9-ec626fba8ea6"},"vehicle_type_id":"4","last_reported":1759234848,"current_range_meters":7200,"station_id":"ce4bhq92rcd13ifvqhkg","pricing_plan_id":"cebpf4jnsgd1na2vs0mg"},{"bike_id":"1e34e40c-0db2-4a28-8db8-b5c23bb1df75","system_id":"levelo_inurba_marseille","lat":43.286194,"lon":5.351093,"is_reserved":false,"is_disabled":false,"rental_uris":{"android":"levelo://app?vid=1e34e40c-0db2-4a28-8db8-b5c23bb1df75","ios":"levelo://app?vid=1e34e40c-0db2-4a28-8db8-b5c23bb1df75"},"vehicle_type_id":"4","last_reported":1759234848,"current_range_meters":8000,"station_id":"ce4bhch2rcd13ifvqeug","pricing_plan_id":"cebpf4jnsgd1na2vs0mg"},{"bike_id":"f712deb7-8d0b-49c9-8b24-6dbf3c3fc4ec","system_id":"levelo_inurba_marseille","lat":43.26195,"lon":5.37443,"is_reserved":false,"is_disabled":false,"rental_uris":{"android":"levelo://app?vid=f712deb7-8d0b-49c9-8b24-6dbf3c3fc4ec","ios":"levelo://app?vid=f712deb7-8d0b-49c9-8b24-6dbf3c3fc4ec"},"vehicle_type_id":"4","last_reported":1759234848,"current_range_meters":8000,"station_id":"ce4bhgp2rcd13ifvqfc0","pricing_plan_id":"cebpf4jnsgd1na2vs0mg"},{"bike_id":"554426a0-1a6b-4d05-86bd-05dda4224304","system_id":"levelo_inurba_marseille","lat":43.28047,"lon":5.36943,"is_reserved":false,"is_disabled":false,"rental_uris":{"android":"levelo://app?vid=554426a0-1a6b-4d05-86bd-05dda4224304","ios":"levelo://app?vid=554426a0-1a6b-4d05-86bd-05dda4224304"},"vehicle_type_id":"4","last_reported":1759234848,"current_range_meters":8000,"station_id":"ce4bha12rcd13ifvqef0","pricing_plan_id":"cebpf4jnsgd1na2vs0mg"},{"bike_id":"008f00ef-5d91-4678-8543-b2d7f596f40f","system_id":"levelo_inurba_marseille","lat":43.31254,"lon":5.36864,"is_reserved":false,"is_disabled":false,"rental_uris":{"android":"levelo://app?vid=008f00ef-5d91-4678-8543-b2d7f596f40f","ios":"levelo://app?vid=008f00ef-5d91-4678-8543-b2d7f596f40f"},"vehicle_type_id":"4","last_reported":1759234848,"current_range_meters":8000,"station_id":"ce4bgl92rcd13ifvqbq0","pricing_plan_id":"cebpf4jnsgd1na2vs0mg"},{"bike_id":"ee96a502-9b76-492e-840a-498b02aefe72","system_id":"levelo_inurba_marseille","lat":43.32358,"lon":5.39224,"is_reserved":false,"is_disabled":false,"rental_uris":{"android":"levelo://app?vid=ee96a502-9b76-492e-840a-498b02aefe72","ios":"levelo://app?vid=ee96a502-9b76-492e-840a-498b02aefe72"},"vehicle_type_id":"4","last_reported":1759234848,"current_range_meters":8000,"station_id":"","pricing_plan_id":"cebpf4jnsgd1na2vs0mg"},{"bike_id":"1f0830a0-a7d8-43c2-b336-2661dae2689b","system_id":"levelo_inurba_marseille","lat":43.28245,"lon":5.350843,"is_reserved":false,"is_disabled":false,"rental_uris":{"android":"levelo://app?vid=1f0830a0-a7d8-43c2-b336-2661dae2689b","ios":"levelo://app?vid=1f0830a0-a7d8-43c2-b336-2661dae2689b"},"vehicle_type_id":"4","last_reported":1759234848,"current_range_meters":8000,"station_id":"ce4bhbp2rcd13ifvqerg","pricing_plan_id":"cebpf4jnsgd1na2vs0mg"},{"bike_id":"76468404-4f55-4468-97f9-6540334ac227","system_id":"levelo_inurba_marseille","lat":43.324717,"lon":5.365659,"is_reserved":false,"is_disabled":false,"rental_uris":{"android":"levelo://app?vid=76468404-4f55-4468-97f9-6540334ac227","ios":"levelo://app?vid=76468404-4f55-4468-97f9-6540334ac227"},"vehicle_type_id":"4","last_reported":1759234848,"current_range_meters":8000,"station_id":"ce4bhs12rcd13ifvqhvg","pricing_plan_id":"cebpf4jnsgd1na2vs0mg"},{"bike_id":"ce5e157e-4ef2-4c41-9b3b-54d3eecbfa45","system_id":"levelo_inurba_marseille","lat":43.2251,"lon":5.34839,"is_reserved":false,"is_disabled":false,"rental_uris":{"android":"levelo://app?vid=ce5e157e-4ef2-4c41-9b3b-54d3eecbfa45","ios":"levelo://app?vid=ce5e157e-4ef2-4c41-9b3b-54d3eecbfa45"},"vehicle_type_id":"4","last_reported":1759234848,"current_range_meters":8000,"station_id":"","pricing_plan_id":"cebpf4jnsgd1na2vs0mg"},{"bike_id":"52564ed8-5e95-456d-a636-7f0d7bedb907","system_id":"levelo_inurba_marseille","lat":43.27171,"lon":5.40985,"is_reserved":false,"is_disabled":false,"rental_uris":{"android":"levelo://app?vid=52564ed8-5e95-456d-a636-7f0d7bedb907","ios":"levelo://app?vid=52564ed8-5e95-456d-a636-7f0d7bedb907"},"vehicle_type_id":"4","last_reported":1759234848,"current_range_meters":8400,"station_id":"ce4bhl12rcd13ifvqgf0","pricing_plan_id":"cebpf4jnsgd1na2vs0mg"},{"bike_id":"2e8e4b55-0ca7-4b03-b7cf-6bb39aff6c93","system_id":"levelo_inurba_marseille","lat":43.21741,"lon":5.34602,"is_reserved":false,"is_disabled":false,"rental_uris":{"android":"levelo://app?vid=2e8e4b55-0ca7-4b03-b7cf-6bb39aff6c93","ios":"levelo://app?vid=2e8e4b55-0ca7-4b03-b7cf-6bb39aff6c93"},"vehicle_type_id":"4","last_reported":1759234848,"current_range_meters":8400,"station_id":"st_cvj6r9ubvosntc0bgbag","pricing_plan_id":"cebpf4jnsgd1na2vs0mg"},{"bike_id":"c9f7c894-4df2-4643-ac68-955fcc67beeb","system_id":"levelo_inurba_marseille","lat":43.27996,"lon":5.41643,"is_reserved":false,"is_disabled":true,"rental_uris":{"android":"levelo://app?vid=c9f7c894-4df2-4643-ac68-955fcc67beeb","ios":"levelo://app?vid=c9f7c894-4df2-4643-ac68-955fcc67beeb"},"vehicle_type_id":"4","last_reported":1759234848,"current_range_meters":8400,"station_id":"ce4bho12rcd13ifvqh1g","pricing_plan_id":"cebpf4jnsgd1na2vs0mg"},{"bike_id":"c9d3bfa8-9e48-411e-9dba-5136d1a598b7","system_id":"levelo_inurba_marseille","lat":43.23192,"lon":5.35547,"is_reserved":false,"is_disabled":false,"rental_uris":{"android":"levelo://app?vid=c9d3bfa8-9e48-411e-9dba-5136d1a598b7","ios":"levelo://app?vid=c9d3bfa8-9e48-411e-9dba-5136d1a598b7"},"vehicle_type_id":"4","last_reported":1759234848,"current_range_meters":8400,"station_id":"ce4bhu92rcd13ifvqi70","pricing_plan_id":"cebpf4jnsgd1na2vs0mg"},{"bike_id":"9c4235da-d3d0-4056-aa6b-c6aa6e8e7367","system_id":"levelo_inurba_marseille","lat":43.30669,"lon":5.37498,"is_reserved":false,"is_disabled":false,"rental_uris":{"android":"levelo://app?vid=9c4235da-d3d0-4056-aa6b-c6aa6e8e7367","ios":"levelo://app?vid=9c4235da-d3d0-4056-aa6b-c6aa6e8e7367"},"vehicle_type_id":"4","last_reported":1759234848,"current_range_meters":8400,"station_id":"","pricing_plan_id":"cebpf4jnsgd1na2vs0mg"},{"bike_id":"a2411a4b-e5ef-475f-b05a-622f2fcb8ba4","system_id":"levelo_inurba_marseille","lat":43.31503,"lon":5.37272,"is_reserved":false,"is_disabled":false,"rental_uris":{"android":"levelo://app?vid=a2411a4b-e5ef-475f-b05a-622f2fcb8ba4","ios":"levelo://app?vid=a2411a4b-e5ef-475f-b05a-622f2fcb8ba4"},"vehicle_type_id":"4","last_reported":1759234848,"current_range_meters":8800,"station_id":"ce4bgt12rcd13ifvqcd0","pricing_plan_id":"cebpf4jnsgd1na2vs0mg"},{"bike_id":"09645222-f055-49e6-a916-d7c26e8ef9cf","system_id":"levelo_inurba_marseille","lat":43.27616,"lon":5.36113,"is_reserved":false,"is_disabled":false,"rental_uris":{"android":"levelo://app?vid=09645222-f055-49e6-a916-d7c26e8ef9cf","ios":"levelo://app?vid=09645222-f055-49e6-a916-d7c26e8ef9cf"},"vehicle_type_id":"4","last_reported":1759234848,"current_range_meters":8800,"station_id":"ce4bgj92rcd13ifvqbe0","pricing_plan_id":"cebpf4jnsgd1na2vs0mg"},{"bike_id":"dd5e8987-9f51-4f50-bdd1-4945b8c8a574","system_id":"levelo_inurba_marseille","lat":43.255795,"lon":5.382306,"is_reserved":false,"is_disabled":false,"rental_uris":{"android":"levelo://app?vid=dd5e8987-9f51-4f50-bdd1-4945b8c8a574","ios":"levelo://app?vid=dd5e8987-9f51-4f50-bdd1-4945b8c8a574"},"vehicle_type_id":"4","last_reported":1759234848,"current_range_meters":8800,"station_id":"ce4bhih2rcd13ifvqfs0","pricing_plan_id":"cebpf4jnsgd1na2vs0mg"},{"bike_id":"d3e63642-d8e1-415a-bd6c-1227573898fc","system_id":"levelo_inurba_marseille","lat":43.31231,"lon":5.36849,"is_reserved":false,"is_disabled":false,"rental_uris":{"android":"levelo://app?vid=d3e63642-d8e1-415a-bd6c-1227573898fc","ios":"levelo://app?vid=d3e63642-d8e1-415a-bd6c-1227573898fc"},"vehicle_type_id":"4","last_reported":1759234848,"current_range_meters":8800,"station_id":"ce4bgl92rcd13ifvqbq0","pricing_plan_id":"cebpf4jnsgd1na2vs0mg"},{"bike_id":"f45eba02-4c2c-4bf6-8566-bd0e9f140d6e","system_id":"levelo_inurba_marseille","lat":43.29846,"lon":5.36276,"is_reserved":false,"is_disabled":false,"rental_uris":{"android":"levelo://app?vid=f45eba02-4c2c-4bf6-8566-bd0e9f140d6e","ios":"levelo://app?vid=f45eba02-4c2c-4bf6-8566-bd0e9f140d6e"},"vehicle_type_id":"4","last_reported":1759234848,"current_range_meters":8800,"station_id":"ce4bgpp2rcd13ifvqc3g","pricing_plan_id":"cebpf4jnsgd1na2vs0mg"},{"bike_id":"a07a513e-e5a9-4481-8592-d991379bc662","system_id":"levelo_inurba_marseille","lat":43.33735,"lon":5.37481,"is_reserved":false,"is_disabled":false,"rental_uris":{"android":"levelo://app?vid=a07a513e-e5a9-4481-8592-d991379bc662","ios":"levelo://app?vid=a07a513e-e5a9-4481-8592-d991379bc662"},"vehicle_type_id":"4","last_reported":1759234848,"current_range_meters":8800,"station_id":"","pricing_plan_id":"cebpf4jnsgd1na2vs0mg"},{"bike_id":"0030cf69-75f8-4719-a372-efc52bdb748a","system_id":"levelo_inurba_marseille","lat":43.328948,"lon":5.454041,"is_reserved":false,"is_disabled":true,"rental_uris":{"android":"levelo://app?vid=0030cf69-75f8-4719-a372-efc52bdb748a","ios":"levelo://app?vid=0030cf69-75f8-4719-a372-efc52bdb748a"},"vehicle_type_id":"4","last_reported":1759234848,"current_range_meters":9200,"station_id":"","pricing_plan_id":"cebpf4jnsgd1na2vs0mg"},{"bike_id":"7ceb52d1-ca43-4021-a02e-3f8129dabdae","system_id":"levelo_inurba_marseille","lat":43.29011,"lon":5.3561,"is_reserved":false,"is_disabled":false,"rental_uris":{"android":"levelo://app?vid=7ceb52d1-ca43-4021-a02e-3f8129dabdae","ios":"levelo://app?vid=7ceb52d1-ca43-4021-a02e-3f8129dabdae"},"vehicle_type_id":"4","last_reported":1759234848,"current_range_meters":9200,"station_id":"ce4bhb92rcd13ifvqen0","pricing_plan_id":"cebpf4jnsgd1na2vs0mg"},{"bike_id":"2992408a-ee35-40a8-a2c0-b84d3e0ef1d9","system_id":"levelo_inurba_marseille","lat":43.22556,"lon":5.41615,"is_reserved":false,"is_disabled":false,"rental_uris":{"android":"levelo://app?vid=2992408a-ee35-40a8-a2c0-b84d3e0ef1d9","ios":"levelo://app?vid=2992408a-ee35-40a8-a2c0-b84d3e0ef1d9"},"vehicle_type_id":"4","last_reported":1759234848,"current_range_meters":9200,"station_id":"st_d2o4gvlbi1j2169b742g","pricing_plan_id":"cebpf4jnsgd1na2vs0mg"},{"bike_id":"c627b34a-8e81-4438-af3b-4fd0aab1c160","system_id":"levelo_inurba_marseille","lat":43.29679,"lon":5.36013,"is_reserved":false,"is_disabled":false,"rental_uris":{"android":"levelo://app?vid=c627b34a-8e81-4438-af3b-4fd0aab1c160","ios":"levelo://app?vid=c627b34a-8e81-4438-af3b-4fd0aab1c160"},"vehicle_type_id":"4","last_reported":1759234848,"current_range_meters":9200,"station_id":"","pricing_plan_id":"cebpf4jnsgd1na2vs0mg"},{"bike_id":"e72db6c0-2cd2-4763-a2c0-652764f55897","system_id":"levelo_inurba_marseille","lat":43.31987,"lon":5.38137,"is_reserved":false,"is_disabled":false,"rental_uris":{"android":"levelo://app?vid=e72db6c0-2cd2-4763-a2c0-652764f55897","ios":"levelo://app?vid=e72db6c0-2cd2-4763-a2c0-652764f55897"},"vehicle_type_id":"4","last_reported":1759234848,"current_range_meters":9200,"station_id":"ce4bhr12rcd13ifvqhpg","pricing_plan_id":"cebpf4jnsgd1na2vs0mg"},{"bike_id":"385fa573-6758-43e7-a2f4-f27be30ea572","system_id":"levelo_inurba_marseille","lat":43.32101,"lon":5.36789,"is_reserved":false,"is_disabled":false,"rental_uris":{"android":"levelo://app?vid=385fa573-6758-43e7-a2f4-f27be30ea572","ios":"levelo://app?vid=385fa573-6758-43e7-a2f4-f27be30ea572"},"vehicle_type_id":"4","last_reported":1759234848,"current_range_meters":9600,"station_id":"ce4bhrh2rcd13ifvqhug","pricing_plan_id":"cebpf4jnsgd1na2vs0mg"},{"bike_id":"132b3028-9bb0-4cf3-8dea-aca6afe7cfdf","system_id":"levelo_inurba_marseille","lat":43.32654,"lon":5.40984,"is_reserved":false,"is_disabled":false,"rental_uris":{"android":"levelo://app?vid=132b3028-9bb0-4cf3-8dea-aca6afe7cfdf","ios":"levelo://app?vid=132b3028-9bb0-4cf3-8dea-aca6afe7cfdf"},"vehicle_type_id":"4","last_reported":1759234848,"current_range_meters":9600,"station_id":"ce4bhpp2rcd13ifvqhgg","pricing_plan_id":"cebpf4jnsgd1na2vs0mg"},{"bike_id":"635d1ad2-ead5-4ab4-b3f3-2954d1e4ab3c","system_id":"levelo_inurba_marseille","lat":43.23193,"lon":5.35555,"is_reserved":false,"is_disabled":false,"rental_uris":{"android":"levelo://app?vid=635d1ad2-ead5-4ab4-b3f3-2954d1e4ab3c","ios":"levelo://app?vid=635d1ad2-ead5-4ab4-b3f3-2954d1e4ab3c"},"vehicle_type_id":"4","last_reported":1759234848,"current_range_meters":9600,"station_id":"ce4bhu92rcd13ifvqi70","pricing_plan_id":"cebpf4jnsgd1na2vs0mg"},{"bike_id":"fa7b8d5d-cda7-4720-9ca3-21b0406e462a","system_id":"levelo_inurba_marseille","lat":43.295248,"lon":5.37505,"is_reserved":false,"is_disabled":false,"rental_uris":{"android":"levelo://app?vid=fa7b8d5d-cda7-4720-9ca3-21b0406e462a","ios":"levelo://app?vid=fa7b8d5d-cda7-4720-9ca3-21b0406e462a"},"vehicle_type_id":"4","last_reported":1759234848,"current_range_meters":9600,"station_id":"","pricing_plan_id":"cebpf4jnsgd1na2vs0mg"},{"bike_id":"498de633-1978-409b-aa35-b617d56ba506","system_id":"levelo_inurba_marseille","lat":43.289401,"lon":5.366452,"is_reserved":false,"is_disabled":false,"rental_uris":{"android":"levelo://app?vid=498de633-1978-409b-aa35-b617d56ba506","ios":"levelo://app?vid=498de633-1978-409b-aa35-b617d56ba506"},"vehicle_type_id":"4","last_reported":1759234848,"current_range_meters":9600,"station_id":"ce4bhap2rcd13ifvqek0","pricing_plan_id":"cebpf4jnsgd1na2vs0mg"},{"bike_id":"f24f227a-abaf-413a-8f69-b2c612a97954","system_id":"levelo_inurba_marseille","lat":43.30148,"lon":5.37412,"is_reserved":false,"is_disabled":true,"rental_uris":{"android":"levelo://app?vid=f24f227a-abaf-413a-8f69-b2c612a97954","ios":"levelo://app?vid=f24f227a-abaf-413a-8f69-b2c612a97954"},"vehicle_type_id":"4","last_reported":1759234848,"current_range_meters":9600,"station_id":"","pricing_plan_id":"cebpf4jnsgd1na2vs0mg"},{"bike_id":"c47f5c3e-1ff3-43b7-b740-1c081ef57305","system_id":"levelo_inurba_marseille","lat":43.29675,"lon":5.37648,"is_reserved":false,"is_disabled":false,"rental_uris":{"android":"levelo://app?vid=c47f5c3e-1ff3-43b7-b740-1c081ef57305","ios":"levelo://app?vid=c47f5c3e-1ff3-43b7-b740-1c081ef57305"},"vehicle_type_id":"4","last_reported":1759234848,"current_range_meters":10000,"station_id":"ce4bgkh2rcd13ifvqbl0","pricing_plan_id":"cebpf4jnsgd1na2vs0mg"},{"bike_id":"dc7f74c3-d042-46fd-b3b2-b8807fef8c3a","system_id":"levelo_inurba_marseille","lat":43.3133,"lon":5.39688,"is_reserved":false,"is_disabled":false,"rental_uris":{"android":"levelo://app?vid=dc7f74c3-d042-46fd-b3b2-b8807fef8c3a","ios":"levelo://app?vid=dc7f74c3-d042-46fd-b3b2-b8807fef8c3a"},"vehicle_type_id":"4","last_reported":1759234848,"current_range_meters":10000,"station_id":"ce4bgvp2rcd13ifvqcu0","pricing_plan_id":"cebpf4jnsgd1na2vs0mg"},{"bike_id":"0662e5ec-17b3-4da7-8ffc-903097426f9d","system_id":"levelo_inurba_marseille","lat":43.317108,"lon":5.437068,"is_reserved":false,"is_disabled":false,"rental_uris":{"android":"levelo://app?vid=0662e5ec-17b3-4da7-8ffc-903097426f9d","ios":"levelo://app?vid=0662e5ec-17b3-4da7-8ffc-903097426f9d"},"vehicle_type_id":"4","last_reported":1759234848,"current_range_meters":10000,"station_id":"ce4bhp92rcd13ifvqhcg","pricing_plan_id":"cebpf4jnsgd1na2vs0mg"},{"bike_id":"aa123961-c527-4db0-9350-7d548f67905a","system_id":"levelo_inurba_marseille","lat":43.27946,"lon":5.38753,"is_reserved":false,"is_disabled":false,"rental_uris":{"android":"levelo://app?vid=aa123961-c527-4db0-9350-7d548f67905a","ios":"levelo://app?vid=aa123961-c527-4db0-9350-7d548f67905a"},"vehicle_type_id":"4","last_reported":1759234848,"current_range_meters":10000,"station_id":"ce4bh492rcd13ifvqdvg","pricing_plan_id":"cebpf4jnsgd1na2vs0mg"},{"bike_id":"99879050-ecf8-436e-969e-054482a31469","system_id":"levelo_inurba_marseille","lat":43.275505,"lon":5.36022,"is_reserved":false,"is_disabled":false,"rental_uris":{"android":"levelo://app?vid=99879050-ecf8-436e-969e-054482a31469","ios":"levelo://app?vid=99879050-ecf8-436e-969e-054482a31469"},"vehicle_type_id":"4","last_reported":1759234848,"current_range_meters":10000,"station_id":"ce4bgj92rcd13ifvqbe0","pricing_plan_id":"cebpf4jnsgd1na2vs0mg"},{"bike_id":"211afd9f-58b0-436e-9b6b-1acbadc34392","system_id":"levelo_inurba_marseille","lat":43.32352,"lon":5.36718,"is_reserved":false,"is_disabled":false,"rental_uris":{"android":"levelo://app?vid=211afd9f-58b0-436e-9b6b-1acbadc34392","ios":"levelo://app?vid=211afd9f-58b0-436e-9b6b-1acbadc34392"},"vehicle_type_id":"4","last_reported":1759234848,"current_range_meters":10000,"station_id":"ce4bhsh2rcd13ifvqi2g","pricing_plan_id":"cebpf4jnsgd1na2vs0mg"},{"bike_id":"bb2155a9-7cab-410f-bb8c-382308d90e33","system_id":"levelo_inurba_marseille","lat":43.29022,"lon":5.37547,"is_reserved":false,"is_disabled":false,"rental_uris":{"android":"levelo://app?vid=bb2155a9-7cab-410f-bb8c-382308d90e33","ios":"levelo://app?vid=bb2155a9-7cab-410f-bb8c-382308d90e33"},"vehicle_type_id":"4","last_reported":1759234848,"current_range_meters":10000,"station_id":"ce4bh692rcd13ifvqe90","pricing_plan_id":"cebpf4jnsgd1na2vs0mg"},{"bike_id":"aebf0e68-ba27-412a-9ce2-11cc42127dee","system_id":"levelo_inurba_marseille","lat":43.337444,"lon":5.374475,"is_reserved":false,"is_disabled":false,"rental_uris":{"android":"levelo://app?vid=aebf0e68-ba27-412a-9ce2-11cc42127dee","ios":"levelo://app?vid=aebf0e68-ba27-412a-9ce2-11cc42127dee"},"vehicle_type_id":"4","last_reported":1759234848,"current_range_meters":10000,"station_id":"","pricing_plan_id":"cebpf4jnsgd1na2vs0mg"},{"bike_id":"78edd212-3bd8-4a45-bced-089e3907902a","system_id":"levelo_inurba_marseille","lat":43.32711,"lon":5.42386,"is_reserved":false,"is_disabled":true,"rental_uris":{"android":"levelo://app?vid=78edd212-3bd8-4a45-bced-089e3907902a","ios":"levelo://app?vid=78edd212-3bd8-4a45-bced-089e3907902a"},"vehicle_type_id":"4","last_reported":1759234848,"current_range_meters":10800,"station_id":"","pricing_plan_id":"cebpf4jnsgd1na2vs0mg"},{"bike_id":"8e4a3cbf-e0ab-488c-8c64-dc98bdb2feb1","system_id":"levelo_inurba_marseille","lat":43.30132,"lon":5.37419,"is_reserved":false,"is_disabled":false,"rental_uris":{"android":"levelo://app?vid=8e4a3cbf-e0ab-488c-8c64-dc98bdb2feb1","ios":"levelo://app?vid=8e4a3cbf-e0ab-488c-8c64-dc98bdb2feb1"},"vehicle_type_id":"4","last_reported":1759234848,"current_range_meters":10800,"station_id":"ce4bgs92rcd13ifvqcc0","pricing_plan_id":"cebpf4jnsgd1na2vs0mg"},{"bike_id":"8cbcf5e7-b804-4925-bbed-5f57e8580ccf","system_id":"levelo_inurba_marseille","lat":43.31519,"lon":5.36803,"is_reserved":false,"is_disabled":false,"rental_uris":{"android":"levelo://app?vid=8cbcf5e7-b804-4925-bbed-5f57e8580ccf","ios":"levelo://app?vid=8cbcf5e7-b804-4925-bbed-5f57e8580ccf"},"vehicle_type_id":"4","last_reported":1759234848,"current_range_meters":10800,"station_id":"","pricing_plan_id":"cebpf4jnsgd1na2vs0mg"},{"bike_id":"56d6a008-a903-4bd5-8ee3-1cec5d05c634","system_id":"levelo_inurba_marseille","lat":43.31749,"lon":5.39024,"is_reserved":false,"is_disabled":false,"rental_uris":{"android":"levelo://app?vid=56d6a008-a903-4bd5-8ee3-1cec5d05c634","ios":"levelo://app?vid=56d6a008-a903-4bd5-8ee3-1cec5d05c634"},"vehicle_type_id":"4","last_reported":1759234848,"current_range_meters":10800,"station_id":"ce4bhqp2rcd13ifvqhng","pricing_plan_id":"cebpf4jnsgd1na2vs0mg"},{"bike_id":"c70f6df1-ce37-49a6-b84e-b7be450e55c7","system_id":"levelo_inurba_marseille","lat":43.3043,"lon":5.3889,"is_reserved":false,"is_disabled":false,"rental_uris":{"android":"levelo://app?vid=c70f6df1-ce37-49a6-b84e-b7be450e55c7","ios":"levelo://app?vid=c70f6df1-ce37-49a6-b84e-b7be450e55c7"},"vehicle_type_id":"4","last_reported":1759234848,"current_range_meters":10800,"station_id":"ce4bgk12rcd13ifvqbi0","pricing_plan_id":"cebpf4jnsgd1na2vs0mg"},{"bike_id":"85877f30-b8d6-4ddc-b6f6-0fa6647c818a","system_id":"levelo_inurba_marseille","lat":43.26784,"lon":5.39415,"is_reserved":false,"is_disabled":false,"rental_uris":{"android":"levelo://app?vid=85877f30-b8d6-4ddc-b6f6-0fa6647c818a","ios":"levelo://app?vid=85877f30-b8d6-4ddc-b6f6-0fa6647c818a"},"vehicle_type_id":"4","last_reported":1759234848,"current_range_meters":10800,"station_id":"ce4bhh12rcd13ifvqfg0","pricing_plan_id":"cebpf4jnsgd1na2vs0mg"},{"bike_id":"db5e0004-6a5b-4fd5-a119-f5e5a0b1f5e7","system_id":"levelo_inurba_marseille","lat":43.29098,"lon":5.38118,"is_reserved":false,"is_disabled":false,"rental_uris":{"android":"levelo://app?vid=db5e0004-6a5b-4fd5-a119-f5e5a0b1f5e7","ios":"levelo://app?vid=db5e0004-6a5b-4fd5-a119-f5e5a0b1f5e7"},"vehicle_type_id":"4","last_reported":1759234848,"current_range_meters":10800,"station_id":"ce4bh512rcd13ifvqe2g","pricing_plan_id":"cebpf4jnsgd1na2vs0mg"},{"bike_id":"73b89fc3-156f-4616-9bc0-39a819908a08","system_id":"levelo_inurba_marseille","lat":43.25496,"lon":5.37649,"is_reserved":false,"is_disabled":false,"rental_uris":{"android":"levelo://app?vid=73b89fc3-156f-4616-9bc0-39a819908a08","ios":"levelo://app?vid=73b89fc3-156f-4616-9bc0-39a819908a08"},"vehicle_type_id":"4","last_reported":1759234848,"current_range_meters":11200,"station_id":"ce4bhh12rcd13ifvqff0","pricing_plan_id":"cebpf4jnsgd1na2vs0mg"},{"bike_id":"99ce2063-5dfb-4ed3-a4a6-8fc3a54c4890","system_id":"levelo_inurba_marseille","lat":43.337444,"lon":5.374475,"is_reserved":false,"is_disabled":false,"rental_uris":{"android":"levelo://app?vid=99ce2063-5dfb-4ed3-a4a6-8fc3a54c4890","ios":"levelo://app?vid=99ce2063-5dfb-4ed3-a4a6-8fc3a54c4890"},"vehicle_type_id":"4","last_reported":1759234848,"current_range_meters":11200,"station_id":"","pricing_plan_id":"cebpf4jnsgd1na2vs0mg"},{"bike_id":"96520869-d013-4e0c-a355-f7bbd728ba84","system_id":"levelo_inurba_marseille","lat":43.32356,"lon":5.36751,"is_reserved":false,"is_disabled":false,"rental_uris":{"android":"levelo://app?vid=96520869-d013-4e0c-a355-f7bbd728ba84","ios":"levelo://app?vid=96520869-d013-4e0c-a355-f7bbd728ba84"},"vehicle_type_id":"4","last_reported":1759234848,"current_range_meters":11600,"station_id":"ce4bhsh2rcd13ifvqi2g","pricing_plan_id":"cebpf4jnsgd1na2vs0mg"},{"bike_id":"171eb6c7-bef7-4549-92f0-752da1f5737b","system_id":"levelo_inurba_marseille","lat":43.34165,"lon":5.40889,"is_reserved":false,"is_disabled":false,"rental_uris":{"android":"levelo://app?vid=171eb6c7-bef7-4549-92f0-752da1f5737b","ios":"levelo://app?vid=171eb6c7-bef7-4549-92f0-752da1f5737b"},"vehicle_type_id":"4","last_reported":1759234848,"current_range_meters":11600,"station_id":"ce4bhqh2rcd13ifvqhlg","pricing_plan_id":"cebpf4jnsgd1na2vs0mg"},{"bike_id":"33c37912-7a5a-4cf6-bff3-9fbfe40d20dc","system_id":"levelo_inurba_marseille","lat":43.32112,"lon":5.36761,"is_reserved":false,"is_disabled":false,"rental_uris":{"android":"levelo://app?vid=33c37912-7a5a-4cf6-bff3-9fbfe40d20dc","ios":"levelo://app?vid=33c37912-7a5a-4cf6-bff3-9fbfe40d20dc"},"vehicle_type_id":"4","last_reported":1759234848,"current_range_meters":11600,"station_id":"ce4bhrh2rcd13ifvqhug","pricing_plan_id":"cebpf4jnsgd1na2vs0mg"},{"bike_id":"fef6b10d-4ba9-43e4-89dd-ea310fe0ad26","system_id":"levelo_inurba_marseille","lat":43.25002,"lon":5.389193,"is_reserved":false,"is_disabled":false,"rental_uris":{"android":"levelo://app?vid=fef6b10d-4ba9-43e4-89dd-ea310fe0ad26","ios":"levelo://app?vid=fef6b10d-4ba9-43e4-89dd-ea310fe0ad26"},"vehicle_type_id":"4","last_reported":1759234848,"current_range_meters":11600,"station_id":"ce4bhgp2rcd13ifvqfd0","pricing_plan_id":"cebpf4jnsgd1na2vs0mg"},{"bike_id":"738a51a6-02d0-4def-8f3f-9c82f6a6dd05","system_id":"levelo_inurba_marseille","lat":43.32339,"lon":5.367,"is_reserved":false,"is_disabled":false,"rental_uris":{"android":"levelo://app?vid=738a51a6-02d0-4def-8f3f-9c82f6a6dd05","ios":"levelo://app?vid=738a51a6-02d0-4def-8f3f-9c82f6a6dd05"},"vehicle_type_id":"4","last_reported":1759234848,"current_range_meters":11600,"station_id":"","pricing_plan_id":"cebpf4jnsgd1na2vs0mg"},{"bike_id":"0249d3f4-cb41-4678-bca5-0a61f711ff6c","system_id":"levelo_inurba_marseille","lat":43.31354,"lon":5.36721,"is_reserved":false,"is_disabled":false,"rental_uris":{"android":"levelo://app?vid=0249d3f4-cb41-4678-bca5-0a61f711ff6c","ios":"levelo://app?vid=0249d3f4-cb41-4678-bca5-0a61f711ff6c"},"vehicle_type_id":"4","last_reported":1759234848,"current_range_meters":11200,"station_id":"ce4bgr92rcd13ifvqc6g","pricing_plan_id":"cebpf4jnsgd1na2vs0mg"},{"bike_id":"bdf551ec-fb17-498b-be43-3bb803c7a5f0","system_id":"levelo_inurba_marseille","lat":43.27162,"lon":5.409777,"is_reserved":false,"is_disabled":false,"rental_uris":{"android":"levelo://app?vid=bdf551ec-fb17-498b-be43-3bb803c7a5f0","ios":"levelo://app?vid=bdf551ec-fb17-498b-be43-3bb803c7a5f0"},"vehicle_type_id":"4","last_reported":1759234848,"current_range_meters":11600,"station_id":"ce4bhl12rcd13ifvqgf0","pricing_plan_id":"cebpf4jnsgd1na2vs0mg"},{"bike_id":"687b8cef-5301-4b2b-af54-98aa6ff48c7a","system_id":"levelo_inurba_marseille","lat":43.29246,"lon":5.37622,"is_reserved":false,"is_disabled":false,"rental_uris":{"android":"levelo://app?vid=687b8cef-5301-4b2b-af54-98aa6ff48c7a","ios":"levelo://app?vid=687b8cef-5301-4b2b-af54-98aa6ff48c7a"},"vehicle_type_id":"4","last_reported":1759234848,"current_range_meters":11600,"station_id":"ce4bgi12rcd13ifvqb80","pricing_plan_id":"cebpf4jnsgd1na2vs0mg"},{"bike_id":"53f10d66-b0c1-4f02-b067-6ec8133d4cb1","system_id":"levelo_inurba_marseille","lat":43.28856,"lon":5.35856,"is_reserved":false,"is_disabled":false,"rental_uris":{"android":"levelo://app?vid=53f10d66-b0c1-4f02-b067-6ec8133d4cb1","ios":"levelo://app?vid=53f10d66-b0c1-4f02-b067-6ec8133d4cb1"},"vehicle_type_id":"4","last_reported":1759234848,"current_range_meters":11600,"station_id":"ce4bhb12rcd13ifvqem0","pricing_plan_id":"cebpf4jnsgd1na2vs0mg"},{"bike_id":"92662833-c6ac-4b02-b7df-1638b54b1972","system_id":"levelo_inurba_marseille","lat":43.33742,"lon":5.37449,"is_reserved":false,"is_disabled":false,"rental_uris":{"android":"levelo://app?vid=92662833-c6ac-4b02-b7df-1638b54b1972","ios":"levelo://app?vid=92662833-c6ac-4b02-b7df-1638b54b1972"},"vehicle_type_id":"4","last_reported":1759234848,"current_range_meters":11600,"station_id":"","pricing_plan_id":"cebpf4jnsgd1na2vs0mg"},{"bike_id":"f8d78e5f-60e1-4623-939f-49e76ff16505","system_id":"levelo_inurba_marseille","lat":43.33742,"lon":5.37448,"is_reserved":false,"is_disabled":false,"rental_uris":{"android":"levelo://app?vid=f8d78e5f-60e1-4623-939f-49e76ff16505","ios":"levelo://app?vid=f8d78e5f-60e1-4623-939f-49e76ff16505"},"vehicle_type_id":"4","last_reported":1759234848,"current_range_meters":11600,"station_id":"","pricing_plan_id":"cebpf4jnsgd1na2vs0mg"},{"bike_id":"9677e72a-2a08-4b0f-9d10-ee945a76c58b","system_id":"levelo_inurba_marseille","lat":43.231558,"lon":5.436958,"is_reserved":false,"is_disabled":true,"rental_uris":{"android":"levelo://app?vid=9677e72a-2a08-4b0f-9d10-ee945a76c58b","ios":"levelo://app?vid=9677e72a-2a08-4b0f-9d10-ee945a76c58b"},"vehicle_type_id":"4","last_reported":1759234848,"current_range_meters":12000,"station_id":"ce4bhmp2rcd13ifvqgog","pricing_plan_id":"cebpf4jnsgd1na2vs0mg"},{"bike_id":"465bc23c-8c89-42ab-9a5c-cce33dc84162","system_id":"levelo_inurba_marseille","lat":43.29786,"lon":5.38071,"is_reserved":false,"is_disabled":false,"rental_uris":{"android":"levelo://app?vid=465bc23c-8c89-42ab-9a5c-cce33dc84162","ios":"levelo://app?vid=465bc23c-8c89-42ab-9a5c-cce33dc84162"},"vehicle_type_id":"4","last_reported":1759234848,"current_range_meters":12000,"station_id":"ce4bgip2rcd13ifvqbb0","pricing_plan_id":"cebpf4jnsgd1na2vs0mg"},{"bike_id":"cb4b9073-e436-438a-959a-5f5f4b3d56dd","system_id":"levelo_inurba_marseille","lat":43.2668,"lon":5.3827,"is_reserved":false,"is_disabled":false,"rental_uris":{"android":"levelo://app?vid=cb4b9073-e436-438a-959a-5f5f4b3d56dd","ios":"levelo://app?vid=cb4b9073-e436-438a-959a-5f5f4b3d56dd"},"vehicle_type_id":"4","last_reported":1759234848,"current_range_meters":12000,"station_id":"ce4bhg92rcd13ifvqf90","pricing_plan_id":"cebpf4jnsgd1na2vs0mg"},{"bike_id":"4687a18b-a829-46b4-8520-2ab847535b9d","system_id":"levelo_inurba_marseille","lat":43.28255,"lon":5.35062,"is_reserved":false,"is_disabled":false,"rental_uris":{"android":"levelo://app?vid=4687a18b-a829-46b4-8520-2ab847535b9d","ios":"levelo://app?vid=4687a18b-a829-46b4-8520-2ab847535b9d"},"vehicle_type_id":"4","last_reported":1759234848,"current_range_meters":12000,"station_id":"ce4bhbp2rcd13ifvqerg","pricing_plan_id":"cebpf4jnsgd1na2vs0mg"},{"bike_id":"f44df0c8-3c0a-4103-982e-900169d96e81","system_id":"levelo_inurba_marseille","lat":43.32122,"lon":5.36789,"is_reserved":false,"is_disabled":false,"rental_uris":{"android":"levelo://app?vid=f44df0c8-3c0a-4103-982e-900169d96e81","ios":"levelo://app?vid=f44df0c8-3c0a-4103-982e-900169d96e81"},"vehicle_type_id":"4","last_reported":1759234848,"current_range_meters":12000,"station_id":"ce4bhrh2rcd13ifvqhug","pricing_plan_id":"cebpf4jnsgd1na2vs0mg"},{"bike_id":"56ca0258-bee9-4eb2-b3c5-63b5cd0b9e67","system_id":"levelo_inurba_marseille","lat":43.33737,"lon":5.37445,"is_reserved":false,"is_disabled":false,"rental_uris":{"android":"levelo://app?vid=56ca0258-bee9-4eb2-b3c5-63b5cd0b9e67","ios":"levelo://app?vid=56ca0258-bee9-4eb2-b3c5-63b5cd0b9e67"},"vehicle_type_id":"4","last_reported":1759234848,"current_range_meters":12000,"station_id":"","pricing_plan_id":"cebpf4jnsgd1na2vs0mg"},{"bike_id":"e37ce0b3-8efd-4fdb-bec7-618abaf45160","system_id":"levelo_inurba_marseille","lat":43.34144,"lon":5.40905,"is_reserved":false,"is_disabled":false,"rental_uris":{"android":"levelo://app?vid=e37ce0b3-8efd-4fdb-bec7-618abaf45160","ios":"levelo://app?vid=e37ce0b3-8efd-4fdb-bec7-618abaf45160"},"vehicle_type_id":"4","last_reported":1759234848,"current_range_meters":12400,"station_id":"ce4bhqh2rcd13ifvqhlg","pricing_plan_id":"cebpf4jnsgd1na2vs0mg"},{"bike_id":"5f8245c1-d6d3-4e20-af8e-6d792fdc04ce","system_id":"levelo_inurba_marseille","lat":43.29862,"lon":5.45617,"is_reserved":false,"is_disabled":false,"rental_uris":{"android":"levelo://app?vid=5f8245c1-d6d3-4e20-af8e-6d792fdc04ce","ios":"levelo://app?vid=5f8245c1-d6d3-4e20-af8e-6d792fdc04ce"},"vehicle_type_id":"4","last_reported":1759234848,"current_range_meters":12400,"station_id":"","pricing_plan_id":"cebpf4jnsgd1na2vs0mg"},{"bike_id":"ad772722-ba28-4859-a476-38e07d028b19","system_id":"levelo_inurba_marseille","lat":43.27916,"lon":5.39574,"is_reserved":false,"is_disabled":false,"rental_uris":{"android":"levelo://app?vid=ad772722-ba28-4859-a476-38e07d028b19","ios":"levelo://app?vid=ad772722-ba28-4859-a476-38e07d028b19"},"vehicle_type_id":"4","last_reported":1759234848,"current_range_meters":12400,"station_id":"ce4bhf92rcd13ifvqf40","pricing_plan_id":"cebpf4jnsgd1na2vs0mg"},{"bike_id":"7ef3fee7-32d3-4acb-b5f4-d8806709e979","system_id":"levelo_inurba_marseille","lat":43.23953,"lon":5.36645,"is_reserved":false,"is_disabled":false,"rental_uris":{"android":"levelo://app?vid=7ef3fee7-32d3-4acb-b5f4-d8806709e979","ios":"levelo://app?vid=7ef3fee7-32d3-4acb-b5f4-d8806709e979"},"vehicle_type_id":"4","last_reported":1759234848,"current_range_meters":8000,"station_id":"ce4bhi12rcd13ifvqfp0","pricing_plan_id":"cebpf4jnsgd1na2vs0mg"},{"bike_id":"a0f21c36-62ed-447c-959e-95e2b7b3ab28","system_id":"levelo_inurba_marseille","lat":43.28453,"lon":5.38434,"is_reserved":false,"is_disabled":false,"rental_uris":{"android":"levelo://app?vid=a0f21c36-62ed-447c-959e-95e2b7b3ab28","ios":"levelo://app?vid=a0f21c36-62ed-447c-959e-95e2b7b3ab28"},"vehicle_type_id":"4","last_reported":1759234848,"current_range_meters":12000,"station_id":"ce4bh512rcd13ifvqe3g","pricing_plan_id":"cebpf4jnsgd1na2vs0mg"},{"bike_id":"11acad3d-b798-4c25-a044-c3c54677d114","system_id":"levelo_inurba_marseille","lat":43.28617,"lon":5.35099,"is_reserved":false,"is_disabled":false,"rental_uris":{"android":"levelo://app?vid=11acad3d-b798-4c25-a044-c3c54677d114","ios":"levelo://app?vid=11acad3d-b798-4c25-a044-c3c54677d114"},"vehicle_type_id":"4","last_reported":1759234848,"current_range_meters":12800,"station_id":"ce4bhch2rcd13ifvqeug","pricing_plan_id":"cebpf4jnsgd1na2vs0mg"},{"bike_id":"0aba4fe3-5dca-4d79-8b9d-2fc77d6e7d70","system_id":"levelo_inurba_marseille","lat":43.28418,"lon":5.349815,"is_reserved":false,"is_disabled":false,"rental_uris":{"android":"levelo://app?vid=0aba4fe3-5dca-4d79-8b9d-2fc77d6e7d70","ios":"levelo://app?vid=0aba4fe3-5dca-4d79-8b9d-2fc77d6e7d70"},"vehicle_type_id":"4","last_reported":1759234848,"current_range_meters":12800,"station_id":"","pricing_plan_id":"cebpf4jnsgd1na2vs0mg"},{"bike_id":"8c889c5e-dbff-42f9-9e9a-56a3d0500fe9","system_id":"levelo_inurba_marseille","lat":43.30289,"lon":5.36979,"is_reserved":false,"is_disabled":false,"rental_uris":{"android":"levelo://app?vid=8c889c5e-dbff-42f9-9e9a-56a3d0500fe9","ios":"levelo://app?vid=8c889c5e-dbff-42f9-9e9a-56a3d0500fe9"},"vehicle_type_id":"4","last_reported":1759234848,"current_range_meters":12800,"station_id":"","pricing_plan_id":"cebpf4jnsgd1na2vs0mg"},{"bike_id":"6f3d6773-464f-4ec6-96b7-5fd121a92bf5","system_id":"levelo_inurba_marseille","lat":43.23167,"lon":5.43709,"is_reserved":false,"is_disabled":false,"rental_uris":{"android":"levelo://app?vid=6f3d6773-464f-4ec6-96b7-5fd121a92bf5","ios":"levelo://app?vid=6f3d6773-464f-4ec6-96b7-5fd121a92bf5"},"vehicle_type_id":"4","last_reported":1759234848,"current_range_meters":13600,"station_id":"ce4bhmp2rcd13ifvqgog","pricing_plan_id":"cebpf4jnsgd1na2vs0mg"},{"bike_id":"5626d12c-c31b-4678-a559-f7501e6d3dbb","system_id":"levelo_inurba_marseille","lat":43.24073,"lon":5.37748,"is_reserved":false,"is_disabled":false,"rental_uris":{"android":"levelo://app?vid=5626d12c-c31b-4678-a559-f7501e6d3dbb","ios":"levelo://app?vid=5626d12c-c31b-4678-a559-f7501e6d3dbb"},"vehicle_type_id":"4","last_reported":1759234848,"current_range_meters":13600,"station_id":"","pricing_plan_id":"cebpf4jnsgd1na2vs0mg"},{"bike_id":"143812dc-9d01-40ba-85e1-344f69d1f8fc","system_id":"levelo_inurba_marseille","lat":43.29071,"lon":5.37173,"is_reserved":false,"is_disabled":false,"rental_uris":{"android":"levelo://app?vid=143812dc-9d01-40ba-85e1-344f69d1f8fc","ios":"levelo://app?vid=143812dc-9d01-40ba-85e1-344f69d1f8fc"},"vehicle_type_id":"4","last_reported":1759234848,"current_range_meters":13600,"station_id":"ce4bh5p2rcd13ifvqe4g","pricing_plan_id":"cebpf4jnsgd1na2vs0mg"},{"bike_id":"4ee0e3c0-6293-4813-a2f1-b3c7395136f8","system_id":"levelo_inurba_marseille","lat":43.26958,"lon":5.38632,"is_reserved":false,"is_disabled":false,"rental_uris":{"android":"levelo://app?vid=4ee0e3c0-6293-4813-a2f1-b3c7395136f8","ios":"levelo://app?vid=4ee0e3c0-6293-4813-a2f1-b3c7395136f8"},"vehicle_type_id":"4","last_reported":1759234848,"current_range_meters":12800,"station_id":"ce4bhh92rcd13ifvqfh0","pricing_plan_id":"cebpf4jnsgd1na2vs0mg"},{"bike_id":"daa7dcbe-b6cc-42a2-871b-ed8486bf9e77","system_id":"levelo_inurba_marseille","lat":43.30095,"lon":5.39078,"is_reserved":false,"is_disabled":false,"rental_uris":{"android":"levelo://app?vid=daa7dcbe-b6cc-42a2-871b-ed8486bf9e77","ios":"levelo://app?vid=daa7dcbe-b6cc-42a2-871b-ed8486bf9e77"},"vehicle_type_id":"4","last_reported":1759234848,"current_range_meters":13600,"station_id":"ce4bh192rcd13ifvqdb0","pricing_plan_id":"cebpf4jnsgd1na2vs0mg"},{"bike_id":"144a26c4-fd66-4e51-85c5-9b33c6c393ad","system_id":"levelo_inurba_marseille","lat":43.24956,"lon":5.40501,"is_reserved":false,"is_disabled":false,"rental_uris":{"android":"levelo://app?vid=144a26c4-fd66-4e51-85c5-9b33c6c393ad","ios":"levelo://app?vid=144a26c4-fd66-4e51-85c5-9b33c6c393ad"},"vehicle_type_id":"4","last_reported":1759234848,"current_range_meters":13600,"station_id":"","pricing_plan_id":"cebpf4jnsgd1na2vs0mg"},{"bike_id":"99c52831-b323-45c2-a601-a09c54ac5091","system_id":"levelo_inurba_marseille","lat":43.29538,"lon":5.38537,"is_reserved":false,"is_disabled":false,"rental_uris":{"android":"levelo://app?vid=99c52831-b323-45c2-a601-a09c54ac5091","ios":"levelo://app?vid=99c52831-b323-45c2-a601-a09c54ac5091"},"vehicle_type_id":"4","last_reported":1759234848,"current_range_meters":12800,"station_id":"ce4bgih2rcd13ifvqba0","pricing_plan_id":"cebpf4jnsgd1na2vs0mg"},{"bike_id":"d2f46c9e-a53c-42a7-ad54-fd7c896f4565","system_id":"levelo_inurba_marseille","lat":43.33797,"lon":5.37428,"is_reserved":false,"is_disabled":false,"rental_uris":{"android":"levelo://app?vid=d2f46c9e-a53c-42a7-ad54-fd7c896f4565","ios":"levelo://app?vid=d2f46c9e-a53c-42a7-ad54-fd7c896f4565"},"vehicle_type_id":"4","last_reported":1759234848,"current_range_meters":13600,"station_id":"","pricing_plan_id":"cebpf4jnsgd1na2vs0mg"},{"bike_id":"5dee198d-c0da-488d-a493-7efac1d442f0","system_id":"levelo_inurba_marseille","lat":43.25501,"lon":5.37651,"is_reserved":false,"is_disabled":false,"rental_uris":{"android":"levelo://app?vid=5dee198d-c0da-488d-a493-7efac1d442f0","ios":"levelo://app?vid=5dee198d-c0da-488d-a493-7efac1d442f0"},"vehicle_type_id":"4","last_reported":1759234848,"current_range_meters":14000,"station_id":"ce4bhh12rcd13ifvqff0","pricing_plan_id":"cebpf4jnsgd1na2vs0mg"},{"bike_id":"2ab535df-4c2c-40d8-af4f-189047a67c11","system_id":"levelo_inurba_marseille","lat":43.24641,"lon":5.43145,"is_reserved":false,"is_disabled":false,"rental_uris":{"android":"levelo://app?vid=2ab535df-4c2c-40d8-af4f-189047a67c11","ios":"levelo://app?vid=2ab535df-4c2c-40d8-af4f-189047a67c11"},"vehicle_type_id":"4","last_reported":1759234848,"current_range_meters":14000,"station_id":"st_d2m6c4gdas8pm72e190g","pricing_plan_id":"cebpf4jnsgd1na2vs0mg"},{"bike_id":"d114139c-60d0-4459-ba3b-cac62be00268","system_id":"levelo_inurba_marseille","lat":43.3014,"lon":5.37402,"is_reserved":false,"is_disabled":false,"rental_uris":{"android":"levelo://app?vid=d114139c-60d0-4459-ba3b-cac62be00268","ios":"levelo://app?vid=d114139c-60d0-4459-ba3b-cac62be00268"},"vehicle_type_id":"4","last_reported":1759234848,"current_range_meters":14000,"station_id":"ce4bgs92rcd13ifvqcc0","pricing_plan_id":"cebpf4jnsgd1na2vs0mg"},{"bike_id":"a11b5c74-b43b-4c3a-adc2-4da2a1df4842","system_id":"levelo_inurba_marseille","lat":43.2805,"lon":5.36943,"is_reserved":false,"is_disabled":false,"rental_uris":{"android":"levelo://app?vid=a11b5c74-b43b-4c3a-adc2-4da2a1df4842","ios":"levelo://app?vid=a11b5c74-b43b-4c3a-adc2-4da2a1df4842"},"vehicle_type_id":"4","last_reported":1759234848,"current_range_meters":14000,"station_id":"ce4bha12rcd13ifvqef0","pricing_plan_id":"cebpf4jnsgd1na2vs0mg"},{"bike_id":"104e4ff5-e9c4-4dbc-83ac-6b82d4ecbe67","system_id":"levelo_inurba_marseille","lat":43.26058,"lon":5.39399,"is_reserved":false,"is_disabled":false,"rental_uris":{"android":"levelo://app?vid=104e4ff5-e9c4-4dbc-83ac-6b82d4ecbe67","ios":"levelo://app?vid=104e4ff5-e9c4-4dbc-83ac-6b82d4ecbe67"},"vehicle_type_id":"4","last_reported":1759234848,"current_range_meters":13600,"station_id":"ce4bhh92rcd13ifvqfj0","pricing_plan_id":"cebpf4jnsgd1na2vs0mg"},{"bike_id":"f1021c6b-109e-4130-b406-eed791e57eff","system_id":"levelo_inurba_marseille","lat":43.31682,"lon":5.40477,"is_reserved":false,"is_disabled":false,"rental_uris":{"android":"levelo://app?vid=f1021c6b-109e-4130-b406-eed791e57eff","ios":"levelo://app?vid=f1021c6b-109e-4130-b406-eed791e57eff"},"vehicle_type_id":"4","last_reported":1759234848,"current_range_meters":14000,"station_id":"ce4bh012rcd13ifvqd00","pricing_plan_id":"cebpf4jnsgd1na2vs0mg"},{"bike_id":"adfbe18b-7ca7-424a-9090-23d85cce22c6","system_id":"levelo_inurba_marseille","lat":43.30051,"lon":5.40921,"is_reserved":false,"is_disabled":false,"rental_uris":{"android":"levelo://app?vid=adfbe18b-7ca7-424a-9090-23d85cce22c6","ios":"levelo://app?vid=adfbe18b-7ca7-424a-9090-23d85cce22c6"},"vehicle_type_id":"4","last_reported":1759234848,"current_range_meters":14400,"station_id":"","pricing_plan_id":"cebpf4jnsgd1na2vs0mg"},{"bike_id":"f3747558-022a-4a5c-af12-ada1af95948e","system_id":"levelo_inurba_marseille","lat":43.24077,"lon":5.37759,"is_reserved":false,"is_disabled":false,"rental_uris":{"android":"levelo://app?vid=f3747558-022a-4a5c-af12-ada1af95948e","ios":"levelo://app?vid=f3747558-022a-4a5c-af12-ada1af95948e"},"vehicle_type_id":"4","last_reported":1759234848,"current_range_meters":14400,"station_id":"ce4bhnp2rcd13ifvqgvg","pricing_plan_id":"cebpf4jnsgd1na2vs0mg"},{"bike_id":"684bf3b5-71ab-483f-98a0-128f6ab790de","system_id":"levelo_inurba_marseille","lat":43.213067,"lon":5.443473,"is_reserved":false,"is_disabled":false,"rental_uris":{"android":"levelo://app?vid=684bf3b5-71ab-483f-98a0-128f6ab790de","ios":"levelo://app?vid=684bf3b5-71ab-483f-98a0-128f6ab790de"},"vehicle_type_id":"4","last_reported":1759234848,"current_range_meters":14400,"station_id":"","pricing_plan_id":"cebpf4jnsgd1na2vs0mg"},{"bike_id":"bcd9b75b-ee53-417b-994c-3a51052d2cc3","system_id":"levelo_inurba_marseille","lat":43.33023,"lon":5.39037,"is_reserved":false,"is_disabled":false,"rental_uris":{"android":"levelo://app?vid=bcd9b75b-ee53-417b-994c-3a51052d2cc3","ios":"levelo://app?vid=bcd9b75b-ee53-417b-994c-3a51052d2cc3"},"vehicle_type_id":"4","last_reported":1759234848,"current_range_meters":14400,"station_id":"ce4bhr92rcd13ifvqhrg","pricing_plan_id":"cebpf4jnsgd1na2vs0mg"},{"bike_id":"9d5e1d32-1180-48e0-9ac6-27e03c3e725b","system_id":"levelo_inurba_marseille","lat":43.33608,"lon":5.41035,"is_reserved":false,"is_disabled":false,"rental_uris":{"android":"levelo://app?vid=9d5e1d32-1180-48e0-9ac6-27e03c3e725b","ios":"levelo://app?vid=9d5e1d32-1180-48e0-9ac6-27e03c3e725b"},"vehicle_type_id":"4","last_reported":1759234848,"current_range_meters":14400,"station_id":"ce4bhqh2rcd13ifvqhmg","pricing_plan_id":"cebpf4jnsgd1na2vs0mg"},{"bike_id":"cc664285-6e93-4bc0-a996-f876fa7e2251","system_id":"levelo_inurba_marseille","lat":43.26214,"lon":5.37917,"is_reserved":false,"is_disabled":false,"rental_uris":{"android":"levelo://app?vid=cc664285-6e93-4bc0-a996-f876fa7e2251","ios":"levelo://app?vid=cc664285-6e93-4bc0-a996-f876fa7e2251"},"vehicle_type_id":"4","last_reported":1759234848,"current_range_meters":14400,"station_id":"ce4bhjp2rcd13ifvqg90","pricing_plan_id":"cebpf4jnsgd1na2vs0mg"},{"bike_id":"01b56f6d-fc22-4ec2-a961-6a664f800b1e","system_id":"levelo_inurba_marseille","lat":43.24074,"lon":5.37754,"is_reserved":false,"is_disabled":false,"rental_uris":{"android":"levelo://app?vid=01b56f6d-fc22-4ec2-a961-6a664f800b1e","ios":"levelo://app?vid=01b56f6d-fc22-4ec2-a961-6a664f800b1e"},"vehicle_type_id":"4","last_reported":1759234848,"current_range_meters":14400,"station_id":"ce4bhnp2rcd13ifvqgvg","pricing_plan_id":"cebpf4jnsgd1na2vs0mg"},{"bike_id":"a8205022-661b-4b9f-b567-3fd2d923e9c8","system_id":"levelo_inurba_marseille","lat":43.3229,"lon":5.38271,"is_reserved":false,"is_disabled":false,"rental_uris":{"android":"levelo://app?vid=a8205022-661b-4b9f-b567-3fd2d923e9c8","ios":"levelo://app?vid=a8205022-661b-4b9f-b567-3fd2d923e9c8"},"vehicle_type_id":"4","last_reported":1759234848,"current_range_meters":14400,"station_id":"ce4bhr12rcd13ifvqhqg","pricing_plan_id":"cebpf4jnsgd1na2vs0mg"},{"bike_id":"44631c7d-87d1-44be-96c2-2a43e54fa7d0","system_id":"levelo_inurba_marseille","lat":43.26196,"lon":5.37451,"is_reserved":false,"is_disabled":false,"rental_uris":{"android":"levelo://app?vid=44631c7d-87d1-44be-96c2-2a43e54fa7d0","ios":"levelo://app?vid=44631c7d-87d1-44be-96c2-2a43e54fa7d0"},"vehicle_type_id":"4","last_reported":1759234848,"current_range_meters":14400,"station_id":"ce4bhgp2rcd13ifvqfc0","pricing_plan_id":"cebpf4jnsgd1na2vs0mg"},{"bike_id":"13075996-9b48-4fa0-a803-dc8d5df9eba1","system_id":"levelo_inurba_marseille","lat":43.31757,"lon":5.39017,"is_reserved":false,"is_disabled":false,"rental_uris":{"android":"levelo://app?vid=13075996-9b48-4fa0-a803-dc8d5df9eba1","ios":"levelo://app?vid=13075996-9b48-4fa0-a803-dc8d5df9eba1"},"vehicle_type_id":"4","last_reported":1759234848,"current_range_meters":14800,"station_id":"ce4bhqp2rcd13ifvqhng","pricing_plan_id":"cebpf4jnsgd1na2vs0mg"},{"bike_id":"e85d7aed-825c-494b-adda-0d95567a35c5","system_id":"levelo_inurba_marseille","lat":43.299537,"lon":5.37155,"is_reserved":false,"is_disabled":false,"rental_uris":{"android":"levelo://app?vid=e85d7aed-825c-494b-adda-0d95567a35c5","ios":"levelo://app?vid=e85d7aed-825c-494b-adda-0d95567a35c5"},"vehicle_type_id":"4","last_reported":1759234848,"current_range_meters":14800,"station_id":"ce4bgr92rcd13ifvqc7g","pricing_plan_id":"cebpf4jnsgd1na2vs0mg"},{"bike_id":"1b1675d6-b1c6-45ab-a68e-59ee7f0dcfc6","system_id":"levelo_inurba_marseille","lat":43.30335,"lon":5.40439,"is_reserved":false,"is_disabled":false,"rental_uris":{"android":"levelo://app?vid=1b1675d6-b1c6-45ab-a68e-59ee7f0dcfc6","ios":"levelo://app?vid=1b1675d6-b1c6-45ab-a68e-59ee7f0dcfc6"},"vehicle_type_id":"4","last_reported":1759234848,"current_range_meters":14800,"station_id":"ce4bh012rcd13ifvqd10","pricing_plan_id":"cebpf4jnsgd1na2vs0mg"},{"bike_id":"cca9df10-dd92-4f74-a3b4-10af66d863a3","system_id":"levelo_inurba_marseille","lat":43.32661,"lon":5.40989,"is_reserved":false,"is_disabled":false,"rental_uris":{"android":"levelo://app?vid=cca9df10-dd92-4f74-a3b4-10af66d863a3","ios":"levelo://app?vid=cca9df10-dd92-4f74-a3b4-10af66d863a3"},"vehicle_type_id":"4","last_reported":1759234848,"current_range_meters":14400,"station_id":"ce4bhpp2rcd13ifvqhgg","pricing_plan_id":"cebpf4jnsgd1na2vs0mg"},{"bike_id":"fa3f89bf-181f-4196-b010-fc99164c9f5e","system_id":"levelo_inurba_marseille","lat":43.30945,"lon":5.39035,"is_reserved":false,"is_disabled":false,"rental_uris":{"android":"levelo://app?vid=fa3f89bf-181f-4196-b010-fc99164c9f5e","ios":"levelo://app?vid=fa3f89bf-181f-4196-b010-fc99164c9f5e"},"vehicle_type_id":"4","last_reported":1759234848,"current_range_meters":15200,"station_id":"ce4bgup2rcd13ifvqco0","pricing_plan_id":"cebpf4jnsgd1na2vs0mg"},{"bike_id":"694a3a5f-723f-47f1-a73b-869220cc5d4c","system_id":"levelo_inurba_marseille","lat":43.27081,"lon":5.42302,"is_reserved":false,"is_disabled":false,"rental_uris":{"android":"levelo://app?vid=694a3a5f-723f-47f1-a73b-869220cc5d4c","ios":"levelo://app?vid=694a3a5f-723f-47f1-a73b-869220cc5d4c"},"vehicle_type_id":"4","last_reported":1759234848,"current_range_meters":15200,"station_id":"ce4bhk92rcd13ifvqgb0","pricing_plan_id":"cebpf4jnsgd1na2vs0mg"},{"bike_id":"69e336b8-fe6f-4311-bc02-5cd14e5e10fe","system_id":"levelo_inurba_marseille","lat":43.31536,"lon":5.38027,"is_reserved":false,"is_disabled":false,"rental_uris":{"android":"levelo://app?vid=69e336b8-fe6f-4311-bc02-5cd14e5e10fe","ios":"levelo://app?vid=69e336b8-fe6f-4311-bc02-5cd14e5e10fe"},"vehicle_type_id":"4","last_reported":1759234848,"current_range_meters":14800,"station_id":"ce4bhsp2rcd13ifvqi50","pricing_plan_id":"cebpf4jnsgd1na2vs0mg"},{"bike_id":"5eaa1441-c582-4248-a89e-b02d0d2cb811","system_id":"levelo_inurba_marseille","lat":43.302856,"lon":5.377132,"is_reserved":false,"is_disabled":false,"rental_uris":{"android":"levelo://app?vid=5eaa1441-c582-4248-a89e-b02d0d2cb811","ios":"levelo://app?vid=5eaa1441-c582-4248-a89e-b02d0d2cb811"},"vehicle_type_id":"4","last_reported":1759234848,"current_range_meters":15200,"station_id":"ce4bguh2rcd13ifvqcj0","pricing_plan_id":"cebpf4jnsgd1na2vs0mg"},{"bike_id":"113d68e0-2489-4645-8a23-f2fbda209c7a","system_id":"levelo_inurba_marseille","lat":43.25723,"lon":5.41115,"is_reserved":false,"is_disabled":false,"rental_uris":{"android":"levelo://app?vid=113d68e0-2489-4645-8a23-f2fbda209c7a","ios":"levelo://app?vid=113d68e0-2489-4645-8a23-f2fbda209c7a"},"vehicle_type_id":"4","last_reported":1759234848,"current_range_meters":14800,"station_id":"ce4bhkp2rcd13ifvqgd0","pricing_plan_id":"cebpf4jnsgd1na2vs0mg"},{"bike_id":"30cbf9c0-d8c9-49e3-afe2-ea0d70b63a10","system_id":"levelo_inurba_marseille","lat":43.28355,"lon":5.38621,"is_reserved":false,"is_disabled":true,"rental_uris":{"android":"levelo://app?vid=30cbf9c0-d8c9-49e3-afe2-ea0d70b63a10","ios":"levelo://app?vid=30cbf9c0-d8c9-49e3-afe2-ea0d70b63a10"},"vehicle_type_id":"4","last_reported":1759234848,"current_range_meters":15200,"station_id":"ce4bh492rcd13ifvqdvg","pricing_plan_id":"cebpf4jnsgd1na2vs0mg"},{"bike_id":"c380407d-b049-4c42-ac7b-c89b967fdada","system_id":"levelo_inurba_marseille","lat":43.25503,"lon":5.3765,"is_reserved":false,"is_disabled":false,"rental_uris":{"android":"levelo://app?vid=c380407d-b049-4c42-ac7b-c89b967fdada","ios":"levelo://app?vid=c380407d-b049-4c42-ac7b-c89b967fdada"},"vehicle_type_id":"4","last_reported":1759234848,"current_range_meters":15200,"station_id":"ce4bhh12rcd13ifvqff0","pricing_plan_id":"cebpf4jnsgd1na2vs0mg"},{"bike_id":"3c22474b-d4ca-4744-9f86-0c20326573d6","system_id":"levelo_inurba_marseille","lat":43.241865,"lon":5.397145,"is_reserved":false,"is_disabled":false,"rental_uris":{"android":"levelo://app?vid=3c22474b-d4ca-4744-9f86-0c20326573d6","ios":"levelo://app?vid=3c22474b-d4ca-4744-9f86-0c20326573d6"},"vehicle_type_id":"4","last_reported":1759234848,"current_range_meters":15200,"station_id":"ce4bhn12rcd13ifvqgpg","pricing_plan_id":"cebpf4jnsgd1na2vs0mg"},{"bike_id":"313885ed-6abb-4611-9b90-45ab382083be","system_id":"levelo_inurba_marseille","lat":43.29274,"lon":5.36847,"is_reserved":false,"is_disabled":false,"rental_uris":{"android":"levelo://app?vid=313885ed-6abb-4611-9b90-45ab382083be","ios":"levelo://app?vid=313885ed-6abb-4611-9b90-45ab382083be"},"vehicle_type_id":"4","last_reported":1759234848,"current_range_meters":16000,"station_id":"ce4bhbp2rcd13ifvqesg","pricing_plan_id":"cebpf4jnsgd1na2vs0mg"},{"bike_id":"26105093-fc13-43b7-819e-ee880b0c07fa","system_id":"levelo_inurba_marseille","lat":43.29859,"lon":5.38903,"is_reserved":false,"is_disabled":false,"rental_uris":{"android":"levelo://app?vid=26105093-fc13-43b7-819e-ee880b0c07fa","ios":"levelo://app?vid=26105093-fc13-43b7-819e-ee880b0c07fa"},"vehicle_type_id":"4","last_reported":1759234848,"current_range_meters":16000,"station_id":"ce4bh392rcd13ifvqdl0","pricing_plan_id":"cebpf4jnsgd1na2vs0mg"},{"bike_id":"dec9446c-a40f-4d64-8476-2f4372230baf","system_id":"levelo_inurba_marseille","lat":43.3027,"lon":5.38148,"is_reserved":false,"is_disabled":false,"rental_uris":{"android":"levelo://app?vid=dec9446c-a40f-4d64-8476-2f4372230baf","ios":"levelo://app?vid=dec9446c-a40f-4d64-8476-2f4372230baf"},"vehicle_type_id":"4","last_reported":1759234848,"current_range_meters":16000,"station_id":"","pricing_plan_id":"cebpf4jnsgd1na2vs0mg"},{"bike_id":"a850760d-f890-4818-860e-321d70e97b11","system_id":"levelo_inurba_marseille","lat":43.32357,"lon":5.36728,"is_reserved":false,"is_disabled":false,"rental_uris":{"android":"levelo://app?vid=a850760d-f890-4818-860e-321d70e97b11","ios":"levelo://app?vid=a850760d-f890-4818-860e-321d70e97b11"},"vehicle_type_id":"4","last_reported":1759234848,"current_range_meters":16000,"station_id":"ce4bhsh2rcd13ifvqi2g","pricing_plan_id":"cebpf4jnsgd1na2vs0mg"},{"bike_id":"f752559e-e357-41d0-b0e1-06afd32411be","system_id":"levelo_inurba_marseille","lat":43.27477,"lon":5.40796,"is_reserved":false,"is_disabled":false,"rental_uris":{"android":"levelo://app?vid=f752559e-e357-41d0-b0e1-06afd32411be","ios":"levelo://app?vid=f752559e-e357-41d0-b0e1-06afd32411be"},"vehicle_type_id":"4","last_reported":1759234848,"current_range_meters":16000,"station_id":"","pricing_plan_id":"cebpf4jnsgd1na2vs0mg"},{"bike_id":"4ea142ac-b539-451e-9bc9-f57a61f0e447","system_id":"levelo_inurba_marseille","lat":43.30271,"lon":5.37725,"is_reserved":false,"is_disabled":false,"rental_uris":{"android":"levelo://app?vid=4ea142ac-b539-451e-9bc9-f57a61f0e447","ios":"levelo://app?vid=4ea142ac-b539-451e-9bc9-f57a61f0e447"},"vehicle_type_id":"4","last_reported":1759234848,"current_range_meters":16000,"station_id":"ce4bguh2rcd13ifvqcj0","pricing_plan_id":"cebpf4jnsgd1na2vs0mg"},{"bike_id":"6a80563a-33ef-46e3-b795-c0e1254bcc18","system_id":"levelo_inurba_marseille","lat":43.241885,"lon":5.39728,"is_reserved":false,"is_disabled":false,"rental_uris":{"android":"levelo://app?vid=6a80563a-33ef-46e3-b795-c0e1254bcc18","ios":"levelo://app?vid=6a80563a-33ef-46e3-b795-c0e1254bcc18"},"vehicle_type_id":"4","last_reported":1759234848,"current_range_meters":16000,"station_id":"ce4bhn12rcd13ifvqgpg","pricing_plan_id":"cebpf4jnsgd1na2vs0mg"},{"bike_id":"c55252ec-7f47-4422-a863-351e2af0586d","system_id":"levelo_inurba_marseille","lat":43.24388,"lon":5.37048,"is_reserved":false,"is_disabled":false,"rental_uris":{"android":"levelo://app?vid=c55252ec-7f47-4422-a863-351e2af0586d","ios":"levelo://app?vid=c55252ec-7f47-4422-a863-351e2af0586d"},"vehicle_type_id":"4","last_reported":1759234848,"current_range_meters":16000,"station_id":"ce4bhhh2rcd13ifvqfk0","pricing_plan_id":"cebpf4jnsgd1na2vs0mg"},{"bike_id":"52e91664-3a90-4465-a6cd-682a1fcbb441","system_id":"levelo_inurba_marseille","lat":43.255842,"lon":5.382544,"is_reserved":false,"is_disabled":false,"rental_uris":{"android":"levelo://app?vid=52e91664-3a90-4465-a6cd-682a1fcbb441","ios":"levelo://app?vid=52e91664-3a90-4465-a6cd-682a1fcbb441"},"vehicle_type_id":"4","last_reported":1759234848,"current_range_meters":15200,"station_id":"ce4bhih2rcd13ifvqfs0","pricing_plan_id":"cebpf4jnsgd1na2vs0mg"},{"bike_id":"2b993201-32c3-415f-a73f-a532aaf741f7","system_id":"levelo_inurba_marseille","lat":43.2985,"lon":5.36273,"is_reserved":false,"is_disabled":false,"rental_uris":{"android":"levelo://app?vid=2b993201-32c3-415f-a73f-a532aaf741f7","ios":"levelo://app?vid=2b993201-32c3-415f-a73f-a532aaf741f7"},"vehicle_type_id":"4","last_reported":1759234848,"current_range_meters":16000,"station_id":"ce4bgpp2rcd13ifvqc3g","pricing_plan_id":"cebpf4jnsgd1na2vs0mg"},{"bike_id":"627f0009-c086-4f8a-8406-c08f3975bb85","system_id":"levelo_inurba_marseille","lat":43.337914,"lon":5.374267,"is_reserved":false,"is_disabled":false,"rental_uris":{"android":"levelo://app?vid=627f0009-c086-4f8a-8406-c08f3975bb85","ios":"levelo://app?vid=627f0009-c086-4f8a-8406-c08f3975bb85"},"vehicle_type_id":"4","last_reported":1759234848,"current_range_meters":16000,"station_id":"","pricing_plan_id":"cebpf4jnsgd1na2vs0mg"},{"bike_id":"a39263b1-513a-4371-a8d5-40e7912b82bb","system_id":"levelo_inurba_marseille","lat":43.2955,"lon":5.42248,"is_reserved":false,"is_disabled":false,"rental_uris":{"android":"levelo://app?vid=a39263b1-513a-4371-a8d5-40e7912b82bb","ios":"levelo://app?vid=a39263b1-513a-4371-a8d5-40e7912b82bb"},"vehicle_type_id":"4","last_reported":1759234848,"current_range_meters":16400,"station_id":"ce4bhph2rcd13ifvqhdg","pricing_plan_id":"cebpf4jnsgd1na2vs0mg"},{"bike_id":"de465f74-b2e1-47fa-8954-0564a43f223d","system_id":"levelo_inurba_marseille","lat":43.32545,"lon":5.41426,"is_reserved":false,"is_disabled":false,"rental_uris":{"android":"levelo://app?vid=de465f74-b2e1-47fa-8954-0564a43f223d","ios":"levelo://app?vid=de465f74-b2e1-47fa-8954-0564a43f223d"},"vehicle_type_id":"4","last_reported":1759234848,"current_range_meters":16400,"station_id":"ce4bhq12rcd13ifvqhhg","pricing_plan_id":"cebpf4jnsgd1na2vs0mg"},{"bike_id":"88b50ae5-a50b-4b14-bcd2-262b3fe5987b","system_id":"levelo_inurba_marseille","lat":43.2315,"lon":5.43711,"is_reserved":false,"is_disabled":false,"rental_uris":{"android":"levelo://app?vid=88b50ae5-a50b-4b14-bcd2-262b3fe5987b","ios":"levelo://app?vid=88b50ae5-a50b-4b14-bcd2-262b3fe5987b"},"vehicle_type_id":"4","last_reported":1759234848,"current_range_meters":16400,"station_id":"ce4bhmp2rcd13ifvqgog","pricing_plan_id":"cebpf4jnsgd1na2vs0mg"},{"bike_id":"cfb1ef01-ed0e-413c-bb09-20e6d021e251","system_id":"levelo_inurba_marseille","lat":43.32509,"lon":5.4144,"is_reserved":false,"is_disabled":false,"rental_uris":{"android":"levelo://app?vid=cfb1ef01-ed0e-413c-bb09-20e6d021e251","ios":"levelo://app?vid=cfb1ef01-ed0e-413c-bb09-20e6d021e251"},"vehicle_type_id":"4","last_reported":1759234848,"current_range_meters":16400,"station_id":"ce4bhq12rcd13ifvqhhg","pricing_plan_id":"cebpf4jnsgd1na2vs0mg"},{"bike_id":"9259d079-29af-4c38-99e0-f25e4d514b98","system_id":"levelo_inurba_marseille","lat":43.28431,"lon":5.34969,"is_reserved":false,"is_disabled":false,"rental_uris":{"android":"levelo://app?vid=9259d079-29af-4c38-99e0-f25e4d514b98","ios":"levelo://app?vid=9259d079-29af-4c38-99e0-f25e4d514b98"},"vehicle_type_id":"4","last_reported":1759234848,"current_range_meters":16400,"station_id":"ce4bhbh2rcd13ifvqepg","pricing_plan_id":"cebpf4jnsgd1na2vs0mg"},{"bike_id":"c12198f2-5bdb-49d3-99fb-581264f1a0ca","system_id":"levelo_inurba_marseille","lat":43.26681,"lon":5.38266,"is_reserved":false,"is_disabled":false,"rental_uris":{"android":"levelo://app?vid=c12198f2-5bdb-49d3-99fb-581264f1a0ca","ios":"levelo://app?vid=c12198f2-5bdb-49d3-99fb-581264f1a0ca"},"vehicle_type_id":"4","last_reported":1759234848,"current_range_meters":16400,"station_id":"ce4bhg92rcd13ifvqf90","pricing_plan_id":"cebpf4jnsgd1na2vs0mg"},{"bike_id":"617dca4b-4508-4d52-9e62-d583d919ac44","system_id":"levelo_inurba_marseille","lat":43.2972,"lon":5.37168,"is_reserved":false,"is_disabled":false,"rental_uris":{"android":"levelo://app?vid=617dca4b-4508-4d52-9e62-d583d919ac44","ios":"levelo://app?vid=617dca4b-4508-4d52-9e62-d583d919ac44"},"vehicle_type_id":"4","last_reported":1759234848,"current_range_meters":16400,"station_id":"","pricing_plan_id":"cebpf4jnsgd1na2vs0mg"},{"bike_id":"8529f32e-2b7c-4b03-9b67-3802b1b158ab","system_id":"levelo_inurba_marseille","lat":43.31338,"lon":5.36724,"is_reserved":false,"is_disabled":false,"rental_uris":{"android":"levelo://app?vid=8529f32e-2b7c-4b03-9b67-3802b1b158ab","ios":"levelo://app?vid=8529f32e-2b7c-4b03-9b67-3802b1b158ab"},"vehicle_type_id":"4","last_reported":1759234848,"current_range_meters":16400,"station_id":"ce4bgr92rcd13ifvqc6g","pricing_plan_id":"cebpf4jnsgd1na2vs0mg"},{"bike_id":"5017b723-040d-4231-a32f-97c53d5041a4","system_id":"levelo_inurba_marseille","lat":43.25928,"lon":5.40912,"is_reserved":false,"is_disabled":false,"rental_uris":{"android":"levelo://app?vid=5017b723-040d-4231-a32f-97c53d5041a4","ios":"levelo://app?vid=5017b723-040d-4231-a32f-97c53d5041a4"},"vehicle_type_id":"4","last_reported":1759234848,"current_range_meters":16400,"station_id":"ce4bhm92rcd13ifvqglg","pricing_plan_id":"cebpf4jnsgd1na2vs0mg"},{"bike_id":"64b25e14-4e01-4810-94ac-2ca7b90cf2f7","system_id":"levelo_inurba_marseille","lat":43.28412,"lon":5.34979,"is_reserved":false,"is_disabled":false,"rental_uris":{"android":"levelo://app?vid=64b25e14-4e01-4810-94ac-2ca7b90cf2f7","ios":"levelo://app?vid=64b25e14-4e01-4810-94ac-2ca7b90cf2f7"},"vehicle_type_id":"4","last_reported":1759234848,"current_range_meters":16800,"station_id":"ce4bhbh2rcd13ifvqepg","pricing_plan_id":"cebpf4jnsgd1na2vs0mg"},{"bike_id":"818e7555-4730-4f36-bc6e-d4ced40d4097","system_id":"levelo_inurba_marseille","lat":43.31112,"lon":5.3775,"is_reserved":false,"is_disabled":false,"rental_uris":{"android":"levelo://app?vid=818e7555-4730-4f36-bc6e-d4ced40d4097","ios":"levelo://app?vid=818e7555-4730-4f36-bc6e-d4ced40d4097"},"vehicle_type_id":"4","last_reported":1759234848,"current_range_meters":16800,"station_id":"ce4bgt92rcd13ifvqcg0","pricing_plan_id":"cebpf4jnsgd1na2vs0mg"},{"bike_id":"6c2e96f0-0d94-4ada-b75d-f16e4d9045a7","system_id":"levelo_inurba_marseille","lat":43.23971,"lon":5.36625,"is_reserved":false,"is_disabled":false,"rental_uris":{"android":"levelo://app?vid=6c2e96f0-0d94-4ada-b75d-f16e4d9045a7","ios":"levelo://app?vid=6c2e96f0-0d94-4ada-b75d-f16e4d9045a7"},"vehicle_type_id":"4","last_reported":1759234848,"current_range_meters":16800,"station_id":"ce4bhi12rcd13ifvqfp0","pricing_plan_id":"cebpf4jnsgd1na2vs0mg"},{"bike_id":"d398567d-4b2d-4648-8164-33c471899c0e","system_id":"levelo_inurba_marseille","lat":43.32284,"lon":5.38263,"is_reserved":false,"is_disabled":false,"rental_uris":{"android":"levelo://app?vid=d398567d-4b2d-4648-8164-33c471899c0e","ios":"levelo://app?vid=d398567d-4b2d-4648-8164-33c471899c0e"},"vehicle_type_id":"4","last_reported":1759234848,"current_range_meters":16800,"station_id":"ce4bhr12rcd13ifvqhqg","pricing_plan_id":"cebpf4jnsgd1na2vs0mg"},{"bike_id":"365480bc-c570-4b8e-a786-d0753041664b","system_id":"levelo_inurba_marseille","lat":43.32286,"lon":5.38274,"is_reserved":false,"is_disabled":false,"rental_uris":{"android":"levelo://app?vid=365480bc-c570-4b8e-a786-d0753041664b","ios":"levelo://app?vid=365480bc-c570-4b8e-a786-d0753041664b"},"vehicle_type_id":"4","last_reported":1759234848,"current_range_meters":16800,"station_id":"ce4bhr12rcd13ifvqhqg","pricing_plan_id":"cebpf4jnsgd1na2vs0mg"},{"bike_id":"e1a26520-858a-4d92-9c62-b5be5024bda3","system_id":"levelo_inurba_marseille","lat":43.2669,"lon":5.3828,"is_reserved":false,"is_disabled":false,"rental_uris":{"android":"levelo://app?vid=e1a26520-858a-4d92-9c62-b5be5024bda3","ios":"levelo://app?vid=e1a26520-858a-4d92-9c62-b5be5024bda3"},"vehicle_type_id":"4","last_reported":1759234848,"current_range_meters":16800,"station_id":"ce4bhg92rcd13ifvqf90","pricing_plan_id":"cebpf4jnsgd1na2vs0mg"},{"bike_id":"3c834099-80d4-4009-9be8-b1278f1e90bf","system_id":"levelo_inurba_marseille","lat":43.25108,"lon":5.40328,"is_reserved":false,"is_disabled":false,"rental_uris":{"android":"levelo://app?vid=3c834099-80d4-4009-9be8-b1278f1e90bf","ios":"levelo://app?vid=3c834099-80d4-4009-9be8-b1278f1e90bf"},"vehicle_type_id":"4","last_reported":1759234848,"current_range_meters":16400,"station_id":"ce4bhlh2rcd13ifvqgig","pricing_plan_id":"cebpf4jnsgd1na2vs0mg"},{"bike_id":"ee94eda5-f40b-4168-a57a-bf8989940e9c","system_id":"levelo_inurba_marseille","lat":43.32461,"lon":5.36608,"is_reserved":false,"is_disabled":false,"rental_uris":{"android":"levelo://app?vid=ee94eda5-f40b-4168-a57a-bf8989940e9c","ios":"levelo://app?vid=ee94eda5-f40b-4168-a57a-bf8989940e9c"},"vehicle_type_id":"4","last_reported":1759234848,"current_range_meters":16800,"station_id":"ce4bhs12rcd13ifvqhvg","pricing_plan_id":"cebpf4jnsgd1na2vs0mg"},{"bike_id":"9e73c0d6-7893-41d9-94af-eec3aed5a523","system_id":"levelo_inurba_marseille","lat":43.27374,"lon":5.36257,"is_reserved":false,"is_disabled":false,"rental_uris":{"android":"levelo://app?vid=9e73c0d6-7893-41d9-94af-eec3aed5a523","ios":"levelo://app?vid=9e73c0d6-7893-41d9-94af-eec3aed5a523"},"vehicle_type_id":"4","last_reported":1759234848,"current_range_meters":16400,"station_id":"ce4bhbh2rcd13ifvqeo0","pricing_plan_id":"cebpf4jnsgd1na2vs0mg"},{"bike_id":"1adf72d4-f2e2-443a-bd81-e3e77d2b1f3e","system_id":"levelo_inurba_marseille","lat":43.26668,"lon":5.40231,"is_reserved":false,"is_disabled":false,"rental_uris":{"android":"levelo://app?vid=1adf72d4-f2e2-443a-bd81-e3e77d2b1f3e","ios":"levelo://app?vid=1adf72d4-f2e2-443a-bd81-e3e77d2b1f3e"},"vehicle_type_id":"4","last_reported":1759234848,"current_range_meters":16800,"station_id":"","pricing_plan_id":"cebpf4jnsgd1na2vs0mg"},{"bike_id":"6c29fc67-bfc6-4189-81ac-7638495be75b","system_id":"levelo_inurba_marseille","lat":43.32553,"lon":5.41412,"is_reserved":false,"is_disabled":false,"rental_uris":{"android":"levelo://app?vid=6c29fc67-bfc6-4189-81ac-7638495be75b","ios":"levelo://app?vid=6c29fc67-bfc6-4189-81ac-7638495be75b"},"vehicle_type_id":"4","last_reported":1759234848,"current_range_meters":16800,"station_id":"ce4bhq12rcd13ifvqhhg","pricing_plan_id":"cebpf4jnsgd1na2vs0mg"},{"bike_id":"72e98cd9-feb6-42be-8b90-655160a09fab","system_id":"levelo_inurba_marseille","lat":43.26201,"lon":5.37929,"is_reserved":false,"is_disabled":false,"rental_uris":{"android":"levelo://app?vid=72e98cd9-feb6-42be-8b90-655160a09fab","ios":"levelo://app?vid=72e98cd9-feb6-42be-8b90-655160a09fab"},"vehicle_type_id":"4","last_reported":1759234848,"current_range_meters":16800,"station_id":"ce4bhjp2rcd13ifvqg90","pricing_plan_id":"cebpf4jnsgd1na2vs0mg"},{"bike_id":"d88e0d03-a71d-4d69-bfe0-f7906e10eef6","system_id":"levelo_inurba_marseille","lat":43.22919,"lon":5.35373,"is_reserved":false,"is_disabled":false,"rental_uris":{"android":"levelo://app?vid=d88e0d03-a71d-4d69-bfe0-f7906e10eef6","ios":"levelo://app?vid=d88e0d03-a71d-4d69-bfe0-f7906e10eef6"},"vehicle_type_id":"4","last_reported":1759234848,"current_range_meters":16800,"station_id":"cpo3532slgdg3j2ikp40","pricing_plan_id":"cebpf4jnsgd1na2vs0mg"},{"bike_id":"99fca88f-4d69-4c0c-af12-65f76f1bda78","system_id":"levelo_inurba_marseille","lat":43.2985,"lon":5.36285,"is_reserved":false,"is_disabled":false,"rental_uris":{"android":"levelo://app?vid=99fca88f-4d69-4c0c-af12-65f76f1bda78","ios":"levelo://app?vid=99fca88f-4d69-4c0c-af12-65f76f1bda78"},"vehicle_type_id":"4","last_reported":1759234848,"current_range_meters":16800,"station_id":"ce4bgpp2rcd13ifvqc3g","pricing_plan_id":"cebpf4jnsgd1na2vs0mg"},{"bike_id":"a9efa52c-4657-4cc0-bfc5-747a278bfca4","system_id":"levelo_inurba_marseille","lat":43.325587,"lon":5.414576,"is_reserved":false,"is_disabled":false,"rental_uris":{"android":"levelo://app?vid=a9efa52c-4657-4cc0-bfc5-747a278bfca4","ios":"levelo://app?vid=a9efa52c-4657-4cc0-bfc5-747a278bfca4"},"vehicle_type_id":"4","last_reported":1759234848,"current_range_meters":16800,"station_id":"ce4bhq12rcd13ifvqhhg","pricing_plan_id":"cebpf4jnsgd1na2vs0mg"},{"bike_id":"50a6d9be-879d-4d99-9855-abb98fbce5b8","system_id":"levelo_inurba_marseille","lat":43.337851,"lon":5.374298,"is_reserved":false,"is_disabled":false,"rental_uris":{"android":"levelo://app?vid=50a6d9be-879d-4d99-9855-abb98fbce5b8","ios":"levelo://app?vid=50a6d9be-879d-4d99-9855-abb98fbce5b8"},"vehicle_type_id":"4","last_reported":1759234848,"current_range_meters":16800,"station_id":"","pricing_plan_id":"cebpf4jnsgd1na2vs0mg"},{"bike_id":"6e35eb3a-244d-446e-ba2c-c58465f51251","system_id":"levelo_inurba_marseille","lat":43.32106,"lon":5.36783,"is_reserved":false,"is_disabled":false,"rental_uris":{"android":"levelo://app?vid=6e35eb3a-244d-446e-ba2c-c58465f51251","ios":"levelo://app?vid=6e35eb3a-244d-446e-ba2c-c58465f51251"},"vehicle_type_id":"4","last_reported":1759234848,"current_range_meters":17200,"station_id":"ce4bhrh2rcd13ifvqhug","pricing_plan_id":"cebpf4jnsgd1na2vs0mg"},{"bike_id":"94b4a201-5b9b-42ef-90cd-56c4ea0d80e7","system_id":"levelo_inurba_marseille","lat":43.32546,"lon":5.41432,"is_reserved":false,"is_disabled":false,"rental_uris":{"android":"levelo://app?vid=94b4a201-5b9b-42ef-90cd-56c4ea0d80e7","ios":"levelo://app?vid=94b4a201-5b9b-42ef-90cd-56c4ea0d80e7"},"vehicle_type_id":"4","last_reported":1759234848,"current_range_meters":17200,"station_id":"ce4bhq12rcd13ifvqhhg","pricing_plan_id":"cebpf4jnsgd1na2vs0mg"},{"bike_id":"4ff7ec88-a2b7-4650-95d9-2534bf56e47a","system_id":"levelo_inurba_marseille","lat":43.25494,"lon":5.37646,"is_reserved":false,"is_disabled":false,"rental_uris":{"android":"levelo://app?vid=4ff7ec88-a2b7-4650-95d9-2534bf56e47a","ios":"levelo://app?vid=4ff7ec88-a2b7-4650-95d9-2534bf56e47a"},"vehicle_type_id":"4","last_reported":1759234848,"current_range_meters":17200,"station_id":"ce4bhh12rcd13ifvqff0","pricing_plan_id":"cebpf4jnsgd1na2vs0mg"},{"bike_id":"a58a4c94-7754-46be-b35a-a0b84fc468a5","system_id":"levelo_inurba_marseille","lat":43.299939,"lon":5.373395,"is_reserved":false,"is_disabled":false,"rental_uris":{"android":"levelo://app?vid=a58a4c94-7754-46be-b35a-a0b84fc468a5","ios":"levelo://app?vid=a58a4c94-7754-46be-b35a-a0b84fc468a5"},"vehicle_type_id":"4","last_reported":1759234848,"current_range_meters":17200,"station_id":"","pricing_plan_id":"cebpf4jnsgd1na2vs0mg"},{"bike_id":"a9f05152-e55f-436d-b3d3-ffe2c2f0b84e","system_id":"levelo_inurba_marseille","lat":43.23144,"lon":5.4369,"is_reserved":false,"is_disabled":false,"rental_uris":{"android":"levelo://app?vid=a9f05152-e55f-436d-b3d3-ffe2c2f0b84e","ios":"levelo://app?vid=a9f05152-e55f-436d-b3d3-ffe2c2f0b84e"},"vehicle_type_id":"4","last_reported":1759234848,"current_range_meters":17200,"station_id":"ce4bhmp2rcd13ifvqgog","pricing_plan_id":"cebpf4jnsgd1na2vs0mg"},{"bike_id":"c0da90f3-0ac2-4f18-8001-eda3fc54f4e9","system_id":"levelo_inurba_marseille","lat":43.30806,"lon":5.38184,"is_reserved":false,"is_disabled":false,"rental_uris":{"android":"levelo://app?vid=c0da90f3-0ac2-4f18-8001-eda3fc54f4e9","ios":"levelo://app?vid=c0da90f3-0ac2-4f18-8001-eda3fc54f4e9"},"vehicle_type_id":"4","last_reported":1759234848,"current_range_meters":17200,"station_id":"ce4bgt12rcd13ifvqce0","pricing_plan_id":"cebpf4jnsgd1na2vs0mg"},{"bike_id":"7780c938-09bd-4fb0-8e7b-1d69a9374fa0","system_id":"levelo_inurba_marseille","lat":43.265674,"lon":5.390083,"is_reserved":false,"is_disabled":false,"rental_uris":{"android":"levelo://app?vid=7780c938-09bd-4fb0-8e7b-1d69a9374fa0","ios":"levelo://app?vid=7780c938-09bd-4fb0-8e7b-1d69a9374fa0"},"vehicle_type_id":"4","last_reported":1759234848,"current_range_meters":17200,"station_id":"ce4bhe12rcd13ifvqf30","pricing_plan_id":"cebpf4jnsgd1na2vs0mg"},{"bike_id":"0e22ced9-197b-4339-bd33-e5a8f131c1c2","system_id":"levelo_inurba_marseille","lat":43.231946,"lon":5.355456,"is_reserved":false,"is_disabled":false,"rental_uris":{"android":"levelo://app?vid=0e22ced9-197b-4339-bd33-e5a8f131c1c2","ios":"levelo://app?vid=0e22ced9-197b-4339-bd33-e5a8f131c1c2"},"vehicle_type_id":"4","last_reported":1759234848,"current_range_meters":17200,"station_id":"ce4bhu92rcd13ifvqi70","pricing_plan_id":"cebpf4jnsgd1na2vs0mg"},{"bike_id":"55726ea8-3ad1-4d86-85af-336e2bb2ba98","system_id":"levelo_inurba_marseille","lat":43.29805,"lon":5.3809,"is_reserved":false,"is_disabled":false,"rental_uris":{"android":"levelo://app?vid=55726ea8-3ad1-4d86-85af-336e2bb2ba98","ios":"levelo://app?vid=55726ea8-3ad1-4d86-85af-336e2bb2ba98"},"vehicle_type_id":"4","last_reported":1759234848,"current_range_meters":17200,"station_id":"ce4bgip2rcd13ifvqbb0","pricing_plan_id":"cebpf4jnsgd1na2vs0mg"},{"bike_id":"5d860860-eb84-475b-8e8a-2b8dc4a9dcb9","system_id":"levelo_inurba_marseille","lat":43.24073,"lon":5.37754,"is_reserved":false,"is_disabled":false,"rental_uris":{"android":"levelo://app?vid=5d860860-eb84-475b-8e8a-2b8dc4a9dcb9","ios":"levelo://app?vid=5d860860-eb84-475b-8e8a-2b8dc4a9dcb9"},"vehicle_type_id":"4","last_reported":1759234848,"current_range_meters":17200,"station_id":"ce4bhnp2rcd13ifvqgvg","pricing_plan_id":"cebpf4jnsgd1na2vs0mg"},{"bike_id":"3f8a7425-65dd-467a-bda8-36ede2e6a269","system_id":"levelo_inurba_marseille","lat":43.26949,"lon":5.40988,"is_reserved":false,"is_disabled":false,"rental_uris":{"android":"levelo://app?vid=3f8a7425-65dd-467a-bda8-36ede2e6a269","ios":"levelo://app?vid=3f8a7425-65dd-467a-bda8-36ede2e6a269"},"vehicle_type_id":"4","last_reported":1759234848,"current_range_meters":17600,"station_id":"","pricing_plan_id":"cebpf4jnsgd1na2vs0mg"},{"bike_id":"2410b542-4dbb-4ba2-8de7-3b722fc9a69f","system_id":"levelo_inurba_marseille","lat":43.28456,"lon":5.35893,"is_reserved":false,"is_disabled":true,"rental_uris":{"android":"levelo://app?vid=2410b542-4dbb-4ba2-8de7-3b722fc9a69f","ios":"levelo://app?vid=2410b542-4dbb-4ba2-8de7-3b722fc9a69f"},"vehicle_type_id":"4","last_reported":1759234848,"current_range_meters":17600,"station_id":"ce4bhah2rcd13ifvqei0","pricing_plan_id":"cebpf4jnsgd1na2vs0mg"},{"bike_id":"90303a15-ab8e-43de-8292-76882e537314","system_id":"levelo_inurba_marseille","lat":43.31231,"lon":5.36853,"is_reserved":false,"is_disabled":false,"rental_uris":{"android":"levelo://app?vid=90303a15-ab8e-43de-8292-76882e537314","ios":"levelo://app?vid=90303a15-ab8e-43de-8292-76882e537314"},"vehicle_type_id":"4","last_reported":1759234848,"current_range_meters":17200,"station_id":"ce4bgl92rcd13ifvqbq0","pricing_plan_id":"cebpf4jnsgd1na2vs0mg"},{"bike_id":"27022f24-6ab8-4a95-a62f-959d521b9c26","system_id":"levelo_inurba_marseille","lat":43.239647,"lon":5.366353,"is_reserved":false,"is_disabled":false,"rental_uris":{"android":"levelo://app?vid=27022f24-6ab8-4a95-a62f-959d521b9c26","ios":"levelo://app?vid=27022f24-6ab8-4a95-a62f-959d521b9c26"},"vehicle_type_id":"4","last_reported":1759234848,"current_range_meters":17600,"station_id":"ce4bhi12rcd13ifvqfp0","pricing_plan_id":"cebpf4jnsgd1na2vs0mg"},{"bike_id":"db3a202b-6514-4a53-892d-e953fc1e9d26","system_id":"levelo_inurba_marseille","lat":43.225369,"lon":5.348573,"is_reserved":false,"is_disabled":false,"rental_uris":{"android":"levelo://app?vid=db3a202b-6514-4a53-892d-e953fc1e9d26","ios":"levelo://app?vid=db3a202b-6514-4a53-892d-e953fc1e9d26"},"vehicle_type_id":"4","last_reported":1759234848,"current_range_meters":17600,"station_id":"","pricing_plan_id":"cebpf4jnsgd1na2vs0mg"},{"bike_id":"324e9fdc-54c1-4c67-81ff-48f24b694586","system_id":"levelo_inurba_marseille","lat":43.21759,"lon":5.34611,"is_reserved":false,"is_disabled":false,"rental_uris":{"android":"levelo://app?vid=324e9fdc-54c1-4c67-81ff-48f24b694586","ios":"levelo://app?vid=324e9fdc-54c1-4c67-81ff-48f24b694586"},"vehicle_type_id":"4","last_reported":1759234848,"current_range_meters":17600,"station_id":"st_cvj6r9ubvosntc0bgbag","pricing_plan_id":"cebpf4jnsgd1na2vs0mg"},{"bike_id":"123e055a-692b-459b-9c4f-970a83ad75be","system_id":"levelo_inurba_marseille","lat":43.32363,"lon":5.36742,"is_reserved":false,"is_disabled":true,"rental_uris":{"android":"levelo://app?vid=123e055a-692b-459b-9c4f-970a83ad75be","ios":"levelo://app?vid=123e055a-692b-459b-9c4f-970a83ad75be"},"vehicle_type_id":"4","last_reported":1759234848,"current_range_meters":17600,"station_id":"ce4bhsh2rcd13ifvqi2g","pricing_plan_id":"cebpf4jnsgd1na2vs0mg"},{"bike_id":"b2ab45a6-3281-4206-9855-c7739a9eb711","system_id":"levelo_inurba_marseille","lat":43.29787,"lon":5.37093,"is_reserved":false,"is_disabled":false,"rental_uris":{"android":"levelo://app?vid=b2ab45a6-3281-4206-9855-c7739a9eb711","ios":"levelo://app?vid=b2ab45a6-3281-4206-9855-c7739a9eb711"},"vehicle_type_id":"4","last_reported":1759234848,"current_range_meters":17600,"station_id":"ce4bgop2rcd13ifvqc1g","pricing_plan_id":"cebpf4jnsgd1na2vs0mg"},{"bike_id":"73e22ed6-f150-4bd5-a7c9-af939e7a8ce9","system_id":"levelo_inurba_marseille","lat":43.290507,"lon":5.419421,"is_reserved":false,"is_disabled":false,"rental_uris":{"android":"levelo://app?vid=73e22ed6-f150-4bd5-a7c9-af939e7a8ce9","ios":"levelo://app?vid=73e22ed6-f150-4bd5-a7c9-af939e7a8ce9"},"vehicle_type_id":"4","last_reported":1759234848,"current_range_meters":18000,"station_id":"","pricing_plan_id":"cebpf4jnsgd1na2vs0mg"},{"bike_id":"e8a6d609-d965-4c72-b22f-83ffb60a3d29","system_id":"levelo_inurba_marseille","lat":43.28417,"lon":5.349832,"is_reserved":false,"is_disabled":false,"rental_uris":{"android":"levelo://app?vid=e8a6d609-d965-4c72-b22f-83ffb60a3d29","ios":"levelo://app?vid=e8a6d609-d965-4c72-b22f-83ffb60a3d29"},"vehicle_type_id":"4","last_reported":1759234848,"current_range_meters":18000,"station_id":"ce4bhbh2rcd13ifvqepg","pricing_plan_id":"cebpf4jnsgd1na2vs0mg"},{"bike_id":"a3577dd7-b1db-4ad9-be15-00d58b2f8c69","system_id":"levelo_inurba_marseille","lat":43.27076,"lon":5.42293,"is_reserved":false,"is_disabled":false,"rental_uris":{"android":"levelo://app?vid=a3577dd7-b1db-4ad9-be15-00d58b2f8c69","ios":"levelo://app?vid=a3577dd7-b1db-4ad9-be15-00d58b2f8c69"},"vehicle_type_id":"4","last_reported":1759234848,"current_range_meters":18000,"station_id":"ce4bhk92rcd13ifvqgb0","pricing_plan_id":"cebpf4jnsgd1na2vs0mg"},{"bike_id":"0a3943d3-e069-48b4-99e5-92d99febe258","system_id":"levelo_inurba_marseille","lat":43.23963,"lon":5.3663,"is_reserved":false,"is_disabled":false,"rental_uris":{"android":"levelo://app?vid=0a3943d3-e069-48b4-99e5-92d99febe258","ios":"levelo://app?vid=0a3943d3-e069-48b4-99e5-92d99febe258"},"vehicle_type_id":"4","last_reported":1759234848,"current_range_meters":18000,"station_id":"ce4bhi12rcd13ifvqfp0","pricing_plan_id":"cebpf4jnsgd1na2vs0mg"},{"bike_id":"f67dfd5a-89ba-469d-8ee7-e5228b0a3661","system_id":"levelo_inurba_marseille","lat":43.2396,"lon":5.3663,"is_reserved":false,"is_disabled":false,"rental_uris":{"android":"levelo://app?vid=f67dfd5a-89ba-469d-8ee7-e5228b0a3661","ios":"levelo://app?vid=f67dfd5a-89ba-469d-8ee7-e5228b0a3661"},"vehicle_type_id":"4","last_reported":1759234848,"current_range_meters":18000,"station_id":"ce4bhi12rcd13ifvqfp0","pricing_plan_id":"cebpf4jnsgd1na2vs0mg"},{"bike_id":"9f344037-7aa5-4ee2-920d-740ab1273e5a","system_id":"levelo_inurba_marseille","lat":43.29609,"lon":5.37722,"is_reserved":false,"is_disabled":true,"rental_uris":{"android":"levelo://app?vid=9f344037-7aa5-4ee2-920d-740ab1273e5a","ios":"levelo://app?vid=9f344037-7aa5-4ee2-920d-740ab1273e5a"},