{"last_updated":1756368871,"ttl":60,"version":"2.2","data":{"bikes":[{"bike_id":"2582e31b-61df-455f-b413-1117e795f975","system_id":"levelo_inurba_marseille","lat":43.320351,"lon":5.415663,"is_reserved":false,"is_disabled":false,"rental_uris":{"android":"levelo://app?vid=2582e31b-61df-455f-b413-1117e795f975","ios":"levelo://app?vid=2582e31b-61df-455f-b413-1117e795f975"},"vehicle_type_id":"4","last_reported":1756368871,"current_range_meters":2800,"station_id":"ce4bhq92rcd13ifvqhkg","pricing_plan_id":"cebpf4jnsgd1na2vs0mg"},{"bike_id":"eeb42e78-373a-42a8-ad92-d1dc5831d4c3","system_id":"levelo_inurba_marseille","lat":43.24827,"lon":5.37466,"is_reserved":false,"is_disabled":true,"rental_uris":{"android":"levelo://app?vid=eeb42e78-373a-42a8-ad92-d1dc5831d4c3","ios":"levelo://app?vid=eeb42e78-373a-42a8-ad92-d1dc5831d4c3"},"vehicle_type_id":"4","last_reported":1756368871,"current_range_meters":3200,"station_id":"ce4bhgh2rcd13ifvqfb0","pricing_plan_id":"cebpf4jnsgd1na2vs0mg"},{"bike_id":"70698924-f07a-4421-af4c-f1094e75e7d4","system_id":"levelo_inurba_marseille","lat":43.211934,"lon":5.350697,"is_reserved":false,"is_disabled":false,"rental_uris":{"android":"levelo://app?vid=70698924-f07a-4421-af4c-f1094e75e7d4","ios":"levelo://app?vid=70698924-f07a-4421-af4c-f1094e75e7d4"},"vehicle_type_id":"4","last_reported":1756368871,"current_range_meters":3200,"station_id":"st_cvj6sg6p6f1abm77japg","pricing_plan_id":"cebpf4jnsgd1na2vs0mg"},{"bike_id":"207063e1-4240-4fe5-904c-4a07533b0817","system_id":"levelo_inurba_marseille","lat":43.286941,"lon":5.373829,"is_reserved":false,"is_disabled":false,"rental_uris":{"android":"levelo://app?vid=207063e1-4240-4fe5-904c-4a07533b0817","ios":"levelo://app?vid=207063e1-4240-4fe5-904c-4a07533b0817"},"vehicle_type_id":"4","last_reported":1756368871,"current_range_meters":3600,"station_id":"ce4bh3p2rcd13ifvqdq0","pricing_plan_id":"cebpf4jnsgd1na2vs0mg"},{"bike_id":"2732b203-8d34-41ae-80bd-b4f151d77aad","system_id":"levelo_inurba_marseille","lat":43.30259,"lon":5.40544,"is_reserved":false,"is_disabled":false,"rental_uris":{"android":"levelo://app?vid=2732b203-8d34-41ae-80bd-b4f151d77aad","ios":"levelo://app?vid=2732b203-8d34-41ae-80bd-b4f151d77aad"},"vehicle_type_id":"4","last_reported":1756368871,"current_range_meters":3600,"station_id":"","pricing_plan_id":"cebpf4jnsgd1na2vs0mg"},{"bike_id":"b361cbd6-7ae1-4d4e-9950-785d84d55ab9","system_id":"levelo_inurba_marseille","lat":43.29024,"lon":5.38133,"is_reserved":false,"is_disabled":false,"rental_uris":{"android":"levelo://app?vid=b361cbd6-7ae1-4d4e-9950-785d84d55ab9","ios":"levelo://app?vid=b361cbd6-7ae1-4d4e-9950-785d84d55ab9"},"vehicle_type_id":"4","last_reported":1756368871,"current_range_meters":5600,"station_id":"ce4bh4p2rcd13ifvqe1g","pricing_plan_id":"cebpf4jnsgd1na2vs0mg"},{"bike_id":"0d502687-08ef-4491-8893-8a03d8688be8","system_id":"levelo_inurba_marseille","lat":43.296359,"lon":5.361186,"is_reserved":false,"is_disabled":false,"rental_uris":{"android":"levelo://app?vid=0d502687-08ef-4491-8893-8a03d8688be8","ios":"levelo://app?vid=0d502687-08ef-4491-8893-8a03d8688be8"},"vehicle_type_id":"4","last_reported":1756368871,"current_range_meters":4000,"station_id":"","pricing_plan_id":"cebpf4jnsgd1na2vs0mg"},{"bike_id":"b7f5d4fc-8af5-442f-b471-e28f343fd67e","system_id":"levelo_inurba_marseille","lat":43.3376,"lon":5.3748,"is_reserved":false,"is_disabled":false,"rental_uris":{"android":"levelo://app?vid=b7f5d4fc-8af5-442f-b471-e28f343fd67e","ios":"levelo://app?vid=b7f5d4fc-8af5-442f-b471-e28f343fd67e"},"vehicle_type_id":"4","last_reported":1756368871,"current_range_meters":4000,"station_id":"","pricing_plan_id":"cebpf4jnsgd1na2vs0mg"},{"bike_id":"d0929797-eccc-45d1-a5f1-aea03c095a59","system_id":"levelo_inurba_marseille","lat":43.27964,"lon":5.41654,"is_reserved":false,"is_disabled":false,"rental_uris":{"android":"levelo://app?vid=d0929797-eccc-45d1-a5f1-aea03c095a59","ios":"levelo://app?vid=d0929797-eccc-45d1-a5f1-aea03c095a59"},"vehicle_type_id":"4","last_reported":1756368871,"current_range_meters":4400,"station_id":"ce4bho12rcd13ifvqh1g","pricing_plan_id":"cebpf4jnsgd1na2vs0mg"},{"bike_id":"69b4ff08-bcc7-439d-919d-ecacd6d9051a","system_id":"levelo_inurba_marseille","lat":43.28365,"lon":5.456,"is_reserved":false,"is_disabled":false,"rental_uris":{"android":"levelo://app?vid=69b4ff08-bcc7-439d-919d-ecacd6d9051a","ios":"levelo://app?vid=69b4ff08-bcc7-439d-919d-ecacd6d9051a"},"vehicle_type_id":"4","last_reported":1756368871,"current_range_meters":4400,"station_id":"","pricing_plan_id":"cebpf4jnsgd1na2vs0mg"},{"bike_id":"e1cc485f-c6f0-41fe-b8d8-b5e94a231de5","system_id":"levelo_inurba_marseille","lat":43.307494,"lon":5.377088,"is_reserved":false,"is_disabled":false,"rental_uris":{"android":"levelo://app?vid=e1cc485f-c6f0-41fe-b8d8-b5e94a231de5","ios":"levelo://app?vid=e1cc485f-c6f0-41fe-b8d8-b5e94a231de5"},"vehicle_type_id":"4","last_reported":1756368871,"current_range_meters":4800,"station_id":"","pricing_plan_id":"cebpf4jnsgd1na2vs0mg"},{"bike_id":"fdd6c097-5dd3-43bc-893e-409a66f6f9f0","system_id":"levelo_inurba_marseille","lat":43.29054,"lon":5.39953,"is_reserved":false,"is_disabled":false,"rental_uris":{"android":"levelo://app?vid=fdd6c097-5dd3-43bc-893e-409a66f6f9f0","ios":"levelo://app?vid=fdd6c097-5dd3-43bc-893e-409a66f6f9f0"},"vehicle_type_id":"4","last_reported":1756368871,"current_range_meters":4800,"station_id":"ce4bh392rcd13ifvqdm0","pricing_plan_id":"cebpf4jnsgd1na2vs0mg"},{"bike_id":"51842e17-ef10-4624-a23e-c8a182427991","system_id":"levelo_inurba_marseille","lat":43.316296,"lon":5.381834,"is_reserved":false,"is_disabled":false,"rental_uris":{"android":"levelo://app?vid=51842e17-ef10-4624-a23e-c8a182427991","ios":"levelo://app?vid=51842e17-ef10-4624-a23e-c8a182427991"},"vehicle_type_id":"4","last_reported":1756368871,"current_range_meters":5600,"station_id":"","pricing_plan_id":"cebpf4jnsgd1na2vs0mg"},{"bike_id":"23038a23-8213-4d5b-a784-616373105311","system_id":"levelo_inurba_marseille","lat":43.29895,"lon":5.43691,"is_reserved":false,"is_disabled":false,"rental_uris":{"android":"levelo://app?vid=23038a23-8213-4d5b-a784-616373105311","ios":"levelo://app?vid=23038a23-8213-4d5b-a784-616373105311"},"vehicle_type_id":"4","last_reported":1756368871,"current_range_meters":5600,"station_id":"ce4bhpp2rcd13ifvqhfg","pricing_plan_id":"cebpf4jnsgd1na2vs0mg"},{"bike_id":"69a01144-4cb0-4f43-b8a7-d8bba1210d75","system_id":"levelo_inurba_marseille","lat":43.31588,"lon":5.37453,"is_reserved":false,"is_disabled":false,"rental_uris":{"android":"levelo://app?vid=69a01144-4cb0-4f43-b8a7-d8bba1210d75","ios":"levelo://app?vid=69a01144-4cb0-4f43-b8a7-d8bba1210d75"},"vehicle_type_id":"4","last_reported":1756368871,"current_range_meters":6000,"station_id":"","pricing_plan_id":"cebpf4jnsgd1na2vs0mg"},{"bike_id":"24df2c59-c2ae-4cf6-8d73-b821e9ca9612","system_id":"levelo_inurba_marseille","lat":43.2799,"lon":5.399785,"is_reserved":false,"is_disabled":true,"rental_uris":{"android":"levelo://app?vid=24df2c59-c2ae-4cf6-8d73-b821e9ca9612","ios":"levelo://app?vid=24df2c59-c2ae-4cf6-8d73-b821e9ca9612"},"vehicle_type_id":"4","last_reported":1756368871,"current_range_meters":6000,"station_id":"ce4bho92rcd13ifvqh4g","pricing_plan_id":"cebpf4jnsgd1na2vs0mg"},{"bike_id":"998bda1a-5fc8-4708-a3aa-268c7ada7ec8","system_id":"levelo_inurba_marseille","lat":43.318886,"lon":5.407354,"is_reserved":false,"is_disabled":false,"rental_uris":{"android":"levelo://app?vid=998bda1a-5fc8-4708-a3aa-268c7ada7ec8","ios":"levelo://app?vid=998bda1a-5fc8-4708-a3aa-268c7ada7ec8"},"vehicle_type_id":"4","last_reported":1756368871,"current_range_meters":6000,"station_id":"ce4bhq12rcd13ifvqhig","pricing_plan_id":"cebpf4jnsgd1na2vs0mg"},{"bike_id":"8ff3ebc3-b8cc-483f-9232-7e0c6220b0be","system_id":"levelo_inurba_marseille","lat":43.29941,"lon":5.41317,"is_reserved":false,"is_disabled":false,"rental_uris":{"android":"levelo://app?vid=8ff3ebc3-b8cc-483f-9232-7e0c6220b0be","ios":"levelo://app?vid=8ff3ebc3-b8cc-483f-9232-7e0c6220b0be"},"vehicle_type_id":"4","last_reported":1756368871,"current_range_meters":6400,"station_id":"ce4bhp12rcd13ifvqh9g","pricing_plan_id":"cebpf4jnsgd1na2vs0mg"},{"bike_id":"c44bedcb-df6e-4aac-bc5a-92deddea45d5","system_id":"levelo_inurba_marseille","lat":43.29012,"lon":5.37546,"is_reserved":false,"is_disabled":false,"rental_uris":{"android":"levelo://app?vid=c44bedcb-df6e-4aac-bc5a-92deddea45d5","ios":"levelo://app?vid=c44bedcb-df6e-4aac-bc5a-92deddea45d5"},"vehicle_type_id":"4","last_reported":1756368871,"current_range_meters":6800,"station_id":"","pricing_plan_id":"cebpf4jnsgd1na2vs0mg"},{"bike_id":"2affca10-80be-4094-9154-56b99379cd7f","system_id":"levelo_inurba_marseille","lat":43.29602,"lon":5.381,"is_reserved":false,"is_disabled":false,"rental_uris":{"android":"levelo://app?vid=2affca10-80be-4094-9154-56b99379cd7f","ios":"levelo://app?vid=2affca10-80be-4094-9154-56b99379cd7f"},"vehicle_type_id":"4","last_reported":1756368871,"current_range_meters":6400,"station_id":"ce4bgl12rcd13ifvqbo0","pricing_plan_id":"cebpf4jnsgd1na2vs0mg"},{"bike_id":"3f18de68-bbb7-4a5d-9e02-b3c0084300de","system_id":"levelo_inurba_marseille","lat":43.26188,"lon":5.37449,"is_reserved":false,"is_disabled":false,"rental_uris":{"android":"levelo://app?vid=3f18de68-bbb7-4a5d-9e02-b3c0084300de","ios":"levelo://app?vid=3f18de68-bbb7-4a5d-9e02-b3c0084300de"},"vehicle_type_id":"4","last_reported":1756368871,"current_range_meters":7200,"station_id":"ce4bhgp2rcd13ifvqfc0","pricing_plan_id":"cebpf4jnsgd1na2vs0mg"},{"bike_id":"f140bace-fd27-4d28-9d07-c41234154354","system_id":"levelo_inurba_marseille","lat":43.32439,"lon":5.366,"is_reserved":false,"is_disabled":false,"rental_uris":{"android":"levelo://app?vid=f140bace-fd27-4d28-9d07-c41234154354","ios":"levelo://app?vid=f140bace-fd27-4d28-9d07-c41234154354"},"vehicle_type_id":"4","last_reported":1756368871,"current_range_meters":8000,"station_id":"","pricing_plan_id":"cebpf4jnsgd1na2vs0mg"},{"bike_id":"5bce688b-fc81-4596-8277-b66f54be87c1","system_id":"levelo_inurba_marseille","lat":43.337645,"lon":5.374409,"is_reserved":false,"is_disabled":false,"rental_uris":{"android":"levelo://app?vid=5bce688b-fc81-4596-8277-b66f54be87c1","ios":"levelo://app?vid=5bce688b-fc81-4596-8277-b66f54be87c1"},"vehicle_type_id":"4","last_reported":1756368871,"current_range_meters":8000,"station_id":"","pricing_plan_id":"cebpf4jnsgd1na2vs0mg"},{"bike_id":"e9099ed8-f39c-4735-a545-38ff6ccc85d8","system_id":"levelo_inurba_marseille","lat":43.32207,"lon":5.38523,"is_reserved":false,"is_disabled":false,"rental_uris":{"android":"levelo://app?vid=e9099ed8-f39c-4735-a545-38ff6ccc85d8","ios":"levelo://app?vid=e9099ed8-f39c-4735-a545-38ff6ccc85d8"},"vehicle_type_id":"4","last_reported":1756368871,"current_range_meters":8000,"station_id":"","pricing_plan_id":"cebpf4jnsgd1na2vs0mg"},{"bike_id":"7a96b486-50dc-4e07-8cc2-f2d7db6e3aee","system_id":"levelo_inurba_marseille","lat":43.26954,"lon":5.402836,"is_reserved":false,"is_disabled":false,"rental_uris":{"android":"levelo://app?vid=7a96b486-50dc-4e07-8cc2-f2d7db6e3aee","ios":"levelo://app?vid=7a96b486-50dc-4e07-8cc2-f2d7db6e3aee"},"vehicle_type_id":"4","last_reported":1756368871,"current_range_meters":8000,"station_id":"cjm6bp8fraef2m0cb0m0","pricing_plan_id":"cebpf4jnsgd1na2vs0mg"},{"bike_id":"d2d39256-6788-442b-b27b-5120dd8b53ef","system_id":"levelo_inurba_marseille","lat":43.28914,"lon":5.36642,"is_reserved":false,"is_disabled":false,"rental_uris":{"android":"levelo://app?vid=d2d39256-6788-442b-b27b-5120dd8b53ef","ios":"levelo://app?vid=d2d39256-6788-442b-b27b-5120dd8b53ef"},"vehicle_type_id":"4","last_reported":1756368871,"current_range_meters":8400,"station_id":"ce4bhap2rcd13ifvqek0","pricing_plan_id":"cebpf4jnsgd1na2vs0mg"},{"bike_id":"1546df9e-d1cb-482b-8d1f-d121540fd829","system_id":"levelo_inurba_marseille","lat":43.21188,"lon":5.35067,"is_reserved":false,"is_disabled":false,"rental_uris":{"android":"levelo://app?vid=1546df9e-d1cb-482b-8d1f-d121540fd829","ios":"levelo://app?vid=1546df9e-d1cb-482b-8d1f-d121540fd829"},"vehicle_type_id":"4","last_reported":1756368871,"current_range_meters":8400,"station_id":"st_cvj6sg6p6f1abm77japg","pricing_plan_id":"cebpf4jnsgd1na2vs0mg"},{"bike_id":"a87f97d0-b06d-49ed-8a1e-b35acdcbe0c3","system_id":"levelo_inurba_marseille","lat":43.30793,"lon":5.43518,"is_reserved":false,"is_disabled":false,"rental_uris":{"android":"levelo://app?vid=a87f97d0-b06d-49ed-8a1e-b35acdcbe0c3","ios":"levelo://app?vid=a87f97d0-b06d-49ed-8a1e-b35acdcbe0c3"},"vehicle_type_id":"4","last_reported":1756368871,"current_range_meters":8400,"station_id":"ce4bhph2rcd13ifvqheg","pricing_plan_id":"cebpf4jnsgd1na2vs0mg"},{"bike_id":"a7c879e6-fbdc-41cc-b936-a235aa17adb5","system_id":"levelo_inurba_marseille","lat":43.331316,"lon":5.381633,"is_reserved":false,"is_disabled":false,"rental_uris":{"android":"levelo://app?vid=a7c879e6-fbdc-41cc-b936-a235aa17adb5","ios":"levelo://app?vid=a7c879e6-fbdc-41cc-b936-a235aa17adb5"},"vehicle_type_id":"4","last_reported":1756368871,"current_range_meters":8800,"station_id":"","pricing_plan_id":"cebpf4jnsgd1na2vs0mg"},{"bike_id":"028823a5-785a-4ebf-83ef-66281925803f","system_id":"levelo_inurba_marseille","lat":43.29248,"lon":5.40094,"is_reserved":false,"is_disabled":false,"rental_uris":{"android":"levelo://app?vid=028823a5-785a-4ebf-83ef-66281925803f","ios":"levelo://app?vid=028823a5-785a-4ebf-83ef-66281925803f"},"vehicle_type_id":"4","last_reported":1756368871,"current_range_meters":8800,"station_id":"ce4bh312rcd13ifvqdk0","pricing_plan_id":"cebpf4jnsgd1na2vs0mg"},{"bike_id":"e5eabf25-4e1c-476e-b130-9f83cdcfc80c","system_id":"levelo_inurba_marseille","lat":43.29782,"lon":5.41711,"is_reserved":false,"is_disabled":false,"rental_uris":{"android":"levelo://app?vid=e5eabf25-4e1c-476e-b130-9f83cdcfc80c","ios":"levelo://app?vid=e5eabf25-4e1c-476e-b130-9f83cdcfc80c"},"vehicle_type_id":"4","last_reported":1756368871,"current_range_meters":8800,"station_id":"","pricing_plan_id":"cebpf4jnsgd1na2vs0mg"},{"bike_id":"a6ef8657-5b8a-423b-993f-c3df43dec0a0","system_id":"levelo_inurba_marseille","lat":43.337595,"lon":5.374806,"is_reserved":false,"is_disabled":false,"rental_uris":{"android":"levelo://app?vid=a6ef8657-5b8a-423b-993f-c3df43dec0a0","ios":"levelo://app?vid=a6ef8657-5b8a-423b-993f-c3df43dec0a0"},"vehicle_type_id":"4","last_reported":1756368871,"current_range_meters":8800,"station_id":"","pricing_plan_id":"cebpf4jnsgd1na2vs0mg"},{"bike_id":"61df61d4-52cf-4d3b-b7f8-7167ab3d6253","system_id":"levelo_inurba_marseille","lat":43.26551,"lon":5.37285,"is_reserved":false,"is_disabled":false,"rental_uris":{"android":"levelo://app?vid=61df61d4-52cf-4d3b-b7f8-7167ab3d6253","ios":"levelo://app?vid=61df61d4-52cf-4d3b-b7f8-7167ab3d6253"},"vehicle_type_id":"4","last_reported":1756368871,"current_range_meters":8800,"station_id":"ce4bhg12rcd13ifvqf70","pricing_plan_id":"cebpf4jnsgd1na2vs0mg"},{"bike_id":"b721aaaa-ccd9-4098-92a6-87de476dd197","system_id":"levelo_inurba_marseille","lat":43.27681,"lon":5.38925,"is_reserved":false,"is_disabled":false,"rental_uris":{"android":"levelo://app?vid=b721aaaa-ccd9-4098-92a6-87de476dd197","ios":"levelo://app?vid=b721aaaa-ccd9-4098-92a6-87de476dd197"},"vehicle_type_id":"4","last_reported":1756368871,"current_range_meters":9200,"station_id":"ce4bhi12rcd13ifvqfo0","pricing_plan_id":"cebpf4jnsgd1na2vs0mg"},{"bike_id":"aa375831-c987-4042-97d7-4bc96d6caa6a","system_id":"levelo_inurba_marseille","lat":43.26295,"lon":5.37396,"is_reserved":false,"is_disabled":true,"rental_uris":{"android":"levelo://app?vid=aa375831-c987-4042-97d7-4bc96d6caa6a","ios":"levelo://app?vid=aa375831-c987-4042-97d7-4bc96d6caa6a"},"vehicle_type_id":"4","last_reported":1756368871,"current_range_meters":9600,"station_id":"","pricing_plan_id":"cebpf4jnsgd1na2vs0mg"},{"bike_id":"8637e1aa-9c9a-41e1-a5d5-f0342a65118e","system_id":"levelo_inurba_marseille","lat":43.31696,"lon":5.43687,"is_reserved":false,"is_disabled":false,"rental_uris":{"android":"levelo://app?vid=8637e1aa-9c9a-41e1-a5d5-f0342a65118e","ios":"levelo://app?vid=8637e1aa-9c9a-41e1-a5d5-f0342a65118e"},"vehicle_type_id":"4","last_reported":1756368871,"current_range_meters":9600,"station_id":"ce4bhp92rcd13ifvqhcg","pricing_plan_id":"cebpf4jnsgd1na2vs0mg"},{"bike_id":"068a128d-74ea-4367-967b-af375cba1ed0","system_id":"levelo_inurba_marseille","lat":43.3081,"lon":5.43524,"is_reserved":false,"is_disabled":false,"rental_uris":{"android":"levelo://app?vid=068a128d-74ea-4367-967b-af375cba1ed0","ios":"levelo://app?vid=068a128d-74ea-4367-967b-af375cba1ed0"},"vehicle_type_id":"4","last_reported":1756368871,"current_range_meters":9600,"station_id":"ce4bhph2rcd13ifvqheg","pricing_plan_id":"cebpf4jnsgd1na2vs0mg"},{"bike_id":"ac631280-124e-4e54-bf31-e8c590daca4d","system_id":"levelo_inurba_marseille","lat":43.298089,"lon":5.381118,"is_reserved":false,"is_disabled":false,"rental_uris":{"android":"levelo://app?vid=ac631280-124e-4e54-bf31-e8c590daca4d","ios":"levelo://app?vid=ac631280-124e-4e54-bf31-e8c590daca4d"},"vehicle_type_id":"4","last_reported":1756368871,"current_range_meters":9600,"station_id":"ce4bgip2rcd13ifvqbb0","pricing_plan_id":"cebpf4jnsgd1na2vs0mg"},{"bike_id":"452c64c1-c18e-429f-ac02-5f3cc7af3941","system_id":"levelo_inurba_marseille","lat":43.21742,"lon":5.34595,"is_reserved":false,"is_disabled":false,"rental_uris":{"android":"levelo://app?vid=452c64c1-c18e-429f-ac02-5f3cc7af3941","ios":"levelo://app?vid=452c64c1-c18e-429f-ac02-5f3cc7af3941"},"vehicle_type_id":"4","last_reported":1756368871,"current_range_meters":9600,"station_id":"st_cvj6r9ubvosntc0bgbag","pricing_plan_id":"cebpf4jnsgd1na2vs0mg"},{"bike_id":"3cb526dd-226d-454e-aadf-fe81457a75f2","system_id":"levelo_inurba_marseille","lat":43.262,"lon":5.37927,"is_reserved":false,"is_disabled":false,"rental_uris":{"android":"levelo://app?vid=3cb526dd-226d-454e-aadf-fe81457a75f2","ios":"levelo://app?vid=3cb526dd-226d-454e-aadf-fe81457a75f2"},"vehicle_type_id":"4","last_reported":1756368871,"current_range_meters":10000,"station_id":"ce4bhjp2rcd13ifvqg90","pricing_plan_id":"cebpf4jnsgd1na2vs0mg"},{"bike_id":"6bfbf7b1-a4a1-4287-abfb-a1fa867bee3a","system_id":"levelo_inurba_marseille","lat":43.23057,"lon":5.35501,"is_reserved":false,"is_disabled":false,"rental_uris":{"android":"levelo://app?vid=6bfbf7b1-a4a1-4287-abfb-a1fa867bee3a","ios":"levelo://app?vid=6bfbf7b1-a4a1-4287-abfb-a1fa867bee3a"},"vehicle_type_id":"4","last_reported":1756368871,"current_range_meters":10000,"station_id":"cpo3342slgdg3j2ifvpg","pricing_plan_id":"cebpf4jnsgd1na2vs0mg"},{"bike_id":"758925e6-bd9a-4169-81c0-f7af7a29a755","system_id":"levelo_inurba_marseille","lat":43.26022,"lon":5.37555,"is_reserved":false,"is_disabled":true,"rental_uris":{"android":"levelo://app?vid=758925e6-bd9a-4169-81c0-f7af7a29a755","ios":"levelo://app?vid=758925e6-bd9a-4169-81c0-f7af7a29a755"},"vehicle_type_id":"4","last_reported":1756368871,"current_range_meters":10000,"station_id":"ce4bhgh2rcd13ifvqfa0","pricing_plan_id":"cebpf4jnsgd1na2vs0mg"},{"bike_id":"593cdbde-adc1-4d8f-aea8-077d9f5c5d9f","system_id":"levelo_inurba_marseille","lat":43.290363,"lon":5.399543,"is_reserved":false,"is_disabled":false,"rental_uris":{"android":"levelo://app?vid=593cdbde-adc1-4d8f-aea8-077d9f5c5d9f","ios":"levelo://app?vid=593cdbde-adc1-4d8f-aea8-077d9f5c5d9f"},"vehicle_type_id":"4","last_reported":1756368871,"current_range_meters":10000,"station_id":"ce4bh392rcd13ifvqdm0","pricing_plan_id":"cebpf4jnsgd1na2vs0mg"},{"bike_id":"10b9bb1d-4b1c-4f5c-bf78-a659488e4700","system_id":"levelo_inurba_marseille","lat":43.262802,"lon":5.398945,"is_reserved":false,"is_disabled":false,"rental_uris":{"android":"levelo://app?vid=10b9bb1d-4b1c-4f5c-bf78-a659488e4700","ios":"levelo://app?vid=10b9bb1d-4b1c-4f5c-bf78-a659488e4700"},"vehicle_type_id":"4","last_reported":1756368871,"current_range_meters":10800,"station_id":"","pricing_plan_id":"cebpf4jnsgd1na2vs0mg"},{"bike_id":"07f3c348-251f-475b-bdcc-b91dd94163be","system_id":"levelo_inurba_marseille","lat":43.21741,"lon":5.34604,"is_reserved":false,"is_disabled":false,"rental_uris":{"android":"levelo://app?vid=07f3c348-251f-475b-bdcc-b91dd94163be","ios":"levelo://app?vid=07f3c348-251f-475b-bdcc-b91dd94163be"},"vehicle_type_id":"4","last_reported":1756368871,"current_range_meters":10800,"station_id":"st_cvj6r9ubvosntc0bgbag","pricing_plan_id":"cebpf4jnsgd1na2vs0mg"},{"bike_id":"a2ce2120-9d78-43d8-b7d2-81010db4fb80","system_id":"levelo_inurba_marseille","lat":43.29173,"lon":5.37166,"is_reserved":false,"is_disabled":false,"rental_uris":{"android":"levelo://app?vid=a2ce2120-9d78-43d8-b7d2-81010db4fb80","ios":"levelo://app?vid=a2ce2120-9d78-43d8-b7d2-81010db4fb80"},"vehicle_type_id":"4","last_reported":1756368871,"current_range_meters":11200,"station_id":"ce4bha92rcd13ifvqeh0","pricing_plan_id":"cebpf4jnsgd1na2vs0mg"},{"bike_id":"24f21e6b-b01d-4cb2-9e02-96dc8b4569e1","system_id":"levelo_inurba_marseille","lat":43.26926,"lon":5.38921,"is_reserved":false,"is_disabled":false,"rental_uris":{"android":"levelo://app?vid=24f21e6b-b01d-4cb2-9e02-96dc8b4569e1","ios":"levelo://app?vid=24f21e6b-b01d-4cb2-9e02-96dc8b4569e1"},"vehicle_type_id":"4","last_reported":1756368871,"current_range_meters":10800,"station_id":"ce4bhhh2rcd13ifvqfl0","pricing_plan_id":"cebpf4jnsgd1na2vs0mg"},{"bike_id":"98c96329-3edb-4eec-a3f6-606d0522135f","system_id":"levelo_inurba_marseille","lat":43.211996,"lon":5.350609,"is_reserved":false,"is_disabled":false,"rental_uris":{"android":"levelo://app?vid=98c96329-3edb-4eec-a3f6-606d0522135f","ios":"levelo://app?vid=98c96329-3edb-4eec-a3f6-606d0522135f"},"vehicle_type_id":"4","last_reported":1756368871,"current_range_meters":11200,"station_id":"st_cvj6sg6p6f1abm77japg","pricing_plan_id":"cebpf4jnsgd1na2vs0mg"},{"bike_id":"99a1f6e8-f9f4-47c7-aa48-e7c25f733bb1","system_id":"levelo_inurba_marseille","lat":43.246314,"lon":5.431419,"is_reserved":false,"is_disabled":false,"rental_uris":{"android":"levelo://app?vid=99a1f6e8-f9f4-47c7-aa48-e7c25f733bb1","ios":"levelo://app?vid=99a1f6e8-f9f4-47c7-aa48-e7c25f733bb1"},"vehicle_type_id":"4","last_reported":1756368871,"current_range_meters":11200,"station_id":"st_d2m6c4gdas8pm72e190g","pricing_plan_id":"cebpf4jnsgd1na2vs0mg"},{"bike_id":"f5ee2120-b8b8-472b-9bcc-efc824cd719b","system_id":"levelo_inurba_marseille","lat":43.29543,"lon":5.42266,"is_reserved":false,"is_disabled":false,"rental_uris":{"android":"levelo://app?vid=f5ee2120-b8b8-472b-9bcc-efc824cd719b","ios":"levelo://app?vid=f5ee2120-b8b8-472b-9bcc-efc824cd719b"},"vehicle_type_id":"4","last_reported":1756368871,"current_range_meters":11200,"station_id":"ce4bhph2rcd13ifvqhdg","pricing_plan_id":"cebpf4jnsgd1na2vs0mg"},{"bike_id":"ef9c9959-aa0e-4310-8a35-46881da328e1","system_id":"levelo_inurba_marseille","lat":43.25899,"lon":5.40847,"is_reserved":false,"is_disabled":false,"rental_uris":{"android":"levelo://app?vid=ef9c9959-aa0e-4310-8a35-46881da328e1","ios":"levelo://app?vid=ef9c9959-aa0e-4310-8a35-46881da328e1"},"vehicle_type_id":"4","last_reported":1756368871,"current_range_meters":11600,"station_id":"","pricing_plan_id":"cebpf4jnsgd1na2vs0mg"},{"bike_id":"5c26a54e-1e97-4ad3-a16d-614ad930b130","system_id":"levelo_inurba_marseille","lat":43.321057,"lon":5.367681,"is_reserved":false,"is_disabled":false,"rental_uris":{"android":"levelo://app?vid=5c26a54e-1e97-4ad3-a16d-614ad930b130","ios":"levelo://app?vid=5c26a54e-1e97-4ad3-a16d-614ad930b130"},"vehicle_type_id":"4","last_reported":1756368871,"current_range_meters":11600,"station_id":"ce4bhrh2rcd13ifvqhug","pricing_plan_id":"cebpf4jnsgd1na2vs0mg"},{"bike_id":"19eabc24-80d3-4327-b947-9ec7f85cd494","system_id":"levelo_inurba_marseille","lat":43.27297,"lon":5.39101,"is_reserved":false,"is_disabled":true,"rental_uris":{"android":"levelo://app?vid=19eabc24-80d3-4327-b947-9ec7f85cd494","ios":"levelo://app?vid=19eabc24-80d3-4327-b947-9ec7f85cd494"},"vehicle_type_id":"4","last_reported":1756368871,"current_range_meters":11600,"station_id":"ce4bhgp2rcd13ifvqfe0","pricing_plan_id":"cebpf4jnsgd1na2vs0mg"},{"bike_id":"06d7a368-7156-454c-a01c-b0a0ebbf9e53","system_id":"levelo_inurba_marseille","lat":43.27953,"lon":5.38713,"is_reserved":false,"is_disabled":false,"rental_uris":{"android":"levelo://app?vid=06d7a368-7156-454c-a01c-b0a0ebbf9e53","ios":"levelo://app?vid=06d7a368-7156-454c-a01c-b0a0ebbf9e53"},"vehicle_type_id":"4","last_reported":1756368871,"current_range_meters":11600,"station_id":"ce4bhg12rcd13ifvqf80","pricing_plan_id":"cebpf4jnsgd1na2vs0mg"},{"bike_id":"3d399bfe-7fbc-42b7-a070-a73b13325d3f","system_id":"levelo_inurba_marseille","lat":43.23106,"lon":5.35472,"is_reserved":false,"is_disabled":false,"rental_uris":{"android":"levelo://app?vid=3d399bfe-7fbc-42b7-a070-a73b13325d3f","ios":"levelo://app?vid=3d399bfe-7fbc-42b7-a070-a73b13325d3f"},"vehicle_type_id":"4","last_reported":1756368871,"current_range_meters":11600,"station_id":"","pricing_plan_id":"cebpf4jnsgd1na2vs0mg"},{"bike_id":"cea4f74c-749a-4d27-ba42-227f3aa848c5","system_id":"levelo_inurba_marseille","lat":43.30133,"lon":5.38104,"is_reserved":false,"is_disabled":false,"rental_uris":{"android":"levelo://app?vid=cea4f74c-749a-4d27-ba42-227f3aa848c5","ios":"levelo://app?vid=cea4f74c-749a-4d27-ba42-227f3aa848c5"},"vehicle_type_id":"4","last_reported":1756368871,"current_range_meters":11600,"station_id":"ce4bgjp2rcd13ifvqbh0","pricing_plan_id":"cebpf4jnsgd1na2vs0mg"},{"bike_id":"13a6fd6a-fc99-4722-93ac-19f39538f6ae","system_id":"levelo_inurba_marseille","lat":43.27295,"lon":5.36287,"is_reserved":false,"is_disabled":false,"rental_uris":{"android":"levelo://app?vid=13a6fd6a-fc99-4722-93ac-19f39538f6ae","ios":"levelo://app?vid=13a6fd6a-fc99-4722-93ac-19f39538f6ae"},"vehicle_type_id":"4","last_reported":1756368871,"current_range_meters":11600,"station_id":"","pricing_plan_id":"cebpf4jnsgd1na2vs0mg"},{"bike_id":"ac0ea835-99bd-43af-8946-31e8413cf1fb","system_id":"levelo_inurba_marseille","lat":43.32489,"lon":5.36582,"is_reserved":false,"is_disabled":false,"rental_uris":{"android":"levelo://app?vid=ac0ea835-99bd-43af-8946-31e8413cf1fb","ios":"levelo://app?vid=ac0ea835-99bd-43af-8946-31e8413cf1fb"},"vehicle_type_id":"4","last_reported":1756368871,"current_range_meters":12000,"station_id":"ce4bhs12rcd13ifvqhvg","pricing_plan_id":"cebpf4jnsgd1na2vs0mg"},{"bike_id":"d658882e-7f17-46c2-9e93-fd48bbb112fe","system_id":"levelo_inurba_marseille","lat":43.31112,"lon":5.37765,"is_reserved":false,"is_disabled":false,"rental_uris":{"android":"levelo://app?vid=d658882e-7f17-46c2-9e93-fd48bbb112fe","ios":"levelo://app?vid=d658882e-7f17-46c2-9e93-fd48bbb112fe"},"vehicle_type_id":"4","last_reported":1756368871,"current_range_meters":12000,"station_id":"ce4bgt92rcd13ifvqcg0","pricing_plan_id":"cebpf4jnsgd1na2vs0mg"},{"bike_id":"f42fde19-a6d7-4a7b-a0c9-c23ca93de4da","system_id":"levelo_inurba_marseille","lat":43.2594,"lon":5.409,"is_reserved":false,"is_disabled":false,"rental_uris":{"android":"levelo://app?vid=f42fde19-a6d7-4a7b-a0c9-c23ca93de4da","ios":"levelo://app?vid=f42fde19-a6d7-4a7b-a0c9-c23ca93de4da"},"vehicle_type_id":"4","last_reported":1756368871,"current_range_meters":12400,"station_id":"ce4bhm92rcd13ifvqglg","pricing_plan_id":"cebpf4jnsgd1na2vs0mg"},{"bike_id":"d1e0c5c0-2021-47c7-80fe-e78f82330db3","system_id":"levelo_inurba_marseille","lat":43.212113,"lon":5.350774,"is_reserved":false,"is_disabled":false,"rental_uris":{"android":"levelo://app?vid=d1e0c5c0-2021-47c7-80fe-e78f82330db3","ios":"levelo://app?vid=d1e0c5c0-2021-47c7-80fe-e78f82330db3"},"vehicle_type_id":"4","last_reported":1756368871,"current_range_meters":12400,"station_id":"st_cvj6sg6p6f1abm77japg","pricing_plan_id":"cebpf4jnsgd1na2vs0mg"},{"bike_id":"c67682e4-ad86-4b65-b4ef-e774963b7e60","system_id":"levelo_inurba_marseille","lat":43.232113,"lon":5.355564,"is_reserved":false,"is_disabled":false,"rental_uris":{"android":"levelo://app?vid=c67682e4-ad86-4b65-b4ef-e774963b7e60","ios":"levelo://app?vid=c67682e4-ad86-4b65-b4ef-e774963b7e60"},"vehicle_type_id":"4","last_reported":1756368871,"current_range_meters":12800,"station_id":"ce4bhu92rcd13ifvqi70","pricing_plan_id":"cebpf4jnsgd1na2vs0mg"},{"bike_id":"4cb373c2-c866-4ffe-be1f-de93e275c529","system_id":"levelo_inurba_marseille","lat":43.290128,"lon":5.367595,"is_reserved":false,"is_disabled":false,"rental_uris":{"android":"levelo://app?vid=4cb373c2-c866-4ffe-be1f-de93e275c529","ios":"levelo://app?vid=4cb373c2-c866-4ffe-be1f-de93e275c529"},"vehicle_type_id":"4","last_reported":1756368871,"current_range_meters":12800,"station_id":"","pricing_plan_id":"cebpf4jnsgd1na2vs0mg"},{"bike_id":"d810acf0-5bd2-4bf1-848d-31cd30d105e6","system_id":"levelo_inurba_marseille","lat":43.269831,"lon":5.392782,"is_reserved":false,"is_disabled":false,"rental_uris":{"android":"levelo://app?vid=d810acf0-5bd2-4bf1-848d-31cd30d105e6","ios":"levelo://app?vid=d810acf0-5bd2-4bf1-848d-31cd30d105e6"},"vehicle_type_id":"4","last_reported":1756368871,"current_range_meters":12800,"station_id":"","pricing_plan_id":"cebpf4jnsgd1na2vs0mg"},{"bike_id":"e7adfa58-9cff-4ae4-9f5c-c741f262e33a","system_id":"levelo_inurba_marseille","lat":43.28768,"lon":5.37924,"is_reserved":false,"is_disabled":false,"rental_uris":{"android":"levelo://app?vid=e7adfa58-9cff-4ae4-9f5c-c741f262e33a","ios":"levelo://app?vid=e7adfa58-9cff-4ae4-9f5c-c741f262e33a"},"vehicle_type_id":"4","last_reported":1756368871,"current_range_meters":12800,"station_id":"","pricing_plan_id":"cebpf4jnsgd1na2vs0mg"},{"bike_id":"4bb0479b-3e4d-4b8b-8281-276e2f8b5be2","system_id":"levelo_inurba_marseille","lat":43.25934,"lon":5.40908,"is_reserved":false,"is_disabled":false,"rental_uris":{"android":"levelo://app?vid=4bb0479b-3e4d-4b8b-8281-276e2f8b5be2","ios":"levelo://app?vid=4bb0479b-3e4d-4b8b-8281-276e2f8b5be2"},"vehicle_type_id":"4","last_reported":1756368871,"current_range_meters":12800,"station_id":"ce4bhm92rcd13ifvqglg","pricing_plan_id":"cebpf4jnsgd1na2vs0mg"},{"bike_id":"2b52fbb6-600b-49c6-8c4e-ccc8520f7c00","system_id":"levelo_inurba_marseille","lat":43.26025,"lon":5.37543,"is_reserved":false,"is_disabled":false,"rental_uris":{"android":"levelo://app?vid=2b52fbb6-600b-49c6-8c4e-ccc8520f7c00","ios":"levelo://app?vid=2b52fbb6-600b-49c6-8c4e-ccc8520f7c00"},"vehicle_type_id":"4","last_reported":1756368871,"current_range_meters":12800,"station_id":"ce4bhgh2rcd13ifvqfa0","pricing_plan_id":"cebpf4jnsgd1na2vs0mg"},{"bike_id":"9263b6a2-2236-4e8c-9337-938fd93f670a","system_id":"levelo_inurba_marseille","lat":43.305513,"lon":5.367348,"is_reserved":false,"is_disabled":false,"rental_uris":{"android":"levelo://app?vid=9263b6a2-2236-4e8c-9337-938fd93f670a","ios":"levelo://app?vid=9263b6a2-2236-4e8c-9337-938fd93f670a"},"vehicle_type_id":"4","last_reported":1756368871,"current_range_meters":12800,"station_id":"","pricing_plan_id":"cebpf4jnsgd1na2vs0mg"},{"bike_id":"17346dce-e9f3-48b8-9a6a-34dc001fc6e7","system_id":"levelo_inurba_marseille","lat":43.29041,"lon":5.37577,"is_reserved":false,"is_disabled":false,"rental_uris":{"android":"levelo://app?vid=17346dce-e9f3-48b8-9a6a-34dc001fc6e7","ios":"levelo://app?vid=17346dce-e9f3-48b8-9a6a-34dc001fc6e7"},"vehicle_type_id":"4","last_reported":1756368871,"current_range_meters":12800,"station_id":"","pricing_plan_id":"cebpf4jnsgd1na2vs0mg"},{"bike_id":"6772850d-2dee-4ad5-893e-2335ed13d3ef","system_id":"levelo_inurba_marseille","lat":43.31119,"lon":5.36845,"is_reserved":false,"is_disabled":false,"rental_uris":{"android":"levelo://app?vid=6772850d-2dee-4ad5-893e-2335ed13d3ef","ios":"levelo://app?vid=6772850d-2dee-4ad5-893e-2335ed13d3ef"},"vehicle_type_id":"4","last_reported":1756368871,"current_range_meters":13600,"station_id":"ce4bgr92rcd13ifvqc6g","pricing_plan_id":"cebpf4jnsgd1na2vs0mg"},{"bike_id":"223a3dd0-7d97-4b7e-84db-058782e23987","system_id":"levelo_inurba_marseille","lat":43.29843,"lon":5.36278,"is_reserved":false,"is_disabled":false,"rental_uris":{"android":"levelo://app?vid=223a3dd0-7d97-4b7e-84db-058782e23987","ios":"levelo://app?vid=223a3dd0-7d97-4b7e-84db-058782e23987"},"vehicle_type_id":"4","last_reported":1756368871,"current_range_meters":13600,"station_id":"ce4bgpp2rcd13ifvqc3g","pricing_plan_id":"cebpf4jnsgd1na2vs0mg"},{"bike_id":"52fd4a11-61c8-4ea7-9c56-746f71213e30","system_id":"levelo_inurba_marseille","lat":43.25938,"lon":5.40885,"is_reserved":false,"is_disabled":false,"rental_uris":{"android":"levelo://app?vid=52fd4a11-61c8-4ea7-9c56-746f71213e30","ios":"levelo://app?vid=52fd4a11-61c8-4ea7-9c56-746f71213e30"},"vehicle_type_id":"4","last_reported":1756368871,"current_range_meters":13600,"station_id":"ce4bhm92rcd13ifvqglg","pricing_plan_id":"cebpf4jnsgd1na2vs0mg"},{"bike_id":"76034402-5d3e-424e-9876-0332fea00690","system_id":"levelo_inurba_marseille","lat":43.286072,"lon":5.370575,"is_reserved":false,"is_disabled":false,"rental_uris":{"android":"levelo://app?vid=76034402-5d3e-424e-9876-0332fea00690","ios":"levelo://app?vid=76034402-5d3e-424e-9876-0332fea00690"},"vehicle_type_id":"4","last_reported":1756368871,"current_range_meters":14000,"station_id":"ce4bht12rcd13ifvqi60","pricing_plan_id":"cebpf4jnsgd1na2vs0mg"},{"bike_id":"8ec3cc2f-40be-488c-bf4a-d316bcab75bc","system_id":"levelo_inurba_marseille","lat":43.30474,"lon":5.37915,"is_reserved":false,"is_disabled":false,"rental_uris":{"android":"levelo://app?vid=8ec3cc2f-40be-488c-bf4a-d316bcab75bc","ios":"levelo://app?vid=8ec3cc2f-40be-488c-bf4a-d316bcab75bc"},"vehicle_type_id":"4","last_reported":1756368871,"current_range_meters":14000,"station_id":"ce4bgup2rcd13ifvqcn0","pricing_plan_id":"cebpf4jnsgd1na2vs0mg"},{"bike_id":"b0a345f9-51a5-4193-9563-c974cc3d16bf","system_id":"levelo_inurba_marseille","lat":43.259349,"lon":5.409079,"is_reserved":false,"is_disabled":true,"rental_uris":{"android":"levelo://app?vid=b0a345f9-51a5-4193-9563-c974cc3d16bf","ios":"levelo://app?vid=b0a345f9-51a5-4193-9563-c974cc3d16bf"},"vehicle_type_id":"4","last_reported":1756368871,"current_range_meters":14000,"station_id":"ce4bhm92rcd13ifvqglg","pricing_plan_id":"cebpf4jnsgd1na2vs0mg"},{"bike_id":"ffe6df59-3fc1-4d81-9326-f6f6418e7718","system_id":"levelo_inurba_marseille","lat":43.297761,"lon":5.373467,"is_reserved":false,"is_disabled":false,"rental_uris":{"android":"levelo://app?vid=ffe6df59-3fc1-4d81-9326-f6f6418e7718","ios":"levelo://app?vid=ffe6df59-3fc1-4d81-9326-f6f6418e7718"},"vehicle_type_id":"4","last_reported":1756368871,"current_range_meters":14000,"station_id":"","pricing_plan_id":"cebpf4jnsgd1na2vs0mg"},{"bike_id":"23ae6fed-deff-411b-8b6e-f95e32ccd4d0","system_id":"levelo_inurba_marseille","lat":43.32166,"lon":5.36772,"is_reserved":false,"is_disabled":false,"rental_uris":{"android":"levelo://app?vid=23ae6fed-deff-411b-8b6e-f95e32ccd4d0","ios":"levelo://app?vid=23ae6fed-deff-411b-8b6e-f95e32ccd4d0"},"vehicle_type_id":"4","last_reported":1756368871,"current_range_meters":14000,"station_id":"","pricing_plan_id":"cebpf4jnsgd1na2vs0mg"},{"bike_id":"9f03e1e2-4e9a-43c4-963b-4baf28706312","system_id":"levelo_inurba_marseille","lat":43.304761,"lon":5.367622,"is_reserved":false,"is_disabled":false,"rental_uris":{"android":"levelo://app?vid=9f03e1e2-4e9a-43c4-963b-4baf28706312","ios":"levelo://app?vid=9f03e1e2-4e9a-43c4-963b-4baf28706312"},"vehicle_type_id":"4","last_reported":1756368871,"current_range_meters":14000,"station_id":"","pricing_plan_id":"cebpf4jnsgd1na2vs0mg"},{"bike_id":"7aa62654-cac6-483e-9d4f-f026b078f0a0","system_id":"levelo_inurba_marseille","lat":43.30169,"lon":5.38074,"is_reserved":false,"is_disabled":false,"rental_uris":{"android":"levelo://app?vid=7aa62654-cac6-483e-9d4f-f026b078f0a0","ios":"levelo://app?vid=7aa62654-cac6-483e-9d4f-f026b078f0a0"},"vehicle_type_id":"4","last_reported":1756368871,"current_range_meters":14000,"station_id":"ce4bgjp2rcd13ifvqbh0","pricing_plan_id":"cebpf4jnsgd1na2vs0mg"},{"bike_id":"0793473c-7c91-4d1f-8ffb-c00486129b1d","system_id":"levelo_inurba_marseille","lat":43.30097,"lon":5.39111,"is_reserved":false,"is_disabled":true,"rental_uris":{"android":"levelo://app?vid=0793473c-7c91-4d1f-8ffb-c00486129b1d","ios":"levelo://app?vid=0793473c-7c91-4d1f-8ffb-c00486129b1d"},"vehicle_type_id":"4","last_reported":1756368871,"current_range_meters":14000,"station_id":"ce4bh192rcd13ifvqdb0","pricing_plan_id":"cebpf4jnsgd1na2vs0mg"},{"bike_id":"6605fc1c-ad9a-4105-930a-c87dc2602b87","system_id":"levelo_inurba_marseille","lat":43.30477,"lon":5.37905,"is_reserved":false,"is_disabled":false,"rental_uris":{"android":"levelo://app?vid=6605fc1c-ad9a-4105-930a-c87dc2602b87","ios":"levelo://app?vid=6605fc1c-ad9a-4105-930a-c87dc2602b87"},"vehicle_type_id":"4","last_reported":1756368871,"current_range_meters":14400,"station_id":"ce4bgup2rcd13ifvqcn0","pricing_plan_id":"cebpf4jnsgd1na2vs0mg"},{"bike_id":"9c401436-7aa7-494a-9cc1-967079e60b6f","system_id":"levelo_inurba_marseille","lat":43.25958,"lon":5.40924,"is_reserved":false,"is_disabled":false,"rental_uris":{"android":"levelo://app?vid=9c401436-7aa7-494a-9cc1-967079e60b6f","ios":"levelo://app?vid=9c401436-7aa7-494a-9cc1-967079e60b6f"},"vehicle_type_id":"4","last_reported":1756368871,"current_range_meters":14400,"station_id":"ce4bhm92rcd13ifvqglg","pricing_plan_id":"cebpf4jnsgd1na2vs0mg"},{"bike_id":"348818fb-93b5-40f6-9790-3ec07ae3bf98","system_id":"levelo_inurba_marseille","lat":43.27959,"lon":5.38721,"is_reserved":false,"is_disabled":false,"rental_uris":{"android":"levelo://app?vid=348818fb-93b5-40f6-9790-3ec07ae3bf98","ios":"levelo://app?vid=348818fb-93b5-40f6-9790-3ec07ae3bf98"},"vehicle_type_id":"4","last_reported":1756368871,"current_range_meters":14400,"station_id":"ce4bhg12rcd13ifvqf80","pricing_plan_id":"cebpf4jnsgd1na2vs0mg"},{"bike_id":"828afd04-2753-4052-bb94-25caf81038b1","system_id":"levelo_inurba_marseille","lat":43.292763,"lon":5.368495,"is_reserved":false,"is_disabled":false,"rental_uris":{"android":"levelo://app?vid=828afd04-2753-4052-bb94-25caf81038b1","ios":"levelo://app?vid=828afd04-2753-4052-bb94-25caf81038b1"},"vehicle_type_id":"4","last_reported":1756368871,"current_range_meters":14400,"station_id":"ce4bhbp2rcd13ifvqesg","pricing_plan_id":"cebpf4jnsgd1na2vs0mg"},{"bike_id":"01acadab-cadc-479f-8160-13b317197971","system_id":"levelo_inurba_marseille","lat":43.28102,"lon":5.37846,"is_reserved":false,"is_disabled":false,"rental_uris":{"android":"levelo://app?vid=01acadab-cadc-479f-8160-13b317197971","ios":"levelo://app?vid=01acadab-cadc-479f-8160-13b317197971"},"vehicle_type_id":"4","last_reported":1756368871,"current_range_meters":14400,"station_id":"ce4bha12rcd13ifvqee0","pricing_plan_id":"cebpf4jnsgd1na2vs0mg"},{"bike_id":"1091f287-02ee-4a66-888b-59c35fd65791","system_id":"levelo_inurba_marseille","lat":43.231938,"lon":5.35552,"is_reserved":false,"is_disabled":false,"rental_uris":{"android":"levelo://app?vid=1091f287-02ee-4a66-888b-59c35fd65791","ios":"levelo://app?vid=1091f287-02ee-4a66-888b-59c35fd65791"},"vehicle_type_id":"4","last_reported":1756368871,"current_range_meters":14800,"station_id":"ce4bhu92rcd13ifvqi70","pricing_plan_id":"cebpf4jnsgd1na2vs0mg"},{"bike_id":"6953e5ba-cfbf-4ff9-882a-945f63f6aac6","system_id":"levelo_inurba_marseille","lat":43.25086,"lon":5.39524,"is_reserved":false,"is_disabled":false,"rental_uris":{"android":"levelo://app?vid=6953e5ba-cfbf-4ff9-882a-945f63f6aac6","ios":"levelo://app?vid=6953e5ba-cfbf-4ff9-882a-945f63f6aac6"},"vehicle_type_id":"4","last_reported":1756368871,"current_range_meters":14400,"station_id":"ce4bhm12rcd13ifvqgkg","pricing_plan_id":"cebpf4jnsgd1na2vs0mg"},{"bike_id":"0646de50-b0f5-4ce5-a5e2-9a1ba6c7ebc7","system_id":"levelo_inurba_marseille","lat":43.29296,"lon":5.36856,"is_reserved":false,"is_disabled":false,"rental_uris":{"android":"levelo://app?vid=0646de50-b0f5-4ce5-a5e2-9a1ba6c7ebc7","ios":"levelo://app?vid=0646de50-b0f5-4ce5-a5e2-9a1ba6c7ebc7"},"vehicle_type_id":"4","last_reported":1756368871,"current_range_meters":15200,"station_id":"ce4bhbp2rcd13ifvqesg","pricing_plan_id":"cebpf4jnsgd1na2vs0mg"},{"bike_id":"f81d9078-265a-4cc3-81fe-a4e37d459336","system_id":"levelo_inurba_marseille","lat":43.26692,"lon":5.383,"is_reserved":false,"is_disabled":true,"rental_uris":{"android":"levelo://app?vid=f81d9078-265a-4cc3-81fe-a4e37d459336","ios":"levelo://app?vid=f81d9078-265a-4cc3-81fe-a4e37d459336"},"vehicle_type_id":"4","last_reported":1756368871,"current_range_meters":15200,"station_id":"ce4bhg92rcd13ifvqf90","pricing_plan_id":"cebpf4jnsgd1na2vs0mg"},{"bike_id":"831a2354-0919-4530-8e5a-84c32dcc2c03","system_id":"levelo_inurba_marseille","lat":43.272052,"lon":5.391826,"is_reserved":false,"is_disabled":false,"rental_uris":{"android":"levelo://app?vid=831a2354-0919-4530-8e5a-84c32dcc2c03","ios":"levelo://app?vid=831a2354-0919-4530-8e5a-84c32dcc2c03"},"vehicle_type_id":"4","last_reported":1756368871,"current_range_meters":15200,"station_id":"","pricing_plan_id":"cebpf4jnsgd1na2vs0mg"},{"bike_id":"e26e264a-ce3c-445c-ad42-2ecb68c24979","system_id":"levelo_inurba_marseille","lat":43.231504,"lon":5.437355,"is_reserved":false,"is_disabled":false,"rental_uris":{"android":"levelo://app?vid=e26e264a-ce3c-445c-ad42-2ecb68c24979","ios":"levelo://app?vid=e26e264a-ce3c-445c-ad42-2ecb68c24979"},"vehicle_type_id":"4","last_reported":1756368871,"current_range_meters":15200,"station_id":"ce4bhmp2rcd13ifvqgog","pricing_plan_id":"cebpf4jnsgd1na2vs0mg"},{"bike_id":"9308f021-ec84-4fe8-8c25-145b6405b7e0","system_id":"levelo_inurba_marseille","lat":43.30522,"lon":5.36721,"is_reserved":false,"is_disabled":false,"rental_uris":{"android":"levelo://app?vid=9308f021-ec84-4fe8-8c25-145b6405b7e0","ios":"levelo://app?vid=9308f021-ec84-4fe8-8c25-145b6405b7e0"},"vehicle_type_id":"4","last_reported":1756368871,"current_range_meters":14800,"station_id":"ce4bgrp2rcd13ifvqc9g","pricing_plan_id":"cebpf4jnsgd1na2vs0mg"},{"bike_id":"c2cd0eed-0660-43fa-9529-85eced50a498","system_id":"levelo_inurba_marseille","lat":43.29586,"lon":5.375227,"is_reserved":false,"is_disabled":false,"rental_uris":{"android":"levelo://app?vid=c2cd0eed-0660-43fa-9529-85eced50a498","ios":"levelo://app?vid=c2cd0eed-0660-43fa-9529-85eced50a498"},"vehicle_type_id":"4","last_reported":1756368871,"current_range_meters":16000,"station_id":"","pricing_plan_id":"cebpf4jnsgd1na2vs0mg"},{"bike_id":"8df4d72a-2534-4225-b0d0-5b48bd4c7385","system_id":"levelo_inurba_marseille","lat":43.294458,"lon":5.397564,"is_reserved":false,"is_disabled":false,"rental_uris":{"android":"levelo://app?vid=8df4d72a-2534-4225-b0d0-5b48bd4c7385","ios":"levelo://app?vid=8df4d72a-2534-4225-b0d0-5b48bd4c7385"},"vehicle_type_id":"4","last_reported":1756368871,"current_range_meters":16000,"station_id":"ce4bh3h2rcd13ifvqdo0","pricing_plan_id":"cebpf4jnsgd1na2vs0mg"},{"bike_id":"615f9cb4-bc08-43f1-87ef-884359fe2e39","system_id":"levelo_inurba_marseille","lat":43.32366,"lon":5.3678,"is_reserved":false,"is_disabled":false,"rental_uris":{"android":"levelo://app?vid=615f9cb4-bc08-43f1-87ef-884359fe2e39","ios":"levelo://app?vid=615f9cb4-bc08-43f1-87ef-884359fe2e39"},"vehicle_type_id":"4","last_reported":1756368871,"current_range_meters":16000,"station_id":"ce4bhsh2rcd13ifvqi2g","pricing_plan_id":"cebpf4jnsgd1na2vs0mg"},{"bike_id":"9a7edf6e-5f68-421e-a102-2ef5b337d341","system_id":"levelo_inurba_marseille","lat":43.27957,"lon":5.41079,"is_reserved":false,"is_disabled":true,"rental_uris":{"android":"levelo://app?vid=9a7edf6e-5f68-421e-a102-2ef5b337d341","ios":"levelo://app?vid=9a7edf6e-5f68-421e-a102-2ef5b337d341"},"vehicle_type_id":"4","last_reported":1756368871,"current_range_meters":16000,"station_id":"ce4bhnp2rcd13ifvqh0g","pricing_plan_id":"cebpf4jnsgd1na2vs0mg"},{"bike_id":"6e51d5d9-9f08-4273-8911-21fb24c92111","system_id":"levelo_inurba_marseille","lat":43.31523,"lon":5.37276,"is_reserved":false,"is_disabled":false,"rental_uris":{"android":"levelo://app?vid=6e51d5d9-9f08-4273-8911-21fb24c92111","ios":"levelo://app?vid=6e51d5d9-9f08-4273-8911-21fb24c92111"},"vehicle_type_id":"4","last_reported":1756368871,"current_range_meters":16000,"station_id":"ce4bgt12rcd13ifvqcd0","pricing_plan_id":"cebpf4jnsgd1na2vs0mg"},{"bike_id":"4065efaf-7189-487d-b340-7559ec59c7d4","system_id":"levelo_inurba_marseille","lat":43.29994,"lon":5.37185,"is_reserved":false,"is_disabled":true,"rental_uris":{"android":"levelo://app?vid=4065efaf-7189-487d-b340-7559ec59c7d4","ios":"levelo://app?vid=4065efaf-7189-487d-b340-7559ec59c7d4"},"vehicle_type_id":"4","last_reported":1756368871,"current_range_meters":16000,"station_id":"ce4bgr92rcd13ifvqc7g","pricing_plan_id":"cebpf4jnsgd1na2vs0mg"},{"bike_id":"ec0f9f0d-0796-42ac-9cf5-bb8596cdf342","system_id":"levelo_inurba_marseille","lat":43.211948,"lon":5.350698,"is_reserved":false,"is_disabled":false,"rental_uris":{"android":"levelo://app?vid=ec0f9f0d-0796-42ac-9cf5-bb8596cdf342","ios":"levelo://app?vid=ec0f9f0d-0796-42ac-9cf5-bb8596cdf342"},"vehicle_type_id":"4","last_reported":1756368871,"current_range_meters":16000,"station_id":"","pricing_plan_id":"cebpf4jnsgd1na2vs0mg"},{"bike_id":"17e913a4-9bad-45a2-a833-803e708ff009","system_id":"levelo_inurba_marseille","lat":43.279823,"lon":5.387548,"is_reserved":false,"is_disabled":true,"rental_uris":{"android":"levelo://app?vid=17e913a4-9bad-45a2-a833-803e708ff009","ios":"levelo://app?vid=17e913a4-9bad-45a2-a833-803e708ff009"},"vehicle_type_id":"4","last_reported":1756368871,"current_range_meters":16000,"station_id":"ce4bhg12rcd13ifvqf80","pricing_plan_id":"cebpf4jnsgd1na2vs0mg"},{"bike_id":"2c246624-962d-4f72-8341-3c6523db29ef","system_id":"levelo_inurba_marseille","lat":43.26556,"lon":5.37285,"is_reserved":false,"is_disabled":true,"rental_uris":{"android":"levelo://app?vid=2c246624-962d-4f72-8341-3c6523db29ef","ios":"levelo://app?vid=2c246624-962d-4f72-8341-3c6523db29ef"},"vehicle_type_id":"4","last_reported":1756368871,"current_range_meters":16000,"station_id":"ce4bhg12rcd13ifvqf70","pricing_plan_id":"cebpf4jnsgd1na2vs0mg"},{"bike_id":"07296681-3400-48d5-88e2-c863a00e5bf3","system_id":"levelo_inurba_marseille","lat":43.22919,"lon":5.35371,"is_reserved":false,"is_disabled":false,"rental_uris":{"android":"levelo://app?vid=07296681-3400-48d5-88e2-c863a00e5bf3","ios":"levelo://app?vid=07296681-3400-48d5-88e2-c863a00e5bf3"},"vehicle_type_id":"4","last_reported":1756368871,"current_range_meters":16000,"station_id":"cpo3532slgdg3j2ikp40","pricing_plan_id":"cebpf4jnsgd1na2vs0mg"},{"bike_id":"7f96cfc7-6b62-4cd3-a164-5a1ee471a17d","system_id":"levelo_inurba_marseille","lat":43.305592,"lon":5.365368,"is_reserved":false,"is_disabled":true,"rental_uris":{"android":"levelo://app?vid=7f96cfc7-6b62-4cd3-a164-5a1ee471a17d","ios":"levelo://app?vid=7f96cfc7-6b62-4cd3-a164-5a1ee471a17d"},"vehicle_type_id":"4","last_reported":1756368871,"current_range_meters":16000,"station_id":"ce4bgs12rcd13ifvqcag","pricing_plan_id":"cebpf4jnsgd1na2vs0mg"},{"bike_id":"ed53376a-8c9c-4ff8-9c32-c69f55f82243","system_id":"levelo_inurba_marseille","lat":43.30369,"lon":5.41922,"is_reserved":false,"is_disabled":true,"rental_uris":{"android":"levelo://app?vid=ed53376a-8c9c-4ff8-9c32-c69f55f82243","ios":"levelo://app?vid=ed53376a-8c9c-4ff8-9c32-c69f55f82243"},"vehicle_type_id":"4","last_reported":1756368871,"current_range_meters":16400,"station_id":"ce4bhop2rcd13ifvqh7g","pricing_plan_id":"cebpf4jnsgd1na2vs0mg"},{"bike_id":"e6caca03-e4c1-40ce-9f4e-cc5046f7af92","system_id":"levelo_inurba_marseille","lat":43.31993,"lon":5.38161,"is_reserved":false,"is_disabled":false,"rental_uris":{"android":"levelo://app?vid=e6caca03-e4c1-40ce-9f4e-cc5046f7af92","ios":"levelo://app?vid=e6caca03-e4c1-40ce-9f4e-cc5046f7af92"},"vehicle_type_id":"4","last_reported":1756368871,"current_range_meters":16400,"station_id":"ce4bhr12rcd13ifvqhpg","pricing_plan_id":"cebpf4jnsgd1na2vs0mg"},{"bike_id":"82d9cb72-f6f8-4fda-b856-2f617fc890ac","system_id":"levelo_inurba_marseille","lat":43.24173,"lon":5.39727,"is_reserved":false,"is_disabled":false,"rental_uris":{"android":"levelo://app?vid=82d9cb72-f6f8-4fda-b856-2f617fc890ac","ios":"levelo://app?vid=82d9cb72-f6f8-4fda-b856-2f617fc890ac"},"vehicle_type_id":"4","last_reported":1756368871,"current_range_meters":16400,"station_id":"ce4bhn12rcd13ifvqgpg","pricing_plan_id":"cebpf4jnsgd1na2vs0mg"},{"bike_id":"a305dc5b-525e-4ffc-bb47-0466bc1b2071","system_id":"levelo_inurba_marseille","lat":43.29566,"lon":5.3752,"is_reserved":false,"is_disabled":false,"rental_uris":{"android":"levelo://app?vid=a305dc5b-525e-4ffc-bb47-0466bc1b2071","ios":"levelo://app?vid=a305dc5b-525e-4ffc-bb47-0466bc1b2071"},"vehicle_type_id":"4","last_reported":1756368871,"current_range_meters":16400,"station_id":"ce4bgh92rcd13ifvqb50","pricing_plan_id":"cebpf4jnsgd1na2vs0mg"},{"bike_id":"00865bff-72de-47be-acda-9cf6ec16a836","system_id":"levelo_inurba_marseille","lat":43.321034,"lon":5.367728,"is_reserved":false,"is_disabled":false,"rental_uris":{"android":"levelo://app?vid=00865bff-72de-47be-acda-9cf6ec16a836","ios":"levelo://app?vid=00865bff-72de-47be-acda-9cf6ec16a836"},"vehicle_type_id":"4","last_reported":1756368871,"current_range_meters":16400,"station_id":"ce4bhrh2rcd13ifvqhug","pricing_plan_id":"cebpf4jnsgd1na2vs0mg"},{"bike_id":"259905c0-0b2a-48d2-8997-dcb3931ef5bd","system_id":"levelo_inurba_marseille","lat":43.281029,"lon":5.378367,"is_reserved":false,"is_disabled":false,"rental_uris":{"android":"levelo://app?vid=259905c0-0b2a-48d2-8997-dcb3931ef5bd","ios":"levelo://app?vid=259905c0-0b2a-48d2-8997-dcb3931ef5bd"},"vehicle_type_id":"4","last_reported":1756368871,"current_range_meters":16400,"station_id":"ce4bha12rcd13ifvqee0","pricing_plan_id":"cebpf4jnsgd1na2vs0mg"},{"bike_id":"1d984887-ab5d-4620-8748-2089f05ed04f","system_id":"levelo_inurba_marseille","lat":43.29109,"lon":5.40196,"is_reserved":false,"is_disabled":false,"rental_uris":{"android":"levelo://app?vid=1d984887-ab5d-4620-8748-2089f05ed04f","ios":"levelo://app?vid=1d984887-ab5d-4620-8748-2089f05ed04f"},"vehicle_type_id":"4","last_reported":1756368871,"current_range_meters":16400,"station_id":"","pricing_plan_id":"cebpf4jnsgd1na2vs0mg"},{"bike_id":"08b9e890-3a41-40b2-a723-30f69b9b4ffb","system_id":"levelo_inurba_marseille","lat":43.30855,"lon":5.36823,"is_reserved":false,"is_disabled":false,"rental_uris":{"android":"levelo://app?vid=08b9e890-3a41-40b2-a723-30f69b9b4ffb","ios":"levelo://app?vid=08b9e890-3a41-40b2-a723-30f69b9b4ffb"},"vehicle_type_id":"4","last_reported":1756368871,"current_range_meters":16400,"station_id":"ce4bgn92rcd13ifvqbvg","pricing_plan_id":"cebpf4jnsgd1na2vs0mg"},{"bike_id":"b43d7a83-48eb-4bc3-814f-5aeaa6724e9a","system_id":"levelo_inurba_marseille","lat":43.31382,"lon":5.3852,"is_reserved":false,"is_disabled":false,"rental_uris":{"android":"levelo://app?vid=b43d7a83-48eb-4bc3-814f-5aeaa6724e9a","ios":"levelo://app?vid=b43d7a83-48eb-4bc3-814f-5aeaa6724e9a"},"vehicle_type_id":"4","last_reported":1756368871,"current_range_meters":16400,"station_id":"ce4bgt92rcd13ifvqcf0","pricing_plan_id":"cebpf4jnsgd1na2vs0mg"},{"bike_id":"29c55d68-58c5-4ef2-b442-72bb9c55ddb0","system_id":"levelo_inurba_marseille","lat":43.32374,"lon":5.367511,"is_reserved":false,"is_disabled":false,"rental_uris":{"android":"levelo://app?vid=29c55d68-58c5-4ef2-b442-72bb9c55ddb0","ios":"levelo://app?vid=29c55d68-58c5-4ef2-b442-72bb9c55ddb0"},"vehicle_type_id":"4","last_reported":1756368871,"current_range_meters":16400,"station_id":"ce4bhsh2rcd13ifvqi2g","pricing_plan_id":"cebpf4jnsgd1na2vs0mg"},{"bike_id":"a66cf846-0eb4-49c2-a409-deac34f83121","system_id":"levelo_inurba_marseille","lat":43.29974,"lon":5.38537,"is_reserved":false,"is_disabled":true,"rental_uris":{"android":"levelo://app?vid=a66cf846-0eb4-49c2-a409-deac34f83121","ios":"levelo://app?vid=a66cf846-0eb4-49c2-a409-deac34f83121"},"vehicle_type_id":"4","last_reported":1756368871,"current_range_meters":16400,"station_id":"ce4bgj92rcd13ifvqbd0","pricing_plan_id":"cebpf4jnsgd1na2vs0mg"},{"bike_id":"8cd383a6-fbd9-4809-9873-430c643e5314","system_id":"levelo_inurba_marseille","lat":43.24391,"lon":5.37057,"is_reserved":false,"is_disabled":false,"rental_uris":{"android":"levelo://app?vid=8cd383a6-fbd9-4809-9873-430c643e5314","ios":"levelo://app?vid=8cd383a6-fbd9-4809-9873-430c643e5314"},"vehicle_type_id":"4","last_reported":1756368871,"current_range_meters":16400,"station_id":"ce4bhhh2rcd13ifvqfk0","pricing_plan_id":"cebpf4jnsgd1na2vs0mg"},{"bike_id":"d4411ce1-1269-4134-adda-1eb61c16980f","system_id":"levelo_inurba_marseille","lat":43.280981,"lon":5.378494,"is_reserved":false,"is_disabled":false,"rental_uris":{"android":"levelo://app?vid=d4411ce1-1269-4134-adda-1eb61c16980f","ios":"levelo://app?vid=d4411ce1-1269-4134-adda-1eb61c16980f"},"vehicle_type_id":"4","last_reported":1756368871,"current_range_meters":16800,"station_id":"ce4bha12rcd13ifvqee0","pricing_plan_id":"cebpf4jnsgd1na2vs0mg"},{"bike_id":"19d2f410-2f0b-4dd3-a85d-9407b7f6032e","system_id":"levelo_inurba_marseille","lat":43.25903,"lon":5.40857,"is_reserved":false,"is_disabled":false,"rental_uris":{"android":"levelo://app?vid=19d2f410-2f0b-4dd3-a85d-9407b7f6032e","ios":"levelo://app?vid=19d2f410-2f0b-4dd3-a85d-9407b7f6032e"},"vehicle_type_id":"4","last_reported":1756368871,"current_range_meters":16800,"station_id":"ce4bhm92rcd13ifvqglg","pricing_plan_id":"cebpf4jnsgd1na2vs0mg"},{"bike_id":"51ca0c48-3c37-43cb-9285-1a5914fb7d42","system_id":"levelo_inurba_marseille","lat":43.2656,"lon":5.37276,"is_reserved":false,"is_disabled":false,"rental_uris":{"android":"levelo://app?vid=51ca0c48-3c37-43cb-9285-1a5914fb7d42","ios":"levelo://app?vid=51ca0c48-3c37-43cb-9285-1a5914fb7d42"},"vehicle_type_id":"4","last_reported":1756368871,"current_range_meters":16800,"station_id":"ce4bhg12rcd13ifvqf70","pricing_plan_id":"cebpf4jnsgd1na2vs0mg"},{"bike_id":"5e776573-7fe8-4c6a-8df1-f882385cb88f","system_id":"levelo_inurba_marseille","lat":43.30185,"lon":5.38082,"is_reserved":false,"is_disabled":false,"rental_uris":{"android":"levelo://app?vid=5e776573-7fe8-4c6a-8df1-f882385cb88f","ios":"levelo://app?vid=5e776573-7fe8-4c6a-8df1-f882385cb88f"},"vehicle_type_id":"4","last_reported":1756368871,"current_range_meters":16800,"station_id":"ce4bgjp2rcd13ifvqbh0","pricing_plan_id":"cebpf4jnsgd1na2vs0mg"},{"bike_id":"d6a76d0f-a9d1-4617-9b61-109898a0e698","system_id":"levelo_inurba_marseille","lat":43.24522,"lon":5.39469,"is_reserved":false,"is_disabled":false,"rental_uris":{"android":"levelo://app?vid=d6a76d0f-a9d1-4617-9b61-109898a0e698","ios":"levelo://app?vid=d6a76d0f-a9d1-4617-9b61-109898a0e698"},"vehicle_type_id":"4","last_reported":1756368871,"current_range_meters":16800,"station_id":"","pricing_plan_id":"cebpf4jnsgd1na2vs0mg"},{"bike_id":"76853953-4750-4c5e-a02d-c060c687f7f4","system_id":"levelo_inurba_marseille","lat":43.26547,"lon":5.37289,"is_reserved":false,"is_disabled":false,"rental_uris":{"android":"levelo://app?vid=76853953-4750-4c5e-a02d-c060c687f7f4","ios":"levelo://app?vid=76853953-4750-4c5e-a02d-c060c687f7f4"},"vehicle_type_id":"4","last_reported":1756368871,"current_range_meters":17200,"station_id":"ce4bhg12rcd13ifvqf70","pricing_plan_id":"cebpf4jnsgd1na2vs0mg"},{"bike_id":"d535bf59-462f-46ae-b9fb-52bfa64316d1","system_id":"levelo_inurba_marseille","lat":43.24181,"lon":5.39724,"is_reserved":false,"is_disabled":false,"rental_uris":{"android":"levelo://app?vid=d535bf59-462f-46ae-b9fb-52bfa64316d1","ios":"levelo://app?vid=d535bf59-462f-46ae-b9fb-52bfa64316d1"},"vehicle_type_id":"4","last_reported":1756368871,"current_range_meters":17200,"station_id":"ce4bhn12rcd13ifvqgpg","pricing_plan_id":"cebpf4jnsgd1na2vs0mg"},{"bike_id":"9c8400d3-bf6a-452a-a361-cb727e9c5324","system_id":"levelo_inurba_marseille","lat":43.29229,"lon":5.37143,"is_reserved":false,"is_disabled":false,"rental_uris":{"android":"levelo://app?vid=9c8400d3-bf6a-452a-a361-cb727e9c5324","ios":"levelo://app?vid=9c8400d3-bf6a-452a-a361-cb727e9c5324"},"vehicle_type_id":"4","last_reported":1756368871,"current_range_meters":17200,"station_id":"","pricing_plan_id":"cebpf4jnsgd1na2vs0mg"},{"bike_id":"731ff345-1377-45e9-acf9-0825f15b172a","system_id":"levelo_inurba_marseille","lat":43.229287,"lon":5.353758,"is_reserved":false,"is_disabled":false,"rental_uris":{"android":"levelo://app?vid=731ff345-1377-45e9-acf9-0825f15b172a","ios":"levelo://app?vid=731ff345-1377-45e9-acf9-0825f15b172a"},"vehicle_type_id":"4","last_reported":1756368871,"current_range_meters":17200,"station_id":"cpo3532slgdg3j2ikp40","pricing_plan_id":"cebpf4jnsgd1na2vs0mg"},{"bike_id":"1d6d2e3d-e6be-45f3-9550-08daca30c94e","system_id":"levelo_inurba_marseille","lat":43.231803,"lon":5.437268,"is_reserved":false,"is_disabled":false,"rental_uris":{"android":"levelo://app?vid=1d6d2e3d-e6be-45f3-9550-08daca30c94e","ios":"levelo://app?vid=1d6d2e3d-e6be-45f3-9550-08daca30c94e"},"vehicle_type_id":"4","last_reported":1756368871,"current_range_meters":17200,"station_id":"ce4bhmp2rcd13ifvqgog","pricing_plan_id":"cebpf4jnsgd1na2vs0mg"},{"bike_id":"db886a6e-1dd7-4ad6-80af-762275a5c8b0","system_id":"levelo_inurba_marseille","lat":43.27912,"lon":5.41048,"is_reserved":false,"is_disabled":false,"rental_uris":{"android":"levelo://app?vid=db886a6e-1dd7-4ad6-80af-762275a5c8b0","ios":"levelo://app?vid=db886a6e-1dd7-4ad6-80af-762275a5c8b0"},"vehicle_type_id":"4","last_reported":1756368871,"current_range_meters":17200,"station_id":"ce4bhnp2rcd13ifvqh0g","pricing_plan_id":"cebpf4jnsgd1na2vs0mg"},{"bike_id":"62a8c0bf-06af-44b2-acbd-3e96055782c5","system_id":"levelo_inurba_marseille","lat":43.230631,"lon":5.354976,"is_reserved":false,"is_disabled":false,"rental_uris":{"android":"levelo://app?vid=62a8c0bf-06af-44b2-acbd-3e96055782c5","ios":"levelo://app?vid=62a8c0bf-06af-44b2-acbd-3e96055782c5"},"vehicle_type_id":"4","last_reported":1756368871,"current_range_meters":17200,"station_id":"cpo3342slgdg3j2ifvpg","pricing_plan_id":"cebpf4jnsgd1na2vs0mg"},{"bike_id":"3dabe687-6aa7-4fd3-915b-09077537a14e","system_id":"levelo_inurba_marseille","lat":43.26559,"lon":5.39007,"is_reserved":false,"is_disabled":false,"rental_uris":{"android":"levelo://app?vid=3dabe687-6aa7-4fd3-915b-09077537a14e","ios":"levelo://app?vid=3dabe687-6aa7-4fd3-915b-09077537a14e"},"vehicle_type_id":"4","last_reported":1756368871,"current_range_meters":17600,"station_id":"ce4bhe12rcd13ifvqf30","pricing_plan_id":"cebpf4jnsgd1na2vs0mg"},{"bike_id":"57d77259-e64a-40b9-b711-05759afb0982","system_id":"levelo_inurba_marseille","lat":43.31701,"lon":5.40488,"is_reserved":false,"is_disabled":false,"rental_uris":{"android":"levelo://app?vid=57d77259-e64a-40b9-b711-05759afb0982","ios":"levelo://app?vid=57d77259-e64a-40b9-b711-05759afb0982"},"vehicle_type_id":"4","last_reported":1756368871,"current_range_meters":17600,"station_id":"ce4bh012rcd13ifvqd00","pricing_plan_id":"cebpf4jnsgd1na2vs0mg"},{"bike_id":"491a51e4-1469-463f-b9cc-ff15d2c85312","system_id":"levelo_inurba_marseille","lat":43.29524,"lon":5.38554,"is_reserved":false,"is_disabled":true,"rental_uris":{"android":"levelo://app?vid=491a51e4-1469-463f-b9cc-ff15d2c85312","ios":"levelo://app?vid=491a51e4-1469-463f-b9cc-ff15d2c85312"},"vehicle_type_id":"4","last_reported":1756368871,"current_range_meters":17600,"station_id":"ce4bgih2rcd13ifvqba0","pricing_plan_id":"cebpf4jnsgd1na2vs0mg"},{"bike_id":"70a041f0-2913-4688-99f3-56fcf5f2413b","system_id":"levelo_inurba_marseille","lat":43.24161,"lon":5.39756,"is_reserved":false,"is_disabled":false,"rental_uris":{"android":"levelo://app?vid=70a041f0-2913-4688-99f3-56fcf5f2413b","ios":"levelo://app?vid=70a041f0-2913-4688-99f3-56fcf5f2413b"},"vehicle_type_id":"4","last_reported":1756368871,"current_range_meters":17600,"station_id":"ce4bhn12rcd13ifvqgpg","pricing_plan_id":"cebpf4jnsgd1na2vs0mg"},{"bike_id":"26db8c78-2270-423e-8c45-8f0ab883cb9b","system_id":"levelo_inurba_marseille","lat":43.24389,"lon":5.37065,"is_reserved":false,"is_disabled":false,"rental_uris":{"android":"levelo://app?vid=26db8c78-2270-423e-8c45-8f0ab883cb9b","ios":"levelo://app?vid=26db8c78-2270-423e-8c45-8f0ab883cb9b"},"vehicle_type_id":"4","last_reported":1756368871,"current_range_meters":17600,"station_id":"ce4bhhh2rcd13ifvqfk0","pricing_plan_id":"cebpf4jnsgd1na2vs0mg"},{"bike_id":"8a3d08a4-6e22-43fc-a3af-efea32020201","system_id":"levelo_inurba_marseille","lat":43.32353,"lon":5.36758,"is_reserved":false,"is_disabled":false,"rental_uris":{"android":"levelo://app?vid=8a3d08a4-6e22-43fc-a3af-efea32020201","ios":"levelo://app?vid=8a3d08a4-6e22-43fc-a3af-efea32020201"},"vehicle_type_id":"4","last_reported":1756368871,"current_range_meters":17600,"station_id":"ce4bhsh2rcd13ifvqi2g","pricing_plan_id":"cebpf4jnsgd1na2vs0mg"},{"bike_id":"06669016-cd47-459f-9dbc-b8f7fe75d379","system_id":"levelo_inurba_marseille","lat":43.3229,"lon":5.382637,"is_reserved":false,"is_disabled":false,"rental_uris":{"android":"levelo://app?vid=06669016-cd47-459f-9dbc-b8f7fe75d379","ios":"levelo://app?vid=06669016-cd47-459f-9dbc-b8f7fe75d379"},"vehicle_type_id":"4","last_reported":1756368871,"current_range_meters":17600,"station_id":"ce4bhr12rcd13ifvqhqg","pricing_plan_id":"cebpf4jnsgd1na2vs0mg"},{"bike_id":"6657e840-2954-42e3-9db3-c578afd9e6a1","system_id":"levelo_inurba_marseille","lat":43.29916,"lon":5.38527,"is_reserved":false,"is_disabled":false,"rental_uris":{"android":"levelo://app?vid=6657e840-2954-42e3-9db3-c578afd9e6a1","ios":"levelo://app?vid=6657e840-2954-42e3-9db3-c578afd9e6a1"},"vehicle_type_id":"4","last_reported":1756368871,"current_range_meters":17600,"station_id":"","pricing_plan_id":"cebpf4jnsgd1na2vs0mg"},{"bike_id":"a105b77d-2efb-4159-9821-8cb9fb53320e","system_id":"levelo_inurba_marseille","lat":43.23189,"lon":5.39996,"is_reserved":false,"is_disabled":false,"rental_uris":{"android":"levelo://app?vid=a105b77d-2efb-4159-9821-8cb9fb53320e","ios":"levelo://app?vid=a105b77d-2efb-4159-9821-8cb9fb53320e"},"vehicle_type_id":"4","last_reported":1756368871,"current_range_meters":17600,"station_id":"ce4bhn12rcd13ifvqgqg","pricing_plan_id":"cebpf4jnsgd1na2vs0mg"},{"bike_id":"92594421-8cf0-4b8b-889c-a8296396cf9c","system_id":"levelo_inurba_marseille","lat":43.3015,"lon":5.38077,"is_reserved":false,"is_disabled":false,"rental_uris":{"android":"levelo://app?vid=92594421-8cf0-4b8b-889c-a8296396cf9c","ios":"levelo://app?vid=92594421-8cf0-4b8b-889c-a8296396cf9c"},"vehicle_type_id":"4","last_reported":1756368871,"current_range_meters":17600,"station_id":"ce4bgjp2rcd13ifvqbh0","pricing_plan_id":"cebpf4jnsgd1na2vs0mg"},{"bike_id":"c8ed8afa-4750-4d5e-b29e-7da3cd8f4dc7","system_id":"levelo_inurba_marseille","lat":43.323618,"lon":5.367424,"is_reserved":false,"is_disabled":false,"rental_uris":{"android":"levelo://app?vid=c8ed8afa-4750-4d5e-b29e-7da3cd8f4dc7","ios":"levelo://app?vid=c8ed8afa-4750-4d5e-b29e-7da3cd8f4dc7"},"vehicle_type_id":"4","last_reported":1756368871,"current_range_meters":17600,"station_id":"ce4bhsh2rcd13ifvqi2g","pricing_plan_id":"cebpf4jnsgd1na2vs0mg"},{"bike_id":"c1bb2c26-4adc-4fe0-b36d-04ee0e4b9c9c","system_id":"levelo_inurba_marseille","lat":43.284188,"lon":5.349882,"is_reserved":false,"is_disabled":false,"rental_uris":{"android":"levelo://app?vid=c1bb2c26-4adc-4fe0-b36d-04ee0e4b9c9c","ios":"levelo://app?vid=c1bb2c26-4adc-4fe0-b36d-04ee0e4b9c9c"},"vehicle_type_id":"4","last_reported":1756368871,"current_range_meters":17600,"station_id":"ce4bhbh2rcd13ifvqepg","pricing_plan_id":"cebpf4jnsgd1na2vs0mg"},{"bike_id":"42515969-df58-4bc3-81b4-d2c5b3092781","system_id":"levelo_inurba_marseille","lat":43.27723,"lon":5.42004,"is_reserved":false,"is_disabled":false,"rental_uris":{"android":"levelo://app?vid=42515969-df58-4bc3-81b4-d2c5b3092781","ios":"levelo://app?vid=42515969-df58-4bc3-81b4-d2c5b3092781"},"vehicle_type_id":"4","last_reported":1756368871,"current_range_meters":18000,"station_id":"","pricing_plan_id":"cebpf4jnsgd1na2vs0mg"},{"bike_id":"2592d48e-4f91-4661-a841-16b2ce57828c","system_id":"levelo_inurba_marseille","lat":43.24231,"lon":5.38724,"is_reserved":false,"is_disabled":false,"rental_uris":{"android":"levelo://app?vid=2592d48e-4f91-4661-a841-16b2ce57828c","ios":"levelo://app?vid=2592d48e-4f91-4661-a841-16b2ce57828c"},"vehicle_type_id":"4","last_reported":1756368871,"current_range_meters":18000,"station_id":"","pricing_plan_id":"cebpf4jnsgd1na2vs0mg"},{"bike_id":"b98f05d2-936d-41cd-8c47-1c460a9bdd42","system_id":"levelo_inurba_marseille","lat":43.30278,"lon":5.37702,"is_reserved":false,"is_disabled":false,"rental_uris":{"android":"levelo://app?vid=b98f05d2-936d-41cd-8c47-1c460a9bdd42","ios":"levelo://app?vid=b98f05d2-936d-41cd-8c47-1c460a9bdd42"},"vehicle_type_id":"4","last_reported":1756368871,"current_range_meters":18000,"station_id":"ce4bguh2rcd13ifvqcj0","pricing_plan_id":"cebpf4jnsgd1na2vs0mg"},{"bike_id":"50a6ed40-0ba2-41c5-9019-8de6125f9ed6","system_id":"levelo_inurba_marseille","lat":43.29042,"lon":5.37162,"is_reserved":false,"is_disabled":false,"rental_uris":{"android":"levelo://app?vid=50a6ed40-0ba2-41c5-9019-8de6125f9ed6","ios":"levelo://app?vid=50a6ed40-0ba2-41c5-9019-8de6125f9ed6"},"vehicle_type_id":"4","last_reported":1756368871,"current_range_meters":17600,"station_id":"ce4bh5p2rcd13ifvqe4g","pricing_plan_id":"cebpf4jnsgd1na2vs0mg"},{"bike_id":"a3e4ee41-5175-47da-ad6e-4c5ae3eb42d9","system_id":"levelo_inurba_marseille","lat":43.211916,"lon":5.350732,"is_reserved":false,"is_disabled":false,"rental_uris":{"android":"levelo://app?vid=a3e4ee41-5175-47da-ad6e-4c5ae3eb42d9","ios":"levelo://app?vid=a3e4ee41-5175-47da-ad6e-4c5ae3eb42d9"},"vehicle_type_id":"4","last_reported":1756368871,"current_range_meters":18000,"station_id":"st_cvj6sg6p6f1abm77japg","pricing_plan_id":"cebpf4jnsgd1na2vs0mg"},{"bike_id":"96bad607-0a18-4892-af5b-e3ae9d74d97b","system_id":"levelo_inurba_marseille","lat":43.23046,"lon":5.35429,"is_reserved":false,"is_disabled":false,"rental_uris":{"android":"levelo://app?vid=96bad607-0a18-4892-af5b-e3ae9d74d97b","ios":"levelo://app?vid=96bad607-0a18-4892-af5b-e3ae9d74d97b"},"vehicle_type_id":"4","last_reported":1756368871,"current_range_meters":18800,"station_id":"cpo3342slgdg3j2ifvpg","pricing_plan_id":"cebpf4jnsgd1na2vs0mg"},{"bike_id":"db48c5f4-a202-4021-bc28-0cad4c524910","system_id":"levelo_inurba_marseille","lat":43.243876,"lon":5.370697,"is_reserved":false,"is_disabled":false,"rental_uris":{"android":"levelo://app?vid=db48c5f4-a202-4021-bc28-0cad4c524910","ios":"levelo://app?vid=db48c5f4-a202-4021-bc28-0cad4c524910"},"vehicle_type_id":"4","last_reported":1756368871,"current_range_meters":18800,"station_id":"ce4bhhh2rcd13ifvqfk0","pricing_plan_id":"cebpf4jnsgd1na2vs0mg"},{"bike_id":"3d5aa2e5-19b6-4546-9f2c-20c48df2b60d","system_id":"levelo_inurba_marseille","lat":43.25951,"lon":5.4137,"is_reserved":false,"is_disabled":false,"rental_uris":{"android":"levelo://app?vid=3d5aa2e5-19b6-4546-9f2c-20c48df2b60d","ios":"levelo://app?vid=3d5aa2e5-19b6-4546-9f2c-20c48df2b60d"},"vehicle_type_id":"4","last_reported":1756368871,"current_range_meters":18800,"station_id":"","pricing_plan_id":"cebpf4jnsgd1na2vs0mg"},{"bike_id":"f0384fbb-6485-4c18-9cc5-2fe16aa6e603","system_id":"levelo_inurba_marseille","lat":43.241583,"lon":5.363947,"is_reserved":false,"is_disabled":false,"rental_uris":{"android":"levelo://app?vid=f0384fbb-6485-4c18-9cc5-2fe16aa6e603","ios":"levelo://app?vid=f0384fbb-6485-4c18-9cc5-2fe16aa6e603"},"vehicle_type_id":"4","last_reported":1756368871,"current_range_meters":18800,"station_id":"cpo36qri1sfpv3e86is0","pricing_plan_id":"cebpf4jnsgd1na2vs0mg"},{"bike_id":"63cfe3a2-cd50-49de-a1a6-166129a3bba0","system_id":"levelo_inurba_marseille","lat":43.30139,"lon":5.37419,"is_reserved":false,"is_disabled":false,"rental_uris":{"android":"levelo://app?vid=63cfe3a2-cd50-49de-a1a6-166129a3bba0","ios":"levelo://app?vid=63cfe3a2-cd50-49de-a1a6-166129a3bba0"},"vehicle_type_id":"4","last_reported":1756368871,"current_range_meters":18800,"station_id":"ce4bgs92rcd13ifvqcc0","pricing_plan_id":"cebpf4jnsgd1na2vs0mg"},{"bike_id":"16d73f95-50e9-48de-ae8d-9a8751dcc379","system_id":"levelo_inurba_marseille","lat":43.2582,"lon":5.39436,"is_reserved":false,"is_disabled":false,"rental_uris":{"android":"levelo://app?vid=16d73f95-50e9-48de-ae8d-9a8751dcc379","ios":"levelo://app?vid=16d73f95-50e9-48de-ae8d-9a8751dcc379"},"vehicle_type_id":"4","last_reported":1756368871,"current_range_meters":19200,"station_id":"ce4bhip2rcd13ifvqft0","pricing_plan_id":"cebpf4jnsgd1na2vs0mg"},{"bike_id":"0092cf4c-8b18-4d0a-8680-204bc1c5fcd1","system_id":"levelo_inurba_marseille","lat":43.30306,"lon":5.39213,"is_reserved":false,"is_disabled":false,"rental_uris":{"android":"levelo://app?vid=0092cf4c-8b18-4d0a-8680-204bc1c5fcd1","ios":"levelo://app?vid=0092cf4c-8b18-4d0a-8680-204bc1c5fcd1"},"vehicle_type_id":"4","last_reported":1756368871,"current_range_meters":18800,"station_id":"ce4bgkh2rcd13ifvqbk0","pricing_plan_id":"cebpf4jnsgd1na2vs0mg"},{"bike_id":"7b1b67ce-ec3a-4306-99ef-9044c3533e21","system_id":"levelo_inurba_marseille","lat":43.23163,"lon":5.43719,"is_reserved":false,"is_disabled":false,"rental_uris":{"android":"levelo://app?vid=7b1b67ce-ec3a-4306-99ef-9044c3533e21","ios":"levelo://app?vid=7b1b67ce-ec3a-4306-99ef-9044c3533e21"},"vehicle_type_id":"4","last_reported":1756368871,"current_range_meters":19200,"station_id":"ce4bhmp2rcd13ifvqgog","pricing_plan_id":"cebpf4jnsgd1na2vs0mg"},{"bike_id":"a459d8f4-7da3-4dc3-ac11-8ecc6370f147","system_id":"levelo_inurba_marseille","lat":43.30913,"lon":5.36858,"is_reserved":false,"is_disabled":false,"rental_uris":{"android":"levelo://app?vid=a459d8f4-7da3-4dc3-ac11-8ecc6370f147","ios":"levelo://app?vid=a459d8f4-7da3-4dc3-ac11-8ecc6370f147"},"vehicle_type_id":"4","last_reported":1756368871,"current_range_meters":19200,"station_id":"ce4bgn92rcd13ifvqbvg","pricing_plan_id":"cebpf4jnsgd1na2vs0mg"},{"bike_id":"688af5fb-6252-4eed-9501-ed7d2b2be597","system_id":"levelo_inurba_marseille","lat":43.24166,"lon":5.36405,"is_reserved":false,"is_disabled":false,"rental_uris":{"android":"levelo://app?vid=688af5fb-6252-4eed-9501-ed7d2b2be597","ios":"levelo://app?vid=688af5fb-6252-4eed-9501-ed7d2b2be597"},"vehicle_type_id":"4","last_reported":1756368871,"current_range_meters":19200,"station_id":"cpo36qri1sfpv3e86is0","pricing_plan_id":"cebpf4jnsgd1na2vs0mg"},{"bike_id":"e36ac928-4535-4c0a-9fee-0953be656982","system_id":"levelo_inurba_marseille","lat":43.308,"lon":5.3814,"is_reserved":false,"is_disabled":true,"rental_uris":{"android":"levelo://app?vid=e36ac928-4535-4c0a-9fee-0953be656982","ios":"levelo://app?vid=e36ac928-4535-4c0a-9fee-0953be656982"},"vehicle_type_id":"4","last_reported":1756368871,"current_range_meters":19200,"station_id":"ce4bgt12rcd13ifvqce0","pricing_plan_id":"cebpf4jnsgd1na2vs0mg"},{"bike_id":"f7cd213d-8b5c-44c2-9a2a-6c74fe359cab","system_id":"levelo_inurba_marseille","lat":43.26016,"lon":5.37539,"is_reserved":false,"is_disabled":false,"rental_uris":{"android":"levelo://app?vid=f7cd213d-8b5c-44c2-9a2a-6c74fe359cab","ios":"levelo://app?vid=f7cd213d-8b5c-44c2-9a2a-6c74fe359cab"},"vehicle_type_id":"4","last_reported":1756368871,"current_range_meters":19200,"station_id":"","pricing_plan_id":"cebpf4jnsgd1na2vs0mg"},{"bike_id":"e073b5ef-307a-4965-b48a-f0d1c18d1651","system_id":"levelo_inurba_marseille","lat":43.25936,"lon":5.40913,"is_reserved":false,"is_disabled":false,"rental_uris":{"android":"levelo://app?vid=e073b5ef-307a-4965-b48a-f0d1c18d1651","ios":"levelo://app?vid=e073b5ef-307a-4965-b48a-f0d1c18d1651"},"vehicle_type_id":"4","last_reported":1756368871,"current_range_meters":19200,"station_id":"ce4bhm92rcd13ifvqglg","pricing_plan_id":"cebpf4jnsgd1na2vs0mg"},{"bike_id":"d2dedc8c-958b-4158-a1e7-2313bfd8aa02","system_id":"levelo_inurba_marseille","lat":43.31879,"lon":5.38239,"is_reserved":false,"is_disabled":false,"rental_uris":{"android":"levelo://app?vid=d2dedc8c-958b-4158-a1e7-2313bfd8aa02","ios":"levelo://app?vid=d2dedc8c-958b-4158-a1e7-2313bfd8aa02"},"vehicle_type_id":"4","last_reported":1756368871,"current_range_meters":19600,"station_id":"","pricing_plan_id":"cebpf4jnsgd1na2vs0mg"},{"bike_id":"ff0ae3b5-a53a-44cd-9b82-d61a46532d12","system_id":"levelo_inurba_marseille","lat":43.310757,"lon":5.383538,"is_reserved":false,"is_disabled":false,"rental_uris":{"android":"levelo://app?vid=ff0ae3b5-a53a-44cd-9b82-d61a46532d12","ios":"levelo://app?vid=ff0ae3b5-a53a-44cd-9b82-d61a46532d12"},"vehicle_type_id":"4","last_reported":1756368871,"current_range_meters":19600,"station_id":"ce4bgv92rcd13ifvqcr0","pricing_plan_id":"cebpf4jnsgd1na2vs0mg"},{"bike_id":"dee5fc92-9d8d-42ec-97e1-996d8f5266a8","system_id":"levelo_inurba_marseille","lat":43.22934,"lon":5.35418,"is_reserved":false,"is_disabled":false,"rental_uris":{"android":"levelo://app?vid=dee5fc92-9d8d-42ec-97e1-996d8f5266a8","ios":"levelo://app?vid=dee5fc92-9d8d-42ec-97e1-996d8f5266a8"},"vehicle_type_id":"4","last_reported":1756368871,"current_range_meters":19600,"station_id":"cpo3532slgdg3j2ikp40","pricing_plan_id":"cebpf4jnsgd1na2vs0mg"},{"bike_id":"889e0047-146f-4dba-ab11-f67cc57a8b3f","system_id":"levelo_inurba_marseille","lat":43.30092,"lon":5.39096,"is_reserved":false,"is_disabled":true,"rental_uris":{"android":"levelo://app?vid=889e0047-146f-4dba-ab11-f67cc57a8b3f","ios":"levelo://app?vid=889e0047-146f-4dba-ab11-f67cc57a8b3f"},"vehicle_type_id":"4","last_reported":1756368871,"current_range_meters":19600,"station_id":"ce4bh192rcd13ifvqdb0","pricing_plan_id":"cebpf4jnsgd1na2vs0mg"},{"bike_id":"af0e337f-d4cf-4e28-9020-c2f2b620012b","system_id":"levelo_inurba_marseille","lat":43.229243,"lon":5.353745,"is_reserved":false,"is_disabled":false,"rental_uris":{"android":"levelo://app?vid=af0e337f-d4cf-4e28-9020-c2f2b620012b","ios":"levelo://app?vid=af0e337f-d4cf-4e28-9020-c2f2b620012b"},"vehicle_type_id":"4","last_reported":1756368871,"current_range_meters":19600,"station_id":"cpo3532slgdg3j2ikp40","pricing_plan_id":"cebpf4jnsgd1na2vs0mg"},{"bike_id":"60863403-b289-4c9c-b2d0-3d448abf417f","system_id":"levelo_inurba_marseille","lat":43.282775,"lon":5.350615,"is_reserved":false,"is_disabled":true,"rental_uris":{"android":"levelo://app?vid=60863403-b289-4c9c-b2d0-3d448abf417f","ios":"levelo://app?vid=60863403-b289-4c9c-b2d0-3d448abf417f"},"vehicle_type_id":"4","last_reported":1756368871,"current_range_meters":19600,"station_id":"ce4bhbp2rcd13ifvqerg","pricing_plan_id":"cebpf4jnsgd1na2vs0mg"},{"bike_id":"196169a4-3222-419a-be3c-e08cc270c692","system_id":"levelo_inurba_marseille","lat":43.29333,"lon":5.3733,"is_reserved":false,"is_disabled":false,"rental_uris":{"android":"levelo://app?vid=196169a4-3222-419a-be3c-e08cc270c692","ios":"levelo://app?vid=196169a4-3222-419a-be3c-e08cc270c692"},"vehicle_type_id":"4","last_reported":1756368871,"current_range_meters":19600,"station_id":"","pricing_plan_id":"cebpf4jnsgd1na2vs0mg"},{"bike_id":"fb17e807-1798-440a-a05f-858f5aa9e782","system_id":"levelo_inurba_marseille","lat":43.23961,"lon":5.36635,"is_reserved":false,"is_disabled":false,"rental_uris":{"android":"levelo://app?vid=fb17e807-1798-440a-a05f-858f5aa9e782","ios":"levelo://app?vid=fb17e807-1798-440a-a05f-858f5aa9e782"},"vehicle_type_id":"4","last_reported":1756368871,"current_range_meters":19600,"station_id":"ce4bhi12rcd13ifvqfp0","pricing_plan_id":"cebpf4jnsgd1na2vs0mg"},{"bike_id":"1e15f87a-b8a5-42ad-8a25-7587935ae8e0","system_id":"levelo_inurba_marseille","lat":43.3116,"lon":5.38717,"is_reserved":false,"is_disabled":false,"rental_uris":{"android":"levelo://app?vid=1e15f87a-b8a5-42ad-8a25-7587935ae8e0","ios":"levelo://app?vid=1e15f87a-b8a5-42ad-8a25-7587935ae8e0"},"vehicle_type_id":"4","last_reported":1756368871,"current_range_meters":19200,"station_id":"ce4bgv12rcd13ifvqcp0","pricing_plan_id":"cebpf4jnsgd1na2vs0mg"},{"bike_id":"d1012ec4-1fc3-4e5f-a82c-9d7d73d65c20","system_id":"levelo_inurba_marseille","lat":43.26074,"lon":5.41865,"is_reserved":false,"is_disabled":false,"rental_uris":{"android":"levelo://app?vid=d1012ec4-1fc3-4e5f-a82c-9d7d73d65c20","ios":"levelo://app?vid=d1012ec4-1fc3-4e5f-a82c-9d7d73d65c20"},"vehicle_type_id":"4","last_reported":1756368871,"current_range_meters":19600,"station_id":"","pricing_plan_id":"cebpf4jnsgd1na2vs0mg"},{"bike_id":"2be27af2-3046-497e-8c06-a87c1462f737","system_id":"levelo_inurba_marseille","lat":43.295375,"lon":5.385464,"is_reserved":false,"is_disabled":true,"rental_uris":{"android":"levelo://app?vid=2be27af2-3046-497e-8c06-a87c1462f737","ios":"levelo://app?vid=2be27af2-3046-497e-8c06-a87c1462f737"},"vehicle_type_id":"4","last_reported":1756368871,"current_range_meters":19600,"station_id":"ce4bgih2rcd13ifvqba0","pricing_plan_id":"cebpf4jnsgd1na2vs0mg"},{"bike_id":"c39ac974-08e6-47bb-9654-2bc96e43b0ed","system_id":"levelo_inurba_marseille","lat":43.30552,"lon":5.36552,"is_reserved":false,"is_disabled":false,"rental_uris":{"android":"levelo://app?vid=c39ac974-08e6-47bb-9654-2bc96e43b0ed","ios":"levelo://app?vid=c39ac974-08e6-47bb-9654-2bc96e43b0ed"},"vehicle_type_id":"4","last_reported":1756368871,"current_range_meters":20000,"station_id":"ce4bgs12rcd13ifvqcag","pricing_plan_id":"cebpf4jnsgd1na2vs0mg"},{"bike_id":"ab2b2968-2afc-4029-82d1-f9d7f0e7846c","system_id":"levelo_inurba_marseille","lat":43.292618,"lon":5.376212,"is_reserved":false,"is_disabled":false,"rental_uris":{"android":"levelo://app?vid=ab2b2968-2afc-4029-82d1-f9d7f0e7846c","ios":"levelo://app?vid=ab2b2968-2afc-4029-82d1-f9d7f0e7846c"},"vehicle_type_id":"4","last_reported":1756368871,"current_range_meters":20000,"station_id":"ce4bgi12rcd13ifvqb80","pricing_plan_id":"cebpf4jnsgd1na2vs0mg"},{"bike_id":"70ee95e9-6d75-4fa3-8d9f-fa103fe29a0a","system_id":"levelo_inurba_marseille","lat":43.29574,"lon":5.37532,"is_reserved":false,"is_disabled":false,"rental_uris":{"android":"levelo://app?vid=70ee95e9-6d75-4fa3-8d9f-fa103fe29a0a","ios":"levelo://app?vid=70ee95e9-6d75-4fa3-8d9f-fa103fe29a0a"},"vehicle_type_id":"4","last_reported":1756368871,"current_range_meters":20000,"station_id":"ce4bgh92rcd13ifvqb50","pricing_plan_id":"cebpf4jnsgd1na2vs0mg"},{"bike_id":"75bfbaf3-808c-4902-83fc-5daac8bc1a7e","system_id":"levelo_inurba_marseille","lat":43.27182,"lon":5.40994,"is_reserved":false,"is_disabled":false,"rental_uris":{"android":"levelo://app?vid=75bfbaf3-808c-4902-83fc-5daac8bc1a7e","ios":"levelo://app?vid=75bfbaf3-808c-4902-83fc-5daac8bc1a7e"},"vehicle_type_id":"4","last_reported":1756368871,"current_range_meters":20000,"station_id":"ce4bhl12rcd13ifvqgf0","pricing_plan_id":"cebpf4jnsgd1na2vs0mg"},{"bike_id":"146372f7-ead2-41a1-a90b-7685c51bf521","system_id":"levelo_inurba_marseille","lat":43.27305,"lon":5.391,"is_reserved":false,"is_disabled":false,"rental_uris":{"android":"levelo://app?vid=146372f7-ead2-41a1-a90b-7685c51bf521","ios":"levelo://app?vid=146372f7-ead2-41a1-a90b-7685c51bf521"},"vehicle_type_id":"4","last_reported":1756368871,"current_range_meters":20000,"station_id":"ce4bhgp2rcd13ifvqfe0","pricing_plan_id":"cebpf4jnsgd1na2vs0mg"},{"bike_id":"920f8f5e-91c4-40b3-9008-3cb9c1c1ffcc","system_id":"levelo_inurba_marseille","lat":43.25939,"lon":5.40901,"is_reserved":false,"is_disabled":false,"rental_uris":{"android":"levelo://app?vid=920f8f5e-91c4-40b3-9008-3cb9c1c1ffcc","ios":"levelo://app?vid=920f8f5e-91c4-40b3-9008-3cb9c1c1ffcc"},"vehicle_type_id":"4","last_reported":1756368871,"current_range_meters":20000,"station_id":"ce4bhm92rcd13ifvqglg","pricing_plan_id":"cebpf4jnsgd1na2vs0mg"},{"bike_id":"239722dc-8548-47bb-85cb-de762ab886f0","system_id":"levelo_inurba_marseille","lat":43.27506,"lon":5.42423,"is_reserved":false,"is_disabled":false,"rental_uris":{"android":"levelo://app?vid=239722dc-8548-47bb-85cb-de762ab886f0","ios":"levelo://app?vid=239722dc-8548-47bb-85cb-de762ab886f0"},"vehicle_type_id":"4","last_reported":1756368871,"current_range_meters":20000,"station_id":"ce4bhn92rcd13ifvqgrg","pricing_plan_id":"cebpf4jnsgd1na2vs0mg"},{"bike_id":"8022b2eb-d44b-41bc-9f96-2c68d3cd359b","system_id":"levelo_inurba_marseille","lat":43.321267,"lon":5.367769,"is_reserved":false,"is_disabled":false,"rental_uris":{"android":"levelo://app?vid=8022b2eb-d44b-41bc-9f96-2c68d3cd359b","ios":"levelo://app?vid=8022b2eb-d44b-41bc-9f96-2c68d3cd359b"},"vehicle_type_id":"4","last_reported":1756368871,"current_range_meters":20000,"station_id":"ce4bhrh2rcd13ifvqhug","pricing_plan_id":"cebpf4jnsgd1na2vs0mg"},{"bike_id":"b4c83a61-63eb-4c1b-aabc-26ec8a3306b8","system_id":"levelo_inurba_marseille","lat":43.31534,"lon":5.38635,"is_reserved":false,"is_disabled":false,"rental_uris":{"android":"levelo://app?vid=b4c83a61-63eb-4c1b-aabc-26ec8a3306b8","ios":"levelo://app?vid=b4c83a61-63eb-4c1b-aabc-26ec8a3306b8"},"vehicle_type_id":"4","last_reported":1756368871,"current_range_meters":20000,"station_id":"","pricing_plan_id":"cebpf4jnsgd1na2vs0mg"},{"bike_id":"e40f5409-4b52-45f4-b5af-930110b9b90e","system_id":"levelo_inurba_marseille","lat":43.2768,"lon":5.38911,"is_reserved":false,"is_disabled":false,"rental_uris":{"android":"levelo://app?vid=e40f5409-4b52-45f4-b5af-930110b9b90e","ios":"levelo://app?vid=e40f5409-4b52-45f4-b5af-930110b9b90e"},"vehicle_type_id":"4","last_reported":1756368871,"current_range_meters":20000,"station_id":"ce4bhi12rcd13ifvqfo0","pricing_plan_id":"cebpf4jnsgd1na2vs0mg"},{"bike_id":"6c6d719e-a8c1-4e2f-9b89-6e8ef872bc6a","system_id":"levelo_inurba_marseille","lat":43.273462,"lon":5.378379,"is_reserved":false,"is_disabled":false,"rental_uris":{"android":"levelo://app?vid=6c6d719e-a8c1-4e2f-9b89-6e8ef872bc6a","ios":"levelo://app?vid=6c6d719e-a8c1-4e2f-9b89-6e8ef872bc6a"},"vehicle_type_id":"4","last_reported":1756368871,"current_range_meters":20000,"station_id":"","pricing_plan_id":"cebpf4jnsgd1na2vs0mg"},{"bike_id":"6166bfd1-2ee9-4ad1-b509-7e03fe6f760b","system_id":"levelo_inurba_marseille","lat":43.31115,"lon":5.37779,"is_reserved":false,"is_disabled":false,"rental_uris":{"android":"levelo://app?vid=6166bfd1-2ee9-4ad1-b509-7e03fe6f760b","ios":"levelo://app?vid=6166bfd1-2ee9-4ad1-b509-7e03fe6f760b"},"vehicle_type_id":"4","last_reported":1756368871,"current_range_meters":20400,"station_id":"ce4bgt92rcd13ifvqcg0","pricing_plan_id":"cebpf4jnsgd1na2vs0mg"},{"bike_id":"17d77af6-ff93-4b22-8d79-af3d76498e5a","system_id":"levelo_inurba_marseille","lat":43.299755,"lon":5.384965,"is_reserved":false,"is_disabled":false,"rental_uris":{"android":"levelo://app?vid=17d77af6-ff93-4b22-8d79-af3d76498e5a","ios":"levelo://app?vid=17d77af6-ff93-4b22-8d79-af3d76498e5a"},"vehicle_type_id":"4","last_reported":1756368871,"current_range_meters":20400,"station_id":"ce4bgj92rcd13ifvqbd0","pricing_plan_id":"cebpf4jnsgd1na2vs0mg"},{"bike_id":"ed6a97a2-a6f5-443d-bb22-755089f92ab4","system_id":"levelo_inurba_marseille","lat":43.2418,"lon":5.3972,"is_reserved":false,"is_disabled":false,"rental_uris":{"android":"levelo://app?vid=ed6a97a2-a6f5-443d-bb22-755089f92ab4","ios":"levelo://app?vid=ed6a97a2-a6f5-443d-bb22-755089f92ab4"},"vehicle_type_id":"4","last_reported":1756368871,"current_range_meters":20400,"station_id":"ce4bhn12rcd13ifvqgpg","pricing_plan_id":"cebpf4jnsgd1na2vs0mg"},{"bike_id":"6a94b1ef-1fb1-43a6-86ca-2902b439e43d","system_id":"levelo_inurba_marseille","lat":43.25005,"lon":5.38925,"is_reserved":false,"is_disabled":false,"rental_uris":{"android":"levelo://app?vid=6a94b1ef-1fb1-43a6-86ca-2902b439e43d","ios":"levelo://app?vid=6a94b1ef-1fb1-43a6-86ca-2902b439e43d"},"vehicle_type_id":"4","last_reported":1756368871,"current_range_meters":20400,"station_id":"ce4bhgp2rcd13ifvqfd0","pricing_plan_id":"cebpf4jnsgd1na2vs0mg"},{"bike_id":"9d5177d6-990c-4b4a-aebb-c7a849eabd30","system_id":"levelo_inurba_marseille","lat":43.29774,"lon":5.37106,"is_reserved":false,"is_disabled":false,"rental_uris":{"android":"levelo://app?vid=9d5177d6-990c-4b4a-aebb-c7a849eabd30","ios":"levelo://app?vid=9d5177d6-990c-4b4a-aebb-c7a849eabd30"},"vehicle_type_id":"4","last_reported":1756368871,"current_range_meters":20400,"station_id":"ce4bgop2rcd13ifvqc1g","pricing_plan_id":"cebpf4jnsgd1na2vs0mg"},{"bike_id":"9d41e12c-336f-451f-a9c2-86ffa989700a","system_id":"levelo_inurba_marseille","lat":43.29676,"lon":5.37292,"is_reserved":false,"is_disabled":false,"rental_uris":{"android":"levelo://app?vid=9d41e12c-336f-451f-a9c2-86ffa989700a","ios":"levelo://app?vid=9d41e12c-336f-451f-a9c2-86ffa989700a"},"vehicle_type_id":"4","last_reported":1756368871,"current_range_meters":20400,"station_id":"ce4bgk12rcd13ifvqbj0","pricing_plan_id":"cebpf4jnsgd1na2vs0mg"},{"bike_id":"e8b17e8c-afe7-439e-b450-e655398d2ea8","system_id":"levelo_inurba_marseille","lat":43.23187,"lon":5.39979,"is_reserved":false,"is_disabled":false,"rental_uris":{"android":"levelo://app?vid=e8b17e8c-afe7-439e-b450-e655398d2ea8","ios":"levelo://app?vid=e8b17e8c-afe7-439e-b450-e655398d2ea8"},"vehicle_type_id":"4","last_reported":1756368871,"current_range_meters":20800,"station_id":"ce4bhn12rcd13ifvqgqg","pricing_plan_id":"cebpf4jnsgd1na2vs0mg"},{"bike_id":"3235a8e4-0285-41ed-a073-4267b3ce62ac","system_id":"levelo_inurba_marseille","lat":43.27092,"lon":5.42301,"is_reserved":false,"is_disabled":false,"rental_uris":{"android":"levelo://app?vid=3235a8e4-0285-41ed-a073-4267b3ce62ac","ios":"levelo://app?vid=3235a8e4-0285-41ed-a073-4267b3ce62ac"},"vehicle_type_id":"4","last_reported":1756368871,"current_range_meters":20800,"station_id":"ce4bhk92rcd13ifvqgb0","pricing_plan_id":"cebpf4jnsgd1na2vs0mg"},{"bike_id":"14e9d4c7-01c3-4b38-b7c7-ed26c195c9cc","system_id":"levelo_inurba_marseille","lat":43.337444,"lon":5.374475,"is_reserved":false,"is_disabled":false,"rental_uris":{"android":"levelo://app?vid=14e9d4c7-01c3-4b38-b7c7-ed26c195c9cc","ios":"levelo://app?vid=14e9d4c7-01c3-4b38-b7c7-ed26c195c9cc"},"vehicle_type_id":"4","last_reported":1756368871,"current_range_meters":20800,"station_id":"","pricing_plan_id":"cebpf4jnsgd1na2vs0mg"},{"bike_id":"0dc90051-531d-4e98-b2aa-6d52d5c51921","system_id":"levelo_inurba_marseille","lat":43.26683,"lon":5.38271,"is_reserved":false,"is_disabled":false,"rental_uris":{"android":"levelo://app?vid=0dc90051-531d-4e98-b2aa-6d52d5c51921","ios":"levelo://app?vid=0dc90051-531d-4e98-b2aa-6d52d5c51921"},"vehicle_type_id":"4","last_reported":1756368871,"current_range_meters":20800,"station_id":"ce4bhg92rcd13ifvqf90","pricing_plan_id":"cebpf4jnsgd1na2vs0mg"},{"bike_id":"f6c3998f-e3c0-4ae3-93b3-c87b12b8b84b","system_id":"levelo_inurba_marseille","lat":43.30948,"lon":5.39045,"is_reserved":false,"is_disabled":false,"rental_uris":{"android":"levelo://app?vid=f6c3998f-e3c0-4ae3-93b3-c87b12b8b84b","ios":"levelo://app?vid=f6c3998f-e3c0-4ae3-93b3-c87b12b8b84b"},"vehicle_type_id":"4","last_reported":1756368871,"current_range_meters":20800,"station_id":"ce4bgup2rcd13ifvqco0","pricing_plan_id":"cebpf4jnsgd1na2vs0mg"},{"bike_id":"3dd23926-ae78-488e-8f33-e0fe0712154d","system_id":"levelo_inurba_marseille","lat":43.31211,"lon":5.37773,"is_reserved":false,"is_disabled":false,"rental_uris":{"android":"levelo://app?vid=3dd23926-ae78-488e-8f33-e0fe0712154d","ios":"levelo://app?vid=3dd23926-ae78-488e-8f33-e0fe0712154d"},"vehicle_type_id":"4","last_reported":1756368871,"current_range_meters":20800,"station_id":"","pricing_plan_id":"cebpf4jnsgd1na2vs0mg"},{"bike_id":"2f705b61-5428-4e70-90a0-bdd3ba54f0c5","system_id":"levelo_inurba_marseille","lat":43.31059,"lon":5.38344,"is_reserved":false,"is_disabled":false,"rental_uris":{"android":"levelo://app?vid=2f705b61-5428-4e70-90a0-bdd3ba54f0c5","ios":"levelo://app?vid=2f705b61-5428-4e70-90a0-bdd3ba54f0c5"},"vehicle_type_id":"4","last_reported":1756368871,"current_range_meters":20800,"station_id":"ce4bgv92rcd13ifvqcr0","pricing_plan_id":"cebpf4jnsgd1na2vs0mg"},{"bike_id":"434f43a7-415f-4cef-887c-f88b22bba9e9","system_id":"levelo_inurba_marseille","lat":43.30105,"lon":5.37429,"is_reserved":false,"is_disabled":false,"rental_uris":{"android":"levelo://app?vid=434f43a7-415f-4cef-887c-f88b22bba9e9","ios":"levelo://app?vid=434f43a7-415f-4cef-887c-f88b22bba9e9"},"vehicle_type_id":"4","last_reported":1756368871,"current_range_meters":20800,"station_id":"ce4bgs92rcd13ifvqcc0","pricing_plan_id":"cebpf4jnsgd1na2vs0mg"},{"bike_id":"e66b3941-edc1-47d2-a508-6af05bed5109","system_id":"levelo_inurba_marseille","lat":43.22507,"lon":5.34785,"is_reserved":false,"is_disabled":false,"rental_uris":{"android":"levelo://app?vid=e66b3941-edc1-47d2-a508-6af05bed5109","ios":"levelo://app?vid=e66b3941-edc1-47d2-a508-6af05bed5109"},"vehicle_type_id":"4","last_reported":1756368871,"current_range_meters":20800,"station_id":"st_cvj5dfep6f1abm77gieg","pricing_plan_id":"cebpf4jnsgd1na2vs0mg"},{"bike_id":"9a5a85b8-3b9b-4543-b26c-341f6a715fbc","system_id":"levelo_inurba_marseille","lat":43.24171,"lon":5.39726,"is_reserved":false,"is_disabled":false,"rental_uris":{"android":"levelo://app?vid=9a5a85b8-3b9b-4543-b26c-341f6a715fbc","ios":"levelo://app?vid=9a5a85b8-3b9b-4543-b26c-341f6a715fbc"},"vehicle_type_id":"4","last_reported":1756368871,"current_range_meters":21600,"station_id":"ce4bhn12rcd13ifvqgpg","pricing_plan_id":"cebpf4jnsgd1na2vs0mg"},{"bike_id":"a7444a99-b32a-4120-b262-e1b2876e2957","system_id":"levelo_inurba_marseille","lat":43.25929,"lon":5.40897,"is_reserved":false,"is_disabled":false,"rental_uris":{"android":"levelo://app?vid=a7444a99-b32a-4120-b262-e1b2876e2957","ios":"levelo://app?vid=a7444a99-b32a-4120-b262-e1b2876e2957"},"vehicle_type_id":"4","last_reported":1756368871,"current_range_meters":21600,"station_id":"ce4bhm92rcd13ifvqglg","pricing_plan_id":"cebpf4jnsgd1na2vs0mg"},{"bike_id":"f16bb255-8d8d-4204-b966-3dc429c3048c","system_id":"levelo_inurba_marseille","lat":43.303106,"lon":5.368919,"is_reserved":false,"is_disabled":false,"rental_uris":{"android":"levelo://app?vid=f16bb255-8d8d-4204-b966-3dc429c3048c","ios":"levelo://app?vid=f16bb255-8d8d-4204-b966-3dc429c3048c"},"vehicle_type_id":"4","last_reported":1756368871,"current_range_meters":20800,"station_id":"ce4bgqh2rcd13ifvqc5g","pricing_plan_id":"cebpf4jnsgd1na2vs0mg"},{"bike_id":"a5bb0447-fdbf-4ac4-93ae-2df89850a2de","system_id":"levelo_inurba_marseille","lat":43.254958,"lon":5.376475,"is_reserved":false,"is_disabled":false,"rental_uris":{"android":"levelo://app?vid=a5bb0447-fdbf-4ac4-93ae-2df89850a2de","ios":"levelo://app?vid=a5bb0447-fdbf-4ac4-93ae-2df89850a2de"},"vehicle_type_id":"4","last_reported":1756368871,"current_range_meters":21600,"station_id":"ce4bhh12rcd13ifvqff0","pricing_plan_id":"cebpf4jnsgd1na2vs0mg"},{"bike_id":"6e929710-d9d9-41ef-ba0a-5e7e675427fc","system_id":"levelo_inurba_marseille","lat":43.29176,"lon":5.37156,"is_reserved":false,"is_disabled":false,"rental_uris":{"android":"levelo://app?vid=6e929710-d9d9-41ef-ba0a-5e7e675427fc","ios":"levelo://app?vid=6e929710-d9d9-41ef-ba0a-5e7e675427fc"},"vehicle_type_id":"4","last_reported":1756368871,"current_range_meters":21600,"station_id":"ce4bha92rcd13ifvqeh0","pricing_plan_id":"cebpf4jnsgd1na2vs0mg"},{"bike_id":"455c5dbc-2320-459c-b724-a7bb5efbfea7","system_id":"levelo_inurba_marseille","lat":43.297024,"lon":5.376953,"is_reserved":false,"is_disabled":true,"rental_uris":{"android":"levelo://app?vid=455c5dbc-2320-459c-b724-a7bb5efbfea7","ios":"levelo://app?vid=455c5dbc-2320-459c-b724-a7bb5efbfea7"},"vehicle_type_id":"4","last_reported":1756368871,"current_range_meters":21600,"station_id":"ce4bgkh2rcd13ifvqbl0","pricing_plan_id":"cebpf4jnsgd1na2vs0mg"},{"bike_id":"c6160afb-f918-4c58-bbf0-69011aaed5e0","system_id":"levelo_inurba_marseille","lat":43.30545,"lon":5.36677,"is_reserved":false,"is_disabled":true,"rental_uris":{"android":"levelo://app?vid=c6160afb-f918-4c58-bbf0-69011aaed5e0","ios":"levelo://app?vid=c6160afb-f918-4c58-bbf0-69011aaed5e0"},"vehicle_type_id":"4","last_reported":1756368871,"current_range_meters":21600,"station_id":"ce4bgrp2rcd13ifvqc9g","pricing_plan_id":"cebpf4jnsgd1na2vs0mg"},{"bike_id":"81b3623d-2ea5-4b33-a021-deeadb2d8941","system_id":"levelo_inurba_marseille","lat":43.31202,"lon":5.36836,"is_reserved":false,"is_disabled":false,"rental_uris":{"android":"levelo://app?vid=81b3623d-2ea5-4b33-a021-deeadb2d8941","ios":"levelo://app?vid=81b3623d-2ea5-4b33-a021-deeadb2d8941"},"vehicle_type_id":"4","last_reported":1756368871,"current_range_meters":22000,"station_id":"ce4bgl92rcd13ifvqbq0","pricing_plan_id":"cebpf4jnsgd1na2vs0mg"},{"bike_id":"06254881-c02e-4e4b-9efd-401582a02a2d","system_id":"levelo_inurba_marseille","lat":43.28816,"lon":5.39326,"is_reserved":false,"is_disabled":false,"rental_uris":{"android":"levelo://app?vid=06254881-c02e-4e4b-9efd-401582a02a2d","ios":"levelo://app?vid=06254881-c02e-4e4b-9efd-401582a02a2d"},"vehicle_type_id":"4","last_reported":1756368871,"current_range_meters":22000,"station_id":"ce4bh2p2rcd13ifvqdi0","pricing_plan_id":"cebpf4jnsgd1na2vs0mg"},{"bike_id":"bb9413dc-5be1-475b-ab3b-a291a09e61bb","system_id":"levelo_inurba_marseille","lat":43.25002,"lon":5.38926,"is_reserved":false,"is_disabled":false,"rental_uris":{"android":"levelo://app?vid=bb9413dc-5be1-475b-ab3b-a291a09e61bb","ios":"levelo://app?vid=bb9413dc-5be1-475b-ab3b-a291a09e61bb"},"vehicle_type_id":"4","last_reported":1756368871,"current_range_meters":22000,"station_id":"ce4bhgp2rcd13ifvqfd0","pricing_plan_id":"cebpf4jnsgd1na2vs0mg"},{"bike_id":"22c98fd6-ef88-424f-b0be-d6c62665765f","system_id":"levelo_inurba_marseille","lat":43.248119,"lon":5.374588,"is_reserved":false,"is_disabled":true,"rental_uris":{"android":"levelo://app?vid=22c98fd6-ef88-424f-b0be-d6c62665765f","ios":"levelo://app?vid=22c98fd6-ef88-424f-b0be-d6c62665765f"},"vehicle_type_id":"4","last_reported":1756368871,"current_range_meters":22000,"station_id":"ce4bhgh2rcd13ifvqfb0","pricing_plan_id":"cebpf4jnsgd1na2vs0mg"},{"bike_id":"9a3f96f6-81eb-4032-8ed0-b7359ee25fe2","system_id":"levelo_inurba_marseille","lat":43.25907,"lon":5.40903,"is_reserved":false,"is_disabled":false,"rental_uris":{"android":"levelo://app?vid=9a3f96f6-81eb-4032-8ed0-b7359ee25fe2","ios":"levelo://app?vid=9a3f96f6-81eb-4032-8ed0-b7359ee25fe2"},"vehicle_type_id":"4","last_reported":1756368871,"current_range_meters":22000,"station_id":"ce4bhm92rcd13ifvqglg","pricing_plan_id":"cebpf4jnsgd1na2vs0mg"},{"bike_id":"1ea36c88-f9d7-4a45-bfa9-679b3263a733","system_id":"levelo_inurba_marseille","lat":43.24057,"lon":5.37786,"is_reserved":false,"is_disabled":false,"rental_uris":{"android":"levelo://app?vid=1ea36c88-f9d7-4a45-bfa9-679b3263a733","ios":"levelo://app?vid=1ea36c88-f9d7-4a45-bfa9-679b3263a733"},"vehicle_type_id":"4","last_reported":1756368871,"current_range_meters":22000,"station_id":"ce4bhnp2rcd13ifvqgvg","pricing_plan_id":"cebpf4jnsgd1na2vs0mg"},{"bike_id":"6e39c12e-0f12-405f-bed8-2564035beff4","system_id":"levelo_inurba_marseille","lat":43.29843,"lon":5.36285,"is_reserved":false,"is_disabled":false,"rental_uris":{"android":"levelo://app?vid=6e39c12e-0f12-405f-bed8-2564035beff4","ios":"levelo://app?vid=6e39c12e-0f12-405f-bed8-2564035beff4"},"vehicle_type_id":"4","last_reported":1756368871,"current_range_meters":22000,"station_id":"ce4bgpp2rcd13ifvqc3g","pricing_plan_id":"cebpf4jnsgd1na2vs0mg"},{"bike_id":"76b26d27-e5ee-48d4-982a-1ef811be8480","system_id":"levelo_inurba_marseille","lat":43.2987,"lon":5.3891,"is_reserved":false,"is_disabled":false,"rental_uris":{"android":"levelo://app?vid=76b26d27-e5ee-48d4-982a-1ef811be8480","ios":"levelo://app?vid=76b26d27-e5ee-48d4-982a-1ef811be8480"},"vehicle_type_id":"4","last_reported":1756368871,"current_range_meters":21600,"station_id":"ce4bh392rcd13ifvqdl0","pricing_plan_id":"cebpf4jnsgd1na2vs0mg"},{"bike_id":"48beb283-70d8-45c8-b0d3-a94e41a0daf0","system_id":"levelo_inurba_marseille","lat":43.24392,"lon":5.37085,"is_reserved":false,"is_disabled":false,"rental_uris":{"android":"levelo://app?vid=48beb283-70d8-45c8-b0d3-a94e41a0daf0","ios":"levelo://app?vid=48beb283-70d8-45c8-b0d3-a94e41a0daf0"},"vehicle_type_id":"4","last_reported":1756368871,"current_range_meters":22000,"station_id":"ce4bhhh2rcd13ifvqfk0","pricing_plan_id":"cebpf4jnsgd1na2vs0mg"},{"bike_id":"be56a579-3870-4545-85bd-dad43950a1f0","system_id":"levelo_inurba_marseille","lat":43.28136,"lon":5.42649,"is_reserved":false,"is_disabled":false,"rental_uris":{"android":"levelo://app?vid=be56a579-3870-4545-85bd-dad43950a1f0","ios":"levelo://app?vid=be56a579-3870-4545-85bd-dad43950a1f0"},"vehicle_type_id":"4","last_reported":1756368871,"current_range_meters":22000,"station_id":"ce4bhnh2rcd13ifvqgug","pricing_plan_id":"cebpf4jnsgd1na2vs0mg"},{"bike_id":"b9c6faf7-7a8d-432d-9456-0e2454eccdaa","system_id":"levelo_inurba_marseille","lat":43.299154,"lon":5.381492,"is_reserved":false,"is_disabled":false,"rental_uris":{"android":"levelo://app?vid=b9c6faf7-7a8d-432d-9456-0e2454eccdaa","ios":"levelo://app?vid=b9c6faf7-7a8d-432d-9456-0e2454eccdaa"},"vehicle_type_id":"4","last_reported":1756368871,"current_range_meters":22000,"station_id":"","pricing_plan_id":"cebpf4jnsgd1na2vs0mg"},{"bike_id":"f5f2ca21-5d95-4289-978c-eadf93ad3706","system_id":"levelo_inurba_marseille","lat":43.23137,"lon":5.43728,"is_reserved":false,"is_disabled":false,"rental_uris":{"android":"levelo://app?vid=f5f2ca21-5d95-4289-978c-eadf93ad3706","ios":"levelo://app?vid=f5f2ca21-5d95-4289-978c-eadf93ad3706"},"vehicle_type_id":"4","last_reported":1756368871,"current_range_meters":22000,"station_id":"ce4bhmp2rcd13ifvqgog","pricing_plan_id":"cebpf4jnsgd1na2vs0mg"},{"bike_id":"245d1abf-943f-4f94-8863-f2f21bf33af4","system_id":"levelo_inurba_marseille","lat":43.2836,"lon":5.38638,"is_reserved":false,"is_disabled":false,"rental_uris":{"android":"levelo://app?vid=245d1abf-943f-4f94-8863-f2f21bf33af4","ios":"levelo://app?vid=245d1abf-943f-4f94-8863-f2f21bf33af4"},"vehicle_type_id":"4","last_reported":1756368871,"current_range_meters":22400,"station_id":"ce4bh492rcd13ifvqdvg","pricing_plan_id":"cebpf4jnsgd1na2vs0mg"},{"bike_id":"dc2ca3d7-cdd5-4ca0-899c-1ab2eaaa7f3c","system_id":"levelo_inurba_marseille","lat":43.28855,"lon":5.39327,"is_reserved":false,"is_disabled":false,"rental_uris":{"android":"levelo://app?vid=dc2ca3d7-cdd5-4ca0-899c-1ab2eaaa7f3c","ios":"levelo://app?vid=dc2ca3d7-cdd5-4ca0-899c-1ab2eaaa7f3c"},"vehicle_type_id":"4","last_reported":1756368871,"current_range_meters":22400,"station_id":"ce4bh2p2rcd13ifvqdi0","pricing_plan_id":"cebpf4jnsgd1na2vs0mg"},{"bike_id":"f5ac801c-ad52-40fb-931f-835d23e32e01","system_id":"levelo_inurba_marseille","lat":43.28719,"lon":5.40001,"is_reserved":false,"is_disabled":false,"rental_uris":{"android":"levelo://app?vid=f5ac801c-ad52-40fb-931f-835d23e32e01","ios":"levelo://app?vid=f5ac801c-ad52-40fb-931f-835d23e32e01"},"vehicle_type_id":"4","last_reported":1756368871,"current_range_meters":22400,"station_id":"ce4bho92rcd13ifvqh3g","pricing_plan_id":"cebpf4jnsgd1na2vs0mg"},{"bike_id":"b717dbb4-ce63-4dcf-a79d-ed37be1de38b","system_id":"levelo_inurba_marseille","lat":43.24647,"lon":5.38905,"is_reserved":false,"is_disabled":false,"rental_uris":{"android":"levelo://app?vid=b717dbb4-ce63-4dcf-a79d-ed37be1de38b","ios":"levelo://app?vid=b717dbb4-ce63-4dcf-a79d-ed37be1de38b"},"vehicle_type_id":"4","last_reported":1756368871,"current_range_meters":22400,"station_id":"ce4bhg12rcd13ifvqf60","pricing_plan_id":"cebpf4jnsgd1na2vs0mg"},{"bike_id":"9deb44e6-62dd-4dce-a7e2-049fa599d57e","system_id":"levelo_inurba_marseille","lat":43.2418,"lon":5.39715,"is_reserved":false,"is_disabled":false,"rental_uris":{"android":"levelo://app?vid=9deb44e6-62dd-4dce-a7e2-049fa599d57e","ios":"levelo://app?vid=9deb44e6-62dd-4dce-a7e2-049fa599d57e"},"vehicle_type_id":"4","last_reported":1756368871,"current_range_meters":22400,"station_id":"ce4bhn12rcd13ifvqgpg","pricing_plan_id":"cebpf4jnsgd1na2vs0mg"},{"bike_id":"070848c5-3ae3-418d-ab2b-3c2af769def4","system_id":"levelo_inurba_marseille","lat":43.25912,"lon":5.40857,"is_reserved":false,"is_disabled":false,"rental_uris":{"android":"levelo://app?vid=070848c5-3ae3-418d-ab2b-3c2af769def4","ios":"levelo://app?vid=070848c5-3ae3-418d-ab2b-3c2af769def4"},"vehicle_type_id":"4","last_reported":1756368871,"current_range_meters":22400,"station_id":"ce4bhm92rcd13ifvqglg","pricing_plan_id":"cebpf4jnsgd1na2vs0mg"},{"bike_id":"490b735b-7cb9-4477-9593-a8ba41f79d7e","system_id":"levelo_inurba_marseille","lat":43.3246,"lon":5.36604,"is_reserved":false,"is_disabled":false,"rental_uris":{"android":"levelo://app?vid=490b735b-7cb9-4477-9593-a8ba41f79d7e","ios":"levelo://app?vid=490b735b-7cb9-4477-9593-a8ba41f79d7e"},"vehicle_type_id":"4","last_reported":1756368871,"current_range_meters":22000,"station_id":"ce4bhs12rcd13ifvqhvg","pricing_plan_id":"cebpf4jnsgd1na2vs0mg"},