{"last_updated":1748715171,"ttl":60,"version":"2.2","data":{"bikes":[{"bike_id":"6be3e41c-53eb-4ba2-a67b-8e259396f587","system_id":"levelo_inurba_marseille","lat":43.30377,"lon":5.42486,"is_reserved":false,"is_disabled":false,"rental_uris":{"android":"levelo://app?vid=6be3e41c-53eb-4ba2-a67b-8e259396f587","ios":"levelo://app?vid=6be3e41c-53eb-4ba2-a67b-8e259396f587"},"vehicle_type_id":"4","last_reported":1748715171,"current_range_meters":3200,"station_id":"ce4bhoh2rcd13ifvqh6g","pricing_plan_id":"cebpf4jnsgd1na2vs0mg"},{"bike_id":"232dd6ad-7044-4536-9de4-72c60501c15f","system_id":"levelo_inurba_marseille","lat":43.27959,"lon":5.38707,"is_reserved":false,"is_disabled":false,"rental_uris":{"android":"levelo://app?vid=232dd6ad-7044-4536-9de4-72c60501c15f","ios":"levelo://app?vid=232dd6ad-7044-4536-9de4-72c60501c15f"},"vehicle_type_id":"4","last_reported":1748715171,"current_range_meters":3200,"station_id":"ce4bhg12rcd13ifvqf80","pricing_plan_id":"cebpf4jnsgd1na2vs0mg"},{"bike_id":"5de73391-e43e-4fef-ae0b-8197a58d19d3","system_id":"levelo_inurba_marseille","lat":43.27918,"lon":5.39581,"is_reserved":false,"is_disabled":false,"rental_uris":{"android":"levelo://app?vid=5de73391-e43e-4fef-ae0b-8197a58d19d3","ios":"levelo://app?vid=5de73391-e43e-4fef-ae0b-8197a58d19d3"},"vehicle_type_id":"4","last_reported":1748715171,"current_range_meters":3200,"station_id":"ce4bhf92rcd13ifvqf40","pricing_plan_id":"cebpf4jnsgd1na2vs0mg"},{"bike_id":"4ae6234d-44c7-4d7a-b1e5-4ba39b9080b6","system_id":"levelo_inurba_marseille","lat":43.29614,"lon":5.37734,"is_reserved":false,"is_disabled":false,"rental_uris":{"android":"levelo://app?vid=4ae6234d-44c7-4d7a-b1e5-4ba39b9080b6","ios":"levelo://app?vid=4ae6234d-44c7-4d7a-b1e5-4ba39b9080b6"},"vehicle_type_id":"4","last_reported":1748715171,"current_range_meters":3200,"station_id":"ce4bgi92rcd13ifvqb90","pricing_plan_id":"cebpf4jnsgd1na2vs0mg"},{"bike_id":"cac2846a-3a13-4e64-9615-8331c522d7d9","system_id":"levelo_inurba_marseille","lat":43.3175,"lon":5.39,"is_reserved":false,"is_disabled":false,"rental_uris":{"android":"levelo://app?vid=cac2846a-3a13-4e64-9615-8331c522d7d9","ios":"levelo://app?vid=cac2846a-3a13-4e64-9615-8331c522d7d9"},"vehicle_type_id":"4","last_reported":1748715171,"current_range_meters":3200,"station_id":"ce4bhqp2rcd13ifvqhng","pricing_plan_id":"cebpf4jnsgd1na2vs0mg"},{"bike_id":"99eaaf97-a48f-47e9-b51a-cad336c4fed8","system_id":"levelo_inurba_marseille","lat":43.29297,"lon":5.37471,"is_reserved":false,"is_disabled":false,"rental_uris":{"android":"levelo://app?vid=99eaaf97-a48f-47e9-b51a-cad336c4fed8","ios":"levelo://app?vid=99eaaf97-a48f-47e9-b51a-cad336c4fed8"},"vehicle_type_id":"4","last_reported":1748715171,"current_range_meters":3600,"station_id":"ce4bgi12rcd13ifvqb70","pricing_plan_id":"cebpf4jnsgd1na2vs0mg"},{"bike_id":"6998737e-ae10-4639-b03a-d643d681b31d","system_id":"levelo_inurba_marseille","lat":43.30428,"lon":5.38892,"is_reserved":false,"is_disabled":false,"rental_uris":{"android":"levelo://app?vid=6998737e-ae10-4639-b03a-d643d681b31d","ios":"levelo://app?vid=6998737e-ae10-4639-b03a-d643d681b31d"},"vehicle_type_id":"4","last_reported":1748715171,"current_range_meters":3600,"station_id":"ce4bgk12rcd13ifvqbi0","pricing_plan_id":"cebpf4jnsgd1na2vs0mg"},{"bike_id":"d28aeaad-f5f2-4c4f-a0cd-6b7231965959","system_id":"levelo_inurba_marseille","lat":43.33016,"lon":5.39093,"is_reserved":false,"is_disabled":false,"rental_uris":{"android":"levelo://app?vid=d28aeaad-f5f2-4c4f-a0cd-6b7231965959","ios":"levelo://app?vid=d28aeaad-f5f2-4c4f-a0cd-6b7231965959"},"vehicle_type_id":"4","last_reported":1748715171,"current_range_meters":3600,"station_id":"ce4bhr92rcd13ifvqhrg","pricing_plan_id":"cebpf4jnsgd1na2vs0mg"},{"bike_id":"ac7fb481-3aba-4370-8b99-498f11df0a9c","system_id":"levelo_inurba_marseille","lat":43.29649,"lon":5.40614,"is_reserved":false,"is_disabled":false,"rental_uris":{"android":"levelo://app?vid=ac7fb481-3aba-4370-8b99-498f11df0a9c","ios":"levelo://app?vid=ac7fb481-3aba-4370-8b99-498f11df0a9c"},"vehicle_type_id":"4","last_reported":1748715171,"current_range_meters":3600,"station_id":"ce4bh0h2rcd13ifvqd60","pricing_plan_id":"cebpf4jnsgd1na2vs0mg"},{"bike_id":"1b7c5798-dada-4cc4-8b91-eb6b795174ce","system_id":"levelo_inurba_marseille","lat":43.29708,"lon":5.37699,"is_reserved":false,"is_disabled":false,"rental_uris":{"android":"levelo://app?vid=1b7c5798-dada-4cc4-8b91-eb6b795174ce","ios":"levelo://app?vid=1b7c5798-dada-4cc4-8b91-eb6b795174ce"},"vehicle_type_id":"4","last_reported":1748715171,"current_range_meters":3600,"station_id":"ce4bgkh2rcd13ifvqbl0","pricing_plan_id":"cebpf4jnsgd1na2vs0mg"},{"bike_id":"336cfe56-da29-4b8a-ae79-8f648aa0a9e5","system_id":"levelo_inurba_marseille","lat":43.30942,"lon":5.39051,"is_reserved":false,"is_disabled":false,"rental_uris":{"android":"levelo://app?vid=336cfe56-da29-4b8a-ae79-8f648aa0a9e5","ios":"levelo://app?vid=336cfe56-da29-4b8a-ae79-8f648aa0a9e5"},"vehicle_type_id":"4","last_reported":1748715171,"current_range_meters":3600,"station_id":"ce4bgup2rcd13ifvqco0","pricing_plan_id":"cebpf4jnsgd1na2vs0mg"},{"bike_id":"d3f3a0b6-5c84-491d-94db-4e192165f8cf","system_id":"levelo_inurba_marseille","lat":43.29034,"lon":5.37561,"is_reserved":false,"is_disabled":false,"rental_uris":{"android":"levelo://app?vid=d3f3a0b6-5c84-491d-94db-4e192165f8cf","ios":"levelo://app?vid=d3f3a0b6-5c84-491d-94db-4e192165f8cf"},"vehicle_type_id":"4","last_reported":1748715171,"current_range_meters":3200,"station_id":"ce4bh692rcd13ifvqe90","pricing_plan_id":"cebpf4jnsgd1na2vs0mg"},{"bike_id":"0124daaf-983d-4db1-a25d-60e2257d9a9e","system_id":"levelo_inurba_marseille","lat":43.29713,"lon":5.3661,"is_reserved":false,"is_disabled":false,"rental_uris":{"android":"levelo://app?vid=0124daaf-983d-4db1-a25d-60e2257d9a9e","ios":"levelo://app?vid=0124daaf-983d-4db1-a25d-60e2257d9a9e"},"vehicle_type_id":"4","last_reported":1748715171,"current_range_meters":4000,"station_id":"ce4bgn12rcd13ifvqbt0","pricing_plan_id":"cebpf4jnsgd1na2vs0mg"},{"bike_id":"a4591b40-fb41-4530-9b2b-05155ad227b5","system_id":"levelo_inurba_marseille","lat":43.31325,"lon":5.39699,"is_reserved":false,"is_disabled":false,"rental_uris":{"android":"levelo://app?vid=a4591b40-fb41-4530-9b2b-05155ad227b5","ios":"levelo://app?vid=a4591b40-fb41-4530-9b2b-05155ad227b5"},"vehicle_type_id":"4","last_reported":1748715171,"current_range_meters":4000,"station_id":"ce4bgvp2rcd13ifvqcu0","pricing_plan_id":"cebpf4jnsgd1na2vs0mg"},{"bike_id":"7c6957e6-47b7-43d7-9cbe-71db01fe4d5a","system_id":"levelo_inurba_marseille","lat":43.2989,"lon":5.3889,"is_reserved":false,"is_disabled":false,"rental_uris":{"android":"levelo://app?vid=7c6957e6-47b7-43d7-9cbe-71db01fe4d5a","ios":"levelo://app?vid=7c6957e6-47b7-43d7-9cbe-71db01fe4d5a"},"vehicle_type_id":"4","last_reported":1748715171,"current_range_meters":3600,"station_id":"ce4bh392rcd13ifvqdl0","pricing_plan_id":"cebpf4jnsgd1na2vs0mg"},{"bike_id":"df6b3170-cf59-465f-a411-0a5ce0543ede","system_id":"levelo_inurba_marseille","lat":43.31099,"lon":5.43835,"is_reserved":false,"is_disabled":false,"rental_uris":{"android":"levelo://app?vid=df6b3170-cf59-465f-a411-0a5ce0543ede","ios":"levelo://app?vid=df6b3170-cf59-465f-a411-0a5ce0543ede"},"vehicle_type_id":"4","last_reported":1748715171,"current_range_meters":4000,"station_id":"","pricing_plan_id":"cebpf4jnsgd1na2vs0mg"},{"bike_id":"6e732bca-9e80-4539-8286-d1b6800f59b4","system_id":"levelo_inurba_marseille","lat":43.30951,"lon":5.39034,"is_reserved":false,"is_disabled":false,"rental_uris":{"android":"levelo://app?vid=6e732bca-9e80-4539-8286-d1b6800f59b4","ios":"levelo://app?vid=6e732bca-9e80-4539-8286-d1b6800f59b4"},"vehicle_type_id":"4","last_reported":1748715171,"current_range_meters":7200,"station_id":"ce4bgup2rcd13ifvqco0","pricing_plan_id":"cebpf4jnsgd1na2vs0mg"},{"bike_id":"4ea9999a-521a-421b-8382-43785c8666dd","system_id":"levelo_inurba_marseille","lat":43.265714,"lon":5.403211,"is_reserved":false,"is_disabled":false,"rental_uris":{"android":"levelo://app?vid=4ea9999a-521a-421b-8382-43785c8666dd","ios":"levelo://app?vid=4ea9999a-521a-421b-8382-43785c8666dd"},"vehicle_type_id":"4","last_reported":1748715171,"current_range_meters":4400,"station_id":"","pricing_plan_id":"cebpf4jnsgd1na2vs0mg"},{"bike_id":"f80006c7-2f10-4ba5-bb7c-2b0507fde45f","system_id":"levelo_inurba_marseille","lat":43.23111,"lon":5.35477,"is_reserved":false,"is_disabled":false,"rental_uris":{"android":"levelo://app?vid=f80006c7-2f10-4ba5-bb7c-2b0507fde45f","ios":"levelo://app?vid=f80006c7-2f10-4ba5-bb7c-2b0507fde45f"},"vehicle_type_id":"4","last_reported":1748715171,"current_range_meters":4400,"station_id":"cpo3342slgdg3j2ifvpg","pricing_plan_id":"cebpf4jnsgd1na2vs0mg"},{"bike_id":"a25b8644-fe64-42b5-97dc-715624305921","system_id":"levelo_inurba_marseille","lat":43.21754,"lon":5.34603,"is_reserved":false,"is_disabled":false,"rental_uris":{"android":"levelo://app?vid=a25b8644-fe64-42b5-97dc-715624305921","ios":"levelo://app?vid=a25b8644-fe64-42b5-97dc-715624305921"},"vehicle_type_id":"4","last_reported":1748715171,"current_range_meters":4400,"station_id":"","pricing_plan_id":"cebpf4jnsgd1na2vs0mg"},{"bike_id":"82521507-d8b0-4207-9cf5-7103bde79ed7","system_id":"levelo_inurba_marseille","lat":43.24544,"lon":5.39524,"is_reserved":false,"is_disabled":false,"rental_uris":{"android":"levelo://app?vid=82521507-d8b0-4207-9cf5-7103bde79ed7","ios":"levelo://app?vid=82521507-d8b0-4207-9cf5-7103bde79ed7"},"vehicle_type_id":"4","last_reported":1748715171,"current_range_meters":4800,"station_id":"ce4bhlp2rcd13ifvqgjg","pricing_plan_id":"cebpf4jnsgd1na2vs0mg"},{"bike_id":"38192b57-03d5-4fc6-a1b7-33ac9649e0c3","system_id":"levelo_inurba_marseille","lat":43.29039,"lon":5.38659,"is_reserved":false,"is_disabled":false,"rental_uris":{"android":"levelo://app?vid=38192b57-03d5-4fc6-a1b7-33ac9649e0c3","ios":"levelo://app?vid=38192b57-03d5-4fc6-a1b7-33ac9649e0c3"},"vehicle_type_id":"4","last_reported":1748715171,"current_range_meters":4800,"station_id":"ce4bh4p2rcd13ifvqe0g","pricing_plan_id":"cebpf4jnsgd1na2vs0mg"},{"bike_id":"68643799-aeca-44fb-82ba-052490133226","system_id":"levelo_inurba_marseille","lat":43.24805,"lon":5.37456,"is_reserved":false,"is_disabled":false,"rental_uris":{"android":"levelo://app?vid=68643799-aeca-44fb-82ba-052490133226","ios":"levelo://app?vid=68643799-aeca-44fb-82ba-052490133226"},"vehicle_type_id":"4","last_reported":1748715171,"current_range_meters":4800,"station_id":"ce4bhgh2rcd13ifvqfb0","pricing_plan_id":"cebpf4jnsgd1na2vs0mg"},{"bike_id":"9d5865fc-203e-4df8-a8bb-54cc4d4be4d6","system_id":"levelo_inurba_marseille","lat":43.27671,"lon":5.38883,"is_reserved":false,"is_disabled":false,"rental_uris":{"android":"levelo://app?vid=9d5865fc-203e-4df8-a8bb-54cc4d4be4d6","ios":"levelo://app?vid=9d5865fc-203e-4df8-a8bb-54cc4d4be4d6"},"vehicle_type_id":"4","last_reported":1748715171,"current_range_meters":5600,"station_id":"ce4bhi12rcd13ifvqfo0","pricing_plan_id":"cebpf4jnsgd1na2vs0mg"},{"bike_id":"2b5156db-24e1-4ed5-aedd-c5ade1744416","system_id":"levelo_inurba_marseille","lat":43.30301,"lon":5.39212,"is_reserved":false,"is_disabled":false,"rental_uris":{"android":"levelo://app?vid=2b5156db-24e1-4ed5-aedd-c5ade1744416","ios":"levelo://app?vid=2b5156db-24e1-4ed5-aedd-c5ade1744416"},"vehicle_type_id":"4","last_reported":1748715171,"current_range_meters":5600,"station_id":"ce4bgkh2rcd13ifvqbk0","pricing_plan_id":"cebpf4jnsgd1na2vs0mg"},{"bike_id":"61b15139-c447-4167-a055-bc4b915c0efa","system_id":"levelo_inurba_marseille","lat":43.27428,"lon":5.3942,"is_reserved":false,"is_disabled":false,"rental_uris":{"android":"levelo://app?vid=61b15139-c447-4167-a055-bc4b915c0efa","ios":"levelo://app?vid=61b15139-c447-4167-a055-bc4b915c0efa"},"vehicle_type_id":"4","last_reported":1748715171,"current_range_meters":4800,"station_id":"ce4bhdp2rcd13ifvqf20","pricing_plan_id":"cebpf4jnsgd1na2vs0mg"},{"bike_id":"4065c83d-f32e-4c00-a608-26258339ed88","system_id":"levelo_inurba_marseille","lat":43.26802,"lon":5.40266,"is_reserved":false,"is_disabled":false,"rental_uris":{"android":"levelo://app?vid=4065c83d-f32e-4c00-a608-26258339ed88","ios":"levelo://app?vid=4065c83d-f32e-4c00-a608-26258339ed88"},"vehicle_type_id":"4","last_reported":1748715171,"current_range_meters":6000,"station_id":"ce501612rcd8frsf0b60","pricing_plan_id":"cebpf4jnsgd1na2vs0mg"},{"bike_id":"a509376d-12c8-4b34-8bd7-92c18a512ac2","system_id":"levelo_inurba_marseille","lat":43.32334,"lon":5.40619,"is_reserved":false,"is_disabled":false,"rental_uris":{"android":"levelo://app?vid=a509376d-12c8-4b34-8bd7-92c18a512ac2","ios":"levelo://app?vid=a509376d-12c8-4b34-8bd7-92c18a512ac2"},"vehicle_type_id":"4","last_reported":1748715171,"current_range_meters":6400,"station_id":"ce4bhq92rcd13ifvqhjg","pricing_plan_id":"cebpf4jnsgd1na2vs0mg"},{"bike_id":"364bdcd7-2344-466e-94bc-e3b5ade3752c","system_id":"levelo_inurba_marseille","lat":43.29304,"lon":5.37159,"is_reserved":false,"is_disabled":false,"rental_uris":{"android":"levelo://app?vid=364bdcd7-2344-466e-94bc-e3b5ade3752c","ios":"levelo://app?vid=364bdcd7-2344-466e-94bc-e3b5ade3752c"},"vehicle_type_id":"4","last_reported":1748715171,"current_range_meters":6400,"station_id":"ce4bgh92rcd13ifvqb40","pricing_plan_id":"cebpf4jnsgd1na2vs0mg"},{"bike_id":"a882f5db-172f-4f11-bf66-7e2c36364bb7","system_id":"levelo_inurba_marseille","lat":43.29553,"lon":5.42287,"is_reserved":false,"is_disabled":false,"rental_uris":{"android":"levelo://app?vid=a882f5db-172f-4f11-bf66-7e2c36364bb7","ios":"levelo://app?vid=a882f5db-172f-4f11-bf66-7e2c36364bb7"},"vehicle_type_id":"4","last_reported":1748715171,"current_range_meters":6400,"station_id":"ce4bhph2rcd13ifvqhdg","pricing_plan_id":"cebpf4jnsgd1na2vs0mg"},{"bike_id":"dddf88cd-a72d-402c-9e8d-62f196f0fea7","system_id":"levelo_inurba_marseille","lat":43.24995,"lon":5.38931,"is_reserved":false,"is_disabled":false,"rental_uris":{"android":"levelo://app?vid=dddf88cd-a72d-402c-9e8d-62f196f0fea7","ios":"levelo://app?vid=dddf88cd-a72d-402c-9e8d-62f196f0fea7"},"vehicle_type_id":"4","last_reported":1748715171,"current_range_meters":6400,"station_id":"ce4bhgp2rcd13ifvqfd0","pricing_plan_id":"cebpf4jnsgd1na2vs0mg"},{"bike_id":"f84e29d9-4fab-4bee-ae98-6dc77bf58f2e","system_id":"levelo_inurba_marseille","lat":43.28617,"lon":5.35107,"is_reserved":false,"is_disabled":false,"rental_uris":{"android":"levelo://app?vid=f84e29d9-4fab-4bee-ae98-6dc77bf58f2e","ios":"levelo://app?vid=f84e29d9-4fab-4bee-ae98-6dc77bf58f2e"},"vehicle_type_id":"4","last_reported":1748715171,"current_range_meters":6400,"station_id":"ce4bhch2rcd13ifvqeug","pricing_plan_id":"cebpf4jnsgd1na2vs0mg"},{"bike_id":"3feffd94-b1f8-4904-a4cf-e5629abe4092","system_id":"levelo_inurba_marseille","lat":43.25942,"lon":5.4091,"is_reserved":false,"is_disabled":false,"rental_uris":{"android":"levelo://app?vid=3feffd94-b1f8-4904-a4cf-e5629abe4092","ios":"levelo://app?vid=3feffd94-b1f8-4904-a4cf-e5629abe4092"},"vehicle_type_id":"4","last_reported":1748715171,"current_range_meters":6400,"station_id":"ce4bhm92rcd13ifvqglg","pricing_plan_id":"cebpf4jnsgd1na2vs0mg"},{"bike_id":"7243d7c8-02f5-4392-89cf-8c360e846d55","system_id":"levelo_inurba_marseille","lat":43.25266,"lon":5.37838,"is_reserved":false,"is_disabled":false,"rental_uris":{"android":"levelo://app?vid=7243d7c8-02f5-4392-89cf-8c360e846d55","ios":"levelo://app?vid=7243d7c8-02f5-4392-89cf-8c360e846d55"},"vehicle_type_id":"4","last_reported":1748715171,"current_range_meters":6800,"station_id":"","pricing_plan_id":"cebpf4jnsgd1na2vs0mg"},{"bike_id":"f114cddd-b530-4e18-bffd-fbee3bac4dac","system_id":"levelo_inurba_marseille","lat":43.32292,"lon":5.38274,"is_reserved":false,"is_disabled":false,"rental_uris":{"android":"levelo://app?vid=f114cddd-b530-4e18-bffd-fbee3bac4dac","ios":"levelo://app?vid=f114cddd-b530-4e18-bffd-fbee3bac4dac"},"vehicle_type_id":"4","last_reported":1748715171,"current_range_meters":6800,"station_id":"ce4bhr12rcd13ifvqhqg","pricing_plan_id":"cebpf4jnsgd1na2vs0mg"},{"bike_id":"ab3f2ce8-6448-4ca4-b4d0-a0c6ee423016","system_id":"levelo_inurba_marseille","lat":43.295254,"lon":5.390421,"is_reserved":false,"is_disabled":false,"rental_uris":{"android":"levelo://app?vid=ab3f2ce8-6448-4ca4-b4d0-a0c6ee423016","ios":"levelo://app?vid=ab3f2ce8-6448-4ca4-b4d0-a0c6ee423016"},"vehicle_type_id":"4","last_reported":1748715171,"current_range_meters":6400,"station_id":"ce4bh3p2rcd13ifvqdp0","pricing_plan_id":"cebpf4jnsgd1na2vs0mg"},{"bike_id":"0c2c3d11-082f-40fe-9f1f-b7a1d07a7eac","system_id":"levelo_inurba_marseille","lat":43.29307,"lon":5.37165,"is_reserved":false,"is_disabled":false,"rental_uris":{"android":"levelo://app?vid=0c2c3d11-082f-40fe-9f1f-b7a1d07a7eac","ios":"levelo://app?vid=0c2c3d11-082f-40fe-9f1f-b7a1d07a7eac"},"vehicle_type_id":"4","last_reported":1748715171,"current_range_meters":6800,"station_id":"ce4bgh92rcd13ifvqb40","pricing_plan_id":"cebpf4jnsgd1na2vs0mg"},{"bike_id":"ce325ea1-be5e-4c1b-a841-6ae8715dfbf4","system_id":"levelo_inurba_marseille","lat":43.3052,"lon":5.36533,"is_reserved":false,"is_disabled":true,"rental_uris":{"android":"levelo://app?vid=ce325ea1-be5e-4c1b-a841-6ae8715dfbf4","ios":"levelo://app?vid=ce325ea1-be5e-4c1b-a841-6ae8715dfbf4"},"vehicle_type_id":"4","last_reported":1748715171,"current_range_meters":6800,"station_id":"","pricing_plan_id":"cebpf4jnsgd1na2vs0mg"},{"bike_id":"d7ec1a2d-c6ef-44f3-8f0d-41c937084ba8","system_id":"levelo_inurba_marseille","lat":43.28478,"lon":5.38408,"is_reserved":false,"is_disabled":false,"rental_uris":{"android":"levelo://app?vid=d7ec1a2d-c6ef-44f3-8f0d-41c937084ba8","ios":"levelo://app?vid=d7ec1a2d-c6ef-44f3-8f0d-41c937084ba8"},"vehicle_type_id":"4","last_reported":1748715171,"current_range_meters":6800,"station_id":"ce4bh512rcd13ifvqe3g","pricing_plan_id":"cebpf4jnsgd1na2vs0mg"},{"bike_id":"0d679a7b-97a8-43ef-a05c-913de2b3bf96","system_id":"levelo_inurba_marseille","lat":43.27808,"lon":5.40711,"is_reserved":false,"is_disabled":false,"rental_uris":{"android":"levelo://app?vid=0d679a7b-97a8-43ef-a05c-913de2b3bf96","ios":"levelo://app?vid=0d679a7b-97a8-43ef-a05c-913de2b3bf96"},"vehicle_type_id":"4","last_reported":1748715171,"current_range_meters":6800,"station_id":"ce4bhnh2rcd13ifvqgtg","pricing_plan_id":"cebpf4jnsgd1na2vs0mg"},{"bike_id":"9ff9555f-66f0-4fa9-8ba7-3ec081d2ecf0","system_id":"levelo_inurba_marseille","lat":43.29416,"lon":5.38624,"is_reserved":false,"is_disabled":false,"rental_uris":{"android":"levelo://app?vid=9ff9555f-66f0-4fa9-8ba7-3ec081d2ecf0","ios":"levelo://app?vid=9ff9555f-66f0-4fa9-8ba7-3ec081d2ecf0"},"vehicle_type_id":"4","last_reported":1748715171,"current_range_meters":6800,"station_id":"ce4bh2h2rcd13ifvqdh0","pricing_plan_id":"cebpf4jnsgd1na2vs0mg"},{"bike_id":"85e872d4-1d6c-4f24-8b16-1fee2f8bd6d8","system_id":"levelo_inurba_marseille","lat":43.30267,"lon":5.40101,"is_reserved":false,"is_disabled":false,"rental_uris":{"android":"levelo://app?vid=85e872d4-1d6c-4f24-8b16-1fee2f8bd6d8","ios":"levelo://app?vid=85e872d4-1d6c-4f24-8b16-1fee2f8bd6d8"},"vehicle_type_id":"4","last_reported":1748715171,"current_range_meters":6800,"station_id":"ce4bgvh2rcd13ifvqcs0","pricing_plan_id":"cebpf4jnsgd1na2vs0mg"},{"bike_id":"76670f2a-4349-49d9-b2e7-9857ac9574bf","system_id":"levelo_inurba_marseille","lat":43.2656,"lon":5.39003,"is_reserved":false,"is_disabled":false,"rental_uris":{"android":"levelo://app?vid=76670f2a-4349-49d9-b2e7-9857ac9574bf","ios":"levelo://app?vid=76670f2a-4349-49d9-b2e7-9857ac9574bf"},"vehicle_type_id":"4","last_reported":1748715171,"current_range_meters":7200,"station_id":"ce4bhe12rcd13ifvqf30","pricing_plan_id":"cebpf4jnsgd1na2vs0mg"},{"bike_id":"aa90a85e-dfc1-4c39-b355-f36a17a3811d","system_id":"levelo_inurba_marseille","lat":43.26064,"lon":5.39397,"is_reserved":false,"is_disabled":false,"rental_uris":{"android":"levelo://app?vid=aa90a85e-dfc1-4c39-b355-f36a17a3811d","ios":"levelo://app?vid=aa90a85e-dfc1-4c39-b355-f36a17a3811d"},"vehicle_type_id":"4","last_reported":1748715171,"current_range_meters":6800,"station_id":"ce4bhh92rcd13ifvqfj0","pricing_plan_id":"cebpf4jnsgd1na2vs0mg"},{"bike_id":"c682696c-74b1-4151-abc5-56b9dde1c09c","system_id":"levelo_inurba_marseille","lat":43.22932,"lon":5.35375,"is_reserved":false,"is_disabled":false,"rental_uris":{"android":"levelo://app?vid=c682696c-74b1-4151-abc5-56b9dde1c09c","ios":"levelo://app?vid=c682696c-74b1-4151-abc5-56b9dde1c09c"},"vehicle_type_id":"4","last_reported":1748715171,"current_range_meters":7200,"station_id":"cpo3532slgdg3j2ikp40","pricing_plan_id":"cebpf4jnsgd1na2vs0mg"},{"bike_id":"12b5b790-e3b7-4ead-9496-f7fa516e9813","system_id":"levelo_inurba_marseille","lat":43.30928,"lon":5.4015,"is_reserved":false,"is_disabled":false,"rental_uris":{"android":"levelo://app?vid=12b5b790-e3b7-4ead-9496-f7fa516e9813","ios":"levelo://app?vid=12b5b790-e3b7-4ead-9496-f7fa516e9813"},"vehicle_type_id":"4","last_reported":1748715171,"current_range_meters":7200,"station_id":"ce4bgvp2rcd13ifvqct0","pricing_plan_id":"cebpf4jnsgd1na2vs0mg"},{"bike_id":"5d3e0ec5-15a0-4a4d-bdd8-57536c626ab0","system_id":"levelo_inurba_marseille","lat":43.2931,"lon":5.37174,"is_reserved":false,"is_disabled":false,"rental_uris":{"android":"levelo://app?vid=5d3e0ec5-15a0-4a4d-bdd8-57536c626ab0","ios":"levelo://app?vid=5d3e0ec5-15a0-4a4d-bdd8-57536c626ab0"},"vehicle_type_id":"4","last_reported":1748715171,"current_range_meters":7200,"station_id":"ce4bgh92rcd13ifvqb40","pricing_plan_id":"cebpf4jnsgd1na2vs0mg"},{"bike_id":"82ce820a-c4c6-4ac7-9b7f-30fa70c9c3f3","system_id":"levelo_inurba_marseille","lat":43.278142,"lon":5.407148,"is_reserved":false,"is_disabled":false,"rental_uris":{"android":"levelo://app?vid=82ce820a-c4c6-4ac7-9b7f-30fa70c9c3f3","ios":"levelo://app?vid=82ce820a-c4c6-4ac7-9b7f-30fa70c9c3f3"},"vehicle_type_id":"4","last_reported":1748715171,"current_range_meters":7200,"station_id":"ce4bhnh2rcd13ifvqgtg","pricing_plan_id":"cebpf4jnsgd1na2vs0mg"},{"bike_id":"7744b0bc-9255-402e-8dd0-6b3090927fb9","system_id":"levelo_inurba_marseille","lat":43.26959,"lon":5.40296,"is_reserved":false,"is_disabled":true,"rental_uris":{"android":"levelo://app?vid=7744b0bc-9255-402e-8dd0-6b3090927fb9","ios":"levelo://app?vid=7744b0bc-9255-402e-8dd0-6b3090927fb9"},"vehicle_type_id":"4","last_reported":1748715171,"current_range_meters":8000,"station_id":"cjm6bp8fraef2m0cb0m0","pricing_plan_id":"cebpf4jnsgd1na2vs0mg"},{"bike_id":"414f50f9-4176-475f-adf2-0466f70c8059","system_id":"levelo_inurba_marseille","lat":43.25954,"lon":5.40907,"is_reserved":false,"is_disabled":false,"rental_uris":{"android":"levelo://app?vid=414f50f9-4176-475f-adf2-0466f70c8059","ios":"levelo://app?vid=414f50f9-4176-475f-adf2-0466f70c8059"},"vehicle_type_id":"4","last_reported":1748715171,"current_range_meters":8000,"station_id":"ce4bhm92rcd13ifvqglg","pricing_plan_id":"cebpf4jnsgd1na2vs0mg"},{"bike_id":"f6c18757-42cd-40e6-82c2-99bf51f27297","system_id":"levelo_inurba_marseille","lat":43.21758,"lon":5.3459,"is_reserved":false,"is_disabled":true,"rental_uris":{"android":"levelo://app?vid=f6c18757-42cd-40e6-82c2-99bf51f27297","ios":"levelo://app?vid=f6c18757-42cd-40e6-82c2-99bf51f27297"},"vehicle_type_id":"4","last_reported":1748715171,"current_range_meters":8000,"station_id":"st_cvj6r9ubvosntc0bgbag","pricing_plan_id":"cebpf4jnsgd1na2vs0mg"},{"bike_id":"e372cd62-3f54-4399-8b54-ee30195f8351","system_id":"levelo_inurba_marseille","lat":43.26229,"lon":5.40454,"is_reserved":false,"is_disabled":false,"rental_uris":{"android":"levelo://app?vid=e372cd62-3f54-4399-8b54-ee30195f8351","ios":"levelo://app?vid=e372cd62-3f54-4399-8b54-ee30195f8351"},"vehicle_type_id":"4","last_reported":1748715171,"current_range_meters":8000,"station_id":"ce4bhmh2rcd13ifvqgmg","pricing_plan_id":"cebpf4jnsgd1na2vs0mg"},{"bike_id":"b3d3327c-bc79-4ae9-9e3d-342d722fe218","system_id":"levelo_inurba_marseille","lat":43.30957,"lon":5.39028,"is_reserved":false,"is_disabled":false,"rental_uris":{"android":"levelo://app?vid=b3d3327c-bc79-4ae9-9e3d-342d722fe218","ios":"levelo://app?vid=b3d3327c-bc79-4ae9-9e3d-342d722fe218"},"vehicle_type_id":"4","last_reported":1748715171,"current_range_meters":8000,"station_id":"ce4bgup2rcd13ifvqco0","pricing_plan_id":"cebpf4jnsgd1na2vs0mg"},{"bike_id":"c9ee495f-cf0e-4644-8cf4-b0ff36a1d775","system_id":"levelo_inurba_marseille","lat":43.273152,"lon":5.390733,"is_reserved":false,"is_disabled":false,"rental_uris":{"android":"levelo://app?vid=c9ee495f-cf0e-4644-8cf4-b0ff36a1d775","ios":"levelo://app?vid=c9ee495f-cf0e-4644-8cf4-b0ff36a1d775"},"vehicle_type_id":"4","last_reported":1748715171,"current_range_meters":8000,"station_id":"","pricing_plan_id":"cebpf4jnsgd1na2vs0mg"},{"bike_id":"5497323b-ea9d-45d0-8e9a-78a0710e4004","system_id":"levelo_inurba_marseille","lat":43.29017,"lon":5.38647,"is_reserved":false,"is_disabled":false,"rental_uris":{"android":"levelo://app?vid=5497323b-ea9d-45d0-8e9a-78a0710e4004","ios":"levelo://app?vid=5497323b-ea9d-45d0-8e9a-78a0710e4004"},"vehicle_type_id":"4","last_reported":1748715171,"current_range_meters":8000,"station_id":"ce4bh4p2rcd13ifvqe0g","pricing_plan_id":"cebpf4jnsgd1na2vs0mg"},{"bike_id":"d7503e80-6abb-4891-8a59-ee1c67273805","system_id":"levelo_inurba_marseille","lat":43.27814,"lon":5.40703,"is_reserved":false,"is_disabled":false,"rental_uris":{"android":"levelo://app?vid=d7503e80-6abb-4891-8a59-ee1c67273805","ios":"levelo://app?vid=d7503e80-6abb-4891-8a59-ee1c67273805"},"vehicle_type_id":"4","last_reported":1748715171,"current_range_meters":8400,"station_id":"ce4bhnh2rcd13ifvqgtg","pricing_plan_id":"cebpf4jnsgd1na2vs0mg"},{"bike_id":"8f39509d-0b1d-456a-854f-047cad30441c","system_id":"levelo_inurba_marseille","lat":43.286587,"lon":5.363478,"is_reserved":false,"is_disabled":false,"rental_uris":{"android":"levelo://app?vid=8f39509d-0b1d-456a-854f-047cad30441c","ios":"levelo://app?vid=8f39509d-0b1d-456a-854f-047cad30441c"},"vehicle_type_id":"4","last_reported":1748715171,"current_range_meters":8400,"station_id":"ce4bhbp2rcd13ifvqerg","pricing_plan_id":"cebpf4jnsgd1na2vs0mg"},{"bike_id":"c3eafc8a-e92a-4041-883e-6ae81451ec71","system_id":"levelo_inurba_marseille","lat":43.27814,"lon":5.40715,"is_reserved":false,"is_disabled":false,"rental_uris":{"android":"levelo://app?vid=c3eafc8a-e92a-4041-883e-6ae81451ec71","ios":"levelo://app?vid=c3eafc8a-e92a-4041-883e-6ae81451ec71"},"vehicle_type_id":"4","last_reported":1748715171,"current_range_meters":8400,"station_id":"ce4bhnh2rcd13ifvqgtg","pricing_plan_id":"cebpf4jnsgd1na2vs0mg"},{"bike_id":"cdfe7084-954a-44fe-ab3e-19ab80148445","system_id":"levelo_inurba_marseille","lat":43.3095,"lon":5.39026,"is_reserved":false,"is_disabled":false,"rental_uris":{"android":"levelo://app?vid=cdfe7084-954a-44fe-ab3e-19ab80148445","ios":"levelo://app?vid=cdfe7084-954a-44fe-ab3e-19ab80148445"},"vehicle_type_id":"4","last_reported":1748715171,"current_range_meters":8400,"station_id":"ce4bgup2rcd13ifvqco0","pricing_plan_id":"cebpf4jnsgd1na2vs0mg"},{"bike_id":"a1e442a7-4f52-466c-ac32-da88c1a25090","system_id":"levelo_inurba_marseille","lat":43.28102,"lon":5.39843,"is_reserved":false,"is_disabled":false,"rental_uris":{"android":"levelo://app?vid=a1e442a7-4f52-466c-ac32-da88c1a25090","ios":"levelo://app?vid=a1e442a7-4f52-466c-ac32-da88c1a25090"},"vehicle_type_id":"4","last_reported":1748715171,"current_range_meters":8400,"station_id":"","pricing_plan_id":"cebpf4jnsgd1na2vs0mg"},{"bike_id":"a672e2ce-ff65-491a-baf8-b5fcce4f4059","system_id":"levelo_inurba_marseille","lat":43.31701,"lon":5.38934,"is_reserved":false,"is_disabled":false,"rental_uris":{"android":"levelo://app?vid=a672e2ce-ff65-491a-baf8-b5fcce4f4059","ios":"levelo://app?vid=a672e2ce-ff65-491a-baf8-b5fcce4f4059"},"vehicle_type_id":"4","last_reported":1748715171,"current_range_meters":8800,"station_id":"","pricing_plan_id":"cebpf4jnsgd1na2vs0mg"},{"bike_id":"ad9e0458-0e74-4d96-be01-dca69a4d3581","system_id":"levelo_inurba_marseille","lat":43.282623,"lon":5.350588,"is_reserved":false,"is_disabled":false,"rental_uris":{"android":"levelo://app?vid=ad9e0458-0e74-4d96-be01-dca69a4d3581","ios":"levelo://app?vid=ad9e0458-0e74-4d96-be01-dca69a4d3581"},"vehicle_type_id":"4","last_reported":1748715171,"current_range_meters":8800,"station_id":"ce4bhbp2rcd13ifvqerg","pricing_plan_id":"cebpf4jnsgd1na2vs0mg"},{"bike_id":"742ea022-7ec3-403b-ab76-b027020c7592","system_id":"levelo_inurba_marseille","lat":43.32264,"lon":5.38285,"is_reserved":false,"is_disabled":false,"rental_uris":{"android":"levelo://app?vid=742ea022-7ec3-403b-ab76-b027020c7592","ios":"levelo://app?vid=742ea022-7ec3-403b-ab76-b027020c7592"},"vehicle_type_id":"4","last_reported":1748715171,"current_range_meters":8800,"station_id":"ce4bhr12rcd13ifvqhqg","pricing_plan_id":"cebpf4jnsgd1na2vs0mg"},{"bike_id":"a14d8e40-c994-4f1c-b643-8a3b58a2eb79","system_id":"levelo_inurba_marseille","lat":43.29266,"lon":5.38211,"is_reserved":false,"is_disabled":false,"rental_uris":{"android":"levelo://app?vid=a14d8e40-c994-4f1c-b643-8a3b58a2eb79","ios":"levelo://app?vid=a14d8e40-c994-4f1c-b643-8a3b58a2eb79"},"vehicle_type_id":"4","last_reported":1748715171,"current_range_meters":8800,"station_id":"","pricing_plan_id":"cebpf4jnsgd1na2vs0mg"},{"bike_id":"9cb9814b-5163-4111-ba68-7aa45d0bb846","system_id":"levelo_inurba_marseille","lat":43.2794,"lon":5.41042,"is_reserved":false,"is_disabled":false,"rental_uris":{"android":"levelo://app?vid=9cb9814b-5163-4111-ba68-7aa45d0bb846","ios":"levelo://app?vid=9cb9814b-5163-4111-ba68-7aa45d0bb846"},"vehicle_type_id":"4","last_reported":1748715171,"current_range_meters":8800,"station_id":"ce4bhnp2rcd13ifvqh0g","pricing_plan_id":"cebpf4jnsgd1na2vs0mg"},{"bike_id":"288e5821-5c5b-4435-aae3-3ed9f16ed186","system_id":"levelo_inurba_marseille","lat":43.25867,"lon":5.39897,"is_reserved":false,"is_disabled":false,"rental_uris":{"android":"levelo://app?vid=288e5821-5c5b-4435-aae3-3ed9f16ed186","ios":"levelo://app?vid=288e5821-5c5b-4435-aae3-3ed9f16ed186"},"vehicle_type_id":"4","last_reported":1748715171,"current_range_meters":8400,"station_id":"ce4bhl92rcd13ifvqghg","pricing_plan_id":"cebpf4jnsgd1na2vs0mg"},{"bike_id":"d02081d5-a04f-4fa4-9f32-43d0243ea381","system_id":"levelo_inurba_marseille","lat":43.29274,"lon":5.36847,"is_reserved":false,"is_disabled":false,"rental_uris":{"android":"levelo://app?vid=d02081d5-a04f-4fa4-9f32-43d0243ea381","ios":"levelo://app?vid=d02081d5-a04f-4fa4-9f32-43d0243ea381"},"vehicle_type_id":"4","last_reported":1748715171,"current_range_meters":9200,"station_id":"ce4bhbp2rcd13ifvqesg","pricing_plan_id":"cebpf4jnsgd1na2vs0mg"},{"bike_id":"3a1c4c67-43a5-43d6-9244-e77226f968c5","system_id":"levelo_inurba_marseille","lat":43.2621,"lon":5.37441,"is_reserved":false,"is_disabled":false,"rental_uris":{"android":"levelo://app?vid=3a1c4c67-43a5-43d6-9244-e77226f968c5","ios":"levelo://app?vid=3a1c4c67-43a5-43d6-9244-e77226f968c5"},"vehicle_type_id":"4","last_reported":1748715171,"current_range_meters":9200,"station_id":"ce4bhgp2rcd13ifvqfc0","pricing_plan_id":"cebpf4jnsgd1na2vs0mg"},{"bike_id":"79ae15ae-1401-4c3e-8f70-90afe2988717","system_id":"levelo_inurba_marseille","lat":43.28488,"lon":5.38424,"is_reserved":false,"is_disabled":false,"rental_uris":{"android":"levelo://app?vid=79ae15ae-1401-4c3e-8f70-90afe2988717","ios":"levelo://app?vid=79ae15ae-1401-4c3e-8f70-90afe2988717"},"vehicle_type_id":"4","last_reported":1748715171,"current_range_meters":9200,"station_id":"ce4bh512rcd13ifvqe3g","pricing_plan_id":"cebpf4jnsgd1na2vs0mg"},{"bike_id":"8c368742-7e73-41d7-b52f-a4832a6e263d","system_id":"levelo_inurba_marseille","lat":43.28444,"lon":5.37529,"is_reserved":false,"is_disabled":false,"rental_uris":{"android":"levelo://app?vid=8c368742-7e73-41d7-b52f-a4832a6e263d","ios":"levelo://app?vid=8c368742-7e73-41d7-b52f-a4832a6e263d"},"vehicle_type_id":"4","last_reported":1748715171,"current_range_meters":9200,"station_id":"","pricing_plan_id":"cebpf4jnsgd1na2vs0mg"},{"bike_id":"62332201-5a9e-4dbd-a420-54558390526c","system_id":"levelo_inurba_marseille","lat":43.27944,"lon":5.41043,"is_reserved":false,"is_disabled":false,"rental_uris":{"android":"levelo://app?vid=62332201-5a9e-4dbd-a420-54558390526c","ios":"levelo://app?vid=62332201-5a9e-4dbd-a420-54558390526c"},"vehicle_type_id":"4","last_reported":1748715171,"current_range_meters":9200,"station_id":"ce4bhnp2rcd13ifvqh0g","pricing_plan_id":"cebpf4jnsgd1na2vs0mg"},{"bike_id":"e62a208c-23d3-4f22-bdab-aa660ac5353a","system_id":"levelo_inurba_marseille","lat":43.26212,"lon":5.379191,"is_reserved":false,"is_disabled":false,"rental_uris":{"android":"levelo://app?vid=e62a208c-23d3-4f22-bdab-aa660ac5353a","ios":"levelo://app?vid=e62a208c-23d3-4f22-bdab-aa660ac5353a"},"vehicle_type_id":"4","last_reported":1748715171,"current_range_meters":9200,"station_id":"ce4bhjp2rcd13ifvqg90","pricing_plan_id":"cebpf4jnsgd1na2vs0mg"},{"bike_id":"5b5bca01-8561-444a-957c-8a78b8c8077d","system_id":"levelo_inurba_marseille","lat":43.26206,"lon":5.37444,"is_reserved":false,"is_disabled":false,"rental_uris":{"android":"levelo://app?vid=5b5bca01-8561-444a-957c-8a78b8c8077d","ios":"levelo://app?vid=5b5bca01-8561-444a-957c-8a78b8c8077d"},"vehicle_type_id":"4","last_reported":1748715171,"current_range_meters":9200,"station_id":"ce4bhgp2rcd13ifvqfc0","pricing_plan_id":"cebpf4jnsgd1na2vs0mg"},{"bike_id":"3b9e2e4d-c70f-4562-ad65-7f61efaeaa38","system_id":"levelo_inurba_marseille","lat":43.27827,"lon":5.40716,"is_reserved":false,"is_disabled":false,"rental_uris":{"android":"levelo://app?vid=3b9e2e4d-c70f-4562-ad65-7f61efaeaa38","ios":"levelo://app?vid=3b9e2e4d-c70f-4562-ad65-7f61efaeaa38"},"vehicle_type_id":"4","last_reported":1748715171,"current_range_meters":9200,"station_id":"ce4bhnh2rcd13ifvqgtg","pricing_plan_id":"cebpf4jnsgd1na2vs0mg"},{"bike_id":"392a68ac-fff4-45ac-8bf1-87ec938f1cf5","system_id":"levelo_inurba_marseille","lat":43.232,"lon":5.35558,"is_reserved":false,"is_disabled":false,"rental_uris":{"android":"levelo://app?vid=392a68ac-fff4-45ac-8bf1-87ec938f1cf5","ios":"levelo://app?vid=392a68ac-fff4-45ac-8bf1-87ec938f1cf5"},"vehicle_type_id":"4","last_reported":1748715171,"current_range_meters":9600,"station_id":"ce4bhu92rcd13ifvqi70","pricing_plan_id":"cebpf4jnsgd1na2vs0mg"},{"bike_id":"9a82f5a4-b0ff-480f-9d11-e668d126002c","system_id":"levelo_inurba_marseille","lat":43.26941,"lon":5.40253,"is_reserved":false,"is_disabled":false,"rental_uris":{"android":"levelo://app?vid=9a82f5a4-b0ff-480f-9d11-e668d126002c","ios":"levelo://app?vid=9a82f5a4-b0ff-480f-9d11-e668d126002c"},"vehicle_type_id":"4","last_reported":1748715171,"current_range_meters":9200,"station_id":"cjm6bp8fraef2m0cb0m0","pricing_plan_id":"cebpf4jnsgd1na2vs0mg"},{"bike_id":"8cd84c87-b563-4fc9-ac49-281022dd0564","system_id":"levelo_inurba_marseille","lat":43.32341,"lon":5.40642,"is_reserved":false,"is_disabled":false,"rental_uris":{"android":"levelo://app?vid=8cd84c87-b563-4fc9-ac49-281022dd0564","ios":"levelo://app?vid=8cd84c87-b563-4fc9-ac49-281022dd0564"},"vehicle_type_id":"4","last_reported":1748715171,"current_range_meters":9600,"station_id":"ce4bhq92rcd13ifvqhjg","pricing_plan_id":"cebpf4jnsgd1na2vs0mg"},{"bike_id":"8d48119e-760e-4c00-b401-59af0a322afa","system_id":"levelo_inurba_marseille","lat":43.256563,"lon":5.40859,"is_reserved":false,"is_disabled":false,"rental_uris":{"android":"levelo://app?vid=8d48119e-760e-4c00-b401-59af0a322afa","ios":"levelo://app?vid=8d48119e-760e-4c00-b401-59af0a322afa"},"vehicle_type_id":"4","last_reported":1748715171,"current_range_meters":9600,"station_id":"","pricing_plan_id":"cebpf4jnsgd1na2vs0mg"},{"bike_id":"bcbc8ed2-6d1c-4743-a3a2-c37b2b842479","system_id":"levelo_inurba_marseille","lat":43.29195,"lon":5.39319,"is_reserved":false,"is_disabled":false,"rental_uris":{"android":"levelo://app?vid=bcbc8ed2-6d1c-4743-a3a2-c37b2b842479","ios":"levelo://app?vid=bcbc8ed2-6d1c-4743-a3a2-c37b2b842479"},"vehicle_type_id":"4","last_reported":1748715171,"current_range_meters":9600,"station_id":"ce4bh192rcd13ifvqdd0","pricing_plan_id":"cebpf4jnsgd1na2vs0mg"},{"bike_id":"23a8f3c4-21a6-46df-a7da-136674bed0a1","system_id":"levelo_inurba_marseille","lat":43.27807,"lon":5.40726,"is_reserved":false,"is_disabled":false,"rental_uris":{"android":"levelo://app?vid=23a8f3c4-21a6-46df-a7da-136674bed0a1","ios":"levelo://app?vid=23a8f3c4-21a6-46df-a7da-136674bed0a1"},"vehicle_type_id":"4","last_reported":1748715171,"current_range_meters":9600,"station_id":"ce4bhnh2rcd13ifvqgtg","pricing_plan_id":"cebpf4jnsgd1na2vs0mg"},{"bike_id":"63c9de02-e7e2-4389-913f-d4fb455361cd","system_id":"levelo_inurba_marseille","lat":43.273226,"lon":5.390666,"is_reserved":false,"is_disabled":false,"rental_uris":{"android":"levelo://app?vid=63c9de02-e7e2-4389-913f-d4fb455361cd","ios":"levelo://app?vid=63c9de02-e7e2-4389-913f-d4fb455361cd"},"vehicle_type_id":"4","last_reported":1748715171,"current_range_meters":9600,"station_id":"ce4bhgp2rcd13ifvqfe0","pricing_plan_id":"cebpf4jnsgd1na2vs0mg"},{"bike_id":"ac875479-3b13-409f-a81d-77d45b81f391","system_id":"levelo_inurba_marseille","lat":43.28706,"lon":5.37395,"is_reserved":false,"is_disabled":false,"rental_uris":{"android":"levelo://app?vid=ac875479-3b13-409f-a81d-77d45b81f391","ios":"levelo://app?vid=ac875479-3b13-409f-a81d-77d45b81f391"},"vehicle_type_id":"4","last_reported":1748715171,"current_range_meters":9600,"station_id":"ce4bh3p2rcd13ifvqdq0","pricing_plan_id":"cebpf4jnsgd1na2vs0mg"},{"bike_id":"8a1d3497-6795-4bb0-a779-5e7f592cf56a","system_id":"levelo_inurba_marseille","lat":43.30325,"lon":5.4045,"is_reserved":false,"is_disabled":false,"rental_uris":{"android":"levelo://app?vid=8a1d3497-6795-4bb0-a779-5e7f592cf56a","ios":"levelo://app?vid=8a1d3497-6795-4bb0-a779-5e7f592cf56a"},"vehicle_type_id":"4","last_reported":1748715171,"current_range_meters":9600,"station_id":"ce4bh012rcd13ifvqd10","pricing_plan_id":"cebpf4jnsgd1na2vs0mg"},{"bike_id":"e1dfa711-4704-4bf4-8ff6-ea1783a869cd","system_id":"levelo_inurba_marseille","lat":43.284666,"lon":5.384124,"is_reserved":false,"is_disabled":false,"rental_uris":{"android":"levelo://app?vid=e1dfa711-4704-4bf4-8ff6-ea1783a869cd","ios":"levelo://app?vid=e1dfa711-4704-4bf4-8ff6-ea1783a869cd"},"vehicle_type_id":"4","last_reported":1748715171,"current_range_meters":9600,"station_id":"ce4bhi12rcd13ifvqfo0","pricing_plan_id":"cebpf4jnsgd1na2vs0mg"},{"bike_id":"21746f42-dc16-471a-b7f4-0a48433136b9","system_id":"levelo_inurba_marseille","lat":43.26804,"lon":5.40268,"is_reserved":false,"is_disabled":false,"rental_uris":{"android":"levelo://app?vid=21746f42-dc16-471a-b7f4-0a48433136b9","ios":"levelo://app?vid=21746f42-dc16-471a-b7f4-0a48433136b9"},"vehicle_type_id":"4","last_reported":1748715171,"current_range_meters":10000,"station_id":"ce501612rcd8frsf0b60","pricing_plan_id":"cebpf4jnsgd1na2vs0mg"},{"bike_id":"00dcb2b7-1c81-4f08-a55b-6f108f44a705","system_id":"levelo_inurba_marseille","lat":43.26559,"lon":5.37284,"is_reserved":false,"is_disabled":false,"rental_uris":{"android":"levelo://app?vid=00dcb2b7-1c81-4f08-a55b-6f108f44a705","ios":"levelo://app?vid=00dcb2b7-1c81-4f08-a55b-6f108f44a705"},"vehicle_type_id":"4","last_reported":1748715171,"current_range_meters":10000,"station_id":"ce4bhg12rcd13ifvqf70","pricing_plan_id":"cebpf4jnsgd1na2vs0mg"},{"bike_id":"f4e49996-ce0c-42e7-9a15-35b5f4497b3e","system_id":"levelo_inurba_marseille","lat":43.32284,"lon":5.38284,"is_reserved":false,"is_disabled":false,"rental_uris":{"android":"levelo://app?vid=f4e49996-ce0c-42e7-9a15-35b5f4497b3e","ios":"levelo://app?vid=f4e49996-ce0c-42e7-9a15-35b5f4497b3e"},"vehicle_type_id":"4","last_reported":1748715171,"current_range_meters":10000,"station_id":"ce4bhr12rcd13ifvqhqg","pricing_plan_id":"cebpf4jnsgd1na2vs0mg"},{"bike_id":"bd2266f3-c152-4593-85b5-90b1a949f959","system_id":"levelo_inurba_marseille","lat":43.27685,"lon":5.38875,"is_reserved":false,"is_disabled":false,"rental_uris":{"android":"levelo://app?vid=bd2266f3-c152-4593-85b5-90b1a949f959","ios":"levelo://app?vid=bd2266f3-c152-4593-85b5-90b1a949f959"},"vehicle_type_id":"4","last_reported":1748715171,"current_range_meters":9600,"station_id":"ce4bhi12rcd13ifvqfo0","pricing_plan_id":"cebpf4jnsgd1na2vs0mg"},{"bike_id":"6dbec55b-fee0-4a3a-9ed2-723f9ae1c783","system_id":"levelo_inurba_marseille","lat":43.29911,"lon":5.43663,"is_reserved":false,"is_disabled":true,"rental_uris":{"android":"levelo://app?vid=6dbec55b-fee0-4a3a-9ed2-723f9ae1c783","ios":"levelo://app?vid=6dbec55b-fee0-4a3a-9ed2-723f9ae1c783"},"vehicle_type_id":"4","last_reported":1748715171,"current_range_meters":10000,"station_id":"ce4bhpp2rcd13ifvqhfg","pricing_plan_id":"cebpf4jnsgd1na2vs0mg"},{"bike_id":"de90fca9-18c3-4815-9850-ad384cc034ab","system_id":"levelo_inurba_marseille","lat":43.26228,"lon":5.40454,"is_reserved":false,"is_disabled":false,"rental_uris":{"android":"levelo://app?vid=de90fca9-18c3-4815-9850-ad384cc034ab","ios":"levelo://app?vid=de90fca9-18c3-4815-9850-ad384cc034ab"},"vehicle_type_id":"4","last_reported":1748715171,"current_range_meters":10000,"station_id":"ce4bhmh2rcd13ifvqgmg","pricing_plan_id":"cebpf4jnsgd1na2vs0mg"},{"bike_id":"6d7c16a6-7340-444a-951d-e56443909105","system_id":"levelo_inurba_marseille","lat":43.2119,"lon":5.35063,"is_reserved":false,"is_disabled":false,"rental_uris":{"android":"levelo://app?vid=6d7c16a6-7340-444a-951d-e56443909105","ios":"levelo://app?vid=6d7c16a6-7340-444a-951d-e56443909105"},"vehicle_type_id":"4","last_reported":1748715171,"current_range_meters":10000,"station_id":"st_cvj6sg6p6f1abm77japg","pricing_plan_id":"cebpf4jnsgd1na2vs0mg"},{"bike_id":"e55d85af-ae47-4eeb-b197-d8c65f415032","system_id":"levelo_inurba_marseille","lat":43.29534,"lon":5.38536,"is_reserved":false,"is_disabled":false,"rental_uris":{"android":"levelo://app?vid=e55d85af-ae47-4eeb-b197-d8c65f415032","ios":"levelo://app?vid=e55d85af-ae47-4eeb-b197-d8c65f415032"},"vehicle_type_id":"4","last_reported":1748715171,"current_range_meters":9600,"station_id":"ce4bgih2rcd13ifvqba0","pricing_plan_id":"cebpf4jnsgd1na2vs0mg"},{"bike_id":"0d3bab2f-26cf-41f1-82dd-bb5db963b288","system_id":"levelo_inurba_marseille","lat":43.32542,"lon":5.36483,"is_reserved":false,"is_disabled":true,"rental_uris":{"android":"levelo://app?vid=0d3bab2f-26cf-41f1-82dd-bb5db963b288","ios":"levelo://app?vid=0d3bab2f-26cf-41f1-82dd-bb5db963b288"},"vehicle_type_id":"4","last_reported":1748715171,"current_range_meters":10000,"station_id":"","pricing_plan_id":"cebpf4jnsgd1na2vs0mg"},{"bike_id":"bfc6dce9-77ca-4235-96b6-63b5fbc4d6e2","system_id":"levelo_inurba_marseille","lat":43.33667,"lon":5.38576,"is_reserved":false,"is_disabled":false,"rental_uris":{"android":"levelo://app?vid=bfc6dce9-77ca-4235-96b6-63b5fbc4d6e2","ios":"levelo://app?vid=bfc6dce9-77ca-4235-96b6-63b5fbc4d6e2"},"vehicle_type_id":"4","last_reported":1748715171,"current_range_meters":10800,"station_id":"","pricing_plan_id":"cebpf4jnsgd1na2vs0mg"},{"bike_id":"5f636df7-45b0-4cb9-a8c5-9977581d9c31","system_id":"levelo_inurba_marseille","lat":43.26802,"lon":5.39416,"is_reserved":false,"is_disabled":false,"rental_uris":{"android":"levelo://app?vid=5f636df7-45b0-4cb9-a8c5-9977581d9c31","ios":"levelo://app?vid=5f636df7-45b0-4cb9-a8c5-9977581d9c31"},"vehicle_type_id":"4","last_reported":1748715171,"current_range_meters":10800,"station_id":"ce4bhh12rcd13ifvqfg0","pricing_plan_id":"cebpf4jnsgd1na2vs0mg"},{"bike_id":"e74ebf15-3f21-436b-8539-5c3607ed04fb","system_id":"levelo_inurba_marseille","lat":43.292671,"lon":5.38434,"is_reserved":false,"is_disabled":false,"rental_uris":{"android":"levelo://app?vid=e74ebf15-3f21-436b-8539-5c3607ed04fb","ios":"levelo://app?vid=e74ebf15-3f21-436b-8539-5c3607ed04fb"},"vehicle_type_id":"4","last_reported":1748715171,"current_range_meters":10800,"station_id":"ce4bh692rcd13ifvqea0","pricing_plan_id":"cebpf4jnsgd1na2vs0mg"},{"bike_id":"88156d05-def4-4b36-a01c-bf5f823d7052","system_id":"levelo_inurba_marseille","lat":43.2695,"lon":5.40285,"is_reserved":false,"is_disabled":false,"rental_uris":{"android":"levelo://app?vid=88156d05-def4-4b36-a01c-bf5f823d7052","ios":"levelo://app?vid=88156d05-def4-4b36-a01c-bf5f823d7052"},"vehicle_type_id":"4","last_reported":1748715171,"current_range_meters":10800,"station_id":"cjm6bp8fraef2m0cb0m0","pricing_plan_id":"cebpf4jnsgd1na2vs0mg"},{"bike_id":"20e34521-6995-452a-93bb-bb81d75e1eb4","system_id":"levelo_inurba_marseille","lat":43.29174,"lon":5.37144,"is_reserved":false,"is_disabled":false,"rental_uris":{"android":"levelo://app?vid=20e34521-6995-452a-93bb-bb81d75e1eb4","ios":"levelo://app?vid=20e34521-6995-452a-93bb-bb81d75e1eb4"},"vehicle_type_id":"4","last_reported":1748715171,"current_range_meters":10800,"station_id":"ce4bha92rcd13ifvqeh0","pricing_plan_id":"cebpf4jnsgd1na2vs0mg"},{"bike_id":"9854e2a4-f9c6-4c61-9386-aa9bad1e97ae","system_id":"levelo_inurba_marseille","lat":43.24648,"lon":5.38904,"is_reserved":false,"is_disabled":false,"rental_uris":{"android":"levelo://app?vid=9854e2a4-f9c6-4c61-9386-aa9bad1e97ae","ios":"levelo://app?vid=9854e2a4-f9c6-4c61-9386-aa9bad1e97ae"},"vehicle_type_id":"4","last_reported":1748715171,"current_range_meters":10800,"station_id":"ce4bhg12rcd13ifvqf60","pricing_plan_id":"cebpf4jnsgd1na2vs0mg"},{"bike_id":"76a945ba-9ba8-414f-963a-73e1a106e0fc","system_id":"levelo_inurba_marseille","lat":43.26275,"lon":5.4047,"is_reserved":false,"is_disabled":false,"rental_uris":{"android":"levelo://app?vid=76a945ba-9ba8-414f-963a-73e1a106e0fc","ios":"levelo://app?vid=76a945ba-9ba8-414f-963a-73e1a106e0fc"},"vehicle_type_id":"4","last_reported":1748715171,"current_range_meters":10800,"station_id":"","pricing_plan_id":"cebpf4jnsgd1na2vs0mg"},{"bike_id":"da213bf2-f099-4aff-84aa-2b2c9219bf56","system_id":"levelo_inurba_marseille","lat":43.28368,"lon":5.38641,"is_reserved":false,"is_disabled":false,"rental_uris":{"android":"levelo://app?vid=da213bf2-f099-4aff-84aa-2b2c9219bf56","ios":"levelo://app?vid=da213bf2-f099-4aff-84aa-2b2c9219bf56"},"vehicle_type_id":"4","last_reported":1748715171,"current_range_meters":10800,"station_id":"ce4bh492rcd13ifvqdvg","pricing_plan_id":"cebpf4jnsgd1na2vs0mg"},{"bike_id":"28fbe856-990f-4461-900c-781fe55b83ed","system_id":"levelo_inurba_marseille","lat":43.29528,"lon":5.39036,"is_reserved":false,"is_disabled":false,"rental_uris":{"android":"levelo://app?vid=28fbe856-990f-4461-900c-781fe55b83ed","ios":"levelo://app?vid=28fbe856-990f-4461-900c-781fe55b83ed"},"vehicle_type_id":"4","last_reported":1748715171,"current_range_meters":10800,"station_id":"ce4bh3p2rcd13ifvqdp0","pricing_plan_id":"cebpf4jnsgd1na2vs0mg"},{"bike_id":"16956ecc-ed47-44a5-bf64-7ac7c0de85fa","system_id":"levelo_inurba_marseille","lat":43.31546,"lon":5.36917,"is_reserved":false,"is_disabled":false,"rental_uris":{"android":"levelo://app?vid=16956ecc-ed47-44a5-bf64-7ac7c0de85fa","ios":"levelo://app?vid=16956ecc-ed47-44a5-bf64-7ac7c0de85fa"},"vehicle_type_id":"4","last_reported":1748715171,"current_range_meters":10800,"station_id":"","pricing_plan_id":"cebpf4jnsgd1na2vs0mg"},{"bike_id":"ca7b2d2b-d908-48d8-912c-85cfe8a74572","system_id":"levelo_inurba_marseille","lat":43.31364,"lon":5.38495,"is_reserved":false,"is_disabled":false,"rental_uris":{"android":"levelo://app?vid=ca7b2d2b-d908-48d8-912c-85cfe8a74572","ios":"levelo://app?vid=ca7b2d2b-d908-48d8-912c-85cfe8a74572"},"vehicle_type_id":"4","last_reported":1748715171,"current_range_meters":11200,"station_id":"ce4bgt92rcd13ifvqcf0","pricing_plan_id":"cebpf4jnsgd1na2vs0mg"},{"bike_id":"83e1140f-09fb-4001-9993-ad86ff25a528","system_id":"levelo_inurba_marseille","lat":43.25825,"lon":5.39435,"is_reserved":false,"is_disabled":false,"rental_uris":{"android":"levelo://app?vid=83e1140f-09fb-4001-9993-ad86ff25a528","ios":"levelo://app?vid=83e1140f-09fb-4001-9993-ad86ff25a528"},"vehicle_type_id":"4","last_reported":1748715171,"current_range_meters":10800,"station_id":"ce4bhip2rcd13ifvqft0","pricing_plan_id":"cebpf4jnsgd1na2vs0mg"},{"bike_id":"96b1ec3f-2b3b-4c69-9ca6-0c148ac7a613","system_id":"levelo_inurba_marseille","lat":43.27307,"lon":5.39084,"is_reserved":false,"is_disabled":false,"rental_uris":{"android":"levelo://app?vid=96b1ec3f-2b3b-4c69-9ca6-0c148ac7a613","ios":"levelo://app?vid=96b1ec3f-2b3b-4c69-9ca6-0c148ac7a613"},"vehicle_type_id":"4","last_reported":1748715171,"current_range_meters":11200,"station_id":"ce4bhgp2rcd13ifvqfe0","pricing_plan_id":"cebpf4jnsgd1na2vs0mg"},{"bike_id":"3938467f-3d31-4a03-b46d-bf5802056cb6","system_id":"levelo_inurba_marseille","lat":43.27859,"lon":5.40715,"is_reserved":false,"is_disabled":false,"rental_uris":{"android":"levelo://app?vid=3938467f-3d31-4a03-b46d-bf5802056cb6","ios":"levelo://app?vid=3938467f-3d31-4a03-b46d-bf5802056cb6"},"vehicle_type_id":"4","last_reported":1748715171,"current_range_meters":10800,"station_id":"ce4bhnh2rcd13ifvqgtg","pricing_plan_id":"cebpf4jnsgd1na2vs0mg"},{"bike_id":"ca45ae50-8fdf-43fd-8443-30c134198d86","system_id":"levelo_inurba_marseille","lat":43.26567,"lon":5.40324,"is_reserved":false,"is_disabled":false,"rental_uris":{"android":"levelo://app?vid=ca45ae50-8fdf-43fd-8443-30c134198d86","ios":"levelo://app?vid=ca45ae50-8fdf-43fd-8443-30c134198d86"},"vehicle_type_id":"4","last_reported":1748715171,"current_range_meters":11200,"station_id":"","pricing_plan_id":"cebpf4jnsgd1na2vs0mg"},{"bike_id":"902a2f67-798a-497c-94f7-4c62087bb6fd","system_id":"levelo_inurba_marseille","lat":43.24993,"lon":5.38923,"is_reserved":false,"is_disabled":false,"rental_uris":{"android":"levelo://app?vid=902a2f67-798a-497c-94f7-4c62087bb6fd","ios":"levelo://app?vid=902a2f67-798a-497c-94f7-4c62087bb6fd"},"vehicle_type_id":"4","last_reported":1748715171,"current_range_meters":11200,"station_id":"ce4bhgp2rcd13ifvqfd0","pricing_plan_id":"cebpf4jnsgd1na2vs0mg"},{"bike_id":"4471a03f-fa37-4f00-83de-3c92d2a6e7e3","system_id":"levelo_inurba_marseille","lat":43.29537,"lon":5.39027,"is_reserved":false,"is_disabled":false,"rental_uris":{"android":"levelo://app?vid=4471a03f-fa37-4f00-83de-3c92d2a6e7e3","ios":"levelo://app?vid=4471a03f-fa37-4f00-83de-3c92d2a6e7e3"},"vehicle_type_id":"4","last_reported":1748715171,"current_range_meters":11200,"station_id":"ce4bh3p2rcd13ifvqdp0","pricing_plan_id":"cebpf4jnsgd1na2vs0mg"},{"bike_id":"5307c548-7f3f-4ec1-807a-52e5b35f3755","system_id":"levelo_inurba_marseille","lat":43.22941,"lon":5.35363,"is_reserved":false,"is_disabled":false,"rental_uris":{"android":"levelo://app?vid=5307c548-7f3f-4ec1-807a-52e5b35f3755","ios":"levelo://app?vid=5307c548-7f3f-4ec1-807a-52e5b35f3755"},"vehicle_type_id":"4","last_reported":1748715171,"current_range_meters":11200,"station_id":"cpo3532slgdg3j2ikp40","pricing_plan_id":"cebpf4jnsgd1na2vs0mg"},{"bike_id":"31ab25fd-91b6-460d-907b-2a62b1233c40","system_id":"levelo_inurba_marseille","lat":43.31479,"lon":5.37818,"is_reserved":false,"is_disabled":false,"rental_uris":{"android":"levelo://app?vid=31ab25fd-91b6-460d-907b-2a62b1233c40","ios":"levelo://app?vid=31ab25fd-91b6-460d-907b-2a62b1233c40"},"vehicle_type_id":"4","last_reported":1748715171,"current_range_meters":11600,"station_id":"","pricing_plan_id":"cebpf4jnsgd1na2vs0mg"},{"bike_id":"e136a336-8bc9-4629-858a-67ef30bf679a","system_id":"levelo_inurba_marseille","lat":43.27829,"lon":5.355,"is_reserved":false,"is_disabled":false,"rental_uris":{"android":"levelo://app?vid=e136a336-8bc9-4629-858a-67ef30bf679a","ios":"levelo://app?vid=e136a336-8bc9-4629-858a-67ef30bf679a"},"vehicle_type_id":"4","last_reported":1748715171,"current_range_meters":11600,"station_id":"","pricing_plan_id":"cebpf4jnsgd1na2vs0mg"},{"bike_id":"6885f225-3304-4cef-a441-19c941fff7af","system_id":"levelo_inurba_marseille","lat":43.26557,"lon":5.37283,"is_reserved":false,"is_disabled":false,"rental_uris":{"android":"levelo://app?vid=6885f225-3304-4cef-a441-19c941fff7af","ios":"levelo://app?vid=6885f225-3304-4cef-a441-19c941fff7af"},"vehicle_type_id":"4","last_reported":1748715171,"current_range_meters":11600,"station_id":"ce4bhg12rcd13ifvqf70","pricing_plan_id":"cebpf4jnsgd1na2vs0mg"},{"bike_id":"e63dd26d-078b-4b90-8a7b-688c5be14910","system_id":"levelo_inurba_marseille","lat":43.30546,"lon":5.36535,"is_reserved":false,"is_disabled":false,"rental_uris":{"android":"levelo://app?vid=e63dd26d-078b-4b90-8a7b-688c5be14910","ios":"levelo://app?vid=e63dd26d-078b-4b90-8a7b-688c5be14910"},"vehicle_type_id":"4","last_reported":1748715171,"current_range_meters":11600,"station_id":"ce4bgs12rcd13ifvqcag","pricing_plan_id":"cebpf4jnsgd1na2vs0mg"},{"bike_id":"424abc49-7098-476e-9563-b7acdbab96ad","system_id":"levelo_inurba_marseille","lat":43.25127,"lon":5.403,"is_reserved":false,"is_disabled":false,"rental_uris":{"android":"levelo://app?vid=424abc49-7098-476e-9563-b7acdbab96ad","ios":"levelo://app?vid=424abc49-7098-476e-9563-b7acdbab96ad"},"vehicle_type_id":"4","last_reported":1748715171,"current_range_meters":12000,"station_id":"ce4bhlh2rcd13ifvqgig","pricing_plan_id":"cebpf4jnsgd1na2vs0mg"},{"bike_id":"8b19be97-459e-4936-8b45-e1df3fa68adf","system_id":"levelo_inurba_marseille","lat":43.26943,"lon":5.40247,"is_reserved":false,"is_disabled":false,"rental_uris":{"android":"levelo://app?vid=8b19be97-459e-4936-8b45-e1df3fa68adf","ios":"levelo://app?vid=8b19be97-459e-4936-8b45-e1df3fa68adf"},"vehicle_type_id":"4","last_reported":1748715171,"current_range_meters":12000,"station_id":"cjm6bp8fraef2m0cb0m0","pricing_plan_id":"cebpf4jnsgd1na2vs0mg"},{"bike_id":"7f08a69a-2d5b-48e6-8e97-32333e7c1f12","system_id":"levelo_inurba_marseille","lat":43.25465,"lon":5.37543,"is_reserved":false,"is_disabled":false,"rental_uris":{"android":"levelo://app?vid=7f08a69a-2d5b-48e6-8e97-32333e7c1f12","ios":"levelo://app?vid=7f08a69a-2d5b-48e6-8e97-32333e7c1f12"},"vehicle_type_id":"4","last_reported":1748715171,"current_range_meters":12000,"station_id":"","pricing_plan_id":"cebpf4jnsgd1na2vs0mg"},{"bike_id":"e6bf0c37-d2a0-4cf7-bda5-bdec7e2a1f23","system_id":"levelo_inurba_marseille","lat":43.322994,"lon":5.382863,"is_reserved":false,"is_disabled":false,"rental_uris":{"android":"levelo://app?vid=e6bf0c37-d2a0-4cf7-bda5-bdec7e2a1f23","ios":"levelo://app?vid=e6bf0c37-d2a0-4cf7-bda5-bdec7e2a1f23"},"vehicle_type_id":"4","last_reported":1748715171,"current_range_meters":12000,"station_id":"ce4bhr12rcd13ifvqhqg","pricing_plan_id":"cebpf4jnsgd1na2vs0mg"},{"bike_id":"cf279d2d-6d2e-4e4a-97ba-c6741698cdd4","system_id":"levelo_inurba_marseille","lat":43.24676,"lon":5.38159,"is_reserved":false,"is_disabled":false,"rental_uris":{"android":"levelo://app?vid=cf279d2d-6d2e-4e4a-97ba-c6741698cdd4","ios":"levelo://app?vid=cf279d2d-6d2e-4e4a-97ba-c6741698cdd4"},"vehicle_type_id":"4","last_reported":1748715171,"current_range_meters":12000,"station_id":"ce4bhih2rcd13ifvqfr0","pricing_plan_id":"cebpf4jnsgd1na2vs0mg"},{"bike_id":"d8644b24-a06d-4785-b0ed-942ae9d63fed","system_id":"levelo_inurba_marseille","lat":43.272878,"lon":5.385467,"is_reserved":false,"is_disabled":false,"rental_uris":{"android":"levelo://app?vid=d8644b24-a06d-4785-b0ed-942ae9d63fed","ios":"levelo://app?vid=d8644b24-a06d-4785-b0ed-942ae9d63fed"},"vehicle_type_id":"4","last_reported":1748715171,"current_range_meters":12000,"station_id":"ce4bhg92rcd13ifvqf90","pricing_plan_id":"cebpf4jnsgd1na2vs0mg"},{"bike_id":"2775b96c-f69e-4158-859a-b929c5a2864a","system_id":"levelo_inurba_marseille","lat":43.30138,"lon":5.39872,"is_reserved":false,"is_disabled":false,"rental_uris":{"android":"levelo://app?vid=2775b96c-f69e-4158-859a-b929c5a2864a","ios":"levelo://app?vid=2775b96c-f69e-4158-859a-b929c5a2864a"},"vehicle_type_id":"4","last_reported":1748715171,"current_range_meters":11600,"station_id":"ce4bh0h2rcd13ifvqd40","pricing_plan_id":"cebpf4jnsgd1na2vs0mg"},{"bike_id":"9919233f-1ed1-49a6-8c15-0ea3db63644e","system_id":"levelo_inurba_marseille","lat":43.294298,"lon":5.362525,"is_reserved":false,"is_disabled":false,"rental_uris":{"android":"levelo://app?vid=9919233f-1ed1-49a6-8c15-0ea3db63644e","ios":"levelo://app?vid=9919233f-1ed1-49a6-8c15-0ea3db63644e"},"vehicle_type_id":"4","last_reported":1748715171,"current_range_meters":12400,"station_id":"ce4bh4p2rcd13ifvqe0g","pricing_plan_id":"cebpf4jnsgd1na2vs0mg"},{"bike_id":"b4a389d7-474d-4a9d-8dec-223a88612b5c","system_id":"levelo_inurba_marseille","lat":43.24989,"lon":5.3795,"is_reserved":false,"is_disabled":false,"rental_uris":{"android":"levelo://app?vid=b4a389d7-474d-4a9d-8dec-223a88612b5c","ios":"levelo://app?vid=b4a389d7-474d-4a9d-8dec-223a88612b5c"},"vehicle_type_id":"4","last_reported":1748715171,"current_range_meters":12400,"station_id":"","pricing_plan_id":"cebpf4jnsgd1na2vs0mg"},{"bike_id":"69d2d9d9-3272-4785-83c4-fa1af506ead2","system_id":"levelo_inurba_marseille","lat":43.28851,"lon":5.35873,"is_reserved":false,"is_disabled":false,"rental_uris":{"android":"levelo://app?vid=69d2d9d9-3272-4785-83c4-fa1af506ead2","ios":"levelo://app?vid=69d2d9d9-3272-4785-83c4-fa1af506ead2"},"vehicle_type_id":"4","last_reported":1748715171,"current_range_meters":12400,"station_id":"ce4bhb12rcd13ifvqem0","pricing_plan_id":"cebpf4jnsgd1na2vs0mg"},{"bike_id":"90661731-e0ab-494e-b197-0ad194ea14f4","system_id":"levelo_inurba_marseille","lat":43.26934,"lon":5.40259,"is_reserved":false,"is_disabled":false,"rental_uris":{"android":"levelo://app?vid=90661731-e0ab-494e-b197-0ad194ea14f4","ios":"levelo://app?vid=90661731-e0ab-494e-b197-0ad194ea14f4"},"vehicle_type_id":"4","last_reported":1748715171,"current_range_meters":12400,"station_id":"cjm6bp8fraef2m0cb0m0","pricing_plan_id":"cebpf4jnsgd1na2vs0mg"},{"bike_id":"8f0300e4-899f-4e13-b8a7-90f137ab1640","system_id":"levelo_inurba_marseille","lat":43.27089,"lon":5.39294,"is_reserved":false,"is_disabled":false,"rental_uris":{"android":"levelo://app?vid=8f0300e4-899f-4e13-b8a7-90f137ab1640","ios":"levelo://app?vid=8f0300e4-899f-4e13-b8a7-90f137ab1640"},"vehicle_type_id":"4","last_reported":1748715171,"current_range_meters":12400,"station_id":"","pricing_plan_id":"cebpf4jnsgd1na2vs0mg"},{"bike_id":"722be95d-376f-42f6-9a9d-f330564dee33","system_id":"levelo_inurba_marseille","lat":43.28458,"lon":5.35887,"is_reserved":false,"is_disabled":false,"rental_uris":{"android":"levelo://app?vid=722be95d-376f-42f6-9a9d-f330564dee33","ios":"levelo://app?vid=722be95d-376f-42f6-9a9d-f330564dee33"},"vehicle_type_id":"4","last_reported":1748715171,"current_range_meters":12400,"station_id":"ce4bhah2rcd13ifvqei0","pricing_plan_id":"cebpf4jnsgd1na2vs0mg"},{"bike_id":"9515be88-66db-492e-b43e-02feb729ae33","system_id":"levelo_inurba_marseille","lat":43.29305,"lon":5.37462,"is_reserved":false,"is_disabled":false,"rental_uris":{"android":"levelo://app?vid=9515be88-66db-492e-b43e-02feb729ae33","ios":"levelo://app?vid=9515be88-66db-492e-b43e-02feb729ae33"},"vehicle_type_id":"4","last_reported":1748715171,"current_range_meters":12400,"station_id":"ce4bgi12rcd13ifvqb70","pricing_plan_id":"cebpf4jnsgd1na2vs0mg"},{"bike_id":"901b04f0-14a5-4593-9b2f-32eb6aa5c685","system_id":"levelo_inurba_marseille","lat":43.25872,"lon":5.39895,"is_reserved":false,"is_disabled":false,"rental_uris":{"android":"levelo://app?vid=901b04f0-14a5-4593-9b2f-32eb6aa5c685","ios":"levelo://app?vid=901b04f0-14a5-4593-9b2f-32eb6aa5c685"},"vehicle_type_id":"4","last_reported":1748715171,"current_range_meters":12400,"station_id":"ce4bhl92rcd13ifvqghg","pricing_plan_id":"cebpf4jnsgd1na2vs0mg"},{"bike_id":"1cbc3454-ff5d-4ea4-b25c-b28e2bf616a9","system_id":"levelo_inurba_marseille","lat":43.25119,"lon":5.40312,"is_reserved":false,"is_disabled":false,"rental_uris":{"android":"levelo://app?vid=1cbc3454-ff5d-4ea4-b25c-b28e2bf616a9","ios":"levelo://app?vid=1cbc3454-ff5d-4ea4-b25c-b28e2bf616a9"},"vehicle_type_id":"4","last_reported":1748715171,"current_range_meters":12400,"station_id":"ce4bhlh2rcd13ifvqgig","pricing_plan_id":"cebpf4jnsgd1na2vs0mg"},{"bike_id":"14036455-f919-44f7-8d5e-0b2e84f48674","system_id":"levelo_inurba_marseille","lat":43.30929,"lon":5.40386,"is_reserved":false,"is_disabled":false,"rental_uris":{"android":"levelo://app?vid=14036455-f919-44f7-8d5e-0b2e84f48674","ios":"levelo://app?vid=14036455-f919-44f7-8d5e-0b2e84f48674"},"vehicle_type_id":"4","last_reported":1748715171,"current_range_meters":12400,"station_id":"","pricing_plan_id":"cebpf4jnsgd1na2vs0mg"},{"bike_id":"f9441846-982b-4da6-88f3-a6bb4dcb8ea9","system_id":"levelo_inurba_marseille","lat":43.29623,"lon":5.37154,"is_reserved":false,"is_disabled":false,"rental_uris":{"android":"levelo://app?vid=f9441846-982b-4da6-88f3-a6bb4dcb8ea9","ios":"levelo://app?vid=f9441846-982b-4da6-88f3-a6bb4dcb8ea9"},"vehicle_type_id":"4","last_reported":1748715171,"current_range_meters":12400,"station_id":"ce4bgnh2rcd13ifvqc0g","pricing_plan_id":"cebpf4jnsgd1na2vs0mg"},{"bike_id":"00977f15-e592-4672-a2ee-8936466e62ad","system_id":"levelo_inurba_marseille","lat":43.283513,"lon":5.38105,"is_reserved":false,"is_disabled":false,"rental_uris":{"android":"levelo://app?vid=00977f15-e592-4672-a2ee-8936466e62ad","ios":"levelo://app?vid=00977f15-e592-4672-a2ee-8936466e62ad"},"vehicle_type_id":"4","last_reported":1748715171,"current_range_meters":12400,"station_id":"ce4bh412rcd13ifvqdr0","pricing_plan_id":"cebpf4jnsgd1na2vs0mg"},{"bike_id":"cf50ba75-591f-47d3-8449-67bc832da83e","system_id":"levelo_inurba_marseille","lat":43.30581,"lon":5.39325,"is_reserved":false,"is_disabled":false,"rental_uris":{"android":"levelo://app?vid=cf50ba75-591f-47d3-8449-67bc832da83e","ios":"levelo://app?vid=cf50ba75-591f-47d3-8449-67bc832da83e"},"vehicle_type_id":"4","last_reported":1748715171,"current_range_meters":12800,"station_id":"ce4bh0p2rcd13ifvqd80","pricing_plan_id":"cebpf4jnsgd1na2vs0mg"},{"bike_id":"241ff619-4268-4fea-beab-5cec9d05ac4f","system_id":"levelo_inurba_marseille","lat":43.31227,"lon":5.3686,"is_reserved":false,"is_disabled":false,"rental_uris":{"android":"levelo://app?vid=241ff619-4268-4fea-beab-5cec9d05ac4f","ios":"levelo://app?vid=241ff619-4268-4fea-beab-5cec9d05ac4f"},"vehicle_type_id":"4","last_reported":1748715171,"current_range_meters":12400,"station_id":"ce4bgl92rcd13ifvqbq0","pricing_plan_id":"cebpf4jnsgd1na2vs0mg"},{"bike_id":"5f17820e-1c5a-4614-b58a-6f8b9a92a842","system_id":"levelo_inurba_marseille","lat":43.31353,"lon":5.38497,"is_reserved":false,"is_disabled":false,"rental_uris":{"android":"levelo://app?vid=5f17820e-1c5a-4614-b58a-6f8b9a92a842","ios":"levelo://app?vid=5f17820e-1c5a-4614-b58a-6f8b9a92a842"},"vehicle_type_id":"4","last_reported":1748715171,"current_range_meters":12800,"station_id":"ce4bgt92rcd13ifvqcf0","pricing_plan_id":"cebpf4jnsgd1na2vs0mg"},{"bike_id":"041184d8-a715-44a3-bcc7-6fc4256fcf0b","system_id":"levelo_inurba_marseille","lat":43.29262,"lon":5.36841,"is_reserved":false,"is_disabled":false,"rental_uris":{"android":"levelo://app?vid=041184d8-a715-44a3-bcc7-6fc4256fcf0b","ios":"levelo://app?vid=041184d8-a715-44a3-bcc7-6fc4256fcf0b"},"vehicle_type_id":"4","last_reported":1748715171,"current_range_meters":13600,"station_id":"ce4bhbp2rcd13ifvqesg","pricing_plan_id":"cebpf4jnsgd1na2vs0mg"},{"bike_id":"9ad0de0a-3e96-4789-98a7-79fce64489b7","system_id":"levelo_inurba_marseille","lat":43.26945,"lon":5.40254,"is_reserved":false,"is_disabled":false,"rental_uris":{"android":"levelo://app?vid=9ad0de0a-3e96-4789-98a7-79fce64489b7","ios":"levelo://app?vid=9ad0de0a-3e96-4789-98a7-79fce64489b7"},"vehicle_type_id":"4","last_reported":1748715171,"current_range_meters":13600,"station_id":"cjm6bp8fraef2m0cb0m0","pricing_plan_id":"cebpf4jnsgd1na2vs0mg"},{"bike_id":"00e15b20-4d32-484d-8a04-1c02d5576d0f","system_id":"levelo_inurba_marseille","lat":43.30242,"lon":5.4005,"is_reserved":false,"is_disabled":false,"rental_uris":{"android":"levelo://app?vid=00e15b20-4d32-484d-8a04-1c02d5576d0f","ios":"levelo://app?vid=00e15b20-4d32-484d-8a04-1c02d5576d0f"},"vehicle_type_id":"4","last_reported":1748715171,"current_range_meters":13600,"station_id":"ce4bgvh2rcd13ifvqcs0","pricing_plan_id":"cebpf4jnsgd1na2vs0mg"},{"bike_id":"69f2d074-fda2-437a-9cc5-ec380dd15cc6","system_id":"levelo_inurba_marseille","lat":43.230557,"lon":5.354807,"is_reserved":false,"is_disabled":false,"rental_uris":{"android":"levelo://app?vid=69f2d074-fda2-437a-9cc5-ec380dd15cc6","ios":"levelo://app?vid=69f2d074-fda2-437a-9cc5-ec380dd15cc6"},"vehicle_type_id":"4","last_reported":1748715171,"current_range_meters":13600,"station_id":"cpo3342slgdg3j2ifvpg","pricing_plan_id":"cebpf4jnsgd1na2vs0mg"},{"bike_id":"b127b58b-2571-4d2a-a76f-4f378d9c3150","system_id":"levelo_inurba_marseille","lat":43.29264,"lon":5.40903,"is_reserved":false,"is_disabled":false,"rental_uris":{"android":"levelo://app?vid=b127b58b-2571-4d2a-a76f-4f378d9c3150","ios":"levelo://app?vid=b127b58b-2571-4d2a-a76f-4f378d9c3150"},"vehicle_type_id":"4","last_reported":1748715171,"current_range_meters":12800,"station_id":"ce4bh192rcd13ifvqdc0","pricing_plan_id":"cebpf4jnsgd1na2vs0mg"},{"bike_id":"63226803-31c6-4bba-8fb5-6056cb981b44","system_id":"levelo_inurba_marseille","lat":43.21773,"lon":5.34596,"is_reserved":false,"is_disabled":true,"rental_uris":{"android":"levelo://app?vid=63226803-31c6-4bba-8fb5-6056cb981b44","ios":"levelo://app?vid=63226803-31c6-4bba-8fb5-6056cb981b44"},"vehicle_type_id":"4","last_reported":1748715171,"current_range_meters":13600,"station_id":"st_cvj6r9ubvosntc0bgbag","pricing_plan_id":"cebpf4jnsgd1na2vs0mg"},{"bike_id":"02a58eb2-2f27-4ab0-961b-8d7a468b08af","system_id":"levelo_inurba_marseille","lat":43.31483,"lon":5.37304,"is_reserved":false,"is_disabled":false,"rental_uris":{"android":"levelo://app?vid=02a58eb2-2f27-4ab0-961b-8d7a468b08af","ios":"levelo://app?vid=02a58eb2-2f27-4ab0-961b-8d7a468b08af"},"vehicle_type_id":"4","last_reported":1748715171,"current_range_meters":13600,"station_id":"","pricing_plan_id":"cebpf4jnsgd1na2vs0mg"},{"bike_id":"c213034b-f9a3-48e8-9a07-6d97a3c51b73","system_id":"levelo_inurba_marseille","lat":43.25108,"lon":5.40326,"is_reserved":false,"is_disabled":false,"rental_uris":{"android":"levelo://app?vid=c213034b-f9a3-48e8-9a07-6d97a3c51b73","ios":"levelo://app?vid=c213034b-f9a3-48e8-9a07-6d97a3c51b73"},"vehicle_type_id":"4","last_reported":1748715171,"current_range_meters":13600,"station_id":"ce4bhlh2rcd13ifvqgig","pricing_plan_id":"cebpf4jnsgd1na2vs0mg"},{"bike_id":"69bef51a-2195-4a5b-be03-a5773a39ec7e","system_id":"levelo_inurba_marseille","lat":43.22929,"lon":5.35387,"is_reserved":false,"is_disabled":false,"rental_uris":{"android":"levelo://app?vid=69bef51a-2195-4a5b-be03-a5773a39ec7e","ios":"levelo://app?vid=69bef51a-2195-4a5b-be03-a5773a39ec7e"},"vehicle_type_id":"4","last_reported":1748715171,"current_range_meters":13600,"station_id":"cpo3532slgdg3j2ikp40","pricing_plan_id":"cebpf4jnsgd1na2vs0mg"},{"bike_id":"5dda483c-1a57-4d25-a240-850b0097cff1","system_id":"levelo_inurba_marseille","lat":43.30952,"lon":5.39029,"is_reserved":false,"is_disabled":false,"rental_uris":{"android":"levelo://app?vid=5dda483c-1a57-4d25-a240-850b0097cff1","ios":"levelo://app?vid=5dda483c-1a57-4d25-a240-850b0097cff1"},"vehicle_type_id":"4","last_reported":1748715171,"current_range_meters":13600,"station_id":"ce4bgup2rcd13ifvqco0","pricing_plan_id":"cebpf4jnsgd1na2vs0mg"},{"bike_id":"f9b6111d-297f-42b0-b622-4a4d069f2689","system_id":"levelo_inurba_marseille","lat":43.29417,"lon":5.38631,"is_reserved":false,"is_disabled":false,"rental_uris":{"android":"levelo://app?vid=f9b6111d-297f-42b0-b622-4a4d069f2689","ios":"levelo://app?vid=f9b6111d-297f-42b0-b622-4a4d069f2689"},"vehicle_type_id":"4","last_reported":1748715171,"current_range_meters":14000,"station_id":"ce4bh2h2rcd13ifvqdh0","pricing_plan_id":"cebpf4jnsgd1na2vs0mg"},{"bike_id":"4048acae-e522-401a-a98d-954cc1762a0b","system_id":"levelo_inurba_marseille","lat":43.29029,"lon":5.38642,"is_reserved":false,"is_disabled":false,"rental_uris":{"android":"levelo://app?vid=4048acae-e522-401a-a98d-954cc1762a0b","ios":"levelo://app?vid=4048acae-e522-401a-a98d-954cc1762a0b"},"vehicle_type_id":"4","last_reported":1748715171,"current_range_meters":14000,"station_id":"ce4bh4p2rcd13ifvqe0g","pricing_plan_id":"cebpf4jnsgd1na2vs0mg"},{"bike_id":"3b56a76a-b0e9-4fdd-956d-9e50e7fa3ccf","system_id":"levelo_inurba_marseille","lat":43.29319,"lon":5.37168,"is_reserved":false,"is_disabled":false,"rental_uris":{"android":"levelo://app?vid=3b56a76a-b0e9-4fdd-956d-9e50e7fa3ccf","ios":"levelo://app?vid=3b56a76a-b0e9-4fdd-956d-9e50e7fa3ccf"},"vehicle_type_id":"4","last_reported":1748715171,"current_range_meters":14000,"station_id":"ce4bgh92rcd13ifvqb40","pricing_plan_id":"cebpf4jnsgd1na2vs0mg"},{"bike_id":"b4e37ba1-6d68-4b26-95f1-da182f892736","system_id":"levelo_inurba_marseille","lat":43.292786,"lon":5.368385,"is_reserved":false,"is_disabled":false,"rental_uris":{"android":"levelo://app?vid=b4e37ba1-6d68-4b26-95f1-da182f892736","ios":"levelo://app?vid=b4e37ba1-6d68-4b26-95f1-da182f892736"},"vehicle_type_id":"4","last_reported":1748715171,"current_range_meters":14800,"station_id":"","pricing_plan_id":"cebpf4jnsgd1na2vs0mg"},{"bike_id":"b12b2560-60b4-48a3-baea-f903132d0a0e","system_id":"levelo_inurba_marseille","lat":43.32531,"lon":5.41444,"is_reserved":false,"is_disabled":false,"rental_uris":{"android":"levelo://app?vid=b12b2560-60b4-48a3-baea-f903132d0a0e","ios":"levelo://app?vid=b12b2560-60b4-48a3-baea-f903132d0a0e"},"vehicle_type_id":"4","last_reported":1748715171,"current_range_meters":14000,"station_id":"ce4bhq12rcd13ifvqhhg","pricing_plan_id":"cebpf4jnsgd1na2vs0mg"},{"bike_id":"5542403e-a18a-4f92-9d8a-0a656fa37580","system_id":"levelo_inurba_marseille","lat":43.29303,"lon":5.374604,"is_reserved":false,"is_disabled":false,"rental_uris":{"android":"levelo://app?vid=5542403e-a18a-4f92-9d8a-0a656fa37580","ios":"levelo://app?vid=5542403e-a18a-4f92-9d8a-0a656fa37580"},"vehicle_type_id":"4","last_reported":1748715171,"current_range_meters":14000,"station_id":"ce4bgi12rcd13ifvqb70","pricing_plan_id":"cebpf4jnsgd1na2vs0mg"},{"bike_id":"62b9fb40-b3b6-4001-a515-0c87ced39043","system_id":"levelo_inurba_marseille","lat":43.23969,"lon":5.36624,"is_reserved":false,"is_disabled":true,"rental_uris":{"android":"levelo://app?vid=62b9fb40-b3b6-4001-a515-0c87ced39043","ios":"levelo://app?vid=62b9fb40-b3b6-4001-a515-0c87ced39043"},"vehicle_type_id":"4","last_reported":1748715171,"current_range_meters":14400,"station_id":"ce4bhi12rcd13ifvqfp0","pricing_plan_id":"cebpf4jnsgd1na2vs0mg"},{"bike_id":"21d99759-9873-428f-a700-567a66535abe","system_id":"levelo_inurba_marseille","lat":43.22933,"lon":5.35374,"is_reserved":false,"is_disabled":false,"rental_uris":{"android":"levelo://app?vid=21d99759-9873-428f-a700-567a66535abe","ios":"levelo://app?vid=21d99759-9873-428f-a700-567a66535abe"},"vehicle_type_id":"4","last_reported":1748715171,"current_range_meters":14400,"station_id":"cpo3532slgdg3j2ikp40","pricing_plan_id":"cebpf4jnsgd1na2vs0mg"},{"bike_id":"abcf4eef-d72f-41a4-9151-a808dbb84b85","system_id":"levelo_inurba_marseille","lat":43.29148,"lon":5.3877,"is_reserved":false,"is_disabled":false,"rental_uris":{"android":"levelo://app?vid=abcf4eef-d72f-41a4-9151-a808dbb84b85","ios":"levelo://app?vid=abcf4eef-d72f-41a4-9151-a808dbb84b85"},"vehicle_type_id":"4","last_reported":1748715171,"current_range_meters":14400,"station_id":"","pricing_plan_id":"cebpf4jnsgd1na2vs0mg"},{"bike_id":"5da88d8e-0022-45a8-9a0c-83e6e17123f4","system_id":"levelo_inurba_marseille","lat":43.29295,"lon":5.3746,"is_reserved":false,"is_disabled":false,"rental_uris":{"android":"levelo://app?vid=5da88d8e-0022-45a8-9a0c-83e6e17123f4","ios":"levelo://app?vid=5da88d8e-0022-45a8-9a0c-83e6e17123f4"},"vehicle_type_id":"4","last_reported":1748715171,"current_range_meters":14400,"station_id":"ce4bgi12rcd13ifvqb70","pricing_plan_id":"cebpf4jnsgd1na2vs0mg"},{"bike_id":"d240b14c-57f3-465a-bf7f-9f4502426a72","system_id":"levelo_inurba_marseille","lat":43.261882,"lon":5.374511,"is_reserved":false,"is_disabled":false,"rental_uris":{"android":"levelo://app?vid=d240b14c-57f3-465a-bf7f-9f4502426a72","ios":"levelo://app?vid=d240b14c-57f3-465a-bf7f-9f4502426a72"},"vehicle_type_id":"4","last_reported":1748715171,"current_range_meters":14400,"station_id":"ce4bhgp2rcd13ifvqfc0","pricing_plan_id":"cebpf4jnsgd1na2vs0mg"},{"bike_id":"d22e9b18-dac6-4329-9d89-c44907627ba3","system_id":"levelo_inurba_marseille","lat":43.26554,"lon":5.37295,"is_reserved":false,"is_disabled":false,"rental_uris":{"android":"levelo://app?vid=d22e9b18-dac6-4329-9d89-c44907627ba3","ios":"levelo://app?vid=d22e9b18-dac6-4329-9d89-c44907627ba3"},"vehicle_type_id":"4","last_reported":1748715171,"current_range_meters":14400,"station_id":"ce4bhg12rcd13ifvqf70","pricing_plan_id":"cebpf4jnsgd1na2vs0mg"},{"bike_id":"c1eef69c-d4e4-44fa-adcb-fe44e10113b7","system_id":"levelo_inurba_marseille","lat":43.30428,"lon":5.38894,"is_reserved":false,"is_disabled":false,"rental_uris":{"android":"levelo://app?vid=c1eef69c-d4e4-44fa-adcb-fe44e10113b7","ios":"levelo://app?vid=c1eef69c-d4e4-44fa-adcb-fe44e10113b7"},"vehicle_type_id":"4","last_reported":1748715171,"current_range_meters":14400,"station_id":"ce4bgk12rcd13ifvqbi0","pricing_plan_id":"cebpf4jnsgd1na2vs0mg"},{"bike_id":"0a9b504a-5f98-4ecf-a12f-1fcda659d650","system_id":"levelo_inurba_marseille","lat":43.26196,"lon":5.37455,"is_reserved":false,"is_disabled":false,"rental_uris":{"android":"levelo://app?vid=0a9b504a-5f98-4ecf-a12f-1fcda659d650","ios":"levelo://app?vid=0a9b504a-5f98-4ecf-a12f-1fcda659d650"},"vehicle_type_id":"4","last_reported":1748715171,"current_range_meters":14400,"station_id":"ce4bhgp2rcd13ifvqfc0","pricing_plan_id":"cebpf4jnsgd1na2vs0mg"},{"bike_id":"19acb86c-d41f-4c99-95c0-a1f69c0413f6","system_id":"levelo_inurba_marseille","lat":43.25118,"lon":5.40329,"is_reserved":false,"is_disabled":false,"rental_uris":{"android":"levelo://app?vid=19acb86c-d41f-4c99-95c0-a1f69c0413f6","ios":"levelo://app?vid=19acb86c-d41f-4c99-95c0-a1f69c0413f6"},"vehicle_type_id":"4","last_reported":1748715171,"current_range_meters":14400,"station_id":"ce4bhlh2rcd13ifvqgig","pricing_plan_id":"cebpf4jnsgd1na2vs0mg"},{"bike_id":"63cf5925-340b-40c6-b25d-b52166da232c","system_id":"levelo_inurba_marseille","lat":43.251137,"lon":5.403183,"is_reserved":false,"is_disabled":false,"rental_uris":{"android":"levelo://app?vid=63cf5925-340b-40c6-b25d-b52166da232c","ios":"levelo://app?vid=63cf5925-340b-40c6-b25d-b52166da232c"},"vehicle_type_id":"4","last_reported":1748715171,"current_range_meters":14800,"station_id":"ce4bhlh2rcd13ifvqgig","pricing_plan_id":"cebpf4jnsgd1na2vs0mg"},{"bike_id":"3bb10fbd-dc5b-4784-87e8-4b319021440c","system_id":"levelo_inurba_marseille","lat":43.27376,"lon":5.36259,"is_reserved":false,"is_disabled":false,"rental_uris":{"android":"levelo://app?vid=3bb10fbd-dc5b-4784-87e8-4b319021440c","ios":"levelo://app?vid=3bb10fbd-dc5b-4784-87e8-4b319021440c"},"vehicle_type_id":"4","last_reported":1748715171,"current_range_meters":14800,"station_id":"ce4bhbh2rcd13ifvqeo0","pricing_plan_id":"cebpf4jnsgd1na2vs0mg"},{"bike_id":"4634b1a0-27fb-4f28-89df-b2b50c9cbade","system_id":"levelo_inurba_marseille","lat":43.28613,"lon":5.37057,"is_reserved":false,"is_disabled":false,"rental_uris":{"android":"levelo://app?vid=4634b1a0-27fb-4f28-89df-b2b50c9cbade","ios":"levelo://app?vid=4634b1a0-27fb-4f28-89df-b2b50c9cbade"},"vehicle_type_id":"4","last_reported":1748715171,"current_range_meters":14800,"station_id":"ce4bht12rcd13ifvqi60","pricing_plan_id":"cebpf4jnsgd1na2vs0mg"},{"bike_id":"a4ff4961-e590-4789-8a47-7406f573fdbb","system_id":"levelo_inurba_marseille","lat":43.32553,"lon":5.41428,"is_reserved":false,"is_disabled":false,"rental_uris":{"android":"levelo://app?vid=a4ff4961-e590-4789-8a47-7406f573fdbb","ios":"levelo://app?vid=a4ff4961-e590-4789-8a47-7406f573fdbb"},"vehicle_type_id":"4","last_reported":1748715171,"current_range_meters":14800,"station_id":"ce4bhq12rcd13ifvqhhg","pricing_plan_id":"cebpf4jnsgd1na2vs0mg"},{"bike_id":"d95a8927-9413-4ee6-b8dd-9b96d5af8d5e","system_id":"levelo_inurba_marseille","lat":43.2835,"lon":5.350457,"is_reserved":false,"is_disabled":false,"rental_uris":{"android":"levelo://app?vid=d95a8927-9413-4ee6-b8dd-9b96d5af8d5e","ios":"levelo://app?vid=d95a8927-9413-4ee6-b8dd-9b96d5af8d5e"},"vehicle_type_id":"4","last_reported":1748715171,"current_range_meters":14800,"station_id":"","pricing_plan_id":"cebpf4jnsgd1na2vs0mg"},{"bike_id":"fbdff89c-6eb2-4bb4-adff-92e23d969f91","system_id":"levelo_inurba_marseille","lat":43.29038,"lon":5.38647,"is_reserved":false,"is_disabled":false,"rental_uris":{"android":"levelo://app?vid=fbdff89c-6eb2-4bb4-adff-92e23d969f91","ios":"levelo://app?vid=fbdff89c-6eb2-4bb4-adff-92e23d969f91"},"vehicle_type_id":"4","last_reported":1748715171,"current_range_meters":14800,"station_id":"ce4bh4p2rcd13ifvqe0g","pricing_plan_id":"cebpf4jnsgd1na2vs0mg"},{"bike_id":"e210be7e-07b8-44d3-ae09-6702f28e2ae8","system_id":"levelo_inurba_marseille","lat":43.25127,"lon":5.39361,"is_reserved":false,"is_disabled":false,"rental_uris":{"android":"levelo://app?vid=e210be7e-07b8-44d3-ae09-6702f28e2ae8","ios":"levelo://app?vid=e210be7e-07b8-44d3-ae09-6702f28e2ae8"},"vehicle_type_id":"4","last_reported":1748715171,"current_range_meters":14800,"station_id":"","pricing_plan_id":"cebpf4jnsgd1na2vs0mg"},{"bike_id":"792b8862-e581-44be-8ddc-645d1733b829","system_id":"levelo_inurba_marseille","lat":43.28616,"lon":5.37057,"is_reserved":false,"is_disabled":false,"rental_uris":{"android":"levelo://app?vid=792b8862-e581-44be-8ddc-645d1733b829","ios":"levelo://app?vid=792b8862-e581-44be-8ddc-645d1733b829"},"vehicle_type_id":"4","last_reported":1748715171,"current_range_meters":14800,"station_id":"ce4bht12rcd13ifvqi60","pricing_plan_id":"cebpf4jnsgd1na2vs0mg"},{"bike_id":"4288e3ca-4482-4519-948e-f61b3bb514a2","system_id":"levelo_inurba_marseille","lat":43.26192,"lon":5.37449,"is_reserved":false,"is_disabled":false,"rental_uris":{"android":"levelo://app?vid=4288e3ca-4482-4519-948e-f61b3bb514a2","ios":"levelo://app?vid=4288e3ca-4482-4519-948e-f61b3bb514a2"},"vehicle_type_id":"4","last_reported":1748715171,"current_range_meters":14800,"station_id":"ce4bhgp2rcd13ifvqfc0","pricing_plan_id":"cebpf4jnsgd1na2vs0mg"},{"bike_id":"567a8f05-2f58-4864-86d4-0593652a9f3c","system_id":"levelo_inurba_marseille","lat":43.30947,"lon":5.3903,"is_reserved":false,"is_disabled":false,"rental_uris":{"android":"levelo://app?vid=567a8f05-2f58-4864-86d4-0593652a9f3c","ios":"levelo://app?vid=567a8f05-2f58-4864-86d4-0593652a9f3c"},"vehicle_type_id":"4","last_reported":1748715171,"current_range_meters":14800,"station_id":"ce4bgup2rcd13ifvqco0","pricing_plan_id":"cebpf4jnsgd1na2vs0mg"},{"bike_id":"9a189ee8-27ed-444b-b171-f705371af28f","system_id":"levelo_inurba_marseille","lat":43.28275,"lon":5.34921,"is_reserved":false,"is_disabled":false,"rental_uris":{"android":"levelo://app?vid=9a189ee8-27ed-444b-b171-f705371af28f","ios":"levelo://app?vid=9a189ee8-27ed-444b-b171-f705371af28f"},"vehicle_type_id":"4","last_reported":1748715171,"current_range_meters":15200,"station_id":"","pricing_plan_id":"cebpf4jnsgd1na2vs0mg"},{"bike_id":"23f7a61d-f2e6-4cde-aed3-314937768ace","system_id":"levelo_inurba_marseille","lat":43.2942,"lon":5.38619,"is_reserved":false,"is_disabled":false,"rental_uris":{"android":"levelo://app?vid=23f7a61d-f2e6-4cde-aed3-314937768ace","ios":"levelo://app?vid=23f7a61d-f2e6-4cde-aed3-314937768ace"},"vehicle_type_id":"4","last_reported":1748715171,"current_range_meters":15200,"station_id":"ce4bh2h2rcd13ifvqdh0","pricing_plan_id":"cebpf4jnsgd1na2vs0mg"},{"bike_id":"5344a6f7-f2b1-43fb-956c-32a014cd9682","system_id":"levelo_inurba_marseille","lat":43.29419,"lon":5.38609,"is_reserved":false,"is_disabled":true,"rental_uris":{"android":"levelo://app?vid=5344a6f7-f2b1-43fb-956c-32a014cd9682","ios":"levelo://app?vid=5344a6f7-f2b1-43fb-956c-32a014cd9682"},"vehicle_type_id":"4","last_reported":1748715171,"current_range_meters":15200,"station_id":"ce4bh2h2rcd13ifvqdh0","pricing_plan_id":"cebpf4jnsgd1na2vs0mg"},{"bike_id":"dce3651e-3250-4426-bdde-648b3915744d","system_id":"levelo_inurba_marseille","lat":43.28394,"lon":5.37521,"is_reserved":false,"is_disabled":false,"rental_uris":{"android":"levelo://app?vid=dce3651e-3250-4426-bdde-648b3915744d","ios":"levelo://app?vid=dce3651e-3250-4426-bdde-648b3915744d"},"vehicle_type_id":"4","last_reported":1748715171,"current_range_meters":15200,"station_id":"ce4bh412rcd13ifvqds0","pricing_plan_id":"cebpf4jnsgd1na2vs0mg"},{"bike_id":"f3469b0f-daac-4987-b711-b84005abe1dd","system_id":"levelo_inurba_marseille","lat":43.261938,"lon":5.374467,"is_reserved":false,"is_disabled":false,"rental_uris":{"android":"levelo://app?vid=f3469b0f-daac-4987-b711-b84005abe1dd","ios":"levelo://app?vid=f3469b0f-daac-4987-b711-b84005abe1dd"},"vehicle_type_id":"4","last_reported":1748715171,"current_range_meters":16000,"station_id":"ce4bhgp2rcd13ifvqfc0","pricing_plan_id":"cebpf4jnsgd1na2vs0mg"},{"bike_id":"32503fa7-7208-4269-b40f-34ba3dae0f9e","system_id":"levelo_inurba_marseille","lat":43.30873,"lon":5.40381,"is_reserved":false,"is_disabled":false,"rental_uris":{"android":"levelo://app?vid=32503fa7-7208-4269-b40f-34ba3dae0f9e","ios":"levelo://app?vid=32503fa7-7208-4269-b40f-34ba3dae0f9e"},"vehicle_type_id":"4","last_reported":1748715171,"current_range_meters":16000,"station_id":"","pricing_plan_id":"cebpf4jnsgd1na2vs0mg"},{"bike_id":"d464121f-7a45-4dc9-8935-517f24b49bb2","system_id":"levelo_inurba_marseille","lat":43.27185,"lon":5.40995,"is_reserved":false,"is_disabled":false,"rental_uris":{"android":"levelo://app?vid=d464121f-7a45-4dc9-8935-517f24b49bb2","ios":"levelo://app?vid=d464121f-7a45-4dc9-8935-517f24b49bb2"},"vehicle_type_id":"4","last_reported":1748715171,"current_range_meters":16000,"station_id":"ce4bhl12rcd13ifvqgf0","pricing_plan_id":"cebpf4jnsgd1na2vs0mg"},{"bike_id":"cdb90175-83c8-4bae-905b-332af7328d47","system_id":"levelo_inurba_marseille","lat":43.28729,"lon":5.37943,"is_reserved":false,"is_disabled":false,"rental_uris":{"android":"levelo://app?vid=cdb90175-83c8-4bae-905b-332af7328d47","ios":"levelo://app?vid=cdb90175-83c8-4bae-905b-332af7328d47"},"vehicle_type_id":"4","last_reported":1748715171,"current_range_meters":15200,"station_id":"ce4bh9p2rcd13ifvqec0","pricing_plan_id":"cebpf4jnsgd1na2vs0mg"},{"bike_id":"dd4dc5bb-4c97-472a-82f8-3947b3d67433","system_id":"levelo_inurba_marseille","lat":43.3031,"lon":5.36904,"is_reserved":false,"is_disabled":false,"rental_uris":{"android":"levelo://app?vid=dd4dc5bb-4c97-472a-82f8-3947b3d67433","ios":"levelo://app?vid=dd4dc5bb-4c97-472a-82f8-3947b3d67433"},"vehicle_type_id":"4","last_reported":1748715171,"current_range_meters":16000,"station_id":"ce4bgqh2rcd13ifvqc5g","pricing_plan_id":"cebpf4jnsgd1na2vs0mg"},{"bike_id":"054d2422-99ab-4377-b47d-de44d047ad8b","system_id":"levelo_inurba_marseille","lat":43.29413,"lon":5.38634,"is_reserved":false,"is_disabled":false,"rental_uris":{"android":"levelo://app?vid=054d2422-99ab-4377-b47d-de44d047ad8b","ios":"levelo://app?vid=054d2422-99ab-4377-b47d-de44d047ad8b"},"vehicle_type_id":"4","last_reported":1748715171,"current_range_meters":16000,"station_id":"ce4bh2h2rcd13ifvqdh0","pricing_plan_id":"cebpf4jnsgd1na2vs0mg"},{"bike_id":"6566b446-f1b0-4510-a7ba-41f68c1bbe0c","system_id":"levelo_inurba_marseille","lat":43.23063,"lon":5.35486,"is_reserved":false,"is_disabled":false,"rental_uris":{"android":"levelo://app?vid=6566b446-f1b0-4510-a7ba-41f68c1bbe0c","ios":"levelo://app?vid=6566b446-f1b0-4510-a7ba-41f68c1bbe0c"},"vehicle_type_id":"4","last_reported":1748715171,"current_range_meters":16000,"station_id":"cpo3342slgdg3j2ifvpg","pricing_plan_id":"cebpf4jnsgd1na2vs0mg"},{"bike_id":"4bfd45c7-d583-43b6-964e-3f82f5ef4043","system_id":"levelo_inurba_marseille","lat":43.25504,"lon":5.3765,"is_reserved":false,"is_disabled":false,"rental_uris":{"android":"levelo://app?vid=4bfd45c7-d583-43b6-964e-3f82f5ef4043","ios":"levelo://app?vid=4bfd45c7-d583-43b6-964e-3f82f5ef4043"},"vehicle_type_id":"4","last_reported":1748715171,"current_range_meters":16000,"station_id":"ce4bhh12rcd13ifvqff0","pricing_plan_id":"cebpf4jnsgd1na2vs0mg"},{"bike_id":"6cccbaeb-2c1e-4759-aca3-f2dd368559e3","system_id":"levelo_inurba_marseille","lat":43.29526,"lon":5.37507,"is_reserved":false,"is_disabled":false,"rental_uris":{"android":"levelo://app?vid=6cccbaeb-2c1e-4759-aca3-f2dd368559e3","ios":"levelo://app?vid=6cccbaeb-2c1e-4759-aca3-f2dd368559e3"},"vehicle_type_id":"4","last_reported":1748715171,"current_range_meters":16000,"station_id":"ce4bgkp2rcd13ifvqbmg","pricing_plan_id":"cebpf4jnsgd1na2vs0mg"},{"bike_id":"cef1b0ed-c0c0-4675-b511-05b4af58819e","system_id":"levelo_inurba_marseille","lat":43.30304,"lon":5.39213,"is_reserved":false,"is_disabled":false,"rental_uris":{"android":"levelo://app?vid=cef1b0ed-c0c0-4675-b511-05b4af58819e","ios":"levelo://app?vid=cef1b0ed-c0c0-4675-b511-05b4af58819e"},"vehicle_type_id":"4","last_reported":1748715171,"current_range_meters":16400,"station_id":"ce4bgkh2rcd13ifvqbk0","pricing_plan_id":"cebpf4jnsgd1na2vs0mg"},{"bike_id":"f5a90625-b7e8-48a8-90c6-777efe255a32","system_id":"levelo_inurba_marseille","lat":43.250997,"lon":5.409646,"is_reserved":false,"is_disabled":false,"rental_uris":{"android":"levelo://app?vid=f5a90625-b7e8-48a8-90c6-777efe255a32","ios":"levelo://app?vid=f5a90625-b7e8-48a8-90c6-777efe255a32"},"vehicle_type_id":"4","last_reported":1748715171,"current_range_meters":16400,"station_id":"","pricing_plan_id":"cebpf4jnsgd1na2vs0mg"},{"bike_id":"68894236-7bd9-4073-91e1-152beaa06d42","system_id":"levelo_inurba_marseille","lat":43.29266,"lon":5.38436,"is_reserved":false,"is_disabled":false,"rental_uris":{"android":"levelo://app?vid=68894236-7bd9-4073-91e1-152beaa06d42","ios":"levelo://app?vid=68894236-7bd9-4073-91e1-152beaa06d42"},"vehicle_type_id":"4","last_reported":1748715171,"current_range_meters":16400,"station_id":"ce4bh692rcd13ifvqea0","pricing_plan_id":"cebpf4jnsgd1na2vs0mg"},{"bike_id":"8672d1d1-8bac-4f2a-9617-2a7643cc3a5c","system_id":"levelo_inurba_marseille","lat":43.289992,"lon":5.386866,"is_reserved":false,"is_disabled":false,"rental_uris":{"android":"levelo://app?vid=8672d1d1-8bac-4f2a-9617-2a7643cc3a5c","ios":"levelo://app?vid=8672d1d1-8bac-4f2a-9617-2a7643cc3a5c"},"vehicle_type_id":"4","last_reported":1748715171,"current_range_meters":16400,"station_id":"ce4bh4p2rcd13ifvqe0g","pricing_plan_id":"cebpf4jnsgd1na2vs0mg"},{"bike_id":"521b0a7f-a35b-4001-a7ae-ec459254d412","system_id":"levelo_inurba_marseille","lat":43.312729,"lon":5.396481,"is_reserved":false,"is_disabled":false,"rental_uris":{"android":"levelo://app?vid=521b0a7f-a35b-4001-a7ae-ec459254d412","ios":"levelo://app?vid=521b0a7f-a35b-4001-a7ae-ec459254d412"},"vehicle_type_id":"4","last_reported":1748715171,"current_range_meters":16400,"station_id":"ce4bgvp2rcd13ifvqcu0","pricing_plan_id":"cebpf4jnsgd1na2vs0mg"},{"bike_id":"1f5cf2ed-581f-4f46-bd5a-501f4c6c7ecd","system_id":"levelo_inurba_marseille","lat":43.29799,"lon":5.404,"is_reserved":false,"is_disabled":false,"rental_uris":{"android":"levelo://app?vid=1f5cf2ed-581f-4f46-bd5a-501f4c6c7ecd","ios":"levelo://app?vid=1f5cf2ed-581f-4f46-bd5a-501f4c6c7ecd"},"vehicle_type_id":"4","last_reported":1748715171,"current_range_meters":16000,"station_id":"ce4bh112rcd13ifvqd90","pricing_plan_id":"cebpf4jnsgd1na2vs0mg"},{"bike_id":"90b3da99-c221-4c0b-af69-56bdc6495c97","system_id":"levelo_inurba_marseille","lat":43.31881,"lon":5.40741,"is_reserved":false,"is_disabled":false,"rental_uris":{"android":"levelo://app?vid=90b3da99-c221-4c0b-af69-56bdc6495c97","ios":"levelo://app?vid=90b3da99-c221-4c0b-af69-56bdc6495c97"},"vehicle_type_id":"4","last_reported":1748715171,"current_range_meters":16000,"station_id":"ce4bhq12rcd13ifvqhig","pricing_plan_id":"cebpf4jnsgd1na2vs0mg"},{"bike_id":"9aba07e0-5772-4eb3-90ed-e47b5c73e7d5","system_id":"levelo_inurba_marseille","lat":43.2668,"lon":5.38268,"is_reserved":false,"is_disabled":false,"rental_uris":{"android":"levelo://app?vid=9aba07e0-5772-4eb3-90ed-e47b5c73e7d5","ios":"levelo://app?vid=9aba07e0-5772-4eb3-90ed-e47b5c73e7d5"},"vehicle_type_id":"4","last_reported":1748715171,"current_range_meters":16800,"station_id":"ce4bhg92rcd13ifvqf90","pricing_plan_id":"cebpf4jnsgd1na2vs0mg"},{"bike_id":"2d0bdb08-2477-400c-89b6-3ed8aea96045","system_id":"levelo_inurba_marseille","lat":43.30952,"lon":5.39038,"is_reserved":false,"is_disabled":false,"rental_uris":{"android":"levelo://app?vid=2d0bdb08-2477-400c-89b6-3ed8aea96045","ios":"levelo://app?vid=2d0bdb08-2477-400c-89b6-3ed8aea96045"},"vehicle_type_id":"4","last_reported":1748715171,"current_range_meters":16800,"station_id":"ce4bgup2rcd13ifvqco0","pricing_plan_id":"cebpf4jnsgd1na2vs0mg"},{"bike_id":"4d41ae4f-5b39-4a55-9acc-4b5912103a73","system_id":"levelo_inurba_marseille","lat":43.299114,"lon":5.38141,"is_reserved":false,"is_disabled":false,"rental_uris":{"android":"levelo://app?vid=4d41ae4f-5b39-4a55-9acc-4b5912103a73","ios":"levelo://app?vid=4d41ae4f-5b39-4a55-9acc-4b5912103a73"},"vehicle_type_id":"4","last_reported":1748715171,"current_range_meters":16400,"station_id":"ce4bgj12rcd13ifvqbc0","pricing_plan_id":"cebpf4jnsgd1na2vs0mg"},{"bike_id":"4041e62e-6981-42c0-9cf8-93c3eaefa37a","system_id":"levelo_inurba_marseille","lat":43.268041,"lon":5.394289,"is_reserved":false,"is_disabled":false,"rental_uris":{"android":"levelo://app?vid=4041e62e-6981-42c0-9cf8-93c3eaefa37a","ios":"levelo://app?vid=4041e62e-6981-42c0-9cf8-93c3eaefa37a"},"vehicle_type_id":"4","last_reported":1748715171,"current_range_meters":16800,"station_id":"ce4bhh12rcd13ifvqfg0","pricing_plan_id":"cebpf4jnsgd1na2vs0mg"},{"bike_id":"77520d45-03bf-4b26-9f9b-8ac6c162ce6b","system_id":"levelo_inurba_marseille","lat":43.24372,"lon":5.41169,"is_reserved":false,"is_disabled":false,"rental_uris":{"android":"levelo://app?vid=77520d45-03bf-4b26-9f9b-8ac6c162ce6b","ios":"levelo://app?vid=77520d45-03bf-4b26-9f9b-8ac6c162ce6b"},"vehicle_type_id":"4","last_reported":1748715171,"current_range_meters":16800,"station_id":"","pricing_plan_id":"cebpf4jnsgd1na2vs0mg"},{"bike_id":"46e9e1e7-2fa7-40d1-a64b-c59e31c5c036","system_id":"levelo_inurba_marseille","lat":43.29264,"lon":5.38438,"is_reserved":false,"is_disabled":false,"rental_uris":{"android":"levelo://app?vid=46e9e1e7-2fa7-40d1-a64b-c59e31c5c036","ios":"levelo://app?vid=46e9e1e7-2fa7-40d1-a64b-c59e31c5c036"},"vehicle_type_id":"4","last_reported":1748715171,"current_range_meters":16800,"station_id":"ce4bh692rcd13ifvqea0","pricing_plan_id":"cebpf4jnsgd1na2vs0mg"},{"bike_id":"52138315-f13b-4871-ab78-9e5155a1008c","system_id":"levelo_inurba_marseille","lat":43.322833,"lon":5.382736,"is_reserved":false,"is_disabled":false,"rental_uris":{"android":"levelo://app?vid=52138315-f13b-4871-ab78-9e5155a1008c","ios":"levelo://app?vid=52138315-f13b-4871-ab78-9e5155a1008c"},"vehicle_type_id":"4","last_reported":1748715171,"current_range_meters":16800,"station_id":"ce4bhr12rcd13ifvqhqg","pricing_plan_id":"cebpf4jnsgd1na2vs0mg"},{"bike_id":"12b4a6a1-f365-468a-babc-9088ded34453","system_id":"levelo_inurba_marseille","lat":43.29222,"lon":5.36081,"is_reserved":false,"is_disabled":false,"rental_uris":{"android":"levelo://app?vid=12b4a6a1-f365-468a-babc-9088ded34453","ios":"levelo://app?vid=12b4a6a1-f365-468a-babc-9088ded34453"},"vehicle_type_id":"4","last_reported":1748715171,"current_range_meters":16400,"station_id":"ce4bhbh2rcd13ifvqeqg","pricing_plan_id":"cebpf4jnsgd1na2vs0mg"},{"bike_id":"62b02994-5210-426a-980f-6cb47507004d","system_id":"levelo_inurba_marseille","lat":43.292,"lon":5.35971,"is_reserved":false,"is_disabled":false,"rental_uris":{"android":"levelo://app?vid=62b02994-5210-426a-980f-6cb47507004d","ios":"levelo://app?vid=62b02994-5210-426a-980f-6cb47507004d"},"vehicle_type_id":"4","last_reported":1748715171,"current_range_meters":16800,"station_id":"","pricing_plan_id":"cebpf4jnsgd1na2vs0mg"},{"bike_id":"4b9c6504-7913-446b-b407-7b700a0c2c32","system_id":"levelo_inurba_marseille","lat":43.28732,"lon":5.37935,"is_reserved":false,"is_disabled":false,"rental_uris":{"android":"levelo://app?vid=4b9c6504-7913-446b-b407-7b700a0c2c32","ios":"levelo://app?vid=4b9c6504-7913-446b-b407-7b700a0c2c32"},"vehicle_type_id":"4","last_reported":1748715171,"current_range_meters":16800,"station_id":"ce4bh9p2rcd13ifvqec0","pricing_plan_id":"cebpf4jnsgd1na2vs0mg"},{"bike_id":"38abd576-b945-4074-adde-189a06913f17","system_id":"levelo_inurba_marseille","lat":43.32338,"lon":5.40624,"is_reserved":false,"is_disabled":false,"rental_uris":{"android":"levelo://app?vid=38abd576-b945-4074-adde-189a06913f17","ios":"levelo://app?vid=38abd576-b945-4074-adde-189a06913f17"},"vehicle_type_id":"4","last_reported":1748715171,"current_range_meters":16800,"station_id":"ce4bhq92rcd13ifvqhjg","pricing_plan_id":"cebpf4jnsgd1na2vs0mg"},{"bike_id":"76f771a0-d27e-462d-a1fe-7bd311768559","system_id":"levelo_inurba_marseille","lat":43.28413,"lon":5.3499,"is_reserved":false,"is_disabled":true,"rental_uris":{"android":"levelo://app?vid=76f771a0-d27e-462d-a1fe-7bd311768559","ios":"levelo://app?vid=76f771a0-d27e-462d-a1fe-7bd311768559"},"vehicle_type_id":"4","last_reported":1748715171,"current_range_meters":16800,"station_id":"ce4bhbh2rcd13ifvqepg","pricing_plan_id":"cebpf4jnsgd1na2vs0mg"},{"bike_id":"594f1961-90ff-4d3b-b89f-66ea4402cb7e","system_id":"levelo_inurba_marseille","lat":43.26556,"lon":5.3729,"is_reserved":false,"is_disabled":false,"rental_uris":{"android":"levelo://app?vid=594f1961-90ff-4d3b-b89f-66ea4402cb7e","ios":"levelo://app?vid=594f1961-90ff-4d3b-b89f-66ea4402cb7e"},"vehicle_type_id":"4","last_reported":1748715171,"current_range_meters":16800,"station_id":"ce4bhg12rcd13ifvqf70","pricing_plan_id":"cebpf4jnsgd1na2vs0mg"},{"bike_id":"d787cfdb-50c2-451d-8448-0eff07939f1e","system_id":"levelo_inurba_marseille","lat":43.23156,"lon":5.43704,"is_reserved":false,"is_disabled":true,"rental_uris":{"android":"levelo://app?vid=d787cfdb-50c2-451d-8448-0eff07939f1e","ios":"levelo://app?vid=d787cfdb-50c2-451d-8448-0eff07939f1e"},"vehicle_type_id":"4","last_reported":1748715171,"current_range_meters":17200,"station_id":"ce4bhmp2rcd13ifvqgog","pricing_plan_id":"cebpf4jnsgd1na2vs0mg"},{"bike_id":"94da8164-c1a7-4f30-8619-9190c95cf8bf","system_id":"levelo_inurba_marseille","lat":43.26509,"lon":5.39533,"is_reserved":false,"is_disabled":false,"rental_uris":{"android":"levelo://app?vid=94da8164-c1a7-4f30-8619-9190c95cf8bf","ios":"levelo://app?vid=94da8164-c1a7-4f30-8619-9190c95cf8bf"},"vehicle_type_id":"4","last_reported":1748715171,"current_range_meters":16800,"station_id":"ce4bhi12rcd13ifvqfq0","pricing_plan_id":"cebpf4jnsgd1na2vs0mg"},{"bike_id":"88e2e521-a5fa-428a-bca4-0ff93d511582","system_id":"levelo_inurba_marseille","lat":43.29577,"lon":5.3751,"is_reserved":false,"is_disabled":false,"rental_uris":{"android":"levelo://app?vid=88e2e521-a5fa-428a-bca4-0ff93d511582","ios":"levelo://app?vid=88e2e521-a5fa-428a-bca4-0ff93d511582"},"vehicle_type_id":"4","last_reported":1748715171,"current_range_meters":16800,"station_id":"ce4bgh92rcd13ifvqb50","pricing_plan_id":"cebpf4jnsgd1na2vs0mg"},{"bike_id":"edf637b9-92fd-46c7-9477-825412856041","system_id":"levelo_inurba_marseille","lat":43.2847,"lon":5.3753,"is_reserved":false,"is_disabled":false,"rental_uris":{"android":"levelo://app?vid=edf637b9-92fd-46c7-9477-825412856041","ios":"levelo://app?vid=edf637b9-92fd-46c7-9477-825412856041"},"vehicle_type_id":"4","last_reported":1748715171,"current_range_meters":17200,"station_id":"","pricing_plan_id":"cebpf4jnsgd1na2vs0mg"},{"bike_id":"b568666f-91f4-40dc-b5f3-3a81a7f052ed","system_id":"levelo_inurba_marseille","lat":43.31224,"lon":5.36848,"is_reserved":false,"is_disabled":false,"rental_uris":{"android":"levelo://app?vid=b568666f-91f4-40dc-b5f3-3a81a7f052ed","ios":"levelo://app?vid=b568666f-91f4-40dc-b5f3-3a81a7f052ed"},"vehicle_type_id":"4","last_reported":1748715171,"current_range_meters":17200,"station_id":"ce4bgl92rcd13ifvqbq0","pricing_plan_id":"cebpf4jnsgd1na2vs0mg"},{"bike_id":"da37c805-6a8b-4fc2-859d-ce4a99bc8211","system_id":"levelo_inurba_marseille","lat":43.27582,"lon":5.37788,"is_reserved":false,"is_disabled":false,"rental_uris":{"android":"levelo://app?vid=da37c805-6a8b-4fc2-859d-ce4a99bc8211","ios":"levelo://app?vid=da37c805-6a8b-4fc2-859d-ce4a99bc8211"},"vehicle_type_id":"4","last_reported":1748715171,"current_range_meters":17600,"station_id":"","pricing_plan_id":"cebpf4jnsgd1na2vs0mg"},{"bike_id":"d72c4272-4810-4442-95f9-931cf5bf0865","system_id":"levelo_inurba_marseille","lat":43.2846,"lon":5.35893,"is_reserved":false,"is_disabled":false,"rental_uris":{"android":"levelo://app?vid=d72c4272-4810-4442-95f9-931cf5bf0865","ios":"levelo://app?vid=d72c4272-4810-4442-95f9-931cf5bf0865"},"vehicle_type_id":"4","last_reported":1748715171,"current_range_meters":17200,"station_id":"ce4bhah2rcd13ifvqei0","pricing_plan_id":"cebpf4jnsgd1na2vs0mg"},{"bike_id":"84497a20-43e4-4c79-a7d9-71f48b751d88","system_id":"levelo_inurba_marseille","lat":43.28695,"lon":5.37405,"is_reserved":false,"is_disabled":false,"rental_uris":{"android":"levelo://app?vid=84497a20-43e4-4c79-a7d9-71f48b751d88","ios":"levelo://app?vid=84497a20-43e4-4c79-a7d9-71f48b751d88"},"vehicle_type_id":"4","last_reported":1748715171,"current_range_meters":20000,"station_id":"ce4bh3p2rcd13ifvqdq0","pricing_plan_id":"cebpf4jnsgd1na2vs0mg"},{"bike_id":"6c26914b-89a5-4113-a152-af00c91d5910","system_id":"levelo_inurba_marseille","lat":43.29299,"lon":5.37464,"is_reserved":false,"is_disabled":false,"rental_uris":{"android":"levelo://app?vid=6c26914b-89a5-4113-a152-af00c91d5910","ios":"levelo://app?vid=6c26914b-89a5-4113-a152-af00c91d5910"},"vehicle_type_id":"4","last_reported":1748715171,"current_range_meters":19200,"station_id":"ce4bgi12rcd13ifvqb70","pricing_plan_id":"cebpf4jnsgd1na2vs0mg"},{"bike_id":"542502f4-f239-4a10-a780-fcd2a372a574","system_id":"levelo_inurba_marseille","lat":43.29414,"lon":5.38602,"is_reserved":false,"is_disabled":false,"rental_uris":{"android":"levelo://app?vid=542502f4-f239-4a10-a780-fcd2a372a574","ios":"levelo://app?vid=542502f4-f239-4a10-a780-fcd2a372a574"},"vehicle_type_id":"4","last_reported":1748715171,"current_range_meters":17600,"station_id":"ce4bh2h2rcd13ifvqdh0","pricing_plan_id":"cebpf4jnsgd1na2vs0mg"},{"bike_id":"02d8fed8-cba7-4cdb-aed7-848bd92da8b9","system_id":"levelo_inurba_marseille","lat":43.26512,"lon":5.39531,"is_reserved":false,"is_disabled":false,"rental_uris":{"android":"levelo://app?vid=02d8fed8-cba7-4cdb-aed7-848bd92da8b9","ios":"levelo://app?vid=02d8fed8-cba7-4cdb-aed7-848bd92da8b9"},"vehicle_type_id":"4","last_reported":1748715171,"current_range_meters":17600,"station_id":"ce4bhi12rcd13ifvqfq0","pricing_plan_id":"cebpf4jnsgd1na2vs0mg"},{"bike_id":"f43f6444-03a7-4a8e-8810-23a7c0919031","system_id":"levelo_inurba_marseille","lat":43.2481,"lon":5.37463,"is_reserved":false,"is_disabled":false,"rental_uris":{"android":"levelo://app?vid=f43f6444-03a7-4a8e-8810-23a7c0919031","ios":"levelo://app?vid=f43f6444-03a7-4a8e-8810-23a7c0919031"},"vehicle_type_id":"4","last_reported":1748715171,"current_range_meters":17200,"station_id":"ce4bhgh2rcd13ifvqfb0","pricing_plan_id":"cebpf4jnsgd1na2vs0mg"},{"bike_id":"e76b22cf-604f-4027-b177-1d8de645f338","system_id":"levelo_inurba_marseille","lat":43.30915,"lon":5.40136,"is_reserved":false,"is_disabled":false,"rental_uris":{"android":"levelo://app?vid=e76b22cf-604f-4027-b177-1d8de645f338","ios":"levelo://app?vid=e76b22cf-604f-4027-b177-1d8de645f338"},"vehicle_type_id":"4","last_reported":1748715171,"current_range_meters":18000,"station_id":"ce4bgvp2rcd13ifvqct0","pricing_plan_id":"cebpf4jnsgd1na2vs0mg"},{"bike_id":"133ca1f3-0c6a-4156-8e1c-bd5b5d191bb3","system_id":"levelo_inurba_marseille","lat":43.29513,"lon":5.39402,"is_reserved":false,"is_disabled":false,"rental_uris":{"android":"levelo://app?vid=133ca1f3-0c6a-4156-8e1c-bd5b5d191bb3","ios":"levelo://app?vid=133ca1f3-0c6a-4156-8e1c-bd5b5d191bb3"},"vehicle_type_id":"4","last_reported":1748715171,"current_range_meters":18000,"station_id":"ce4bh292rcd13ifvqdf0","pricing_plan_id":"cebpf4jnsgd1na2vs0mg"},{"bike_id":"1434b151-6771-422c-9186-32e822ca4b3b","system_id":"levelo_inurba_marseille","lat":43.295163,"lon":5.394009,"is_reserved":false,"is_disabled":false,"rental_uris":{"android":"levelo://app?vid=1434b151-6771-422c-9186-32e822ca4b3b","ios":"levelo://app?vid=1434b151-6771-422c-9186-32e822ca4b3b"},"vehicle_type_id":"4","last_reported":1748715171,"current_range_meters":17600,"station_id":"ce4bh292rcd13ifvqdf0","pricing_plan_id":"cebpf4jnsgd1na2vs0mg"},