{"last_updated":1732655333,"ttl":60,"version":"2.2","data":{"bikes":[{"bike_id":"867de474-7d21-4a45-b160-f59fdff81394","system_id":"levelo_inurba_marseille","lat":43.3133,"lon":5.3969,"is_reserved":false,"is_disabled":false,"rental_uris":{"android":"levelo://app?vid=867de474-7d21-4a45-b160-f59fdff81394","ios":"levelo://app?vid=867de474-7d21-4a45-b160-f59fdff81394"},"vehicle_type_id":"4","last_reported":1732655334,"current_range_meters":38800,"station_id":"ce4bgvp2rcd13ifvqcu0","pricing_plan_id":"cebpf4jnsgd1na2vs0mg"},{"bike_id":"d9c28aa4-81a4-4d13-8fc9-100bb4e3d7e2","system_id":"levelo_inurba_marseille","lat":43.27407,"lon":5.38951,"is_reserved":false,"is_disabled":true,"rental_uris":{"android":"levelo://app?vid=d9c28aa4-81a4-4d13-8fc9-100bb4e3d7e2","ios":"levelo://app?vid=d9c28aa4-81a4-4d13-8fc9-100bb4e3d7e2"},"vehicle_type_id":"4","last_reported":1732655334,"current_range_meters":0,"station_id":"","pricing_plan_id":"cebpf4jnsgd1na2vs0mg"},{"bike_id":"a33a40f2-a99d-4474-9adc-0da0cd98f9a9","system_id":"levelo_inurba_marseille","lat":43.27372,"lon":5.36247,"is_reserved":false,"is_disabled":true,"rental_uris":{"android":"levelo://app?vid=a33a40f2-a99d-4474-9adc-0da0cd98f9a9","ios":"levelo://app?vid=a33a40f2-a99d-4474-9adc-0da0cd98f9a9"},"vehicle_type_id":"4","last_reported":1732655334,"current_range_meters":400,"station_id":"ce4bhbh2rcd13ifvqeo0","pricing_plan_id":"cebpf4jnsgd1na2vs0mg"},{"bike_id":"b856c8b4-412d-4c25-bdd4-e6b29aed04cb","system_id":"levelo_inurba_marseille","lat":43.22941,"lon":5.35379,"is_reserved":false,"is_disabled":false,"rental_uris":{"android":"levelo://app?vid=b856c8b4-412d-4c25-bdd4-e6b29aed04cb","ios":"levelo://app?vid=b856c8b4-412d-4c25-bdd4-e6b29aed04cb"},"vehicle_type_id":"4","last_reported":1732655334,"current_range_meters":38800,"station_id":"cpo3532slgdg3j2ikp40","pricing_plan_id":"cebpf4jnsgd1na2vs0mg"},{"bike_id":"f9a9c851-e75a-44bb-9a5e-487858016163","system_id":"levelo_inurba_marseille","lat":43.28348,"lon":5.38105,"is_reserved":false,"is_disabled":false,"rental_uris":{"android":"levelo://app?vid=f9a9c851-e75a-44bb-9a5e-487858016163","ios":"levelo://app?vid=f9a9c851-e75a-44bb-9a5e-487858016163"},"vehicle_type_id":"4","last_reported":1732655334,"current_range_meters":12800,"station_id":"ce4bh412rcd13ifvqdr0","pricing_plan_id":"cebpf4jnsgd1na2vs0mg"},{"bike_id":"b51d31e3-b561-4c0d-b4c9-74c74d6a4aa9","system_id":"levelo_inurba_marseille","lat":43.33025,"lon":5.39044,"is_reserved":false,"is_disabled":false,"rental_uris":{"android":"levelo://app?vid=b51d31e3-b561-4c0d-b4c9-74c74d6a4aa9","ios":"levelo://app?vid=b51d31e3-b561-4c0d-b4c9-74c74d6a4aa9"},"vehicle_type_id":"4","last_reported":1732655334,"current_range_meters":38800,"station_id":"ce4bhr92rcd13ifvqhrg","pricing_plan_id":"cebpf4jnsgd1na2vs0mg"},{"bike_id":"d69e2163-7b36-4552-b784-37cc2a937a83","system_id":"levelo_inurba_marseille","lat":43.31168,"lon":5.38721,"is_reserved":false,"is_disabled":false,"rental_uris":{"android":"levelo://app?vid=d69e2163-7b36-4552-b784-37cc2a937a83","ios":"levelo://app?vid=d69e2163-7b36-4552-b784-37cc2a937a83"},"vehicle_type_id":"4","last_reported":1732655334,"current_range_meters":19600,"station_id":"ce4bgv12rcd13ifvqcp0","pricing_plan_id":"cebpf4jnsgd1na2vs0mg"},{"bike_id":"f0347ef3-0bf2-4904-8134-c34ce91c6bae","system_id":"levelo_inurba_marseille","lat":43.30543,"lon":5.36702,"is_reserved":false,"is_disabled":true,"rental_uris":{"android":"levelo://app?vid=f0347ef3-0bf2-4904-8134-c34ce91c6bae","ios":"levelo://app?vid=f0347ef3-0bf2-4904-8134-c34ce91c6bae"},"vehicle_type_id":"4","last_reported":1732655334,"current_range_meters":12400,"station_id":"ce4bgrp2rcd13ifvqc9g","pricing_plan_id":"cebpf4jnsgd1na2vs0mg"},{"bike_id":"938efd6e-163f-4dea-98cc-4cf7852276fc","system_id":"levelo_inurba_marseille","lat":43.30567,"lon":5.40147,"is_reserved":false,"is_disabled":false,"rental_uris":{"android":"levelo://app?vid=938efd6e-163f-4dea-98cc-4cf7852276fc","ios":"levelo://app?vid=938efd6e-163f-4dea-98cc-4cf7852276fc"},"vehicle_type_id":"4","last_reported":1732655334,"current_range_meters":29600,"station_id":"","pricing_plan_id":"cebpf4jnsgd1na2vs0mg"},{"bike_id":"9a5276ca-e6f1-482f-9dca-00b9e6e6c198","system_id":"levelo_inurba_marseille","lat":43.27999,"lon":5.40024,"is_reserved":false,"is_disabled":false,"rental_uris":{"android":"levelo://app?vid=9a5276ca-e6f1-482f-9dca-00b9e6e6c198","ios":"levelo://app?vid=9a5276ca-e6f1-482f-9dca-00b9e6e6c198"},"vehicle_type_id":"4","last_reported":1732655334,"current_range_meters":39200,"station_id":"ce4bho92rcd13ifvqh4g","pricing_plan_id":"cebpf4jnsgd1na2vs0mg"},{"bike_id":"92cc6669-d3db-4e90-afe9-11a77628afaa","system_id":"levelo_inurba_marseille","lat":43.28617,"lon":5.35096,"is_reserved":false,"is_disabled":false,"rental_uris":{"android":"levelo://app?vid=92cc6669-d3db-4e90-afe9-11a77628afaa","ios":"levelo://app?vid=92cc6669-d3db-4e90-afe9-11a77628afaa"},"vehicle_type_id":"4","last_reported":1732655334,"current_range_meters":17600,"station_id":"ce4bhch2rcd13ifvqeug","pricing_plan_id":"cebpf4jnsgd1na2vs0mg"},{"bike_id":"02aab262-4411-4183-b19e-de3afdf61ffc","system_id":"levelo_inurba_marseille","lat":43.26487,"lon":5.39545,"is_reserved":false,"is_disabled":false,"rental_uris":{"android":"levelo://app?vid=02aab262-4411-4183-b19e-de3afdf61ffc","ios":"levelo://app?vid=02aab262-4411-4183-b19e-de3afdf61ffc"},"vehicle_type_id":"4","last_reported":1732655334,"current_range_meters":38800,"station_id":"ce4bhi12rcd13ifvqfq0","pricing_plan_id":"cebpf4jnsgd1na2vs0mg"},{"bike_id":"4a6f40e9-24aa-48ac-9ef2-a1bddf93539a","system_id":"levelo_inurba_marseille","lat":43.24076,"lon":5.37759,"is_reserved":false,"is_disabled":false,"rental_uris":{"android":"levelo://app?vid=4a6f40e9-24aa-48ac-9ef2-a1bddf93539a","ios":"levelo://app?vid=4a6f40e9-24aa-48ac-9ef2-a1bddf93539a"},"vehicle_type_id":"4","last_reported":1732655334,"current_range_meters":37600,"station_id":"ce4bhnp2rcd13ifvqgvg","pricing_plan_id":"cebpf4jnsgd1na2vs0mg"},{"bike_id":"37ee09df-8673-47a3-96b4-c2ef618884e5","system_id":"levelo_inurba_marseille","lat":43.337444,"lon":5.374475,"is_reserved":false,"is_disabled":false,"rental_uris":{"android":"levelo://app?vid=37ee09df-8673-47a3-96b4-c2ef618884e5","ios":"levelo://app?vid=37ee09df-8673-47a3-96b4-c2ef618884e5"},"vehicle_type_id":"4","last_reported":1732655334,"current_range_meters":34000,"station_id":"","pricing_plan_id":"cebpf4jnsgd1na2vs0mg"},{"bike_id":"3dacb398-5fb0-4684-a2bc-5f961fca4509","system_id":"levelo_inurba_marseille","lat":43.25571,"lon":5.38224,"is_reserved":false,"is_disabled":true,"rental_uris":{"android":"levelo://app?vid=3dacb398-5fb0-4684-a2bc-5f961fca4509","ios":"levelo://app?vid=3dacb398-5fb0-4684-a2bc-5f961fca4509"},"vehicle_type_id":"4","last_reported":1732655334,"current_range_meters":0,"station_id":"ce4bhih2rcd13ifvqfs0","pricing_plan_id":"cebpf4jnsgd1na2vs0mg"},{"bike_id":"c523214a-88b9-4353-bb8b-55d45b020426","system_id":"levelo_inurba_marseille","lat":43.27814,"lon":5.40709,"is_reserved":false,"is_disabled":true,"rental_uris":{"android":"levelo://app?vid=c523214a-88b9-4353-bb8b-55d45b020426","ios":"levelo://app?vid=c523214a-88b9-4353-bb8b-55d45b020426"},"vehicle_type_id":"4","last_reported":1732655334,"current_range_meters":28000,"station_id":"ce4bhnh2rcd13ifvqgtg","pricing_plan_id":"cebpf4jnsgd1na2vs0mg"},{"bike_id":"229b1dad-6d7c-4c11-8518-a3ff14e3bf1f","system_id":"levelo_inurba_marseille","lat":43.30937,"lon":5.36879,"is_reserved":false,"is_disabled":false,"rental_uris":{"android":"levelo://app?vid=229b1dad-6d7c-4c11-8518-a3ff14e3bf1f","ios":"levelo://app?vid=229b1dad-6d7c-4c11-8518-a3ff14e3bf1f"},"vehicle_type_id":"4","last_reported":1732655334,"current_range_meters":14000,"station_id":"ce4bgn92rcd13ifvqbvg","pricing_plan_id":"cebpf4jnsgd1na2vs0mg"},{"bike_id":"e7d61961-f2fb-44c4-9ee3-a227626b507f","system_id":"levelo_inurba_marseille","lat":43.23068,"lon":5.35493,"is_reserved":false,"is_disabled":true,"rental_uris":{"android":"levelo://app?vid=e7d61961-f2fb-44c4-9ee3-a227626b507f","ios":"levelo://app?vid=e7d61961-f2fb-44c4-9ee3-a227626b507f"},"vehicle_type_id":"4","last_reported":1732655334,"current_range_meters":0,"station_id":"cpo3342slgdg3j2ifvpg","pricing_plan_id":"cebpf4jnsgd1na2vs0mg"},{"bike_id":"f7165f07-e923-4579-b202-89b3912a60e2","system_id":"levelo_inurba_marseille","lat":43.25867,"lon":5.39902,"is_reserved":false,"is_disabled":false,"rental_uris":{"android":"levelo://app?vid=f7165f07-e923-4579-b202-89b3912a60e2","ios":"levelo://app?vid=f7165f07-e923-4579-b202-89b3912a60e2"},"vehicle_type_id":"4","last_reported":1732655334,"current_range_meters":37600,"station_id":"ce4bhl92rcd13ifvqghg","pricing_plan_id":"cebpf4jnsgd1na2vs0mg"},{"bike_id":"a6e22c89-3dcb-4b2e-a4cc-b4c11dbf537a","system_id":"levelo_inurba_marseille","lat":43.23193,"lon":5.39991,"is_reserved":false,"is_disabled":false,"rental_uris":{"android":"levelo://app?vid=a6e22c89-3dcb-4b2e-a4cc-b4c11dbf537a","ios":"levelo://app?vid=a6e22c89-3dcb-4b2e-a4cc-b4c11dbf537a"},"vehicle_type_id":"4","last_reported":1732655334,"current_range_meters":10000,"station_id":"ce4bhn12rcd13ifvqgqg","pricing_plan_id":"cebpf4jnsgd1na2vs0mg"},{"bike_id":"7e97f214-609d-4308-aebf-1bdd87a13c0c","system_id":"levelo_inurba_marseille","lat":43.29907,"lon":5.38146,"is_reserved":false,"is_disabled":false,"rental_uris":{"android":"levelo://app?vid=7e97f214-609d-4308-aebf-1bdd87a13c0c","ios":"levelo://app?vid=7e97f214-609d-4308-aebf-1bdd87a13c0c"},"vehicle_type_id":"4","last_reported":1732655334,"current_range_meters":29600,"station_id":"ce4bgj12rcd13ifvqbc0","pricing_plan_id":"cebpf4jnsgd1na2vs0mg"},{"bike_id":"232d3dc5-0179-4abc-b358-d4d004e73122","system_id":"levelo_inurba_marseille","lat":43.29807,"lon":5.40402,"is_reserved":false,"is_disabled":false,"rental_uris":{"android":"levelo://app?vid=232d3dc5-0179-4abc-b358-d4d004e73122","ios":"levelo://app?vid=232d3dc5-0179-4abc-b358-d4d004e73122"},"vehicle_type_id":"4","last_reported":1732655334,"current_range_meters":39200,"station_id":"ce4bh112rcd13ifvqd90","pricing_plan_id":"cebpf4jnsgd1na2vs0mg"},{"bike_id":"f98cf346-2f95-41c1-a190-288b7ed6e557","system_id":"levelo_inurba_marseille","lat":43.24083,"lon":5.37745,"is_reserved":false,"is_disabled":true,"rental_uris":{"android":"levelo://app?vid=f98cf346-2f95-41c1-a190-288b7ed6e557","ios":"levelo://app?vid=f98cf346-2f95-41c1-a190-288b7ed6e557"},"vehicle_type_id":"4","last_reported":1732655334,"current_range_meters":0,"station_id":"ce4bhnp2rcd13ifvqgvg","pricing_plan_id":"cebpf4jnsgd1na2vs0mg"},{"bike_id":"3e74510c-d86b-4186-a956-0b286b8b0c60","system_id":"levelo_inurba_marseille","lat":43.24673,"lon":5.38127,"is_reserved":false,"is_disabled":false,"rental_uris":{"android":"levelo://app?vid=3e74510c-d86b-4186-a956-0b286b8b0c60","ios":"levelo://app?vid=3e74510c-d86b-4186-a956-0b286b8b0c60"},"vehicle_type_id":"4","last_reported":1732655334,"current_range_meters":20000,"station_id":"ce4bhih2rcd13ifvqfr0","pricing_plan_id":"cebpf4jnsgd1na2vs0mg"},{"bike_id":"3f3521d8-faf7-4824-9897-4fae4e5e4779","system_id":"levelo_inurba_marseille","lat":43.29033,"lon":5.38657,"is_reserved":false,"is_disabled":false,"rental_uris":{"android":"levelo://app?vid=3f3521d8-faf7-4824-9897-4fae4e5e4779","ios":"levelo://app?vid=3f3521d8-faf7-4824-9897-4fae4e5e4779"},"vehicle_type_id":"4","last_reported":1732655334,"current_range_meters":28800,"station_id":"ce4bh4p2rcd13ifvqe0g","pricing_plan_id":"cebpf4jnsgd1na2vs0mg"},{"bike_id":"5eaa4464-858a-4081-8ac9-a14151eb71fa","system_id":"levelo_inurba_marseille","lat":43.28264,"lon":5.35069,"is_reserved":false,"is_disabled":false,"rental_uris":{"android":"levelo://app?vid=5eaa4464-858a-4081-8ac9-a14151eb71fa","ios":"levelo://app?vid=5eaa4464-858a-4081-8ac9-a14151eb71fa"},"vehicle_type_id":"4","last_reported":1732655334,"current_range_meters":12400,"station_id":"ce4bhbp2rcd13ifvqerg","pricing_plan_id":"cebpf4jnsgd1na2vs0mg"},{"bike_id":"6a5b225e-c7d8-4f89-9bf6-49238d8586ea","system_id":"levelo_inurba_marseille","lat":43.29795,"lon":5.37121,"is_reserved":false,"is_disabled":false,"rental_uris":{"android":"levelo://app?vid=6a5b225e-c7d8-4f89-9bf6-49238d8586ea","ios":"levelo://app?vid=6a5b225e-c7d8-4f89-9bf6-49238d8586ea"},"vehicle_type_id":"4","last_reported":1732655334,"current_range_meters":36000,"station_id":"ce4bgop2rcd13ifvqc1g","pricing_plan_id":"cebpf4jnsgd1na2vs0mg"},{"bike_id":"b891d583-603a-49e6-afab-c922f2af192e","system_id":"levelo_inurba_marseille","lat":43.28077,"lon":5.3965,"is_reserved":false,"is_disabled":false,"rental_uris":{"android":"levelo://app?vid=b891d583-603a-49e6-afab-c922f2af192e","ios":"levelo://app?vid=b891d583-603a-49e6-afab-c922f2af192e"},"vehicle_type_id":"4","last_reported":1732655334,"current_range_meters":38800,"station_id":"ce4bho12rcd13ifvqh2g","pricing_plan_id":"cebpf4jnsgd1na2vs0mg"},{"bike_id":"8a21b35a-7b76-40c1-9882-dd8e0fbfbe85","system_id":"levelo_inurba_marseille","lat":43.28018,"lon":5.39996,"is_reserved":false,"is_disabled":false,"rental_uris":{"android":"levelo://app?vid=8a21b35a-7b76-40c1-9882-dd8e0fbfbe85","ios":"levelo://app?vid=8a21b35a-7b76-40c1-9882-dd8e0fbfbe85"},"vehicle_type_id":"4","last_reported":1732655334,"current_range_meters":26000,"station_id":"ce4bho92rcd13ifvqh4g","pricing_plan_id":"cebpf4jnsgd1na2vs0mg"},{"bike_id":"c52fbacf-0fde-4e74-9f9d-14e4582d38ec","system_id":"levelo_inurba_marseille","lat":43.31725,"lon":5.42395,"is_reserved":false,"is_disabled":false,"rental_uris":{"android":"levelo://app?vid=c52fbacf-0fde-4e74-9f9d-14e4582d38ec","ios":"levelo://app?vid=c52fbacf-0fde-4e74-9f9d-14e4582d38ec"},"vehicle_type_id":"4","last_reported":1732655334,"current_range_meters":3200,"station_id":"ce4bhp92rcd13ifvqhbg","pricing_plan_id":"cebpf4jnsgd1na2vs0mg"},{"bike_id":"c7f0c2ae-332e-48f3-b3ba-a947d25b82d6","system_id":"levelo_inurba_marseille","lat":43.31075,"lon":5.38351,"is_reserved":false,"is_disabled":false,"rental_uris":{"android":"levelo://app?vid=c7f0c2ae-332e-48f3-b3ba-a947d25b82d6","ios":"levelo://app?vid=c7f0c2ae-332e-48f3-b3ba-a947d25b82d6"},"vehicle_type_id":"4","last_reported":1732655334,"current_range_meters":38800,"station_id":"ce4bgv92rcd13ifvqcr0","pricing_plan_id":"cebpf4jnsgd1na2vs0mg"},{"bike_id":"09b89554-b737-4b6e-a9e8-cc238dd55c23","system_id":"levelo_inurba_marseille","lat":43.29029,"lon":5.38149,"is_reserved":false,"is_disabled":true,"rental_uris":{"android":"levelo://app?vid=09b89554-b737-4b6e-a9e8-cc238dd55c23","ios":"levelo://app?vid=09b89554-b737-4b6e-a9e8-cc238dd55c23"},"vehicle_type_id":"4","last_reported":1732655334,"current_range_meters":38800,"station_id":"ce4bh4p2rcd13ifvqe1g","pricing_plan_id":"cebpf4jnsgd1na2vs0mg"},{"bike_id":"05ad44e5-d7ad-40e4-b78e-31a67af522c0","system_id":"levelo_inurba_marseille","lat":43.25718,"lon":5.41127,"is_reserved":false,"is_disabled":false,"rental_uris":{"android":"levelo://app?vid=05ad44e5-d7ad-40e4-b78e-31a67af522c0","ios":"levelo://app?vid=05ad44e5-d7ad-40e4-b78e-31a67af522c0"},"vehicle_type_id":"4","last_reported":1732655334,"current_range_meters":38800,"station_id":"ce4bhkp2rcd13ifvqgd0","pricing_plan_id":"cebpf4jnsgd1na2vs0mg"},{"bike_id":"947b4ae5-6d27-48cd-83df-1d5aa4a4dc55","system_id":"levelo_inurba_marseille","lat":43.24673,"lon":5.3815,"is_reserved":false,"is_disabled":false,"rental_uris":{"android":"levelo://app?vid=947b4ae5-6d27-48cd-83df-1d5aa4a4dc55","ios":"levelo://app?vid=947b4ae5-6d27-48cd-83df-1d5aa4a4dc55"},"vehicle_type_id":"4","last_reported":1732655334,"current_range_meters":31200,"station_id":"ce4bhih2rcd13ifvqfr0","pricing_plan_id":"cebpf4jnsgd1na2vs0mg"},{"bike_id":"9604c40b-c088-4a47-9606-5669d249b2ee","system_id":"levelo_inurba_marseille","lat":43.26826,"lon":5.41126,"is_reserved":false,"is_disabled":false,"rental_uris":{"android":"levelo://app?vid=9604c40b-c088-4a47-9606-5669d249b2ee","ios":"levelo://app?vid=9604c40b-c088-4a47-9606-5669d249b2ee"},"vehicle_type_id":"4","last_reported":1732655334,"current_range_meters":31200,"station_id":"","pricing_plan_id":"cebpf4jnsgd1na2vs0mg"},{"bike_id":"6e9ccae7-e9c3-4802-bb93-af80d8fbc541","system_id":"levelo_inurba_marseille","lat":43.27995,"lon":5.39991,"is_reserved":false,"is_disabled":false,"rental_uris":{"android":"levelo://app?vid=6e9ccae7-e9c3-4802-bb93-af80d8fbc541","ios":"levelo://app?vid=6e9ccae7-e9c3-4802-bb93-af80d8fbc541"},"vehicle_type_id":"4","last_reported":1732655334,"current_range_meters":8400,"station_id":"ce4bho92rcd13ifvqh4g","pricing_plan_id":"cebpf4jnsgd1na2vs0mg"},{"bike_id":"158a3c50-ae6d-40a7-a91b-932ae14100a9","system_id":"levelo_inurba_marseille","lat":43.29195,"lon":5.35805,"is_reserved":false,"is_disabled":true,"rental_uris":{"android":"levelo://app?vid=158a3c50-ae6d-40a7-a91b-932ae14100a9","ios":"levelo://app?vid=158a3c50-ae6d-40a7-a91b-932ae14100a9"},"vehicle_type_id":"4","last_reported":1732655334,"current_range_meters":34000,"station_id":"ce4bhb12rcd13ifvqel0","pricing_plan_id":"cebpf4jnsgd1na2vs0mg"},{"bike_id":"d7b4e41b-5ea8-4d2c-9fe2-df65bc6478d3","system_id":"levelo_inurba_marseille","lat":43.24814,"lon":5.37454,"is_reserved":false,"is_disabled":false,"rental_uris":{"android":"levelo://app?vid=d7b4e41b-5ea8-4d2c-9fe2-df65bc6478d3","ios":"levelo://app?vid=d7b4e41b-5ea8-4d2c-9fe2-df65bc6478d3"},"vehicle_type_id":"4","last_reported":1732655334,"current_range_meters":19200,"station_id":"ce4bhgh2rcd13ifvqfb0","pricing_plan_id":"cebpf4jnsgd1na2vs0mg"},{"bike_id":"835a170b-9333-4a62-9af0-a89a87c1a309","system_id":"levelo_inurba_marseille","lat":43.24653,"lon":5.38155,"is_reserved":false,"is_disabled":false,"rental_uris":{"android":"levelo://app?vid=835a170b-9333-4a62-9af0-a89a87c1a309","ios":"levelo://app?vid=835a170b-9333-4a62-9af0-a89a87c1a309"},"vehicle_type_id":"4","last_reported":1732655334,"current_range_meters":9600,"station_id":"ce4bhih2rcd13ifvqfr0","pricing_plan_id":"cebpf4jnsgd1na2vs0mg"},{"bike_id":"a96be017-c1b4-47a1-8837-0a89e8c43906","system_id":"levelo_inurba_marseille","lat":43.27815,"lon":5.40658,"is_reserved":false,"is_disabled":false,"rental_uris":{"android":"levelo://app?vid=a96be017-c1b4-47a1-8837-0a89e8c43906","ios":"levelo://app?vid=a96be017-c1b4-47a1-8837-0a89e8c43906"},"vehicle_type_id":"4","last_reported":1732655334,"current_range_meters":38800,"station_id":"ce4bhnh2rcd13ifvqgtg","pricing_plan_id":"cebpf4jnsgd1na2vs0mg"},{"bike_id":"dcdd3219-3a91-4c2a-ac8b-1c3e94c5cca6","system_id":"levelo_inurba_marseille","lat":43.30873,"lon":5.39607,"is_reserved":false,"is_disabled":false,"rental_uris":{"android":"levelo://app?vid=dcdd3219-3a91-4c2a-ac8b-1c3e94c5cca6","ios":"levelo://app?vid=dcdd3219-3a91-4c2a-ac8b-1c3e94c5cca6"},"vehicle_type_id":"4","last_reported":1732655334,"current_range_meters":39200,"station_id":"ce4bh012rcd13ifvqcv0","pricing_plan_id":"cebpf4jnsgd1na2vs0mg"},{"bike_id":"caf4734a-4cec-4f34-a39a-93be4dc22192","system_id":"levelo_inurba_marseille","lat":43.29207,"lon":5.3788,"is_reserved":false,"is_disabled":false,"rental_uris":{"android":"levelo://app?vid=caf4734a-4cec-4f34-a39a-93be4dc22192","ios":"levelo://app?vid=caf4734a-4cec-4f34-a39a-93be4dc22192"},"vehicle_type_id":"4","last_reported":1732655334,"current_range_meters":5600,"station_id":"","pricing_plan_id":"cebpf4jnsgd1na2vs0mg"},{"bike_id":"519c024c-492e-476b-b78a-c6051e15e25a","system_id":"levelo_inurba_marseille","lat":43.31759,"lon":5.39016,"is_reserved":false,"is_disabled":false,"rental_uris":{"android":"levelo://app?vid=519c024c-492e-476b-b78a-c6051e15e25a","ios":"levelo://app?vid=519c024c-492e-476b-b78a-c6051e15e25a"},"vehicle_type_id":"4","last_reported":1732655334,"current_range_meters":38800,"station_id":"ce4bhqp2rcd13ifvqhng","pricing_plan_id":"cebpf4jnsgd1na2vs0mg"},{"bike_id":"ecdb3743-a3d9-4afc-bb51-ff07b746abac","system_id":"levelo_inurba_marseille","lat":43.2903,"lon":5.39969,"is_reserved":false,"is_disabled":true,"rental_uris":{"android":"levelo://app?vid=ecdb3743-a3d9-4afc-bb51-ff07b746abac","ios":"levelo://app?vid=ecdb3743-a3d9-4afc-bb51-ff07b746abac"},"vehicle_type_id":"4","last_reported":1732655334,"current_range_meters":39200,"station_id":"ce4bh392rcd13ifvqdm0","pricing_plan_id":"cebpf4jnsgd1na2vs0mg"},{"bike_id":"0a2d70bc-b761-4725-9e3d-6717bfcaa6cc","system_id":"levelo_inurba_marseille","lat":43.337444,"lon":5.374475,"is_reserved":false,"is_disabled":false,"rental_uris":{"android":"levelo://app?vid=0a2d70bc-b761-4725-9e3d-6717bfcaa6cc","ios":"levelo://app?vid=0a2d70bc-b761-4725-9e3d-6717bfcaa6cc"},"vehicle_type_id":"4","last_reported":1732655334,"current_range_meters":36400,"station_id":"","pricing_plan_id":"cebpf4jnsgd1na2vs0mg"},{"bike_id":"b3479e59-acbd-4cc9-9c90-f77a72c4b110","system_id":"levelo_inurba_marseille","lat":43.31769,"lon":5.3898,"is_reserved":false,"is_disabled":false,"rental_uris":{"android":"levelo://app?vid=b3479e59-acbd-4cc9-9c90-f77a72c4b110","ios":"levelo://app?vid=b3479e59-acbd-4cc9-9c90-f77a72c4b110"},"vehicle_type_id":"4","last_reported":1732655334,"current_range_meters":8800,"station_id":"ce4bhqp2rcd13ifvqhng","pricing_plan_id":"cebpf4jnsgd1na2vs0mg"},{"bike_id":"820f12a0-cf28-488c-8a74-3f1b9d2e4db5","system_id":"levelo_inurba_marseille","lat":43.23056,"lon":5.35491,"is_reserved":false,"is_disabled":false,"rental_uris":{"android":"levelo://app?vid=820f12a0-cf28-488c-8a74-3f1b9d2e4db5","ios":"levelo://app?vid=820f12a0-cf28-488c-8a74-3f1b9d2e4db5"},"vehicle_type_id":"4","last_reported":1732655334,"current_range_meters":22800,"station_id":"cpo3342slgdg3j2ifvpg","pricing_plan_id":"cebpf4jnsgd1na2vs0mg"},{"bike_id":"563f55ce-6804-43ad-8afb-e9baaddbdbd0","system_id":"levelo_inurba_marseille","lat":43.25118,"lon":5.40315,"is_reserved":false,"is_disabled":false,"rental_uris":{"android":"levelo://app?vid=563f55ce-6804-43ad-8afb-e9baaddbdbd0","ios":"levelo://app?vid=563f55ce-6804-43ad-8afb-e9baaddbdbd0"},"vehicle_type_id":"4","last_reported":1732655334,"current_range_meters":28400,"station_id":"ce4bhlh2rcd13ifvqgig","pricing_plan_id":"cebpf4jnsgd1na2vs0mg"},{"bike_id":"d4f3340f-be06-4e72-bd1d-00b7a2bf4eda","system_id":"levelo_inurba_marseille","lat":43.28564,"lon":5.39498,"is_reserved":false,"is_disabled":false,"rental_uris":{"android":"levelo://app?vid=d4f3340f-be06-4e72-bd1d-00b7a2bf4eda","ios":"levelo://app?vid=d4f3340f-be06-4e72-bd1d-00b7a2bf4eda"},"vehicle_type_id":"4","last_reported":1732655334,"current_range_meters":38800,"station_id":"ce4bh292rcd13ifvqdg0","pricing_plan_id":"cebpf4jnsgd1na2vs0mg"},{"bike_id":"15c47ae6-5fda-4e52-aa1e-cdaf765e816b","system_id":"levelo_inurba_marseille","lat":43.28445,"lon":5.39204,"is_reserved":false,"is_disabled":false,"rental_uris":{"android":"levelo://app?vid=15c47ae6-5fda-4e52-aa1e-cdaf765e816b","ios":"levelo://app?vid=15c47ae6-5fda-4e52-aa1e-cdaf765e816b"},"vehicle_type_id":"4","last_reported":1732655334,"current_range_meters":38400,"station_id":"ce4bhoh2rcd13ifvqh5g","pricing_plan_id":"cebpf4jnsgd1na2vs0mg"},{"bike_id":"42098c83-9126-4d89-a011-0835a54e364c","system_id":"levelo_inurba_marseille","lat":43.32292,"lon":5.38268,"is_reserved":false,"is_disabled":false,"rental_uris":{"android":"levelo://app?vid=42098c83-9126-4d89-a011-0835a54e364c","ios":"levelo://app?vid=42098c83-9126-4d89-a011-0835a54e364c"},"vehicle_type_id":"4","last_reported":1732655334,"current_range_meters":9600,"station_id":"ce4bhr12rcd13ifvqhqg","pricing_plan_id":"cebpf4jnsgd1na2vs0mg"},{"bike_id":"a6869aba-ef0c-459d-b57d-af637d3d6481","system_id":"levelo_inurba_marseille","lat":43.2894,"lon":5.3664,"is_reserved":false,"is_disabled":false,"rental_uris":{"android":"levelo://app?vid=a6869aba-ef0c-459d-b57d-af637d3d6481","ios":"levelo://app?vid=a6869aba-ef0c-459d-b57d-af637d3d6481"},"vehicle_type_id":"4","last_reported":1732655334,"current_range_meters":38400,"station_id":"ce4bhap2rcd13ifvqek0","pricing_plan_id":"cebpf4jnsgd1na2vs0mg"},{"bike_id":"3451b272-9230-4dff-84d2-783314fd3bbb","system_id":"levelo_inurba_marseille","lat":43.25108,"lon":5.4032,"is_reserved":false,"is_disabled":true,"rental_uris":{"android":"levelo://app?vid=3451b272-9230-4dff-84d2-783314fd3bbb","ios":"levelo://app?vid=3451b272-9230-4dff-84d2-783314fd3bbb"},"vehicle_type_id":"4","last_reported":1732655334,"current_range_meters":400,"station_id":"ce4bhlh2rcd13ifvqgig","pricing_plan_id":"cebpf4jnsgd1na2vs0mg"},{"bike_id":"2f9b9b42-f665-4c1c-86a1-5a0ce40d3de2","system_id":"levelo_inurba_marseille","lat":43.32482,"lon":5.36572,"is_reserved":false,"is_disabled":true,"rental_uris":{"android":"levelo://app?vid=2f9b9b42-f665-4c1c-86a1-5a0ce40d3de2","ios":"levelo://app?vid=2f9b9b42-f665-4c1c-86a1-5a0ce40d3de2"},"vehicle_type_id":"4","last_reported":1732655334,"current_range_meters":28400,"station_id":"ce4bhs12rcd13ifvqhvg","pricing_plan_id":"cebpf4jnsgd1na2vs0mg"},{"bike_id":"33b8045d-fd1a-444f-8a40-a4ebaad2413b","system_id":"levelo_inurba_marseille","lat":43.25121,"lon":5.40328,"is_reserved":false,"is_disabled":false,"rental_uris":{"android":"levelo://app?vid=33b8045d-fd1a-444f-8a40-a4ebaad2413b","ios":"levelo://app?vid=33b8045d-fd1a-444f-8a40-a4ebaad2413b"},"vehicle_type_id":"4","last_reported":1732655334,"current_range_meters":38400,"station_id":"ce4bhlh2rcd13ifvqgig","pricing_plan_id":"cebpf4jnsgd1na2vs0mg"},{"bike_id":"d2c57af9-0d67-4e7d-bbb8-f501ab3b4785","system_id":"levelo_inurba_marseille","lat":43.26565,"lon":5.39014,"is_reserved":false,"is_disabled":true,"rental_uris":{"android":"levelo://app?vid=d2c57af9-0d67-4e7d-bbb8-f501ab3b4785","ios":"levelo://app?vid=d2c57af9-0d67-4e7d-bbb8-f501ab3b4785"},"vehicle_type_id":"4","last_reported":1732655334,"current_range_meters":0,"station_id":"ce4bhe12rcd13ifvqf30","pricing_plan_id":"cebpf4jnsgd1na2vs0mg"},{"bike_id":"55ede503-9e15-4829-9ab2-13f6fc0bff94","system_id":"levelo_inurba_marseille","lat":43.28361,"lon":5.38636,"is_reserved":false,"is_disabled":false,"rental_uris":{"android":"levelo://app?vid=55ede503-9e15-4829-9ab2-13f6fc0bff94","ios":"levelo://app?vid=55ede503-9e15-4829-9ab2-13f6fc0bff94"},"vehicle_type_id":"4","last_reported":1732655334,"current_range_meters":38800,"station_id":"ce4bh492rcd13ifvqdvg","pricing_plan_id":"cebpf4jnsgd1na2vs0mg"},{"bike_id":"53f1ee6c-5f9b-4107-b452-641653a9a8fc","system_id":"levelo_inurba_marseille","lat":43.31061,"lon":5.40097,"is_reserved":false,"is_disabled":false,"rental_uris":{"android":"levelo://app?vid=53f1ee6c-5f9b-4107-b452-641653a9a8fc","ios":"levelo://app?vid=53f1ee6c-5f9b-4107-b452-641653a9a8fc"},"vehicle_type_id":"4","last_reported":1732655334,"current_range_meters":38800,"station_id":"","pricing_plan_id":"cebpf4jnsgd1na2vs0mg"},{"bike_id":"7dddc6b3-bc71-4707-b97c-f58db65819c0","system_id":"levelo_inurba_marseille","lat":43.30139,"lon":5.37415,"is_reserved":false,"is_disabled":false,"rental_uris":{"android":"levelo://app?vid=7dddc6b3-bc71-4707-b97c-f58db65819c0","ios":"levelo://app?vid=7dddc6b3-bc71-4707-b97c-f58db65819c0"},"vehicle_type_id":"4","last_reported":1732655334,"current_range_meters":37600,"station_id":"ce4bgs92rcd13ifvqcc0","pricing_plan_id":"cebpf4jnsgd1na2vs0mg"},{"bike_id":"ef6a39b7-e6a6-4a91-aee1-cbf11610eb03","system_id":"levelo_inurba_marseille","lat":43.32367,"lon":5.38884,"is_reserved":false,"is_disabled":false,"rental_uris":{"android":"levelo://app?vid=ef6a39b7-e6a6-4a91-aee1-cbf11610eb03","ios":"levelo://app?vid=ef6a39b7-e6a6-4a91-aee1-cbf11610eb03"},"vehicle_type_id":"4","last_reported":1732655334,"current_range_meters":28800,"station_id":"ce4bhqp2rcd13ifvqhog","pricing_plan_id":"cebpf4jnsgd1na2vs0mg"},{"bike_id":"325cd52d-84a8-4ef9-8734-ee523f17686b","system_id":"levelo_inurba_marseille","lat":43.269569,"lon":5.403104,"is_reserved":false,"is_disabled":false,"rental_uris":{"android":"levelo://app?vid=325cd52d-84a8-4ef9-8734-ee523f17686b","ios":"levelo://app?vid=325cd52d-84a8-4ef9-8734-ee523f17686b"},"vehicle_type_id":"4","last_reported":1732655334,"current_range_meters":26000,"station_id":"cjm6bp8fraef2m0cb0m0","pricing_plan_id":"cebpf4jnsgd1na2vs0mg"},{"bike_id":"287fa067-0159-4a80-8436-f002b330f07a","system_id":"levelo_inurba_marseille","lat":43.27073,"lon":5.42275,"is_reserved":false,"is_disabled":false,"rental_uris":{"android":"levelo://app?vid=287fa067-0159-4a80-8436-f002b330f07a","ios":"levelo://app?vid=287fa067-0159-4a80-8436-f002b330f07a"},"vehicle_type_id":"4","last_reported":1732655334,"current_range_meters":38400,"station_id":"ce4bhk92rcd13ifvqgb0","pricing_plan_id":"cebpf4jnsgd1na2vs0mg"},{"bike_id":"9512a8ee-f353-499e-a2d7-d19acfd5aced","system_id":"levelo_inurba_marseille","lat":43.29977,"lon":5.37178,"is_reserved":false,"is_disabled":false,"rental_uris":{"android":"levelo://app?vid=9512a8ee-f353-499e-a2d7-d19acfd5aced","ios":"levelo://app?vid=9512a8ee-f353-499e-a2d7-d19acfd5aced"},"vehicle_type_id":"4","last_reported":1732655334,"current_range_meters":16000,"station_id":"ce4bgr92rcd13ifvqc7g","pricing_plan_id":"cebpf4jnsgd1na2vs0mg"},{"bike_id":"4d4c884f-6933-49c0-8899-f9856d90f44d","system_id":"levelo_inurba_marseille","lat":43.29726,"lon":5.38011,"is_reserved":false,"is_disabled":true,"rental_uris":{"android":"levelo://app?vid=4d4c884f-6933-49c0-8899-f9856d90f44d","ios":"levelo://app?vid=4d4c884f-6933-49c0-8899-f9856d90f44d"},"vehicle_type_id":"4","last_reported":1732655334,"current_range_meters":0,"station_id":"","pricing_plan_id":"cebpf4jnsgd1na2vs0mg"},{"bike_id":"f7a838a3-8040-4adf-b57a-28f473cf0a78","system_id":"levelo_inurba_marseille","lat":43.30433,"lon":5.38879,"is_reserved":false,"is_disabled":false,"rental_uris":{"android":"levelo://app?vid=f7a838a3-8040-4adf-b57a-28f473cf0a78","ios":"levelo://app?vid=f7a838a3-8040-4adf-b57a-28f473cf0a78"},"vehicle_type_id":"4","last_reported":1732655334,"current_range_meters":30000,"station_id":"ce4bgk12rcd13ifvqbi0","pricing_plan_id":"cebpf4jnsgd1na2vs0mg"},{"bike_id":"85ad58f6-1962-47c9-867e-4d960b52d89c","system_id":"levelo_inurba_marseille","lat":43.29872,"lon":5.39717,"is_reserved":false,"is_disabled":false,"rental_uris":{"android":"levelo://app?vid=85ad58f6-1962-47c9-867e-4d960b52d89c","ios":"levelo://app?vid=85ad58f6-1962-47c9-867e-4d960b52d89c"},"vehicle_type_id":"4","last_reported":1732655334,"current_range_meters":38800,"station_id":"ce4bh0h2rcd13ifvqd50","pricing_plan_id":"cebpf4jnsgd1na2vs0mg"},{"bike_id":"f3ffd556-9cd2-4b11-88d2-d1e698fceed7","system_id":"levelo_inurba_marseille","lat":43.280797,"lon":5.396553,"is_reserved":false,"is_disabled":false,"rental_uris":{"android":"levelo://app?vid=f3ffd556-9cd2-4b11-88d2-d1e698fceed7","ios":"levelo://app?vid=f3ffd556-9cd2-4b11-88d2-d1e698fceed7"},"vehicle_type_id":"4","last_reported":1732655334,"current_range_meters":39200,"station_id":"ce4bho12rcd13ifvqh2g","pricing_plan_id":"cebpf4jnsgd1na2vs0mg"},{"bike_id":"0b59e005-4e42-47c9-a772-4603f8162a9b","system_id":"levelo_inurba_marseille","lat":43.27812,"lon":5.40706,"is_reserved":false,"is_disabled":false,"rental_uris":{"android":"levelo://app?vid=0b59e005-4e42-47c9-a772-4603f8162a9b","ios":"levelo://app?vid=0b59e005-4e42-47c9-a772-4603f8162a9b"},"vehicle_type_id":"4","last_reported":1732655334,"current_range_meters":16000,"station_id":"ce4bhnh2rcd13ifvqgtg","pricing_plan_id":"cebpf4jnsgd1na2vs0mg"},{"bike_id":"5001bb71-3eee-4da5-b32a-e07ff7493211","system_id":"levelo_inurba_marseille","lat":43.31324,"lon":5.39692,"is_reserved":false,"is_disabled":false,"rental_uris":{"android":"levelo://app?vid=5001bb71-3eee-4da5-b32a-e07ff7493211","ios":"levelo://app?vid=5001bb71-3eee-4da5-b32a-e07ff7493211"},"vehicle_type_id":"4","last_reported":1732655334,"current_range_meters":38800,"station_id":"ce4bgvp2rcd13ifvqcu0","pricing_plan_id":"cebpf4jnsgd1na2vs0mg"},{"bike_id":"20b3d934-42a7-42b9-bb49-0833cf2f0412","system_id":"levelo_inurba_marseille","lat":43.29303,"lon":5.37191,"is_reserved":false,"is_disabled":true,"rental_uris":{"android":"levelo://app?vid=20b3d934-42a7-42b9-bb49-0833cf2f0412","ios":"levelo://app?vid=20b3d934-42a7-42b9-bb49-0833cf2f0412"},"vehicle_type_id":"4","last_reported":1732655334,"current_range_meters":38800,"station_id":"ce4bgh92rcd13ifvqb40","pricing_plan_id":"cebpf4jnsgd1na2vs0mg"},{"bike_id":"ac57b123-6733-47bc-836f-1187366940c1","system_id":"levelo_inurba_marseille","lat":43.28079,"lon":5.39659,"is_reserved":false,"is_disabled":false,"rental_uris":{"android":"levelo://app?vid=ac57b123-6733-47bc-836f-1187366940c1","ios":"levelo://app?vid=ac57b123-6733-47bc-836f-1187366940c1"},"vehicle_type_id":"4","last_reported":1732655334,"current_range_meters":34800,"station_id":"ce4bho12rcd13ifvqh2g","pricing_plan_id":"cebpf4jnsgd1na2vs0mg"},{"bike_id":"87bb7cbe-aefe-4e56-aa6b-d384b6df38eb","system_id":"levelo_inurba_marseille","lat":43.30407,"lon":5.41289,"is_reserved":false,"is_disabled":false,"rental_uris":{"android":"levelo://app?vid=87bb7cbe-aefe-4e56-aa6b-d384b6df38eb","ios":"levelo://app?vid=87bb7cbe-aefe-4e56-aa6b-d384b6df38eb"},"vehicle_type_id":"4","last_reported":1732655334,"current_range_meters":8400,"station_id":"ce4bhop2rcd13ifvqh8g","pricing_plan_id":"cebpf4jnsgd1na2vs0mg"},{"bike_id":"e023ff32-6c4f-4673-a7aa-5fcdbec26d0f","system_id":"levelo_inurba_marseille","lat":43.28845,"lon":5.358388,"is_reserved":false,"is_disabled":true,"rental_uris":{"android":"levelo://app?vid=e023ff32-6c4f-4673-a7aa-5fcdbec26d0f","ios":"levelo://app?vid=e023ff32-6c4f-4673-a7aa-5fcdbec26d0f"},"vehicle_type_id":"4","last_reported":1732655334,"current_range_meters":28000,"station_id":"ce4bhb12rcd13ifvqem0","pricing_plan_id":"cebpf4jnsgd1na2vs0mg"},{"bike_id":"22c0168c-678d-471b-9881-7150f7db9bb9","system_id":"levelo_inurba_marseille","lat":43.31755,"lon":5.39009,"is_reserved":false,"is_disabled":false,"rental_uris":{"android":"levelo://app?vid=22c0168c-678d-471b-9881-7150f7db9bb9","ios":"levelo://app?vid=22c0168c-678d-471b-9881-7150f7db9bb9"},"vehicle_type_id":"4","last_reported":1732655334,"current_range_meters":22800,"station_id":"ce4bhqp2rcd13ifvqhng","pricing_plan_id":"cebpf4jnsgd1na2vs0mg"},{"bike_id":"f9ca3389-f0b0-42e9-b890-7ec20aa8d35e","system_id":"levelo_inurba_marseille","lat":43.29269,"lon":5.36843,"is_reserved":false,"is_disabled":true,"rental_uris":{"android":"levelo://app?vid=f9ca3389-f0b0-42e9-b890-7ec20aa8d35e","ios":"levelo://app?vid=f9ca3389-f0b0-42e9-b890-7ec20aa8d35e"},"vehicle_type_id":"4","last_reported":1732655334,"current_range_meters":16000,"station_id":"ce4bhbp2rcd13ifvqesg","pricing_plan_id":"cebpf4jnsgd1na2vs0mg"},{"bike_id":"4d809776-4d2b-4bf5-8aa6-666b5b1fd18f","system_id":"levelo_inurba_marseille","lat":43.33711,"lon":5.39205,"is_reserved":false,"is_disabled":false,"rental_uris":{"android":"levelo://app?vid=4d809776-4d2b-4bf5-8aa6-666b5b1fd18f","ios":"levelo://app?vid=4d809776-4d2b-4bf5-8aa6-666b5b1fd18f"},"vehicle_type_id":"4","last_reported":1732655334,"current_range_meters":38800,"station_id":"ce4bhr92rcd13ifvqhsg","pricing_plan_id":"cebpf4jnsgd1na2vs0mg"},{"bike_id":"eb657d29-046e-4d20-a513-9ee2a0b8d84b","system_id":"levelo_inurba_marseille","lat":43.31761,"lon":5.39021,"is_reserved":false,"is_disabled":false,"rental_uris":{"android":"levelo://app?vid=eb657d29-046e-4d20-a513-9ee2a0b8d84b","ios":"levelo://app?vid=eb657d29-046e-4d20-a513-9ee2a0b8d84b"},"vehicle_type_id":"4","last_reported":1732655334,"current_range_meters":38400,"station_id":"ce4bhqp2rcd13ifvqhng","pricing_plan_id":"cebpf4jnsgd1na2vs0mg"},{"bike_id":"2c79c9db-6c4c-4acf-92dc-5bafe7668397","system_id":"levelo_inurba_marseille","lat":43.29684,"lon":5.37284,"is_reserved":false,"is_disabled":false,"rental_uris":{"android":"levelo://app?vid=2c79c9db-6c4c-4acf-92dc-5bafe7668397","ios":"levelo://app?vid=2c79c9db-6c4c-4acf-92dc-5bafe7668397"},"vehicle_type_id":"4","last_reported":1732655334,"current_range_meters":32400,"station_id":"ce4bgk12rcd13ifvqbj0","pricing_plan_id":"cebpf4jnsgd1na2vs0mg"},{"bike_id":"5817161f-5d63-41b2-92c0-c94f8059d60c","system_id":"levelo_inurba_marseille","lat":43.337444,"lon":5.374475,"is_reserved":false,"is_disabled":false,"rental_uris":{"android":"levelo://app?vid=5817161f-5d63-41b2-92c0-c94f8059d60c","ios":"levelo://app?vid=5817161f-5d63-41b2-92c0-c94f8059d60c"},"vehicle_type_id":"4","last_reported":1732655334,"current_range_meters":38400,"station_id":"","pricing_plan_id":"cebpf4jnsgd1na2vs0mg"},{"bike_id":"89d3adbc-8c70-413f-8488-75b105f8d0ff","system_id":"levelo_inurba_marseille","lat":43.28441,"lon":5.39207,"is_reserved":false,"is_disabled":false,"rental_uris":{"android":"levelo://app?vid=89d3adbc-8c70-413f-8488-75b105f8d0ff","ios":"levelo://app?vid=89d3adbc-8c70-413f-8488-75b105f8d0ff"},"vehicle_type_id":"4","last_reported":1732655334,"current_range_meters":35200,"station_id":"ce4bhoh2rcd13ifvqh5g","pricing_plan_id":"cebpf4jnsgd1na2vs0mg"},{"bike_id":"92113829-b00b-451a-a668-19b27b8ba590","system_id":"levelo_inurba_marseille","lat":43.30313,"lon":5.39206,"is_reserved":false,"is_disabled":false,"rental_uris":{"android":"levelo://app?vid=92113829-b00b-451a-a668-19b27b8ba590","ios":"levelo://app?vid=92113829-b00b-451a-a668-19b27b8ba590"},"vehicle_type_id":"4","last_reported":1732655334,"current_range_meters":7200,"station_id":"ce4bgkh2rcd13ifvqbk0","pricing_plan_id":"cebpf4jnsgd1na2vs0mg"},{"bike_id":"8cdfa518-6835-4cb3-96f0-238848d46919","system_id":"levelo_inurba_marseille","lat":43.30323,"lon":5.40445,"is_reserved":false,"is_disabled":false,"rental_uris":{"android":"levelo://app?vid=8cdfa518-6835-4cb3-96f0-238848d46919","ios":"levelo://app?vid=8cdfa518-6835-4cb3-96f0-238848d46919"},"vehicle_type_id":"4","last_reported":1732655334,"current_range_meters":38800,"station_id":"ce4bh012rcd13ifvqd10","pricing_plan_id":"cebpf4jnsgd1na2vs0mg"},{"bike_id":"d22ef21c-17e1-4059-8355-1acb5f22bbd2","system_id":"levelo_inurba_marseille","lat":43.2396,"lon":5.36626,"is_reserved":false,"is_disabled":false,"rental_uris":{"android":"levelo://app?vid=d22ef21c-17e1-4059-8355-1acb5f22bbd2","ios":"levelo://app?vid=d22ef21c-17e1-4059-8355-1acb5f22bbd2"},"vehicle_type_id":"4","last_reported":1732655334,"current_range_meters":9200,"station_id":"ce4bhi12rcd13ifvqfp0","pricing_plan_id":"cebpf4jnsgd1na2vs0mg"},{"bike_id":"6510d388-1e42-4d39-b562-6fdb1980c0e0","system_id":"levelo_inurba_marseille","lat":43.274248,"lon":5.394145,"is_reserved":false,"is_disabled":false,"rental_uris":{"android":"levelo://app?vid=6510d388-1e42-4d39-b562-6fdb1980c0e0","ios":"levelo://app?vid=6510d388-1e42-4d39-b562-6fdb1980c0e0"},"vehicle_type_id":"4","last_reported":1732655334,"current_range_meters":18800,"station_id":"ce4bhdp2rcd13ifvqf20","pricing_plan_id":"cebpf4jnsgd1na2vs0mg"},{"bike_id":"a12907ac-73ad-4ed4-ad14-f01980f29a3a","system_id":"levelo_inurba_marseille","lat":43.31077,"lon":5.38357,"is_reserved":false,"is_disabled":false,"rental_uris":{"android":"levelo://app?vid=a12907ac-73ad-4ed4-ad14-f01980f29a3a","ios":"levelo://app?vid=a12907ac-73ad-4ed4-ad14-f01980f29a3a"},"vehicle_type_id":"4","last_reported":1732655334,"current_range_meters":18000,"station_id":"ce4bgv92rcd13ifvqcr0","pricing_plan_id":"cebpf4jnsgd1na2vs0mg"},{"bike_id":"7201e0cf-a992-4041-bacd-04ce15cb4f7c","system_id":"levelo_inurba_marseille","lat":43.26177,"lon":5.37406,"is_reserved":false,"is_disabled":true,"rental_uris":{"android":"levelo://app?vid=7201e0cf-a992-4041-bacd-04ce15cb4f7c","ios":"levelo://app?vid=7201e0cf-a992-4041-bacd-04ce15cb4f7c"},"vehicle_type_id":"4","last_reported":1732655334,"current_range_meters":400,"station_id":"ce4bhgp2rcd13ifvqfc0","pricing_plan_id":"cebpf4jnsgd1na2vs0mg"},{"bike_id":"5f60bd09-ca4b-4eaa-a808-cc895fde7bba","system_id":"levelo_inurba_marseille","lat":43.28434,"lon":5.37508,"is_reserved":false,"is_disabled":false,"rental_uris":{"android":"levelo://app?vid=5f60bd09-ca4b-4eaa-a808-cc895fde7bba","ios":"levelo://app?vid=5f60bd09-ca4b-4eaa-a808-cc895fde7bba"},"vehicle_type_id":"4","last_reported":1732655334,"current_range_meters":21600,"station_id":"ce4bh412rcd13ifvqds0","pricing_plan_id":"cebpf4jnsgd1na2vs0mg"},{"bike_id":"f19d7ace-af23-4f6f-b8c7-af54078ccdd7","system_id":"levelo_inurba_marseille","lat":43.31479,"lon":5.37307,"is_reserved":false,"is_disabled":false,"rental_uris":{"android":"levelo://app?vid=f19d7ace-af23-4f6f-b8c7-af54078ccdd7","ios":"levelo://app?vid=f19d7ace-af23-4f6f-b8c7-af54078ccdd7"},"vehicle_type_id":"4","last_reported":1732655334,"current_range_meters":22800,"station_id":"ce4bgt12rcd13ifvqcd0","pricing_plan_id":"cebpf4jnsgd1na2vs0mg"},{"bike_id":"ebba3546-4cc2-46cf-89c2-e1c5c89f5432","system_id":"levelo_inurba_marseille","lat":43.25868,"lon":5.39894,"is_reserved":false,"is_disabled":false,"rental_uris":{"android":"levelo://app?vid=ebba3546-4cc2-46cf-89c2-e1c5c89f5432","ios":"levelo://app?vid=ebba3546-4cc2-46cf-89c2-e1c5c89f5432"},"vehicle_type_id":"4","last_reported":1732655334,"current_range_meters":38400,"station_id":"ce4bhl92rcd13ifvqghg","pricing_plan_id":"cebpf4jnsgd1na2vs0mg"},{"bike_id":"dc473ea1-cb7e-4df1-8bc2-7f7c75206904","system_id":"levelo_inurba_marseille","lat":43.24648,"lon":5.3889,"is_reserved":false,"is_disabled":false,"rental_uris":{"android":"levelo://app?vid=dc473ea1-cb7e-4df1-8bc2-7f7c75206904","ios":"levelo://app?vid=dc473ea1-cb7e-4df1-8bc2-7f7c75206904"},"vehicle_type_id":"4","last_reported":1732655334,"current_range_meters":28400,"station_id":"ce4bhg12rcd13ifvqf60","pricing_plan_id":"cebpf4jnsgd1na2vs0mg"},{"bike_id":"0cd7fb1f-f090-4e80-a2fb-03510d2b2219","system_id":"levelo_inurba_marseille","lat":43.29571,"lon":5.37503,"is_reserved":false,"is_disabled":true,"rental_uris":{"android":"levelo://app?vid=0cd7fb1f-f090-4e80-a2fb-03510d2b2219","ios":"levelo://app?vid=0cd7fb1f-f090-4e80-a2fb-03510d2b2219"},"vehicle_type_id":"4","last_reported":1732655334,"current_range_meters":30800,"station_id":"ce4bgh92rcd13ifvqb50","pricing_plan_id":"cebpf4jnsgd1na2vs0mg"},{"bike_id":"b96b93ca-a597-434c-a94f-c8450f9327b3","system_id":"levelo_inurba_marseille","lat":43.2586,"lon":5.39903,"is_reserved":false,"is_disabled":false,"rental_uris":{"android":"levelo://app?vid=b96b93ca-a597-434c-a94f-c8450f9327b3","ios":"levelo://app?vid=b96b93ca-a597-434c-a94f-c8450f9327b3"},"vehicle_type_id":"4","last_reported":1732655334,"current_range_meters":28000,"station_id":"ce4bhl92rcd13ifvqghg","pricing_plan_id":"cebpf4jnsgd1na2vs0mg"},{"bike_id":"182d83f8-e1ac-4212-b9e0-e3deabd469da","system_id":"levelo_inurba_marseille","lat":43.23189,"lon":5.39985,"is_reserved":false,"is_disabled":false,"rental_uris":{"android":"levelo://app?vid=182d83f8-e1ac-4212-b9e0-e3deabd469da","ios":"levelo://app?vid=182d83f8-e1ac-4212-b9e0-e3deabd469da"},"vehicle_type_id":"4","last_reported":1732655334,"current_range_meters":12800,"station_id":"ce4bhn12rcd13ifvqgqg","pricing_plan_id":"cebpf4jnsgd1na2vs0mg"},{"bike_id":"6a243988-d267-4e1e-bafc-c091870de6a8","system_id":"levelo_inurba_marseille","lat":43.24176,"lon":5.36388,"is_reserved":false,"is_disabled":false,"rental_uris":{"android":"levelo://app?vid=6a243988-d267-4e1e-bafc-c091870de6a8","ios":"levelo://app?vid=6a243988-d267-4e1e-bafc-c091870de6a8"},"vehicle_type_id":"4","last_reported":1732655334,"current_range_meters":37600,"station_id":"cpo36qri1sfpv3e86is0","pricing_plan_id":"cebpf4jnsgd1na2vs0mg"},{"bike_id":"47062e8d-7581-493e-a92f-3d06cbec3fe9","system_id":"levelo_inurba_marseille","lat":43.29791,"lon":5.37103,"is_reserved":false,"is_disabled":false,"rental_uris":{"android":"levelo://app?vid=47062e8d-7581-493e-a92f-3d06cbec3fe9","ios":"levelo://app?vid=47062e8d-7581-493e-a92f-3d06cbec3fe9"},"vehicle_type_id":"4","last_reported":1732655334,"current_range_meters":38800,"station_id":"ce4bgop2rcd13ifvqc1g","pricing_plan_id":"cebpf4jnsgd1na2vs0mg"},{"bike_id":"32cbe6aa-217f-475e-8d89-7b3ea1a39381","system_id":"levelo_inurba_marseille","lat":43.33026,"lon":5.39035,"is_reserved":false,"is_disabled":false,"rental_uris":{"android":"levelo://app?vid=32cbe6aa-217f-475e-8d89-7b3ea1a39381","ios":"levelo://app?vid=32cbe6aa-217f-475e-8d89-7b3ea1a39381"},"vehicle_type_id":"4","last_reported":1732655334,"current_range_meters":12000,"station_id":"ce4bhr92rcd13ifvqhrg","pricing_plan_id":"cebpf4jnsgd1na2vs0mg"},{"bike_id":"8d7fb948-8394-45df-85f4-38659c7c1984","system_id":"levelo_inurba_marseille","lat":43.24646,"lon":5.38889,"is_reserved":false,"is_disabled":false,"rental_uris":{"android":"levelo://app?vid=8d7fb948-8394-45df-85f4-38659c7c1984","ios":"levelo://app?vid=8d7fb948-8394-45df-85f4-38659c7c1984"},"vehicle_type_id":"4","last_reported":1732655334,"current_range_meters":16400,"station_id":"ce4bhg12rcd13ifvqf60","pricing_plan_id":"cebpf4jnsgd1na2vs0mg"},{"bike_id":"82d9c03a-6f43-4338-8c7b-2b9ac3a50f16","system_id":"levelo_inurba_marseille","lat":43.28938,"lon":5.36631,"is_reserved":false,"is_disabled":true,"rental_uris":{"android":"levelo://app?vid=82d9c03a-6f43-4338-8c7b-2b9ac3a50f16","ios":"levelo://app?vid=82d9c03a-6f43-4338-8c7b-2b9ac3a50f16"},"vehicle_type_id":"4","last_reported":1732655334,"current_range_meters":34800,"station_id":"ce4bhap2rcd13ifvqek0","pricing_plan_id":"cebpf4jnsgd1na2vs0mg"},{"bike_id":"39b04c21-6a6a-40a7-a489-741c2b67c9bd","system_id":"levelo_inurba_marseille","lat":43.337225,"lon":5.391915,"is_reserved":false,"is_disabled":false,"rental_uris":{"android":"levelo://app?vid=39b04c21-6a6a-40a7-a489-741c2b67c9bd","ios":"levelo://app?vid=39b04c21-6a6a-40a7-a489-741c2b67c9bd"},"vehicle_type_id":"4","last_reported":1732655334,"current_range_meters":14400,"station_id":"ce4bhr92rcd13ifvqhsg","pricing_plan_id":"cebpf4jnsgd1na2vs0mg"},{"bike_id":"7d0fbe59-54cb-4572-a3f8-0a292a0f2968","system_id":"levelo_inurba_marseille","lat":43.28848,"lon":5.35847,"is_reserved":false,"is_disabled":false,"rental_uris":{"android":"levelo://app?vid=7d0fbe59-54cb-4572-a3f8-0a292a0f2968","ios":"levelo://app?vid=7d0fbe59-54cb-4572-a3f8-0a292a0f2968"},"vehicle_type_id":"4","last_reported":1732655334,"current_range_meters":27600,"station_id":"ce4bhb12rcd13ifvqem0","pricing_plan_id":"cebpf4jnsgd1na2vs0mg"},{"bike_id":"33bbfac1-794e-4012-bb4e-1e09ac4ceb17","system_id":"levelo_inurba_marseille","lat":43.29976,"lon":5.37177,"is_reserved":false,"is_disabled":false,"rental_uris":{"android":"levelo://app?vid=33bbfac1-794e-4012-bb4e-1e09ac4ceb17","ios":"levelo://app?vid=33bbfac1-794e-4012-bb4e-1e09ac4ceb17"},"vehicle_type_id":"4","last_reported":1732655334,"current_range_meters":37600,"station_id":"ce4bgr92rcd13ifvqc7g","pricing_plan_id":"cebpf4jnsgd1na2vs0mg"},{"bike_id":"3661ba76-5df4-4da2-a023-30b8178c9761","system_id":"levelo_inurba_marseille","lat":43.29553,"lon":5.4229,"is_reserved":false,"is_disabled":false,"rental_uris":{"android":"levelo://app?vid=3661ba76-5df4-4da2-a023-30b8178c9761","ios":"levelo://app?vid=3661ba76-5df4-4da2-a023-30b8178c9761"},"vehicle_type_id":"4","last_reported":1732655334,"current_range_meters":12400,"station_id":"ce4bhph2rcd13ifvqhdg","pricing_plan_id":"cebpf4jnsgd1na2vs0mg"},{"bike_id":"aaabd233-f07a-4d18-bea7-b9a035fdaedc","system_id":"levelo_inurba_marseille","lat":43.30811,"lon":5.43524,"is_reserved":false,"is_disabled":false,"rental_uris":{"android":"levelo://app?vid=aaabd233-f07a-4d18-bea7-b9a035fdaedc","ios":"levelo://app?vid=aaabd233-f07a-4d18-bea7-b9a035fdaedc"},"vehicle_type_id":"4","last_reported":1732655334,"current_range_meters":17600,"station_id":"ce4bhph2rcd13ifvqheg","pricing_plan_id":"cebpf4jnsgd1na2vs0mg"},{"bike_id":"e26d0981-24f1-43fe-b7af-bb6dae750240","system_id":"levelo_inurba_marseille","lat":43.31279,"lon":5.40165,"is_reserved":false,"is_disabled":false,"rental_uris":{"android":"levelo://app?vid=e26d0981-24f1-43fe-b7af-bb6dae750240","ios":"levelo://app?vid=e26d0981-24f1-43fe-b7af-bb6dae750240"},"vehicle_type_id":"4","last_reported":1732655334,"current_range_meters":25200,"station_id":"ce4bh092rcd13ifvqd30","pricing_plan_id":"cebpf4jnsgd1na2vs0mg"},{"bike_id":"731a2f8e-46a1-40c2-a757-53eb1c7550a7","system_id":"levelo_inurba_marseille","lat":43.29274,"lon":5.40117,"is_reserved":false,"is_disabled":false,"rental_uris":{"android":"levelo://app?vid=731a2f8e-46a1-40c2-a757-53eb1c7550a7","ios":"levelo://app?vid=731a2f8e-46a1-40c2-a757-53eb1c7550a7"},"vehicle_type_id":"4","last_reported":1732655334,"current_range_meters":36800,"station_id":"ce4bh312rcd13ifvqdk0","pricing_plan_id":"cebpf4jnsgd1na2vs0mg"},{"bike_id":"704ddb11-043f-474f-a260-926d75682a49","system_id":"levelo_inurba_marseille","lat":43.29803,"lon":5.40403,"is_reserved":false,"is_disabled":false,"rental_uris":{"android":"levelo://app?vid=704ddb11-043f-474f-a260-926d75682a49","ios":"levelo://app?vid=704ddb11-043f-474f-a260-926d75682a49"},"vehicle_type_id":"4","last_reported":1732655334,"current_range_meters":38800,"station_id":"ce4bh112rcd13ifvqd90","pricing_plan_id":"cebpf4jnsgd1na2vs0mg"},{"bike_id":"7f1c8b36-a4f5-44f1-8051-505b61387c23","system_id":"levelo_inurba_marseille","lat":43.29528,"lon":5.39036,"is_reserved":false,"is_disabled":false,"rental_uris":{"android":"levelo://app?vid=7f1c8b36-a4f5-44f1-8051-505b61387c23","ios":"levelo://app?vid=7f1c8b36-a4f5-44f1-8051-505b61387c23"},"vehicle_type_id":"4","last_reported":1732655334,"current_range_meters":11600,"station_id":"ce4bh3p2rcd13ifvqdp0","pricing_plan_id":"cebpf4jnsgd1na2vs0mg"},{"bike_id":"e6b6ed62-a985-43be-a221-3aaa72f8a1db","system_id":"levelo_inurba_marseille","lat":43.27971,"lon":5.38743,"is_reserved":false,"is_disabled":false,"rental_uris":{"android":"levelo://app?vid=e6b6ed62-a985-43be-a221-3aaa72f8a1db","ios":"levelo://app?vid=e6b6ed62-a985-43be-a221-3aaa72f8a1db"},"vehicle_type_id":"4","last_reported":1732655334,"current_range_meters":2000,"station_id":"ce4bhg12rcd13ifvqf80","pricing_plan_id":"cebpf4jnsgd1na2vs0mg"},{"bike_id":"6eb165ac-2a63-464b-982d-3fb7f9449104","system_id":"levelo_inurba_marseille","lat":43.30935,"lon":5.40147,"is_reserved":false,"is_disabled":false,"rental_uris":{"android":"levelo://app?vid=6eb165ac-2a63-464b-982d-3fb7f9449104","ios":"levelo://app?vid=6eb165ac-2a63-464b-982d-3fb7f9449104"},"vehicle_type_id":"4","last_reported":1732655334,"current_range_meters":32800,"station_id":"ce4bgvp2rcd13ifvqct0","pricing_plan_id":"cebpf4jnsgd1na2vs0mg"},{"bike_id":"3b2ddd61-7276-4381-b067-2a88d42fe9ff","system_id":"levelo_inurba_marseille","lat":43.28254,"lon":5.35074,"is_reserved":false,"is_disabled":false,"rental_uris":{"android":"levelo://app?vid=3b2ddd61-7276-4381-b067-2a88d42fe9ff","ios":"levelo://app?vid=3b2ddd61-7276-4381-b067-2a88d42fe9ff"},"vehicle_type_id":"4","last_reported":1732655334,"current_range_meters":17600,"station_id":"ce4bhbp2rcd13ifvqerg","pricing_plan_id":"cebpf4jnsgd1na2vs0mg"},{"bike_id":"3faca838-929a-408e-bcba-41512aacc531","system_id":"levelo_inurba_marseille","lat":43.28077,"lon":5.39668,"is_reserved":false,"is_disabled":false,"rental_uris":{"android":"levelo://app?vid=3faca838-929a-408e-bcba-41512aacc531","ios":"levelo://app?vid=3faca838-929a-408e-bcba-41512aacc531"},"vehicle_type_id":"4","last_reported":1732655334,"current_range_meters":8800,"station_id":"ce4bho12rcd13ifvqh2g","pricing_plan_id":"cebpf4jnsgd1na2vs0mg"},{"bike_id":"36296f5c-0176-4be0-97c8-7930cda9c369","system_id":"levelo_inurba_marseille","lat":43.32107,"lon":5.36781,"is_reserved":false,"is_disabled":false,"rental_uris":{"android":"levelo://app?vid=36296f5c-0176-4be0-97c8-7930cda9c369","ios":"levelo://app?vid=36296f5c-0176-4be0-97c8-7930cda9c369"},"vehicle_type_id":"4","last_reported":1732655334,"current_range_meters":20400,"station_id":"ce4bhrh2rcd13ifvqhug","pricing_plan_id":"cebpf4jnsgd1na2vs0mg"},{"bike_id":"ec72a8b5-166b-40d9-9604-02cdfbd445ed","system_id":"levelo_inurba_marseille","lat":43.28694,"lon":5.37383,"is_reserved":false,"is_disabled":false,"rental_uris":{"android":"levelo://app?vid=ec72a8b5-166b-40d9-9604-02cdfbd445ed","ios":"levelo://app?vid=ec72a8b5-166b-40d9-9604-02cdfbd445ed"},"vehicle_type_id":"4","last_reported":1732655334,"current_range_meters":38800,"station_id":"ce4bh3p2rcd13ifvqdq0","pricing_plan_id":"cebpf4jnsgd1na2vs0mg"},{"bike_id":"00cfb2f4-c202-43c6-a6ae-d8f94f3813f3","system_id":"levelo_inurba_marseille","lat":43.2872,"lon":5.37942,"is_reserved":false,"is_disabled":false,"rental_uris":{"android":"levelo://app?vid=00cfb2f4-c202-43c6-a6ae-d8f94f3813f3","ios":"levelo://app?vid=00cfb2f4-c202-43c6-a6ae-d8f94f3813f3"},"vehicle_type_id":"4","last_reported":1732655334,"current_range_meters":36000,"station_id":"ce4bh9p2rcd13ifvqec0","pricing_plan_id":"cebpf4jnsgd1na2vs0mg"},{"bike_id":"4534993a-8d83-4afa-91b4-06f0ef9a9916","system_id":"levelo_inurba_marseille","lat":43.28615,"lon":5.35105,"is_reserved":false,"is_disabled":false,"rental_uris":{"android":"levelo://app?vid=4534993a-8d83-4afa-91b4-06f0ef9a9916","ios":"levelo://app?vid=4534993a-8d83-4afa-91b4-06f0ef9a9916"},"vehicle_type_id":"4","last_reported":1732655334,"current_range_meters":14000,"station_id":"ce4bhch2rcd13ifvqeug","pricing_plan_id":"cebpf4jnsgd1na2vs0mg"},{"bike_id":"5a64147f-da9a-40cb-a940-153001e1f291","system_id":"levelo_inurba_marseille","lat":43.29791,"lon":5.38193,"is_reserved":false,"is_disabled":true,"rental_uris":{"android":"levelo://app?vid=5a64147f-da9a-40cb-a940-153001e1f291","ios":"levelo://app?vid=5a64147f-da9a-40cb-a940-153001e1f291"},"vehicle_type_id":"4","last_reported":1732655334,"current_range_meters":30000,"station_id":"","pricing_plan_id":"cebpf4jnsgd1na2vs0mg"},{"bike_id":"f3ab79b4-bee0-4279-abac-5f85f5e58a2e","system_id":"levelo_inurba_marseille","lat":43.29566,"lon":5.39971,"is_reserved":false,"is_disabled":false,"rental_uris":{"android":"levelo://app?vid=f3ab79b4-bee0-4279-abac-5f85f5e58a2e","ios":"levelo://app?vid=f3ab79b4-bee0-4279-abac-5f85f5e58a2e"},"vehicle_type_id":"4","last_reported":1732655334,"current_range_meters":36800,"station_id":"ce4bh312rcd13ifvqdj0","pricing_plan_id":"cebpf4jnsgd1na2vs0mg"},{"bike_id":"5e94e11f-881f-4f15-b59c-c93c4e3ef240","system_id":"levelo_inurba_marseille","lat":43.25106,"lon":5.4032,"is_reserved":false,"is_disabled":false,"rental_uris":{"android":"levelo://app?vid=5e94e11f-881f-4f15-b59c-c93c4e3ef240","ios":"levelo://app?vid=5e94e11f-881f-4f15-b59c-c93c4e3ef240"},"vehicle_type_id":"4","last_reported":1732655334,"current_range_meters":12800,"station_id":"ce4bhlh2rcd13ifvqgig","pricing_plan_id":"cebpf4jnsgd1na2vs0mg"},{"bike_id":"38163f11-ad28-4454-9e2f-22952b3ffda3","system_id":"levelo_inurba_marseille","lat":43.33025,"lon":5.39039,"is_reserved":false,"is_disabled":false,"rental_uris":{"android":"levelo://app?vid=38163f11-ad28-4454-9e2f-22952b3ffda3","ios":"levelo://app?vid=38163f11-ad28-4454-9e2f-22952b3ffda3"},"vehicle_type_id":"4","last_reported":1732655334,"current_range_meters":8800,"station_id":"ce4bhr92rcd13ifvqhrg","pricing_plan_id":"cebpf4jnsgd1na2vs0mg"},{"bike_id":"0c422c1e-3685-41b8-a687-129163a8d53c","system_id":"levelo_inurba_marseille","lat":43.28087,"lon":5.3966,"is_reserved":false,"is_disabled":false,"rental_uris":{"android":"levelo://app?vid=0c422c1e-3685-41b8-a687-129163a8d53c","ios":"levelo://app?vid=0c422c1e-3685-41b8-a687-129163a8d53c"},"vehicle_type_id":"4","last_reported":1732655334,"current_range_meters":32000,"station_id":"ce4bho12rcd13ifvqh2g","pricing_plan_id":"cebpf4jnsgd1na2vs0mg"},{"bike_id":"73e59ae6-2ee9-4cfa-a524-30488db1567f","system_id":"levelo_inurba_marseille","lat":43.30623,"lon":5.40068,"is_reserved":false,"is_disabled":false,"rental_uris":{"android":"levelo://app?vid=73e59ae6-2ee9-4cfa-a524-30488db1567f","ios":"levelo://app?vid=73e59ae6-2ee9-4cfa-a524-30488db1567f"},"vehicle_type_id":"4","last_reported":1732655334,"current_range_meters":17200,"station_id":"ce4bh112rcd13ifvqda0","pricing_plan_id":"cebpf4jnsgd1na2vs0mg"},{"bike_id":"59d4e266-5854-41fb-a8c4-d167a2b656fd","system_id":"levelo_inurba_marseille","lat":43.30777,"lon":5.37648,"is_reserved":false,"is_disabled":false,"rental_uris":{"android":"levelo://app?vid=59d4e266-5854-41fb-a8c4-d167a2b656fd","ios":"levelo://app?vid=59d4e266-5854-41fb-a8c4-d167a2b656fd"},"vehicle_type_id":"4","last_reported":1732655334,"current_range_meters":38400,"station_id":"ce4bgv92rcd13ifvqcq0","pricing_plan_id":"cebpf4jnsgd1na2vs0mg"},{"bike_id":"d81c53c2-9041-4610-9112-f91be4e0b004","system_id":"levelo_inurba_marseille","lat":43.29523,"lon":5.39402,"is_reserved":false,"is_disabled":false,"rental_uris":{"android":"levelo://app?vid=d81c53c2-9041-4610-9112-f91be4e0b004","ios":"levelo://app?vid=d81c53c2-9041-4610-9112-f91be4e0b004"},"vehicle_type_id":"4","last_reported":1732655334,"current_range_meters":39200,"station_id":"ce4bh292rcd13ifvqdf0","pricing_plan_id":"cebpf4jnsgd1na2vs0mg"},{"bike_id":"51b398f2-b539-440c-917f-0128fd59b7e4","system_id":"levelo_inurba_marseille","lat":43.28439,"lon":5.35899,"is_reserved":false,"is_disabled":false,"rental_uris":{"android":"levelo://app?vid=51b398f2-b539-440c-917f-0128fd59b7e4","ios":"levelo://app?vid=51b398f2-b539-440c-917f-0128fd59b7e4"},"vehicle_type_id":"4","last_reported":1732655334,"current_range_meters":38800,"station_id":"ce4bhah2rcd13ifvqei0","pricing_plan_id":"cebpf4jnsgd1na2vs0mg"},{"bike_id":"1cd78e3c-eca2-430e-a00b-3450b52eb373","system_id":"levelo_inurba_marseille","lat":43.2293,"lon":5.35376,"is_reserved":false,"is_disabled":true,"rental_uris":{"android":"levelo://app?vid=1cd78e3c-eca2-430e-a00b-3450b52eb373","ios":"levelo://app?vid=1cd78e3c-eca2-430e-a00b-3450b52eb373"},"vehicle_type_id":"4","last_reported":1732655334,"current_range_meters":0,"station_id":"cpo3532slgdg3j2ikp40","pricing_plan_id":"cebpf4jnsgd1na2vs0mg"},{"bike_id":"2ccbab4c-72b8-4d2e-a7d8-b3b981518916","system_id":"levelo_inurba_marseille","lat":43.31764,"lon":5.39006,"is_reserved":false,"is_disabled":false,"rental_uris":{"android":"levelo://app?vid=2ccbab4c-72b8-4d2e-a7d8-b3b981518916","ios":"levelo://app?vid=2ccbab4c-72b8-4d2e-a7d8-b3b981518916"},"vehicle_type_id":"4","last_reported":1732655334,"current_range_meters":38400,"station_id":"ce4bhqp2rcd13ifvqhng","pricing_plan_id":"cebpf4jnsgd1na2vs0mg"},{"bike_id":"391001e2-7361-4b92-b20f-4fb1d1376b6e","system_id":"levelo_inurba_marseille","lat":43.23191,"lon":5.39992,"is_reserved":false,"is_disabled":true,"rental_uris":{"android":"levelo://app?vid=391001e2-7361-4b92-b20f-4fb1d1376b6e","ios":"levelo://app?vid=391001e2-7361-4b92-b20f-4fb1d1376b6e"},"vehicle_type_id":"4","last_reported":1732655334,"current_range_meters":0,"station_id":"ce4bhn12rcd13ifvqgqg","pricing_plan_id":"cebpf4jnsgd1na2vs0mg"},{"bike_id":"d2266fba-c5f9-432e-b9a4-6ac4ba499a02","system_id":"levelo_inurba_marseille","lat":43.317,"lon":5.40473,"is_reserved":false,"is_disabled":false,"rental_uris":{"android":"levelo://app?vid=d2266fba-c5f9-432e-b9a4-6ac4ba499a02","ios":"levelo://app?vid=d2266fba-c5f9-432e-b9a4-6ac4ba499a02"},"vehicle_type_id":"4","last_reported":1732655334,"current_range_meters":38800,"station_id":"ce4bh012rcd13ifvqd00","pricing_plan_id":"cebpf4jnsgd1na2vs0mg"},{"bike_id":"a8b35310-cda2-4bd1-a998-57276e2fcdd4","system_id":"levelo_inurba_marseille","lat":43.28946,"lon":5.36411,"is_reserved":false,"is_disabled":false,"rental_uris":{"android":"levelo://app?vid=a8b35310-cda2-4bd1-a998-57276e2fcdd4","ios":"levelo://app?vid=a8b35310-cda2-4bd1-a998-57276e2fcdd4"},"vehicle_type_id":"4","last_reported":1732655334,"current_range_meters":24400,"station_id":"ce4bhc92rcd13ifvqetg","pricing_plan_id":"cebpf4jnsgd1na2vs0mg"},{"bike_id":"b28732f2-c600-4394-897f-dc5aa1b8e102","system_id":"levelo_inurba_marseille","lat":43.28699,"lon":5.39976,"is_reserved":false,"is_disabled":false,"rental_uris":{"android":"levelo://app?vid=b28732f2-c600-4394-897f-dc5aa1b8e102","ios":"levelo://app?vid=b28732f2-c600-4394-897f-dc5aa1b8e102"},"vehicle_type_id":"4","last_reported":1732655334,"current_range_meters":39200,"station_id":"ce4bho92rcd13ifvqh3g","pricing_plan_id":"cebpf4jnsgd1na2vs0mg"},{"bike_id":"2b7dafbf-c89a-4000-b0bf-6bff57afb17e","system_id":"levelo_inurba_marseille","lat":43.30326,"lon":5.4044,"is_reserved":false,"is_disabled":false,"rental_uris":{"android":"levelo://app?vid=2b7dafbf-c89a-4000-b0bf-6bff57afb17e","ios":"levelo://app?vid=2b7dafbf-c89a-4000-b0bf-6bff57afb17e"},"vehicle_type_id":"4","last_reported":1732655334,"current_range_meters":38800,"station_id":"ce4bh012rcd13ifvqd10","pricing_plan_id":"cebpf4jnsgd1na2vs0mg"},{"bike_id":"28709731-d14f-4e98-afa7-e678c8db1a10","system_id":"levelo_inurba_marseille","lat":43.32367,"lon":5.38879,"is_reserved":false,"is_disabled":false,"rental_uris":{"android":"levelo://app?vid=28709731-d14f-4e98-afa7-e678c8db1a10","ios":"levelo://app?vid=28709731-d14f-4e98-afa7-e678c8db1a10"},"vehicle_type_id":"4","last_reported":1732655334,"current_range_meters":28000,"station_id":"ce4bhqp2rcd13ifvqhog","pricing_plan_id":"cebpf4jnsgd1na2vs0mg"},{"bike_id":"ad147b94-4180-4578-a0fa-c4d1998acb2d","system_id":"levelo_inurba_marseille","lat":43.29049,"lon":5.35931,"is_reserved":false,"is_disabled":true,"rental_uris":{"android":"levelo://app?vid=ad147b94-4180-4578-a0fa-c4d1998acb2d","ios":"levelo://app?vid=ad147b94-4180-4578-a0fa-c4d1998acb2d"},"vehicle_type_id":"4","last_reported":1732655334,"current_range_meters":38400,"station_id":"ce4bha92rcd13ifvqeg0","pricing_plan_id":"cebpf4jnsgd1na2vs0mg"},{"bike_id":"8d88d784-a412-435e-bbdb-816b3095509e","system_id":"levelo_inurba_marseille","lat":43.31171,"lon":5.38723,"is_reserved":false,"is_disabled":false,"rental_uris":{"android":"levelo://app?vid=8d88d784-a412-435e-bbdb-816b3095509e","ios":"levelo://app?vid=8d88d784-a412-435e-bbdb-816b3095509e"},"vehicle_type_id":"4","last_reported":1732655334,"current_range_meters":35600,"station_id":"ce4bgv12rcd13ifvqcp0","pricing_plan_id":"cebpf4jnsgd1na2vs0mg"},{"bike_id":"4f9eddaf-5d26-42f4-98f6-12cd4c5250b2","system_id":"levelo_inurba_marseille","lat":43.28443,"lon":5.39208,"is_reserved":false,"is_disabled":false,"rental_uris":{"android":"levelo://app?vid=4f9eddaf-5d26-42f4-98f6-12cd4c5250b2","ios":"levelo://app?vid=4f9eddaf-5d26-42f4-98f6-12cd4c5250b2"},"vehicle_type_id":"4","last_reported":1732655334,"current_range_meters":32400,"station_id":"ce4bhoh2rcd13ifvqh5g","pricing_plan_id":"cebpf4jnsgd1na2vs0mg"},{"bike_id":"2e95a691-d7d8-426b-8dba-47b6b56c6a41","system_id":"levelo_inurba_marseille","lat":43.28156,"lon":5.42635,"is_reserved":false,"is_disabled":true,"rental_uris":{"android":"levelo://app?vid=2e95a691-d7d8-426b-8dba-47b6b56c6a41","ios":"levelo://app?vid=2e95a691-d7d8-426b-8dba-47b6b56c6a41"},"vehicle_type_id":"4","last_reported":1732655334,"current_range_meters":3600,"station_id":"ce4bhnh2rcd13ifvqgug","pricing_plan_id":"cebpf4jnsgd1na2vs0mg"},{"bike_id":"e1023cd0-0598-4752-bca2-87e3d8646e5a","system_id":"levelo_inurba_marseille","lat":43.27391,"lon":5.36252,"is_reserved":false,"is_disabled":true,"rental_uris":{"android":"levelo://app?vid=e1023cd0-0598-4752-bca2-87e3d8646e5a","ios":"levelo://app?vid=e1023cd0-0598-4752-bca2-87e3d8646e5a"},"vehicle_type_id":"4","last_reported":1732655334,"current_range_meters":0,"station_id":"ce4bhbh2rcd13ifvqeo0","pricing_plan_id":"cebpf4jnsgd1na2vs0mg"},{"bike_id":"3e37db55-c4a9-4419-a174-bfd57be8a027","system_id":"levelo_inurba_marseille","lat":43.24385,"lon":5.37057,"is_reserved":false,"is_disabled":false,"rental_uris":{"android":"levelo://app?vid=3e37db55-c4a9-4419-a174-bfd57be8a027","ios":"levelo://app?vid=3e37db55-c4a9-4419-a174-bfd57be8a027"},"vehicle_type_id":"4","last_reported":1732655334,"current_range_meters":23200,"station_id":"ce4bhhh2rcd13ifvqfk0","pricing_plan_id":"cebpf4jnsgd1na2vs0mg"},{"bike_id":"fba1ceb6-3cef-4b3a-8f1d-cb2909f800c4","system_id":"levelo_inurba_marseille","lat":43.31359,"lon":5.36703,"is_reserved":false,"is_disabled":false,"rental_uris":{"android":"levelo://app?vid=fba1ceb6-3cef-4b3a-8f1d-cb2909f800c4","ios":"levelo://app?vid=fba1ceb6-3cef-4b3a-8f1d-cb2909f800c4"},"vehicle_type_id":"4","last_reported":1732655334,"current_range_meters":28400,"station_id":"ce4bgr92rcd13ifvqc6g","pricing_plan_id":"cebpf4jnsgd1na2vs0mg"},{"bike_id":"296383cf-b9f1-4ece-98e9-977ef8cbd17a","system_id":"levelo_inurba_marseille","lat":43.23188,"lon":5.3999,"is_reserved":false,"is_disabled":false,"rental_uris":{"android":"levelo://app?vid=296383cf-b9f1-4ece-98e9-977ef8cbd17a","ios":"levelo://app?vid=296383cf-b9f1-4ece-98e9-977ef8cbd17a"},"vehicle_type_id":"4","last_reported":1732655334,"current_range_meters":22800,"station_id":"ce4bhn12rcd13ifvqgqg","pricing_plan_id":"cebpf4jnsgd1na2vs0mg"},{"bike_id":"81349522-aa5c-4ac4-9271-aa8038695d05","system_id":"levelo_inurba_marseille","lat":43.279049,"lon":5.395703,"is_reserved":false,"is_disabled":false,"rental_uris":{"android":"levelo://app?vid=81349522-aa5c-4ac4-9271-aa8038695d05","ios":"levelo://app?vid=81349522-aa5c-4ac4-9271-aa8038695d05"},"vehicle_type_id":"4","last_reported":1732655334,"current_range_meters":26800,"station_id":"ce4bhf92rcd13ifvqf40","pricing_plan_id":"cebpf4jnsgd1na2vs0mg"},{"bike_id":"1606c510-b735-4fc8-8ac9-1879292672fd","system_id":"levelo_inurba_marseille","lat":43.25868,"lon":5.39898,"is_reserved":false,"is_disabled":false,"rental_uris":{"android":"levelo://app?vid=1606c510-b735-4fc8-8ac9-1879292672fd","ios":"levelo://app?vid=1606c510-b735-4fc8-8ac9-1879292672fd"},"vehicle_type_id":"4","last_reported":1732655334,"current_range_meters":9600,"station_id":"ce4bhl92rcd13ifvqghg","pricing_plan_id":"cebpf4jnsgd1na2vs0mg"},{"bike_id":"858b65e1-94fc-4151-a71e-8b168cb19dcb","system_id":"levelo_inurba_marseille","lat":43.32249,"lon":5.39241,"is_reserved":false,"is_disabled":true,"rental_uris":{"android":"levelo://app?vid=858b65e1-94fc-4151-a71e-8b168cb19dcb","ios":"levelo://app?vid=858b65e1-94fc-4151-a71e-8b168cb19dcb"},"vehicle_type_id":"4","last_reported":1732655334,"current_range_meters":0,"station_id":"","pricing_plan_id":"cebpf4jnsgd1na2vs0mg"},{"bike_id":"ee7ddc69-9a6b-425a-b8e8-cebadd5982f2","system_id":"levelo_inurba_marseille","lat":43.27999,"lon":5.39998,"is_reserved":false,"is_disabled":false,"rental_uris":{"android":"levelo://app?vid=ee7ddc69-9a6b-425a-b8e8-cebadd5982f2","ios":"levelo://app?vid=ee7ddc69-9a6b-425a-b8e8-cebadd5982f2"},"vehicle_type_id":"4","last_reported":1732655334,"current_range_meters":38800,"station_id":"ce4bho92rcd13ifvqh4g","pricing_plan_id":"cebpf4jnsgd1na2vs0mg"},{"bike_id":"e51b2acb-d883-446b-9ce9-347608453ece","system_id":"levelo_inurba_marseille","lat":43.2292,"lon":5.35381,"is_reserved":false,"is_disabled":false,"rental_uris":{"android":"levelo://app?vid=e51b2acb-d883-446b-9ce9-347608453ece","ios":"levelo://app?vid=e51b2acb-d883-446b-9ce9-347608453ece"},"vehicle_type_id":"4","last_reported":1732655334,"current_range_meters":38800,"station_id":"cpo3532slgdg3j2ikp40","pricing_plan_id":"cebpf4jnsgd1na2vs0mg"},{"bike_id":"d4631ba8-55fd-4d7a-8e8b-d75420895cf3","system_id":"levelo_inurba_marseille","lat":43.29217,"lon":5.39334,"is_reserved":false,"is_disabled":false,"rental_uris":{"android":"levelo://app?vid=d4631ba8-55fd-4d7a-8e8b-d75420895cf3","ios":"levelo://app?vid=d4631ba8-55fd-4d7a-8e8b-d75420895cf3"},"vehicle_type_id":"4","last_reported":1732655334,"current_range_meters":38800,"station_id":"ce4bh192rcd13ifvqdd0","pricing_plan_id":"cebpf4jnsgd1na2vs0mg"},{"bike_id":"a01a3735-629e-4ada-b75a-7b15adc23229","system_id":"levelo_inurba_marseille","lat":43.28942,"lon":5.3641,"is_reserved":false,"is_disabled":false,"rental_uris":{"android":"levelo://app?vid=a01a3735-629e-4ada-b75a-7b15adc23229","ios":"levelo://app?vid=a01a3735-629e-4ada-b75a-7b15adc23229"},"vehicle_type_id":"4","last_reported":1732655334,"current_range_meters":15200,"station_id":"ce4bhc92rcd13ifvqetg","pricing_plan_id":"cebpf4jnsgd1na2vs0mg"},{"bike_id":"8607db85-5084-4748-ba02-f5fe7f38f720","system_id":"levelo_inurba_marseille","lat":43.30601,"lon":5.37232,"is_reserved":false,"is_disabled":false,"rental_uris":{"android":"levelo://app?vid=8607db85-5084-4748-ba02-f5fe7f38f720","ios":"levelo://app?vid=8607db85-5084-4748-ba02-f5fe7f38f720"},"vehicle_type_id":"4","last_reported":1732655334,"current_range_meters":17600,"station_id":"ce4bgqh2rcd13ifvqc4g","pricing_plan_id":"cebpf4jnsgd1na2vs0mg"},{"bike_id":"8449e561-4c4c-4383-8cba-b0260b087d6d","system_id":"levelo_inurba_marseille","lat":43.28002,"lon":5.40006,"is_reserved":false,"is_disabled":false,"rental_uris":{"android":"levelo://app?vid=8449e561-4c4c-4383-8cba-b0260b087d6d","ios":"levelo://app?vid=8449e561-4c4c-4383-8cba-b0260b087d6d"},"vehicle_type_id":"4","last_reported":1732655334,"current_range_meters":28000,"station_id":"ce4bho92rcd13ifvqh4g","pricing_plan_id":"cebpf4jnsgd1na2vs0mg"},{"bike_id":"8d8da56b-37a7-4f6d-a920-b06e2686d848","system_id":"levelo_inurba_marseille","lat":43.275716,"lon":5.384236,"is_reserved":false,"is_disabled":true,"rental_uris":{"android":"levelo://app?vid=8d8da56b-37a7-4f6d-a920-b06e2686d848","ios":"levelo://app?vid=8d8da56b-37a7-4f6d-a920-b06e2686d848"},"vehicle_type_id":"4","last_reported":1732655334,"current_range_meters":23200,"station_id":"ce4bhh92rcd13ifvqfi0","pricing_plan_id":"cebpf4jnsgd1na2vs0mg"},{"bike_id":"859fbee0-02c1-4795-bf59-3633c6d02e96","system_id":"levelo_inurba_marseille","lat":43.3093,"lon":5.40143,"is_reserved":false,"is_disabled":false,"rental_uris":{"android":"levelo://app?vid=859fbee0-02c1-4795-bf59-3633c6d02e96","ios":"levelo://app?vid=859fbee0-02c1-4795-bf59-3633c6d02e96"},"vehicle_type_id":"4","last_reported":1732655334,"current_range_meters":18000,"station_id":"ce4bgvp2rcd13ifvqct0","pricing_plan_id":"cebpf4jnsgd1na2vs0mg"},{"bike_id":"20bdbe8a-5b4c-40cd-8994-ae002231f6f1","system_id":"levelo_inurba_marseille","lat":43.30783,"lon":5.37662,"is_reserved":false,"is_disabled":false,"rental_uris":{"android":"levelo://app?vid=20bdbe8a-5b4c-40cd-8994-ae002231f6f1","ios":"levelo://app?vid=20bdbe8a-5b4c-40cd-8994-ae002231f6f1"},"vehicle_type_id":"4","last_reported":1732655334,"current_range_meters":40000,"station_id":"ce4bgv92rcd13ifvqcq0","pricing_plan_id":"cebpf4jnsgd1na2vs0mg"},{"bike_id":"df8b6335-1fd6-4826-94dd-ea51fbe98817","system_id":"levelo_inurba_marseille","lat":43.28726,"lon":5.3609,"is_reserved":false,"is_disabled":false,"rental_uris":{"android":"levelo://app?vid=df8b6335-1fd6-4826-94dd-ea51fbe98817","ios":"levelo://app?vid=df8b6335-1fd6-4826-94dd-ea51fbe98817"},"vehicle_type_id":"4","last_reported":1732655334,"current_range_meters":38800,"station_id":"cki0cbj6b192h4jlfktg","pricing_plan_id":"cebpf4jnsgd1na2vs0mg"},{"bike_id":"f7f3756c-1ec7-4782-9c87-6273f87b6774","system_id":"levelo_inurba_marseille","lat":43.337444,"lon":5.374475,"is_reserved":false,"is_disabled":true,"rental_uris":{"android":"levelo://app?vid=f7f3756c-1ec7-4782-9c87-6273f87b6774","ios":"levelo://app?vid=f7f3756c-1ec7-4782-9c87-6273f87b6774"},"vehicle_type_id":"4","last_reported":1732655334,"current_range_meters":17600,"station_id":"","pricing_plan_id":"cebpf4jnsgd1na2vs0mg"},{"bike_id":"1b7a3d11-54ea-493a-80b8-140417ed5992","system_id":"levelo_inurba_marseille","lat":43.27985,"lon":5.39995,"is_reserved":false,"is_disabled":false,"rental_uris":{"android":"levelo://app?vid=1b7a3d11-54ea-493a-80b8-140417ed5992","ios":"levelo://app?vid=1b7a3d11-54ea-493a-80b8-140417ed5992"},"vehicle_type_id":"4","last_reported":1732655334,"current_range_meters":29600,"station_id":"ce4bho92rcd13ifvqh4g","pricing_plan_id":"cebpf4jnsgd1na2vs0mg"},{"bike_id":"5ac84619-8500-415b-9629-5dc640523aaa","system_id":"levelo_inurba_marseille","lat":43.29522,"lon":5.37505,"is_reserved":false,"is_disabled":true,"rental_uris":{"android":"levelo://app?vid=5ac84619-8500-415b-9629-5dc640523aaa","ios":"levelo://app?vid=5ac84619-8500-415b-9629-5dc640523aaa"},"vehicle_type_id":"4","last_reported":1732655334,"current_range_meters":15200,"station_id":"ce4bgkp2rcd13ifvqbmg","pricing_plan_id":"cebpf4jnsgd1na2vs0mg"},{"bike_id":"ca3c5af7-6212-4473-8827-9c89992897f3","system_id":"levelo_inurba_marseille","lat":43.28432,"lon":5.39188,"is_reserved":false,"is_disabled":false,"rental_uris":{"android":"levelo://app?vid=ca3c5af7-6212-4473-8827-9c89992897f3","ios":"levelo://app?vid=ca3c5af7-6212-4473-8827-9c89992897f3"},"vehicle_type_id":"4","last_reported":1732655334,"current_range_meters":34000,"station_id":"ce4bhoh2rcd13ifvqh5g","pricing_plan_id":"cebpf4jnsgd1na2vs0mg"},{"bike_id":"fa4ad316-7401-4a45-930b-8c18bcfc6a3e","system_id":"levelo_inurba_marseille","lat":43.26572,"lon":5.39016,"is_reserved":false,"is_disabled":false,"rental_uris":{"android":"levelo://app?vid=fa4ad316-7401-4a45-930b-8c18bcfc6a3e","ios":"levelo://app?vid=fa4ad316-7401-4a45-930b-8c18bcfc6a3e"},"vehicle_type_id":"4","last_reported":1732655334,"current_range_meters":30000,"station_id":"ce4bhe12rcd13ifvqf30","pricing_plan_id":"cebpf4jnsgd1na2vs0mg"},{"bike_id":"e74072b3-a02b-4151-87ff-4a55be046050","system_id":"levelo_inurba_marseille","lat":43.25082,"lon":5.39514,"is_reserved":false,"is_disabled":false,"rental_uris":{"android":"levelo://app?vid=e74072b3-a02b-4151-87ff-4a55be046050","ios":"levelo://app?vid=e74072b3-a02b-4151-87ff-4a55be046050"},"vehicle_type_id":"4","last_reported":1732655334,"current_range_meters":39200,"station_id":"ce4bhm12rcd13ifvqgkg","pricing_plan_id":"cebpf4jnsgd1na2vs0mg"},{"bike_id":"1c89c5b4-083f-4e52-8440-fa52a965f9b3","system_id":"levelo_inurba_marseille","lat":43.30547,"lon":5.36524,"is_reserved":false,"is_disabled":true,"rental_uris":{"android":"levelo://app?vid=1c89c5b4-083f-4e52-8440-fa52a965f9b3","ios":"levelo://app?vid=1c89c5b4-083f-4e52-8440-fa52a965f9b3"},"vehicle_type_id":"4","last_reported":1732655334,"current_range_meters":36000,"station_id":"ce4bgs12rcd13ifvqcag","pricing_plan_id":"cebpf4jnsgd1na2vs0mg"},{"bike_id":"da9766fc-7c3a-4df3-adb6-43d914fc777e","system_id":"levelo_inurba_marseille","lat":43.29867,"lon":5.39739,"is_reserved":false,"is_disabled":false,"rental_uris":{"android":"levelo://app?vid=da9766fc-7c3a-4df3-adb6-43d914fc777e","ios":"levelo://app?vid=da9766fc-7c3a-4df3-adb6-43d914fc777e"},"vehicle_type_id":"4","last_reported":1732655334,"current_range_meters":38800,"station_id":"ce4bh0h2rcd13ifvqd50","pricing_plan_id":"cebpf4jnsgd1na2vs0mg"},{"bike_id":"5beeafd9-fc35-4444-8f38-3d5aae2d23a8","system_id":"levelo_inurba_marseille","lat":43.32492,"lon":5.36578,"is_reserved":false,"is_disabled":false,"rental_uris":{"android":"levelo://app?vid=5beeafd9-fc35-4444-8f38-3d5aae2d23a8","ios":"levelo://app?vid=5beeafd9-fc35-4444-8f38-3d5aae2d23a8"},"vehicle_type_id":"4","last_reported":1732655334,"current_range_meters":19200,"station_id":"ce4bhs12rcd13ifvqhvg","pricing_plan_id":"cebpf4jnsgd1na2vs0mg"},{"bike_id":"ee39fb7d-6338-4ece-8656-cb0f293fe4e8","system_id":"levelo_inurba_marseille","lat":43.31163,"lon":5.38724,"is_reserved":false,"is_disabled":false,"rental_uris":{"android":"levelo://app?vid=ee39fb7d-6338-4ece-8656-cb0f293fe4e8","ios":"levelo://app?vid=ee39fb7d-6338-4ece-8656-cb0f293fe4e8"},"vehicle_type_id":"4","last_reported":1732655334,"current_range_meters":12000,"station_id":"ce4bgv12rcd13ifvqcp0","pricing_plan_id":"cebpf4jnsgd1na2vs0mg"},{"bike_id":"1bdf9afd-1539-40b5-b519-81e00474358c","system_id":"levelo_inurba_marseille","lat":43.2885,"lon":5.35842,"is_reserved":false,"is_disabled":false,"rental_uris":{"android":"levelo://app?vid=1bdf9afd-1539-40b5-b519-81e00474358c","ios":"levelo://app?vid=1bdf9afd-1539-40b5-b519-81e00474358c"},"vehicle_type_id":"4","last_reported":1732655334,"current_range_meters":28800,"station_id":"ce4bhb12rcd13ifvqem0","pricing_plan_id":"cebpf4jnsgd1na2vs0mg"},{"bike_id":"85c7ef12-3d4e-45e6-845f-62cf432bd9e2","system_id":"levelo_inurba_marseille","lat":43.280035,"lon":5.400112,"is_reserved":false,"is_disabled":false,"rental_uris":{"android":"levelo://app?vid=85c7ef12-3d4e-45e6-845f-62cf432bd9e2","ios":"levelo://app?vid=85c7ef12-3d4e-45e6-845f-62cf432bd9e2"},"vehicle_type_id":"4","last_reported":1732655334,"current_range_meters":37600,"station_id":"ce4bho92rcd13ifvqh4g","pricing_plan_id":"cebpf4jnsgd1na2vs0mg"},{"bike_id":"b94865bd-271b-4f4b-bfb5-073ca9cd54df","system_id":"levelo_inurba_marseille","lat":43.30302,"lon":5.392,"is_reserved":false,"is_disabled":true,"rental_uris":{"android":"levelo://app?vid=b94865bd-271b-4f4b-bfb5-073ca9cd54df","ios":"levelo://app?vid=b94865bd-271b-4f4b-bfb5-073ca9cd54df"},"vehicle_type_id":"4","last_reported":1732655334,"current_range_meters":32000,"station_id":"ce4bgkh2rcd13ifvqbk0","pricing_plan_id":"cebpf4jnsgd1na2vs0mg"},{"bike_id":"33411be9-8583-420f-b647-b40e5a90aaa7","system_id":"levelo_inurba_marseille","lat":43.25581,"lon":5.38228,"is_reserved":false,"is_disabled":true,"rental_uris":{"android":"levelo://app?vid=33411be9-8583-420f-b647-b40e5a90aaa7","ios":"levelo://app?vid=33411be9-8583-420f-b647-b40e5a90aaa7"},"vehicle_type_id":"4","last_reported":1732655334,"current_range_meters":2000,"station_id":"ce4bhih2rcd13ifvqfs0","pricing_plan_id":"cebpf4jnsgd1na2vs0mg"},{"bike_id":"a1e4c6c6-2f64-4874-8633-ea7f2cf7d72d","system_id":"levelo_inurba_marseille","lat":43.31077,"lon":5.38358,"is_reserved":false,"is_disabled":false,"rental_uris":{"android":"levelo://app?vid=a1e4c6c6-2f64-4874-8633-ea7f2cf7d72d","ios":"levelo://app?vid=a1e4c6c6-2f64-4874-8633-ea7f2cf7d72d"},"vehicle_type_id":"4","last_reported":1732655334,"current_range_meters":38800,"station_id":"ce4bgv92rcd13ifvqcr0","pricing_plan_id":"cebpf4jnsgd1na2vs0mg"},{"bike_id":"a5909545-3e09-4859-9fda-9ffe4e6e4883","system_id":"levelo_inurba_marseille","lat":43.23065,"lon":5.35491,"is_reserved":false,"is_disabled":false,"rental_uris":{"android":"levelo://app?vid=a5909545-3e09-4859-9fda-9ffe4e6e4883","ios":"levelo://app?vid=a5909545-3e09-4859-9fda-9ffe4e6e4883"},"vehicle_type_id":"4","last_reported":1732655334,"current_range_meters":30000,"station_id":"cpo3342slgdg3j2ifvpg","pricing_plan_id":"cebpf4jnsgd1na2vs0mg"},{"bike_id":"9f12d915-5eff-4689-a96d-7d2d1d3f25d8","system_id":"levelo_inurba_marseille","lat":43.298086,"lon":5.404119,"is_reserved":false,"is_disabled":false,"rental_uris":{"android":"levelo://app?vid=9f12d915-5eff-4689-a96d-7d2d1d3f25d8","ios":"levelo://app?vid=9f12d915-5eff-4689-a96d-7d2d1d3f25d8"},"vehicle_type_id":"4","last_reported":1732655334,"current_range_meters":7200,"station_id":"ce4bh112rcd13ifvqd90","pricing_plan_id":"cebpf4jnsgd1na2vs0mg"},{"bike_id":"b6ae5dd3-e400-4af5-b6a7-27a1c0b92d6a","system_id":"levelo_inurba_marseille","lat":43.27943,"lon":5.41042,"is_reserved":false,"is_disabled":false,"rental_uris":{"android":"levelo://app?vid=b6ae5dd3-e400-4af5-b6a7-27a1c0b92d6a","ios":"levelo://app?vid=b6ae5dd3-e400-4af5-b6a7-27a1c0b92d6a"},"vehicle_type_id":"4","last_reported":1732655334,"current_range_meters":8000,"station_id":"ce4bhnp2rcd13ifvqh0g","pricing_plan_id":"cebpf4jnsgd1na2vs0mg"},{"bike_id":"00c1b85e-f618-4a9f-97fe-87be3eac83ec","system_id":"levelo_inurba_marseille","lat":43.25866,"lon":5.39899,"is_reserved":false,"is_disabled":false,"rental_uris":{"android":"levelo://app?vid=00c1b85e-f618-4a9f-97fe-87be3eac83ec","ios":"levelo://app?vid=00c1b85e-f618-4a9f-97fe-87be3eac83ec"},"vehicle_type_id":"4","last_reported":1732655334,"current_range_meters":17600,"station_id":"ce4bhl92rcd13ifvqghg","pricing_plan_id":"cebpf4jnsgd1na2vs0mg"},{"bike_id":"8f909575-15ed-40f5-ae18-0c95329b2480","system_id":"levelo_inurba_marseille","lat":43.28037,"lon":5.36947,"is_reserved":false,"is_disabled":false,"rental_uris":{"android":"levelo://app?vid=8f909575-15ed-40f5-ae18-0c95329b2480","ios":"levelo://app?vid=8f909575-15ed-40f5-ae18-0c95329b2480"},"vehicle_type_id":"4","last_reported":1732655334,"current_range_meters":28800,"station_id":"ce4bha12rcd13ifvqef0","pricing_plan_id":"cebpf4jnsgd1na2vs0mg"},{"bike_id":"2ea6f444-04f2-433d-8fd5-f4f951261088","system_id":"levelo_inurba_marseille","lat":43.31167,"lon":5.38717,"is_reserved":false,"is_disabled":false,"rental_uris":{"android":"levelo://app?vid=2ea6f444-04f2-433d-8fd5-f4f951261088","ios":"levelo://app?vid=2ea6f444-04f2-433d-8fd5-f4f951261088"},"vehicle_type_id":"4","last_reported":1732655334,"current_range_meters":31200,"station_id":"ce4bgv12rcd13ifvqcp0","pricing_plan_id":"cebpf4jnsgd1na2vs0mg"},{"bike_id":"e5951ee3-4a5a-4ebb-b469-096c5188dfa3","system_id":"levelo_inurba_marseille","lat":43.2319,"lon":5.35546,"is_reserved":false,"is_disabled":false,"rental_uris":{"android":"levelo://app?vid=e5951ee3-4a5a-4ebb-b469-096c5188dfa3","ios":"levelo://app?vid=e5951ee3-4a5a-4ebb-b469-096c5188dfa3"},"vehicle_type_id":"4","last_reported":1732655334,"current_range_meters":35600,"station_id":"ce4bhu92rcd13ifvqi70","pricing_plan_id":"cebpf4jnsgd1na2vs0mg"},{"bike_id":"a8849e45-a02d-4da0-9306-d787ba72acfc","system_id":"levelo_inurba_marseille","lat":43.29517,"lon":5.3941,"is_reserved":false,"is_disabled":false,"rental_uris":{"android":"levelo://app?vid=a8849e45-a02d-4da0-9306-d787ba72acfc","ios":"levelo://app?vid=a8849e45-a02d-4da0-9306-d787ba72acfc"},"vehicle_type_id":"4","last_reported":1732655334,"current_range_meters":14000,"station_id":"ce4bh292rcd13ifvqdf0","pricing_plan_id":"cebpf4jnsgd1na2vs0mg"},{"bike_id":"c4ff3c2c-87d7-4575-9335-5f53ac047a46","system_id":"levelo_inurba_marseille","lat":43.27081,"lon":5.4228,"is_reserved":false,"is_disabled":false,"rental_uris":{"android":"levelo://app?vid=c4ff3c2c-87d7-4575-9335-5f53ac047a46","ios":"levelo://app?vid=c4ff3c2c-87d7-4575-9335-5f53ac047a46"},"vehicle_type_id":"4","last_reported":1732655334,"current_range_meters":37600,"station_id":"ce4bhk92rcd13ifvqgb0","pricing_plan_id":"cebpf4jnsgd1na2vs0mg"},{"bike_id":"8b90e280-1859-48e5-8cc1-f1521436ad0b","system_id":"levelo_inurba_marseille","lat":43.25581,"lon":5.3823,"is_reserved":false,"is_disabled":false,"rental_uris":{"android":"levelo://app?vid=8b90e280-1859-48e5-8cc1-f1521436ad0b","ios":"levelo://app?vid=8b90e280-1859-48e5-8cc1-f1521436ad0b"},"vehicle_type_id":"4","last_reported":1732655334,"current_range_meters":19200,"station_id":"ce4bhih2rcd13ifvqfs0","pricing_plan_id":"cebpf4jnsgd1na2vs0mg"},{"bike_id":"3379f44f-c07d-4ec3-b622-4c7ff9c0b74e","system_id":"levelo_inurba_marseille","lat":43.23198,"lon":5.35541,"is_reserved":false,"is_disabled":false,"rental_uris":{"android":"levelo://app?vid=3379f44f-c07d-4ec3-b622-4c7ff9c0b74e","ios":"levelo://app?vid=3379f44f-c07d-4ec3-b622-4c7ff9c0b74e"},"vehicle_type_id":"4","last_reported":1732655334,"current_range_meters":8800,"station_id":"ce4bhu92rcd13ifvqi70","pricing_plan_id":"cebpf4jnsgd1na2vs0mg"},{"bike_id":"6c948e9c-d5b3-4fe5-a918-1bd2f7c83b02","system_id":"levelo_inurba_marseille","lat":43.3211,"lon":5.36783,"is_reserved":false,"is_disabled":false,"rental_uris":{"android":"levelo://app?vid=6c948e9c-d5b3-4fe5-a918-1bd2f7c83b02","ios":"levelo://app?vid=6c948e9c-d5b3-4fe5-a918-1bd2f7c83b02"},"vehicle_type_id":"4","last_reported":1732655334,"current_range_meters":16800,"station_id":"ce4bhrh2rcd13ifvqhug","pricing_plan_id":"cebpf4jnsgd1na2vs0mg"},{"bike_id":"9e620abf-d324-4f99-84fc-d67e71109f2a","system_id":"levelo_inurba_marseille","lat":43.31077,"lon":5.42435,"is_reserved":false,"is_disabled":true,"rental_uris":{"android":"levelo://app?vid=9e620abf-d324-4f99-84fc-d67e71109f2a","ios":"levelo://app?vid=9e620abf-d324-4f99-84fc-d67e71109f2a"},"vehicle_type_id":"4","last_reported":1732655334,"current_range_meters":0,"station_id":"ce4bhp92rcd13ifvqhag","pricing_plan_id":"cebpf4jnsgd1na2vs0mg"},{"bike_id":"311c22a9-d002-4f76-a390-2ec196f39862","system_id":"levelo_inurba_marseille","lat":43.31025,"lon":5.38342,"is_reserved":false,"is_disabled":true,"rental_uris":{"android":"levelo://app?vid=311c22a9-d002-4f76-a390-2ec196f39862","ios":"levelo://app?vid=311c22a9-d002-4f76-a390-2ec196f39862"},"vehicle_type_id":"4","last_reported":1732655334,"current_range_meters":0,"station_id":"","pricing_plan_id":"cebpf4jnsgd1na2vs0mg"},{"bike_id":"047f1f9d-58af-4872-9794-3b5fe9f3ce18","system_id":"levelo_inurba_marseille","lat":43.3133,"lon":5.39694,"is_reserved":false,"is_disabled":false,"rental_uris":{"android":"levelo://app?vid=047f1f9d-58af-4872-9794-3b5fe9f3ce18","ios":"levelo://app?vid=047f1f9d-58af-4872-9794-3b5fe9f3ce18"},"vehicle_type_id":"4","last_reported":1732655334,"current_range_meters":36400,"station_id":"ce4bgvp2rcd13ifvqcu0","pricing_plan_id":"cebpf4jnsgd1na2vs0mg"},{"bike_id":"61248f67-1f70-427f-8a70-08cdafab4410","system_id":"levelo_inurba_marseille","lat":43.29635,"lon":5.40599,"is_reserved":false,"is_disabled":false,"rental_uris":{"android":"levelo://app?vid=61248f67-1f70-427f-8a70-08cdafab4410","ios":"levelo://app?vid=61248f67-1f70-427f-8a70-08cdafab4410"},"vehicle_type_id":"4","last_reported":1732655334,"current_range_meters":27600,"station_id":"ce4bh0h2rcd13ifvqd60","pricing_plan_id":"cebpf4jnsgd1na2vs0mg"},{"bike_id":"2f9ffdbb-c4ed-440b-a3ee-75e8889665bf","system_id":"levelo_inurba_marseille","lat":43.28861,"lon":5.3585,"is_reserved":false,"is_disabled":false,"rental_uris":{"android":"levelo://app?vid=2f9ffdbb-c4ed-440b-a3ee-75e8889665bf","ios":"levelo://app?vid=2f9ffdbb-c4ed-440b-a3ee-75e8889665bf"},"vehicle_type_id":"4","last_reported":1732655334,"current_range_meters":24400,"station_id":"ce4bhb12rcd13ifvqem0","pricing_plan_id":"cebpf4jnsgd1na2vs0mg"},{"bike_id":"5c53cfbd-2547-413a-b79a-f8cc3b1ca992","system_id":"levelo_inurba_marseille","lat":43.32111,"lon":5.36772,"is_reserved":false,"is_disabled":false,"rental_uris":{"android":"levelo://app?vid=5c53cfbd-2547-413a-b79a-f8cc3b1ca992","ios":"levelo://app?vid=5c53cfbd-2547-413a-b79a-f8cc3b1ca992"},"vehicle_type_id":"4","last_reported":1732655334,"current_range_meters":30400,"station_id":"ce4bhrh2rcd13ifvqhug","pricing_plan_id":"cebpf4jnsgd1na2vs0mg"},{"bike_id":"18045cdd-2260-48a4-ab4b-06afcf0afb50","system_id":"levelo_inurba_marseille","lat":43.28268,"lon":5.35077,"is_reserved":false,"is_disabled":false,"rental_uris":{"android":"levelo://app?vid=18045cdd-2260-48a4-ab4b-06afcf0afb50","ios":"levelo://app?vid=18045cdd-2260-48a4-ab4b-06afcf0afb50"},"vehicle_type_id":"4","last_reported":1732655334,"current_range_meters":10800,"station_id":"ce4bhbp2rcd13ifvqerg","pricing_plan_id":"cebpf4jnsgd1na2vs0mg"},{"bike_id":"40753e6d-9b3a-41c5-9c22-63083f3cbbfe","system_id":"levelo_inurba_marseille","lat":43.28567,"lon":5.39486,"is_reserved":false,"is_disabled":false,"rental_uris":{"android":"levelo://app?vid=40753e6d-9b3a-41c5-9c22-63083f3cbbfe","ios":"levelo://app?vid=40753e6d-9b3a-41c5-9c22-63083f3cbbfe"},"vehicle_type_id":"4","last_reported":1732655334,"current_range_meters":38000,"station_id":"ce4bh292rcd13ifvqdg0","pricing_plan_id":"cebpf4jnsgd1na2vs0mg"},{"bike_id":"e3910269-0960-41ab-9a5c-2f153c15e14c","system_id":"levelo_inurba_marseille","lat":43.25573,"lon":5.38229,"is_reserved":false,"is_disabled":true,"rental_uris":{"android":"levelo://app?vid=e3910269-0960-41ab-9a5c-2f153c15e14c","ios":"levelo://app?vid=e3910269-0960-41ab-9a5c-2f153c15e14c"},"vehicle_type_id":"4","last_reported":1732655334,"current_range_meters":0,"station_id":"ce4bhih2rcd13ifvqfs0","pricing_plan_id":"cebpf4jnsgd1na2vs0mg"},{"bike_id":"9db948df-9bec-4ed9-a145-288bab0dd785","system_id":"levelo_inurba_marseille","lat":43.27996,"lon":5.40002,"is_reserved":false,"is_disabled":false,"rental_uris":{"android":"levelo://app?vid=9db948df-9bec-4ed9-a145-288bab0dd785","ios":"levelo://app?vid=9db948df-9bec-4ed9-a145-288bab0dd785"},"vehicle_type_id":"4","last_reported":1732655334,"current_range_meters":6400,"station_id":"ce4bho92rcd13ifvqh4g","pricing_plan_id":"cebpf4jnsgd1na2vs0mg"},{"bike_id":"3b0d35f8-f73d-4890-b7a7-d7e9a1b22244","system_id":"levelo_inurba_marseille","lat":43.28935,"lon":5.36404,"is_reserved":false,"is_disabled":false,"rental_uris":{"android":"levelo://app?vid=3b0d35f8-f73d-4890-b7a7-d7e9a1b22244","ios":"levelo://app?vid=3b0d35f8-f73d-4890-b7a7-d7e9a1b22244"},"vehicle_type_id":"4","last_reported":1732655334,"current_range_meters":21600,"station_id":"ce4bhc92rcd13ifvqetg","pricing_plan_id":"cebpf4jnsgd1na2vs0mg"},{"bike_id":"2ca9605c-5ec3-4ba9-84c5-d21f7f922f37","system_id":"levelo_inurba_marseille","lat":43.28436,"lon":5.39186,"is_reserved":false,"is_disabled":false,"rental_uris":{"android":"levelo://app?vid=2ca9605c-5ec3-4ba9-84c5-d21f7f922f37","ios":"levelo://app?vid=2ca9605c-5ec3-4ba9-84c5-d21f7f922f37"},"vehicle_type_id":"4","last_reported":1732655334,"current_range_meters":38000,"station_id":"ce4bhoh2rcd13ifvqh5g","pricing_plan_id":"cebpf4jnsgd1na2vs0mg"},{"bike_id":"276c8eac-f26f-4d52-8494-1e5f39f12889","system_id":"levelo_inurba_marseille","lat":43.25577,"lon":5.38223,"is_reserved":false,"is_disabled":true,"rental_uris":{"android":"levelo://app?vid=276c8eac-f26f-4d52-8494-1e5f39f12889","ios":"levelo://app?vid=276c8eac-f26f-4d52-8494-1e5f39f12889"},"vehicle_type_id":"4","last_reported":1732655334,"current_range_meters":0,"station_id":"ce4bhih2rcd13ifvqfs0","pricing_plan_id":"cebpf4jnsgd1na2vs0mg"},{"bike_id":"40373390-4a6b-49c7-9be2-78b71cf451bd","system_id":"levelo_inurba_marseille","lat":43.29287,"lon":5.40929,"is_reserved":false,"is_disabled":false,"rental_uris":{"android":"levelo://app?vid=40373390-4a6b-49c7-9be2-78b71cf451bd","ios":"levelo://app?vid=40373390-4a6b-49c7-9be2-78b71cf451bd"},"vehicle_type_id":"4","last_reported":1732655334,"current_range_meters":15200,"station_id":"ce4bh192rcd13ifvqdc0","pricing_plan_id":"cebpf4jnsgd1na2vs0mg"},{"bike_id":"32d3feff-25ce-4c69-94cf-f83de9897a97","system_id":"levelo_inurba_marseille","lat":43.28408,"lon":5.37527,"is_reserved":false,"is_disabled":false,"rental_uris":{"android":"levelo://app?vid=32d3feff-25ce-4c69-94cf-f83de9897a97","ios":"levelo://app?vid=32d3feff-25ce-4c69-94cf-f83de9897a97"},"vehicle_type_id":"4","last_reported":1732655334,"current_range_meters":34800,"station_id":"ce4bh412rcd13ifvqds0","pricing_plan_id":"cebpf4jnsgd1na2vs0mg"},{"bike_id":"ef7028aa-55d4-45ec-be28-f7ed1ac8aa0c","system_id":"levelo_inurba_marseille","lat":43.28619,"lon":5.35098,"is_reserved":false,"is_disabled":false,"rental_uris":{"android":"levelo://app?vid=ef7028aa-55d4-45ec-be28-f7ed1ac8aa0c","ios":"levelo://app?vid=ef7028aa-55d4-45ec-be28-f7ed1ac8aa0c"},"vehicle_type_id":"4","last_reported":1732655334,"current_range_meters":18000,"station_id":"ce4bhch2rcd13ifvqeug","pricing_plan_id":"cebpf4jnsgd1na2vs0mg"},{"bike_id":"17700844-0f62-4cd3-bc5b-72a98e8e0a87","system_id":"levelo_inurba_marseille","lat":43.29741,"lon":5.38668,"is_reserved":false,"is_disabled":false,"rental_uris":{"android":"levelo://app?vid=17700844-0f62-4cd3-bc5b-72a98e8e0a87","ios":"levelo://app?vid=17700844-0f62-4cd3-bc5b-72a98e8e0a87"},"vehicle_type_id":"4","last_reported":1732655334,"current_range_meters":36400,"station_id":"","pricing_plan_id":"cebpf4jnsgd1na2vs0mg"},{"bike_id":"ba9864d3-c286-4638-8ccd-91ad2b066417","system_id":"levelo_inurba_marseille","lat":43.26494,"lon":5.39542,"is_reserved":false,"is_disabled":false,"rental_uris":{"android":"levelo://app?vid=ba9864d3-c286-4638-8ccd-91ad2b066417","ios":"levelo://app?vid=ba9864d3-c286-4638-8ccd-91ad2b066417"},"vehicle_type_id":"4","last_reported":1732655334,"current_range_meters":38800,"station_id":"ce4bhi12rcd13ifvqfq0","pricing_plan_id":"cebpf4jnsgd1na2vs0mg"},{"bike_id":"43746d86-8a13-4845-9faf-ae69b548d714","system_id":"levelo_inurba_marseille","lat":43.29459,"lon":5.37917,"is_reserved":false,"is_disabled":true,"rental_uris":{"android":"levelo://app?vid=43746d86-8a13-4845-9faf-ae69b548d714","ios":"levelo://app?vid=43746d86-8a13-4845-9faf-ae69b548d714"},"vehicle_type_id":"4","last_reported":1732655334,"current_range_meters":0,"station_id":"","pricing_plan_id":"cebpf4jnsgd1na2vs0mg"},{"bike_id":"e6a98e09-efc5-4507-9fb0-a56012aa8712","system_id":"levelo_inurba_marseille","lat":43.28152,"lon":5.42635,"is_reserved":false,"is_disabled":false,"rental_uris":{"android":"levelo://app?vid=e6a98e09-efc5-4507-9fb0-a56012aa8712","ios":"levelo://app?vid=e6a98e09-efc5-4507-9fb0-a56012aa8712"},"vehicle_type_id":"4","last_reported":1732655334,"current_range_meters":38000,"station_id":"ce4bhnh2rcd13ifvqgug","pricing_plan_id":"cebpf4jnsgd1na2vs0mg"},{"bike_id":"49ad9574-b0d7-498d-8456-68bdd40aec93","system_id":"levelo_inurba_marseille","lat":43.24665,"lon":5.38159,"is_reserved":false,"is_disabled":true,"rental_uris":{"android":"levelo://app?vid=49ad9574-b0d7-498d-8456-68bdd40aec93","ios":"levelo://app?vid=49ad9574-b0d7-498d-8456-68bdd40aec93"},"vehicle_type_id":"4","last_reported":1732655334,"current_range_meters":0,"station_id":"ce4bhih2rcd13ifvqfr0","pricing_plan_id":"cebpf4jnsgd1na2vs0mg"},{"bike_id":"df76b7bf-b879-4e94-9796-439ee296ef0a","system_id":"levelo_inurba_marseille","lat":43.22932,"lon":5.35379,"is_reserved":false,"is_disabled":true,"rental_uris":{"android":"levelo://app?vid=df76b7bf-b879-4e94-9796-439ee296ef0a","ios":"levelo://app?vid=df76b7bf-b879-4e94-9796-439ee296ef0a"},"vehicle_type_id":"4","last_reported":1732655334,"current_range_meters":2000,"station_id":"cpo3532slgdg3j2ikp40","pricing_plan_id":"cebpf4jnsgd1na2vs0mg"},{"bike_id":"f27c9572-3322-4dbe-9f18-e24f1001beb0","system_id":"levelo_inurba_marseille","lat":43.28428,"lon":5.39186,"is_reserved":false,"is_disabled":false,"rental_uris":{"android":"levelo://app?vid=f27c9572-3322-4dbe-9f18-e24f1001beb0","ios":"levelo://app?vid=f27c9572-3322-4dbe-9f18-e24f1001beb0"},"vehicle_type_id":"4","last_reported":1732655334,"current_range_meters":38800,"station_id":"ce4bhoh2rcd13ifvqh5g","pricing_plan_id":"cebpf4jnsgd1na2vs0mg"},{"bike_id":"f971abee-70f8-43dc-afe4-4050ccc8c3f7","system_id":"levelo_inurba_marseille","lat":43.25878,"lon":5.39904,"is_reserved":false,"is_disabled":true,"rental_uris":{"android":"levelo://app?vid=f971abee-70f8-43dc-afe4-4050ccc8c3f7","ios":"levelo://app?vid=f971abee-70f8-43dc-afe4-4050ccc8c3f7"},"vehicle_type_id":"4","last_reported":1732655334,"current_range_meters":39200,"station_id":"ce4bhl92rcd13ifvqghg","pricing_plan_id":"cebpf4jnsgd1na2vs0mg"},{"bike_id":"e429a23d-08fa-43bc-a99f-41dd20232034","system_id":"levelo_inurba_marseille","lat":43.26313,"lon":5.39874,"is_reserved":false,"is_disabled":true,"rental_uris":{"android":"levelo://app?vid=e429a23d-08fa-43bc-a99f-41dd20232034","ios":"levelo://app?vid=e429a23d-08fa-43bc-a99f-41dd20232034"},"vehicle_type_id":"4","last_reported":1732655334,"current_range_meters":400,"station_id":"","pricing_plan_id":"cebpf4jnsgd1na2vs0mg"},{"bike_id":"26e9cb95-d9f2-4726-a1ef-a2f2191af9e9","system_id":"levelo_inurba_marseille","lat":43.31076,"lon":5.38359,"is_reserved":false,"is_disabled":false,"rental_uris":{"android":"levelo://app?vid=26e9cb95-d9f2-4726-a1ef-a2f2191af9e9","ios":"levelo://app?vid=26e9cb95-d9f2-4726-a1ef-a2f2191af9e9"},"vehicle_type_id":"4","last_reported":1732655334,"current_range_meters":38800,"station_id":"ce4bgv92rcd13ifvqcr0","pricing_plan_id":"cebpf4jnsgd1na2vs0mg"},{"bike_id":"3faf8b2f-845f-4fd3-8bc7-04d1158d9692","system_id":"levelo_inurba_marseille","lat":43.33025,"lon":5.39048,"is_reserved":false,"is_disabled":false,"rental_uris":{"android":"levelo://app?vid=3faf8b2f-845f-4fd3-8bc7-04d1158d9692","ios":"levelo://app?vid=3faf8b2f-845f-4fd3-8bc7-04d1158d9692"},"vehicle_type_id":"4","last_reported":1732655334,"current_range_meters":26800,"station_id":"ce4bhr92rcd13ifvqhrg","pricing_plan_id":"cebpf4jnsgd1na2vs0mg"},{"bike_id":"eaf2d45d-5e06-4a07-906f-c1489cc88dec","system_id":"levelo_inurba_marseille","lat":43.29598,"lon":5.38106,"is_reserved":false,"is_disabled":false,"rental_uris":{"android":"levelo://app?vid=eaf2d45d-5e06-4a07-906f-c1489cc88dec","ios":"levelo://app?vid=eaf2d45d-5e06-4a07-906f-c1489cc88dec"},"vehicle_type_id":"4","last_reported":1732655334,"current_range_meters":39200,"station_id":"ce4bgl12rcd13ifvqbo0","pricing_plan_id":"cebpf4jnsgd1na2vs0mg"},{"bike_id":"a077a7bd-d44b-4ca0-96c1-49693516b3b4","system_id":"levelo_inurba_marseille","lat":43.337664,"lon":5.374297,"is_reserved":false,"is_disabled":false,"rental_uris":{"android":"levelo://app?vid=a077a7bd-d44b-4ca0-96c1-49693516b3b4","ios":"levelo://app?vid=a077a7bd-d44b-4ca0-96c1-49693516b3b4"},"vehicle_type_id":"4","last_reported":1732655334,"current_range_meters":38000,"station_id":"","pricing_plan_id":"cebpf4jnsgd1na2vs0mg"},{"bike_id":"925d9d68-1b01-45a4-af19-d1a58d7476b9","system_id":"levelo_inurba_marseille","lat":43.312042,"lon":5.367348,"is_reserved":false,"is_disabled":true,"rental_uris":{"android":"levelo://app?vid=925d9d68-1b01-45a4-af19-d1a58d7476b9","ios":"levelo://app?vid=925d9d68-1b01-45a4-af19-d1a58d7476b9"},"vehicle_type_id":"4","last_reported":1732655334,"current_range_meters":0,"station_id":"","pricing_plan_id":"cebpf4jnsgd1na2vs0mg"},{"bike_id":"ca0cbbb0-e74a-47d8-bc3e-9f971b7346e9","system_id":"levelo_inurba_marseille","lat":43.29253,"lon":5.40907,"is_reserved":false,"is_disabled":false,"rental_uris":{"android":"levelo://app?vid=ca0cbbb0-e74a-47d8-bc3e-9f971b7346e9","ios":"levelo://app?vid=ca0cbbb0-e74a-47d8-bc3e-9f971b7346e9"},"vehicle_type_id":"4","last_reported":1732655334,"current_range_meters":6800,"station_id":"ce4bh192rcd13ifvqdc0","pricing_plan_id":"cebpf4jnsgd1na2vs0mg"},{"bike_id":"febac411-599b-474a-85f9-bccf9a12cd7a","system_id":"levelo_inurba_marseille","lat":43.28721,"lon":5.36098,"is_reserved":false,"is_disabled":false,"rental_uris":{"android":"levelo://app?vid=febac411-599b-474a-85f9-bccf9a12cd7a","ios":"levelo://app?vid=febac411-599b-474a-85f9-bccf9a12cd7a"},"vehicle_type_id":"4","last_reported":1732655334,"current_range_meters":38800,"station_id":"cki0cbj6b192h4jlfktg","pricing_plan_id":"cebpf4jnsgd1na2vs0mg"},{"bike_id":"cf298d8c-a0c9-4883-b341-ff4459ca7832","system_id":"levelo_inurba_marseille","lat":43.22939,"lon":5.35376,"is_reserved":false,"is_disabled":false,"rental_uris":{"android":"levelo://app?vid=cf298d8c-a0c9-4883-b341-ff4459ca7832","ios":"levelo://app?vid=cf298d8c-a0c9-4883-b341-ff4459ca7832"},"vehicle_type_id":"4","last_reported":1732655334,"current_range_meters":38800,"station_id":"cpo3532slgdg3j2ikp40","pricing_plan_id":"cebpf4jnsgd1na2vs0mg"},{"bike_id":"216b389a-7609-49a8-8352-d67544cc0dc6","system_id":"levelo_inurba_marseille","lat":43.31071,"lon":5.38348,"is_reserved":false,"is_disabled":false,"rental_uris":{"android":"levelo://app?vid=216b389a-7609-49a8-8352-d67544cc0dc6","ios":"levelo://app?vid=216b389a-7609-49a8-8352-d67544cc0dc6"},"vehicle_type_id":"4","last_reported":1732655334,"current_range_meters":38800,"station_id":"ce4bgv92rcd13ifvqcr0","pricing_plan_id":"cebpf4jnsgd1na2vs0mg"},{"bike_id":"c616d3c0-4117-4d43-90a4-0beb5420f5ee","system_id":"levelo_inurba_marseille","lat":43.2945,"lon":5.39741,"is_reserved":false,"is_disabled":false,"rental_uris":{"android":"levelo://app?vid=c616d3c0-4117-4d43-90a4-0beb5420f5ee","ios":"levelo://app?vid=c616d3c0-4117-4d43-90a4-0beb5420f5ee"},"vehicle_type_id":"4","last_reported":1732655334,"current_range_meters":36400,"station_id":"ce4bh3h2rcd13ifvqdo0","pricing_plan_id":"cebpf4jnsgd1na2vs0mg"},{"bike_id":"d9ef5ed5-65f4-4a4b-8dbb-274b0e908852","system_id":"levelo_inurba_marseille","lat":43.24172,"lon":5.364,"is_reserved":false,"is_disabled":false,"rental_uris":{"android":"levelo://app?vid=d9ef5ed5-65f4-4a4b-8dbb-274b0e908852","ios":"levelo://app?vid=d9ef5ed5-65f4-4a4b-8dbb-274b0e908852"},"vehicle_type_id":"4","last_reported":1732655334,"current_range_meters":27600,"station_id":"cpo36qri1sfpv3e86is0","pricing_plan_id":"cebpf4jnsgd1na2vs0mg"},{"bike_id":"be8b9de5-c3da-435a-b91a-e0f01d920c64","system_id":"levelo_inurba_marseille","lat":43.30926,"lon":5.3791,"is_reserved":false,"is_disabled":false,"rental_uris":{"android":"levelo://app?vid=be8b9de5-c3da-435a-b91a-e0f01d920c64","ios":"levelo://app?vid=be8b9de5-c3da-435a-b91a-e0f01d920c64"},"vehicle_type_id":"4","last_reported":1732655334,"current_range_meters":18000,"station_id":"ce4bhr12rcd13ifvqhpg","pricing_plan_id":"cebpf4jnsgd1na2vs0mg"},{"bike_id":"c0da6876-60bc-457a-8fe2-6ab0475dfa8f","system_id":"levelo_inurba_marseille","lat":43.23191,"lon":5.35552,"is_reserved":false,"is_disabled":false,"rental_uris":{"android":"levelo://app?vid=c0da6876-60bc-457a-8fe2-6ab0475dfa8f","ios":"levelo://app?vid=c0da6876-60bc-457a-8fe2-6ab0475dfa8f"},"vehicle_type_id":"4","last_reported":1732655334,"current_range_meters":22000,"station_id":"ce4bhu92rcd13ifvqi70","pricing_plan_id":"cebpf4jnsgd1na2vs0mg"},{"bike_id":"a68a795f-f70b-48b1-b807-6282fedbb6e3","system_id":"levelo_inurba_marseille","lat":43.32657,"lon":5.40984,"is_reserved":false,"is_disabled":false,"rental_uris":{"android":"levelo://app?vid=a68a795f-f70b-48b1-b807-6282fedbb6e3","ios":"levelo://app?vid=a68a795f-f70b-48b1-b807-6282fedbb6e3"},"vehicle_type_id":"4","last_reported":1732655334,"current_range_meters":38800,"station_id":"ce4bhpp2rcd13ifvqhgg","pricing_plan_id":"cebpf4jnsgd1na2vs0mg"},{"bike_id":"3d572fca-a666-4a91-8c70-866e50062dbb","system_id":"levelo_inurba_marseille","lat":43.30547,"lon":5.36534,"is_reserved":false,"is_disabled":false,"rental_uris":{"android":"levelo://app?vid=3d572fca-a666-4a91-8c70-866e50062dbb","ios":"levelo://app?vid=3d572fca-a666-4a91-8c70-866e50062dbb"},