{"last_updated":1725980932,"ttl":30,"version":"2.2","data":{"bikes":[{"bike_id":"86076795-a205-4628-a6e0-4f79f52b3ae0","system_id":"levelo_inurba_marseille","lat":43.260315,"lon":5.375484,"is_reserved":false,"is_disabled":false,"rental_uris":{"android":"levelo://app?vid=86076795-a205-4628-a6e0-4f79f52b3ae0","ios":"levelo://app?vid=86076795-a205-4628-a6e0-4f79f52b3ae0"},"vehicle_type_id":"4","last_reported":1725980932,"current_range_meters":26800,"station_id":"ce4bhgh2rcd13ifvqfa0","pricing_plan_id":"cebpf4jnsgd1na2vs0mg"},{"bike_id":"7d877363-4448-4b92-8e0a-8d49e7075f50","system_id":"levelo_inurba_marseille","lat":43.27376,"lon":5.36257,"is_reserved":false,"is_disabled":false,"rental_uris":{"android":"levelo://app?vid=7d877363-4448-4b92-8e0a-8d49e7075f50","ios":"levelo://app?vid=7d877363-4448-4b92-8e0a-8d49e7075f50"},"vehicle_type_id":"4","last_reported":1725980932,"current_range_meters":34000,"station_id":"ce4bhbh2rcd13ifvqeo0","pricing_plan_id":"cebpf4jnsgd1na2vs0mg"},{"bike_id":"6991a960-4f52-4d96-9843-30ca89b2c6a1","system_id":"levelo_inurba_marseille","lat":43.29704,"lon":5.3661,"is_reserved":false,"is_disabled":false,"rental_uris":{"android":"levelo://app?vid=6991a960-4f52-4d96-9843-30ca89b2c6a1","ios":"levelo://app?vid=6991a960-4f52-4d96-9843-30ca89b2c6a1"},"vehicle_type_id":"4","last_reported":1725980932,"current_range_meters":30800,"station_id":"ce4bgn12rcd13ifvqbt0","pricing_plan_id":"cebpf4jnsgd1na2vs0mg"},{"bike_id":"e8b73b7e-2769-47a7-b39b-6571d7bd2e22","system_id":"levelo_inurba_marseille","lat":43.30875,"lon":5.39642,"is_reserved":false,"is_disabled":false,"rental_uris":{"android":"levelo://app?vid=e8b73b7e-2769-47a7-b39b-6571d7bd2e22","ios":"levelo://app?vid=e8b73b7e-2769-47a7-b39b-6571d7bd2e22"},"vehicle_type_id":"4","last_reported":1725980932,"current_range_meters":18800,"station_id":"ce4bh012rcd13ifvqcv0","pricing_plan_id":"cebpf4jnsgd1na2vs0mg"},{"bike_id":"c8e29672-ff3e-4bc9-bdf1-4f66dae93711","system_id":"levelo_inurba_marseille","lat":43.30546,"lon":5.36703,"is_reserved":false,"is_disabled":false,"rental_uris":{"android":"levelo://app?vid=c8e29672-ff3e-4bc9-bdf1-4f66dae93711","ios":"levelo://app?vid=c8e29672-ff3e-4bc9-bdf1-4f66dae93711"},"vehicle_type_id":"4","last_reported":1725980932,"current_range_meters":30800,"station_id":"ce4bgrp2rcd13ifvqc9g","pricing_plan_id":"cebpf4jnsgd1na2vs0mg"},{"bike_id":"ea779118-3afa-4928-8ab5-0649affabc87","system_id":"levelo_inurba_marseille","lat":43.32493,"lon":5.36579,"is_reserved":false,"is_disabled":false,"rental_uris":{"android":"levelo://app?vid=ea779118-3afa-4928-8ab5-0649affabc87","ios":"levelo://app?vid=ea779118-3afa-4928-8ab5-0649affabc87"},"vehicle_type_id":"4","last_reported":1725980932,"current_range_meters":20400,"station_id":"ce4bhs12rcd13ifvqhvg","pricing_plan_id":"cebpf4jnsgd1na2vs0mg"},{"bike_id":"b87b39e6-9a89-4e1d-9bac-08549028a17c","system_id":"levelo_inurba_marseille","lat":43.27424,"lon":5.39414,"is_reserved":false,"is_disabled":false,"rental_uris":{"android":"levelo://app?vid=b87b39e6-9a89-4e1d-9bac-08549028a17c","ios":"levelo://app?vid=b87b39e6-9a89-4e1d-9bac-08549028a17c"},"vehicle_type_id":"4","last_reported":1725980932,"current_range_meters":33200,"station_id":"ce4bhdp2rcd13ifvqf20","pricing_plan_id":"cebpf4jnsgd1na2vs0mg"},{"bike_id":"7468e6de-4b3b-44a0-a565-74e5db766e47","system_id":"levelo_inurba_marseille","lat":43.27068,"lon":5.42272,"is_reserved":false,"is_disabled":false,"rental_uris":{"android":"levelo://app?vid=7468e6de-4b3b-44a0-a565-74e5db766e47","ios":"levelo://app?vid=7468e6de-4b3b-44a0-a565-74e5db766e47"},"vehicle_type_id":"4","last_reported":1725980932,"current_range_meters":34000,"station_id":"ce4bhk92rcd13ifvqgb0","pricing_plan_id":"cebpf4jnsgd1na2vs0mg"},{"bike_id":"42dd6ac3-7a0e-427e-8bb4-397b4aae312d","system_id":"levelo_inurba_marseille","lat":43.25823,"lon":5.3943,"is_reserved":false,"is_disabled":false,"rental_uris":{"android":"levelo://app?vid=42dd6ac3-7a0e-427e-8bb4-397b4aae312d","ios":"levelo://app?vid=42dd6ac3-7a0e-427e-8bb4-397b4aae312d"},"vehicle_type_id":"4","last_reported":1725980932,"current_range_meters":38400,"station_id":"ce4bhip2rcd13ifvqft0","pricing_plan_id":"cebpf4jnsgd1na2vs0mg"},{"bike_id":"8cb7cc54-869f-449a-9d08-fca57c2c73d2","system_id":"levelo_inurba_marseille","lat":43.31576,"lon":5.39314,"is_reserved":false,"is_disabled":false,"rental_uris":{"android":"levelo://app?vid=8cb7cc54-869f-449a-9d08-fca57c2c73d2","ios":"levelo://app?vid=8cb7cc54-869f-449a-9d08-fca57c2c73d2"},"vehicle_type_id":"4","last_reported":1725980932,"current_range_meters":37600,"station_id":"ce4bgvp2rcd13ifvqct0","pricing_plan_id":"cebpf4jnsgd1na2vs0mg"},{"bike_id":"93166e9f-2ea3-4a18-aebf-b8e72557b4ca","system_id":"levelo_inurba_marseille","lat":43.29594,"lon":5.38099,"is_reserved":false,"is_disabled":false,"rental_uris":{"android":"levelo://app?vid=93166e9f-2ea3-4a18-aebf-b8e72557b4ca","ios":"levelo://app?vid=93166e9f-2ea3-4a18-aebf-b8e72557b4ca"},"vehicle_type_id":"4","last_reported":1725980932,"current_range_meters":9600,"station_id":"ce4bgl12rcd13ifvqbo0","pricing_plan_id":"cebpf4jnsgd1na2vs0mg"},{"bike_id":"b1f4b7fb-0238-4f72-85e6-fe5b21641860","system_id":"levelo_inurba_marseille","lat":43.32294,"lon":5.38279,"is_reserved":false,"is_disabled":false,"rental_uris":{"android":"levelo://app?vid=b1f4b7fb-0238-4f72-85e6-fe5b21641860","ios":"levelo://app?vid=b1f4b7fb-0238-4f72-85e6-fe5b21641860"},"vehicle_type_id":"4","last_reported":1725980932,"current_range_meters":30800,"station_id":"ce4bhr12rcd13ifvqhqg","pricing_plan_id":"cebpf4jnsgd1na2vs0mg"},{"bike_id":"8919cd27-0653-429b-a6a2-2364d4ecad0d","system_id":"levelo_inurba_marseille","lat":43.26213,"lon":5.37445,"is_reserved":false,"is_disabled":false,"rental_uris":{"android":"levelo://app?vid=8919cd27-0653-429b-a6a2-2364d4ecad0d","ios":"levelo://app?vid=8919cd27-0653-429b-a6a2-2364d4ecad0d"},"vehicle_type_id":"4","last_reported":1725980932,"current_range_meters":2800,"station_id":"ce4bhgp2rcd13ifvqfc0","pricing_plan_id":"cebpf4jnsgd1na2vs0mg"},{"bike_id":"b630ee83-4591-427a-9586-e2b5a3c4ef58","system_id":"levelo_inurba_marseille","lat":43.30185,"lon":5.36614,"is_reserved":false,"is_disabled":false,"rental_uris":{"android":"levelo://app?vid=b630ee83-4591-427a-9586-e2b5a3c4ef58","ios":"levelo://app?vid=b630ee83-4591-427a-9586-e2b5a3c4ef58"},"vehicle_type_id":"4","last_reported":1725980932,"current_range_meters":35200,"station_id":"ce4bgrh2rcd13ifvqc8g","pricing_plan_id":"cebpf4jnsgd1na2vs0mg"},{"bike_id":"8e714b2d-5205-437b-9524-54c7599344f4","system_id":"levelo_inurba_marseille","lat":43.284251,"lon":5.349884,"is_reserved":false,"is_disabled":false,"rental_uris":{"android":"levelo://app?vid=8e714b2d-5205-437b-9524-54c7599344f4","ios":"levelo://app?vid=8e714b2d-5205-437b-9524-54c7599344f4"},"vehicle_type_id":"4","last_reported":1725980932,"current_range_meters":22800,"station_id":"ce4bhbh2rcd13ifvqepg","pricing_plan_id":"cebpf4jnsgd1na2vs0mg"},{"bike_id":"f246a88e-ecf8-4a08-aa0b-b3cb5bee6e1c","system_id":"levelo_inurba_marseille","lat":43.2923,"lon":5.36073,"is_reserved":false,"is_disabled":false,"rental_uris":{"android":"levelo://app?vid=f246a88e-ecf8-4a08-aa0b-b3cb5bee6e1c","ios":"levelo://app?vid=f246a88e-ecf8-4a08-aa0b-b3cb5bee6e1c"},"vehicle_type_id":"4","last_reported":1725980932,"current_range_meters":30000,"station_id":"ce4bhbh2rcd13ifvqeqg","pricing_plan_id":"cebpf4jnsgd1na2vs0mg"},{"bike_id":"6ace29ec-437e-4d50-9b72-3a1c9fb2ec88","system_id":"levelo_inurba_marseille","lat":43.25104,"lon":5.40323,"is_reserved":false,"is_disabled":false,"rental_uris":{"android":"levelo://app?vid=6ace29ec-437e-4d50-9b72-3a1c9fb2ec88","ios":"levelo://app?vid=6ace29ec-437e-4d50-9b72-3a1c9fb2ec88"},"vehicle_type_id":"4","last_reported":1725980932,"current_range_meters":12000,"station_id":"ce4bhlh2rcd13ifvqgig","pricing_plan_id":"cebpf4jnsgd1na2vs0mg"},{"bike_id":"97ee11ed-b5f9-4048-8c2a-077a1a9b848d","system_id":"levelo_inurba_marseille","lat":43.24543,"lon":5.39527,"is_reserved":false,"is_disabled":false,"rental_uris":{"android":"levelo://app?vid=97ee11ed-b5f9-4048-8c2a-077a1a9b848d","ios":"levelo://app?vid=97ee11ed-b5f9-4048-8c2a-077a1a9b848d"},"vehicle_type_id":"4","last_reported":1725980932,"current_range_meters":19600,"station_id":"ce4bhlp2rcd13ifvqgjg","pricing_plan_id":"cebpf4jnsgd1na2vs0mg"},{"bike_id":"dec72014-5456-4b93-8753-a354bfa5ff63","system_id":"levelo_inurba_marseille","lat":43.28434,"lon":5.39194,"is_reserved":false,"is_disabled":false,"rental_uris":{"android":"levelo://app?vid=dec72014-5456-4b93-8753-a354bfa5ff63","ios":"levelo://app?vid=dec72014-5456-4b93-8753-a354bfa5ff63"},"vehicle_type_id":"4","last_reported":1725980932,"current_range_meters":38400,"station_id":"ce4bhoh2rcd13ifvqh5g","pricing_plan_id":"cebpf4jnsgd1na2vs0mg"},{"bike_id":"6c02a711-e0d4-4009-9d44-fba5428f55b2","system_id":"levelo_inurba_marseille","lat":43.23194,"lon":5.3556,"is_reserved":false,"is_disabled":false,"rental_uris":{"android":"levelo://app?vid=6c02a711-e0d4-4009-9d44-fba5428f55b2","ios":"levelo://app?vid=6c02a711-e0d4-4009-9d44-fba5428f55b2"},"vehicle_type_id":"4","last_reported":1725980932,"current_range_meters":8800,"station_id":"ce4bhu92rcd13ifvqi70","pricing_plan_id":"cebpf4jnsgd1na2vs0mg"},{"bike_id":"a3afbb5c-0faf-4b5b-ba61-ca81ec7b7901","system_id":"levelo_inurba_marseille","lat":43.28665,"lon":5.36349,"is_reserved":false,"is_disabled":false,"rental_uris":{"android":"levelo://app?vid=a3afbb5c-0faf-4b5b-ba61-ca81ec7b7901","ios":"levelo://app?vid=a3afbb5c-0faf-4b5b-ba61-ca81ec7b7901"},"vehicle_type_id":"4","last_reported":1725980932,"current_range_meters":6000,"station_id":"ce4bhah2rcd13ifvqej0","pricing_plan_id":"cebpf4jnsgd1na2vs0mg"},{"bike_id":"5cc3eae1-1fcc-4608-80ea-a9b5f3bf79a5","system_id":"levelo_inurba_marseille","lat":43.2681,"lon":5.40269,"is_reserved":false,"is_disabled":false,"rental_uris":{"android":"levelo://app?vid=5cc3eae1-1fcc-4608-80ea-a9b5f3bf79a5","ios":"levelo://app?vid=5cc3eae1-1fcc-4608-80ea-a9b5f3bf79a5"},"vehicle_type_id":"4","last_reported":1725980932,"current_range_meters":24000,"station_id":"ce501612rcd8frsf0b60","pricing_plan_id":"cebpf4jnsgd1na2vs0mg"},{"bike_id":"df651c67-9285-47f5-99ec-05e4c0276cf6","system_id":"levelo_inurba_marseille","lat":43.30876,"lon":5.39642,"is_reserved":false,"is_disabled":false,"rental_uris":{"android":"levelo://app?vid=df651c67-9285-47f5-99ec-05e4c0276cf6","ios":"levelo://app?vid=df651c67-9285-47f5-99ec-05e4c0276cf6"},"vehicle_type_id":"4","last_reported":1725980932,"current_range_meters":11200,"station_id":"ce4bh012rcd13ifvqcv0","pricing_plan_id":"cebpf4jnsgd1na2vs0mg"},{"bike_id":"ee76257c-96b8-438d-9b5e-8a8f61c61259","system_id":"levelo_inurba_marseille","lat":43.26673,"lon":5.38263,"is_reserved":false,"is_disabled":false,"rental_uris":{"android":"levelo://app?vid=ee76257c-96b8-438d-9b5e-8a8f61c61259","ios":"levelo://app?vid=ee76257c-96b8-438d-9b5e-8a8f61c61259"},"vehicle_type_id":"4","last_reported":1725980932,"current_range_meters":28400,"station_id":"ce4bhg92rcd13ifvqf90","pricing_plan_id":"cebpf4jnsgd1na2vs0mg"},{"bike_id":"ebc106fd-3a7b-45f3-b3ec-91b9ded56175","system_id":"levelo_inurba_marseille","lat":43.2871,"lon":5.37933,"is_reserved":false,"is_disabled":false,"rental_uris":{"android":"levelo://app?vid=ebc106fd-3a7b-45f3-b3ec-91b9ded56175","ios":"levelo://app?vid=ebc106fd-3a7b-45f3-b3ec-91b9ded56175"},"vehicle_type_id":"4","last_reported":1725980932,"current_range_meters":24400,"station_id":"ce4bh9p2rcd13ifvqec0","pricing_plan_id":"cebpf4jnsgd1na2vs0mg"},{"bike_id":"bb21aadb-16ac-4ba3-98c5-00bf3482ce62","system_id":"levelo_inurba_marseille","lat":43.27499,"lon":5.42447,"is_reserved":false,"is_disabled":false,"rental_uris":{"android":"levelo://app?vid=bb21aadb-16ac-4ba3-98c5-00bf3482ce62","ios":"levelo://app?vid=bb21aadb-16ac-4ba3-98c5-00bf3482ce62"},"vehicle_type_id":"4","last_reported":1725980932,"current_range_meters":11600,"station_id":"ce4bhn92rcd13ifvqgrg","pricing_plan_id":"cebpf4jnsgd1na2vs0mg"},{"bike_id":"b59d6bb8-aefb-4db8-b3f2-f169f342ddcd","system_id":"levelo_inurba_marseille","lat":43.32364,"lon":5.38889,"is_reserved":false,"is_disabled":false,"rental_uris":{"android":"levelo://app?vid=b59d6bb8-aefb-4db8-b3f2-f169f342ddcd","ios":"levelo://app?vid=b59d6bb8-aefb-4db8-b3f2-f169f342ddcd"},"vehicle_type_id":"4","last_reported":1725980932,"current_range_meters":8000,"station_id":"ce4bhqp2rcd13ifvqhog","pricing_plan_id":"cebpf4jnsgd1na2vs0mg"},{"bike_id":"93f525db-906e-4e02-b346-12aa74777590","system_id":"levelo_inurba_marseille","lat":43.23151,"lon":5.4372,"is_reserved":false,"is_disabled":false,"rental_uris":{"android":"levelo://app?vid=93f525db-906e-4e02-b346-12aa74777590","ios":"levelo://app?vid=93f525db-906e-4e02-b346-12aa74777590"},"vehicle_type_id":"4","last_reported":1725980932,"current_range_meters":16000,"station_id":"ce4bhmp2rcd13ifvqgog","pricing_plan_id":"cebpf4jnsgd1na2vs0mg"},{"bike_id":"c24de65c-6650-4c34-9b6c-9c8ecc0399c2","system_id":"levelo_inurba_marseille","lat":43.28617,"lon":5.35104,"is_reserved":false,"is_disabled":false,"rental_uris":{"android":"levelo://app?vid=c24de65c-6650-4c34-9b6c-9c8ecc0399c2","ios":"levelo://app?vid=c24de65c-6650-4c34-9b6c-9c8ecc0399c2"},"vehicle_type_id":"4","last_reported":1725980932,"current_range_meters":36000,"station_id":"ce4bhch2rcd13ifvqeug","pricing_plan_id":"cebpf4jnsgd1na2vs0mg"},{"bike_id":"90c299f8-790c-46f5-b85a-9ad1d676da59","system_id":"levelo_inurba_marseille","lat":43.28419,"lon":5.34984,"is_reserved":false,"is_disabled":false,"rental_uris":{"android":"levelo://app?vid=90c299f8-790c-46f5-b85a-9ad1d676da59","ios":"levelo://app?vid=90c299f8-790c-46f5-b85a-9ad1d676da59"},"vehicle_type_id":"4","last_reported":1725980932,"current_range_meters":8400,"station_id":"ce4bhbh2rcd13ifvqepg","pricing_plan_id":"cebpf4jnsgd1na2vs0mg"},{"bike_id":"d84a0d30-4ac4-4e6a-b8f8-2bddec432685","system_id":"levelo_inurba_marseille","lat":43.31759,"lon":5.39007,"is_reserved":false,"is_disabled":false,"rental_uris":{"android":"levelo://app?vid=d84a0d30-4ac4-4e6a-b8f8-2bddec432685","ios":"levelo://app?vid=d84a0d30-4ac4-4e6a-b8f8-2bddec432685"},"vehicle_type_id":"4","last_reported":1725980932,"current_range_meters":4800,"station_id":"ce4bhqp2rcd13ifvqhng","pricing_plan_id":"cebpf4jnsgd1na2vs0mg"},{"bike_id":"e1946b08-4bd2-4bd8-bca3-558872b89e8b","system_id":"levelo_inurba_marseille","lat":43.27487,"lon":5.42456,"is_reserved":false,"is_disabled":false,"rental_uris":{"android":"levelo://app?vid=e1946b08-4bd2-4bd8-bca3-558872b89e8b","ios":"levelo://app?vid=e1946b08-4bd2-4bd8-bca3-558872b89e8b"},"vehicle_type_id":"4","last_reported":1725980932,"current_range_meters":11200,"station_id":"ce4bhn92rcd13ifvqgrg","pricing_plan_id":"cebpf4jnsgd1na2vs0mg"},{"bike_id":"321a6067-908c-453b-858d-8052278ad46c","system_id":"levelo_inurba_marseille","lat":43.30944,"lon":5.401721,"is_reserved":false,"is_disabled":false,"rental_uris":{"android":"levelo://app?vid=321a6067-908c-453b-858d-8052278ad46c","ios":"levelo://app?vid=321a6067-908c-453b-858d-8052278ad46c"},"vehicle_type_id":"4","last_reported":1725980932,"current_range_meters":36000,"station_id":"ce4bgvp2rcd13ifvqct0","pricing_plan_id":"cebpf4jnsgd1na2vs0mg"},{"bike_id":"d94cf20d-19e4-4d88-bbb3-72b7a4c6baa3","system_id":"levelo_inurba_marseille","lat":43.32288,"lon":5.38273,"is_reserved":false,"is_disabled":false,"rental_uris":{"android":"levelo://app?vid=d94cf20d-19e4-4d88-bbb3-72b7a4c6baa3","ios":"levelo://app?vid=d94cf20d-19e4-4d88-bbb3-72b7a4c6baa3"},"vehicle_type_id":"4","last_reported":1725980932,"current_range_meters":25200,"station_id":"ce4bhr12rcd13ifvqhqg","pricing_plan_id":"cebpf4jnsgd1na2vs0mg"},{"bike_id":"8b7d0e3f-714d-4107-82c7-4c573759306c","system_id":"levelo_inurba_marseille","lat":43.27613,"lon":5.36108,"is_reserved":false,"is_disabled":false,"rental_uris":{"android":"levelo://app?vid=8b7d0e3f-714d-4107-82c7-4c573759306c","ios":"levelo://app?vid=8b7d0e3f-714d-4107-82c7-4c573759306c"},"vehicle_type_id":"4","last_reported":1725980932,"current_range_meters":14400,"station_id":"ce4bgj92rcd13ifvqbe0","pricing_plan_id":"cebpf4jnsgd1na2vs0mg"},{"bike_id":"a13f03dd-a149-4b66-8883-db940e9250e2","system_id":"levelo_inurba_marseille","lat":43.28609,"lon":5.3707,"is_reserved":false,"is_disabled":false,"rental_uris":{"android":"levelo://app?vid=a13f03dd-a149-4b66-8883-db940e9250e2","ios":"levelo://app?vid=a13f03dd-a149-4b66-8883-db940e9250e2"},"vehicle_type_id":"4","last_reported":1725980932,"current_range_meters":2800,"station_id":"ce4bht12rcd13ifvqi60","pricing_plan_id":"cebpf4jnsgd1na2vs0mg"},{"bike_id":"d88f2e52-8c81-4ab3-9963-8c1e58946083","system_id":"levelo_inurba_marseille","lat":43.28412,"lon":5.34982,"is_reserved":false,"is_disabled":false,"rental_uris":{"android":"levelo://app?vid=d88f2e52-8c81-4ab3-9963-8c1e58946083","ios":"levelo://app?vid=d88f2e52-8c81-4ab3-9963-8c1e58946083"},"vehicle_type_id":"4","last_reported":1725980932,"current_range_meters":38800,"station_id":"ce4bhbh2rcd13ifvqepg","pricing_plan_id":"cebpf4jnsgd1na2vs0mg"},{"bike_id":"2e23597d-e77d-486c-a95e-6cdb71b1bd53","system_id":"levelo_inurba_marseille","lat":43.32367,"lon":5.38889,"is_reserved":false,"is_disabled":false,"rental_uris":{"android":"levelo://app?vid=2e23597d-e77d-486c-a95e-6cdb71b1bd53","ios":"levelo://app?vid=2e23597d-e77d-486c-a95e-6cdb71b1bd53"},"vehicle_type_id":"4","last_reported":1725980932,"current_range_meters":14000,"station_id":"ce4bhqp2rcd13ifvqhog","pricing_plan_id":"cebpf4jnsgd1na2vs0mg"},{"bike_id":"b9349f91-2d16-4946-bbb1-7fbf790a53d5","system_id":"levelo_inurba_marseille","lat":43.29905,"lon":5.38147,"is_reserved":false,"is_disabled":false,"rental_uris":{"android":"levelo://app?vid=b9349f91-2d16-4946-bbb1-7fbf790a53d5","ios":"levelo://app?vid=b9349f91-2d16-4946-bbb1-7fbf790a53d5"},"vehicle_type_id":"4","last_reported":1725980932,"current_range_meters":39200,"station_id":"ce4bgj12rcd13ifvqbc0","pricing_plan_id":"cebpf4jnsgd1na2vs0mg"},{"bike_id":"d7dee9fc-d4bf-4a0b-89f9-024b51ffe1ed","system_id":"levelo_inurba_marseille","lat":43.30796,"lon":5.43522,"is_reserved":false,"is_disabled":false,"rental_uris":{"android":"levelo://app?vid=d7dee9fc-d4bf-4a0b-89f9-024b51ffe1ed","ios":"levelo://app?vid=d7dee9fc-d4bf-4a0b-89f9-024b51ffe1ed"},"vehicle_type_id":"4","last_reported":1725980932,"current_range_meters":18800,"station_id":"ce4bhph2rcd13ifvqheg","pricing_plan_id":"cebpf4jnsgd1na2vs0mg"},{"bike_id":"44ca47b9-26f0-4a71-ac85-211abb9f668b","system_id":"levelo_inurba_marseille","lat":43.24396,"lon":5.37064,"is_reserved":false,"is_disabled":false,"rental_uris":{"android":"levelo://app?vid=44ca47b9-26f0-4a71-ac85-211abb9f668b","ios":"levelo://app?vid=44ca47b9-26f0-4a71-ac85-211abb9f668b"},"vehicle_type_id":"4","last_reported":1725980932,"current_range_meters":4800,"station_id":"ce4bhhh2rcd13ifvqfk0","pricing_plan_id":"cebpf4jnsgd1na2vs0mg"},{"bike_id":"97eae57a-7b96-412e-896b-251c6477f54a","system_id":"levelo_inurba_marseille","lat":43.29962,"lon":5.41324,"is_reserved":false,"is_disabled":false,"rental_uris":{"android":"levelo://app?vid=97eae57a-7b96-412e-896b-251c6477f54a","ios":"levelo://app?vid=97eae57a-7b96-412e-896b-251c6477f54a"},"vehicle_type_id":"4","last_reported":1725980932,"current_range_meters":38800,"station_id":"ce4bhp12rcd13ifvqh9g","pricing_plan_id":"cebpf4jnsgd1na2vs0mg"},{"bike_id":"61cfc750-786a-44d2-83ef-a9962db9930e","system_id":"levelo_inurba_marseille","lat":43.28662,"lon":5.36346,"is_reserved":false,"is_disabled":false,"rental_uris":{"android":"levelo://app?vid=61cfc750-786a-44d2-83ef-a9962db9930e","ios":"levelo://app?vid=61cfc750-786a-44d2-83ef-a9962db9930e"},"vehicle_type_id":"4","last_reported":1725980932,"current_range_meters":7200,"station_id":"ce4bhah2rcd13ifvqej0","pricing_plan_id":"cebpf4jnsgd1na2vs0mg"},{"bike_id":"c78be374-070b-4924-b972-6577282c6a3c","system_id":"levelo_inurba_marseille","lat":43.3112,"lon":5.3777,"is_reserved":false,"is_disabled":false,"rental_uris":{"android":"levelo://app?vid=c78be374-070b-4924-b972-6577282c6a3c","ios":"levelo://app?vid=c78be374-070b-4924-b972-6577282c6a3c"},"vehicle_type_id":"4","last_reported":1725980932,"current_range_meters":24000,"station_id":"ce4bgt92rcd13ifvqcg0","pricing_plan_id":"cebpf4jnsgd1na2vs0mg"},{"bike_id":"07f891dd-9b2a-474c-9f9a-45da8e186fac","system_id":"levelo_inurba_marseille","lat":43.27182,"lon":5.40999,"is_reserved":false,"is_disabled":false,"rental_uris":{"android":"levelo://app?vid=07f891dd-9b2a-474c-9f9a-45da8e186fac","ios":"levelo://app?vid=07f891dd-9b2a-474c-9f9a-45da8e186fac"},"vehicle_type_id":"4","last_reported":1725980932,"current_range_meters":27600,"station_id":"ce4bhl12rcd13ifvqgf0","pricing_plan_id":"cebpf4jnsgd1na2vs0mg"},{"bike_id":"bde51898-0b1b-4e0a-b0fa-47f0aab40cf6","system_id":"levelo_inurba_marseille","lat":43.2572,"lon":5.41113,"is_reserved":false,"is_disabled":false,"rental_uris":{"android":"levelo://app?vid=bde51898-0b1b-4e0a-b0fa-47f0aab40cf6","ios":"levelo://app?vid=bde51898-0b1b-4e0a-b0fa-47f0aab40cf6"},"vehicle_type_id":"4","last_reported":1725980932,"current_range_meters":32800,"station_id":"ce4bhkp2rcd13ifvqgd0","pricing_plan_id":"cebpf4jnsgd1na2vs0mg"},{"bike_id":"cbe342fb-bfc1-4a9e-b1ef-d6f96bb0cde4","system_id":"levelo_inurba_marseille","lat":43.23178,"lon":5.39982,"is_reserved":false,"is_disabled":false,"rental_uris":{"android":"levelo://app?vid=cbe342fb-bfc1-4a9e-b1ef-d6f96bb0cde4","ios":"levelo://app?vid=cbe342fb-bfc1-4a9e-b1ef-d6f96bb0cde4"},"vehicle_type_id":"4","last_reported":1725980932,"current_range_meters":8800,"station_id":"ce4bhn12rcd13ifvqgqg","pricing_plan_id":"cebpf4jnsgd1na2vs0mg"},{"bike_id":"dc1539f4-f36a-4c3e-9244-fd222249d35a","system_id":"levelo_inurba_marseille","lat":43.2781,"lon":5.40713,"is_reserved":false,"is_disabled":false,"rental_uris":{"android":"levelo://app?vid=dc1539f4-f36a-4c3e-9244-fd222249d35a","ios":"levelo://app?vid=dc1539f4-f36a-4c3e-9244-fd222249d35a"},"vehicle_type_id":"4","last_reported":1725980932,"current_range_meters":24000,"station_id":"ce4bhnh2rcd13ifvqgtg","pricing_plan_id":"cebpf4jnsgd1na2vs0mg"},{"bike_id":"6a943ad7-089a-4af7-9a5f-72672972d89f","system_id":"levelo_inurba_marseille","lat":43.25499,"lon":5.3765,"is_reserved":false,"is_disabled":false,"rental_uris":{"android":"levelo://app?vid=6a943ad7-089a-4af7-9a5f-72672972d89f","ios":"levelo://app?vid=6a943ad7-089a-4af7-9a5f-72672972d89f"},"vehicle_type_id":"4","last_reported":1725980932,"current_range_meters":26800,"station_id":"ce4bhh12rcd13ifvqff0","pricing_plan_id":"cebpf4jnsgd1na2vs0mg"},{"bike_id":"dd33fe7c-abb9-4c50-adc0-a596731ca0dd","system_id":"levelo_inurba_marseille","lat":43.23158,"lon":5.43701,"is_reserved":false,"is_disabled":false,"rental_uris":{"android":"levelo://app?vid=dd33fe7c-abb9-4c50-adc0-a596731ca0dd","ios":"levelo://app?vid=dd33fe7c-abb9-4c50-adc0-a596731ca0dd"},"vehicle_type_id":"4","last_reported":1725980932,"current_range_meters":35200,"station_id":"ce4bhmp2rcd13ifvqgog","pricing_plan_id":"cebpf4jnsgd1na2vs0mg"},{"bike_id":"e05c8849-7da7-4b3d-9ec5-acf2037a832b","system_id":"levelo_inurba_marseille","lat":43.28262,"lon":5.35059,"is_reserved":false,"is_disabled":false,"rental_uris":{"android":"levelo://app?vid=e05c8849-7da7-4b3d-9ec5-acf2037a832b","ios":"levelo://app?vid=e05c8849-7da7-4b3d-9ec5-acf2037a832b"},"vehicle_type_id":"4","last_reported":1725980932,"current_range_meters":14000,"station_id":"ce4bhbp2rcd13ifvqerg","pricing_plan_id":"cebpf4jnsgd1na2vs0mg"},{"bike_id":"3f731b0c-33c3-4d71-9433-f18c84fa1da8","system_id":"levelo_inurba_marseille","lat":43.29042,"lon":5.35908,"is_reserved":false,"is_disabled":false,"rental_uris":{"android":"levelo://app?vid=3f731b0c-33c3-4d71-9433-f18c84fa1da8","ios":"levelo://app?vid=3f731b0c-33c3-4d71-9433-f18c84fa1da8"},"vehicle_type_id":"4","last_reported":1725980932,"current_range_meters":21600,"station_id":"ce4bha92rcd13ifvqeg0","pricing_plan_id":"cebpf4jnsgd1na2vs0mg"},{"bike_id":"0b29e761-2bfd-450a-9b65-d55d99a8baf6","system_id":"levelo_inurba_marseille","lat":43.33719,"lon":5.39191,"is_reserved":false,"is_disabled":false,"rental_uris":{"android":"levelo://app?vid=0b29e761-2bfd-450a-9b65-d55d99a8baf6","ios":"levelo://app?vid=0b29e761-2bfd-450a-9b65-d55d99a8baf6"},"vehicle_type_id":"4","last_reported":1725980932,"current_range_meters":32000,"station_id":"ce4bhr92rcd13ifvqhsg","pricing_plan_id":"cebpf4jnsgd1na2vs0mg"},{"bike_id":"5d352641-3593-4267-b2f1-8ab039017e05","system_id":"levelo_inurba_marseille","lat":43.23196,"lon":5.35554,"is_reserved":false,"is_disabled":false,"rental_uris":{"android":"levelo://app?vid=5d352641-3593-4267-b2f1-8ab039017e05","ios":"levelo://app?vid=5d352641-3593-4267-b2f1-8ab039017e05"},"vehicle_type_id":"4","last_reported":1725980932,"current_range_meters":4400,"station_id":"ce4bhu92rcd13ifvqi70","pricing_plan_id":"cebpf4jnsgd1na2vs0mg"},{"bike_id":"395f4933-4b36-43ab-8901-aaf2add919ad","system_id":"levelo_inurba_marseille","lat":43.28613,"lon":5.35099,"is_reserved":false,"is_disabled":false,"rental_uris":{"android":"levelo://app?vid=395f4933-4b36-43ab-8901-aaf2add919ad","ios":"levelo://app?vid=395f4933-4b36-43ab-8901-aaf2add919ad"},"vehicle_type_id":"4","last_reported":1725980932,"current_range_meters":37600,"station_id":"ce4bhch2rcd13ifvqeug","pricing_plan_id":"cebpf4jnsgd1na2vs0mg"},{"bike_id":"5a6fae91-a6c4-4f9f-b0f8-b0e2a4d46cc1","system_id":"levelo_inurba_marseille","lat":43.287285,"lon":5.36094,"is_reserved":false,"is_disabled":false,"rental_uris":{"android":"levelo://app?vid=5a6fae91-a6c4-4f9f-b0f8-b0e2a4d46cc1","ios":"levelo://app?vid=5a6fae91-a6c4-4f9f-b0f8-b0e2a4d46cc1"},"vehicle_type_id":"4","last_reported":1725980932,"current_range_meters":34800,"station_id":"cki0cbj6b192h4jlfktg","pricing_plan_id":"cebpf4jnsgd1na2vs0mg"},{"bike_id":"917f5979-8940-4fd8-a5f2-834f29795b7c","system_id":"levelo_inurba_marseille","lat":43.23153,"lon":5.43693,"is_reserved":false,"is_disabled":false,"rental_uris":{"android":"levelo://app?vid=917f5979-8940-4fd8-a5f2-834f29795b7c","ios":"levelo://app?vid=917f5979-8940-4fd8-a5f2-834f29795b7c"},"vehicle_type_id":"4","last_reported":1725980932,"current_range_meters":36800,"station_id":"ce4bhmp2rcd13ifvqgog","pricing_plan_id":"cebpf4jnsgd1na2vs0mg"},{"bike_id":"29f1cbac-77e4-4249-a0a2-be996311df9b","system_id":"levelo_inurba_marseille","lat":43.32035,"lon":5.40988,"is_reserved":false,"is_disabled":false,"rental_uris":{"android":"levelo://app?vid=29f1cbac-77e4-4249-a0a2-be996311df9b","ios":"levelo://app?vid=29f1cbac-77e4-4249-a0a2-be996311df9b"},"vehicle_type_id":"4","last_reported":1725980932,"current_range_meters":19200,"station_id":"","pricing_plan_id":"cebpf4jnsgd1na2vs0mg"},{"bike_id":"bac2ed9e-1d82-4bdf-b840-548bcc81fd6b","system_id":"levelo_inurba_marseille","lat":43.29298,"lon":5.37454,"is_reserved":false,"is_disabled":false,"rental_uris":{"android":"levelo://app?vid=bac2ed9e-1d82-4bdf-b840-548bcc81fd6b","ios":"levelo://app?vid=bac2ed9e-1d82-4bdf-b840-548bcc81fd6b"},"vehicle_type_id":"4","last_reported":1725980932,"current_range_meters":12800,"station_id":"ce4bgi12rcd13ifvqb70","pricing_plan_id":"cebpf4jnsgd1na2vs0mg"},{"bike_id":"ebd8b7d4-1f18-4af1-8c93-74c66a69bbbf","system_id":"levelo_inurba_marseille","lat":43.23149,"lon":5.43699,"is_reserved":false,"is_disabled":false,"rental_uris":{"android":"levelo://app?vid=ebd8b7d4-1f18-4af1-8c93-74c66a69bbbf","ios":"levelo://app?vid=ebd8b7d4-1f18-4af1-8c93-74c66a69bbbf"},"vehicle_type_id":"4","last_reported":1725980932,"current_range_meters":14400,"station_id":"ce4bhmp2rcd13ifvqgog","pricing_plan_id":"cebpf4jnsgd1na2vs0mg"},{"bike_id":"ad6901f3-d9b1-47ca-837b-5c1e917180fc","system_id":"levelo_inurba_marseille","lat":43.23066,"lon":5.35492,"is_reserved":false,"is_disabled":false,"rental_uris":{"android":"levelo://app?vid=ad6901f3-d9b1-47ca-837b-5c1e917180fc","ios":"levelo://app?vid=ad6901f3-d9b1-47ca-837b-5c1e917180fc"},"vehicle_type_id":"4","last_reported":1725980932,"current_range_meters":2800,"station_id":"cpo3342slgdg3j2ifvpg","pricing_plan_id":"cebpf4jnsgd1na2vs0mg"},{"bike_id":"dc3ba369-0bf3-430f-bf0f-5567076f0c21","system_id":"levelo_inurba_marseille","lat":43.28156,"lon":5.42645,"is_reserved":false,"is_disabled":false,"rental_uris":{"android":"levelo://app?vid=dc3ba369-0bf3-430f-bf0f-5567076f0c21","ios":"levelo://app?vid=dc3ba369-0bf3-430f-bf0f-5567076f0c21"},"vehicle_type_id":"4","last_reported":1725980932,"current_range_meters":4000,"station_id":"ce4bhnh2rcd13ifvqgug","pricing_plan_id":"cebpf4jnsgd1na2vs0mg"},{"bike_id":"2aad4b02-945c-4d35-b3a5-85b3d17dc503","system_id":"levelo_inurba_marseille","lat":43.32287,"lon":5.3826,"is_reserved":false,"is_disabled":false,"rental_uris":{"android":"levelo://app?vid=2aad4b02-945c-4d35-b3a5-85b3d17dc503","ios":"levelo://app?vid=2aad4b02-945c-4d35-b3a5-85b3d17dc503"},"vehicle_type_id":"4","last_reported":1725980932,"current_range_meters":8400,"station_id":"ce4bhr12rcd13ifvqhqg","pricing_plan_id":"cebpf4jnsgd1na2vs0mg"},{"bike_id":"6a49f684-7389-49d4-ad8a-250902ed3581","system_id":"levelo_inurba_marseille","lat":43.31681,"lon":5.40473,"is_reserved":false,"is_disabled":false,"rental_uris":{"android":"levelo://app?vid=6a49f684-7389-49d4-ad8a-250902ed3581","ios":"levelo://app?vid=6a49f684-7389-49d4-ad8a-250902ed3581"},"vehicle_type_id":"4","last_reported":1725980932,"current_range_meters":17600,"station_id":"ce4bh012rcd13ifvqd00","pricing_plan_id":"cebpf4jnsgd1na2vs0mg"},{"bike_id":"97412743-687f-4557-aa2b-5c98bb06265e","system_id":"levelo_inurba_marseille","lat":43.23153,"lon":5.43708,"is_reserved":false,"is_disabled":false,"rental_uris":{"android":"levelo://app?vid=97412743-687f-4557-aa2b-5c98bb06265e","ios":"levelo://app?vid=97412743-687f-4557-aa2b-5c98bb06265e"},"vehicle_type_id":"4","last_reported":1725980932,"current_range_meters":18000,"station_id":"ce4bhmp2rcd13ifvqgog","pricing_plan_id":"cebpf4jnsgd1na2vs0mg"},{"bike_id":"e6de7295-2b8b-47d7-b458-12db3c5e0b18","system_id":"levelo_inurba_marseille","lat":43.25495,"lon":5.37648,"is_reserved":false,"is_disabled":false,"rental_uris":{"android":"levelo://app?vid=e6de7295-2b8b-47d7-b458-12db3c5e0b18","ios":"levelo://app?vid=e6de7295-2b8b-47d7-b458-12db3c5e0b18"},"vehicle_type_id":"4","last_reported":1725980932,"current_range_meters":38800,"station_id":"ce4bhh12rcd13ifvqff0","pricing_plan_id":"cebpf4jnsgd1na2vs0mg"},{"bike_id":"e60fc3e2-2f0f-4d3d-9c25-711494ab118c","system_id":"levelo_inurba_marseille","lat":43.33026,"lon":5.39047,"is_reserved":false,"is_disabled":false,"rental_uris":{"android":"levelo://app?vid=e60fc3e2-2f0f-4d3d-9c25-711494ab118c","ios":"levelo://app?vid=e60fc3e2-2f0f-4d3d-9c25-711494ab118c"},"vehicle_type_id":"4","last_reported":1725980932,"current_range_meters":19600,"station_id":"ce4bhr92rcd13ifvqhrg","pricing_plan_id":"cebpf4jnsgd1na2vs0mg"},{"bike_id":"401570a4-56da-4bbc-9a7c-b9eaf189c0a4","system_id":"levelo_inurba_marseille","lat":43.29789,"lon":5.39342,"is_reserved":false,"is_disabled":false,"rental_uris":{"android":"levelo://app?vid=401570a4-56da-4bbc-9a7c-b9eaf189c0a4","ios":"levelo://app?vid=401570a4-56da-4bbc-9a7c-b9eaf189c0a4"},"vehicle_type_id":"4","last_reported":1725980932,"current_range_meters":32000,"station_id":"chh1huq6cuj3fo74tm60","pricing_plan_id":"cebpf4jnsgd1na2vs0mg"},{"bike_id":"f1009423-44b9-46e0-916f-a90ebc93de0a","system_id":"levelo_inurba_marseille","lat":43.31858,"lon":5.37405,"is_reserved":false,"is_disabled":false,"rental_uris":{"android":"levelo://app?vid=f1009423-44b9-46e0-916f-a90ebc93de0a","ios":"levelo://app?vid=f1009423-44b9-46e0-916f-a90ebc93de0a"},"vehicle_type_id":"4","last_reported":1725980932,"current_range_meters":16000,"station_id":"ce4bgup2rcd13ifvqco0","pricing_plan_id":"cebpf4jnsgd1na2vs0mg"},{"bike_id":"cc0c3ace-cdd1-4b29-95ce-9bdf6f9db201","system_id":"levelo_inurba_marseille","lat":43.23155,"lon":5.43703,"is_reserved":false,"is_disabled":false,"rental_uris":{"android":"levelo://app?vid=cc0c3ace-cdd1-4b29-95ce-9bdf6f9db201","ios":"levelo://app?vid=cc0c3ace-cdd1-4b29-95ce-9bdf6f9db201"},"vehicle_type_id":"4","last_reported":1725980932,"current_range_meters":35200,"station_id":"ce4bhmp2rcd13ifvqgog","pricing_plan_id":"cebpf4jnsgd1na2vs0mg"},{"bike_id":"ae7d36b6-2750-4975-a317-fa35b47da967","system_id":"levelo_inurba_marseille","lat":43.32476,"lon":5.3656,"is_reserved":false,"is_disabled":false,"rental_uris":{"android":"levelo://app?vid=ae7d36b6-2750-4975-a317-fa35b47da967","ios":"levelo://app?vid=ae7d36b6-2750-4975-a317-fa35b47da967"},"vehicle_type_id":"4","last_reported":1725980932,"current_range_meters":30800,"station_id":"ce4bhs12rcd13ifvqhvg","pricing_plan_id":"cebpf4jnsgd1na2vs0mg"},{"bike_id":"e0a1e916-1797-4207-9bc4-646ebddcbb6b","system_id":"levelo_inurba_marseille","lat":43.29802,"lon":5.3809,"is_reserved":false,"is_disabled":false,"rental_uris":{"android":"levelo://app?vid=e0a1e916-1797-4207-9bc4-646ebddcbb6b","ios":"levelo://app?vid=e0a1e916-1797-4207-9bc4-646ebddcbb6b"},"vehicle_type_id":"4","last_reported":1725980932,"current_range_meters":34000,"station_id":"ce4bhjp2rcd13ifvqg90","pricing_plan_id":"cebpf4jnsgd1na2vs0mg"},{"bike_id":"e9325df9-e72f-4573-a615-b79136d0be44","system_id":"levelo_inurba_marseille","lat":43.27818,"lon":5.40714,"is_reserved":false,"is_disabled":false,"rental_uris":{"android":"levelo://app?vid=e9325df9-e72f-4573-a615-b79136d0be44","ios":"levelo://app?vid=e9325df9-e72f-4573-a615-b79136d0be44"},"vehicle_type_id":"4","last_reported":1725980932,"current_range_meters":10800,"station_id":"ce4bhnh2rcd13ifvqgtg","pricing_plan_id":"cebpf4jnsgd1na2vs0mg"},{"bike_id":"d6130ccb-1215-417e-8bc8-0aa575fc1c14","system_id":"levelo_inurba_marseille","lat":43.3094,"lon":5.40137,"is_reserved":false,"is_disabled":false,"rental_uris":{"android":"levelo://app?vid=d6130ccb-1215-417e-8bc8-0aa575fc1c14","ios":"levelo://app?vid=d6130ccb-1215-417e-8bc8-0aa575fc1c14"},"vehicle_type_id":"4","last_reported":1725980932,"current_range_meters":34800,"station_id":"ce4bgvp2rcd13ifvqct0","pricing_plan_id":"cebpf4jnsgd1na2vs0mg"},{"bike_id":"02dd4317-d808-493d-8c48-1445740a48e6","system_id":"levelo_inurba_marseille","lat":43.28575,"lon":5.39503,"is_reserved":false,"is_disabled":false,"rental_uris":{"android":"levelo://app?vid=02dd4317-d808-493d-8c48-1445740a48e6","ios":"levelo://app?vid=02dd4317-d808-493d-8c48-1445740a48e6"},"vehicle_type_id":"4","last_reported":1725980932,"current_range_meters":6800,"station_id":"ce4bh292rcd13ifvqdg0","pricing_plan_id":"cebpf4jnsgd1na2vs0mg"},{"bike_id":"b5366984-c044-43a5-bd4f-45496bfc4ac7","system_id":"levelo_inurba_marseille","lat":43.28149,"lon":5.4264,"is_reserved":false,"is_disabled":false,"rental_uris":{"android":"levelo://app?vid=b5366984-c044-43a5-bd4f-45496bfc4ac7","ios":"levelo://app?vid=b5366984-c044-43a5-bd4f-45496bfc4ac7"},"vehicle_type_id":"4","last_reported":1725980932,"current_range_meters":3200,"station_id":"ce4bhnh2rcd13ifvqgug","pricing_plan_id":"cebpf4jnsgd1na2vs0mg"},{"bike_id":"4b740380-435b-4ce9-9b96-3da5fb37bac6","system_id":"levelo_inurba_marseille","lat":43.30961,"lon":5.40056,"is_reserved":false,"is_disabled":false,"rental_uris":{"android":"levelo://app?vid=4b740380-435b-4ce9-9b96-3da5fb37bac6","ios":"levelo://app?vid=4b740380-435b-4ce9-9b96-3da5fb37bac6"},"vehicle_type_id":"4","last_reported":1725980932,"current_range_meters":12400,"station_id":"ce4bhpp2rcd13ifvqhgg","pricing_plan_id":"cebpf4jnsgd1na2vs0mg"},{"bike_id":"020ab2c2-8dba-49f7-8b1f-88f08634fa8f","system_id":"levelo_inurba_marseille","lat":43.28411,"lon":5.34983,"is_reserved":false,"is_disabled":false,"rental_uris":{"android":"levelo://app?vid=020ab2c2-8dba-49f7-8b1f-88f08634fa8f","ios":"levelo://app?vid=020ab2c2-8dba-49f7-8b1f-88f08634fa8f"},"vehicle_type_id":"4","last_reported":1725980932,"current_range_meters":35200,"station_id":"ce4bhbh2rcd13ifvqepg","pricing_plan_id":"cebpf4jnsgd1na2vs0mg"},{"bike_id":"76abd6a6-1f68-4128-8c5d-48555b36fafc","system_id":"levelo_inurba_marseille","lat":43.29249,"lon":5.40896,"is_reserved":false,"is_disabled":false,"rental_uris":{"android":"levelo://app?vid=76abd6a6-1f68-4128-8c5d-48555b36fafc","ios":"levelo://app?vid=76abd6a6-1f68-4128-8c5d-48555b36fafc"},"vehicle_type_id":"4","last_reported":1725980932,"current_range_meters":18000,"station_id":"ce4bh192rcd13ifvqdc0","pricing_plan_id":"cebpf4jnsgd1na2vs0mg"},{"bike_id":"e4c5dde6-8e98-455e-8ecf-2b718a6f5fab","system_id":"levelo_inurba_marseille","lat":43.25587,"lon":5.38234,"is_reserved":false,"is_disabled":false,"rental_uris":{"android":"levelo://app?vid=e4c5dde6-8e98-455e-8ecf-2b718a6f5fab","ios":"levelo://app?vid=e4c5dde6-8e98-455e-8ecf-2b718a6f5fab"},"vehicle_type_id":"4","last_reported":1725980932,"current_range_meters":28800,"station_id":"ce4bhih2rcd13ifvqfs0","pricing_plan_id":"cebpf4jnsgd1na2vs0mg"},{"bike_id":"d3c8ea6e-d01d-4d9e-9557-beffc1884ace","system_id":"levelo_inurba_marseille","lat":43.32292,"lon":5.38278,"is_reserved":false,"is_disabled":false,"rental_uris":{"android":"levelo://app?vid=d3c8ea6e-d01d-4d9e-9557-beffc1884ace","ios":"levelo://app?vid=d3c8ea6e-d01d-4d9e-9557-beffc1884ace"},"vehicle_type_id":"4","last_reported":1725980932,"current_range_meters":39200,"station_id":"ce4bhr12rcd13ifvqhqg","pricing_plan_id":"cebpf4jnsgd1na2vs0mg"},{"bike_id":"0aa3eea0-205e-411b-93f0-03a6d12ce70c","system_id":"levelo_inurba_marseille","lat":43.27804,"lon":5.40715,"is_reserved":false,"is_disabled":false,"rental_uris":{"android":"levelo://app?vid=0aa3eea0-205e-411b-93f0-03a6d12ce70c","ios":"levelo://app?vid=0aa3eea0-205e-411b-93f0-03a6d12ce70c"},"vehicle_type_id":"4","last_reported":1725980932,"current_range_meters":28000,"station_id":"ce4bhnh2rcd13ifvqgtg","pricing_plan_id":"cebpf4jnsgd1na2vs0mg"},{"bike_id":"cb118e03-afb5-4944-87b0-432501b15b5c","system_id":"levelo_inurba_marseille","lat":43.2841,"lon":5.34989,"is_reserved":false,"is_disabled":false,"rental_uris":{"android":"levelo://app?vid=cb118e03-afb5-4944-87b0-432501b15b5c","ios":"levelo://app?vid=cb118e03-afb5-4944-87b0-432501b15b5c"},"vehicle_type_id":"4","last_reported":1725980932,"current_range_meters":18000,"station_id":"ce4bhbh2rcd13ifvqepg","pricing_plan_id":"cebpf4jnsgd1na2vs0mg"},{"bike_id":"507f99d3-0b82-4a35-89e2-98eb58769a71","system_id":"levelo_inurba_marseille","lat":43.23195,"lon":5.3555,"is_reserved":false,"is_disabled":false,"rental_uris":{"android":"levelo://app?vid=507f99d3-0b82-4a35-89e2-98eb58769a71","ios":"levelo://app?vid=507f99d3-0b82-4a35-89e2-98eb58769a71"},"vehicle_type_id":"4","last_reported":1725980932,"current_range_meters":16400,"station_id":"ce4bhu92rcd13ifvqi70","pricing_plan_id":"cebpf4jnsgd1na2vs0mg"},{"bike_id":"85d69c31-4379-42a8-add3-9d3a63376f01","system_id":"levelo_inurba_marseille","lat":43.27673,"lon":5.38874,"is_reserved":false,"is_disabled":false,"rental_uris":{"android":"levelo://app?vid=85d69c31-4379-42a8-add3-9d3a63376f01","ios":"levelo://app?vid=85d69c31-4379-42a8-add3-9d3a63376f01"},"vehicle_type_id":"4","last_reported":1725980932,"current_range_meters":25200,"station_id":"ce4bhi12rcd13ifvqfo0","pricing_plan_id":"cebpf4jnsgd1na2vs0mg"},{"bike_id":"d264cdb1-fc9d-4045-9062-0902a22abc56","system_id":"levelo_inurba_marseille","lat":43.25581,"lon":5.38239,"is_reserved":false,"is_disabled":false,"rental_uris":{"android":"levelo://app?vid=d264cdb1-fc9d-4045-9062-0902a22abc56","ios":"levelo://app?vid=d264cdb1-fc9d-4045-9062-0902a22abc56"},"vehicle_type_id":"4","last_reported":1725980932,"current_range_meters":30400,"station_id":"ce4bhih2rcd13ifvqfs0","pricing_plan_id":"cebpf4jnsgd1na2vs0mg"},{"bike_id":"bf43cda2-c25c-43fd-b6bf-a6faf398c7d8","system_id":"levelo_inurba_marseille","lat":43.28269,"lon":5.35062,"is_reserved":false,"is_disabled":false,"rental_uris":{"android":"levelo://app?vid=bf43cda2-c25c-43fd-b6bf-a6faf398c7d8","ios":"levelo://app?vid=bf43cda2-c25c-43fd-b6bf-a6faf398c7d8"},"vehicle_type_id":"4","last_reported":1725980932,"current_range_meters":24000,"station_id":"ce4bhbp2rcd13ifvqerg","pricing_plan_id":"cebpf4jnsgd1na2vs0mg"},{"bike_id":"0d85afe1-d0e4-4a11-b127-a8073f004d8a","system_id":"levelo_inurba_marseille","lat":43.26216,"lon":5.37445,"is_reserved":false,"is_disabled":false,"rental_uris":{"android":"levelo://app?vid=0d85afe1-d0e4-4a11-b127-a8073f004d8a","ios":"levelo://app?vid=0d85afe1-d0e4-4a11-b127-a8073f004d8a"},"vehicle_type_id":"4","last_reported":1725980932,"current_range_meters":32800,"station_id":"ce4bhgp2rcd13ifvqfc0","pricing_plan_id":"cebpf4jnsgd1na2vs0mg"},{"bike_id":"17aeeaa5-1710-4175-92a1-4cac478e7c8a","system_id":"levelo_inurba_marseille","lat":43.24807,"lon":5.37461,"is_reserved":false,"is_disabled":false,"rental_uris":{"android":"levelo://app?vid=17aeeaa5-1710-4175-92a1-4cac478e7c8a","ios":"levelo://app?vid=17aeeaa5-1710-4175-92a1-4cac478e7c8a"},"vehicle_type_id":"4","last_reported":1725980932,"current_range_meters":7200,"station_id":"ce4bhgh2rcd13ifvqfb0","pricing_plan_id":"cebpf4jnsgd1na2vs0mg"},{"bike_id":"36e02e03-11f3-41ac-9b0f-93c4017adc48","system_id":"levelo_inurba_marseille","lat":43.27397,"lon":5.41456,"is_reserved":false,"is_disabled":false,"rental_uris":{"android":"levelo://app?vid=36e02e03-11f3-41ac-9b0f-93c4017adc48","ios":"levelo://app?vid=36e02e03-11f3-41ac-9b0f-93c4017adc48"},"vehicle_type_id":"4","last_reported":1725980932,"current_range_meters":6400,"station_id":"","pricing_plan_id":"cebpf4jnsgd1na2vs0mg"},{"bike_id":"e1155873-fa6b-4dd4-afa5-6221baf3a4b0","system_id":"levelo_inurba_marseille","lat":43.29538,"lon":5.38549,"is_reserved":false,"is_disabled":false,"rental_uris":{"android":"levelo://app?vid=e1155873-fa6b-4dd4-afa5-6221baf3a4b0","ios":"levelo://app?vid=e1155873-fa6b-4dd4-afa5-6221baf3a4b0"},"vehicle_type_id":"4","last_reported":1725980932,"current_range_meters":22800,"station_id":"ce4bgih2rcd13ifvqba0","pricing_plan_id":"cebpf4jnsgd1na2vs0mg"},{"bike_id":"221ab3dc-80f2-4cda-a555-6c71ee9107f6","system_id":"levelo_inurba_marseille","lat":43.29935,"lon":5.36566,"is_reserved":false,"is_disabled":false,"rental_uris":{"android":"levelo://app?vid=221ab3dc-80f2-4cda-a555-6c71ee9107f6","ios":"levelo://app?vid=221ab3dc-80f2-4cda-a555-6c71ee9107f6"},"vehicle_type_id":"4","last_reported":1725980932,"current_range_meters":13600,"station_id":"ce4bgm92rcd13ifvqbr0","pricing_plan_id":"cebpf4jnsgd1na2vs0mg"},{"bike_id":"36973a74-dcb5-42a3-b6ab-222146836943","system_id":"levelo_inurba_marseille","lat":43.31758,"lon":5.39021,"is_reserved":false,"is_disabled":false,"rental_uris":{"android":"levelo://app?vid=36973a74-dcb5-42a3-b6ab-222146836943","ios":"levelo://app?vid=36973a74-dcb5-42a3-b6ab-222146836943"},"vehicle_type_id":"4","last_reported":1725980932,"current_range_meters":3200,"station_id":"ce4bhqp2rcd13ifvqhng","pricing_plan_id":"cebpf4jnsgd1na2vs0mg"},{"bike_id":"41c6d272-049d-4970-bea7-0ba8333657c1","system_id":"levelo_inurba_marseille","lat":43.2315,"lon":5.43711,"is_reserved":false,"is_disabled":false,"rental_uris":{"android":"levelo://app?vid=41c6d272-049d-4970-bea7-0ba8333657c1","ios":"levelo://app?vid=41c6d272-049d-4970-bea7-0ba8333657c1"},"vehicle_type_id":"4","last_reported":1725980932,"current_range_meters":36400,"station_id":"ce4bhmp2rcd13ifvqgog","pricing_plan_id":"cebpf4jnsgd1na2vs0mg"},{"bike_id":"e0c8473a-4d36-4447-8cb1-fae853a09400","system_id":"levelo_inurba_marseille","lat":43.2958,"lon":5.36746,"is_reserved":false,"is_disabled":false,"rental_uris":{"android":"levelo://app?vid=e0c8473a-4d36-4447-8cb1-fae853a09400","ios":"levelo://app?vid=e0c8473a-4d36-4447-8cb1-fae853a09400"},"vehicle_type_id":"4","last_reported":1725980932,"current_range_meters":31200,"station_id":"ce4bgph2rcd13ifvqc2g","pricing_plan_id":"cebpf4jnsgd1na2vs0mg"},{"bike_id":"d0ea76f2-70d6-49ac-a51f-8d4153d4cd05","system_id":"levelo_inurba_marseille","lat":43.2582,"lon":5.39435,"is_reserved":false,"is_disabled":false,"rental_uris":{"android":"levelo://app?vid=d0ea76f2-70d6-49ac-a51f-8d4153d4cd05","ios":"levelo://app?vid=d0ea76f2-70d6-49ac-a51f-8d4153d4cd05"},"vehicle_type_id":"4","last_reported":1725980932,"current_range_meters":16800,"station_id":"ce4bhip2rcd13ifvqft0","pricing_plan_id":"cebpf4jnsgd1na2vs0mg"},{"bike_id":"61a0e46e-2356-4536-89dc-3b7f6dcea82f","system_id":"levelo_inurba_marseille","lat":43.24804,"lon":5.374564,"is_reserved":false,"is_disabled":false,"rental_uris":{"android":"levelo://app?vid=61a0e46e-2356-4536-89dc-3b7f6dcea82f","ios":"levelo://app?vid=61a0e46e-2356-4536-89dc-3b7f6dcea82f"},"vehicle_type_id":"4","last_reported":1725980932,"current_range_meters":7200,"station_id":"ce4bhgh2rcd13ifvqfa0","pricing_plan_id":"cebpf4jnsgd1na2vs0mg"},{"bike_id":"4e5cc6a2-1434-4a34-a27a-69549460b833","system_id":"levelo_inurba_marseille","lat":43.317627,"lon":5.390109,"is_reserved":false,"is_disabled":false,"rental_uris":{"android":"levelo://app?vid=4e5cc6a2-1434-4a34-a27a-69549460b833","ios":"levelo://app?vid=4e5cc6a2-1434-4a34-a27a-69549460b833"},"vehicle_type_id":"4","last_reported":1725980932,"current_range_meters":10800,"station_id":"ce4bhqp2rcd13ifvqhng","pricing_plan_id":"cebpf4jnsgd1na2vs0mg"},{"bike_id":"19711734-9d62-4384-99c7-a770e12575ab","system_id":"levelo_inurba_marseille","lat":43.28446,"lon":5.392,"is_reserved":false,"is_disabled":false,"rental_uris":{"android":"levelo://app?vid=19711734-9d62-4384-99c7-a770e12575ab","ios":"levelo://app?vid=19711734-9d62-4384-99c7-a770e12575ab"},"vehicle_type_id":"4","last_reported":1725980932,"current_range_meters":6800,"station_id":"ce4bhoh2rcd13ifvqh5g","pricing_plan_id":"cebpf4jnsgd1na2vs0mg"},{"bike_id":"83d91187-0e5d-4449-94c3-2adf02a5028b","system_id":"levelo_inurba_marseille","lat":43.27377,"lon":5.36258,"is_reserved":false,"is_disabled":false,"rental_uris":{"android":"levelo://app?vid=83d91187-0e5d-4449-94c3-2adf02a5028b","ios":"levelo://app?vid=83d91187-0e5d-4449-94c3-2adf02a5028b"},"vehicle_type_id":"4","last_reported":1725980932,"current_range_meters":35200,"station_id":"ce4bhbh2rcd13ifvqeo0","pricing_plan_id":"cebpf4jnsgd1na2vs0mg"},{"bike_id":"5876c5ef-9fac-478d-bd3c-ea1780c21005","system_id":"levelo_inurba_marseille","lat":43.33762,"lon":5.3745,"is_reserved":false,"is_disabled":false,"rental_uris":{"android":"levelo://app?vid=5876c5ef-9fac-478d-bd3c-ea1780c21005","ios":"levelo://app?vid=5876c5ef-9fac-478d-bd3c-ea1780c21005"},"vehicle_type_id":"4","last_reported":1725980932,"current_range_meters":36400,"station_id":"","pricing_plan_id":"cebpf4jnsgd1na2vs0mg"},{"bike_id":"3b377f14-542d-4225-99d6-433d9658447a","system_id":"levelo_inurba_marseille","lat":43.30251,"lon":5.40055,"is_reserved":false,"is_disabled":false,"rental_uris":{"android":"levelo://app?vid=3b377f14-542d-4225-99d6-433d9658447a","ios":"levelo://app?vid=3b377f14-542d-4225-99d6-433d9658447a"},"vehicle_type_id":"4","last_reported":1725980932,"current_range_meters":26000,"station_id":"ce4bgvh2rcd13ifvqcs0","pricing_plan_id":"cebpf4jnsgd1na2vs0mg"},{"bike_id":"e1933e96-09b7-4360-9ba1-378336e55d86","system_id":"levelo_inurba_marseille","lat":43.31072,"lon":5.38351,"is_reserved":false,"is_disabled":false,"rental_uris":{"android":"levelo://app?vid=e1933e96-09b7-4360-9ba1-378336e55d86","ios":"levelo://app?vid=e1933e96-09b7-4360-9ba1-378336e55d86"},"vehicle_type_id":"4","last_reported":1725980932,"current_range_meters":14400,"station_id":"ce4bgv92rcd13ifvqcr0","pricing_plan_id":"cebpf4jnsgd1na2vs0mg"},{"bike_id":"656ce5e7-25aa-4289-a732-a117a17f7803","system_id":"levelo_inurba_marseille","lat":43.32291,"lon":5.38274,"is_reserved":false,"is_disabled":false,"rental_uris":{"android":"levelo://app?vid=656ce5e7-25aa-4289-a732-a117a17f7803","ios":"levelo://app?vid=656ce5e7-25aa-4289-a732-a117a17f7803"},"vehicle_type_id":"4","last_reported":1725980932,"current_range_meters":39200,"station_id":"ce4bhr12rcd13ifvqhqg","pricing_plan_id":"cebpf4jnsgd1na2vs0mg"},{"bike_id":"94183acb-4801-4763-bc67-07ba236b371a","system_id":"levelo_inurba_marseille","lat":43.26209,"lon":5.37444,"is_reserved":false,"is_disabled":false,"rental_uris":{"android":"levelo://app?vid=94183acb-4801-4763-bc67-07ba236b371a","ios":"levelo://app?vid=94183acb-4801-4763-bc67-07ba236b371a"},"vehicle_type_id":"4","last_reported":1725980932,"current_range_meters":15200,"station_id":"ce4bhgp2rcd13ifvqfc0","pricing_plan_id":"cebpf4jnsgd1na2vs0mg"},{"bike_id":"0df07e36-e0a0-4ebe-8f67-562ed5aeed0d","system_id":"levelo_inurba_marseille","lat":43.23184,"lon":5.39977,"is_reserved":false,"is_disabled":false,"rental_uris":{"android":"levelo://app?vid=0df07e36-e0a0-4ebe-8f67-562ed5aeed0d","ios":"levelo://app?vid=0df07e36-e0a0-4ebe-8f67-562ed5aeed0d"},"vehicle_type_id":"4","last_reported":1725980932,"current_range_meters":10000,"station_id":"ce4bhn12rcd13ifvqgqg","pricing_plan_id":"cebpf4jnsgd1na2vs0mg"},{"bike_id":"c887e4ae-5975-45db-9e51-039202bd71fe","system_id":"levelo_inurba_marseille","lat":43.26203,"lon":5.37929,"is_reserved":false,"is_disabled":false,"rental_uris":{"android":"levelo://app?vid=c887e4ae-5975-45db-9e51-039202bd71fe","ios":"levelo://app?vid=c887e4ae-5975-45db-9e51-039202bd71fe"},"vehicle_type_id":"4","last_reported":1725980932,"current_range_meters":32000,"station_id":"ce4bhjp2rcd13ifvqg90","pricing_plan_id":"cebpf4jnsgd1na2vs0mg"},{"bike_id":"8fc69e6a-7538-4511-8cd7-6fc12edb1f64","system_id":"levelo_inurba_marseille","lat":43.23968,"lon":5.36633,"is_reserved":false,"is_disabled":false,"rental_uris":{"android":"levelo://app?vid=8fc69e6a-7538-4511-8cd7-6fc12edb1f64","ios":"levelo://app?vid=8fc69e6a-7538-4511-8cd7-6fc12edb1f64"},"vehicle_type_id":"4","last_reported":1725980932,"current_range_meters":26000,"station_id":"ce4bhi12rcd13ifvqfp0","pricing_plan_id":"cebpf4jnsgd1na2vs0mg"},{"bike_id":"aea824c8-03b1-40c1-a12b-40545fa99cde","system_id":"levelo_inurba_marseille","lat":43.2996,"lon":5.41321,"is_reserved":false,"is_disabled":false,"rental_uris":{"android":"levelo://app?vid=aea824c8-03b1-40c1-a12b-40545fa99cde","ios":"levelo://app?vid=aea824c8-03b1-40c1-a12b-40545fa99cde"},"vehicle_type_id":"4","last_reported":1725980932,"current_range_meters":35200,"station_id":"ce4bhp12rcd13ifvqh9g","pricing_plan_id":"cebpf4jnsgd1na2vs0mg"},{"bike_id":"02217918-1263-4407-b32c-9dc7e80d824d","system_id":"levelo_inurba_marseille","lat":43.30212,"lon":5.38958,"is_reserved":false,"is_disabled":false,"rental_uris":{"android":"levelo://app?vid=02217918-1263-4407-b32c-9dc7e80d824d","ios":"levelo://app?vid=02217918-1263-4407-b32c-9dc7e80d824d"},"vehicle_type_id":"4","last_reported":1725980932,"current_range_meters":20000,"station_id":"","pricing_plan_id":"cebpf4jnsgd1na2vs0mg"},{"bike_id":"6bda959c-09d2-4d81-9acf-8b310fb14aa6","system_id":"levelo_inurba_marseille","lat":43.26067,"lon":5.39396,"is_reserved":false,"is_disabled":false,"rental_uris":{"android":"levelo://app?vid=6bda959c-09d2-4d81-9acf-8b310fb14aa6","ios":"levelo://app?vid=6bda959c-09d2-4d81-9acf-8b310fb14aa6"},"vehicle_type_id":"4","last_reported":1725980932,"current_range_meters":29600,"station_id":"ce4bhh92rcd13ifvqfj0","pricing_plan_id":"cebpf4jnsgd1na2vs0mg"},{"bike_id":"d7dd2163-3cf1-4291-a575-d21665abc9b0","system_id":"levelo_inurba_marseille","lat":43.32488,"lon":5.36575,"is_reserved":false,"is_disabled":false,"rental_uris":{"android":"levelo://app?vid=d7dd2163-3cf1-4291-a575-d21665abc9b0","ios":"levelo://app?vid=d7dd2163-3cf1-4291-a575-d21665abc9b0"},"vehicle_type_id":"4","last_reported":1725980932,"current_range_meters":27200,"station_id":"ce4bhs12rcd13ifvqhvg","pricing_plan_id":"cebpf4jnsgd1na2vs0mg"},{"bike_id":"fbfd6dd7-2c07-4e31-996c-10f740d8c686","system_id":"levelo_inurba_marseille","lat":43.25829,"lon":5.39433,"is_reserved":false,"is_disabled":false,"rental_uris":{"android":"levelo://app?vid=fbfd6dd7-2c07-4e31-996c-10f740d8c686","ios":"levelo://app?vid=fbfd6dd7-2c07-4e31-996c-10f740d8c686"},"vehicle_type_id":"4","last_reported":1725980932,"current_range_meters":38800,"station_id":"ce4bhip2rcd13ifvqft0","pricing_plan_id":"cebpf4jnsgd1na2vs0mg"},{"bike_id":"e54d67f8-7463-412f-9975-9afbfed7a678","system_id":"levelo_inurba_marseille","lat":43.27563,"lon":5.38422,"is_reserved":false,"is_disabled":false,"rental_uris":{"android":"levelo://app?vid=e54d67f8-7463-412f-9975-9afbfed7a678","ios":"levelo://app?vid=e54d67f8-7463-412f-9975-9afbfed7a678"},"vehicle_type_id":"4","last_reported":1725980932,"current_range_meters":6400,"station_id":"ce4bhh92rcd13ifvqfi0","pricing_plan_id":"cebpf4jnsgd1na2vs0mg"},{"bike_id":"55d25c1a-c550-47a7-9bf9-a2c1900fed82","system_id":"levelo_inurba_marseille","lat":43.3188,"lon":5.4074,"is_reserved":false,"is_disabled":false,"rental_uris":{"android":"levelo://app?vid=55d25c1a-c550-47a7-9bf9-a2c1900fed82","ios":"levelo://app?vid=55d25c1a-c550-47a7-9bf9-a2c1900fed82"},"vehicle_type_id":"4","last_reported":1725980932,"current_range_meters":17200,"station_id":"ce4bhq12rcd13ifvqhig","pricing_plan_id":"cebpf4jnsgd1na2vs0mg"},{"bike_id":"fe86a6c3-7971-4fef-b76a-7f8ba82dfd2c","system_id":"levelo_inurba_marseille","lat":43.262054,"lon":5.374417,"is_reserved":false,"is_disabled":false,"rental_uris":{"android":"levelo://app?vid=fe86a6c3-7971-4fef-b76a-7f8ba82dfd2c","ios":"levelo://app?vid=fe86a6c3-7971-4fef-b76a-7f8ba82dfd2c"},"vehicle_type_id":"4","last_reported":1725980932,"current_range_meters":22800,"station_id":"ce4bhgp2rcd13ifvqfc0","pricing_plan_id":"cebpf4jnsgd1na2vs0mg"},{"bike_id":"efb55d1c-5684-4796-b748-64b9af474881","system_id":"levelo_inurba_marseille","lat":43.239624,"lon":5.366279,"is_reserved":false,"is_disabled":false,"rental_uris":{"android":"levelo://app?vid=efb55d1c-5684-4796-b748-64b9af474881","ios":"levelo://app?vid=efb55d1c-5684-4796-b748-64b9af474881"},"vehicle_type_id":"4","last_reported":1725980932,"current_range_meters":3200,"station_id":"ce4bhi12rcd13ifvqfp0","pricing_plan_id":"cebpf4jnsgd1na2vs0mg"},{"bike_id":"5cd99c27-758a-4495-806e-1142037478b3","system_id":"levelo_inurba_marseille","lat":43.24659,"lon":5.38171,"is_reserved":false,"is_disabled":false,"rental_uris":{"android":"levelo://app?vid=5cd99c27-758a-4495-806e-1142037478b3","ios":"levelo://app?vid=5cd99c27-758a-4495-806e-1142037478b3"},"vehicle_type_id":"4","last_reported":1725980932,"current_range_meters":6800,"station_id":"ce4bhih2rcd13ifvqfr0","pricing_plan_id":"cebpf4jnsgd1na2vs0mg"},{"bike_id":"086a33d3-08d8-45cb-acac-67a8fb06615f","system_id":"levelo_inurba_marseille","lat":43.30144,"lon":5.38077,"is_reserved":false,"is_disabled":false,"rental_uris":{"android":"levelo://app?vid=086a33d3-08d8-45cb-acac-67a8fb06615f","ios":"levelo://app?vid=086a33d3-08d8-45cb-acac-67a8fb06615f"},"vehicle_type_id":"4","last_reported":1725980932,"current_range_meters":33200,"station_id":"ce4bgjp2rcd13ifvqbh0","pricing_plan_id":"cebpf4jnsgd1na2vs0mg"},{"bike_id":"17fa69cf-9dd7-4ccf-b803-ccbad734e3da","system_id":"levelo_inurba_marseille","lat":43.25581,"lon":5.38227,"is_reserved":false,"is_disabled":false,"rental_uris":{"android":"levelo://app?vid=17fa69cf-9dd7-4ccf-b803-ccbad734e3da","ios":"levelo://app?vid=17fa69cf-9dd7-4ccf-b803-ccbad734e3da"},"vehicle_type_id":"4","last_reported":1725980932,"current_range_meters":30800,"station_id":"ce4bhih2rcd13ifvqfs0","pricing_plan_id":"cebpf4jnsgd1na2vs0mg"},{"bike_id":"40737a4d-4cd4-40df-a7e4-bd6968c94810","system_id":"levelo_inurba_marseille","lat":43.246552,"lon":5.381695,"is_reserved":false,"is_disabled":false,"rental_uris":{"android":"levelo://app?vid=40737a4d-4cd4-40df-a7e4-bd6968c94810","ios":"levelo://app?vid=40737a4d-4cd4-40df-a7e4-bd6968c94810"},"vehicle_type_id":"4","last_reported":1725980932,"current_range_meters":17600,"station_id":"ce4bhih2rcd13ifvqfr0","pricing_plan_id":"cebpf4jnsgd1na2vs0mg"},{"bike_id":"a00ea7d1-cf69-49e3-8c24-be0d60c3c943","system_id":"levelo_inurba_marseille","lat":43.28424,"lon":5.34993,"is_reserved":false,"is_disabled":false,"rental_uris":{"android":"levelo://app?vid=a00ea7d1-cf69-49e3-8c24-be0d60c3c943","ios":"levelo://app?vid=a00ea7d1-cf69-49e3-8c24-be0d60c3c943"},"vehicle_type_id":"4","last_reported":1725980932,"current_range_meters":26800,"station_id":"ce4bhbh2rcd13ifvqepg","pricing_plan_id":"cebpf4jnsgd1na2vs0mg"},{"bike_id":"c8e0fcb6-1d3f-4d83-b861-1f56e6b3ab2c","system_id":"levelo_inurba_marseille","lat":43.32297,"lon":5.38269,"is_reserved":false,"is_disabled":false,"rental_uris":{"android":"levelo://app?vid=c8e0fcb6-1d3f-4d83-b861-1f56e6b3ab2c","ios":"levelo://app?vid=c8e0fcb6-1d3f-4d83-b861-1f56e6b3ab2c"},"vehicle_type_id":"4","last_reported":1725980932,"current_range_meters":36000,"station_id":"ce4bhr12rcd13ifvqhqg","pricing_plan_id":"cebpf4jnsgd1na2vs0mg"},{"bike_id":"af056626-880d-4d67-8d35-afb457d867da","system_id":"levelo_inurba_marseille","lat":43.29618,"lon":5.37722,"is_reserved":false,"is_disabled":false,"rental_uris":{"android":"levelo://app?vid=af056626-880d-4d67-8d35-afb457d867da","ios":"levelo://app?vid=af056626-880d-4d67-8d35-afb457d867da"},"vehicle_type_id":"4","last_reported":1725980932,"current_range_meters":39200,"station_id":"ce4bgi92rcd13ifvqb90","pricing_plan_id":"cebpf4jnsgd1na2vs0mg"},{"bike_id":"48ca542d-5718-4d92-98b5-904a7e1bf2dc","system_id":"levelo_inurba_marseille","lat":43.24545,"lon":5.39526,"is_reserved":false,"is_disabled":false,"rental_uris":{"android":"levelo://app?vid=48ca542d-5718-4d92-98b5-904a7e1bf2dc","ios":"levelo://app?vid=48ca542d-5718-4d92-98b5-904a7e1bf2dc"},"vehicle_type_id":"4","last_reported":1725980932,"current_range_meters":20000,"station_id":"ce4bhlp2rcd13ifvqgjg","pricing_plan_id":"cebpf4jnsgd1na2vs0mg"},{"bike_id":"42302304-647e-43c3-9c52-8cb483aa8554","system_id":"levelo_inurba_marseille","lat":43.31758,"lon":5.39018,"is_reserved":false,"is_disabled":false,"rental_uris":{"android":"levelo://app?vid=42302304-647e-43c3-9c52-8cb483aa8554","ios":"levelo://app?vid=42302304-647e-43c3-9c52-8cb483aa8554"},"vehicle_type_id":"4","last_reported":1725980932,"current_range_meters":16400,"station_id":"ce4bhqp2rcd13ifvqhng","pricing_plan_id":"cebpf4jnsgd1na2vs0mg"},{"bike_id":"09ade094-b065-47dd-a5be-6a4586819c55","system_id":"levelo_inurba_marseille","lat":43.302041,"lon":5.366433,"is_reserved":false,"is_disabled":false,"rental_uris":{"android":"levelo://app?vid=09ade094-b065-47dd-a5be-6a4586819c55","ios":"levelo://app?vid=09ade094-b065-47dd-a5be-6a4586819c55"},"vehicle_type_id":"4","last_reported":1725980932,"current_range_meters":38800,"station_id":"ce4bgrh2rcd13ifvqc8g","pricing_plan_id":"cebpf4jnsgd1na2vs0mg"},{"bike_id":"4904a8ef-28ad-4b98-b473-07d13c2d62c9","system_id":"levelo_inurba_marseille","lat":43.284443,"lon":5.392,"is_reserved":false,"is_disabled":false,"rental_uris":{"android":"levelo://app?vid=4904a8ef-28ad-4b98-b473-07d13c2d62c9","ios":"levelo://app?vid=4904a8ef-28ad-4b98-b473-07d13c2d62c9"},"vehicle_type_id":"4","last_reported":1725980932,"current_range_meters":24400,"station_id":"ce4bhoh2rcd13ifvqh5g","pricing_plan_id":"cebpf4jnsgd1na2vs0mg"},{"bike_id":"706c794a-1660-4b9d-af24-924000b6de39","system_id":"levelo_inurba_marseille","lat":43.32487,"lon":5.36567,"is_reserved":false,"is_disabled":false,"rental_uris":{"android":"levelo://app?vid=706c794a-1660-4b9d-af24-924000b6de39","ios":"levelo://app?vid=706c794a-1660-4b9d-af24-924000b6de39"},"vehicle_type_id":"4","last_reported":1725980932,"current_range_meters":16000,"station_id":"ce4bhs12rcd13ifvqhvg","pricing_plan_id":"cebpf4jnsgd1na2vs0mg"},{"bike_id":"2d7dbd25-3f0c-4d35-bb61-e5419133369b","system_id":"levelo_inurba_marseille","lat":43.23189,"lon":5.39979,"is_reserved":false,"is_disabled":false,"rental_uris":{"android":"levelo://app?vid=2d7dbd25-3f0c-4d35-bb61-e5419133369b","ios":"levelo://app?vid=2d7dbd25-3f0c-4d35-bb61-e5419133369b"},"vehicle_type_id":"4","last_reported":1725980932,"current_range_meters":10000,"station_id":"ce4bhn12rcd13ifvqgqg","pricing_plan_id":"cebpf4jnsgd1na2vs0mg"},{"bike_id":"89da03dd-b11d-4d69-9bbb-007fe1be6c1f","system_id":"levelo_inurba_marseille","lat":43.26218,"lon":5.37441,"is_reserved":false,"is_disabled":false,"rental_uris":{"android":"levelo://app?vid=89da03dd-b11d-4d69-9bbb-007fe1be6c1f","ios":"levelo://app?vid=89da03dd-b11d-4d69-9bbb-007fe1be6c1f"},"vehicle_type_id":"4","last_reported":1725980932,"current_range_meters":14400,"station_id":"ce4bhgp2rcd13ifvqfc0","pricing_plan_id":"cebpf4jnsgd1na2vs0mg"},{"bike_id":"c83c54b0-7781-4534-b10b-3677ea15a992","system_id":"levelo_inurba_marseille","lat":43.26805,"lon":5.40268,"is_reserved":false,"is_disabled":false,"rental_uris":{"android":"levelo://app?vid=c83c54b0-7781-4534-b10b-3677ea15a992","ios":"levelo://app?vid=c83c54b0-7781-4534-b10b-3677ea15a992"},"vehicle_type_id":"4","last_reported":1725980932,"current_range_meters":16000,"station_id":"ce501612rcd8frsf0b60","pricing_plan_id":"cebpf4jnsgd1na2vs0mg"},{"bike_id":"b2aae679-3e99-40e2-820f-725946de1e45","system_id":"levelo_inurba_marseille","lat":43.3171,"lon":5.43701,"is_reserved":false,"is_disabled":false,"rental_uris":{"android":"levelo://app?vid=b2aae679-3e99-40e2-820f-725946de1e45","ios":"levelo://app?vid=b2aae679-3e99-40e2-820f-725946de1e45"},"vehicle_type_id":"4","last_reported":1725980932,"current_range_meters":15200,"station_id":"ce4bhp92rcd13ifvqhcg","pricing_plan_id":"cebpf4jnsgd1na2vs0mg"},{"bike_id":"5ff204a1-1011-4000-a1aa-df956b23df49","system_id":"levelo_inurba_marseille","lat":43.30937,"lon":5.40143,"is_reserved":false,"is_disabled":false,"rental_uris":{"android":"levelo://app?vid=5ff204a1-1011-4000-a1aa-df956b23df49","ios":"levelo://app?vid=5ff204a1-1011-4000-a1aa-df956b23df49"},"vehicle_type_id":"4","last_reported":1725980932,"current_range_meters":6000,"station_id":"ce4bgvp2rcd13ifvqct0","pricing_plan_id":"cebpf4jnsgd1na2vs0mg"},{"bike_id":"fc6dc0e2-42aa-4baa-82f9-7acbdbba2aa0","system_id":"levelo_inurba_marseille","lat":43.31325,"lon":5.397,"is_reserved":false,"is_disabled":false,"rental_uris":{"android":"levelo://app?vid=fc6dc0e2-42aa-4baa-82f9-7acbdbba2aa0","ios":"levelo://app?vid=fc6dc0e2-42aa-4baa-82f9-7acbdbba2aa0"},"vehicle_type_id":"4","last_reported":1725980932,"current_range_meters":27200,"station_id":"ce4bgvp2rcd13ifvqcu0","pricing_plan_id":"cebpf4jnsgd1na2vs0mg"},{"bike_id":"62eec9be-5185-482e-87f1-3a0f1bf32cc6","system_id":"levelo_inurba_marseille","lat":43.26497,"lon":5.39545,"is_reserved":false,"is_disabled":false,"rental_uris":{"android":"levelo://app?vid=62eec9be-5185-482e-87f1-3a0f1bf32cc6","ios":"levelo://app?vid=62eec9be-5185-482e-87f1-3a0f1bf32cc6"},"vehicle_type_id":"4","last_reported":1725980932,"current_range_meters":16800,"station_id":"ce4bhi12rcd13ifvqfq0","pricing_plan_id":"cebpf4jnsgd1na2vs0mg"},{"bike_id":"959dc22a-4a15-4824-bf12-7cfceff1effb","system_id":"levelo_inurba_marseille","lat":43.30531,"lon":5.38425,"is_reserved":false,"is_disabled":false,"rental_uris":{"android":"levelo://app?vid=959dc22a-4a15-4824-bf12-7cfceff1effb","ios":"levelo://app?vid=959dc22a-4a15-4824-bf12-7cfceff1effb"},"vehicle_type_id":"4","last_reported":1725980932,"current_range_meters":24800,"station_id":"ce4bgg92rcd13ifvqb30","pricing_plan_id":"cebpf4jnsgd1na2vs0mg"},{"bike_id":"55145fae-a8cb-41b8-a97f-efce85464954","system_id":"levelo_inurba_marseille","lat":43.33752,"lon":5.37445,"is_reserved":false,"is_disabled":false,"rental_uris":{"android":"levelo://app?vid=55145fae-a8cb-41b8-a97f-efce85464954","ios":"levelo://app?vid=55145fae-a8cb-41b8-a97f-efce85464954"},"vehicle_type_id":"4","last_reported":1725980932,"current_range_meters":35200,"station_id":"","pricing_plan_id":"cebpf4jnsgd1na2vs0mg"},{"bike_id":"c866b693-92a0-48b4-b384-94c72c2451bc","system_id":"levelo_inurba_marseille","lat":43.305479,"lon":5.365672,"is_reserved":false,"is_disabled":false,"rental_uris":{"android":"levelo://app?vid=c866b693-92a0-48b4-b384-94c72c2451bc","ios":"levelo://app?vid=c866b693-92a0-48b4-b384-94c72c2451bc"},"vehicle_type_id":"4","last_reported":1725980932,"current_range_meters":17200,"station_id":"ce4bgs12rcd13ifvqcag","pricing_plan_id":"cebpf4jnsgd1na2vs0mg"},{"bike_id":"f400d370-a20e-4ced-86f0-64f62510749c","system_id":"levelo_inurba_marseille","lat":43.3237,"lon":5.38926,"is_reserved":false,"is_disabled":false,"rental_uris":{"android":"levelo://app?vid=f400d370-a20e-4ced-86f0-64f62510749c","ios":"levelo://app?vid=f400d370-a20e-4ced-86f0-64f62510749c"},"vehicle_type_id":"4","last_reported":1725980932,"current_range_meters":18000,"station_id":"","pricing_plan_id":"cebpf4jnsgd1na2vs0mg"},{"bike_id":"328cc200-bdb2-4ca6-9d3e-0b6e446dc0a8","system_id":"levelo_inurba_marseille","lat":43.29599,"lon":5.38103,"is_reserved":false,"is_disabled":false,"rental_uris":{"android":"levelo://app?vid=328cc200-bdb2-4ca6-9d3e-0b6e446dc0a8","ios":"levelo://app?vid=328cc200-bdb2-4ca6-9d3e-0b6e446dc0a8"},"vehicle_type_id":"4","last_reported":1725980932,"current_range_meters":28000,"station_id":"ce4bgl12rcd13ifvqbo0","pricing_plan_id":"cebpf4jnsgd1na2vs0mg"},{"bike_id":"93c902bb-cd8c-4246-af04-357d2719ca1c","system_id":"levelo_inurba_marseille","lat":43.26061,"lon":5.39399,"is_reserved":false,"is_disabled":false,"rental_uris":{"android":"levelo://app?vid=93c902bb-cd8c-4246-af04-357d2719ca1c","ios":"levelo://app?vid=93c902bb-cd8c-4246-af04-357d2719ca1c"},"vehicle_type_id":"4","last_reported":1725980932,"current_range_meters":5600,"station_id":"ce4bhh92rcd13ifvqfj0","pricing_plan_id":"cebpf4jnsgd1na2vs0mg"},{"bike_id":"de200fb5-2300-4230-80fe-3034f7c3a891","system_id":"levelo_inurba_marseille","lat":43.28947,"lon":5.36398,"is_reserved":false,"is_disabled":false,"rental_uris":{"android":"levelo://app?vid=de200fb5-2300-4230-80fe-3034f7c3a891","ios":"levelo://app?vid=de200fb5-2300-4230-80fe-3034f7c3a891"},"vehicle_type_id":"4","last_reported":1725980932,"current_range_meters":27600,"station_id":"ce4bhc92rcd13ifvqetg","pricing_plan_id":"cebpf4jnsgd1na2vs0mg"},{"bike_id":"d95500de-e38b-4405-9bbd-bd92a1b0608a","system_id":"levelo_inurba_marseille","lat":43.24391,"lon":5.37063,"is_reserved":false,"is_disabled":false,"rental_uris":{"android":"levelo://app?vid=d95500de-e38b-4405-9bbd-bd92a1b0608a","ios":"levelo://app?vid=d95500de-e38b-4405-9bbd-bd92a1b0608a"},"vehicle_type_id":"4","last_reported":1725980932,"current_range_meters":20800,"station_id":"ce4bhhh2rcd13ifvqfk0","pricing_plan_id":"cebpf4jnsgd1na2vs0mg"},{"bike_id":"f03f6359-2862-4c38-ade4-de2f32ba1374","system_id":"levelo_inurba_marseille","lat":43.23181,"lon":5.39982,"is_reserved":false,"is_disabled":false,"rental_uris":{"android":"levelo://app?vid=f03f6359-2862-4c38-ade4-de2f32ba1374","ios":"levelo://app?vid=f03f6359-2862-4c38-ade4-de2f32ba1374"},"vehicle_type_id":"4","last_reported":1725980932,"current_range_meters":28000,"station_id":"ce4bhn12rcd13ifvqgqg","pricing_plan_id":"cebpf4jnsgd1na2vs0mg"},{"bike_id":"baeaf601-95e0-4270-b17f-24437198699b","system_id":"levelo_inurba_marseille","lat":43.25581,"lon":5.38228,"is_reserved":false,"is_disabled":false,"rental_uris":{"android":"levelo://app?vid=baeaf601-95e0-4270-b17f-24437198699b","ios":"levelo://app?vid=baeaf601-95e0-4270-b17f-24437198699b"},"vehicle_type_id":"4","last_reported":1725980932,"current_range_meters":26000,"station_id":"ce4bhih2rcd13ifvqfs0","pricing_plan_id":"cebpf4jnsgd1na2vs0mg"},{"bike_id":"5be629de-1a05-4e45-bbc4-184075280e2c","system_id":"levelo_inurba_marseille","lat":43.284062,"lon":5.349803,"is_reserved":false,"is_disabled":false,"rental_uris":{"android":"levelo://app?vid=5be629de-1a05-4e45-bbc4-184075280e2c","ios":"levelo://app?vid=5be629de-1a05-4e45-bbc4-184075280e2c"},"vehicle_type_id":"4","last_reported":1725980932,"current_range_meters":8800,"station_id":"ce4bhbh2rcd13ifvqepg","pricing_plan_id":"cebpf4jnsgd1na2vs0mg"},{"bike_id":"8542bf91-30ba-4b78-a115-4736886b8fdc","system_id":"levelo_inurba_marseille","lat":43.32366,"lon":5.38875,"is_reserved":false,"is_disabled":false,"rental_uris":{"android":"levelo://app?vid=8542bf91-30ba-4b78-a115-4736886b8fdc","ios":"levelo://app?vid=8542bf91-30ba-4b78-a115-4736886b8fdc"},"vehicle_type_id":"4","last_reported":1725980932,"current_range_meters":10000,"station_id":"ce4bhqp2rcd13ifvqhog","pricing_plan_id":"cebpf4jnsgd1na2vs0mg"},{"bike_id":"ff9b2947-8898-4196-bdda-c5bc9d879360","system_id":"levelo_inurba_marseille","lat":43.26672,"lon":5.38265,"is_reserved":false,"is_disabled":false,"rental_uris":{"android":"levelo://app?vid=ff9b2947-8898-4196-bdda-c5bc9d879360","ios":"levelo://app?vid=ff9b2947-8898-4196-bdda-c5bc9d879360"},"vehicle_type_id":"4","last_reported":1725980932,"current_range_meters":5600,"station_id":"ce4bhg92rcd13ifvqf90","pricing_plan_id":"cebpf4jnsgd1na2vs0mg"},{"bike_id":"9c062e3e-580c-428c-b779-2c61f7e08c1b","system_id":"levelo_inurba_marseille","lat":43.28155,"lon":5.42646,"is_reserved":false,"is_disabled":false,"rental_uris":{"android":"levelo://app?vid=9c062e3e-580c-428c-b779-2c61f7e08c1b","ios":"levelo://app?vid=9c062e3e-580c-428c-b779-2c61f7e08c1b"},"vehicle_type_id":"4","last_reported":1725980932,"current_range_meters":17600,"station_id":"ce4bhnh2rcd13ifvqgug","pricing_plan_id":"cebpf4jnsgd1na2vs0mg"},{"bike_id":"8d04c572-6ea0-4c7a-a251-3dd9f03de03c","system_id":"levelo_inurba_marseille","lat":43.297128,"lon":5.36605,"is_reserved":false,"is_disabled":false,"rental_uris":{"android":"levelo://app?vid=8d04c572-6ea0-4c7a-a251-3dd9f03de03c","ios":"levelo://app?vid=8d04c572-6ea0-4c7a-a251-3dd9f03de03c"},"vehicle_type_id":"4","last_reported":1725980932,"current_range_meters":32000,"station_id":"ce4bgn12rcd13ifvqbt0","pricing_plan_id":"cebpf4jnsgd1na2vs0mg"},{"bike_id":"22d46f4d-d996-4eea-9ff4-ad9eb55b088d","system_id":"levelo_inurba_marseille","lat":43.27808,"lon":5.40714,"is_reserved":false,"is_disabled":false,"rental_uris":{"android":"levelo://app?vid=22d46f4d-d996-4eea-9ff4-ad9eb55b088d","ios":"levelo://app?vid=22d46f4d-d996-4eea-9ff4-ad9eb55b088d"},"vehicle_type_id":"4","last_reported":1725980932,"current_range_meters":14400,"station_id":"ce4bhnh2rcd13ifvqgtg","pricing_plan_id":"cebpf4jnsgd1na2vs0mg"},{"bike_id":"42f12781-fdb3-42e0-a8f2-79ec1da5631d","system_id":"levelo_inurba_marseille","lat":43.28412,"lon":5.34986,"is_reserved":false,"is_disabled":false,"rental_uris":{"android":"levelo://app?vid=42f12781-fdb3-42e0-a8f2-79ec1da5631d","ios":"levelo://app?vid=42f12781-fdb3-42e0-a8f2-79ec1da5631d"},"vehicle_type_id":"4","last_reported":1725980932,"current_range_meters":20400,"station_id":"ce4bhbh2rcd13ifvqepg","pricing_plan_id":"cebpf4jnsgd1na2vs0mg"},{"bike_id":"b48ad0d7-a11c-4659-aff2-414b3c449b92","system_id":"levelo_inurba_marseille","lat":43.25823,"lon":5.3943,"is_reserved":false,"is_disabled":false,"rental_uris":{"android":"levelo://app?vid=b48ad0d7-a11c-4659-aff2-414b3c449b92","ios":"levelo://app?vid=b48ad0d7-a11c-4659-aff2-414b3c449b92"},"vehicle_type_id":"4","last_reported":1725980932,"current_range_meters":39200,"station_id":"ce4bhip2rcd13ifvqft0","pricing_plan_id":"cebpf4jnsgd1na2vs0mg"},{"bike_id":"3ce10c21-705e-437f-af33-7e794ded3992","system_id":"levelo_inurba_marseille","lat":43.2781,"lon":5.40715,"is_reserved":false,"is_disabled":false,"rental_uris":{"android":"levelo://app?vid=3ce10c21-705e-437f-af33-7e794ded3992","ios":"levelo://app?vid=3ce10c21-705e-437f-af33-7e794ded3992"},"vehicle_type_id":"4","last_reported":1725980932,"current_range_meters":39200,"station_id":"ce4bhnh2rcd13ifvqgtg","pricing_plan_id":"cebpf4jnsgd1na2vs0mg"},{"bike_id":"36f58328-8f54-4fcf-bcca-0a753cccddb2","system_id":"levelo_inurba_marseille","lat":43.23195,"lon":5.35558,"is_reserved":false,"is_disabled":false,"rental_uris":{"android":"levelo://app?vid=36f58328-8f54-4fcf-bcca-0a753cccddb2","ios":"levelo://app?vid=36f58328-8f54-4fcf-bcca-0a753cccddb2"},"vehicle_type_id":"4","last_reported":1725980932,"current_range_meters":21600,"station_id":"ce4bhu92rcd13ifvqi70","pricing_plan_id":"cebpf4jnsgd1na2vs0mg"},{"bike_id":"44f32411-a978-4e5c-8794-5490ed45ba7d","system_id":"levelo_inurba_marseille","lat":43.33754,"lon":5.37436,"is_reserved":false,"is_disabled":false,"rental_uris":{"android":"levelo://app?vid=44f32411-a978-4e5c-8794-5490ed45ba7d","ios":"levelo://app?vid=44f32411-a978-4e5c-8794-5490ed45ba7d"},"vehicle_type_id":"4","last_reported":1725980932,"current_range_meters":38800,"station_id":"","pricing_plan_id":"cebpf4jnsgd1na2vs0mg"},{"bike_id":"ad41ce1e-28aa-43b6-bf7c-37227e87fc34","system_id":"levelo_inurba_marseille","lat":43.26683,"lon":5.38267,"is_reserved":false,"is_disabled":false,"rental_uris":{"android":"levelo://app?vid=ad41ce1e-28aa-43b6-bf7c-37227e87fc34","ios":"levelo://app?vid=ad41ce1e-28aa-43b6-bf7c-37227e87fc34"},"vehicle_type_id":"4","last_reported":1725980932,"current_range_meters":36400,"station_id":"ce4bhg92rcd13ifvqf90","pricing_plan_id":"cebpf4jnsgd1na2vs0mg"},{"bike_id":"29b63118-6bc3-4f35-b6c2-5f3d0215126f","system_id":"levelo_inurba_marseille","lat":43.23062,"lon":5.35489,"is_reserved":false,"is_disabled":false,"rental_uris":{"android":"levelo://app?vid=29b63118-6bc3-4f35-b6c2-5f3d0215126f","ios":"levelo://app?vid=29b63118-6bc3-4f35-b6c2-5f3d0215126f"},"vehicle_type_id":"4","last_reported":1725980932,"current_range_meters":32000,"station_id":"cpo3342slgdg3j2ifvpg","pricing_plan_id":"cebpf4jnsgd1na2vs0mg"},{"bike_id":"e0599a38-4951-4c8e-8773-96292c24cc83","system_id":"levelo_inurba_marseille","lat":43.27815,"lon":5.40721,"is_reserved":false,"is_disabled":false,"rental_uris":{"android":"levelo://app?vid=e0599a38-4951-4c8e-8773-96292c24cc83","ios":"levelo://app?vid=e0599a38-4951-4c8e-8773-96292c24cc83"},"vehicle_type_id":"4","last_reported":1725980932,"current_range_meters":12400,"station_id":"ce4bhnh2rcd13ifvqgtg","pricing_plan_id":"cebpf4jnsgd1na2vs0mg"},{"bike_id":"4d1cd020-9802-45ab-a9e0-d3421d28344b","system_id":"levelo_inurba_marseille","lat":43.26681,"lon":5.3827,"is_reserved":false,"is_disabled":false,"rental_uris":{"android":"levelo://app?vid=4d1cd020-9802-45ab-a9e0-d3421d28344b","ios":"levelo://app?vid=4d1cd020-9802-45ab-a9e0-d3421d28344b"},"vehicle_type_id":"4","last_reported":1725980932,"current_range_meters":5600,"station_id":"ce4bhg92rcd13ifvqf90","pricing_plan_id":"cebpf4jnsgd1na2vs0mg"},{"bike_id":"88662ea3-baad-466b-8d76-af15e2f5ae28","system_id":"levelo_inurba_marseille","lat":43.30288,"lon":5.39214,"is_reserved":false,"is_disabled":false,"rental_uris":{"android":"levelo://app?vid=88662ea3-baad-466b-8d76-af15e2f5ae28","ios":"levelo://app?vid=88662ea3-baad-466b-8d76-af15e2f5ae28"},"vehicle_type_id":"4","last_reported":1725980932,"current_range_meters":27200,"station_id":"ce4bgkh2rcd13ifvqbk0","pricing_plan_id":"cebpf4jnsgd1na2vs0mg"},{"bike_id":"ad4a6df5-6a17-4b2b-afa0-fdaf62d66402","system_id":"levelo_inurba_marseille","lat":43.26063,"lon":5.39398,"is_reserved":false,"is_disabled":false,"rental_uris":{"android":"levelo://app?vid=ad4a6df5-6a17-4b2b-afa0-fdaf62d66402","ios":"levelo://app?vid=ad4a6df5-6a17-4b2b-afa0-fdaf62d66402"},"vehicle_type_id":"4","last_reported":1725980932,"current_range_meters":16800,"station_id":"ce4bhh92rcd13ifvqfj0","pricing_plan_id":"cebpf4jnsgd1na2vs0mg"},{"bike_id":"fd5c93c0-f920-479e-bc83-76154c662e14","system_id":"levelo_inurba_marseille","lat":43.28412,"lon":5.34976,"is_reserved":false,"is_disabled":false,"rental_uris":{"android":"levelo://app?vid=fd5c93c0-f920-479e-bc83-76154c662e14","ios":"levelo://app?vid=fd5c93c0-f920-479e-bc83-76154c662e14"},"vehicle_type_id":"4","last_reported":1725980932,"current_range_meters":25200,"station_id":"ce4bhbh2rcd13ifvqepg","pricing_plan_id":"cebpf4jnsgd1na2vs0mg"},{"bike_id":"8fb9a2de-2e39-4cee-9a2d-1ba3230acc6a","system_id":"levelo_inurba_marseille","lat":43.31761,"lon":5.39021,"is_reserved":false,"is_disabled":false,"rental_uris":{"android":"levelo://app?vid=8fb9a2de-2e39-4cee-9a2d-1ba3230acc6a","ios":"levelo://app?vid=8fb9a2de-2e39-4cee-9a2d-1ba3230acc6a"},"vehicle_type_id":"4","last_reported":1725980932,"current_range_meters":3200,"station_id":"ce4bhqp2rcd13ifvqhng","pricing_plan_id":"cebpf4jnsgd1na2vs0mg"},{"bike_id":"e6067101-9a82-4d65-8bdf-59b27578146c","system_id":"levelo_inurba_marseille","lat":43.25124,"lon":5.40324,"is_reserved":false,"is_disabled":false,"rental_uris":{"android":"levelo://app?vid=e6067101-9a82-4d65-8bdf-59b27578146c","ios":"levelo://app?vid=e6067101-9a82-4d65-8bdf-59b27578146c"},"vehicle_type_id":"4","last_reported":1725980932,"current_range_meters":34800,"station_id":"ce4bhlh2rcd13ifvqgig","pricing_plan_id":"cebpf4jnsgd1na2vs0mg"},{"bike_id":"8f0d4f6b-4c59-4002-9401-0ba051f36f96","system_id":"levelo_inurba_marseille","lat":43.312687,"lon":5.401641,"is_reserved":false,"is_disabled":false,"rental_uris":{"android":"levelo://app?vid=8f0d4f6b-4c59-4002-9401-0ba051f36f96","ios":"levelo://app?vid=8f0d4f6b-4c59-4002-9401-0ba051f36f96"},"vehicle_type_id":"4","last_reported":1725980932,"current_range_meters":20400,"station_id":"ce4bh092rcd13ifvqd30","pricing_plan_id":"cebpf4jnsgd1na2vs0mg"},{"bike_id":"07cfd21e-39ad-4ec8-af78-fd4db6a27405","system_id":"levelo_inurba_marseille","lat":43.2315,"lon":5.4371,"is_reserved":false,"is_disabled":false,"rental_uris":{"android":"levelo://app?vid=07cfd21e-39ad-4ec8-af78-fd4db6a27405","ios":"levelo://app?vid=07cfd21e-39ad-4ec8-af78-fd4db6a27405"},"vehicle_type_id":"4","last_reported":1725980932,"current_range_meters":16400,"station_id":"ce4bhmp2rcd13ifvqgog","pricing_plan_id":"cebpf4jnsgd1na2vs0mg"},{"bike_id":"cf5448d9-ffce-4d79-ab5f-4e57e6313b68","system_id":"levelo_inurba_marseille","lat":43.25581,"lon":5.382358,"is_reserved":false,"is_disabled":false,"rental_uris":{"android":"levelo://app?vid=cf5448d9-ffce-4d79-ab5f-4e57e6313b68","ios":"levelo://app?vid=cf5448d9-ffce-4d79-ab5f-4e57e6313b68"},"vehicle_type_id":"4","last_reported":1725980932,"current_range_meters":34000,"station_id":"ce4bhih2rcd13ifvqfs0","pricing_plan_id":"cebpf4jnsgd1na2vs0mg"},{"bike_id":"6ce90e6f-6fa2-4612-83fb-fc3ae0f72c4f","system_id":"levelo_inurba_marseille","lat":43.32585,"lon":5.37836,"is_reserved":false,"is_disabled":false,"rental_uris":{"android":"levelo://app?vid=6ce90e6f-6fa2-4612-83fb-fc3ae0f72c4f","ios":"levelo://app?vid=6ce90e6f-6fa2-4612-83fb-fc3ae0f72c4f"},"vehicle_type_id":"4","last_reported":1725980932,"current_range_meters":10800,"station_id":"ce4bgvp2rcd13ifvqct0","pricing_plan_id":"cebpf4jnsgd1na2vs0mg"},{"bike_id":"29fd0d92-a3cd-4ec2-b357-8f142bb620cb","system_id":"levelo_inurba_marseille","lat":43.288544,"lon":5.358548,"is_reserved":false,"is_disabled":false,"rental_uris":{"android":"levelo://app?vid=29fd0d92-a3cd-4ec2-b357-8f142bb620cb","ios":"levelo://app?vid=29fd0d92-a3cd-4ec2-b357-8f142bb620cb"},"vehicle_type_id":"4","last_reported":1725980932,"current_range_meters":22000,"station_id":"ce4bhc92rcd13ifvqetg","pricing_plan_id":"cebpf4jnsgd1na2vs0mg"},{"bike_id":"1fda24c3-2740-4b3b-85f9-2ecb3bf0cb75","system_id":"levelo_inurba_marseille","lat":43.29261,"lon":5.40911,"is_reserved":false,"is_disabled":false,"rental_uris":{"android":"levelo://app?vid=1fda24c3-2740-4b3b-85f9-2ecb3bf0cb75","ios":"levelo://app?vid=1fda24c3-2740-4b3b-85f9-2ecb3bf0cb75"},"vehicle_type_id":"4","last_reported":1725980932,"current_range_meters":30000,"station_id":"ce4bh192rcd13ifvqdc0","pricing_plan_id":"cebpf4jnsgd1na2vs0mg"},{"bike_id":"3bfff435-780c-430e-a884-b7e0a240cebc","system_id":"levelo_inurba_marseille","lat":43.28166,"lon":5.40462,"is_reserved":false,"is_disabled":false,"rental_uris":{"android":"levelo://app?vid=3bfff435-780c-430e-a884-b7e0a240cebc","ios":"levelo://app?vid=3bfff435-780c-430e-a884-b7e0a240cebc"},"vehicle_type_id":"4","last_reported":1725980932,"current_range_meters":26800,"station_id":"","pricing_plan_id":"cebpf4jnsgd1na2vs0mg"},{"bike_id":"97194280-80b7-4aba-9275-c822176c1a8f","system_id":"levelo_inurba_marseille","lat":43.31119,"lon":5.37765,"is_reserved":false,"is_disabled":false,"rental_uris":{"android":"levelo://app?vid=97194280-80b7-4aba-9275-c822176c1a8f","ios":"levelo://app?vid=97194280-80b7-4aba-9275-c822176c1a8f"},"vehicle_type_id":"4","last_reported":1725980932,"current_range_meters":2000,"station_id":"ce4bgt92rcd13ifvqcg0","pricing_plan_id":"cebpf4jnsgd1na2vs0mg"},{"bike_id":"1d6b07ee-b321-4df0-ac8b-9c1dcf359a85","system_id":"levelo_inurba_marseille","lat":43.30633,"lon":5.40085,"is_reserved":false,"is_disabled":false,"rental_uris":{"android":"levelo://app?vid=1d6b07ee-b321-4df0-ac8b-9c1dcf359a85","ios":"levelo://app?vid=1d6b07ee-b321-4df0-ac8b-9c1dcf359a85"},"vehicle_type_id":"4","last_reported":1725980932,"current_range_meters":19200,"station_id":"ce4bh112rcd13ifvqda0","pricing_plan_id":"cebpf4jnsgd1na2vs0mg"},{"bike_id":"c8aa7fe8-5355-455a-8bf3-31a42f3b7e8f","system_id":"levelo_inurba_marseille","lat":43.25823,"lon":5.39434,"is_reserved":false,"is_disabled":false,"rental_uris":{"android":"levelo://app?vid=c8aa7fe8-5355-455a-8bf3-31a42f3b7e8f","ios":"levelo://app?vid=c8aa7fe8-5355-455a-8bf3-31a42f3b7e8f"},"vehicle_type_id":"4","last_reported":1725980932,"current_range_meters":20800,"station_id":"ce4bhip2rcd13ifvqft0","pricing_plan_id":"cebpf4jnsgd1na2vs0mg"},{"bike_id":"709e6904-b0a1-48fe-ba36-74e4c9de1849","system_id":"levelo_inurba_marseille","lat":43.31122,"lon":5.37767,"is_reserved":false,"is_disabled":false,"rental_uris":{"android":"levelo://app?vid=709e6904-b0a1-48fe-ba36-74e4c9de1849","ios":"levelo://app?vid=709e6904-b0a1-48fe-ba36-74e4c9de1849"},"vehicle_type_id":"4","last_reported":1725980932,"current_range_meters":3600,"station_id":"ce4bgt92rcd13ifvqcg0","pricing_plan_id":"cebpf4jnsgd1na2vs0mg"},{"bike_id":"f12d439d-6390-43b1-932d-dc232dcae3bf","system_id":"levelo_inurba_marseille","lat":43.23059,"lon":5.35487,"is_reserved":false,"is_disabled":false,"rental_uris":{"android":"levelo://app?vid=f12d439d-6390-43b1-932d-dc232dcae3bf","ios":"levelo://app?vid=f12d439d-6390-43b1-932d-dc232dcae3bf"},"vehicle_type_id":"4","last_reported":1725980932,"current_range_meters":16800,"station_id":"cpo3342slgdg3j2ifvpg","pricing_plan_id":"cebpf4jnsgd1na2vs0mg"},{"bike_id":"35bc1d68-37a6-4ae2-bf6c-1b32caf096d0","system_id":"levelo_inurba_marseille","lat":43.2988,"lon":5.37273,"is_reserved":false,"is_disabled":false,"rental_uris":{"android":"levelo://app?vid=35bc1d68-37a6-4ae2-bf6c-1b32caf096d0","ios":"levelo://app?vid=35bc1d68-37a6-4ae2-bf6c-1b32caf096d0"},"vehicle_type_id":"4","last_reported":1725980932,"current_range_meters":20800,"station_id":"","pricing_plan_id":"cebpf4jnsgd1na2vs0mg"},{"bike_id":"cc5800f7-5890-433e-b13a-92fd67ecbcdd","system_id":"levelo_inurba_marseille","lat":43.28414,"lon":5.34982,"is_reserved":false,"is_disabled":false,"rental_uris":{"android":"levelo://app?vid=cc5800f7-5890-433e-b13a-92fd67ecbcdd","ios":"levelo://app?vid=cc5800f7-5890-433e-b13a-92fd67ecbcdd"},"vehicle_type_id":"4","last_reported":1725980932,"current_range_meters":31200,"station_id":"ce4bhbh2rcd13ifvqepg","pricing_plan_id":"cebpf4jnsgd1na2vs0mg"},{"bike_id":"02a1b821-c2db-4ddf-87bf-36a98ccc6cb0","system_id":"levelo_inurba_marseille","lat":43.28666,"lon":5.3635,"is_reserved":false,"is_disabled":false,"rental_uris":{"android":"levelo://app?vid=02a1b821-c2db-4ddf-87bf-36a98ccc6cb0","ios":"levelo://app?vid=02a1b821-c2db-4ddf-87bf-36a98ccc6cb0"},"vehicle_type_id":"4","last_reported":1725980932,"current_range_meters":26000,"station_id":"ce4bhah2rcd13ifvqej0","pricing_plan_id":"cebpf4jnsgd1na2vs0mg"},{"bike_id":"f1fea71a-6d03-4c58-9a08-b863eaf11a1f","system_id":"levelo_inurba_marseille","lat":43.306058,"lon":5.372342,"is_reserved":false,"is_disabled":false,"rental_uris":{"android":"levelo://app?vid=f1fea71a-6d03-4c58-9a08-b863eaf11a1f","ios":"levelo://app?vid=f1fea71a-6d03-4c58-9a08-b863eaf11a1f"},"vehicle_type_id":"4","last_reported":1725980932,"current_range_meters":28400,"station_id":"ce4bgrh2rcd13ifvqc8g","pricing_plan_id":"cebpf4jnsgd1na2vs0mg"},{"bike_id":"44b2ec80-9b98-4d95-a100-0bc75245a5d5","system_id":"levelo_inurba_marseille","lat":43.31726,"lon":5.42401,"is_reserved":false,"is_disabled":false,"rental_uris":{"android":"levelo://app?vid=44b2ec80-9b98-4d95-a100-0bc75245a5d5","ios":"levelo://app?vid=44b2ec80-9b98-4d95-a100-0bc75245a5d5"},"vehicle_type_id":"4","last_reported":1725980932,"current_range_meters":23200,"station_id":"ce4bhp92rcd13ifvqhbg","pricing_plan_id":"cebpf4jnsgd1na2vs0mg"},{"bike_id":"6be3c603-1032-43c6-9661-707ee48ddcf3","system_id":"levelo_inurba_marseille","lat":43.29873,"lon":5.38909,"is_reserved":false,"is_disabled":false,"rental_uris":{"android":"levelo://app?vid=6be3c603-1032-43c6-9661-707ee48ddcf3","ios":"levelo://app?vid=6be3c603-1032-43c6-9661-707ee48ddcf3"},"vehicle_type_id":"4","last_reported":1725980932,"current_range_meters":25200,"station_id":"ce4bh392rcd13ifvqdl0","pricing_plan_id":"cebpf4jnsgd1na2vs0mg"},{"bike_id":"20e99fee-7f5e-4fd9-8345-d42fb0592de3","system_id":"levelo_inurba_marseille","lat":43.33761,"lon":5.37444,"is_reserved":false,"is_disabled":false,"rental_uris":{"android":"levelo://app?vid=20e99fee-7f5e-4fd9-8345-d42fb0592de3","ios":"levelo://app?vid=20e99fee-7f5e-4fd9-8345-d42fb0592de3"},"vehicle_type_id":"4","last_reported":1725980932,"current_range_meters":20000,"station_id":"","pricing_plan_id":"cebpf4jnsgd1na2vs0mg"},{"bike_id":"5341875b-fe66-4f9f-b8cc-d5081705502f","system_id":"levelo_inurba_marseille","lat":43.29246,"lon":5.40901,"is_reserved":false,"is_disabled":false,"rental_uris":{"android":"levelo://app?vid=5341875b-fe66-4f9f-b8cc-d5081705502f","ios":"levelo://app?vid=5341875b-fe66-4f9f-b8cc-d5081705502f"},"vehicle_type_id":"4","last_reported":1725980932,"current_range_meters":22000,"station_id":"ce4bh192rcd13ifvqdc0","pricing_plan_id":"cebpf4jnsgd1na2vs0mg"},{"bike_id":"12d6c86b-1509-4112-88a5-3a065966dac3","system_id":"levelo_inurba_marseille","lat":43.31116,"lon":5.37769,"is_reserved":false,"is_disabled":false,"rental_uris":{"android":"levelo://app?vid=12d6c86b-1509-4112-88a5-3a065966dac3","ios":"levelo://app?vid=12d6c86b-1509-4112-88a5-3a065966dac3"},"vehicle_type_id":"4","last_reported":1725980932,"current_range_meters":9600,"station_id":"ce4bgt92rcd13ifvqcg0","pricing_plan_id":"cebpf4jnsgd1na2vs0mg"},{"bike_id":"1aa5a031-dec9-43b9-83e9-157d9c78175e","system_id":"levelo_inurba_marseille","lat":43.22933,"lon":5.35377,"is_reserved":false,"is_disabled":false,"rental_uris":{"android":"levelo://app?vid=1aa5a031-dec9-43b9-83e9-157d9c78175e","ios":"levelo://app?vid=1aa5a031-dec9-43b9-83e9-157d9c78175e"},"vehicle_type_id":"4","last_reported":1725980932,"current_range_meters":20000,"station_id":"cpo3532slgdg3j2ikp40","pricing_plan_id":"cebpf4jnsgd1na2vs0mg"},{"bike_id":"26a6c13b-27cb-4ce1-a86a-befc4b74de93","system_id":"levelo_inurba_marseille","lat":43.23148,"lon":5.43717,"is_reserved":false,"is_disabled":false,"rental_uris":{"android":"levelo://app?vid=26a6c13b-27cb-4ce1-a86a-befc4b74de93","ios":"levelo://app?vid=26a6c13b-27cb-4ce1-a86a-befc4b74de93"},"vehicle_type_id":"4","last_reported":1725980932,"current_range_meters":12000,"station_id":"ce4bhmp2rcd13ifvqgog","pricing_plan_id":"cebpf4jnsgd1na2vs0mg"},{"bike_id":"6dde90b7-ac1c-44c5-9597-abdd7b0aa417","system_id":"levelo_inurba_marseille","lat":43.31692,"lon":5.37679,"is_reserved":false,"is_disabled":false,"rental_uris":{"android":"levelo://app?vid=6dde90b7-ac1c-44c5-9597-abdd7b0aa417","ios":"levelo://app?vid=6dde90b7-ac1c-44c5-9597-abdd7b0aa417"},"vehicle_type_id":"4","last_reported":1725980932,"current_range_meters":34800,"station_id":"ce4bgth2rcd13ifvqch0","pricing_plan_id":"cebpf4jnsgd1na2vs0mg"},{"bike_id":"6eaeb7bd-65f9-42fa-b1da-a1e09ae18984","system_id":"levelo_inurba_marseille","lat":43.27492,"lon":5.42457,"is_reserved":false,"is_disabled":false,"rental_uris":{"android":"levelo://app?vid=6eaeb7bd-65f9-42fa-b1da-a1e09ae18984","ios":"levelo://app?vid=6eaeb7bd-65f9-42fa-b1da-a1e09ae18984"},"vehicle_type_id":"4","last_reported":1725980932,"current_range_meters":20800,"station_id":"ce4bhn92rcd13ifvqgrg","pricing_plan_id":"cebpf4jnsgd1na2vs0mg"},{"bike_id":"80e0c076-87fe-4d3c-b8c0-bd1116f97e06","system_id":"levelo_inurba_marseille","lat":43.29704,"lon":5.36615,"is_reserved":false,"is_disabled":false,"rental_uris":{"android":"levelo://app?vid=80e0c076-87fe-4d3c-b8c0-bd1116f97e06","ios":"levelo://app?vid=80e0c076-87fe-4d3c-b8c0-bd1116f97e06"},"vehicle_type_id":"4","last_reported":1725980932,"current_range_meters":33200,"station_id":"ce4bgn12rcd13ifvqbt0","pricing_plan_id":"cebpf4jnsgd1na2vs0mg"},{"bike_id":"e110561b-638c-48b6-9490-48f099d04497","system_id":"levelo_inurba_marseille","lat":43.28268,"lon":5.35061,"is_reserved":false,"is_disabled":false,"rental_uris":{"android":"levelo://app?vid=e110561b-638c-48b6-9490-48f099d04497","ios":"levelo://app?vid=e110561b-638c-48b6-9490-48f099d04497"},"vehicle_type_id":"4","last_reported":1725980932,"current_range_meters":19600,"station_id":"ce4bhbp2rcd13ifvqerg","pricing_plan_id":"cebpf4jnsgd1na2vs0mg"},{"bike_id":"82848c75-08d6-4b13-8f0d-8c55bc1ca1ab","system_id":"levelo_inurba_marseille","lat":43.29227,"lon":5.36049,"is_reserved":false,"is_disabled":false,"rental_uris":{"android":"levelo://app?vid=82848c75-08d6-4b13-8f0d-8c55bc1ca1ab","ios":"levelo://app?vid=82848c75-08d6-4b13-8f0d-8c55bc1ca1ab"},"vehicle_type_id":"4","last_reported":1725980932,"current_range_meters":31200,"station_id":"ce4bhbh2rcd13ifvqeqg","pricing_plan_id":"cebpf4jnsgd1na2vs0mg"},{"bike_id":"e4d339a8-2439-4de4-9e05-4ffaa7d73435","system_id":"levelo_inurba_marseille","lat":43.24085,"lon":5.37739,"is_reserved":false,"is_disabled":false,"rental_uris":{"android":"levelo://app?vid=e4d339a8-2439-4de4-9e05-4ffaa7d73435","ios":"levelo://app?vid=e4d339a8-2439-4de4-9e05-4ffaa7d73435"},"vehicle_type_id":"4","last_reported":1725980932,"current_range_meters":32000,"station_id":"ce4bhnp2rcd13ifvqgvg","pricing_plan_id":"cebpf4jnsgd1na2vs0mg"},{"bike_id":"2ebb2cd3-4352-47fd-8d27-fe1148d04016","system_id":"levelo_inurba_marseille","lat":43.27812,"lon":5.40718,"is_reserved":false,"is_disabled":false,"rental_uris":{"android":"levelo://app?vid=2ebb2cd3-4352-47fd-8d27-fe1148d04016","ios":"levelo://app?vid=2ebb2cd3-4352-47fd-8d27-fe1148d04016"},"vehicle_type_id":"4","last_reported":1725980932,"current_range_meters":30400,"station_id":"ce4bhnh2rcd13ifvqgtg","pricing_plan_id":"cebpf4jnsgd1na2vs0mg"},{"bike_id":"a5ea4466-c375-46b4-9c40-4172b036041c","system_id":"levelo_inurba_marseille","lat":43.30427,"lon":5.39742,"is_reserved":false,"is_disabled":false,"rental_uris":{"android":"levelo://app?vid=a5ea4466-c375-46b4-9c40-4172b036041c","ios":"levelo://app?vid=a5ea4466-c375-46b4-9c40-4172b036041c"},"vehicle_type_id":"4","last_reported":1725980932,"current_range_meters":17200,"station_id":"ce4bh092rcd13ifvqd20","pricing_plan_id":"cebpf4jnsgd1na2vs0mg"},{"bike_id":"8b19189e-d0cf-4c65-9e28-61151523ad9e","system_id":"levelo_inurba_marseille","lat":43.27673,"lon":5.38887,"is_reserved":false,"is_disabled":false,"rental_uris":{"android":"levelo://app?vid=8b19189e-d0cf-4c65-9e28-61151523ad9e","ios":"levelo://app?vid=8b19189e-d0cf-4c65-9e28-61151523ad9e"},"vehicle_type_id":"4","last_reported":1725980932,"current_range_meters":28000,"station_id":"ce4bhi12rcd13ifvqfo0","pricing_plan_id":"cebpf4jnsgd1na2vs0mg"},{"bike_id":"dcfacbfe-bcbc-4076-962c-ef65756cfb95","system_id":"levelo_inurba_marseille","lat":43.2841,"lon":5.34988,"is_reserved":false,"is_disabled":false,"rental_uris":{"android":"levelo://app?vid=dcfacbfe-bcbc-4076-962c-ef65756cfb95","ios":"levelo://app?vid=dcfacbfe-bcbc-4076-962c-ef65756cfb95"},"vehicle_type_id":"4","last_reported":1725980932,"current_range_meters":14400,"station_id":"ce4bhbh2rcd13ifvqepg","pricing_plan_id":"cebpf4jnsgd1na2vs0mg"},{"bike_id":"ec7352a8-637d-4251-a8fb-c5a719286945","system_id":"levelo_inurba_marseille","lat":43.33022,"lon":5.39039,"is_reserved":false,"is_disabled":false,"rental_uris":{"android":"levelo://app?vid=ec7352a8-637d-4251-a8fb-c5a719286945","ios":"levelo://app?vid=ec7352a8-637d-4251-a8fb-c5a719286945"},"vehicle_type_id":"4","last_reported":1725980932,"current_range_meters":28000,"station_id":"ce4bhr92rcd13ifvqhrg","pricing_plan_id":"cebpf4jnsgd1na2vs0mg"},{"bike_id":"1b74f375-2718-4fc4-b5e8-72162c2d2213","system_id":"levelo_inurba_marseille","lat":43.28619,"lon":5.35105,"is_reserved":false,"is_disabled":false,"rental_uris":{"android":"levelo://app?vid=1b74f375-2718-4fc4-b5e8-72162c2d2213","ios":"levelo://app?vid=1b74f375-2718-4fc4-b5e8-72162c2d2213"},"vehicle_type_id":"4","last_reported":1725980932,"current_range_meters":36400,"station_id":"ce4bhch2rcd13ifvqeug","pricing_plan_id":"cebpf4jnsgd1na2vs0mg"},{"bike_id":"86d3d8e6-2c87-401c-a150-03d8aa5b06e7","system_id":"levelo_inurba_marseille","lat":43.28413,"lon":5.34986,"is_reserved":false,"is_disabled":false,"rental_uris":{"android":"levelo://app?vid=86d3d8e6-2c87-401c-a150-03d8aa5b06e7","ios":"levelo://app?vid=86d3d8e6-2c87-401c-a150-03d8aa5b06e7"},"vehicle_type_id":"4","last_reported":1725980932,"current_range_meters":27200,"station_id":"ce4bhbh2rcd13ifvqepg","pricing_plan_id":"cebpf4jnsgd1na2vs0mg"},{"bike_id":"d7dc4600-792f-42e4-b036-5af111f10866","system_id":"levelo_inurba_marseille","lat":43.29231,"lon":5.36069,"is_reserved":false,"is_disabled":false,"rental_uris":{"android":"levelo://app?vid=d7dc4600-792f-42e4-b036-5af111f10866","ios":"levelo://app?vid=d7dc4600-792f-42e4-b036-5af111f10866"},"vehicle_type_id":"4","last_reported":1725980932,"current_range_meters":28000,"station_id":"ce4bhbh2rcd13ifvqeqg","pricing_plan_id":"cebpf4jnsgd1na2vs0mg"},{"bike_id":"8aaedb5e-6dc7-4cb2-a2dc-8df5afee6509","system_id":"levelo_inurba_marseille","lat":43.23148,"lon":5.43716,"is_reserved":false,"is_disabled":false,"rental_uris":{"android":"levelo://app?vid=8aaedb5e-6dc7-4cb2-a2dc-8df5afee6509","ios":"levelo://app?vid=8aaedb5e-6dc7-4cb2-a2dc-8df5afee6509"},"vehicle_type_id":"4","last_reported":1725980932,"current_range_meters":8400,"station_id":"ce4bhmp2rcd13ifvqgog","pricing_plan_id":"cebpf4jnsgd1na2vs0mg"},{"bike_id":"0976c714-bd20-4c2a-8d0f-e8a533036e85","system_id":"levelo_inurba_marseille","lat":43.303471,"lon":5.418777,"is_reserved":false,"is_disabled":false,"rental_uris":{"android":"levelo://app?vid=0976c714-bd20-4c2a-8d0f-e8a533036e85","ios":"levelo://app?vid=0976c714-bd20-4c2a-8d0f-e8a533036e85"},"vehicle_type_id":"4","last_reported":1725980932,"current_range_meters":3200,"station_id":"ce4bhop2rcd13ifvqh7g","pricing_plan_id":"cebpf4jnsgd1na2vs0mg"},{"bike_id":"230e3a22-1a03-408c-b711-7f167a488065","system_id":"levelo_inurba_marseille","lat":43.30564,"lon":5.38146,"is_reserved":false,"is_disabled":false,"rental_uris":{"android":"levelo://app?vid=230e3a22-1a03-408c-b711-7f167a488065","ios":"levelo://app?vid=230e3a22-1a03-408c-b711-7f167a488065"},"vehicle_type_id":"4","last_reported":1725980932,"current_range_meters":14000,"station_id":"ce4bgup2rcd13ifvqcn0","pricing_plan_id":"cebpf4jnsgd1na2vs0mg"},{"bike_id":"52ec2ad0-a6c1-4ecb-8091-e15b81e00024","system_id":"levelo_inurba_marseille","lat":43.24388,"lon":5.37057,"is_reserved":false,"is_disabled":false,"rental_uris":{"android":"levelo://app?vid=52ec2ad0-a6c1-4ecb-8091-e15b81e00024","ios":"levelo://app?vid=52ec2ad0-a6c1-4ecb-8091-e15b81e00024"},"vehicle_type_id":"4","last_reported":1725980932,"current_range_meters":10800,"station_id":"ce4bhhh2rcd13ifvqfk0","pricing_plan_id":"cebpf4jnsgd1na2vs0mg"},{"bike_id":"385f19b5-22b7-4907-b896-a3760d8c796c","system_id":"levelo_inurba_marseille","lat":43.28619,"lon":5.35107,"is_reserved":false,"is_disabled":false,"rental_uris":{"android":"levelo://app?vid=385f19b5-22b7-4907-b896-a3760d8c796c","ios":"levelo://app?vid=385f19b5-22b7-4907-b896-a3760d8c796c"},"vehicle_type_id":"4","last_reported":1725980932,"current_range_meters":16000,"station_id":"ce4bhch2rcd13ifvqeug","pricing_plan_id":"cebpf4jnsgd1na2vs0mg"},{"bike_id":"5907365f-d508-4c62-8ca6-c2fa0a21f3fe","system_id":"levelo_inurba_marseille","lat":43.31759,"lon":5.39013,"is_reserved":false,"is_disabled":false,"rental_uris":{"android":"levelo://app?vid=5907365f-d508-4c62-8ca6-c2fa0a21f3fe","ios":"levelo://app?vid=5907365f-d508-4c62-8ca6-c2fa0a21f3fe"},"vehicle_type_id":"4","last_reported":1725980932,"current_range_meters":28800,"station_id":"ce4bhqp2rcd13ifvqhng","pricing_plan_id":"cebpf4jnsgd1na2vs0mg"},{"bike_id":"6f3dc7a9-fad8-4819-abfd-3c62c6e48d48","system_id":"levelo_inurba_marseille","lat":43.301401,"lon":5.380433,"is_reserved":false,"is_disabled":false,"rental_uris":{"android":"levelo://app?vid=6f3dc7a9-fad8-4819-abfd-3c62c6e48d48","ios":"levelo://app?vid=6f3dc7a9-fad8-4819-abfd-3c62c6e48d48"},"vehicle_type_id":"4","last_reported":1725980932,"current_range_meters":23200,"station_id":"ce4bgjp2rcd13ifvqbh0","pricing_plan_id":"cebpf4jnsgd1na2vs0mg"},{"bike_id":"4aabff98-14d2-4ae5-86f2-fd692ae18436","system_id":"levelo_inurba_marseille","lat":43.32485,"lon":5.36566,"is_reserved":false,"is_disabled":false,"rental_uris":{"android":"levelo://app?vid=4aabff98-14d2-4ae5-86f2-fd692ae18436","ios":"levelo://app?vid=4aabff98-14d2-4ae5-86f2-fd692ae18436"},"vehicle_type_id":"4","last_reported":1725980932,"current_range_meters":39200,"station_id":"ce4bhs12rcd13ifvqhvg","pricing_plan_id":"cebpf4jnsgd1na2vs0mg"},{"bike_id":"ae894e7d-e18c-4eee-8846-2758851b05b4","system_id":"levelo_inurba_marseille","lat":43.29973,"lon":5.41331,"is_reserved":false,"is_disabled":false,"rental_uris":{"android":"levelo://app?vid=ae894e7d-e18c-4eee-8846-2758851b05b4","ios":"levelo://app?vid=ae894e7d-e18c-4eee-8846-2758851b05b4"},"vehicle_type_id":"4","last_reported":1725980932,"current_range_meters":22000,"station_id":"ce4bhp12rcd13ifvqh9g","pricing_plan_id":"cebpf4jnsgd1na2vs0mg"},{"bike_id":"1489b593-d68e-41ae-8866-7fd05c8f1087","system_id":"levelo_inurba_marseille","lat":43.29554,"lon":5.42293,"is_reserved":false,"is_disabled":false,"rental_uris":{"android":"levelo://app?vid=1489b593-d68e-41ae-8866-7fd05c8f1087","ios":"levelo://app?vid=1489b593-d68e-41ae-8866-7fd05c8f1087"},"vehicle_type_id":"4","last_reported":1725980932,"current_range_meters":2800,"station_id":"ce4bhph2rcd13ifvqhdg","pricing_plan_id":"cebpf4jnsgd1na2vs0mg"},{"bike_id":"140663d7-280a-4339-83c3-52a9d8b08610","system_id":"levelo_inurba_marseille","lat":43.24997,"lon":5.38937,"is_reserved":false,"is_disabled":false,"rental_uris":{"android":"levelo://app?vid=140663d7-280a-4339-83c3-52a9d8b08610","ios":"levelo://app?vid=140663d7-280a-4339-83c3-52a9d8b08610"},"vehicle_type_id":"4","last_reported":1725980932,"current_range_meters":4800,"station_id":"ce4bhgp2rcd13ifvqfd0","pricing_plan_id":"cebpf4jnsgd1na2vs0mg"},{"bike_id":"80719431-a79b-4a7a-8156-843df6b26d3d","system_id":"levelo_inurba_marseille","lat":43.28416,"lon":5.34976,"is_reserved":false,"is_disabled":false,"rental_uris":{"android":"levelo://app?vid=80719431-a79b-4a7a-8156-843df6b26d3d","ios":"levelo://app?vid=80719431-a79b-4a7a-8156-843df6b26d3d"},"vehicle_type_id":"4","last_reported":1725980932,"current_range_meters":12000,"station_id":"ce4bhbh2rcd13ifvqepg","pricing_plan_id":"cebpf4jnsgd1na2vs0mg"},{"bike_id":"610b2e63-d390-469b-941a-b842ecbdde3e","system_id":"levelo_inurba_marseille","lat":43.2919,"lon":5.35799,"is_reserved":false,"is_disabled":false,"rental_uris":{"android":"levelo://app?vid=610b2e63-d390-469b-941a-b842ecbdde3e","ios":"levelo://app?vid=610b2e63-d390-469b-941a-b842ecbdde3e"},"vehicle_type_id":"4","last_reported":1725980932,"current_range_meters":6000,"station_id":"ce4bhb12rcd13ifvqel0","pricing_plan_id":"cebpf4jnsgd1na2vs0mg"},{"bike_id":"1aff504e-7627-4e36-89e7-fdb597037fb8","system_id":"levelo_inurba_marseille","lat":43.31082,"lon":5.42431,"is_reserved":false,"is_disabled":false,"rental_uris":{"android":"levelo://app?vid=1aff504e-7627-4e36-89e7-fdb597037fb8","ios":"levelo://app?vid=1aff504e-7627-4e36-89e7-fdb597037fb8"},"vehicle_type_id":"4","last_reported":1725980932,"current_range_meters":32000,"station_id":"ce4bhp92rcd13ifvqhag","pricing_plan_id":"cebpf4jnsgd1na2vs0mg"},{"bike_id":"7ce8a355-366f-4d9c-9993-6e81236dc62b","system_id":"levelo_inurba_marseille","lat":43.24544,"lon":5.39523,"is_reserved":false,"is_disabled":false,"rental_uris":{"android":"levelo://app?vid=7ce8a355-366f-4d9c-9993-6e81236dc62b","ios":"levelo://app?vid=7ce8a355-366f-4d9c-9993-6e81236dc62b"},"vehicle_type_id":"4","last_reported":1725980932,"current_range_meters":11600,"station_id":"ce4bhlp2rcd13ifvqgjg","pricing_plan_id":"cebpf4jnsgd1na2vs0mg"},{"bike_id":"a3038e3c-a3df-4197-806a-8be42ae3acd2","system_id":"levelo_inurba_marseille","lat":43.27833,"lon":5.39205,"is_reserved":false,"is_disabled":false,"rental_uris":{"android":"levelo://app?vid=a3038e3c-a3df-4197-806a-8be42ae3acd2","ios":"levelo://app?vid=a3038e3c-a3df-4197-806a-8be42ae3acd2"},"vehicle_type_id":"4","last_reported":1725980932,"current_range_meters":4800,"station_id":"ce4bhjp2rcd13ifvqga0","pricing_plan_id":"cebpf4jnsgd1na2vs0mg"},