{"last_updated":1749475531,"ttl":60,"version":"2.2","data":{"bikes":[{"bike_id":"ad214eb0-d7ca-4bdf-85b1-6d11df9bed8e","system_id":"levelo_inurba_marseille","lat":43.24166,"lon":5.36398,"is_reserved":false,"is_disabled":false,"rental_uris":{"android":"levelo://app?vid=ad214eb0-d7ca-4bdf-85b1-6d11df9bed8e","ios":"levelo://app?vid=ad214eb0-d7ca-4bdf-85b1-6d11df9bed8e"},"vehicle_type_id":"4","last_reported":1749475531,"current_range_meters":2800,"station_id":"cpo36qri1sfpv3e86is0","pricing_plan_id":"cebpf4jnsgd1na2vs0mg"},{"bike_id":"a9fdb91c-7438-41ab-a755-af1bfb7dfc48","system_id":"levelo_inurba_marseille","lat":43.23067,"lon":5.35491,"is_reserved":false,"is_disabled":false,"rental_uris":{"android":"levelo://app?vid=a9fdb91c-7438-41ab-a755-af1bfb7dfc48","ios":"levelo://app?vid=a9fdb91c-7438-41ab-a755-af1bfb7dfc48"},"vehicle_type_id":"4","last_reported":1749475531,"current_range_meters":2800,"station_id":"cpo3342slgdg3j2ifvpg","pricing_plan_id":"cebpf4jnsgd1na2vs0mg"},{"bike_id":"39a3e56c-8755-4a50-be73-7b398e5d2492","system_id":"levelo_inurba_marseille","lat":43.2738,"lon":5.36255,"is_reserved":false,"is_disabled":false,"rental_uris":{"android":"levelo://app?vid=39a3e56c-8755-4a50-be73-7b398e5d2492","ios":"levelo://app?vid=39a3e56c-8755-4a50-be73-7b398e5d2492"},"vehicle_type_id":"4","last_reported":1749475531,"current_range_meters":2800,"station_id":"ce4bhbh2rcd13ifvqeo0","pricing_plan_id":"cebpf4jnsgd1na2vs0mg"},{"bike_id":"496d48a1-7a8b-488d-a162-d2250c820fb0","system_id":"levelo_inurba_marseille","lat":43.264253,"lon":5.386093,"is_reserved":false,"is_disabled":false,"rental_uris":{"android":"levelo://app?vid=496d48a1-7a8b-488d-a162-d2250c820fb0","ios":"levelo://app?vid=496d48a1-7a8b-488d-a162-d2250c820fb0"},"vehicle_type_id":"4","last_reported":1749475531,"current_range_meters":2800,"station_id":"","pricing_plan_id":"cebpf4jnsgd1na2vs0mg"},{"bike_id":"b1210433-36cf-45db-a707-39a302ff3c90","system_id":"levelo_inurba_marseille","lat":43.29603,"lon":5.37707,"is_reserved":false,"is_disabled":false,"rental_uris":{"android":"levelo://app?vid=b1210433-36cf-45db-a707-39a302ff3c90","ios":"levelo://app?vid=b1210433-36cf-45db-a707-39a302ff3c90"},"vehicle_type_id":"4","last_reported":1749475531,"current_range_meters":1600,"station_id":"ce4bgi92rcd13ifvqb90","pricing_plan_id":"cebpf4jnsgd1na2vs0mg"},{"bike_id":"d74bb8b6-759d-4a74-abb1-b7bd3866f972","system_id":"levelo_inurba_marseille","lat":43.27389,"lon":5.36247,"is_reserved":false,"is_disabled":false,"rental_uris":{"android":"levelo://app?vid=d74bb8b6-759d-4a74-abb1-b7bd3866f972","ios":"levelo://app?vid=d74bb8b6-759d-4a74-abb1-b7bd3866f972"},"vehicle_type_id":"4","last_reported":1749475531,"current_range_meters":3200,"station_id":"ce4bhbh2rcd13ifvqeo0","pricing_plan_id":"cebpf4jnsgd1na2vs0mg"},{"bike_id":"02aa1811-bf42-478e-a065-b32177f42e73","system_id":"levelo_inurba_marseille","lat":43.281521,"lon":5.426411,"is_reserved":false,"is_disabled":false,"rental_uris":{"android":"levelo://app?vid=02aa1811-bf42-478e-a065-b32177f42e73","ios":"levelo://app?vid=02aa1811-bf42-478e-a065-b32177f42e73"},"vehicle_type_id":"4","last_reported":1749475531,"current_range_meters":3600,"station_id":"ce4bhnh2rcd13ifvqgug","pricing_plan_id":"cebpf4jnsgd1na2vs0mg"},{"bike_id":"0cee3a30-a4a6-4a05-ad42-ac51cccd3f75","system_id":"levelo_inurba_marseille","lat":43.31758,"lon":5.39017,"is_reserved":false,"is_disabled":false,"rental_uris":{"android":"levelo://app?vid=0cee3a30-a4a6-4a05-ad42-ac51cccd3f75","ios":"levelo://app?vid=0cee3a30-a4a6-4a05-ad42-ac51cccd3f75"},"vehicle_type_id":"4","last_reported":1749475531,"current_range_meters":4000,"station_id":"ce4bhqp2rcd13ifvqhng","pricing_plan_id":"cebpf4jnsgd1na2vs0mg"},{"bike_id":"aafb5906-50cf-4bc7-a890-1d5e543d861e","system_id":"levelo_inurba_marseille","lat":43.24388,"lon":5.37064,"is_reserved":false,"is_disabled":false,"rental_uris":{"android":"levelo://app?vid=aafb5906-50cf-4bc7-a890-1d5e543d861e","ios":"levelo://app?vid=aafb5906-50cf-4bc7-a890-1d5e543d861e"},"vehicle_type_id":"4","last_reported":1749475531,"current_range_meters":4000,"station_id":"ce4bhhh2rcd13ifvqfk0","pricing_plan_id":"cebpf4jnsgd1na2vs0mg"},{"bike_id":"3a23a91a-8199-4857-825e-f76c65d907fa","system_id":"levelo_inurba_marseille","lat":43.25502,"lon":5.3765,"is_reserved":false,"is_disabled":false,"rental_uris":{"android":"levelo://app?vid=3a23a91a-8199-4857-825e-f76c65d907fa","ios":"levelo://app?vid=3a23a91a-8199-4857-825e-f76c65d907fa"},"vehicle_type_id":"4","last_reported":1749475531,"current_range_meters":4000,"station_id":"ce4bhh12rcd13ifvqff0","pricing_plan_id":"cebpf4jnsgd1na2vs0mg"},{"bike_id":"50e89953-1d8d-4c40-ba1b-40da12c9e408","system_id":"levelo_inurba_marseille","lat":43.2862,"lon":5.35108,"is_reserved":false,"is_disabled":false,"rental_uris":{"android":"levelo://app?vid=50e89953-1d8d-4c40-ba1b-40da12c9e408","ios":"levelo://app?vid=50e89953-1d8d-4c40-ba1b-40da12c9e408"},"vehicle_type_id":"4","last_reported":1749475531,"current_range_meters":4000,"station_id":"ce4bhch2rcd13ifvqeug","pricing_plan_id":"cebpf4jnsgd1na2vs0mg"},{"bike_id":"993687f2-87fb-4152-85a2-3dd5a0b176fd","system_id":"levelo_inurba_marseille","lat":43.33606,"lon":5.40982,"is_reserved":false,"is_disabled":false,"rental_uris":{"android":"levelo://app?vid=993687f2-87fb-4152-85a2-3dd5a0b176fd","ios":"levelo://app?vid=993687f2-87fb-4152-85a2-3dd5a0b176fd"},"vehicle_type_id":"4","last_reported":1749475531,"current_range_meters":4000,"station_id":"ce4bhqh2rcd13ifvqhmg","pricing_plan_id":"cebpf4jnsgd1na2vs0mg"},{"bike_id":"10e4cab6-95d5-4fcd-8e59-2f18d542f0b9","system_id":"levelo_inurba_marseille","lat":43.28935,"lon":5.38383,"is_reserved":false,"is_disabled":false,"rental_uris":{"android":"levelo://app?vid=10e4cab6-95d5-4fcd-8e59-2f18d542f0b9","ios":"levelo://app?vid=10e4cab6-95d5-4fcd-8e59-2f18d542f0b9"},"vehicle_type_id":"4","last_reported":1749475531,"current_range_meters":4400,"station_id":"ce4bh612rcd13ifvqe6g","pricing_plan_id":"cebpf4jnsgd1na2vs0mg"},{"bike_id":"489aa523-0934-4b57-b054-b89677d8a1df","system_id":"levelo_inurba_marseille","lat":43.27627,"lon":5.36117,"is_reserved":false,"is_disabled":false,"rental_uris":{"android":"levelo://app?vid=489aa523-0934-4b57-b054-b89677d8a1df","ios":"levelo://app?vid=489aa523-0934-4b57-b054-b89677d8a1df"},"vehicle_type_id":"4","last_reported":1749475531,"current_range_meters":4400,"station_id":"ce4bgj92rcd13ifvqbe0","pricing_plan_id":"cebpf4jnsgd1na2vs0mg"},{"bike_id":"7c16632b-0494-4236-8f96-70146a70a4e4","system_id":"levelo_inurba_marseille","lat":43.22915,"lon":5.35376,"is_reserved":false,"is_disabled":false,"rental_uris":{"android":"levelo://app?vid=7c16632b-0494-4236-8f96-70146a70a4e4","ios":"levelo://app?vid=7c16632b-0494-4236-8f96-70146a70a4e4"},"vehicle_type_id":"4","last_reported":1749475531,"current_range_meters":4800,"station_id":"cpo3532slgdg3j2ikp40","pricing_plan_id":"cebpf4jnsgd1na2vs0mg"},{"bike_id":"df1847c9-08b4-437f-90e1-8da0faf46efd","system_id":"levelo_inurba_marseille","lat":43.2893,"lon":5.36402,"is_reserved":false,"is_disabled":false,"rental_uris":{"android":"levelo://app?vid=df1847c9-08b4-437f-90e1-8da0faf46efd","ios":"levelo://app?vid=df1847c9-08b4-437f-90e1-8da0faf46efd"},"vehicle_type_id":"4","last_reported":1749475531,"current_range_meters":4800,"station_id":"ce4bhc92rcd13ifvqetg","pricing_plan_id":"cebpf4jnsgd1na2vs0mg"},{"bike_id":"1ea4d901-280f-4050-a043-0b37afe86b03","system_id":"levelo_inurba_marseille","lat":43.21193,"lon":5.35063,"is_reserved":false,"is_disabled":false,"rental_uris":{"android":"levelo://app?vid=1ea4d901-280f-4050-a043-0b37afe86b03","ios":"levelo://app?vid=1ea4d901-280f-4050-a043-0b37afe86b03"},"vehicle_type_id":"4","last_reported":1749475531,"current_range_meters":4800,"station_id":"st_cvj6sg6p6f1abm77japg","pricing_plan_id":"cebpf4jnsgd1na2vs0mg"},{"bike_id":"67d4735d-a812-4e55-90bc-5641f4e35931","system_id":"levelo_inurba_marseille","lat":43.21189,"lon":5.35068,"is_reserved":false,"is_disabled":false,"rental_uris":{"android":"levelo://app?vid=67d4735d-a812-4e55-90bc-5641f4e35931","ios":"levelo://app?vid=67d4735d-a812-4e55-90bc-5641f4e35931"},"vehicle_type_id":"4","last_reported":1749475531,"current_range_meters":5600,"station_id":"st_cvj6sg6p6f1abm77japg","pricing_plan_id":"cebpf4jnsgd1na2vs0mg"},{"bike_id":"a4e124c6-5095-45d2-aa99-589e2d3ba3b5","system_id":"levelo_inurba_marseille","lat":43.27376,"lon":5.36266,"is_reserved":false,"is_disabled":false,"rental_uris":{"android":"levelo://app?vid=a4e124c6-5095-45d2-aa99-589e2d3ba3b5","ios":"levelo://app?vid=a4e124c6-5095-45d2-aa99-589e2d3ba3b5"},"vehicle_type_id":"4","last_reported":1749475531,"current_range_meters":5600,"station_id":"ce4bhbh2rcd13ifvqeo0","pricing_plan_id":"cebpf4jnsgd1na2vs0mg"},{"bike_id":"28831f32-49bd-4fb1-91e7-1817a72ca592","system_id":"levelo_inurba_marseille","lat":43.27617,"lon":5.36117,"is_reserved":false,"is_disabled":false,"rental_uris":{"android":"levelo://app?vid=28831f32-49bd-4fb1-91e7-1817a72ca592","ios":"levelo://app?vid=28831f32-49bd-4fb1-91e7-1817a72ca592"},"vehicle_type_id":"4","last_reported":1749475531,"current_range_meters":5600,"station_id":"ce4bgj92rcd13ifvqbe0","pricing_plan_id":"cebpf4jnsgd1na2vs0mg"},{"bike_id":"afa76be2-5eb8-4464-aea5-60e8c8725fd0","system_id":"levelo_inurba_marseille","lat":43.28101,"lon":5.37838,"is_reserved":false,"is_disabled":false,"rental_uris":{"android":"levelo://app?vid=afa76be2-5eb8-4464-aea5-60e8c8725fd0","ios":"levelo://app?vid=afa76be2-5eb8-4464-aea5-60e8c8725fd0"},"vehicle_type_id":"4","last_reported":1749475531,"current_range_meters":5600,"station_id":"ce4bha12rcd13ifvqee0","pricing_plan_id":"cebpf4jnsgd1na2vs0mg"},{"bike_id":"19b9d581-3680-42d2-9b05-5c990c0fe3c8","system_id":"levelo_inurba_marseille","lat":43.31761,"lon":5.38287,"is_reserved":false,"is_disabled":false,"rental_uris":{"android":"levelo://app?vid=19b9d581-3680-42d2-9b05-5c990c0fe3c8","ios":"levelo://app?vid=19b9d581-3680-42d2-9b05-5c990c0fe3c8"},"vehicle_type_id":"4","last_reported":1749475531,"current_range_meters":5600,"station_id":"","pricing_plan_id":"cebpf4jnsgd1na2vs0mg"},{"bike_id":"a2d73be7-868a-4600-9834-af16b43b12ad","system_id":"levelo_inurba_marseille","lat":43.24488,"lon":5.42522,"is_reserved":false,"is_disabled":false,"rental_uris":{"android":"levelo://app?vid=a2d73be7-868a-4600-9834-af16b43b12ad","ios":"levelo://app?vid=a2d73be7-868a-4600-9834-af16b43b12ad"},"vehicle_type_id":"4","last_reported":1749475531,"current_range_meters":6000,"station_id":"","pricing_plan_id":"cebpf4jnsgd1na2vs0mg"},{"bike_id":"513d1f34-2908-474f-a89f-b3daa224a6a3","system_id":"levelo_inurba_marseille","lat":43.21743,"lon":5.34596,"is_reserved":false,"is_disabled":false,"rental_uris":{"android":"levelo://app?vid=513d1f34-2908-474f-a89f-b3daa224a6a3","ios":"levelo://app?vid=513d1f34-2908-474f-a89f-b3daa224a6a3"},"vehicle_type_id":"4","last_reported":1749475531,"current_range_meters":6000,"station_id":"st_cvj6r9ubvosntc0bgbag","pricing_plan_id":"cebpf4jnsgd1na2vs0mg"},{"bike_id":"26372c51-88d2-45e3-9c15-627c8cea592d","system_id":"levelo_inurba_marseille","lat":43.23062,"lon":5.35461,"is_reserved":false,"is_disabled":false,"rental_uris":{"android":"levelo://app?vid=26372c51-88d2-45e3-9c15-627c8cea592d","ios":"levelo://app?vid=26372c51-88d2-45e3-9c15-627c8cea592d"},"vehicle_type_id":"4","last_reported":1749475531,"current_range_meters":6000,"station_id":"cpo3342slgdg3j2ifvpg","pricing_plan_id":"cebpf4jnsgd1na2vs0mg"},{"bike_id":"2a5849e6-d5ec-4570-89c0-b9cdf0db8e73","system_id":"levelo_inurba_marseille","lat":43.260254,"lon":5.375339,"is_reserved":false,"is_disabled":false,"rental_uris":{"android":"levelo://app?vid=2a5849e6-d5ec-4570-89c0-b9cdf0db8e73","ios":"levelo://app?vid=2a5849e6-d5ec-4570-89c0-b9cdf0db8e73"},"vehicle_type_id":"4","last_reported":1749475531,"current_range_meters":6400,"station_id":"ce4bhgh2rcd13ifvqfa0","pricing_plan_id":"cebpf4jnsgd1na2vs0mg"},{"bike_id":"0d4f24b7-ead4-4d64-8909-67951a8aa8aa","system_id":"levelo_inurba_marseille","lat":43.28567,"lon":5.39498,"is_reserved":false,"is_disabled":false,"rental_uris":{"android":"levelo://app?vid=0d4f24b7-ead4-4d64-8909-67951a8aa8aa","ios":"levelo://app?vid=0d4f24b7-ead4-4d64-8909-67951a8aa8aa"},"vehicle_type_id":"4","last_reported":1749475531,"current_range_meters":6400,"station_id":"ce4bh292rcd13ifvqdg0","pricing_plan_id":"cebpf4jnsgd1na2vs0mg"},{"bike_id":"fe0cc02e-73a7-4400-bb53-2b58e4c336bc","system_id":"levelo_inurba_marseille","lat":43.28616,"lon":5.35107,"is_reserved":false,"is_disabled":false,"rental_uris":{"android":"levelo://app?vid=fe0cc02e-73a7-4400-bb53-2b58e4c336bc","ios":"levelo://app?vid=fe0cc02e-73a7-4400-bb53-2b58e4c336bc"},"vehicle_type_id":"4","last_reported":1749475531,"current_range_meters":6400,"station_id":"ce4bhch2rcd13ifvqeug","pricing_plan_id":"cebpf4jnsgd1na2vs0mg"},{"bike_id":"c96237fc-8bc6-4574-a13f-34d99827e293","system_id":"levelo_inurba_marseille","lat":43.28271,"lon":5.3508,"is_reserved":false,"is_disabled":false,"rental_uris":{"android":"levelo://app?vid=c96237fc-8bc6-4574-a13f-34d99827e293","ios":"levelo://app?vid=c96237fc-8bc6-4574-a13f-34d99827e293"},"vehicle_type_id":"4","last_reported":1749475531,"current_range_meters":6400,"station_id":"ce4bhbp2rcd13ifvqerg","pricing_plan_id":"cebpf4jnsgd1na2vs0mg"},{"bike_id":"a61242dd-8369-4520-9963-a504224e1a30","system_id":"levelo_inurba_marseille","lat":43.23145,"lon":5.40812,"is_reserved":false,"is_disabled":false,"rental_uris":{"android":"levelo://app?vid=a61242dd-8369-4520-9963-a504224e1a30","ios":"levelo://app?vid=a61242dd-8369-4520-9963-a504224e1a30"},"vehicle_type_id":"4","last_reported":1749475531,"current_range_meters":6800,"station_id":"","pricing_plan_id":"cebpf4jnsgd1na2vs0mg"},{"bike_id":"0975fdd4-d9a3-477f-b59e-565071d08eec","system_id":"levelo_inurba_marseille","lat":43.22937,"lon":5.35362,"is_reserved":false,"is_disabled":false,"rental_uris":{"android":"levelo://app?vid=0975fdd4-d9a3-477f-b59e-565071d08eec","ios":"levelo://app?vid=0975fdd4-d9a3-477f-b59e-565071d08eec"},"vehicle_type_id":"4","last_reported":1749475531,"current_range_meters":6800,"station_id":"cpo3532slgdg3j2ikp40","pricing_plan_id":"cebpf4jnsgd1na2vs0mg"},{"bike_id":"91985689-d5be-4c19-95fe-1eb2ea3ded63","system_id":"levelo_inurba_marseille","lat":43.2872,"lon":5.36085,"is_reserved":false,"is_disabled":false,"rental_uris":{"android":"levelo://app?vid=91985689-d5be-4c19-95fe-1eb2ea3ded63","ios":"levelo://app?vid=91985689-d5be-4c19-95fe-1eb2ea3ded63"},"vehicle_type_id":"4","last_reported":1749475531,"current_range_meters":6800,"station_id":"cki0cbj6b192h4jlfktg","pricing_plan_id":"cebpf4jnsgd1na2vs0mg"},{"bike_id":"05a408d4-2bec-42ea-9ff2-c5cc3e64fd2e","system_id":"levelo_inurba_marseille","lat":43.2918,"lon":5.35827,"is_reserved":false,"is_disabled":false,"rental_uris":{"android":"levelo://app?vid=05a408d4-2bec-42ea-9ff2-c5cc3e64fd2e","ios":"levelo://app?vid=05a408d4-2bec-42ea-9ff2-c5cc3e64fd2e"},"vehicle_type_id":"4","last_reported":1749475531,"current_range_meters":7200,"station_id":"ce4bhbh2rcd13ifvqeqg","pricing_plan_id":"cebpf4jnsgd1na2vs0mg"},{"bike_id":"33df3fda-81f2-42f6-a280-e2a0621420e2","system_id":"levelo_inurba_marseille","lat":43.27057,"lon":5.40279,"is_reserved":false,"is_disabled":false,"rental_uris":{"android":"levelo://app?vid=33df3fda-81f2-42f6-a280-e2a0621420e2","ios":"levelo://app?vid=33df3fda-81f2-42f6-a280-e2a0621420e2"},"vehicle_type_id":"4","last_reported":1749475531,"current_range_meters":7200,"station_id":"ce4bhk92rcd13ifvqgc0","pricing_plan_id":"cebpf4jnsgd1na2vs0mg"},{"bike_id":"00bb6238-b291-445b-968d-8453a8443f5f","system_id":"levelo_inurba_marseille","lat":43.28946,"lon":5.39635,"is_reserved":false,"is_disabled":false,"rental_uris":{"android":"levelo://app?vid=00bb6238-b291-445b-968d-8453a8443f5f","ios":"levelo://app?vid=00bb6238-b291-445b-968d-8453a8443f5f"},"vehicle_type_id":"4","last_reported":1749475531,"current_range_meters":7200,"station_id":"ce4bh3h2rcd13ifvqdn0","pricing_plan_id":"cebpf4jnsgd1na2vs0mg"},{"bike_id":"fb2ad6e3-31da-459d-8ccf-3f91b11dac35","system_id":"levelo_inurba_marseille","lat":43.25868,"lon":5.39901,"is_reserved":false,"is_disabled":false,"rental_uris":{"android":"levelo://app?vid=fb2ad6e3-31da-459d-8ccf-3f91b11dac35","ios":"levelo://app?vid=fb2ad6e3-31da-459d-8ccf-3f91b11dac35"},"vehicle_type_id":"4","last_reported":1749475531,"current_range_meters":7200,"station_id":"ce4bhl92rcd13ifvqghg","pricing_plan_id":"cebpf4jnsgd1na2vs0mg"},{"bike_id":"9fcaf7a1-e644-418c-93d5-9c552a1df8e8","system_id":"levelo_inurba_marseille","lat":43.29009,"lon":5.35607,"is_reserved":false,"is_disabled":false,"rental_uris":{"android":"levelo://app?vid=9fcaf7a1-e644-418c-93d5-9c552a1df8e8","ios":"levelo://app?vid=9fcaf7a1-e644-418c-93d5-9c552a1df8e8"},"vehicle_type_id":"4","last_reported":1749475531,"current_range_meters":7200,"station_id":"ce4bhb92rcd13ifvqen0","pricing_plan_id":"cebpf4jnsgd1na2vs0mg"},{"bike_id":"a9427e31-de97-4175-86b3-1f098588488a","system_id":"levelo_inurba_marseille","lat":43.31155,"lon":5.38716,"is_reserved":false,"is_disabled":false,"rental_uris":{"android":"levelo://app?vid=a9427e31-de97-4175-86b3-1f098588488a","ios":"levelo://app?vid=a9427e31-de97-4175-86b3-1f098588488a"},"vehicle_type_id":"4","last_reported":1749475531,"current_range_meters":7200,"station_id":"ce4bgv12rcd13ifvqcp0","pricing_plan_id":"cebpf4jnsgd1na2vs0mg"},{"bike_id":"c7de9924-dfb7-4b4b-b584-1c271b3887d2","system_id":"levelo_inurba_marseille","lat":43.21756,"lon":5.34602,"is_reserved":false,"is_disabled":false,"rental_uris":{"android":"levelo://app?vid=c7de9924-dfb7-4b4b-b584-1c271b3887d2","ios":"levelo://app?vid=c7de9924-dfb7-4b4b-b584-1c271b3887d2"},"vehicle_type_id":"4","last_reported":1749475531,"current_range_meters":8000,"station_id":"st_cvj6r9ubvosntc0bgbag","pricing_plan_id":"cebpf4jnsgd1na2vs0mg"},{"bike_id":"26b898cc-11a0-4c85-a890-8a9bb099fecf","system_id":"levelo_inurba_marseille","lat":43.32288,"lon":5.38271,"is_reserved":false,"is_disabled":false,"rental_uris":{"android":"levelo://app?vid=26b898cc-11a0-4c85-a890-8a9bb099fecf","ios":"levelo://app?vid=26b898cc-11a0-4c85-a890-8a9bb099fecf"},"vehicle_type_id":"4","last_reported":1749475531,"current_range_meters":8000,"station_id":"ce4bhr12rcd13ifvqhqg","pricing_plan_id":"cebpf4jnsgd1na2vs0mg"},{"bike_id":"e789db96-5390-475e-be94-97ae95e7e988","system_id":"levelo_inurba_marseille","lat":43.22929,"lon":5.35388,"is_reserved":false,"is_disabled":false,"rental_uris":{"android":"levelo://app?vid=e789db96-5390-475e-be94-97ae95e7e988","ios":"levelo://app?vid=e789db96-5390-475e-be94-97ae95e7e988"},"vehicle_type_id":"4","last_reported":1749475531,"current_range_meters":8000,"station_id":"cpo3532slgdg3j2ikp40","pricing_plan_id":"cebpf4jnsgd1na2vs0mg"},{"bike_id":"8154f088-1e30-4887-be97-4a8b3ae33852","system_id":"levelo_inurba_marseille","lat":43.27617,"lon":5.3612,"is_reserved":false,"is_disabled":false,"rental_uris":{"android":"levelo://app?vid=8154f088-1e30-4887-be97-4a8b3ae33852","ios":"levelo://app?vid=8154f088-1e30-4887-be97-4a8b3ae33852"},"vehicle_type_id":"4","last_reported":1749475531,"current_range_meters":8000,"station_id":"ce4bgj92rcd13ifvqbe0","pricing_plan_id":"cebpf4jnsgd1na2vs0mg"},{"bike_id":"64c3a14b-911b-4f39-952e-8678e1ac9afb","system_id":"levelo_inurba_marseille","lat":43.2957,"lon":5.39969,"is_reserved":false,"is_disabled":false,"rental_uris":{"android":"levelo://app?vid=64c3a14b-911b-4f39-952e-8678e1ac9afb","ios":"levelo://app?vid=64c3a14b-911b-4f39-952e-8678e1ac9afb"},"vehicle_type_id":"4","last_reported":1749475531,"current_range_meters":8000,"station_id":"ce4bh312rcd13ifvqdj0","pricing_plan_id":"cebpf4jnsgd1na2vs0mg"},{"bike_id":"ed818748-7f3c-4733-a048-592113e42693","system_id":"levelo_inurba_marseille","lat":43.27383,"lon":5.36261,"is_reserved":false,"is_disabled":false,"rental_uris":{"android":"levelo://app?vid=ed818748-7f3c-4733-a048-592113e42693","ios":"levelo://app?vid=ed818748-7f3c-4733-a048-592113e42693"},"vehicle_type_id":"4","last_reported":1749475531,"current_range_meters":8400,"station_id":"ce4bhbh2rcd13ifvqeo0","pricing_plan_id":"cebpf4jnsgd1na2vs0mg"},{"bike_id":"eb3d2c32-2902-44a8-b56b-80a8f88b700e","system_id":"levelo_inurba_marseille","lat":43.2623,"lon":5.40445,"is_reserved":false,"is_disabled":false,"rental_uris":{"android":"levelo://app?vid=eb3d2c32-2902-44a8-b56b-80a8f88b700e","ios":"levelo://app?vid=eb3d2c32-2902-44a8-b56b-80a8f88b700e"},"vehicle_type_id":"4","last_reported":1749475531,"current_range_meters":8400,"station_id":"ce4bhmh2rcd13ifvqgmg","pricing_plan_id":"cebpf4jnsgd1na2vs0mg"},{"bike_id":"1e586377-e5cd-4379-a2f0-02b4a6a16d45","system_id":"levelo_inurba_marseille","lat":43.26027,"lon":5.37549,"is_reserved":false,"is_disabled":false,"rental_uris":{"android":"levelo://app?vid=1e586377-e5cd-4379-a2f0-02b4a6a16d45","ios":"levelo://app?vid=1e586377-e5cd-4379-a2f0-02b4a6a16d45"},"vehicle_type_id":"4","last_reported":1749475531,"current_range_meters":8400,"station_id":"ce4bhgh2rcd13ifvqfa0","pricing_plan_id":"cebpf4jnsgd1na2vs0mg"},{"bike_id":"6c3aa761-e16b-43d0-833f-6be12a418fe4","system_id":"levelo_inurba_marseille","lat":43.24174,"lon":5.39696,"is_reserved":false,"is_disabled":false,"rental_uris":{"android":"levelo://app?vid=6c3aa761-e16b-43d0-833f-6be12a418fe4","ios":"levelo://app?vid=6c3aa761-e16b-43d0-833f-6be12a418fe4"},"vehicle_type_id":"4","last_reported":1749475531,"current_range_meters":8400,"station_id":"ce4bhn12rcd13ifvqgpg","pricing_plan_id":"cebpf4jnsgd1na2vs0mg"},{"bike_id":"2bb8de4a-eb57-4997-8b53-c03c96ed1a90","system_id":"levelo_inurba_marseille","lat":43.31326,"lon":5.39691,"is_reserved":false,"is_disabled":false,"rental_uris":{"android":"levelo://app?vid=2bb8de4a-eb57-4997-8b53-c03c96ed1a90","ios":"levelo://app?vid=2bb8de4a-eb57-4997-8b53-c03c96ed1a90"},"vehicle_type_id":"4","last_reported":1749475531,"current_range_meters":8400,"station_id":"ce4bgvp2rcd13ifvqcu0","pricing_plan_id":"cebpf4jnsgd1na2vs0mg"},{"bike_id":"58458b01-fd4b-427b-9334-a1e6209bb4c9","system_id":"levelo_inurba_marseille","lat":43.23197,"lon":5.35559,"is_reserved":false,"is_disabled":false,"rental_uris":{"android":"levelo://app?vid=58458b01-fd4b-427b-9334-a1e6209bb4c9","ios":"levelo://app?vid=58458b01-fd4b-427b-9334-a1e6209bb4c9"},"vehicle_type_id":"4","last_reported":1749475531,"current_range_meters":8800,"station_id":"ce4bhu92rcd13ifvqi70","pricing_plan_id":"cebpf4jnsgd1na2vs0mg"},{"bike_id":"c5544de6-bf44-4324-8019-d8f21faf58c6","system_id":"levelo_inurba_marseille","lat":43.27206,"lon":5.39183,"is_reserved":false,"is_disabled":false,"rental_uris":{"android":"levelo://app?vid=c5544de6-bf44-4324-8019-d8f21faf58c6","ios":"levelo://app?vid=c5544de6-bf44-4324-8019-d8f21faf58c6"},"vehicle_type_id":"4","last_reported":1749475531,"current_range_meters":8800,"station_id":"ce4bhhp2rcd13ifvqfm0","pricing_plan_id":"cebpf4jnsgd1na2vs0mg"},{"bike_id":"5f1c6985-c419-46ba-848a-a4d425d8b441","system_id":"levelo_inurba_marseille","lat":43.28268,"lon":5.35074,"is_reserved":false,"is_disabled":false,"rental_uris":{"android":"levelo://app?vid=5f1c6985-c419-46ba-848a-a4d425d8b441","ios":"levelo://app?vid=5f1c6985-c419-46ba-848a-a4d425d8b441"},"vehicle_type_id":"4","last_reported":1749475531,"current_range_meters":8800,"station_id":"ce4bhbp2rcd13ifvqerg","pricing_plan_id":"cebpf4jnsgd1na2vs0mg"},{"bike_id":"2b3ace18-cc23-4e80-8df8-d6854fdb2ce3","system_id":"levelo_inurba_marseille","lat":43.27941,"lon":5.41055,"is_reserved":false,"is_disabled":false,"rental_uris":{"android":"levelo://app?vid=2b3ace18-cc23-4e80-8df8-d6854fdb2ce3","ios":"levelo://app?vid=2b3ace18-cc23-4e80-8df8-d6854fdb2ce3"},"vehicle_type_id":"4","last_reported":1749475531,"current_range_meters":8800,"station_id":"ce4bhnp2rcd13ifvqh0g","pricing_plan_id":"cebpf4jnsgd1na2vs0mg"},{"bike_id":"781bcf50-52ca-4350-bf0f-8071b3b2b128","system_id":"levelo_inurba_marseille","lat":43.299021,"lon":5.436655,"is_reserved":false,"is_disabled":false,"rental_uris":{"android":"levelo://app?vid=781bcf50-52ca-4350-bf0f-8071b3b2b128","ios":"levelo://app?vid=781bcf50-52ca-4350-bf0f-8071b3b2b128"},"vehicle_type_id":"4","last_reported":1749475531,"current_range_meters":8800,"station_id":"","pricing_plan_id":"cebpf4jnsgd1na2vs0mg"},{"bike_id":"21afb8cc-30de-4f4e-acf0-48ecce3b6823","system_id":"levelo_inurba_marseille","lat":43.27561,"lon":5.38415,"is_reserved":false,"is_disabled":false,"rental_uris":{"android":"levelo://app?vid=21afb8cc-30de-4f4e-acf0-48ecce3b6823","ios":"levelo://app?vid=21afb8cc-30de-4f4e-acf0-48ecce3b6823"},"vehicle_type_id":"4","last_reported":1749475531,"current_range_meters":9200,"station_id":"ce4bhh92rcd13ifvqfi0","pricing_plan_id":"cebpf4jnsgd1na2vs0mg"},{"bike_id":"2d347d19-06b6-431c-997a-7c82b57469c5","system_id":"levelo_inurba_marseille","lat":43.29579,"lon":5.36745,"is_reserved":false,"is_disabled":false,"rental_uris":{"android":"levelo://app?vid=2d347d19-06b6-431c-997a-7c82b57469c5","ios":"levelo://app?vid=2d347d19-06b6-431c-997a-7c82b57469c5"},"vehicle_type_id":"4","last_reported":1749475531,"current_range_meters":9200,"station_id":"ce4bgph2rcd13ifvqc2g","pricing_plan_id":"cebpf4jnsgd1na2vs0mg"},{"bike_id":"11d99533-1239-4522-b0b5-f8a3bff696e7","system_id":"levelo_inurba_marseille","lat":43.301358,"lon":5.424482,"is_reserved":false,"is_disabled":false,"rental_uris":{"android":"levelo://app?vid=11d99533-1239-4522-b0b5-f8a3bff696e7","ios":"levelo://app?vid=11d99533-1239-4522-b0b5-f8a3bff696e7"},"vehicle_type_id":"4","last_reported":1749475531,"current_range_meters":9200,"station_id":"","pricing_plan_id":"cebpf4jnsgd1na2vs0mg"},{"bike_id":"ca726e19-3770-4596-a227-b7a7fe39b049","system_id":"levelo_inurba_marseille","lat":43.2867,"lon":5.36349,"is_reserved":false,"is_disabled":false,"rental_uris":{"android":"levelo://app?vid=ca726e19-3770-4596-a227-b7a7fe39b049","ios":"levelo://app?vid=ca726e19-3770-4596-a227-b7a7fe39b049"},"vehicle_type_id":"4","last_reported":1749475531,"current_range_meters":9200,"station_id":"ce4bhah2rcd13ifvqej0","pricing_plan_id":"cebpf4jnsgd1na2vs0mg"},{"bike_id":"9216dba1-771f-4e5a-af74-387979995090","system_id":"levelo_inurba_marseille","lat":43.21191,"lon":5.35065,"is_reserved":false,"is_disabled":false,"rental_uris":{"android":"levelo://app?vid=9216dba1-771f-4e5a-af74-387979995090","ios":"levelo://app?vid=9216dba1-771f-4e5a-af74-387979995090"},"vehicle_type_id":"4","last_reported":1749475531,"current_range_meters":9200,"station_id":"st_cvj6sg6p6f1abm77japg","pricing_plan_id":"cebpf4jnsgd1na2vs0mg"},{"bike_id":"9ab5dcb2-22af-49e2-b2c1-32117ad578dc","system_id":"levelo_inurba_marseille","lat":43.29504,"lon":5.42606,"is_reserved":false,"is_disabled":false,"rental_uris":{"android":"levelo://app?vid=9ab5dcb2-22af-49e2-b2c1-32117ad578dc","ios":"levelo://app?vid=9ab5dcb2-22af-49e2-b2c1-32117ad578dc"},"vehicle_type_id":"4","last_reported":1749475531,"current_range_meters":9200,"station_id":"","pricing_plan_id":"cebpf4jnsgd1na2vs0mg"},{"bike_id":"d0b72d65-79b0-4986-805e-066fa2089486","system_id":"levelo_inurba_marseille","lat":43.23194,"lon":5.35555,"is_reserved":false,"is_disabled":false,"rental_uris":{"android":"levelo://app?vid=d0b72d65-79b0-4986-805e-066fa2089486","ios":"levelo://app?vid=d0b72d65-79b0-4986-805e-066fa2089486"},"vehicle_type_id":"4","last_reported":1749475531,"current_range_meters":9200,"station_id":"ce4bhu92rcd13ifvqi70","pricing_plan_id":"cebpf4jnsgd1na2vs0mg"},{"bike_id":"8b4caff4-6ee7-47a5-a64f-5ccaa83c132f","system_id":"levelo_inurba_marseille","lat":43.295252,"lon":5.425061,"is_reserved":false,"is_disabled":false,"rental_uris":{"android":"levelo://app?vid=8b4caff4-6ee7-47a5-a64f-5ccaa83c132f","ios":"levelo://app?vid=8b4caff4-6ee7-47a5-a64f-5ccaa83c132f"},"vehicle_type_id":"4","last_reported":1749475531,"current_range_meters":9200,"station_id":"","pricing_plan_id":"cebpf4jnsgd1na2vs0mg"},{"bike_id":"47d3893d-7681-4b70-bc58-074880a0c806","system_id":"levelo_inurba_marseille","lat":43.28863,"lon":5.39326,"is_reserved":false,"is_disabled":false,"rental_uris":{"android":"levelo://app?vid=47d3893d-7681-4b70-bc58-074880a0c806","ios":"levelo://app?vid=47d3893d-7681-4b70-bc58-074880a0c806"},"vehicle_type_id":"4","last_reported":1749475531,"current_range_meters":9200,"station_id":"ce4bh2p2rcd13ifvqdi0","pricing_plan_id":"cebpf4jnsgd1na2vs0mg"},{"bike_id":"d0335b62-b327-476c-91be-37179ff89c90","system_id":"levelo_inurba_marseille","lat":43.26211,"lon":5.37442,"is_reserved":false,"is_disabled":false,"rental_uris":{"android":"levelo://app?vid=d0335b62-b327-476c-91be-37179ff89c90","ios":"levelo://app?vid=d0335b62-b327-476c-91be-37179ff89c90"},"vehicle_type_id":"4","last_reported":1749475531,"current_range_meters":9200,"station_id":"ce4bhgp2rcd13ifvqfc0","pricing_plan_id":"cebpf4jnsgd1na2vs0mg"},{"bike_id":"715e2a85-5828-4db5-a027-5d77b00d6877","system_id":"levelo_inurba_marseille","lat":43.27365,"lon":5.36246,"is_reserved":false,"is_disabled":false,"rental_uris":{"android":"levelo://app?vid=715e2a85-5828-4db5-a027-5d77b00d6877","ios":"levelo://app?vid=715e2a85-5828-4db5-a027-5d77b00d6877"},"vehicle_type_id":"4","last_reported":1749475531,"current_range_meters":9200,"station_id":"ce4bhbh2rcd13ifvqeo0","pricing_plan_id":"cebpf4jnsgd1na2vs0mg"},{"bike_id":"9bb589e3-ca6a-44be-9024-39591597b190","system_id":"levelo_inurba_marseille","lat":43.22508,"lon":5.34786,"is_reserved":false,"is_disabled":false,"rental_uris":{"android":"levelo://app?vid=9bb589e3-ca6a-44be-9024-39591597b190","ios":"levelo://app?vid=9bb589e3-ca6a-44be-9024-39591597b190"},"vehicle_type_id":"4","last_reported":1749475531,"current_range_meters":9200,"station_id":"st_cvj5dfep6f1abm77gieg","pricing_plan_id":"cebpf4jnsgd1na2vs0mg"},{"bike_id":"9d073130-46db-46c4-affb-6564e2de5a50","system_id":"levelo_inurba_marseille","lat":43.32363,"lon":5.38886,"is_reserved":false,"is_disabled":false,"rental_uris":{"android":"levelo://app?vid=9d073130-46db-46c4-affb-6564e2de5a50","ios":"levelo://app?vid=9d073130-46db-46c4-affb-6564e2de5a50"},"vehicle_type_id":"4","last_reported":1749475531,"current_range_meters":9200,"station_id":"ce4bhqp2rcd13ifvqhog","pricing_plan_id":"cebpf4jnsgd1na2vs0mg"},{"bike_id":"75229b7c-c247-4e90-a696-4a9a5bd929a9","system_id":"levelo_inurba_marseille","lat":43.28653,"lon":5.38675,"is_reserved":false,"is_disabled":false,"rental_uris":{"android":"levelo://app?vid=75229b7c-c247-4e90-a696-4a9a5bd929a9","ios":"levelo://app?vid=75229b7c-c247-4e90-a696-4a9a5bd929a9"},"vehicle_type_id":"4","last_reported":1749475531,"current_range_meters":9200,"station_id":"ce4bh492rcd13ifvqdug","pricing_plan_id":"cebpf4jnsgd1na2vs0mg"},{"bike_id":"ee7a2e6a-3e65-41f6-b8b3-501fb42682dc","system_id":"levelo_inurba_marseille","lat":43.27556,"lon":5.384355,"is_reserved":false,"is_disabled":true,"rental_uris":{"android":"levelo://app?vid=ee7a2e6a-3e65-41f6-b8b3-501fb42682dc","ios":"levelo://app?vid=ee7a2e6a-3e65-41f6-b8b3-501fb42682dc"},"vehicle_type_id":"4","last_reported":1749475531,"current_range_meters":9200,"station_id":"ce4bhh92rcd13ifvqfi0","pricing_plan_id":"cebpf4jnsgd1na2vs0mg"},{"bike_id":"7eedcc0e-33d2-492d-876b-2852803d9891","system_id":"levelo_inurba_marseille","lat":43.26495,"lon":5.39234,"is_reserved":false,"is_disabled":false,"rental_uris":{"android":"levelo://app?vid=7eedcc0e-33d2-492d-876b-2852803d9891","ios":"levelo://app?vid=7eedcc0e-33d2-492d-876b-2852803d9891"},"vehicle_type_id":"4","last_reported":1749475531,"current_range_meters":9200,"station_id":"","pricing_plan_id":"cebpf4jnsgd1na2vs0mg"},{"bike_id":"b32cb2ec-77df-4bec-9704-430af7d8754a","system_id":"levelo_inurba_marseille","lat":43.27621,"lon":5.36111,"is_reserved":false,"is_disabled":false,"rental_uris":{"android":"levelo://app?vid=b32cb2ec-77df-4bec-9704-430af7d8754a","ios":"levelo://app?vid=b32cb2ec-77df-4bec-9704-430af7d8754a"},"vehicle_type_id":"4","last_reported":1749475531,"current_range_meters":9200,"station_id":"ce4bgj92rcd13ifvqbe0","pricing_plan_id":"cebpf4jnsgd1na2vs0mg"},{"bike_id":"3bb87db6-8022-418f-a4aa-7c455834f81e","system_id":"levelo_inurba_marseille","lat":43.23574,"lon":5.37915,"is_reserved":false,"is_disabled":false,"rental_uris":{"android":"levelo://app?vid=3bb87db6-8022-418f-a4aa-7c455834f81e","ios":"levelo://app?vid=3bb87db6-8022-418f-a4aa-7c455834f81e"},"vehicle_type_id":"4","last_reported":1749475531,"current_range_meters":9600,"station_id":"","pricing_plan_id":"cebpf4jnsgd1na2vs0mg"},{"bike_id":"ef608f7f-cb68-4f08-810f-2108de97b2a4","system_id":"levelo_inurba_marseille","lat":43.289443,"lon":5.363888,"is_reserved":false,"is_disabled":false,"rental_uris":{"android":"levelo://app?vid=ef608f7f-cb68-4f08-810f-2108de97b2a4","ios":"levelo://app?vid=ef608f7f-cb68-4f08-810f-2108de97b2a4"},"vehicle_type_id":"4","last_reported":1749475531,"current_range_meters":9600,"station_id":"ce4bhc92rcd13ifvqetg","pricing_plan_id":"cebpf4jnsgd1na2vs0mg"},{"bike_id":"5478c1b4-4c7d-476f-b8e4-102490ff70cd","system_id":"levelo_inurba_marseille","lat":43.31927,"lon":5.37289,"is_reserved":false,"is_disabled":false,"rental_uris":{"android":"levelo://app?vid=5478c1b4-4c7d-476f-b8e4-102490ff70cd","ios":"levelo://app?vid=5478c1b4-4c7d-476f-b8e4-102490ff70cd"},"vehicle_type_id":"4","last_reported":1749475531,"current_range_meters":9600,"station_id":"","pricing_plan_id":"cebpf4jnsgd1na2vs0mg"},{"bike_id":"ee83b6ef-e72c-4889-82d5-481eeeb34013","system_id":"levelo_inurba_marseille","lat":43.2175,"lon":5.34612,"is_reserved":false,"is_disabled":false,"rental_uris":{"android":"levelo://app?vid=ee83b6ef-e72c-4889-82d5-481eeeb34013","ios":"levelo://app?vid=ee83b6ef-e72c-4889-82d5-481eeeb34013"},"vehicle_type_id":"4","last_reported":1749475531,"current_range_meters":9600,"station_id":"st_cvj6r9ubvosntc0bgbag","pricing_plan_id":"cebpf4jnsgd1na2vs0mg"},{"bike_id":"46102b29-0979-4f90-af23-97c6f7589e44","system_id":"levelo_inurba_marseille","lat":43.21747,"lon":5.34611,"is_reserved":false,"is_disabled":false,"rental_uris":{"android":"levelo://app?vid=46102b29-0979-4f90-af23-97c6f7589e44","ios":"levelo://app?vid=46102b29-0979-4f90-af23-97c6f7589e44"},"vehicle_type_id":"4","last_reported":1749475531,"current_range_meters":9600,"station_id":"st_cvj6r9ubvosntc0bgbag","pricing_plan_id":"cebpf4jnsgd1na2vs0mg"},{"bike_id":"33748f86-c3ed-4636-912b-f1073f3b4c48","system_id":"levelo_inurba_marseille","lat":43.27376,"lon":5.36257,"is_reserved":false,"is_disabled":false,"rental_uris":{"android":"levelo://app?vid=33748f86-c3ed-4636-912b-f1073f3b4c48","ios":"levelo://app?vid=33748f86-c3ed-4636-912b-f1073f3b4c48"},"vehicle_type_id":"4","last_reported":1749475531,"current_range_meters":9600,"station_id":"ce4bhbh2rcd13ifvqeo0","pricing_plan_id":"cebpf4jnsgd1na2vs0mg"},{"bike_id":"dd67f108-95bf-4a1e-b619-4bb77e009c5b","system_id":"levelo_inurba_marseille","lat":43.29061,"lon":5.42762,"is_reserved":false,"is_disabled":false,"rental_uris":{"android":"levelo://app?vid=dd67f108-95bf-4a1e-b619-4bb77e009c5b","ios":"levelo://app?vid=dd67f108-95bf-4a1e-b619-4bb77e009c5b"},"vehicle_type_id":"4","last_reported":1749475531,"current_range_meters":9600,"station_id":"","pricing_plan_id":"cebpf4jnsgd1na2vs0mg"},{"bike_id":"2b74abfb-1262-40a3-bda3-f22e67504377","system_id":"levelo_inurba_marseille","lat":43.304423,"lon":5.368919,"is_reserved":false,"is_disabled":false,"rental_uris":{"android":"levelo://app?vid=2b74abfb-1262-40a3-bda3-f22e67504377","ios":"levelo://app?vid=2b74abfb-1262-40a3-bda3-f22e67504377"},"vehicle_type_id":"4","last_reported":1749475531,"current_range_meters":9600,"station_id":"","pricing_plan_id":"cebpf4jnsgd1na2vs0mg"},{"bike_id":"a01e81e9-ea72-462f-9f71-61179b3ebab4","system_id":"levelo_inurba_marseille","lat":43.29528,"lon":5.37501,"is_reserved":false,"is_disabled":false,"rental_uris":{"android":"levelo://app?vid=a01e81e9-ea72-462f-9f71-61179b3ebab4","ios":"levelo://app?vid=a01e81e9-ea72-462f-9f71-61179b3ebab4"},"vehicle_type_id":"4","last_reported":1749475531,"current_range_meters":9600,"station_id":"ce4bgkp2rcd13ifvqbmg","pricing_plan_id":"cebpf4jnsgd1na2vs0mg"},{"bike_id":"809ebc01-e73f-4e18-a6e8-d6db6fb4da87","system_id":"levelo_inurba_marseille","lat":43.25495,"lon":5.37648,"is_reserved":false,"is_disabled":false,"rental_uris":{"android":"levelo://app?vid=809ebc01-e73f-4e18-a6e8-d6db6fb4da87","ios":"levelo://app?vid=809ebc01-e73f-4e18-a6e8-d6db6fb4da87"},"vehicle_type_id":"4","last_reported":1749475531,"current_range_meters":9600,"station_id":"ce4bhh12rcd13ifvqff0","pricing_plan_id":"cebpf4jnsgd1na2vs0mg"},{"bike_id":"6246825d-02f4-4b98-9ee0-336fe2684f68","system_id":"levelo_inurba_marseille","lat":43.31656,"lon":5.38965,"is_reserved":false,"is_disabled":false,"rental_uris":{"android":"levelo://app?vid=6246825d-02f4-4b98-9ee0-336fe2684f68","ios":"levelo://app?vid=6246825d-02f4-4b98-9ee0-336fe2684f68"},"vehicle_type_id":"4","last_reported":1749475531,"current_range_meters":9600,"station_id":"","pricing_plan_id":"cebpf4jnsgd1na2vs0mg"},{"bike_id":"7101e620-cc76-4028-b91a-a52aa997ec1d","system_id":"levelo_inurba_marseille","lat":43.30635,"lon":5.37382,"is_reserved":false,"is_disabled":false,"rental_uris":{"android":"levelo://app?vid=7101e620-cc76-4028-b91a-a52aa997ec1d","ios":"levelo://app?vid=7101e620-cc76-4028-b91a-a52aa997ec1d"},"vehicle_type_id":"4","last_reported":1749475531,"current_range_meters":9600,"station_id":"","pricing_plan_id":"cebpf4jnsgd1na2vs0mg"},{"bike_id":"649a7053-0d2a-4dc9-8125-ff6f6a643fa3","system_id":"levelo_inurba_marseille","lat":43.26204,"lon":5.37473,"is_reserved":false,"is_disabled":false,"rental_uris":{"android":"levelo://app?vid=649a7053-0d2a-4dc9-8125-ff6f6a643fa3","ios":"levelo://app?vid=649a7053-0d2a-4dc9-8125-ff6f6a643fa3"},"vehicle_type_id":"4","last_reported":1749475531,"current_range_meters":10000,"station_id":"ce4bhgp2rcd13ifvqfc0","pricing_plan_id":"cebpf4jnsgd1na2vs0mg"},{"bike_id":"1f99bae8-b64b-4aeb-8739-f815029c8434","system_id":"levelo_inurba_marseille","lat":43.21745,"lon":5.34609,"is_reserved":false,"is_disabled":false,"rental_uris":{"android":"levelo://app?vid=1f99bae8-b64b-4aeb-8739-f815029c8434","ios":"levelo://app?vid=1f99bae8-b64b-4aeb-8739-f815029c8434"},"vehicle_type_id":"4","last_reported":1749475531,"current_range_meters":10000,"station_id":"st_cvj6r9ubvosntc0bgbag","pricing_plan_id":"cebpf4jnsgd1na2vs0mg"},{"bike_id":"c64d6a1b-d16c-4cda-8bb5-cc968830eec9","system_id":"levelo_inurba_marseille","lat":43.28719,"lon":5.3609,"is_reserved":false,"is_disabled":false,"rental_uris":{"android":"levelo://app?vid=c64d6a1b-d16c-4cda-8bb5-cc968830eec9","ios":"levelo://app?vid=c64d6a1b-d16c-4cda-8bb5-cc968830eec9"},"vehicle_type_id":"4","last_reported":1749475531,"current_range_meters":10000,"station_id":"cki0cbj6b192h4jlfktg","pricing_plan_id":"cebpf4jnsgd1na2vs0mg"},{"bike_id":"2c4b8594-901a-4459-b241-8b237c34194f","system_id":"levelo_inurba_marseille","lat":43.28666,"lon":5.36348,"is_reserved":false,"is_disabled":false,"rental_uris":{"android":"levelo://app?vid=2c4b8594-901a-4459-b241-8b237c34194f","ios":"levelo://app?vid=2c4b8594-901a-4459-b241-8b237c34194f"},"vehicle_type_id":"4","last_reported":1749475531,"current_range_meters":10000,"station_id":"ce4bhah2rcd13ifvqej0","pricing_plan_id":"cebpf4jnsgd1na2vs0mg"},{"bike_id":"3e3dc7bb-c752-47a0-910b-6f34537c03f4","system_id":"levelo_inurba_marseille","lat":43.2119,"lon":5.35066,"is_reserved":false,"is_disabled":false,"rental_uris":{"android":"levelo://app?vid=3e3dc7bb-c752-47a0-910b-6f34537c03f4","ios":"levelo://app?vid=3e3dc7bb-c752-47a0-910b-6f34537c03f4"},"vehicle_type_id":"4","last_reported":1749475531,"current_range_meters":10000,"station_id":"st_cvj6sg6p6f1abm77japg","pricing_plan_id":"cebpf4jnsgd1na2vs0mg"},{"bike_id":"78824323-0810-44e8-b331-2726c6b3645d","system_id":"levelo_inurba_marseille","lat":43.336014,"lon":5.410254,"is_reserved":false,"is_disabled":false,"rental_uris":{"android":"levelo://app?vid=78824323-0810-44e8-b331-2726c6b3645d","ios":"levelo://app?vid=78824323-0810-44e8-b331-2726c6b3645d"},"vehicle_type_id":"4","last_reported":1749475531,"current_range_meters":10000,"station_id":"ce4bhqh2rcd13ifvqhmg","pricing_plan_id":"cebpf4jnsgd1na2vs0mg"},{"bike_id":"55991ce1-64b0-4649-b968-a764f3c6eee7","system_id":"levelo_inurba_marseille","lat":43.23193,"lon":5.35549,"is_reserved":false,"is_disabled":false,"rental_uris":{"android":"levelo://app?vid=55991ce1-64b0-4649-b968-a764f3c6eee7","ios":"levelo://app?vid=55991ce1-64b0-4649-b968-a764f3c6eee7"},"vehicle_type_id":"4","last_reported":1749475531,"current_range_meters":10000,"station_id":"ce4bhu92rcd13ifvqi70","pricing_plan_id":"cebpf4jnsgd1na2vs0mg"},{"bike_id":"b949cfe6-fe5d-452b-891e-1ea860eb314f","system_id":"levelo_inurba_marseille","lat":43.2815,"lon":5.4265,"is_reserved":false,"is_disabled":false,"rental_uris":{"android":"levelo://app?vid=b949cfe6-fe5d-452b-891e-1ea860eb314f","ios":"levelo://app?vid=b949cfe6-fe5d-452b-891e-1ea860eb314f"},"vehicle_type_id":"4","last_reported":1749475531,"current_range_meters":10000,"station_id":"ce4bhnh2rcd13ifvqgug","pricing_plan_id":"cebpf4jnsgd1na2vs0mg"},{"bike_id":"cb990818-444e-4c31-908c-0ac881770dbf","system_id":"levelo_inurba_marseille","lat":43.331075,"lon":5.38244,"is_reserved":false,"is_disabled":false,"rental_uris":{"android":"levelo://app?vid=cb990818-444e-4c31-908c-0ac881770dbf","ios":"levelo://app?vid=cb990818-444e-4c31-908c-0ac881770dbf"},"vehicle_type_id":"4","last_reported":1749475531,"current_range_meters":10000,"station_id":"","pricing_plan_id":"cebpf4jnsgd1na2vs0mg"},{"bike_id":"97aee402-faa0-4ffa-a64e-658892b5cafa","system_id":"levelo_inurba_marseille","lat":43.3112,"lon":5.37756,"is_reserved":false,"is_disabled":false,"rental_uris":{"android":"levelo://app?vid=97aee402-faa0-4ffa-a64e-658892b5cafa","ios":"levelo://app?vid=97aee402-faa0-4ffa-a64e-658892b5cafa"},"vehicle_type_id":"4","last_reported":1749475531,"current_range_meters":10000,"station_id":"ce4bgt92rcd13ifvqcg0","pricing_plan_id":"cebpf4jnsgd1na2vs0mg"},{"bike_id":"39cdf7ed-89dc-4de2-aafe-6c9905ce3698","system_id":"levelo_inurba_marseille","lat":43.297875,"lon":5.367759,"is_reserved":false,"is_disabled":false,"rental_uris":{"android":"levelo://app?vid=39cdf7ed-89dc-4de2-aafe-6c9905ce3698","ios":"levelo://app?vid=39cdf7ed-89dc-4de2-aafe-6c9905ce3698"},"vehicle_type_id":"4","last_reported":1749475531,"current_range_meters":10800,"station_id":"","pricing_plan_id":"cebpf4jnsgd1na2vs0mg"},{"bike_id":"7a286b17-17df-491a-a381-1330c2f7a715","system_id":"levelo_inurba_marseille","lat":43.29907,"lon":5.4367,"is_reserved":false,"is_disabled":false,"rental_uris":{"android":"levelo://app?vid=7a286b17-17df-491a-a381-1330c2f7a715","ios":"levelo://app?vid=7a286b17-17df-491a-a381-1330c2f7a715"},"vehicle_type_id":"4","last_reported":1749475531,"current_range_meters":10800,"station_id":"ce4bhpp2rcd13ifvqhfg","pricing_plan_id":"cebpf4jnsgd1na2vs0mg"},{"bike_id":"346d59b0-c2ef-4340-9274-fe2fb2b957d0","system_id":"levelo_inurba_marseille","lat":43.28612,"lon":5.3706,"is_reserved":false,"is_disabled":false,"rental_uris":{"android":"levelo://app?vid=346d59b0-c2ef-4340-9274-fe2fb2b957d0","ios":"levelo://app?vid=346d59b0-c2ef-4340-9274-fe2fb2b957d0"},"vehicle_type_id":"4","last_reported":1749475531,"current_range_meters":10800,"station_id":"ce4bht12rcd13ifvqi60","pricing_plan_id":"cebpf4jnsgd1na2vs0mg"},{"bike_id":"749edadc-4592-4f96-ba99-8dbb54628304","system_id":"levelo_inurba_marseille","lat":43.21739,"lon":5.3461,"is_reserved":false,"is_disabled":false,"rental_uris":{"android":"levelo://app?vid=749edadc-4592-4f96-ba99-8dbb54628304","ios":"levelo://app?vid=749edadc-4592-4f96-ba99-8dbb54628304"},"vehicle_type_id":"4","last_reported":1749475531,"current_range_meters":10800,"station_id":"st_cvj6r9ubvosntc0bgbag","pricing_plan_id":"cebpf4jnsgd1na2vs0mg"},{"bike_id":"95555830-ba55-41f5-92cc-7ea52cf3ee2e","system_id":"levelo_inurba_marseille","lat":43.27378,"lon":5.36261,"is_reserved":false,"is_disabled":false,"rental_uris":{"android":"levelo://app?vid=95555830-ba55-41f5-92cc-7ea52cf3ee2e","ios":"levelo://app?vid=95555830-ba55-41f5-92cc-7ea52cf3ee2e"},"vehicle_type_id":"4","last_reported":1749475531,"current_range_meters":10800,"station_id":"ce4bhbh2rcd13ifvqeo0","pricing_plan_id":"cebpf4jnsgd1na2vs0mg"},{"bike_id":"f62480ab-689a-4141-a0ea-20687eaf2063","system_id":"levelo_inurba_marseille","lat":43.33152,"lon":5.38587,"is_reserved":false,"is_disabled":false,"rental_uris":{"android":"levelo://app?vid=f62480ab-689a-4141-a0ea-20687eaf2063","ios":"levelo://app?vid=f62480ab-689a-4141-a0ea-20687eaf2063"},"vehicle_type_id":"4","last_reported":1749475531,"current_range_meters":10800,"station_id":"","pricing_plan_id":"cebpf4jnsgd1na2vs0mg"},{"bike_id":"f01f7a97-28b2-4c62-b691-af1e15fb7558","system_id":"levelo_inurba_marseille","lat":43.323497,"lon":5.406038,"is_reserved":false,"is_disabled":false,"rental_uris":{"android":"levelo://app?vid=f01f7a97-28b2-4c62-b691-af1e15fb7558","ios":"levelo://app?vid=f01f7a97-28b2-4c62-b691-af1e15fb7558"},"vehicle_type_id":"4","last_reported":1749475531,"current_range_meters":10800,"station_id":"ce4bhq92rcd13ifvqhjg","pricing_plan_id":"cebpf4jnsgd1na2vs0mg"},{"bike_id":"f9a7995c-43bd-4d9c-a96e-c45956ade08b","system_id":"levelo_inurba_marseille","lat":43.27624,"lon":5.3612,"is_reserved":false,"is_disabled":false,"rental_uris":{"android":"levelo://app?vid=f9a7995c-43bd-4d9c-a96e-c45956ade08b","ios":"levelo://app?vid=f9a7995c-43bd-4d9c-a96e-c45956ade08b"},"vehicle_type_id":"4","last_reported":1749475531,"current_range_meters":11200,"station_id":"ce4bgj92rcd13ifvqbe0","pricing_plan_id":"cebpf4jnsgd1na2vs0mg"},{"bike_id":"b363d543-1681-491a-be7d-d0cb6b382154","system_id":"levelo_inurba_marseille","lat":43.2762,"lon":5.3613,"is_reserved":false,"is_disabled":false,"rental_uris":{"android":"levelo://app?vid=b363d543-1681-491a-be7d-d0cb6b382154","ios":"levelo://app?vid=b363d543-1681-491a-be7d-d0cb6b382154"},"vehicle_type_id":"4","last_reported":1749475531,"current_range_meters":11200,"station_id":"ce4bgj92rcd13ifvqbe0","pricing_plan_id":"cebpf4jnsgd1na2vs0mg"},{"bike_id":"de1782a2-12b1-4ea7-a1ea-20cf13a2e189","system_id":"levelo_inurba_marseille","lat":43.28725,"lon":5.36073,"is_reserved":false,"is_disabled":false,"rental_uris":{"android":"levelo://app?vid=de1782a2-12b1-4ea7-a1ea-20cf13a2e189","ios":"levelo://app?vid=de1782a2-12b1-4ea7-a1ea-20cf13a2e189"},"vehicle_type_id":"4","last_reported":1749475531,"current_range_meters":11200,"station_id":"cki0cbj6b192h4jlfktg","pricing_plan_id":"cebpf4jnsgd1na2vs0mg"},{"bike_id":"1fdce072-d226-4da1-ba02-fbcc0f1c5d7a","system_id":"levelo_inurba_marseille","lat":43.21745,"lon":5.3457,"is_reserved":false,"is_disabled":false,"rental_uris":{"android":"levelo://app?vid=1fdce072-d226-4da1-ba02-fbcc0f1c5d7a","ios":"levelo://app?vid=1fdce072-d226-4da1-ba02-fbcc0f1c5d7a"},"vehicle_type_id":"4","last_reported":1749475531,"current_range_meters":11200,"station_id":"st_cvj6r9ubvosntc0bgbag","pricing_plan_id":"cebpf4jnsgd1na2vs0mg"},{"bike_id":"ba18b8d6-36dc-4ba2-8440-35095876d199","system_id":"levelo_inurba_marseille","lat":43.22933,"lon":5.35371,"is_reserved":false,"is_disabled":false,"rental_uris":{"android":"levelo://app?vid=ba18b8d6-36dc-4ba2-8440-35095876d199","ios":"levelo://app?vid=ba18b8d6-36dc-4ba2-8440-35095876d199"},"vehicle_type_id":"4","last_reported":1749475531,"current_range_meters":11600,"station_id":"cpo3532slgdg3j2ikp40","pricing_plan_id":"cebpf4jnsgd1na2vs0mg"},{"bike_id":"842b3250-4d8c-4a66-bdcc-cc0e7d8d04c9","system_id":"levelo_inurba_marseille","lat":43.21748,"lon":5.34611,"is_reserved":false,"is_disabled":false,"rental_uris":{"android":"levelo://app?vid=842b3250-4d8c-4a66-bdcc-cc0e7d8d04c9","ios":"levelo://app?vid=842b3250-4d8c-4a66-bdcc-cc0e7d8d04c9"},"vehicle_type_id":"4","last_reported":1749475531,"current_range_meters":11600,"station_id":"st_cvj6r9ubvosntc0bgbag","pricing_plan_id":"cebpf4jnsgd1na2vs0mg"},{"bike_id":"da14da1f-7442-42b5-98f6-365f4fbd4c56","system_id":"levelo_inurba_marseille","lat":43.31858,"lon":5.38706,"is_reserved":false,"is_disabled":false,"rental_uris":{"android":"levelo://app?vid=da14da1f-7442-42b5-98f6-365f4fbd4c56","ios":"levelo://app?vid=da14da1f-7442-42b5-98f6-365f4fbd4c56"},"vehicle_type_id":"4","last_reported":1749475531,"current_range_meters":11600,"station_id":"","pricing_plan_id":"cebpf4jnsgd1na2vs0mg"},{"bike_id":"ce92cf06-f06d-4a56-b3ca-008a2de2a577","system_id":"levelo_inurba_marseille","lat":43.25497,"lon":5.37655,"is_reserved":false,"is_disabled":false,"rental_uris":{"android":"levelo://app?vid=ce92cf06-f06d-4a56-b3ca-008a2de2a577","ios":"levelo://app?vid=ce92cf06-f06d-4a56-b3ca-008a2de2a577"},"vehicle_type_id":"4","last_reported":1749475531,"current_range_meters":12000,"station_id":"ce4bhh12rcd13ifvqff0","pricing_plan_id":"cebpf4jnsgd1na2vs0mg"},{"bike_id":"ef073932-5bec-4092-93a3-3f4f20a21282","system_id":"levelo_inurba_marseille","lat":43.27615,"lon":5.36105,"is_reserved":false,"is_disabled":false,"rental_uris":{"android":"levelo://app?vid=ef073932-5bec-4092-93a3-3f4f20a21282","ios":"levelo://app?vid=ef073932-5bec-4092-93a3-3f4f20a21282"},"vehicle_type_id":"4","last_reported":1749475531,"current_range_meters":12000,"station_id":"ce4bgj92rcd13ifvqbe0","pricing_plan_id":"cebpf4jnsgd1na2vs0mg"},{"bike_id":"dd1af63d-f420-4f75-bb00-bc067f7cb36d","system_id":"levelo_inurba_marseille","lat":43.28662,"lon":5.36345,"is_reserved":false,"is_disabled":false,"rental_uris":{"android":"levelo://app?vid=dd1af63d-f420-4f75-bb00-bc067f7cb36d","ios":"levelo://app?vid=dd1af63d-f420-4f75-bb00-bc067f7cb36d"},"vehicle_type_id":"4","last_reported":1749475531,"current_range_meters":12000,"station_id":"ce4bhah2rcd13ifvqej0","pricing_plan_id":"cebpf4jnsgd1na2vs0mg"},{"bike_id":"c09b1c1e-6d5b-4a72-8f97-eccd430a9e54","system_id":"levelo_inurba_marseille","lat":43.26677,"lon":5.38264,"is_reserved":false,"is_disabled":true,"rental_uris":{"android":"levelo://app?vid=c09b1c1e-6d5b-4a72-8f97-eccd430a9e54","ios":"levelo://app?vid=c09b1c1e-6d5b-4a72-8f97-eccd430a9e54"},"vehicle_type_id":"4","last_reported":1749475531,"current_range_meters":12000,"station_id":"ce4bhgp2rcd13ifvqfc0","pricing_plan_id":"cebpf4jnsgd1na2vs0mg"},{"bike_id":"fbb9b34c-7031-4d75-9691-342c610b2101","system_id":"levelo_inurba_marseille","lat":43.28364,"lon":5.36466,"is_reserved":false,"is_disabled":false,"rental_uris":{"android":"levelo://app?vid=fbb9b34c-7031-4d75-9691-342c610b2101","ios":"levelo://app?vid=fbb9b34c-7031-4d75-9691-342c610b2101"},"vehicle_type_id":"4","last_reported":1749475531,"current_range_meters":12400,"station_id":"","pricing_plan_id":"cebpf4jnsgd1na2vs0mg"},{"bike_id":"372fc13b-95b8-4015-b4bc-28a5fabccded","system_id":"levelo_inurba_marseille","lat":43.22514,"lon":5.34771,"is_reserved":false,"is_disabled":false,"rental_uris":{"android":"levelo://app?vid=372fc13b-95b8-4015-b4bc-28a5fabccded","ios":"levelo://app?vid=372fc13b-95b8-4015-b4bc-28a5fabccded"},"vehicle_type_id":"4","last_reported":1749475531,"current_range_meters":12400,"station_id":"st_cvj5dfep6f1abm77gieg","pricing_plan_id":"cebpf4jnsgd1na2vs0mg"},{"bike_id":"a8650cfe-a31a-4ec8-a221-8f99bc0f054c","system_id":"levelo_inurba_marseille","lat":43.21191,"lon":5.35085,"is_reserved":false,"is_disabled":false,"rental_uris":{"android":"levelo://app?vid=a8650cfe-a31a-4ec8-a221-8f99bc0f054c","ios":"levelo://app?vid=a8650cfe-a31a-4ec8-a221-8f99bc0f054c"},"vehicle_type_id":"4","last_reported":1749475531,"current_range_meters":12400,"station_id":"st_cvj6sg6p6f1abm77japg","pricing_plan_id":"cebpf4jnsgd1na2vs0mg"},{"bike_id":"ed4be808-9fdd-4e02-82e4-9985f7711bed","system_id":"levelo_inurba_marseille","lat":43.30885,"lon":5.39658,"is_reserved":false,"is_disabled":false,"rental_uris":{"android":"levelo://app?vid=ed4be808-9fdd-4e02-82e4-9985f7711bed","ios":"levelo://app?vid=ed4be808-9fdd-4e02-82e4-9985f7711bed"},"vehicle_type_id":"4","last_reported":1749475531,"current_range_meters":12400,"station_id":"ce4bh012rcd13ifvqcv0","pricing_plan_id":"cebpf4jnsgd1na2vs0mg"},{"bike_id":"5aee6e98-5d72-4a58-8068-559ee9f9703d","system_id":"levelo_inurba_marseille","lat":43.21197,"lon":5.35069,"is_reserved":false,"is_disabled":false,"rental_uris":{"android":"levelo://app?vid=5aee6e98-5d72-4a58-8068-559ee9f9703d","ios":"levelo://app?vid=5aee6e98-5d72-4a58-8068-559ee9f9703d"},"vehicle_type_id":"4","last_reported":1749475531,"current_range_meters":12400,"station_id":"st_cvj6sg6p6f1abm77japg","pricing_plan_id":"cebpf4jnsgd1na2vs0mg"},{"bike_id":"c8c4af1d-070c-484a-a3f7-babd17d99646","system_id":"levelo_inurba_marseille","lat":43.33722,"lon":5.39202,"is_reserved":false,"is_disabled":false,"rental_uris":{"android":"levelo://app?vid=c8c4af1d-070c-484a-a3f7-babd17d99646","ios":"levelo://app?vid=c8c4af1d-070c-484a-a3f7-babd17d99646"},"vehicle_type_id":"4","last_reported":1749475531,"current_range_meters":12400,"station_id":"ce4bhr92rcd13ifvqhsg","pricing_plan_id":"cebpf4jnsgd1na2vs0mg"},{"bike_id":"036ddd9b-7336-46f1-86ce-c5ff4d74ea35","system_id":"levelo_inurba_marseille","lat":43.27627,"lon":5.36118,"is_reserved":false,"is_disabled":false,"rental_uris":{"android":"levelo://app?vid=036ddd9b-7336-46f1-86ce-c5ff4d74ea35","ios":"levelo://app?vid=036ddd9b-7336-46f1-86ce-c5ff4d74ea35"},"vehicle_type_id":"4","last_reported":1749475531,"current_range_meters":12400,"station_id":"ce4bgj92rcd13ifvqbe0","pricing_plan_id":"cebpf4jnsgd1na2vs0mg"},{"bike_id":"4cacb408-f051-4e32-ba40-16604d300ec9","system_id":"levelo_inurba_marseille","lat":43.28438,"lon":5.34991,"is_reserved":false,"is_disabled":false,"rental_uris":{"android":"levelo://app?vid=4cacb408-f051-4e32-ba40-16604d300ec9","ios":"levelo://app?vid=4cacb408-f051-4e32-ba40-16604d300ec9"},"vehicle_type_id":"4","last_reported":1749475531,"current_range_meters":12400,"station_id":"ce4bhbh2rcd13ifvqepg","pricing_plan_id":"cebpf4jnsgd1na2vs0mg"},{"bike_id":"aa1bdd37-123a-417e-b194-c17fd42be0da","system_id":"levelo_inurba_marseille","lat":43.21231,"lon":5.35122,"is_reserved":false,"is_disabled":false,"rental_uris":{"android":"levelo://app?vid=aa1bdd37-123a-417e-b194-c17fd42be0da","ios":"levelo://app?vid=aa1bdd37-123a-417e-b194-c17fd42be0da"},"vehicle_type_id":"4","last_reported":1749475531,"current_range_meters":12400,"station_id":"","pricing_plan_id":"cebpf4jnsgd1na2vs0mg"},{"bike_id":"2e200b46-8f93-4bdb-af5d-d2b220d0d737","system_id":"levelo_inurba_marseille","lat":43.23191,"lon":5.39962,"is_reserved":false,"is_disabled":false,"rental_uris":{"android":"levelo://app?vid=2e200b46-8f93-4bdb-af5d-d2b220d0d737","ios":"levelo://app?vid=2e200b46-8f93-4bdb-af5d-d2b220d0d737"},"vehicle_type_id":"4","last_reported":1749475531,"current_range_meters":12400,"station_id":"ce4bhn12rcd13ifvqgqg","pricing_plan_id":"cebpf4jnsgd1na2vs0mg"},{"bike_id":"8e35b4c6-fbcf-4e96-a641-869816cbb210","system_id":"levelo_inurba_marseille","lat":43.28865,"lon":5.3585,"is_reserved":false,"is_disabled":false,"rental_uris":{"android":"levelo://app?vid=8e35b4c6-fbcf-4e96-a641-869816cbb210","ios":"levelo://app?vid=8e35b4c6-fbcf-4e96-a641-869816cbb210"},"vehicle_type_id":"4","last_reported":1749475531,"current_range_meters":12400,"station_id":"ce4bhb12rcd13ifvqem0","pricing_plan_id":"cebpf4jnsgd1na2vs0mg"},{"bike_id":"848b5c81-0e35-413a-b4bd-6d922639392c","system_id":"levelo_inurba_marseille","lat":43.29199,"lon":5.35808,"is_reserved":false,"is_disabled":false,"rental_uris":{"android":"levelo://app?vid=848b5c81-0e35-413a-b4bd-6d922639392c","ios":"levelo://app?vid=848b5c81-0e35-413a-b4bd-6d922639392c"},"vehicle_type_id":"4","last_reported":1749475531,"current_range_meters":12400,"station_id":"ce4bhb12rcd13ifvqel0","pricing_plan_id":"cebpf4jnsgd1na2vs0mg"},{"bike_id":"6da15f22-4839-4b16-9715-3e15d5d720ff","system_id":"levelo_inurba_marseille","lat":43.29554,"lon":5.42297,"is_reserved":false,"is_disabled":false,"rental_uris":{"android":"levelo://app?vid=6da15f22-4839-4b16-9715-3e15d5d720ff","ios":"levelo://app?vid=6da15f22-4839-4b16-9715-3e15d5d720ff"},"vehicle_type_id":"4","last_reported":1749475531,"current_range_meters":12800,"station_id":"ce4bhph2rcd13ifvqhdg","pricing_plan_id":"cebpf4jnsgd1na2vs0mg"},{"bike_id":"ba472bab-4664-498a-bf9c-6d27d6d5731e","system_id":"levelo_inurba_marseille","lat":43.21744,"lon":5.34602,"is_reserved":false,"is_disabled":false,"rental_uris":{"android":"levelo://app?vid=ba472bab-4664-498a-bf9c-6d27d6d5731e","ios":"levelo://app?vid=ba472bab-4664-498a-bf9c-6d27d6d5731e"},"vehicle_type_id":"4","last_reported":1749475531,"current_range_meters":12800,"station_id":"st_cvj6r9ubvosntc0bgbag","pricing_plan_id":"cebpf4jnsgd1na2vs0mg"},{"bike_id":"79eff8c5-c5fb-4e43-b403-8512cad83925","system_id":"levelo_inurba_marseille","lat":43.28844,"lon":5.39325,"is_reserved":false,"is_disabled":false,"rental_uris":{"android":"levelo://app?vid=79eff8c5-c5fb-4e43-b403-8512cad83925","ios":"levelo://app?vid=79eff8c5-c5fb-4e43-b403-8512cad83925"},"vehicle_type_id":"4","last_reported":1749475531,"current_range_meters":12800,"station_id":"ce4bh2p2rcd13ifvqdi0","pricing_plan_id":"cebpf4jnsgd1na2vs0mg"},{"bike_id":"898adc08-6852-494f-92e0-a15241901b70","system_id":"levelo_inurba_marseille","lat":43.26205,"lon":5.37549,"is_reserved":false,"is_disabled":false,"rental_uris":{"android":"levelo://app?vid=898adc08-6852-494f-92e0-a15241901b70","ios":"levelo://app?vid=898adc08-6852-494f-92e0-a15241901b70"},"vehicle_type_id":"4","last_reported":1749475531,"current_range_meters":13600,"station_id":"","pricing_plan_id":"cebpf4jnsgd1na2vs0mg"},{"bike_id":"2c064bf8-26b7-4461-b719-591b03b33758","system_id":"levelo_inurba_marseille","lat":43.21749,"lon":5.34614,"is_reserved":false,"is_disabled":false,"rental_uris":{"android":"levelo://app?vid=2c064bf8-26b7-4461-b719-591b03b33758","ios":"levelo://app?vid=2c064bf8-26b7-4461-b719-591b03b33758"},"vehicle_type_id":"4","last_reported":1749475531,"current_range_meters":13600,"station_id":"st_cvj6r9ubvosntc0bgbag","pricing_plan_id":"cebpf4jnsgd1na2vs0mg"},{"bike_id":"2ed4d114-20f5-4a86-acfa-2045a6bb5c8a","system_id":"levelo_inurba_marseille","lat":43.24402,"lon":5.37032,"is_reserved":false,"is_disabled":false,"rental_uris":{"android":"levelo://app?vid=2ed4d114-20f5-4a86-acfa-2045a6bb5c8a","ios":"levelo://app?vid=2ed4d114-20f5-4a86-acfa-2045a6bb5c8a"},"vehicle_type_id":"4","last_reported":1749475531,"current_range_meters":13600,"station_id":"ce4bhhh2rcd13ifvqfk0","pricing_plan_id":"cebpf4jnsgd1na2vs0mg"},{"bike_id":"46c45b18-1394-472b-9717-9272a4c994da","system_id":"levelo_inurba_marseille","lat":43.28275,"lon":5.35082,"is_reserved":false,"is_disabled":false,"rental_uris":{"android":"levelo://app?vid=46c45b18-1394-472b-9717-9272a4c994da","ios":"levelo://app?vid=46c45b18-1394-472b-9717-9272a4c994da"},"vehicle_type_id":"4","last_reported":1749475531,"current_range_meters":13600,"station_id":"ce4bhbp2rcd13ifvqerg","pricing_plan_id":"cebpf4jnsgd1na2vs0mg"},{"bike_id":"2f32b755-3ca4-4102-8e33-37fff5e1ff8d","system_id":"levelo_inurba_marseille","lat":43.27133,"lon":5.40116,"is_reserved":false,"is_disabled":false,"rental_uris":{"android":"levelo://app?vid=2f32b755-3ca4-4102-8e33-37fff5e1ff8d","ios":"levelo://app?vid=2f32b755-3ca4-4102-8e33-37fff5e1ff8d"},"vehicle_type_id":"4","last_reported":1749475531,"current_range_meters":14000,"station_id":"","pricing_plan_id":"cebpf4jnsgd1na2vs0mg"},{"bike_id":"ec07001e-2983-41dc-8c5c-ab6ed645b8c7","system_id":"levelo_inurba_marseille","lat":43.262326,"lon":5.404644,"is_reserved":false,"is_disabled":false,"rental_uris":{"android":"levelo://app?vid=ec07001e-2983-41dc-8c5c-ab6ed645b8c7","ios":"levelo://app?vid=ec07001e-2983-41dc-8c5c-ab6ed645b8c7"},"vehicle_type_id":"4","last_reported":1749475531,"current_range_meters":14000,"station_id":"ce4bhmh2rcd13ifvqgmg","pricing_plan_id":"cebpf4jnsgd1na2vs0mg"},{"bike_id":"80a0df42-20d9-4736-8e76-7218c0997a1e","system_id":"levelo_inurba_marseille","lat":43.28418,"lon":5.34981,"is_reserved":false,"is_disabled":false,"rental_uris":{"android":"levelo://app?vid=80a0df42-20d9-4736-8e76-7218c0997a1e","ios":"levelo://app?vid=80a0df42-20d9-4736-8e76-7218c0997a1e"},"vehicle_type_id":"4","last_reported":1749475531,"current_range_meters":14000,"station_id":"ce4bhbh2rcd13ifvqepg","pricing_plan_id":"cebpf4jnsgd1na2vs0mg"},{"bike_id":"1a401fd0-f27a-491e-bd61-15af0df83eaa","system_id":"levelo_inurba_marseille","lat":43.28933,"lon":5.36641,"is_reserved":false,"is_disabled":false,"rental_uris":{"android":"levelo://app?vid=1a401fd0-f27a-491e-bd61-15af0df83eaa","ios":"levelo://app?vid=1a401fd0-f27a-491e-bd61-15af0df83eaa"},"vehicle_type_id":"4","last_reported":1749475531,"current_range_meters":14000,"station_id":"ce4bhap2rcd13ifvqek0","pricing_plan_id":"cebpf4jnsgd1na2vs0mg"},{"bike_id":"39338a7f-9696-4e8d-a23c-ee7de2652e3d","system_id":"levelo_inurba_marseille","lat":43.21203,"lon":5.35052,"is_reserved":false,"is_disabled":false,"rental_uris":{"android":"levelo://app?vid=39338a7f-9696-4e8d-a23c-ee7de2652e3d","ios":"levelo://app?vid=39338a7f-9696-4e8d-a23c-ee7de2652e3d"},"vehicle_type_id":"4","last_reported":1749475531,"current_range_meters":14400,"station_id":"st_cvj6sg6p6f1abm77japg","pricing_plan_id":"cebpf4jnsgd1na2vs0mg"},{"bike_id":"7facd0d3-e088-4a5a-a896-d77e8e818ab6","system_id":"levelo_inurba_marseille","lat":43.29216,"lon":5.36056,"is_reserved":false,"is_disabled":true,"rental_uris":{"android":"levelo://app?vid=7facd0d3-e088-4a5a-a896-d77e8e818ab6","ios":"levelo://app?vid=7facd0d3-e088-4a5a-a896-d77e8e818ab6"},"vehicle_type_id":"4","last_reported":1749475531,"current_range_meters":14400,"station_id":"ce4bhbh2rcd13ifvqeqg","pricing_plan_id":"cebpf4jnsgd1na2vs0mg"},{"bike_id":"64578cd7-b5f6-423c-bb6a-a97838c483a2","system_id":"levelo_inurba_marseille","lat":43.21749,"lon":5.34606,"is_reserved":false,"is_disabled":false,"rental_uris":{"android":"levelo://app?vid=64578cd7-b5f6-423c-bb6a-a97838c483a2","ios":"levelo://app?vid=64578cd7-b5f6-423c-bb6a-a97838c483a2"},"vehicle_type_id":"4","last_reported":1749475531,"current_range_meters":14400,"station_id":"st_cvj6r9ubvosntc0bgbag","pricing_plan_id":"cebpf4jnsgd1na2vs0mg"},{"bike_id":"52d1b077-b6d4-4662-b739-a4e64dc2f1a9","system_id":"levelo_inurba_marseille","lat":43.28273,"lon":5.3508,"is_reserved":false,"is_disabled":false,"rental_uris":{"android":"levelo://app?vid=52d1b077-b6d4-4662-b739-a4e64dc2f1a9","ios":"levelo://app?vid=52d1b077-b6d4-4662-b739-a4e64dc2f1a9"},"vehicle_type_id":"4","last_reported":1749475531,"current_range_meters":14400,"station_id":"ce4bhbp2rcd13ifvqerg","pricing_plan_id":"cebpf4jnsgd1na2vs0mg"},{"bike_id":"7b621075-9a84-4c80-869d-3f3541637187","system_id":"levelo_inurba_marseille","lat":43.22931,"lon":5.35386,"is_reserved":false,"is_disabled":false,"rental_uris":{"android":"levelo://app?vid=7b621075-9a84-4c80-869d-3f3541637187","ios":"levelo://app?vid=7b621075-9a84-4c80-869d-3f3541637187"},"vehicle_type_id":"4","last_reported":1749475531,"current_range_meters":14800,"station_id":"cpo3532slgdg3j2ikp40","pricing_plan_id":"cebpf4jnsgd1na2vs0mg"},{"bike_id":"8c761ef8-c444-4ceb-b858-bc87d8fe27d4","system_id":"levelo_inurba_marseille","lat":43.25085,"lon":5.39489,"is_reserved":false,"is_disabled":false,"rental_uris":{"android":"levelo://app?vid=8c761ef8-c444-4ceb-b858-bc87d8fe27d4","ios":"levelo://app?vid=8c761ef8-c444-4ceb-b858-bc87d8fe27d4"},"vehicle_type_id":"4","last_reported":1749475531,"current_range_meters":14800,"station_id":"ce4bhm12rcd13ifvqgkg","pricing_plan_id":"cebpf4jnsgd1na2vs0mg"},{"bike_id":"f29003e1-7481-4047-b5a8-68de5e11b466","system_id":"levelo_inurba_marseille","lat":43.30884,"lon":5.3966,"is_reserved":false,"is_disabled":false,"rental_uris":{"android":"levelo://app?vid=f29003e1-7481-4047-b5a8-68de5e11b466","ios":"levelo://app?vid=f29003e1-7481-4047-b5a8-68de5e11b466"},"vehicle_type_id":"4","last_reported":1749475531,"current_range_meters":14800,"station_id":"ce4bh012rcd13ifvqcv0","pricing_plan_id":"cebpf4jnsgd1na2vs0mg"},{"bike_id":"b83d5609-6c86-4883-81d1-637d99ed4c41","system_id":"levelo_inurba_marseille","lat":43.27383,"lon":5.36255,"is_reserved":false,"is_disabled":false,"rental_uris":{"android":"levelo://app?vid=b83d5609-6c86-4883-81d1-637d99ed4c41","ios":"levelo://app?vid=b83d5609-6c86-4883-81d1-637d99ed4c41"},"vehicle_type_id":"4","last_reported":1749475531,"current_range_meters":14800,"station_id":"ce4bhbh2rcd13ifvqeo0","pricing_plan_id":"cebpf4jnsgd1na2vs0mg"},{"bike_id":"b8117546-41fe-4c56-82e4-26dca8059854","system_id":"levelo_inurba_marseille","lat":43.27379,"lon":5.36256,"is_reserved":false,"is_disabled":false,"rental_uris":{"android":"levelo://app?vid=b8117546-41fe-4c56-82e4-26dca8059854","ios":"levelo://app?vid=b8117546-41fe-4c56-82e4-26dca8059854"},"vehicle_type_id":"4","last_reported":1749475531,"current_range_meters":14800,"station_id":"ce4bhbh2rcd13ifvqeo0","pricing_plan_id":"cebpf4jnsgd1na2vs0mg"},{"bike_id":"5b5b801f-a6b0-44d5-864d-6140f50d3292","system_id":"levelo_inurba_marseille","lat":43.280968,"lon":5.398743,"is_reserved":false,"is_disabled":false,"rental_uris":{"android":"levelo://app?vid=5b5b801f-a6b0-44d5-864d-6140f50d3292","ios":"levelo://app?vid=5b5b801f-a6b0-44d5-864d-6140f50d3292"},"vehicle_type_id":"4","last_reported":1749475531,"current_range_meters":14800,"station_id":"","pricing_plan_id":"cebpf4jnsgd1na2vs0mg"},{"bike_id":"b7cd2874-b998-4731-9ed3-b77495724d14","system_id":"levelo_inurba_marseille","lat":43.31212,"lon":5.3685,"is_reserved":false,"is_disabled":false,"rental_uris":{"android":"levelo://app?vid=b7cd2874-b998-4731-9ed3-b77495724d14","ios":"levelo://app?vid=b7cd2874-b998-4731-9ed3-b77495724d14"},"vehicle_type_id":"4","last_reported":1749475531,"current_range_meters":14800,"station_id":"ce4bgl92rcd13ifvqbq0","pricing_plan_id":"cebpf4jnsgd1na2vs0mg"},{"bike_id":"5fda9a87-2b68-4421-b415-520c832f56e9","system_id":"levelo_inurba_marseille","lat":43.211902,"lon":5.350721,"is_reserved":false,"is_disabled":false,"rental_uris":{"android":"levelo://app?vid=5fda9a87-2b68-4421-b415-520c832f56e9","ios":"levelo://app?vid=5fda9a87-2b68-4421-b415-520c832f56e9"},"vehicle_type_id":"4","last_reported":1749475531,"current_range_meters":14800,"station_id":"st_cvj6sg6p6f1abm77japg","pricing_plan_id":"cebpf4jnsgd1na2vs0mg"},{"bike_id":"0773d084-521e-4ca3-ad6c-4e45db7de073","system_id":"levelo_inurba_marseille","lat":43.27617,"lon":5.36119,"is_reserved":false,"is_disabled":false,"rental_uris":{"android":"levelo://app?vid=0773d084-521e-4ca3-ad6c-4e45db7de073","ios":"levelo://app?vid=0773d084-521e-4ca3-ad6c-4e45db7de073"},"vehicle_type_id":"4","last_reported":1749475531,"current_range_meters":15200,"station_id":"ce4bgj92rcd13ifvqbe0","pricing_plan_id":"cebpf4jnsgd1na2vs0mg"},{"bike_id":"6fd4cd93-a409-4da9-ad4b-b6025023458d","system_id":"levelo_inurba_marseille","lat":43.290126,"lon":5.38123,"is_reserved":false,"is_disabled":true,"rental_uris":{"android":"levelo://app?vid=6fd4cd93-a409-4da9-ad4b-b6025023458d","ios":"levelo://app?vid=6fd4cd93-a409-4da9-ad4b-b6025023458d"},"vehicle_type_id":"4","last_reported":1749475531,"current_range_meters":15200,"station_id":"","pricing_plan_id":"cebpf4jnsgd1na2vs0mg"},{"bike_id":"8e3840de-c33d-4957-9e31-0ad34d8f35ee","system_id":"levelo_inurba_marseille","lat":43.265598,"lon":5.390118,"is_reserved":false,"is_disabled":false,"rental_uris":{"android":"levelo://app?vid=8e3840de-c33d-4957-9e31-0ad34d8f35ee","ios":"levelo://app?vid=8e3840de-c33d-4957-9e31-0ad34d8f35ee"},"vehicle_type_id":"4","last_reported":1749475531,"current_range_meters":15200,"station_id":"ce4bhe12rcd13ifvqf30","pricing_plan_id":"cebpf4jnsgd1na2vs0mg"},{"bike_id":"6b566ac5-f5de-4ba0-a650-a81ea46fe09e","system_id":"levelo_inurba_marseille","lat":43.34125,"lon":5.40932,"is_reserved":false,"is_disabled":false,"rental_uris":{"android":"levelo://app?vid=6b566ac5-f5de-4ba0-a650-a81ea46fe09e","ios":"levelo://app?vid=6b566ac5-f5de-4ba0-a650-a81ea46fe09e"},"vehicle_type_id":"4","last_reported":1749475531,"current_range_meters":15200,"station_id":"ce4bhqh2rcd13ifvqhlg","pricing_plan_id":"cebpf4jnsgd1na2vs0mg"},{"bike_id":"d168410b-57b1-440f-87b0-b220eee131c6","system_id":"levelo_inurba_marseille","lat":43.276324,"lon":5.389163,"is_reserved":false,"is_disabled":false,"rental_uris":{"android":"levelo://app?vid=d168410b-57b1-440f-87b0-b220eee131c6","ios":"levelo://app?vid=d168410b-57b1-440f-87b0-b220eee131c6"},"vehicle_type_id":"4","last_reported":1749475531,"current_range_meters":15200,"station_id":"ce4bhi12rcd13ifvqfo0","pricing_plan_id":"cebpf4jnsgd1na2vs0mg"},{"bike_id":"f234357a-3ff5-41cd-a1f9-33dd4479fa5a","system_id":"levelo_inurba_marseille","lat":43.2885,"lon":5.39319,"is_reserved":false,"is_disabled":false,"rental_uris":{"android":"levelo://app?vid=f234357a-3ff5-41cd-a1f9-33dd4479fa5a","ios":"levelo://app?vid=f234357a-3ff5-41cd-a1f9-33dd4479fa5a"},"vehicle_type_id":"4","last_reported":1749475531,"current_range_meters":15200,"station_id":"ce4bh2p2rcd13ifvqdi0","pricing_plan_id":"cebpf4jnsgd1na2vs0mg"},{"bike_id":"138dba73-f197-46d0-988e-ddabb8a53f7e","system_id":"levelo_inurba_marseille","lat":43.2551,"lon":5.37645,"is_reserved":false,"is_disabled":false,"rental_uris":{"android":"levelo://app?vid=138dba73-f197-46d0-988e-ddabb8a53f7e","ios":"levelo://app?vid=138dba73-f197-46d0-988e-ddabb8a53f7e"},"vehicle_type_id":"4","last_reported":1749475531,"current_range_meters":15200,"station_id":"ce4bhh12rcd13ifvqff0","pricing_plan_id":"cebpf4jnsgd1na2vs0mg"},{"bike_id":"5077581b-cebb-46fc-ba69-4fa8272d4810","system_id":"levelo_inurba_marseille","lat":43.213667,"lon":5.355267,"is_reserved":false,"is_disabled":false,"rental_uris":{"android":"levelo://app?vid=5077581b-cebb-46fc-ba69-4fa8272d4810","ios":"levelo://app?vid=5077581b-cebb-46fc-ba69-4fa8272d4810"},"vehicle_type_id":"4","last_reported":1749475531,"current_range_meters":16000,"station_id":"","pricing_plan_id":"cebpf4jnsgd1na2vs0mg"},{"bike_id":"e5c8fb62-8ef2-421e-85c6-b4ebfb47d6f1","system_id":"levelo_inurba_marseille","lat":43.24391,"lon":5.37052,"is_reserved":false,"is_disabled":false,"rental_uris":{"android":"levelo://app?vid=e5c8fb62-8ef2-421e-85c6-b4ebfb47d6f1","ios":"levelo://app?vid=e5c8fb62-8ef2-421e-85c6-b4ebfb47d6f1"},"vehicle_type_id":"4","last_reported":1749475531,"current_range_meters":16000,"station_id":"ce4bhhh2rcd13ifvqfk0","pricing_plan_id":"cebpf4jnsgd1na2vs0mg"},{"bike_id":"0053f0bd-3481-4f8f-a19e-7dd7a6624507","system_id":"levelo_inurba_marseille","lat":43.29903,"lon":5.43679,"is_reserved":false,"is_disabled":false,"rental_uris":{"android":"levelo://app?vid=0053f0bd-3481-4f8f-a19e-7dd7a6624507","ios":"levelo://app?vid=0053f0bd-3481-4f8f-a19e-7dd7a6624507"},"vehicle_type_id":"4","last_reported":1749475531,"current_range_meters":16000,"station_id":"ce4bhpp2rcd13ifvqhfg","pricing_plan_id":"cebpf4jnsgd1na2vs0mg"},{"bike_id":"88113087-f0bb-4133-ab2a-bbfce1f3d99a","system_id":"levelo_inurba_marseille","lat":43.317406,"lon":5.404831,"is_reserved":false,"is_disabled":true,"rental_uris":{"android":"levelo://app?vid=88113087-f0bb-4133-ab2a-bbfce1f3d99a","ios":"levelo://app?vid=88113087-f0bb-4133-ab2a-bbfce1f3d99a"},"vehicle_type_id":"4","last_reported":1749475531,"current_range_meters":16000,"station_id":"","pricing_plan_id":"cebpf4jnsgd1na2vs0mg"},{"bike_id":"1e3c0132-c838-4f06-a6c3-46c3cb6ca49e","system_id":"levelo_inurba_marseille","lat":43.27386,"lon":5.36278,"is_reserved":false,"is_disabled":false,"rental_uris":{"android":"levelo://app?vid=1e3c0132-c838-4f06-a6c3-46c3cb6ca49e","ios":"levelo://app?vid=1e3c0132-c838-4f06-a6c3-46c3cb6ca49e"},"vehicle_type_id":"4","last_reported":1749475531,"current_range_meters":16000,"station_id":"ce4bhbh2rcd13ifvqeo0","pricing_plan_id":"cebpf4jnsgd1na2vs0mg"},{"bike_id":"de8e06e5-3b35-4f47-b97a-15327cfa528b","system_id":"levelo_inurba_marseille","lat":43.28436,"lon":5.34987,"is_reserved":false,"is_disabled":false,"rental_uris":{"android":"levelo://app?vid=de8e06e5-3b35-4f47-b97a-15327cfa528b","ios":"levelo://app?vid=de8e06e5-3b35-4f47-b97a-15327cfa528b"},"vehicle_type_id":"4","last_reported":1749475531,"current_range_meters":16000,"station_id":"ce4bhbh2rcd13ifvqepg","pricing_plan_id":"cebpf4jnsgd1na2vs0mg"},{"bike_id":"2cfc811d-3ef7-4a59-8832-79596f0695e7","system_id":"levelo_inurba_marseille","lat":43.28419,"lon":5.34991,"is_reserved":false,"is_disabled":false,"rental_uris":{"android":"levelo://app?vid=2cfc811d-3ef7-4a59-8832-79596f0695e7","ios":"levelo://app?vid=2cfc811d-3ef7-4a59-8832-79596f0695e7"},"vehicle_type_id":"4","last_reported":1749475531,"current_range_meters":16000,"station_id":"ce4bhbh2rcd13ifvqepg","pricing_plan_id":"cebpf4jnsgd1na2vs0mg"},{"bike_id":"f087024a-1100-4d51-85c7-098f33c58e77","system_id":"levelo_inurba_marseille","lat":43.22936,"lon":5.3537,"is_reserved":false,"is_disabled":false,"rental_uris":{"android":"levelo://app?vid=f087024a-1100-4d51-85c7-098f33c58e77","ios":"levelo://app?vid=f087024a-1100-4d51-85c7-098f33c58e77"},"vehicle_type_id":"4","last_reported":1749475531,"current_range_meters":16400,"station_id":"cpo3532slgdg3j2ikp40","pricing_plan_id":"cebpf4jnsgd1na2vs0mg"},{"bike_id":"ba3e1223-7c63-4d2b-a6fc-7ba21ec23bc4","system_id":"levelo_inurba_marseille","lat":43.26183,"lon":5.37467,"is_reserved":false,"is_disabled":false,"rental_uris":{"android":"levelo://app?vid=ba3e1223-7c63-4d2b-a6fc-7ba21ec23bc4","ios":"levelo://app?vid=ba3e1223-7c63-4d2b-a6fc-7ba21ec23bc4"},"vehicle_type_id":"4","last_reported":1749475531,"current_range_meters":16400,"station_id":"ce4bhgp2rcd13ifvqfc0","pricing_plan_id":"cebpf4jnsgd1na2vs0mg"},{"bike_id":"f4d39fe3-afe9-4d85-87f9-457d9f9c136e","system_id":"levelo_inurba_marseille","lat":43.27616,"lon":5.36104,"is_reserved":false,"is_disabled":false,"rental_uris":{"android":"levelo://app?vid=f4d39fe3-afe9-4d85-87f9-457d9f9c136e","ios":"levelo://app?vid=f4d39fe3-afe9-4d85-87f9-457d9f9c136e"},"vehicle_type_id":"4","last_reported":1749475531,"current_range_meters":16400,"station_id":"ce4bgj92rcd13ifvqbe0","pricing_plan_id":"cebpf4jnsgd1na2vs0mg"},{"bike_id":"24365e02-dc17-42b6-b27f-d94cdffb4fb5","system_id":"levelo_inurba_marseille","lat":43.28997,"lon":5.35615,"is_reserved":false,"is_disabled":true,"rental_uris":{"android":"levelo://app?vid=24365e02-dc17-42b6-b27f-d94cdffb4fb5","ios":"levelo://app?vid=24365e02-dc17-42b6-b27f-d94cdffb4fb5"},"vehicle_type_id":"4","last_reported":1749475531,"current_range_meters":16400,"station_id":"ce4bhb92rcd13ifvqen0","pricing_plan_id":"cebpf4jnsgd1na2vs0mg"},{"bike_id":"6f5e2ae1-704e-47d7-8df4-a21571bbea82","system_id":"levelo_inurba_marseille","lat":43.32417,"lon":5.37452,"is_reserved":false,"is_disabled":false,"rental_uris":{"android":"levelo://app?vid=6f5e2ae1-704e-47d7-8df4-a21571bbea82","ios":"levelo://app?vid=6f5e2ae1-704e-47d7-8df4-a21571bbea82"},"vehicle_type_id":"4","last_reported":1749475531,"current_range_meters":16400,"station_id":"","pricing_plan_id":"cebpf4jnsgd1na2vs0mg"},{"bike_id":"8703dc14-f777-4c42-8bb5-83313a2ac22f","system_id":"levelo_inurba_marseille","lat":43.32659,"lon":5.40997,"is_reserved":false,"is_disabled":false,"rental_uris":{"android":"levelo://app?vid=8703dc14-f777-4c42-8bb5-83313a2ac22f","ios":"levelo://app?vid=8703dc14-f777-4c42-8bb5-83313a2ac22f"},"vehicle_type_id":"4","last_reported":1749475531,"current_range_meters":16400,"station_id":"ce4bhpp2rcd13ifvqhgg","pricing_plan_id":"cebpf4jnsgd1na2vs0mg"},{"bike_id":"a6932b32-a7b9-4a74-9653-0ce32b5546e9","system_id":"levelo_inurba_marseille","lat":43.32349,"lon":5.36788,"is_reserved":false,"is_disabled":false,"rental_uris":{"android":"levelo://app?vid=a6932b32-a7b9-4a74-9653-0ce32b5546e9","ios":"levelo://app?vid=a6932b32-a7b9-4a74-9653-0ce32b5546e9"},"vehicle_type_id":"4","last_reported":1749475531,"current_range_meters":16800,"station_id":"ce4bhsh2rcd13ifvqi2g","pricing_plan_id":"cebpf4jnsgd1na2vs0mg"},{"bike_id":"a2824cfe-99fd-4677-ab2b-2ca7e09b9260","system_id":"levelo_inurba_marseille","lat":43.32359,"lon":5.36725,"is_reserved":false,"is_disabled":false,"rental_uris":{"android":"levelo://app?vid=a2824cfe-99fd-4677-ab2b-2ca7e09b9260","ios":"levelo://app?vid=a2824cfe-99fd-4677-ab2b-2ca7e09b9260"},"vehicle_type_id":"4","last_reported":1749475531,"current_range_meters":16800,"station_id":"ce4bhsh2rcd13ifvqi2g","pricing_plan_id":"cebpf4jnsgd1na2vs0mg"},{"bike_id":"e1d9ab8a-de6e-4a59-815a-0c6ebde2cf3b","system_id":"levelo_inurba_marseille","lat":43.3172,"lon":5.42404,"is_reserved":false,"is_disabled":false,"rental_uris":{"android":"levelo://app?vid=e1d9ab8a-de6e-4a59-815a-0c6ebde2cf3b","ios":"levelo://app?vid=e1d9ab8a-de6e-4a59-815a-0c6ebde2cf3b"},"vehicle_type_id":"4","last_reported":1749475531,"current_range_meters":16800,"station_id":"ce4bhp92rcd13ifvqhbg","pricing_plan_id":"cebpf4jnsgd1na2vs0mg"},{"bike_id":"67f3169a-c3ce-4aa0-9783-ff7fd361e92c","system_id":"levelo_inurba_marseille","lat":43.31128,"lon":5.37811,"is_reserved":false,"is_disabled":false,"rental_uris":{"android":"levelo://app?vid=67f3169a-c3ce-4aa0-9783-ff7fd361e92c","ios":"levelo://app?vid=67f3169a-c3ce-4aa0-9783-ff7fd361e92c"},"vehicle_type_id":"4","last_reported":1749475531,"current_range_meters":16800,"station_id":"ce4bgt92rcd13ifvqcg0","pricing_plan_id":"cebpf4jnsgd1na2vs0mg"},{"bike_id":"840b82d5-7116-45fb-89ec-e9241be22d1f","system_id":"levelo_inurba_marseille","lat":43.27371,"lon":5.36237,"is_reserved":false,"is_disabled":false,"rental_uris":{"android":"levelo://app?vid=840b82d5-7116-45fb-89ec-e9241be22d1f","ios":"levelo://app?vid=840b82d5-7116-45fb-89ec-e9241be22d1f"},"vehicle_type_id":"4","last_reported":1749475531,"current_range_meters":16800,"station_id":"ce4bhbh2rcd13ifvqeo0","pricing_plan_id":"cebpf4jnsgd1na2vs0mg"},{"bike_id":"6e268e54-0998-48cc-a200-0bff829b0996","system_id":"levelo_inurba_marseille","lat":43.23193,"lon":5.35553,"is_reserved":false,"is_disabled":false,"rental_uris":{"android":"levelo://app?vid=6e268e54-0998-48cc-a200-0bff829b0996","ios":"levelo://app?vid=6e268e54-0998-48cc-a200-0bff829b0996"},"vehicle_type_id":"4","last_reported":1749475531,"current_range_meters":16800,"station_id":"ce4bhu92rcd13ifvqi70","pricing_plan_id":"cebpf4jnsgd1na2vs0mg"},{"bike_id":"740da1e1-1a42-4224-a2ea-f489fe9abbcf","system_id":"levelo_inurba_marseille","lat":43.24453,"lon":5.42558,"is_reserved":false,"is_disabled":false,"rental_uris":{"android":"levelo://app?vid=740da1e1-1a42-4224-a2ea-f489fe9abbcf","ios":"levelo://app?vid=740da1e1-1a42-4224-a2ea-f489fe9abbcf"},"vehicle_type_id":"4","last_reported":1749475531,"current_range_meters":16800,"station_id":"","pricing_plan_id":"cebpf4jnsgd1na2vs0mg"},{"bike_id":"402b268f-51d8-4319-85da-3f411d4d5d91","system_id":"levelo_inurba_marseille","lat":43.212,"lon":5.35075,"is_reserved":false,"is_disabled":false,"rental_uris":{"android":"levelo://app?vid=402b268f-51d8-4319-85da-3f411d4d5d91","ios":"levelo://app?vid=402b268f-51d8-4319-85da-3f411d4d5d91"},"vehicle_type_id":"4","last_reported":1749475531,"current_range_meters":16800,"station_id":"st_cvj6sg6p6f1abm77japg","pricing_plan_id":"cebpf4jnsgd1na2vs0mg"},{"bike_id":"1006c892-6b03-44d6-80a0-421cc4f35b9a","system_id":"levelo_inurba_marseille","lat":43.29578,"lon":5.36753,"is_reserved":false,"is_disabled":false,"rental_uris":{"android":"levelo://app?vid=1006c892-6b03-44d6-80a0-421cc4f35b9a","ios":"levelo://app?vid=1006c892-6b03-44d6-80a0-421cc4f35b9a"},"vehicle_type_id":"4","last_reported":1749475531,"current_range_meters":16800,"station_id":"ce4bgph2rcd13ifvqc2g","pricing_plan_id":"cebpf4jnsgd1na2vs0mg"},{"bike_id":"69c61564-e40c-49fd-8e63-6564a079ee60","system_id":"levelo_inurba_marseille","lat":43.262262,"lon":5.404456,"is_reserved":false,"is_disabled":false,"rental_uris":{"android":"levelo://app?vid=69c61564-e40c-49fd-8e63-6564a079ee60","ios":"levelo://app?vid=69c61564-e40c-49fd-8e63-6564a079ee60"},"vehicle_type_id":"4","last_reported":1749475531,"current_range_meters":16800,"station_id":"ce4bhmh2rcd13ifvqgmg","pricing_plan_id":"cebpf4jnsgd1na2vs0mg"},{"bike_id":"ab5f1112-31f1-4884-9278-3943b0267de8","system_id":"levelo_inurba_marseille","lat":43.27381,"lon":5.36245,"is_reserved":false,"is_disabled":false,"rental_uris":{"android":"levelo://app?vid=ab5f1112-31f1-4884-9278-3943b0267de8","ios":"levelo://app?vid=ab5f1112-31f1-4884-9278-3943b0267de8"},"vehicle_type_id":"4","last_reported":1749475531,"current_range_meters":17200,"station_id":"ce4bhbh2rcd13ifvqeo0","pricing_plan_id":"cebpf4jnsgd1na2vs0mg"},{"bike_id":"10a70f2c-55b2-4b29-a176-df92e1013498","system_id":"levelo_inurba_marseille","lat":43.26214,"lon":5.37438,"is_reserved":false,"is_disabled":false,"rental_uris":{"android":"levelo://app?vid=10a70f2c-55b2-4b29-a176-df92e1013498","ios":"levelo://app?vid=10a70f2c-55b2-4b29-a176-df92e1013498"},"vehicle_type_id":"4","last_reported":1749475531,"current_range_meters":17200,"station_id":"ce4bhgp2rcd13ifvqfc0","pricing_plan_id":"cebpf4jnsgd1na2vs0mg"},{"bike_id":"22d0924c-5da1-457f-9250-e6195eccffd9","system_id":"levelo_inurba_marseille","lat":43.21746,"lon":5.34602,"is_reserved":false,"is_disabled":false,"rental_uris":{"android":"levelo://app?vid=22d0924c-5da1-457f-9250-e6195eccffd9","ios":"levelo://app?vid=22d0924c-5da1-457f-9250-e6195eccffd9"},"vehicle_type_id":"4","last_reported":1749475531,"current_range_meters":17200,"station_id":"st_cvj6r9ubvosntc0bgbag","pricing_plan_id":"cebpf4jnsgd1na2vs0mg"},{"bike_id":"bb5d4014-df8c-44a7-8ca3-0bdeb0793d56","system_id":"levelo_inurba_marseille","lat":43.27563,"lon":5.38418,"is_reserved":false,"is_disabled":false,"rental_uris":{"android":"levelo://app?vid=bb5d4014-df8c-44a7-8ca3-0bdeb0793d56","ios":"levelo://app?vid=bb5d4014-df8c-44a7-8ca3-0bdeb0793d56"},"vehicle_type_id":"4","last_reported":1749475531,"current_range_meters":17200,"station_id":"ce4bhh92rcd13ifvqfi0","pricing_plan_id":"cebpf4jnsgd1na2vs0mg"},{"bike_id":"eab6b162-1fae-42cb-af90-060f27764e48","system_id":"levelo_inurba_marseille","lat":43.21745,"lon":5.34602,"is_reserved":false,"is_disabled":false,"rental_uris":{"android":"levelo://app?vid=eab6b162-1fae-42cb-af90-060f27764e48","ios":"levelo://app?vid=eab6b162-1fae-42cb-af90-060f27764e48"},"vehicle_type_id":"4","last_reported":1749475531,"current_range_meters":17200,"station_id":"st_cvj6r9ubvosntc0bgbag","pricing_plan_id":"cebpf4jnsgd1na2vs0mg"},{"bike_id":"01a4d6e0-e13e-4860-b605-15f0bef4fdd6","system_id":"levelo_inurba_marseille","lat":43.211882,"lon":5.350548,"is_reserved":false,"is_disabled":false,"rental_uris":{"android":"levelo://app?vid=01a4d6e0-e13e-4860-b605-15f0bef4fdd6","ios":"levelo://app?vid=01a4d6e0-e13e-4860-b605-15f0bef4fdd6"},"vehicle_type_id":"4","last_reported":1749475531,"current_range_meters":17200,"station_id":"st_cvj6sg6p6f1abm77japg","pricing_plan_id":"cebpf4jnsgd1na2vs0mg"},{"bike_id":"ca27e12a-1f2d-4cf2-be29-12a2b9ff1547","system_id":"levelo_inurba_marseille","lat":43.31718,"lon":5.42411,"is_reserved":false,"is_disabled":false,"rental_uris":{"android":"levelo://app?vid=ca27e12a-1f2d-4cf2-be29-12a2b9ff1547","ios":"levelo://app?vid=ca27e12a-1f2d-4cf2-be29-12a2b9ff1547"},"vehicle_type_id":"4","last_reported":1749475531,"current_range_meters":17200,"station_id":"ce4bhp92rcd13ifvqhbg","pricing_plan_id":"cebpf4jnsgd1na2vs0mg"},{"bike_id":"08a53a55-6dc8-4ca9-bb21-99b40b0d010d","system_id":"levelo_inurba_marseille","lat":43.255,"lon":5.37649,"is_reserved":false,"is_disabled":false,"rental_uris":{"android":"levelo://app?vid=08a53a55-6dc8-4ca9-bb21-99b40b0d010d","ios":"levelo://app?vid=08a53a55-6dc8-4ca9-bb21-99b40b0d010d"},"vehicle_type_id":"4","last_reported":1749475531,"current_range_meters":17200,"station_id":"ce4bhh12rcd13ifvqff0","pricing_plan_id":"cebpf4jnsgd1na2vs0mg"},{"bike_id":"136b8fbf-14bc-4a87-a822-8077a5afc251","system_id":"levelo_inurba_marseille","lat":43.284193,"lon":5.349942,"is_reserved":false,"is_disabled":false,"rental_uris":{"android":"levelo://app?vid=136b8fbf-14bc-4a87-a822-8077a5afc251","ios":"levelo://app?vid=136b8fbf-14bc-4a87-a822-8077a5afc251"},"vehicle_type_id":"4","last_reported":1749475531,"current_range_meters":17600,"station_id":"ce4bhbh2rcd13ifvqepg","pricing_plan_id":"cebpf4jnsgd1na2vs0mg"},{"bike_id":"e055dd94-9a18-4715-b0a3-48320d828816","system_id":"levelo_inurba_marseille","lat":43.28416,"lon":5.34982,"is_reserved":false,"is_disabled":false,"rental_uris":{"android":"levelo://app?vid=e055dd94-9a18-4715-b0a3-48320d828816","ios":"levelo://app?vid=e055dd94-9a18-4715-b0a3-48320d828816"},"vehicle_type_id":"4","last_reported":1749475531,"current_range_meters":17600,"station_id":"ce4bhbh2rcd13ifvqepg","pricing_plan_id":"cebpf4jnsgd1na2vs0mg"},{"bike_id":"3c4d7a42-e24c-466c-9d1a-7a2a5b94b606","system_id":"levelo_inurba_marseille","lat":43.28614,"lon":5.351,"is_reserved":false,"is_disabled":false,"rental_uris":{"android":"levelo://app?vid=3c4d7a42-e24c-466c-9d1a-7a2a5b94b606","ios":"levelo://app?vid=3c4d7a42-e24c-466c-9d1a-7a2a5b94b606"},"vehicle_type_id":"4","last_reported":1749475531,"current_range_meters":17600,"station_id":"ce4bhch2rcd13ifvqeug","pricing_plan_id":"cebpf4jnsgd1na2vs0mg"},{"bike_id":"b7651752-8eb3-4b67-91fc-0a6e006c8d1f","system_id":"levelo_inurba_marseille","lat":43.21199,"lon":5.35071,"is_reserved":false,"is_disabled":false,"rental_uris":{"android":"levelo://app?vid=b7651752-8eb3-4b67-91fc-0a6e006c8d1f","ios":"levelo://app?vid=b7651752-8eb3-4b67-91fc-0a6e006c8d1f"},"vehicle_type_id":"4","last_reported":1749475531,"current_range_meters":17600,"station_id":"st_cvj6sg6p6f1abm77japg","pricing_plan_id":"cebpf4jnsgd1na2vs0mg"},{"bike_id":"01a575ed-1f03-4cd7-9534-24b45d98f89d","system_id":"levelo_inurba_marseille","lat":43.28422,"lon":5.34992,"is_reserved":false,"is_disabled":false,"rental_uris":{"android":"levelo://app?vid=01a575ed-1f03-4cd7-9534-24b45d98f89d","ios":"levelo://app?vid=01a575ed-1f03-4cd7-9534-24b45d98f89d"},"vehicle_type_id":"4","last_reported":1749475531,"current_range_meters":17600,"station_id":"ce4bhbh2rcd13ifvqepg","pricing_plan_id":"cebpf4jnsgd1na2vs0mg"},{"bike_id":"2138ff97-c5bf-410d-b7b3-dbef5874d459","system_id":"levelo_inurba_marseille","lat":43.211852,"lon":5.350705,"is_reserved":false,"is_disabled":false,"rental_uris":{"android":"levelo://app?vid=2138ff97-c5bf-410d-b7b3-dbef5874d459","ios":"levelo://app?vid=2138ff97-c5bf-410d-b7b3-dbef5874d459"},"vehicle_type_id":"4","last_reported":1749475531,"current_range_meters":17600,"station_id":"st_cvj6sg6p6f1abm77japg","pricing_plan_id":"cebpf4jnsgd1na2vs0mg"},{"bike_id":"4f2cbb97-7e2f-479b-aa3a-963a72f545e6","system_id":"levelo_inurba_marseille","lat":43.21177,"lon":5.3507,"is_reserved":false,"is_disabled":false,"rental_uris":{"android":"levelo://app?vid=4f2cbb97-7e2f-479b-aa3a-963a72f545e6","ios":"levelo://app?vid=4f2cbb97-7e2f-479b-aa3a-963a72f545e6"},"vehicle_type_id":"4","last_reported":1749475531,"current_range_meters":17600,"station_id":"st_cvj6sg6p6f1abm77japg","pricing_plan_id":"cebpf4jnsgd1na2vs0mg"},{"bike_id":"e925ed2b-babc-4cf9-b75b-bac898fd5635","system_id":"levelo_inurba_marseille","lat":43.211939,"lon":5.350674,"is_reserved":false,"is_disabled":false,"rental_uris":{"android":"levelo://app?vid=e925ed2b-babc-4cf9-b75b-bac898fd5635","ios":"levelo://app?vid=e925ed2b-babc-4cf9-b75b-bac898fd5635"},"vehicle_type_id":"4","last_reported":1749475531,"current_range_meters":17600,"station_id":"st_cvj6sg6p6f1abm77japg","pricing_plan_id":"cebpf4jnsgd1na2vs0mg"},{"bike_id":"8fad182c-eb78-40da-9d1d-586268942b1a","system_id":"levelo_inurba_marseille","lat":43.217509,"lon":5.345984,"is_reserved":false,"is_disabled":false,"rental_uris":{"android":"levelo://app?vid=8fad182c-eb78-40da-9d1d-586268942b1a","ios":"levelo://app?vid=8fad182c-eb78-40da-9d1d-586268942b1a"},"vehicle_type_id":"4","last_reported":1749475531,"current_range_meters":18000,"station_id":"st_cvj6r9ubvosntc0bgbag","pricing_plan_id":"cebpf4jnsgd1na2vs0mg"},{"bike_id":"13535ab7-a455-47c8-9fed-3799bdf7ba43","system_id":"levelo_inurba_marseille","lat":43.24374,"lon":5.37053,"is_reserved":false,"is_disabled":false,"rental_uris":{"android":"levelo://app?vid=13535ab7-a455-47c8-9fed-3799bdf7ba43","ios":"levelo://app?vid=13535ab7-a455-47c8-9fed-3799bdf7ba43"},"vehicle_type_id":"4","last_reported":1749475531,"current_range_meters":18000,"station_id":"ce4bhhh2rcd13ifvqfk0","pricing_plan_id":"cebpf4jnsgd1na2vs0mg"},{"bike_id":"9be507c2-130c-4b08-96c4-d8efc8a44f1e","system_id":"levelo_inurba_marseille","lat":43.21178,"lon":5.35066,"is_reserved":false,"is_disabled":false,"rental_uris":{"android":"levelo://app?vid=9be507c2-130c-4b08-96c4-d8efc8a44f1e","ios":"levelo://app?vid=9be507c2-130c-4b08-96c4-d8efc8a44f1e"},"vehicle_type_id":"4","last_reported":1749475531,"current_range_meters":18000,"station_id":"st_cvj6sg6p6f1abm77japg","pricing_plan_id":"cebpf4jnsgd1na2vs0mg"},{"bike_id":"5b1c44c1-5c85-4d60-925b-60924b8e7a03","system_id":"levelo_inurba_marseille","lat":43.2958,"lon":5.3675,"is_reserved":false,"is_disabled":false,"rental_uris":{"android":"levelo://app?vid=5b1c44c1-5c85-4d60-925b-60924b8e7a03","ios":"levelo://app?vid=5b1c44c1-5c85-4d60-925b-60924b8e7a03"},"vehicle_type_id":"4","last_reported":1749475531,"current_range_meters":17600,"station_id":"ce4bgph2rcd13ifvqc2g","pricing_plan_id":"cebpf4jnsgd1na2vs0mg"},{"bike_id":"7fbb8cf5-f563-4c4a-90cf-1a5ac10b01c4","system_id":"levelo_inurba_marseille","lat":43.21194,"lon":5.35067,"is_reserved":false,"is_disabled":false,"rental_uris":{"android":"levelo://app?vid=7fbb8cf5-f563-4c4a-90cf-1a5ac10b01c4","ios":"levelo://app?vid=7fbb8cf5-f563-4c4a-90cf-1a5ac10b01c4"},"vehicle_type_id":"4","last_reported":1749475531,"current_range_meters":18000,"station_id":"st_cvj6sg6p6f1abm77japg","pricing_plan_id":"cebpf4jnsgd1na2vs0mg"},{"bike_id":"badc3030-19e7-4024-abec-89548d09c5a6","system_id":"levelo_inurba_marseille","lat":43.269348,"lon":5.40256,"is_reserved":false,"is_disabled":false,"rental_uris":{"android":"levelo://app?vid=badc3030-19e7-4024-abec-89548d09c5a6","ios":"levelo://app?vid=badc3030-19e7-4024-abec-89548d09c5a6"},"vehicle_type_id":"4","last_reported":1749475531,"current_range_meters":18000,"station_id":"cjm6bp8fraef2m0cb0m0","pricing_plan_id":"cebpf4jnsgd1na2vs0mg"},{"bike_id":"128fd47b-d4bf-4e59-b650-cea0d07d5f4e","system_id":"levelo_inurba_marseille","lat":43.31078,"lon":5.38358,"is_reserved":false,"is_disabled":false,"rental_uris":{"android":"levelo://app?vid=128fd47b-d4bf-4e59-b650-cea0d07d5f4e","ios":"levelo://app?vid=128fd47b-d4bf-4e59-b650-cea0d07d5f4e"},"vehicle_type_id":"4","last_reported":1749475531,"current_range_meters":18000,"station_id":"ce4bgv92rcd13ifvqcr0","pricing_plan_id":"cebpf4jnsgd1na2vs0mg"},{"bike_id":"d7f228d3-40c9-494e-aaba-c8ab739652fc","system_id":"levelo_inurba_marseille","lat":43.28972,"lon":5.35546,"is_reserved":false,"is_disabled":false,"rental_uris":{"android":"levelo://app?vid=d7f228d3-40c9-494e-aaba-c8ab739652fc","ios":"levelo://app?vid=d7f228d3-40c9-494e-aaba-c8ab739652fc"},"vehicle_type_id":"4","last_reported":1749475531,"current_range_meters":18000,"station_id":"","pricing_plan_id":"cebpf4jnsgd1na2vs0mg"},{"bike_id":"97870ab0-2c8f-458a-b0b4-d2f5449548d5","system_id":"levelo_inurba_marseille","lat":43.217508,"lon":5.34596,"is_reserved":false,"is_disabled":false,"rental_uris":{"android":"levelo://app?vid=97870ab0-2c8f-458a-b0b4-d2f5449548d5","ios":"levelo://app?vid=97870ab0-2c8f-458a-b0b4-d2f5449548d5"},"vehicle_type_id":"4","last_reported":1749475531,"current_range_meters":18000,"station_id":"st_cvj6r9ubvosntc0bgbag","pricing_plan_id":"cebpf4jnsgd1na2vs0mg"},{"bike_id":"eb97d445-7ab3-4349-92bb-d3e2be9c8407","system_id":"levelo_inurba_marseille","lat":43.290012,"lon":5.356094,"is_reserved":false,"is_disabled":false,"rental_uris":{"android":"levelo://app?vid=eb97d445-7ab3-4349-92bb-d3e2be9c8407","ios":"levelo://app?vid=eb97d445-7ab3-4349-92bb-d3e2be9c8407"},"vehicle_type_id":"4","last_reported":1749475531,"current_range_meters":18000,"station_id":"ce4bhb92rcd13ifvqen0","pricing_plan_id":"cebpf4jnsgd1na2vs0mg"},{"bike_id":"c6830c0d-e468-46fa-b9c2-96c1aec56a2d","system_id":"levelo_inurba_marseille","lat":43.272741,"lon":5.431053,"is_reserved":false,"is_disabled":false,"rental_uris":{"android":"levelo://app?vid=c6830c0d-e468-46fa-b9c2-96c1aec56a2d","ios":"levelo://app?vid=c6830c0d-e468-46fa-b9c2-96c1aec56a2d"},"vehicle_type_id":"4","last_reported":1749475531,"current_range_meters":18000,"station_id":"","pricing_plan_id":"cebpf4jnsgd1na2vs0mg"},{"bike_id":"ed19b723-24bc-40b3-b2e8-62f940ce0c06","system_id":"levelo_inurba_marseille","lat":43.30255,"lon":5.37055,"is_reserved":false,"is_disabled":false,"rental_uris":{"android":"levelo://app?vid=ed19b723-24bc-40b3-b2e8-62f940ce0c06","ios":"levelo://app?vid=ed19b723-24bc-40b3-b2e8-62f940ce0c06"},"vehicle_type_id":"4","last_reported":1749475531,"current_range_meters":18000,"station_id":"","pricing_plan_id":"cebpf4jnsgd1na2vs0mg"},{"bike_id":"7c2ad8a5-4b30-4eca-a016-b09bc7c4cfd5","system_id":"levelo_inurba_marseille","lat":43.331036,"lon":5.381032,"is_reserved":false,"is_disabled":false,"rental_uris":{"android":"levelo://app?vid=7c2ad8a5-4b30-4eca-a016-b09bc7c4cfd5","ios":"levelo://app?vid=7c2ad8a5-4b30-4eca-a016-b09bc7c4cfd5"},"vehicle_type_id":"4","last_reported":1749475531,"current_range_meters":18800,"station_id":"","pricing_plan_id":"cebpf4jnsgd1na2vs0mg"},{"bike_id":"5b63fd4f-6fdb-4604-8f60-9320c6647636","system_id":"levelo_inurba_marseille","lat":43.27068,"lon":5.42284,"is_reserved":false,"is_disabled":false,"rental_uris":{"android":"levelo://app?vid=5b63fd4f-6fdb-4604-8f60-9320c6647636","ios":"levelo://app?vid=5b63fd4f-6fdb-4604-8f60-9320c6647636"},"vehicle_type_id":"4","last_reported":1749475531,"current_range_meters":18800,"station_id":"ce4bhk92rcd13ifvqgb0","pricing_plan_id":"cebpf4jnsgd1na2vs0mg"},{"bike_id":"4377f539-71d3-4c0d-8d5f-72ea361014b2","system_id":"levelo_inurba_marseille","lat":43.28416,"lon":5.34983,"is_reserved":false,"is_disabled":false,"rental_uris":{"android":"levelo://app?vid=4377f539-71d3-4c0d-8d5f-72ea361014b2","ios":"levelo://app?vid=4377f539-71d3-4c0d-8d5f-72ea361014b2"},"vehicle_type_id":"4","last_reported":1749475531,"current_range_meters":18800,"station_id":"ce4bhbh2rcd13ifvqepg","pricing_plan_id":"cebpf4jnsgd1na2vs0mg"},{"bike_id":"5416c55a-ff05-43af-a689-61d908215faf","system_id":"levelo_inurba_marseille","lat":43.28417,"lon":5.34983,"is_reserved":false,"is_disabled":false,"rental_uris":{"android":"levelo://app?vid=5416c55a-ff05-43af-a689-61d908215faf","ios":"levelo://app?vid=5416c55a-ff05-43af-a689-61d908215faf"},"vehicle_type_id":"4","last_reported":1749475531,"current_range_meters":18800,"station_id":"ce4bhbh2rcd13ifvqepg","pricing_plan_id":"cebpf4jnsgd1na2vs0mg"},{"bike_id":"18810a88-c88b-47cc-bd4c-7ccd45a76b91","system_id":"levelo_inurba_marseille","lat":43.23145,"lon":5.43734,"is_reserved":false,"is_disabled":false,"rental_uris":{"android":"levelo://app?vid=18810a88-c88b-47cc-bd4c-7ccd45a76b91","ios":"levelo://app?vid=18810a88-c88b-47cc-bd4c-7ccd45a76b91"},"vehicle_type_id":"4","last_reported":1749475531,"current_range_meters":18800,"station_id":"ce4bhmp2rcd13ifvqgog","pricing_plan_id":"cebpf4jnsgd1na2vs0mg"},{"bike_id":"0713ac28-2477-4c08-8932-d03681408225","system_id":"levelo_inurba_marseille","lat":43.21187,"lon":5.35089,"is_reserved":false,"is_disabled":false,"rental_uris":{"android":"levelo://app?vid=0713ac28-2477-4c08-8932-d03681408225","ios":"levelo://app?vid=0713ac28-2477-4c08-8932-d03681408225"},"vehicle_type_id":"4","last_reported":1749475531,"current_range_meters":18800,"station_id":"st_cvj6sg6p6f1abm77japg","pricing_plan_id":"cebpf4jnsgd1na2vs0mg"},{"bike_id":"9600924b-63cd-4041-bd94-293af287f20c","system_id":"levelo_inurba_marseille","lat":43.24167,"lon":5.36403,"is_reserved":false,"is_disabled":false,"rental_uris":{"android":"levelo://app?vid=9600924b-63cd-4041-bd94-293af287f20c","ios":"levelo://app?vid=9600924b-63cd-4041-bd94-293af287f20c"},"vehicle_type_id":"4","last_reported":1749475531,"current_range_meters":18800,"station_id":"cpo36qri1sfpv3e86is0","pricing_plan_id":"cebpf4jnsgd1na2vs0mg"},{"bike_id":"91f71030-b2ca-4a2b-bdc2-5db623c8bf49","system_id":"levelo_inurba_marseille","lat":43.21747,"lon":5.34615,"is_reserved":false,"is_disabled":false,"rental_uris":{"android":"levelo://app?vid=91f71030-b2ca-4a2b-bdc2-5db623c8bf49","ios":"levelo://app?vid=91f71030-b2ca-4a2b-bdc2-5db623c8bf49"},"vehicle_type_id":"4","last_reported":1749475531,"current_range_meters":18800,"station_id":"st_cvj6r9ubvosntc0bgbag","pricing_plan_id":"cebpf4jnsgd1na2vs0mg"},{"bike_id":"69f0077f-5629-4ba7-bd11-ca5c812d15cf","system_id":"levelo_inurba_marseille","lat":43.26208,"lon":5.3744,"is_reserved":false,"is_disabled":false,"rental_uris":{"android":"levelo://app?vid=69f0077f-5629-4ba7-bd11-ca5c812d15cf","ios":"levelo://app?vid=69f0077f-5629-4ba7-bd11-ca5c812d15cf"},"vehicle_type_id":"4","last_reported":1749475531,"current_range_meters":18800,"station_id":"ce4bhgp2rcd13ifvqfc0","pricing_plan_id":"cebpf4jnsgd1na2vs0mg"},{"bike_id":"6dd6546f-f014-430d-9f54-e421b51cb32a","system_id":"levelo_inurba_marseille","lat":43.28703,"lon":5.39987,"is_reserved":false,"is_disabled":false,"rental_uris":{"android":"levelo://app?vid=6dd6546f-f014-430d-9f54-e421b51cb32a","ios":"levelo://app?vid=6dd6546f-f014-430d-9f54-e421b51cb32a"},"vehicle_type_id":"4","last_reported":1749475531,"current_range_meters":18800,"station_id":"ce4bho92rcd13ifvqh3g","pricing_plan_id":"cebpf4jnsgd1na2vs0mg"},{"bike_id":"436cd28f-cb5b-49b0-9aeb-4367dd12161d","system_id":"levelo_inurba_marseille","lat":43.22937,"lon":5.35377,"is_reserved":false,"is_disabled":false,"rental_uris":{"android":"levelo://app?vid=436cd28f-cb5b-49b0-9aeb-4367dd12161d","ios":"levelo://app?vid=436cd28f-cb5b-49b0-9aeb-4367dd12161d"},"vehicle_type_id":"4","last_reported":1749475531,"current_range_meters":19200,"station_id":"cpo3532slgdg3j2ikp40","pricing_plan_id":"cebpf4jnsgd1na2vs0mg"},{"bike_id":"a87a0f3a-ee24-4735-a7de-287b9d433587","system_id":"levelo_inurba_marseille","lat":43.22924,"lon":5.35379,"is_reserved":false,"is_disabled":false,"rental_uris":{"android":"levelo://app?vid=a87a0f3a-ee24-4735-a7de-287b9d433587","ios":"levelo://app?vid=a87a0f3a-ee24-4735-a7de-287b9d433587"},"vehicle_type_id":"4","last_reported":1749475531,"current_range_meters":19200,"station_id":"cpo3532slgdg3j2ikp40","pricing_plan_id":"cebpf4jnsgd1na2vs0mg"},{"bike_id":"8767d163-347a-4edf-addd-4b13b00bed43","system_id":"levelo_inurba_marseille","lat":43.23195,"lon":5.35553,"is_reserved":false,"is_disabled":false,"rental_uris":{"android":"levelo://app?vid=8767d163-347a-4edf-addd-4b13b00bed43","ios":"levelo://app?vid=8767d163-347a-4edf-addd-4b13b00bed43"},"vehicle_type_id":"4","last_reported":1749475531,"current_range_meters":19200,"station_id":"ce4bhu92rcd13ifvqi70","pricing_plan_id":"cebpf4jnsgd1na2vs0mg"},{"bike_id":"04ad5f80-1378-4428-9508-93e35b86c415","system_id":"levelo_inurba_marseille","lat":43.2872,"lon":5.36097,"is_reserved":false,"is_disabled":false,"rental_uris":{"android":"levelo://app?vid=04ad5f80-1378-4428-9508-93e35b86c415","ios":"levelo://app?vid=04ad5f80-1378-4428-9508-93e35b86c415"},"vehicle_type_id":"4","last_reported":1749475531,"current_range_meters":18800,"station_id":"cki0cbj6b192h4jlfktg","pricing_plan_id":"cebpf4jnsgd1na2vs0mg"},{"bike_id":"41a4833e-b374-4dab-980e-babb49f9828e","system_id":"levelo_inurba_marseille","lat":43.28436,"lon":5.35006,"is_reserved":false,"is_disabled":false,"rental_uris":{"android":"levelo://app?vid=41a4833e-b374-4dab-980e-babb49f9828e","ios":"levelo://app?vid=41a4833e-b374-4dab-980e-babb49f9828e"},"vehicle_type_id":"4","last_reported":1749475531,"current_range_meters":19200,"station_id":"ce4bhbh2rcd13ifvqepg","pricing_plan_id":"cebpf4jnsgd1na2vs0mg"},{"bike_id":"16c2caa4-44dd-4299-8b2b-74b230a200c2","system_id":"levelo_inurba_marseille","lat":43.262138,"lon":5.374459,"is_reserved":false,"is_disabled":false,"rental_uris":{"android":"levelo://app?vid=16c2caa4-44dd-4299-8b2b-74b230a200c2","ios":"levelo://app?vid=16c2caa4-44dd-4299-8b2b-74b230a200c2"},"vehicle_type_id":"4","last_reported":1749475531,"current_range_meters":19200,"station_id":"ce4bhgp2rcd13ifvqfc0","pricing_plan_id":"cebpf4jnsgd1na2vs0mg"},{"bike_id":"5d3016e0-312c-4b72-8484-4c5d7ec442ef","system_id":"levelo_inurba_marseille","lat":43.30906,"lon":5.37277,"is_reserved":false,"is_disabled":false,"rental_uris":{"android":"levelo://app?vid=5d3016e0-312c-4b72-8484-4c5d7ec442ef","ios":"levelo://app?vid=5d3016e0-312c-4b72-8484-4c5d7ec442ef"},"vehicle_type_id":"4","last_reported":1749475531,"current_range_meters":19200,"station_id":"","pricing_plan_id":"cebpf4jnsgd1na2vs0mg"},