{"last_updated":1741273794,"ttl":60,"version":"2.2","data":{"bikes":[{"bike_id":"7c9bb30e-276a-4276-9e69-7a551f00c356","system_id":"levelo_inurba_marseille","lat":43.3254,"lon":5.41437,"is_reserved":false,"is_disabled":false,"rental_uris":{"android":"levelo://app?vid=7c9bb30e-276a-4276-9e69-7a551f00c356","ios":"levelo://app?vid=7c9bb30e-276a-4276-9e69-7a551f00c356"},"vehicle_type_id":"4","last_reported":1741273794,"current_range_meters":2800,"station_id":"ce4bhq12rcd13ifvqhhg","pricing_plan_id":"cebpf4jnsgd1na2vs0mg"},{"bike_id":"aa5b1ff2-dc22-42e7-9fd2-e8d9187a6873","system_id":"levelo_inurba_marseille","lat":43.303009,"lon":5.392188,"is_reserved":false,"is_disabled":false,"rental_uris":{"android":"levelo://app?vid=aa5b1ff2-dc22-42e7-9fd2-e8d9187a6873","ios":"levelo://app?vid=aa5b1ff2-dc22-42e7-9fd2-e8d9187a6873"},"vehicle_type_id":"4","last_reported":1741273794,"current_range_meters":3200,"station_id":"ce4bh412rcd13ifvqds0","pricing_plan_id":"cebpf4jnsgd1na2vs0mg"},{"bike_id":"5c2c3ca6-3ac6-43e7-a700-1b9de3a29caf","system_id":"levelo_inurba_marseille","lat":43.27835,"lon":5.39213,"is_reserved":false,"is_disabled":false,"rental_uris":{"android":"levelo://app?vid=5c2c3ca6-3ac6-43e7-a700-1b9de3a29caf","ios":"levelo://app?vid=5c2c3ca6-3ac6-43e7-a700-1b9de3a29caf"},"vehicle_type_id":"4","last_reported":1741273794,"current_range_meters":4400,"station_id":"ce4bhjp2rcd13ifvqga0","pricing_plan_id":"cebpf4jnsgd1na2vs0mg"},{"bike_id":"d6ff9907-b390-4eaf-a27d-5e263823486e","system_id":"levelo_inurba_marseille","lat":43.30959,"lon":5.39031,"is_reserved":false,"is_disabled":false,"rental_uris":{"android":"levelo://app?vid=d6ff9907-b390-4eaf-a27d-5e263823486e","ios":"levelo://app?vid=d6ff9907-b390-4eaf-a27d-5e263823486e"},"vehicle_type_id":"4","last_reported":1741273794,"current_range_meters":800,"station_id":"ce4bgup2rcd13ifvqco0","pricing_plan_id":"cebpf4jnsgd1na2vs0mg"},{"bike_id":"56e7c380-6f5c-4a92-8e5f-08dc3d28dc90","system_id":"levelo_inurba_marseille","lat":43.26195,"lon":5.37454,"is_reserved":false,"is_disabled":false,"rental_uris":{"android":"levelo://app?vid=56e7c380-6f5c-4a92-8e5f-08dc3d28dc90","ios":"levelo://app?vid=56e7c380-6f5c-4a92-8e5f-08dc3d28dc90"},"vehicle_type_id":"4","last_reported":1741273794,"current_range_meters":3600,"station_id":"ce4bhgp2rcd13ifvqfc0","pricing_plan_id":"cebpf4jnsgd1na2vs0mg"},{"bike_id":"a5c9d543-a652-4c6c-a148-b7be2c684e09","system_id":"levelo_inurba_marseille","lat":43.31288,"lon":5.40168,"is_reserved":false,"is_disabled":false,"rental_uris":{"android":"levelo://app?vid=a5c9d543-a652-4c6c-a148-b7be2c684e09","ios":"levelo://app?vid=a5c9d543-a652-4c6c-a148-b7be2c684e09"},"vehicle_type_id":"4","last_reported":1741273794,"current_range_meters":4000,"station_id":"ce4bh092rcd13ifvqd30","pricing_plan_id":"cebpf4jnsgd1na2vs0mg"},{"bike_id":"bebf0817-9a31-445f-81d1-405167f0cb03","system_id":"levelo_inurba_marseille","lat":43.26788,"lon":5.39421,"is_reserved":false,"is_disabled":false,"rental_uris":{"android":"levelo://app?vid=bebf0817-9a31-445f-81d1-405167f0cb03","ios":"levelo://app?vid=bebf0817-9a31-445f-81d1-405167f0cb03"},"vehicle_type_id":"4","last_reported":1741273794,"current_range_meters":4000,"station_id":"ce4bhh12rcd13ifvqfg0","pricing_plan_id":"cebpf4jnsgd1na2vs0mg"},{"bike_id":"cb53bd53-bb78-42c2-885c-a05af7064d1a","system_id":"levelo_inurba_marseille","lat":43.28357,"lon":5.38646,"is_reserved":false,"is_disabled":false,"rental_uris":{"android":"levelo://app?vid=cb53bd53-bb78-42c2-885c-a05af7064d1a","ios":"levelo://app?vid=cb53bd53-bb78-42c2-885c-a05af7064d1a"},"vehicle_type_id":"4","last_reported":1741273794,"current_range_meters":4400,"station_id":"ce4bh492rcd13ifvqdvg","pricing_plan_id":"cebpf4jnsgd1na2vs0mg"},{"bike_id":"6ea067ad-0927-492e-ad44-171812dd1748","system_id":"levelo_inurba_marseille","lat":43.262297,"lon":5.404532,"is_reserved":false,"is_disabled":false,"rental_uris":{"android":"levelo://app?vid=6ea067ad-0927-492e-ad44-171812dd1748","ios":"levelo://app?vid=6ea067ad-0927-492e-ad44-171812dd1748"},"vehicle_type_id":"4","last_reported":1741273794,"current_range_meters":4800,"station_id":"ce4bhmh2rcd13ifvqgmg","pricing_plan_id":"cebpf4jnsgd1na2vs0mg"},{"bike_id":"7872a017-bcf6-4f1b-8b30-7922da2f3220","system_id":"levelo_inurba_marseille","lat":43.2656,"lon":5.37299,"is_reserved":false,"is_disabled":false,"rental_uris":{"android":"levelo://app?vid=7872a017-bcf6-4f1b-8b30-7922da2f3220","ios":"levelo://app?vid=7872a017-bcf6-4f1b-8b30-7922da2f3220"},"vehicle_type_id":"4","last_reported":1741273794,"current_range_meters":5600,"station_id":"ce4bhg12rcd13ifvqf70","pricing_plan_id":"cebpf4jnsgd1na2vs0mg"},{"bike_id":"1c0978b7-e0b0-4c04-8863-236630968acd","system_id":"levelo_inurba_marseille","lat":43.25932,"lon":5.40906,"is_reserved":false,"is_disabled":false,"rental_uris":{"android":"levelo://app?vid=1c0978b7-e0b0-4c04-8863-236630968acd","ios":"levelo://app?vid=1c0978b7-e0b0-4c04-8863-236630968acd"},"vehicle_type_id":"4","last_reported":1741273794,"current_range_meters":6000,"station_id":"ce4bhm92rcd13ifvqglg","pricing_plan_id":"cebpf4jnsgd1na2vs0mg"},{"bike_id":"05616ff9-260a-4c58-b8bc-0e12e88060fb","system_id":"levelo_inurba_marseille","lat":43.25497,"lon":5.37652,"is_reserved":false,"is_disabled":false,"rental_uris":{"android":"levelo://app?vid=05616ff9-260a-4c58-b8bc-0e12e88060fb","ios":"levelo://app?vid=05616ff9-260a-4c58-b8bc-0e12e88060fb"},"vehicle_type_id":"4","last_reported":1741273794,"current_range_meters":1600,"station_id":"ce4bhh12rcd13ifvqff0","pricing_plan_id":"cebpf4jnsgd1na2vs0mg"},{"bike_id":"ddb1c6ac-bdc8-4839-abd4-f099778db764","system_id":"levelo_inurba_marseille","lat":43.29285,"lon":5.37444,"is_reserved":false,"is_disabled":false,"rental_uris":{"android":"levelo://app?vid=ddb1c6ac-bdc8-4839-abd4-f099778db764","ios":"levelo://app?vid=ddb1c6ac-bdc8-4839-abd4-f099778db764"},"vehicle_type_id":"4","last_reported":1741273794,"current_range_meters":6000,"station_id":"ce4bgi12rcd13ifvqb70","pricing_plan_id":"cebpf4jnsgd1na2vs0mg"},{"bike_id":"bef2af2a-4b13-4f10-8d0b-f6100cb40ac2","system_id":"levelo_inurba_marseille","lat":43.26229,"lon":5.40462,"is_reserved":false,"is_disabled":false,"rental_uris":{"android":"levelo://app?vid=bef2af2a-4b13-4f10-8d0b-f6100cb40ac2","ios":"levelo://app?vid=bef2af2a-4b13-4f10-8d0b-f6100cb40ac2"},"vehicle_type_id":"4","last_reported":1741273794,"current_range_meters":6000,"station_id":"ce4bhmh2rcd13ifvqgmg","pricing_plan_id":"cebpf4jnsgd1na2vs0mg"},{"bike_id":"a508c450-2471-4823-b989-5917711248cb","system_id":"levelo_inurba_marseille","lat":43.27057,"lon":5.40287,"is_reserved":false,"is_disabled":false,"rental_uris":{"android":"levelo://app?vid=a508c450-2471-4823-b989-5917711248cb","ios":"levelo://app?vid=a508c450-2471-4823-b989-5917711248cb"},"vehicle_type_id":"4","last_reported":1741273794,"current_range_meters":6400,"station_id":"ce4bhk92rcd13ifvqgc0","pricing_plan_id":"cebpf4jnsgd1na2vs0mg"},{"bike_id":"ed658983-ed9c-4fca-8a9d-4be7f4b03ae1","system_id":"levelo_inurba_marseille","lat":43.26681,"lon":5.38268,"is_reserved":false,"is_disabled":false,"rental_uris":{"android":"levelo://app?vid=ed658983-ed9c-4fca-8a9d-4be7f4b03ae1","ios":"levelo://app?vid=ed658983-ed9c-4fca-8a9d-4be7f4b03ae1"},"vehicle_type_id":"4","last_reported":1741273794,"current_range_meters":6400,"station_id":"ce4bhg92rcd13ifvqf90","pricing_plan_id":"cebpf4jnsgd1na2vs0mg"},{"bike_id":"0ce9eef2-7f51-4f9c-9643-42b0b1d4f216","system_id":"levelo_inurba_marseille","lat":43.23067,"lon":5.35492,"is_reserved":false,"is_disabled":false,"rental_uris":{"android":"levelo://app?vid=0ce9eef2-7f51-4f9c-9643-42b0b1d4f216","ios":"levelo://app?vid=0ce9eef2-7f51-4f9c-9643-42b0b1d4f216"},"vehicle_type_id":"4","last_reported":1741273794,"current_range_meters":6400,"station_id":"cpo3342slgdg3j2ifvpg","pricing_plan_id":"cebpf4jnsgd1na2vs0mg"},{"bike_id":"680a4f2a-7d33-4108-a88d-d8581f688db4","system_id":"levelo_inurba_marseille","lat":43.28421,"lon":5.34972,"is_reserved":false,"is_disabled":false,"rental_uris":{"android":"levelo://app?vid=680a4f2a-7d33-4108-a88d-d8581f688db4","ios":"levelo://app?vid=680a4f2a-7d33-4108-a88d-d8581f688db4"},"vehicle_type_id":"4","last_reported":1741273794,"current_range_meters":6800,"station_id":"ce4bhbh2rcd13ifvqepg","pricing_plan_id":"cebpf4jnsgd1na2vs0mg"},{"bike_id":"9845813e-1b78-498f-9381-6d53f4885d21","system_id":"levelo_inurba_marseille","lat":43.31331,"lon":5.39667,"is_reserved":false,"is_disabled":false,"rental_uris":{"android":"levelo://app?vid=9845813e-1b78-498f-9381-6d53f4885d21","ios":"levelo://app?vid=9845813e-1b78-498f-9381-6d53f4885d21"},"vehicle_type_id":"4","last_reported":1741273794,"current_range_meters":6800,"station_id":"ce4bgvp2rcd13ifvqcu0","pricing_plan_id":"cebpf4jnsgd1na2vs0mg"},{"bike_id":"7b3dc7b9-ed95-4fac-b8db-fb164e0e0a08","system_id":"levelo_inurba_marseille","lat":43.27489,"lon":5.42464,"is_reserved":false,"is_disabled":true,"rental_uris":{"android":"levelo://app?vid=7b3dc7b9-ed95-4fac-b8db-fb164e0e0a08","ios":"levelo://app?vid=7b3dc7b9-ed95-4fac-b8db-fb164e0e0a08"},"vehicle_type_id":"4","last_reported":1741273794,"current_range_meters":6800,"station_id":"ce4bhn92rcd13ifvqgrg","pricing_plan_id":"cebpf4jnsgd1na2vs0mg"},{"bike_id":"f9fc3450-00c1-46c4-a8f0-75d5054525a7","system_id":"levelo_inurba_marseille","lat":43.23959,"lon":5.36653,"is_reserved":false,"is_disabled":false,"rental_uris":{"android":"levelo://app?vid=f9fc3450-00c1-46c4-a8f0-75d5054525a7","ios":"levelo://app?vid=f9fc3450-00c1-46c4-a8f0-75d5054525a7"},"vehicle_type_id":"4","last_reported":1741273794,"current_range_meters":7200,"station_id":"ce4bhi12rcd13ifvqfp0","pricing_plan_id":"cebpf4jnsgd1na2vs0mg"},{"bike_id":"0209ed92-d4a2-4c02-854d-428ed074e5f6","system_id":"levelo_inurba_marseille","lat":43.2872,"lon":5.37932,"is_reserved":false,"is_disabled":false,"rental_uris":{"android":"levelo://app?vid=0209ed92-d4a2-4c02-854d-428ed074e5f6","ios":"levelo://app?vid=0209ed92-d4a2-4c02-854d-428ed074e5f6"},"vehicle_type_id":"4","last_reported":1741273794,"current_range_meters":7200,"station_id":"ce4bh9p2rcd13ifvqec0","pricing_plan_id":"cebpf4jnsgd1na2vs0mg"},{"bike_id":"c201fcaa-24e0-4800-8544-9d0c7461c8bf","system_id":"levelo_inurba_marseille","lat":43.31188,"lon":5.38709,"is_reserved":false,"is_disabled":false,"rental_uris":{"android":"levelo://app?vid=c201fcaa-24e0-4800-8544-9d0c7461c8bf","ios":"levelo://app?vid=c201fcaa-24e0-4800-8544-9d0c7461c8bf"},"vehicle_type_id":"4","last_reported":1741273794,"current_range_meters":7200,"station_id":"ce4bgv12rcd13ifvqcp0","pricing_plan_id":"cebpf4jnsgd1na2vs0mg"},{"bike_id":"641805c3-6a9a-4f09-b595-5e405820520c","system_id":"levelo_inurba_marseille","lat":43.30884,"lon":5.39653,"is_reserved":false,"is_disabled":false,"rental_uris":{"android":"levelo://app?vid=641805c3-6a9a-4f09-b595-5e405820520c","ios":"levelo://app?vid=641805c3-6a9a-4f09-b595-5e405820520c"},"vehicle_type_id":"4","last_reported":1741273794,"current_range_meters":7200,"station_id":"ce4bh012rcd13ifvqcv0","pricing_plan_id":"cebpf4jnsgd1na2vs0mg"},{"bike_id":"27188222-8fd0-4715-ba4f-61aba374ecc4","system_id":"levelo_inurba_marseille","lat":43.31321,"lon":5.39702,"is_reserved":false,"is_disabled":false,"rental_uris":{"android":"levelo://app?vid=27188222-8fd0-4715-ba4f-61aba374ecc4","ios":"levelo://app?vid=27188222-8fd0-4715-ba4f-61aba374ecc4"},"vehicle_type_id":"4","last_reported":1741273794,"current_range_meters":8000,"station_id":"ce4bgvp2rcd13ifvqcu0","pricing_plan_id":"cebpf4jnsgd1na2vs0mg"},{"bike_id":"5335dc85-9008-4606-bf41-4a4ce97f2c38","system_id":"levelo_inurba_marseille","lat":43.28942,"lon":5.39639,"is_reserved":false,"is_disabled":false,"rental_uris":{"android":"levelo://app?vid=5335dc85-9008-4606-bf41-4a4ce97f2c38","ios":"levelo://app?vid=5335dc85-9008-4606-bf41-4a4ce97f2c38"},"vehicle_type_id":"4","last_reported":1741273794,"current_range_meters":6400,"station_id":"ce4bh3h2rcd13ifvqdn0","pricing_plan_id":"cebpf4jnsgd1na2vs0mg"},{"bike_id":"784325f7-fd57-418d-9c92-9d608a306034","system_id":"levelo_inurba_marseille","lat":43.27441,"lon":5.39423,"is_reserved":false,"is_disabled":false,"rental_uris":{"android":"levelo://app?vid=784325f7-fd57-418d-9c92-9d608a306034","ios":"levelo://app?vid=784325f7-fd57-418d-9c92-9d608a306034"},"vehicle_type_id":"4","last_reported":1741273794,"current_range_meters":8000,"station_id":"ce4bhdp2rcd13ifvqf20","pricing_plan_id":"cebpf4jnsgd1na2vs0mg"},{"bike_id":"14ec57cb-179b-4206-812f-fe514bf8347a","system_id":"levelo_inurba_marseille","lat":43.31229,"lon":5.36861,"is_reserved":false,"is_disabled":false,"rental_uris":{"android":"levelo://app?vid=14ec57cb-179b-4206-812f-fe514bf8347a","ios":"levelo://app?vid=14ec57cb-179b-4206-812f-fe514bf8347a"},"vehicle_type_id":"4","last_reported":1741273794,"current_range_meters":8000,"station_id":"ce4bgl92rcd13ifvqbq0","pricing_plan_id":"cebpf4jnsgd1na2vs0mg"},{"bike_id":"5778ed8c-c581-4909-a900-ec44b413bc6b","system_id":"levelo_inurba_marseille","lat":43.25584,"lon":5.38231,"is_reserved":false,"is_disabled":false,"rental_uris":{"android":"levelo://app?vid=5778ed8c-c581-4909-a900-ec44b413bc6b","ios":"levelo://app?vid=5778ed8c-c581-4909-a900-ec44b413bc6b"},"vehicle_type_id":"4","last_reported":1741273794,"current_range_meters":8000,"station_id":"ce4bhih2rcd13ifvqfs0","pricing_plan_id":"cebpf4jnsgd1na2vs0mg"},{"bike_id":"86723d49-325c-4da0-97b3-2b48647b3a72","system_id":"levelo_inurba_marseille","lat":43.2997,"lon":5.41326,"is_reserved":false,"is_disabled":false,"rental_uris":{"android":"levelo://app?vid=86723d49-325c-4da0-97b3-2b48647b3a72","ios":"levelo://app?vid=86723d49-325c-4da0-97b3-2b48647b3a72"},"vehicle_type_id":"4","last_reported":1741273794,"current_range_meters":8400,"station_id":"ce4bhp12rcd13ifvqh9g","pricing_plan_id":"cebpf4jnsgd1na2vs0mg"},{"bike_id":"64368cad-1319-496a-bc30-c75f19542d4b","system_id":"levelo_inurba_marseille","lat":43.27213,"lon":5.39187,"is_reserved":false,"is_disabled":false,"rental_uris":{"android":"levelo://app?vid=64368cad-1319-496a-bc30-c75f19542d4b","ios":"levelo://app?vid=64368cad-1319-496a-bc30-c75f19542d4b"},"vehicle_type_id":"4","last_reported":1741273794,"current_range_meters":8800,"station_id":"ce4bhhp2rcd13ifvqfm0","pricing_plan_id":"cebpf4jnsgd1na2vs0mg"},{"bike_id":"3a54e1cc-baad-40af-9081-f1dc27dcb80a","system_id":"levelo_inurba_marseille","lat":43.23195,"lon":5.4378,"is_reserved":false,"is_disabled":false,"rental_uris":{"android":"levelo://app?vid=3a54e1cc-baad-40af-9081-f1dc27dcb80a","ios":"levelo://app?vid=3a54e1cc-baad-40af-9081-f1dc27dcb80a"},"vehicle_type_id":"4","last_reported":1741273794,"current_range_meters":11200,"station_id":"ce4bhmp2rcd13ifvqgog","pricing_plan_id":"cebpf4jnsgd1na2vs0mg"},{"bike_id":"24cdf152-42fe-4f34-80ac-7bdbcee9ddb4","system_id":"levelo_inurba_marseille","lat":43.24166,"lon":5.39739,"is_reserved":false,"is_disabled":false,"rental_uris":{"android":"levelo://app?vid=24cdf152-42fe-4f34-80ac-7bdbcee9ddb4","ios":"levelo://app?vid=24cdf152-42fe-4f34-80ac-7bdbcee9ddb4"},"vehicle_type_id":"4","last_reported":1741273794,"current_range_meters":8800,"station_id":"ce4bhn12rcd13ifvqgpg","pricing_plan_id":"cebpf4jnsgd1na2vs0mg"},{"bike_id":"fdde8103-1f2a-4455-bcfa-e1d74ecb0194","system_id":"levelo_inurba_marseille","lat":43.27813,"lon":5.407076,"is_reserved":false,"is_disabled":false,"rental_uris":{"android":"levelo://app?vid=fdde8103-1f2a-4455-bcfa-e1d74ecb0194","ios":"levelo://app?vid=fdde8103-1f2a-4455-bcfa-e1d74ecb0194"},"vehicle_type_id":"4","last_reported":1741273794,"current_range_meters":8800,"station_id":"ce4bhnh2rcd13ifvqgtg","pricing_plan_id":"cebpf4jnsgd1na2vs0mg"},{"bike_id":"e0c0bec3-454a-410d-a60f-3aed516ec149","system_id":"levelo_inurba_marseille","lat":43.23197,"lon":5.35548,"is_reserved":false,"is_disabled":false,"rental_uris":{"android":"levelo://app?vid=e0c0bec3-454a-410d-a60f-3aed516ec149","ios":"levelo://app?vid=e0c0bec3-454a-410d-a60f-3aed516ec149"},"vehicle_type_id":"4","last_reported":1741273794,"current_range_meters":9200,"station_id":"ce4bhu92rcd13ifvqi70","pricing_plan_id":"cebpf4jnsgd1na2vs0mg"},{"bike_id":"951b107f-f0eb-40e8-8c2d-ed26e73d0648","system_id":"levelo_inurba_marseille","lat":43.28159,"lon":5.42642,"is_reserved":false,"is_disabled":false,"rental_uris":{"android":"levelo://app?vid=951b107f-f0eb-40e8-8c2d-ed26e73d0648","ios":"levelo://app?vid=951b107f-f0eb-40e8-8c2d-ed26e73d0648"},"vehicle_type_id":"4","last_reported":1741273794,"current_range_meters":9200,"station_id":"ce4bhnh2rcd13ifvqgug","pricing_plan_id":"cebpf4jnsgd1na2vs0mg"},{"bike_id":"4b1212ea-f1b6-42e9-a182-b0138679db1e","system_id":"levelo_inurba_marseille","lat":43.29919,"lon":5.36547,"is_reserved":false,"is_disabled":false,"rental_uris":{"android":"levelo://app?vid=4b1212ea-f1b6-42e9-a182-b0138679db1e","ios":"levelo://app?vid=4b1212ea-f1b6-42e9-a182-b0138679db1e"},"vehicle_type_id":"4","last_reported":1741273794,"current_range_meters":9200,"station_id":"ce4bgm92rcd13ifvqbr0","pricing_plan_id":"cebpf4jnsgd1na2vs0mg"},{"bike_id":"1dd9d5ab-e31e-4566-9af6-0a247ba01a75","system_id":"levelo_inurba_marseille","lat":43.27905,"lon":5.38014,"is_reserved":false,"is_disabled":false,"rental_uris":{"android":"levelo://app?vid=1dd9d5ab-e31e-4566-9af6-0a247ba01a75","ios":"levelo://app?vid=1dd9d5ab-e31e-4566-9af6-0a247ba01a75"},"vehicle_type_id":"4","last_reported":1741273794,"current_range_meters":13600,"station_id":"ce4bhf92rcd13ifvqf50","pricing_plan_id":"cebpf4jnsgd1na2vs0mg"},{"bike_id":"9173078c-cdb7-4e3d-ba42-5872df75c830","system_id":"levelo_inurba_marseille","lat":43.28498,"lon":5.38571,"is_reserved":false,"is_disabled":false,"rental_uris":{"android":"levelo://app?vid=9173078c-cdb7-4e3d-ba42-5872df75c830","ios":"levelo://app?vid=9173078c-cdb7-4e3d-ba42-5872df75c830"},"vehicle_type_id":"4","last_reported":1741273794,"current_range_meters":9600,"station_id":"ce4bh8p2rcd13ifvqeb0","pricing_plan_id":"cebpf4jnsgd1na2vs0mg"},{"bike_id":"d71ec65a-80ab-4043-a893-eb64debf9ad2","system_id":"levelo_inurba_marseille","lat":43.28621,"lon":5.35107,"is_reserved":false,"is_disabled":false,"rental_uris":{"android":"levelo://app?vid=d71ec65a-80ab-4043-a893-eb64debf9ad2","ios":"levelo://app?vid=d71ec65a-80ab-4043-a893-eb64debf9ad2"},"vehicle_type_id":"4","last_reported":1741273794,"current_range_meters":9600,"station_id":"ce4bhch2rcd13ifvqeug","pricing_plan_id":"cebpf4jnsgd1na2vs0mg"},{"bike_id":"9a9367c8-3830-4d11-8cd0-4cb333338364","system_id":"levelo_inurba_marseille","lat":43.2762,"lon":5.36122,"is_reserved":false,"is_disabled":false,"rental_uris":{"android":"levelo://app?vid=9a9367c8-3830-4d11-8cd0-4cb333338364","ios":"levelo://app?vid=9a9367c8-3830-4d11-8cd0-4cb333338364"},"vehicle_type_id":"4","last_reported":1741273794,"current_range_meters":9200,"station_id":"ce4bgj92rcd13ifvqbe0","pricing_plan_id":"cebpf4jnsgd1na2vs0mg"},{"bike_id":"ba9ab4e8-6a83-4bc2-995d-2d05fe5688a2","system_id":"levelo_inurba_marseille","lat":43.29048,"lon":5.35918,"is_reserved":false,"is_disabled":false,"rental_uris":{"android":"levelo://app?vid=ba9ab4e8-6a83-4bc2-995d-2d05fe5688a2","ios":"levelo://app?vid=ba9ab4e8-6a83-4bc2-995d-2d05fe5688a2"},"vehicle_type_id":"4","last_reported":1741273794,"current_range_meters":9600,"station_id":"ce4bha92rcd13ifvqeg0","pricing_plan_id":"cebpf4jnsgd1na2vs0mg"},{"bike_id":"c0c66312-f977-4b2d-8dc1-9e9ad1edac16","system_id":"levelo_inurba_marseille","lat":43.29363,"lon":5.37837,"is_reserved":false,"is_disabled":false,"rental_uris":{"android":"levelo://app?vid=c0c66312-f977-4b2d-8dc1-9e9ad1edac16","ios":"levelo://app?vid=c0c66312-f977-4b2d-8dc1-9e9ad1edac16"},"vehicle_type_id":"4","last_reported":1741273794,"current_range_meters":9600,"station_id":"ce4bgjh2rcd13ifvqbf0","pricing_plan_id":"cebpf4jnsgd1na2vs0mg"},{"bike_id":"d042490b-89be-4965-8498-025836790f65","system_id":"levelo_inurba_marseille","lat":43.25943,"lon":5.40906,"is_reserved":false,"is_disabled":false,"rental_uris":{"android":"levelo://app?vid=d042490b-89be-4965-8498-025836790f65","ios":"levelo://app?vid=d042490b-89be-4965-8498-025836790f65"},"vehicle_type_id":"4","last_reported":1741273794,"current_range_meters":9600,"station_id":"ce4bhm92rcd13ifvqglg","pricing_plan_id":"cebpf4jnsgd1na2vs0mg"},{"bike_id":"9208d63c-369f-4c4e-a7fc-9ad972621275","system_id":"levelo_inurba_marseille","lat":43.25906,"lon":5.40873,"is_reserved":false,"is_disabled":false,"rental_uris":{"android":"levelo://app?vid=9208d63c-369f-4c4e-a7fc-9ad972621275","ios":"levelo://app?vid=9208d63c-369f-4c4e-a7fc-9ad972621275"},"vehicle_type_id":"4","last_reported":1741273794,"current_range_meters":9600,"station_id":"ce4bhm92rcd13ifvqglg","pricing_plan_id":"cebpf4jnsgd1na2vs0mg"},{"bike_id":"7f1905bf-da4d-4f13-af14-c5d46804e585","system_id":"levelo_inurba_marseille","lat":43.23193,"lon":5.35543,"is_reserved":false,"is_disabled":false,"rental_uris":{"android":"levelo://app?vid=7f1905bf-da4d-4f13-af14-c5d46804e585","ios":"levelo://app?vid=7f1905bf-da4d-4f13-af14-c5d46804e585"},"vehicle_type_id":"4","last_reported":1741273794,"current_range_meters":9600,"station_id":"ce4bhu92rcd13ifvqi70","pricing_plan_id":"cebpf4jnsgd1na2vs0mg"},{"bike_id":"5efbecc9-908f-4afa-9577-a3da37f38388","system_id":"levelo_inurba_marseille","lat":43.28617,"lon":5.35094,"is_reserved":false,"is_disabled":false,"rental_uris":{"android":"levelo://app?vid=5efbecc9-908f-4afa-9577-a3da37f38388","ios":"levelo://app?vid=5efbecc9-908f-4afa-9577-a3da37f38388"},"vehicle_type_id":"4","last_reported":1741273794,"current_range_meters":9600,"station_id":"ce4bhch2rcd13ifvqeug","pricing_plan_id":"cebpf4jnsgd1na2vs0mg"},{"bike_id":"d323db6e-e983-4e90-a936-5874d5485471","system_id":"levelo_inurba_marseille","lat":43.29906,"lon":5.383253,"is_reserved":false,"is_disabled":false,"rental_uris":{"android":"levelo://app?vid=d323db6e-e983-4e90-a936-5874d5485471","ios":"levelo://app?vid=d323db6e-e983-4e90-a936-5874d5485471"},"vehicle_type_id":"4","last_reported":1741273794,"current_range_meters":9600,"station_id":"","pricing_plan_id":"cebpf4jnsgd1na2vs0mg"},{"bike_id":"3bde02e4-0deb-4e01-923d-186ee3b0997b","system_id":"levelo_inurba_marseille","lat":43.29419,"lon":5.38634,"is_reserved":false,"is_disabled":false,"rental_uris":{"android":"levelo://app?vid=3bde02e4-0deb-4e01-923d-186ee3b0997b","ios":"levelo://app?vid=3bde02e4-0deb-4e01-923d-186ee3b0997b"},"vehicle_type_id":"4","last_reported":1741273794,"current_range_meters":9600,"station_id":"ce4bh2h2rcd13ifvqdh0","pricing_plan_id":"cebpf4jnsgd1na2vs0mg"},{"bike_id":"f6d97c97-a9c7-4685-a7c7-9119daa3f02b","system_id":"levelo_inurba_marseille","lat":43.29974,"lon":5.38492,"is_reserved":false,"is_disabled":false,"rental_uris":{"android":"levelo://app?vid=f6d97c97-a9c7-4685-a7c7-9119daa3f02b","ios":"levelo://app?vid=f6d97c97-a9c7-4685-a7c7-9119daa3f02b"},"vehicle_type_id":"4","last_reported":1741273794,"current_range_meters":10000,"station_id":"ce4bgj92rcd13ifvqbd0","pricing_plan_id":"cebpf4jnsgd1na2vs0mg"},{"bike_id":"4b494c34-91a4-4833-8163-e2901a7f1b21","system_id":"levelo_inurba_marseille","lat":43.23063,"lon":5.35498,"is_reserved":false,"is_disabled":false,"rental_uris":{"android":"levelo://app?vid=4b494c34-91a4-4833-8163-e2901a7f1b21","ios":"levelo://app?vid=4b494c34-91a4-4833-8163-e2901a7f1b21"},"vehicle_type_id":"4","last_reported":1741273794,"current_range_meters":10000,"station_id":"cpo3342slgdg3j2ifvpg","pricing_plan_id":"cebpf4jnsgd1na2vs0mg"},{"bike_id":"b9df3127-7b0e-46a4-9b00-1c64eb70d0d1","system_id":"levelo_inurba_marseille","lat":43.29508,"lon":5.37514,"is_reserved":false,"is_disabled":false,"rental_uris":{"android":"levelo://app?vid=b9df3127-7b0e-46a4-9b00-1c64eb70d0d1","ios":"levelo://app?vid=b9df3127-7b0e-46a4-9b00-1c64eb70d0d1"},"vehicle_type_id":"4","last_reported":1741273794,"current_range_meters":10000,"station_id":"ce4bgkp2rcd13ifvqbmg","pricing_plan_id":"cebpf4jnsgd1na2vs0mg"},{"bike_id":"f4a9b063-e070-437f-9fba-9edf97433ed7","system_id":"levelo_inurba_marseille","lat":43.2794,"lon":5.41048,"is_reserved":false,"is_disabled":false,"rental_uris":{"android":"levelo://app?vid=f4a9b063-e070-437f-9fba-9edf97433ed7","ios":"levelo://app?vid=f4a9b063-e070-437f-9fba-9edf97433ed7"},"vehicle_type_id":"4","last_reported":1741273794,"current_range_meters":10000,"station_id":"ce4bhnp2rcd13ifvqh0g","pricing_plan_id":"cebpf4jnsgd1na2vs0mg"},{"bike_id":"b4eff007-9a5e-4d11-ace4-0ec579a0980c","system_id":"levelo_inurba_marseille","lat":43.29345,"lon":5.42841,"is_reserved":false,"is_disabled":false,"rental_uris":{"android":"levelo://app?vid=b4eff007-9a5e-4d11-ace4-0ec579a0980c","ios":"levelo://app?vid=b4eff007-9a5e-4d11-ace4-0ec579a0980c"},"vehicle_type_id":"4","last_reported":1741273794,"current_range_meters":10000,"station_id":"","pricing_plan_id":"cebpf4jnsgd1na2vs0mg"},{"bike_id":"c7dc3da3-3495-4374-b3ee-96856b738d23","system_id":"levelo_inurba_marseille","lat":43.291714,"lon":5.37968,"is_reserved":false,"is_disabled":false,"rental_uris":{"android":"levelo://app?vid=c7dc3da3-3495-4374-b3ee-96856b738d23","ios":"levelo://app?vid=c7dc3da3-3495-4374-b3ee-96856b738d23"},"vehicle_type_id":"4","last_reported":1741273794,"current_range_meters":10000,"station_id":"ce4bh5p2rcd13ifvqe4g","pricing_plan_id":"cebpf4jnsgd1na2vs0mg"},{"bike_id":"ac35eafe-694d-4f2e-8a01-27a84122fe0b","system_id":"levelo_inurba_marseille","lat":43.31388,"lon":5.39189,"is_reserved":false,"is_disabled":false,"rental_uris":{"android":"levelo://app?vid=ac35eafe-694d-4f2e-8a01-27a84122fe0b","ios":"levelo://app?vid=ac35eafe-694d-4f2e-8a01-27a84122fe0b"},"vehicle_type_id":"4","last_reported":1741273794,"current_range_meters":10800,"station_id":"","pricing_plan_id":"cebpf4jnsgd1na2vs0mg"},{"bike_id":"8a9efcae-7962-44eb-b602-3d52cc43d3b5","system_id":"levelo_inurba_marseille","lat":43.26217,"lon":5.37453,"is_reserved":false,"is_disabled":false,"rental_uris":{"android":"levelo://app?vid=8a9efcae-7962-44eb-b602-3d52cc43d3b5","ios":"levelo://app?vid=8a9efcae-7962-44eb-b602-3d52cc43d3b5"},"vehicle_type_id":"4","last_reported":1741273794,"current_range_meters":10800,"station_id":"ce4bhgp2rcd13ifvqfc0","pricing_plan_id":"cebpf4jnsgd1na2vs0mg"},{"bike_id":"21b00a54-4e29-48af-82d5-6aa688c17fc3","system_id":"levelo_inurba_marseille","lat":43.26561,"lon":5.39011,"is_reserved":false,"is_disabled":false,"rental_uris":{"android":"levelo://app?vid=21b00a54-4e29-48af-82d5-6aa688c17fc3","ios":"levelo://app?vid=21b00a54-4e29-48af-82d5-6aa688c17fc3"},"vehicle_type_id":"4","last_reported":1741273794,"current_range_meters":10800,"station_id":"ce4bhe12rcd13ifvqf30","pricing_plan_id":"cebpf4jnsgd1na2vs0mg"},{"bike_id":"47a2c1d2-7bbe-43e6-9a15-82f857b8ebdc","system_id":"levelo_inurba_marseille","lat":43.29784,"lon":5.38084,"is_reserved":false,"is_disabled":false,"rental_uris":{"android":"levelo://app?vid=47a2c1d2-7bbe-43e6-9a15-82f857b8ebdc","ios":"levelo://app?vid=47a2c1d2-7bbe-43e6-9a15-82f857b8ebdc"},"vehicle_type_id":"4","last_reported":1741273794,"current_range_meters":10800,"station_id":"ce4bgip2rcd13ifvqbb0","pricing_plan_id":"cebpf4jnsgd1na2vs0mg"},{"bike_id":"365b0577-ed8a-415d-b047-7a6332ca8f71","system_id":"levelo_inurba_marseille","lat":43.308895,"lon":5.396475,"is_reserved":false,"is_disabled":false,"rental_uris":{"android":"levelo://app?vid=365b0577-ed8a-415d-b047-7a6332ca8f71","ios":"levelo://app?vid=365b0577-ed8a-415d-b047-7a6332ca8f71"},"vehicle_type_id":"4","last_reported":1741273794,"current_range_meters":10800,"station_id":"ce4bh012rcd13ifvqcv0","pricing_plan_id":"cebpf4jnsgd1na2vs0mg"},{"bike_id":"18c3b85a-815f-4976-aacf-4867e9fb6633","system_id":"levelo_inurba_marseille","lat":43.28713,"lon":5.37892,"is_reserved":false,"is_disabled":false,"rental_uris":{"android":"levelo://app?vid=18c3b85a-815f-4976-aacf-4867e9fb6633","ios":"levelo://app?vid=18c3b85a-815f-4976-aacf-4867e9fb6633"},"vehicle_type_id":"4","last_reported":1741273794,"current_range_meters":10800,"station_id":"ce4bh9p2rcd13ifvqec0","pricing_plan_id":"cebpf4jnsgd1na2vs0mg"},{"bike_id":"63815b6e-f9bf-4ae0-9cc4-53a2a981b401","system_id":"levelo_inurba_marseille","lat":43.26804,"lon":5.40273,"is_reserved":false,"is_disabled":false,"rental_uris":{"android":"levelo://app?vid=63815b6e-f9bf-4ae0-9cc4-53a2a981b401","ios":"levelo://app?vid=63815b6e-f9bf-4ae0-9cc4-53a2a981b401"},"vehicle_type_id":"4","last_reported":1741273794,"current_range_meters":10800,"station_id":"ce501612rcd8frsf0b60","pricing_plan_id":"cebpf4jnsgd1na2vs0mg"},{"bike_id":"9ed60a22-42b3-4e9d-bf75-676adf1f82a5","system_id":"levelo_inurba_marseille","lat":43.24077,"lon":5.37736,"is_reserved":false,"is_disabled":false,"rental_uris":{"android":"levelo://app?vid=9ed60a22-42b3-4e9d-bf75-676adf1f82a5","ios":"levelo://app?vid=9ed60a22-42b3-4e9d-bf75-676adf1f82a5"},"vehicle_type_id":"4","last_reported":1741273794,"current_range_meters":10800,"station_id":"ce4bhnp2rcd13ifvqgvg","pricing_plan_id":"cebpf4jnsgd1na2vs0mg"},{"bike_id":"f927a9c8-5d84-472f-b8fd-88f2fc3bc3e6","system_id":"levelo_inurba_marseille","lat":43.29904,"lon":5.43677,"is_reserved":false,"is_disabled":false,"rental_uris":{"android":"levelo://app?vid=f927a9c8-5d84-472f-b8fd-88f2fc3bc3e6","ios":"levelo://app?vid=f927a9c8-5d84-472f-b8fd-88f2fc3bc3e6"},"vehicle_type_id":"4","last_reported":1741273794,"current_range_meters":11200,"station_id":"ce4bhpp2rcd13ifvqhfg","pricing_plan_id":"cebpf4jnsgd1na2vs0mg"},{"bike_id":"16063099-28c1-42d4-a56e-3be9f5bb543c","system_id":"levelo_inurba_marseille","lat":43.26216,"lon":5.37444,"is_reserved":false,"is_disabled":false,"rental_uris":{"android":"levelo://app?vid=16063099-28c1-42d4-a56e-3be9f5bb543c","ios":"levelo://app?vid=16063099-28c1-42d4-a56e-3be9f5bb543c"},"vehicle_type_id":"4","last_reported":1741273794,"current_range_meters":11200,"station_id":"ce4bhgp2rcd13ifvqfc0","pricing_plan_id":"cebpf4jnsgd1na2vs0mg"},{"bike_id":"1629132a-a702-4681-8548-2949993d2e93","system_id":"levelo_inurba_marseille","lat":43.29604,"lon":5.38102,"is_reserved":false,"is_disabled":false,"rental_uris":{"android":"levelo://app?vid=1629132a-a702-4681-8548-2949993d2e93","ios":"levelo://app?vid=1629132a-a702-4681-8548-2949993d2e93"},"vehicle_type_id":"4","last_reported":1741273794,"current_range_meters":11200,"station_id":"ce4bgl12rcd13ifvqbo0","pricing_plan_id":"cebpf4jnsgd1na2vs0mg"},{"bike_id":"4c43f934-2a93-42ef-b887-5a5a239cbf7e","system_id":"levelo_inurba_marseille","lat":43.26215,"lon":5.37442,"is_reserved":false,"is_disabled":false,"rental_uris":{"android":"levelo://app?vid=4c43f934-2a93-42ef-b887-5a5a239cbf7e","ios":"levelo://app?vid=4c43f934-2a93-42ef-b887-5a5a239cbf7e"},"vehicle_type_id":"4","last_reported":1741273794,"current_range_meters":11200,"station_id":"ce4bhgp2rcd13ifvqfc0","pricing_plan_id":"cebpf4jnsgd1na2vs0mg"},{"bike_id":"d0308d96-e02b-4bc1-98d6-711509e6e12b","system_id":"levelo_inurba_marseille","lat":43.28709,"lon":5.39995,"is_reserved":false,"is_disabled":false,"rental_uris":{"android":"levelo://app?vid=d0308d96-e02b-4bc1-98d6-711509e6e12b","ios":"levelo://app?vid=d0308d96-e02b-4bc1-98d6-711509e6e12b"},"vehicle_type_id":"4","last_reported":1741273794,"current_range_meters":15200,"station_id":"ce4bho92rcd13ifvqh3g","pricing_plan_id":"cebpf4jnsgd1na2vs0mg"},{"bike_id":"74ef305b-8c9c-452f-bc4a-15f57e847ae0","system_id":"levelo_inurba_marseille","lat":43.25715,"lon":5.41127,"is_reserved":false,"is_disabled":false,"rental_uris":{"android":"levelo://app?vid=74ef305b-8c9c-452f-bc4a-15f57e847ae0","ios":"levelo://app?vid=74ef305b-8c9c-452f-bc4a-15f57e847ae0"},"vehicle_type_id":"4","last_reported":1741273794,"current_range_meters":11200,"station_id":"ce4bhkp2rcd13ifvqgd0","pricing_plan_id":"cebpf4jnsgd1na2vs0mg"},{"bike_id":"842adf90-3a07-4596-baa4-227a537f7852","system_id":"levelo_inurba_marseille","lat":43.2455,"lon":5.39527,"is_reserved":false,"is_disabled":false,"rental_uris":{"android":"levelo://app?vid=842adf90-3a07-4596-baa4-227a537f7852","ios":"levelo://app?vid=842adf90-3a07-4596-baa4-227a537f7852"},"vehicle_type_id":"4","last_reported":1741273794,"current_range_meters":10000,"station_id":"ce4bhlp2rcd13ifvqgjg","pricing_plan_id":"cebpf4jnsgd1na2vs0mg"},{"bike_id":"d6a7a2ff-7cdd-4062-adce-e9966f23d2d9","system_id":"levelo_inurba_marseille","lat":43.26216,"lon":5.37447,"is_reserved":false,"is_disabled":false,"rental_uris":{"android":"levelo://app?vid=d6a7a2ff-7cdd-4062-adce-e9966f23d2d9","ios":"levelo://app?vid=d6a7a2ff-7cdd-4062-adce-e9966f23d2d9"},"vehicle_type_id":"4","last_reported":1741273794,"current_range_meters":11200,"station_id":"ce4bhgp2rcd13ifvqfc0","pricing_plan_id":"cebpf4jnsgd1na2vs0mg"},{"bike_id":"6e18321a-5125-4f33-8e64-5c0910dcd957","system_id":"levelo_inurba_marseille","lat":43.29215,"lon":5.3606,"is_reserved":false,"is_disabled":false,"rental_uris":{"android":"levelo://app?vid=6e18321a-5125-4f33-8e64-5c0910dcd957","ios":"levelo://app?vid=6e18321a-5125-4f33-8e64-5c0910dcd957"},"vehicle_type_id":"4","last_reported":1741273794,"current_range_meters":11600,"station_id":"ce4bhbh2rcd13ifvqeqg","pricing_plan_id":"cebpf4jnsgd1na2vs0mg"},{"bike_id":"55c7f4f7-7673-447a-8e28-160ee124449b","system_id":"levelo_inurba_marseille","lat":43.30883,"lon":5.37191,"is_reserved":false,"is_disabled":false,"rental_uris":{"android":"levelo://app?vid=55c7f4f7-7673-447a-8e28-160ee124449b","ios":"levelo://app?vid=55c7f4f7-7673-447a-8e28-160ee124449b"},"vehicle_type_id":"4","last_reported":1741273794,"current_range_meters":11600,"station_id":"ce4bguh2rcd13ifvqckg","pricing_plan_id":"cebpf4jnsgd1na2vs0mg"},{"bike_id":"cf26d351-765c-4c7a-9fdf-203d97df6f46","system_id":"levelo_inurba_marseille","lat":43.30881,"lon":5.3963,"is_reserved":false,"is_disabled":false,"rental_uris":{"android":"levelo://app?vid=cf26d351-765c-4c7a-9fdf-203d97df6f46","ios":"levelo://app?vid=cf26d351-765c-4c7a-9fdf-203d97df6f46"},"vehicle_type_id":"4","last_reported":1741273794,"current_range_meters":11600,"station_id":"ce4bh012rcd13ifvqcv0","pricing_plan_id":"cebpf4jnsgd1na2vs0mg"},{"bike_id":"f26bc332-c610-4859-8c21-45441691fe23","system_id":"levelo_inurba_marseille","lat":43.28108,"lon":5.37837,"is_reserved":false,"is_disabled":false,"rental_uris":{"android":"levelo://app?vid=f26bc332-c610-4859-8c21-45441691fe23","ios":"levelo://app?vid=f26bc332-c610-4859-8c21-45441691fe23"},"vehicle_type_id":"4","last_reported":1741273794,"current_range_meters":11600,"station_id":"ce4bha12rcd13ifvqee0","pricing_plan_id":"cebpf4jnsgd1na2vs0mg"},{"bike_id":"88f1cdf8-d5f9-4bd1-9807-7495f7918208","system_id":"levelo_inurba_marseille","lat":43.31241,"lon":5.36863,"is_reserved":false,"is_disabled":false,"rental_uris":{"android":"levelo://app?vid=88f1cdf8-d5f9-4bd1-9807-7495f7918208","ios":"levelo://app?vid=88f1cdf8-d5f9-4bd1-9807-7495f7918208"},"vehicle_type_id":"4","last_reported":1741273794,"current_range_meters":11600,"station_id":"ce4bgl92rcd13ifvqbq0","pricing_plan_id":"cebpf4jnsgd1na2vs0mg"},{"bike_id":"0236009d-b83e-4481-b97e-6a8e1f189885","system_id":"levelo_inurba_marseille","lat":43.29801,"lon":5.38135,"is_reserved":false,"is_disabled":false,"rental_uris":{"android":"levelo://app?vid=0236009d-b83e-4481-b97e-6a8e1f189885","ios":"levelo://app?vid=0236009d-b83e-4481-b97e-6a8e1f189885"},"vehicle_type_id":"4","last_reported":1741273794,"current_range_meters":12000,"station_id":"ce4bgip2rcd13ifvqbb0","pricing_plan_id":"cebpf4jnsgd1na2vs0mg"},{"bike_id":"0fd15513-1c3e-443d-8fc1-867495994c6c","system_id":"levelo_inurba_marseille","lat":43.29963,"lon":5.41336,"is_reserved":false,"is_disabled":false,"rental_uris":{"android":"levelo://app?vid=0fd15513-1c3e-443d-8fc1-867495994c6c","ios":"levelo://app?vid=0fd15513-1c3e-443d-8fc1-867495994c6c"},"vehicle_type_id":"4","last_reported":1741273794,"current_range_meters":12000,"station_id":"ce4bhp12rcd13ifvqh9g","pricing_plan_id":"cebpf4jnsgd1na2vs0mg"},{"bike_id":"7d90bab6-8eaa-45bf-b411-a730181c17b7","system_id":"levelo_inurba_marseille","lat":43.23144,"lon":5.43734,"is_reserved":false,"is_disabled":false,"rental_uris":{"android":"levelo://app?vid=7d90bab6-8eaa-45bf-b411-a730181c17b7","ios":"levelo://app?vid=7d90bab6-8eaa-45bf-b411-a730181c17b7"},"vehicle_type_id":"4","last_reported":1741273794,"current_range_meters":12000,"station_id":"ce4bhmp2rcd13ifvqgog","pricing_plan_id":"cebpf4jnsgd1na2vs0mg"},{"bike_id":"357f6d64-705b-43e7-a09c-68858d678fff","system_id":"levelo_inurba_marseille","lat":43.30519,"lon":5.36511,"is_reserved":false,"is_disabled":false,"rental_uris":{"android":"levelo://app?vid=357f6d64-705b-43e7-a09c-68858d678fff","ios":"levelo://app?vid=357f6d64-705b-43e7-a09c-68858d678fff"},"vehicle_type_id":"4","last_reported":1741273794,"current_range_meters":11600,"station_id":"","pricing_plan_id":"cebpf4jnsgd1na2vs0mg"},{"bike_id":"4bb8ec19-fa9e-4bc2-9ced-8316005f4173","system_id":"levelo_inurba_marseille","lat":43.27926,"lon":5.39573,"is_reserved":false,"is_disabled":true,"rental_uris":{"android":"levelo://app?vid=4bb8ec19-fa9e-4bc2-9ced-8316005f4173","ios":"levelo://app?vid=4bb8ec19-fa9e-4bc2-9ced-8316005f4173"},"vehicle_type_id":"4","last_reported":1741273794,"current_range_meters":12000,"station_id":"ce4bhf92rcd13ifvqf40","pricing_plan_id":"cebpf4jnsgd1na2vs0mg"},{"bike_id":"e9ea0b14-f81c-40e0-9aad-18b138d7f8c8","system_id":"levelo_inurba_marseille","lat":43.30157,"lon":5.37421,"is_reserved":false,"is_disabled":false,"rental_uris":{"android":"levelo://app?vid=e9ea0b14-f81c-40e0-9aad-18b138d7f8c8","ios":"levelo://app?vid=e9ea0b14-f81c-40e0-9aad-18b138d7f8c8"},"vehicle_type_id":"4","last_reported":1741273794,"current_range_meters":12000,"station_id":"ce4bgs92rcd13ifvqcc0","pricing_plan_id":"cebpf4jnsgd1na2vs0mg"},{"bike_id":"e89d975e-9838-42a8-a499-e7a3f5306cae","system_id":"levelo_inurba_marseille","lat":43.28856,"lon":5.39332,"is_reserved":false,"is_disabled":false,"rental_uris":{"android":"levelo://app?vid=e89d975e-9838-42a8-a499-e7a3f5306cae","ios":"levelo://app?vid=e89d975e-9838-42a8-a499-e7a3f5306cae"},"vehicle_type_id":"4","last_reported":1741273794,"current_range_meters":11600,"station_id":"ce4bh2p2rcd13ifvqdi0","pricing_plan_id":"cebpf4jnsgd1na2vs0mg"},{"bike_id":"e4af08ba-24cd-45d5-9b26-2efe8a8e5fbe","system_id":"levelo_inurba_marseille","lat":43.26571,"lon":5.39003,"is_reserved":false,"is_disabled":false,"rental_uris":{"android":"levelo://app?vid=e4af08ba-24cd-45d5-9b26-2efe8a8e5fbe","ios":"levelo://app?vid=e4af08ba-24cd-45d5-9b26-2efe8a8e5fbe"},"vehicle_type_id":"4","last_reported":1741273794,"current_range_meters":12400,"station_id":"ce4bhe12rcd13ifvqf30","pricing_plan_id":"cebpf4jnsgd1na2vs0mg"},{"bike_id":"0bba6c8f-4f74-49cd-855f-988b9e910676","system_id":"levelo_inurba_marseille","lat":43.26229,"lon":5.40457,"is_reserved":false,"is_disabled":false,"rental_uris":{"android":"levelo://app?vid=0bba6c8f-4f74-49cd-855f-988b9e910676","ios":"levelo://app?vid=0bba6c8f-4f74-49cd-855f-988b9e910676"},"vehicle_type_id":"4","last_reported":1741273794,"current_range_meters":12400,"station_id":"ce4bhmh2rcd13ifvqgmg","pricing_plan_id":"cebpf4jnsgd1na2vs0mg"},{"bike_id":"8d9f279b-2a0c-4353-a7f1-f6e61be04e19","system_id":"levelo_inurba_marseille","lat":43.29616,"lon":5.38116,"is_reserved":false,"is_disabled":false,"rental_uris":{"android":"levelo://app?vid=8d9f279b-2a0c-4353-a7f1-f6e61be04e19","ios":"levelo://app?vid=8d9f279b-2a0c-4353-a7f1-f6e61be04e19"},"vehicle_type_id":"4","last_reported":1741273794,"current_range_meters":12400,"station_id":"ce4bgl12rcd13ifvqbo0","pricing_plan_id":"cebpf4jnsgd1na2vs0mg"},{"bike_id":"a898cd71-97e1-4e11-b25c-bc628d11c7fa","system_id":"levelo_inurba_marseille","lat":43.30302,"lon":5.3688,"is_reserved":false,"is_disabled":false,"rental_uris":{"android":"levelo://app?vid=a898cd71-97e1-4e11-b25c-bc628d11c7fa","ios":"levelo://app?vid=a898cd71-97e1-4e11-b25c-bc628d11c7fa"},"vehicle_type_id":"4","last_reported":1741273794,"current_range_meters":12400,"station_id":"ce4bgqh2rcd13ifvqc5g","pricing_plan_id":"cebpf4jnsgd1na2vs0mg"},{"bike_id":"bf58d102-5f79-4fe1-a6b1-3d04079d1032","system_id":"levelo_inurba_marseille","lat":43.24681,"lon":5.38168,"is_reserved":false,"is_disabled":false,"rental_uris":{"android":"levelo://app?vid=bf58d102-5f79-4fe1-a6b1-3d04079d1032","ios":"levelo://app?vid=bf58d102-5f79-4fe1-a6b1-3d04079d1032"},"vehicle_type_id":"4","last_reported":1741273794,"current_range_meters":12800,"station_id":"ce4bhih2rcd13ifvqfr0","pricing_plan_id":"cebpf4jnsgd1na2vs0mg"},{"bike_id":"31e5b051-f705-412e-9cce-ac0b91fa93dc","system_id":"levelo_inurba_marseille","lat":43.30878,"lon":5.39654,"is_reserved":false,"is_disabled":false,"rental_uris":{"android":"levelo://app?vid=31e5b051-f705-412e-9cce-ac0b91fa93dc","ios":"levelo://app?vid=31e5b051-f705-412e-9cce-ac0b91fa93dc"},"vehicle_type_id":"4","last_reported":1741273794,"current_range_meters":14800,"station_id":"ce4bh012rcd13ifvqcv0","pricing_plan_id":"cebpf4jnsgd1na2vs0mg"},{"bike_id":"0683a293-51f0-4d0e-abbf-5ca227d6f896","system_id":"levelo_inurba_marseille","lat":43.32481,"lon":5.3658,"is_reserved":false,"is_disabled":false,"rental_uris":{"android":"levelo://app?vid=0683a293-51f0-4d0e-abbf-5ca227d6f896","ios":"levelo://app?vid=0683a293-51f0-4d0e-abbf-5ca227d6f896"},"vehicle_type_id":"4","last_reported":1741273794,"current_range_meters":12800,"station_id":"ce4bhs12rcd13ifvqhvg","pricing_plan_id":"cebpf4jnsgd1na2vs0mg"},{"bike_id":"e1b133e5-1e38-43f1-98ca-09441b485a5f","system_id":"levelo_inurba_marseille","lat":43.25588,"lon":5.38227,"is_reserved":false,"is_disabled":false,"rental_uris":{"android":"levelo://app?vid=e1b133e5-1e38-43f1-98ca-09441b485a5f","ios":"levelo://app?vid=e1b133e5-1e38-43f1-98ca-09441b485a5f"},"vehicle_type_id":"4","last_reported":1741273794,"current_range_meters":12800,"station_id":"ce4bhih2rcd13ifvqfs0","pricing_plan_id":"cebpf4jnsgd1na2vs0mg"},{"bike_id":"47df52c5-e35f-48fb-baca-7d1e015990f8","system_id":"levelo_inurba_marseille","lat":43.2315,"lon":5.43723,"is_reserved":false,"is_disabled":false,"rental_uris":{"android":"levelo://app?vid=47df52c5-e35f-48fb-baca-7d1e015990f8","ios":"levelo://app?vid=47df52c5-e35f-48fb-baca-7d1e015990f8"},"vehicle_type_id":"4","last_reported":1741273794,"current_range_meters":13600,"station_id":"ce4bhmp2rcd13ifvqgog","pricing_plan_id":"cebpf4jnsgd1na2vs0mg"},{"bike_id":"9f0f0224-b72b-4ee3-a38d-b5ba80204629","system_id":"levelo_inurba_marseille","lat":43.23195,"lon":5.35539,"is_reserved":false,"is_disabled":false,"rental_uris":{"android":"levelo://app?vid=9f0f0224-b72b-4ee3-a38d-b5ba80204629","ios":"levelo://app?vid=9f0f0224-b72b-4ee3-a38d-b5ba80204629"},"vehicle_type_id":"4","last_reported":1741273794,"current_range_meters":13600,"station_id":"ce4bhu92rcd13ifvqi70","pricing_plan_id":"cebpf4jnsgd1na2vs0mg"},{"bike_id":"f4cca6b2-fa00-4ba3-818c-b2e198f7de1a","system_id":"levelo_inurba_marseille","lat":43.27348,"lon":5.39035,"is_reserved":false,"is_disabled":false,"rental_uris":{"android":"levelo://app?vid=f4cca6b2-fa00-4ba3-818c-b2e198f7de1a","ios":"levelo://app?vid=f4cca6b2-fa00-4ba3-818c-b2e198f7de1a"},"vehicle_type_id":"4","last_reported":1741273794,"current_range_meters":13600,"station_id":"ce4bhgp2rcd13ifvqfe0","pricing_plan_id":"cebpf4jnsgd1na2vs0mg"},{"bike_id":"42799173-f7c7-4b35-acfb-0b8fc5282cea","system_id":"levelo_inurba_marseille","lat":43.278227,"lon":5.407123,"is_reserved":false,"is_disabled":false,"rental_uris":{"android":"levelo://app?vid=42799173-f7c7-4b35-acfb-0b8fc5282cea","ios":"levelo://app?vid=42799173-f7c7-4b35-acfb-0b8fc5282cea"},"vehicle_type_id":"4","last_reported":1741273794,"current_range_meters":13600,"station_id":"ce4bhnh2rcd13ifvqgtg","pricing_plan_id":"cebpf4jnsgd1na2vs0mg"},{"bike_id":"b043deb3-5f97-4ce3-88c2-227d7050deac","system_id":"levelo_inurba_marseille","lat":43.29785,"lon":5.38111,"is_reserved":false,"is_disabled":false,"rental_uris":{"android":"levelo://app?vid=b043deb3-5f97-4ce3-88c2-227d7050deac","ios":"levelo://app?vid=b043deb3-5f97-4ce3-88c2-227d7050deac"},"vehicle_type_id":"4","last_reported":1741273794,"current_range_meters":13600,"station_id":"ce4bgip2rcd13ifvqbb0","pricing_plan_id":"cebpf4jnsgd1na2vs0mg"},{"bike_id":"684a20c3-4eb4-49e9-bdda-cdaca37116ee","system_id":"levelo_inurba_marseille","lat":43.312347,"lon":5.368733,"is_reserved":false,"is_disabled":false,"rental_uris":{"android":"levelo://app?vid=684a20c3-4eb4-49e9-bdda-cdaca37116ee","ios":"levelo://app?vid=684a20c3-4eb4-49e9-bdda-cdaca37116ee"},"vehicle_type_id":"4","last_reported":1741273794,"current_range_meters":14000,"station_id":"ce4bgl92rcd13ifvqbq0","pricing_plan_id":"cebpf4jnsgd1na2vs0mg"},{"bike_id":"a18af5b0-bff6-4dec-b5c1-1bb82a7510be","system_id":"levelo_inurba_marseille","lat":43.29612,"lon":5.38107,"is_reserved":false,"is_disabled":false,"rental_uris":{"android":"levelo://app?vid=a18af5b0-bff6-4dec-b5c1-1bb82a7510be","ios":"levelo://app?vid=a18af5b0-bff6-4dec-b5c1-1bb82a7510be"},"vehicle_type_id":"4","last_reported":1741273794,"current_range_meters":14000,"station_id":"ce4bgl12rcd13ifvqbo0","pricing_plan_id":"cebpf4jnsgd1na2vs0mg"},{"bike_id":"c16ccb51-1ff7-4b93-8e4d-d5c1c6809677","system_id":"levelo_inurba_marseille","lat":43.30411,"lon":5.41285,"is_reserved":false,"is_disabled":false,"rental_uris":{"android":"levelo://app?vid=c16ccb51-1ff7-4b93-8e4d-d5c1c6809677","ios":"levelo://app?vid=c16ccb51-1ff7-4b93-8e4d-d5c1c6809677"},"vehicle_type_id":"4","last_reported":1741273794,"current_range_meters":14000,"station_id":"ce4bhop2rcd13ifvqh8g","pricing_plan_id":"cebpf4jnsgd1na2vs0mg"},{"bike_id":"c4afb286-08d7-4be7-bcdf-4e625046e836","system_id":"levelo_inurba_marseille","lat":43.32368,"lon":5.38878,"is_reserved":false,"is_disabled":false,"rental_uris":{"android":"levelo://app?vid=c4afb286-08d7-4be7-bcdf-4e625046e836","ios":"levelo://app?vid=c4afb286-08d7-4be7-bcdf-4e625046e836"},"vehicle_type_id":"4","last_reported":1741273794,"current_range_meters":14000,"station_id":"ce4bhqp2rcd13ifvqhog","pricing_plan_id":"cebpf4jnsgd1na2vs0mg"},{"bike_id":"1c6ed226-c458-4e0d-b4b7-4c05c0b756b5","system_id":"levelo_inurba_marseille","lat":43.2942,"lon":5.38622,"is_reserved":false,"is_disabled":false,"rental_uris":{"android":"levelo://app?vid=1c6ed226-c458-4e0d-b4b7-4c05c0b756b5","ios":"levelo://app?vid=1c6ed226-c458-4e0d-b4b7-4c05c0b756b5"},"vehicle_type_id":"4","last_reported":1741273794,"current_range_meters":12800,"station_id":"ce4bh2h2rcd13ifvqdh0","pricing_plan_id":"cebpf4jnsgd1na2vs0mg"},{"bike_id":"1a1222b6-cbad-4fc6-b9c4-1ade1dc47f03","system_id":"levelo_inurba_marseille","lat":43.31159,"lon":5.38713,"is_reserved":false,"is_disabled":false,"rental_uris":{"android":"levelo://app?vid=1a1222b6-cbad-4fc6-b9c4-1ade1dc47f03","ios":"levelo://app?vid=1a1222b6-cbad-4fc6-b9c4-1ade1dc47f03"},"vehicle_type_id":"4","last_reported":1741273794,"current_range_meters":14000,"station_id":"ce4bgv12rcd13ifvqcp0","pricing_plan_id":"cebpf4jnsgd1na2vs0mg"},{"bike_id":"0e697ecd-49ee-4de4-9972-72a80832592e","system_id":"levelo_inurba_marseille","lat":43.30211,"lon":5.39471,"is_reserved":false,"is_disabled":false,"rental_uris":{"android":"levelo://app?vid=0e697ecd-49ee-4de4-9972-72a80832592e","ios":"levelo://app?vid=0e697ecd-49ee-4de4-9972-72a80832592e"},"vehicle_type_id":"4","last_reported":1741273794,"current_range_meters":14800,"station_id":"ce4bh0p2rcd13ifvqd70","pricing_plan_id":"cebpf4jnsgd1na2vs0mg"},{"bike_id":"5bbad86a-ee1a-4855-aa00-60f758b173dc","system_id":"levelo_inurba_marseille","lat":43.2927,"lon":5.38451,"is_reserved":false,"is_disabled":false,"rental_uris":{"android":"levelo://app?vid=5bbad86a-ee1a-4855-aa00-60f758b173dc","ios":"levelo://app?vid=5bbad86a-ee1a-4855-aa00-60f758b173dc"},"vehicle_type_id":"4","last_reported":1741273794,"current_range_meters":14400,"station_id":"ce4bh692rcd13ifvqea0","pricing_plan_id":"cebpf4jnsgd1na2vs0mg"},{"bike_id":"ce51e43d-08e5-4352-a6bd-d7aa7e8463bf","system_id":"levelo_inurba_marseille","lat":43.324837,"lon":5.365867,"is_reserved":false,"is_disabled":false,"rental_uris":{"android":"levelo://app?vid=ce51e43d-08e5-4352-a6bd-d7aa7e8463bf","ios":"levelo://app?vid=ce51e43d-08e5-4352-a6bd-d7aa7e8463bf"},"vehicle_type_id":"4","last_reported":1741273794,"current_range_meters":14400,"station_id":"ce4bhs12rcd13ifvqhvg","pricing_plan_id":"cebpf4jnsgd1na2vs0mg"},{"bike_id":"75e1a560-978d-46cd-a17f-6087dfda8ed1","system_id":"levelo_inurba_marseille","lat":43.26564,"lon":5.38991,"is_reserved":false,"is_disabled":false,"rental_uris":{"android":"levelo://app?vid=75e1a560-978d-46cd-a17f-6087dfda8ed1","ios":"levelo://app?vid=75e1a560-978d-46cd-a17f-6087dfda8ed1"},"vehicle_type_id":"4","last_reported":1741273794,"current_range_meters":14400,"station_id":"ce4bhe12rcd13ifvqf30","pricing_plan_id":"cebpf4jnsgd1na2vs0mg"},{"bike_id":"c847df0b-d5ea-4935-928c-14ed1eca219e","system_id":"levelo_inurba_marseille","lat":43.29607,"lon":5.3774,"is_reserved":false,"is_disabled":false,"rental_uris":{"android":"levelo://app?vid=c847df0b-d5ea-4935-928c-14ed1eca219e","ios":"levelo://app?vid=c847df0b-d5ea-4935-928c-14ed1eca219e"},"vehicle_type_id":"4","last_reported":1741273794,"current_range_meters":14400,"station_id":"ce4bgi92rcd13ifvqb90","pricing_plan_id":"cebpf4jnsgd1na2vs0mg"},{"bike_id":"982b7307-3d9c-4fc5-8f8b-0355d142cec2","system_id":"levelo_inurba_marseille","lat":43.26211,"lon":5.40465,"is_reserved":false,"is_disabled":false,"rental_uris":{"android":"levelo://app?vid=982b7307-3d9c-4fc5-8f8b-0355d142cec2","ios":"levelo://app?vid=982b7307-3d9c-4fc5-8f8b-0355d142cec2"},"vehicle_type_id":"4","last_reported":1741273794,"current_range_meters":14400,"station_id":"ce4bhmh2rcd13ifvqgmg","pricing_plan_id":"cebpf4jnsgd1na2vs0mg"},{"bike_id":"09edce99-7b59-4324-99bf-ef0227bc9b6d","system_id":"levelo_inurba_marseille","lat":43.28947,"lon":5.39615,"is_reserved":false,"is_disabled":false,"rental_uris":{"android":"levelo://app?vid=09edce99-7b59-4324-99bf-ef0227bc9b6d","ios":"levelo://app?vid=09edce99-7b59-4324-99bf-ef0227bc9b6d"},"vehicle_type_id":"4","last_reported":1741273794,"current_range_meters":16400,"station_id":"ce4bh3h2rcd13ifvqdn0","pricing_plan_id":"cebpf4jnsgd1na2vs0mg"},{"bike_id":"5476663f-0745-4c2b-9786-d06f222f6295","system_id":"levelo_inurba_marseille","lat":43.27441,"lon":5.39423,"is_reserved":false,"is_disabled":false,"rental_uris":{"android":"levelo://app?vid=5476663f-0745-4c2b-9786-d06f222f6295","ios":"levelo://app?vid=5476663f-0745-4c2b-9786-d06f222f6295"},"vehicle_type_id":"4","last_reported":1741273794,"current_range_meters":12400,"station_id":"ce4bhdp2rcd13ifvqf20","pricing_plan_id":"cebpf4jnsgd1na2vs0mg"},{"bike_id":"f81ce09a-f2d5-418d-ac12-8a51b8c5293b","system_id":"levelo_inurba_marseille","lat":43.30882,"lon":5.39648,"is_reserved":false,"is_disabled":false,"rental_uris":{"android":"levelo://app?vid=f81ce09a-f2d5-418d-ac12-8a51b8c5293b","ios":"levelo://app?vid=f81ce09a-f2d5-418d-ac12-8a51b8c5293b"},"vehicle_type_id":"4","last_reported":1741273794,"current_range_meters":14800,"station_id":"ce4bh012rcd13ifvqcv0","pricing_plan_id":"cebpf4jnsgd1na2vs0mg"},{"bike_id":"b586599f-7a06-40fe-9aec-b7839d367ae1","system_id":"levelo_inurba_marseille","lat":43.24393,"lon":5.37063,"is_reserved":false,"is_disabled":false,"rental_uris":{"android":"levelo://app?vid=b586599f-7a06-40fe-9aec-b7839d367ae1","ios":"levelo://app?vid=b586599f-7a06-40fe-9aec-b7839d367ae1"},"vehicle_type_id":"4","last_reported":1741273794,"current_range_meters":10000,"station_id":"ce4bhhh2rcd13ifvqfk0","pricing_plan_id":"cebpf4jnsgd1na2vs0mg"},{"bike_id":"b15c8bfd-c93d-4d75-8b92-692a5eac32ed","system_id":"levelo_inurba_marseille","lat":43.28467,"lon":5.35894,"is_reserved":false,"is_disabled":false,"rental_uris":{"android":"levelo://app?vid=b15c8bfd-c93d-4d75-8b92-692a5eac32ed","ios":"levelo://app?vid=b15c8bfd-c93d-4d75-8b92-692a5eac32ed"},"vehicle_type_id":"4","last_reported":1741273794,"current_range_meters":11600,"station_id":"ce4bhah2rcd13ifvqei0","pricing_plan_id":"cebpf4jnsgd1na2vs0mg"},{"bike_id":"f28afed5-eafe-4796-bdfa-2902a0d8761d","system_id":"levelo_inurba_marseille","lat":43.28933,"lon":5.36637,"is_reserved":false,"is_disabled":false,"rental_uris":{"android":"levelo://app?vid=f28afed5-eafe-4796-bdfa-2902a0d8761d","ios":"levelo://app?vid=f28afed5-eafe-4796-bdfa-2902a0d8761d"},"vehicle_type_id":"4","last_reported":1741273794,"current_range_meters":14400,"station_id":"ce4bhap2rcd13ifvqek0","pricing_plan_id":"cebpf4jnsgd1na2vs0mg"},{"bike_id":"0e1da408-7eaf-4bd1-b289-4bc1ab5f243c","system_id":"levelo_inurba_marseille","lat":43.28618,"lon":5.35111,"is_reserved":false,"is_disabled":false,"rental_uris":{"android":"levelo://app?vid=0e1da408-7eaf-4bd1-b289-4bc1ab5f243c","ios":"levelo://app?vid=0e1da408-7eaf-4bd1-b289-4bc1ab5f243c"},"vehicle_type_id":"4","last_reported":1741273794,"current_range_meters":15200,"station_id":"ce4bhch2rcd13ifvqeug","pricing_plan_id":"cebpf4jnsgd1na2vs0mg"},{"bike_id":"2b335451-2759-471c-83e1-a5a099aba791","system_id":"levelo_inurba_marseille","lat":43.25821,"lon":5.39434,"is_reserved":false,"is_disabled":false,"rental_uris":{"android":"levelo://app?vid=2b335451-2759-471c-83e1-a5a099aba791","ios":"levelo://app?vid=2b335451-2759-471c-83e1-a5a099aba791"},"vehicle_type_id":"4","last_reported":1741273794,"current_range_meters":15200,"station_id":"ce4bhip2rcd13ifvqft0","pricing_plan_id":"cebpf4jnsgd1na2vs0mg"},{"bike_id":"57902f65-aede-43ea-af9b-c026221fa991","system_id":"levelo_inurba_marseille","lat":43.30153,"lon":5.38081,"is_reserved":false,"is_disabled":false,"rental_uris":{"android":"levelo://app?vid=57902f65-aede-43ea-af9b-c026221fa991","ios":"levelo://app?vid=57902f65-aede-43ea-af9b-c026221fa991"},"vehicle_type_id":"4","last_reported":1741273794,"current_range_meters":16400,"station_id":"ce4bgjp2rcd13ifvqbh0","pricing_plan_id":"cebpf4jnsgd1na2vs0mg"},{"bike_id":"63103f47-b772-4a88-ba86-2d2dd36204d9","system_id":"levelo_inurba_marseille","lat":43.26582,"lon":5.38984,"is_reserved":false,"is_disabled":false,"rental_uris":{"android":"levelo://app?vid=63103f47-b772-4a88-ba86-2d2dd36204d9","ios":"levelo://app?vid=63103f47-b772-4a88-ba86-2d2dd36204d9"},"vehicle_type_id":"4","last_reported":1741273794,"current_range_meters":15200,"station_id":"ce4bhe12rcd13ifvqf30","pricing_plan_id":"cebpf4jnsgd1na2vs0mg"},{"bike_id":"22859612-6eca-4a1b-84a8-95106d29daec","system_id":"levelo_inurba_marseille","lat":43.29803,"lon":5.38088,"is_reserved":false,"is_disabled":false,"rental_uris":{"android":"levelo://app?vid=22859612-6eca-4a1b-84a8-95106d29daec","ios":"levelo://app?vid=22859612-6eca-4a1b-84a8-95106d29daec"},"vehicle_type_id":"4","last_reported":1741273794,"current_range_meters":15200,"station_id":"ce4bgip2rcd13ifvqbb0","pricing_plan_id":"cebpf4jnsgd1na2vs0mg"},{"bike_id":"7bb4b946-078d-46ba-8c18-0abbc01045bf","system_id":"levelo_inurba_marseille","lat":43.31397,"lon":5.36736,"is_reserved":false,"is_disabled":false,"rental_uris":{"android":"levelo://app?vid=7bb4b946-078d-46ba-8c18-0abbc01045bf","ios":"levelo://app?vid=7bb4b946-078d-46ba-8c18-0abbc01045bf"},"vehicle_type_id":"4","last_reported":1741273794,"current_range_meters":16000,"station_id":"ce4bgr92rcd13ifvqc6g","pricing_plan_id":"cebpf4jnsgd1na2vs0mg"},{"bike_id":"a0fca432-12b5-44fc-9734-2a8f48ecb2a5","system_id":"levelo_inurba_marseille","lat":43.2721,"lon":5.39184,"is_reserved":false,"is_disabled":false,"rental_uris":{"android":"levelo://app?vid=a0fca432-12b5-44fc-9734-2a8f48ecb2a5","ios":"levelo://app?vid=a0fca432-12b5-44fc-9734-2a8f48ecb2a5"},"vehicle_type_id":"4","last_reported":1741273794,"current_range_meters":14000,"station_id":"ce4bhhp2rcd13ifvqfm0","pricing_plan_id":"cebpf4jnsgd1na2vs0mg"},{"bike_id":"b3eaca3c-3e02-4788-8e1c-7df7f67f5818","system_id":"levelo_inurba_marseille","lat":43.29854,"lon":5.36285,"is_reserved":false,"is_disabled":false,"rental_uris":{"android":"levelo://app?vid=b3eaca3c-3e02-4788-8e1c-7df7f67f5818","ios":"levelo://app?vid=b3eaca3c-3e02-4788-8e1c-7df7f67f5818"},"vehicle_type_id":"4","last_reported":1741273794,"current_range_meters":16000,"station_id":"ce4bgpp2rcd13ifvqc3g","pricing_plan_id":"cebpf4jnsgd1na2vs0mg"},{"bike_id":"e61bab07-0b2d-4511-920d-e6bd3b9a90a1","system_id":"levelo_inurba_marseille","lat":43.30932,"lon":5.40143,"is_reserved":false,"is_disabled":false,"rental_uris":{"android":"levelo://app?vid=e61bab07-0b2d-4511-920d-e6bd3b9a90a1","ios":"levelo://app?vid=e61bab07-0b2d-4511-920d-e6bd3b9a90a1"},"vehicle_type_id":"4","last_reported":1741273794,"current_range_meters":14000,"station_id":"ce4bgvp2rcd13ifvqct0","pricing_plan_id":"cebpf4jnsgd1na2vs0mg"},{"bike_id":"936f3f41-160d-4a4f-98fa-097fce6cbc67","system_id":"levelo_inurba_marseille","lat":43.29167,"lon":5.39721,"is_reserved":false,"is_disabled":false,"rental_uris":{"android":"levelo://app?vid=936f3f41-160d-4a4f-98fa-097fce6cbc67","ios":"levelo://app?vid=936f3f41-160d-4a4f-98fa-097fce6cbc67"},"vehicle_type_id":"4","last_reported":1741273794,"current_range_meters":16000,"station_id":"ce4bgj92rcd13ifvqbd0","pricing_plan_id":"cebpf4jnsgd1na2vs0mg"},{"bike_id":"daa48c53-c5de-46aa-94fc-655cbd710c8c","system_id":"levelo_inurba_marseille","lat":43.22929,"lon":5.35381,"is_reserved":false,"is_disabled":false,"rental_uris":{"android":"levelo://app?vid=daa48c53-c5de-46aa-94fc-655cbd710c8c","ios":"levelo://app?vid=daa48c53-c5de-46aa-94fc-655cbd710c8c"},"vehicle_type_id":"4","last_reported":1741273794,"current_range_meters":16000,"station_id":"cpo3532slgdg3j2ikp40","pricing_plan_id":"cebpf4jnsgd1na2vs0mg"},{"bike_id":"0072baa2-5ee5-490a-aff5-898d4f86e5f0","system_id":"levelo_inurba_marseille","lat":43.25817,"lon":5.39429,"is_reserved":false,"is_disabled":false,"rental_uris":{"android":"levelo://app?vid=0072baa2-5ee5-490a-aff5-898d4f86e5f0","ios":"levelo://app?vid=0072baa2-5ee5-490a-aff5-898d4f86e5f0"},"vehicle_type_id":"4","last_reported":1741273794,"current_range_meters":16000,"station_id":"ce4bhip2rcd13ifvqft0","pricing_plan_id":"cebpf4jnsgd1na2vs0mg"},{"bike_id":"5ccfb67b-e8ae-4525-8742-ac0b6f2453a4","system_id":"levelo_inurba_marseille","lat":43.28376,"lon":5.38645,"is_reserved":false,"is_disabled":false,"rental_uris":{"android":"levelo://app?vid=5ccfb67b-e8ae-4525-8742-ac0b6f2453a4","ios":"levelo://app?vid=5ccfb67b-e8ae-4525-8742-ac0b6f2453a4"},"vehicle_type_id":"4","last_reported":1741273794,"current_range_meters":16400,"station_id":"ce4bh492rcd13ifvqdvg","pricing_plan_id":"cebpf4jnsgd1na2vs0mg"},{"bike_id":"68c19fc9-ba1c-4395-a7d2-1805fe31ec71","system_id":"levelo_inurba_marseille","lat":43.24179,"lon":5.39738,"is_reserved":false,"is_disabled":false,"rental_uris":{"android":"levelo://app?vid=68c19fc9-ba1c-4395-a7d2-1805fe31ec71","ios":"levelo://app?vid=68c19fc9-ba1c-4395-a7d2-1805fe31ec71"},"vehicle_type_id":"4","last_reported":1741273794,"current_range_meters":16400,"station_id":"ce4bhn12rcd13ifvqgpg","pricing_plan_id":"cebpf4jnsgd1na2vs0mg"},{"bike_id":"11e06683-8fbf-4e8d-be1a-c9322e803342","system_id":"levelo_inurba_marseille","lat":43.23137,"lon":5.43714,"is_reserved":false,"is_disabled":false,"rental_uris":{"android":"levelo://app?vid=11e06683-8fbf-4e8d-be1a-c9322e803342","ios":"levelo://app?vid=11e06683-8fbf-4e8d-be1a-c9322e803342"},"vehicle_type_id":"4","last_reported":1741273794,"current_range_meters":16400,"station_id":"ce4bhmp2rcd13ifvqgog","pricing_plan_id":"cebpf4jnsgd1na2vs0mg"},{"bike_id":"9e6acd30-5458-4971-b8a0-116d587606c9","system_id":"levelo_inurba_marseille","lat":43.23146,"lon":5.43724,"is_reserved":false,"is_disabled":false,"rental_uris":{"android":"levelo://app?vid=9e6acd30-5458-4971-b8a0-116d587606c9","ios":"levelo://app?vid=9e6acd30-5458-4971-b8a0-116d587606c9"},"vehicle_type_id":"4","last_reported":1741273794,"current_range_meters":16400,"station_id":"ce4bhmp2rcd13ifvqgog","pricing_plan_id":"cebpf4jnsgd1na2vs0mg"},{"bike_id":"d0a9e0b6-7460-48af-b167-fa241d6b44c3","system_id":"levelo_inurba_marseille","lat":43.32108,"lon":5.36774,"is_reserved":false,"is_disabled":false,"rental_uris":{"android":"levelo://app?vid=d0a9e0b6-7460-48af-b167-fa241d6b44c3","ios":"levelo://app?vid=d0a9e0b6-7460-48af-b167-fa241d6b44c3"},"vehicle_type_id":"4","last_reported":1741273794,"current_range_meters":16400,"station_id":"ce4bhrh2rcd13ifvqhug","pricing_plan_id":"cebpf4jnsgd1na2vs0mg"},{"bike_id":"7f3147b7-00a5-41bd-aaf0-795e428e0f21","system_id":"levelo_inurba_marseille","lat":43.28465,"lon":5.35888,"is_reserved":false,"is_disabled":false,"rental_uris":{"android":"levelo://app?vid=7f3147b7-00a5-41bd-aaf0-795e428e0f21","ios":"levelo://app?vid=7f3147b7-00a5-41bd-aaf0-795e428e0f21"},"vehicle_type_id":"4","last_reported":1741273794,"current_range_meters":15200,"station_id":"ce4bhah2rcd13ifvqei0","pricing_plan_id":"cebpf4jnsgd1na2vs0mg"},{"bike_id":"f9b7ba1a-d203-4a05-9de9-dfe8af9bfb35","system_id":"levelo_inurba_marseille","lat":43.27373,"lon":5.3626,"is_reserved":false,"is_disabled":false,"rental_uris":{"android":"levelo://app?vid=f9b7ba1a-d203-4a05-9de9-dfe8af9bfb35","ios":"levelo://app?vid=f9b7ba1a-d203-4a05-9de9-dfe8af9bfb35"},"vehicle_type_id":"4","last_reported":1741273794,"current_range_meters":16400,"station_id":"ce4bhbh2rcd13ifvqeo0","pricing_plan_id":"cebpf4jnsgd1na2vs0mg"},{"bike_id":"5548afad-f390-44bc-98bf-b0dd3bf2c7c2","system_id":"levelo_inurba_marseille","lat":43.29903,"lon":5.43671,"is_reserved":false,"is_disabled":false,"rental_uris":{"android":"levelo://app?vid=5548afad-f390-44bc-98bf-b0dd3bf2c7c2","ios":"levelo://app?vid=5548afad-f390-44bc-98bf-b0dd3bf2c7c2"},"vehicle_type_id":"4","last_reported":1741273794,"current_range_meters":15200,"station_id":"ce4bhpp2rcd13ifvqhfg","pricing_plan_id":"cebpf4jnsgd1na2vs0mg"},{"bike_id":"9db5c2d4-cbf0-4da6-a05a-b65f7d6f861e","system_id":"levelo_inurba_marseille","lat":43.29233,"lon":5.36076,"is_reserved":false,"is_disabled":false,"rental_uris":{"android":"levelo://app?vid=9db5c2d4-cbf0-4da6-a05a-b65f7d6f861e","ios":"levelo://app?vid=9db5c2d4-cbf0-4da6-a05a-b65f7d6f861e"},"vehicle_type_id":"4","last_reported":1741273794,"current_range_meters":15200,"station_id":"ce4bhbh2rcd13ifvqeqg","pricing_plan_id":"cebpf4jnsgd1na2vs0mg"},{"bike_id":"10b74c6d-04bc-43c8-b892-4a1d3e03c2bd","system_id":"levelo_inurba_marseille","lat":43.23074,"lon":5.35501,"is_reserved":false,"is_disabled":false,"rental_uris":{"android":"levelo://app?vid=10b74c6d-04bc-43c8-b892-4a1d3e03c2bd","ios":"levelo://app?vid=10b74c6d-04bc-43c8-b892-4a1d3e03c2bd"},"vehicle_type_id":"4","last_reported":1741273794,"current_range_meters":16800,"station_id":"cpo3342slgdg3j2ifvpg","pricing_plan_id":"cebpf4jnsgd1na2vs0mg"},{"bike_id":"02fa7074-252f-4422-b33e-6391e49be691","system_id":"levelo_inurba_marseille","lat":43.30213,"lon":5.39466,"is_reserved":false,"is_disabled":false,"rental_uris":{"android":"levelo://app?vid=02fa7074-252f-4422-b33e-6391e49be691","ios":"levelo://app?vid=02fa7074-252f-4422-b33e-6391e49be691"},"vehicle_type_id":"4","last_reported":1741273794,"current_range_meters":16800,"station_id":"ce4bh0p2rcd13ifvqd70","pricing_plan_id":"cebpf4jnsgd1na2vs0mg"},{"bike_id":"9a4ee881-5327-475b-a07b-46e6fc0999e0","system_id":"levelo_inurba_marseille","lat":43.30909,"lon":5.3685,"is_reserved":false,"is_disabled":false,"rental_uris":{"android":"levelo://app?vid=9a4ee881-5327-475b-a07b-46e6fc0999e0","ios":"levelo://app?vid=9a4ee881-5327-475b-a07b-46e6fc0999e0"},"vehicle_type_id":"4","last_reported":1741273794,"current_range_meters":16800,"station_id":"ce4bgn92rcd13ifvqbvg","pricing_plan_id":"cebpf4jnsgd1na2vs0mg"},{"bike_id":"68e488c2-9d73-4c91-9da2-5e65e0d498b1","system_id":"levelo_inurba_marseille","lat":43.26568,"lon":5.38997,"is_reserved":false,"is_disabled":false,"rental_uris":{"android":"levelo://app?vid=68e488c2-9d73-4c91-9da2-5e65e0d498b1","ios":"levelo://app?vid=68e488c2-9d73-4c91-9da2-5e65e0d498b1"},"vehicle_type_id":"4","last_reported":1741273794,"current_range_meters":17200,"station_id":"ce4bhe12rcd13ifvqf30","pricing_plan_id":"cebpf4jnsgd1na2vs0mg"},{"bike_id":"567a106a-a9cf-4c80-aa19-664bcf263197","system_id":"levelo_inurba_marseille","lat":43.27324,"lon":5.3908,"is_reserved":false,"is_disabled":false,"rental_uris":{"android":"levelo://app?vid=567a106a-a9cf-4c80-aa19-664bcf263197","ios":"levelo://app?vid=567a106a-a9cf-4c80-aa19-664bcf263197"},"vehicle_type_id":"4","last_reported":1741273794,"current_range_meters":17200,"station_id":"ce4bhgp2rcd13ifvqfe0","pricing_plan_id":"cebpf4jnsgd1na2vs0mg"},{"bike_id":"1d1c6421-f589-411a-aa1e-2a0b3e6270c2","system_id":"levelo_inurba_marseille","lat":43.27237,"lon":5.39099,"is_reserved":false,"is_disabled":false,"rental_uris":{"android":"levelo://app?vid=1d1c6421-f589-411a-aa1e-2a0b3e6270c2","ios":"levelo://app?vid=1d1c6421-f589-411a-aa1e-2a0b3e6270c2"},"vehicle_type_id":"4","last_reported":1741273794,"current_range_meters":17200,"station_id":"","pricing_plan_id":"cebpf4jnsgd1na2vs0mg"},{"bike_id":"59af43b7-ac9d-4c6e-9b7a-e56647cd5cc2","system_id":"levelo_inurba_marseille","lat":43.30379,"lon":5.42489,"is_reserved":false,"is_disabled":false,"rental_uris":{"android":"levelo://app?vid=59af43b7-ac9d-4c6e-9b7a-e56647cd5cc2","ios":"levelo://app?vid=59af43b7-ac9d-4c6e-9b7a-e56647cd5cc2"},"vehicle_type_id":"4","last_reported":1741273794,"current_range_meters":17200,"station_id":"ce4bghh2rcd13ifvqb60","pricing_plan_id":"cebpf4jnsgd1na2vs0mg"},{"bike_id":"b2c0d078-8ca0-4ebe-8b46-db0775c795f2","system_id":"levelo_inurba_marseille","lat":43.29374,"lon":5.37855,"is_reserved":false,"is_disabled":false,"rental_uris":{"android":"levelo://app?vid=b2c0d078-8ca0-4ebe-8b46-db0775c795f2","ios":"levelo://app?vid=b2c0d078-8ca0-4ebe-8b46-db0775c795f2"},"vehicle_type_id":"4","last_reported":1741273794,"current_range_meters":17200,"station_id":"ce4bgjh2rcd13ifvqbf0","pricing_plan_id":"cebpf4jnsgd1na2vs0mg"},{"bike_id":"78cb67d5-b301-4808-acd3-eaf12189ee87","system_id":"levelo_inurba_marseille","lat":43.30891,"lon":5.37182,"is_reserved":false,"is_disabled":false,"rental_uris":{"android":"levelo://app?vid=78cb67d5-b301-4808-acd3-eaf12189ee87","ios":"levelo://app?vid=78cb67d5-b301-4808-acd3-eaf12189ee87"},"vehicle_type_id":"4","last_reported":1741273794,"current_range_meters":17200,"station_id":"ce4bguh2rcd13ifvqckg","pricing_plan_id":"cebpf4jnsgd1na2vs0mg"},{"bike_id":"a9b59dc3-ea24-44ee-bb0a-a39d40e91e35","system_id":"levelo_inurba_marseille","lat":43.298248,"lon":5.363145,"is_reserved":false,"is_disabled":false,"rental_uris":{"android":"levelo://app?vid=a9b59dc3-ea24-44ee-bb0a-a39d40e91e35","ios":"levelo://app?vid=a9b59dc3-ea24-44ee-bb0a-a39d40e91e35"},"vehicle_type_id":"4","last_reported":1741273794,"current_range_meters":15200,"station_id":"ce4bgpp2rcd13ifvqc3g","pricing_plan_id":"cebpf4jnsgd1na2vs0mg"},{"bike_id":"9f81a8d7-3e2b-4007-9464-c777fd8529ba","system_id":"levelo_inurba_marseille","lat":43.33025,"lon":5.39047,"is_reserved":false,"is_disabled":true,"rental_uris":{"android":"levelo://app?vid=9f81a8d7-3e2b-4007-9464-c777fd8529ba","ios":"levelo://app?vid=9f81a8d7-3e2b-4007-9464-c777fd8529ba"},"vehicle_type_id":"4","last_reported":1741273794,"current_range_meters":17600,"station_id":"ce4bhr92rcd13ifvqhrg","pricing_plan_id":"cebpf4jnsgd1na2vs0mg"},{"bike_id":"e611ddb4-2d57-440d-a1c3-d46416438919","system_id":"levelo_inurba_marseille","lat":43.28718,"lon":5.37938,"is_reserved":false,"is_disabled":false,"rental_uris":{"android":"levelo://app?vid=e611ddb4-2d57-440d-a1c3-d46416438919","ios":"levelo://app?vid=e611ddb4-2d57-440d-a1c3-d46416438919"},"vehicle_type_id":"4","last_reported":1741273794,"current_range_meters":17600,"station_id":"","pricing_plan_id":"cebpf4jnsgd1na2vs0mg"},{"bike_id":"8d203f57-3343-4bc0-8a9c-79d1c1be1625","system_id":"levelo_inurba_marseille","lat":43.268045,"lon":5.402636,"is_reserved":false,"is_disabled":false,"rental_uris":{"android":"levelo://app?vid=8d203f57-3343-4bc0-8a9c-79d1c1be1625","ios":"levelo://app?vid=8d203f57-3343-4bc0-8a9c-79d1c1be1625"},"vehicle_type_id":"4","last_reported":1741273794,"current_range_meters":17600,"station_id":"ce501612rcd8frsf0b60","pricing_plan_id":"cebpf4jnsgd1na2vs0mg"},{"bike_id":"95b15933-310e-426f-a0d8-73891a8002cc","system_id":"levelo_inurba_marseille","lat":43.281043,"lon":5.378293,"is_reserved":false,"is_disabled":false,"rental_uris":{"android":"levelo://app?vid=95b15933-310e-426f-a0d8-73891a8002cc","ios":"levelo://app?vid=95b15933-310e-426f-a0d8-73891a8002cc"},"vehicle_type_id":"4","last_reported":1741273794,"current_range_meters":19600,"station_id":"ce4bhi12rcd13ifvqfo0","pricing_plan_id":"cebpf4jnsgd1na2vs0mg"},{"bike_id":"3c94b931-3649-4c69-bf1c-99f8fd15e284","system_id":"levelo_inurba_marseille","lat":43.32483,"lon":5.36577,"is_reserved":false,"is_disabled":false,"rental_uris":{"android":"levelo://app?vid=3c94b931-3649-4c69-bf1c-99f8fd15e284","ios":"levelo://app?vid=3c94b931-3649-4c69-bf1c-99f8fd15e284"},"vehicle_type_id":"4","last_reported":1741273794,"current_range_meters":18800,"station_id":"ce4bhs12rcd13ifvqhvg","pricing_plan_id":"cebpf4jnsgd1na2vs0mg"},{"bike_id":"de8a6646-d315-4b06-a7a8-375e8d3b760d","system_id":"levelo_inurba_marseille","lat":43.25001,"lon":5.38931,"is_reserved":false,"is_disabled":false,"rental_uris":{"android":"levelo://app?vid=de8a6646-d315-4b06-a7a8-375e8d3b760d","ios":"levelo://app?vid=de8a6646-d315-4b06-a7a8-375e8d3b760d"},"vehicle_type_id":"4","last_reported":1741273794,"current_range_meters":18000,"station_id":"ce4bhgp2rcd13ifvqfd0","pricing_plan_id":"cebpf4jnsgd1na2vs0mg"},{"bike_id":"6ae77951-a909-4dfa-a933-35324bca41b7","system_id":"levelo_inurba_marseille","lat":43.25009,"lon":5.38924,"is_reserved":false,"is_disabled":false,"rental_uris":{"android":"levelo://app?vid=6ae77951-a909-4dfa-a933-35324bca41b7","ios":"levelo://app?vid=6ae77951-a909-4dfa-a933-35324bca41b7"},"vehicle_type_id":"4","last_reported":1741273794,"current_range_meters":18000,"station_id":"ce4bhgp2rcd13ifvqfd0","pricing_plan_id":"cebpf4jnsgd1na2vs0mg"},{"bike_id":"77ca0225-b608-4d99-b3a8-96cff557d4a3","system_id":"levelo_inurba_marseille","lat":43.30554,"lon":5.3654,"is_reserved":false,"is_disabled":false,"rental_uris":{"android":"levelo://app?vid=77ca0225-b608-4d99-b3a8-96cff557d4a3","ios":"levelo://app?vid=77ca0225-b608-4d99-b3a8-96cff557d4a3"},"vehicle_type_id":"4","last_reported":1741273794,"current_range_meters":18000,"station_id":"ce4bgs12rcd13ifvqcag","pricing_plan_id":"cebpf4jnsgd1na2vs0mg"},{"bike_id":"d65a9f15-0d08-4f36-87d6-9fe0b02e1cf9","system_id":"levelo_inurba_marseille","lat":43.2418,"lon":5.39729,"is_reserved":false,"is_disabled":false,"rental_uris":{"android":"levelo://app?vid=d65a9f15-0d08-4f36-87d6-9fe0b02e1cf9","ios":"levelo://app?vid=d65a9f15-0d08-4f36-87d6-9fe0b02e1cf9"},"vehicle_type_id":"4","last_reported":1741273794,"current_range_meters":18000,"station_id":"ce4bhn12rcd13ifvqgpg","pricing_plan_id":"cebpf4jnsgd1na2vs0mg"},{"bike_id":"b6f8ec22-f732-494f-a531-3dd5bd3eaa0a","system_id":"levelo_inurba_marseille","lat":43.24171,"lon":5.364,"is_reserved":false,"is_disabled":false,"rental_uris":{"android":"levelo://app?vid=b6f8ec22-f732-494f-a531-3dd5bd3eaa0a","ios":"levelo://app?vid=b6f8ec22-f732-494f-a531-3dd5bd3eaa0a"},"vehicle_type_id":"4","last_reported":1741273794,"current_range_meters":18000,"station_id":"cpo36qri1sfpv3e86is0","pricing_plan_id":"cebpf4jnsgd1na2vs0mg"},{"bike_id":"34ac3e46-1ebe-4cb2-ae1a-c3836ca2078f","system_id":"levelo_inurba_marseille","lat":43.32034,"lon":5.41559,"is_reserved":false,"is_disabled":false,"rental_uris":{"android":"levelo://app?vid=34ac3e46-1ebe-4cb2-ae1a-c3836ca2078f","ios":"levelo://app?vid=34ac3e46-1ebe-4cb2-ae1a-c3836ca2078f"},"vehicle_type_id":"4","last_reported":1741273794,"current_range_meters":18000,"station_id":"ce4bhq92rcd13ifvqhkg","pricing_plan_id":"cebpf4jnsgd1na2vs0mg"},{"bike_id":"43d55693-be44-4f7b-870d-2b17a576a397","system_id":"levelo_inurba_marseille","lat":43.26205,"lon":5.37448,"is_reserved":false,"is_disabled":false,"rental_uris":{"android":"levelo://app?vid=43d55693-be44-4f7b-870d-2b17a576a397","ios":"levelo://app?vid=43d55693-be44-4f7b-870d-2b17a576a397"},"vehicle_type_id":"4","last_reported":1741273794,"current_range_meters":18000,"station_id":"ce4bhgp2rcd13ifvqfc0","pricing_plan_id":"cebpf4jnsgd1na2vs0mg"},{"bike_id":"65a45cfe-f7b0-4ae1-bced-492326c634a7","system_id":"levelo_inurba_marseille","lat":43.31078,"lon":5.38358,"is_reserved":false,"is_disabled":false,"rental_uris":{"android":"levelo://app?vid=65a45cfe-f7b0-4ae1-bced-492326c634a7","ios":"levelo://app?vid=65a45cfe-f7b0-4ae1-bced-492326c634a7"},"vehicle_type_id":"4","last_reported":1741273794,"current_range_meters":18000,"station_id":"ce4bgv92rcd13ifvqcr0","pricing_plan_id":"cebpf4jnsgd1na2vs0mg"},{"bike_id":"5f75ba61-02d5-48cc-b264-b113b66ed19b","system_id":"levelo_inurba_marseille","lat":43.32548,"lon":5.41428,"is_reserved":false,"is_disabled":false,"rental_uris":{"android":"levelo://app?vid=5f75ba61-02d5-48cc-b264-b113b66ed19b","ios":"levelo://app?vid=5f75ba61-02d5-48cc-b264-b113b66ed19b"},"vehicle_type_id":"4","last_reported":1741273794,"current_range_meters":18800,"station_id":"ce4bhq12rcd13ifvqhhg","pricing_plan_id":"cebpf4jnsgd1na2vs0mg"},{"bike_id":"50063e9c-9b9b-462a-b0ae-6e92457af5fc","system_id":"levelo_inurba_marseille","lat":43.26193,"lon":5.37462,"is_reserved":false,"is_disabled":false,"rental_uris":{"android":"levelo://app?vid=50063e9c-9b9b-462a-b0ae-6e92457af5fc","ios":"levelo://app?vid=50063e9c-9b9b-462a-b0ae-6e92457af5fc"},"vehicle_type_id":"4","last_reported":1741273794,"current_range_meters":18800,"station_id":"ce4bhgp2rcd13ifvqfc0","pricing_plan_id":"cebpf4jnsgd1na2vs0mg"},{"bike_id":"6fe58590-4b8c-4b6c-a9f8-9dff8e441f2a","system_id":"levelo_inurba_marseille","lat":43.32041,"lon":5.4154,"is_reserved":false,"is_disabled":false,"rental_uris":{"android":"levelo://app?vid=6fe58590-4b8c-4b6c-a9f8-9dff8e441f2a","ios":"levelo://app?vid=6fe58590-4b8c-4b6c-a9f8-9dff8e441f2a"},"vehicle_type_id":"4","last_reported":1741273794,"current_range_meters":17600,"station_id":"ce4bhq92rcd13ifvqhkg","pricing_plan_id":"cebpf4jnsgd1na2vs0mg"},{"bike_id":"fe2a1c26-6de6-44ee-8be0-f51cd2d0b446","system_id":"levelo_inurba_marseille","lat":43.28418,"lon":5.34986,"is_reserved":false,"is_disabled":false,"rental_uris":{"android":"levelo://app?vid=fe2a1c26-6de6-44ee-8be0-f51cd2d0b446","ios":"levelo://app?vid=fe2a1c26-6de6-44ee-8be0-f51cd2d0b446"},"vehicle_type_id":"4","last_reported":1741273794,"current_range_meters":18800,"station_id":"ce4bhbh2rcd13ifvqepg","pricing_plan_id":"cebpf4jnsgd1na2vs0mg"},{"bike_id":"1b9ce2b5-6d9b-4f29-a4e0-c134dc084fd1","system_id":"levelo_inurba_marseille","lat":43.271156,"lon":5.386259,"is_reserved":false,"is_disabled":false,"rental_uris":{"android":"levelo://app?vid=1b9ce2b5-6d9b-4f29-a4e0-c134dc084fd1","ios":"levelo://app?vid=1b9ce2b5-6d9b-4f29-a4e0-c134dc084fd1"},"vehicle_type_id":"4","last_reported":1741273794,"current_range_meters":18800,"station_id":"ce4bha12rcd13ifvqee0","pricing_plan_id":"cebpf4jnsgd1na2vs0mg"},{"bike_id":"56782300-6e0b-420f-88bd-2a33fbbeb49a","system_id":"levelo_inurba_marseille","lat":43.31754,"lon":5.39016,"is_reserved":false,"is_disabled":false,"rental_uris":{"android":"levelo://app?vid=56782300-6e0b-420f-88bd-2a33fbbeb49a","ios":"levelo://app?vid=56782300-6e0b-420f-88bd-2a33fbbeb49a"},"vehicle_type_id":"4","last_reported":1741273794,"current_range_meters":18800,"station_id":"ce4bhqp2rcd13ifvqhng","pricing_plan_id":"cebpf4jnsgd1na2vs0mg"},{"bike_id":"d2da081b-4897-4a8a-aff9-91b2fab1d095","system_id":"levelo_inurba_marseille","lat":43.281,"lon":5.37856,"is_reserved":false,"is_disabled":false,"rental_uris":{"android":"levelo://app?vid=d2da081b-4897-4a8a-aff9-91b2fab1d095","ios":"levelo://app?vid=d2da081b-4897-4a8a-aff9-91b2fab1d095"},"vehicle_type_id":"4","last_reported":1741273794,"current_range_meters":18800,"station_id":"ce4bha12rcd13ifvqee0","pricing_plan_id":"cebpf4jnsgd1na2vs0mg"},{"bike_id":"a9987004-5976-4eb5-88b9-343d32071907","system_id":"levelo_inurba_marseille","lat":43.25497,"lon":5.37651,"is_reserved":false,"is_disabled":false,"rental_uris":{"android":"levelo://app?vid=a9987004-5976-4eb5-88b9-343d32071907","ios":"levelo://app?vid=a9987004-5976-4eb5-88b9-343d32071907"},"vehicle_type_id":"4","last_reported":1741273794,"current_range_meters":18800,"station_id":"ce4bhh12rcd13ifvqff0","pricing_plan_id":"cebpf4jnsgd1na2vs0mg"},{"bike_id":"e524bcef-a391-41b2-bad2-673eae53ea51","system_id":"levelo_inurba_marseille","lat":43.31707,"lon":5.4371,"is_reserved":false,"is_disabled":false,"rental_uris":{"android":"levelo://app?vid=e524bcef-a391-41b2-bad2-673eae53ea51","ios":"levelo://app?vid=e524bcef-a391-41b2-bad2-673eae53ea51"},"vehicle_type_id":"4","last_reported":1741273794,"current_range_meters":19200,"station_id":"ce4bhp92rcd13ifvqhcg","pricing_plan_id":"cebpf4jnsgd1na2vs0mg"},{"bike_id":"d3ae9210-0eca-4a3a-802e-f36b17adb262","system_id":"levelo_inurba_marseille","lat":43.28611,"lon":5.3706,"is_reserved":false,"is_disabled":false,"rental_uris":{"android":"levelo://app?vid=d3ae9210-0eca-4a3a-802e-f36b17adb262","ios":"levelo://app?vid=d3ae9210-0eca-4a3a-802e-f36b17adb262"},"vehicle_type_id":"4","last_reported":1741273794,"current_range_meters":18800,"station_id":"ce4bht12rcd13ifvqi60","pricing_plan_id":"cebpf4jnsgd1na2vs0mg"},{"bike_id":"0e8811be-6b75-40b2-b0f3-4af1f74862f6","system_id":"levelo_inurba_marseille","lat":43.29806,"lon":5.38077,"is_reserved":false,"is_disabled":false,"rental_uris":{"android":"levelo://app?vid=0e8811be-6b75-40b2-b0f3-4af1f74862f6","ios":"levelo://app?vid=0e8811be-6b75-40b2-b0f3-4af1f74862f6"},"vehicle_type_id":"4","last_reported":1741273794,"current_range_meters":19200,"station_id":"ce4bgip2rcd13ifvqbb0","pricing_plan_id":"cebpf4jnsgd1na2vs0mg"},{"bike_id":"6c59e5e1-6769-451e-ace7-68ff51c3bc41","system_id":"levelo_inurba_marseille","lat":43.30907,"lon":5.36848,"is_reserved":false,"is_disabled":false,"rental_uris":{"android":"levelo://app?vid=6c59e5e1-6769-451e-ace7-68ff51c3bc41","ios":"levelo://app?vid=6c59e5e1-6769-451e-ace7-68ff51c3bc41"},"vehicle_type_id":"4","last_reported":1741273794,"current_range_meters":18000,"station_id":"ce4bgn92rcd13ifvqbvg","pricing_plan_id":"cebpf4jnsgd1na2vs0mg"},{"bike_id":"a10ce631-dcae-45e2-9312-a8c6fcf4f7c4","system_id":"levelo_inurba_marseille","lat":43.29787,"lon":5.39342,"is_reserved":false,"is_disabled":false,"rental_uris":{"android":"levelo://app?vid=a10ce631-dcae-45e2-9312-a8c6fcf4f7c4","ios":"levelo://app?vid=a10ce631-dcae-45e2-9312-a8c6fcf4f7c4"},"vehicle_type_id":"4","last_reported":1741273794,"current_range_meters":18800,"station_id":"chh1huq6cuj3fo74tm60","pricing_plan_id":"cebpf4jnsgd1na2vs0mg"},{"bike_id":"d800d8d7-5f8f-4fd5-8b8c-68432be6621d","system_id":"levelo_inurba_marseille","lat":43.30155,"lon":5.37423,"is_reserved":false,"is_disabled":false,"rental_uris":{"android":"levelo://app?vid=d800d8d7-5f8f-4fd5-8b8c-68432be6621d","ios":"levelo://app?vid=d800d8d7-5f8f-4fd5-8b8c-68432be6621d"},"vehicle_type_id":"4","last_reported":1741273794,"current_range_meters":19200,"station_id":"ce4bgs92rcd13ifvqcc0","pricing_plan_id":"cebpf4jnsgd1na2vs0mg"},{"bike_id":"f96e9681-fc6b-46e8-ae29-9ab91057dd0c","system_id":"levelo_inurba_marseille","lat":43.27318,"lon":5.39098,"is_reserved":false,"is_disabled":false,"rental_uris":{"android":"levelo://app?vid=f96e9681-fc6b-46e8-ae29-9ab91057dd0c","ios":"levelo://app?vid=f96e9681-fc6b-46e8-ae29-9ab91057dd0c"},"vehicle_type_id":"4","last_reported":1741273794,"current_range_meters":18800,"station_id":"ce4bhgp2rcd13ifvqfe0","pricing_plan_id":"cebpf4jnsgd1na2vs0mg"},{"bike_id":"0adc3f22-a7b2-4be8-b93b-812996b5f9d5","system_id":"levelo_inurba_marseille","lat":43.26693,"lon":5.38283,"is_reserved":false,"is_disabled":false,"rental_uris":{"android":"levelo://app?vid=0adc3f22-a7b2-4be8-b93b-812996b5f9d5","ios":"levelo://app?vid=0adc3f22-a7b2-4be8-b93b-812996b5f9d5"},"vehicle_type_id":"4","last_reported":1741273794,"current_range_meters":19200,"station_id":"ce4bhg92rcd13ifvqf90","pricing_plan_id":"cebpf4jnsgd1na2vs0mg"},{"bike_id":"a7f3e889-c3a6-4f50-a104-03a3556dd10a","system_id":"levelo_inurba_marseille","lat":43.27961,"lon":5.41012,"is_reserved":false,"is_disabled":false,"rental_uris":{"android":"levelo://app?vid=a7f3e889-c3a6-4f50-a104-03a3556dd10a","ios":"levelo://app?vid=a7f3e889-c3a6-4f50-a104-03a3556dd10a"},"vehicle_type_id":"4","last_reported":1741273794,"current_range_meters":19200,"station_id":"ce4bhnp2rcd13ifvqh0g","pricing_plan_id":"cebpf4jnsgd1na2vs0mg"},{"bike_id":"1ce866b7-af70-4315-9c9d-9c33cb575d6f","system_id":"levelo_inurba_marseille","lat":43.30929,"lon":5.40153,"is_reserved":false,"is_disabled":false,"rental_uris":{"android":"levelo://app?vid=1ce866b7-af70-4315-9c9d-9c33cb575d6f","ios":"levelo://app?vid=1ce866b7-af70-4315-9c9d-9c33cb575d6f"},"vehicle_type_id":"4","last_reported":1741273794,"current_range_meters":19200,"station_id":"ce4bgvp2rcd13ifvqct0","pricing_plan_id":"cebpf4jnsgd1na2vs0mg"},{"bike_id":"1a78bdad-7a9a-44c5-a6d8-aacce88df457","system_id":"levelo_inurba_marseille","lat":43.31354,"lon":5.36709,"is_reserved":false,"is_disabled":false,"rental_uris":{"android":"levelo://app?vid=1a78bdad-7a9a-44c5-a6d8-aacce88df457","ios":"levelo://app?vid=1a78bdad-7a9a-44c5-a6d8-aacce88df457"},"vehicle_type_id":"4","last_reported":1741273794,"current_range_meters":19200,"station_id":"ce4bgr92rcd13ifvqc6g","pricing_plan_id":"cebpf4jnsgd1na2vs0mg"},{"bike_id":"45fa8020-1fd6-4f06-8a66-82bca87e5395","system_id":"levelo_inurba_marseille","lat":43.24179,"lon":5.39727,"is_reserved":false,"is_disabled":false,"rental_uris":{"android":"levelo://app?vid=45fa8020-1fd6-4f06-8a66-82bca87e5395","ios":"levelo://app?vid=45fa8020-1fd6-4f06-8a66-82bca87e5395"},"vehicle_type_id":"4","last_reported":1741273794,"current_range_meters":19600,"station_id":"ce4bhn12rcd13ifvqgpg","pricing_plan_id":"cebpf4jnsgd1na2vs0mg"},{"bike_id":"d2aa5128-b68a-4ed2-99f7-1d9cbcb7bb4d","system_id":"levelo_inurba_marseille","lat":43.30094,"lon":5.39079,"is_reserved":false,"is_disabled":false,"rental_uris":{"android":"levelo://app?vid=d2aa5128-b68a-4ed2-99f7-1d9cbcb7bb4d","ios":"levelo://app?vid=d2aa5128-b68a-4ed2-99f7-1d9cbcb7bb4d"},"vehicle_type_id":"4","last_reported":1741273794,"current_range_meters":19600,"station_id":"ce4bh192rcd13ifvqdb0","pricing_plan_id":"cebpf4jnsgd1na2vs0mg"},{"bike_id":"6460db91-3812-4851-93fb-90a38b9acd88","system_id":"levelo_inurba_marseille","lat":43.27828,"lon":5.4073,"is_reserved":false,"is_disabled":false,"rental_uris":{"android":"levelo://app?vid=6460db91-3812-4851-93fb-90a38b9acd88","ios":"levelo://app?vid=6460db91-3812-4851-93fb-90a38b9acd88"},"vehicle_type_id":"4","last_reported":1741273794,"current_range_meters":19600,"station_id":"ce4bhnh2rcd13ifvqgtg","pricing_plan_id":"cebpf4jnsgd1na2vs0mg"},{"bike_id":"94bb4b42-765a-4dcc-84e5-1e56175a727a","system_id":"levelo_inurba_marseille","lat":43.33798,"lon":5.37451,"is_reserved":false,"is_disabled":false,"rental_uris":{"android":"levelo://app?vid=94bb4b42-765a-4dcc-84e5-1e56175a727a","ios":"levelo://app?vid=94bb4b42-765a-4dcc-84e5-1e56175a727a"},"vehicle_type_id":"4","last_reported":1741273794,"current_range_meters":19600,"station_id":"","pricing_plan_id":"cebpf4jnsgd1na2vs0mg"},{"bike_id":"adfca881-2638-43ee-933e-d9e17205d395","system_id":"levelo_inurba_marseille","lat":43.26497,"lon":5.39546,"is_reserved":false,"is_disabled":false,"rental_uris":{"android":"levelo://app?vid=adfca881-2638-43ee-933e-d9e17205d395","ios":"levelo://app?vid=adfca881-2638-43ee-933e-d9e17205d395"},"vehicle_type_id":"4","last_reported":1741273794,"current_range_meters":19200,"station_id":"ce4bhi12rcd13ifvqfq0","pricing_plan_id":"cebpf4jnsgd1na2vs0mg"},{"bike_id":"75e132d9-5d1a-422c-a075-9f44ef62fb9b","system_id":"levelo_inurba_marseille","lat":43.28718,"lon":5.37942,"is_reserved":false,"is_disabled":false,"rental_uris":{"android":"levelo://app?vid=75e132d9-5d1a-422c-a075-9f44ef62fb9b","ios":"levelo://app?vid=75e132d9-5d1a-422c-a075-9f44ef62fb9b"},"vehicle_type_id":"4","last_reported":1741273794,"current_range_meters":19200,"station_id":"ce4bh9p2rcd13ifvqec0","pricing_plan_id":"cebpf4jnsgd1na2vs0mg"},{"bike_id":"e3c33546-4bd1-4274-b52a-181a44f541e3","system_id":"levelo_inurba_marseille","lat":43.29528,"lon":5.37506,"is_reserved":false,"is_disabled":false,"rental_uris":{"android":"levelo://app?vid=e3c33546-4bd1-4274-b52a-181a44f541e3","ios":"levelo://app?vid=e3c33546-4bd1-4274-b52a-181a44f541e3"},"vehicle_type_id":"4","last_reported":1741273794,"current_range_meters":18800,"station_id":"ce4bgkp2rcd13ifvqbmg","pricing_plan_id":"cebpf4jnsgd1na2vs0mg"},{"bike_id":"975fa86d-1215-4f11-9def-f80adfd3d7ee","system_id":"levelo_inurba_marseille","lat":43.255821,"lon":5.382327,"is_reserved":false,"is_disabled":false,"rental_uris":{"android":"levelo://app?vid=975fa86d-1215-4f11-9def-f80adfd3d7ee","ios":"levelo://app?vid=975fa86d-1215-4f11-9def-f80adfd3d7ee"},"vehicle_type_id":"4","last_reported":1741273794,"current_range_meters":19600,"station_id":"ce4bhih2rcd13ifvqfs0","pricing_plan_id":"cebpf4jnsgd1na2vs0mg"},{"bike_id":"c3ec360a-54af-4759-a6e1-9a60a4432635","system_id":"levelo_inurba_marseille","lat":43.30197,"lon":5.3741,"is_reserved":false,"is_disabled":false,"rental_uris":{"android":"levelo://app?vid=c3ec360a-54af-4759-a6e1-9a60a4432635","ios":"levelo://app?vid=c3ec360a-54af-4759-a6e1-9a60a4432635"},"vehicle_type_id":"4","last_reported":1741273794,"current_range_meters":19600,"station_id":"","pricing_plan_id":"cebpf4jnsgd1na2vs0mg"},{"bike_id":"65eab838-e929-454d-be01-4aaf37d35265","system_id":"levelo_inurba_marseille","lat":43.302874,"lon":5.37781,"is_reserved":false,"is_disabled":false,"rental_uris":{"android":"levelo://app?vid=65eab838-e929-454d-be01-4aaf37d35265","ios":"levelo://app?vid=65eab838-e929-454d-be01-4aaf37d35265"},"vehicle_type_id":"4","last_reported":1741273794,"current_range_meters":20000,"station_id":"ce4bhp92rcd13ifvqhbg","pricing_plan_id":"cebpf4jnsgd1na2vs0mg"},{"bike_id":"632a0855-3d37-4415-a15f-c940fbb4cff5","system_id":"levelo_inurba_marseille","lat":43.291085,"lon":5.385652,"is_reserved":false,"is_disabled":false,"rental_uris":{"android":"levelo://app?vid=632a0855-3d37-4415-a15f-c940fbb4cff5","ios":"levelo://app?vid=632a0855-3d37-4415-a15f-c940fbb4cff5"},"vehicle_type_id":"4","last_reported":1741273794,"current_range_meters":20000,"station_id":"ce4bgt92rcd13ifvqcf0","pricing_plan_id":"cebpf4jnsgd1na2vs0mg"},{"bike_id":"8c6f03b2-af08-4d17-8a89-09d5a96c686f","system_id":"levelo_inurba_marseille","lat":43.30275,"lon":5.37694,"is_reserved":false,"is_disabled":false,"rental_uris":{"android":"levelo://app?vid=8c6f03b2-af08-4d17-8a89-09d5a96c686f","ios":"levelo://app?vid=8c6f03b2-af08-4d17-8a89-09d5a96c686f"},"vehicle_type_id":"4","last_reported":1741273794,"current_range_meters":20000,"station_id":"ce4bguh2rcd13ifvqcj0","pricing_plan_id":"cebpf4jnsgd1na2vs0mg"},{"bike_id":"62c3ea52-bfa9-4e9b-8df5-196046463eb7","system_id":"levelo_inurba_marseille","lat":43.29884,"lon":5.38922,"is_reserved":false,"is_disabled":false,"rental_uris":{"android":"levelo://app?vid=62c3ea52-bfa9-4e9b-8df5-196046463eb7","ios":"levelo://app?vid=62c3ea52-bfa9-4e9b-8df5-196046463eb7"},"vehicle_type_id":"4","last_reported":1741273794,"current_range_meters":20000,"station_id":"ce4bh392rcd13ifvqdl0","pricing_plan_id":"cebpf4jnsgd1na2vs0mg"},{"bike_id":"41a5bce5-a145-4751-891c-2cbf9ef60cf6","system_id":"levelo_inurba_marseille","lat":43.28105,"lon":5.37837,"is_reserved":false,"is_disabled":false,"rental_uris":{"android":"levelo://app?vid=41a5bce5-a145-4751-891c-2cbf9ef60cf6","ios":"levelo://app?vid=41a5bce5-a145-4751-891c-2cbf9ef60cf6"},"vehicle_type_id":"4","last_reported":1741273794,"current_range_meters":20000,"station_id":"ce4bha12rcd13ifvqee0","pricing_plan_id":"cebpf4jnsgd1na2vs0mg"},{"bike_id":"90e18d06-e9b1-4c5b-b67a-3560ed0529d0","system_id":"levelo_inurba_marseille","lat":43.31331,"lon":5.39687,"is_reserved":false,"is_disabled":false,"rental_uris":{"android":"levelo://app?vid=90e18d06-e9b1-4c5b-b67a-3560ed0529d0","ios":"levelo://app?vid=90e18d06-e9b1-4c5b-b67a-3560ed0529d0"},"vehicle_type_id":"4","last_reported":1741273794,"current_range_meters":19600,"station_id":"ce4bgvp2rcd13ifvqcu0","pricing_plan_id":"cebpf4jnsgd1na2vs0mg"},{"bike_id":"fc60fbfd-28de-47f0-8809-01173db8a105","system_id":"levelo_inurba_marseille","lat":43.31391,"lon":5.36717,"is_reserved":false,"is_disabled":false,"rental_uris":{"android":"levelo://app?vid=fc60fbfd-28de-47f0-8809-01173db8a105","ios":"levelo://app?vid=fc60fbfd-28de-47f0-8809-01173db8a105"},"vehicle_type_id":"4","last_reported":1741273794,"current_range_meters":20000,"station_id":"","pricing_plan_id":"cebpf4jnsgd1na2vs0mg"},{"bike_id":"f32a6f88-147e-4457-80ec-f35f2785fabc","system_id":"levelo_inurba_marseille","lat":43.30886,"lon":5.39625,"is_reserved":false,"is_disabled":false,"rental_uris":{"android":"levelo://app?vid=f32a6f88-147e-4457-80ec-f35f2785fabc","ios":"levelo://app?vid=f32a6f88-147e-4457-80ec-f35f2785fabc"},"vehicle_type_id":"4","last_reported":1741273794,"current_range_meters":20000,"station_id":"ce4bh012rcd13ifvqcv0","pricing_plan_id":"cebpf4jnsgd1na2vs0mg"},{"bike_id":"b37d6e9f-2b77-42d8-8a3c-c3df6863002a","system_id":"levelo_inurba_marseille","lat":43.24393,"lon":5.37064,"is_reserved":false,"is_disabled":false,"rental_uris":{"android":"levelo://app?vid=b37d6e9f-2b77-42d8-8a3c-c3df6863002a","ios":"levelo://app?vid=b37d6e9f-2b77-42d8-8a3c-c3df6863002a"},"vehicle_type_id":"4","last_reported":1741273794,"current_range_meters":20000,"station_id":"ce4bhhh2rcd13ifvqfk0","pricing_plan_id":"cebpf4jnsgd1na2vs0mg"},{"bike_id":"bd663619-de96-4a8c-8c6b-d3d4f4783383","system_id":"levelo_inurba_marseille","lat":43.26816,"lon":5.40226,"is_reserved":false,"is_disabled":false,"rental_uris":{"android":"levelo://app?vid=bd663619-de96-4a8c-8c6b-d3d4f4783383","ios":"levelo://app?vid=bd663619-de96-4a8c-8c6b-d3d4f4783383"},"vehicle_type_id":"4","last_reported":1741273794,"current_range_meters":20000,"station_id":"ce501612rcd8frsf0b60","pricing_plan_id":"cebpf4jnsgd1na2vs0mg"},{"bike_id":"e17b4bd8-4620-47c5-bd6c-7119ecc5ab19","system_id":"levelo_inurba_marseille","lat":43.27922,"lon":5.37987,"is_reserved":false,"is_disabled":false,"rental_uris":{"android":"levelo://app?vid=e17b4bd8-4620-47c5-bd6c-7119ecc5ab19","ios":"levelo://app?vid=e17b4bd8-4620-47c5-bd6c-7119ecc5ab19"},"vehicle_type_id":"4","last_reported":1741273794,"current_range_meters":20000,"station_id":"ce4bha12rcd13ifvqee0","pricing_plan_id":"cebpf4jnsgd1na2vs0mg"},{"bike_id":"5dc1523c-d8f4-4079-89fb-0c3374723061","system_id":"levelo_inurba_marseille","lat":43.24177,"lon":5.39763,"is_reserved":false,"is_disabled":false,"rental_uris":{"android":"levelo://app?vid=5dc1523c-d8f4-4079-89fb-0c3374723061","ios":"levelo://app?vid=5dc1523c-d8f4-4079-89fb-0c3374723061"},"vehicle_type_id":"4","last_reported":1741273794,"current_range_meters":20400,"station_id":"ce4bhn12rcd13ifvqgpg","pricing_plan_id":"cebpf4jnsgd1na2vs0mg"},{"bike_id":"d44d1f0d-089b-4712-acec-6159946190a1","system_id":"levelo_inurba_marseille","lat":43.24166,"lon":5.36398,"is_reserved":false,"is_disabled":false,"rental_uris":{"android":"levelo://app?vid=d44d1f0d-089b-4712-acec-6159946190a1","ios":"levelo://app?vid=d44d1f0d-089b-4712-acec-6159946190a1"},"vehicle_type_id":"4","last_reported":1741273794,"current_range_meters":20400,"station_id":"cpo36qri1sfpv3e86is0","pricing_plan_id":"cebpf4jnsgd1na2vs0mg"},{"bike_id":"6a8a51f8-8c20-4638-ab22-4c359ebab299","system_id":"levelo_inurba_marseille","lat":43.30453,"lon":5.38919,"is_reserved":false,"is_disabled":false,"rental_uris":{"android":"levelo://app?vid=6a8a51f8-8c20-4638-ab22-4c359ebab299","ios":"levelo://app?vid=6a8a51f8-8c20-4638-ab22-4c359ebab299"},"vehicle_type_id":"4","last_reported":1741273794,"current_range_meters":20400,"station_id":"ce4bgk12rcd13ifvqbi0","pricing_plan_id":"cebpf4jnsgd1na2vs0mg"},{"bike_id":"93420cc2-3b33-42c8-81e2-c54621ab438f","system_id":"levelo_inurba_marseille","lat":43.25831,"lon":5.39441,"is_reserved":false,"is_disabled":false,"rental_uris":{"android":"levelo://app?vid=93420cc2-3b33-42c8-81e2-c54621ab438f","ios":"levelo://app?vid=93420cc2-3b33-42c8-81e2-c54621ab438f"},"vehicle_type_id":"4","last_reported":1741273794,"current_range_meters":20000,"station_id":"ce4bhip2rcd13ifvqft0","pricing_plan_id":"cebpf4jnsgd1na2vs0mg"},{"bike_id":"59471fbe-5c30-485b-ae0b-62c261fe3f21","system_id":"levelo_inurba_marseille","lat":43.3019,"lon":5.39468,"is_reserved":false,"is_disabled":false,"rental_uris":{"android":"levelo://app?vid=59471fbe-5c30-485b-ae0b-62c261fe3f21","ios":"levelo://app?vid=59471fbe-5c30-485b-ae0b-62c261fe3f21"},"vehicle_type_id":"4","last_reported":1741273794,"current_range_meters":20400,"station_id":"ce4bh0p2rcd13ifvqd70","pricing_plan_id":"cebpf4jnsgd1na2vs0mg"},{"bike_id":"dbb8bdfe-a191-4119-902f-79edd619a9d1","system_id":"levelo_inurba_marseille","lat":43.2756,"lon":5.38424,"is_reserved":false,"is_disabled":false,"rental_uris":{"android":"levelo://app?vid=dbb8bdfe-a191-4119-902f-79edd619a9d1","ios":"levelo://app?vid=dbb8bdfe-a191-4119-902f-79edd619a9d1"},"vehicle_type_id":"4","last_reported":1741273794,"current_range_meters":18800,"station_id":"ce4bhh92rcd13ifvqfi0","pricing_plan_id":"cebpf4jnsgd1na2vs0mg"},{"bike_id":"4746e9d3-bc61-4350-aaf6-07fdb92568e5","system_id":"levelo_inurba_marseille","lat":43.2997,"lon":5.38498,"is_reserved":false,"is_disabled":false,"rental_uris":{"android":"levelo://app?vid=4746e9d3-bc61-4350-aaf6-07fdb92568e5","ios":"levelo://app?vid=4746e9d3-bc61-4350-aaf6-07fdb92568e5"},"vehicle_type_id":"4","last_reported":1741273794,"current_range_meters":20800,"station_id":"ce4bgj92rcd13ifvqbd0","pricing_plan_id":"cebpf4jnsgd1na2vs0mg"},{"bike_id":"77ee7625-0bad-4bb5-ad4c-0e177d052153","system_id":"levelo_inurba_marseille","lat":43.31273,"lon":5.37011,"is_reserved":false,"is_disabled":false,"rental_uris":{"android":"levelo://app?vid=77ee7625-0bad-4bb5-ad4c-0e177d052153","ios":"levelo://app?vid=77ee7625-0bad-4bb5-ad4c-0e177d052153"},"vehicle_type_id":"4","last_reported":1741273794,"current_range_meters":20800,"station_id":"","pricing_plan_id":"cebpf4jnsgd1na2vs0mg"},{"bike_id":"05bfee6a-1d10-43d8-ba05-a8d566f96dbd","system_id":"levelo_inurba_marseille","lat":43.29904,"lon":5.43668,"is_reserved":false,"is_disabled":false,"rental_uris":{"android":"levelo://app?vid=05bfee6a-1d10-43d8-ba05-a8d566f96dbd","ios":"levelo://app?vid=05bfee6a-1d10-43d8-ba05-a8d566f96dbd"},"vehicle_type_id":"4","last_reported":1741273794,"current_range_meters":20800,"station_id":"ce4bhpp2rcd13ifvqhfg","pricing_plan_id":"cebpf4jnsgd1na2vs0mg"},{"bike_id":"9043a7fd-f38a-4b4d-93b8-32939c2aae0f","system_id":"levelo_inurba_marseille","lat":43.26573,"lon":5.39004,"is_reserved":false,"is_disabled":false,"rental_uris":{"android":"levelo://app?vid=9043a7fd-f38a-4b4d-93b8-32939c2aae0f","ios":"levelo://app?vid=9043a7fd-f38a-4b4d-93b8-32939c2aae0f"},"vehicle_type_id":"4","last_reported":1741273794,"current_range_meters":20800,"station_id":"ce4bhe12rcd13ifvqf30","pricing_plan_id":"cebpf4jnsgd1na2vs0mg"},{"bike_id":"52e6262a-e3d3-4a99-b8cc-9679b8bac798","system_id":"levelo_inurba_marseille","lat":43.26211,"lon":5.37447,"is_reserved":false,"is_disabled":false,"rental_uris":{"android":"levelo://app?vid=52e6262a-e3d3-4a99-b8cc-9679b8bac798","ios":"levelo://app?vid=52e6262a-e3d3-4a99-b8cc-9679b8bac798"},"vehicle_type_id":"4","last_reported":1741273794,"current_range_meters":20800,"station_id":"ce4bhgp2rcd13ifvqfc0","pricing_plan_id":"cebpf4jnsgd1na2vs0mg"},{"bike_id":"cd11eefe-d472-4d9c-acc1-0b37ea76e165","system_id":"levelo_inurba_marseille","lat":43.26197,"lon":5.37451,"is_reserved":false,"is_disabled":false,"rental_uris":{"android":"levelo://app?vid=cd11eefe-d472-4d9c-acc1-0b37ea76e165","ios":"levelo://app?vid=cd11eefe-d472-4d9c-acc1-0b37ea76e165"},"vehicle_type_id":"4","last_reported":1741273794,"current_range_meters":20800,"station_id":"ce4bhgp2rcd13ifvqfc0","pricing_plan_id":"cebpf4jnsgd1na2vs0mg"},{"bike_id":"c0da859e-bd5b-411e-9be8-8e588ebdba94","system_id":"levelo_inurba_marseille","lat":43.29246,"lon":5.38453,"is_reserved":false,"is_disabled":false,"rental_uris":{"android":"levelo://app?vid=c0da859e-bd5b-411e-9be8-8e588ebdba94","ios":"levelo://app?vid=c0da859e-bd5b-411e-9be8-8e588ebdba94"},"vehicle_type_id":"4","last_reported":1741273794,"current_range_meters":20800,"station_id":"ce4bh692rcd13ifvqea0","pricing_plan_id":"cebpf4jnsgd1na2vs0mg"},{"bike_id":"40562c40-cbd6-496d-935e-edcd811d60ca","system_id":"levelo_inurba_marseille","lat":43.29981,"lon":5.37176,"is_reserved":false,"is_disabled":true,"rental_uris":{"android":"levelo://app?vid=40562c40-cbd6-496d-935e-edcd811d60ca","ios":"levelo://app?vid=40562c40-cbd6-496d-935e-edcd811d60ca"},"vehicle_type_id":"4","last_reported":1741273794,"current_range_meters":20800,"station_id":"ce4bgr92rcd13ifvqc7g","pricing_plan_id":"cebpf4jnsgd1na2vs0mg"},{"bike_id":"f658ba32-cfdd-430f-82fe-c59e54daf003","system_id":"levelo_inurba_marseille","lat":43.24164,"lon":5.36385,"is_reserved":false,"is_disabled":false,"rental_uris":{"android":"levelo://app?vid=f658ba32-cfdd-430f-82fe-c59e54daf003","ios":"levelo://app?vid=f658ba32-cfdd-430f-82fe-c59e54daf003"},"vehicle_type_id":"4","last_reported":1741273794,"current_range_meters":21600,"station_id":"cpo36qri1sfpv3e86is0","pricing_plan_id":"cebpf4jnsgd1na2vs0mg"},{"bike_id":"dfddea2c-ebd0-4e95-a185-8224c34e9dbd","system_id":"levelo_inurba_marseille","lat":43.24065,"lon":5.37746,"is_reserved":false,"is_disabled":false,"rental_uris":{"android":"levelo://app?vid=dfddea2c-ebd0-4e95-a185-8224c34e9dbd","ios":"levelo://app?vid=dfddea2c-ebd0-4e95-a185-8224c34e9dbd"},"vehicle_type_id":"4","last_reported":1741273794,"current_range_meters":21600,"station_id":"ce4bhnp2rcd13ifvqgvg","pricing_plan_id":"cebpf4jnsgd1na2vs0mg"},{"bike_id":"74ece54c-d630-4029-b16e-f27c0119b5b1","system_id":"levelo_inurba_marseille","lat":43.28109,"lon":5.37843,"is_reserved":false,"is_disabled":false,"rental_uris":{"android":"levelo://app?vid=74ece54c-d630-4029-b16e-f27c0119b5b1","ios":"levelo://app?vid=74ece54c-d630-4029-b16e-f27c0119b5b1"},"vehicle_type_id":"4","last_reported":1741273794,"current_range_meters":20800,"station_id":"ce4bha12rcd13ifvqee0","pricing_plan_id":"cebpf4jnsgd1na2vs0mg"},{"bike_id":"4d397632-f5ef-440e-9f35-271f79204e09","system_id":"levelo_inurba_marseille","lat":43.29877,"lon":5.39746,"is_reserved":false,"is_disabled":false,"rental_uris":{"android":"levelo://app?vid=4d397632-f5ef-440e-9f35-271f79204e09","ios":"levelo://app?vid=4d397632-f5ef-440e-9f35-271f79204e09"},"vehicle_type_id":"4","last_reported":1741273794,"current_range_meters":21600,"station_id":"ce4bh0h2rcd13ifvqd50","pricing_plan_id":"cebpf4jnsgd1na2vs0mg"},{"bike_id":"2723a4ad-c690-407e-86f9-a02e93d7fa57","system_id":"levelo_inurba_marseille","lat":43.27197,"lon":5.39166,"is_reserved":false,"is_disabled":false,"rental_uris":{"android":"levelo://app?vid=2723a4ad-c690-407e-86f9-a02e93d7fa57","ios":"levelo://app?vid=2723a4ad-c690-407e-86f9-a02e93d7fa57"},"vehicle_type_id":"4","last_reported":1741273794,"current_range_meters":21600,"station_id":"ce4bhhp2rcd13ifvqfm0","pricing_plan_id":"cebpf4jnsgd1na2vs0mg"},{"bike_id":"3b11f3b4-d609-47ab-8606-767308123810","system_id":"levelo_inurba_marseille","lat":43.27838,"lon":5.39206,"is_reserved":false,"is_disabled":false,"rental_uris":{"android":"levelo://app?vid=3b11f3b4-d609-47ab-8606-767308123810","ios":"levelo://app?vid=3b11f3b4-d609-47ab-8606-767308123810"},"vehicle_type_id":"4","last_reported":1741273794,"current_range_meters":20000,"station_id":"ce4bhjp2rcd13ifvqga0","pricing_plan_id":"cebpf4jnsgd1na2vs0mg"},{"bike_id":"f93ac2a7-48da-4401-be69-66187c0ee242","system_id":"levelo_inurba_marseille","lat":43.31249,"lon":5.36868,"is_reserved":false,"is_disabled":false,"rental_uris":{"android":"levelo://app?vid=f93ac2a7-48da-4401-be69-66187c0ee242","ios":"levelo://app?vid=f93ac2a7-48da-4401-be69-66187c0ee242"},"vehicle_type_id":"4","last_reported":1741273794,"current_range_meters":21600,"station_id":"ce4bgl92rcd13ifvqbq0","pricing_plan_id":"cebpf4jnsgd1na2vs0mg"},{"bike_id":"26e76935-0278-442e-9aa7-9f5eef519d86","system_id":"levelo_inurba_marseille","lat":43.29447,"lon":5.39751,"is_reserved":false,"is_disabled":false,"rental_uris":{"android":"levelo://app?vid=26e76935-0278-442e-9aa7-9f5eef519d86","ios":"levelo://app?vid=26e76935-0278-442e-9aa7-9f5eef519d86"},"vehicle_type_id":"4","last_reported":1741273794,"current_range_meters":21600,"station_id":"ce4bh3h2rcd13ifvqdo0","pricing_plan_id":"cebpf4jnsgd1na2vs0mg"},