{"last_updated":1706900863,"ttl":30,"version":"2.2","data":{"bikes":[{"bike_id":"10af68f6-bbf7-48ca-9314-a73f9866d426","system_id":"levelo_inurba_marseille","lat":43.312239,"lon":5.368562,"is_reserved":false,"is_disabled":false,"rental_uris":{"android":"levelo://app?vid=10af68f6-bbf7-48ca-9314-a73f9866d426","ios":"levelo://app?vid=10af68f6-bbf7-48ca-9314-a73f9866d426"},"vehicle_type_id":"4","last_reported":1706900863,"current_range_meters":20000,"station_id":"ce4bgl92rcd13ifvqbq0","pricing_plan_id":"free"},{"bike_id":"ee2577b1-2d9f-44f0-a016-74679a00540c","system_id":"levelo_inurba_marseille","lat":43.312239,"lon":5.368562,"is_reserved":false,"is_disabled":false,"rental_uris":{"android":"levelo://app?vid=ee2577b1-2d9f-44f0-a016-74679a00540c","ios":"levelo://app?vid=ee2577b1-2d9f-44f0-a016-74679a00540c"},"vehicle_type_id":"4","last_reported":1706900863,"current_range_meters":15200,"station_id":"ce4bgl92rcd13ifvqbq0","pricing_plan_id":"free"},{"bike_id":"a4fd012d-178b-4449-a833-0ef15f83ebb6","system_id":"levelo_inurba_marseille","lat":43.312239,"lon":5.368562,"is_reserved":false,"is_disabled":false,"rental_uris":{"android":"levelo://app?vid=a4fd012d-178b-4449-a833-0ef15f83ebb6","ios":"levelo://app?vid=a4fd012d-178b-4449-a833-0ef15f83ebb6"},"vehicle_type_id":"4","last_reported":1706900863,"current_range_meters":6000,"station_id":"ce4bgl92rcd13ifvqbq0","pricing_plan_id":"free"},{"bike_id":"bef2b742-0ff2-4343-bea0-e2abaffd99e6","system_id":"levelo_inurba_marseille","lat":43.312239,"lon":5.368562,"is_reserved":false,"is_disabled":false,"rental_uris":{"android":"levelo://app?vid=bef2b742-0ff2-4343-bea0-e2abaffd99e6","ios":"levelo://app?vid=bef2b742-0ff2-4343-bea0-e2abaffd99e6"},"vehicle_type_id":"4","last_reported":1706900863,"current_range_meters":31200,"station_id":"ce4bgl92rcd13ifvqbq0","pricing_plan_id":"free"},{"bike_id":"d41c5f7a-3c34-4955-9afb-4b27e605b510","system_id":"levelo_inurba_marseille","lat":43.309076,"lon":5.368465,"is_reserved":false,"is_disabled":false,"rental_uris":{"android":"levelo://app?vid=d41c5f7a-3c34-4955-9afb-4b27e605b510","ios":"levelo://app?vid=d41c5f7a-3c34-4955-9afb-4b27e605b510"},"vehicle_type_id":"4","last_reported":1706900863,"current_range_meters":400,"station_id":"ce4bgn92rcd13ifvqbvg","pricing_plan_id":"free"},{"bike_id":"3a271586-b873-46dd-8550-fefb04c92b85","system_id":"levelo_inurba_marseille","lat":43.309076,"lon":5.368465,"is_reserved":false,"is_disabled":false,"rental_uris":{"android":"levelo://app?vid=3a271586-b873-46dd-8550-fefb04c92b85","ios":"levelo://app?vid=3a271586-b873-46dd-8550-fefb04c92b85"},"vehicle_type_id":"4","last_reported":1706900863,"current_range_meters":2800,"station_id":"ce4bgn92rcd13ifvqbvg","pricing_plan_id":"free"},{"bike_id":"7857b519-bd88-4517-b592-17f0a7315746","system_id":"levelo_inurba_marseille","lat":43.309076,"lon":5.368465,"is_reserved":false,"is_disabled":false,"rental_uris":{"android":"levelo://app?vid=7857b519-bd88-4517-b592-17f0a7315746","ios":"levelo://app?vid=7857b519-bd88-4517-b592-17f0a7315746"},"vehicle_type_id":"4","last_reported":1706900863,"current_range_meters":14400,"station_id":"ce4bgn92rcd13ifvqbvg","pricing_plan_id":"free"},{"bike_id":"8075556e-9c83-4ece-b92f-e5e90a5fd8a2","system_id":"levelo_inurba_marseille","lat":43.31306,"lon":5.37258,"is_reserved":false,"is_disabled":false,"rental_uris":{"android":"levelo://app?vid=8075556e-9c83-4ece-b92f-e5e90a5fd8a2","ios":"levelo://app?vid=8075556e-9c83-4ece-b92f-e5e90a5fd8a2"},"vehicle_type_id":"4","last_reported":1706900863,"current_range_meters":8400,"station_id":"","pricing_plan_id":"free"},{"bike_id":"0892c68d-f35c-44f1-9156-bfe1cf095ba1","system_id":"levelo_inurba_marseille","lat":43.314811,"lon":5.373103,"is_reserved":false,"is_disabled":false,"rental_uris":{"android":"levelo://app?vid=0892c68d-f35c-44f1-9156-bfe1cf095ba1","ios":"levelo://app?vid=0892c68d-f35c-44f1-9156-bfe1cf095ba1"},"vehicle_type_id":"4","last_reported":1706900863,"current_range_meters":22400,"station_id":"ce4bgt12rcd13ifvqcd0","pricing_plan_id":"free"},{"bike_id":"7508b8b3-56b1-45b4-8a4b-c7e450428c02","system_id":"levelo_inurba_marseille","lat":43.31499,"lon":5.37308,"is_reserved":false,"is_disabled":false,"rental_uris":{"android":"levelo://app?vid=7508b8b3-56b1-45b4-8a4b-c7e450428c02","ios":"levelo://app?vid=7508b8b3-56b1-45b4-8a4b-c7e450428c02"},"vehicle_type_id":"4","last_reported":1706900863,"current_range_meters":20000,"station_id":"ce4bgt12rcd13ifvqcd0","pricing_plan_id":"free"},{"bike_id":"4935c2bb-fa9e-412b-9ac1-51d8f5e7ba5e","system_id":"levelo_inurba_marseille","lat":43.30863,"lon":5.37155,"is_reserved":false,"is_disabled":false,"rental_uris":{"android":"levelo://app?vid=4935c2bb-fa9e-412b-9ac1-51d8f5e7ba5e","ios":"levelo://app?vid=4935c2bb-fa9e-412b-9ac1-51d8f5e7ba5e"},"vehicle_type_id":"4","last_reported":1706900863,"current_range_meters":0,"station_id":"","pricing_plan_id":"free"},{"bike_id":"a8d17783-0dfb-4281-9a6c-26614fbaba2c","system_id":"levelo_inurba_marseille","lat":43.309039,"lon":5.371797,"is_reserved":false,"is_disabled":false,"rental_uris":{"android":"levelo://app?vid=a8d17783-0dfb-4281-9a6c-26614fbaba2c","ios":"levelo://app?vid=a8d17783-0dfb-4281-9a6c-26614fbaba2c"},"vehicle_type_id":"4","last_reported":1706900863,"current_range_meters":27600,"station_id":"ce4bguh2rcd13ifvqckg","pricing_plan_id":"free"},{"bike_id":"9748f01e-5e53-4e8c-9585-1ef62e33a1fb","system_id":"levelo_inurba_marseille","lat":43.30614,"lon":5.3724,"is_reserved":false,"is_disabled":false,"rental_uris":{"android":"levelo://app?vid=9748f01e-5e53-4e8c-9585-1ef62e33a1fb","ios":"levelo://app?vid=9748f01e-5e53-4e8c-9585-1ef62e33a1fb"},"vehicle_type_id":"4","last_reported":1706900863,"current_range_meters":800,"station_id":"ce4bgqh2rcd13ifvqc4g","pricing_plan_id":"free"},{"bike_id":"aff4fd98-ba75-45c6-ba05-720c9edbed0a","system_id":"levelo_inurba_marseille","lat":43.305989,"lon":5.37225,"is_reserved":false,"is_disabled":false,"rental_uris":{"android":"levelo://app?vid=aff4fd98-ba75-45c6-ba05-720c9edbed0a","ios":"levelo://app?vid=aff4fd98-ba75-45c6-ba05-720c9edbed0a"},"vehicle_type_id":"4","last_reported":1706900863,"current_range_meters":18400,"station_id":"ce4bgqh2rcd13ifvqc4g","pricing_plan_id":"free"},{"bike_id":"c1f39c28-f6e0-402d-b0ce-cc4cbafeb154","system_id":"levelo_inurba_marseille","lat":43.305989,"lon":5.37225,"is_reserved":false,"is_disabled":false,"rental_uris":{"android":"levelo://app?vid=c1f39c28-f6e0-402d-b0ce-cc4cbafeb154","ios":"levelo://app?vid=c1f39c28-f6e0-402d-b0ce-cc4cbafeb154"},"vehicle_type_id":"4","last_reported":1706900863,"current_range_meters":9200,"station_id":"ce4bgqh2rcd13ifvqc4g","pricing_plan_id":"free"},{"bike_id":"c8a23292-7574-4195-bd50-f65f59d66a53","system_id":"levelo_inurba_marseille","lat":43.311237,"lon":5.377555,"is_reserved":false,"is_disabled":false,"rental_uris":{"android":"levelo://app?vid=c8a23292-7574-4195-bd50-f65f59d66a53","ios":"levelo://app?vid=c8a23292-7574-4195-bd50-f65f59d66a53"},"vehicle_type_id":"4","last_reported":1706900863,"current_range_meters":0,"station_id":"ce4bgt92rcd13ifvqcg0","pricing_plan_id":"free"},{"bike_id":"36c30efb-afd8-4b89-8e3a-e493e0220a39","system_id":"levelo_inurba_marseille","lat":43.305989,"lon":5.37225,"is_reserved":false,"is_disabled":false,"rental_uris":{"android":"levelo://app?vid=36c30efb-afd8-4b89-8e3a-e493e0220a39","ios":"levelo://app?vid=36c30efb-afd8-4b89-8e3a-e493e0220a39"},"vehicle_type_id":"4","last_reported":1706900863,"current_range_meters":5600,"station_id":"ce4bgqh2rcd13ifvqc4g","pricing_plan_id":"free"},{"bike_id":"7d0f6cf9-3aca-4279-a929-b89c04133941","system_id":"levelo_inurba_marseille","lat":43.31125,"lon":5.37777,"is_reserved":false,"is_disabled":false,"rental_uris":{"android":"levelo://app?vid=7d0f6cf9-3aca-4279-a929-b89c04133941","ios":"levelo://app?vid=7d0f6cf9-3aca-4279-a929-b89c04133941"},"vehicle_type_id":"4","last_reported":1706900863,"current_range_meters":30800,"station_id":"ce4bgt92rcd13ifvqcg0","pricing_plan_id":"free"},{"bike_id":"77d28bf1-2f6e-47a9-8dca-5881f60efa16","system_id":"levelo_inurba_marseille","lat":43.317075,"lon":5.377367,"is_reserved":false,"is_disabled":false,"rental_uris":{"android":"levelo://app?vid=77d28bf1-2f6e-47a9-8dca-5881f60efa16","ios":"levelo://app?vid=77d28bf1-2f6e-47a9-8dca-5881f60efa16"},"vehicle_type_id":"4","last_reported":1706900863,"current_range_meters":21600,"station_id":"ce4bgth2rcd13ifvqch0","pricing_plan_id":"free"},{"bike_id":"e727f552-1d3f-48b3-98f3-cdc2014bc034","system_id":"levelo_inurba_marseille","lat":43.317075,"lon":5.377367,"is_reserved":false,"is_disabled":false,"rental_uris":{"android":"levelo://app?vid=e727f552-1d3f-48b3-98f3-cdc2014bc034","ios":"levelo://app?vid=e727f552-1d3f-48b3-98f3-cdc2014bc034"},"vehicle_type_id":"4","last_reported":1706900863,"current_range_meters":14800,"station_id":"ce4bgth2rcd13ifvqch0","pricing_plan_id":"free"},{"bike_id":"ae0f098b-ccaf-4b85-8f2a-505a843a69b4","system_id":"levelo_inurba_marseille","lat":43.317075,"lon":5.377367,"is_reserved":false,"is_disabled":false,"rental_uris":{"android":"levelo://app?vid=ae0f098b-ccaf-4b85-8f2a-505a843a69b4","ios":"levelo://app?vid=ae0f098b-ccaf-4b85-8f2a-505a843a69b4"},"vehicle_type_id":"4","last_reported":1706900863,"current_range_meters":0,"station_id":"ce4bgth2rcd13ifvqch0","pricing_plan_id":"free"},{"bike_id":"31d1846e-5eb5-4c89-8630-6ba45ab34960","system_id":"levelo_inurba_marseille","lat":43.317075,"lon":5.377367,"is_reserved":false,"is_disabled":false,"rental_uris":{"android":"levelo://app?vid=31d1846e-5eb5-4c89-8630-6ba45ab34960","ios":"levelo://app?vid=31d1846e-5eb5-4c89-8630-6ba45ab34960"},"vehicle_type_id":"4","last_reported":1706900863,"current_range_meters":20000,"station_id":"ce4bgth2rcd13ifvqch0","pricing_plan_id":"free"},{"bike_id":"b5feb2f9-b5bf-4654-8cd7-f65534748851","system_id":"levelo_inurba_marseille","lat":43.31709,"lon":5.3774,"is_reserved":false,"is_disabled":false,"rental_uris":{"android":"levelo://app?vid=b5feb2f9-b5bf-4654-8cd7-f65534748851","ios":"levelo://app?vid=b5feb2f9-b5bf-4654-8cd7-f65534748851"},"vehicle_type_id":"4","last_reported":1706900863,"current_range_meters":9200,"station_id":"","pricing_plan_id":"free"},{"bike_id":"0f833ad1-607f-417a-a09f-4998cd54a18f","system_id":"levelo_inurba_marseille","lat":43.317075,"lon":5.377367,"is_reserved":false,"is_disabled":false,"rental_uris":{"android":"levelo://app?vid=0f833ad1-607f-417a-a09f-4998cd54a18f","ios":"levelo://app?vid=0f833ad1-607f-417a-a09f-4998cd54a18f"},"vehicle_type_id":"4","last_reported":1706900863,"current_range_meters":0,"station_id":"ce4bgth2rcd13ifvqch0","pricing_plan_id":"free"},{"bike_id":"a94bde46-42ed-49d8-bf89-8de1b2b7f499","system_id":"levelo_inurba_marseille","lat":43.317075,"lon":5.377367,"is_reserved":false,"is_disabled":false,"rental_uris":{"android":"levelo://app?vid=a94bde46-42ed-49d8-bf89-8de1b2b7f499","ios":"levelo://app?vid=a94bde46-42ed-49d8-bf89-8de1b2b7f499"},"vehicle_type_id":"4","last_reported":1706900863,"current_range_meters":8000,"station_id":"ce4bgth2rcd13ifvqch0","pricing_plan_id":"free"},{"bike_id":"fecb14f6-59b5-4d52-99dd-80c6a67fedd3","system_id":"levelo_inurba_marseille","lat":43.317075,"lon":5.377367,"is_reserved":false,"is_disabled":false,"rental_uris":{"android":"levelo://app?vid=fecb14f6-59b5-4d52-99dd-80c6a67fedd3","ios":"levelo://app?vid=fecb14f6-59b5-4d52-99dd-80c6a67fedd3"},"vehicle_type_id":"4","last_reported":1706900863,"current_range_meters":29600,"station_id":"ce4bgth2rcd13ifvqch0","pricing_plan_id":"free"},{"bike_id":"a71113cb-78c0-457c-a86a-8f4bc6822fe3","system_id":"levelo_inurba_marseille","lat":43.317075,"lon":5.377367,"is_reserved":false,"is_disabled":false,"rental_uris":{"android":"levelo://app?vid=a71113cb-78c0-457c-a86a-8f4bc6822fe3","ios":"levelo://app?vid=a71113cb-78c0-457c-a86a-8f4bc6822fe3"},"vehicle_type_id":"4","last_reported":1706900863,"current_range_meters":0,"station_id":"ce4bgth2rcd13ifvqch0","pricing_plan_id":"free"},{"bike_id":"2903f219-2a57-4958-bb20-79c422faf981","system_id":"levelo_inurba_marseille","lat":43.317075,"lon":5.377367,"is_reserved":false,"is_disabled":false,"rental_uris":{"android":"levelo://app?vid=2903f219-2a57-4958-bb20-79c422faf981","ios":"levelo://app?vid=2903f219-2a57-4958-bb20-79c422faf981"},"vehicle_type_id":"4","last_reported":1706900863,"current_range_meters":28400,"station_id":"ce4bgth2rcd13ifvqch0","pricing_plan_id":"free"},{"bike_id":"eca4bc68-2201-4590-84c0-9934a8eaac8f","system_id":"levelo_inurba_marseille","lat":43.317075,"lon":5.377367,"is_reserved":false,"is_disabled":false,"rental_uris":{"android":"levelo://app?vid=eca4bc68-2201-4590-84c0-9934a8eaac8f","ios":"levelo://app?vid=eca4bc68-2201-4590-84c0-9934a8eaac8f"},"vehicle_type_id":"4","last_reported":1706900863,"current_range_meters":7200,"station_id":"ce4bgth2rcd13ifvqch0","pricing_plan_id":"free"},{"bike_id":"63565569-7503-4d4b-8aac-bfc64cff8b2d","system_id":"levelo_inurba_marseille","lat":43.317075,"lon":5.377367,"is_reserved":false,"is_disabled":false,"rental_uris":{"android":"levelo://app?vid=63565569-7503-4d4b-8aac-bfc64cff8b2d","ios":"levelo://app?vid=63565569-7503-4d4b-8aac-bfc64cff8b2d"},"vehicle_type_id":"4","last_reported":1706900863,"current_range_meters":10400,"station_id":"ce4bgth2rcd13ifvqch0","pricing_plan_id":"free"},{"bike_id":"a71f5689-379c-4dfa-bb4d-22b9e5e0185a","system_id":"levelo_inurba_marseille","lat":43.308013,"lon":5.38143,"is_reserved":false,"is_disabled":false,"rental_uris":{"android":"levelo://app?vid=a71f5689-379c-4dfa-bb4d-22b9e5e0185a","ios":"levelo://app?vid=a71f5689-379c-4dfa-bb4d-22b9e5e0185a"},"vehicle_type_id":"4","last_reported":1706900863,"current_range_meters":14800,"station_id":"","pricing_plan_id":"free"},{"bike_id":"a2255dae-00b2-4418-aae0-398643ded441","system_id":"levelo_inurba_marseille","lat":43.308012,"lon":5.381511,"is_reserved":false,"is_disabled":false,"rental_uris":{"android":"levelo://app?vid=a2255dae-00b2-4418-aae0-398643ded441","ios":"levelo://app?vid=a2255dae-00b2-4418-aae0-398643ded441"},"vehicle_type_id":"4","last_reported":1706900863,"current_range_meters":17600,"station_id":"ce4bgt12rcd13ifvqce0","pricing_plan_id":"free"},{"bike_id":"dbf1a8f0-edf9-4392-a6a8-024912b1d2f2","system_id":"levelo_inurba_marseille","lat":43.324771,"lon":5.36557,"is_reserved":false,"is_disabled":false,"rental_uris":{"android":"levelo://app?vid=dbf1a8f0-edf9-4392-a6a8-024912b1d2f2","ios":"levelo://app?vid=dbf1a8f0-edf9-4392-a6a8-024912b1d2f2"},"vehicle_type_id":"4","last_reported":1706900863,"current_range_meters":1600,"station_id":"ce4bhs12rcd13ifvqhvg","pricing_plan_id":"free"},{"bike_id":"1223bdf3-4c95-4a9a-b98e-9c0e8c3f34b8","system_id":"levelo_inurba_marseille","lat":43.310804,"lon":5.38359,"is_reserved":false,"is_disabled":false,"rental_uris":{"android":"levelo://app?vid=1223bdf3-4c95-4a9a-b98e-9c0e8c3f34b8","ios":"levelo://app?vid=1223bdf3-4c95-4a9a-b98e-9c0e8c3f34b8"},"vehicle_type_id":"4","last_reported":1706900863,"current_range_meters":2000,"station_id":"ce4bgv92rcd13ifvqcr0","pricing_plan_id":"free"},{"bike_id":"c829652e-e086-4603-a8a6-0278668b9e64","system_id":"levelo_inurba_marseille","lat":43.310804,"lon":5.38359,"is_reserved":false,"is_disabled":false,"rental_uris":{"android":"levelo://app?vid=c829652e-e086-4603-a8a6-0278668b9e64","ios":"levelo://app?vid=c829652e-e086-4603-a8a6-0278668b9e64"},"vehicle_type_id":"4","last_reported":1706900863,"current_range_meters":16800,"station_id":"ce4bgv92rcd13ifvqcr0","pricing_plan_id":"free"},{"bike_id":"fd0a09a7-58fe-4600-b156-002115bd56ea","system_id":"levelo_inurba_marseille","lat":43.302843,"lon":5.377017,"is_reserved":false,"is_disabled":false,"rental_uris":{"android":"levelo://app?vid=fd0a09a7-58fe-4600-b156-002115bd56ea","ios":"levelo://app?vid=fd0a09a7-58fe-4600-b156-002115bd56ea"},"vehicle_type_id":"4","last_reported":1706900863,"current_range_meters":30400,"station_id":"ce4bguh2rcd13ifvqcj0","pricing_plan_id":"free"},{"bike_id":"89477423-b9e8-49c8-8d78-04c9b090cb74","system_id":"levelo_inurba_marseille","lat":43.310804,"lon":5.38359,"is_reserved":false,"is_disabled":false,"rental_uris":{"android":"levelo://app?vid=89477423-b9e8-49c8-8d78-04c9b090cb74","ios":"levelo://app?vid=89477423-b9e8-49c8-8d78-04c9b090cb74"},"vehicle_type_id":"4","last_reported":1706900863,"current_range_meters":15200,"station_id":"ce4bgv92rcd13ifvqcr0","pricing_plan_id":"free"},{"bike_id":"d6c6117f-570d-4943-9f4e-85244eb92b89","system_id":"levelo_inurba_marseille","lat":43.319885,"lon":5.381503,"is_reserved":false,"is_disabled":false,"rental_uris":{"android":"levelo://app?vid=d6c6117f-570d-4943-9f4e-85244eb92b89","ios":"levelo://app?vid=d6c6117f-570d-4943-9f4e-85244eb92b89"},"vehicle_type_id":"4","last_reported":1706900863,"current_range_meters":12400,"station_id":"ce4bhr12rcd13ifvqhpg","pricing_plan_id":"free"},{"bike_id":"106a407c-36e6-462b-9265-604bd28d927b","system_id":"levelo_inurba_marseille","lat":43.319935,"lon":5.381699,"is_reserved":false,"is_disabled":false,"rental_uris":{"android":"levelo://app?vid=106a407c-36e6-462b-9265-604bd28d927b","ios":"levelo://app?vid=106a407c-36e6-462b-9265-604bd28d927b"},"vehicle_type_id":"4","last_reported":1706900863,"current_range_meters":14800,"station_id":"ce4bhr12rcd13ifvqhpg","pricing_plan_id":"free"},{"bike_id":"dafffb0a-0ae6-4ed8-b9e9-57dae0c69cf1","system_id":"levelo_inurba_marseille","lat":43.319935,"lon":5.381699,"is_reserved":false,"is_disabled":false,"rental_uris":{"android":"levelo://app?vid=dafffb0a-0ae6-4ed8-b9e9-57dae0c69cf1","ios":"levelo://app?vid=dafffb0a-0ae6-4ed8-b9e9-57dae0c69cf1"},"vehicle_type_id":"4","last_reported":1706900863,"current_range_meters":26400,"station_id":"ce4bhr12rcd13ifvqhpg","pricing_plan_id":"free"},{"bike_id":"c46f0a88-2eff-422e-abfe-13d15570c2f5","system_id":"levelo_inurba_marseille","lat":43.313571,"lon":5.384829,"is_reserved":false,"is_disabled":false,"rental_uris":{"android":"levelo://app?vid=c46f0a88-2eff-422e-abfe-13d15570c2f5","ios":"levelo://app?vid=c46f0a88-2eff-422e-abfe-13d15570c2f5"},"vehicle_type_id":"4","last_reported":1706900863,"current_range_meters":3200,"station_id":"ce4bgt92rcd13ifvqcf0","pricing_plan_id":"free"},{"bike_id":"2bb6c05f-9ceb-49dd-aef7-1ab52dad37b0","system_id":"levelo_inurba_marseille","lat":43.299222,"lon":5.365554,"is_reserved":false,"is_disabled":false,"rental_uris":{"android":"levelo://app?vid=2bb6c05f-9ceb-49dd-aef7-1ab52dad37b0","ios":"levelo://app?vid=2bb6c05f-9ceb-49dd-aef7-1ab52dad37b0"},"vehicle_type_id":"4","last_reported":1706900863,"current_range_meters":0,"station_id":"ce4bgm92rcd13ifvqbr0","pricing_plan_id":"free"},{"bike_id":"78f1592f-2ad2-48c4-9966-8ddcde295238","system_id":"levelo_inurba_marseille","lat":43.311722,"lon":5.387247,"is_reserved":false,"is_disabled":false,"rental_uris":{"android":"levelo://app?vid=78f1592f-2ad2-48c4-9966-8ddcde295238","ios":"levelo://app?vid=78f1592f-2ad2-48c4-9966-8ddcde295238"},"vehicle_type_id":"4","last_reported":1706900863,"current_range_meters":1600,"station_id":"ce4bgv12rcd13ifvqcp0","pricing_plan_id":"free"},{"bike_id":"c8fac308-3580-47a2-8720-0f95cdb6e545","system_id":"levelo_inurba_marseille","lat":43.311722,"lon":5.387247,"is_reserved":false,"is_disabled":false,"rental_uris":{"android":"levelo://app?vid=c8fac308-3580-47a2-8720-0f95cdb6e545","ios":"levelo://app?vid=c8fac308-3580-47a2-8720-0f95cdb6e545"},"vehicle_type_id":"4","last_reported":1706900863,"current_range_meters":14400,"station_id":"ce4bgv12rcd13ifvqcp0","pricing_plan_id":"free"},{"bike_id":"8214b77a-081d-4f0b-b207-1c579ac21a21","system_id":"levelo_inurba_marseille","lat":43.311713,"lon":5.387247,"is_reserved":false,"is_disabled":false,"rental_uris":{"android":"levelo://app?vid=8214b77a-081d-4f0b-b207-1c579ac21a21","ios":"levelo://app?vid=8214b77a-081d-4f0b-b207-1c579ac21a21"},"vehicle_type_id":"4","last_reported":1706900863,"current_range_meters":4000,"station_id":"ce4bgv12rcd13ifvqcp0","pricing_plan_id":"free"},{"bike_id":"fa932f8f-fcac-420c-8595-9eaed6f9528b","system_id":"levelo_inurba_marseille","lat":43.31168,"lon":5.38727,"is_reserved":false,"is_disabled":false,"rental_uris":{"android":"levelo://app?vid=fa932f8f-fcac-420c-8595-9eaed6f9528b","ios":"levelo://app?vid=fa932f8f-fcac-420c-8595-9eaed6f9528b"},"vehicle_type_id":"4","last_reported":1706900863,"current_range_meters":15600,"station_id":"ce4bgv12rcd13ifvqcp0","pricing_plan_id":"free"},{"bike_id":"e544a8cb-9126-4c85-a57a-b40c62ba6606","system_id":"levelo_inurba_marseille","lat":43.31172,"lon":5.38728,"is_reserved":false,"is_disabled":false,"rental_uris":{"android":"levelo://app?vid=e544a8cb-9126-4c85-a57a-b40c62ba6606","ios":"levelo://app?vid=e544a8cb-9126-4c85-a57a-b40c62ba6606"},"vehicle_type_id":"4","last_reported":1706900863,"current_range_meters":13200,"station_id":"ce4bgv12rcd13ifvqcp0","pricing_plan_id":"free"},{"bike_id":"b5d7b2cb-266e-4133-b32f-f491e5a88e3f","system_id":"levelo_inurba_marseille","lat":43.32288,"lon":5.38266,"is_reserved":false,"is_disabled":false,"rental_uris":{"android":"levelo://app?vid=b5d7b2cb-266e-4133-b32f-f491e5a88e3f","ios":"levelo://app?vid=b5d7b2cb-266e-4133-b32f-f491e5a88e3f"},"vehicle_type_id":"4","last_reported":1706900863,"current_range_meters":15200,"station_id":"ce4bhr12rcd13ifvqhqg","pricing_plan_id":"free"},{"bike_id":"02e37b27-5863-4c78-9d44-465544029690","system_id":"levelo_inurba_marseille","lat":43.322872,"lon":5.382756,"is_reserved":false,"is_disabled":false,"rental_uris":{"android":"levelo://app?vid=02e37b27-5863-4c78-9d44-465544029690","ios":"levelo://app?vid=02e37b27-5863-4c78-9d44-465544029690"},"vehicle_type_id":"4","last_reported":1706900863,"current_range_meters":2800,"station_id":"ce4bhr12rcd13ifvqhqg","pricing_plan_id":"free"},{"bike_id":"65cdfc14-d57a-452e-8dc5-c02b0bdb56dd","system_id":"levelo_inurba_marseille","lat":43.322872,"lon":5.382756,"is_reserved":false,"is_disabled":false,"rental_uris":{"android":"levelo://app?vid=65cdfc14-d57a-452e-8dc5-c02b0bdb56dd","ios":"levelo://app?vid=65cdfc14-d57a-452e-8dc5-c02b0bdb56dd"},"vehicle_type_id":"4","last_reported":1706900863,"current_range_meters":30400,"station_id":"ce4bhr12rcd13ifvqhqg","pricing_plan_id":"free"},{"bike_id":"1900e2ea-9239-49b1-933e-57903fa99707","system_id":"levelo_inurba_marseille","lat":43.32826,"lon":5.36695,"is_reserved":false,"is_disabled":false,"rental_uris":{"android":"levelo://app?vid=1900e2ea-9239-49b1-933e-57903fa99707","ios":"levelo://app?vid=1900e2ea-9239-49b1-933e-57903fa99707"},"vehicle_type_id":"4","last_reported":1706900863,"current_range_meters":17600,"station_id":"ce4bhs92rcd13ifvqi0g","pricing_plan_id":"free"},{"bike_id":"9e056fb8-faee-4710-9ebd-1a2a679952a7","system_id":"levelo_inurba_marseille","lat":43.297163,"lon":5.365866,"is_reserved":false,"is_disabled":false,"rental_uris":{"android":"levelo://app?vid=9e056fb8-faee-4710-9ebd-1a2a679952a7","ios":"levelo://app?vid=9e056fb8-faee-4710-9ebd-1a2a679952a7"},"vehicle_type_id":"4","last_reported":1706900863,"current_range_meters":13600,"station_id":"ce4bgn12rcd13ifvqbt0","pricing_plan_id":"free"},{"bike_id":"5b53c538-2be4-45ba-b679-8395c99053f0","system_id":"levelo_inurba_marseille","lat":43.297163,"lon":5.365866,"is_reserved":false,"is_disabled":false,"rental_uris":{"android":"levelo://app?vid=5b53c538-2be4-45ba-b679-8395c99053f0","ios":"levelo://app?vid=5b53c538-2be4-45ba-b679-8395c99053f0"},"vehicle_type_id":"4","last_reported":1706900863,"current_range_meters":4800,"station_id":"ce4bgn12rcd13ifvqbt0","pricing_plan_id":"free"},{"bike_id":"a291e153-b18f-42fb-8abf-86c36f8f027c","system_id":"levelo_inurba_marseille","lat":43.32234,"lon":5.38549,"is_reserved":false,"is_disabled":false,"rental_uris":{"android":"levelo://app?vid=a291e153-b18f-42fb-8abf-86c36f8f027c","ios":"levelo://app?vid=a291e153-b18f-42fb-8abf-86c36f8f027c"},"vehicle_type_id":"4","last_reported":1706900863,"current_range_meters":27600,"station_id":"","pricing_plan_id":"free"},{"bike_id":"d3a9d48d-158c-45f5-9b28-f40722a2fe76","system_id":"levelo_inurba_marseille","lat":43.29573,"lon":5.367355,"is_reserved":false,"is_disabled":false,"rental_uris":{"android":"levelo://app?vid=d3a9d48d-158c-45f5-9b28-f40722a2fe76","ios":"levelo://app?vid=d3a9d48d-158c-45f5-9b28-f40722a2fe76"},"vehicle_type_id":"4","last_reported":1706900863,"current_range_meters":22800,"station_id":"ce4bgph2rcd13ifvqc2g","pricing_plan_id":"free"},{"bike_id":"6bd28e52-985f-4426-b7a5-dd3644503d35","system_id":"levelo_inurba_marseille","lat":43.30948,"lon":5.39021,"is_reserved":false,"is_disabled":false,"rental_uris":{"android":"levelo://app?vid=6bd28e52-985f-4426-b7a5-dd3644503d35","ios":"levelo://app?vid=6bd28e52-985f-4426-b7a5-dd3644503d35"},"vehicle_type_id":"4","last_reported":1706900863,"current_range_meters":15600,"station_id":"ce4bgup2rcd13ifvqco0","pricing_plan_id":"free"},{"bike_id":"e2c975c1-8ff7-410f-8bb3-35cf2b9c5d3d","system_id":"levelo_inurba_marseille","lat":43.30958,"lon":5.39027,"is_reserved":false,"is_disabled":false,"rental_uris":{"android":"levelo://app?vid=e2c975c1-8ff7-410f-8bb3-35cf2b9c5d3d","ios":"levelo://app?vid=e2c975c1-8ff7-410f-8bb3-35cf2b9c5d3d"},"vehicle_type_id":"4","last_reported":1706900863,"current_range_meters":0,"station_id":"ce4bgup2rcd13ifvqco0","pricing_plan_id":"free"},{"bike_id":"19d2e194-ff80-43a6-8766-fef1fccf9b35","system_id":"levelo_inurba_marseille","lat":43.309589,"lon":5.390258,"is_reserved":false,"is_disabled":false,"rental_uris":{"android":"levelo://app?vid=19d2e194-ff80-43a6-8766-fef1fccf9b35","ios":"levelo://app?vid=19d2e194-ff80-43a6-8766-fef1fccf9b35"},"vehicle_type_id":"4","last_reported":1706900863,"current_range_meters":1200,"station_id":"ce4bgup2rcd13ifvqco0","pricing_plan_id":"free"},{"bike_id":"806d7b33-d00e-4648-a594-ae42568427dc","system_id":"levelo_inurba_marseille","lat":43.309589,"lon":5.390258,"is_reserved":false,"is_disabled":false,"rental_uris":{"android":"levelo://app?vid=806d7b33-d00e-4648-a594-ae42568427dc","ios":"levelo://app?vid=806d7b33-d00e-4648-a594-ae42568427dc"},"vehicle_type_id":"4","last_reported":1706900863,"current_range_meters":10800,"station_id":"ce4bgup2rcd13ifvqco0","pricing_plan_id":"free"},{"bike_id":"fa26cb75-1aee-4492-8554-1dea9d009aff","system_id":"levelo_inurba_marseille","lat":43.309589,"lon":5.390258,"is_reserved":false,"is_disabled":false,"rental_uris":{"android":"levelo://app?vid=fa26cb75-1aee-4492-8554-1dea9d009aff","ios":"levelo://app?vid=fa26cb75-1aee-4492-8554-1dea9d009aff"},"vehicle_type_id":"4","last_reported":1706900863,"current_range_meters":12400,"station_id":"ce4bgup2rcd13ifvqco0","pricing_plan_id":"free"},{"bike_id":"9ba5610c-4fb5-4d57-af7d-5533cda20830","system_id":"levelo_inurba_marseille","lat":43.309589,"lon":5.390258,"is_reserved":false,"is_disabled":false,"rental_uris":{"android":"levelo://app?vid=9ba5610c-4fb5-4d57-af7d-5533cda20830","ios":"levelo://app?vid=9ba5610c-4fb5-4d57-af7d-5533cda20830"},"vehicle_type_id":"4","last_reported":1706900863,"current_range_meters":2400,"station_id":"ce4bgup2rcd13ifvqco0","pricing_plan_id":"free"},{"bike_id":"c93e31f4-c333-44e1-9dc4-c4e38eb4d1b3","system_id":"levelo_inurba_marseille","lat":43.309589,"lon":5.390258,"is_reserved":false,"is_disabled":false,"rental_uris":{"android":"levelo://app?vid=c93e31f4-c333-44e1-9dc4-c4e38eb4d1b3","ios":"levelo://app?vid=c93e31f4-c333-44e1-9dc4-c4e38eb4d1b3"},"vehicle_type_id":"4","last_reported":1706900863,"current_range_meters":11200,"station_id":"ce4bgup2rcd13ifvqco0","pricing_plan_id":"free"},{"bike_id":"ff6fce0f-48bd-4468-9e95-17203171ab9c","system_id":"levelo_inurba_marseille","lat":43.30961,"lon":5.39051,"is_reserved":false,"is_disabled":false,"rental_uris":{"android":"levelo://app?vid=ff6fce0f-48bd-4468-9e95-17203171ab9c","ios":"levelo://app?vid=ff6fce0f-48bd-4468-9e95-17203171ab9c"},"vehicle_type_id":"4","last_reported":1706900863,"current_range_meters":3200,"station_id":"ce4bgup2rcd13ifvqco0","pricing_plan_id":"free"},{"bike_id":"6a7c553e-ebd1-4bc3-8a2a-4b3a3268d060","system_id":"levelo_inurba_marseille","lat":43.317557,"lon":5.390173,"is_reserved":false,"is_disabled":false,"rental_uris":{"android":"levelo://app?vid=6a7c553e-ebd1-4bc3-8a2a-4b3a3268d060","ios":"levelo://app?vid=6a7c553e-ebd1-4bc3-8a2a-4b3a3268d060"},"vehicle_type_id":"4","last_reported":1706900863,"current_range_meters":19600,"station_id":"ce4bhqp2rcd13ifvqhng","pricing_plan_id":"free"},{"bike_id":"6717cb07-a2bf-46d1-ba83-09e9386dc5e6","system_id":"levelo_inurba_marseille","lat":43.317557,"lon":5.390173,"is_reserved":false,"is_disabled":false,"rental_uris":{"android":"levelo://app?vid=6717cb07-a2bf-46d1-ba83-09e9386dc5e6","ios":"levelo://app?vid=6717cb07-a2bf-46d1-ba83-09e9386dc5e6"},"vehicle_type_id":"4","last_reported":1706900863,"current_range_meters":24000,"station_id":"ce4bhqp2rcd13ifvqhng","pricing_plan_id":"free"},{"bike_id":"419f9f4e-2316-470b-8561-6bfa5f340ab0","system_id":"levelo_inurba_marseille","lat":43.317557,"lon":5.390173,"is_reserved":false,"is_disabled":false,"rental_uris":{"android":"levelo://app?vid=419f9f4e-2316-470b-8561-6bfa5f340ab0","ios":"levelo://app?vid=419f9f4e-2316-470b-8561-6bfa5f340ab0"},"vehicle_type_id":"4","last_reported":1706900863,"current_range_meters":21200,"station_id":"ce4bhqp2rcd13ifvqhng","pricing_plan_id":"free"},{"bike_id":"a58d93ca-bdc9-4969-ad76-287ea92adedb","system_id":"levelo_inurba_marseille","lat":43.317557,"lon":5.390173,"is_reserved":false,"is_disabled":false,"rental_uris":{"android":"levelo://app?vid=a58d93ca-bdc9-4969-ad76-287ea92adedb","ios":"levelo://app?vid=a58d93ca-bdc9-4969-ad76-287ea92adedb"},"vehicle_type_id":"4","last_reported":1706900863,"current_range_meters":30400,"station_id":"ce4bhqp2rcd13ifvqhng","pricing_plan_id":"free"},{"bike_id":"106fe314-0813-4817-8722-724f217949ab","system_id":"levelo_inurba_marseille","lat":43.317557,"lon":5.390173,"is_reserved":false,"is_disabled":false,"rental_uris":{"android":"levelo://app?vid=106fe314-0813-4817-8722-724f217949ab","ios":"levelo://app?vid=106fe314-0813-4817-8722-724f217949ab"},"vehicle_type_id":"4","last_reported":1706900863,"current_range_meters":27600,"station_id":"ce4bhqp2rcd13ifvqhng","pricing_plan_id":"free"},{"bike_id":"aaee9df6-2bd3-419f-9a0a-fb04ee96325a","system_id":"levelo_inurba_marseille","lat":43.317557,"lon":5.390173,"is_reserved":false,"is_disabled":false,"rental_uris":{"android":"levelo://app?vid=aaee9df6-2bd3-419f-9a0a-fb04ee96325a","ios":"levelo://app?vid=aaee9df6-2bd3-419f-9a0a-fb04ee96325a"},"vehicle_type_id":"4","last_reported":1706900863,"current_range_meters":31600,"station_id":"ce4bhqp2rcd13ifvqhng","pricing_plan_id":"free"},{"bike_id":"cdd0a5e1-97e9-4609-aa8c-b9db9e70b7f9","system_id":"levelo_inurba_marseille","lat":43.317557,"lon":5.390173,"is_reserved":false,"is_disabled":false,"rental_uris":{"android":"levelo://app?vid=cdd0a5e1-97e9-4609-aa8c-b9db9e70b7f9","ios":"levelo://app?vid=cdd0a5e1-97e9-4609-aa8c-b9db9e70b7f9"},"vehicle_type_id":"4","last_reported":1706900863,"current_range_meters":18000,"station_id":"ce4bhqp2rcd13ifvqhng","pricing_plan_id":"free"},{"bike_id":"a8ac6fe1-b769-4547-943b-3ba52c58658c","system_id":"levelo_inurba_marseille","lat":43.293009,"lon":5.374584,"is_reserved":false,"is_disabled":false,"rental_uris":{"android":"levelo://app?vid=a8ac6fe1-b769-4547-943b-3ba52c58658c","ios":"levelo://app?vid=a8ac6fe1-b769-4547-943b-3ba52c58658c"},"vehicle_type_id":"4","last_reported":1706900863,"current_range_meters":27200,"station_id":"ce4bgi12rcd13ifvqb70","pricing_plan_id":"free"},{"bike_id":"86eba5ee-3f3e-465e-879d-a26eca611b6f","system_id":"levelo_inurba_marseille","lat":43.319135,"lon":5.389875,"is_reserved":false,"is_disabled":false,"rental_uris":{"android":"levelo://app?vid=86eba5ee-3f3e-465e-879d-a26eca611b6f","ios":"levelo://app?vid=86eba5ee-3f3e-465e-879d-a26eca611b6f"},"vehicle_type_id":"4","last_reported":1706900863,"current_range_meters":24800,"station_id":"","pricing_plan_id":"free"},{"bike_id":"3ac09f31-bb30-46ce-92ed-4bcf957891a5","system_id":"levelo_inurba_marseille","lat":43.304274,"lon":5.388873,"is_reserved":false,"is_disabled":false,"rental_uris":{"android":"levelo://app?vid=3ac09f31-bb30-46ce-92ed-4bcf957891a5","ios":"levelo://app?vid=3ac09f31-bb30-46ce-92ed-4bcf957891a5"},"vehicle_type_id":"4","last_reported":1706900863,"current_range_meters":2000,"station_id":"ce4bgk12rcd13ifvqbi0","pricing_plan_id":"free"},{"bike_id":"8e6f7710-3edd-4701-ab3b-0c92b554092b","system_id":"levelo_inurba_marseille","lat":43.29574,"lon":5.37513,"is_reserved":false,"is_disabled":false,"rental_uris":{"android":"levelo://app?vid=8e6f7710-3edd-4701-ab3b-0c92b554092b","ios":"levelo://app?vid=8e6f7710-3edd-4701-ab3b-0c92b554092b"},"vehicle_type_id":"4","last_reported":1706900863,"current_range_meters":0,"station_id":"ce4bgh92rcd13ifvqb50","pricing_plan_id":"free"},{"bike_id":"91670881-d2b5-4b8d-bfc9-e6c9726e59d8","system_id":"levelo_inurba_marseille","lat":43.304274,"lon":5.388873,"is_reserved":false,"is_disabled":false,"rental_uris":{"android":"levelo://app?vid=91670881-d2b5-4b8d-bfc9-e6c9726e59d8","ios":"levelo://app?vid=91670881-d2b5-4b8d-bfc9-e6c9726e59d8"},"vehicle_type_id":"4","last_reported":1706900863,"current_range_meters":1200,"station_id":"ce4bgk12rcd13ifvqbi0","pricing_plan_id":"free"},{"bike_id":"43884d9f-a41d-4f15-869c-9f31f088da41","system_id":"levelo_inurba_marseille","lat":43.304278,"lon":5.388868,"is_reserved":false,"is_disabled":false,"rental_uris":{"android":"levelo://app?vid=43884d9f-a41d-4f15-869c-9f31f088da41","ios":"levelo://app?vid=43884d9f-a41d-4f15-869c-9f31f088da41"},"vehicle_type_id":"4","last_reported":1706900863,"current_range_meters":5200,"station_id":"ce4bgk12rcd13ifvqbi0","pricing_plan_id":"free"},{"bike_id":"7f1668b0-3a18-41eb-af10-3c312848ea73","system_id":"levelo_inurba_marseille","lat":43.304274,"lon":5.388873,"is_reserved":false,"is_disabled":false,"rental_uris":{"android":"levelo://app?vid=7f1668b0-3a18-41eb-af10-3c312848ea73","ios":"levelo://app?vid=7f1668b0-3a18-41eb-af10-3c312848ea73"},"vehicle_type_id":"4","last_reported":1706900863,"current_range_meters":4800,"station_id":"ce4bgk12rcd13ifvqbi0","pricing_plan_id":"free"},{"bike_id":"f65176df-2b53-456f-a30f-00dd6bf5c784","system_id":"levelo_inurba_marseille","lat":43.296263,"lon":5.377094,"is_reserved":false,"is_disabled":false,"rental_uris":{"android":"levelo://app?vid=f65176df-2b53-456f-a30f-00dd6bf5c784","ios":"levelo://app?vid=f65176df-2b53-456f-a30f-00dd6bf5c784"},"vehicle_type_id":"4","last_reported":1706900863,"current_range_meters":1200,"station_id":"ce4bgi92rcd13ifvqb90","pricing_plan_id":"free"},{"bike_id":"c451aee0-758a-48a5-8ecf-5af91434f134","system_id":"levelo_inurba_marseille","lat":43.304278,"lon":5.388868,"is_reserved":false,"is_disabled":false,"rental_uris":{"android":"levelo://app?vid=c451aee0-758a-48a5-8ecf-5af91434f134","ios":"levelo://app?vid=c451aee0-758a-48a5-8ecf-5af91434f134"},"vehicle_type_id":"4","last_reported":1706900863,"current_range_meters":5200,"station_id":"ce4bgk12rcd13ifvqbi0","pricing_plan_id":"free"},{"bike_id":"6e85a57e-b6ec-4b5b-a20b-5c2451dba068","system_id":"levelo_inurba_marseille","lat":43.30438,"lon":5.38905,"is_reserved":false,"is_disabled":false,"rental_uris":{"android":"levelo://app?vid=6e85a57e-b6ec-4b5b-a20b-5c2451dba068","ios":"levelo://app?vid=6e85a57e-b6ec-4b5b-a20b-5c2451dba068"},"vehicle_type_id":"4","last_reported":1706900863,"current_range_meters":0,"station_id":"ce4bgk12rcd13ifvqbi0","pricing_plan_id":"free"},{"bike_id":"c1408e1f-6c93-4d14-9560-832c16cb1ba0","system_id":"levelo_inurba_marseille","lat":43.295748,"lon":5.37522,"is_reserved":false,"is_disabled":false,"rental_uris":{"android":"levelo://app?vid=c1408e1f-6c93-4d14-9560-832c16cb1ba0","ios":"levelo://app?vid=c1408e1f-6c93-4d14-9560-832c16cb1ba0"},"vehicle_type_id":"4","last_reported":1706900863,"current_range_meters":0,"station_id":"ce4bgh92rcd13ifvqb50","pricing_plan_id":"free"},{"bike_id":"6cace00d-6777-4858-af23-ff43d9cb211e","system_id":"levelo_inurba_marseille","lat":43.313291,"lon":5.396838,"is_reserved":false,"is_disabled":false,"rental_uris":{"android":"levelo://app?vid=6cace00d-6777-4858-af23-ff43d9cb211e","ios":"levelo://app?vid=6cace00d-6777-4858-af23-ff43d9cb211e"},"vehicle_type_id":"4","last_reported":1706900863,"current_range_meters":8400,"station_id":"ce4bgvp2rcd13ifvqcu0","pricing_plan_id":"free"},{"bike_id":"2f639903-b097-46b0-8494-0017af56b0e6","system_id":"levelo_inurba_marseille","lat":43.32364,"lon":5.38874,"is_reserved":false,"is_disabled":false,"rental_uris":{"android":"levelo://app?vid=2f639903-b097-46b0-8494-0017af56b0e6","ios":"levelo://app?vid=2f639903-b097-46b0-8494-0017af56b0e6"},"vehicle_type_id":"4","last_reported":1706900863,"current_range_meters":21200,"station_id":"ce4bhqp2rcd13ifvqhog","pricing_plan_id":"free"},{"bike_id":"67d49ac5-1f02-4459-b787-ad82d964cdfa","system_id":"levelo_inurba_marseille","lat":43.32361,"lon":5.38877,"is_reserved":false,"is_disabled":false,"rental_uris":{"android":"levelo://app?vid=67d49ac5-1f02-4459-b787-ad82d964cdfa","ios":"levelo://app?vid=67d49ac5-1f02-4459-b787-ad82d964cdfa"},"vehicle_type_id":"4","last_reported":1706900863,"current_range_meters":0,"station_id":"ce4bhqp2rcd13ifvqhog","pricing_plan_id":"free"},{"bike_id":"a763ba73-be1b-47fe-b1b9-a14bd81f3a01","system_id":"levelo_inurba_marseille","lat":43.32367,"lon":5.388836,"is_reserved":false,"is_disabled":false,"rental_uris":{"android":"levelo://app?vid=a763ba73-be1b-47fe-b1b9-a14bd81f3a01","ios":"levelo://app?vid=a763ba73-be1b-47fe-b1b9-a14bd81f3a01"},"vehicle_type_id":"4","last_reported":1706900863,"current_range_meters":23200,"station_id":"ce4bhqp2rcd13ifvqhog","pricing_plan_id":"free"},{"bike_id":"f0c7a271-34e7-485e-b3da-5e19394fe417","system_id":"levelo_inurba_marseille","lat":43.32364,"lon":5.38876,"is_reserved":false,"is_disabled":false,"rental_uris":{"android":"levelo://app?vid=f0c7a271-34e7-485e-b3da-5e19394fe417","ios":"levelo://app?vid=f0c7a271-34e7-485e-b3da-5e19394fe417"},"vehicle_type_id":"4","last_reported":1706900863,"current_range_meters":4800,"station_id":"ce4bhqp2rcd13ifvqhog","pricing_plan_id":"free"},{"bike_id":"2867005b-b9b0-4312-8b91-edb88d7a8842","system_id":"levelo_inurba_marseille","lat":43.32367,"lon":5.38876,"is_reserved":false,"is_disabled":false,"rental_uris":{"android":"levelo://app?vid=2867005b-b9b0-4312-8b91-edb88d7a8842","ios":"levelo://app?vid=2867005b-b9b0-4312-8b91-edb88d7a8842"},"vehicle_type_id":"4","last_reported":1706900863,"current_range_meters":400,"station_id":"ce4bhqp2rcd13ifvqhog","pricing_plan_id":"free"},{"bike_id":"1aca591f-66c1-4cab-8b35-fdb227e8bbbc","system_id":"levelo_inurba_marseille","lat":43.32367,"lon":5.388836,"is_reserved":false,"is_disabled":false,"rental_uris":{"android":"levelo://app?vid=1aca591f-66c1-4cab-8b35-fdb227e8bbbc","ios":"levelo://app?vid=1aca591f-66c1-4cab-8b35-fdb227e8bbbc"},"vehicle_type_id":"4","last_reported":1706900863,"current_range_meters":1200,"station_id":"ce4bhqp2rcd13ifvqhog","pricing_plan_id":"free"},{"bike_id":"e3ee28ba-cab5-40e7-ba5c-728151521cef","system_id":"levelo_inurba_marseille","lat":43.323637,"lon":5.388802,"is_reserved":false,"is_disabled":false,"rental_uris":{"android":"levelo://app?vid=e3ee28ba-cab5-40e7-ba5c-728151521cef","ios":"levelo://app?vid=e3ee28ba-cab5-40e7-ba5c-728151521cef"},"vehicle_type_id":"4","last_reported":1706900863,"current_range_meters":11600,"station_id":"ce4bhqp2rcd13ifvqhog","pricing_plan_id":"free"},{"bike_id":"81b0db2a-d7d3-47f0-a95d-ba7da6ca0e0e","system_id":"levelo_inurba_marseille","lat":43.32365,"lon":5.38882,"is_reserved":false,"is_disabled":false,"rental_uris":{"android":"levelo://app?vid=81b0db2a-d7d3-47f0-a95d-ba7da6ca0e0e","ios":"levelo://app?vid=81b0db2a-d7d3-47f0-a95d-ba7da6ca0e0e"},"vehicle_type_id":"4","last_reported":1706900863,"current_range_meters":400,"station_id":"ce4bhqp2rcd13ifvqhog","pricing_plan_id":"free"},{"bike_id":"80aebc65-9276-4106-9147-2143e4c2833e","system_id":"levelo_inurba_marseille","lat":43.323651,"lon":5.388822,"is_reserved":false,"is_disabled":false,"rental_uris":{"android":"levelo://app?vid=80aebc65-9276-4106-9147-2143e4c2833e","ios":"levelo://app?vid=80aebc65-9276-4106-9147-2143e4c2833e"},"vehicle_type_id":"4","last_reported":1706900863,"current_range_meters":10800,"station_id":"ce4bhqp2rcd13ifvqhog","pricing_plan_id":"free"},{"bike_id":"522745f2-6505-4a93-9a55-5c66eaece61d","system_id":"levelo_inurba_marseille","lat":43.32366,"lon":5.38884,"is_reserved":false,"is_disabled":false,"rental_uris":{"android":"levelo://app?vid=522745f2-6505-4a93-9a55-5c66eaece61d","ios":"levelo://app?vid=522745f2-6505-4a93-9a55-5c66eaece61d"},"vehicle_type_id":"4","last_reported":1706900863,"current_range_meters":5600,"station_id":"ce4bhqp2rcd13ifvqhog","pricing_plan_id":"free"},{"bike_id":"e512050a-6529-4225-a927-b67d6c06029f","system_id":"levelo_inurba_marseille","lat":43.323694,"lon":5.388812,"is_reserved":false,"is_disabled":false,"rental_uris":{"android":"levelo://app?vid=e512050a-6529-4225-a927-b67d6c06029f","ios":"levelo://app?vid=e512050a-6529-4225-a927-b67d6c06029f"},"vehicle_type_id":"4","last_reported":1706900863,"current_range_meters":0,"station_id":"ce4bhqp2rcd13ifvqhog","pricing_plan_id":"free"},{"bike_id":"56f3b6df-cede-44fd-a0c1-6ccbe3836656","system_id":"levelo_inurba_marseille","lat":43.323656,"lon":5.38885,"is_reserved":false,"is_disabled":false,"rental_uris":{"android":"levelo://app?vid=56f3b6df-cede-44fd-a0c1-6ccbe3836656","ios":"levelo://app?vid=56f3b6df-cede-44fd-a0c1-6ccbe3836656"},"vehicle_type_id":"4","last_reported":1706900863,"current_range_meters":4800,"station_id":"ce4bhqp2rcd13ifvqhog","pricing_plan_id":"free"},{"bike_id":"cabe25cb-ec0b-4dc3-8feb-44741e6dd484","system_id":"levelo_inurba_marseille","lat":43.323646,"lon":5.388865,"is_reserved":false,"is_disabled":false,"rental_uris":{"android":"levelo://app?vid=cabe25cb-ec0b-4dc3-8feb-44741e6dd484","ios":"levelo://app?vid=cabe25cb-ec0b-4dc3-8feb-44741e6dd484"},"vehicle_type_id":"4","last_reported":1706900863,"current_range_meters":6800,"station_id":"ce4bhqp2rcd13ifvqhog","pricing_plan_id":"free"},{"bike_id":"13b9c551-9d4a-4e3d-8b94-3ec930896106","system_id":"levelo_inurba_marseille","lat":43.32368,"lon":5.38891,"is_reserved":false,"is_disabled":false,"rental_uris":{"android":"levelo://app?vid=13b9c551-9d4a-4e3d-8b94-3ec930896106","ios":"levelo://app?vid=13b9c551-9d4a-4e3d-8b94-3ec930896106"},"vehicle_type_id":"4","last_reported":1706900863,"current_range_meters":2800,"station_id":"ce4bhqp2rcd13ifvqhog","pricing_plan_id":"free"},{"bike_id":"9a5304b2-5a9e-42b4-be4a-6f6115ae3aa1","system_id":"levelo_inurba_marseille","lat":43.296052,"lon":5.381118,"is_reserved":false,"is_disabled":false,"rental_uris":{"android":"levelo://app?vid=9a5304b2-5a9e-42b4-be4a-6f6115ae3aa1","ios":"levelo://app?vid=9a5304b2-5a9e-42b4-be4a-6f6115ae3aa1"},"vehicle_type_id":"4","last_reported":1706900863,"current_range_meters":0,"station_id":"ce4bgl12rcd13ifvqbo0","pricing_plan_id":"free"},{"bike_id":"d25734e4-3706-4f51-992e-e42fa23c9ed5","system_id":"levelo_inurba_marseille","lat":43.295889,"lon":5.381034,"is_reserved":false,"is_disabled":false,"rental_uris":{"android":"levelo://app?vid=d25734e4-3706-4f51-992e-e42fa23c9ed5","ios":"levelo://app?vid=d25734e4-3706-4f51-992e-e42fa23c9ed5"},"vehicle_type_id":"4","last_reported":1706900863,"current_range_meters":0,"station_id":"ce4bgl12rcd13ifvqbo0","pricing_plan_id":"free"},{"bike_id":"a6f381ce-6553-46da-9230-a0b624101b04","system_id":"levelo_inurba_marseille","lat":43.293259,"lon":5.371586,"is_reserved":false,"is_disabled":false,"rental_uris":{"android":"levelo://app?vid=a6f381ce-6553-46da-9230-a0b624101b04","ios":"levelo://app?vid=a6f381ce-6553-46da-9230-a0b624101b04"},"vehicle_type_id":"4","last_reported":1706900863,"current_range_meters":0,"station_id":"ce4bgh92rcd13ifvqb40","pricing_plan_id":"free"},{"bike_id":"4e753bd1-12ea-432f-8428-a693112b26f2","system_id":"levelo_inurba_marseille","lat":43.293009,"lon":5.374584,"is_reserved":false,"is_disabled":false,"rental_uris":{"android":"levelo://app?vid=4e753bd1-12ea-432f-8428-a693112b26f2","ios":"levelo://app?vid=4e753bd1-12ea-432f-8428-a693112b26f2"},"vehicle_type_id":"4","last_reported":1706900863,"current_range_meters":29200,"station_id":"ce4bgi12rcd13ifvqb70","pricing_plan_id":"free"},{"bike_id":"e4b233f0-aa97-4c46-9627-14ce58034af0","system_id":"levelo_inurba_marseille","lat":43.292749,"lon":5.368402,"is_reserved":false,"is_disabled":false,"rental_uris":{"android":"levelo://app?vid=e4b233f0-aa97-4c46-9627-14ce58034af0","ios":"levelo://app?vid=e4b233f0-aa97-4c46-9627-14ce58034af0"},"vehicle_type_id":"4","last_reported":1706900863,"current_range_meters":20000,"station_id":"ce4bhbp2rcd13ifvqesg","pricing_plan_id":"free"},{"bike_id":"d0ff51d5-bf94-452f-8dca-acd118964a9b","system_id":"levelo_inurba_marseille","lat":43.2931,"lon":5.37172,"is_reserved":false,"is_disabled":false,"rental_uris":{"android":"levelo://app?vid=d0ff51d5-bf94-452f-8dca-acd118964a9b","ios":"levelo://app?vid=d0ff51d5-bf94-452f-8dca-acd118964a9b"},"vehicle_type_id":"4","last_reported":1706900863,"current_range_meters":5200,"station_id":"ce4bgh92rcd13ifvqb40","pricing_plan_id":"free"},{"bike_id":"72fc857c-5b97-4664-83e7-bfe64c1e540f","system_id":"levelo_inurba_marseille","lat":43.293259,"lon":5.371586,"is_reserved":false,"is_disabled":false,"rental_uris":{"android":"levelo://app?vid=72fc857c-5b97-4664-83e7-bfe64c1e540f","ios":"levelo://app?vid=72fc857c-5b97-4664-83e7-bfe64c1e540f"},"vehicle_type_id":"4","last_reported":1706900863,"current_range_meters":14000,"station_id":"ce4bgh92rcd13ifvqb40","pricing_plan_id":"free"},{"bike_id":"1f2f4665-cd92-42b5-b375-be44760fab3d","system_id":"levelo_inurba_marseille","lat":43.29305,"lon":5.37165,"is_reserved":false,"is_disabled":false,"rental_uris":{"android":"levelo://app?vid=1f2f4665-cd92-42b5-b375-be44760fab3d","ios":"levelo://app?vid=1f2f4665-cd92-42b5-b375-be44760fab3d"},"vehicle_type_id":"4","last_reported":1706900863,"current_range_meters":1600,"station_id":"ce4bgh92rcd13ifvqb40","pricing_plan_id":"free"},{"bike_id":"93c7e884-5901-407f-ba8a-2a952ca5d889","system_id":"levelo_inurba_marseille","lat":43.29304,"lon":5.37162,"is_reserved":false,"is_disabled":false,"rental_uris":{"android":"levelo://app?vid=93c7e884-5901-407f-ba8a-2a952ca5d889","ios":"levelo://app?vid=93c7e884-5901-407f-ba8a-2a952ca5d889"},"vehicle_type_id":"4","last_reported":1706900863,"current_range_meters":1200,"station_id":"ce4bgh92rcd13ifvqb40","pricing_plan_id":"free"},{"bike_id":"92b5822a-6d74-4770-a85b-fc3ffb7873b7","system_id":"levelo_inurba_marseille","lat":43.298433,"lon":5.362774,"is_reserved":false,"is_disabled":false,"rental_uris":{"android":"levelo://app?vid=92b5822a-6d74-4770-a85b-fc3ffb7873b7","ios":"levelo://app?vid=92b5822a-6d74-4770-a85b-fc3ffb7873b7"},"vehicle_type_id":"4","last_reported":1706900863,"current_range_meters":1600,"station_id":"ce4bgpp2rcd13ifvqc3g","pricing_plan_id":"free"},{"bike_id":"c140909a-f153-44a1-8b51-a40c6f599d8c","system_id":"levelo_inurba_marseille","lat":43.29303,"lon":5.37167,"is_reserved":false,"is_disabled":false,"rental_uris":{"android":"levelo://app?vid=c140909a-f153-44a1-8b51-a40c6f599d8c","ios":"levelo://app?vid=c140909a-f153-44a1-8b51-a40c6f599d8c"},"vehicle_type_id":"4","last_reported":1706900863,"current_range_meters":6400,"station_id":"ce4bgh92rcd13ifvqb40","pricing_plan_id":"free"},{"bike_id":"2b7beecd-0b75-4a03-8fe1-70bdb6b4c019","system_id":"levelo_inurba_marseille","lat":43.292749,"lon":5.368402,"is_reserved":false,"is_disabled":false,"rental_uris":{"android":"levelo://app?vid=2b7beecd-0b75-4a03-8fe1-70bdb6b4c019","ios":"levelo://app?vid=2b7beecd-0b75-4a03-8fe1-70bdb6b4c019"},"vehicle_type_id":"4","last_reported":1706900863,"current_range_meters":3200,"station_id":"ce4bhbp2rcd13ifvqesg","pricing_plan_id":"free"},{"bike_id":"97cfc09a-8091-45f0-992b-4818308e4264","system_id":"levelo_inurba_marseille","lat":43.306271,"lon":5.392973,"is_reserved":false,"is_disabled":false,"rental_uris":{"android":"levelo://app?vid=97cfc09a-8091-45f0-992b-4818308e4264","ios":"levelo://app?vid=97cfc09a-8091-45f0-992b-4818308e4264"},"vehicle_type_id":"4","last_reported":1706900863,"current_range_meters":0,"station_id":"ce4bgup2rcd13ifvqco0","pricing_plan_id":"free"},{"bike_id":"2a844446-6c5d-4e4a-9602-d01b623dba85","system_id":"levelo_inurba_marseille","lat":43.292749,"lon":5.368402,"is_reserved":false,"is_disabled":false,"rental_uris":{"android":"levelo://app?vid=2a844446-6c5d-4e4a-9602-d01b623dba85","ios":"levelo://app?vid=2a844446-6c5d-4e4a-9602-d01b623dba85"},"vehicle_type_id":"4","last_reported":1706900863,"current_range_meters":18800,"station_id":"ce4bhbp2rcd13ifvqesg","pricing_plan_id":"free"},{"bike_id":"e4cca626-7905-47c7-bbaa-8460d2e32bf8","system_id":"levelo_inurba_marseille","lat":43.29303,"lon":5.37192,"is_reserved":false,"is_disabled":false,"rental_uris":{"android":"levelo://app?vid=e4cca626-7905-47c7-bbaa-8460d2e32bf8","ios":"levelo://app?vid=e4cca626-7905-47c7-bbaa-8460d2e32bf8"},"vehicle_type_id":"4","last_reported":1706900863,"current_range_meters":0,"station_id":"ce4bgh92rcd13ifvqb40","pricing_plan_id":"free"},{"bike_id":"1abd116e-ac1b-4149-94b0-014dc493eb52","system_id":"levelo_inurba_marseille","lat":43.292749,"lon":5.368402,"is_reserved":false,"is_disabled":false,"rental_uris":{"android":"levelo://app?vid=1abd116e-ac1b-4149-94b0-014dc493eb52","ios":"levelo://app?vid=1abd116e-ac1b-4149-94b0-014dc493eb52"},"vehicle_type_id":"4","last_reported":1706900863,"current_range_meters":17600,"station_id":"ce4bhbp2rcd13ifvqesg","pricing_plan_id":"free"},{"bike_id":"5b6e4225-d1f0-4762-a5d1-a540fa37e6c9","system_id":"levelo_inurba_marseille","lat":43.292749,"lon":5.368402,"is_reserved":false,"is_disabled":false,"rental_uris":{"android":"levelo://app?vid=5b6e4225-d1f0-4762-a5d1-a540fa37e6c9","ios":"levelo://app?vid=5b6e4225-d1f0-4762-a5d1-a540fa37e6c9"},"vehicle_type_id":"4","last_reported":1706900863,"current_range_meters":10800,"station_id":"ce4bhbp2rcd13ifvqesg","pricing_plan_id":"free"},{"bike_id":"9ffa8d96-0e7f-4588-b025-6311387f91b4","system_id":"levelo_inurba_marseille","lat":43.292636,"lon":5.368421,"is_reserved":false,"is_disabled":false,"rental_uris":{"android":"levelo://app?vid=9ffa8d96-0e7f-4588-b025-6311387f91b4","ios":"levelo://app?vid=9ffa8d96-0e7f-4588-b025-6311387f91b4"},"vehicle_type_id":"4","last_reported":1706900863,"current_range_meters":0,"station_id":"ce4bhbp2rcd13ifvqesg","pricing_plan_id":"free"},{"bike_id":"cbc7d29f-0927-4a90-b42c-19772a31d50c","system_id":"levelo_inurba_marseille","lat":43.29307,"lon":5.37455,"is_reserved":false,"is_disabled":false,"rental_uris":{"android":"levelo://app?vid=cbc7d29f-0927-4a90-b42c-19772a31d50c","ios":"levelo://app?vid=cbc7d29f-0927-4a90-b42c-19772a31d50c"},"vehicle_type_id":"4","last_reported":1706900863,"current_range_meters":1600,"station_id":"ce4bgi12rcd13ifvqb70","pricing_plan_id":"free"},{"bike_id":"1a334e9d-5007-4313-a84a-671b70f3cd46","system_id":"levelo_inurba_marseille","lat":43.2936,"lon":5.37835,"is_reserved":false,"is_disabled":false,"rental_uris":{"android":"levelo://app?vid=1a334e9d-5007-4313-a84a-671b70f3cd46","ios":"levelo://app?vid=1a334e9d-5007-4313-a84a-671b70f3cd46"},"vehicle_type_id":"4","last_reported":1706900863,"current_range_meters":26400,"station_id":"ce4bgjh2rcd13ifvqbf0","pricing_plan_id":"free"},{"bike_id":"3dc68bb5-e0a4-448b-b67a-dffa8e9cb7a4","system_id":"levelo_inurba_marseille","lat":43.29304,"lon":5.37454,"is_reserved":false,"is_disabled":false,"rental_uris":{"android":"levelo://app?vid=3dc68bb5-e0a4-448b-b67a-dffa8e9cb7a4","ios":"levelo://app?vid=3dc68bb5-e0a4-448b-b67a-dffa8e9cb7a4"},"vehicle_type_id":"4","last_reported":1706900863,"current_range_meters":6400,"station_id":"ce4bgi12rcd13ifvqb70","pricing_plan_id":"free"},{"bike_id":"d3cadec9-d8da-4b80-b130-25db0600d25e","system_id":"levelo_inurba_marseille","lat":43.29305,"lon":5.37476,"is_reserved":false,"is_disabled":false,"rental_uris":{"android":"levelo://app?vid=d3cadec9-d8da-4b80-b130-25db0600d25e","ios":"levelo://app?vid=d3cadec9-d8da-4b80-b130-25db0600d25e"},"vehicle_type_id":"4","last_reported":1706900863,"current_range_meters":0,"station_id":"ce4bgi12rcd13ifvqb70","pricing_plan_id":"free"},{"bike_id":"c8424d06-2bb4-4c62-b689-2e3a2e57c6ca","system_id":"levelo_inurba_marseille","lat":43.305994,"lon":5.393687,"is_reserved":false,"is_disabled":false,"rental_uris":{"android":"levelo://app?vid=c8424d06-2bb4-4c62-b689-2e3a2e57c6ca","ios":"levelo://app?vid=c8424d06-2bb4-4c62-b689-2e3a2e57c6ca"},"vehicle_type_id":"4","last_reported":1706900863,"current_range_meters":2800,"station_id":"ce4bh0p2rcd13ifvqd80","pricing_plan_id":"free"},{"bike_id":"7e6db439-387c-4e86-aab4-02e8c05b2712","system_id":"levelo_inurba_marseille","lat":43.293009,"lon":5.374584,"is_reserved":false,"is_disabled":false,"rental_uris":{"android":"levelo://app?vid=7e6db439-387c-4e86-aab4-02e8c05b2712","ios":"levelo://app?vid=7e6db439-387c-4e86-aab4-02e8c05b2712"},"vehicle_type_id":"4","last_reported":1706900863,"current_range_meters":0,"station_id":"ce4bgi12rcd13ifvqb70","pricing_plan_id":"free"},{"bike_id":"62ad3351-1a2e-40ec-b470-12b4e43974fa","system_id":"levelo_inurba_marseille","lat":43.306,"lon":5.39362,"is_reserved":false,"is_disabled":false,"rental_uris":{"android":"levelo://app?vid=62ad3351-1a2e-40ec-b470-12b4e43974fa","ios":"levelo://app?vid=62ad3351-1a2e-40ec-b470-12b4e43974fa"},"vehicle_type_id":"4","last_reported":1706900863,"current_range_meters":4400,"station_id":"ce4bh0p2rcd13ifvqd80","pricing_plan_id":"free"},{"bike_id":"0e18afb0-78ea-4757-a552-554fc453553b","system_id":"levelo_inurba_marseille","lat":43.293009,"lon":5.374584,"is_reserved":false,"is_disabled":false,"rental_uris":{"android":"levelo://app?vid=0e18afb0-78ea-4757-a552-554fc453553b","ios":"levelo://app?vid=0e18afb0-78ea-4757-a552-554fc453553b"},"vehicle_type_id":"4","last_reported":1706900863,"current_range_meters":1600,"station_id":"ce4bgi12rcd13ifvqb70","pricing_plan_id":"free"},{"bike_id":"98f65a5a-81ad-4173-8389-37b8b8f457f8","system_id":"levelo_inurba_marseille","lat":43.293009,"lon":5.374584,"is_reserved":false,"is_disabled":false,"rental_uris":{"android":"levelo://app?vid=98f65a5a-81ad-4173-8389-37b8b8f457f8","ios":"levelo://app?vid=98f65a5a-81ad-4173-8389-37b8b8f457f8"},"vehicle_type_id":"4","last_reported":1706900863,"current_range_meters":5200,"station_id":"ce4bgi12rcd13ifvqb70","pricing_plan_id":"free"},{"bike_id":"15a52d2e-1cd9-44ba-a487-28cb3b30e56a","system_id":"levelo_inurba_marseille","lat":43.293009,"lon":5.374584,"is_reserved":false,"is_disabled":false,"rental_uris":{"android":"levelo://app?vid=15a52d2e-1cd9-44ba-a487-28cb3b30e56a","ios":"levelo://app?vid=15a52d2e-1cd9-44ba-a487-28cb3b30e56a"},"vehicle_type_id":"4","last_reported":1706900863,"current_range_meters":27600,"station_id":"ce4bgi12rcd13ifvqb70","pricing_plan_id":"free"},{"bike_id":"31d4369c-3d73-420d-a770-f1c3ebd92b8e","system_id":"levelo_inurba_marseille","lat":43.2936,"lon":5.37835,"is_reserved":false,"is_disabled":false,"rental_uris":{"android":"levelo://app?vid=31d4369c-3d73-420d-a770-f1c3ebd92b8e","ios":"levelo://app?vid=31d4369c-3d73-420d-a770-f1c3ebd92b8e"},"vehicle_type_id":"4","last_reported":1706900863,"current_range_meters":10000,"station_id":"ce4bgjh2rcd13ifvqbf0","pricing_plan_id":"free"},{"bike_id":"d3067850-2cd3-4a9f-84a8-e5a6018a38c4","system_id":"levelo_inurba_marseille","lat":43.302992,"lon":5.392136,"is_reserved":false,"is_disabled":false,"rental_uris":{"android":"levelo://app?vid=d3067850-2cd3-4a9f-84a8-e5a6018a38c4","ios":"levelo://app?vid=d3067850-2cd3-4a9f-84a8-e5a6018a38c4"},"vehicle_type_id":"4","last_reported":1706900863,"current_range_meters":2000,"station_id":"ce4bgkh2rcd13ifvqbk0","pricing_plan_id":"free"},{"bike_id":"207cd6ed-6076-4ed9-92d8-a80ef9a3f108","system_id":"levelo_inurba_marseille","lat":43.2936,"lon":5.37835,"is_reserved":false,"is_disabled":false,"rental_uris":{"android":"levelo://app?vid=207cd6ed-6076-4ed9-92d8-a80ef9a3f108","ios":"levelo://app?vid=207cd6ed-6076-4ed9-92d8-a80ef9a3f108"},"vehicle_type_id":"4","last_reported":1706900863,"current_range_meters":26800,"station_id":"ce4bgjh2rcd13ifvqbf0","pricing_plan_id":"free"},{"bike_id":"6d16e6fe-7741-4e3b-b8ca-7f8760442015","system_id":"levelo_inurba_marseille","lat":43.292311,"lon":5.360731,"is_reserved":false,"is_disabled":false,"rental_uris":{"android":"levelo://app?vid=6d16e6fe-7741-4e3b-b8ca-7f8760442015","ios":"levelo://app?vid=6d16e6fe-7741-4e3b-b8ca-7f8760442015"},"vehicle_type_id":"4","last_reported":1706900863,"current_range_meters":0,"station_id":"ce4bhbh2rcd13ifvqeqg","pricing_plan_id":"free"},{"bike_id":"a032b4ed-6a80-4cb6-a0c6-57de3d85ddc0","system_id":"levelo_inurba_marseille","lat":43.298764,"lon":5.388973,"is_reserved":false,"is_disabled":false,"rental_uris":{"android":"levelo://app?vid=a032b4ed-6a80-4cb6-a0c6-57de3d85ddc0","ios":"levelo://app?vid=a032b4ed-6a80-4cb6-a0c6-57de3d85ddc0"},"vehicle_type_id":"4","last_reported":1706900863,"current_range_meters":7600,"station_id":"ce4bh392rcd13ifvqdl0","pricing_plan_id":"free"},{"bike_id":"5de58451-35ed-4b2a-a673-87d43498edd0","system_id":"levelo_inurba_marseille","lat":43.291675,"lon":5.371583,"is_reserved":false,"is_disabled":false,"rental_uris":{"android":"levelo://app?vid=5de58451-35ed-4b2a-a673-87d43498edd0","ios":"levelo://app?vid=5de58451-35ed-4b2a-a673-87d43498edd0"},"vehicle_type_id":"4","last_reported":1706900863,"current_range_meters":16000,"station_id":"ce4bha92rcd13ifvqeh0","pricing_plan_id":"free"},{"bike_id":"ce3a5734-12d7-4aa3-9c22-02708c672bc5","system_id":"levelo_inurba_marseille","lat":43.298764,"lon":5.388973,"is_reserved":false,"is_disabled":false,"rental_uris":{"android":"levelo://app?vid=ce3a5734-12d7-4aa3-9c22-02708c672bc5","ios":"levelo://app?vid=ce3a5734-12d7-4aa3-9c22-02708c672bc5"},"vehicle_type_id":"4","last_reported":1706900863,"current_range_meters":4000,"station_id":"ce4bh392rcd13ifvqdl0","pricing_plan_id":"free"},{"bike_id":"c552683f-86e3-40c4-83be-96e01edb9b78","system_id":"levelo_inurba_marseille","lat":43.29199,"lon":5.35808,"is_reserved":false,"is_disabled":false,"rental_uris":{"android":"levelo://app?vid=c552683f-86e3-40c4-83be-96e01edb9b78","ios":"levelo://app?vid=c552683f-86e3-40c4-83be-96e01edb9b78"},"vehicle_type_id":"4","last_reported":1706900863,"current_range_meters":24000,"station_id":"ce4bhb12rcd13ifvqel0","pricing_plan_id":"free"},{"bike_id":"f50c92e7-88b9-41fd-9162-027da20305e7","system_id":"levelo_inurba_marseille","lat":43.313291,"lon":5.396838,"is_reserved":false,"is_disabled":false,"rental_uris":{"android":"levelo://app?vid=f50c92e7-88b9-41fd-9162-027da20305e7","ios":"levelo://app?vid=f50c92e7-88b9-41fd-9162-027da20305e7"},"vehicle_type_id":"4","last_reported":1706900863,"current_range_meters":4000,"station_id":"ce4bgvp2rcd13ifvqcu0","pricing_plan_id":"free"},{"bike_id":"cad997e2-42e8-4e26-9ff0-9158416d675d","system_id":"levelo_inurba_marseille","lat":43.313291,"lon":5.396838,"is_reserved":false,"is_disabled":false,"rental_uris":{"android":"levelo://app?vid=cad997e2-42e8-4e26-9ff0-9158416d675d","ios":"levelo://app?vid=cad997e2-42e8-4e26-9ff0-9158416d675d"},"vehicle_type_id":"4","last_reported":1706900863,"current_range_meters":6000,"station_id":"ce4bgvp2rcd13ifvqcu0","pricing_plan_id":"free"},{"bike_id":"ef97e6ac-6ff2-4486-90a3-afe8c0af5405","system_id":"levelo_inurba_marseille","lat":43.308801,"lon":5.396528,"is_reserved":false,"is_disabled":false,"rental_uris":{"android":"levelo://app?vid=ef97e6ac-6ff2-4486-90a3-afe8c0af5405","ios":"levelo://app?vid=ef97e6ac-6ff2-4486-90a3-afe8c0af5405"},"vehicle_type_id":"4","last_reported":1706900863,"current_range_meters":0,"station_id":"ce4bh012rcd13ifvqcv0","pricing_plan_id":"free"},{"bike_id":"9a5c0bd7-2e04-454a-b386-2a409d132c42","system_id":"levelo_inurba_marseille","lat":43.29541,"lon":5.38545,"is_reserved":false,"is_disabled":false,"rental_uris":{"android":"levelo://app?vid=9a5c0bd7-2e04-454a-b386-2a409d132c42","ios":"levelo://app?vid=9a5c0bd7-2e04-454a-b386-2a409d132c42"},"vehicle_type_id":"4","last_reported":1706900863,"current_range_meters":400,"station_id":"ce4bgih2rcd13ifvqba0","pricing_plan_id":"free"},{"bike_id":"65c4d6fc-7796-41b2-a660-a883969c514b","system_id":"levelo_inurba_marseille","lat":43.29545,"lon":5.38558,"is_reserved":false,"is_disabled":false,"rental_uris":{"android":"levelo://app?vid=65c4d6fc-7796-41b2-a660-a883969c514b","ios":"levelo://app?vid=65c4d6fc-7796-41b2-a660-a883969c514b"},"vehicle_type_id":"4","last_reported":1706900863,"current_range_meters":0,"station_id":"ce4bgih2rcd13ifvqba0","pricing_plan_id":"free"},{"bike_id":"b1dcaaf8-18ba-4082-912c-136fa1235fa2","system_id":"levelo_inurba_marseille","lat":43.295321,"lon":5.385502,"is_reserved":false,"is_disabled":false,"rental_uris":{"android":"levelo://app?vid=b1dcaaf8-18ba-4082-912c-136fa1235fa2","ios":"levelo://app?vid=b1dcaaf8-18ba-4082-912c-136fa1235fa2"},"vehicle_type_id":"4","last_reported":1706900863,"current_range_meters":19600,"station_id":"ce4bgih2rcd13ifvqba0","pricing_plan_id":"free"},{"bike_id":"2a21fc55-3c56-433c-a156-8c44a9f4ce5a","system_id":"levelo_inurba_marseille","lat":43.290715,"lon":5.371655,"is_reserved":false,"is_disabled":false,"rental_uris":{"android":"levelo://app?vid=2a21fc55-3c56-433c-a156-8c44a9f4ce5a","ios":"levelo://app?vid=2a21fc55-3c56-433c-a156-8c44a9f4ce5a"},"vehicle_type_id":"4","last_reported":1706900863,"current_range_meters":17600,"station_id":"ce4bh5p2rcd13ifvqe4g","pricing_plan_id":"free"},{"bike_id":"a07bfcce-d836-432e-8d1b-1f6895107ca9","system_id":"levelo_inurba_marseille","lat":43.298764,"lon":5.388973,"is_reserved":false,"is_disabled":false,"rental_uris":{"android":"levelo://app?vid=a07bfcce-d836-432e-8d1b-1f6895107ca9","ios":"levelo://app?vid=a07bfcce-d836-432e-8d1b-1f6895107ca9"},"vehicle_type_id":"4","last_reported":1706900863,"current_range_meters":28800,"station_id":"ce4bh392rcd13ifvqdl0","pricing_plan_id":"free"},{"bike_id":"7b2e90ca-ad2d-42cc-96b7-e3e5f0e66141","system_id":"levelo_inurba_marseille","lat":43.302008,"lon":5.394694,"is_reserved":false,"is_disabled":false,"rental_uris":{"android":"levelo://app?vid=7b2e90ca-ad2d-42cc-96b7-e3e5f0e66141","ios":"levelo://app?vid=7b2e90ca-ad2d-42cc-96b7-e3e5f0e66141"},"vehicle_type_id":"4","last_reported":1706900863,"current_range_meters":0,"station_id":"ce4bh0p2rcd13ifvqd70","pricing_plan_id":"free"},{"bike_id":"da6a4db6-f74f-4ee2-9cb9-3f22f48e5a44","system_id":"levelo_inurba_marseille","lat":43.30203,"lon":5.39438,"is_reserved":false,"is_disabled":false,"rental_uris":{"android":"levelo://app?vid=da6a4db6-f74f-4ee2-9cb9-3f22f48e5a44","ios":"levelo://app?vid=da6a4db6-f74f-4ee2-9cb9-3f22f48e5a44"},"vehicle_type_id":"4","last_reported":1706900863,"current_range_meters":17600,"station_id":"","pricing_plan_id":"free"},{"bike_id":"67d93244-9556-4aa7-b435-858f4f476102","system_id":"levelo_inurba_marseille","lat":43.290624,"lon":5.359245,"is_reserved":false,"is_disabled":false,"rental_uris":{"android":"levelo://app?vid=67d93244-9556-4aa7-b435-858f4f476102","ios":"levelo://app?vid=67d93244-9556-4aa7-b435-858f4f476102"},"vehicle_type_id":"4","last_reported":1706900863,"current_range_meters":16800,"station_id":"ce4bha92rcd13ifvqeg0","pricing_plan_id":"free"},{"bike_id":"df16778f-5f94-4d5a-a056-0825e97eebdc","system_id":"levelo_inurba_marseille","lat":43.302008,"lon":5.394694,"is_reserved":false,"is_disabled":false,"rental_uris":{"android":"levelo://app?vid=df16778f-5f94-4d5a-a056-0825e97eebdc","ios":"levelo://app?vid=df16778f-5f94-4d5a-a056-0825e97eebdc"},"vehicle_type_id":"4","last_reported":1706900863,"current_range_meters":0,"station_id":"ce4bh0p2rcd13ifvqd70","pricing_plan_id":"free"},{"bike_id":"7c755874-04f4-49a7-881c-3dccfea2f0df","system_id":"levelo_inurba_marseille","lat":43.290441,"lon":5.359123,"is_reserved":false,"is_disabled":false,"rental_uris":{"android":"levelo://app?vid=7c755874-04f4-49a7-881c-3dccfea2f0df","ios":"levelo://app?vid=7c755874-04f4-49a7-881c-3dccfea2f0df"},"vehicle_type_id":"4","last_reported":1706900863,"current_range_meters":5600,"station_id":"","pricing_plan_id":"free"},{"bike_id":"227634c5-8f84-48e6-9e34-69d3ec9d595e","system_id":"levelo_inurba_marseille","lat":43.290327,"lon":5.375711,"is_reserved":false,"is_disabled":false,"rental_uris":{"android":"levelo://app?vid=227634c5-8f84-48e6-9e34-69d3ec9d595e","ios":"levelo://app?vid=227634c5-8f84-48e6-9e34-69d3ec9d595e"},"vehicle_type_id":"4","last_reported":1706900863,"current_range_meters":2400,"station_id":"ce4bh692rcd13ifvqe90","pricing_plan_id":"free"},{"bike_id":"d256eaf9-3e8e-47de-b6a4-29847a03d5a1","system_id":"levelo_inurba_marseille","lat":43.290319,"lon":5.375732,"is_reserved":false,"is_disabled":false,"rental_uris":{"android":"levelo://app?vid=d256eaf9-3e8e-47de-b6a4-29847a03d5a1","ios":"levelo://app?vid=d256eaf9-3e8e-47de-b6a4-29847a03d5a1"},"vehicle_type_id":"4","last_reported":1706900863,"current_range_meters":28400,"station_id":"ce4bh692rcd13ifvqe90","pricing_plan_id":"free"},{"bike_id":"074f3267-811c-47c1-8282-f1e6488695ec","system_id":"levelo_inurba_marseille","lat":43.290319,"lon":5.375732,"is_reserved":false,"is_disabled":false,"rental_uris":{"android":"levelo://app?vid=074f3267-811c-47c1-8282-f1e6488695ec","ios":"levelo://app?vid=074f3267-811c-47c1-8282-f1e6488695ec"},"vehicle_type_id":"4","last_reported":1706900863,"current_range_meters":1200,"station_id":"ce4bh692rcd13ifvqe90","pricing_plan_id":"free"},{"bike_id":"b545cea7-1102-40e9-b62e-180ed624d7b2","system_id":"levelo_inurba_marseille","lat":43.294153,"lon":5.386305,"is_reserved":false,"is_disabled":false,"rental_uris":{"android":"levelo://app?vid=b545cea7-1102-40e9-b62e-180ed624d7b2","ios":"levelo://app?vid=b545cea7-1102-40e9-b62e-180ed624d7b2"},"vehicle_type_id":"4","last_reported":1706900863,"current_range_meters":0,"station_id":"ce4bh2h2rcd13ifvqdh0","pricing_plan_id":"free"},{"bike_id":"feafba66-7094-446c-8711-aabac0a5719b","system_id":"levelo_inurba_marseille","lat":43.290327,"lon":5.375711,"is_reserved":false,"is_disabled":false,"rental_uris":{"android":"levelo://app?vid=feafba66-7094-446c-8711-aabac0a5719b","ios":"levelo://app?vid=feafba66-7094-446c-8711-aabac0a5719b"},"vehicle_type_id":"4","last_reported":1706900863,"current_range_meters":11200,"station_id":"ce4bh692rcd13ifvqe90","pricing_plan_id":"free"},{"bike_id":"790bb071-572c-4a91-b274-4cec0bed3607","system_id":"levelo_inurba_marseille","lat":43.29422,"lon":5.38626,"is_reserved":false,"is_disabled":false,"rental_uris":{"android":"levelo://app?vid=790bb071-572c-4a91-b274-4cec0bed3607","ios":"levelo://app?vid=790bb071-572c-4a91-b274-4cec0bed3607"},"vehicle_type_id":"4","last_reported":1706900863,"current_range_meters":0,"station_id":"ce4bh2h2rcd13ifvqdh0","pricing_plan_id":"free"},{"bike_id":"9ed867bc-b81e-43fb-b611-e7bc51d5b632","system_id":"levelo_inurba_marseille","lat":43.29421,"lon":5.38628,"is_reserved":false,"is_disabled":false,"rental_uris":{"android":"levelo://app?vid=9ed867bc-b81e-43fb-b611-e7bc51d5b632","ios":"levelo://app?vid=9ed867bc-b81e-43fb-b611-e7bc51d5b632"},"vehicle_type_id":"4","last_reported":1706900863,"current_range_meters":0,"station_id":"ce4bh2h2rcd13ifvqdh0","pricing_plan_id":"free"},{"bike_id":"9ad91837-7c6e-4d7a-bd0e-286e5a4d8e05","system_id":"levelo_inurba_marseille","lat":43.294198,"lon":5.38632,"is_reserved":false,"is_disabled":false,"rental_uris":{"android":"levelo://app?vid=9ad91837-7c6e-4d7a-bd0e-286e5a4d8e05","ios":"levelo://app?vid=9ad91837-7c6e-4d7a-bd0e-286e5a4d8e05"},"vehicle_type_id":"4","last_reported":1706900863,"current_range_meters":0,"station_id":"ce4bh2h2rcd13ifvqdh0","pricing_plan_id":"free"},{"bike_id":"becd23f6-49c9-4cd0-9cb1-04f3e01db2d7","system_id":"levelo_inurba_marseille","lat":43.289184,"lon":5.366408,"is_reserved":false,"is_disabled":false,"rental_uris":{"android":"levelo://app?vid=becd23f6-49c9-4cd0-9cb1-04f3e01db2d7","ios":"levelo://app?vid=becd23f6-49c9-4cd0-9cb1-04f3e01db2d7"},"vehicle_type_id":"4","last_reported":1706900863,"current_range_meters":0,"station_id":"ce4bhap2rcd13ifvqek0","pricing_plan_id":"free"},{"bike_id":"8cbd1e9b-f983-4fbf-b342-9efe12a704f6","system_id":"levelo_inurba_marseille","lat":43.29419,"lon":5.3864,"is_reserved":false,"is_disabled":false,"rental_uris":{"android":"levelo://app?vid=8cbd1e9b-f983-4fbf-b342-9efe12a704f6","ios":"levelo://app?vid=8cbd1e9b-f983-4fbf-b342-9efe12a704f6"},"vehicle_type_id":"4","last_reported":1706900863,"current_range_meters":2000,"station_id":"ce4bh2h2rcd13ifvqdh0","pricing_plan_id":"free"},{"bike_id":"38c0cceb-79de-4152-9b85-9feb390ffb27","system_id":"levelo_inurba_marseille","lat":43.289184,"lon":5.366408,"is_reserved":false,"is_disabled":false,"rental_uris":{"android":"levelo://app?vid=38c0cceb-79de-4152-9b85-9feb390ffb27","ios":"levelo://app?vid=38c0cceb-79de-4152-9b85-9feb390ffb27"},"vehicle_type_id":"4","last_reported":1706900863,"current_range_meters":1600,"station_id":"ce4bhap2rcd13ifvqek0","pricing_plan_id":"free"},{"bike_id":"df6d665c-ffa0-4739-a83e-6c1e3b01a0d8","system_id":"levelo_inurba_marseille","lat":43.29414,"lon":5.386363,"is_reserved":false,"is_disabled":false,"rental_uris":{"android":"levelo://app?vid=df6d665c-ffa0-4739-a83e-6c1e3b01a0d8","ios":"levelo://app?vid=df6d665c-ffa0-4739-a83e-6c1e3b01a0d8"},"vehicle_type_id":"4","last_reported":1706900863,"current_range_meters":0,"station_id":"ce4bh2h2rcd13ifvqdh0","pricing_plan_id":"free"},{"bike_id":"590bb487-e2e2-47c0-9cb8-8a946cb71fd0","system_id":"levelo_inurba_marseille","lat":43.289184,"lon":5.366408,"is_reserved":false,"is_disabled":false,"rental_uris":{"android":"levelo://app?vid=590bb487-e2e2-47c0-9cb8-8a946cb71fd0","ios":"levelo://app?vid=590bb487-e2e2-47c0-9cb8-8a946cb71fd0"},"vehicle_type_id":"4","last_reported":1706900863,"current_range_meters":24400,"station_id":"ce4bhap2rcd13ifvqek0","pricing_plan_id":"free"},{"bike_id":"b55ca67d-490a-4218-bda8-15b7d598cc3f","system_id":"levelo_inurba_marseille","lat":43.292736,"lon":5.384389,"is_reserved":false,"is_disabled":false,"rental_uris":{"android":"levelo://app?vid=b55ca67d-490a-4218-bda8-15b7d598cc3f","ios":"levelo://app?vid=b55ca67d-490a-4218-bda8-15b7d598cc3f"},"vehicle_type_id":"4","last_reported":1706900863,"current_range_meters":10400,"station_id":"ce4bhgp2rcd13ifvqfe0","pricing_plan_id":"free"},{"bike_id":"c65b986d-3be7-4526-b5cb-daaf60578bf7","system_id":"levelo_inurba_marseille","lat":43.292644,"lon":5.384257,"is_reserved":false,"is_disabled":false,"rental_uris":{"android":"levelo://app?vid=c65b986d-3be7-4526-b5cb-daaf60578bf7","ios":"levelo://app?vid=c65b986d-3be7-4526-b5cb-daaf60578bf7"},"vehicle_type_id":"4","last_reported":1706900863,"current_range_meters":20400,"station_id":"ce4bh692rcd13ifvqea0","pricing_plan_id":"free"},{"bike_id":"8923e312-8240-44fb-a1b5-42dcda258168","system_id":"levelo_inurba_marseille","lat":43.304296,"lon":5.397513,"is_reserved":false,"is_disabled":false,"rental_uris":{"android":"levelo://app?vid=8923e312-8240-44fb-a1b5-42dcda258168","ios":"levelo://app?vid=8923e312-8240-44fb-a1b5-42dcda258168"},"vehicle_type_id":"4","last_reported":1706900863,"current_range_meters":27200,"station_id":"ce4bh092rcd13ifvqd20","pricing_plan_id":"free"},{"bike_id":"225e8c8e-47bd-4028-bcf4-52349812c06d","system_id":"levelo_inurba_marseille","lat":43.292644,"lon":5.384257,"is_reserved":false,"is_disabled":false,"rental_uris":{"android":"levelo://app?vid=225e8c8e-47bd-4028-bcf4-52349812c06d","ios":"levelo://app?vid=225e8c8e-47bd-4028-bcf4-52349812c06d"},"vehicle_type_id":"4","last_reported":1706900863,"current_range_meters":0,"station_id":"ce4bh692rcd13ifvqea0","pricing_plan_id":"free"},{"bike_id":"b5e5467b-a1c0-4769-81fa-1749f2442f0f","system_id":"levelo_inurba_marseille","lat":43.304296,"lon":5.397513,"is_reserved":false,"is_disabled":false,"rental_uris":{"android":"levelo://app?vid=b5e5467b-a1c0-4769-81fa-1749f2442f0f","ios":"levelo://app?vid=b5e5467b-a1c0-4769-81fa-1749f2442f0f"},"vehicle_type_id":"4","last_reported":1706900863,"current_range_meters":400,"station_id":"ce4bh092rcd13ifvqd20","pricing_plan_id":"free"},{"bike_id":"3bf44661-a43c-4f0e-b2d7-8a5bb7fb59b7","system_id":"levelo_inurba_marseille","lat":43.292644,"lon":5.384257,"is_reserved":false,"is_disabled":false,"rental_uris":{"android":"levelo://app?vid=3bf44661-a43c-4f0e-b2d7-8a5bb7fb59b7","ios":"levelo://app?vid=3bf44661-a43c-4f0e-b2d7-8a5bb7fb59b7"},"vehicle_type_id":"4","last_reported":1706900863,"current_range_meters":15600,"station_id":"ce4bh692rcd13ifvqea0","pricing_plan_id":"free"},{"bike_id":"34c393ad-5bd5-48e3-8938-06f01d637a13","system_id":"levelo_inurba_marseille","lat":43.292644,"lon":5.384257,"is_reserved":false,"is_disabled":false,"rental_uris":{"android":"levelo://app?vid=34c393ad-5bd5-48e3-8938-06f01d637a13","ios":"levelo://app?vid=34c393ad-5bd5-48e3-8938-06f01d637a13"},"vehicle_type_id":"4","last_reported":1706900863,"current_range_meters":0,"station_id":"ce4bh692rcd13ifvqea0","pricing_plan_id":"free"},{"bike_id":"f9d5d05c-03c7-490f-94f5-7f3e107031f5","system_id":"levelo_inurba_marseille","lat":43.317557,"lon":5.390173,"is_reserved":false,"is_disabled":false,"rental_uris":{"android":"levelo://app?vid=f9d5d05c-03c7-490f-94f5-7f3e107031f5","ios":"levelo://app?vid=f9d5d05c-03c7-490f-94f5-7f3e107031f5"},"vehicle_type_id":"4","last_reported":1706900863,"current_range_meters":4800,"station_id":"ce4bhqp2rcd13ifvqhng","pricing_plan_id":"free"},{"bike_id":"89d313f3-be45-4493-9b94-a4b49fc0f68a","system_id":"levelo_inurba_marseille","lat":43.29094,"lon":5.38122,"is_reserved":false,"is_disabled":false,"rental_uris":{"android":"levelo://app?vid=89d313f3-be45-4493-9b94-a4b49fc0f68a","ios":"levelo://app?vid=89d313f3-be45-4493-9b94-a4b49fc0f68a"},"vehicle_type_id":"4","last_reported":1706900863,"current_range_meters":0,"station_id":"ce4bh512rcd13ifvqe2g","pricing_plan_id":"free"},{"bike_id":"0d0063ba-509a-4cf5-a622-e7a1fb581461","system_id":"levelo_inurba_marseille","lat":43.290995,"lon":5.381361,"is_reserved":false,"is_disabled":false,"rental_uris":{"android":"levelo://app?vid=0d0063ba-509a-4cf5-a622-e7a1fb581461","ios":"levelo://app?vid=0d0063ba-509a-4cf5-a622-e7a1fb581461"},"vehicle_type_id":"4","last_reported":1706900863,"current_range_meters":31600,"station_id":"ce4bh512rcd13ifvqe2g","pricing_plan_id":"free"},{"bike_id":"adc7ac18-8b3f-4a47-8cd9-39274c00ff67","system_id":"levelo_inurba_marseille","lat":43.29781,"lon":5.3934,"is_reserved":false,"is_disabled":false,"rental_uris":{"android":"levelo://app?vid=adc7ac18-8b3f-4a47-8cd9-39274c00ff67","ios":"levelo://app?vid=adc7ac18-8b3f-4a47-8cd9-39274c00ff67"},"vehicle_type_id":"4","last_reported":1706900863,"current_range_meters":3600,"station_id":"chh1huq6cuj3fo74tm60","pricing_plan_id":"free"},{"bike_id":"cff4611b-06a0-4920-953f-9a7b01dd41f7","system_id":"levelo_inurba_marseille","lat":43.295169,"lon":5.390426,"is_reserved":false,"is_disabled":false,"rental_uris":{"android":"levelo://app?vid=cff4611b-06a0-4920-953f-9a7b01dd41f7","ios":"levelo://app?vid=cff4611b-06a0-4920-953f-9a7b01dd41f7"},"vehicle_type_id":"4","last_reported":1706900863,"current_range_meters":22000,"station_id":"ce4bh3p2rcd13ifvqdp0","pricing_plan_id":"free"},{"bike_id":"37d5312b-48ce-463b-8a79-12ca0134a456","system_id":"levelo_inurba_marseille","lat":43.33024,"lon":5.39039,"is_reserved":false,"is_disabled":false,"rental_uris":{"android":"levelo://app?vid=37d5312b-48ce-463b-8a79-12ca0134a456","ios":"levelo://app?vid=37d5312b-48ce-463b-8a79-12ca0134a456"},"vehicle_type_id":"4","last_reported":1706900863,"current_range_meters":30800,"station_id":"ce4bhr92rcd13ifvqhrg","pricing_plan_id":"free"},{"bike_id":"1623bc1b-23a5-4a7b-bb7a-55f3e2375e31","system_id":"levelo_inurba_marseille","lat":43.295169,"lon":5.390426,"is_reserved":false,"is_disabled":false,"rental_uris":{"android":"levelo://app?vid=1623bc1b-23a5-4a7b-bb7a-55f3e2375e31","ios":"levelo://app?vid=1623bc1b-23a5-4a7b-bb7a-55f3e2375e31"},"vehicle_type_id":"4","last_reported":1706900863,"current_range_meters":29600,"station_id":"ce4bh3p2rcd13ifvqdp0","pricing_plan_id":"free"},{"bike_id":"04d71d86-8c62-4452-89b2-261a85f8adf6","system_id":"levelo_inurba_marseille","lat":43.330442,"lon":5.389148,"is_reserved":false,"is_disabled":false,"rental_uris":{"android":"levelo://app?vid=04d71d86-8c62-4452-89b2-261a85f8adf6","ios":"levelo://app?vid=04d71d86-8c62-4452-89b2-261a85f8adf6"},"vehicle_type_id":"4","last_reported":1706900863,"current_range_meters":27600,"station_id":"ce4bhr92rcd13ifvqhrg","pricing_plan_id":"free"},{"bike_id":"4a65586f-7cee-4334-a941-9c927dbc1bc1","system_id":"levelo_inurba_marseille","lat":43.295169,"lon":5.390426,"is_reserved":false,"is_disabled":false,"rental_uris":{"android":"levelo://app?vid=4a65586f-7cee-4334-a941-9c927dbc1bc1","ios":"levelo://app?vid=4a65586f-7cee-4334-a941-9c927dbc1bc1"},"vehicle_type_id":"4","last_reported":1706900863,"current_range_meters":2400,"station_id":"ce4bh3p2rcd13ifvqdp0","pricing_plan_id":"free"},{"bike_id":"387e997c-1fec-45f6-82fc-d3b1e649aa0a","system_id":"levelo_inurba_marseille","lat":43.330442,"lon":5.389148,"is_reserved":false,"is_disabled":false,"rental_uris":{"android":"levelo://app?vid=387e997c-1fec-45f6-82fc-d3b1e649aa0a","ios":"levelo://app?vid=387e997c-1fec-45f6-82fc-d3b1e649aa0a"},"vehicle_type_id":"4","last_reported":1706900863,"current_range_meters":2400,"station_id":"ce4bhr92rcd13ifvqhrg","pricing_plan_id":"free"},{"bike_id":"a569bc82-2799-4d58-8f5c-19e0f6fce87d","system_id":"levelo_inurba_marseille","lat":43.330442,"lon":5.389148,"is_reserved":false,"is_disabled":false,"rental_uris":{"android":"levelo://app?vid=a569bc82-2799-4d58-8f5c-19e0f6fce87d","ios":"levelo://app?vid=a569bc82-2799-4d58-8f5c-19e0f6fce87d"},"vehicle_type_id":"4","last_reported":1706900863,"current_range_meters":6000,"station_id":"ce4bhr92rcd13ifvqhrg","pricing_plan_id":"free"},{"bike_id":"29fa78cb-ddcd-473b-afaa-62a18b90e67f","system_id":"levelo_inurba_marseille","lat":43.330442,"lon":5.389148,"is_reserved":false,"is_disabled":false,"rental_uris":{"android":"levelo://app?vid=29fa78cb-ddcd-473b-afaa-62a18b90e67f","ios":"levelo://app?vid=29fa78cb-ddcd-473b-afaa-62a18b90e67f"},"vehicle_type_id":"4","last_reported":1706900863,"current_range_meters":16400,"station_id":"ce4bhr92rcd13ifvqhrg","pricing_plan_id":"free"},{"bike_id":"d6a5431a-f8d6-43d0-a204-3e5de14de418","system_id":"levelo_inurba_marseille","lat":43.2901,"lon":5.381269,"is_reserved":false,"is_disabled":false,"rental_uris":{"android":"levelo://app?vid=d6a5431a-f8d6-43d0-a204-3e5de14de418","ios":"levelo://app?vid=d6a5431a-f8d6-43d0-a204-3e5de14de418"},"vehicle_type_id":"4","last_reported":1706900863,"current_range_meters":2000,"station_id":"ce4bh4p2rcd13ifvqe1g","pricing_plan_id":"free"},{"bike_id":"84f18229-284f-4049-acac-441a8ed4402a","system_id":"levelo_inurba_marseille","lat":43.290094,"lon":5.381264,"is_reserved":false,"is_disabled":false,"rental_uris":{"android":"levelo://app?vid=84f18229-284f-4049-acac-441a8ed4402a","ios":"levelo://app?vid=84f18229-284f-4049-acac-441a8ed4402a"},"vehicle_type_id":"4","last_reported":1706900863,"current_range_meters":5600,"station_id":"ce4bh4p2rcd13ifvqe1g","pricing_plan_id":"free"},{"bike_id":"8b2ee090-e9c7-40b5-b2e4-d2cf27f67ac7","system_id":"levelo_inurba_marseille","lat":43.288563,"lon":5.358563,"is_reserved":false,"is_disabled":false,"rental_uris":{"android":"levelo://app?vid=8b2ee090-e9c7-40b5-b2e4-d2cf27f67ac7","ios":"levelo://app?vid=8b2ee090-e9c7-40b5-b2e4-d2cf27f67ac7"},"vehicle_type_id":"4","last_reported":1706900863,"current_range_meters":0,"station_id":"ce4bhb12rcd13ifvqem0","pricing_plan_id":"free"},{"bike_id":"88bc9241-7039-45a3-93e9-bb9619a98b23","system_id":"levelo_inurba_marseille","lat":43.312609,"lon":5.401662,"is_reserved":false,"is_disabled":false,"rental_uris":{"android":"levelo://app?vid=88bc9241-7039-45a3-93e9-bb9619a98b23","ios":"levelo://app?vid=88bc9241-7039-45a3-93e9-bb9619a98b23"},"vehicle_type_id":"4","last_reported":1706900863,"current_range_meters":19600,"station_id":"ce4bh092rcd13ifvqd30","pricing_plan_id":"free"},{"bike_id":"29096631-b00d-4b57-b21d-edf97565792a","system_id":"levelo_inurba_marseille","lat":43.312609,"lon":5.401662,"is_reserved":false,"is_disabled":false,"rental_uris":{"android":"levelo://app?vid=29096631-b00d-4b57-b21d-edf97565792a","ios":"levelo://app?vid=29096631-b00d-4b57-b21d-edf97565792a"},"vehicle_type_id":"4","last_reported":1706900863,"current_range_meters":6400,"station_id":"ce4bh092rcd13ifvqd30","pricing_plan_id":"free"},{"bike_id":"9e306070-9d77-4bd5-9e19-b9c40e45898a","system_id":"levelo_inurba_marseille","lat":43.309371,"lon":5.401449,"is_reserved":false,"is_disabled":false,"rental_uris":{"android":"levelo://app?vid=9e306070-9d77-4bd5-9e19-b9c40e45898a","ios":"levelo://app?vid=9e306070-9d77-4bd5-9e19-b9c40e45898a"},"vehicle_type_id":"4","last_reported":1706900863,"current_range_meters":2400,"station_id":"ce4bgvp2rcd13ifvqct0","pricing_plan_id":"free"},{"bike_id":"a693be26-d51d-4635-bbd8-1f98ddaeba30","system_id":"levelo_inurba_marseille","lat":43.337474,"lon":5.374436,"is_reserved":false,"is_disabled":false,"rental_uris":{"android":"levelo://app?vid=a693be26-d51d-4635-bbd8-1f98ddaeba30","ios":"levelo://app?vid=a693be26-d51d-4635-bbd8-1f98ddaeba30"},"vehicle_type_id":"4","last_reported":1706900863,"current_range_meters":28800,"station_id":"","pricing_plan_id":"free"},{"bike_id":"50d2e7d2-74b7-46a9-8957-599c7b1bd876","system_id":"levelo_inurba_marseille","lat":43.309371,"lon":5.401449,"is_reserved":false,"is_disabled":false,"rental_uris":{"android":"levelo://app?vid=50d2e7d2-74b7-46a9-8957-599c7b1bd876","ios":"levelo://app?vid=50d2e7d2-74b7-46a9-8957-599c7b1bd876"},"vehicle_type_id":"4","last_reported":1706900863,"current_range_meters":17200,"station_id":"ce4bgvp2rcd13ifvqct0","pricing_plan_id":"free"},{"bike_id":"2dfa196c-6c5c-4e7d-8a85-f7be22241efa","system_id":"levelo_inurba_marseille","lat":43.312609,"lon":5.401662,"is_reserved":false,"is_disabled":false,"rental_uris":{"android":"levelo://app?vid=2dfa196c-6c5c-4e7d-8a85-f7be22241efa","ios":"levelo://app?vid=2dfa196c-6c5c-4e7d-8a85-f7be22241efa"},"vehicle_type_id":"4","last_reported":1706900863,"current_range_meters":400,"station_id":"ce4bh092rcd13ifvqd30","pricing_plan_id":"free"},{"bike_id":"0aca2214-6738-4ad0-ba13-439e119f904d","system_id":"levelo_inurba_marseille","lat":43.337551,"lon":5.374454,"is_reserved":false,"is_disabled":false,"rental_uris":{"android":"levelo://app?vid=0aca2214-6738-4ad0-ba13-439e119f904d","ios":"levelo://app?vid=0aca2214-6738-4ad0-ba13-439e119f904d"},"vehicle_type_id":"4","last_reported":1706900863,"current_range_meters":26800,"station_id":"","pricing_plan_id":"free"},{"bike_id":"fbd79014-8443-4fa8-a575-118d08a47cbc","system_id":"levelo_inurba_marseille","lat":43.33762,"lon":5.37432,"is_reserved":false,"is_disabled":false,"rental_uris":{"android":"levelo://app?vid=fbd79014-8443-4fa8-a575-118d08a47cbc","ios":"levelo://app?vid=fbd79014-8443-4fa8-a575-118d08a47cbc"},"vehicle_type_id":"4","last_reported":1706900863,"current_range_meters":25600,"station_id":"","pricing_plan_id":"free"},{"bike_id":"e2d4d079-cc66-4f38-adc8-060273bea7e7","system_id":"levelo_inurba_marseille","lat":43.337676,"lon":5.374408,"is_reserved":false,"is_disabled":false,"rental_uris":{"android":"levelo://app?vid=e2d4d079-cc66-4f38-adc8-060273bea7e7","ios":"levelo://app?vid=e2d4d079-cc66-4f38-adc8-060273bea7e7"},"vehicle_type_id":"4","last_reported":1706900863,"current_range_meters":800,"station_id":"","pricing_plan_id":"free"},{"bike_id":"98cf6173-f9ba-44f5-94c8-0455e1a3bbac","system_id":"levelo_inurba_marseille","lat":43.301117,"lon":5.398795,"is_reserved":false,"is_disabled":false,"rental_uris":{"android":"levelo://app?vid=98cf6173-f9ba-44f5-94c8-0455e1a3bbac","ios":"levelo://app?vid=98cf6173-f9ba-44f5-94c8-0455e1a3bbac"},"vehicle_type_id":"4","last_reported":1706900863,"current_range_meters":9600,"station_id":"ce4bh0h2rcd13ifvqd40","pricing_plan_id":"free"},{"bike_id":"e84a4832-16c3-4042-a725-cf7176892929","system_id":"levelo_inurba_marseille","lat":43.301117,"lon":5.398795,"is_reserved":false,"is_disabled":false,"rental_uris":{"android":"levelo://app?vid=e84a4832-16c3-4042-a725-cf7176892929","ios":"levelo://app?vid=e84a4832-16c3-4042-a725-cf7176892929"},"vehicle_type_id":"4","last_reported":1706900863,"current_range_meters":19200,"station_id":"ce4bh0h2rcd13ifvqd40","pricing_plan_id":"free"},{"bike_id":"ba3fb0fa-7b3c-45c7-9626-71c9d4773b8c","system_id":"levelo_inurba_marseille","lat":43.30145,"lon":5.39866,"is_reserved":false,"is_disabled":false,"rental_uris":{"android":"levelo://app?vid=ba3fb0fa-7b3c-45c7-9626-71c9d4773b8c","ios":"levelo://app?vid=ba3fb0fa-7b3c-45c7-9626-71c9d4773b8c"},"vehicle_type_id":"4","last_reported":1706900863,"current_range_meters":0,"station_id":"ce4bh112rcd13ifvqd90","pricing_plan_id":"free"},{"bike_id":"ea4bcbe1-f678-45c8-b9ca-b3c86ffc2152","system_id":"levelo_inurba_marseille","lat":43.301117,"lon":5.398795,"is_reserved":false,"is_disabled":false,"rental_uris":{"android":"levelo://app?vid=ea4bcbe1-f678-45c8-b9ca-b3c86ffc2152","ios":"levelo://app?vid=ea4bcbe1-f678-45c8-b9ca-b3c86ffc2152"},"vehicle_type_id":"4","last_reported":1706900863,"current_range_meters":5200,"station_id":"ce4bh0h2rcd13ifvqd40","pricing_plan_id":"free"},{"bike_id":"b40cae77-370c-4493-8172-9abbdafbce7d","system_id":"levelo_inurba_marseille","lat":43.269319,"lon":5.389397,"is_reserved":false,"is_disabled":false,"rental_uris":{"android":"levelo://app?vid=b40cae77-370c-4493-8172-9abbdafbce7d","ios":"levelo://app?vid=b40cae77-370c-4493-8172-9abbdafbce7d"},"vehicle_type_id":"4","last_reported":1706900863,"current_range_meters":6000,"station_id":"ce4bhhh2rcd13ifvqfl0","pricing_plan_id":"free"},{"bike_id":"6dd3a6f1-ec39-4f95-b02b-acb873f05c6c","system_id":"levelo_inurba_marseille","lat":43.298681,"lon":5.397225,"is_reserved":false,"is_disabled":false,"rental_uris":{"android":"levelo://app?vid=6dd3a6f1-ec39-4f95-b02b-acb873f05c6c","ios":"levelo://app?vid=6dd3a6f1-ec39-4f95-b02b-acb873f05c6c"},"vehicle_type_id":"4","last_reported":1706900863,"current_range_meters":30800,"station_id":"ce4bh0h2rcd13ifvqd50","pricing_plan_id":"free"},{"bike_id":"75bb17a2-d4e9-457b-a89f-ba9a7531d163","system_id":"levelo_inurba_marseille","lat":43.286591,"lon":5.363346,"is_reserved":false,"is_disabled":false,"rental_uris":{"android":"levelo://app?vid=75bb17a2-d4e9-457b-a89f-ba9a7531d163","ios":"levelo://app?vid=75bb17a2-d4e9-457b-a89f-ba9a7531d163"},"vehicle_type_id":"4","last_reported":1706900863,"current_range_meters":2000,"station_id":"ce4bhah2rcd13ifvqej0","pricing_plan_id":"free"},{"bike_id":"79d676c6-d8a3-4349-be06-043e228fc758","system_id":"levelo_inurba_marseille","lat":43.295196,"lon":5.39397,"is_reserved":false,"is_disabled":false,"rental_uris":{"android":"levelo://app?vid=79d676c6-d8a3-4349-be06-043e228fc758","ios":"levelo://app?vid=79d676c6-d8a3-4349-be06-043e228fc758"},"vehicle_type_id":"4","last_reported":1706900863,"current_range_meters":4400,"station_id":"ce4bh292rcd13ifvqdf0","pricing_plan_id":"free"},{"bike_id":"747d9afe-eeae-495f-85c6-d2a8d911eb34","system_id":"levelo_inurba_marseille","lat":43.295196,"lon":5.39397,"is_reserved":false,"is_disabled":false,"rental_uris":{"android":"levelo://app?vid=747d9afe-eeae-495f-85c6-d2a8d911eb34","ios":"levelo://app?vid=747d9afe-eeae-495f-85c6-d2a8d911eb34"},"vehicle_type_id":"4","last_reported":1706900863,"current_range_meters":4400,"station_id":"ce4bh292rcd13ifvqdf0","pricing_plan_id":"free"},{"bike_id":"b042cc90-a670-45bd-a61b-c42e33ce0e09","system_id":"levelo_inurba_marseille","lat":43.289307,"lon":5.38406,"is_reserved":false,"is_disabled":false,"rental_uris":{"android":"levelo://app?vid=b042cc90-a670-45bd-a61b-c42e33ce0e09","ios":"levelo://app?vid=b042cc90-a670-45bd-a61b-c42e33ce0e09"},"vehicle_type_id":"4","last_reported":1706900863,"current_range_meters":0,"station_id":"ce4bh612rcd13ifvqe6g","pricing_plan_id":"free"},{"bike_id":"90998c92-ee48-4680-9a57-b5a89a0cb337","system_id":"levelo_inurba_marseille","lat":43.295194,"lon":5.39397,"is_reserved":false,"is_disabled":false,"rental_uris":{"android":"levelo://app?vid=90998c92-ee48-4680-9a57-b5a89a0cb337","ios":"levelo://app?vid=90998c92-ee48-4680-9a57-b5a89a0cb337"},"vehicle_type_id":"4","last_reported":1706900863,"current_range_meters":8000,"station_id":"ce4bh292rcd13ifvqdf0","pricing_plan_id":"free"},{"bike_id":"f01d1c3a-d578-4bac-a9a6-76c08ab0d183","system_id":"levelo_inurba_marseille","lat":43.290345,"lon":5.38646,"is_reserved":false,"is_disabled":false,"rental_uris":{"android":"levelo://app?vid=f01d1c3a-d578-4bac-a9a6-76c08ab0d183","ios":"levelo://app?vid=f01d1c3a-d578-4bac-a9a6-76c08ab0d183"},"vehicle_type_id":"4","last_reported":1706900863,"current_range_meters":20400,"station_id":"ce4bh4p2rcd13ifvqe0g","pricing_plan_id":"free"},{"bike_id":"97c6e3e4-894c-4fc1-bb48-fdb7b0bb8110","system_id":"levelo_inurba_marseille","lat":43.290336,"lon":5.386425,"is_reserved":false,"is_disabled":false,"rental_uris":{"android":"levelo://app?vid=97c6e3e4-894c-4fc1-bb48-fdb7b0bb8110","ios":"levelo://app?vid=97c6e3e4-894c-4fc1-bb48-fdb7b0bb8110"},"vehicle_type_id":"4","last_reported":1706900863,"current_range_meters":18800,"station_id":"ce4bh4p2rcd13ifvqe0g","pricing_plan_id":"free"},{"bike_id":"7c354e6c-da69-466d-acbf-3605bba839cf","system_id":"levelo_inurba_marseille","lat":43.290345,"lon":5.38646,"is_reserved":false,"is_disabled":false,"rental_uris":{"android":"levelo://app?vid=7c354e6c-da69-466d-acbf-3605bba839cf","ios":"levelo://app?vid=7c354e6c-da69-466d-acbf-3605bba839cf"},"vehicle_type_id":"4","last_reported":1706900863,"current_range_meters":4000,"station_id":"ce4bh4p2rcd13ifvqe0g","pricing_plan_id":"free"},{"bike_id":"3bd84800-56a1-4a30-9302-82df7ad53b88","system_id":"levelo_inurba_marseille","lat":43.290336,"lon":5.386425,"is_reserved":false,"is_disabled":false,"rental_uris":{"android":"levelo://app?vid=3bd84800-56a1-4a30-9302-82df7ad53b88","ios":"levelo://app?vid=3bd84800-56a1-4a30-9302-82df7ad53b88"},"vehicle_type_id":"4","last_reported":1706900863,"current_range_meters":14000,"station_id":"ce4bh4p2rcd13ifvqe0g","pricing_plan_id":"free"},{"bike_id":"2de253ef-a8a0-440e-aae4-11b9349c5ecc","system_id":"levelo_inurba_marseille","lat":43.29027,"lon":5.38645,"is_reserved":false,"is_disabled":false,"rental_uris":{"android":"levelo://app?vid=2de253ef-a8a0-440e-aae4-11b9349c5ecc","ios":"levelo://app?vid=2de253ef-a8a0-440e-aae4-11b9349c5ecc"},"vehicle_type_id":"4","last_reported":1706900863,"current_range_meters":0,"station_id":"ce4bh4p2rcd13ifvqe0g","pricing_plan_id":"free"},{"bike_id":"7488a48a-4763-4ef9-aea1-c458c9e3fd42","system_id":"levelo_inurba_marseille","lat":43.290336,"lon":5.386425,"is_reserved":false,"is_disabled":false,"rental_uris":{"android":"levelo://app?vid=7488a48a-4763-4ef9-aea1-c458c9e3fd42","ios":"levelo://app?vid=7488a48a-4763-4ef9-aea1-c458c9e3fd42"},"vehicle_type_id":"4","last_reported":1706900863,"current_range_meters":22800,"station_id":"ce4bh4p2rcd13ifvqe0g","pricing_plan_id":"free"},{"bike_id":"5660b86a-0cec-4834-b343-bba3129043a5","system_id":"levelo_inurba_marseille","lat":43.295194,"lon":5.39397,"is_reserved":false,"is_disabled":false,"rental_uris":{"android":"levelo://app?vid=5660b86a-0cec-4834-b343-bba3129043a5","ios":"levelo://app?vid=5660b86a-0cec-4834-b343-bba3129043a5"},"vehicle_type_id":"4","last_reported":1706900863,"current_range_meters":12400,"station_id":"ce4bh292rcd13ifvqdf0","pricing_plan_id":"free"},{"bike_id":"81187463-0d06-4236-b02e-9dadb5f475d1","system_id":"levelo_inurba_marseille","lat":43.286039,"lon":5.370679,"is_reserved":false,"is_disabled":false,"rental_uris":{"android":"levelo://app?vid=81187463-0d06-4236-b02e-9dadb5f475d1","ios":"levelo://app?vid=81187463-0d06-4236-b02e-9dadb5f475d1"},"vehicle_type_id":"4","last_reported":1706900863,"current_range_meters":4800,"station_id":"ce4bht12rcd13ifvqi60","pricing_plan_id":"free"},{"bike_id":"c7103d75-ce50-4154-81bb-8ea66872f252","system_id":"levelo_inurba_marseille","lat":43.287144,"lon":5.379506,"is_reserved":false,"is_disabled":false,"rental_uris":{"android":"levelo://app?vid=c7103d75-ce50-4154-81bb-8ea66872f252","ios":"levelo://app?vid=c7103d75-ce50-4154-81bb-8ea66872f252"},"vehicle_type_id":"4","last_reported":1706900863,"current_range_meters":14000,"station_id":"ce4bh9p2rcd13ifvqec0","pricing_plan_id":"free"},{"bike_id":"214acc5f-c73e-4ee9-95e0-76c4fc2e2aad","system_id":"levelo_inurba_marseille","lat":43.28708,"lon":5.37946,"is_reserved":false,"is_disabled":false,"rental_uris":{"android":"levelo://app?vid=214acc5f-c73e-4ee9-95e0-76c4fc2e2aad","ios":"levelo://app?vid=214acc5f-c73e-4ee9-95e0-76c4fc2e2aad"},"vehicle_type_id":"4","last_reported":1706900863,"current_range_meters":26400,"station_id":"ce4bh9p2rcd13ifvqec0","pricing_plan_id":"free"},{"bike_id":"a93eec3e-c0ab-417a-b26d-9bf769432897","system_id":"levelo_inurba_marseille","lat":43.324771,"lon":5.36557,"is_reserved":false,"is_disabled":false,"rental_uris":{"android":"levelo://app?vid=a93eec3e-c0ab-417a-b26d-9bf769432897","ios":"levelo://app?vid=a93eec3e-c0ab-417a-b26d-9bf769432897"},"vehicle_type_id":"4","last_reported":1706900863,"current_range_meters":10400,"station_id":"ce4bhs12rcd13ifvqhvg","pricing_plan_id":"free"},{"bike_id":"bb668f0f-312f-404c-ad12-a1fed9464ac3","system_id":"levelo_inurba_marseille","lat":43.316828,"lon":5.404723,"is_reserved":false,"is_disabled":false,"rental_uris":{"android":"levelo://app?vid=bb668f0f-312f-404c-ad12-a1fed9464ac3","ios":"levelo://app?vid=bb668f0f-312f-404c-ad12-a1fed9464ac3"},"vehicle_type_id":"4","last_reported":1706900863,"current_range_meters":0,"station_id":"ce4bh012rcd13ifvqd00","pricing_plan_id":"free"},{"bike_id":"50db0ea7-9758-4d22-9a29-7f6b2803bf34","system_id":"levelo_inurba_marseille","lat":43.291994,"lon":5.392907,"is_reserved":false,"is_disabled":false,"rental_uris":{"android":"levelo://app?vid=50db0ea7-9758-4d22-9a29-7f6b2803bf34","ios":"levelo://app?vid=50db0ea7-9758-4d22-9a29-7f6b2803bf34"},"vehicle_type_id":"4","last_reported":1706900863,"current_range_meters":7600,"station_id":"ce4bh192rcd13ifvqdd0","pricing_plan_id":"free"},{"bike_id":"753b3762-415d-4031-80a9-a702f6e16a22","system_id":"levelo_inurba_marseille","lat":43.28472,"lon":5.35899,"is_reserved":false,"is_disabled":false,"rental_uris":{"android":"levelo://app?vid=753b3762-415d-4031-80a9-a702f6e16a22","ios":"levelo://app?vid=753b3762-415d-4031-80a9-a702f6e16a22"},"vehicle_type_id":"4","last_reported":1706900863,"current_range_meters":0,"station_id":"ce4bhah2rcd13ifvqei0","pricing_plan_id":"free"},{"bike_id":"a5500eb4-acb8-4d01-a939-0ba2f35fb562","system_id":"levelo_inurba_marseille","lat":43.29811,"lon":5.40079,"is_reserved":false,"is_disabled":false,"rental_uris":{"android":"levelo://app?vid=a5500eb4-acb8-4d01-a939-0ba2f35fb562","ios":"levelo://app?vid=a5500eb4-acb8-4d01-a939-0ba2f35fb562"},"vehicle_type_id":"4","last_reported":1706900863,"current_range_meters":9200,"station_id":"","pricing_plan_id":"free"},{"bike_id":"ad80a03a-903a-49ad-adfc-832003fd919d","system_id":"levelo_inurba_marseille","lat":43.28461,"lon":5.35894,"is_reserved":false,"is_disabled":false,"rental_uris":{"android":"levelo://app?vid=ad80a03a-903a-49ad-adfc-832003fd919d","ios":"levelo://app?vid=ad80a03a-903a-49ad-adfc-832003fd919d"},"vehicle_type_id":"4","last_reported":1706900863,"current_range_meters":0,"station_id":"ce4bhah2rcd13ifvqei0","pricing_plan_id":"free"},{"bike_id":"307e47ca-d45c-4216-b0fe-2d8f5c20afd0","system_id":"levelo_inurba_marseille","lat":43.294314,"lon":5.397498,"is_reserved":false,"is_disabled":false,"rental_uris":{"android":"levelo://app?vid=307e47ca-d45c-4216-b0fe-2d8f5c20afd0","ios":"levelo://app?vid=307e47ca-d45c-4216-b0fe-2d8f5c20afd0"},"vehicle_type_id":"4","last_reported":1706900863,"current_range_meters":0,"station_id":"ce4bh3h2rcd13ifvqdo0","pricing_plan_id":"free"},{"bike_id":"06d699df-11e6-4184-bd71-868ff1023fba","system_id":"levelo_inurba_marseille","lat":43.294314,"lon":5.397498,"is_reserved":false,"is_disabled":false,"rental_uris":{"android":"levelo://app?vid=06d699df-11e6-4184-bd71-868ff1023fba","ios":"levelo://app?vid=06d699df-11e6-4184-bd71-868ff1023fba"},"vehicle_type_id":"4","last_reported":1706900863,"current_range_meters":5600,"station_id":"ce4bh3h2rcd13ifvqdo0","pricing_plan_id":"free"},{"bike_id":"8a4bc98f-3bc9-4e36-9e70-d9b5098d0a37","system_id":"levelo_inurba_marseille","lat":43.283998,"lon":5.375062,"is_reserved":false,"is_disabled":false,"rental_uris":{"android":"levelo://app?vid=8a4bc98f-3bc9-4e36-9e70-d9b5098d0a37","ios":"levelo://app?vid=8a4bc98f-3bc9-4e36-9e70-d9b5098d0a37"},"vehicle_type_id":"4","last_reported":1706900863,"current_range_meters":0,"station_id":"ce4bh412rcd13ifvqds0","pricing_plan_id":"free"},{"bike_id":"87bb4bc8-e9a5-44db-8fcb-c2e710cf0c9f","system_id":"levelo_inurba_marseille","lat":43.286595,"lon":5.386795,"is_reserved":false,"is_disabled":false,"rental_uris":{"android":"levelo://app?vid=87bb4bc8-e9a5-44db-8fcb-c2e710cf0c9f","ios":"levelo://app?vid=87bb4bc8-e9a5-44db-8fcb-c2e710cf0c9f"},"vehicle_type_id":"4","last_reported":1706900863,"current_range_meters":16000,"station_id":"ce4bh492rcd13ifvqdug","pricing_plan_id":"free"},{"bike_id":"ee73cad8-b465-4250-9096-8906fb109466","system_id":"levelo_inurba_marseille","lat":43.286595,"lon":5.386795,"is_reserved":false,"is_disabled":false,"rental_uris":{"android":"levelo://app?vid=ee73cad8-b465-4250-9096-8906fb109466","ios":"levelo://app?vid=ee73cad8-b465-4250-9096-8906fb109466"},"vehicle_type_id":"4","last_reported":1706900863,"current_range_meters":5200,"station_id":"ce4bh492rcd13ifvqdug","pricing_plan_id":"free"},{"bike_id":"1e0cf108-4c55-42a8-9559-3662fd80bcdd","system_id":"levelo_inurba_marseille","lat":43.284793,"lon":5.384113,"is_reserved":false,"is_disabled":false,"rental_uris":{"android":"levelo://app?vid=1e0cf108-4c55-42a8-9559-3662fd80bcdd","ios":"levelo://app?vid=1e0cf108-4c55-42a8-9559-3662fd80bcdd"},"vehicle_type_id":"4","last_reported":1706900863,"current_range_meters":0,"station_id":"ce4bh512rcd13ifvqe3g","pricing_plan_id":"free"},{"bike_id":"904e9a1d-e4d6-43b8-9208-a46496853e8b","system_id":"levelo_inurba_marseille","lat":43.319179,"lon":5.407725,"is_reserved":false,"is_disabled":false,"rental_uris":{"android":"levelo://app?vid=904e9a1d-e4d6-43b8-9208-a46496853e8b","ios":"levelo://app?vid=904e9a1d-e4d6-43b8-9208-a46496853e8b"},"vehicle_type_id":"4","last_reported":1706900863,"current_range_meters":27600,"station_id":"ce4bhq12rcd13ifvqhig","pricing_plan_id":"free"},{"bike_id":"0b3fed73-e6df-457b-88cf-ae835579418f","system_id":"levelo_inurba_marseille","lat":43.33717,"lon":5.391857,"is_reserved":false,"is_disabled":false,"rental_uris":{"android":"levelo://app?vid=0b3fed73-e6df-457b-88cf-ae835579418f","ios":"levelo://app?vid=0b3fed73-e6df-457b-88cf-ae835579418f"},"vehicle_type_id":"4","last_reported":1706900863,"current_range_meters":22400,"station_id":"ce4bhr92rcd13ifvqhsg","pricing_plan_id":"free"},{"bike_id":"3c58f18d-b5bf-40f3-bd04-17a6bdfcc283","system_id":"levelo_inurba_marseille","lat":43.32337,"lon":5.40619,"is_reserved":false,"is_disabled":false,"rental_uris":{"android":"levelo://app?vid=3c58f18d-b5bf-40f3-bd04-17a6bdfcc283","ios":"levelo://app?vid=3c58f18d-b5bf-40f3-bd04-17a6bdfcc283"},"vehicle_type_id":"4","last_reported":1706900863,"current_range_meters":1200,"station_id":"ce4bhq92rcd13ifvqhjg","pricing_plan_id":"free"},{"bike_id":"799fed9e-2e2a-4b94-84f1-70897d69e0ae","system_id":"levelo_inurba_marseille","lat":43.32333,"lon":5.40623,"is_reserved":false,"is_disabled":false,"rental_uris":{"android":"levelo://app?vid=799fed9e-2e2a-4b94-84f1-70897d69e0ae","ios":"levelo://app?vid=799fed9e-2e2a-4b94-84f1-70897d69e0ae"},"vehicle_type_id":"4","last_reported":1706900863,"current_range_meters":10000,"station_id":"ce4bhq92rcd13ifvqhjg","pricing_plan_id":"free"},{"bike_id":"a5d1e4fb-c3ac-4ba1-a677-049deb56b64a","system_id":"levelo_inurba_marseille","lat":43.32342,"lon":5.40622,"is_reserved":false,"is_disabled":false,"rental_uris":{"android":"levelo://app?vid=a5d1e4fb-c3ac-4ba1-a677-049deb56b64a","ios":"levelo://app?vid=a5d1e4fb-c3ac-4ba1-a677-049deb56b64a"},"vehicle_type_id":"4","last_reported":1706900863,"current_range_meters":28000,"station_id":"ce4bhq92rcd13ifvqhjg","pricing_plan_id":"free"},