{"last_updated":1741500633,"ttl":60,"version":"2.2","data":{"bikes":[{"bike_id":"247b4340-3338-49f7-b20d-e36de088bbb8","system_id":"levelo_inurba_marseille","lat":43.29206,"lon":5.42674,"is_reserved":false,"is_disabled":false,"rental_uris":{"android":"levelo://app?vid=247b4340-3338-49f7-b20d-e36de088bbb8","ios":"levelo://app?vid=247b4340-3338-49f7-b20d-e36de088bbb8"},"vehicle_type_id":"4","last_reported":1741500633,"current_range_meters":2800,"station_id":"","pricing_plan_id":"cebpf4jnsgd1na2vs0mg"},{"bike_id":"8310cde6-c1e7-4f34-9185-55193707cf9d","system_id":"levelo_inurba_marseille","lat":43.27824,"lon":5.40699,"is_reserved":false,"is_disabled":false,"rental_uris":{"android":"levelo://app?vid=8310cde6-c1e7-4f34-9185-55193707cf9d","ios":"levelo://app?vid=8310cde6-c1e7-4f34-9185-55193707cf9d"},"vehicle_type_id":"4","last_reported":1741500633,"current_range_meters":2800,"station_id":"ce4bhnh2rcd13ifvqgtg","pricing_plan_id":"cebpf4jnsgd1na2vs0mg"},{"bike_id":"2b5f401c-b596-44a7-88ab-196b44e26a9b","system_id":"levelo_inurba_marseille","lat":43.25111,"lon":5.40333,"is_reserved":false,"is_disabled":false,"rental_uris":{"android":"levelo://app?vid=2b5f401c-b596-44a7-88ab-196b44e26a9b","ios":"levelo://app?vid=2b5f401c-b596-44a7-88ab-196b44e26a9b"},"vehicle_type_id":"4","last_reported":1741500633,"current_range_meters":2800,"station_id":"ce4bhlh2rcd13ifvqgig","pricing_plan_id":"cebpf4jnsgd1na2vs0mg"},{"bike_id":"60e1fe0f-c1dd-449c-85d9-a3dd616d061a","system_id":"levelo_inurba_marseille","lat":43.23205,"lon":5.35577,"is_reserved":false,"is_disabled":false,"rental_uris":{"android":"levelo://app?vid=60e1fe0f-c1dd-449c-85d9-a3dd616d061a","ios":"levelo://app?vid=60e1fe0f-c1dd-449c-85d9-a3dd616d061a"},"vehicle_type_id":"4","last_reported":1741500633,"current_range_meters":3200,"station_id":"ce4bhu92rcd13ifvqi70","pricing_plan_id":"cebpf4jnsgd1na2vs0mg"},{"bike_id":"8e6bf23f-7469-408c-84aa-30899262dcd4","system_id":"levelo_inurba_marseille","lat":43.290031,"lon":5.35607,"is_reserved":false,"is_disabled":false,"rental_uris":{"android":"levelo://app?vid=8e6bf23f-7469-408c-84aa-30899262dcd4","ios":"levelo://app?vid=8e6bf23f-7469-408c-84aa-30899262dcd4"},"vehicle_type_id":"4","last_reported":1741500633,"current_range_meters":3200,"station_id":"ce4bhb92rcd13ifvqen0","pricing_plan_id":"cebpf4jnsgd1na2vs0mg"},{"bike_id":"187a23bd-addd-4cdc-9763-bcfaec40c35a","system_id":"levelo_inurba_marseille","lat":43.25125,"lon":5.40324,"is_reserved":false,"is_disabled":false,"rental_uris":{"android":"levelo://app?vid=187a23bd-addd-4cdc-9763-bcfaec40c35a","ios":"levelo://app?vid=187a23bd-addd-4cdc-9763-bcfaec40c35a"},"vehicle_type_id":"4","last_reported":1741500633,"current_range_meters":3200,"station_id":"ce4bhlh2rcd13ifvqgig","pricing_plan_id":"cebpf4jnsgd1na2vs0mg"},{"bike_id":"e8480bdf-b04b-452a-a436-a56a983cc43d","system_id":"levelo_inurba_marseille","lat":43.26557,"lon":5.39044,"is_reserved":false,"is_disabled":false,"rental_uris":{"android":"levelo://app?vid=e8480bdf-b04b-452a-a436-a56a983cc43d","ios":"levelo://app?vid=e8480bdf-b04b-452a-a436-a56a983cc43d"},"vehicle_type_id":"4","last_reported":1741500633,"current_range_meters":3600,"station_id":"ce4bhe12rcd13ifvqf30","pricing_plan_id":"cebpf4jnsgd1na2vs0mg"},{"bike_id":"9f22fbb6-a380-4b54-b337-75d43e2de561","system_id":"levelo_inurba_marseille","lat":43.2508,"lon":5.39513,"is_reserved":false,"is_disabled":false,"rental_uris":{"android":"levelo://app?vid=9f22fbb6-a380-4b54-b337-75d43e2de561","ios":"levelo://app?vid=9f22fbb6-a380-4b54-b337-75d43e2de561"},"vehicle_type_id":"4","last_reported":1741500633,"current_range_meters":3600,"station_id":"ce4bhm12rcd13ifvqgkg","pricing_plan_id":"cebpf4jnsgd1na2vs0mg"},{"bike_id":"cfac2935-1e31-4562-8b3a-3bde623c75b3","system_id":"levelo_inurba_marseille","lat":43.298185,"lon":5.404124,"is_reserved":false,"is_disabled":true,"rental_uris":{"android":"levelo://app?vid=cfac2935-1e31-4562-8b3a-3bde623c75b3","ios":"levelo://app?vid=cfac2935-1e31-4562-8b3a-3bde623c75b3"},"vehicle_type_id":"4","last_reported":1741500633,"current_range_meters":3600,"station_id":"ce4bh112rcd13ifvqd90","pricing_plan_id":"cebpf4jnsgd1na2vs0mg"},{"bike_id":"8a04142c-0bc4-43e4-8f9e-fc8f2beafa5a","system_id":"levelo_inurba_marseille","lat":43.23967,"lon":5.36653,"is_reserved":false,"is_disabled":false,"rental_uris":{"android":"levelo://app?vid=8a04142c-0bc4-43e4-8f9e-fc8f2beafa5a","ios":"levelo://app?vid=8a04142c-0bc4-43e4-8f9e-fc8f2beafa5a"},"vehicle_type_id":"4","last_reported":1741500633,"current_range_meters":3600,"station_id":"ce4bhi12rcd13ifvqfp0","pricing_plan_id":"cebpf4jnsgd1na2vs0mg"},{"bike_id":"c1b37ffe-209e-42d6-87de-eb1e250701e0","system_id":"levelo_inurba_marseille","lat":43.27946,"lon":5.41056,"is_reserved":false,"is_disabled":false,"rental_uris":{"android":"levelo://app?vid=c1b37ffe-209e-42d6-87de-eb1e250701e0","ios":"levelo://app?vid=c1b37ffe-209e-42d6-87de-eb1e250701e0"},"vehicle_type_id":"4","last_reported":1741500633,"current_range_meters":3600,"station_id":"ce4bhnp2rcd13ifvqh0g","pricing_plan_id":"cebpf4jnsgd1na2vs0mg"},{"bike_id":"57a45919-3ff8-472d-972d-76d47e3d5835","system_id":"levelo_inurba_marseille","lat":43.29021,"lon":5.38647,"is_reserved":false,"is_disabled":false,"rental_uris":{"android":"levelo://app?vid=57a45919-3ff8-472d-972d-76d47e3d5835","ios":"levelo://app?vid=57a45919-3ff8-472d-972d-76d47e3d5835"},"vehicle_type_id":"4","last_reported":1741500633,"current_range_meters":3600,"station_id":"ce4bh4p2rcd13ifvqe0g","pricing_plan_id":"cebpf4jnsgd1na2vs0mg"},{"bike_id":"98099f5b-2d89-4ebc-af70-310ad79dd9aa","system_id":"levelo_inurba_marseille","lat":43.246666,"lon":5.381656,"is_reserved":false,"is_disabled":false,"rental_uris":{"android":"levelo://app?vid=98099f5b-2d89-4ebc-af70-310ad79dd9aa","ios":"levelo://app?vid=98099f5b-2d89-4ebc-af70-310ad79dd9aa"},"vehicle_type_id":"4","last_reported":1741500633,"current_range_meters":4000,"station_id":"ce4bhih2rcd13ifvqfr0","pricing_plan_id":"cebpf4jnsgd1na2vs0mg"},{"bike_id":"82e849d5-e006-4a19-9415-e48d295e72fe","system_id":"levelo_inurba_marseille","lat":43.30526,"lon":5.36994,"is_reserved":false,"is_disabled":false,"rental_uris":{"android":"levelo://app?vid=82e849d5-e006-4a19-9415-e48d295e72fe","ios":"levelo://app?vid=82e849d5-e006-4a19-9415-e48d295e72fe"},"vehicle_type_id":"4","last_reported":1741500633,"current_range_meters":4000,"station_id":"","pricing_plan_id":"cebpf4jnsgd1na2vs0mg"},{"bike_id":"4a5f5573-68a0-4ef8-9746-01d4ee12e6d2","system_id":"levelo_inurba_marseille","lat":43.239601,"lon":5.366278,"is_reserved":false,"is_disabled":false,"rental_uris":{"android":"levelo://app?vid=4a5f5573-68a0-4ef8-9746-01d4ee12e6d2","ios":"levelo://app?vid=4a5f5573-68a0-4ef8-9746-01d4ee12e6d2"},"vehicle_type_id":"4","last_reported":1741500633,"current_range_meters":4000,"station_id":"ce4bhi12rcd13ifvqfp0","pricing_plan_id":"cebpf4jnsgd1na2vs0mg"},{"bike_id":"e90bc0ed-0c32-4446-84db-87cf53deb2fe","system_id":"levelo_inurba_marseille","lat":43.30248,"lon":5.40065,"is_reserved":false,"is_disabled":false,"rental_uris":{"android":"levelo://app?vid=e90bc0ed-0c32-4446-84db-87cf53deb2fe","ios":"levelo://app?vid=e90bc0ed-0c32-4446-84db-87cf53deb2fe"},"vehicle_type_id":"4","last_reported":1741500633,"current_range_meters":4000,"station_id":"ce4bgvh2rcd13ifvqcs0","pricing_plan_id":"cebpf4jnsgd1na2vs0mg"},{"bike_id":"7b00137c-8774-484f-9d94-09739d89355d","system_id":"levelo_inurba_marseille","lat":43.304683,"lon":5.379001,"is_reserved":false,"is_disabled":false,"rental_uris":{"android":"levelo://app?vid=7b00137c-8774-484f-9d94-09739d89355d","ios":"levelo://app?vid=7b00137c-8774-484f-9d94-09739d89355d"},"vehicle_type_id":"4","last_reported":1741500633,"current_range_meters":4400,"station_id":"ce4bgup2rcd13ifvqcn0","pricing_plan_id":"cebpf4jnsgd1na2vs0mg"},{"bike_id":"90b8db64-bbd7-44bb-b7ee-15ff858ae528","system_id":"levelo_inurba_marseille","lat":43.27638,"lon":5.39911,"is_reserved":false,"is_disabled":false,"rental_uris":{"android":"levelo://app?vid=90b8db64-bbd7-44bb-b7ee-15ff858ae528","ios":"levelo://app?vid=90b8db64-bbd7-44bb-b7ee-15ff858ae528"},"vehicle_type_id":"4","last_reported":1741500633,"current_range_meters":4400,"station_id":"","pricing_plan_id":"cebpf4jnsgd1na2vs0mg"},{"bike_id":"45e74ffc-2cca-4755-99a2-a317bcba5976","system_id":"levelo_inurba_marseille","lat":43.24978,"lon":5.38927,"is_reserved":false,"is_disabled":false,"rental_uris":{"android":"levelo://app?vid=45e74ffc-2cca-4755-99a2-a317bcba5976","ios":"levelo://app?vid=45e74ffc-2cca-4755-99a2-a317bcba5976"},"vehicle_type_id":"4","last_reported":1741500633,"current_range_meters":4400,"station_id":"ce4bhgp2rcd13ifvqfd0","pricing_plan_id":"cebpf4jnsgd1na2vs0mg"},{"bike_id":"5ef781b2-8bbc-4b4a-9e67-2b65aaa93c28","system_id":"levelo_inurba_marseille","lat":43.29592,"lon":5.38105,"is_reserved":false,"is_disabled":false,"rental_uris":{"android":"levelo://app?vid=5ef781b2-8bbc-4b4a-9e67-2b65aaa93c28","ios":"levelo://app?vid=5ef781b2-8bbc-4b4a-9e67-2b65aaa93c28"},"vehicle_type_id":"4","last_reported":1741500633,"current_range_meters":4800,"station_id":"ce4bgl12rcd13ifvqbo0","pricing_plan_id":"cebpf4jnsgd1na2vs0mg"},{"bike_id":"8f7dc3b9-6a3b-4964-aa09-63f3d5ec1ae8","system_id":"levelo_inurba_marseille","lat":43.3031,"lon":5.36859,"is_reserved":false,"is_disabled":false,"rental_uris":{"android":"levelo://app?vid=8f7dc3b9-6a3b-4964-aa09-63f3d5ec1ae8","ios":"levelo://app?vid=8f7dc3b9-6a3b-4964-aa09-63f3d5ec1ae8"},"vehicle_type_id":"4","last_reported":1741500633,"current_range_meters":4800,"station_id":"ce4bgqh2rcd13ifvqc5g","pricing_plan_id":"cebpf4jnsgd1na2vs0mg"},{"bike_id":"8b61b214-2471-42c9-bf59-f8e805762141","system_id":"levelo_inurba_marseille","lat":43.25584,"lon":5.38232,"is_reserved":false,"is_disabled":false,"rental_uris":{"android":"levelo://app?vid=8b61b214-2471-42c9-bf59-f8e805762141","ios":"levelo://app?vid=8b61b214-2471-42c9-bf59-f8e805762141"},"vehicle_type_id":"4","last_reported":1741500633,"current_range_meters":4800,"station_id":"ce4bhih2rcd13ifvqfs0","pricing_plan_id":"cebpf4jnsgd1na2vs0mg"},{"bike_id":"2109fc2c-a209-4d7b-85df-ea39c33afd9c","system_id":"levelo_inurba_marseille","lat":43.30469,"lon":5.37932,"is_reserved":false,"is_disabled":false,"rental_uris":{"android":"levelo://app?vid=2109fc2c-a209-4d7b-85df-ea39c33afd9c","ios":"levelo://app?vid=2109fc2c-a209-4d7b-85df-ea39c33afd9c"},"vehicle_type_id":"4","last_reported":1741500633,"current_range_meters":4800,"station_id":"ce4bgup2rcd13ifvqcn0","pricing_plan_id":"cebpf4jnsgd1na2vs0mg"},{"bike_id":"04027f9f-3617-4d0f-8003-b61a82d55757","system_id":"levelo_inurba_marseille","lat":43.27821,"lon":5.40707,"is_reserved":false,"is_disabled":false,"rental_uris":{"android":"levelo://app?vid=04027f9f-3617-4d0f-8003-b61a82d55757","ios":"levelo://app?vid=04027f9f-3617-4d0f-8003-b61a82d55757"},"vehicle_type_id":"4","last_reported":1741500633,"current_range_meters":4800,"station_id":"ce4bhnh2rcd13ifvqgtg","pricing_plan_id":"cebpf4jnsgd1na2vs0mg"},{"bike_id":"60fba7df-4520-4d63-9c5b-9a7a002cedfb","system_id":"levelo_inurba_marseille","lat":43.28045,"lon":5.3907,"is_reserved":false,"is_disabled":false,"rental_uris":{"android":"levelo://app?vid=60fba7df-4520-4d63-9c5b-9a7a002cedfb","ios":"levelo://app?vid=60fba7df-4520-4d63-9c5b-9a7a002cedfb"},"vehicle_type_id":"4","last_reported":1741500633,"current_range_meters":4800,"station_id":"","pricing_plan_id":"cebpf4jnsgd1na2vs0mg"},{"bike_id":"cd5acaa0-228e-4d82-982b-7e2b3b040929","system_id":"levelo_inurba_marseille","lat":43.23958,"lon":5.36664,"is_reserved":false,"is_disabled":false,"rental_uris":{"android":"levelo://app?vid=cd5acaa0-228e-4d82-982b-7e2b3b040929","ios":"levelo://app?vid=cd5acaa0-228e-4d82-982b-7e2b3b040929"},"vehicle_type_id":"4","last_reported":1741500633,"current_range_meters":4800,"station_id":"ce4bhi12rcd13ifvqfp0","pricing_plan_id":"cebpf4jnsgd1na2vs0mg"},{"bike_id":"be83f593-03ea-40f9-bbc5-e7dd99f34054","system_id":"levelo_inurba_marseille","lat":43.311744,"lon":5.387152,"is_reserved":false,"is_disabled":false,"rental_uris":{"android":"levelo://app?vid=be83f593-03ea-40f9-bbc5-e7dd99f34054","ios":"levelo://app?vid=be83f593-03ea-40f9-bbc5-e7dd99f34054"},"vehicle_type_id":"4","last_reported":1741500633,"current_range_meters":5600,"station_id":"ce4bgv12rcd13ifvqcp0","pricing_plan_id":"cebpf4jnsgd1na2vs0mg"},{"bike_id":"ed6058f4-dad4-44d2-b49e-2bf67ab63188","system_id":"levelo_inurba_marseille","lat":43.29508,"lon":5.39059,"is_reserved":false,"is_disabled":false,"rental_uris":{"android":"levelo://app?vid=ed6058f4-dad4-44d2-b49e-2bf67ab63188","ios":"levelo://app?vid=ed6058f4-dad4-44d2-b49e-2bf67ab63188"},"vehicle_type_id":"4","last_reported":1741500633,"current_range_meters":5600,"station_id":"ce4bh3p2rcd13ifvqdp0","pricing_plan_id":"cebpf4jnsgd1na2vs0mg"},{"bike_id":"eef4356f-935e-481f-8a0e-b3ecef1222a5","system_id":"levelo_inurba_marseille","lat":43.27965,"lon":5.38743,"is_reserved":false,"is_disabled":false,"rental_uris":{"android":"levelo://app?vid=eef4356f-935e-481f-8a0e-b3ecef1222a5","ios":"levelo://app?vid=eef4356f-935e-481f-8a0e-b3ecef1222a5"},"vehicle_type_id":"4","last_reported":1741500633,"current_range_meters":6000,"station_id":"ce4bhg12rcd13ifvqf80","pricing_plan_id":"cebpf4jnsgd1na2vs0mg"},{"bike_id":"6d0356cd-03ed-4a8b-97c7-0e2dd8952c4d","system_id":"levelo_inurba_marseille","lat":43.31703,"lon":5.43704,"is_reserved":false,"is_disabled":false,"rental_uris":{"android":"levelo://app?vid=6d0356cd-03ed-4a8b-97c7-0e2dd8952c4d","ios":"levelo://app?vid=6d0356cd-03ed-4a8b-97c7-0e2dd8952c4d"},"vehicle_type_id":"4","last_reported":1741500633,"current_range_meters":6000,"station_id":"ce4bhp92rcd13ifvqhcg","pricing_plan_id":"cebpf4jnsgd1na2vs0mg"},{"bike_id":"046784fd-fb50-43bb-a552-0ec5622b98e2","system_id":"levelo_inurba_marseille","lat":43.262154,"lon":5.40453,"is_reserved":false,"is_disabled":false,"rental_uris":{"android":"levelo://app?vid=046784fd-fb50-43bb-a552-0ec5622b98e2","ios":"levelo://app?vid=046784fd-fb50-43bb-a552-0ec5622b98e2"},"vehicle_type_id":"4","last_reported":1741500633,"current_range_meters":6000,"station_id":"ce4bhmh2rcd13ifvqgmg","pricing_plan_id":"cebpf4jnsgd1na2vs0mg"},{"bike_id":"17d07e8b-6cde-466a-a776-9e95dfe1fdb0","system_id":"levelo_inurba_marseille","lat":43.27063,"lon":5.42279,"is_reserved":false,"is_disabled":false,"rental_uris":{"android":"levelo://app?vid=17d07e8b-6cde-466a-a776-9e95dfe1fdb0","ios":"levelo://app?vid=17d07e8b-6cde-466a-a776-9e95dfe1fdb0"},"vehicle_type_id":"4","last_reported":1741500633,"current_range_meters":6000,"station_id":"ce4bhk92rcd13ifvqgb0","pricing_plan_id":"cebpf4jnsgd1na2vs0mg"},{"bike_id":"a85666a4-8fe7-4d6d-9254-683bdd61b61f","system_id":"levelo_inurba_marseille","lat":43.2736,"lon":5.41449,"is_reserved":false,"is_disabled":false,"rental_uris":{"android":"levelo://app?vid=a85666a4-8fe7-4d6d-9254-683bdd61b61f","ios":"levelo://app?vid=a85666a4-8fe7-4d6d-9254-683bdd61b61f"},"vehicle_type_id":"4","last_reported":1741500633,"current_range_meters":6400,"station_id":"","pricing_plan_id":"cebpf4jnsgd1na2vs0mg"},{"bike_id":"2fe3fa9d-c136-4274-aa2d-ddbc2f5c56d4","system_id":"levelo_inurba_marseille","lat":43.27602,"lon":5.39677,"is_reserved":false,"is_disabled":false,"rental_uris":{"android":"levelo://app?vid=2fe3fa9d-c136-4274-aa2d-ddbc2f5c56d4","ios":"levelo://app?vid=2fe3fa9d-c136-4274-aa2d-ddbc2f5c56d4"},"vehicle_type_id":"4","last_reported":1741500633,"current_range_meters":6400,"station_id":"","pricing_plan_id":"cebpf4jnsgd1na2vs0mg"},{"bike_id":"de9dd6b4-169b-45d2-bea4-254a4c81f43b","system_id":"levelo_inurba_marseille","lat":43.31718,"lon":5.40456,"is_reserved":false,"is_disabled":false,"rental_uris":{"android":"levelo://app?vid=de9dd6b4-169b-45d2-bea4-254a4c81f43b","ios":"levelo://app?vid=de9dd6b4-169b-45d2-bea4-254a4c81f43b"},"vehicle_type_id":"4","last_reported":1741500633,"current_range_meters":6400,"station_id":"ce4bh012rcd13ifvqd00","pricing_plan_id":"cebpf4jnsgd1na2vs0mg"},{"bike_id":"a62145a5-524f-42d6-833f-c73fb2488bb9","system_id":"levelo_inurba_marseille","lat":43.26495,"lon":5.39601,"is_reserved":false,"is_disabled":false,"rental_uris":{"android":"levelo://app?vid=a62145a5-524f-42d6-833f-c73fb2488bb9","ios":"levelo://app?vid=a62145a5-524f-42d6-833f-c73fb2488bb9"},"vehicle_type_id":"4","last_reported":1741500633,"current_range_meters":6400,"station_id":"ce4bhi12rcd13ifvqfq0","pricing_plan_id":"cebpf4jnsgd1na2vs0mg"},{"bike_id":"a3ea0991-4b1c-4b3b-b5f9-ab60777b4148","system_id":"levelo_inurba_marseille","lat":43.24182,"lon":5.39782,"is_reserved":false,"is_disabled":false,"rental_uris":{"android":"levelo://app?vid=a3ea0991-4b1c-4b3b-b5f9-ab60777b4148","ios":"levelo://app?vid=a3ea0991-4b1c-4b3b-b5f9-ab60777b4148"},"vehicle_type_id":"4","last_reported":1741500633,"current_range_meters":6400,"station_id":"ce4bhn12rcd13ifvqgpg","pricing_plan_id":"cebpf4jnsgd1na2vs0mg"},{"bike_id":"710ae057-d84a-44c0-8291-3d6e1e4eafc3","system_id":"levelo_inurba_marseille","lat":43.28665,"lon":5.36361,"is_reserved":false,"is_disabled":false,"rental_uris":{"android":"levelo://app?vid=710ae057-d84a-44c0-8291-3d6e1e4eafc3","ios":"levelo://app?vid=710ae057-d84a-44c0-8291-3d6e1e4eafc3"},"vehicle_type_id":"4","last_reported":1741500633,"current_range_meters":6400,"station_id":"ce4bhah2rcd13ifvqej0","pricing_plan_id":"cebpf4jnsgd1na2vs0mg"},{"bike_id":"9effefb9-02e3-4c25-ab75-e3a5ac01515f","system_id":"levelo_inurba_marseille","lat":43.26543,"lon":5.3732,"is_reserved":false,"is_disabled":true,"rental_uris":{"android":"levelo://app?vid=9effefb9-02e3-4c25-ab75-e3a5ac01515f","ios":"levelo://app?vid=9effefb9-02e3-4c25-ab75-e3a5ac01515f"},"vehicle_type_id":"4","last_reported":1741500633,"current_range_meters":6400,"station_id":"ce4bhg12rcd13ifvqf70","pricing_plan_id":"cebpf4jnsgd1na2vs0mg"},{"bike_id":"496a066d-43d5-42fe-86ae-32a0a3a2d0ee","system_id":"levelo_inurba_marseille","lat":43.25593,"lon":5.38225,"is_reserved":false,"is_disabled":false,"rental_uris":{"android":"levelo://app?vid=496a066d-43d5-42fe-86ae-32a0a3a2d0ee","ios":"levelo://app?vid=496a066d-43d5-42fe-86ae-32a0a3a2d0ee"},"vehicle_type_id":"4","last_reported":1741500633,"current_range_meters":6400,"station_id":"ce4bhih2rcd13ifvqfs0","pricing_plan_id":"cebpf4jnsgd1na2vs0mg"},{"bike_id":"802ec9b6-cf45-4906-a6b8-3b7e5c09357c","system_id":"levelo_inurba_marseille","lat":43.30929,"lon":5.40179,"is_reserved":false,"is_disabled":false,"rental_uris":{"android":"levelo://app?vid=802ec9b6-cf45-4906-a6b8-3b7e5c09357c","ios":"levelo://app?vid=802ec9b6-cf45-4906-a6b8-3b7e5c09357c"},"vehicle_type_id":"4","last_reported":1741500633,"current_range_meters":6400,"station_id":"ce4bgvp2rcd13ifvqct0","pricing_plan_id":"cebpf4jnsgd1na2vs0mg"},{"bike_id":"2bf9efc6-81d5-495d-854d-ec17e195b993","system_id":"levelo_inurba_marseille","lat":43.29224,"lon":5.36072,"is_reserved":false,"is_disabled":false,"rental_uris":{"android":"levelo://app?vid=2bf9efc6-81d5-495d-854d-ec17e195b993","ios":"levelo://app?vid=2bf9efc6-81d5-495d-854d-ec17e195b993"},"vehicle_type_id":"4","last_reported":1741500633,"current_range_meters":6400,"station_id":"ce4bhbh2rcd13ifvqeqg","pricing_plan_id":"cebpf4jnsgd1na2vs0mg"},{"bike_id":"d04764b2-721c-4149-b1b8-42d1c3ceb1a5","system_id":"levelo_inurba_marseille","lat":43.31366,"lon":5.38506,"is_reserved":false,"is_disabled":false,"rental_uris":{"android":"levelo://app?vid=d04764b2-721c-4149-b1b8-42d1c3ceb1a5","ios":"levelo://app?vid=d04764b2-721c-4149-b1b8-42d1c3ceb1a5"},"vehicle_type_id":"4","last_reported":1741500633,"current_range_meters":6400,"station_id":"ce4bgt92rcd13ifvqcf0","pricing_plan_id":"cebpf4jnsgd1na2vs0mg"},{"bike_id":"53bd1732-d8ff-41a5-8f1b-42274afdde26","system_id":"levelo_inurba_marseille","lat":43.29354,"lon":5.42839,"is_reserved":false,"is_disabled":false,"rental_uris":{"android":"levelo://app?vid=53bd1732-d8ff-41a5-8f1b-42274afdde26","ios":"levelo://app?vid=53bd1732-d8ff-41a5-8f1b-42274afdde26"},"vehicle_type_id":"4","last_reported":1741500633,"current_range_meters":6400,"station_id":"","pricing_plan_id":"cebpf4jnsgd1na2vs0mg"},{"bike_id":"626884ee-8f0e-46ef-8d6f-9e0f568a332a","system_id":"levelo_inurba_marseille","lat":43.2867,"lon":5.36356,"is_reserved":false,"is_disabled":false,"rental_uris":{"android":"levelo://app?vid=626884ee-8f0e-46ef-8d6f-9e0f568a332a","ios":"levelo://app?vid=626884ee-8f0e-46ef-8d6f-9e0f568a332a"},"vehicle_type_id":"4","last_reported":1741500633,"current_range_meters":6400,"station_id":"ce4bhah2rcd13ifvqej0","pricing_plan_id":"cebpf4jnsgd1na2vs0mg"},{"bike_id":"dec29720-34f1-4ed4-8695-f9a107b367e4","system_id":"levelo_inurba_marseille","lat":43.28699,"lon":5.37387,"is_reserved":false,"is_disabled":true,"rental_uris":{"android":"levelo://app?vid=dec29720-34f1-4ed4-8695-f9a107b367e4","ios":"levelo://app?vid=dec29720-34f1-4ed4-8695-f9a107b367e4"},"vehicle_type_id":"4","last_reported":1741500633,"current_range_meters":6400,"station_id":"ce4bh3p2rcd13ifvqdq0","pricing_plan_id":"cebpf4jnsgd1na2vs0mg"},{"bike_id":"7d295ec4-9c0e-4850-9c53-dd65645b97b2","system_id":"levelo_inurba_marseille","lat":43.26053,"lon":5.39386,"is_reserved":false,"is_disabled":false,"rental_uris":{"android":"levelo://app?vid=7d295ec4-9c0e-4850-9c53-dd65645b97b2","ios":"levelo://app?vid=7d295ec4-9c0e-4850-9c53-dd65645b97b2"},"vehicle_type_id":"4","last_reported":1741500633,"current_range_meters":6800,"station_id":"ce4bhh92rcd13ifvqfj0","pricing_plan_id":"cebpf4jnsgd1na2vs0mg"},{"bike_id":"e5ad5f71-3419-41c7-856c-13df554347ed","system_id":"levelo_inurba_marseille","lat":43.28423,"lon":5.34997,"is_reserved":false,"is_disabled":false,"rental_uris":{"android":"levelo://app?vid=e5ad5f71-3419-41c7-856c-13df554347ed","ios":"levelo://app?vid=e5ad5f71-3419-41c7-856c-13df554347ed"},"vehicle_type_id":"4","last_reported":1741500633,"current_range_meters":6800,"station_id":"ce4bhbh2rcd13ifvqepg","pricing_plan_id":"cebpf4jnsgd1na2vs0mg"},{"bike_id":"271b9580-7db4-4949-aec3-e8c596beb552","system_id":"levelo_inurba_marseille","lat":43.31118,"lon":5.37768,"is_reserved":false,"is_disabled":false,"rental_uris":{"android":"levelo://app?vid=271b9580-7db4-4949-aec3-e8c596beb552","ios":"levelo://app?vid=271b9580-7db4-4949-aec3-e8c596beb552"},"vehicle_type_id":"4","last_reported":1741500633,"current_range_meters":6800,"station_id":"ce4bgt92rcd13ifvqcg0","pricing_plan_id":"cebpf4jnsgd1na2vs0mg"},{"bike_id":"39c88fcb-d822-4133-ba8c-27f3a5c4e23a","system_id":"levelo_inurba_marseille","lat":43.28149,"lon":5.42648,"is_reserved":false,"is_disabled":false,"rental_uris":{"android":"levelo://app?vid=39c88fcb-d822-4133-ba8c-27f3a5c4e23a","ios":"levelo://app?vid=39c88fcb-d822-4133-ba8c-27f3a5c4e23a"},"vehicle_type_id":"4","last_reported":1741500633,"current_range_meters":6800,"station_id":"ce4bhnh2rcd13ifvqgug","pricing_plan_id":"cebpf4jnsgd1na2vs0mg"},{"bike_id":"a01889f6-7082-4c91-9d70-b12d1c00664e","system_id":"levelo_inurba_marseille","lat":43.30809,"lon":5.43549,"is_reserved":false,"is_disabled":false,"rental_uris":{"android":"levelo://app?vid=a01889f6-7082-4c91-9d70-b12d1c00664e","ios":"levelo://app?vid=a01889f6-7082-4c91-9d70-b12d1c00664e"},"vehicle_type_id":"4","last_reported":1741500633,"current_range_meters":6800,"station_id":"ce4bhph2rcd13ifvqheg","pricing_plan_id":"cebpf4jnsgd1na2vs0mg"},{"bike_id":"f4906724-26b5-4110-ba77-718f0f26dd92","system_id":"levelo_inurba_marseille","lat":43.31357,"lon":5.38504,"is_reserved":false,"is_disabled":false,"rental_uris":{"android":"levelo://app?vid=f4906724-26b5-4110-ba77-718f0f26dd92","ios":"levelo://app?vid=f4906724-26b5-4110-ba77-718f0f26dd92"},"vehicle_type_id":"4","last_reported":1741500633,"current_range_meters":6800,"station_id":"ce4bgt92rcd13ifvqcf0","pricing_plan_id":"cebpf4jnsgd1na2vs0mg"},{"bike_id":"a6c74a05-39e7-4da6-8b71-1ba187fc5bae","system_id":"levelo_inurba_marseille","lat":43.30532,"lon":5.36526,"is_reserved":false,"is_disabled":true,"rental_uris":{"android":"levelo://app?vid=a6c74a05-39e7-4da6-8b71-1ba187fc5bae","ios":"levelo://app?vid=a6c74a05-39e7-4da6-8b71-1ba187fc5bae"},"vehicle_type_id":"4","last_reported":1741500633,"current_range_meters":7200,"station_id":"ce4bgs12rcd13ifvqcag","pricing_plan_id":"cebpf4jnsgd1na2vs0mg"},{"bike_id":"e349ff65-0a44-4668-be39-331480a53e8c","system_id":"levelo_inurba_marseille","lat":43.2967,"lon":5.44551,"is_reserved":false,"is_disabled":false,"rental_uris":{"android":"levelo://app?vid=e349ff65-0a44-4668-be39-331480a53e8c","ios":"levelo://app?vid=e349ff65-0a44-4668-be39-331480a53e8c"},"vehicle_type_id":"4","last_reported":1741500633,"current_range_meters":6800,"station_id":"","pricing_plan_id":"cebpf4jnsgd1na2vs0mg"},{"bike_id":"1efa829b-5cdd-4ff4-92b6-823aec4dee37","system_id":"levelo_inurba_marseille","lat":43.30534,"lon":5.36683,"is_reserved":false,"is_disabled":false,"rental_uris":{"android":"levelo://app?vid=1efa829b-5cdd-4ff4-92b6-823aec4dee37","ios":"levelo://app?vid=1efa829b-5cdd-4ff4-92b6-823aec4dee37"},"vehicle_type_id":"4","last_reported":1741500633,"current_range_meters":6800,"station_id":"ce4bgrp2rcd13ifvqc9g","pricing_plan_id":"cebpf4jnsgd1na2vs0mg"},{"bike_id":"903ca8fb-a01f-48af-9d7f-844151e9f785","system_id":"levelo_inurba_marseille","lat":43.27947,"lon":5.41042,"is_reserved":false,"is_disabled":true,"rental_uris":{"android":"levelo://app?vid=903ca8fb-a01f-48af-9d7f-844151e9f785","ios":"levelo://app?vid=903ca8fb-a01f-48af-9d7f-844151e9f785"},"vehicle_type_id":"4","last_reported":1741500633,"current_range_meters":6800,"station_id":"ce4bhnp2rcd13ifvqh0g","pricing_plan_id":"cebpf4jnsgd1na2vs0mg"},{"bike_id":"cb0d4d15-0ce0-4061-8a04-93bcbe80bd0f","system_id":"levelo_inurba_marseille","lat":43.25945,"lon":5.40925,"is_reserved":false,"is_disabled":false,"rental_uris":{"android":"levelo://app?vid=cb0d4d15-0ce0-4061-8a04-93bcbe80bd0f","ios":"levelo://app?vid=cb0d4d15-0ce0-4061-8a04-93bcbe80bd0f"},"vehicle_type_id":"4","last_reported":1741500633,"current_range_meters":6800,"station_id":"ce4bhm92rcd13ifvqglg","pricing_plan_id":"cebpf4jnsgd1na2vs0mg"},{"bike_id":"8b76a81a-4c10-4e7b-ab15-0f6dad2b5137","system_id":"levelo_inurba_marseille","lat":43.26558,"lon":5.37288,"is_reserved":false,"is_disabled":false,"rental_uris":{"android":"levelo://app?vid=8b76a81a-4c10-4e7b-ab15-0f6dad2b5137","ios":"levelo://app?vid=8b76a81a-4c10-4e7b-ab15-0f6dad2b5137"},"vehicle_type_id":"4","last_reported":1741500633,"current_range_meters":6800,"station_id":"ce4bhg12rcd13ifvqf70","pricing_plan_id":"cebpf4jnsgd1na2vs0mg"},{"bike_id":"1c0edaba-550e-4916-9ab6-b50abcaced38","system_id":"levelo_inurba_marseille","lat":43.28155,"lon":5.42662,"is_reserved":false,"is_disabled":false,"rental_uris":{"android":"levelo://app?vid=1c0edaba-550e-4916-9ab6-b50abcaced38","ios":"levelo://app?vid=1c0edaba-550e-4916-9ab6-b50abcaced38"},"vehicle_type_id":"4","last_reported":1741500633,"current_range_meters":6800,"station_id":"ce4bhnh2rcd13ifvqgug","pricing_plan_id":"cebpf4jnsgd1na2vs0mg"},{"bike_id":"0f547de3-c382-4c8d-a5a9-a1f7571fca3a","system_id":"levelo_inurba_marseille","lat":43.31174,"lon":5.38717,"is_reserved":false,"is_disabled":false,"rental_uris":{"android":"levelo://app?vid=0f547de3-c382-4c8d-a5a9-a1f7571fca3a","ios":"levelo://app?vid=0f547de3-c382-4c8d-a5a9-a1f7571fca3a"},"vehicle_type_id":"4","last_reported":1741500633,"current_range_meters":7200,"station_id":"ce4bgv12rcd13ifvqcp0","pricing_plan_id":"cebpf4jnsgd1na2vs0mg"},{"bike_id":"33bf21ac-44f3-4960-913c-36cb885e2d58","system_id":"levelo_inurba_marseille","lat":43.29257,"lon":5.37624,"is_reserved":false,"is_disabled":false,"rental_uris":{"android":"levelo://app?vid=33bf21ac-44f3-4960-913c-36cb885e2d58","ios":"levelo://app?vid=33bf21ac-44f3-4960-913c-36cb885e2d58"},"vehicle_type_id":"4","last_reported":1741500633,"current_range_meters":7200,"station_id":"ce4bgi12rcd13ifvqb80","pricing_plan_id":"cebpf4jnsgd1na2vs0mg"},{"bike_id":"a8f484f1-d47f-4ef2-b175-70c6757421df","system_id":"levelo_inurba_marseille","lat":43.30537,"lon":5.36928,"is_reserved":false,"is_disabled":false,"rental_uris":{"android":"levelo://app?vid=a8f484f1-d47f-4ef2-b175-70c6757421df","ios":"levelo://app?vid=a8f484f1-d47f-4ef2-b175-70c6757421df"},"vehicle_type_id":"4","last_reported":1741500633,"current_range_meters":7200,"station_id":"","pricing_plan_id":"cebpf4jnsgd1na2vs0mg"},{"bike_id":"4f508b50-1e3d-40c5-be77-1e6495edbe07","system_id":"levelo_inurba_marseille","lat":43.257264,"lon":5.411054,"is_reserved":false,"is_disabled":false,"rental_uris":{"android":"levelo://app?vid=4f508b50-1e3d-40c5-be77-1e6495edbe07","ios":"levelo://app?vid=4f508b50-1e3d-40c5-be77-1e6495edbe07"},"vehicle_type_id":"4","last_reported":1741500633,"current_range_meters":7200,"station_id":"ce4bhkp2rcd13ifvqgd0","pricing_plan_id":"cebpf4jnsgd1na2vs0mg"},{"bike_id":"c40c13ce-fdbb-4f52-b2d8-1005d4c9277b","system_id":"levelo_inurba_marseille","lat":43.25407,"lon":5.41887,"is_reserved":false,"is_disabled":false,"rental_uris":{"android":"levelo://app?vid=c40c13ce-fdbb-4f52-b2d8-1005d4c9277b","ios":"levelo://app?vid=c40c13ce-fdbb-4f52-b2d8-1005d4c9277b"},"vehicle_type_id":"4","last_reported":1741500633,"current_range_meters":7200,"station_id":"","pricing_plan_id":"cebpf4jnsgd1na2vs0mg"},{"bike_id":"b4ec2170-59cc-4751-981a-ecabaa90ce87","system_id":"levelo_inurba_marseille","lat":43.25118,"lon":5.40326,"is_reserved":false,"is_disabled":false,"rental_uris":{"android":"levelo://app?vid=b4ec2170-59cc-4751-981a-ecabaa90ce87","ios":"levelo://app?vid=b4ec2170-59cc-4751-981a-ecabaa90ce87"},"vehicle_type_id":"4","last_reported":1741500633,"current_range_meters":7200,"station_id":"ce4bhlh2rcd13ifvqgig","pricing_plan_id":"cebpf4jnsgd1na2vs0mg"},{"bike_id":"b0fab22e-e6d7-4978-96bf-c765be6151ef","system_id":"levelo_inurba_marseille","lat":43.28443,"lon":5.35875,"is_reserved":false,"is_disabled":false,"rental_uris":{"android":"levelo://app?vid=b0fab22e-e6d7-4978-96bf-c765be6151ef","ios":"levelo://app?vid=b0fab22e-e6d7-4978-96bf-c765be6151ef"},"vehicle_type_id":"4","last_reported":1741500633,"current_range_meters":7200,"station_id":"ce4bhah2rcd13ifvqei0","pricing_plan_id":"cebpf4jnsgd1na2vs0mg"},{"bike_id":"2ebd15c7-5740-46e8-a559-6418d4a20edd","system_id":"levelo_inurba_marseille","lat":43.28706,"lon":5.39944,"is_reserved":false,"is_disabled":false,"rental_uris":{"android":"levelo://app?vid=2ebd15c7-5740-46e8-a559-6418d4a20edd","ios":"levelo://app?vid=2ebd15c7-5740-46e8-a559-6418d4a20edd"},"vehicle_type_id":"4","last_reported":1741500633,"current_range_meters":7200,"station_id":"ce4bho92rcd13ifvqh3g","pricing_plan_id":"cebpf4jnsgd1na2vs0mg"},{"bike_id":"a225372c-34a3-41f5-848e-9fee338f694f","system_id":"levelo_inurba_marseille","lat":43.27667,"lon":5.38893,"is_reserved":false,"is_disabled":false,"rental_uris":{"android":"levelo://app?vid=a225372c-34a3-41f5-848e-9fee338f694f","ios":"levelo://app?vid=a225372c-34a3-41f5-848e-9fee338f694f"},"vehicle_type_id":"4","last_reported":1741500633,"current_range_meters":7200,"station_id":"ce4bhi12rcd13ifvqfo0","pricing_plan_id":"cebpf4jnsgd1na2vs0mg"},{"bike_id":"d98e72fb-f5df-4f42-b640-822629ee5d69","system_id":"levelo_inurba_marseille","lat":43.28611,"lon":5.35102,"is_reserved":false,"is_disabled":false,"rental_uris":{"android":"levelo://app?vid=d98e72fb-f5df-4f42-b640-822629ee5d69","ios":"levelo://app?vid=d98e72fb-f5df-4f42-b640-822629ee5d69"},"vehicle_type_id":"4","last_reported":1741500633,"current_range_meters":8000,"station_id":"ce4bhch2rcd13ifvqeug","pricing_plan_id":"cebpf4jnsgd1na2vs0mg"},{"bike_id":"c787a0ef-03a5-4d36-b53c-60238e9036da","system_id":"levelo_inurba_marseille","lat":43.23188,"lon":5.399949,"is_reserved":false,"is_disabled":false,"rental_uris":{"android":"levelo://app?vid=c787a0ef-03a5-4d36-b53c-60238e9036da","ios":"levelo://app?vid=c787a0ef-03a5-4d36-b53c-60238e9036da"},"vehicle_type_id":"4","last_reported":1741500633,"current_range_meters":8000,"station_id":"ce4bhn12rcd13ifvqgqg","pricing_plan_id":"cebpf4jnsgd1na2vs0mg"},{"bike_id":"7e48344a-4db8-47b3-8baa-574165663505","system_id":"levelo_inurba_marseille","lat":43.24383,"lon":5.37061,"is_reserved":false,"is_disabled":false,"rental_uris":{"android":"levelo://app?vid=7e48344a-4db8-47b3-8baa-574165663505","ios":"levelo://app?vid=7e48344a-4db8-47b3-8baa-574165663505"},"vehicle_type_id":"4","last_reported":1741500633,"current_range_meters":8000,"station_id":"ce4bhhh2rcd13ifvqfk0","pricing_plan_id":"cebpf4jnsgd1na2vs0mg"},{"bike_id":"bb96d802-64ed-4845-a11b-e9139b434f1c","system_id":"levelo_inurba_marseille","lat":43.30936,"lon":5.40153,"is_reserved":false,"is_disabled":false,"rental_uris":{"android":"levelo://app?vid=bb96d802-64ed-4845-a11b-e9139b434f1c","ios":"levelo://app?vid=bb96d802-64ed-4845-a11b-e9139b434f1c"},"vehicle_type_id":"4","last_reported":1741500633,"current_range_meters":8000,"station_id":"ce4bgvp2rcd13ifvqct0","pricing_plan_id":"cebpf4jnsgd1na2vs0mg"},{"bike_id":"d6449740-deef-42a2-a8ae-d4361c6624bd","system_id":"levelo_inurba_marseille","lat":43.239806,"lon":5.366232,"is_reserved":false,"is_disabled":false,"rental_uris":{"android":"levelo://app?vid=d6449740-deef-42a2-a8ae-d4361c6624bd","ios":"levelo://app?vid=d6449740-deef-42a2-a8ae-d4361c6624bd"},"vehicle_type_id":"4","last_reported":1741500633,"current_range_meters":8000,"station_id":"ce4bhi12rcd13ifvqfp0","pricing_plan_id":"cebpf4jnsgd1na2vs0mg"},{"bike_id":"58c40872-4524-40d5-a52e-77f211baba62","system_id":"levelo_inurba_marseille","lat":43.2966,"lon":5.371763,"is_reserved":false,"is_disabled":false,"rental_uris":{"android":"levelo://app?vid=58c40872-4524-40d5-a52e-77f211baba62","ios":"levelo://app?vid=58c40872-4524-40d5-a52e-77f211baba62"},"vehicle_type_id":"4","last_reported":1741500633,"current_range_meters":7200,"station_id":"ce4bgn12rcd13ifvqbt0","pricing_plan_id":"cebpf4jnsgd1na2vs0mg"},{"bike_id":"50724cb0-f096-4563-be1c-93758466ecb4","system_id":"levelo_inurba_marseille","lat":43.320022,"lon":5.381578,"is_reserved":false,"is_disabled":false,"rental_uris":{"android":"levelo://app?vid=50724cb0-f096-4563-be1c-93758466ecb4","ios":"levelo://app?vid=50724cb0-f096-4563-be1c-93758466ecb4"},"vehicle_type_id":"4","last_reported":1741500633,"current_range_meters":8400,"station_id":"ce4bhr12rcd13ifvqhpg","pricing_plan_id":"cebpf4jnsgd1na2vs0mg"},{"bike_id":"b2c2514d-58df-4080-9acc-0a3325c87525","system_id":"levelo_inurba_marseille","lat":43.32369,"lon":5.36763,"is_reserved":false,"is_disabled":false,"rental_uris":{"android":"levelo://app?vid=b2c2514d-58df-4080-9acc-0a3325c87525","ios":"levelo://app?vid=b2c2514d-58df-4080-9acc-0a3325c87525"},"vehicle_type_id":"4","last_reported":1741500633,"current_range_meters":8400,"station_id":"ce4bhsh2rcd13ifvqi2g","pricing_plan_id":"cebpf4jnsgd1na2vs0mg"},{"bike_id":"fdf45df4-47d5-41e8-a6c7-03ee85585140","system_id":"levelo_inurba_marseille","lat":43.26779,"lon":5.39445,"is_reserved":false,"is_disabled":true,"rental_uris":{"android":"levelo://app?vid=fdf45df4-47d5-41e8-a6c7-03ee85585140","ios":"levelo://app?vid=fdf45df4-47d5-41e8-a6c7-03ee85585140"},"vehicle_type_id":"4","last_reported":1741500633,"current_range_meters":8400,"station_id":"ce4bhh12rcd13ifvqfg0","pricing_plan_id":"cebpf4jnsgd1na2vs0mg"},{"bike_id":"dd9a88d6-be9f-49f5-ab3a-4a9b434f536b","system_id":"levelo_inurba_marseille","lat":43.309262,"lon":5.401477,"is_reserved":false,"is_disabled":true,"rental_uris":{"android":"levelo://app?vid=dd9a88d6-be9f-49f5-ab3a-4a9b434f536b","ios":"levelo://app?vid=dd9a88d6-be9f-49f5-ab3a-4a9b434f536b"},"vehicle_type_id":"4","last_reported":1741500633,"current_range_meters":8400,"station_id":"ce4bgvp2rcd13ifvqct0","pricing_plan_id":"cebpf4jnsgd1na2vs0mg"},{"bike_id":"8061010c-0a2a-4149-9b9c-8feec9bf1e55","system_id":"levelo_inurba_marseille","lat":43.308889,"lon":5.371931,"is_reserved":false,"is_disabled":false,"rental_uris":{"android":"levelo://app?vid=8061010c-0a2a-4149-9b9c-8feec9bf1e55","ios":"levelo://app?vid=8061010c-0a2a-4149-9b9c-8feec9bf1e55"},"vehicle_type_id":"4","last_reported":1741500633,"current_range_meters":8400,"station_id":"ce4bguh2rcd13ifvqckg","pricing_plan_id":"cebpf4jnsgd1na2vs0mg"},{"bike_id":"9d879d72-1be3-41e4-a16b-d79813fc8a4b","system_id":"levelo_inurba_marseille","lat":43.303275,"lon":5.404511,"is_reserved":false,"is_disabled":false,"rental_uris":{"android":"levelo://app?vid=9d879d72-1be3-41e4-a16b-d79813fc8a4b","ios":"levelo://app?vid=9d879d72-1be3-41e4-a16b-d79813fc8a4b"},"vehicle_type_id":"4","last_reported":1741500633,"current_range_meters":8400,"station_id":"ce4bh012rcd13ifvqd10","pricing_plan_id":"cebpf4jnsgd1na2vs0mg"},{"bike_id":"692c3fd1-e388-4c38-bc5f-023f56dd0104","system_id":"levelo_inurba_marseille","lat":43.25737,"lon":5.41115,"is_reserved":false,"is_disabled":false,"rental_uris":{"android":"levelo://app?vid=692c3fd1-e388-4c38-bc5f-023f56dd0104","ios":"levelo://app?vid=692c3fd1-e388-4c38-bc5f-023f56dd0104"},"vehicle_type_id":"4","last_reported":1741500633,"current_range_meters":8400,"station_id":"ce4bhkp2rcd13ifvqgd0","pricing_plan_id":"cebpf4jnsgd1na2vs0mg"},{"bike_id":"d399c68f-4683-4187-95d7-e32ffde3c66c","system_id":"levelo_inurba_marseille","lat":43.25088,"lon":5.39516,"is_reserved":false,"is_disabled":false,"rental_uris":{"android":"levelo://app?vid=d399c68f-4683-4187-95d7-e32ffde3c66c","ios":"levelo://app?vid=d399c68f-4683-4187-95d7-e32ffde3c66c"},"vehicle_type_id":"4","last_reported":1741500633,"current_range_meters":8400,"station_id":"ce4bhm12rcd13ifvqgkg","pricing_plan_id":"cebpf4jnsgd1na2vs0mg"},{"bike_id":"26c4b043-dbbc-4921-ade9-14900c7a9ee0","system_id":"levelo_inurba_marseille","lat":43.28455,"lon":5.35886,"is_reserved":false,"is_disabled":false,"rental_uris":{"android":"levelo://app?vid=26c4b043-dbbc-4921-ade9-14900c7a9ee0","ios":"levelo://app?vid=26c4b043-dbbc-4921-ade9-14900c7a9ee0"},"vehicle_type_id":"4","last_reported":1741500633,"current_range_meters":8400,"station_id":"ce4bhah2rcd13ifvqei0","pricing_plan_id":"cebpf4jnsgd1na2vs0mg"},{"bike_id":"2f0c724b-bb76-4a4c-8862-0d82bf790fbd","system_id":"levelo_inurba_marseille","lat":43.26566,"lon":5.39036,"is_reserved":false,"is_disabled":false,"rental_uris":{"android":"levelo://app?vid=2f0c724b-bb76-4a4c-8862-0d82bf790fbd","ios":"levelo://app?vid=2f0c724b-bb76-4a4c-8862-0d82bf790fbd"},"vehicle_type_id":"4","last_reported":1741500633,"current_range_meters":8400,"station_id":"ce4bhe12rcd13ifvqf30","pricing_plan_id":"cebpf4jnsgd1na2vs0mg"},{"bike_id":"b533f38f-df9a-4e01-86fb-08f4b9bfcdfb","system_id":"levelo_inurba_marseille","lat":43.26223,"lon":5.42138,"is_reserved":false,"is_disabled":false,"rental_uris":{"android":"levelo://app?vid=b533f38f-df9a-4e01-86fb-08f4b9bfcdfb","ios":"levelo://app?vid=b533f38f-df9a-4e01-86fb-08f4b9bfcdfb"},"vehicle_type_id":"4","last_reported":1741500633,"current_range_meters":8400,"station_id":"","pricing_plan_id":"cebpf4jnsgd1na2vs0mg"},{"bike_id":"dad63a22-3573-4eb3-a8b7-44c1b9eff39e","system_id":"levelo_inurba_marseille","lat":43.32636,"lon":5.4101,"is_reserved":false,"is_disabled":false,"rental_uris":{"android":"levelo://app?vid=dad63a22-3573-4eb3-a8b7-44c1b9eff39e","ios":"levelo://app?vid=dad63a22-3573-4eb3-a8b7-44c1b9eff39e"},"vehicle_type_id":"4","last_reported":1741500633,"current_range_meters":8400,"station_id":"ce4bhpp2rcd13ifvqhgg","pricing_plan_id":"cebpf4jnsgd1na2vs0mg"},{"bike_id":"a2d14984-1470-43e9-a791-4e28d66c40c8","system_id":"levelo_inurba_marseille","lat":43.287138,"lon":5.399849,"is_reserved":false,"is_disabled":false,"rental_uris":{"android":"levelo://app?vid=a2d14984-1470-43e9-a791-4e28d66c40c8","ios":"levelo://app?vid=a2d14984-1470-43e9-a791-4e28d66c40c8"},"vehicle_type_id":"4","last_reported":1741500633,"current_range_meters":8800,"station_id":"ce4bho92rcd13ifvqh3g","pricing_plan_id":"cebpf4jnsgd1na2vs0mg"},{"bike_id":"2e3c60b3-f5fc-40b6-b347-86b0b4f3ee6e","system_id":"levelo_inurba_marseille","lat":43.23191,"lon":5.39985,"is_reserved":false,"is_disabled":false,"rental_uris":{"android":"levelo://app?vid=2e3c60b3-f5fc-40b6-b347-86b0b4f3ee6e","ios":"levelo://app?vid=2e3c60b3-f5fc-40b6-b347-86b0b4f3ee6e"},"vehicle_type_id":"4","last_reported":1741500633,"current_range_meters":8400,"station_id":"ce4bhn12rcd13ifvqgqg","pricing_plan_id":"cebpf4jnsgd1na2vs0mg"},{"bike_id":"203bfbf7-d36e-413a-b907-92f5e222a41c","system_id":"levelo_inurba_marseille","lat":43.30427,"lon":5.39744,"is_reserved":false,"is_disabled":false,"rental_uris":{"android":"levelo://app?vid=203bfbf7-d36e-413a-b907-92f5e222a41c","ios":"levelo://app?vid=203bfbf7-d36e-413a-b907-92f5e222a41c"},"vehicle_type_id":"4","last_reported":1741500633,"current_range_meters":8400,"station_id":"ce4bh092rcd13ifvqd20","pricing_plan_id":"cebpf4jnsgd1na2vs0mg"},{"bike_id":"c854b195-a8dd-4c0b-8985-9c3d86974ab3","system_id":"levelo_inurba_marseille","lat":43.32593,"lon":5.35701,"is_reserved":false,"is_disabled":false,"rental_uris":{"android":"levelo://app?vid=c854b195-a8dd-4c0b-8985-9c3d86974ab3","ios":"levelo://app?vid=c854b195-a8dd-4c0b-8985-9c3d86974ab3"},"vehicle_type_id":"4","last_reported":1741500633,"current_range_meters":8400,"station_id":"","pricing_plan_id":"cebpf4jnsgd1na2vs0mg"},{"bike_id":"e2f0b9ec-4e7f-4be6-ba0b-ea951e669535","system_id":"levelo_inurba_marseille","lat":43.30896,"lon":5.37202,"is_reserved":false,"is_disabled":false,"rental_uris":{"android":"levelo://app?vid=e2f0b9ec-4e7f-4be6-ba0b-ea951e669535","ios":"levelo://app?vid=e2f0b9ec-4e7f-4be6-ba0b-ea951e669535"},"vehicle_type_id":"4","last_reported":1741500633,"current_range_meters":8400,"station_id":"ce4bguh2rcd13ifvqckg","pricing_plan_id":"cebpf4jnsgd1na2vs0mg"},{"bike_id":"89846120-624d-4233-a515-bdc69e3f3ab7","system_id":"levelo_inurba_marseille","lat":43.30322,"lon":5.40445,"is_reserved":false,"is_disabled":false,"rental_uris":{"android":"levelo://app?vid=89846120-624d-4233-a515-bdc69e3f3ab7","ios":"levelo://app?vid=89846120-624d-4233-a515-bdc69e3f3ab7"},"vehicle_type_id":"4","last_reported":1741500633,"current_range_meters":8400,"station_id":"ce4bh012rcd13ifvqd10","pricing_plan_id":"cebpf4jnsgd1na2vs0mg"},{"bike_id":"a380f3ab-dca9-458b-9750-1a91c4bc6a52","system_id":"levelo_inurba_marseille","lat":43.28705,"lon":5.39997,"is_reserved":false,"is_disabled":false,"rental_uris":{"android":"levelo://app?vid=a380f3ab-dca9-458b-9750-1a91c4bc6a52","ios":"levelo://app?vid=a380f3ab-dca9-458b-9750-1a91c4bc6a52"},"vehicle_type_id":"4","last_reported":1741500633,"current_range_meters":8400,"station_id":"ce4bho92rcd13ifvqh3g","pricing_plan_id":"cebpf4jnsgd1na2vs0mg"},{"bike_id":"4535af30-838a-436f-9c39-afb86353063f","system_id":"levelo_inurba_marseille","lat":43.30204,"lon":5.39951,"is_reserved":false,"is_disabled":false,"rental_uris":{"android":"levelo://app?vid=4535af30-838a-436f-9c39-afb86353063f","ios":"levelo://app?vid=4535af30-838a-436f-9c39-afb86353063f"},"vehicle_type_id":"4","last_reported":1741500633,"current_range_meters":8400,"station_id":"","pricing_plan_id":"cebpf4jnsgd1na2vs0mg"},{"bike_id":"344eec88-8503-48cc-b750-e9b8cb1dcb80","system_id":"levelo_inurba_marseille","lat":43.25078,"lon":5.39532,"is_reserved":false,"is_disabled":false,"rental_uris":{"android":"levelo://app?vid=344eec88-8503-48cc-b750-e9b8cb1dcb80","ios":"levelo://app?vid=344eec88-8503-48cc-b750-e9b8cb1dcb80"},"vehicle_type_id":"4","last_reported":1741500633,"current_range_meters":8400,"station_id":"ce4bhm12rcd13ifvqgkg","pricing_plan_id":"cebpf4jnsgd1na2vs0mg"},{"bike_id":"e4bd2c36-555f-4bad-ae17-7623a44e9165","system_id":"levelo_inurba_marseille","lat":43.31346,"lon":5.38329,"is_reserved":false,"is_disabled":false,"rental_uris":{"android":"levelo://app?vid=e4bd2c36-555f-4bad-ae17-7623a44e9165","ios":"levelo://app?vid=e4bd2c36-555f-4bad-ae17-7623a44e9165"},"vehicle_type_id":"4","last_reported":1741500633,"current_range_meters":8800,"station_id":"","pricing_plan_id":"cebpf4jnsgd1na2vs0mg"},{"bike_id":"8f5dab6d-2894-416d-a759-7ba460d39adc","system_id":"levelo_inurba_marseille","lat":43.30152,"lon":5.38082,"is_reserved":false,"is_disabled":false,"rental_uris":{"android":"levelo://app?vid=8f5dab6d-2894-416d-a759-7ba460d39adc","ios":"levelo://app?vid=8f5dab6d-2894-416d-a759-7ba460d39adc"},"vehicle_type_id":"4","last_reported":1741500633,"current_range_meters":8400,"station_id":"ce4bgjp2rcd13ifvqbh0","pricing_plan_id":"cebpf4jnsgd1na2vs0mg"},{"bike_id":"9daec99a-f5ae-4827-a85a-40df40cab668","system_id":"levelo_inurba_marseille","lat":43.2841,"lon":5.37524,"is_reserved":false,"is_disabled":false,"rental_uris":{"android":"levelo://app?vid=9daec99a-f5ae-4827-a85a-40df40cab668","ios":"levelo://app?vid=9daec99a-f5ae-4827-a85a-40df40cab668"},"vehicle_type_id":"4","last_reported":1741500633,"current_range_meters":8800,"station_id":"ce4bh412rcd13ifvqds0","pricing_plan_id":"cebpf4jnsgd1na2vs0mg"},{"bike_id":"388ea826-f5fa-4632-a530-45d13cc0a769","system_id":"levelo_inurba_marseille","lat":43.23191,"lon":5.39995,"is_reserved":false,"is_disabled":false,"rental_uris":{"android":"levelo://app?vid=388ea826-f5fa-4632-a530-45d13cc0a769","ios":"levelo://app?vid=388ea826-f5fa-4632-a530-45d13cc0a769"},"vehicle_type_id":"4","last_reported":1741500633,"current_range_meters":8800,"station_id":"ce4bhn12rcd13ifvqgqg","pricing_plan_id":"cebpf4jnsgd1na2vs0mg"},{"bike_id":"d3db5e48-c2af-4fca-8501-f777455dba21","system_id":"levelo_inurba_marseille","lat":43.250037,"lon":5.389323,"is_reserved":false,"is_disabled":false,"rental_uris":{"android":"levelo://app?vid=d3db5e48-c2af-4fca-8501-f777455dba21","ios":"levelo://app?vid=d3db5e48-c2af-4fca-8501-f777455dba21"},"vehicle_type_id":"4","last_reported":1741500633,"current_range_meters":8800,"station_id":"ce4bhgp2rcd13ifvqfd0","pricing_plan_id":"cebpf4jnsgd1na2vs0mg"},{"bike_id":"b27af624-9233-4f49-9436-a8650c462731","system_id":"levelo_inurba_marseille","lat":43.31113,"lon":5.37786,"is_reserved":false,"is_disabled":false,"rental_uris":{"android":"levelo://app?vid=b27af624-9233-4f49-9436-a8650c462731","ios":"levelo://app?vid=b27af624-9233-4f49-9436-a8650c462731"},"vehicle_type_id":"4","last_reported":1741500633,"current_range_meters":8800,"station_id":"ce4bgt92rcd13ifvqcg0","pricing_plan_id":"cebpf4jnsgd1na2vs0mg"},{"bike_id":"e1b93478-9a2c-415f-bb57-ab2fd6bf9983","system_id":"levelo_inurba_marseille","lat":43.27679,"lon":5.38889,"is_reserved":false,"is_disabled":true,"rental_uris":{"android":"levelo://app?vid=e1b93478-9a2c-415f-bb57-ab2fd6bf9983","ios":"levelo://app?vid=e1b93478-9a2c-415f-bb57-ab2fd6bf9983"},"vehicle_type_id":"4","last_reported":1741500633,"current_range_meters":8800,"station_id":"ce4bhi12rcd13ifvqfo0","pricing_plan_id":"cebpf4jnsgd1na2vs0mg"},{"bike_id":"7c325f56-b3c9-4a5e-ae2d-4e351bf51899","system_id":"levelo_inurba_marseille","lat":43.295767,"lon":5.399622,"is_reserved":false,"is_disabled":false,"rental_uris":{"android":"levelo://app?vid=7c325f56-b3c9-4a5e-ae2d-4e351bf51899","ios":"levelo://app?vid=7c325f56-b3c9-4a5e-ae2d-4e351bf51899"},"vehicle_type_id":"4","last_reported":1741500633,"current_range_meters":8800,"station_id":"ce4bh312rcd13ifvqdj0","pricing_plan_id":"cebpf4jnsgd1na2vs0mg"},{"bike_id":"4d25eba3-91a7-44e3-a3d6-0d6fb43523a6","system_id":"levelo_inurba_marseille","lat":43.30884,"lon":5.3719,"is_reserved":false,"is_disabled":false,"rental_uris":{"android":"levelo://app?vid=4d25eba3-91a7-44e3-a3d6-0d6fb43523a6","ios":"levelo://app?vid=4d25eba3-91a7-44e3-a3d6-0d6fb43523a6"},"vehicle_type_id":"4","last_reported":1741500633,"current_range_meters":8800,"station_id":"ce4bguh2rcd13ifvqckg","pricing_plan_id":"cebpf4jnsgd1na2vs0mg"},{"bike_id":"78dd0279-c270-48af-857c-971f5461b139","system_id":"levelo_inurba_marseille","lat":43.31698,"lon":5.37819,"is_reserved":false,"is_disabled":false,"rental_uris":{"android":"levelo://app?vid=78dd0279-c270-48af-857c-971f5461b139","ios":"levelo://app?vid=78dd0279-c270-48af-857c-971f5461b139"},"vehicle_type_id":"4","last_reported":1741500633,"current_range_meters":8800,"station_id":"ce4bgth2rcd13ifvqch0","pricing_plan_id":"cebpf4jnsgd1na2vs0mg"},{"bike_id":"30e7968e-2fb8-49ae-80fd-815bd979d78a","system_id":"levelo_inurba_marseille","lat":43.30464,"lon":5.37908,"is_reserved":false,"is_disabled":false,"rental_uris":{"android":"levelo://app?vid=30e7968e-2fb8-49ae-80fd-815bd979d78a","ios":"levelo://app?vid=30e7968e-2fb8-49ae-80fd-815bd979d78a"},"vehicle_type_id":"4","last_reported":1741500633,"current_range_meters":9200,"station_id":"ce4bgup2rcd13ifvqcn0","pricing_plan_id":"cebpf4jnsgd1na2vs0mg"},{"bike_id":"10b0cc57-33fa-4671-9219-83a27da5a77b","system_id":"levelo_inurba_marseille","lat":43.30253,"lon":5.40066,"is_reserved":false,"is_disabled":false,"rental_uris":{"android":"levelo://app?vid=10b0cc57-33fa-4671-9219-83a27da5a77b","ios":"levelo://app?vid=10b0cc57-33fa-4671-9219-83a27da5a77b"},"vehicle_type_id":"4","last_reported":1741500633,"current_range_meters":9200,"station_id":"ce4bgvh2rcd13ifvqcs0","pricing_plan_id":"cebpf4jnsgd1na2vs0mg"},{"bike_id":"ad284fdb-e6f9-4c5a-9e2c-c44130087410","system_id":"levelo_inurba_marseille","lat":43.23178,"lon":5.39989,"is_reserved":false,"is_disabled":false,"rental_uris":{"android":"levelo://app?vid=ad284fdb-e6f9-4c5a-9e2c-c44130087410","ios":"levelo://app?vid=ad284fdb-e6f9-4c5a-9e2c-c44130087410"},"vehicle_type_id":"4","last_reported":1741500633,"current_range_meters":9200,"station_id":"ce4bhn12rcd13ifvqgqg","pricing_plan_id":"cebpf4jnsgd1na2vs0mg"},{"bike_id":"8968ebf0-976e-4199-a05d-0b5eb90e8fa7","system_id":"levelo_inurba_marseille","lat":43.257256,"lon":5.411066,"is_reserved":false,"is_disabled":false,"rental_uris":{"android":"levelo://app?vid=8968ebf0-976e-4199-a05d-0b5eb90e8fa7","ios":"levelo://app?vid=8968ebf0-976e-4199-a05d-0b5eb90e8fa7"},"vehicle_type_id":"4","last_reported":1741500633,"current_range_meters":9200,"station_id":"ce4bhkp2rcd13ifvqgd0","pricing_plan_id":"cebpf4jnsgd1na2vs0mg"},{"bike_id":"b9f50795-762b-415e-beef-6809359ba11c","system_id":"levelo_inurba_marseille","lat":43.31722,"lon":5.37833,"is_reserved":false,"is_disabled":false,"rental_uris":{"android":"levelo://app?vid=b9f50795-762b-415e-beef-6809359ba11c","ios":"levelo://app?vid=b9f50795-762b-415e-beef-6809359ba11c"},"vehicle_type_id":"4","last_reported":1741500633,"current_range_meters":9200,"station_id":"ce4bgth2rcd13ifvqch0","pricing_plan_id":"cebpf4jnsgd1na2vs0mg"},{"bike_id":"8c48953b-4c44-4322-93ed-5007a58895e4","system_id":"levelo_inurba_marseille","lat":43.28707,"lon":5.39994,"is_reserved":false,"is_disabled":false,"rental_uris":{"android":"levelo://app?vid=8c48953b-4c44-4322-93ed-5007a58895e4","ios":"levelo://app?vid=8c48953b-4c44-4322-93ed-5007a58895e4"},"vehicle_type_id":"4","last_reported":1741500633,"current_range_meters":9200,"station_id":"ce4bho92rcd13ifvqh3g","pricing_plan_id":"cebpf4jnsgd1na2vs0mg"},{"bike_id":"74abb9f3-e9df-492e-9cdb-31607d406cdb","system_id":"levelo_inurba_marseille","lat":43.29819,"lon":5.40419,"is_reserved":false,"is_disabled":false,"rental_uris":{"android":"levelo://app?vid=74abb9f3-e9df-492e-9cdb-31607d406cdb","ios":"levelo://app?vid=74abb9f3-e9df-492e-9cdb-31607d406cdb"},"vehicle_type_id":"4","last_reported":1741500633,"current_range_meters":9200,"station_id":"ce4bh112rcd13ifvqd90","pricing_plan_id":"cebpf4jnsgd1na2vs0mg"},{"bike_id":"3bbf4e63-bc15-4fc5-b69b-210678351fb6","system_id":"levelo_inurba_marseille","lat":43.24071,"lon":5.3776,"is_reserved":false,"is_disabled":false,"rental_uris":{"android":"levelo://app?vid=3bbf4e63-bc15-4fc5-b69b-210678351fb6","ios":"levelo://app?vid=3bbf4e63-bc15-4fc5-b69b-210678351fb6"},"vehicle_type_id":"4","last_reported":1741500633,"current_range_meters":9200,"station_id":"ce4bhnp2rcd13ifvqgvg","pricing_plan_id":"cebpf4jnsgd1na2vs0mg"},{"bike_id":"cdc6fa71-b8c0-46e7-902c-4e18b52385d2","system_id":"levelo_inurba_marseille","lat":43.28828,"lon":5.40024,"is_reserved":false,"is_disabled":false,"rental_uris":{"android":"levelo://app?vid=cdc6fa71-b8c0-46e7-902c-4e18b52385d2","ios":"levelo://app?vid=cdc6fa71-b8c0-46e7-902c-4e18b52385d2"},"vehicle_type_id":"4","last_reported":1741500633,"current_range_meters":9200,"station_id":"","pricing_plan_id":"cebpf4jnsgd1na2vs0mg"},{"bike_id":"8eacff87-68fb-4181-ae93-fe09a817442a","system_id":"levelo_inurba_marseille","lat":43.26066,"lon":5.39399,"is_reserved":false,"is_disabled":false,"rental_uris":{"android":"levelo://app?vid=8eacff87-68fb-4181-ae93-fe09a817442a","ios":"levelo://app?vid=8eacff87-68fb-4181-ae93-fe09a817442a"},"vehicle_type_id":"4","last_reported":1741500633,"current_range_meters":9200,"station_id":"ce4bhh92rcd13ifvqfj0","pricing_plan_id":"cebpf4jnsgd1na2vs0mg"},{"bike_id":"adaecb39-5029-4e40-84d0-47606bc4d56a","system_id":"levelo_inurba_marseille","lat":43.29277,"lon":5.40113,"is_reserved":false,"is_disabled":false,"rental_uris":{"android":"levelo://app?vid=adaecb39-5029-4e40-84d0-47606bc4d56a","ios":"levelo://app?vid=adaecb39-5029-4e40-84d0-47606bc4d56a"},"vehicle_type_id":"4","last_reported":1741500633,"current_range_meters":9600,"station_id":"ce4bh312rcd13ifvqdk0","pricing_plan_id":"cebpf4jnsgd1na2vs0mg"},{"bike_id":"93b65028-e8a4-4c8f-876a-ae246ea8ac90","system_id":"levelo_inurba_marseille","lat":43.31354,"lon":5.38503,"is_reserved":false,"is_disabled":true,"rental_uris":{"android":"levelo://app?vid=93b65028-e8a4-4c8f-876a-ae246ea8ac90","ios":"levelo://app?vid=93b65028-e8a4-4c8f-876a-ae246ea8ac90"},"vehicle_type_id":"4","last_reported":1741500633,"current_range_meters":9600,"station_id":"ce4bgt92rcd13ifvqcf0","pricing_plan_id":"cebpf4jnsgd1na2vs0mg"},{"bike_id":"65bc7032-3d69-47f4-a3fb-90ada1f7b1d3","system_id":"levelo_inurba_marseille","lat":43.31755,"lon":5.39029,"is_reserved":false,"is_disabled":false,"rental_uris":{"android":"levelo://app?vid=65bc7032-3d69-47f4-a3fb-90ada1f7b1d3","ios":"levelo://app?vid=65bc7032-3d69-47f4-a3fb-90ada1f7b1d3"},"vehicle_type_id":"4","last_reported":1741500633,"current_range_meters":9600,"station_id":"ce4bhqp2rcd13ifvqhng","pricing_plan_id":"cebpf4jnsgd1na2vs0mg"},{"bike_id":"2a3a8222-0824-4130-a051-e3506a3fb94c","system_id":"levelo_inurba_marseille","lat":43.24074,"lon":5.37756,"is_reserved":false,"is_disabled":false,"rental_uris":{"android":"levelo://app?vid=2a3a8222-0824-4130-a051-e3506a3fb94c","ios":"levelo://app?vid=2a3a8222-0824-4130-a051-e3506a3fb94c"},"vehicle_type_id":"4","last_reported":1741500633,"current_range_meters":9600,"station_id":"ce4bhnp2rcd13ifvqgvg","pricing_plan_id":"cebpf4jnsgd1na2vs0mg"},{"bike_id":"30ca0a12-56c0-4feb-9059-10680035a6ae","system_id":"levelo_inurba_marseille","lat":43.287037,"lon":5.373888,"is_reserved":false,"is_disabled":true,"rental_uris":{"android":"levelo://app?vid=30ca0a12-56c0-4feb-9059-10680035a6ae","ios":"levelo://app?vid=30ca0a12-56c0-4feb-9059-10680035a6ae"},"vehicle_type_id":"4","last_reported":1741500633,"current_range_meters":9600,"station_id":"ce4bh3p2rcd13ifvqdq0","pricing_plan_id":"cebpf4jnsgd1na2vs0mg"},{"bike_id":"3e3ed28a-d70d-4e7b-8492-a13a8b5faa63","system_id":"levelo_inurba_marseille","lat":43.25853,"lon":5.3991,"is_reserved":false,"is_disabled":false,"rental_uris":{"android":"levelo://app?vid=3e3ed28a-d70d-4e7b-8492-a13a8b5faa63","ios":"levelo://app?vid=3e3ed28a-d70d-4e7b-8492-a13a8b5faa63"},"vehicle_type_id":"4","last_reported":1741500633,"current_range_meters":9600,"station_id":"ce4bhl92rcd13ifvqghg","pricing_plan_id":"cebpf4jnsgd1na2vs0mg"},{"bike_id":"e5e118b0-32a8-4ef3-b6d1-b7487133ba19","system_id":"levelo_inurba_marseille","lat":43.28172,"lon":5.42687,"is_reserved":false,"is_disabled":false,"rental_uris":{"android":"levelo://app?vid=e5e118b0-32a8-4ef3-b6d1-b7487133ba19","ios":"levelo://app?vid=e5e118b0-32a8-4ef3-b6d1-b7487133ba19"},"vehicle_type_id":"4","last_reported":1741500633,"current_range_meters":9600,"station_id":"ce4bhnh2rcd13ifvqgug","pricing_plan_id":"cebpf4jnsgd1na2vs0mg"},{"bike_id":"1cd6b764-7720-4104-9259-90d6633d8038","system_id":"levelo_inurba_marseille","lat":43.30805,"lon":5.38175,"is_reserved":false,"is_disabled":false,"rental_uris":{"android":"levelo://app?vid=1cd6b764-7720-4104-9259-90d6633d8038","ios":"levelo://app?vid=1cd6b764-7720-4104-9259-90d6633d8038"},"vehicle_type_id":"4","last_reported":1741500633,"current_range_meters":9600,"station_id":"ce4bgt12rcd13ifvqce0","pricing_plan_id":"cebpf4jnsgd1na2vs0mg"},{"bike_id":"36cd3bb4-3fdd-4d77-8d73-1054c5c978c2","system_id":"levelo_inurba_marseille","lat":43.2696,"lon":5.38636,"is_reserved":false,"is_disabled":false,"rental_uris":{"android":"levelo://app?vid=36cd3bb4-3fdd-4d77-8d73-1054c5c978c2","ios":"levelo://app?vid=36cd3bb4-3fdd-4d77-8d73-1054c5c978c2"},"vehicle_type_id":"4","last_reported":1741500633,"current_range_meters":9600,"station_id":"ce4bhh92rcd13ifvqfh0","pricing_plan_id":"cebpf4jnsgd1na2vs0mg"},{"bike_id":"d4d80517-15f5-40ba-adfb-dbbe2bf1cada","system_id":"levelo_inurba_marseille","lat":43.29027,"lon":5.43688,"is_reserved":false,"is_disabled":false,"rental_uris":{"android":"levelo://app?vid=d4d80517-15f5-40ba-adfb-dbbe2bf1cada","ios":"levelo://app?vid=d4d80517-15f5-40ba-adfb-dbbe2bf1cada"},"vehicle_type_id":"4","last_reported":1741500633,"current_range_meters":9600,"station_id":"","pricing_plan_id":"cebpf4jnsgd1na2vs0mg"},{"bike_id":"3a6c4906-af46-4c04-a467-abe21adbd0e4","system_id":"levelo_inurba_marseille","lat":43.24387,"lon":5.37052,"is_reserved":false,"is_disabled":false,"rental_uris":{"android":"levelo://app?vid=3a6c4906-af46-4c04-a467-abe21adbd0e4","ios":"levelo://app?vid=3a6c4906-af46-4c04-a467-abe21adbd0e4"},"vehicle_type_id":"4","last_reported":1741500633,"current_range_meters":9600,"station_id":"ce4bhhh2rcd13ifvqfk0","pricing_plan_id":"cebpf4jnsgd1na2vs0mg"},{"bike_id":"d729c7f4-89ec-407d-beb1-2e2d40d550c1","system_id":"levelo_inurba_marseille","lat":43.27168,"lon":5.41033,"is_reserved":false,"is_disabled":false,"rental_uris":{"android":"levelo://app?vid=d729c7f4-89ec-407d-beb1-2e2d40d550c1","ios":"levelo://app?vid=d729c7f4-89ec-407d-beb1-2e2d40d550c1"},"vehicle_type_id":"4","last_reported":1741500633,"current_range_meters":9600,"station_id":"ce4bhl12rcd13ifvqgf0","pricing_plan_id":"cebpf4jnsgd1na2vs0mg"},{"bike_id":"58e2d297-8c60-46e9-9753-4f52f6b89aa7","system_id":"levelo_inurba_marseille","lat":43.29252,"lon":5.40914,"is_reserved":false,"is_disabled":false,"rental_uris":{"android":"levelo://app?vid=58e2d297-8c60-46e9-9753-4f52f6b89aa7","ios":"levelo://app?vid=58e2d297-8c60-46e9-9753-4f52f6b89aa7"},"vehicle_type_id":"4","last_reported":1741500633,"current_range_meters":9600,"station_id":"ce4bh192rcd13ifvqdc0","pricing_plan_id":"cebpf4jnsgd1na2vs0mg"},{"bike_id":"31078f29-744e-4f70-aa89-070122c91b31","system_id":"levelo_inurba_marseille","lat":43.343584,"lon":5.399625,"is_reserved":false,"is_disabled":false,"rental_uris":{"android":"levelo://app?vid=31078f29-744e-4f70-aa89-070122c91b31","ios":"levelo://app?vid=31078f29-744e-4f70-aa89-070122c91b31"},"vehicle_type_id":"4","last_reported":1741500633,"current_range_meters":10000,"station_id":"","pricing_plan_id":"cebpf4jnsgd1na2vs0mg"},{"bike_id":"716ad52e-6276-401a-9565-37b068cf8f1c","system_id":"levelo_inurba_marseille","lat":43.24811,"lon":5.3746,"is_reserved":false,"is_disabled":false,"rental_uris":{"android":"levelo://app?vid=716ad52e-6276-401a-9565-37b068cf8f1c","ios":"levelo://app?vid=716ad52e-6276-401a-9565-37b068cf8f1c"},"vehicle_type_id":"4","last_reported":1741500633,"current_range_meters":10000,"station_id":"ce4bhgh2rcd13ifvqfb0","pricing_plan_id":"cebpf4jnsgd1na2vs0mg"},{"bike_id":"19bbe8da-d7df-496e-a677-cbaab925cf5e","system_id":"levelo_inurba_marseille","lat":43.24859,"lon":5.42538,"is_reserved":false,"is_disabled":false,"rental_uris":{"android":"levelo://app?vid=19bbe8da-d7df-496e-a677-cbaab925cf5e","ios":"levelo://app?vid=19bbe8da-d7df-496e-a677-cbaab925cf5e"},"vehicle_type_id":"4","last_reported":1741500633,"current_range_meters":10000,"station_id":"","pricing_plan_id":"cebpf4jnsgd1na2vs0mg"},{"bike_id":"14704438-ead4-4a94-95b6-837271a082f6","system_id":"levelo_inurba_marseille","lat":43.24674,"lon":5.38155,"is_reserved":false,"is_disabled":false,"rental_uris":{"android":"levelo://app?vid=14704438-ead4-4a94-95b6-837271a082f6","ios":"levelo://app?vid=14704438-ead4-4a94-95b6-837271a082f6"},"vehicle_type_id":"4","last_reported":1741500633,"current_range_meters":10000,"station_id":"ce4bhih2rcd13ifvqfr0","pricing_plan_id":"cebpf4jnsgd1na2vs0mg"},{"bike_id":"565fac05-172c-4b9b-92f1-8fa35566d080","system_id":"levelo_inurba_marseille","lat":43.25733,"lon":5.41137,"is_reserved":false,"is_disabled":false,"rental_uris":{"android":"levelo://app?vid=565fac05-172c-4b9b-92f1-8fa35566d080","ios":"levelo://app?vid=565fac05-172c-4b9b-92f1-8fa35566d080"},"vehicle_type_id":"4","last_reported":1741500633,"current_range_meters":10000,"station_id":"ce4bhkp2rcd13ifvqgd0","pricing_plan_id":"cebpf4jnsgd1na2vs0mg"},{"bike_id":"97687e68-be46-4713-8e56-6dcec5493f0a","system_id":"levelo_inurba_marseille","lat":43.248089,"lon":5.374518,"is_reserved":false,"is_disabled":false,"rental_uris":{"android":"levelo://app?vid=97687e68-be46-4713-8e56-6dcec5493f0a","ios":"levelo://app?vid=97687e68-be46-4713-8e56-6dcec5493f0a"},"vehicle_type_id":"4","last_reported":1741500633,"current_range_meters":10000,"station_id":"ce4bhgh2rcd13ifvqfb0","pricing_plan_id":"cebpf4jnsgd1na2vs0mg"},{"bike_id":"c005a41e-a53a-49c3-ab86-ed6508363649","system_id":"levelo_inurba_marseille","lat":43.24538,"lon":5.39558,"is_reserved":false,"is_disabled":false,"rental_uris":{"android":"levelo://app?vid=c005a41e-a53a-49c3-ab86-ed6508363649","ios":"levelo://app?vid=c005a41e-a53a-49c3-ab86-ed6508363649"},"vehicle_type_id":"4","last_reported":1741500633,"current_range_meters":10000,"station_id":"ce4bhlp2rcd13ifvqgjg","pricing_plan_id":"cebpf4jnsgd1na2vs0mg"},{"bike_id":"fc5966ba-78bb-4e6f-a5e7-e1a08b7e88dd","system_id":"levelo_inurba_marseille","lat":43.27074,"lon":5.42287,"is_reserved":false,"is_disabled":false,"rental_uris":{"android":"levelo://app?vid=fc5966ba-78bb-4e6f-a5e7-e1a08b7e88dd","ios":"levelo://app?vid=fc5966ba-78bb-4e6f-a5e7-e1a08b7e88dd"},"vehicle_type_id":"4","last_reported":1741500633,"current_range_meters":10000,"station_id":"ce4bhk92rcd13ifvqgb0","pricing_plan_id":"cebpf4jnsgd1na2vs0mg"},{"bike_id":"2ccee320-67e8-4dc3-b761-19553b6bcc0d","system_id":"levelo_inurba_marseille","lat":43.25731,"lon":5.41141,"is_reserved":false,"is_disabled":false,"rental_uris":{"android":"levelo://app?vid=2ccee320-67e8-4dc3-b761-19553b6bcc0d","ios":"levelo://app?vid=2ccee320-67e8-4dc3-b761-19553b6bcc0d"},"vehicle_type_id":"4","last_reported":1741500633,"current_range_meters":10000,"station_id":"ce4bhkp2rcd13ifvqgd0","pricing_plan_id":"cebpf4jnsgd1na2vs0mg"},{"bike_id":"dfd9ea0c-99bd-4a91-8453-69d153afa63b","system_id":"levelo_inurba_marseille","lat":43.2622,"lon":5.40416,"is_reserved":false,"is_disabled":false,"rental_uris":{"android":"levelo://app?vid=dfd9ea0c-99bd-4a91-8453-69d153afa63b","ios":"levelo://app?vid=dfd9ea0c-99bd-4a91-8453-69d153afa63b"},"vehicle_type_id":"4","last_reported":1741500633,"current_range_meters":10000,"station_id":"ce4bhmh2rcd13ifvqgmg","pricing_plan_id":"cebpf4jnsgd1na2vs0mg"},{"bike_id":"fc8c06c8-132f-4675-ad7a-51c0ba69d5a5","system_id":"levelo_inurba_marseille","lat":43.29704,"lon":5.36617,"is_reserved":false,"is_disabled":false,"rental_uris":{"android":"levelo://app?vid=fc8c06c8-132f-4675-ad7a-51c0ba69d5a5","ios":"levelo://app?vid=fc8c06c8-132f-4675-ad7a-51c0ba69d5a5"},"vehicle_type_id":"4","last_reported":1741500633,"current_range_meters":10000,"station_id":"ce4bgn12rcd13ifvqbt0","pricing_plan_id":"cebpf4jnsgd1na2vs0mg"},{"bike_id":"fa8c6a5b-e91f-4274-b418-5c3522c430aa","system_id":"levelo_inurba_marseille","lat":43.279565,"lon":5.410467,"is_reserved":false,"is_disabled":false,"rental_uris":{"android":"levelo://app?vid=fa8c6a5b-e91f-4274-b418-5c3522c430aa","ios":"levelo://app?vid=fa8c6a5b-e91f-4274-b418-5c3522c430aa"},"vehicle_type_id":"4","last_reported":1741500633,"current_range_meters":10000,"station_id":"ce4bhnp2rcd13ifvqh0g","pricing_plan_id":"cebpf4jnsgd1na2vs0mg"},{"bike_id":"0e698c9d-47bc-4045-944d-ecfd6b2414bc","system_id":"levelo_inurba_marseille","lat":43.310775,"lon":5.42428,"is_reserved":false,"is_disabled":false,"rental_uris":{"android":"levelo://app?vid=0e698c9d-47bc-4045-944d-ecfd6b2414bc","ios":"levelo://app?vid=0e698c9d-47bc-4045-944d-ecfd6b2414bc"},"vehicle_type_id":"4","last_reported":1741500633,"current_range_meters":10000,"station_id":"ce4bhp92rcd13ifvqhag","pricing_plan_id":"cebpf4jnsgd1na2vs0mg"},{"bike_id":"2b882f7d-2192-439e-8933-ebe2484a4522","system_id":"levelo_inurba_marseille","lat":43.27457,"lon":5.43558,"is_reserved":false,"is_disabled":false,"rental_uris":{"android":"levelo://app?vid=2b882f7d-2192-439e-8933-ebe2484a4522","ios":"levelo://app?vid=2b882f7d-2192-439e-8933-ebe2484a4522"},"vehicle_type_id":"4","last_reported":1741500633,"current_range_meters":10800,"station_id":"","pricing_plan_id":"cebpf4jnsgd1na2vs0mg"},{"bike_id":"1f8d4e34-6bcb-4d17-8d3b-42d682fa64ec","system_id":"levelo_inurba_marseille","lat":43.284866,"lon":5.384307,"is_reserved":false,"is_disabled":false,"rental_uris":{"android":"levelo://app?vid=1f8d4e34-6bcb-4d17-8d3b-42d682fa64ec","ios":"levelo://app?vid=1f8d4e34-6bcb-4d17-8d3b-42d682fa64ec"},"vehicle_type_id":"4","last_reported":1741500633,"current_range_meters":10800,"station_id":"ce4bh512rcd13ifvqe3g","pricing_plan_id":"cebpf4jnsgd1na2vs0mg"},{"bike_id":"bc055fb7-3f22-40f5-bef5-6dbb6683ea72","system_id":"levelo_inurba_marseille","lat":43.28613,"lon":5.35104,"is_reserved":false,"is_disabled":false,"rental_uris":{"android":"levelo://app?vid=bc055fb7-3f22-40f5-bef5-6dbb6683ea72","ios":"levelo://app?vid=bc055fb7-3f22-40f5-bef5-6dbb6683ea72"},"vehicle_type_id":"4","last_reported":1741500633,"current_range_meters":10800,"station_id":"ce4bhch2rcd13ifvqeug","pricing_plan_id":"cebpf4jnsgd1na2vs0mg"},{"bike_id":"cb0d6e65-7335-46d7-bf43-5432cb892aeb","system_id":"levelo_inurba_marseille","lat":43.31349,"lon":5.38516,"is_reserved":false,"is_disabled":false,"rental_uris":{"android":"levelo://app?vid=cb0d6e65-7335-46d7-bf43-5432cb892aeb","ios":"levelo://app?vid=cb0d6e65-7335-46d7-bf43-5432cb892aeb"},"vehicle_type_id":"4","last_reported":1741500633,"current_range_meters":10800,"station_id":"ce4bgt92rcd13ifvqcf0","pricing_plan_id":"cebpf4jnsgd1na2vs0mg"},{"bike_id":"4362c222-1154-4131-a7ed-5025d23d3664","system_id":"levelo_inurba_marseille","lat":43.30242,"lon":5.40058,"is_reserved":false,"is_disabled":false,"rental_uris":{"android":"levelo://app?vid=4362c222-1154-4131-a7ed-5025d23d3664","ios":"levelo://app?vid=4362c222-1154-4131-a7ed-5025d23d3664"},"vehicle_type_id":"4","last_reported":1741500633,"current_range_meters":10800,"station_id":"ce4bgvh2rcd13ifvqcs0","pricing_plan_id":"cebpf4jnsgd1na2vs0mg"},{"bike_id":"aa20b16b-6cf5-4ca7-906d-81490255e403","system_id":"levelo_inurba_marseille","lat":43.2707,"lon":5.42273,"is_reserved":false,"is_disabled":false,"rental_uris":{"android":"levelo://app?vid=aa20b16b-6cf5-4ca7-906d-81490255e403","ios":"levelo://app?vid=aa20b16b-6cf5-4ca7-906d-81490255e403"},"vehicle_type_id":"4","last_reported":1741500633,"current_range_meters":10800,"station_id":"ce4bhk92rcd13ifvqgb0","pricing_plan_id":"cebpf4jnsgd1na2vs0mg"},{"bike_id":"ac2efbb8-87f5-4e67-91b6-6982ed970754","system_id":"levelo_inurba_marseille","lat":43.2511,"lon":5.40296,"is_reserved":false,"is_disabled":false,"rental_uris":{"android":"levelo://app?vid=ac2efbb8-87f5-4e67-91b6-6982ed970754","ios":"levelo://app?vid=ac2efbb8-87f5-4e67-91b6-6982ed970754"},"vehicle_type_id":"4","last_reported":1741500633,"current_range_meters":10800,"station_id":"ce4bhlh2rcd13ifvqgig","pricing_plan_id":"cebpf4jnsgd1na2vs0mg"},{"bike_id":"d7d6bce0-ce34-4ddc-9e39-2c76b0ee707e","system_id":"levelo_inurba_marseille","lat":43.28494,"lon":5.38572,"is_reserved":false,"is_disabled":false,"rental_uris":{"android":"levelo://app?vid=d7d6bce0-ce34-4ddc-9e39-2c76b0ee707e","ios":"levelo://app?vid=d7d6bce0-ce34-4ddc-9e39-2c76b0ee707e"},"vehicle_type_id":"4","last_reported":1741500633,"current_range_meters":10800,"station_id":"ce4bh8p2rcd13ifvqeb0","pricing_plan_id":"cebpf4jnsgd1na2vs0mg"},{"bike_id":"bbf62d9f-22e8-446b-b3ab-fed286c04dd7","system_id":"levelo_inurba_marseille","lat":43.30912,"lon":5.37253,"is_reserved":false,"is_disabled":false,"rental_uris":{"android":"levelo://app?vid=bbf62d9f-22e8-446b-b3ab-fed286c04dd7","ios":"levelo://app?vid=bbf62d9f-22e8-446b-b3ab-fed286c04dd7"},"vehicle_type_id":"4","last_reported":1741500633,"current_range_meters":10800,"station_id":"ce4bguh2rcd13ifvqckg","pricing_plan_id":"cebpf4jnsgd1na2vs0mg"},{"bike_id":"e4862560-8b14-41f0-b4ab-304f0c05b04a","system_id":"levelo_inurba_marseille","lat":43.2508,"lon":5.39509,"is_reserved":false,"is_disabled":false,"rental_uris":{"android":"levelo://app?vid=e4862560-8b14-41f0-b4ab-304f0c05b04a","ios":"levelo://app?vid=e4862560-8b14-41f0-b4ab-304f0c05b04a"},"vehicle_type_id":"4","last_reported":1741500633,"current_range_meters":10800,"station_id":"ce4bhm12rcd13ifvqgkg","pricing_plan_id":"cebpf4jnsgd1na2vs0mg"},{"bike_id":"87d6e4ef-3df7-4bbb-ac4a-4299f7db2aa6","system_id":"levelo_inurba_marseille","lat":43.25694,"lon":5.41124,"is_reserved":false,"is_disabled":false,"rental_uris":{"android":"levelo://app?vid=87d6e4ef-3df7-4bbb-ac4a-4299f7db2aa6","ios":"levelo://app?vid=87d6e4ef-3df7-4bbb-ac4a-4299f7db2aa6"},"vehicle_type_id":"4","last_reported":1741500633,"current_range_meters":11200,"station_id":"ce4bhkp2rcd13ifvqgd0","pricing_plan_id":"cebpf4jnsgd1na2vs0mg"},{"bike_id":"05156e07-47f0-4de0-bb69-b66700e92b0e","system_id":"levelo_inurba_marseille","lat":43.243993,"lon":5.370694,"is_reserved":false,"is_disabled":true,"rental_uris":{"android":"levelo://app?vid=05156e07-47f0-4de0-bb69-b66700e92b0e","ios":"levelo://app?vid=05156e07-47f0-4de0-bb69-b66700e92b0e"},"vehicle_type_id":"4","last_reported":1741500633,"current_range_meters":11200,"station_id":"ce4bhhh2rcd13ifvqfk0","pricing_plan_id":"cebpf4jnsgd1na2vs0mg"},{"bike_id":"f5d27d01-effc-4a0c-b4ac-2b42b750aca5","system_id":"levelo_inurba_marseille","lat":43.245471,"lon":5.395237,"is_reserved":false,"is_disabled":false,"rental_uris":{"android":"levelo://app?vid=f5d27d01-effc-4a0c-b4ac-2b42b750aca5","ios":"levelo://app?vid=f5d27d01-effc-4a0c-b4ac-2b42b750aca5"},"vehicle_type_id":"4","last_reported":1741500633,"current_range_meters":11200,"station_id":"ce4bhlp2rcd13ifvqgjg","pricing_plan_id":"cebpf4jnsgd1na2vs0mg"},{"bike_id":"d7f0e08b-6dac-45ba-bfe3-5ddc58fa3790","system_id":"levelo_inurba_marseille","lat":43.28412,"lon":5.37531,"is_reserved":false,"is_disabled":false,"rental_uris":{"android":"levelo://app?vid=d7f0e08b-6dac-45ba-bfe3-5ddc58fa3790","ios":"levelo://app?vid=d7f0e08b-6dac-45ba-bfe3-5ddc58fa3790"},"vehicle_type_id":"4","last_reported":1741500633,"current_range_meters":11600,"station_id":"ce4bh412rcd13ifvqds0","pricing_plan_id":"cebpf4jnsgd1na2vs0mg"},{"bike_id":"66e949ae-5f1b-4970-9901-2a4062c8ae22","system_id":"levelo_inurba_marseille","lat":43.30775,"lon":5.38269,"is_reserved":false,"is_disabled":false,"rental_uris":{"android":"levelo://app?vid=66e949ae-5f1b-4970-9901-2a4062c8ae22","ios":"levelo://app?vid=66e949ae-5f1b-4970-9901-2a4062c8ae22"},"vehicle_type_id":"4","last_reported":1741500633,"current_range_meters":11600,"station_id":"ce4bgt12rcd13ifvqce0","pricing_plan_id":"cebpf4jnsgd1na2vs0mg"},{"bike_id":"1ebaf94d-02fd-433e-9b27-0e7505de48c0","system_id":"levelo_inurba_marseille","lat":43.28474,"lon":5.38461,"is_reserved":false,"is_disabled":true,"rental_uris":{"android":"levelo://app?vid=1ebaf94d-02fd-433e-9b27-0e7505de48c0","ios":"levelo://app?vid=1ebaf94d-02fd-433e-9b27-0e7505de48c0"},"vehicle_type_id":"4","last_reported":1741500633,"current_range_meters":11600,"station_id":"ce4bh512rcd13ifvqe3g","pricing_plan_id":"cebpf4jnsgd1na2vs0mg"},{"bike_id":"710bdbff-9907-4bbc-a2e7-5a238baffc29","system_id":"levelo_inurba_marseille","lat":43.31166,"lon":5.38763,"is_reserved":false,"is_disabled":false,"rental_uris":{"android":"levelo://app?vid=710bdbff-9907-4bbc-a2e7-5a238baffc29","ios":"levelo://app?vid=710bdbff-9907-4bbc-a2e7-5a238baffc29"},"vehicle_type_id":"4","last_reported":1741500633,"current_range_meters":11600,"station_id":"ce4bgv12rcd13ifvqcp0","pricing_plan_id":"cebpf4jnsgd1na2vs0mg"},{"bike_id":"1882bff9-3a4a-48a1-ae14-1aea4af61a78","system_id":"levelo_inurba_marseille","lat":43.322863,"lon":5.382779,"is_reserved":false,"is_disabled":false,"rental_uris":{"android":"levelo://app?vid=1882bff9-3a4a-48a1-ae14-1aea4af61a78","ios":"levelo://app?vid=1882bff9-3a4a-48a1-ae14-1aea4af61a78"},"vehicle_type_id":"4","last_reported":1741500633,"current_range_meters":11600,"station_id":"ce4bhr12rcd13ifvqhqg","pricing_plan_id":"cebpf4jnsgd1na2vs0mg"},{"bike_id":"4c5d8bb4-3d1e-4689-9d72-361d8d376cce","system_id":"levelo_inurba_marseille","lat":43.248114,"lon":5.374584,"is_reserved":false,"is_disabled":false,"rental_uris":{"android":"levelo://app?vid=4c5d8bb4-3d1e-4689-9d72-361d8d376cce","ios":"levelo://app?vid=4c5d8bb4-3d1e-4689-9d72-361d8d376cce"},"vehicle_type_id":"4","last_reported":1741500633,"current_range_meters":11600,"station_id":"ce4bhgh2rcd13ifvqfb0","pricing_plan_id":"cebpf4jnsgd1na2vs0mg"},{"bike_id":"9a479b63-da73-40b6-aa2d-7e0ab97df61c","system_id":"levelo_inurba_marseille","lat":43.30219,"lon":5.39484,"is_reserved":false,"is_disabled":false,"rental_uris":{"android":"levelo://app?vid=9a479b63-da73-40b6-aa2d-7e0ab97df61c","ios":"levelo://app?vid=9a479b63-da73-40b6-aa2d-7e0ab97df61c"},"vehicle_type_id":"4","last_reported":1741500633,"current_range_meters":12000,"station_id":"ce4bh0p2rcd13ifvqd70","pricing_plan_id":"cebpf4jnsgd1na2vs0mg"},{"bike_id":"9bf05cca-7348-4727-a0cf-8847efcb3117","system_id":"levelo_inurba_marseille","lat":43.29567,"lon":5.39988,"is_reserved":false,"is_disabled":false,"rental_uris":{"android":"levelo://app?vid=9bf05cca-7348-4727-a0cf-8847efcb3117","ios":"levelo://app?vid=9bf05cca-7348-4727-a0cf-8847efcb3117"},"vehicle_type_id":"4","last_reported":1741500633,"current_range_meters":12000,"station_id":"ce4bh312rcd13ifvqdj0","pricing_plan_id":"cebpf4jnsgd1na2vs0mg"},{"bike_id":"2614ff13-6d5f-4eeb-8166-01ae35a1a016","system_id":"levelo_inurba_marseille","lat":43.28104,"lon":5.37883,"is_reserved":false,"is_disabled":false,"rental_uris":{"android":"levelo://app?vid=2614ff13-6d5f-4eeb-8166-01ae35a1a016","ios":"levelo://app?vid=2614ff13-6d5f-4eeb-8166-01ae35a1a016"},"vehicle_type_id":"4","last_reported":1741500633,"current_range_meters":12000,"station_id":"ce4bha12rcd13ifvqee0","pricing_plan_id":"cebpf4jnsgd1na2vs0mg"},{"bike_id":"ac13c927-ef96-480c-ac70-9f27e602a87a","system_id":"levelo_inurba_marseille","lat":43.25582,"lon":5.3824,"is_reserved":false,"is_disabled":false,"rental_uris":{"android":"levelo://app?vid=ac13c927-ef96-480c-ac70-9f27e602a87a","ios":"levelo://app?vid=ac13c927-ef96-480c-ac70-9f27e602a87a"},"vehicle_type_id":"4","last_reported":1741500633,"current_range_meters":12000,"station_id":"ce4bhih2rcd13ifvqfs0","pricing_plan_id":"cebpf4jnsgd1na2vs0mg"},{"bike_id":"b3b6de43-7ccc-473b-9e87-034a0d9f1009","system_id":"levelo_inurba_marseille","lat":43.29029,"lon":5.3756,"is_reserved":false,"is_disabled":true,"rental_uris":{"android":"levelo://app?vid=b3b6de43-7ccc-473b-9e87-034a0d9f1009","ios":"levelo://app?vid=b3b6de43-7ccc-473b-9e87-034a0d9f1009"},"vehicle_type_id":"4","last_reported":1741500633,"current_range_meters":12400,"station_id":"ce4bh692rcd13ifvqe90","pricing_plan_id":"cebpf4jnsgd1na2vs0mg"},{"bike_id":"ab3792a9-c3cc-418c-a659-df31fd28ff8c","system_id":"levelo_inurba_marseille","lat":43.30294,"lon":5.39224,"is_reserved":false,"is_disabled":false,"rental_uris":{"android":"levelo://app?vid=ab3792a9-c3cc-418c-a659-df31fd28ff8c","ios":"levelo://app?vid=ab3792a9-c3cc-418c-a659-df31fd28ff8c"},"vehicle_type_id":"4","last_reported":1741500633,"current_range_meters":12400,"station_id":"ce4bgkh2rcd13ifvqbk0","pricing_plan_id":"cebpf4jnsgd1na2vs0mg"},{"bike_id":"c8da1ad1-3769-4ec1-aea2-9ffb93433c80","system_id":"levelo_inurba_marseille","lat":43.29611,"lon":5.40614,"is_reserved":false,"is_disabled":false,"rental_uris":{"android":"levelo://app?vid=c8da1ad1-3769-4ec1-aea2-9ffb93433c80","ios":"levelo://app?vid=c8da1ad1-3769-4ec1-aea2-9ffb93433c80"},"vehicle_type_id":"4","last_reported":1741500633,"current_range_meters":12400,"station_id":"ce4bh0h2rcd13ifvqd60","pricing_plan_id":"cebpf4jnsgd1na2vs0mg"},{"bike_id":"34565812-0fff-4dbb-b10e-c8a1a59facae","system_id":"levelo_inurba_marseille","lat":43.317067,"lon":5.436997,"is_reserved":false,"is_disabled":true,"rental_uris":{"android":"levelo://app?vid=34565812-0fff-4dbb-b10e-c8a1a59facae","ios":"levelo://app?vid=34565812-0fff-4dbb-b10e-c8a1a59facae"},"vehicle_type_id":"4","last_reported":1741500633,"current_range_meters":12800,"station_id":"ce4bhp92rcd13ifvqhcg","pricing_plan_id":"cebpf4jnsgd1na2vs0mg"},{"bike_id":"931c9670-2f29-4146-8bd6-a295fcb39a2b","system_id":"levelo_inurba_marseille","lat":43.2573,"lon":5.41112,"is_reserved":false,"is_disabled":false,"rental_uris":{"android":"levelo://app?vid=931c9670-2f29-4146-8bd6-a295fcb39a2b","ios":"levelo://app?vid=931c9670-2f29-4146-8bd6-a295fcb39a2b"},"vehicle_type_id":"4","last_reported":1741500633,"current_range_meters":13600,"station_id":"ce4bhkp2rcd13ifvqgd0","pricing_plan_id":"cebpf4jnsgd1na2vs0mg"},{"bike_id":"1c481fb0-d338-447e-9ac4-5d0e02692c73","system_id":"levelo_inurba_marseille","lat":43.255,"lon":5.37689,"is_reserved":false,"is_disabled":false,"rental_uris":{"android":"levelo://app?vid=1c481fb0-d338-447e-9ac4-5d0e02692c73","ios":"levelo://app?vid=1c481fb0-d338-447e-9ac4-5d0e02692c73"},"vehicle_type_id":"4","last_reported":1741500633,"current_range_meters":13600,"station_id":"ce4bhh12rcd13ifvqff0","pricing_plan_id":"cebpf4jnsgd1na2vs0mg"},{"bike_id":"513e344d-345d-4014-9ba8-2f1dfb0001cd","system_id":"levelo_inurba_marseille","lat":43.311734,"lon":5.387089,"is_reserved":false,"is_disabled":false,"rental_uris":{"android":"levelo://app?vid=513e344d-345d-4014-9ba8-2f1dfb0001cd","ios":"levelo://app?vid=513e344d-345d-4014-9ba8-2f1dfb0001cd"},"vehicle_type_id":"4","last_reported":1741500633,"current_range_meters":13600,"station_id":"ce4bgv12rcd13ifvqcp0","pricing_plan_id":"cebpf4jnsgd1na2vs0mg"},{"bike_id":"c8ac3610-2b43-4b0f-afe2-222d4820df88","system_id":"levelo_inurba_marseille","lat":43.31762,"lon":5.39024,"is_reserved":false,"is_disabled":false,"rental_uris":{"android":"levelo://app?vid=c8ac3610-2b43-4b0f-afe2-222d4820df88","ios":"levelo://app?vid=c8ac3610-2b43-4b0f-afe2-222d4820df88"},"vehicle_type_id":"4","last_reported":1741500633,"current_range_meters":14400,"station_id":"ce4bhqp2rcd13ifvqhng","pricing_plan_id":"cebpf4jnsgd1na2vs0mg"},{"bike_id":"64fdb816-a58d-4d00-b8b1-9f2d0690f5c1","system_id":"levelo_inurba_marseille","lat":43.24152,"lon":5.36411,"is_reserved":false,"is_disabled":true,"rental_uris":{"android":"levelo://app?vid=64fdb816-a58d-4d00-b8b1-9f2d0690f5c1","ios":"levelo://app?vid=64fdb816-a58d-4d00-b8b1-9f2d0690f5c1"},"vehicle_type_id":"4","last_reported":1741500633,"current_range_meters":14400,"station_id":"cpo36qri1sfpv3e86is0","pricing_plan_id":"cebpf4jnsgd1na2vs0mg"},{"bike_id":"a854a4d6-7e58-4735-a4fb-ae534bc9b14f","system_id":"levelo_inurba_marseille","lat":43.29566,"lon":5.39986,"is_reserved":false,"is_disabled":false,"rental_uris":{"android":"levelo://app?vid=a854a4d6-7e58-4735-a4fb-ae534bc9b14f","ios":"levelo://app?vid=a854a4d6-7e58-4735-a4fb-ae534bc9b14f"},"vehicle_type_id":"4","last_reported":1741500633,"current_range_meters":14400,"station_id":"ce4bh312rcd13ifvqdj0","pricing_plan_id":"cebpf4jnsgd1na2vs0mg"},{"bike_id":"6503f83c-089e-443d-9c4d-c5c9fa6b70ea","system_id":"levelo_inurba_marseille","lat":43.25719,"lon":5.41144,"is_reserved":false,"is_disabled":false,"rental_uris":{"android":"levelo://app?vid=6503f83c-089e-443d-9c4d-c5c9fa6b70ea","ios":"levelo://app?vid=6503f83c-089e-443d-9c4d-c5c9fa6b70ea"},"vehicle_type_id":"4","last_reported":1741500633,"current_range_meters":14400,"station_id":"ce4bhkp2rcd13ifvqgd0","pricing_plan_id":"cebpf4jnsgd1na2vs0mg"},{"bike_id":"de62b1e1-afb2-4f35-8381-ed30575d17cb","system_id":"levelo_inurba_marseille","lat":43.292705,"lon":5.401157,"is_reserved":false,"is_disabled":false,"rental_uris":{"android":"levelo://app?vid=de62b1e1-afb2-4f35-8381-ed30575d17cb","ios":"levelo://app?vid=de62b1e1-afb2-4f35-8381-ed30575d17cb"},"vehicle_type_id":"4","last_reported":1741500633,"current_range_meters":14800,"station_id":"ce4bh312rcd13ifvqdk0","pricing_plan_id":"cebpf4jnsgd1na2vs0mg"},{"bike_id":"f7b9a431-cef0-47cd-aa60-d241d5be9eb1","system_id":"levelo_inurba_marseille","lat":43.30825,"lon":5.38155,"is_reserved":false,"is_disabled":false,"rental_uris":{"android":"levelo://app?vid=f7b9a431-cef0-47cd-aa60-d241d5be9eb1","ios":"levelo://app?vid=f7b9a431-cef0-47cd-aa60-d241d5be9eb1"},"vehicle_type_id":"4","last_reported":1741500633,"current_range_meters":14800,"station_id":"ce4bgt12rcd13ifvqce0","pricing_plan_id":"cebpf4jnsgd1na2vs0mg"},{"bike_id":"c7b5db1b-575b-49cf-8e61-e06a7624e131","system_id":"levelo_inurba_marseille","lat":43.2407,"lon":5.37765,"is_reserved":false,"is_disabled":false,"rental_uris":{"android":"levelo://app?vid=c7b5db1b-575b-49cf-8e61-e06a7624e131","ios":"levelo://app?vid=c7b5db1b-575b-49cf-8e61-e06a7624e131"},"vehicle_type_id":"4","last_reported":1741500633,"current_range_meters":14800,"station_id":"ce4bhnp2rcd13ifvqgvg","pricing_plan_id":"cebpf4jnsgd1na2vs0mg"},{"bike_id":"a4e197a3-1fb0-454e-a97f-3a02d43cc7f6","system_id":"levelo_inurba_marseille","lat":43.30865,"lon":5.37224,"is_reserved":false,"is_disabled":false,"rental_uris":{"android":"levelo://app?vid=a4e197a3-1fb0-454e-a97f-3a02d43cc7f6","ios":"levelo://app?vid=a4e197a3-1fb0-454e-a97f-3a02d43cc7f6"},"vehicle_type_id":"4","last_reported":1741500633,"current_range_meters":15200,"station_id":"ce4bguh2rcd13ifvqckg","pricing_plan_id":"cebpf4jnsgd1na2vs0mg"},{"bike_id":"67fc845a-4e54-4c1c-8b59-aae9c41867a4","system_id":"levelo_inurba_marseille","lat":43.27081,"lon":5.42272,"is_reserved":false,"is_disabled":false,"rental_uris":{"android":"levelo://app?vid=67fc845a-4e54-4c1c-8b59-aae9c41867a4","ios":"levelo://app?vid=67fc845a-4e54-4c1c-8b59-aae9c41867a4"},"vehicle_type_id":"4","last_reported":1741500633,"current_range_meters":14800,"station_id":"ce4bhk92rcd13ifvqgb0","pricing_plan_id":"cebpf4jnsgd1na2vs0mg"},{"bike_id":"e952093e-b61f-48ab-8b19-e6241362582d","system_id":"levelo_inurba_marseille","lat":43.30884,"lon":5.37207,"is_reserved":false,"is_disabled":false,"rental_uris":{"android":"levelo://app?vid=e952093e-b61f-48ab-8b19-e6241362582d","ios":"levelo://app?vid=e952093e-b61f-48ab-8b19-e6241362582d"},"vehicle_type_id":"4","last_reported":1741500633,"current_range_meters":14800,"station_id":"ce4bguh2rcd13ifvqckg","pricing_plan_id":"cebpf4jnsgd1na2vs0mg"},{"bike_id":"fe0ec737-5a80-48e8-adfe-00e47b1c2424","system_id":"levelo_inurba_marseille","lat":43.31177,"lon":5.38716,"is_reserved":false,"is_disabled":false,"rental_uris":{"android":"levelo://app?vid=fe0ec737-5a80-48e8-adfe-00e47b1c2424","ios":"levelo://app?vid=fe0ec737-5a80-48e8-adfe-00e47b1c2424"},"vehicle_type_id":"4","last_reported":1741500633,"current_range_meters":14800,"station_id":"ce4bgv12rcd13ifvqcp0","pricing_plan_id":"cebpf4jnsgd1na2vs0mg"},{"bike_id":"43a9e877-cc1b-4b65-91f3-6cefb6f4922c","system_id":"levelo_inurba_marseille","lat":43.29246,"lon":5.40915,"is_reserved":false,"is_disabled":false,"rental_uris":{"android":"levelo://app?vid=43a9e877-cc1b-4b65-91f3-6cefb6f4922c","ios":"levelo://app?vid=43a9e877-cc1b-4b65-91f3-6cefb6f4922c"},"vehicle_type_id":"4","last_reported":1741500633,"current_range_meters":14800,"station_id":"ce4bh192rcd13ifvqdc0","pricing_plan_id":"cebpf4jnsgd1na2vs0mg"},{"bike_id":"5ed2dd89-a937-49df-801e-4fd381bacc70","system_id":"levelo_inurba_marseille","lat":43.251196,"lon":5.40325,"is_reserved":false,"is_disabled":false,"rental_uris":{"android":"levelo://app?vid=5ed2dd89-a937-49df-801e-4fd381bacc70","ios":"levelo://app?vid=5ed2dd89-a937-49df-801e-4fd381bacc70"},"vehicle_type_id":"4","last_reported":1741500633,"current_range_meters":14800,"station_id":"ce4bhlh2rcd13ifvqgig","pricing_plan_id":"cebpf4jnsgd1na2vs0mg"},{"bike_id":"6332f21c-b735-409b-8f12-ffcec3dc9b39","system_id":"levelo_inurba_marseille","lat":43.231881,"lon":5.399891,"is_reserved":false,"is_disabled":false,"rental_uris":{"android":"levelo://app?vid=6332f21c-b735-409b-8f12-ffcec3dc9b39","ios":"levelo://app?vid=6332f21c-b735-409b-8f12-ffcec3dc9b39"},"vehicle_type_id":"4","last_reported":1741500633,"current_range_meters":14800,"station_id":"ce4bhn12rcd13ifvqgqg","pricing_plan_id":"cebpf4jnsgd1na2vs0mg"},{"bike_id":"95a9099a-60dc-480d-ab0b-ec9e3943d5e5","system_id":"levelo_inurba_marseille","lat":43.24651,"lon":5.38889,"is_reserved":false,"is_disabled":false,"rental_uris":{"android":"levelo://app?vid=95a9099a-60dc-480d-ab0b-ec9e3943d5e5","ios":"levelo://app?vid=95a9099a-60dc-480d-ab0b-ec9e3943d5e5"},"vehicle_type_id":"4","last_reported":1741500633,"current_range_meters":14800,"station_id":"ce4bhg12rcd13ifvqf60","pricing_plan_id":"cebpf4jnsgd1na2vs0mg"},{"bike_id":"3ee918a1-dec5-45d2-b71d-4196ba8832d0","system_id":"levelo_inurba_marseille","lat":43.31526,"lon":5.3802,"is_reserved":false,"is_disabled":false,"rental_uris":{"android":"levelo://app?vid=3ee918a1-dec5-45d2-b71d-4196ba8832d0","ios":"levelo://app?vid=3ee918a1-dec5-45d2-b71d-4196ba8832d0"},"vehicle_type_id":"4","last_reported":1741500633,"current_range_meters":15200,"station_id":"ce4bhsp2rcd13ifvqi50","pricing_plan_id":"cebpf4jnsgd1na2vs0mg"},{"bike_id":"4651d4a8-375d-4e6e-a644-31235b482e9a","system_id":"levelo_inurba_marseille","lat":43.31361,"lon":5.38495,"is_reserved":false,"is_disabled":false,"rental_uris":{"android":"levelo://app?vid=4651d4a8-375d-4e6e-a644-31235b482e9a","ios":"levelo://app?vid=4651d4a8-375d-4e6e-a644-31235b482e9a"},"vehicle_type_id":"4","last_reported":1741500633,"current_range_meters":16000,"station_id":"ce4bgt92rcd13ifvqcf0","pricing_plan_id":"cebpf4jnsgd1na2vs0mg"},{"bike_id":"5f0461a6-3406-4130-b67e-a78e6dd7242d","system_id":"levelo_inurba_marseille","lat":43.28715,"lon":5.3996,"is_reserved":false,"is_disabled":false,"rental_uris":{"android":"levelo://app?vid=5f0461a6-3406-4130-b67e-a78e6dd7242d","ios":"levelo://app?vid=5f0461a6-3406-4130-b67e-a78e6dd7242d"},"vehicle_type_id":"4","last_reported":1741500633,"current_range_meters":15200,"station_id":"ce4bho92rcd13ifvqh3g","pricing_plan_id":"cebpf4jnsgd1na2vs0mg"},{"bike_id":"c3632eda-883e-447f-9053-aacd5ac0b1e8","system_id":"levelo_inurba_marseille","lat":43.28407,"lon":5.37517,"is_reserved":false,"is_disabled":false,"rental_uris":{"android":"levelo://app?vid=c3632eda-883e-447f-9053-aacd5ac0b1e8","ios":"levelo://app?vid=c3632eda-883e-447f-9053-aacd5ac0b1e8"},"vehicle_type_id":"4","last_reported":1741500633,"current_range_meters":15200,"station_id":"ce4bh412rcd13ifvqds0","pricing_plan_id":"cebpf4jnsgd1na2vs0mg"},{"bike_id":"3a874f96-3384-4ea3-a8cc-a9c6cf342824","system_id":"levelo_inurba_marseille","lat":43.33598,"lon":5.41012,"is_reserved":false,"is_disabled":false,"rental_uris":{"android":"levelo://app?vid=3a874f96-3384-4ea3-a8cc-a9c6cf342824","ios":"levelo://app?vid=3a874f96-3384-4ea3-a8cc-a9c6cf342824"},"vehicle_type_id":"4","last_reported":1741500633,"current_range_meters":15200,"station_id":"ce4bhqh2rcd13ifvqhmg","pricing_plan_id":"cebpf4jnsgd1na2vs0mg"},{"bike_id":"446aaeb8-f45e-466e-b4cb-2ccd1be85b78","system_id":"levelo_inurba_marseille","lat":43.30889,"lon":5.3874,"is_reserved":false,"is_disabled":false,"rental_uris":{"android":"levelo://app?vid=446aaeb8-f45e-466e-b4cb-2ccd1be85b78","ios":"levelo://app?vid=446aaeb8-f45e-466e-b4cb-2ccd1be85b78"},"vehicle_type_id":"4","last_reported":1741500633,"current_range_meters":15200,"station_id":"ce4bgv12rcd13ifvqcp0","pricing_plan_id":"cebpf4jnsgd1na2vs0mg"},{"bike_id":"32711cb1-35b1-48bc-b979-758999ee6df9","system_id":"levelo_inurba_marseille","lat":43.30956,"lon":5.39028,"is_reserved":false,"is_disabled":false,"rental_uris":{"android":"levelo://app?vid=32711cb1-35b1-48bc-b979-758999ee6df9","ios":"levelo://app?vid=32711cb1-35b1-48bc-b979-758999ee6df9"},"vehicle_type_id":"4","last_reported":1741500633,"current_range_meters":15200,"station_id":"ce4bgup2rcd13ifvqco0","pricing_plan_id":"cebpf4jnsgd1na2vs0mg"},{"bike_id":"3795c289-beea-44c3-a7ae-fd3e55b72f22","system_id":"levelo_inurba_marseille","lat":43.286127,"lon":5.350993,"is_reserved":false,"is_disabled":true,"rental_uris":{"android":"levelo://app?vid=3795c289-beea-44c3-a7ae-fd3e55b72f22","ios":"levelo://app?vid=3795c289-beea-44c3-a7ae-fd3e55b72f22"},"vehicle_type_id":"4","last_reported":1741500633,"current_range_meters":16000,"station_id":"ce4bhch2rcd13ifvqeug","pricing_plan_id":"cebpf4jnsgd1na2vs0mg"},{"bike_id":"4e9a1531-4e75-490c-abeb-3e3fdc426ac8","system_id":"levelo_inurba_marseille","lat":43.2873,"lon":5.36077,"is_reserved":false,"is_disabled":false,"rental_uris":{"android":"levelo://app?vid=4e9a1531-4e75-490c-abeb-3e3fdc426ac8","ios":"levelo://app?vid=4e9a1531-4e75-490c-abeb-3e3fdc426ac8"},"vehicle_type_id":"4","last_reported":1741500633,"current_range_meters":16000,"station_id":"cki0cbj6b192h4jlfktg","pricing_plan_id":"cebpf4jnsgd1na2vs0mg"},{"bike_id":"303d2fa0-185a-4ae5-a566-bff66efd1a68","system_id":"levelo_inurba_marseille","lat":43.24073,"lon":5.37758,"is_reserved":false,"is_disabled":false,"rental_uris":{"android":"levelo://app?vid=303d2fa0-185a-4ae5-a566-bff66efd1a68","ios":"levelo://app?vid=303d2fa0-185a-4ae5-a566-bff66efd1a68"},"vehicle_type_id":"4","last_reported":1741500633,"current_range_meters":16000,"station_id":"ce4bhnp2rcd13ifvqgvg","pricing_plan_id":"cebpf4jnsgd1na2vs0mg"},{"bike_id":"5feb6fa1-6aef-4afb-8cf0-7112712f90e3","system_id":"levelo_inurba_marseille","lat":43.30502,"lon":5.36711,"is_reserved":false,"is_disabled":true,"rental_uris":{"android":"levelo://app?vid=5feb6fa1-6aef-4afb-8cf0-7112712f90e3","ios":"levelo://app?vid=5feb6fa1-6aef-4afb-8cf0-7112712f90e3"},"vehicle_type_id":"4","last_reported":1741500633,"current_range_meters":16000,"station_id":"ce4bgrp2rcd13ifvqc9g","pricing_plan_id":"cebpf4jnsgd1na2vs0mg"},{"bike_id":"7f08542c-3622-4bee-8852-d0974c0ec085","system_id":"levelo_inurba_marseille","lat":43.24143,"lon":5.36355,"is_reserved":false,"is_disabled":false,"rental_uris":{"android":"levelo://app?vid=7f08542c-3622-4bee-8852-d0974c0ec085","ios":"levelo://app?vid=7f08542c-3622-4bee-8852-d0974c0ec085"},"vehicle_type_id":"4","last_reported":1741500633,"current_range_meters":16000,"station_id":"cpo36qri1sfpv3e86is0","pricing_plan_id":"cebpf4jnsgd1na2vs0mg"},{"bike_id":"cc8ccfcb-3658-4b9e-8ea9-b04a28ec7454","system_id":"levelo_inurba_marseille","lat":43.2816,"lon":5.42664,"is_reserved":false,"is_disabled":false,"rental_uris":{"android":"levelo://app?vid=cc8ccfcb-3658-4b9e-8ea9-b04a28ec7454","ios":"levelo://app?vid=cc8ccfcb-3658-4b9e-8ea9-b04a28ec7454"},"vehicle_type_id":"4","last_reported":1741500633,"current_range_meters":16000,"station_id":"ce4bhnh2rcd13ifvqgug","pricing_plan_id":"cebpf4jnsgd1na2vs0mg"},{"bike_id":"95244c97-936f-4194-9c40-fb0de481e024","system_id":"levelo_inurba_marseille","lat":43.2573,"lon":5.41118,"is_reserved":false,"is_disabled":false,"rental_uris":{"android":"levelo://app?vid=95244c97-936f-4194-9c40-fb0de481e024","ios":"levelo://app?vid=95244c97-936f-4194-9c40-fb0de481e024"},"vehicle_type_id":"4","last_reported":1741500633,"current_range_meters":16000,"station_id":"ce4bhkp2rcd13ifvqgd0","pricing_plan_id":"cebpf4jnsgd1na2vs0mg"},{"bike_id":"1ffe0839-d6b0-49e0-a58b-164465fcccd9","system_id":"levelo_inurba_marseille","lat":43.24649,"lon":5.38877,"is_reserved":false,"is_disabled":false,"rental_uris":{"android":"levelo://app?vid=1ffe0839-d6b0-49e0-a58b-164465fcccd9","ios":"levelo://app?vid=1ffe0839-d6b0-49e0-a58b-164465fcccd9"},"vehicle_type_id":"4","last_reported":1741500633,"current_range_meters":16000,"station_id":"ce4bhg12rcd13ifvqf60","pricing_plan_id":"cebpf4jnsgd1na2vs0mg"},{"bike_id":"09e1bb28-8a92-4144-aa34-dea98bd1e253","system_id":"levelo_inurba_marseille","lat":43.24211,"lon":5.39735,"is_reserved":false,"is_disabled":false,"rental_uris":{"android":"levelo://app?vid=09e1bb28-8a92-4144-aa34-dea98bd1e253","ios":"levelo://app?vid=09e1bb28-8a92-4144-aa34-dea98bd1e253"},"vehicle_type_id":"4","last_reported":1741500633,"current_range_meters":16000,"station_id":"ce4bhn12rcd13ifvqgpg","pricing_plan_id":"cebpf4jnsgd1na2vs0mg"},{"bike_id":"4157396e-6ece-45b3-8db6-5f36be26c941","system_id":"levelo_inurba_marseille","lat":43.26565,"lon":5.39037,"is_reserved":false,"is_disabled":false,"rental_uris":{"android":"levelo://app?vid=4157396e-6ece-45b3-8db6-5f36be26c941","ios":"levelo://app?vid=4157396e-6ece-45b3-8db6-5f36be26c941"},"vehicle_type_id":"4","last_reported":1741500633,"current_range_meters":16000,"station_id":"ce4bhe12rcd13ifvqf30","pricing_plan_id":"cebpf4jnsgd1na2vs0mg"},{"bike_id":"1f72adc6-3d1a-4fad-a905-cb9dcd596e26","system_id":"levelo_inurba_marseille","lat":43.23844,"lon":5.43576,"is_reserved":false,"is_disabled":false,"rental_uris":{"android":"levelo://app?vid=1f72adc6-3d1a-4fad-a905-cb9dcd596e26","ios":"levelo://app?vid=1f72adc6-3d1a-4fad-a905-cb9dcd596e26"},"vehicle_type_id":"4","last_reported":1741500633,"current_range_meters":16000,"station_id":"","pricing_plan_id":"cebpf4jnsgd1na2vs0mg"},{"bike_id":"42386e1d-848a-4e44-9467-b88403afa37f","system_id":"levelo_inurba_marseille","lat":43.30476,"lon":5.37904,"is_reserved":false,"is_disabled":false,"rental_uris":{"android":"levelo://app?vid=42386e1d-848a-4e44-9467-b88403afa37f","ios":"levelo://app?vid=42386e1d-848a-4e44-9467-b88403afa37f"},"vehicle_type_id":"4","last_reported":1741500633,"current_range_meters":16000,"station_id":"ce4bgup2rcd13ifvqcn0","pricing_plan_id":"cebpf4jnsgd1na2vs0mg"},{"bike_id":"4e988b79-546d-4039-b5f6-8f94585d4ef4","system_id":"levelo_inurba_marseille","lat":43.33492,"lon":5.36057,"is_reserved":false,"is_disabled":false,"rental_uris":{"android":"levelo://app?vid=4e988b79-546d-4039-b5f6-8f94585d4ef4","ios":"levelo://app?vid=4e988b79-546d-4039-b5f6-8f94585d4ef4"},"vehicle_type_id":"4","last_reported":1741500633,"current_range_meters":16400,"station_id":"","pricing_plan_id":"cebpf4jnsgd1na2vs0mg"},{"bike_id":"f7e9d69a-ac85-4222-a1bf-8df37e9d37dd","system_id":"levelo_inurba_marseille","lat":43.28457,"lon":5.35896,"is_reserved":false,"is_disabled":false,"rental_uris":{"android":"levelo://app?vid=f7e9d69a-ac85-4222-a1bf-8df37e9d37dd","ios":"levelo://app?vid=f7e9d69a-ac85-4222-a1bf-8df37e9d37dd"},"vehicle_type_id":"4","last_reported":1741500633,"current_range_meters":16400,"station_id":"ce4bhah2rcd13ifvqei0","pricing_plan_id":"cebpf4jnsgd1na2vs0mg"},{"bike_id":"ef7285e6-4b23-4d4a-ad51-4129c4b95711","system_id":"levelo_inurba_marseille","lat":43.28729,"lon":5.39974,"is_reserved":false,"is_disabled":false,"rental_uris":{"android":"levelo://app?vid=ef7285e6-4b23-4d4a-ad51-4129c4b95711","ios":"levelo://app?vid=ef7285e6-4b23-4d4a-ad51-4129c4b95711"},"vehicle_type_id":"4","last_reported":1741500633,"current_range_meters":16400,"station_id":"ce4bho92rcd13ifvqh3g","pricing_plan_id":"cebpf4jnsgd1na2vs0mg"},{"bike_id":"c59cfede-72d5-4c07-aa0e-b184c85be70a","system_id":"levelo_inurba_marseille","lat":43.25089,"lon":5.39519,"is_reserved":false,"is_disabled":false,"rental_uris":{"android":"levelo://app?vid=c59cfede-72d5-4c07-aa0e-b184c85be70a","ios":"levelo://app?vid=c59cfede-72d5-4c07-aa0e-b184c85be70a"},"vehicle_type_id":"4","last_reported":1741500633,"current_range_meters":16400,"station_id":"ce4bhm12rcd13ifvqgkg","pricing_plan_id":"cebpf4jnsgd1na2vs0mg"},{"bike_id":"862a788e-4ad5-4c91-930d-dd5215bf95e5","system_id":"levelo_inurba_marseille","lat":43.31277,"lon":5.40169,"is_reserved":false,"is_disabled":false,"rental_uris":{"android":"levelo://app?vid=862a788e-4ad5-4c91-930d-dd5215bf95e5","ios":"levelo://app?vid=862a788e-4ad5-4c91-930d-dd5215bf95e5"},"vehicle_type_id":"4","last_reported":1741500633,"current_range_meters":16400,"station_id":"ce4bh092rcd13ifvqd30","pricing_plan_id":"cebpf4jnsgd1na2vs0mg"},{"bike_id":"844609dd-8ed7-49f0-923e-aa50859e7244","system_id":"levelo_inurba_marseille","lat":43.28999,"lon":5.35601,"is_reserved":false,"is_disabled":false,"rental_uris":{"android":"levelo://app?vid=844609dd-8ed7-49f0-923e-aa50859e7244","ios":"levelo://app?vid=844609dd-8ed7-49f0-923e-aa50859e7244"},"vehicle_type_id":"4","last_reported":1741500633,"current_range_meters":16000,"station_id":"ce4bhb92rcd13ifvqen0","pricing_plan_id":"cebpf4jnsgd1na2vs0mg"},{"bike_id":"739fe01f-fa4e-4eef-aeeb-76a9d0b4fd80","system_id":"levelo_inurba_marseille","lat":43.30791,"lon":5.38184,"is_reserved":false,"is_disabled":false,"rental_uris":{"android":"levelo://app?vid=739fe01f-fa4e-4eef-aeeb-76a9d0b4fd80","ios":"levelo://app?vid=739fe01f-fa4e-4eef-aeeb-76a9d0b4fd80"},"vehicle_type_id":"4","last_reported":1741500633,"current_range_meters":16400,"station_id":"ce4bgt12rcd13ifvqce0","pricing_plan_id":"cebpf4jnsgd1na2vs0mg"},{"bike_id":"3e93b162-f299-477d-9ef9-e2acab4085b9","system_id":"levelo_inurba_marseille","lat":43.31168,"lon":5.38721,"is_reserved":false,"is_disabled":false,"rental_uris":{"android":"levelo://app?vid=3e93b162-f299-477d-9ef9-e2acab4085b9","ios":"levelo://app?vid=3e93b162-f299-477d-9ef9-e2acab4085b9"},"vehicle_type_id":"4","last_reported":1741500633,"current_range_meters":16400,"station_id":"ce4bgv12rcd13ifvqcp0","pricing_plan_id":"cebpf4jnsgd1na2vs0mg"},{"bike_id":"ae6d9bec-5fbb-450c-8eaa-314b7537f20e","system_id":"levelo_inurba_marseille","lat":43.3123,"lon":5.36851,"is_reserved":false,"is_disabled":false,"rental_uris":{"android":"levelo://app?vid=ae6d9bec-5fbb-450c-8eaa-314b7537f20e","ios":"levelo://app?vid=ae6d9bec-5fbb-450c-8eaa-314b7537f20e"},"vehicle_type_id":"4","last_reported":1741500633,"current_range_meters":16400,"station_id":"ce4bgl92rcd13ifvqbq0","pricing_plan_id":"cebpf4jnsgd1na2vs0mg"},{"bike_id":"3b9a653a-2fa2-4334-b7b8-6db4ab68b695","system_id":"levelo_inurba_marseille","lat":43.28443,"lon":5.39238,"is_reserved":false,"is_disabled":true,"rental_uris":{"android":"levelo://app?vid=3b9a653a-2fa2-4334-b7b8-6db4ab68b695","ios":"levelo://app?vid=3b9a653a-2fa2-4334-b7b8-6db4ab68b695"},"vehicle_type_id":"4","last_reported":1741500633,"current_range_meters":16400,"station_id":"ce4bhoh2rcd13ifvqh5g","pricing_plan_id":"cebpf4jnsgd1na2vs0mg"},{"bike_id":"77c28a66-797d-47cb-aff8-fea12bfd5bfb","system_id":"levelo_inurba_marseille","lat":43.31073,"lon":5.38374,"is_reserved":false,"is_disabled":false,"rental_uris":{"android":"levelo://app?vid=77c28a66-797d-47cb-aff8-fea12bfd5bfb","ios":"levelo://app?vid=77c28a66-797d-47cb-aff8-fea12bfd5bfb"},"vehicle_type_id":"4","last_reported":1741500633,"current_range_meters":16400,"station_id":"ce4bgv92rcd13ifvqcr0","pricing_plan_id":"cebpf4jnsgd1na2vs0mg"},{"bike_id":"91f0b97b-efcf-46d9-8bbf-c1ba93008778","system_id":"levelo_inurba_marseille","lat":43.2733,"lon":5.39154,"is_reserved":false,"is_disabled":true,"rental_uris":{"android":"levelo://app?vid=91f0b97b-efcf-46d9-8bbf-c1ba93008778","ios":"levelo://app?vid=91f0b97b-efcf-46d9-8bbf-c1ba93008778"},"vehicle_type_id":"4","last_reported":1741500633,"current_range_meters":16400,"station_id":"ce4bhgp2rcd13ifvqfe0","pricing_plan_id":"cebpf4jnsgd1na2vs0mg"},{"bike_id":"ba0554f9-3a9b-40b4-90ed-caede36daa80","system_id":"levelo_inurba_marseille","lat":43.31157,"lon":5.38729,"is_reserved":false,"is_disabled":false,"rental_uris":{"android":"levelo://app?vid=ba0554f9-3a9b-40b4-90ed-caede36daa80","ios":"levelo://app?vid=ba0554f9-3a9b-40b4-90ed-caede36daa80"},"vehicle_type_id":"4","last_reported":1741500633,"current_range_meters":16400,"station_id":"ce4bgv12rcd13ifvqcp0","pricing_plan_id":"cebpf4jnsgd1na2vs0mg"},{"bike_id":"bac871c7-059b-4dc7-a657-f620d0a4794f","system_id":"levelo_inurba_marseille","lat":43.29596,"lon":5.38091,"is_reserved":false,"is_disabled":true,"rental_uris":{"android":"levelo://app?vid=bac871c7-059b-4dc7-a657-f620d0a4794f","ios":"levelo://app?vid=bac871c7-059b-4dc7-a657-f620d0a4794f"},"vehicle_type_id":"4","last_reported":1741500633,"current_range_meters":16400,"station_id":"ce4bgl12rcd13ifvqbo0","pricing_plan_id":"cebpf4jnsgd1na2vs0mg"},{"bike_id":"3ed0c8ba-c7f7-40d8-9403-a3f96d6af6b9","system_id":"levelo_inurba_marseille","lat":43.32363,"lon":5.36754,"is_reserved":false,"is_disabled":false,"rental_uris":{"android":"levelo://app?vid=3ed0c8ba-c7f7-40d8-9403-a3f96d6af6b9","ios":"levelo://app?vid=3ed0c8ba-c7f7-40d8-9403-a3f96d6af6b9"},