{"last_updated":1746156832,"ttl":60,"version":"2.2","data":{"bikes":[{"bike_id":"de3cdd69-e35e-470d-9667-1c73f08b2fea","system_id":"levelo_inurba_marseille","lat":43.289466,"lon":5.396257,"is_reserved":false,"is_disabled":false,"rental_uris":{"android":"levelo://app?vid=de3cdd69-e35e-470d-9667-1c73f08b2fea","ios":"levelo://app?vid=de3cdd69-e35e-470d-9667-1c73f08b2fea"},"vehicle_type_id":"4","last_reported":1746156832,"current_range_meters":2800,"station_id":"ce4bh3h2rcd13ifvqdn0","pricing_plan_id":"cebpf4jnsgd1na2vs0mg"},{"bike_id":"00516042-7984-441d-8577-6fbda77c1ddb","system_id":"levelo_inurba_marseille","lat":43.304626,"lon":5.375777,"is_reserved":false,"is_disabled":false,"rental_uris":{"android":"levelo://app?vid=00516042-7984-441d-8577-6fbda77c1ddb","ios":"levelo://app?vid=00516042-7984-441d-8577-6fbda77c1ddb"},"vehicle_type_id":"4","last_reported":1746156832,"current_range_meters":3200,"station_id":"","pricing_plan_id":"cebpf4jnsgd1na2vs0mg"},{"bike_id":"39ccc3a0-baae-41ad-bd60-2cf8edcfd4fa","system_id":"levelo_inurba_marseille","lat":43.260267,"lon":5.375552,"is_reserved":false,"is_disabled":true,"rental_uris":{"android":"levelo://app?vid=39ccc3a0-baae-41ad-bd60-2cf8edcfd4fa","ios":"levelo://app?vid=39ccc3a0-baae-41ad-bd60-2cf8edcfd4fa"},"vehicle_type_id":"4","last_reported":1746156832,"current_range_meters":3200,"station_id":"ce4bhgh2rcd13ifvqfa0","pricing_plan_id":"cebpf4jnsgd1na2vs0mg"},{"bike_id":"ffafe023-f228-4f84-841e-4d8493b40269","system_id":"levelo_inurba_marseille","lat":43.308113,"lon":5.381641,"is_reserved":false,"is_disabled":false,"rental_uris":{"android":"levelo://app?vid=ffafe023-f228-4f84-841e-4d8493b40269","ios":"levelo://app?vid=ffafe023-f228-4f84-841e-4d8493b40269"},"vehicle_type_id":"4","last_reported":1746156832,"current_range_meters":3200,"station_id":"ce4bgt12rcd13ifvqce0","pricing_plan_id":"cebpf4jnsgd1na2vs0mg"},{"bike_id":"e9928b89-9994-46cc-96b6-d8da0e666f71","system_id":"levelo_inurba_marseille","lat":43.30568,"lon":5.37291,"is_reserved":false,"is_disabled":false,"rental_uris":{"android":"levelo://app?vid=e9928b89-9994-46cc-96b6-d8da0e666f71","ios":"levelo://app?vid=e9928b89-9994-46cc-96b6-d8da0e666f71"},"vehicle_type_id":"4","last_reported":1746156832,"current_range_meters":3600,"station_id":"ce4bgqh2rcd13ifvqc4g","pricing_plan_id":"cebpf4jnsgd1na2vs0mg"},{"bike_id":"9dd4b7f9-911d-4d29-ad84-72e031001402","system_id":"levelo_inurba_marseille","lat":43.29257,"lon":5.4086,"is_reserved":false,"is_disabled":false,"rental_uris":{"android":"levelo://app?vid=9dd4b7f9-911d-4d29-ad84-72e031001402","ios":"levelo://app?vid=9dd4b7f9-911d-4d29-ad84-72e031001402"},"vehicle_type_id":"4","last_reported":1746156832,"current_range_meters":3600,"station_id":"ce4bh192rcd13ifvqdc0","pricing_plan_id":"cebpf4jnsgd1na2vs0mg"},{"bike_id":"0683d66b-a209-4c9a-8a6e-884c4cd4abfa","system_id":"levelo_inurba_marseille","lat":43.298753,"lon":5.397271,"is_reserved":false,"is_disabled":false,"rental_uris":{"android":"levelo://app?vid=0683d66b-a209-4c9a-8a6e-884c4cd4abfa","ios":"levelo://app?vid=0683d66b-a209-4c9a-8a6e-884c4cd4abfa"},"vehicle_type_id":"4","last_reported":1746156832,"current_range_meters":3600,"station_id":"ce4bh0h2rcd13ifvqd50","pricing_plan_id":"cebpf4jnsgd1na2vs0mg"},{"bike_id":"5a46a972-f412-47bc-918e-2491313c9726","system_id":"levelo_inurba_marseille","lat":43.29039,"lon":5.39971,"is_reserved":false,"is_disabled":false,"rental_uris":{"android":"levelo://app?vid=5a46a972-f412-47bc-918e-2491313c9726","ios":"levelo://app?vid=5a46a972-f412-47bc-918e-2491313c9726"},"vehicle_type_id":"4","last_reported":1746156832,"current_range_meters":3600,"station_id":"ce4bh392rcd13ifvqdm0","pricing_plan_id":"cebpf4jnsgd1na2vs0mg"},{"bike_id":"9993632a-4b57-4af1-b3f7-ae52baf8c31d","system_id":"levelo_inurba_marseille","lat":43.29406,"lon":5.38634,"is_reserved":false,"is_disabled":true,"rental_uris":{"android":"levelo://app?vid=9993632a-4b57-4af1-b3f7-ae52baf8c31d","ios":"levelo://app?vid=9993632a-4b57-4af1-b3f7-ae52baf8c31d"},"vehicle_type_id":"4","last_reported":1746156832,"current_range_meters":3600,"station_id":"ce4bh2h2rcd13ifvqdh0","pricing_plan_id":"cebpf4jnsgd1na2vs0mg"},{"bike_id":"2785f816-66b8-4b6f-bb79-42f49ec74d85","system_id":"levelo_inurba_marseille","lat":43.30403,"lon":5.3977,"is_reserved":false,"is_disabled":false,"rental_uris":{"android":"levelo://app?vid=2785f816-66b8-4b6f-bb79-42f49ec74d85","ios":"levelo://app?vid=2785f816-66b8-4b6f-bb79-42f49ec74d85"},"vehicle_type_id":"4","last_reported":1746156832,"current_range_meters":3600,"station_id":"ce4bh092rcd13ifvqd20","pricing_plan_id":"cebpf4jnsgd1na2vs0mg"},{"bike_id":"5d3b05a5-2bb8-4020-b7ec-e6c9888f170c","system_id":"levelo_inurba_marseille","lat":43.296973,"lon":5.394631,"is_reserved":false,"is_disabled":false,"rental_uris":{"android":"levelo://app?vid=5d3b05a5-2bb8-4020-b7ec-e6c9888f170c","ios":"levelo://app?vid=5d3b05a5-2bb8-4020-b7ec-e6c9888f170c"},"vehicle_type_id":"4","last_reported":1746156832,"current_range_meters":4000,"station_id":"","pricing_plan_id":"cebpf4jnsgd1na2vs0mg"},{"bike_id":"53e2a6ba-f0b2-427d-bbf2-3607ce505fbb","system_id":"levelo_inurba_marseille","lat":43.27912,"lon":5.39597,"is_reserved":false,"is_disabled":false,"rental_uris":{"android":"levelo://app?vid=53e2a6ba-f0b2-427d-bbf2-3607ce505fbb","ios":"levelo://app?vid=53e2a6ba-f0b2-427d-bbf2-3607ce505fbb"},"vehicle_type_id":"4","last_reported":1746156832,"current_range_meters":4400,"station_id":"ce4bhf92rcd13ifvqf40","pricing_plan_id":"cebpf4jnsgd1na2vs0mg"},{"bike_id":"7f770ba9-2e48-47c9-8bb4-942855273bad","system_id":"levelo_inurba_marseille","lat":43.2537,"lon":5.42386,"is_reserved":false,"is_disabled":false,"rental_uris":{"android":"levelo://app?vid=7f770ba9-2e48-47c9-8bb4-942855273bad","ios":"levelo://app?vid=7f770ba9-2e48-47c9-8bb4-942855273bad"},"vehicle_type_id":"4","last_reported":1746156832,"current_range_meters":4400,"station_id":"","pricing_plan_id":"cebpf4jnsgd1na2vs0mg"},{"bike_id":"5929c210-eb80-47f6-b67f-7d276e7fb810","system_id":"levelo_inurba_marseille","lat":43.298714,"lon":5.397286,"is_reserved":false,"is_disabled":false,"rental_uris":{"android":"levelo://app?vid=5929c210-eb80-47f6-b67f-7d276e7fb810","ios":"levelo://app?vid=5929c210-eb80-47f6-b67f-7d276e7fb810"},"vehicle_type_id":"4","last_reported":1746156832,"current_range_meters":4400,"station_id":"ce4bh0h2rcd13ifvqd50","pricing_plan_id":"cebpf4jnsgd1na2vs0mg"},{"bike_id":"9c94aeab-fec2-4cea-bbdc-8e39dfbaebf3","system_id":"levelo_inurba_marseille","lat":43.32035,"lon":5.41541,"is_reserved":false,"is_disabled":false,"rental_uris":{"android":"levelo://app?vid=9c94aeab-fec2-4cea-bbdc-8e39dfbaebf3","ios":"levelo://app?vid=9c94aeab-fec2-4cea-bbdc-8e39dfbaebf3"},"vehicle_type_id":"4","last_reported":1746156832,"current_range_meters":4400,"station_id":"ce4bhq92rcd13ifvqhkg","pricing_plan_id":"cebpf4jnsgd1na2vs0mg"},{"bike_id":"727a9e79-9eef-4d0d-8364-8cc93b121718","system_id":"levelo_inurba_marseille","lat":43.25473,"lon":5.37662,"is_reserved":false,"is_disabled":true,"rental_uris":{"android":"levelo://app?vid=727a9e79-9eef-4d0d-8364-8cc93b121718","ios":"levelo://app?vid=727a9e79-9eef-4d0d-8364-8cc93b121718"},"vehicle_type_id":"4","last_reported":1746156832,"current_range_meters":4800,"station_id":"ce4bhh12rcd13ifvqff0","pricing_plan_id":"cebpf4jnsgd1na2vs0mg"},{"bike_id":"d901647f-aef6-4e5f-b7ba-7cb0dfd0a264","system_id":"levelo_inurba_marseille","lat":43.30737,"lon":5.37693,"is_reserved":false,"is_disabled":true,"rental_uris":{"android":"levelo://app?vid=d901647f-aef6-4e5f-b7ba-7cb0dfd0a264","ios":"levelo://app?vid=d901647f-aef6-4e5f-b7ba-7cb0dfd0a264"},"vehicle_type_id":"4","last_reported":1746156832,"current_range_meters":5600,"station_id":"ce4bgv92rcd13ifvqcq0","pricing_plan_id":"cebpf4jnsgd1na2vs0mg"},{"bike_id":"c7da9ef9-1744-4e5e-a809-ff041badbe27","system_id":"levelo_inurba_marseille","lat":43.29044,"lon":5.39955,"is_reserved":false,"is_disabled":false,"rental_uris":{"android":"levelo://app?vid=c7da9ef9-1744-4e5e-a809-ff041badbe27","ios":"levelo://app?vid=c7da9ef9-1744-4e5e-a809-ff041badbe27"},"vehicle_type_id":"4","last_reported":1746156832,"current_range_meters":6000,"station_id":"ce4bh392rcd13ifvqdm0","pricing_plan_id":"cebpf4jnsgd1na2vs0mg"},{"bike_id":"993993a4-ded2-4764-967d-7bb33e67fd38","system_id":"levelo_inurba_marseille","lat":43.27906,"lon":5.39598,"is_reserved":false,"is_disabled":false,"rental_uris":{"android":"levelo://app?vid=993993a4-ded2-4764-967d-7bb33e67fd38","ios":"levelo://app?vid=993993a4-ded2-4764-967d-7bb33e67fd38"},"vehicle_type_id":"4","last_reported":1746156832,"current_range_meters":6000,"station_id":"ce4bhf92rcd13ifvqf40","pricing_plan_id":"cebpf4jnsgd1na2vs0mg"},{"bike_id":"f78e6e2a-8107-47fb-b969-25345ac001d6","system_id":"levelo_inurba_marseille","lat":43.300742,"lon":5.378003,"is_reserved":false,"is_disabled":false,"rental_uris":{"android":"levelo://app?vid=f78e6e2a-8107-47fb-b969-25345ac001d6","ios":"levelo://app?vid=f78e6e2a-8107-47fb-b969-25345ac001d6"},"vehicle_type_id":"4","last_reported":1746156832,"current_range_meters":6000,"station_id":"","pricing_plan_id":"cebpf4jnsgd1na2vs0mg"},{"bike_id":"8b8a7521-6380-408e-8650-f4890e8f6c38","system_id":"levelo_inurba_marseille","lat":43.296279,"lon":5.406023,"is_reserved":false,"is_disabled":false,"rental_uris":{"android":"levelo://app?vid=8b8a7521-6380-408e-8650-f4890e8f6c38","ios":"levelo://app?vid=8b8a7521-6380-408e-8650-f4890e8f6c38"},"vehicle_type_id":"4","last_reported":1746156832,"current_range_meters":6000,"station_id":"ce4bh0h2rcd13ifvqd60","pricing_plan_id":"cebpf4jnsgd1na2vs0mg"},{"bike_id":"2bc7685c-3ffa-492e-ac40-bca1c401b590","system_id":"levelo_inurba_marseille","lat":43.26809,"lon":5.40264,"is_reserved":false,"is_disabled":false,"rental_uris":{"android":"levelo://app?vid=2bc7685c-3ffa-492e-ac40-bca1c401b590","ios":"levelo://app?vid=2bc7685c-3ffa-492e-ac40-bca1c401b590"},"vehicle_type_id":"4","last_reported":1746156832,"current_range_meters":6000,"station_id":"ce501612rcd8frsf0b60","pricing_plan_id":"cebpf4jnsgd1na2vs0mg"},{"bike_id":"4af62b9a-7259-45f3-b15a-51fcc63c51c5","system_id":"levelo_inurba_marseille","lat":43.257229,"lon":5.411164,"is_reserved":false,"is_disabled":false,"rental_uris":{"android":"levelo://app?vid=4af62b9a-7259-45f3-b15a-51fcc63c51c5","ios":"levelo://app?vid=4af62b9a-7259-45f3-b15a-51fcc63c51c5"},"vehicle_type_id":"4","last_reported":1746156832,"current_range_meters":6400,"station_id":"ce4bhkp2rcd13ifvqgd0","pricing_plan_id":"cebpf4jnsgd1na2vs0mg"},{"bike_id":"0840f843-3a67-4e05-a048-29d3d9d53dba","system_id":"levelo_inurba_marseille","lat":43.257181,"lon":5.411151,"is_reserved":false,"is_disabled":false,"rental_uris":{"android":"levelo://app?vid=0840f843-3a67-4e05-a048-29d3d9d53dba","ios":"levelo://app?vid=0840f843-3a67-4e05-a048-29d3d9d53dba"},"vehicle_type_id":"4","last_reported":1746156832,"current_range_meters":6400,"station_id":"ce4bhkp2rcd13ifvqgd0","pricing_plan_id":"cebpf4jnsgd1na2vs0mg"},{"bike_id":"215bdf6f-59e9-4581-ab6a-3306c221d929","system_id":"levelo_inurba_marseille","lat":43.24581,"lon":5.39834,"is_reserved":false,"is_disabled":false,"rental_uris":{"android":"levelo://app?vid=215bdf6f-59e9-4581-ab6a-3306c221d929","ios":"levelo://app?vid=215bdf6f-59e9-4581-ab6a-3306c221d929"},"vehicle_type_id":"4","last_reported":1746156832,"current_range_meters":6400,"station_id":"","pricing_plan_id":"cebpf4jnsgd1na2vs0mg"},{"bike_id":"a9c243d0-02f4-49a0-85d6-9e32713170f4","system_id":"levelo_inurba_marseille","lat":43.30322,"lon":5.40447,"is_reserved":false,"is_disabled":false,"rental_uris":{"android":"levelo://app?vid=a9c243d0-02f4-49a0-85d6-9e32713170f4","ios":"levelo://app?vid=a9c243d0-02f4-49a0-85d6-9e32713170f4"},"vehicle_type_id":"4","last_reported":1746156832,"current_range_meters":6400,"station_id":"ce4bh012rcd13ifvqd10","pricing_plan_id":"cebpf4jnsgd1na2vs0mg"},{"bike_id":"96a71552-7031-4b2d-91d9-f39c70077322","system_id":"levelo_inurba_marseille","lat":43.313227,"lon":5.39706,"is_reserved":false,"is_disabled":false,"rental_uris":{"android":"levelo://app?vid=96a71552-7031-4b2d-91d9-f39c70077322","ios":"levelo://app?vid=96a71552-7031-4b2d-91d9-f39c70077322"},"vehicle_type_id":"4","last_reported":1746156832,"current_range_meters":6400,"station_id":"ce4bgvp2rcd13ifvqcu0","pricing_plan_id":"cebpf4jnsgd1na2vs0mg"},{"bike_id":"a81055f7-1eff-48ba-88d3-ed4ea2495466","system_id":"levelo_inurba_marseille","lat":43.29873,"lon":5.39735,"is_reserved":false,"is_disabled":false,"rental_uris":{"android":"levelo://app?vid=a81055f7-1eff-48ba-88d3-ed4ea2495466","ios":"levelo://app?vid=a81055f7-1eff-48ba-88d3-ed4ea2495466"},"vehicle_type_id":"4","last_reported":1746156832,"current_range_meters":6400,"station_id":"ce4bh0h2rcd13ifvqd50","pricing_plan_id":"cebpf4jnsgd1na2vs0mg"},{"bike_id":"67fd2aef-8e49-4f36-806c-5355bf2a2b9d","system_id":"levelo_inurba_marseille","lat":43.303172,"lon":5.404465,"is_reserved":false,"is_disabled":false,"rental_uris":{"android":"levelo://app?vid=67fd2aef-8e49-4f36-806c-5355bf2a2b9d","ios":"levelo://app?vid=67fd2aef-8e49-4f36-806c-5355bf2a2b9d"},"vehicle_type_id":"4","last_reported":1746156832,"current_range_meters":6400,"station_id":"ce4bh012rcd13ifvqd10","pricing_plan_id":"cebpf4jnsgd1na2vs0mg"},{"bike_id":"47de6562-ba72-42e5-ace3-2d5a54c7c0d3","system_id":"levelo_inurba_marseille","lat":43.279435,"lon":5.410428,"is_reserved":false,"is_disabled":true,"rental_uris":{"android":"levelo://app?vid=47de6562-ba72-42e5-ace3-2d5a54c7c0d3","ios":"levelo://app?vid=47de6562-ba72-42e5-ace3-2d5a54c7c0d3"},"vehicle_type_id":"4","last_reported":1746156832,"current_range_meters":6800,"station_id":"ce4bhnp2rcd13ifvqh0g","pricing_plan_id":"cebpf4jnsgd1na2vs0mg"},{"bike_id":"903b74ad-b818-4547-b3be-5eb1f24e1f94","system_id":"levelo_inurba_marseille","lat":43.31319,"lon":5.39702,"is_reserved":false,"is_disabled":false,"rental_uris":{"android":"levelo://app?vid=903b74ad-b818-4547-b3be-5eb1f24e1f94","ios":"levelo://app?vid=903b74ad-b818-4547-b3be-5eb1f24e1f94"},"vehicle_type_id":"4","last_reported":1746156832,"current_range_meters":6800,"station_id":"ce4bgvp2rcd13ifvqcu0","pricing_plan_id":"cebpf4jnsgd1na2vs0mg"},{"bike_id":"590c3182-b259-4323-807a-fe38f07e15f2","system_id":"levelo_inurba_marseille","lat":43.33594,"lon":5.41024,"is_reserved":false,"is_disabled":false,"rental_uris":{"android":"levelo://app?vid=590c3182-b259-4323-807a-fe38f07e15f2","ios":"levelo://app?vid=590c3182-b259-4323-807a-fe38f07e15f2"},"vehicle_type_id":"4","last_reported":1746156832,"current_range_meters":6800,"station_id":"ce4bhqh2rcd13ifvqhmg","pricing_plan_id":"cebpf4jnsgd1na2vs0mg"},{"bike_id":"fee7396b-8d6a-4ad5-8af7-947693171efd","system_id":"levelo_inurba_marseille","lat":43.270728,"lon":5.422803,"is_reserved":false,"is_disabled":false,"rental_uris":{"android":"levelo://app?vid=fee7396b-8d6a-4ad5-8af7-947693171efd","ios":"levelo://app?vid=fee7396b-8d6a-4ad5-8af7-947693171efd"},"vehicle_type_id":"4","last_reported":1746156832,"current_range_meters":6800,"station_id":"ce4bhk92rcd13ifvqgb0","pricing_plan_id":"cebpf4jnsgd1na2vs0mg"},{"bike_id":"872f4be7-68c9-4597-bc89-7cee86b3da74","system_id":"levelo_inurba_marseille","lat":43.29282,"lon":5.40146,"is_reserved":false,"is_disabled":false,"rental_uris":{"android":"levelo://app?vid=872f4be7-68c9-4597-bc89-7cee86b3da74","ios":"levelo://app?vid=872f4be7-68c9-4597-bc89-7cee86b3da74"},"vehicle_type_id":"4","last_reported":1746156832,"current_range_meters":6800,"station_id":"ce4bh312rcd13ifvqdk0","pricing_plan_id":"cebpf4jnsgd1na2vs0mg"},{"bike_id":"45a897a0-8804-4925-8a62-c0e8fec569a8","system_id":"levelo_inurba_marseille","lat":43.239626,"lon":5.366209,"is_reserved":false,"is_disabled":true,"rental_uris":{"android":"levelo://app?vid=45a897a0-8804-4925-8a62-c0e8fec569a8","ios":"levelo://app?vid=45a897a0-8804-4925-8a62-c0e8fec569a8"},"vehicle_type_id":"4","last_reported":1746156832,"current_range_meters":6800,"station_id":"ce4bhi12rcd13ifvqfp0","pricing_plan_id":"cebpf4jnsgd1na2vs0mg"},{"bike_id":"cacd0fa5-b257-4272-badb-f83e7da00dcc","system_id":"levelo_inurba_marseille","lat":43.27179,"lon":5.40992,"is_reserved":false,"is_disabled":false,"rental_uris":{"android":"levelo://app?vid=cacd0fa5-b257-4272-badb-f83e7da00dcc","ios":"levelo://app?vid=cacd0fa5-b257-4272-badb-f83e7da00dcc"},"vehicle_type_id":"4","last_reported":1746156832,"current_range_meters":7200,"station_id":"ce4bhl12rcd13ifvqgf0","pricing_plan_id":"cebpf4jnsgd1na2vs0mg"},{"bike_id":"8273f306-3c1f-4399-b7cd-5bd1010cf5af","system_id":"levelo_inurba_marseille","lat":43.292482,"lon":5.40904,"is_reserved":false,"is_disabled":false,"rental_uris":{"android":"levelo://app?vid=8273f306-3c1f-4399-b7cd-5bd1010cf5af","ios":"levelo://app?vid=8273f306-3c1f-4399-b7cd-5bd1010cf5af"},"vehicle_type_id":"4","last_reported":1746156832,"current_range_meters":7200,"station_id":"ce4bh192rcd13ifvqdc0","pricing_plan_id":"cebpf4jnsgd1na2vs0mg"},{"bike_id":"4a8abe55-f3ba-477a-be7d-f8f6d523d6b7","system_id":"levelo_inurba_marseille","lat":43.26564,"lon":5.39021,"is_reserved":false,"is_disabled":false,"rental_uris":{"android":"levelo://app?vid=4a8abe55-f3ba-477a-be7d-f8f6d523d6b7","ios":"levelo://app?vid=4a8abe55-f3ba-477a-be7d-f8f6d523d6b7"},"vehicle_type_id":"4","last_reported":1746156832,"current_range_meters":7200,"station_id":"ce4bhe12rcd13ifvqf30","pricing_plan_id":"cebpf4jnsgd1na2vs0mg"},{"bike_id":"499d1cdf-2c67-45d2-84d4-85f13a0e2ba8","system_id":"levelo_inurba_marseille","lat":43.31998,"lon":5.38168,"is_reserved":false,"is_disabled":false,"rental_uris":{"android":"levelo://app?vid=499d1cdf-2c67-45d2-84d4-85f13a0e2ba8","ios":"levelo://app?vid=499d1cdf-2c67-45d2-84d4-85f13a0e2ba8"},"vehicle_type_id":"4","last_reported":1746156832,"current_range_meters":7200,"station_id":"ce4bhr12rcd13ifvqhpg","pricing_plan_id":"cebpf4jnsgd1na2vs0mg"},{"bike_id":"a34bf19e-c7f6-4370-8afa-d15d095d482c","system_id":"levelo_inurba_marseille","lat":43.27942,"lon":5.41046,"is_reserved":false,"is_disabled":false,"rental_uris":{"android":"levelo://app?vid=a34bf19e-c7f6-4370-8afa-d15d095d482c","ios":"levelo://app?vid=a34bf19e-c7f6-4370-8afa-d15d095d482c"},"vehicle_type_id":"4","last_reported":1746156832,"current_range_meters":7200,"station_id":"ce4bhnp2rcd13ifvqh0g","pricing_plan_id":"cebpf4jnsgd1na2vs0mg"},{"bike_id":"92c9c34a-2661-40c7-b42b-42a1687057dd","system_id":"levelo_inurba_marseille","lat":43.21198,"lon":5.35098,"is_reserved":false,"is_disabled":true,"rental_uris":{"android":"levelo://app?vid=92c9c34a-2661-40c7-b42b-42a1687057dd","ios":"levelo://app?vid=92c9c34a-2661-40c7-b42b-42a1687057dd"},"vehicle_type_id":"4","last_reported":1746156832,"current_range_meters":8000,"station_id":"st_cvj6sg6p6f1abm77japg","pricing_plan_id":"cebpf4jnsgd1na2vs0mg"},{"bike_id":"123e2a1e-8e80-4acb-9bf1-3836d4bf2f87","system_id":"levelo_inurba_marseille","lat":43.251,"lon":5.40348,"is_reserved":false,"is_disabled":false,"rental_uris":{"android":"levelo://app?vid=123e2a1e-8e80-4acb-9bf1-3836d4bf2f87","ios":"levelo://app?vid=123e2a1e-8e80-4acb-9bf1-3836d4bf2f87"},"vehicle_type_id":"4","last_reported":1746156832,"current_range_meters":8000,"station_id":"ce4bhlh2rcd13ifvqgig","pricing_plan_id":"cebpf4jnsgd1na2vs0mg"},{"bike_id":"f1875d39-6c28-4e0d-9f83-8822969bf67a","system_id":"levelo_inurba_marseille","lat":43.30769,"lon":5.3766,"is_reserved":false,"is_disabled":false,"rental_uris":{"android":"levelo://app?vid=f1875d39-6c28-4e0d-9f83-8822969bf67a","ios":"levelo://app?vid=f1875d39-6c28-4e0d-9f83-8822969bf67a"},"vehicle_type_id":"4","last_reported":1746156832,"current_range_meters":8000,"station_id":"ce4bgv92rcd13ifvqcq0","pricing_plan_id":"cebpf4jnsgd1na2vs0mg"},{"bike_id":"51ef9827-05d4-4f72-abc3-c6fec8c5a095","system_id":"levelo_inurba_marseille","lat":43.23143,"lon":5.437077,"is_reserved":false,"is_disabled":false,"rental_uris":{"android":"levelo://app?vid=51ef9827-05d4-4f72-abc3-c6fec8c5a095","ios":"levelo://app?vid=51ef9827-05d4-4f72-abc3-c6fec8c5a095"},"vehicle_type_id":"4","last_reported":1746156832,"current_range_meters":8000,"station_id":"ce4bhmp2rcd13ifvqgog","pricing_plan_id":"cebpf4jnsgd1na2vs0mg"},{"bike_id":"f565461d-5ade-454d-95fa-3afa3312979d","system_id":"levelo_inurba_marseille","lat":43.306337,"lon":5.400733,"is_reserved":false,"is_disabled":false,"rental_uris":{"android":"levelo://app?vid=f565461d-5ade-454d-95fa-3afa3312979d","ios":"levelo://app?vid=f565461d-5ade-454d-95fa-3afa3312979d"},"vehicle_type_id":"4","last_reported":1746156832,"current_range_meters":8000,"station_id":"ce4bh112rcd13ifvqda0","pricing_plan_id":"cebpf4jnsgd1na2vs0mg"},{"bike_id":"1ea83f91-cead-42af-afdd-8d2cab331ff6","system_id":"levelo_inurba_marseille","lat":43.27998,"lon":5.40036,"is_reserved":false,"is_disabled":false,"rental_uris":{"android":"levelo://app?vid=1ea83f91-cead-42af-afdd-8d2cab331ff6","ios":"levelo://app?vid=1ea83f91-cead-42af-afdd-8d2cab331ff6"},"vehicle_type_id":"4","last_reported":1746156832,"current_range_meters":8000,"station_id":"ce4bho92rcd13ifvqh4g","pricing_plan_id":"cebpf4jnsgd1na2vs0mg"},{"bike_id":"3feaa426-1b63-49b9-8277-2dd1cca318cf","system_id":"levelo_inurba_marseille","lat":43.3004,"lon":5.40099,"is_reserved":false,"is_disabled":false,"rental_uris":{"android":"levelo://app?vid=3feaa426-1b63-49b9-8277-2dd1cca318cf","ios":"levelo://app?vid=3feaa426-1b63-49b9-8277-2dd1cca318cf"},"vehicle_type_id":"4","last_reported":1746156832,"current_range_meters":8000,"station_id":"","pricing_plan_id":"cebpf4jnsgd1na2vs0mg"},{"bike_id":"2e5e7fab-f1e0-4b30-bf97-3890895a344d","system_id":"levelo_inurba_marseille","lat":43.29883,"lon":5.39748,"is_reserved":false,"is_disabled":false,"rental_uris":{"android":"levelo://app?vid=2e5e7fab-f1e0-4b30-bf97-3890895a344d","ios":"levelo://app?vid=2e5e7fab-f1e0-4b30-bf97-3890895a344d"},"vehicle_type_id":"4","last_reported":1746156832,"current_range_meters":8000,"station_id":"ce4bh0h2rcd13ifvqd50","pricing_plan_id":"cebpf4jnsgd1na2vs0mg"},{"bike_id":"08ae6229-5a47-4c4c-99ac-4ba6243e9cfe","system_id":"levelo_inurba_marseille","lat":43.230523,"lon":5.354886,"is_reserved":false,"is_disabled":true,"rental_uris":{"android":"levelo://app?vid=08ae6229-5a47-4c4c-99ac-4ba6243e9cfe","ios":"levelo://app?vid=08ae6229-5a47-4c4c-99ac-4ba6243e9cfe"},"vehicle_type_id":"4","last_reported":1746156832,"current_range_meters":8000,"station_id":"cpo3342slgdg3j2ifvpg","pricing_plan_id":"cebpf4jnsgd1na2vs0mg"},{"bike_id":"93dad334-9f21-4a50-99cb-c86648baef08","system_id":"levelo_inurba_marseille","lat":43.31318,"lon":5.39698,"is_reserved":false,"is_disabled":false,"rental_uris":{"android":"levelo://app?vid=93dad334-9f21-4a50-99cb-c86648baef08","ios":"levelo://app?vid=93dad334-9f21-4a50-99cb-c86648baef08"},"vehicle_type_id":"4","last_reported":1746156832,"current_range_meters":8400,"station_id":"ce4bgvp2rcd13ifvqcu0","pricing_plan_id":"cebpf4jnsgd1na2vs0mg"},{"bike_id":"2fa76595-008d-4c0f-83c4-7d3eccff5cfc","system_id":"levelo_inurba_marseille","lat":43.28105,"lon":5.37836,"is_reserved":false,"is_disabled":false,"rental_uris":{"android":"levelo://app?vid=2fa76595-008d-4c0f-83c4-7d3eccff5cfc","ios":"levelo://app?vid=2fa76595-008d-4c0f-83c4-7d3eccff5cfc"},"vehicle_type_id":"4","last_reported":1746156832,"current_range_meters":8400,"station_id":"ce4bha12rcd13ifvqee0","pricing_plan_id":"cebpf4jnsgd1na2vs0mg"},{"bike_id":"65a92264-a32d-4911-ad5e-307139719f38","system_id":"levelo_inurba_marseille","lat":43.30891,"lon":5.40273,"is_reserved":false,"is_disabled":false,"rental_uris":{"android":"levelo://app?vid=65a92264-a32d-4911-ad5e-307139719f38","ios":"levelo://app?vid=65a92264-a32d-4911-ad5e-307139719f38"},"vehicle_type_id":"4","last_reported":1746156832,"current_range_meters":8400,"station_id":"ce4bgvp2rcd13ifvqct0","pricing_plan_id":"cebpf4jnsgd1na2vs0mg"},{"bike_id":"986ec62a-3345-4a97-ac84-3caee6489d21","system_id":"levelo_inurba_marseille","lat":43.30543,"lon":5.38436,"is_reserved":false,"is_disabled":false,"rental_uris":{"android":"levelo://app?vid=986ec62a-3345-4a97-ac84-3caee6489d21","ios":"levelo://app?vid=986ec62a-3345-4a97-ac84-3caee6489d21"},"vehicle_type_id":"4","last_reported":1746156832,"current_range_meters":8400,"station_id":"ce4bgg92rcd13ifvqb30","pricing_plan_id":"cebpf4jnsgd1na2vs0mg"},{"bike_id":"0585aee3-4fd2-4100-ace9-3ab20275013d","system_id":"levelo_inurba_marseille","lat":43.28725,"lon":5.400195,"is_reserved":false,"is_disabled":false,"rental_uris":{"android":"levelo://app?vid=0585aee3-4fd2-4100-ace9-3ab20275013d","ios":"levelo://app?vid=0585aee3-4fd2-4100-ace9-3ab20275013d"},"vehicle_type_id":"4","last_reported":1746156832,"current_range_meters":8400,"station_id":"ce4bho92rcd13ifvqh3g","pricing_plan_id":"cebpf4jnsgd1na2vs0mg"},{"bike_id":"c19c0ec3-0b01-4407-8e8f-e6d03967c348","system_id":"levelo_inurba_marseille","lat":43.26484,"lon":5.39551,"is_reserved":false,"is_disabled":false,"rental_uris":{"android":"levelo://app?vid=c19c0ec3-0b01-4407-8e8f-e6d03967c348","ios":"levelo://app?vid=c19c0ec3-0b01-4407-8e8f-e6d03967c348"},"vehicle_type_id":"4","last_reported":1746156832,"current_range_meters":8400,"station_id":"ce4bhi12rcd13ifvqfq0","pricing_plan_id":"cebpf4jnsgd1na2vs0mg"},{"bike_id":"d90a9f6a-dcc7-4188-90fd-9982aa485cbb","system_id":"levelo_inurba_marseille","lat":43.24408,"lon":5.37057,"is_reserved":false,"is_disabled":true,"rental_uris":{"android":"levelo://app?vid=d90a9f6a-dcc7-4188-90fd-9982aa485cbb","ios":"levelo://app?vid=d90a9f6a-dcc7-4188-90fd-9982aa485cbb"},"vehicle_type_id":"4","last_reported":1746156832,"current_range_meters":8400,"station_id":"ce4bhhh2rcd13ifvqfk0","pricing_plan_id":"cebpf4jnsgd1na2vs0mg"},{"bike_id":"8c14a9dd-9596-4c54-9b10-cae5d57b4d1b","system_id":"levelo_inurba_marseille","lat":43.32406,"lon":5.39036,"is_reserved":false,"is_disabled":true,"rental_uris":{"android":"levelo://app?vid=8c14a9dd-9596-4c54-9b10-cae5d57b4d1b","ios":"levelo://app?vid=8c14a9dd-9596-4c54-9b10-cae5d57b4d1b"},"vehicle_type_id":"4","last_reported":1746156832,"current_range_meters":8400,"station_id":"","pricing_plan_id":"cebpf4jnsgd1na2vs0mg"},{"bike_id":"44137701-96fd-466c-876b-72e95bfc3ab1","system_id":"levelo_inurba_marseille","lat":43.28144,"lon":5.42675,"is_reserved":false,"is_disabled":false,"rental_uris":{"android":"levelo://app?vid=44137701-96fd-466c-876b-72e95bfc3ab1","ios":"levelo://app?vid=44137701-96fd-466c-876b-72e95bfc3ab1"},"vehicle_type_id":"4","last_reported":1746156832,"current_range_meters":8400,"station_id":"ce4bhnh2rcd13ifvqgug","pricing_plan_id":"cebpf4jnsgd1na2vs0mg"},{"bike_id":"b02714d4-fcb0-48f5-95c1-4eb4ecdb0ef9","system_id":"levelo_inurba_marseille","lat":43.290405,"lon":5.399941,"is_reserved":false,"is_disabled":false,"rental_uris":{"android":"levelo://app?vid=b02714d4-fcb0-48f5-95c1-4eb4ecdb0ef9","ios":"levelo://app?vid=b02714d4-fcb0-48f5-95c1-4eb4ecdb0ef9"},"vehicle_type_id":"4","last_reported":1746156832,"current_range_meters":8400,"station_id":"ce4bh392rcd13ifvqdm0","pricing_plan_id":"cebpf4jnsgd1na2vs0mg"},{"bike_id":"6ec79724-695f-4466-b4f4-7a3dea399050","system_id":"levelo_inurba_marseille","lat":43.270658,"lon":5.422759,"is_reserved":false,"is_disabled":false,"rental_uris":{"android":"levelo://app?vid=6ec79724-695f-4466-b4f4-7a3dea399050","ios":"levelo://app?vid=6ec79724-695f-4466-b4f4-7a3dea399050"},"vehicle_type_id":"4","last_reported":1746156832,"current_range_meters":8400,"station_id":"ce4bhk92rcd13ifvqgb0","pricing_plan_id":"cebpf4jnsgd1na2vs0mg"},{"bike_id":"1a0e9be5-bd4f-4026-be47-4bf333aa540c","system_id":"levelo_inurba_marseille","lat":43.28444,"lon":5.39216,"is_reserved":false,"is_disabled":true,"rental_uris":{"android":"levelo://app?vid=1a0e9be5-bd4f-4026-be47-4bf333aa540c","ios":"levelo://app?vid=1a0e9be5-bd4f-4026-be47-4bf333aa540c"},"vehicle_type_id":"4","last_reported":1746156832,"current_range_meters":8400,"station_id":"ce4bhoh2rcd13ifvqh5g","pricing_plan_id":"cebpf4jnsgd1na2vs0mg"},{"bike_id":"5646eef8-71a4-4c6e-af3a-c51edb43f2a7","system_id":"levelo_inurba_marseille","lat":43.27989,"lon":5.41654,"is_reserved":false,"is_disabled":false,"rental_uris":{"android":"levelo://app?vid=5646eef8-71a4-4c6e-af3a-c51edb43f2a7","ios":"levelo://app?vid=5646eef8-71a4-4c6e-af3a-c51edb43f2a7"},"vehicle_type_id":"4","last_reported":1746156832,"current_range_meters":8800,"station_id":"ce4bho12rcd13ifvqh1g","pricing_plan_id":"cebpf4jnsgd1na2vs0mg"},{"bike_id":"3c92b329-9752-444f-a0f7-ffacbc896c0e","system_id":"levelo_inurba_marseille","lat":43.287024,"lon":5.399839,"is_reserved":false,"is_disabled":false,"rental_uris":{"android":"levelo://app?vid=3c92b329-9752-444f-a0f7-ffacbc896c0e","ios":"levelo://app?vid=3c92b329-9752-444f-a0f7-ffacbc896c0e"},"vehicle_type_id":"4","last_reported":1746156832,"current_range_meters":8800,"station_id":"ce4bho92rcd13ifvqh3g","pricing_plan_id":"cebpf4jnsgd1na2vs0mg"},{"bike_id":"be456527-6b15-4d45-9584-9f70290eb771","system_id":"levelo_inurba_marseille","lat":43.309331,"lon":5.401522,"is_reserved":false,"is_disabled":false,"rental_uris":{"android":"levelo://app?vid=be456527-6b15-4d45-9584-9f70290eb771","ios":"levelo://app?vid=be456527-6b15-4d45-9584-9f70290eb771"},"vehicle_type_id":"4","last_reported":1746156832,"current_range_meters":8800,"station_id":"ce4bgvp2rcd13ifvqct0","pricing_plan_id":"cebpf4jnsgd1na2vs0mg"},{"bike_id":"e0c69642-153a-4cdf-94dd-e50d7657b75d","system_id":"levelo_inurba_marseille","lat":43.31675,"lon":5.4048,"is_reserved":false,"is_disabled":false,"rental_uris":{"android":"levelo://app?vid=e0c69642-153a-4cdf-94dd-e50d7657b75d","ios":"levelo://app?vid=e0c69642-153a-4cdf-94dd-e50d7657b75d"},"vehicle_type_id":"4","last_reported":1746156832,"current_range_meters":8800,"station_id":"ce4bh012rcd13ifvqd00","pricing_plan_id":"cebpf4jnsgd1na2vs0mg"},{"bike_id":"2df3c7e7-6f24-4b35-8876-4ea421331109","system_id":"levelo_inurba_marseille","lat":43.251073,"lon":5.403209,"is_reserved":false,"is_disabled":true,"rental_uris":{"android":"levelo://app?vid=2df3c7e7-6f24-4b35-8876-4ea421331109","ios":"levelo://app?vid=2df3c7e7-6f24-4b35-8876-4ea421331109"},"vehicle_type_id":"4","last_reported":1746156832,"current_range_meters":8800,"station_id":"ce4bhlh2rcd13ifvqgig","pricing_plan_id":"cebpf4jnsgd1na2vs0mg"},{"bike_id":"e96c6114-6a4b-4332-a152-934cf511941a","system_id":"levelo_inurba_marseille","lat":43.279173,"lon":5.395765,"is_reserved":false,"is_disabled":false,"rental_uris":{"android":"levelo://app?vid=e96c6114-6a4b-4332-a152-934cf511941a","ios":"levelo://app?vid=e96c6114-6a4b-4332-a152-934cf511941a"},"vehicle_type_id":"4","last_reported":1746156832,"current_range_meters":8800,"station_id":"ce4bhf92rcd13ifvqf40","pricing_plan_id":"cebpf4jnsgd1na2vs0mg"},{"bike_id":"68d44f0d-e8f4-4c59-9647-f88c98316d16","system_id":"levelo_inurba_marseille","lat":43.30643,"lon":5.40099,"is_reserved":false,"is_disabled":false,"rental_uris":{"android":"levelo://app?vid=68d44f0d-e8f4-4c59-9647-f88c98316d16","ios":"levelo://app?vid=68d44f0d-e8f4-4c59-9647-f88c98316d16"},"vehicle_type_id":"4","last_reported":1746156832,"current_range_meters":8800,"station_id":"ce4bh112rcd13ifvqda0","pricing_plan_id":"cebpf4jnsgd1na2vs0mg"},{"bike_id":"1e63c5de-3c5a-4333-8936-ffe7ed3b92b1","system_id":"levelo_inurba_marseille","lat":43.30245,"lon":5.40099,"is_reserved":false,"is_disabled":false,"rental_uris":{"android":"levelo://app?vid=1e63c5de-3c5a-4333-8936-ffe7ed3b92b1","ios":"levelo://app?vid=1e63c5de-3c5a-4333-8936-ffe7ed3b92b1"},"vehicle_type_id":"4","last_reported":1746156832,"current_range_meters":8800,"station_id":"ce4bgvh2rcd13ifvqcs0","pricing_plan_id":"cebpf4jnsgd1na2vs0mg"},{"bike_id":"050a2450-c485-4e12-8c11-e6df9701dce1","system_id":"levelo_inurba_marseille","lat":43.315273,"lon":5.380253,"is_reserved":false,"is_disabled":false,"rental_uris":{"android":"levelo://app?vid=050a2450-c485-4e12-8c11-e6df9701dce1","ios":"levelo://app?vid=050a2450-c485-4e12-8c11-e6df9701dce1"},"vehicle_type_id":"4","last_reported":1746156832,"current_range_meters":9200,"station_id":"ce4bhsp2rcd13ifvqi50","pricing_plan_id":"cebpf4jnsgd1na2vs0mg"},{"bike_id":"c7d3ea31-dcc6-46ed-86ce-40d67db7f4b1","system_id":"levelo_inurba_marseille","lat":43.29254,"lon":5.384394,"is_reserved":false,"is_disabled":true,"rental_uris":{"android":"levelo://app?vid=c7d3ea31-dcc6-46ed-86ce-40d67db7f4b1","ios":"levelo://app?vid=c7d3ea31-dcc6-46ed-86ce-40d67db7f4b1"},"vehicle_type_id":"4","last_reported":1746156832,"current_range_meters":9200,"station_id":"ce4bh692rcd13ifvqea0","pricing_plan_id":"cebpf4jnsgd1na2vs0mg"},{"bike_id":"f86d1595-bc23-43f0-b70b-4aabc8d8fddc","system_id":"levelo_inurba_marseille","lat":43.33619,"lon":5.40992,"is_reserved":false,"is_disabled":false,"rental_uris":{"android":"levelo://app?vid=f86d1595-bc23-43f0-b70b-4aabc8d8fddc","ios":"levelo://app?vid=f86d1595-bc23-43f0-b70b-4aabc8d8fddc"},"vehicle_type_id":"4","last_reported":1746156832,"current_range_meters":9200,"station_id":"ce4bhqh2rcd13ifvqhmg","pricing_plan_id":"cebpf4jnsgd1na2vs0mg"},{"bike_id":"ec15cf0c-8146-4bc1-844a-6eb9757e3d6b","system_id":"levelo_inurba_marseille","lat":43.29258,"lon":5.40167,"is_reserved":false,"is_disabled":false,"rental_uris":{"android":"levelo://app?vid=ec15cf0c-8146-4bc1-844a-6eb9757e3d6b","ios":"levelo://app?vid=ec15cf0c-8146-4bc1-844a-6eb9757e3d6b"},"vehicle_type_id":"4","last_reported":1746156832,"current_range_meters":9200,"station_id":"ce4bh312rcd13ifvqdk0","pricing_plan_id":"cebpf4jnsgd1na2vs0mg"},{"bike_id":"018a7b84-7546-4764-b02b-6a24748ad734","system_id":"levelo_inurba_marseille","lat":43.27979,"lon":5.40032,"is_reserved":false,"is_disabled":false,"rental_uris":{"android":"levelo://app?vid=018a7b84-7546-4764-b02b-6a24748ad734","ios":"levelo://app?vid=018a7b84-7546-4764-b02b-6a24748ad734"},"vehicle_type_id":"4","last_reported":1746156832,"current_range_meters":9200,"station_id":"ce4bho92rcd13ifvqh4g","pricing_plan_id":"cebpf4jnsgd1na2vs0mg"},{"bike_id":"fa0847ce-f57a-49be-92cd-a84df065d5e9","system_id":"levelo_inurba_marseille","lat":43.33592,"lon":5.41029,"is_reserved":false,"is_disabled":false,"rental_uris":{"android":"levelo://app?vid=fa0847ce-f57a-49be-92cd-a84df065d5e9","ios":"levelo://app?vid=fa0847ce-f57a-49be-92cd-a84df065d5e9"},"vehicle_type_id":"4","last_reported":1746156832,"current_range_meters":9200,"station_id":"ce4bhqh2rcd13ifvqhmg","pricing_plan_id":"cebpf4jnsgd1na2vs0mg"},{"bike_id":"25269ee6-2cc3-456d-9ffd-d266344fa265","system_id":"levelo_inurba_marseille","lat":43.26498,"lon":5.39543,"is_reserved":false,"is_disabled":false,"rental_uris":{"android":"levelo://app?vid=25269ee6-2cc3-456d-9ffd-d266344fa265","ios":"levelo://app?vid=25269ee6-2cc3-456d-9ffd-d266344fa265"},"vehicle_type_id":"4","last_reported":1746156832,"current_range_meters":9200,"station_id":"ce4bhi12rcd13ifvqfq0","pricing_plan_id":"cebpf4jnsgd1na2vs0mg"},{"bike_id":"54834cda-882c-4c5b-9745-59025a1e39f4","system_id":"levelo_inurba_marseille","lat":43.27172,"lon":5.409932,"is_reserved":false,"is_disabled":false,"rental_uris":{"android":"levelo://app?vid=54834cda-882c-4c5b-9745-59025a1e39f4","ios":"levelo://app?vid=54834cda-882c-4c5b-9745-59025a1e39f4"},"vehicle_type_id":"4","last_reported":1746156832,"current_range_meters":9200,"station_id":"ce4bhl12rcd13ifvqgf0","pricing_plan_id":"cebpf4jnsgd1na2vs0mg"},{"bike_id":"ba0e6d91-4a64-4f55-87e0-e3b4f3b45f2d","system_id":"levelo_inurba_marseille","lat":43.27983,"lon":5.41659,"is_reserved":false,"is_disabled":false,"rental_uris":{"android":"levelo://app?vid=ba0e6d91-4a64-4f55-87e0-e3b4f3b45f2d","ios":"levelo://app?vid=ba0e6d91-4a64-4f55-87e0-e3b4f3b45f2d"},"vehicle_type_id":"4","last_reported":1746156832,"current_range_meters":9200,"station_id":"ce4bho12rcd13ifvqh1g","pricing_plan_id":"cebpf4jnsgd1na2vs0mg"},{"bike_id":"f2476cf5-18ae-43ae-8380-39d39ed5971f","system_id":"levelo_inurba_marseille","lat":43.311226,"lon":5.377646,"is_reserved":false,"is_disabled":false,"rental_uris":{"android":"levelo://app?vid=f2476cf5-18ae-43ae-8380-39d39ed5971f","ios":"levelo://app?vid=f2476cf5-18ae-43ae-8380-39d39ed5971f"},"vehicle_type_id":"4","last_reported":1746156832,"current_range_meters":9200,"station_id":"ce4bgt92rcd13ifvqcg0","pricing_plan_id":"cebpf4jnsgd1na2vs0mg"},{"bike_id":"7971fe93-5f1d-4a59-8508-b415e64fcb18","system_id":"levelo_inurba_marseille","lat":43.30912,"lon":5.37431,"is_reserved":false,"is_disabled":false,"rental_uris":{"android":"levelo://app?vid=7971fe93-5f1d-4a59-8508-b415e64fcb18","ios":"levelo://app?vid=7971fe93-5f1d-4a59-8508-b415e64fcb18"},"vehicle_type_id":"4","last_reported":1746156832,"current_range_meters":9200,"station_id":"","pricing_plan_id":"cebpf4jnsgd1na2vs0mg"},{"bike_id":"0275921f-ce6e-42c6-b9cc-724455ffabca","system_id":"levelo_inurba_marseille","lat":43.257159,"lon":5.411095,"is_reserved":false,"is_disabled":false,"rental_uris":{"android":"levelo://app?vid=0275921f-ce6e-42c6-b9cc-724455ffabca","ios":"levelo://app?vid=0275921f-ce6e-42c6-b9cc-724455ffabca"},"vehicle_type_id":"4","last_reported":1746156832,"current_range_meters":9200,"station_id":"ce4bhkp2rcd13ifvqgd0","pricing_plan_id":"cebpf4jnsgd1na2vs0mg"},{"bike_id":"31c74a1c-33bb-491a-8ee1-a777fe94090b","system_id":"levelo_inurba_marseille","lat":43.280746,"lon":5.396489,"is_reserved":false,"is_disabled":false,"rental_uris":{"android":"levelo://app?vid=31c74a1c-33bb-491a-8ee1-a777fe94090b","ios":"levelo://app?vid=31c74a1c-33bb-491a-8ee1-a777fe94090b"},"vehicle_type_id":"4","last_reported":1746156832,"current_range_meters":9600,"station_id":"ce4bho12rcd13ifvqh2g","pricing_plan_id":"cebpf4jnsgd1na2vs0mg"},{"bike_id":"4a6851f9-34fb-48f6-8387-4b9c13325bed","system_id":"levelo_inurba_marseille","lat":43.321037,"lon":5.36773,"is_reserved":false,"is_disabled":false,"rental_uris":{"android":"levelo://app?vid=4a6851f9-34fb-48f6-8387-4b9c13325bed","ios":"levelo://app?vid=4a6851f9-34fb-48f6-8387-4b9c13325bed"},"vehicle_type_id":"4","last_reported":1746156832,"current_range_meters":9600,"station_id":"ce4bhrh2rcd13ifvqhug","pricing_plan_id":"cebpf4jnsgd1na2vs0mg"},{"bike_id":"4e06d3e6-2b20-4e7b-aea6-0ad1ac5e1edf","system_id":"levelo_inurba_marseille","lat":43.325384,"lon":5.414497,"is_reserved":false,"is_disabled":false,"rental_uris":{"android":"levelo://app?vid=4e06d3e6-2b20-4e7b-aea6-0ad1ac5e1edf","ios":"levelo://app?vid=4e06d3e6-2b20-4e7b-aea6-0ad1ac5e1edf"},"vehicle_type_id":"4","last_reported":1746156832,"current_range_meters":9600,"station_id":"ce4bhq12rcd13ifvqhhg","pricing_plan_id":"cebpf4jnsgd1na2vs0mg"},{"bike_id":"f3d36354-fb65-4d90-83eb-303e5363ade6","system_id":"levelo_inurba_marseille","lat":43.3127,"lon":5.40172,"is_reserved":false,"is_disabled":false,"rental_uris":{"android":"levelo://app?vid=f3d36354-fb65-4d90-83eb-303e5363ade6","ios":"levelo://app?vid=f3d36354-fb65-4d90-83eb-303e5363ade6"},"vehicle_type_id":"4","last_reported":1746156832,"current_range_meters":9600,"station_id":"ce4bh092rcd13ifvqd30","pricing_plan_id":"cebpf4jnsgd1na2vs0mg"},{"bike_id":"d2fd2180-e73e-4220-869a-026232ab3e8c","system_id":"levelo_inurba_marseille","lat":43.29249,"lon":5.4019,"is_reserved":false,"is_disabled":false,"rental_uris":{"android":"levelo://app?vid=d2fd2180-e73e-4220-869a-026232ab3e8c","ios":"levelo://app?vid=d2fd2180-e73e-4220-869a-026232ab3e8c"},"vehicle_type_id":"4","last_reported":1746156832,"current_range_meters":9600,"station_id":"","pricing_plan_id":"cebpf4jnsgd1na2vs0mg"},{"bike_id":"48126050-7010-4ae8-aef3-3d72dc056a47","system_id":"levelo_inurba_marseille","lat":43.32328,"lon":5.40653,"is_reserved":false,"is_disabled":false,"rental_uris":{"android":"levelo://app?vid=48126050-7010-4ae8-aef3-3d72dc056a47","ios":"levelo://app?vid=48126050-7010-4ae8-aef3-3d72dc056a47"},"vehicle_type_id":"4","last_reported":1746156832,"current_range_meters":9600,"station_id":"ce4bhq92rcd13ifvqhjg","pricing_plan_id":"cebpf4jnsgd1na2vs0mg"},{"bike_id":"c0a5ee56-6f43-441c-97c4-100fe7548229","system_id":"levelo_inurba_marseille","lat":43.31349,"lon":5.38512,"is_reserved":false,"is_disabled":true,"rental_uris":{"android":"levelo://app?vid=c0a5ee56-6f43-441c-97c4-100fe7548229","ios":"levelo://app?vid=c0a5ee56-6f43-441c-97c4-100fe7548229"},"vehicle_type_id":"4","last_reported":1746156832,"current_range_meters":9600,"station_id":"ce4bgt92rcd13ifvqcf0","pricing_plan_id":"cebpf4jnsgd1na2vs0mg"},{"bike_id":"20677bec-f723-4a98-9582-28d71c43bf6e","system_id":"levelo_inurba_marseille","lat":43.23149,"lon":5.43725,"is_reserved":false,"is_disabled":false,"rental_uris":{"android":"levelo://app?vid=20677bec-f723-4a98-9582-28d71c43bf6e","ios":"levelo://app?vid=20677bec-f723-4a98-9582-28d71c43bf6e"},"vehicle_type_id":"4","last_reported":1746156832,"current_range_meters":9600,"station_id":"ce4bhmp2rcd13ifvqgog","pricing_plan_id":"cebpf4jnsgd1na2vs0mg"},{"bike_id":"5dfff884-afb2-498f-8cf3-92d2423e101f","system_id":"levelo_inurba_marseille","lat":43.30651,"lon":5.40087,"is_reserved":false,"is_disabled":false,"rental_uris":{"android":"levelo://app?vid=5dfff884-afb2-498f-8cf3-92d2423e101f","ios":"levelo://app?vid=5dfff884-afb2-498f-8cf3-92d2423e101f"},"vehicle_type_id":"4","last_reported":1746156832,"current_range_meters":9600,"station_id":"ce4bh112rcd13ifvqda0","pricing_plan_id":"cebpf4jnsgd1na2vs0mg"},{"bike_id":"7b6befc3-4833-44db-a59f-fce35f535509","system_id":"levelo_inurba_marseille","lat":43.30797,"lon":5.38177,"is_reserved":false,"is_disabled":false,"rental_uris":{"android":"levelo://app?vid=7b6befc3-4833-44db-a59f-fce35f535509","ios":"levelo://app?vid=7b6befc3-4833-44db-a59f-fce35f535509"},"vehicle_type_id":"4","last_reported":1746156832,"current_range_meters":9600,"station_id":"ce4bgt12rcd13ifvqce0","pricing_plan_id":"cebpf4jnsgd1na2vs0mg"},{"bike_id":"7f3e5a55-eb17-449b-9a20-cc477d2084eb","system_id":"levelo_inurba_marseille","lat":43.305981,"lon":5.372271,"is_reserved":false,"is_disabled":false,"rental_uris":{"android":"levelo://app?vid=7f3e5a55-eb17-449b-9a20-cc477d2084eb","ios":"levelo://app?vid=7f3e5a55-eb17-449b-9a20-cc477d2084eb"},"vehicle_type_id":"4","last_reported":1746156832,"current_range_meters":9600,"station_id":"ce4bgqh2rcd13ifvqc4g","pricing_plan_id":"cebpf4jnsgd1na2vs0mg"},{"bike_id":"6408a017-cb1d-4e23-9508-f49121914cfc","system_id":"levelo_inurba_marseille","lat":43.287055,"lon":5.399783,"is_reserved":false,"is_disabled":false,"rental_uris":{"android":"levelo://app?vid=6408a017-cb1d-4e23-9508-f49121914cfc","ios":"levelo://app?vid=6408a017-cb1d-4e23-9508-f49121914cfc"},"vehicle_type_id":"4","last_reported":1746156832,"current_range_meters":10000,"station_id":"ce4bho92rcd13ifvqh3g","pricing_plan_id":"cebpf4jnsgd1na2vs0mg"},{"bike_id":"fa09a71f-673d-4c1a-a11e-336f86ed1d37","system_id":"levelo_inurba_marseille","lat":43.30136,"lon":5.38067,"is_reserved":false,"is_disabled":false,"rental_uris":{"android":"levelo://app?vid=fa09a71f-673d-4c1a-a11e-336f86ed1d37","ios":"levelo://app?vid=fa09a71f-673d-4c1a-a11e-336f86ed1d37"},"vehicle_type_id":"4","last_reported":1746156832,"current_range_meters":10000,"station_id":"ce4bgjp2rcd13ifvqbh0","pricing_plan_id":"cebpf4jnsgd1na2vs0mg"},{"bike_id":"579f3ff0-5a5b-45cb-baa0-e568c1cd8ec3","system_id":"levelo_inurba_marseille","lat":43.29251,"lon":5.40881,"is_reserved":false,"is_disabled":false,"rental_uris":{"android":"levelo://app?vid=579f3ff0-5a5b-45cb-baa0-e568c1cd8ec3","ios":"levelo://app?vid=579f3ff0-5a5b-45cb-baa0-e568c1cd8ec3"},"vehicle_type_id":"4","last_reported":1746156832,"current_range_meters":10000,"station_id":"ce4bh192rcd13ifvqdc0","pricing_plan_id":"cebpf4jnsgd1na2vs0mg"},{"bike_id":"189354fc-4e14-4f72-9a49-3e5986f1bf33","system_id":"levelo_inurba_marseille","lat":43.2905,"lon":5.3997,"is_reserved":false,"is_disabled":false,"rental_uris":{"android":"levelo://app?vid=189354fc-4e14-4f72-9a49-3e5986f1bf33","ios":"levelo://app?vid=189354fc-4e14-4f72-9a49-3e5986f1bf33"},"vehicle_type_id":"4","last_reported":1746156832,"current_range_meters":10000,"station_id":"ce4bh392rcd13ifvqdm0","pricing_plan_id":"cebpf4jnsgd1na2vs0mg"},{"bike_id":"41b15ddf-1454-4d83-8188-53d37f91586a","system_id":"levelo_inurba_marseille","lat":43.30318,"lon":5.40435,"is_reserved":false,"is_disabled":false,"rental_uris":{"android":"levelo://app?vid=41b15ddf-1454-4d83-8188-53d37f91586a","ios":"levelo://app?vid=41b15ddf-1454-4d83-8188-53d37f91586a"},"vehicle_type_id":"4","last_reported":1746156832,"current_range_meters":10000,"station_id":"ce4bh012rcd13ifvqd10","pricing_plan_id":"cebpf4jnsgd1na2vs0mg"},{"bike_id":"b4c6dcac-f892-4aa8-b0ef-5da31e4ea582","system_id":"levelo_inurba_marseille","lat":43.306385,"lon":5.40073,"is_reserved":false,"is_disabled":false,"rental_uris":{"android":"levelo://app?vid=b4c6dcac-f892-4aa8-b0ef-5da31e4ea582","ios":"levelo://app?vid=b4c6dcac-f892-4aa8-b0ef-5da31e4ea582"},"vehicle_type_id":"4","last_reported":1746156832,"current_range_meters":10000,"station_id":"ce4bh112rcd13ifvqda0","pricing_plan_id":"cebpf4jnsgd1na2vs0mg"},{"bike_id":"e62363b8-be2f-4501-8f4e-10e208c9dcc9","system_id":"levelo_inurba_marseille","lat":43.28741,"lon":5.3996,"is_reserved":false,"is_disabled":false,"rental_uris":{"android":"levelo://app?vid=e62363b8-be2f-4501-8f4e-10e208c9dcc9","ios":"levelo://app?vid=e62363b8-be2f-4501-8f4e-10e208c9dcc9"},"vehicle_type_id":"4","last_reported":1746156832,"current_range_meters":10000,"station_id":"ce4bho92rcd13ifvqh3g","pricing_plan_id":"cebpf4jnsgd1na2vs0mg"},{"bike_id":"73de5af1-bf79-433a-a20c-6899488a09e7","system_id":"levelo_inurba_marseille","lat":43.29317,"lon":5.37178,"is_reserved":false,"is_disabled":true,"rental_uris":{"android":"levelo://app?vid=73de5af1-bf79-433a-a20c-6899488a09e7","ios":"levelo://app?vid=73de5af1-bf79-433a-a20c-6899488a09e7"},"vehicle_type_id":"4","last_reported":1746156832,"current_range_meters":10000,"station_id":"ce4bgh92rcd13ifvqb40","pricing_plan_id":"cebpf4jnsgd1na2vs0mg"},{"bike_id":"bf0ded13-567f-4376-9241-fab3660dc401","system_id":"levelo_inurba_marseille","lat":43.23131,"lon":5.43742,"is_reserved":false,"is_disabled":false,"rental_uris":{"android":"levelo://app?vid=bf0ded13-567f-4376-9241-fab3660dc401","ios":"levelo://app?vid=bf0ded13-567f-4376-9241-fab3660dc401"},"vehicle_type_id":"4","last_reported":1746156832,"current_range_meters":10000,"station_id":"ce4bhmp2rcd13ifvqgog","pricing_plan_id":"cebpf4jnsgd1na2vs0mg"},{"bike_id":"5ce5a92f-2072-4e8c-8483-5f453ebe476a","system_id":"levelo_inurba_marseille","lat":43.231498,"lon":5.437066,"is_reserved":false,"is_disabled":false,"rental_uris":{"android":"levelo://app?vid=5ce5a92f-2072-4e8c-8483-5f453ebe476a","ios":"levelo://app?vid=5ce5a92f-2072-4e8c-8483-5f453ebe476a"},"vehicle_type_id":"4","last_reported":1746156832,"current_range_meters":10800,"station_id":"ce4bhmp2rcd13ifvqgog","pricing_plan_id":"cebpf4jnsgd1na2vs0mg"},{"bike_id":"fd07a340-a32b-44cc-824b-9474cc171177","system_id":"levelo_inurba_marseille","lat":43.28157,"lon":5.426362,"is_reserved":false,"is_disabled":false,"rental_uris":{"android":"levelo://app?vid=fd07a340-a32b-44cc-824b-9474cc171177","ios":"levelo://app?vid=fd07a340-a32b-44cc-824b-9474cc171177"},"vehicle_type_id":"4","last_reported":1746156832,"current_range_meters":10800,"station_id":"ce4bhnh2rcd13ifvqgug","pricing_plan_id":"cebpf4jnsgd1na2vs0mg"},{"bike_id":"35b2ed04-1000-45a2-811b-21527953f742","system_id":"levelo_inurba_marseille","lat":43.28074,"lon":5.39656,"is_reserved":false,"is_disabled":false,"rental_uris":{"android":"levelo://app?vid=35b2ed04-1000-45a2-811b-21527953f742","ios":"levelo://app?vid=35b2ed04-1000-45a2-811b-21527953f742"},"vehicle_type_id":"4","last_reported":1746156832,"current_range_meters":10800,"station_id":"ce4bho12rcd13ifvqh2g","pricing_plan_id":"cebpf4jnsgd1na2vs0mg"},{"bike_id":"3f8bea75-f1b7-42a9-9ff5-4986c0552272","system_id":"levelo_inurba_marseille","lat":43.217456,"lon":5.346079,"is_reserved":false,"is_disabled":true,"rental_uris":{"android":"levelo://app?vid=3f8bea75-f1b7-42a9-9ff5-4986c0552272","ios":"levelo://app?vid=3f8bea75-f1b7-42a9-9ff5-4986c0552272"},"vehicle_type_id":"4","last_reported":1746156832,"current_range_meters":10800,"station_id":"st_cvj6r9ubvosntc0bgbag","pricing_plan_id":"cebpf4jnsgd1na2vs0mg"},{"bike_id":"cba93bf4-d818-454b-925b-1e93ec515284","system_id":"levelo_inurba_marseille","lat":43.29248,"lon":5.40195,"is_reserved":false,"is_disabled":false,"rental_uris":{"android":"levelo://app?vid=cba93bf4-d818-454b-925b-1e93ec515284","ios":"levelo://app?vid=cba93bf4-d818-454b-925b-1e93ec515284"},"vehicle_type_id":"4","last_reported":1746156832,"current_range_meters":10800,"station_id":"","pricing_plan_id":"cebpf4jnsgd1na2vs0mg"},{"bike_id":"3e43c125-5323-4099-ab30-27ea243fe9db","system_id":"levelo_inurba_marseille","lat":43.310701,"lon":5.383507,"is_reserved":false,"is_disabled":false,"rental_uris":{"android":"levelo://app?vid=3e43c125-5323-4099-ab30-27ea243fe9db","ios":"levelo://app?vid=3e43c125-5323-4099-ab30-27ea243fe9db"},"vehicle_type_id":"4","last_reported":1746156832,"current_range_meters":10800,"station_id":"ce4bgv92rcd13ifvqcr0","pricing_plan_id":"cebpf4jnsgd1na2vs0mg"},{"bike_id":"f0aaa783-5973-447c-a491-82a9df2d6a40","system_id":"levelo_inurba_marseille","lat":43.26126,"lon":5.40478,"is_reserved":false,"is_disabled":false,"rental_uris":{"android":"levelo://app?vid=f0aaa783-5973-447c-a491-82a9df2d6a40","ios":"levelo://app?vid=f0aaa783-5973-447c-a491-82a9df2d6a40"},"vehicle_type_id":"4","last_reported":1746156832,"current_range_meters":10800,"station_id":"ce4bhmh2rcd13ifvqgmg","pricing_plan_id":"cebpf4jnsgd1na2vs0mg"},{"bike_id":"5e783dca-e9bd-4f97-a67f-f3c52ee23fb9","system_id":"levelo_inurba_marseille","lat":43.296214,"lon":5.377067,"is_reserved":false,"is_disabled":true,"rental_uris":{"android":"levelo://app?vid=5e783dca-e9bd-4f97-a67f-f3c52ee23fb9","ios":"levelo://app?vid=5e783dca-e9bd-4f97-a67f-f3c52ee23fb9"},"vehicle_type_id":"4","last_reported":1746156832,"current_range_meters":11200,"station_id":"","pricing_plan_id":"cebpf4jnsgd1na2vs0mg"},{"bike_id":"c7c7a92b-c148-41bb-b985-b3d124e5c071","system_id":"levelo_inurba_marseille","lat":43.248105,"lon":5.374584,"is_reserved":false,"is_disabled":true,"rental_uris":{"android":"levelo://app?vid=c7c7a92b-c148-41bb-b985-b3d124e5c071","ios":"levelo://app?vid=c7c7a92b-c148-41bb-b985-b3d124e5c071"},"vehicle_type_id":"4","last_reported":1746156832,"current_range_meters":11200,"station_id":"ce4bhgh2rcd13ifvqfb0","pricing_plan_id":"cebpf4jnsgd1na2vs0mg"},{"bike_id":"d2917865-c7ed-418c-8e76-6cf228a7e046","system_id":"levelo_inurba_marseille","lat":43.30253,"lon":5.40072,"is_reserved":false,"is_disabled":false,"rental_uris":{"android":"levelo://app?vid=d2917865-c7ed-418c-8e76-6cf228a7e046","ios":"levelo://app?vid=d2917865-c7ed-418c-8e76-6cf228a7e046"},"vehicle_type_id":"4","last_reported":1746156832,"current_range_meters":11200,"station_id":"ce4bgvh2rcd13ifvqcs0","pricing_plan_id":"cebpf4jnsgd1na2vs0mg"},{"bike_id":"045b2767-67d3-41b7-8618-6d27646a5585","system_id":"levelo_inurba_marseille","lat":43.313318,"lon":5.396941,"is_reserved":false,"is_disabled":false,"rental_uris":{"android":"levelo://app?vid=045b2767-67d3-41b7-8618-6d27646a5585","ios":"levelo://app?vid=045b2767-67d3-41b7-8618-6d27646a5585"},"vehicle_type_id":"4","last_reported":1746156832,"current_range_meters":11200,"station_id":"ce4bgvp2rcd13ifvqcu0","pricing_plan_id":"cebpf4jnsgd1na2vs0mg"},{"bike_id":"f7a91b2e-c59c-4729-aa34-37788daada89","system_id":"levelo_inurba_marseille","lat":43.292677,"lon":5.401181,"is_reserved":false,"is_disabled":false,"rental_uris":{"android":"levelo://app?vid=f7a91b2e-c59c-4729-aa34-37788daada89","ios":"levelo://app?vid=f7a91b2e-c59c-4729-aa34-37788daada89"},"vehicle_type_id":"4","last_reported":1746156832,"current_range_meters":11200,"station_id":"ce4bh312rcd13ifvqdk0","pricing_plan_id":"cebpf4jnsgd1na2vs0mg"},{"bike_id":"fe4d9fa5-2461-4a30-bece-935bfebc1752","system_id":"levelo_inurba_marseille","lat":43.310727,"lon":5.383443,"is_reserved":false,"is_disabled":false,"rental_uris":{"android":"levelo://app?vid=fe4d9fa5-2461-4a30-bece-935bfebc1752","ios":"levelo://app?vid=fe4d9fa5-2461-4a30-bece-935bfebc1752"},"vehicle_type_id":"4","last_reported":1746156832,"current_range_meters":11200,"station_id":"ce4bgv92rcd13ifvqcr0","pricing_plan_id":"cebpf4jnsgd1na2vs0mg"},{"bike_id":"960ae86e-ea6d-425e-923b-ba843b778c0d","system_id":"levelo_inurba_marseille","lat":43.27958,"lon":5.41016,"is_reserved":false,"is_disabled":false,"rental_uris":{"android":"levelo://app?vid=960ae86e-ea6d-425e-923b-ba843b778c0d","ios":"levelo://app?vid=960ae86e-ea6d-425e-923b-ba843b778c0d"},"vehicle_type_id":"4","last_reported":1746156832,"current_range_meters":11200,"station_id":"ce4bhnp2rcd13ifvqh0g","pricing_plan_id":"cebpf4jnsgd1na2vs0mg"},{"bike_id":"581433ef-25dd-4609-b929-3092b05aaa82","system_id":"levelo_inurba_marseille","lat":43.306508,"lon":5.400773,"is_reserved":false,"is_disabled":false,"rental_uris":{"android":"levelo://app?vid=581433ef-25dd-4609-b929-3092b05aaa82","ios":"levelo://app?vid=581433ef-25dd-4609-b929-3092b05aaa82"},"vehicle_type_id":"4","last_reported":1746156832,"current_range_meters":11600,"station_id":"ce4bh112rcd13ifvqda0","pricing_plan_id":"cebpf4jnsgd1na2vs0mg"},{"bike_id":"c3e3fb16-e78b-4c92-ac45-9b12ee09bd02","system_id":"levelo_inurba_marseille","lat":43.31479,"lon":5.37304,"is_reserved":false,"is_disabled":false,"rental_uris":{"android":"levelo://app?vid=c3e3fb16-e78b-4c92-ac45-9b12ee09bd02","ios":"levelo://app?vid=c3e3fb16-e78b-4c92-ac45-9b12ee09bd02"},"vehicle_type_id":"4","last_reported":1746156832,"current_range_meters":11600,"station_id":"ce4bgt12rcd13ifvqcd0","pricing_plan_id":"cebpf4jnsgd1na2vs0mg"},{"bike_id":"df869c6e-30aa-4a10-bddb-7cd36ccc4eae","system_id":"levelo_inurba_marseille","lat":43.29877,"lon":5.43657,"is_reserved":false,"is_disabled":false,"rental_uris":{"android":"levelo://app?vid=df869c6e-30aa-4a10-bddb-7cd36ccc4eae","ios":"levelo://app?vid=df869c6e-30aa-4a10-bddb-7cd36ccc4eae"},"vehicle_type_id":"4","last_reported":1746156832,"current_range_meters":12000,"station_id":"ce4bhpp2rcd13ifvqhfg","pricing_plan_id":"cebpf4jnsgd1na2vs0mg"},{"bike_id":"56f543c3-cb38-4272-a4e5-cab053dcc3e0","system_id":"levelo_inurba_marseille","lat":43.291966,"lon":5.392961,"is_reserved":false,"is_disabled":true,"rental_uris":{"android":"levelo://app?vid=56f543c3-cb38-4272-a4e5-cab053dcc3e0","ios":"levelo://app?vid=56f543c3-cb38-4272-a4e5-cab053dcc3e0"},"vehicle_type_id":"4","last_reported":1746156832,"current_range_meters":12000,"station_id":"ce4bhbh2rcd13ifvqeo0","pricing_plan_id":"cebpf4jnsgd1na2vs0mg"},{"bike_id":"4cc2b011-81f2-4910-af9d-0052ec928815","system_id":"levelo_inurba_marseille","lat":43.303656,"lon":5.425081,"is_reserved":false,"is_disabled":false,"rental_uris":{"android":"levelo://app?vid=4cc2b011-81f2-4910-af9d-0052ec928815","ios":"levelo://app?vid=4cc2b011-81f2-4910-af9d-0052ec928815"},"vehicle_type_id":"4","last_reported":1746156832,"current_range_meters":12000,"station_id":"ce4bhoh2rcd13ifvqh6g","pricing_plan_id":"cebpf4jnsgd1na2vs0mg"},{"bike_id":"2ae39ac1-aa30-4096-aaf7-7bc2d7533749","system_id":"levelo_inurba_marseille","lat":43.323617,"lon":5.367506,"is_reserved":false,"is_disabled":false,"rental_uris":{"android":"levelo://app?vid=2ae39ac1-aa30-4096-aaf7-7bc2d7533749","ios":"levelo://app?vid=2ae39ac1-aa30-4096-aaf7-7bc2d7533749"},"vehicle_type_id":"4","last_reported":1746156832,"current_range_meters":12000,"station_id":"ce4bhsh2rcd13ifvqi2g","pricing_plan_id":"cebpf4jnsgd1na2vs0mg"},{"bike_id":"563373b3-dbec-4166-b103-3e9216172026","system_id":"levelo_inurba_marseille","lat":43.296345,"lon":5.40596,"is_reserved":false,"is_disabled":false,"rental_uris":{"android":"levelo://app?vid=563373b3-dbec-4166-b103-3e9216172026","ios":"levelo://app?vid=563373b3-dbec-4166-b103-3e9216172026"},"vehicle_type_id":"4","last_reported":1746156832,"current_range_meters":12000,"station_id":"ce4bh0h2rcd13ifvqd60","pricing_plan_id":"cebpf4jnsgd1na2vs0mg"},{"bike_id":"78e3a516-3b43-4a65-88ee-19e41444cd3f","system_id":"levelo_inurba_marseille","lat":43.26547,"lon":5.39024,"is_reserved":false,"is_disabled":false,"rental_uris":{"android":"levelo://app?vid=78e3a516-3b43-4a65-88ee-19e41444cd3f","ios":"levelo://app?vid=78e3a516-3b43-4a65-88ee-19e41444cd3f"},"vehicle_type_id":"4","last_reported":1746156832,"current_range_meters":12000,"station_id":"ce4bhe12rcd13ifvqf30","pricing_plan_id":"cebpf4jnsgd1na2vs0mg"},{"bike_id":"dd7aedfd-e3d8-4f73-8265-cc39385aff60","system_id":"levelo_inurba_marseille","lat":43.279451,"lon":5.410343,"is_reserved":false,"is_disabled":false,"rental_uris":{"android":"levelo://app?vid=dd7aedfd-e3d8-4f73-8265-cc39385aff60","ios":"levelo://app?vid=dd7aedfd-e3d8-4f73-8265-cc39385aff60"},"vehicle_type_id":"4","last_reported":1746156832,"current_range_meters":12400,"station_id":"ce4bhnp2rcd13ifvqh0g","pricing_plan_id":"cebpf4jnsgd1na2vs0mg"},{"bike_id":"0c9a8767-a71f-4ef0-b390-c3b7e9c632a8","system_id":"levelo_inurba_marseille","lat":43.21189,"lon":5.35098,"is_reserved":false,"is_disabled":true,"rental_uris":{"android":"levelo://app?vid=0c9a8767-a71f-4ef0-b390-c3b7e9c632a8","ios":"levelo://app?vid=0c9a8767-a71f-4ef0-b390-c3b7e9c632a8"},"vehicle_type_id":"4","last_reported":1746156832,"current_range_meters":12800,"station_id":"st_cvj6sg6p6f1abm77japg","pricing_plan_id":"cebpf4jnsgd1na2vs0mg"},{"bike_id":"f0db5fa2-ee3c-4f34-b509-0ff042a196f7","system_id":"levelo_inurba_marseille","lat":43.29262,"lon":5.40166,"is_reserved":false,"is_disabled":false,"rental_uris":{"android":"levelo://app?vid=f0db5fa2-ee3c-4f34-b509-0ff042a196f7","ios":"levelo://app?vid=f0db5fa2-ee3c-4f34-b509-0ff042a196f7"},"vehicle_type_id":"4","last_reported":1746156832,"current_range_meters":12800,"station_id":"ce4bh312rcd13ifvqdk0","pricing_plan_id":"cebpf4jnsgd1na2vs0mg"},{"bike_id":"45424d04-39cd-49f2-96cb-31b5dbb94048","system_id":"levelo_inurba_marseille","lat":43.30673,"lon":5.40069,"is_reserved":false,"is_disabled":false,"rental_uris":{"android":"levelo://app?vid=45424d04-39cd-49f2-96cb-31b5dbb94048","ios":"levelo://app?vid=45424d04-39cd-49f2-96cb-31b5dbb94048"},"vehicle_type_id":"4","last_reported":1746156832,"current_range_meters":12800,"station_id":"ce4bh112rcd13ifvqda0","pricing_plan_id":"cebpf4jnsgd1na2vs0mg"},{"bike_id":"51c95771-a2d7-48dc-8a12-9ea2338fec3a","system_id":"levelo_inurba_marseille","lat":43.293,"lon":5.40152,"is_reserved":false,"is_disabled":false,"rental_uris":{"android":"levelo://app?vid=51c95771-a2d7-48dc-8a12-9ea2338fec3a","ios":"levelo://app?vid=51c95771-a2d7-48dc-8a12-9ea2338fec3a"},"vehicle_type_id":"4","last_reported":1746156832,"current_range_meters":12800,"station_id":"ce4bh312rcd13ifvqdk0","pricing_plan_id":"cebpf4jnsgd1na2vs0mg"},{"bike_id":"469b865a-862f-4903-ab73-cf01e7bc02bb","system_id":"levelo_inurba_marseille","lat":43.315317,"lon":5.380325,"is_reserved":false,"is_disabled":false,"rental_uris":{"android":"levelo://app?vid=469b865a-862f-4903-ab73-cf01e7bc02bb","ios":"levelo://app?vid=469b865a-862f-4903-ab73-cf01e7bc02bb"},"vehicle_type_id":"4","last_reported":1746156832,"current_range_meters":12800,"station_id":"ce4bhsp2rcd13ifvqi50","pricing_plan_id":"cebpf4jnsgd1na2vs0mg"},{"bike_id":"f3461f56-cb0c-42a9-80e7-ed03659d4ee9","system_id":"levelo_inurba_marseille","lat":43.30658,"lon":5.40068,"is_reserved":false,"is_disabled":false,"rental_uris":{"android":"levelo://app?vid=f3461f56-cb0c-42a9-80e7-ed03659d4ee9","ios":"levelo://app?vid=f3461f56-cb0c-42a9-80e7-ed03659d4ee9"},"vehicle_type_id":"4","last_reported":1746156832,"current_range_meters":13600,"station_id":"ce4bh112rcd13ifvqda0","pricing_plan_id":"cebpf4jnsgd1na2vs0mg"},{"bike_id":"b70d6dd7-db26-425e-af7f-d24732bf1da0","system_id":"levelo_inurba_marseille","lat":43.30651,"lon":5.40088,"is_reserved":false,"is_disabled":false,"rental_uris":{"android":"levelo://app?vid=b70d6dd7-db26-425e-af7f-d24732bf1da0","ios":"levelo://app?vid=b70d6dd7-db26-425e-af7f-d24732bf1da0"},"vehicle_type_id":"4","last_reported":1746156832,"current_range_meters":13600,"station_id":"ce4bh112rcd13ifvqda0","pricing_plan_id":"cebpf4jnsgd1na2vs0mg"},{"bike_id":"8a0058ae-d47a-4696-afcc-53a66a14ba3f","system_id":"levelo_inurba_marseille","lat":43.299011,"lon":5.436664,"is_reserved":false,"is_disabled":false,"rental_uris":{"android":"levelo://app?vid=8a0058ae-d47a-4696-afcc-53a66a14ba3f","ios":"levelo://app?vid=8a0058ae-d47a-4696-afcc-53a66a14ba3f"},"vehicle_type_id":"4","last_reported":1746156832,"current_range_meters":14000,"station_id":"ce4bhpp2rcd13ifvqhfg","pricing_plan_id":"cebpf4jnsgd1na2vs0mg"},{"bike_id":"27ae44ab-4467-45ef-b0d1-8bfc33f0de73","system_id":"levelo_inurba_marseille","lat":43.28712,"lon":5.39964,"is_reserved":false,"is_disabled":false,"rental_uris":{"android":"levelo://app?vid=27ae44ab-4467-45ef-b0d1-8bfc33f0de73","ios":"levelo://app?vid=27ae44ab-4467-45ef-b0d1-8bfc33f0de73"},"vehicle_type_id":"4","last_reported":1746156832,"current_range_meters":14000,"station_id":"ce4bho92rcd13ifvqh3g","pricing_plan_id":"cebpf4jnsgd1na2vs0mg"},{"bike_id":"aaa7361e-2aed-4ab5-b86b-b5d18c767d33","system_id":"levelo_inurba_marseille","lat":43.2992,"lon":5.39502,"is_reserved":false,"is_disabled":true,"rental_uris":{"android":"levelo://app?vid=aaa7361e-2aed-4ab5-b86b-b5d18c767d33","ios":"levelo://app?vid=aaa7361e-2aed-4ab5-b86b-b5d18c767d33"},"vehicle_type_id":"4","last_reported":1746156832,"current_range_meters":14000,"station_id":"","pricing_plan_id":"cebpf4jnsgd1na2vs0mg"},{"bike_id":"f9eae9cb-3e30-4f98-9b5d-ec7d6955b1e9","system_id":"levelo_inurba_marseille","lat":43.31651,"lon":5.40514,"is_reserved":false,"is_disabled":false,"rental_uris":{"android":"levelo://app?vid=f9eae9cb-3e30-4f98-9b5d-ec7d6955b1e9","ios":"levelo://app?vid=f9eae9cb-3e30-4f98-9b5d-ec7d6955b1e9"},"vehicle_type_id":"4","last_reported":1746156832,"current_range_meters":14000,"station_id":"ce4bh012rcd13ifvqd00","pricing_plan_id":"cebpf4jnsgd1na2vs0mg"},{"bike_id":"67058a6a-1199-4119-a8f8-bd3080f44de1","system_id":"levelo_inurba_marseille","lat":43.30257,"lon":5.40079,"is_reserved":false,"is_disabled":false,"rental_uris":{"android":"levelo://app?vid=67058a6a-1199-4119-a8f8-bd3080f44de1","ios":"levelo://app?vid=67058a6a-1199-4119-a8f8-bd3080f44de1"},"vehicle_type_id":"4","last_reported":1746156832,"current_range_meters":14000,"station_id":"ce4bgvh2rcd13ifvqcs0","pricing_plan_id":"cebpf4jnsgd1na2vs0mg"},{"bike_id":"2f5a8493-149a-40c5-a54a-fbd73e20e440","system_id":"levelo_inurba_marseille","lat":43.315272,"lon":5.380318,"is_reserved":false,"is_disabled":false,"rental_uris":{"android":"levelo://app?vid=2f5a8493-149a-40c5-a54a-fbd73e20e440","ios":"levelo://app?vid=2f5a8493-149a-40c5-a54a-fbd73e20e440"},"vehicle_type_id":"4","last_reported":1746156832,"current_range_meters":14000,"station_id":"ce4bhsp2rcd13ifvqi50","pricing_plan_id":"cebpf4jnsgd1na2vs0mg"},{"bike_id":"4c355f31-bbab-40c6-a093-ac50f3e75f95","system_id":"levelo_inurba_marseille","lat":43.262232,"lon":5.404544,"is_reserved":false,"is_disabled":false,"rental_uris":{"android":"levelo://app?vid=4c355f31-bbab-40c6-a093-ac50f3e75f95","ios":"levelo://app?vid=4c355f31-bbab-40c6-a093-ac50f3e75f95"},"vehicle_type_id":"4","last_reported":1746156832,"current_range_meters":14400,"station_id":"ce4bhmh2rcd13ifvqgmg","pricing_plan_id":"cebpf4jnsgd1na2vs0mg"},{"bike_id":"7bd7c79e-5190-4568-b102-e02604e33904","system_id":"levelo_inurba_marseille","lat":43.30226,"lon":5.40533,"is_reserved":false,"is_disabled":false,"rental_uris":{"android":"levelo://app?vid=7bd7c79e-5190-4568-b102-e02604e33904","ios":"levelo://app?vid=7bd7c79e-5190-4568-b102-e02604e33904"},"vehicle_type_id":"4","last_reported":1746156832,"current_range_meters":14400,"station_id":"","pricing_plan_id":"cebpf4jnsgd1na2vs0mg"},{"bike_id":"3c376cd3-a6e1-4153-b98d-ae36ec38c259","system_id":"levelo_inurba_marseille","lat":43.28624,"lon":5.40108,"is_reserved":false,"is_disabled":false,"rental_uris":{"android":"levelo://app?vid=3c376cd3-a6e1-4153-b98d-ae36ec38c259","ios":"levelo://app?vid=3c376cd3-a6e1-4153-b98d-ae36ec38c259"},"vehicle_type_id":"4","last_reported":1746156832,"current_range_meters":14400,"station_id":"","pricing_plan_id":"cebpf4jnsgd1na2vs0mg"},{"bike_id":"58ab4ed0-a69d-4f56-9f56-2c2bfa67cab2","system_id":"levelo_inurba_marseille","lat":43.28149,"lon":5.426493,"is_reserved":false,"is_disabled":false,"rental_uris":{"android":"levelo://app?vid=58ab4ed0-a69d-4f56-9f56-2c2bfa67cab2","ios":"levelo://app?vid=58ab4ed0-a69d-4f56-9f56-2c2bfa67cab2"},"vehicle_type_id":"4","last_reported":1746156832,"current_range_meters":14800,"station_id":"ce4bhnh2rcd13ifvqgug","pricing_plan_id":"cebpf4jnsgd1na2vs0mg"},{"bike_id":"8a53bf42-acb8-4be5-ad1b-38650f6ba791","system_id":"levelo_inurba_marseille","lat":43.29959,"lon":5.3656,"is_reserved":false,"is_disabled":true,"rental_uris":{"android":"levelo://app?vid=8a53bf42-acb8-4be5-ad1b-38650f6ba791","ios":"levelo://app?vid=8a53bf42-acb8-4be5-ad1b-38650f6ba791"},"vehicle_type_id":"4","last_reported":1746156832,"current_range_meters":14800,"station_id":"ce4bgm92rcd13ifvqbr0","pricing_plan_id":"cebpf4jnsgd1na2vs0mg"},{"bike_id":"e70e6937-93f0-4736-a2bd-2815ca5c0c90","system_id":"levelo_inurba_marseille","lat":43.293111,"lon":5.371949,"is_reserved":false,"is_disabled":true,"rental_uris":{"android":"levelo://app?vid=e70e6937-93f0-4736-a2bd-2815ca5c0c90","ios":"levelo://app?vid=e70e6937-93f0-4736-a2bd-2815ca5c0c90"},"vehicle_type_id":"4","last_reported":1746156832,"current_range_meters":14800,"station_id":"ce4bgh92rcd13ifvqb40","pricing_plan_id":"cebpf4jnsgd1na2vs0mg"},{"bike_id":"ac132c29-f819-4d62-974c-5c055342f4f0","system_id":"levelo_inurba_marseille","lat":43.21744,"lon":5.34634,"is_reserved":false,"is_disabled":true,"rental_uris":{"android":"levelo://app?vid=ac132c29-f819-4d62-974c-5c055342f4f0","ios":"levelo://app?vid=ac132c29-f819-4d62-974c-5c055342f4f0"},"vehicle_type_id":"4","last_reported":1746156832,"current_range_meters":14800,"station_id":"st_cvj6r9ubvosntc0bgbag","pricing_plan_id":"cebpf4jnsgd1na2vs0mg"},{"bike_id":"03f5b910-d1d5-49c8-a7a4-67a333daaa2e","system_id":"levelo_inurba_marseille","lat":43.32519,"lon":5.41464,"is_reserved":false,"is_disabled":false,"rental_uris":{"android":"levelo://app?vid=03f5b910-d1d5-49c8-a7a4-67a333daaa2e","ios":"levelo://app?vid=03f5b910-d1d5-49c8-a7a4-67a333daaa2e"},"vehicle_type_id":"4","last_reported":1746156832,"current_range_meters":14800,"station_id":"ce4bhq12rcd13ifvqhhg","pricing_plan_id":"cebpf4jnsgd1na2vs0mg"},{"bike_id":"9d9a92a0-a52c-4fdc-8730-8ef98a3dc703","system_id":"levelo_inurba_marseille","lat":43.31114,"lon":5.377692,"is_reserved":false,"is_disabled":false,"rental_uris":{"android":"levelo://app?vid=9d9a92a0-a52c-4fdc-8730-8ef98a3dc703","ios":"levelo://app?vid=9d9a92a0-a52c-4fdc-8730-8ef98a3dc703"},"vehicle_type_id":"4","last_reported":1746156832,"current_range_meters":14800,"station_id":"ce4bgt92rcd13ifvqcg0","pricing_plan_id":"cebpf4jnsgd1na2vs0mg"},{"bike_id":"846ba4ce-0b98-4d2a-b5e3-0d1b619e2327","system_id":"levelo_inurba_marseille","lat":43.308705,"lon":5.396521,"is_reserved":false,"is_disabled":false,"rental_uris":{"android":"levelo://app?vid=846ba4ce-0b98-4d2a-b5e3-0d1b619e2327","ios":"levelo://app?vid=846ba4ce-0b98-4d2a-b5e3-0d1b619e2327"},"vehicle_type_id":"4","last_reported":1746156832,"current_range_meters":14800,"station_id":"ce4bh012rcd13ifvqcv0","pricing_plan_id":"cebpf4jnsgd1na2vs0mg"},{"bike_id":"9c49d272-3a49-4395-82b0-9b330476e56b","system_id":"levelo_inurba_marseille","lat":43.2781,"lon":5.4073,"is_reserved":false,"is_disabled":false,"rental_uris":{"android":"levelo://app?vid=9c49d272-3a49-4395-82b0-9b330476e56b","ios":"levelo://app?vid=9c49d272-3a49-4395-82b0-9b330476e56b"},"vehicle_type_id":"4","last_reported":1746156832,"current_range_meters":15200,"station_id":"ce4bhnh2rcd13ifvqgtg","pricing_plan_id":"cebpf4jnsgd1na2vs0mg"},{"bike_id":"8a98d962-578d-444b-a5bb-91a62b69d98d","system_id":"levelo_inurba_marseille","lat":43.2119,"lon":5.35069,"is_reserved":false,"is_disabled":true,"rental_uris":{"android":"levelo://app?vid=8a98d962-578d-444b-a5bb-91a62b69d98d","ios":"levelo://app?vid=8a98d962-578d-444b-a5bb-91a62b69d98d"},"vehicle_type_id":"4","last_reported":1746156832,"current_range_meters":15200,"station_id":"st_cvj6sg6p6f1abm77japg","pricing_plan_id":"cebpf4jnsgd1na2vs0mg"},{"bike_id":"61ada823-7afc-4bae-8219-f47e25313745","system_id":"levelo_inurba_marseille","lat":43.2571,"lon":5.41791,"is_reserved":false,"is_disabled":false,"rental_uris":{"android":"levelo://app?vid=61ada823-7afc-4bae-8219-f47e25313745","ios":"levelo://app?vid=61ada823-7afc-4bae-8219-f47e25313745"},"vehicle_type_id":"4","last_reported":1746156832,"current_range_meters":15200,"station_id":"","pricing_plan_id":"cebpf4jnsgd1na2vs0mg"},{"bike_id":"2033c1c4-40c4-48b4-8076-35891725f3ad","system_id":"levelo_inurba_marseille","lat":43.29803,"lon":5.40416,"is_reserved":false,"is_disabled":false,"rental_uris":{"android":"levelo://app?vid=2033c1c4-40c4-48b4-8076-35891725f3ad","ios":"levelo://app?vid=2033c1c4-40c4-48b4-8076-35891725f3ad"},"vehicle_type_id":"4","last_reported":1746156832,"current_range_meters":15200,"station_id":"ce4bh112rcd13ifvqd90","pricing_plan_id":"cebpf4jnsgd1na2vs0mg"},{"bike_id":"dea0cfb2-dc6f-4e03-84b4-8ee7ba9ad665","system_id":"levelo_inurba_marseille","lat":43.323624,"lon":5.388814,"is_reserved":false,"is_disabled":false,"rental_uris":{"android":"levelo://app?vid=dea0cfb2-dc6f-4e03-84b4-8ee7ba9ad665","ios":"levelo://app?vid=dea0cfb2-dc6f-4e03-84b4-8ee7ba9ad665"},"vehicle_type_id":"4","last_reported":1746156832,"current_range_meters":15200,"station_id":"ce4bhqp2rcd13ifvqhog","pricing_plan_id":"cebpf4jnsgd1na2vs0mg"},{"bike_id":"80d6bd90-ca64-4e75-ab5f-bb88e249329a","system_id":"levelo_inurba_marseille","lat":43.31324,"lon":5.39686,"is_reserved":false,"is_disabled":false,"rental_uris":{"android":"levelo://app?vid=80d6bd90-ca64-4e75-ab5f-bb88e249329a","ios":"levelo://app?vid=80d6bd90-ca64-4e75-ab5f-bb88e249329a"},"vehicle_type_id":"4","last_reported":1746156832,"current_range_meters":15200,"station_id":"ce4bgvp2rcd13ifvqcu0","pricing_plan_id":"cebpf4jnsgd1na2vs0mg"},{"bike_id":"1b40a26a-e8d4-47fe-906d-b868069d462c","system_id":"levelo_inurba_marseille","lat":43.30468,"lon":5.37911,"is_reserved":false,"is_disabled":false,"rental_uris":{"android":"levelo://app?vid=1b40a26a-e8d4-47fe-906d-b868069d462c","ios":"levelo://app?vid=1b40a26a-e8d4-47fe-906d-b868069d462c"},"vehicle_type_id":"4","last_reported":1746156832,"current_range_meters":15200,"station_id":"ce4bgup2rcd13ifvqcn0","pricing_plan_id":"cebpf4jnsgd1na2vs0mg"},{"bike_id":"a441347f-6d3e-4ecb-8bf6-73429dab05ee","system_id":"levelo_inurba_marseille","lat":43.30923,"lon":5.40178,"is_reserved":false,"is_disabled":false,"rental_uris":{"android":"levelo://app?vid=a441347f-6d3e-4ecb-8bf6-73429dab05ee","ios":"levelo://app?vid=a441347f-6d3e-4ecb-8bf6-73429dab05ee"},"vehicle_type_id":"4","last_reported":1746156832,"current_range_meters":15200,"station_id":"ce4bgvp2rcd13ifvqct0","pricing_plan_id":"cebpf4jnsgd1na2vs0mg"},{"bike_id":"924ebe6f-d3da-412d-b51d-9e4065478efe","system_id":"levelo_inurba_marseille","lat":43.32512,"lon":5.41466,"is_reserved":false,"is_disabled":false,"rental_uris":{"android":"levelo://app?vid=924ebe6f-d3da-412d-b51d-9e4065478efe","ios":"levelo://app?vid=924ebe6f-d3da-412d-b51d-9e4065478efe"},"vehicle_type_id":"4","last_reported":1746156832,"current_range_meters":16000,"station_id":"ce4bhq12rcd13ifvqhhg","pricing_plan_id":"cebpf4jnsgd1na2vs0mg"},{"bike_id":"43570242-c8cc-43fc-a26a-28bd415865fa","system_id":"levelo_inurba_marseille","lat":43.3246,"lon":5.36624,"is_reserved":false,"is_disabled":false,"rental_uris":{"android":"levelo://app?vid=43570242-c8cc-43fc-a26a-28bd415865fa","ios":"levelo://app?vid=43570242-c8cc-43fc-a26a-28bd415865fa"},"vehicle_type_id":"4","last_reported":1746156832,"current_range_meters":16000,"station_id":"ce4bhs12rcd13ifvqhvg","pricing_plan_id":"cebpf4jnsgd1na2vs0mg"},{"bike_id":"7fd80a67-7a4b-4131-aa61-22a40255ad15","system_id":"levelo_inurba_marseille","lat":43.31704,"lon":5.37808,"is_reserved":false,"is_disabled":true,"rental_uris":{"android":"levelo://app?vid=7fd80a67-7a4b-4131-aa61-22a40255ad15","ios":"levelo://app?vid=7fd80a67-7a4b-4131-aa61-22a40255ad15"},"vehicle_type_id":"4","last_reported":1746156832,"current_range_meters":16000,"station_id":"ce4bgth2rcd13ifvqch0","pricing_plan_id":"cebpf4jnsgd1na2vs0mg"},{"bike_id":"2bbadc02-40b7-4b1b-b86d-d0f654fd8a3c","system_id":"levelo_inurba_marseille","lat":43.28694,"lon":5.4001,"is_reserved":false,"is_disabled":false,"rental_uris":{"android":"levelo://app?vid=2bbadc02-40b7-4b1b-b86d-d0f654fd8a3c","ios":"levelo://app?vid=2bbadc02-40b7-4b1b-b86d-d0f654fd8a3c"},"vehicle_type_id":"4","last_reported":1746156832,"current_range_meters":16000,"station_id":"ce4bho92rcd13ifvqh3g","pricing_plan_id":"cebpf4jnsgd1na2vs0mg"},{"bike_id":"6623491d-b23e-494a-b8f5-05f0c8a0d399","system_id":"levelo_inurba_marseille","lat":43.303293,"lon":5.40439,"is_reserved":false,"is_disabled":false,"rental_uris":{"android":"levelo://app?vid=6623491d-b23e-494a-b8f5-05f0c8a0d399","ios":"levelo://app?vid=6623491d-b23e-494a-b8f5-05f0c8a0d399"},"vehicle_type_id":"4","last_reported":1746156832,"current_range_meters":16000,"station_id":"ce4bh012rcd13ifvqd10","pricing_plan_id":"cebpf4jnsgd1na2vs0mg"},{"bike_id":"fea90467-7b9b-451d-849d-003674ab8347","system_id":"levelo_inurba_marseille","lat":43.272056,"lon":5.391921,"is_reserved":false,"is_disabled":true,"rental_uris":{"android":"levelo://app?vid=fea90467-7b9b-451d-849d-003674ab8347","ios":"levelo://app?vid=fea90467-7b9b-451d-849d-003674ab8347"},"vehicle_type_id":"4","last_reported":1746156832,"current_range_meters":16400,"station_id":"ce4bhhp2rcd13ifvqfm0","pricing_plan_id":"cebpf4jnsgd1na2vs0mg"},{"bike_id":"da658829-0fa2-41f3-ad48-9d30aae08333","system_id":"levelo_inurba_marseille","lat":43.30572,"lon":5.39924,"is_reserved":false,"is_disabled":false,"rental_uris":{"android":"levelo://app?vid=da658829-0fa2-41f3-ad48-9d30aae08333","ios":"levelo://app?vid=da658829-0fa2-41f3-ad48-9d30aae08333"},"vehicle_type_id":"4","last_reported":1746156832,"current_range_meters":16400,"station_id":"","pricing_plan_id":"cebpf4jnsgd1na2vs0mg"},{"bike_id":"cdb5c586-f81c-4772-a04f-234da526a0f6","system_id":"levelo_inurba_marseille","lat":43.28108,"lon":5.37837,"is_reserved":false,"is_disabled":false,"rental_uris":{"android":"levelo://app?vid=cdb5c586-f81c-4772-a04f-234da526a0f6","ios":"levelo://app?vid=cdb5c586-f81c-4772-a04f-234da526a0f6"},"vehicle_type_id":"4","last_reported":1746156832,"current_range_meters":16400,"station_id":"ce4bha12rcd13ifvqee0","pricing_plan_id":"cebpf4jnsgd1na2vs0mg"},{"bike_id":"a14e415b-5940-4a57-b9bd-d1ae56290f1d","system_id":"levelo_inurba_marseille","lat":43.31746,"lon":5.40443,"is_reserved":false,"is_disabled":false,"rental_uris":{"android":"levelo://app?vid=a14e415b-5940-4a57-b9bd-d1ae56290f1d","ios":"levelo://app?vid=a14e415b-5940-4a57-b9bd-d1ae56290f1d"},"vehicle_type_id":"4","last_reported":1746156832,"current_range_meters":16400,"station_id":"","pricing_plan_id":"cebpf4jnsgd1na2vs0mg"},{"bike_id":"b5f431d2-6627-435a-971a-a344e82f47c9","system_id":"levelo_inurba_marseille","lat":43.30939,"lon":5.4013,"is_reserved":false,"is_disabled":false,"rental_uris":{"android":"levelo://app?vid=b5f431d2-6627-435a-971a-a344e82f47c9","ios":"levelo://app?vid=b5f431d2-6627-435a-971a-a344e82f47c9"},"vehicle_type_id":"4","last_reported":1746156832,"current_range_meters":16400,"station_id":"ce4bgvp2rcd13ifvqct0","pricing_plan_id":"cebpf4jnsgd1na2vs0mg"},{"bike_id":"792d74cd-d670-44a5-82f7-7560929c82c8","system_id":"levelo_inurba_marseille","lat":43.31331,"lon":5.39693,"is_reserved":false,"is_disabled":false,"rental_uris":{"android":"levelo://app?vid=792d74cd-d670-44a5-82f7-7560929c82c8","ios":"levelo://app?vid=792d74cd-d670-44a5-82f7-7560929c82c8"},"vehicle_type_id":"4","last_reported":1746156832,"current_range_meters":16400,"station_id":"ce4bgvp2rcd13ifvqcu0","pricing_plan_id":"cebpf4jnsgd1na2vs0mg"},{"bike_id":"5df0f82b-f3fc-4428-8539-f9699aeaf67f","system_id":"levelo_inurba_marseille","lat":43.29263,"lon":5.40172,"is_reserved":false,"is_disabled":false,"rental_uris":{"android":"levelo://app?vid=5df0f82b-f3fc-4428-8539-f9699aeaf67f","ios":"levelo://app?vid=5df0f82b-f3fc-4428-8539-f9699aeaf67f"},"vehicle_type_id":"4","last_reported":1746156832,"current_range_meters":16400,"station_id":"ce4bh312rcd13ifvqdk0","pricing_plan_id":"cebpf4jnsgd1na2vs0mg"},{"bike_id":"68921982-9440-4ed6-a9fd-a5361982dcf6","system_id":"levelo_inurba_marseille","lat":43.2656,"lon":5.39035,"is_reserved":false,"is_disabled":false,"rental_uris":{"android":"levelo://app?vid=68921982-9440-4ed6-a9fd-a5361982dcf6","ios":"levelo://app?vid=68921982-9440-4ed6-a9fd-a5361982dcf6"},"vehicle_type_id":"4","last_reported":1746156832,"current_range_meters":16800,"station_id":"ce4bhe12rcd13ifvqf30","pricing_plan_id":"cebpf4jnsgd1na2vs0mg"},{"bike_id":"38b512de-66ad-4824-8d38-f5b32115b646","system_id":"levelo_inurba_marseille","lat":43.30879,"lon":5.39645,"is_reserved":false,"is_disabled":false,"rental_uris":{"android":"levelo://app?vid=38b512de-66ad-4824-8d38-f5b32115b646","ios":"levelo://app?vid=38b512de-66ad-4824-8d38-f5b32115b646"},"vehicle_type_id":"4","last_reported":1746156832,"current_range_meters":16800,"station_id":"ce4bh012rcd13ifvqcv0","pricing_plan_id":"cebpf4jnsgd1na2vs0mg"},{"bike_id":"fc4c4e12-8bd1-4978-b004-eee184fc087d","system_id":"levelo_inurba_marseille","lat":43.316943,"lon":5.404607,"is_reserved":false,"is_disabled":false,"rental_uris":{"android":"levelo://app?vid=fc4c4e12-8bd1-4978-b004-eee184fc087d","ios":"levelo://app?vid=fc4c4e12-8bd1-4978-b004-eee184fc087d"},"vehicle_type_id":"4","last_reported":1746156832,"current_range_meters":16800,"station_id":"ce4bh012rcd13ifvqd00","pricing_plan_id":"cebpf4jnsgd1na2vs0mg"},{"bike_id":"ce95be70-9be6-4135-bbf9-03ec2dc887f0","system_id":"levelo_inurba_marseille","lat":43.32293,"lon":5.38283,"is_reserved":false,"is_disabled":false,"rental_uris":{"android":"levelo://app?vid=ce95be70-9be6-4135-bbf9-03ec2dc887f0","ios":"levelo://app?vid=ce95be70-9be6-4135-bbf9-03ec2dc887f0"},"vehicle_type_id":"4","last_reported":1746156832,"current_range_meters":16800,"station_id":"ce4bhr12rcd13ifvqhqg","pricing_plan_id":"cebpf4jnsgd1na2vs0mg"},{"bike_id":"145d0b24-35be-4a46-91fe-a8aa44de497b","system_id":"levelo_inurba_marseille","lat":43.25119,"lon":5.40329,"is_reserved":false,"is_disabled":false,"rental_uris":{"android":"levelo://app?vid=145d0b24-35be-4a46-91fe-a8aa44de497b","ios":"levelo://app?vid=145d0b24-35be-4a46-91fe-a8aa44de497b"},"vehicle_type_id":"4","last_reported":1746156832,"current_range_meters":16800,"station_id":"ce4bhlh2rcd13ifvqgig","pricing_plan_id":"cebpf4jnsgd1na2vs0mg"},{"bike_id":"2bc95b1b-bdcb-40d6-b304-8b84fb2bac92","system_id":"levelo_inurba_marseille","lat":43.306444,"lon":5.40071,"is_reserved":false,"is_disabled":false,"rental_uris":{"android":"levelo://app?vid=2bc95b1b-bdcb-40d6-b304-8b84fb2bac92","ios":"levelo://app?vid=2bc95b1b-bdcb-40d6-b304-8b84fb2bac92"},"vehicle_type_id":"4","last_reported":1746156832,"current_range_meters":16800,"station_id":"ce4bh112rcd13ifvqda0","pricing_plan_id":"cebpf4jnsgd1na2vs0mg"},{"bike_id":"2df5fd02-87ab-45e1-835c-dba4ad09927e","system_id":"levelo_inurba_marseille","lat":43.28697,"lon":5.39978,"is_reserved":false,"is_disabled":false,"rental_uris":{"android":"levelo://app?vid=2df5fd02-87ab-45e1-835c-dba4ad09927e","ios":"levelo://app?vid=2df5fd02-87ab-45e1-835c-dba4ad09927e"},"vehicle_type_id":"4","last_reported":1746156832,"current_range_meters":17200,"station_id":"ce4bho92rcd13ifvqh3g","pricing_plan_id":"cebpf4jnsgd1na2vs0mg"},{"bike_id":"4b2069b6-a1e2-411d-a04c-bc77d00af722","system_id":"levelo_inurba_marseille","lat":43.285638,"lon":5.394956,"is_reserved":false,"is_disabled":false,"rental_uris":{"android":"levelo://app?vid=4b2069b6-a1e2-411d-a04c-bc77d00af722","ios":"levelo://app?vid=4b2069b6-a1e2-411d-a04c-bc77d00af722"},"vehicle_type_id":"4","last_reported":1746156832,"current_range_meters":17200,"station_id":"ce4bh292rcd13ifvqdg0","pricing_plan_id":"cebpf4jnsgd1na2vs0mg"},{"bike_id":"408d0f78-822b-459f-b640-c83ccd645bfe","system_id":"levelo_inurba_marseille","lat":43.31482,"lon":5.37296,"is_reserved":false,"is_disabled":false,"rental_uris":{"android":"levelo://app?vid=408d0f78-822b-459f-b640-c83ccd645bfe","ios":"levelo://app?vid=408d0f78-822b-459f-b640-c83ccd645bfe"},"vehicle_type_id":"4","last_reported":1746156832,"current_range_meters":17200,"station_id":"ce4bgt12rcd13ifvqcd0","pricing_plan_id":"cebpf4jnsgd1na2vs0mg"},{"bike_id":"14498fc5-0949-4dab-96dd-86f8d2d8b6ad","system_id":"levelo_inurba_marseille","lat":43.31092,"lon":5.42449,"is_reserved":false,"is_disabled":false,"rental_uris":{"android":"levelo://app?vid=14498fc5-0949-4dab-96dd-86f8d2d8b6ad","ios":"levelo://app?vid=14498fc5-0949-4dab-96dd-86f8d2d8b6ad"},"vehicle_type_id":"4","last_reported":1746156832,"current_range_meters":17200,"station_id":"ce4bhp92rcd13ifvqhag","pricing_plan_id":"cebpf4jnsgd1na2vs0mg"},{"bike_id":"62fc1478-ce03-4adc-b678-8c16d589c336","system_id":"levelo_inurba_marseille","lat":43.31116,"lon":5.37773,"is_reserved":false,"is_disabled":false,"rental_uris":{"android":"levelo://app?vid=62fc1478-ce03-4adc-b678-8c16d589c336","ios":"levelo://app?vid=62fc1478-ce03-4adc-b678-8c16d589c336"},"vehicle_type_id":"4","last_reported":1746156832,"current_range_meters":17200,"station_id":"ce4bgt92rcd13ifvqcg0","pricing_plan_id":"cebpf4jnsgd1na2vs0mg"},{"bike_id":"b22b51b4-5b77-4ab1-85ae-4082958c6cf2","system_id":"levelo_inurba_marseille","lat":43.28927,"lon":5.36649,"is_reserved":false,"is_disabled":false,"rental_uris":{"android":"levelo://app?vid=b22b51b4-5b77-4ab1-85ae-4082958c6cf2","ios":"levelo://app?vid=b22b51b4-5b77-4ab1-85ae-4082958c6cf2"},"vehicle_type_id":"4","last_reported":1746156832,"current_range_meters":17200,"station_id":"ce4bhap2rcd13ifvqek0","pricing_plan_id":"cebpf4jnsgd1na2vs0mg"},{"bike_id":"da178549-fec5-41e6-a279-aab50a87d02c","system_id":"levelo_inurba_marseille","lat":43.30555,"lon":5.37224,"is_reserved":false,"is_disabled":true,"rental_uris":{"android":"levelo://app?vid=da178549-fec5-41e6-a279-aab50a87d02c","ios":"levelo://app?vid=da178549-fec5-41e6-a279-aab50a87d02c"},"vehicle_type_id":"4","last_reported":1746156832,"current_range_meters":17600,"station_id":"ce4bgqh2rcd13ifvqc4g","pricing_plan_id":"cebpf4jnsgd1na2vs0mg"},{"bike_id":"c0bc19f2-7e6b-4955-8a67-d0e522457a05","system_id":"levelo_inurba_marseille","lat":43.25702,"lon":5.41119,"is_reserved":false,"is_disabled":false,"rental_uris":{"android":"levelo://app?vid=c0bc19f2-7e6b-4955-8a67-d0e522457a05","ios":"levelo://app?vid=c0bc19f2-7e6b-4955-8a67-d0e522457a05"},"vehicle_type_id":"4","last_reported":1746156832,"current_range_meters":17600,"station_id":"ce4bhkp2rcd13ifvqgd0","pricing_plan_id":"cebpf4jnsgd1na2vs0mg"},{"bike_id":"5fd15870-1b92-4efa-95ea-745f6d882214","system_id":"levelo_inurba_marseille","lat":43.32525,"lon":5.41477,"is_reserved":false,"is_disabled":false,"rental_uris":{"android":"levelo://app?vid=5fd15870-1b92-4efa-95ea-745f6d882214","ios":"levelo://app?vid=5fd15870-1b92-4efa-95ea-745f6d882214"},"vehicle_type_id":"4","last_reported":1746156832,"current_range_meters":17600,"station_id":"ce4bhq12rcd13ifvqhhg","pricing_plan_id":"cebpf4jnsgd1na2vs0mg"},{"bike_id":"287795eb-b31a-44bf-bc06-37a9cd6fa7cc","system_id":"levelo_inurba_marseille","lat":43.28406,"lon":5.37527,"is_reserved":false,"is_disabled":false,"rental_uris":{"android":"levelo://app?vid=287795eb-b31a-44bf-bc06-37a9cd6fa7cc","ios":"levelo://app?vid=287795eb-b31a-44bf-bc06-37a9cd6fa7cc"},"vehicle_type_id":"4","last_reported":1746156832,"current_range_meters":17600,"station_id":"ce4bh412rcd13ifvqds0","pricing_plan_id":"cebpf4jnsgd1na2vs0mg"},{"bike_id":"5190a885-761e-48f3-b96c-67933ba915cf","system_id":"levelo_inurba_marseille","lat":43.29549,"lon":5.42286,"is_reserved":false,"is_disabled":false,"rental_uris":{"android":"levelo://app?vid=5190a885-761e-48f3-b96c-67933ba915cf","ios":"levelo://app?vid=5190a885-761e-48f3-b96c-67933ba915cf"},"vehicle_type_id":"4","last_reported":1746156832,"current_range_meters":18000,"station_id":"ce4bhph2rcd13ifvqhdg","pricing_plan_id":"cebpf4jnsgd1na2vs0mg"},{"bike_id":"82fbec8e-d8ec-40ec-9f9a-c8f6733699ea","system_id":"levelo_inurba_marseille","lat":43.30932,"lon":5.40142,"is_reserved":false,"is_disabled":false,"rental_uris":{"android":"levelo://app?vid=82fbec8e-d8ec-40ec-9f9a-c8f6733699ea","ios":"levelo://app?vid=82fbec8e-d8ec-40ec-9f9a-c8f6733699ea"},"vehicle_type_id":"4","last_reported":1746156832,"current_range_meters":18000,"station_id":"ce4bgvp2rcd13ifvqct0","pricing_plan_id":"cebpf4jnsgd1na2vs0mg"},{"bike_id":"b78f3cf7-6338-4493-8f67-97763a9a35ab","system_id":"levelo_inurba_marseille","lat":43.309286,"lon":5.401407,"is_reserved":false,"is_disabled":false,"rental_uris":{"android":"levelo://app?vid=b78f3cf7-6338-4493-8f67-97763a9a35ab","ios":"levelo://app?vid=b78f3cf7-6338-4493-8f67-97763a9a35ab"},"vehicle_type_id":"4","last_reported":1746156832,"current_range_meters":18000,"station_id":"ce4bgvp2rcd13ifvqct0","pricing_plan_id":"cebpf4jnsgd1na2vs0mg"},{"bike_id":"1e9b1932-8f22-41de-b983-df6139cd61d4","system_id":"levelo_inurba_marseille","lat":43.296284,"lon":5.406021,"is_reserved":false,"is_disabled":false,"rental_uris":{"android":"levelo://app?vid=1e9b1932-8f22-41de-b983-df6139cd61d4","ios":"levelo://app?vid=1e9b1932-8f22-41de-b983-df6139cd61d4"},"vehicle_type_id":"4","last_reported":1746156832,"current_range_meters":18800,"station_id":"ce4bh0h2rcd13ifvqd60","pricing_plan_id":"cebpf4jnsgd1na2vs0mg"},{"bike_id":"9231ece3-bec7-46c9-97fb-445d703e34e4","system_id":"levelo_inurba_marseille","lat":43.301302,"lon":5.387806,"is_reserved":false,"is_disabled":true,"rental_uris":{"android":"levelo://app?vid=9231ece3-bec7-46c9-97fb-445d703e34e4","ios":"levelo://app?vid=9231ece3-bec7-46c9-97fb-445d703e34e4"},"vehicle_type_id":"4","last_reported":1746156832,"current_range_meters":18800,"station_id":"ce4bghh2rcd13ifvqb60","pricing_plan_id":"cebpf4jnsgd1na2vs0mg"},{"bike_id":"3895ea6f-f5b9-4e07-adaa-8691e8bafbb8","system_id":"levelo_inurba_marseille","lat":43.24797,"lon":5.37474,"is_reserved":false,"is_disabled":true,"rental_uris":{"android":"levelo://app?vid=3895ea6f-f5b9-4e07-adaa-8691e8bafbb8","ios":"levelo://app?vid=3895ea6f-f5b9-4e07-adaa-8691e8bafbb8"},"vehicle_type_id":"4","last_reported":1746156832,"current_range_meters":18800,"station_id":"ce4bhgh2rcd13ifvqfb0","pricing_plan_id":"cebpf4jnsgd1na2vs0mg"},{"bike_id":"bce70e28-5d5b-41b5-9bc1-36069ca69124","system_id":"levelo_inurba_marseille","lat":43.31756,"lon":5.39016,"is_reserved":false,"is_disabled":false,"rental_uris":{"android":"levelo://app?vid=bce70e28-5d5b-41b5-9bc1-36069ca69124","ios":"levelo://app?vid=bce70e28-5d5b-41b5-9bc1-36069ca69124"},"vehicle_type_id":"4","last_reported":1746156832,"current_range_meters":18800,"station_id":"ce4bhqp2rcd13ifvqhng","pricing_plan_id":"cebpf4jnsgd1na2vs0mg"},{"bike_id":"8a7cbe5d-273d-4d46-8bac-2c09d591859a","system_id":"levelo_inurba_marseille","lat":43.313187,"lon":5.396901,"is_reserved":false,"is_disabled":false,"rental_uris":{"android":"levelo://app?vid=8a7cbe5d-273d-4d46-8bac-2c09d591859a","ios":"levelo://app?vid=8a7cbe5d-273d-4d46-8bac-2c09d591859a"},"vehicle_type_id":"4","last_reported":1746156832,"current_range_meters":18800,"station_id":"ce4bgvp2rcd13ifvqcu0","pricing_plan_id":"cebpf4jnsgd1na2vs0mg"},{"bike_id":"121322ff-1b29-4a85-88c0-1ab0c6c2dfb6","system_id":"levelo_inurba_marseille","lat":43.32469,"lon":5.36568,"is_reserved":false,"is_disabled":false,"rental_uris":{"android":"levelo://app?vid=121322ff-1b29-4a85-88c0-1ab0c6c2dfb6","ios":"levelo://app?vid=121322ff-1b29-4a85-88c0-1ab0c6c2dfb6"},"vehicle_type_id":"4","last_reported":1746156832,"current_range_meters":18800,"station_id":"ce4bhs12rcd13ifvqhvg","pricing_plan_id":"cebpf4jnsgd1na2vs0mg"},{"bike_id":"7ad6e8e8-4d18-486c-a162-b3a23d49866e","system_id":"levelo_inurba_marseille","lat":43.28915,"lon":5.39639,"is_reserved":false,"is_disabled":false,"rental_uris":{"android":"levelo://app?vid=7ad6e8e8-4d18-486c-a162-b3a23d49866e","ios":"levelo://app?vid=7ad6e8e8-4d18-486c-a162-b3a23d49866e"},"vehicle_type_id":"4","last_reported":1746156832,"current_range_meters":19200,"station_id":"ce4bh3h2rcd13ifvqdn0","pricing_plan_id":"cebpf4jnsgd1na2vs0mg"},{"bike_id":"8c27b8ae-76fb-4a34-9566-9536d4e5935e","system_id":"levelo_inurba_marseille","lat":43.29278,"lon":5.40172,"is_reserved":false,"is_disabled":false,"rental_uris":{"android":"levelo://app?vid=8c27b8ae-76fb-4a34-9566-9536d4e5935e","ios":"levelo://app?vid=8c27b8ae-76fb-4a34-9566-9536d4e5935e"},"vehicle_type_id":"4","last_reported":1746156832,"current_range_meters":19200,"station_id":"ce4bh312rcd13ifvqdk0","pricing_plan_id":"cebpf4jnsgd1na2vs0mg"},{"bike_id":"fb970dc0-2974-4aad-b2a9-f4298230f16a","system_id":"levelo_inurba_marseille","lat":43.2315,"lon":5.43741,"is_reserved":false,"is_disabled":false,"rental_uris":{"android":"levelo://app?vid=fb970dc0-2974-4aad-b2a9-f4298230f16a","ios":"levelo://app?vid=fb970dc0-2974-4aad-b2a9-f4298230f16a"},"vehicle_type_id":"4","last_reported":1746156832,"current_range_meters":19200,"station_id":"ce4bhmp2rcd13ifvqgog","pricing_plan_id":"cebpf4jnsgd1na2vs0mg"},{"bike_id":"93649171-4459-4782-b5fe-da9af4a333dc","system_id":"levelo_inurba_marseille","lat":43.235904,"lon":5.403478,"is_reserved":false,"is_disabled":false,"rental_uris":{"android":"levelo://app?vid=93649171-4459-4782-b5fe-da9af4a333dc","ios":"levelo://app?vid=93649171-4459-4782-b5fe-da9af4a333dc"},"vehicle_type_id":"4","last_reported":1746156832,"current_range_meters":19200,"station_id":"","pricing_plan_id":"cebpf4jnsgd1na2vs0mg"},{"bike_id":"efaf1b5c-26d3-40d3-92e9-7f3883b8db84","system_id":"levelo_inurba_marseille","lat":43.317204,"lon":5.376911,"is_reserved":false,"is_disabled":false,"rental_uris":{"android":"levelo://app?vid=efaf1b5c-26d3-40d3-92e9-7f3883b8db84","ios":"levelo://app?vid=efaf1b5c-26d3-40d3-92e9-7f3883b8db84"},"vehicle_type_id":"4","last_reported":1746156832,"current_range_meters":19200,"station_id":"ce4bgth2rcd13ifvqch0","pricing_plan_id":"cebpf4jnsgd1na2vs0mg"},{"bike_id":"743e0db9-95cb-4331-8456-7fabac10b62b","system_id":"levelo_inurba_marseille","lat":43.31481,"lon":5.373,"is_reserved":false,"is_disabled":false,"rental_uris":{"android":"levelo://app?vid=743e0db9-95cb-4331-8456-7fabac10b62b","ios":"levelo://app?vid=743e0db9-95cb-4331-8456-7fabac10b62b"},"vehicle_type_id":"4","last_reported":1746156832,"current_range_meters":19200,"station_id":"ce4bgt12rcd13ifvqcd0","pricing_plan_id":"cebpf4jnsgd1na2vs0mg"},{"bike_id":"a0a6eb48-f44f-44b3-9083-f94f29d39d4a","system_id":"levelo_inurba_marseille","lat":43.28428,"lon":5.39217,"is_reserved":false,"is_disabled":false,"rental_uris":{"android":"levelo://app?vid=a0a6eb48-f44f-44b3-9083-f94f29d39d4a","ios":"levelo://app?vid=a0a6eb48-f44f-44b3-9083-f94f29d39d4a"},"vehicle_type_id":"4","last_reported":1746156832,"current_range_meters":19200,"station_id":"ce4bhoh2rcd13ifvqh5g","pricing_plan_id":"cebpf4jnsgd1na2vs0mg"},{"bike_id":"00907e47-d816-4d19-aa14-aaba1bef8b39","system_id":"levelo_inurba_marseille","lat":43.29273,"lon":5.40154,"is_reserved":false,"is_disabled":false,"rental_uris":{"android":"levelo://app?vid=00907e47-d816-4d19-aa14-aaba1bef8b39","ios":"levelo://app?vid=00907e47-d816-4d19-aa14-aaba1bef8b39"},"vehicle_type_id":"4","last_reported":1746156832,"current_range_meters":19200,"station_id":"ce4bh312rcd13ifvqdk0","pricing_plan_id":"cebpf4jnsgd1na2vs0mg"},{"bike_id":"d3e08c48-9dd8-4404-ba19-6205d6466313","system_id":"levelo_inurba_marseille","lat":43.302571,"lon":5.400803,"is_reserved":false,"is_disabled":false,"rental_uris":{"android":"levelo://app?vid=d3e08c48-9dd8-4404-ba19-6205d6466313","ios":"levelo://app?vid=d3e08c48-9dd8-4404-ba19-6205d6466313"},"vehicle_type_id":"4","last_reported":1746156832,"current_range_meters":19600,"station_id":"ce4bgvh2rcd13ifvqcs0","pricing_plan_id":"cebpf4jnsgd1na2vs0mg"},{"bike_id":"062763ac-59eb-4dfb-aa76-de9f18d6d07c","system_id":"levelo_inurba_marseille","lat":43.3234,"lon":5.40627,"is_reserved":false,"is_disabled":false,"rental_uris":{"android":"levelo://app?vid=062763ac-59eb-4dfb-aa76-de9f18d6d07c","ios":"levelo://app?vid=062763ac-59eb-4dfb-aa76-de9f18d6d07c"},"vehicle_type_id":"4","last_reported":1746156832,"current_range_meters":19600,"station_id":"ce4bhq92rcd13ifvqhjg","pricing_plan_id":"cebpf4jnsgd1na2vs0mg"},{"bike_id":"a97173ea-2c39-436e-884c-030bcf03370b","system_id":"levelo_inurba_marseille","lat":43.28566,"lon":5.39503,"is_reserved":false,"is_disabled":false,"rental_uris":{"android":"levelo://app?vid=a97173ea-2c39-436e-884c-030bcf03370b","ios":"levelo://app?vid=a97173ea-2c39-436e-884c-030bcf03370b"},"vehicle_type_id":"4","last_reported":1746156832,"current_range_meters":20000,"station_id":"ce4bh292rcd13ifvqdg0","pricing_plan_id":"cebpf4jnsgd1na2vs0mg"},{"bike_id":"69c251ff-a96a-4f72-b43c-09f8e57fadf6","system_id":"levelo_inurba_marseille","lat":43.28715,"lon":5.39972,"is_reserved":false,"is_disabled":false,"rental_uris":{"android":"levelo://app?vid=69c251ff-a96a-4f72-b43c-09f8e57fadf6","ios":"levelo://app?vid=69c251ff-a96a-4f72-b43c-09f8e57fadf6"},"vehicle_type_id":"4","last_reported":1746156832,"current_range_meters":20000,"station_id":"ce4bho92rcd13ifvqh3g","pricing_plan_id":"cebpf4jnsgd1na2vs0mg"},{"bike_id":"5e8df510-1bf1-4841-ac8a-a4d56e39fb17","system_id":"levelo_inurba_marseille","lat":43.305954,"lon":5.372529,"is_reserved":false,"is_disabled":false,"rental_uris":{"android":"levelo://app?vid=5e8df510-1bf1-4841-ac8a-a4d56e39fb17","ios":"levelo://app?vid=5e8df510-1bf1-4841-ac8a-a4d56e39fb17"},"vehicle_type_id":"4","last_reported":1746156832,"current_range_meters":20000,"station_id":"ce4bgqh2rcd13ifvqc4g","pricing_plan_id":"cebpf4jnsgd1na2vs0mg"},{"bike_id":"0510f0ab-7860-43ee-822e-f76534683a17","system_id":"levelo_inurba_marseille","lat":43.306449,"lon":5.400844,"is_reserved":false,"is_disabled":false,"rental_uris":{"android":"levelo://app?vid=0510f0ab-7860-43ee-822e-f76534683a17","ios":"levelo://app?vid=0510f0ab-7860-43ee-822e-f76534683a17"},"vehicle_type_id":"4","last_reported":1746156832,"current_range_meters":20000,"station_id":"ce4bh112rcd13ifvqda0","pricing_plan_id":"cebpf4jnsgd1na2vs0mg"},{"bike_id":"c2b64d4d-e375-457d-a772-4d53dda484a3","system_id":"levelo_inurba_marseille","lat":43.262257,"lon":5.404527,"is_reserved":false,"is_disabled":false,"rental_uris":{"android":"levelo://app?vid=c2b64d4d-e375-457d-a772-4d53dda484a3","ios":"levelo://app?vid=c2b64d4d-e375-457d-a772-4d53dda484a3"},"vehicle_type_id":"4","last_reported":1746156832,"current_range_meters":20000,"station_id":"ce4bhmh2rcd13ifvqgmg","pricing_plan_id":"cebpf4jnsgd1na2vs0mg"},{"bike_id":"8351fa19-aa0e-4318-b95b-f1fb285920d9","system_id":"levelo_inurba_marseille","lat":43.229225,"lon":5.353753,"is_reserved":false,"is_disabled":true,"rental_uris":{"android":"levelo://app?vid=8351fa19-aa0e-4318-b95b-f1fb285920d9","ios":"levelo://app?vid=8351fa19-aa0e-4318-b95b-f1fb285920d9"},"vehicle_type_id":"4","last_reported":1746156832,"current_range_meters":20000,"station_id":"cpo3532slgdg3j2ikp40","pricing_plan_id":"cebpf4jnsgd1na2vs0mg"},{"bike_id":"a6b5f76b-3531-4b23-8fad-d7ccb2a3f458","system_id":"levelo_inurba_marseille","lat":43.281057,"lon":5.378487,"is_reserved":false,"is_disabled":false,"rental_uris":{"android":"levelo://app?vid=a6b5f76b-3531-4b23-8fad-d7ccb2a3f458","ios":"levelo://app?vid=a6b5f76b-3531-4b23-8fad-d7ccb2a3f458"},"vehicle_type_id":"4","last_reported":1746156832,"current_range_meters":20000,"station_id":"ce4bha12rcd13ifvqee0","pricing_plan_id":"cebpf4jnsgd1na2vs0mg"},{"bike_id":"a1d17158-70c7-4eb8-b50f-f07c918f61b4","system_id":"levelo_inurba_marseille","lat":43.280714,"lon":5.39648,"is_reserved":false,"is_disabled":false,"rental_uris":{"android":"levelo://app?vid=a1d17158-70c7-4eb8-b50f-f07c918f61b4","ios":"levelo://app?vid=a1d17158-70c7-4eb8-b50f-f07c918f61b4"},"vehicle_type_id":"4","last_reported":1746156832,"current_range_meters":20000,"station_id":"ce4bho12rcd13ifvqh2g","pricing_plan_id":"cebpf4jnsgd1na2vs0mg"},{"bike_id":"a0831a68-3f09-452c-88ec-8673b0f2f7c5","system_id":"levelo_inurba_marseille","lat":43.292779,"lon":5.401073,"is_reserved":false,"is_disabled":false,"rental_uris":{"android":"levelo://app?vid=a0831a68-3f09-452c-88ec-8673b0f2f7c5","ios":"levelo://app?vid=a0831a68-3f09-452c-88ec-8673b0f2f7c5"},"vehicle_type_id":"4","last_reported":1746156832,"current_range_meters":20000,"station_id":"ce4bh312rcd13ifvqdk0","pricing_plan_id":"cebpf4jnsgd1na2vs0mg"},{"bike_id":"792b444e-0542-4f73-a772-f10a11cf6f9d","system_id":"levelo_inurba_marseille","lat":43.28709,"lon":5.3612,"is_reserved":false,"is_disabled":false,"rental_uris":{"android":"levelo://app?vid=792b444e-0542-4f73-a772-f10a11cf6f9d","ios":"levelo://app?vid=792b444e-0542-4f73-a772-f10a11cf6f9d"},"vehicle_type_id":"4","last_reported":1746156832,"current_range_meters":20000,"station_id":"cki0cbj6b192h4jlfktg","pricing_plan_id":"cebpf4jnsgd1na2vs0mg"},{"bike_id":"7b9330a7-a231-45d0-944c-dec56755ed0a","system_id":"levelo_inurba_marseille","lat":43.30884,"lon":5.39635,"is_reserved":false,"is_disabled":false,"rental_uris":{"android":"levelo://app?vid=7b9330a7-a231-45d0-944c-dec56755ed0a","ios":"levelo://app?vid=7b9330a7-a231-45d0-944c-dec56755ed0a"},"vehicle_type_id":"4","last_reported":1746156832,"current_range_meters":20000,"station_id":"ce4bh012rcd13ifvqcv0","pricing_plan_id":"cebpf4jnsgd1na2vs0mg"},{"bike_id":"2bce805b-f99f-444d-ba67-fd2616223447","system_id":"levelo_inurba_marseille","lat":43.30754,"lon":5.42425,"is_reserved":false,"is_disabled":false,"rental_uris":{"android":"levelo://app?vid=2bce805b-f99f-444d-ba67-fd2616223447","ios":"levelo://app?vid=2bce805b-f99f-444d-ba67-fd2616223447"},"vehicle_type_id":"4","last_reported":1746156832,"current_range_meters":20000,"station_id":"st_cvj6ca6bvosntc0bfgr0","pricing_plan_id":"cebpf4jnsgd1na2vs0mg"},{"bike_id":"c97eb999-a135-4c89-a0a6-202c23807360","system_id":"levelo_inurba_marseille","lat":43.306444,"lon":5.400877,"is_reserved":false,"is_disabled":false,"rental_uris":{"android":"levelo://app?vid=c97eb999-a135-4c89-a0a6-202c23807360","ios":"levelo://app?vid=c97eb999-a135-4c89-a0a6-202c23807360"},"vehicle_type_id":"4","last_reported":1746156832,"current_range_meters":20400,"station_id":"ce4bh112rcd13ifvqda0","pricing_plan_id":"cebpf4jnsgd1na2vs0mg"},{"bike_id":"af91e0a1-88d3-4a00-ac93-912febeb9d86","system_id":"levelo_inurba_marseille","lat":43.27971,"lon":5.38753,"is_reserved":false,"is_disabled":false,"rental_uris":{"android":"levelo://app?vid=af91e0a1-88d3-4a00-ac93-912febeb9d86","ios":"levelo://app?vid=af91e0a1-88d3-4a00-ac93-912febeb9d86"},"vehicle_type_id":"4","last_reported":1746156832,"current_range_meters":20400,"station_id":"ce4bhg12rcd13ifvqf80","pricing_plan_id":"cebpf4jnsgd1na2vs0mg"},{"bike_id":"132f2752-d703-4033-b518-2ddbf812efba","system_id":"levelo_inurba_marseille","lat":43.279319,"lon":5.44104,"is_reserved":false,"is_disabled":false,"rental_uris":{"android":"levelo://app?vid=132f2752-d703-4033-b518-2ddbf812efba","ios":"levelo://app?vid=132f2752-d703-4033-b518-2ddbf812efba"},"vehicle_type_id":"4","last_reported":1746156832,"current_range_meters":20400,"station_id":"","pricing_plan_id":"cebpf4jnsgd1na2vs0mg"},{"bike_id":"d5793666-2c8f-4f3d-a1fc-b663eaea6015","system_id":"levelo_inurba_marseille","lat":43.281,"lon":5.37846,"is_reserved":false,"is_disabled":false,"rental_uris":{"android":"levelo://app?vid=d5793666-2c8f-4f3d-a1fc-b663eaea6015","ios":"levelo://app?vid=d5793666-2c8f-4f3d-a1fc-b663eaea6015"},"vehicle_type_id":"4","last_reported":1746156832,"current_range_meters":20400,"station_id":"ce4bha12rcd13ifvqee0","pricing_plan_id":"cebpf4jnsgd1na2vs0mg"},{"bike_id":"6edb8a97-b0fb-4699-ac7f-ef38c0aa3aab","system_id":"levelo_inurba_marseille","lat":43.259368,"lon":5.409003,"is_reserved":false,"is_disabled":false,"rental_uris":{"android":"levelo://app?vid=6edb8a97-b0fb-4699-ac7f-ef38c0aa3aab","ios":"levelo://app?vid=6edb8a97-b0fb-4699-ac7f-ef38c0aa3aab"},"vehicle_type_id":"4","last_reported":1746156832,"current_range_meters":20400,"station_id":"ce4bhm92rcd13ifvqglg","pricing_plan_id":"cebpf4jnsgd1na2vs0mg"},