{"last_updated":1700867208,"ttl":30,"version":"2.2","data":{"bikes":[{"bike_id":"bfa1b803-ae97-4bef-96b6-d79f38acf375","system_id":"levelo_inurba_marseille","lat":43.313391,"lon":5.36706,"is_reserved":false,"is_disabled":false,"rental_uris":{"android":"levelo://app?vid=bfa1b803-ae97-4bef-96b6-d79f38acf375","ios":"levelo://app?vid=bfa1b803-ae97-4bef-96b6-d79f38acf375"},"vehicle_type_id":"4","last_reported":1700867208,"current_range_meters":5200,"station_id":"ce4bgr92rcd13ifvqc6g","pricing_plan_id":"free"},{"bike_id":"02cc1a13-1bf6-47bb-bd11-ff14bf209aa5","system_id":"levelo_inurba_marseille","lat":43.313391,"lon":5.36706,"is_reserved":false,"is_disabled":false,"rental_uris":{"android":"levelo://app?vid=02cc1a13-1bf6-47bb-bd11-ff14bf209aa5","ios":"levelo://app?vid=02cc1a13-1bf6-47bb-bd11-ff14bf209aa5"},"vehicle_type_id":"4","last_reported":1700867208,"current_range_meters":4800,"station_id":"ce4bgr92rcd13ifvqc6g","pricing_plan_id":"free"},{"bike_id":"ac82cc03-8a36-485c-a553-fd671067e196","system_id":"levelo_inurba_marseille","lat":43.31341,"lon":5.367098,"is_reserved":false,"is_disabled":false,"rental_uris":{"android":"levelo://app?vid=ac82cc03-8a36-485c-a553-fd671067e196","ios":"levelo://app?vid=ac82cc03-8a36-485c-a553-fd671067e196"},"vehicle_type_id":"4","last_reported":1700867208,"current_range_meters":28000,"station_id":"ce4bgr92rcd13ifvqc6g","pricing_plan_id":"free"},{"bike_id":"eea9ed7e-a355-4672-975e-0681193fa518","system_id":"levelo_inurba_marseille","lat":43.31362,"lon":5.36693,"is_reserved":false,"is_disabled":false,"rental_uris":{"android":"levelo://app?vid=eea9ed7e-a355-4672-975e-0681193fa518","ios":"levelo://app?vid=eea9ed7e-a355-4672-975e-0681193fa518"},"vehicle_type_id":"4","last_reported":1700867208,"current_range_meters":23600,"station_id":"ce4bgr92rcd13ifvqc6g","pricing_plan_id":"free"},{"bike_id":"bf3454ec-2e2d-4f2e-8991-2ab0d747b3ee","system_id":"levelo_inurba_marseille","lat":43.314811,"lon":5.373103,"is_reserved":false,"is_disabled":false,"rental_uris":{"android":"levelo://app?vid=bf3454ec-2e2d-4f2e-8991-2ab0d747b3ee","ios":"levelo://app?vid=bf3454ec-2e2d-4f2e-8991-2ab0d747b3ee"},"vehicle_type_id":"4","last_reported":1700867208,"current_range_meters":30800,"station_id":"ce4bgt12rcd13ifvqcd0","pricing_plan_id":"free"},{"bike_id":"e86ec09a-431c-4db9-89e9-f4647826db5b","system_id":"levelo_inurba_marseille","lat":43.309034,"lon":5.371783,"is_reserved":false,"is_disabled":false,"rental_uris":{"android":"levelo://app?vid=e86ec09a-431c-4db9-89e9-f4647826db5b","ios":"levelo://app?vid=e86ec09a-431c-4db9-89e9-f4647826db5b"},"vehicle_type_id":"4","last_reported":1700867208,"current_range_meters":4400,"station_id":"ce4bguh2rcd13ifvqckg","pricing_plan_id":"free"},{"bike_id":"0e3a20c0-fbe4-4be1-8a70-167c2d1fc9f6","system_id":"levelo_inurba_marseille","lat":43.305229,"lon":5.365641,"is_reserved":false,"is_disabled":false,"rental_uris":{"android":"levelo://app?vid=0e3a20c0-fbe4-4be1-8a70-167c2d1fc9f6","ios":"levelo://app?vid=0e3a20c0-fbe4-4be1-8a70-167c2d1fc9f6"},"vehicle_type_id":"4","last_reported":1700867208,"current_range_meters":1600,"station_id":"ce4bgs12rcd13ifvqcag","pricing_plan_id":"free"},{"bike_id":"5d222eb2-0360-4ec1-a896-f18ef9ec1751","system_id":"levelo_inurba_marseille","lat":43.305989,"lon":5.37225,"is_reserved":false,"is_disabled":false,"rental_uris":{"android":"levelo://app?vid=5d222eb2-0360-4ec1-a896-f18ef9ec1751","ios":"levelo://app?vid=5d222eb2-0360-4ec1-a896-f18ef9ec1751"},"vehicle_type_id":"4","last_reported":1700867208,"current_range_meters":25600,"station_id":"ce4bgqh2rcd13ifvqc4g","pricing_plan_id":"free"},{"bike_id":"4f42c2e8-e45b-4b94-9dab-4e9525bc01d1","system_id":"levelo_inurba_marseille","lat":43.305989,"lon":5.37225,"is_reserved":false,"is_disabled":false,"rental_uris":{"android":"levelo://app?vid=4f42c2e8-e45b-4b94-9dab-4e9525bc01d1","ios":"levelo://app?vid=4f42c2e8-e45b-4b94-9dab-4e9525bc01d1"},"vehicle_type_id":"4","last_reported":1700867208,"current_range_meters":18000,"station_id":"ce4bgqh2rcd13ifvqc4g","pricing_plan_id":"free"},{"bike_id":"4516e761-c288-4af0-aea6-10e6b9db8bd9","system_id":"levelo_inurba_marseille","lat":43.31117,"lon":5.37771,"is_reserved":false,"is_disabled":false,"rental_uris":{"android":"levelo://app?vid=4516e761-c288-4af0-aea6-10e6b9db8bd9","ios":"levelo://app?vid=4516e761-c288-4af0-aea6-10e6b9db8bd9"},"vehicle_type_id":"4","last_reported":1700867208,"current_range_meters":400,"station_id":"ce4bgt92rcd13ifvqcg0","pricing_plan_id":"free"},{"bike_id":"804020a9-5ed3-4d6c-8c22-5db46b525424","system_id":"levelo_inurba_marseille","lat":43.31114,"lon":5.377773,"is_reserved":false,"is_disabled":false,"rental_uris":{"android":"levelo://app?vid=804020a9-5ed3-4d6c-8c22-5db46b525424","ios":"levelo://app?vid=804020a9-5ed3-4d6c-8c22-5db46b525424"},"vehicle_type_id":"4","last_reported":1700867208,"current_range_meters":14000,"station_id":"ce4bgt92rcd13ifvqcg0","pricing_plan_id":"free"},{"bike_id":"573a870a-b6c4-429d-8587-8103772b84bc","system_id":"levelo_inurba_marseille","lat":43.308182,"lon":5.37661,"is_reserved":false,"is_disabled":false,"rental_uris":{"android":"levelo://app?vid=573a870a-b6c4-429d-8587-8103772b84bc","ios":"levelo://app?vid=573a870a-b6c4-429d-8587-8103772b84bc"},"vehicle_type_id":"4","last_reported":1700867208,"current_range_meters":6800,"station_id":"ce4bgv92rcd13ifvqcq0","pricing_plan_id":"free"},{"bike_id":"f427a2c3-6e4a-446b-ae2f-9be8aa7f4122","system_id":"levelo_inurba_marseille","lat":43.31719,"lon":5.376813,"is_reserved":false,"is_disabled":false,"rental_uris":{"android":"levelo://app?vid=f427a2c3-6e4a-446b-ae2f-9be8aa7f4122","ios":"levelo://app?vid=f427a2c3-6e4a-446b-ae2f-9be8aa7f4122"},"vehicle_type_id":"4","last_reported":1700867208,"current_range_meters":27200,"station_id":"ce4bgth2rcd13ifvqch0","pricing_plan_id":"free"},{"bike_id":"b898b018-f57d-4901-bab2-fdd15d391de9","system_id":"levelo_inurba_marseille","lat":43.317168,"lon":5.376883,"is_reserved":false,"is_disabled":false,"rental_uris":{"android":"levelo://app?vid=b898b018-f57d-4901-bab2-fdd15d391de9","ios":"levelo://app?vid=b898b018-f57d-4901-bab2-fdd15d391de9"},"vehicle_type_id":"4","last_reported":1700867208,"current_range_meters":29600,"station_id":"ce4bgth2rcd13ifvqch0","pricing_plan_id":"free"},{"bike_id":"d0838722-4519-4ead-99e9-d3f441a66736","system_id":"levelo_inurba_marseille","lat":43.317075,"lon":5.377367,"is_reserved":false,"is_disabled":false,"rental_uris":{"android":"levelo://app?vid=d0838722-4519-4ead-99e9-d3f441a66736","ios":"levelo://app?vid=d0838722-4519-4ead-99e9-d3f441a66736"},"vehicle_type_id":"4","last_reported":1700867208,"current_range_meters":8800,"station_id":"ce4bgth2rcd13ifvqch0","pricing_plan_id":"free"},{"bike_id":"81af5a1c-2ee6-4565-89b5-e0651d4768cc","system_id":"levelo_inurba_marseille","lat":43.3061,"lon":5.37647,"is_reserved":false,"is_disabled":false,"rental_uris":{"android":"levelo://app?vid=81af5a1c-2ee6-4565-89b5-e0651d4768cc","ios":"levelo://app?vid=81af5a1c-2ee6-4565-89b5-e0651d4768cc"},"vehicle_type_id":"4","last_reported":1700867208,"current_range_meters":0,"station_id":"","pricing_plan_id":"free"},{"bike_id":"9b9f39ce-3c56-4311-a2c2-7f18c9eb7245","system_id":"levelo_inurba_marseille","lat":43.303046,"lon":5.368981,"is_reserved":false,"is_disabled":false,"rental_uris":{"android":"levelo://app?vid=9b9f39ce-3c56-4311-a2c2-7f18c9eb7245","ios":"levelo://app?vid=9b9f39ce-3c56-4311-a2c2-7f18c9eb7245"},"vehicle_type_id":"4","last_reported":1700867208,"current_range_meters":23600,"station_id":"ce4bgqh2rcd13ifvqc5g","pricing_plan_id":"free"},{"bike_id":"0109dba6-d5bd-4ae3-815d-4c101d8be0c5","system_id":"levelo_inurba_marseille","lat":43.30272,"lon":5.36906,"is_reserved":false,"is_disabled":false,"rental_uris":{"android":"levelo://app?vid=0109dba6-d5bd-4ae3-815d-4c101d8be0c5","ios":"levelo://app?vid=0109dba6-d5bd-4ae3-815d-4c101d8be0c5"},"vehicle_type_id":"4","last_reported":1700867208,"current_range_meters":19200,"station_id":"","pricing_plan_id":"free"},{"bike_id":"e68040f5-b8ba-4689-8298-158f1816e66c","system_id":"levelo_inurba_marseille","lat":43.301939,"lon":5.366286,"is_reserved":false,"is_disabled":false,"rental_uris":{"android":"levelo://app?vid=e68040f5-b8ba-4689-8298-158f1816e66c","ios":"levelo://app?vid=e68040f5-b8ba-4689-8298-158f1816e66c"},"vehicle_type_id":"4","last_reported":1700867208,"current_range_meters":10400,"station_id":"ce4bgrh2rcd13ifvqc8g","pricing_plan_id":"free"},{"bike_id":"23e5368b-7577-4aee-8f70-f9c92a874dec","system_id":"levelo_inurba_marseille","lat":43.301939,"lon":5.366286,"is_reserved":false,"is_disabled":false,"rental_uris":{"android":"levelo://app?vid=23e5368b-7577-4aee-8f70-f9c92a874dec","ios":"levelo://app?vid=23e5368b-7577-4aee-8f70-f9c92a874dec"},"vehicle_type_id":"4","last_reported":1700867208,"current_range_meters":10000,"station_id":"ce4bgrh2rcd13ifvqc8g","pricing_plan_id":"free"},{"bike_id":"40651570-2caa-481e-83f2-ed9b577fc84a","system_id":"levelo_inurba_marseille","lat":43.32316,"lon":5.374617,"is_reserved":false,"is_disabled":false,"rental_uris":{"android":"levelo://app?vid=40651570-2caa-481e-83f2-ed9b577fc84a","ios":"levelo://app?vid=40651570-2caa-481e-83f2-ed9b577fc84a"},"vehicle_type_id":"4","last_reported":1700867208,"current_range_meters":12000,"station_id":"","pricing_plan_id":"free"},{"bike_id":"bbd7c10c-db03-4741-a6c8-89f1871a4335","system_id":"levelo_inurba_marseille","lat":43.30415,"lon":5.37817,"is_reserved":false,"is_disabled":false,"rental_uris":{"android":"levelo://app?vid=bbd7c10c-db03-4741-a6c8-89f1871a4335","ios":"levelo://app?vid=bbd7c10c-db03-4741-a6c8-89f1871a4335"},"vehicle_type_id":"4","last_reported":1700867208,"current_range_meters":0,"station_id":"","pricing_plan_id":"free"},{"bike_id":"ee7b2315-1ca6-4f8e-a62a-6313cf5cda28","system_id":"levelo_inurba_marseille","lat":43.324771,"lon":5.36557,"is_reserved":false,"is_disabled":false,"rental_uris":{"android":"levelo://app?vid=ee7b2315-1ca6-4f8e-a62a-6313cf5cda28","ios":"levelo://app?vid=ee7b2315-1ca6-4f8e-a62a-6313cf5cda28"},"vehicle_type_id":"4","last_reported":1700867208,"current_range_meters":15600,"station_id":"ce4bhs12rcd13ifvqhvg","pricing_plan_id":"free"},{"bike_id":"babfdd7e-6cd2-4e72-8866-ac8539f5db7f","system_id":"levelo_inurba_marseille","lat":43.319994,"lon":5.381599,"is_reserved":false,"is_disabled":false,"rental_uris":{"android":"levelo://app?vid=babfdd7e-6cd2-4e72-8866-ac8539f5db7f","ios":"levelo://app?vid=babfdd7e-6cd2-4e72-8866-ac8539f5db7f"},"vehicle_type_id":"4","last_reported":1700867208,"current_range_meters":0,"station_id":"ce4bhr12rcd13ifvqhpg","pricing_plan_id":"free"},{"bike_id":"7e752e1c-eb19-454a-b0bb-991905bc52a8","system_id":"levelo_inurba_marseille","lat":43.313703,"lon":5.384974,"is_reserved":false,"is_disabled":false,"rental_uris":{"android":"levelo://app?vid=7e752e1c-eb19-454a-b0bb-991905bc52a8","ios":"levelo://app?vid=7e752e1c-eb19-454a-b0bb-991905bc52a8"},"vehicle_type_id":"4","last_reported":1700867208,"current_range_meters":9200,"station_id":"ce4bgt92rcd13ifvqcf0","pricing_plan_id":"free"},{"bike_id":"d3044786-2431-4822-96f8-37c5954b4b4c","system_id":"levelo_inurba_marseille","lat":43.322786,"lon":5.378666,"is_reserved":false,"is_disabled":false,"rental_uris":{"android":"levelo://app?vid=d3044786-2431-4822-96f8-37c5954b4b4c","ios":"levelo://app?vid=d3044786-2431-4822-96f8-37c5954b4b4c"},"vehicle_type_id":"4","last_reported":1700867208,"current_range_meters":28800,"station_id":"","pricing_plan_id":"free"},{"bike_id":"6c0e008b-63fa-4f4a-9bda-cfcad3c56865","system_id":"levelo_inurba_marseille","lat":43.299724,"lon":5.371829,"is_reserved":false,"is_disabled":false,"rental_uris":{"android":"levelo://app?vid=6c0e008b-63fa-4f4a-9bda-cfcad3c56865","ios":"levelo://app?vid=6c0e008b-63fa-4f4a-9bda-cfcad3c56865"},"vehicle_type_id":"4","last_reported":1700867208,"current_range_meters":4000,"station_id":"ce4bgr92rcd13ifvqc7g","pricing_plan_id":"free"},{"bike_id":"3cf7df4e-117c-401f-a50b-b48096222f3f","system_id":"levelo_inurba_marseille","lat":43.299222,"lon":5.365554,"is_reserved":false,"is_disabled":false,"rental_uris":{"android":"levelo://app?vid=3cf7df4e-117c-401f-a50b-b48096222f3f","ios":"levelo://app?vid=3cf7df4e-117c-401f-a50b-b48096222f3f"},"vehicle_type_id":"4","last_reported":1700867208,"current_range_meters":0,"station_id":"ce4bgm92rcd13ifvqbr0","pricing_plan_id":"free"},{"bike_id":"8eccf735-9f13-4d66-89ee-04a7bf59eec2","system_id":"levelo_inurba_marseille","lat":43.320683,"lon":5.383073,"is_reserved":false,"is_disabled":false,"rental_uris":{"android":"levelo://app?vid=8eccf735-9f13-4d66-89ee-04a7bf59eec2","ios":"levelo://app?vid=8eccf735-9f13-4d66-89ee-04a7bf59eec2"},"vehicle_type_id":"4","last_reported":1700867208,"current_range_meters":30400,"station_id":"","pricing_plan_id":"free"},{"bike_id":"799f10c9-81c3-4d79-a9aa-505ce434ae93","system_id":"levelo_inurba_marseille","lat":43.298433,"lon":5.362774,"is_reserved":false,"is_disabled":false,"rental_uris":{"android":"levelo://app?vid=799f10c9-81c3-4d79-a9aa-505ce434ae93","ios":"levelo://app?vid=799f10c9-81c3-4d79-a9aa-505ce434ae93"},"vehicle_type_id":"4","last_reported":1700867208,"current_range_meters":27600,"station_id":"ce4bgpp2rcd13ifvqc3g","pricing_plan_id":"free"},{"bike_id":"f09b33e9-9078-40fe-a4a3-159a3fe28e7d","system_id":"levelo_inurba_marseille","lat":43.299243,"lon":5.374807,"is_reserved":false,"is_disabled":false,"rental_uris":{"android":"levelo://app?vid=f09b33e9-9078-40fe-a4a3-159a3fe28e7d","ios":"levelo://app?vid=f09b33e9-9078-40fe-a4a3-159a3fe28e7d"},"vehicle_type_id":"4","last_reported":1700867208,"current_range_meters":26000,"station_id":"ce4bgjh2rcd13ifvqbg0","pricing_plan_id":"free"},{"bike_id":"b44feab1-ad22-49c6-8f70-8d2729ae3e79","system_id":"levelo_inurba_marseille","lat":43.299243,"lon":5.37481,"is_reserved":false,"is_disabled":false,"rental_uris":{"android":"levelo://app?vid=b44feab1-ad22-49c6-8f70-8d2729ae3e79","ios":"levelo://app?vid=b44feab1-ad22-49c6-8f70-8d2729ae3e79"},"vehicle_type_id":"4","last_reported":1700867208,"current_range_meters":8000,"station_id":"ce4bgjh2rcd13ifvqbg0","pricing_plan_id":"free"},{"bike_id":"fc9be96c-9295-432b-8836-3dec1dccc686","system_id":"levelo_inurba_marseille","lat":43.299243,"lon":5.37481,"is_reserved":false,"is_disabled":false,"rental_uris":{"android":"levelo://app?vid=fc9be96c-9295-432b-8836-3dec1dccc686","ios":"levelo://app?vid=fc9be96c-9295-432b-8836-3dec1dccc686"},"vehicle_type_id":"4","last_reported":1700867208,"current_range_meters":400,"station_id":"ce4bgjh2rcd13ifvqbg0","pricing_plan_id":"free"},{"bike_id":"1a40b385-68ba-48d5-a1cb-20965b2f9dc5","system_id":"levelo_inurba_marseille","lat":43.320449,"lon":5.384184,"is_reserved":false,"is_disabled":false,"rental_uris":{"android":"levelo://app?vid=1a40b385-68ba-48d5-a1cb-20965b2f9dc5","ios":"levelo://app?vid=1a40b385-68ba-48d5-a1cb-20965b2f9dc5"},"vehicle_type_id":"4","last_reported":1700867208,"current_range_meters":1200,"station_id":"","pricing_plan_id":"free"},{"bike_id":"84da071e-5a75-47e3-a108-7b29d85f83d1","system_id":"levelo_inurba_marseille","lat":43.297794,"lon":5.370888,"is_reserved":false,"is_disabled":false,"rental_uris":{"android":"levelo://app?vid=84da071e-5a75-47e3-a108-7b29d85f83d1","ios":"levelo://app?vid=84da071e-5a75-47e3-a108-7b29d85f83d1"},"vehicle_type_id":"4","last_reported":1700867208,"current_range_meters":27200,"station_id":"ce4bgop2rcd13ifvqc1g","pricing_plan_id":"free"},{"bike_id":"7c93eefc-07fe-4a09-b42f-ee22a5cbe113","system_id":"levelo_inurba_marseille","lat":43.322872,"lon":5.382756,"is_reserved":false,"is_disabled":false,"rental_uris":{"android":"levelo://app?vid=7c93eefc-07fe-4a09-b42f-ee22a5cbe113","ios":"levelo://app?vid=7c93eefc-07fe-4a09-b42f-ee22a5cbe113"},"vehicle_type_id":"4","last_reported":1700867208,"current_range_meters":26800,"station_id":"ce4bhr12rcd13ifvqhqg","pricing_plan_id":"free"},{"bike_id":"f9ce9c3f-5ce0-442f-986c-f1a94ddddd6a","system_id":"levelo_inurba_marseille","lat":43.322872,"lon":5.382756,"is_reserved":false,"is_disabled":false,"rental_uris":{"android":"levelo://app?vid=f9ce9c3f-5ce0-442f-986c-f1a94ddddd6a","ios":"levelo://app?vid=f9ce9c3f-5ce0-442f-986c-f1a94ddddd6a"},"vehicle_type_id":"4","last_reported":1700867208,"current_range_meters":30800,"station_id":"ce4bhr12rcd13ifvqhqg","pricing_plan_id":"free"},{"bike_id":"57f07daa-f979-41b2-bf81-49ff7a829b2a","system_id":"levelo_inurba_marseille","lat":43.322885,"lon":5.382679,"is_reserved":false,"is_disabled":false,"rental_uris":{"android":"levelo://app?vid=57f07daa-f979-41b2-bf81-49ff7a829b2a","ios":"levelo://app?vid=57f07daa-f979-41b2-bf81-49ff7a829b2a"},"vehicle_type_id":"4","last_reported":1700867208,"current_range_meters":30800,"station_id":"ce4bhr12rcd13ifvqhqg","pricing_plan_id":"free"},{"bike_id":"f8736720-e966-45a6-a671-1e9c1c844291","system_id":"levelo_inurba_marseille","lat":43.322872,"lon":5.382756,"is_reserved":false,"is_disabled":false,"rental_uris":{"android":"levelo://app?vid=f8736720-e966-45a6-a671-1e9c1c844291","ios":"levelo://app?vid=f8736720-e966-45a6-a671-1e9c1c844291"},"vehicle_type_id":"4","last_reported":1700867208,"current_range_meters":25600,"station_id":"ce4bhr12rcd13ifvqhqg","pricing_plan_id":"free"},{"bike_id":"4625bec6-4af3-44cb-8699-3acd72afd201","system_id":"levelo_inurba_marseille","lat":43.322872,"lon":5.382756,"is_reserved":false,"is_disabled":false,"rental_uris":{"android":"levelo://app?vid=4625bec6-4af3-44cb-8699-3acd72afd201","ios":"levelo://app?vid=4625bec6-4af3-44cb-8699-3acd72afd201"},"vehicle_type_id":"4","last_reported":1700867208,"current_range_meters":22800,"station_id":"ce4bhr12rcd13ifvqhqg","pricing_plan_id":"free"},{"bike_id":"1a43851e-90fe-4bd3-bf83-8e67c213fe9f","system_id":"levelo_inurba_marseille","lat":43.322872,"lon":5.382756,"is_reserved":false,"is_disabled":false,"rental_uris":{"android":"levelo://app?vid=1a43851e-90fe-4bd3-bf83-8e67c213fe9f","ios":"levelo://app?vid=1a43851e-90fe-4bd3-bf83-8e67c213fe9f"},"vehicle_type_id":"4","last_reported":1700867208,"current_range_meters":29200,"station_id":"ce4bhr12rcd13ifvqhqg","pricing_plan_id":"free"},{"bike_id":"e275a45c-bfaf-4d19-897d-782d652e5c0c","system_id":"levelo_inurba_marseille","lat":43.328246,"lon":5.366794,"is_reserved":false,"is_disabled":false,"rental_uris":{"android":"levelo://app?vid=e275a45c-bfaf-4d19-897d-782d652e5c0c","ios":"levelo://app?vid=e275a45c-bfaf-4d19-897d-782d652e5c0c"},"vehicle_type_id":"4","last_reported":1700867208,"current_range_meters":19600,"station_id":"ce4bhs92rcd13ifvqi0g","pricing_plan_id":"free"},{"bike_id":"4c54ad9a-2574-4e1d-93be-a40f89776946","system_id":"levelo_inurba_marseille","lat":43.29706,"lon":5.36626,"is_reserved":false,"is_disabled":false,"rental_uris":{"android":"levelo://app?vid=4c54ad9a-2574-4e1d-93be-a40f89776946","ios":"levelo://app?vid=4c54ad9a-2574-4e1d-93be-a40f89776946"},"vehicle_type_id":"4","last_reported":1700867208,"current_range_meters":24400,"station_id":"ce4bgn12rcd13ifvqbt0","pricing_plan_id":"free"},{"bike_id":"4d7509f5-9559-42ca-a60d-bef9e80f0981","system_id":"levelo_inurba_marseille","lat":43.2996,"lon":5.37917,"is_reserved":false,"is_disabled":false,"rental_uris":{"android":"levelo://app?vid=4d7509f5-9559-42ca-a60d-bef9e80f0981","ios":"levelo://app?vid=4d7509f5-9559-42ca-a60d-bef9e80f0981"},"vehicle_type_id":"4","last_reported":1700867208,"current_range_meters":0,"station_id":"","pricing_plan_id":"free"},{"bike_id":"6475bd0c-807a-4519-a87c-89839bae19ad","system_id":"levelo_inurba_marseille","lat":43.30351,"lon":5.38592,"is_reserved":false,"is_disabled":false,"rental_uris":{"android":"levelo://app?vid=6475bd0c-807a-4519-a87c-89839bae19ad","ios":"levelo://app?vid=6475bd0c-807a-4519-a87c-89839bae19ad"},"vehicle_type_id":"4","last_reported":1700867208,"current_range_meters":11200,"station_id":"ce4bgt92rcd13ifvqcg0","pricing_plan_id":"free"},{"bike_id":"a4603200-a956-4b27-bc52-8f22fc00857f","system_id":"levelo_inurba_marseille","lat":43.29602,"lon":5.36826,"is_reserved":false,"is_disabled":false,"rental_uris":{"android":"levelo://app?vid=a4603200-a956-4b27-bc52-8f22fc00857f","ios":"levelo://app?vid=a4603200-a956-4b27-bc52-8f22fc00857f"},"vehicle_type_id":"4","last_reported":1700867208,"current_range_meters":12000,"station_id":"","pricing_plan_id":"free"},{"bike_id":"6870bf6a-48cd-4f8e-811d-9f3d2d741379","system_id":"levelo_inurba_marseille","lat":43.296935,"lon":5.376544,"is_reserved":false,"is_disabled":false,"rental_uris":{"android":"levelo://app?vid=6870bf6a-48cd-4f8e-811d-9f3d2d741379","ios":"levelo://app?vid=6870bf6a-48cd-4f8e-811d-9f3d2d741379"},"vehicle_type_id":"4","last_reported":1700867208,"current_range_meters":30400,"station_id":"ce4bgkh2rcd13ifvqbl0","pricing_plan_id":"free"},{"bike_id":"de4d5d84-aba3-44c4-8b59-d0cb3d17de09","system_id":"levelo_inurba_marseille","lat":43.299028,"lon":5.381509,"is_reserved":false,"is_disabled":false,"rental_uris":{"android":"levelo://app?vid=de4d5d84-aba3-44c4-8b59-d0cb3d17de09","ios":"levelo://app?vid=de4d5d84-aba3-44c4-8b59-d0cb3d17de09"},"vehicle_type_id":"4","last_reported":1700867208,"current_range_meters":18400,"station_id":"ce4bgj12rcd13ifvqbc0","pricing_plan_id":"free"},{"bike_id":"656459cf-498f-49a1-bb2c-2df4545f7de5","system_id":"levelo_inurba_marseille","lat":43.31756,"lon":5.39019,"is_reserved":false,"is_disabled":false,"rental_uris":{"android":"levelo://app?vid=656459cf-498f-49a1-bb2c-2df4545f7de5","ios":"levelo://app?vid=656459cf-498f-49a1-bb2c-2df4545f7de5"},"vehicle_type_id":"4","last_reported":1700867208,"current_range_meters":27200,"station_id":"ce4bhqp2rcd13ifvqhng","pricing_plan_id":"free"},{"bike_id":"03ea7311-4dbb-4790-90b1-84b2c31d29dc","system_id":"levelo_inurba_marseille","lat":43.304274,"lon":5.388873,"is_reserved":false,"is_disabled":false,"rental_uris":{"android":"levelo://app?vid=03ea7311-4dbb-4790-90b1-84b2c31d29dc","ios":"levelo://app?vid=03ea7311-4dbb-4790-90b1-84b2c31d29dc"},"vehicle_type_id":"4","last_reported":1700867208,"current_range_meters":0,"station_id":"ce4bgk12rcd13ifvqbi0","pricing_plan_id":"free"},{"bike_id":"ff822368-00cb-4dfa-8697-959628b6f270","system_id":"levelo_inurba_marseille","lat":43.330395,"lon":5.358893,"is_reserved":false,"is_disabled":false,"rental_uris":{"android":"levelo://app?vid=ff822368-00cb-4dfa-8697-959628b6f270","ios":"levelo://app?vid=ff822368-00cb-4dfa-8697-959628b6f270"},"vehicle_type_id":"4","last_reported":1700867208,"current_range_meters":20000,"station_id":"","pricing_plan_id":"free"},{"bike_id":"6b621983-5e9e-42f7-990d-ad5a093820d2","system_id":"levelo_inurba_marseille","lat":43.293801,"lon":5.363066,"is_reserved":false,"is_disabled":false,"rental_uris":{"android":"levelo://app?vid=6b621983-5e9e-42f7-990d-ad5a093820d2","ios":"levelo://app?vid=6b621983-5e9e-42f7-990d-ad5a093820d2"},"vehicle_type_id":"4","last_reported":1700867208,"current_range_meters":2800,"station_id":"","pricing_plan_id":"free"},{"bike_id":"3579b072-efa9-4e62-b324-30ad6abef829","system_id":"levelo_inurba_marseille","lat":43.32368,"lon":5.38886,"is_reserved":false,"is_disabled":false,"rental_uris":{"android":"levelo://app?vid=3579b072-efa9-4e62-b324-30ad6abef829","ios":"levelo://app?vid=3579b072-efa9-4e62-b324-30ad6abef829"},"vehicle_type_id":"4","last_reported":1700867208,"current_range_meters":25600,"station_id":"ce4bhqp2rcd13ifvqhog","pricing_plan_id":"free"},{"bike_id":"9d649035-4d17-42d5-9b01-441530544f5e","system_id":"levelo_inurba_marseille","lat":43.32367,"lon":5.388836,"is_reserved":false,"is_disabled":false,"rental_uris":{"android":"levelo://app?vid=9d649035-4d17-42d5-9b01-441530544f5e","ios":"levelo://app?vid=9d649035-4d17-42d5-9b01-441530544f5e"},"vehicle_type_id":"4","last_reported":1700867208,"current_range_meters":1600,"station_id":"ce4bhqp2rcd13ifvqhog","pricing_plan_id":"free"},{"bike_id":"72c091ea-e802-4980-9c13-08909e0c4d85","system_id":"levelo_inurba_marseille","lat":43.29601,"lon":5.381084,"is_reserved":false,"is_disabled":false,"rental_uris":{"android":"levelo://app?vid=72c091ea-e802-4980-9c13-08909e0c4d85","ios":"levelo://app?vid=72c091ea-e802-4980-9c13-08909e0c4d85"},"vehicle_type_id":"4","last_reported":1700867208,"current_range_meters":17200,"station_id":"ce4bgl12rcd13ifvqbo0","pricing_plan_id":"free"},{"bike_id":"e89b82c6-17f9-4f79-8320-18951e935b07","system_id":"levelo_inurba_marseille","lat":43.292814,"lon":5.368672,"is_reserved":false,"is_disabled":false,"rental_uris":{"android":"levelo://app?vid=e89b82c6-17f9-4f79-8320-18951e935b07","ios":"levelo://app?vid=e89b82c6-17f9-4f79-8320-18951e935b07"},"vehicle_type_id":"4","last_reported":1700867208,"current_range_meters":20800,"station_id":"ce4bhbp2rcd13ifvqesg","pricing_plan_id":"free"},{"bike_id":"a39f61a4-4748-4d2b-9ae3-fe25dc18ddc2","system_id":"levelo_inurba_marseille","lat":43.292749,"lon":5.368402,"is_reserved":false,"is_disabled":false,"rental_uris":{"android":"levelo://app?vid=a39f61a4-4748-4d2b-9ae3-fe25dc18ddc2","ios":"levelo://app?vid=a39f61a4-4748-4d2b-9ae3-fe25dc18ddc2"},"vehicle_type_id":"4","last_reported":1700867208,"current_range_meters":26400,"station_id":"ce4bhbp2rcd13ifvqesg","pricing_plan_id":"free"},{"bike_id":"9b8829c4-272f-4e78-b2c4-79fb5c0da66b","system_id":"levelo_inurba_marseille","lat":43.298937,"lon":5.388187,"is_reserved":false,"is_disabled":false,"rental_uris":{"android":"levelo://app?vid=9b8829c4-272f-4e78-b2c4-79fb5c0da66b","ios":"levelo://app?vid=9b8829c4-272f-4e78-b2c4-79fb5c0da66b"},"vehicle_type_id":"4","last_reported":1700867208,"current_range_meters":0,"station_id":"","pricing_plan_id":"free"},{"bike_id":"178eb7c0-6a62-4bf1-a56f-a82d0e477eba","system_id":"levelo_inurba_marseille","lat":43.333666,"lon":5.360114,"is_reserved":false,"is_disabled":false,"rental_uris":{"android":"levelo://app?vid=178eb7c0-6a62-4bf1-a56f-a82d0e477eba","ios":"levelo://app?vid=178eb7c0-6a62-4bf1-a56f-a82d0e477eba"},"vehicle_type_id":"4","last_reported":1700867208,"current_range_meters":3200,"station_id":"","pricing_plan_id":"free"},{"bike_id":"67055dc0-a541-4666-8b4d-1e80e25bce67","system_id":"levelo_inurba_marseille","lat":43.29204,"lon":5.35811,"is_reserved":false,"is_disabled":false,"rental_uris":{"android":"levelo://app?vid=67055dc0-a541-4666-8b4d-1e80e25bce67","ios":"levelo://app?vid=67055dc0-a541-4666-8b4d-1e80e25bce67"},"vehicle_type_id":"4","last_reported":1700867208,"current_range_meters":16800,"station_id":"ce4bhb12rcd13ifvqel0","pricing_plan_id":"free"},{"bike_id":"c73c2b81-1b99-47b3-bec7-be3ac005e3c7","system_id":"levelo_inurba_marseille","lat":43.309038,"lon":5.396546,"is_reserved":false,"is_disabled":false,"rental_uris":{"android":"levelo://app?vid=c73c2b81-1b99-47b3-bec7-be3ac005e3c7","ios":"levelo://app?vid=c73c2b81-1b99-47b3-bec7-be3ac005e3c7"},"vehicle_type_id":"4","last_reported":1700867208,"current_range_meters":25200,"station_id":"ce4bh012rcd13ifvqcv0","pricing_plan_id":"free"},{"bike_id":"08e318de-e6be-4d92-bb43-f34e2aee1130","system_id":"levelo_inurba_marseille","lat":43.31331,"lon":5.39693,"is_reserved":false,"is_disabled":false,"rental_uris":{"android":"levelo://app?vid=08e318de-e6be-4d92-bb43-f34e2aee1130","ios":"levelo://app?vid=08e318de-e6be-4d92-bb43-f34e2aee1130"},"vehicle_type_id":"4","last_reported":1700867208,"current_range_meters":28000,"station_id":"ce4bgvp2rcd13ifvqcu0","pricing_plan_id":"free"},{"bike_id":"7cd9be1a-99b0-41ae-9072-ad1706b74100","system_id":"levelo_inurba_marseille","lat":43.309038,"lon":5.396546,"is_reserved":false,"is_disabled":false,"rental_uris":{"android":"levelo://app?vid=7cd9be1a-99b0-41ae-9072-ad1706b74100","ios":"levelo://app?vid=7cd9be1a-99b0-41ae-9072-ad1706b74100"},"vehicle_type_id":"4","last_reported":1700867208,"current_range_meters":10800,"station_id":"ce4bh012rcd13ifvqcv0","pricing_plan_id":"free"},{"bike_id":"1ee1b41d-5a3a-4d51-ab21-c1a3e492b5c0","system_id":"levelo_inurba_marseille","lat":43.309038,"lon":5.396546,"is_reserved":false,"is_disabled":false,"rental_uris":{"android":"levelo://app?vid=1ee1b41d-5a3a-4d51-ab21-c1a3e492b5c0","ios":"levelo://app?vid=1ee1b41d-5a3a-4d51-ab21-c1a3e492b5c0"},"vehicle_type_id":"4","last_reported":1700867208,"current_range_meters":2400,"station_id":"ce4bh012rcd13ifvqcv0","pricing_plan_id":"free"},{"bike_id":"1d10a1b1-d55f-4279-928a-9c6858f32ca9","system_id":"levelo_inurba_marseille","lat":43.33211,"lon":5.38112,"is_reserved":false,"is_disabled":false,"rental_uris":{"android":"levelo://app?vid=1d10a1b1-d55f-4279-928a-9c6858f32ca9","ios":"levelo://app?vid=1d10a1b1-d55f-4279-928a-9c6858f32ca9"},"vehicle_type_id":"4","last_reported":1700867208,"current_range_meters":0,"station_id":"","pricing_plan_id":"free"},{"bike_id":"140bdbd6-7507-4400-ba88-ccf87326519a","system_id":"levelo_inurba_marseille","lat":43.29529,"lon":5.385581,"is_reserved":false,"is_disabled":false,"rental_uris":{"android":"levelo://app?vid=140bdbd6-7507-4400-ba88-ccf87326519a","ios":"levelo://app?vid=140bdbd6-7507-4400-ba88-ccf87326519a"},"vehicle_type_id":"4","last_reported":1700867208,"current_range_meters":19200,"station_id":"ce4bgih2rcd13ifvqba0","pricing_plan_id":"free"},{"bike_id":"2f44b659-2326-4359-a9b3-61d7fb31181e","system_id":"levelo_inurba_marseille","lat":43.29529,"lon":5.385581,"is_reserved":false,"is_disabled":false,"rental_uris":{"android":"levelo://app?vid=2f44b659-2326-4359-a9b3-61d7fb31181e","ios":"levelo://app?vid=2f44b659-2326-4359-a9b3-61d7fb31181e"},"vehicle_type_id":"4","last_reported":1700867208,"current_range_meters":4800,"station_id":"ce4bgih2rcd13ifvqba0","pricing_plan_id":"free"},{"bike_id":"43cdf951-3b65-4a63-ac1d-646ed0436392","system_id":"levelo_inurba_marseille","lat":43.29004,"lon":5.371744,"is_reserved":false,"is_disabled":false,"rental_uris":{"android":"levelo://app?vid=43cdf951-3b65-4a63-ac1d-646ed0436392","ios":"levelo://app?vid=43cdf951-3b65-4a63-ac1d-646ed0436392"},"vehicle_type_id":"4","last_reported":1700867208,"current_range_meters":26800,"station_id":"","pricing_plan_id":"free"},{"bike_id":"10cc8144-0d65-435d-a37e-0047e9995b44","system_id":"levelo_inurba_marseille","lat":43.289184,"lon":5.366408,"is_reserved":false,"is_disabled":false,"rental_uris":{"android":"levelo://app?vid=10cc8144-0d65-435d-a37e-0047e9995b44","ios":"levelo://app?vid=10cc8144-0d65-435d-a37e-0047e9995b44"},"vehicle_type_id":"4","last_reported":1700867208,"current_range_meters":18000,"station_id":"ce4bhap2rcd13ifvqek0","pricing_plan_id":"free"},{"bike_id":"a5d9a1af-0400-407a-9fd9-2feb6da64d4d","system_id":"levelo_inurba_marseille","lat":43.289184,"lon":5.366408,"is_reserved":false,"is_disabled":false,"rental_uris":{"android":"levelo://app?vid=a5d9a1af-0400-407a-9fd9-2feb6da64d4d","ios":"levelo://app?vid=a5d9a1af-0400-407a-9fd9-2feb6da64d4d"},"vehicle_type_id":"4","last_reported":1700867208,"current_range_meters":4800,"station_id":"ce4bhap2rcd13ifvqek0","pricing_plan_id":"free"},{"bike_id":"6d70ae82-5e5a-419f-9dfb-290d8506efb5","system_id":"levelo_inurba_marseille","lat":43.289184,"lon":5.366408,"is_reserved":false,"is_disabled":false,"rental_uris":{"android":"levelo://app?vid=6d70ae82-5e5a-419f-9dfb-290d8506efb5","ios":"levelo://app?vid=6d70ae82-5e5a-419f-9dfb-290d8506efb5"},"vehicle_type_id":"4","last_reported":1700867208,"current_range_meters":23600,"station_id":"ce4bhap2rcd13ifvqek0","pricing_plan_id":"free"},{"bike_id":"5bc56404-0f57-4aa0-b2f7-ae014ac8109f","system_id":"levelo_inurba_marseille","lat":43.304296,"lon":5.397513,"is_reserved":false,"is_disabled":false,"rental_uris":{"android":"levelo://app?vid=5bc56404-0f57-4aa0-b2f7-ae014ac8109f","ios":"levelo://app?vid=5bc56404-0f57-4aa0-b2f7-ae014ac8109f"},"vehicle_type_id":"4","last_reported":1700867208,"current_range_meters":4400,"station_id":"ce4bh092rcd13ifvqd20","pricing_plan_id":"free"},{"bike_id":"8259fb88-af1a-48b0-9d65-35a37851f57c","system_id":"levelo_inurba_marseille","lat":43.304296,"lon":5.397513,"is_reserved":false,"is_disabled":false,"rental_uris":{"android":"levelo://app?vid=8259fb88-af1a-48b0-9d65-35a37851f57c","ios":"levelo://app?vid=8259fb88-af1a-48b0-9d65-35a37851f57c"},"vehicle_type_id":"4","last_reported":1700867208,"current_range_meters":0,"station_id":"ce4bh092rcd13ifvqd20","pricing_plan_id":"free"},{"bike_id":"4ecbefc9-0598-4481-bf3e-6dcf06fad11b","system_id":"levelo_inurba_marseille","lat":43.28856,"lon":5.358371,"is_reserved":false,"is_disabled":false,"rental_uris":{"android":"levelo://app?vid=4ecbefc9-0598-4481-bf3e-6dcf06fad11b","ios":"levelo://app?vid=4ecbefc9-0598-4481-bf3e-6dcf06fad11b"},"vehicle_type_id":"4","last_reported":1700867208,"current_range_meters":20800,"station_id":"ce4bhb12rcd13ifvqem0","pricing_plan_id":"free"},{"bike_id":"975a11ba-4bd5-48fe-8919-652c2e785d23","system_id":"levelo_inurba_marseille","lat":43.28856,"lon":5.358371,"is_reserved":false,"is_disabled":false,"rental_uris":{"android":"levelo://app?vid=975a11ba-4bd5-48fe-8919-652c2e785d23","ios":"levelo://app?vid=975a11ba-4bd5-48fe-8919-652c2e785d23"},"vehicle_type_id":"4","last_reported":1700867208,"current_range_meters":22800,"station_id":"ce4bhb12rcd13ifvqem0","pricing_plan_id":"free"},{"bike_id":"63930bac-dba8-4359-a8d1-182651ab01d7","system_id":"levelo_inurba_marseille","lat":43.31282,"lon":5.40164,"is_reserved":false,"is_disabled":false,"rental_uris":{"android":"levelo://app?vid=63930bac-dba8-4359-a8d1-182651ab01d7","ios":"levelo://app?vid=63930bac-dba8-4359-a8d1-182651ab01d7"},"vehicle_type_id":"4","last_reported":1700867208,"current_range_meters":12400,"station_id":"ce4bh092rcd13ifvqd30","pricing_plan_id":"free"},{"bike_id":"f4612c04-428a-4912-b783-c6c7aa4a86a8","system_id":"levelo_inurba_marseille","lat":43.309371,"lon":5.401449,"is_reserved":false,"is_disabled":false,"rental_uris":{"android":"levelo://app?vid=f4612c04-428a-4912-b783-c6c7aa4a86a8","ios":"levelo://app?vid=f4612c04-428a-4912-b783-c6c7aa4a86a8"},"vehicle_type_id":"4","last_reported":1700867208,"current_range_meters":0,"station_id":"ce4bgvp2rcd13ifvqct0","pricing_plan_id":"free"},{"bike_id":"6d3380cd-34a6-405f-9e14-9dfad01eb06b","system_id":"levelo_inurba_marseille","lat":43.312687,"lon":5.401835,"is_reserved":false,"is_disabled":false,"rental_uris":{"android":"levelo://app?vid=6d3380cd-34a6-405f-9e14-9dfad01eb06b","ios":"levelo://app?vid=6d3380cd-34a6-405f-9e14-9dfad01eb06b"},"vehicle_type_id":"4","last_reported":1700867208,"current_range_meters":28400,"station_id":"ce4bh092rcd13ifvqd30","pricing_plan_id":"free"},{"bike_id":"892704f3-1d77-4404-9d73-158b8203f713","system_id":"levelo_inurba_marseille","lat":43.306412,"lon":5.401035,"is_reserved":false,"is_disabled":false,"rental_uris":{"android":"levelo://app?vid=892704f3-1d77-4404-9d73-158b8203f713","ios":"levelo://app?vid=892704f3-1d77-4404-9d73-158b8203f713"},"vehicle_type_id":"4","last_reported":1700867208,"current_range_meters":26800,"station_id":"ce4bh112rcd13ifvqda0","pricing_plan_id":"free"},{"bike_id":"6ebf7f46-15ee-4bf6-a076-b183e2921d50","system_id":"levelo_inurba_marseille","lat":43.306412,"lon":5.401035,"is_reserved":false,"is_disabled":false,"rental_uris":{"android":"levelo://app?vid=6ebf7f46-15ee-4bf6-a076-b183e2921d50","ios":"levelo://app?vid=6ebf7f46-15ee-4bf6-a076-b183e2921d50"},"vehicle_type_id":"4","last_reported":1700867208,"current_range_meters":30400,"station_id":"ce4bh112rcd13ifvqda0","pricing_plan_id":"free"},{"bike_id":"f72598aa-bd37-4e8a-9aec-45e2ac53dc28","system_id":"levelo_inurba_marseille","lat":43.306412,"lon":5.401035,"is_reserved":false,"is_disabled":false,"rental_uris":{"android":"levelo://app?vid=f72598aa-bd37-4e8a-9aec-45e2ac53dc28","ios":"levelo://app?vid=f72598aa-bd37-4e8a-9aec-45e2ac53dc28"},"vehicle_type_id":"4","last_reported":1700867208,"current_range_meters":31200,"station_id":"ce4bh112rcd13ifvqda0","pricing_plan_id":"free"},{"bike_id":"2ddd67fa-bf6f-490f-8bab-02bd9bce1ead","system_id":"levelo_inurba_marseille","lat":43.306412,"lon":5.401035,"is_reserved":false,"is_disabled":false,"rental_uris":{"android":"levelo://app?vid=2ddd67fa-bf6f-490f-8bab-02bd9bce1ead","ios":"levelo://app?vid=2ddd67fa-bf6f-490f-8bab-02bd9bce1ead"},"vehicle_type_id":"4","last_reported":1700867208,"current_range_meters":17200,"station_id":"ce4bh112rcd13ifvqda0","pricing_plan_id":"free"},{"bike_id":"bfb9a0d7-285a-45b7-bc40-c9bb4154e619","system_id":"levelo_inurba_marseille","lat":43.286591,"lon":5.363346,"is_reserved":false,"is_disabled":false,"rental_uris":{"android":"levelo://app?vid=bfb9a0d7-285a-45b7-bc40-c9bb4154e619","ios":"levelo://app?vid=bfb9a0d7-285a-45b7-bc40-c9bb4154e619"},"vehicle_type_id":"4","last_reported":1700867208,"current_range_meters":16800,"station_id":"ce4bhah2rcd13ifvqej0","pricing_plan_id":"free"},{"bike_id":"35048064-54e9-44b1-b850-ffc1a2d58da8","system_id":"levelo_inurba_marseille","lat":43.286961,"lon":5.373785,"is_reserved":false,"is_disabled":false,"rental_uris":{"android":"levelo://app?vid=35048064-54e9-44b1-b850-ffc1a2d58da8","ios":"levelo://app?vid=35048064-54e9-44b1-b850-ffc1a2d58da8"},"vehicle_type_id":"4","last_reported":1700867208,"current_range_meters":15600,"station_id":"ce4bh3p2rcd13ifvqdq0","pricing_plan_id":"free"},{"bike_id":"bd5d7eaf-004d-4125-93e5-c4c6035b0a9a","system_id":"levelo_inurba_marseille","lat":43.286961,"lon":5.373785,"is_reserved":false,"is_disabled":false,"rental_uris":{"android":"levelo://app?vid=bd5d7eaf-004d-4125-93e5-c4c6035b0a9a","ios":"levelo://app?vid=bd5d7eaf-004d-4125-93e5-c4c6035b0a9a"},"vehicle_type_id":"4","last_reported":1700867208,"current_range_meters":27200,"station_id":"ce4bh3p2rcd13ifvqdq0","pricing_plan_id":"free"},{"bike_id":"f0dd7707-ba88-4235-91e6-a42a6d1a0c9c","system_id":"levelo_inurba_marseille","lat":43.286591,"lon":5.363346,"is_reserved":false,"is_disabled":false,"rental_uris":{"android":"levelo://app?vid=f0dd7707-ba88-4235-91e6-a42a6d1a0c9c","ios":"levelo://app?vid=f0dd7707-ba88-4235-91e6-a42a6d1a0c9c"},"vehicle_type_id":"4","last_reported":1700867208,"current_range_meters":18400,"station_id":"ce4bhah2rcd13ifvqej0","pricing_plan_id":"free"},{"bike_id":"32ed9e5d-0cf1-4c97-b8e7-e7f561ea0de7","system_id":"levelo_inurba_marseille","lat":43.286593,"lon":5.363346,"is_reserved":false,"is_disabled":false,"rental_uris":{"android":"levelo://app?vid=32ed9e5d-0cf1-4c97-b8e7-e7f561ea0de7","ios":"levelo://app?vid=32ed9e5d-0cf1-4c97-b8e7-e7f561ea0de7"},"vehicle_type_id":"4","last_reported":1700867208,"current_range_meters":25200,"station_id":"ce4bhah2rcd13ifvqej0","pricing_plan_id":"free"},{"bike_id":"aed12866-af0f-43d3-81e1-07537514a9af","system_id":"levelo_inurba_marseille","lat":43.29033,"lon":5.3864,"is_reserved":false,"is_disabled":false,"rental_uris":{"android":"levelo://app?vid=aed12866-af0f-43d3-81e1-07537514a9af","ios":"levelo://app?vid=aed12866-af0f-43d3-81e1-07537514a9af"},"vehicle_type_id":"4","last_reported":1700867208,"current_range_meters":25200,"station_id":"ce4bh4p2rcd13ifvqe0g","pricing_plan_id":"free"},{"bike_id":"e1debb5b-8dc1-4787-84d3-7a8b8b6b0b58","system_id":"levelo_inurba_marseille","lat":43.29031,"lon":5.38649,"is_reserved":false,"is_disabled":false,"rental_uris":{"android":"levelo://app?vid=e1debb5b-8dc1-4787-84d3-7a8b8b6b0b58","ios":"levelo://app?vid=e1debb5b-8dc1-4787-84d3-7a8b8b6b0b58"},"vehicle_type_id":"4","last_reported":1700867208,"current_range_meters":21600,"station_id":"ce4bh4p2rcd13ifvqe0g","pricing_plan_id":"free"},{"bike_id":"6849b89a-11e0-444d-9772-a041d1be0c28","system_id":"levelo_inurba_marseille","lat":43.290266,"lon":5.386437,"is_reserved":false,"is_disabled":false,"rental_uris":{"android":"levelo://app?vid=6849b89a-11e0-444d-9772-a041d1be0c28","ios":"levelo://app?vid=6849b89a-11e0-444d-9772-a041d1be0c28"},"vehicle_type_id":"4","last_reported":1700867208,"current_range_meters":28000,"station_id":"ce4bh4p2rcd13ifvqe0g","pricing_plan_id":"free"},{"bike_id":"97c6ce70-1a7f-4e9a-8388-1b100d5d2d78","system_id":"levelo_inurba_marseille","lat":43.29023,"lon":5.38642,"is_reserved":false,"is_disabled":false,"rental_uris":{"android":"levelo://app?vid=97c6ce70-1a7f-4e9a-8388-1b100d5d2d78","ios":"levelo://app?vid=97c6ce70-1a7f-4e9a-8388-1b100d5d2d78"},"vehicle_type_id":"4","last_reported":1700867208,"current_range_meters":31200,"station_id":"ce4bh4p2rcd13ifvqe0g","pricing_plan_id":"free"},{"bike_id":"ac64d9bb-a149-4f04-8e36-8712271e3ed5","system_id":"levelo_inurba_marseille","lat":43.29029,"lon":5.386553,"is_reserved":false,"is_disabled":false,"rental_uris":{"android":"levelo://app?vid=ac64d9bb-a149-4f04-8e36-8712271e3ed5","ios":"levelo://app?vid=ac64d9bb-a149-4f04-8e36-8712271e3ed5"},"vehicle_type_id":"4","last_reported":1700867208,"current_range_meters":25200,"station_id":"","pricing_plan_id":"free"},{"bike_id":"aeea8f7f-c24d-43b5-901f-ccb44bed323e","system_id":"levelo_inurba_marseille","lat":43.29026,"lon":5.38652,"is_reserved":false,"is_disabled":false,"rental_uris":{"android":"levelo://app?vid=aeea8f7f-c24d-43b5-901f-ccb44bed323e","ios":"levelo://app?vid=aeea8f7f-c24d-43b5-901f-ccb44bed323e"},"vehicle_type_id":"4","last_reported":1700867208,"current_range_meters":23200,"station_id":"","pricing_plan_id":"free"},{"bike_id":"32b1fae5-5583-4b0c-86b8-5c0fd165aff8","system_id":"levelo_inurba_marseille","lat":43.29026,"lon":5.38655,"is_reserved":false,"is_disabled":false,"rental_uris":{"android":"levelo://app?vid=32b1fae5-5583-4b0c-86b8-5c0fd165aff8","ios":"levelo://app?vid=32b1fae5-5583-4b0c-86b8-5c0fd165aff8"},"vehicle_type_id":"4","last_reported":1700867208,"current_range_meters":29200,"station_id":"","pricing_plan_id":"free"},{"bike_id":"59728325-e9b4-4cb9-acf8-b94f5618de6b","system_id":"levelo_inurba_marseille","lat":43.287184,"lon":5.37937,"is_reserved":false,"is_disabled":false,"rental_uris":{"android":"levelo://app?vid=59728325-e9b4-4cb9-acf8-b94f5618de6b","ios":"levelo://app?vid=59728325-e9b4-4cb9-acf8-b94f5618de6b"},"vehicle_type_id":"4","last_reported":1700867208,"current_range_meters":17200,"station_id":"ce4bh9p2rcd13ifvqec0","pricing_plan_id":"free"},{"bike_id":"bec460e9-8bd7-4de2-b033-6f6fc15d3b46","system_id":"levelo_inurba_marseille","lat":43.284538,"lon":5.358657,"is_reserved":false,"is_disabled":false,"rental_uris":{"android":"levelo://app?vid=bec460e9-8bd7-4de2-b033-6f6fc15d3b46","ios":"levelo://app?vid=bec460e9-8bd7-4de2-b033-6f6fc15d3b46"},"vehicle_type_id":"4","last_reported":1700867208,"current_range_meters":7200,"station_id":"ce4bhah2rcd13ifvqei0","pricing_plan_id":"free"},{"bike_id":"ee4891d5-a13a-49e9-80b2-724d3220b9c2","system_id":"levelo_inurba_marseille","lat":43.284538,"lon":5.358657,"is_reserved":false,"is_disabled":false,"rental_uris":{"android":"levelo://app?vid=ee4891d5-a13a-49e9-80b2-724d3220b9c2","ios":"levelo://app?vid=ee4891d5-a13a-49e9-80b2-724d3220b9c2"},"vehicle_type_id":"4","last_reported":1700867208,"current_range_meters":22800,"station_id":"ce4bhah2rcd13ifvqei0","pricing_plan_id":"free"},{"bike_id":"bd7806b1-cdf2-4a1e-b5e0-df163e1f8f4c","system_id":"levelo_inurba_marseille","lat":43.284538,"lon":5.358657,"is_reserved":false,"is_disabled":false,"rental_uris":{"android":"levelo://app?vid=bd7806b1-cdf2-4a1e-b5e0-df163e1f8f4c","ios":"levelo://app?vid=bd7806b1-cdf2-4a1e-b5e0-df163e1f8f4c"},"vehicle_type_id":"4","last_reported":1700867208,"current_range_meters":22800,"station_id":"ce4bhah2rcd13ifvqei0","pricing_plan_id":"free"},{"bike_id":"64be3bbe-3e62-46ea-a07c-c897856db173","system_id":"levelo_inurba_marseille","lat":43.287207,"lon":5.38521,"is_reserved":false,"is_disabled":false,"rental_uris":{"android":"levelo://app?vid=64be3bbe-3e62-46ea-a07c-c897856db173","ios":"levelo://app?vid=64be3bbe-3e62-46ea-a07c-c897856db173"},"vehicle_type_id":"4","last_reported":1700867208,"current_range_meters":13600,"station_id":"","pricing_plan_id":"free"},{"bike_id":"b4826c50-2b6f-4124-8d05-874a124cd0df","system_id":"levelo_inurba_marseille","lat":43.285856,"lon":5.350771,"is_reserved":false,"is_disabled":false,"rental_uris":{"android":"levelo://app?vid=b4826c50-2b6f-4124-8d05-874a124cd0df","ios":"levelo://app?vid=b4826c50-2b6f-4124-8d05-874a124cd0df"},"vehicle_type_id":"4","last_reported":1700867208,"current_range_meters":15600,"station_id":"ce4bhch2rcd13ifvqeug","pricing_plan_id":"free"},{"bike_id":"f91e9e8f-ef32-423c-bc14-45c8f750f710","system_id":"levelo_inurba_marseille","lat":43.283998,"lon":5.375062,"is_reserved":false,"is_disabled":false,"rental_uris":{"android":"levelo://app?vid=f91e9e8f-ef32-423c-bc14-45c8f750f710","ios":"levelo://app?vid=f91e9e8f-ef32-423c-bc14-45c8f750f710"},"vehicle_type_id":"4","last_reported":1700867208,"current_range_meters":19200,"station_id":"ce4bh412rcd13ifvqds0","pricing_plan_id":"free"},{"bike_id":"142eb67f-a24f-481b-967d-2f491d522295","system_id":"levelo_inurba_marseille","lat":43.283998,"lon":5.375062,"is_reserved":false,"is_disabled":false,"rental_uris":{"android":"levelo://app?vid=142eb67f-a24f-481b-967d-2f491d522295","ios":"levelo://app?vid=142eb67f-a24f-481b-967d-2f491d522295"},"vehicle_type_id":"4","last_reported":1700867208,"current_range_meters":7200,"station_id":"ce4bh412rcd13ifvqds0","pricing_plan_id":"free"},{"bike_id":"b0beddf5-7bb3-41c4-bfcf-47f938baf159","system_id":"levelo_inurba_marseille","lat":43.319179,"lon":5.407725,"is_reserved":false,"is_disabled":false,"rental_uris":{"android":"levelo://app?vid=b0beddf5-7bb3-41c4-bfcf-47f938baf159","ios":"levelo://app?vid=b0beddf5-7bb3-41c4-bfcf-47f938baf159"},"vehicle_type_id":"4","last_reported":1700867208,"current_range_meters":16000,"station_id":"ce4bhq12rcd13ifvqhig","pricing_plan_id":"free"},{"bike_id":"85e4ecba-9efd-43c9-9c6b-00bb89a9eb10","system_id":"levelo_inurba_marseille","lat":43.319179,"lon":5.407725,"is_reserved":false,"is_disabled":false,"rental_uris":{"android":"levelo://app?vid=85e4ecba-9efd-43c9-9c6b-00bb89a9eb10","ios":"levelo://app?vid=85e4ecba-9efd-43c9-9c6b-00bb89a9eb10"},"vehicle_type_id":"4","last_reported":1700867208,"current_range_meters":21600,"station_id":"ce4bhq12rcd13ifvqhig","pricing_plan_id":"free"},{"bike_id":"b4bc6c19-20e6-4b1e-b989-40d4ba171e93","system_id":"levelo_inurba_marseille","lat":43.332215,"lon":5.398959,"is_reserved":false,"is_disabled":false,"rental_uris":{"android":"levelo://app?vid=b4bc6c19-20e6-4b1e-b989-40d4ba171e93","ios":"levelo://app?vid=b4bc6c19-20e6-4b1e-b989-40d4ba171e93"},"vehicle_type_id":"4","last_reported":1700867208,"current_range_meters":6400,"station_id":"","pricing_plan_id":"free"},{"bike_id":"60fb846c-95d4-493d-8ff0-fc77dde513c4","system_id":"levelo_inurba_marseille","lat":43.337219,"lon":5.391724,"is_reserved":false,"is_disabled":false,"rental_uris":{"android":"levelo://app?vid=60fb846c-95d4-493d-8ff0-fc77dde513c4","ios":"levelo://app?vid=60fb846c-95d4-493d-8ff0-fc77dde513c4"},"vehicle_type_id":"4","last_reported":1700867208,"current_range_meters":8400,"station_id":"ce4bhr92rcd13ifvqhsg","pricing_plan_id":"free"},{"bike_id":"fbed67cb-7d52-4e0c-8488-1d40e28e0960","system_id":"levelo_inurba_marseille","lat":43.32339,"lon":5.40616,"is_reserved":false,"is_disabled":false,"rental_uris":{"android":"levelo://app?vid=fbed67cb-7d52-4e0c-8488-1d40e28e0960","ios":"levelo://app?vid=fbed67cb-7d52-4e0c-8488-1d40e28e0960"},"vehicle_type_id":"4","last_reported":1700867208,"current_range_meters":0,"station_id":"ce4bhq92rcd13ifvqhjg","pricing_plan_id":"free"},{"bike_id":"2758dd14-b7c3-4191-8e51-dc327f32832b","system_id":"levelo_inurba_marseille","lat":43.297946,"lon":5.404063,"is_reserved":false,"is_disabled":false,"rental_uris":{"android":"levelo://app?vid=2758dd14-b7c3-4191-8e51-dc327f32832b","ios":"levelo://app?vid=2758dd14-b7c3-4191-8e51-dc327f32832b"},"vehicle_type_id":"4","last_reported":1700867208,"current_range_meters":18400,"station_id":"ce4bh112rcd13ifvqd90","pricing_plan_id":"free"},{"bike_id":"f2fae663-1e9c-4acc-a8fd-b50075a6374a","system_id":"levelo_inurba_marseille","lat":43.288501,"lon":5.393087,"is_reserved":false,"is_disabled":false,"rental_uris":{"android":"levelo://app?vid=f2fae663-1e9c-4acc-a8fd-b50075a6374a","ios":"levelo://app?vid=f2fae663-1e9c-4acc-a8fd-b50075a6374a"},"vehicle_type_id":"4","last_reported":1700867208,"current_range_meters":28400,"station_id":"ce4bh2p2rcd13ifvqdi0","pricing_plan_id":"free"},{"bike_id":"efa3f2be-6e4b-40ed-98f9-fd49acdfd1fb","system_id":"levelo_inurba_marseille","lat":43.288534,"lon":5.39322,"is_reserved":false,"is_disabled":false,"rental_uris":{"android":"levelo://app?vid=efa3f2be-6e4b-40ed-98f9-fd49acdfd1fb","ios":"levelo://app?vid=efa3f2be-6e4b-40ed-98f9-fd49acdfd1fb"},"vehicle_type_id":"4","last_reported":1700867208,"current_range_meters":1600,"station_id":"ce4bh2p2rcd13ifvqdi0","pricing_plan_id":"free"},{"bike_id":"e7d6965e-e033-46a4-b18a-acf4a06c6ab3","system_id":"levelo_inurba_marseille","lat":43.289363,"lon":5.396322,"is_reserved":false,"is_disabled":false,"rental_uris":{"android":"levelo://app?vid=e7d6965e-e033-46a4-b18a-acf4a06c6ab3","ios":"levelo://app?vid=e7d6965e-e033-46a4-b18a-acf4a06c6ab3"},"vehicle_type_id":"4","last_reported":1700867208,"current_range_meters":16400,"station_id":"ce4bh3h2rcd13ifvqdn0","pricing_plan_id":"free"},{"bike_id":"e2284003-4e46-4e0a-93e7-73d05c3666d9","system_id":"levelo_inurba_marseille","lat":43.33508,"lon":5.397755,"is_reserved":false,"is_disabled":false,"rental_uris":{"android":"levelo://app?vid=e2284003-4e46-4e0a-93e7-73d05c3666d9","ios":"levelo://app?vid=e2284003-4e46-4e0a-93e7-73d05c3666d9"},"vehicle_type_id":"4","last_reported":1700867208,"current_range_meters":24800,"station_id":"","pricing_plan_id":"free"},{"bike_id":"09a88198-c1d5-46a8-9a74-3393cd531e27","system_id":"levelo_inurba_marseille","lat":43.28039,"lon":5.369297,"is_reserved":false,"is_disabled":false,"rental_uris":{"android":"levelo://app?vid=09a88198-c1d5-46a8-9a74-3393cd531e27","ios":"levelo://app?vid=09a88198-c1d5-46a8-9a74-3393cd531e27"},"vehicle_type_id":"4","last_reported":1700867208,"current_range_meters":30000,"station_id":"ce4bha12rcd13ifvqef0","pricing_plan_id":"free"},{"bike_id":"59e761ea-e1c4-4aaa-a75f-dcc85eab25c7","system_id":"levelo_inurba_marseille","lat":43.285742,"lon":5.395004,"is_reserved":false,"is_disabled":false,"rental_uris":{"android":"levelo://app?vid=59e761ea-e1c4-4aaa-a75f-dcc85eab25c7","ios":"levelo://app?vid=59e761ea-e1c4-4aaa-a75f-dcc85eab25c7"},"vehicle_type_id":"4","last_reported":1700867208,"current_range_meters":0,"station_id":"ce4bh292rcd13ifvqdg0","pricing_plan_id":"free"},{"bike_id":"026f72c0-eba9-4313-b651-a426147b19e5","system_id":"levelo_inurba_marseille","lat":43.292571,"lon":5.409107,"is_reserved":false,"is_disabled":false,"rental_uris":{"android":"levelo://app?vid=026f72c0-eba9-4313-b651-a426147b19e5","ios":"levelo://app?vid=026f72c0-eba9-4313-b651-a426147b19e5"},"vehicle_type_id":"4","last_reported":1700867208,"current_range_meters":18400,"station_id":"ce4bh192rcd13ifvqdc0","pricing_plan_id":"free"},{"bike_id":"c371bff1-b3d2-4c0b-a23c-92960c679caf","system_id":"levelo_inurba_marseille","lat":43.326605,"lon":5.409903,"is_reserved":false,"is_disabled":false,"rental_uris":{"android":"levelo://app?vid=c371bff1-b3d2-4c0b-a23c-92960c679caf","ios":"levelo://app?vid=c371bff1-b3d2-4c0b-a23c-92960c679caf"},"vehicle_type_id":"4","last_reported":1700867208,"current_range_meters":3600,"station_id":"ce4bhpp2rcd13ifvqhgg","pricing_plan_id":"free"},{"bike_id":"7d001ce1-3295-4b75-9e6e-3a475eef70ee","system_id":"levelo_inurba_marseille","lat":43.326605,"lon":5.409903,"is_reserved":false,"is_disabled":false,"rental_uris":{"android":"levelo://app?vid=7d001ce1-3295-4b75-9e6e-3a475eef70ee","ios":"levelo://app?vid=7d001ce1-3295-4b75-9e6e-3a475eef70ee"},"vehicle_type_id":"4","last_reported":1700867208,"current_range_meters":2800,"station_id":"ce4bhpp2rcd13ifvqhgg","pricing_plan_id":"free"},{"bike_id":"fd114853-7457-45d8-9582-8acd9b09cf99","system_id":"levelo_inurba_marseille","lat":43.326605,"lon":5.409903,"is_reserved":false,"is_disabled":false,"rental_uris":{"android":"levelo://app?vid=fd114853-7457-45d8-9582-8acd9b09cf99","ios":"levelo://app?vid=fd114853-7457-45d8-9582-8acd9b09cf99"},"vehicle_type_id":"4","last_reported":1700867208,"current_range_meters":18000,"station_id":"ce4bhpp2rcd13ifvqhgg","pricing_plan_id":"free"},{"bike_id":"27937e94-ddb2-47f8-a077-4be732443cc4","system_id":"levelo_inurba_marseille","lat":43.287154,"lon":5.399979,"is_reserved":false,"is_disabled":false,"rental_uris":{"android":"levelo://app?vid=27937e94-ddb2-47f8-a077-4be732443cc4","ios":"levelo://app?vid=27937e94-ddb2-47f8-a077-4be732443cc4"},"vehicle_type_id":"4","last_reported":1700867208,"current_range_meters":31200,"station_id":"ce4bho92rcd13ifvqh3g","pricing_plan_id":"free"},{"bike_id":"4de02c4c-6788-47e8-86f7-ed7b45f7de7a","system_id":"levelo_inurba_marseille","lat":43.287154,"lon":5.399979,"is_reserved":false,"is_disabled":false,"rental_uris":{"android":"levelo://app?vid=4de02c4c-6788-47e8-86f7-ed7b45f7de7a","ios":"levelo://app?vid=4de02c4c-6788-47e8-86f7-ed7b45f7de7a"},"vehicle_type_id":"4","last_reported":1700867208,"current_range_meters":25200,"station_id":"ce4bho92rcd13ifvqh3g","pricing_plan_id":"free"},{"bike_id":"27acdbf5-43bc-44ce-8eba-b63c97170fea","system_id":"levelo_inurba_marseille","lat":43.287154,"lon":5.399979,"is_reserved":false,"is_disabled":false,"rental_uris":{"android":"levelo://app?vid=27acdbf5-43bc-44ce-8eba-b63c97170fea","ios":"levelo://app?vid=27acdbf5-43bc-44ce-8eba-b63c97170fea"},"vehicle_type_id":"4","last_reported":1700867208,"current_range_meters":30400,"station_id":"ce4bho92rcd13ifvqh3g","pricing_plan_id":"free"},{"bike_id":"d1b5c516-b496-412b-b6ec-6fb07b03d1a9","system_id":"levelo_inurba_marseille","lat":43.287154,"lon":5.399979,"is_reserved":false,"is_disabled":false,"rental_uris":{"android":"levelo://app?vid=d1b5c516-b496-412b-b6ec-6fb07b03d1a9","ios":"levelo://app?vid=d1b5c516-b496-412b-b6ec-6fb07b03d1a9"},"vehicle_type_id":"4","last_reported":1700867208,"current_range_meters":28000,"station_id":"ce4bho92rcd13ifvqh3g","pricing_plan_id":"free"},{"bike_id":"00de6aa8-b204-48ba-b466-21a838ae3da5","system_id":"levelo_inurba_marseille","lat":43.287154,"lon":5.399979,"is_reserved":false,"is_disabled":false,"rental_uris":{"android":"levelo://app?vid=00de6aa8-b204-48ba-b466-21a838ae3da5","ios":"levelo://app?vid=00de6aa8-b204-48ba-b466-21a838ae3da5"},"vehicle_type_id":"4","last_reported":1700867208,"current_range_meters":28000,"station_id":"ce4bho92rcd13ifvqh3g","pricing_plan_id":"free"},{"bike_id":"fdb7777f-0d27-4882-a69e-47d6776f4de7","system_id":"levelo_inurba_marseille","lat":43.28703,"lon":5.39987,"is_reserved":false,"is_disabled":false,"rental_uris":{"android":"levelo://app?vid=fdb7777f-0d27-4882-a69e-47d6776f4de7","ios":"levelo://app?vid=fdb7777f-0d27-4882-a69e-47d6776f4de7"},"vehicle_type_id":"4","last_reported":1700867208,"current_range_meters":23200,"station_id":"ce4bho92rcd13ifvqh3g","pricing_plan_id":"free"},{"bike_id":"41299eb5-aa15-4fa9-83e7-fb27b4a01b20","system_id":"levelo_inurba_marseille","lat":43.287154,"lon":5.399979,"is_reserved":false,"is_disabled":false,"rental_uris":{"android":"levelo://app?vid=41299eb5-aa15-4fa9-83e7-fb27b4a01b20","ios":"levelo://app?vid=41299eb5-aa15-4fa9-83e7-fb27b4a01b20"},"vehicle_type_id":"4","last_reported":1700867208,"current_range_meters":11200,"station_id":"ce4bho92rcd13ifvqh3g","pricing_plan_id":"free"},{"bike_id":"aa1bdb2e-9beb-4eeb-9112-e6da92e58790","system_id":"levelo_inurba_marseille","lat":43.28703,"lon":5.39988,"is_reserved":false,"is_disabled":false,"rental_uris":{"android":"levelo://app?vid=aa1bdb2e-9beb-4eeb-9112-e6da92e58790","ios":"levelo://app?vid=aa1bdb2e-9beb-4eeb-9112-e6da92e58790"},"vehicle_type_id":"4","last_reported":1700867208,"current_range_meters":25200,"station_id":"ce4bho92rcd13ifvqh3g","pricing_plan_id":"free"},{"bike_id":"a8d9014a-a3ad-4f23-951e-ee7258a51040","system_id":"levelo_inurba_marseille","lat":43.287154,"lon":5.399979,"is_reserved":false,"is_disabled":false,"rental_uris":{"android":"levelo://app?vid=a8d9014a-a3ad-4f23-951e-ee7258a51040","ios":"levelo://app?vid=a8d9014a-a3ad-4f23-951e-ee7258a51040"},"vehicle_type_id":"4","last_reported":1700867208,"current_range_meters":31200,"station_id":"ce4bho92rcd13ifvqh3g","pricing_plan_id":"free"},{"bike_id":"052b1800-26d9-41f0-9ebd-e64177fe5bdb","system_id":"levelo_inurba_marseille","lat":43.287154,"lon":5.399979,"is_reserved":false,"is_disabled":false,"rental_uris":{"android":"levelo://app?vid=052b1800-26d9-41f0-9ebd-e64177fe5bdb","ios":"levelo://app?vid=052b1800-26d9-41f0-9ebd-e64177fe5bdb"},"vehicle_type_id":"4","last_reported":1700867208,"current_range_meters":28800,"station_id":"ce4bho92rcd13ifvqh3g","pricing_plan_id":"free"},{"bike_id":"a93e0362-81bc-4f4c-bc54-baee07d92e71","system_id":"levelo_inurba_marseille","lat":43.287154,"lon":5.399979,"is_reserved":false,"is_disabled":false,"rental_uris":{"android":"levelo://app?vid=a93e0362-81bc-4f4c-bc54-baee07d92e71","ios":"levelo://app?vid=a93e0362-81bc-4f4c-bc54-baee07d92e71"},"vehicle_type_id":"4","last_reported":1700867208,"current_range_meters":31200,"station_id":"ce4bho92rcd13ifvqh3g","pricing_plan_id":"free"},{"bike_id":"46857abf-efc6-4ffc-b652-8f2ca60edc0a","system_id":"levelo_inurba_marseille","lat":43.287154,"lon":5.399979,"is_reserved":false,"is_disabled":false,"rental_uris":{"android":"levelo://app?vid=46857abf-efc6-4ffc-b652-8f2ca60edc0a","ios":"levelo://app?vid=46857abf-efc6-4ffc-b652-8f2ca60edc0a"},"vehicle_type_id":"4","last_reported":1700867208,"current_range_meters":31600,"station_id":"ce4bho92rcd13ifvqh3g","pricing_plan_id":"free"},{"bike_id":"495c9886-34e3-479d-a1e0-c47a9c43931c","system_id":"levelo_inurba_marseille","lat":43.287154,"lon":5.399979,"is_reserved":false,"is_disabled":false,"rental_uris":{"android":"levelo://app?vid=495c9886-34e3-479d-a1e0-c47a9c43931c","ios":"levelo://app?vid=495c9886-34e3-479d-a1e0-c47a9c43931c"},"vehicle_type_id":"4","last_reported":1700867208,"current_range_meters":26400,"station_id":"ce4bho92rcd13ifvqh3g","pricing_plan_id":"free"},{"bike_id":"cc0ad9e7-824a-490e-8393-d5242595c47b","system_id":"levelo_inurba_marseille","lat":43.279742,"lon":5.38744,"is_reserved":false,"is_disabled":false,"rental_uris":{"android":"levelo://app?vid=cc0ad9e7-824a-490e-8393-d5242595c47b","ios":"levelo://app?vid=cc0ad9e7-824a-490e-8393-d5242595c47b"},"vehicle_type_id":"4","last_reported":1700867208,"current_range_meters":21600,"station_id":"ce4bhg12rcd13ifvqf80","pricing_plan_id":"free"},{"bike_id":"0d3c11e0-1e9c-4868-a280-049c7e708cfb","system_id":"levelo_inurba_marseille","lat":43.279742,"lon":5.38744,"is_reserved":false,"is_disabled":false,"rental_uris":{"android":"levelo://app?vid=0d3c11e0-1e9c-4868-a280-049c7e708cfb","ios":"levelo://app?vid=0d3c11e0-1e9c-4868-a280-049c7e708cfb"},"vehicle_type_id":"4","last_reported":1700867208,"current_range_meters":23200,"station_id":"ce4bhg12rcd13ifvqf80","pricing_plan_id":"free"},{"bike_id":"3ecc5dac-ba3d-4203-963e-6d2e785321f3","system_id":"levelo_inurba_marseille","lat":43.279742,"lon":5.38744,"is_reserved":false,"is_disabled":false,"rental_uris":{"android":"levelo://app?vid=3ecc5dac-ba3d-4203-963e-6d2e785321f3","ios":"levelo://app?vid=3ecc5dac-ba3d-4203-963e-6d2e785321f3"},"vehicle_type_id":"4","last_reported":1700867208,"current_range_meters":22400,"station_id":"ce4bhg12rcd13ifvqf80","pricing_plan_id":"free"},{"bike_id":"d0bb53f7-f1b8-4609-a668-27efdac67f66","system_id":"levelo_inurba_marseille","lat":43.27959,"lon":5.38764,"is_reserved":false,"is_disabled":false,"rental_uris":{"android":"levelo://app?vid=d0bb53f7-f1b8-4609-a668-27efdac67f66","ios":"levelo://app?vid=d0bb53f7-f1b8-4609-a668-27efdac67f66"},"vehicle_type_id":"4","last_reported":1700867208,"current_range_meters":0,"station_id":"ce4bhg12rcd13ifvqf80","pricing_plan_id":"free"},{"bike_id":"0a7d255e-499b-4057-821b-08d215075f2e","system_id":"levelo_inurba_marseille","lat":43.292571,"lon":5.409107,"is_reserved":false,"is_disabled":false,"rental_uris":{"android":"levelo://app?vid=0a7d255e-499b-4057-821b-08d215075f2e","ios":"levelo://app?vid=0a7d255e-499b-4057-821b-08d215075f2e"},"vehicle_type_id":"4","last_reported":1700867208,"current_range_meters":27600,"station_id":"ce4bh192rcd13ifvqdc0","pricing_plan_id":"free"},{"bike_id":"773e27eb-4857-43dd-a4f5-28f78c183ea7","system_id":"levelo_inurba_marseille","lat":43.29264,"lon":5.40905,"is_reserved":false,"is_disabled":false,"rental_uris":{"android":"levelo://app?vid=773e27eb-4857-43dd-a4f5-28f78c183ea7","ios":"levelo://app?vid=773e27eb-4857-43dd-a4f5-28f78c183ea7"},"vehicle_type_id":"4","last_reported":1700867208,"current_range_meters":12400,"station_id":"ce4bh192rcd13ifvqdc0","pricing_plan_id":"free"},{"bike_id":"9dcf3490-4150-49c9-b594-b85a6311d749","system_id":"levelo_inurba_marseille","lat":43.292571,"lon":5.409107,"is_reserved":false,"is_disabled":false,"rental_uris":{"android":"levelo://app?vid=9dcf3490-4150-49c9-b594-b85a6311d749","ios":"levelo://app?vid=9dcf3490-4150-49c9-b594-b85a6311d749"},"vehicle_type_id":"4","last_reported":1700867208,"current_range_meters":3200,"station_id":"ce4bh192rcd13ifvqdc0","pricing_plan_id":"free"},{"bike_id":"22d347e4-9673-489d-af28-13b064fc6114","system_id":"levelo_inurba_marseille","lat":43.292571,"lon":5.409107,"is_reserved":false,"is_disabled":false,"rental_uris":{"android":"levelo://app?vid=22d347e4-9673-489d-af28-13b064fc6114","ios":"levelo://app?vid=22d347e4-9673-489d-af28-13b064fc6114"},"vehicle_type_id":"4","last_reported":1700867208,"current_range_meters":27200,"station_id":"ce4bh192rcd13ifvqdc0","pricing_plan_id":"free"},{"bike_id":"266400c8-c19a-4cd0-a709-ca2d4218a415","system_id":"levelo_inurba_marseille","lat":43.280784,"lon":5.396622,"is_reserved":false,"is_disabled":false,"rental_uris":{"android":"levelo://app?vid=266400c8-c19a-4cd0-a709-ca2d4218a415","ios":"levelo://app?vid=266400c8-c19a-4cd0-a709-ca2d4218a415"},"vehicle_type_id":"4","last_reported":1700867208,"current_range_meters":11600,"station_id":"ce4bho12rcd13ifvqh2g","pricing_plan_id":"free"},{"bike_id":"505bc0ec-0c48-4841-90f3-ca45b286b8db","system_id":"levelo_inurba_marseille","lat":43.280784,"lon":5.396622,"is_reserved":false,"is_disabled":false,"rental_uris":{"android":"levelo://app?vid=505bc0ec-0c48-4841-90f3-ca45b286b8db","ios":"levelo://app?vid=505bc0ec-0c48-4841-90f3-ca45b286b8db"},"vehicle_type_id":"4","last_reported":1700867208,"current_range_meters":31200,"station_id":"ce4bho12rcd13ifvqh2g","pricing_plan_id":"free"},{"bike_id":"bddcd2f9-ac70-40e6-baec-f36fced6eb47","system_id":"levelo_inurba_marseille","lat":43.278399,"lon":5.392139,"is_reserved":false,"is_disabled":false,"rental_uris":{"android":"levelo://app?vid=bddcd2f9-ac70-40e6-baec-f36fced6eb47","ios":"levelo://app?vid=bddcd2f9-ac70-40e6-baec-f36fced6eb47"},"vehicle_type_id":"4","last_reported":1700867208,"current_range_meters":18800,"station_id":"ce4bhjp2rcd13ifvqga0","pricing_plan_id":"free"},{"bike_id":"218e8d92-3a37-45f8-986c-da110f8373b6","system_id":"levelo_inurba_marseille","lat":43.278401,"lon":5.392152,"is_reserved":false,"is_disabled":false,"rental_uris":{"android":"levelo://app?vid=218e8d92-3a37-45f8-986c-da110f8373b6","ios":"levelo://app?vid=218e8d92-3a37-45f8-986c-da110f8373b6"},"vehicle_type_id":"4","last_reported":1700867208,"current_range_meters":29600,"station_id":"ce4bhjp2rcd13ifvqga0","pricing_plan_id":"free"},{"bike_id":"d7e96dab-8a31-411e-9eb2-a0c89e002e0c","system_id":"levelo_inurba_marseille","lat":43.3031,"lon":5.41916,"is_reserved":false,"is_disabled":false,"rental_uris":{"android":"levelo://app?vid=d7e96dab-8a31-411e-9eb2-a0c89e002e0c","ios":"levelo://app?vid=d7e96dab-8a31-411e-9eb2-a0c89e002e0c"},"vehicle_type_id":"4","last_reported":1700867208,"current_range_meters":25200,"station_id":"","pricing_plan_id":"free"},{"bike_id":"ce28396f-bd42-4767-946b-ad3df086bf4a","system_id":"levelo_inurba_marseille","lat":43.33612,"lon":5.410321,"is_reserved":false,"is_disabled":false,"rental_uris":{"android":"levelo://app?vid=ce28396f-bd42-4767-946b-ad3df086bf4a","ios":"levelo://app?vid=ce28396f-bd42-4767-946b-ad3df086bf4a"},"vehicle_type_id":"4","last_reported":1700867208,"current_range_meters":0,"station_id":"ce4bhqh2rcd13ifvqhmg","pricing_plan_id":"free"},{"bike_id":"afbe1c8e-59e6-444c-a06d-40b4c873ce79","system_id":"levelo_inurba_marseille","lat":43.33612,"lon":5.410321,"is_reserved":false,"is_disabled":false,"rental_uris":{"android":"levelo://app?vid=afbe1c8e-59e6-444c-a06d-40b4c873ce79","ios":"levelo://app?vid=afbe1c8e-59e6-444c-a06d-40b4c873ce79"},"vehicle_type_id":"4","last_reported":1700867208,"current_range_meters":3200,"station_id":"ce4bhqh2rcd13ifvqhmg","pricing_plan_id":"free"},{"bike_id":"561d56c0-616a-4955-bd15-b0e0ddd3d6ba","system_id":"levelo_inurba_marseille","lat":43.279952,"lon":5.400085,"is_reserved":false,"is_disabled":false,"rental_uris":{"android":"levelo://app?vid=561d56c0-616a-4955-bd15-b0e0ddd3d6ba","ios":"levelo://app?vid=561d56c0-616a-4955-bd15-b0e0ddd3d6ba"},"vehicle_type_id":"4","last_reported":1700867208,"current_range_meters":26400,"station_id":"ce4bho92rcd13ifvqh4g","pricing_plan_id":"free"},{"bike_id":"71002e67-acf5-484a-9d5f-3454ac0a1de4","system_id":"levelo_inurba_marseille","lat":43.34181,"lon":5.40612,"is_reserved":false,"is_disabled":false,"rental_uris":{"android":"levelo://app?vid=71002e67-acf5-484a-9d5f-3454ac0a1de4","ios":"levelo://app?vid=71002e67-acf5-484a-9d5f-3454ac0a1de4"},"vehicle_type_id":"4","last_reported":1700867208,"current_range_meters":0,"station_id":"","pricing_plan_id":"free"},{"bike_id":"4fcce5d9-071c-4eeb-873d-e2b8131ef5b1","system_id":"levelo_inurba_marseille","lat":43.317121,"lon":5.423936,"is_reserved":false,"is_disabled":false,"rental_uris":{"android":"levelo://app?vid=4fcce5d9-071c-4eeb-873d-e2b8131ef5b1","ios":"levelo://app?vid=4fcce5d9-071c-4eeb-873d-e2b8131ef5b1"},"vehicle_type_id":"4","last_reported":1700867208,"current_range_meters":30400,"station_id":"ce4bhp92rcd13ifvqhbg","pricing_plan_id":"free"},{"bike_id":"3b5836a7-12bc-4eeb-81a3-25b20505d9af","system_id":"levelo_inurba_marseille","lat":43.317121,"lon":5.423936,"is_reserved":false,"is_disabled":false,"rental_uris":{"android":"levelo://app?vid=3b5836a7-12bc-4eeb-81a3-25b20505d9af","ios":"levelo://app?vid=3b5836a7-12bc-4eeb-81a3-25b20505d9af"},"vehicle_type_id":"4","last_reported":1700867208,"current_range_meters":30000,"station_id":"ce4bhp92rcd13ifvqhbg","pricing_plan_id":"free"},{"bike_id":"9154f95f-5f9e-48c4-a432-dcbd8c744e33","system_id":"levelo_inurba_marseille","lat":43.274099,"lon":5.394019,"is_reserved":false,"is_disabled":false,"rental_uris":{"android":"levelo://app?vid=9154f95f-5f9e-48c4-a432-dcbd8c744e33","ios":"levelo://app?vid=9154f95f-5f9e-48c4-a432-dcbd8c744e33"},"vehicle_type_id":"4","last_reported":1700867208,"current_range_meters":25600,"station_id":"ce4bhdp2rcd13ifvqf20","pricing_plan_id":"free"},{"bike_id":"30b1c21c-43f6-4096-a8a1-15bb8bf09358","system_id":"levelo_inurba_marseille","lat":43.274103,"lon":5.394016,"is_reserved":false,"is_disabled":false,"rental_uris":{"android":"levelo://app?vid=30b1c21c-43f6-4096-a8a1-15bb8bf09358","ios":"levelo://app?vid=30b1c21c-43f6-4096-a8a1-15bb8bf09358"},"vehicle_type_id":"4","last_reported":1700867208,"current_range_meters":9600,"station_id":"ce4bhdp2rcd13ifvqf20","pricing_plan_id":"free"},{"bike_id":"62a4131c-a361-4342-8c26-db721e4c4d35","system_id":"levelo_inurba_marseille","lat":43.274099,"lon":5.394019,"is_reserved":false,"is_disabled":false,"rental_uris":{"android":"levelo://app?vid=62a4131c-a361-4342-8c26-db721e4c4d35","ios":"levelo://app?vid=62a4131c-a361-4342-8c26-db721e4c4d35"},"vehicle_type_id":"4","last_reported":1700867208,"current_range_meters":28400,"station_id":"ce4bhdp2rcd13ifvqf20","pricing_plan_id":"free"},{"bike_id":"4732b60d-7c6b-414e-89c1-aca2b5a2ce52","system_id":"levelo_inurba_marseille","lat":43.274103,"lon":5.394016,"is_reserved":false,"is_disabled":false,"rental_uris":{"android":"levelo://app?vid=4732b60d-7c6b-414e-89c1-aca2b5a2ce52","ios":"levelo://app?vid=4732b60d-7c6b-414e-89c1-aca2b5a2ce52"},"vehicle_type_id":"4","last_reported":1700867208,"current_range_meters":7200,"station_id":"ce4bhdp2rcd13ifvqf20","pricing_plan_id":"free"},{"bike_id":"886b94e7-3f0f-4f28-ab90-06e9345b689d","system_id":"levelo_inurba_marseille","lat":43.295523,"lon":5.422926,"is_reserved":false,"is_disabled":false,"rental_uris":{"android":"levelo://app?vid=886b94e7-3f0f-4f28-ab90-06e9345b689d","ios":"levelo://app?vid=886b94e7-3f0f-4f28-ab90-06e9345b689d"},"vehicle_type_id":"4","last_reported":1700867208,"current_range_meters":2800,"station_id":"ce4bhph2rcd13ifvqhdg","pricing_plan_id":"free"},{"bike_id":"db0e19ee-ec25-4c34-8e29-8f41b2c14953","system_id":"levelo_inurba_marseille","lat":43.295523,"lon":5.422926,"is_reserved":false,"is_disabled":false,"rental_uris":{"android":"levelo://app?vid=db0e19ee-ec25-4c34-8e29-8f41b2c14953","ios":"levelo://app?vid=db0e19ee-ec25-4c34-8e29-8f41b2c14953"},"vehicle_type_id":"4","last_reported":1700867208,"current_range_meters":21600,"station_id":"ce4bhph2rcd13ifvqhdg","pricing_plan_id":"free"},{"bike_id":"39ba2a28-4e45-47ae-b54e-2e865e84aa2a","system_id":"levelo_inurba_marseille","lat":43.295523,"lon":5.422926,"is_reserved":false,"is_disabled":false,"rental_uris":{"android":"levelo://app?vid=39ba2a28-4e45-47ae-b54e-2e865e84aa2a","ios":"levelo://app?vid=39ba2a28-4e45-47ae-b54e-2e865e84aa2a"},"vehicle_type_id":"4","last_reported":1700867208,"current_range_meters":28800,"station_id":"ce4bhph2rcd13ifvqhdg","pricing_plan_id":"free"},{"bike_id":"9830637b-caf5-476f-85b7-c02033487ff2","system_id":"levelo_inurba_marseille","lat":43.295511,"lon":5.422926,"is_reserved":false,"is_disabled":false,"rental_uris":{"android":"levelo://app?vid=9830637b-caf5-476f-85b7-c02033487ff2","ios":"levelo://app?vid=9830637b-caf5-476f-85b7-c02033487ff2"},"vehicle_type_id":"4","last_reported":1700867208,"current_range_meters":31200,"station_id":"ce4bhph2rcd13ifvqhdg","pricing_plan_id":"free"},{"bike_id":"118822d8-6e1e-4e74-a488-66c0b9bac4ea","system_id":"levelo_inurba_marseille","lat":43.29561,"lon":5.42289,"is_reserved":false,"is_disabled":false,"rental_uris":{"android":"levelo://app?vid=118822d8-6e1e-4e74-a488-66c0b9bac4ea","ios":"levelo://app?vid=118822d8-6e1e-4e74-a488-66c0b9bac4ea"},"vehicle_type_id":"4","last_reported":1700867208,"current_range_meters":22000,"station_id":"ce4bhph2rcd13ifvqhdg","pricing_plan_id":"free"},{"bike_id":"9f3ea0ae-761e-43b1-ad64-979f3efc0236","system_id":"levelo_inurba_marseille","lat":43.295511,"lon":5.422926,"is_reserved":false,"is_disabled":false,"rental_uris":{"android":"levelo://app?vid=9f3ea0ae-761e-43b1-ad64-979f3efc0236","ios":"levelo://app?vid=9f3ea0ae-761e-43b1-ad64-979f3efc0236"},"vehicle_type_id":"4","last_reported":1700867208,"current_range_meters":24000,"station_id":"ce4bhph2rcd13ifvqhdg","pricing_plan_id":"free"},{"bike_id":"6d892d9f-8bb7-466b-91e4-6b4cd5e06b20","system_id":"levelo_inurba_marseille","lat":43.295511,"lon":5.422926,"is_reserved":false,"is_disabled":false,"rental_uris":{"android":"levelo://app?vid=6d892d9f-8bb7-466b-91e4-6b4cd5e06b20","ios":"levelo://app?vid=6d892d9f-8bb7-466b-91e4-6b4cd5e06b20"},"vehicle_type_id":"4","last_reported":1700867208,"current_range_meters":27200,"station_id":"ce4bhph2rcd13ifvqhdg","pricing_plan_id":"free"},{"bike_id":"36c661af-b1d4-4283-adeb-a6b360ed03cd","system_id":"levelo_inurba_marseille","lat":43.29558,"lon":5.42288,"is_reserved":false,"is_disabled":false,"rental_uris":{"android":"levelo://app?vid=36c661af-b1d4-4283-adeb-a6b360ed03cd","ios":"levelo://app?vid=36c661af-b1d4-4283-adeb-a6b360ed03cd"},"vehicle_type_id":"4","last_reported":1700867208,"current_range_meters":14400,"station_id":"ce4bhph2rcd13ifvqhdg","pricing_plan_id":"free"},{"bike_id":"1a90ad96-70fc-4155-86e7-f16ea0bf6707","system_id":"levelo_inurba_marseille","lat":43.295523,"lon":5.422926,"is_reserved":false,"is_disabled":false,"rental_uris":{"android":"levelo://app?vid=1a90ad96-70fc-4155-86e7-f16ea0bf6707","ios":"levelo://app?vid=1a90ad96-70fc-4155-86e7-f16ea0bf6707"},"vehicle_type_id":"4","last_reported":1700867208,"current_range_meters":28000,"station_id":"ce4bhph2rcd13ifvqhdg","pricing_plan_id":"free"},{"bike_id":"ec3d03da-78c9-4642-80f1-267154a38bb0","system_id":"levelo_inurba_marseille","lat":43.295511,"lon":5.422926,"is_reserved":false,"is_disabled":false,"rental_uris":{"android":"levelo://app?vid=ec3d03da-78c9-4642-80f1-267154a38bb0","ios":"levelo://app?vid=ec3d03da-78c9-4642-80f1-267154a38bb0"},"vehicle_type_id":"4","last_reported":1700867208,"current_range_meters":31200,"station_id":"ce4bhph2rcd13ifvqhdg","pricing_plan_id":"free"},{"bike_id":"c0e7c921-2f34-4325-9644-1440c95e11ac","system_id":"levelo_inurba_marseille","lat":43.295523,"lon":5.422926,"is_reserved":false,"is_disabled":false,"rental_uris":{"android":"levelo://app?vid=c0e7c921-2f34-4325-9644-1440c95e11ac","ios":"levelo://app?vid=c0e7c921-2f34-4325-9644-1440c95e11ac"},"vehicle_type_id":"4","last_reported":1700867208,"current_range_meters":26000,"station_id":"ce4bhph2rcd13ifvqhdg","pricing_plan_id":"free"},{"bike_id":"60384595-5838-46d3-8ef9-ce34760ba3f9","system_id":"levelo_inurba_marseille","lat":43.295511,"lon":5.422926,"is_reserved":false,"is_disabled":false,"rental_uris":{"android":"levelo://app?vid=60384595-5838-46d3-8ef9-ce34760ba3f9","ios":"levelo://app?vid=60384595-5838-46d3-8ef9-ce34760ba3f9"},"vehicle_type_id":"4","last_reported":1700867208,"current_range_meters":31200,"station_id":"ce4bhph2rcd13ifvqhdg","pricing_plan_id":"free"},{"bike_id":"4c9e8ea6-1860-487c-a8f2-7ba28a0f5e88","system_id":"levelo_inurba_marseille","lat":43.272118,"lon":5.391758,"is_reserved":false,"is_disabled":false,"rental_uris":{"android":"levelo://app?vid=4c9e8ea6-1860-487c-a8f2-7ba28a0f5e88","ios":"levelo://app?vid=4c9e8ea6-1860-487c-a8f2-7ba28a0f5e88"},"vehicle_type_id":"4","last_reported":1700867208,"current_range_meters":18400,"station_id":"ce4bhhp2rcd13ifvqfm0","pricing_plan_id":"free"},{"bike_id":"22bfacd7-0906-4cb6-bada-7e0eecea4cef","system_id":"levelo_inurba_marseille","lat":43.272124,"lon":5.391768,"is_reserved":false,"is_disabled":false,"rental_uris":{"android":"levelo://app?vid=22bfacd7-0906-4cb6-bada-7e0eecea4cef","ios":"levelo://app?vid=22bfacd7-0906-4cb6-bada-7e0eecea4cef"},"vehicle_type_id":"4","last_reported":1700867208,"current_range_meters":4400,"station_id":"ce4bhhp2rcd13ifvqfm0","pricing_plan_id":"free"},{"bike_id":"19bcdaf8-9fc3-4bc2-aad4-4a3356dce2c4","system_id":"levelo_inurba_marseille","lat":43.272116,"lon":5.391763,"is_reserved":false,"is_disabled":false,"rental_uris":{"android":"levelo://app?vid=19bcdaf8-9fc3-4bc2-aad4-4a3356dce2c4","ios":"levelo://app?vid=19bcdaf8-9fc3-4bc2-aad4-4a3356dce2c4"},"vehicle_type_id":"4","last_reported":1700867208,"current_range_meters":29600,"station_id":"ce4bhhp2rcd13ifvqfm0","pricing_plan_id":"free"},{"bike_id":"c6d8125a-1b62-4ad9-80dc-d1ee14e73569","system_id":"levelo_inurba_marseille","lat":43.272124,"lon":5.391768,"is_reserved":false,"is_disabled":false,"rental_uris":{"android":"levelo://app?vid=c6d8125a-1b62-4ad9-80dc-d1ee14e73569","ios":"levelo://app?vid=c6d8125a-1b62-4ad9-80dc-d1ee14e73569"},"vehicle_type_id":"4","last_reported":1700867208,"current_range_meters":28800,"station_id":"ce4bhhp2rcd13ifvqfm0","pricing_plan_id":"free"},{"bike_id":"04d62d6c-0b21-44de-bd80-a24a0b50e10e","system_id":"levelo_inurba_marseille","lat":43.272118,"lon":5.391758,"is_reserved":false,"is_disabled":false,"rental_uris":{"android":"levelo://app?vid=04d62d6c-0b21-44de-bd80-a24a0b50e10e","ios":"levelo://app?vid=04d62d6c-0b21-44de-bd80-a24a0b50e10e"},"vehicle_type_id":"4","last_reported":1700867208,"current_range_meters":14000,"station_id":"ce4bhhp2rcd13ifvqfm0","pricing_plan_id":"free"},{"bike_id":"8f5f574b-8e28-4011-81b8-fdc97b7da9a5","system_id":"levelo_inurba_marseille","lat":43.272116,"lon":5.391763,"is_reserved":false,"is_disabled":false,"rental_uris":{"android":"levelo://app?vid=8f5f574b-8e28-4011-81b8-fdc97b7da9a5","ios":"levelo://app?vid=8f5f574b-8e28-4011-81b8-fdc97b7da9a5"},"vehicle_type_id":"4","last_reported":1700867208,"current_range_meters":31200,"station_id":"ce4bhhp2rcd13ifvqfm0","pricing_plan_id":"free"},{"bike_id":"aa22c1ea-be6a-4a90-ae1e-c5f4358f819f","system_id":"levelo_inurba_marseille","lat":43.272124,"lon":5.391768,"is_reserved":false,"is_disabled":false,"rental_uris":{"android":"levelo://app?vid=aa22c1ea-be6a-4a90-ae1e-c5f4358f819f","ios":"levelo://app?vid=aa22c1ea-be6a-4a90-ae1e-c5f4358f819f"},"vehicle_type_id":"4","last_reported":1700867208,"current_range_meters":23200,"station_id":"ce4bhhp2rcd13ifvqfm0","pricing_plan_id":"free"},{"bike_id":"7655e38b-7390-4585-994e-24fd1b1163a9","system_id":"levelo_inurba_marseille","lat":43.272124,"lon":5.391768,"is_reserved":false,"is_disabled":false,"rental_uris":{"android":"levelo://app?vid=7655e38b-7390-4585-994e-24fd1b1163a9","ios":"levelo://app?vid=7655e38b-7390-4585-994e-24fd1b1163a9"},"vehicle_type_id":"4","last_reported":1700867208,"current_range_meters":30800,"station_id":"ce4bhhp2rcd13ifvqfm0","pricing_plan_id":"free"},{"bike_id":"d0d13fe1-104c-4071-9a2f-8920a3cfc528","system_id":"levelo_inurba_marseille","lat":43.272116,"lon":5.391763,"is_reserved":false,"is_disabled":false,"rental_uris":{"android":"levelo://app?vid=d0d13fe1-104c-4071-9a2f-8920a3cfc528","ios":"levelo://app?vid=d0d13fe1-104c-4071-9a2f-8920a3cfc528"},"vehicle_type_id":"4","last_reported":1700867208,"current_range_meters":29600,"station_id":"ce4bhhp2rcd13ifvqfm0","pricing_plan_id":"free"},{"bike_id":"3c60f82e-c309-4a8c-a544-21e9efb08d7f","system_id":"levelo_inurba_marseille","lat":43.272124,"lon":5.391768,"is_reserved":false,"is_disabled":false,"rental_uris":{"android":"levelo://app?vid=3c60f82e-c309-4a8c-a544-21e9efb08d7f","ios":"levelo://app?vid=3c60f82e-c309-4a8c-a544-21e9efb08d7f"},"vehicle_type_id":"4","last_reported":1700867208,"current_range_meters":28800,"station_id":"ce4bhhp2rcd13ifvqfm0","pricing_plan_id":"free"},{"bike_id":"901fa4ec-9425-49b8-9b51-d554be21da46","system_id":"levelo_inurba_marseille","lat":43.272116,"lon":5.391747,"is_reserved":false,"is_disabled":false,"rental_uris":{"android":"levelo://app?vid=901fa4ec-9425-49b8-9b51-d554be21da46","ios":"levelo://app?vid=901fa4ec-9425-49b8-9b51-d554be21da46"},"vehicle_type_id":"4","last_reported":1700867208,"current_range_meters":31600,"station_id":"ce4bhhp2rcd13ifvqfm0","pricing_plan_id":"free"},{"bike_id":"5901f883-30ae-42bb-900a-5a3cd670a8f8","system_id":"levelo_inurba_marseille","lat":43.272116,"lon":5.391747,"is_reserved":false,"is_disabled":false,"rental_uris":{"android":"levelo://app?vid=5901f883-30ae-42bb-900a-5a3cd670a8f8","ios":"levelo://app?vid=5901f883-30ae-42bb-900a-5a3cd670a8f8"},"vehicle_type_id":"4","last_reported":1700867208,"current_range_meters":24400,"station_id":"ce4bhhp2rcd13ifvqfm0","pricing_plan_id":"free"},{"bike_id":"73176751-e983-409a-913b-01433cfcb5f1","system_id":"levelo_inurba_marseille","lat":43.272118,"lon":5.391758,"is_reserved":false,"is_disabled":false,"rental_uris":{"android":"levelo://app?vid=73176751-e983-409a-913b-01433cfcb5f1","ios":"levelo://app?vid=73176751-e983-409a-913b-01433cfcb5f1"},"vehicle_type_id":"4","last_reported":1700867208,"current_range_meters":20800,"station_id":"ce4bhhp2rcd13ifvqfm0","pricing_plan_id":"free"},{"bike_id":"24b0e14c-2449-4202-ac41-8946d5866910","system_id":"levelo_inurba_marseille","lat":43.272124,"lon":5.391768,"is_reserved":false,"is_disabled":false,"rental_uris":{"android":"levelo://app?vid=24b0e14c-2449-4202-ac41-8946d5866910","ios":"levelo://app?vid=24b0e14c-2449-4202-ac41-8946d5866910"},"vehicle_type_id":"4","last_reported":1700867208,"current_range_meters":29600,"station_id":"ce4bhhp2rcd13ifvqfm0","pricing_plan_id":"free"},{"bike_id":"3b78b081-46f5-4e78-8ba2-dc69d2ab5191","system_id":"levelo_inurba_marseille","lat":43.272118,"lon":5.391758,"is_reserved":false,"is_disabled":false,"rental_uris":{"android":"levelo://app?vid=3b78b081-46f5-4e78-8ba2-dc69d2ab5191","ios":"levelo://app?vid=3b78b081-46f5-4e78-8ba2-dc69d2ab5191"},"vehicle_type_id":"4","last_reported":1700867208,"current_range_meters":27200,"station_id":"ce4bhhp2rcd13ifvqfm0","pricing_plan_id":"free"},{"bike_id":"572302d4-546a-4def-bbcd-7344a2ac172e","system_id":"levelo_inurba_marseille","lat":43.272116,"lon":5.391747,"is_reserved":false,"is_disabled":false,"rental_uris":{"android":"levelo://app?vid=572302d4-546a-4def-bbcd-7344a2ac172e","ios":"levelo://app?vid=572302d4-546a-4def-bbcd-7344a2ac172e"},"vehicle_type_id":"4","last_reported":1700867208,"current_range_meters":31200,"station_id":"ce4bhhp2rcd13ifvqfm0","pricing_plan_id":"free"},{"bike_id":"10c9dd98-663e-46a3-a432-03145077649b","system_id":"levelo_inurba_marseille","lat":43.272124,"lon":5.391768,"is_reserved":false,"is_disabled":false,"rental_uris":{"android":"levelo://app?vid=10c9dd98-663e-46a3-a432-03145077649b","ios":"levelo://app?vid=10c9dd98-663e-46a3-a432-03145077649b"},"vehicle_type_id":"4","last_reported":1700867208,"current_range_meters":30800,"station_id":"ce4bhhp2rcd13ifvqfm0","pricing_plan_id":"free"},{"bike_id":"dd2a2bad-e85b-495d-8fad-30c4e62358c4","system_id":"levelo_inurba_marseille","lat":43.272118,"lon":5.391758,"is_reserved":false,"is_disabled":false,"rental_uris":{"android":"levelo://app?vid=dd2a2bad-e85b-495d-8fad-30c4e62358c4","ios":"levelo://app?vid=dd2a2bad-e85b-495d-8fad-30c4e62358c4"},"vehicle_type_id":"4","last_reported":1700867208,"current_range_meters":31200,"station_id":"ce4bhhp2rcd13ifvqfm0","pricing_plan_id":"free"},{"bike_id":"a5e1fc86-f804-4675-93f6-eca9faf79274","system_id":"levelo_inurba_marseille","lat":43.272118,"lon":5.391758,"is_reserved":false,"is_disabled":false,"rental_uris":{"android":"levelo://app?vid=a5e1fc86-f804-4675-93f6-eca9faf79274","ios":"levelo://app?vid=a5e1fc86-f804-4675-93f6-eca9faf79274"},"vehicle_type_id":"4","last_reported":1700867208,"current_range_meters":20800,"station_id":"ce4bhhp2rcd13ifvqfm0","pricing_plan_id":"free"},{"bike_id":"56260590-b5b4-4119-b0f6-ab98949cafac","system_id":"levelo_inurba_marseille","lat":43.272116,"lon":5.391763,"is_reserved":false,"is_disabled":false,"rental_uris":{"android":"levelo://app?vid=56260590-b5b4-4119-b0f6-ab98949cafac","ios":"levelo://app?vid=56260590-b5b4-4119-b0f6-ab98949cafac"},"vehicle_type_id":"4","last_reported":1700867208,"current_range_meters":30400,"station_id":"ce4bhhp2rcd13ifvqfm0","pricing_plan_id":"free"},{"bike_id":"a5a158f8-deed-4db1-a6b5-eeb728bfdf5e","system_id":"levelo_inurba_marseille","lat":43.272116,"lon":5.391747,"is_reserved":false,"is_disabled":false,"rental_uris":{"android":"levelo://app?vid=a5a158f8-deed-4db1-a6b5-eeb728bfdf5e","ios":"levelo://app?vid=a5a158f8-deed-4db1-a6b5-eeb728bfdf5e"},"vehicle_type_id":"4","last_reported":1700867208,"current_range_meters":30000,"station_id":"ce4bhhp2rcd13ifvqfm0","pricing_plan_id":"free"},{"bike_id":"573fe38e-331a-49c6-a2ec-1c794d6ebce8","system_id":"levelo_inurba_marseille","lat":43.272118,"lon":5.391758,"is_reserved":false,"is_disabled":false,"rental_uris":{"android":"levelo://app?vid=573fe38e-331a-49c6-a2ec-1c794d6ebce8","ios":"levelo://app?vid=573fe38e-331a-49c6-a2ec-1c794d6ebce8"},"vehicle_type_id":"4","last_reported":1700867208,"current_range_meters":30400,"station_id":"ce4bhhp2rcd13ifvqfm0","pricing_plan_id":"free"},{"bike_id":"972365b9-5066-4bb4-a1e7-7285f81f2be6","system_id":"levelo_inurba_marseille","lat":43.272124,"lon":5.391768,"is_reserved":false,"is_disabled":false,"rental_uris":{"android":"levelo://app?vid=972365b9-5066-4bb4-a1e7-7285f81f2be6","ios":"levelo://app?vid=972365b9-5066-4bb4-a1e7-7285f81f2be6"},"vehicle_type_id":"4","last_reported":1700867208,"current_range_meters":31200,"station_id":"ce4bhhp2rcd13ifvqfm0","pricing_plan_id":"free"},{"bike_id":"64182f69-ed8f-42e2-a611-4044e31cb71b","system_id":"levelo_inurba_marseille","lat":43.272124,"lon":5.391768,"is_reserved":false,"is_disabled":false,"rental_uris":{"android":"levelo://app?vid=64182f69-ed8f-42e2-a611-4044e31cb71b","ios":"levelo://app?vid=64182f69-ed8f-42e2-a611-4044e31cb71b"},"vehicle_type_id":"4","last_reported":1700867208,"current_range_meters":31200,"station_id":"ce4bhhp2rcd13ifvqfm0","pricing_plan_id":"free"},{"bike_id":"5cd5ff54-0b74-41d5-be32-e9d0e2959c0b","system_id":"levelo_inurba_marseille","lat":43.272118,"lon":5.391758,"is_reserved":false,"is_disabled":false,"rental_uris":{"android":"levelo://app?vid=5cd5ff54-0b74-41d5-be32-e9d0e2959c0b","ios":"levelo://app?vid=5cd5ff54-0b74-41d5-be32-e9d0e2959c0b"},"vehicle_type_id":"4","last_reported":1700867208,"current_range_meters":31200,"station_id":"ce4bhhp2rcd13ifvqfm0","pricing_plan_id":"free"},{"bike_id":"3372ea2b-2db2-40a9-b164-c26915297bc5","system_id":"levelo_inurba_marseille","lat":43.278128,"lon":5.407195,"is_reserved":false,"is_disabled":false,"rental_uris":{"android":"levelo://app?vid=3372ea2b-2db2-40a9-b164-c26915297bc5","ios":"levelo://app?vid=3372ea2b-2db2-40a9-b164-c26915297bc5"},"vehicle_type_id":"4","last_reported":1700867208,"current_range_meters":15200,"station_id":"ce4bhnh2rcd13ifvqgtg","pricing_plan_id":"free"},{"bike_id":"3d36af38-5f38-422c-9c31-70ad072495e1","system_id":"levelo_inurba_marseille","lat":43.278128,"lon":5.407195,"is_reserved":false,"is_disabled":false,"rental_uris":{"android":"levelo://app?vid=3d36af38-5f38-422c-9c31-70ad072495e1","ios":"levelo://app?vid=3d36af38-5f38-422c-9c31-70ad072495e1"},"vehicle_type_id":"4","last_reported":1700867208,"current_range_meters":20000,"station_id":"ce4bhnh2rcd13ifvqgtg","pricing_plan_id":"free"},{"bike_id":"28e8ce00-6b21-4e06-9930-c7c4408cc650","system_id":"levelo_inurba_marseille","lat":43.278164,"lon":5.407143,"is_reserved":false,"is_disabled":false,"rental_uris":{"android":"levelo://app?vid=28e8ce00-6b21-4e06-9930-c7c4408cc650","ios":"levelo://app?vid=28e8ce00-6b21-4e06-9930-c7c4408cc650"},"vehicle_type_id":"4","last_reported":1700867208,"current_range_meters":0,"station_id":"","pricing_plan_id":"free"},{"bike_id":"fc3c3486-b5e3-401b-9cc4-f32844ec20e0","system_id":"levelo_inurba_marseille","lat":43.279505,"lon":5.410523,"is_reserved":false,"is_disabled":false,"rental_uris":{"android":"levelo://app?vid=fc3c3486-b5e3-401b-9cc4-f32844ec20e0","ios":"levelo://app?vid=fc3c3486-b5e3-401b-9cc4-f32844ec20e0"},"vehicle_type_id":"4","last_reported":1700867208,"current_range_meters":0,"station_id":"ce4bhnp2rcd13ifvqh0g","pricing_plan_id":"free"},{"bike_id":"774a082e-2358-4af1-bbe3-c5fce15d59cf","system_id":"levelo_inurba_marseille","lat":43.269319,"lon":5.389397,"is_reserved":false,"is_disabled":false,"rental_uris":{"android":"levelo://app?vid=774a082e-2358-4af1-bbe3-c5fce15d59cf","ios":"levelo://app?vid=774a082e-2358-4af1-bbe3-c5fce15d59cf"},"vehicle_type_id":"4","last_reported":1700867208,"current_range_meters":22800,"station_id":"ce4bhhh2rcd13ifvqfl0","pricing_plan_id":"free"},{"bike_id":"b0224f45-ff87-4a78-af29-61aa85230331","system_id":"levelo_inurba_marseille","lat":43.269319,"lon":5.389397,"is_reserved":false,"is_disabled":false,"rental_uris":{"android":"levelo://app?vid=b0224f45-ff87-4a78-af29-61aa85230331","ios":"levelo://app?vid=b0224f45-ff87-4a78-af29-61aa85230331"},"vehicle_type_id":"4","last_reported":1700867208,"current_range_meters":18800,"station_id":"ce4bhhh2rcd13ifvqfl0","pricing_plan_id":"free"},{"bike_id":"f23d8119-b478-4639-98c5-6883279f9f84","system_id":"levelo_inurba_marseille","lat":43.32592,"lon":5.43067,"is_reserved":false,"is_disabled":false,"rental_uris":{"android":"levelo://app?vid=f23d8119-b478-4639-98c5-6883279f9f84","ios":"levelo://app?vid=f23d8119-b478-4639-98c5-6883279f9f84"},"vehicle_type_id":"4","last_reported":1700867208,"current_range_meters":28800,"station_id":"","pricing_plan_id":"free"},{"bike_id":"e7b368e8-9edf-4ac8-acef-7e9558d427aa","system_id":"levelo_inurba_marseille","lat":43.32591,"lon":5.430713,"is_reserved":false,"is_disabled":false,"rental_uris":{"android":"levelo://app?vid=e7b368e8-9edf-4ac8-acef-7e9558d427aa","ios":"levelo://app?vid=e7b368e8-9edf-4ac8-acef-7e9558d427aa"},"vehicle_type_id":"4","last_reported":1700867208,"current_range_meters":0,"station_id":"","pricing_plan_id":"free"},{"bike_id":"ed30d6a1-b23a-49e5-9c83-5546be72a734","system_id":"levelo_inurba_marseille","lat":43.3259,"lon":5.43075,"is_reserved":false,"is_disabled":false,"rental_uris":{"android":"levelo://app?vid=ed30d6a1-b23a-49e5-9c83-5546be72a734","ios":"levelo://app?vid=ed30d6a1-b23a-49e5-9c83-5546be72a734"},"vehicle_type_id":"4","last_reported":1700867208,"current_range_meters":23600,"station_id":"","pricing_plan_id":"free"},{"bike_id":"d67469ee-5362-4610-a163-fe05ae3cf4f7","system_id":"levelo_inurba_marseille","lat":43.32604,"lon":5.430817,"is_reserved":false,"is_disabled":false,"rental_uris":{"android":"levelo://app?vid=d67469ee-5362-4610-a163-fe05ae3cf4f7","ios":"levelo://app?vid=d67469ee-5362-4610-a163-fe05ae3cf4f7"},"vehicle_type_id":"4","last_reported":1700867208,"current_range_meters":12000,"station_id":"","pricing_plan_id":"free"},{"bike_id":"2b5f0b27-ae58-4e9e-bd76-c585f78e8a73","system_id":"levelo_inurba_marseille","lat":43.26386,"lon":5.37454,"is_reserved":false,"is_disabled":false,"rental_uris":{"android":"levelo://app?vid=2b5f0b27-ae58-4e9e-bd76-c585f78e8a73","ios":"levelo://app?vid=2b5f0b27-ae58-4e9e-bd76-c585f78e8a73"},"vehicle_type_id":"4","last_reported":1700867208,"current_range_meters":13200,"station_id":"","pricing_plan_id":"free"},{"bike_id":"20d4d37f-4aaa-49fb-98dd-9591522516ba","system_id":"levelo_inurba_marseille","lat":43.30802,"lon":5.43519,"is_reserved":false,"is_disabled":false,"rental_uris":{"android":"levelo://app?vid=20d4d37f-4aaa-49fb-98dd-9591522516ba","ios":"levelo://app?vid=20d4d37f-4aaa-49fb-98dd-9591522516ba"},"vehicle_type_id":"4","last_reported":1700867208,"current_range_meters":5200,"station_id":"ce4bhph2rcd13ifvqheg","pricing_plan_id":"free"},{"bike_id":"f00797c0-a198-4f4a-aadd-db8078078185","system_id":"levelo_inurba_marseille","lat":43.265571,"lon":5.390032,"is_reserved":false,"is_disabled":false,"rental_uris":{"android":"levelo://app?vid=f00797c0-a198-4f4a-aadd-db8078078185","ios":"levelo://app?vid=f00797c0-a198-4f4a-aadd-db8078078185"},"vehicle_type_id":"4","last_reported":1700867208,"current_range_meters":13600,"station_id":"ce4bhe12rcd13ifvqf30","pricing_plan_id":"free"},{"bike_id":"80f89bbe-5ef0-4f11-9f5b-8a1f2ebfd112","system_id":"levelo_inurba_marseille","lat":43.26949,"lon":5.40262,"is_reserved":false,"is_disabled":false,"rental_uris":{"android":"levelo://app?vid=80f89bbe-5ef0-4f11-9f5b-8a1f2ebfd112","ios":"levelo://app?vid=80f89bbe-5ef0-4f11-9f5b-8a1f2ebfd112"},"vehicle_type_id":"4","last_reported":1700867208,"current_range_meters":22800,"station_id":"cjm6bp8fraef2m0cb0m0","pricing_plan_id":"free"},{"bike_id":"a6cf9b04-855d-4dc5-9c72-ce4a8e5bbb9c","system_id":"levelo_inurba_marseille","lat":43.31724,"lon":5.43696,"is_reserved":false,"is_disabled":false,"rental_uris":{"android":"levelo://app?vid=a6cf9b04-855d-4dc5-9c72-ce4a8e5bbb9c","ios":"levelo://app?vid=a6cf9b04-855d-4dc5-9c72-ce4a8e5bbb9c"},"vehicle_type_id":"4","last_reported":1700867208,"current_range_meters":800,"station_id":"ce4bhp92rcd13ifvqhcg","pricing_plan_id":"free"},{"bike_id":"1b98b7d3-c287-45d9-80ab-ed0171f3329e","system_id":"levelo_inurba_marseille","lat":43.317104,"lon":5.436818,"is_reserved":false,"is_disabled":false,"rental_uris":{"android":"levelo://app?vid=1b98b7d3-c287-45d9-80ab-ed0171f3329e","ios":"levelo://app?vid=1b98b7d3-c287-45d9-80ab-ed0171f3329e"},"vehicle_type_id":"4","last_reported":1700867208,"current_range_meters":27200,"station_id":"ce4bhp92rcd13ifvqhcg","pricing_plan_id":"free"},{"bike_id":"2f057b81-6fc8-4570-8186-e577abd426a5","system_id":"levelo_inurba_marseille","lat":43.262012,"lon":5.379307,"is_reserved":false,"is_disabled":false,"rental_uris":{"android":"levelo://app?vid=2f057b81-6fc8-4570-8186-e577abd426a5","ios":"levelo://app?vid=2f057b81-6fc8-4570-8186-e577abd426a5"},"vehicle_type_id":"4","last_reported":1700867208,"current_range_meters":5600,"station_id":"ce4bhjp2rcd13ifvqg90","pricing_plan_id":"free"},{"bike_id":"67839cdf-c8b8-4577-88bf-4372677836f5","system_id":"levelo_inurba_marseille","lat":43.26202,"lon":5.379299,"is_reserved":false,"is_disabled":false,"rental_uris":{"android":"levelo://app?vid=67839cdf-c8b8-4577-88bf-4372677836f5","ios":"levelo://app?vid=67839cdf-c8b8-4577-88bf-4372677836f5"},"vehicle_type_id":"4","last_reported":1700867208,"current_range_meters":8800,"station_id":"ce4bhjp2rcd13ifvqg90","pricing_plan_id":"free"},{"bike_id":"4572da7b-b339-4c7f-80aa-57f54e950769","system_id":"levelo_inurba_marseille","lat":43.271388,"lon":5.409269,"is_reserved":false,"is_disabled":false,"rental_uris":{"android":"levelo://app?vid=4572da7b-b339-4c7f-80aa-57f54e950769","ios":"levelo://app?vid=4572da7b-b339-4c7f-80aa-57f54e950769"},"vehicle_type_id":"4","last_reported":1700867208,"current_range_meters":26000,"station_id":"ce4bhl12rcd13ifvqgf0","pricing_plan_id":"free"},{"bike_id":"6dc3b76a-62ec-4977-b16e-65d1d17e8e8a","system_id":"levelo_inurba_marseille","lat":43.271368,"lon":5.40928,"is_reserved":false,"is_disabled":false,"rental_uris":{"android":"levelo://app?vid=6dc3b76a-62ec-4977-b16e-65d1d17e8e8a","ios":"levelo://app?vid=6dc3b76a-62ec-4977-b16e-65d1d17e8e8a"},"vehicle_type_id":"4","last_reported":1700867208,"current_range_meters":24400,"station_id":"ce4bhl12rcd13ifvqgf0","pricing_plan_id":"free"},{"bike_id":"3f071054-5750-40df-87c2-67c9e3371e59","system_id":"levelo_inurba_marseille","lat":43.267959,"lon":5.402687,"is_reserved":false,"is_disabled":false,"rental_uris":{"android":"levelo://app?vid=3f071054-5750-40df-87c2-67c9e3371e59","ios":"levelo://app?vid=3f071054-5750-40df-87c2-67c9e3371e59"},"vehicle_type_id":"4","last_reported":1700867208,"current_range_meters":0,"station_id":"ce501612rcd8frsf0b60","pricing_plan_id":"free"},{"bike_id":"91794d0e-e2e6-4dd9-a1b6-ff7501e49342","system_id":"levelo_inurba_marseille","lat":43.299017,"lon":5.436688,"is_reserved":false,"is_disabled":false,"rental_uris":{"android":"levelo://app?vid=91794d0e-e2e6-4dd9-a1b6-ff7501e49342","ios":"levelo://app?vid=91794d0e-e2e6-4dd9-a1b6-ff7501e49342"},"vehicle_type_id":"4","last_reported":1700867208,"current_range_meters":4400,"station_id":"ce4bhpp2rcd13ifvqhfg","pricing_plan_id":"free"},{"bike_id":"8af0d2ed-93d1-485d-9803-40c71e52d0d9","system_id":"levelo_inurba_marseille","lat":43.29899,"lon":5.436683,"is_reserved":false,"is_disabled":false,"rental_uris":{"android":"levelo://app?vid=8af0d2ed-93d1-485d-9803-40c71e52d0d9","ios":"levelo://app?vid=8af0d2ed-93d1-485d-9803-40c71e52d0d9"},"vehicle_type_id":"4","last_reported":1700867208,"current_range_meters":17600,"station_id":"ce4bhpp2rcd13ifvqhfg","pricing_plan_id":"free"},{"bike_id":"1e272c67-0721-4a45-a082-8c54474509d1","system_id":"levelo_inurba_marseille","lat":43.29901,"lon":5.436851,"is_reserved":false,"is_disabled":false,"rental_uris":{"android":"levelo://app?vid=1e272c67-0721-4a45-a082-8c54474509d1","ios":"levelo://app?vid=1e272c67-0721-4a45-a082-8c54474509d1"},"vehicle_type_id":"4","last_reported":1700867208,"current_range_meters":0,"station_id":"ce4bhpp2rcd13ifvqhfg","pricing_plan_id":"free"},{"bike_id":"a397e803-15ed-4f7f-93b9-1d8a8de9f50a","system_id":"levelo_inurba_marseille","lat":43.29792,"lon":5.437313,"is_reserved":false,"is_disabled":false,"rental_uris":{"android":"levelo://app?vid=a397e803-15ed-4f7f-93b9-1d8a8de9f50a","ios":"levelo://app?vid=a397e803-15ed-4f7f-93b9-1d8a8de9f50a"},"vehicle_type_id":"4","last_reported":1700867208,"current_range_meters":800,"station_id":"","pricing_plan_id":"free"},{"bike_id":"5cc76595-4035-4213-b74e-41dabe622aaf","system_id":"levelo_inurba_marseille","lat":43.28151,"lon":5.42632,"is_reserved":false,"is_disabled":false,"rental_uris":{"android":"levelo://app?vid=5cc76595-4035-4213-b74e-41dabe622aaf","ios":"levelo://app?vid=5cc76595-4035-4213-b74e-41dabe622aaf"},"vehicle_type_id":"4","last_reported":1700867208,"current_range_meters":7200,"station_id":"ce4bhnh2rcd13ifvqgug","pricing_plan_id":"free"},{"bike_id":"5ac38179-4d98-4b89-80f2-dc6cd474e479","system_id":"levelo_inurba_marseille","lat":43.28152,"lon":5.42635,"is_reserved":false,"is_disabled":false,"rental_uris":{"android":"levelo://app?vid=5ac38179-4d98-4b89-80f2-dc6cd474e479","ios":"levelo://app?vid=5ac38179-4d98-4b89-80f2-dc6cd474e479"},"vehicle_type_id":"4","last_reported":1700867208,"current_range_meters":19600,"station_id":"ce4bhnh2rcd13ifvqgug","pricing_plan_id":"free"},{"bike_id":"a490993e-37f7-483a-a40b-3a1888958a96","system_id":"levelo_inurba_marseille","lat":43.28157,"lon":5.42641,"is_reserved":false,"is_disabled":false,"rental_uris":{"android":"levelo://app?vid=a490993e-37f7-483a-a40b-3a1888958a96","ios":"levelo://app?vid=a490993e-37f7-483a-a40b-3a1888958a96"},"vehicle_type_id":"4","last_reported":1700867208,"current_range_meters":2000,"station_id":"ce4bhnh2rcd13ifvqgug","pricing_plan_id":"free"},{"bike_id":"6181795c-d57f-4dce-a524-f46690bf06cb","system_id":"levelo_inurba_marseille","lat":43.28152,"lon":5.42649,"is_reserved":false,"is_disabled":false,"rental_uris":{"android":"levelo://app?vid=6181795c-d57f-4dce-a524-f46690bf06cb","ios":"levelo://app?vid=6181795c-d57f-4dce-a524-f46690bf06cb"},"vehicle_type_id":"4","last_reported":1700867208,"current_range_meters":28000,"station_id":"ce4bhnh2rcd13ifvqgug","pricing_plan_id":"free"},{"bike_id":"f154e957-88bd-4034-90de-05374419501a","system_id":"levelo_inurba_marseille","lat":43.281548,"lon":5.42643,"is_reserved":false,"is_disabled":false,"rental_uris":{"android":"levelo://app?vid=f154e957-88bd-4034-90de-05374419501a","ios":"levelo://app?vid=f154e957-88bd-4034-90de-05374419501a"},"vehicle_type_id":"4","last_reported":1700867208,"current_range_meters":28000,"station_id":"ce4bhnh2rcd13ifvqgug","pricing_plan_id":"free"},{"bike_id":"24f1bf1f-5268-45e6-a816-869a92bcc51d","system_id":"levelo_inurba_marseille","lat":43.275028,"lon":5.424534,"is_reserved":false,"is_disabled":false,"rental_uris":{"android":"levelo://app?vid=24f1bf1f-5268-45e6-a816-869a92bcc51d","ios":"levelo://app?vid=24f1bf1f-5268-45e6-a816-869a92bcc51d"},"vehicle_type_id":"4","last_reported":1700867208,"current_range_meters":28800,"station_id":"ce4bhn92rcd13ifvqgrg","pricing_plan_id":"free"},{"bike_id":"ff385c11-2b7e-45df-b8ce-aac89ab149ad","system_id":"levelo_inurba_marseille","lat":43.275028,"lon":5.424534,"is_reserved":false,"is_disabled":false,"rental_uris":{"android":"levelo://app?vid=ff385c11-2b7e-45df-b8ce-aac89ab149ad","ios":"levelo://app?vid=ff385c11-2b7e-45df-b8ce-aac89ab149ad"},"vehicle_type_id":"4","last_reported":1700867208,"current_range_meters":31200,"station_id":"ce4bhn92rcd13ifvqgrg","pricing_plan_id":"free"},{"bike_id":"c85f7616-3a9e-47a4-ae16-28a03e51ab4f","system_id":"levelo_inurba_marseille","lat":43.28922,"lon":5.4388,"is_reserved":false,"is_disabled":false,"rental_uris":{"android":"levelo://app?vid=c85f7616-3a9e-47a4-ae16-28a03e51ab4f","ios":"levelo://app?vid=c85f7616-3a9e-47a4-ae16-28a03e51ab4f"},"vehicle_type_id":"4","last_reported":1700867208,"current_range_meters":1200,"station_id":"","pricing_plan_id":"free"},{"bike_id":"aacee138-95eb-4dc4-8c3b-28f2bee62089","system_id":"levelo_inurba_marseille","lat":43.240623,"lon":5.377642,"is_reserved":false,"is_disabled":false,"rental_uris":{"android":"levelo://app?vid=aacee138-95eb-4dc4-8c3b-28f2bee62089","ios":"levelo://app?vid=aacee138-95eb-4dc4-8c3b-28f2bee62089"},"vehicle_type_id":"4","last_reported":1700867208,"current_range_meters":20000,"station_id":"ce4bhnp2rcd13ifvqgvg","pricing_plan_id":"free"},{"bike_id":"0c183117-f8d1-45f2-b83d-553404d60b09","system_id":"levelo_inurba_marseille","lat":43.258224,"lon":5.394369,"is_reserved":false,"is_disabled":false,"rental_uris":{"android":"levelo://app?vid=0c183117-f8d1-45f2-b83d-553404d60b09","ios":"levelo://app?vid=0c183117-f8d1-45f2-b83d-553404d60b09"},"vehicle_type_id":"4","last_reported":1700867208,"current_range_meters":14000,"station_id":"ce4bhip2rcd13ifvqft0","pricing_plan_id":"free"},{"bike_id":"ad657e31-d5a7-459b-a7ef-89532e280c6c","system_id":"levelo_inurba_marseille","lat":43.27076,"lon":5.42285,"is_reserved":false,"is_disabled":false,"rental_uris":{"android":"levelo://app?vid=ad657e31-d5a7-459b-a7ef-89532e280c6c","ios":"levelo://app?vid=ad657e31-d5a7-459b-a7ef-89532e280c6c"},"vehicle_type_id":"4","last_reported":1700867208,"current_range_meters":30000,"station_id":"ce4bhk92rcd13ifvqgb0","pricing_plan_id":"free"},