{"last_updated":1704132550,"ttl":30,"version":"2.2","data":{"bikes":[{"bike_id":"19681d20-0e94-4d95-bd6e-75843e212133","system_id":"levelo_inurba_marseille","lat":43.313391,"lon":5.36706,"is_reserved":false,"is_disabled":false,"rental_uris":{"android":"levelo://app?vid=19681d20-0e94-4d95-bd6e-75843e212133","ios":"levelo://app?vid=19681d20-0e94-4d95-bd6e-75843e212133"},"vehicle_type_id":"4","last_reported":1704132550,"current_range_meters":28800,"station_id":"ce4bgr92rcd13ifvqc6g","pricing_plan_id":"free"},{"bike_id":"b226a9d7-249c-4ff2-8f78-9fcfa39e8e65","system_id":"levelo_inurba_marseille","lat":43.309076,"lon":5.368465,"is_reserved":false,"is_disabled":false,"rental_uris":{"android":"levelo://app?vid=b226a9d7-249c-4ff2-8f78-9fcfa39e8e65","ios":"levelo://app?vid=b226a9d7-249c-4ff2-8f78-9fcfa39e8e65"},"vehicle_type_id":"4","last_reported":1704132550,"current_range_meters":21200,"station_id":"ce4bgn92rcd13ifvqbvg","pricing_plan_id":"free"},{"bike_id":"99ef63d1-cff9-4641-8f49-cc0bc0bd124a","system_id":"levelo_inurba_marseille","lat":43.309076,"lon":5.368465,"is_reserved":false,"is_disabled":false,"rental_uris":{"android":"levelo://app?vid=99ef63d1-cff9-4641-8f49-cc0bc0bd124a","ios":"levelo://app?vid=99ef63d1-cff9-4641-8f49-cc0bc0bd124a"},"vehicle_type_id":"4","last_reported":1704132550,"current_range_meters":26400,"station_id":"ce4bgn92rcd13ifvqbvg","pricing_plan_id":"free"},{"bike_id":"6ae0a7d8-a3f5-4b5e-9c31-1b0d0a660a33","system_id":"levelo_inurba_marseille","lat":43.314811,"lon":5.373103,"is_reserved":false,"is_disabled":false,"rental_uris":{"android":"levelo://app?vid=6ae0a7d8-a3f5-4b5e-9c31-1b0d0a660a33","ios":"levelo://app?vid=6ae0a7d8-a3f5-4b5e-9c31-1b0d0a660a33"},"vehicle_type_id":"4","last_reported":1704132550,"current_range_meters":7200,"station_id":"ce4bgt12rcd13ifvqcd0","pricing_plan_id":"free"},{"bike_id":"169fc797-5a0f-44a1-9c51-501bf889c536","system_id":"levelo_inurba_marseille","lat":43.314811,"lon":5.373103,"is_reserved":false,"is_disabled":false,"rental_uris":{"android":"levelo://app?vid=169fc797-5a0f-44a1-9c51-501bf889c536","ios":"levelo://app?vid=169fc797-5a0f-44a1-9c51-501bf889c536"},"vehicle_type_id":"4","last_reported":1704132550,"current_range_meters":18000,"station_id":"ce4bgt12rcd13ifvqcd0","pricing_plan_id":"free"},{"bike_id":"1ca9373c-bbff-4b68-be9c-ccfd36d08db3","system_id":"levelo_inurba_marseille","lat":43.314811,"lon":5.373103,"is_reserved":false,"is_disabled":false,"rental_uris":{"android":"levelo://app?vid=1ca9373c-bbff-4b68-be9c-ccfd36d08db3","ios":"levelo://app?vid=1ca9373c-bbff-4b68-be9c-ccfd36d08db3"},"vehicle_type_id":"4","last_reported":1704132550,"current_range_meters":19600,"station_id":"ce4bgt12rcd13ifvqcd0","pricing_plan_id":"free"},{"bike_id":"d2478441-3bae-4773-acbb-e3e3073679c0","system_id":"levelo_inurba_marseille","lat":43.314811,"lon":5.373103,"is_reserved":false,"is_disabled":false,"rental_uris":{"android":"levelo://app?vid=d2478441-3bae-4773-acbb-e3e3073679c0","ios":"levelo://app?vid=d2478441-3bae-4773-acbb-e3e3073679c0"},"vehicle_type_id":"4","last_reported":1704132550,"current_range_meters":25200,"station_id":"ce4bgt12rcd13ifvqcd0","pricing_plan_id":"free"},{"bike_id":"dd3dd4fa-31ae-4ea0-a7b9-40dd880e3397","system_id":"levelo_inurba_marseille","lat":43.314811,"lon":5.373104,"is_reserved":false,"is_disabled":false,"rental_uris":{"android":"levelo://app?vid=dd3dd4fa-31ae-4ea0-a7b9-40dd880e3397","ios":"levelo://app?vid=dd3dd4fa-31ae-4ea0-a7b9-40dd880e3397"},"vehicle_type_id":"4","last_reported":1704132550,"current_range_meters":23200,"station_id":"ce4bgt12rcd13ifvqcd0","pricing_plan_id":"free"},{"bike_id":"81785462-05dc-4c13-900e-6273fc28e12b","system_id":"levelo_inurba_marseille","lat":43.314811,"lon":5.373103,"is_reserved":false,"is_disabled":false,"rental_uris":{"android":"levelo://app?vid=81785462-05dc-4c13-900e-6273fc28e12b","ios":"levelo://app?vid=81785462-05dc-4c13-900e-6273fc28e12b"},"vehicle_type_id":"4","last_reported":1704132550,"current_range_meters":19600,"station_id":"ce4bgt12rcd13ifvqcd0","pricing_plan_id":"free"},{"bike_id":"e06a1df2-05d7-4bce-9885-790b045888d7","system_id":"levelo_inurba_marseille","lat":43.309039,"lon":5.371797,"is_reserved":false,"is_disabled":false,"rental_uris":{"android":"levelo://app?vid=e06a1df2-05d7-4bce-9885-790b045888d7","ios":"levelo://app?vid=e06a1df2-05d7-4bce-9885-790b045888d7"},"vehicle_type_id":"4","last_reported":1704132550,"current_range_meters":22000,"station_id":"ce4bguh2rcd13ifvqckg","pricing_plan_id":"free"},{"bike_id":"f9a44874-2be5-4480-af72-adfea3c0b117","system_id":"levelo_inurba_marseille","lat":43.309039,"lon":5.371797,"is_reserved":false,"is_disabled":false,"rental_uris":{"android":"levelo://app?vid=f9a44874-2be5-4480-af72-adfea3c0b117","ios":"levelo://app?vid=f9a44874-2be5-4480-af72-adfea3c0b117"},"vehicle_type_id":"4","last_reported":1704132550,"current_range_meters":20000,"station_id":"ce4bguh2rcd13ifvqckg","pricing_plan_id":"free"},{"bike_id":"29163bf5-7041-4be8-9cb4-3efffa43c0d8","system_id":"levelo_inurba_marseille","lat":43.305368,"lon":5.367343,"is_reserved":false,"is_disabled":false,"rental_uris":{"android":"levelo://app?vid=29163bf5-7041-4be8-9cb4-3efffa43c0d8","ios":"levelo://app?vid=29163bf5-7041-4be8-9cb4-3efffa43c0d8"},"vehicle_type_id":"4","last_reported":1704132550,"current_range_meters":12000,"station_id":"ce4bgrp2rcd13ifvqc9g","pricing_plan_id":"free"},{"bike_id":"76717232-fb13-4f9b-a173-ce0f689ccd20","system_id":"levelo_inurba_marseille","lat":43.305706,"lon":5.365654,"is_reserved":false,"is_disabled":false,"rental_uris":{"android":"levelo://app?vid=76717232-fb13-4f9b-a173-ce0f689ccd20","ios":"levelo://app?vid=76717232-fb13-4f9b-a173-ce0f689ccd20"},"vehicle_type_id":"4","last_reported":1704132550,"current_range_meters":26800,"station_id":"ce4bgs12rcd13ifvqcag","pricing_plan_id":"free"},{"bike_id":"0d79ae00-be73-4cf1-ad97-e32a3f832f81","system_id":"levelo_inurba_marseille","lat":43.305714,"lon":5.365633,"is_reserved":false,"is_disabled":false,"rental_uris":{"android":"levelo://app?vid=0d79ae00-be73-4cf1-ad97-e32a3f832f81","ios":"levelo://app?vid=0d79ae00-be73-4cf1-ad97-e32a3f832f81"},"vehicle_type_id":"4","last_reported":1704132550,"current_range_meters":15200,"station_id":"ce4bgs12rcd13ifvqcag","pricing_plan_id":"free"},{"bike_id":"6cc10ba3-514e-4b87-b859-081a0f2df958","system_id":"levelo_inurba_marseille","lat":43.305706,"lon":5.365654,"is_reserved":false,"is_disabled":false,"rental_uris":{"android":"levelo://app?vid=6cc10ba3-514e-4b87-b859-081a0f2df958","ios":"levelo://app?vid=6cc10ba3-514e-4b87-b859-081a0f2df958"},"vehicle_type_id":"4","last_reported":1704132550,"current_range_meters":22400,"station_id":"ce4bgs12rcd13ifvqcag","pricing_plan_id":"free"},{"bike_id":"60c376d0-c55b-4ea4-8624-e371f96b9daa","system_id":"levelo_inurba_marseille","lat":43.305989,"lon":5.37225,"is_reserved":false,"is_disabled":false,"rental_uris":{"android":"levelo://app?vid=60c376d0-c55b-4ea4-8624-e371f96b9daa","ios":"levelo://app?vid=60c376d0-c55b-4ea4-8624-e371f96b9daa"},"vehicle_type_id":"4","last_reported":1704132550,"current_range_meters":12800,"station_id":"ce4bgqh2rcd13ifvqc4g","pricing_plan_id":"free"},{"bike_id":"623a6a78-c200-4fe8-ac24-d06b87324fd5","system_id":"levelo_inurba_marseille","lat":43.305989,"lon":5.37225,"is_reserved":false,"is_disabled":false,"rental_uris":{"android":"levelo://app?vid=623a6a78-c200-4fe8-ac24-d06b87324fd5","ios":"levelo://app?vid=623a6a78-c200-4fe8-ac24-d06b87324fd5"},"vehicle_type_id":"4","last_reported":1704132550,"current_range_meters":12400,"station_id":"ce4bgqh2rcd13ifvqc4g","pricing_plan_id":"free"},{"bike_id":"5e9d6c04-02a2-41fe-a736-a4a8d77eb5e8","system_id":"levelo_inurba_marseille","lat":43.305989,"lon":5.37225,"is_reserved":false,"is_disabled":false,"rental_uris":{"android":"levelo://app?vid=5e9d6c04-02a2-41fe-a736-a4a8d77eb5e8","ios":"levelo://app?vid=5e9d6c04-02a2-41fe-a736-a4a8d77eb5e8"},"vehicle_type_id":"4","last_reported":1704132550,"current_range_meters":21200,"station_id":"ce4bgqh2rcd13ifvqc4g","pricing_plan_id":"free"},{"bike_id":"b35fe240-2111-4d5c-bfd8-1e58e4ac8c1a","system_id":"levelo_inurba_marseille","lat":43.305989,"lon":5.37225,"is_reserved":false,"is_disabled":false,"rental_uris":{"android":"levelo://app?vid=b35fe240-2111-4d5c-bfd8-1e58e4ac8c1a","ios":"levelo://app?vid=b35fe240-2111-4d5c-bfd8-1e58e4ac8c1a"},"vehicle_type_id":"4","last_reported":1704132550,"current_range_meters":9200,"station_id":"ce4bgqh2rcd13ifvqc4g","pricing_plan_id":"free"},{"bike_id":"d0d447e3-623b-4c15-8476-0e52d56a5f9f","system_id":"levelo_inurba_marseille","lat":43.305989,"lon":5.37225,"is_reserved":false,"is_disabled":false,"rental_uris":{"android":"levelo://app?vid=d0d447e3-623b-4c15-8476-0e52d56a5f9f","ios":"levelo://app?vid=d0d447e3-623b-4c15-8476-0e52d56a5f9f"},"vehicle_type_id":"4","last_reported":1704132550,"current_range_meters":12400,"station_id":"ce4bgqh2rcd13ifvqc4g","pricing_plan_id":"free"},{"bike_id":"80bbbf45-e829-4716-ba28-2e52ed9b9596","system_id":"levelo_inurba_marseille","lat":43.311125,"lon":5.377624,"is_reserved":false,"is_disabled":false,"rental_uris":{"android":"levelo://app?vid=80bbbf45-e829-4716-ba28-2e52ed9b9596","ios":"levelo://app?vid=80bbbf45-e829-4716-ba28-2e52ed9b9596"},"vehicle_type_id":"4","last_reported":1704132550,"current_range_meters":22800,"station_id":"ce4bgt92rcd13ifvqcg0","pricing_plan_id":"free"},{"bike_id":"712ab7a8-cda9-4fae-8035-a40002f9e319","system_id":"levelo_inurba_marseille","lat":43.311125,"lon":5.377624,"is_reserved":false,"is_disabled":false,"rental_uris":{"android":"levelo://app?vid=712ab7a8-cda9-4fae-8035-a40002f9e319","ios":"levelo://app?vid=712ab7a8-cda9-4fae-8035-a40002f9e319"},"vehicle_type_id":"4","last_reported":1704132550,"current_range_meters":3600,"station_id":"ce4bgt92rcd13ifvqcg0","pricing_plan_id":"free"},{"bike_id":"3d62a546-a452-4646-b723-c67fcdbf0055","system_id":"levelo_inurba_marseille","lat":43.311131,"lon":5.377651,"is_reserved":false,"is_disabled":false,"rental_uris":{"android":"levelo://app?vid=3d62a546-a452-4646-b723-c67fcdbf0055","ios":"levelo://app?vid=3d62a546-a452-4646-b723-c67fcdbf0055"},"vehicle_type_id":"4","last_reported":1704132550,"current_range_meters":22400,"station_id":"ce4bgt92rcd13ifvqcg0","pricing_plan_id":"free"},{"bike_id":"28d9f3f2-9660-494c-836a-13a09c060fab","system_id":"levelo_inurba_marseille","lat":43.29602,"lon":5.381084,"is_reserved":false,"is_disabled":false,"rental_uris":{"android":"levelo://app?vid=28d9f3f2-9660-494c-836a-13a09c060fab","ios":"levelo://app?vid=28d9f3f2-9660-494c-836a-13a09c060fab"},"vehicle_type_id":"4","last_reported":1704132550,"current_range_meters":800,"station_id":"ce4bgl12rcd13ifvqbo0","pricing_plan_id":"free"},{"bike_id":"25af9e1c-886c-4f64-92f2-5ca68e46ae4a","system_id":"levelo_inurba_marseille","lat":43.31722,"lon":5.37668,"is_reserved":false,"is_disabled":false,"rental_uris":{"android":"levelo://app?vid=25af9e1c-886c-4f64-92f2-5ca68e46ae4a","ios":"levelo://app?vid=25af9e1c-886c-4f64-92f2-5ca68e46ae4a"},"vehicle_type_id":"4","last_reported":1704132550,"current_range_meters":17600,"station_id":"","pricing_plan_id":"free"},{"bike_id":"6d04b8d4-fa05-4052-b454-7af4f43d2013","system_id":"levelo_inurba_marseille","lat":43.307945,"lon":5.376487,"is_reserved":false,"is_disabled":false,"rental_uris":{"android":"levelo://app?vid=6d04b8d4-fa05-4052-b454-7af4f43d2013","ios":"levelo://app?vid=6d04b8d4-fa05-4052-b454-7af4f43d2013"},"vehicle_type_id":"4","last_reported":1704132550,"current_range_meters":10800,"station_id":"ce4bgv92rcd13ifvqcq0","pricing_plan_id":"free"},{"bike_id":"f9ae486b-b863-49d9-a516-4fbb2113a3cc","system_id":"levelo_inurba_marseille","lat":43.31648,"lon":5.37786,"is_reserved":false,"is_disabled":false,"rental_uris":{"android":"levelo://app?vid=f9ae486b-b863-49d9-a516-4fbb2113a3cc","ios":"levelo://app?vid=f9ae486b-b863-49d9-a516-4fbb2113a3cc"},"vehicle_type_id":"4","last_reported":1704132550,"current_range_meters":18000,"station_id":"","pricing_plan_id":"free"},{"bike_id":"0fd8d3d2-81cb-4827-b64f-fbf078d36928","system_id":"levelo_inurba_marseille","lat":43.303046,"lon":5.368981,"is_reserved":false,"is_disabled":false,"rental_uris":{"android":"levelo://app?vid=0fd8d3d2-81cb-4827-b64f-fbf078d36928","ios":"levelo://app?vid=0fd8d3d2-81cb-4827-b64f-fbf078d36928"},"vehicle_type_id":"4","last_reported":1704132550,"current_range_meters":26000,"station_id":"ce4bgqh2rcd13ifvqc5g","pricing_plan_id":"free"},{"bike_id":"16503b00-600c-42e4-acb0-40cca7f9eb4f","system_id":"levelo_inurba_marseille","lat":43.30186,"lon":5.36613,"is_reserved":false,"is_disabled":false,"rental_uris":{"android":"levelo://app?vid=16503b00-600c-42e4-acb0-40cca7f9eb4f","ios":"levelo://app?vid=16503b00-600c-42e4-acb0-40cca7f9eb4f"},"vehicle_type_id":"4","last_reported":1704132550,"current_range_meters":30800,"station_id":"ce4bgrh2rcd13ifvqc8g","pricing_plan_id":"free"},{"bike_id":"ae594c05-2521-4b02-9690-dc87f2408f5d","system_id":"levelo_inurba_marseille","lat":43.308012,"lon":5.381511,"is_reserved":false,"is_disabled":false,"rental_uris":{"android":"levelo://app?vid=ae594c05-2521-4b02-9690-dc87f2408f5d","ios":"levelo://app?vid=ae594c05-2521-4b02-9690-dc87f2408f5d"},"vehicle_type_id":"4","last_reported":1704132550,"current_range_meters":0,"station_id":"ce4bgt12rcd13ifvqce0","pricing_plan_id":"free"},{"bike_id":"c6585ba9-f0bd-4d0a-85a0-85b2c63604f1","system_id":"levelo_inurba_marseille","lat":43.308012,"lon":5.381511,"is_reserved":false,"is_disabled":false,"rental_uris":{"android":"levelo://app?vid=c6585ba9-f0bd-4d0a-85a0-85b2c63604f1","ios":"levelo://app?vid=c6585ba9-f0bd-4d0a-85a0-85b2c63604f1"},"vehicle_type_id":"4","last_reported":1704132550,"current_range_meters":30000,"station_id":"ce4bgt12rcd13ifvqce0","pricing_plan_id":"free"},{"bike_id":"3be55d39-47b1-4d16-84cb-2f0080483337","system_id":"levelo_inurba_marseille","lat":43.308012,"lon":5.381511,"is_reserved":false,"is_disabled":false,"rental_uris":{"android":"levelo://app?vid=3be55d39-47b1-4d16-84cb-2f0080483337","ios":"levelo://app?vid=3be55d39-47b1-4d16-84cb-2f0080483337"},"vehicle_type_id":"4","last_reported":1704132550,"current_range_meters":24800,"station_id":"ce4bgt12rcd13ifvqce0","pricing_plan_id":"free"},{"bike_id":"5377074b-30e2-4d67-825b-9deb3b1dbed3","system_id":"levelo_inurba_marseille","lat":43.304708,"lon":5.379039,"is_reserved":false,"is_disabled":false,"rental_uris":{"android":"levelo://app?vid=5377074b-30e2-4d67-825b-9deb3b1dbed3","ios":"levelo://app?vid=5377074b-30e2-4d67-825b-9deb3b1dbed3"},"vehicle_type_id":"4","last_reported":1704132550,"current_range_meters":14000,"station_id":"","pricing_plan_id":"free"},{"bike_id":"12cc3e03-e48b-4f30-bfc9-f1b37a6da005","system_id":"levelo_inurba_marseille","lat":43.302811,"lon":5.376984,"is_reserved":false,"is_disabled":false,"rental_uris":{"android":"levelo://app?vid=12cc3e03-e48b-4f30-bfc9-f1b37a6da005","ios":"levelo://app?vid=12cc3e03-e48b-4f30-bfc9-f1b37a6da005"},"vehicle_type_id":"4","last_reported":1704132550,"current_range_meters":30000,"station_id":"ce4bguh2rcd13ifvqcj0","pricing_plan_id":"free"},{"bike_id":"2a6c552b-c8f3-404a-aceb-36f8473ac999","system_id":"levelo_inurba_marseille","lat":43.28573,"lon":5.394992,"is_reserved":false,"is_disabled":false,"rental_uris":{"android":"levelo://app?vid=2a6c552b-c8f3-404a-aceb-36f8473ac999","ios":"levelo://app?vid=2a6c552b-c8f3-404a-aceb-36f8473ac999"},"vehicle_type_id":"4","last_reported":1704132550,"current_range_meters":31600,"station_id":"ce4bh292rcd13ifvqdg0","pricing_plan_id":"free"},{"bike_id":"c167d754-deda-4459-8085-b13c1a544b19","system_id":"levelo_inurba_marseille","lat":43.313668,"lon":5.384937,"is_reserved":false,"is_disabled":false,"rental_uris":{"android":"levelo://app?vid=c167d754-deda-4459-8085-b13c1a544b19","ios":"levelo://app?vid=c167d754-deda-4459-8085-b13c1a544b19"},"vehicle_type_id":"4","last_reported":1704132550,"current_range_meters":12800,"station_id":"ce4bgt92rcd13ifvqcf0","pricing_plan_id":"free"},{"bike_id":"1dbc8a77-5d10-47e0-94e9-be1d311ed37a","system_id":"levelo_inurba_marseille","lat":43.313571,"lon":5.384829,"is_reserved":false,"is_disabled":false,"rental_uris":{"android":"levelo://app?vid=1dbc8a77-5d10-47e0-94e9-be1d311ed37a","ios":"levelo://app?vid=1dbc8a77-5d10-47e0-94e9-be1d311ed37a"},"vehicle_type_id":"4","last_reported":1704132550,"current_range_meters":25200,"station_id":"ce4bgt92rcd13ifvqcf0","pricing_plan_id":"free"},{"bike_id":"f74aed6e-0f81-4784-b1e2-b9611d35793a","system_id":"levelo_inurba_marseille","lat":43.299724,"lon":5.371829,"is_reserved":false,"is_disabled":false,"rental_uris":{"android":"levelo://app?vid=f74aed6e-0f81-4784-b1e2-b9611d35793a","ios":"levelo://app?vid=f74aed6e-0f81-4784-b1e2-b9611d35793a"},"vehicle_type_id":"4","last_reported":1704132550,"current_range_meters":28400,"station_id":"ce4bgr92rcd13ifvqc7g","pricing_plan_id":"free"},{"bike_id":"5ef22bc3-e59c-4ccf-b18c-2ffa7445c805","system_id":"levelo_inurba_marseille","lat":43.299222,"lon":5.365554,"is_reserved":false,"is_disabled":false,"rental_uris":{"android":"levelo://app?vid=5ef22bc3-e59c-4ccf-b18c-2ffa7445c805","ios":"levelo://app?vid=5ef22bc3-e59c-4ccf-b18c-2ffa7445c805"},"vehicle_type_id":"4","last_reported":1704132550,"current_range_meters":29600,"station_id":"ce4bgm92rcd13ifvqbr0","pricing_plan_id":"free"},{"bike_id":"d87be16b-7b3c-476f-a204-5e153e806fd1","system_id":"levelo_inurba_marseille","lat":43.311722,"lon":5.387247,"is_reserved":false,"is_disabled":false,"rental_uris":{"android":"levelo://app?vid=d87be16b-7b3c-476f-a204-5e153e806fd1","ios":"levelo://app?vid=d87be16b-7b3c-476f-a204-5e153e806fd1"},"vehicle_type_id":"4","last_reported":1704132550,"current_range_meters":23600,"station_id":"ce4bgv12rcd13ifvqcp0","pricing_plan_id":"free"},{"bike_id":"4afdb9a6-5856-4054-8f59-67e032b87f08","system_id":"levelo_inurba_marseille","lat":43.311722,"lon":5.387247,"is_reserved":false,"is_disabled":false,"rental_uris":{"android":"levelo://app?vid=4afdb9a6-5856-4054-8f59-67e032b87f08","ios":"levelo://app?vid=4afdb9a6-5856-4054-8f59-67e032b87f08"},"vehicle_type_id":"4","last_reported":1704132550,"current_range_meters":28800,"station_id":"ce4bgv12rcd13ifvqcp0","pricing_plan_id":"free"},{"bike_id":"458e7324-6015-431d-9ab0-45eccfc0a662","system_id":"levelo_inurba_marseille","lat":43.299243,"lon":5.374807,"is_reserved":false,"is_disabled":false,"rental_uris":{"android":"levelo://app?vid=458e7324-6015-431d-9ab0-45eccfc0a662","ios":"levelo://app?vid=458e7324-6015-431d-9ab0-45eccfc0a662"},"vehicle_type_id":"4","last_reported":1704132550,"current_range_meters":19600,"station_id":"ce4bgjh2rcd13ifvqbg0","pricing_plan_id":"free"},{"bike_id":"b06e8231-c0ff-4fd7-bb0a-ea3a523e7ccb","system_id":"levelo_inurba_marseille","lat":43.299243,"lon":5.37481,"is_reserved":false,"is_disabled":false,"rental_uris":{"android":"levelo://app?vid=b06e8231-c0ff-4fd7-bb0a-ea3a523e7ccb","ios":"levelo://app?vid=b06e8231-c0ff-4fd7-bb0a-ea3a523e7ccb"},"vehicle_type_id":"4","last_reported":1704132550,"current_range_meters":20800,"station_id":"ce4bgjh2rcd13ifvqbg0","pricing_plan_id":"free"},{"bike_id":"3406ac08-144e-419c-8a8c-9c89910b5b78","system_id":"levelo_inurba_marseille","lat":43.327793,"lon":5.366873,"is_reserved":false,"is_disabled":false,"rental_uris":{"android":"levelo://app?vid=3406ac08-144e-419c-8a8c-9c89910b5b78","ios":"levelo://app?vid=3406ac08-144e-419c-8a8c-9c89910b5b78"},"vehicle_type_id":"4","last_reported":1704132550,"current_range_meters":24000,"station_id":"","pricing_plan_id":"free"},{"bike_id":"3c9bf24c-b538-4eae-99f5-9903fe75c815","system_id":"levelo_inurba_marseille","lat":43.32285,"lon":5.38255,"is_reserved":false,"is_disabled":false,"rental_uris":{"android":"levelo://app?vid=3c9bf24c-b538-4eae-99f5-9903fe75c815","ios":"levelo://app?vid=3c9bf24c-b538-4eae-99f5-9903fe75c815"},"vehicle_type_id":"4","last_reported":1704132550,"current_range_meters":6800,"station_id":"ce4bhr12rcd13ifvqhqg","pricing_plan_id":"free"},{"bike_id":"ea7074d7-b7c9-4941-82c2-dff391bae9cb","system_id":"levelo_inurba_marseille","lat":43.327997,"lon":5.366823,"is_reserved":false,"is_disabled":false,"rental_uris":{"android":"levelo://app?vid=ea7074d7-b7c9-4941-82c2-dff391bae9cb","ios":"levelo://app?vid=ea7074d7-b7c9-4941-82c2-dff391bae9cb"},"vehicle_type_id":"4","last_reported":1704132550,"current_range_meters":22000,"station_id":"ce4bhs92rcd13ifvqi0g","pricing_plan_id":"free"},{"bike_id":"8233d320-3015-483d-9317-9f5ea8045c87","system_id":"levelo_inurba_marseille","lat":43.3283,"lon":5.36692,"is_reserved":false,"is_disabled":false,"rental_uris":{"android":"levelo://app?vid=8233d320-3015-483d-9317-9f5ea8045c87","ios":"levelo://app?vid=8233d320-3015-483d-9317-9f5ea8045c87"},"vehicle_type_id":"4","last_reported":1704132550,"current_range_meters":6000,"station_id":"","pricing_plan_id":"free"},{"bike_id":"777e7b6f-5840-4b9c-afcf-288933a9c0d9","system_id":"levelo_inurba_marseille","lat":43.328371,"lon":5.366909,"is_reserved":false,"is_disabled":false,"rental_uris":{"android":"levelo://app?vid=777e7b6f-5840-4b9c-afcf-288933a9c0d9","ios":"levelo://app?vid=777e7b6f-5840-4b9c-afcf-288933a9c0d9"},"vehicle_type_id":"4","last_reported":1704132550,"current_range_meters":23600,"station_id":"ce4bhs92rcd13ifvqi0g","pricing_plan_id":"free"},{"bike_id":"370cccf7-c9ba-46c2-819b-c8e8cacc4c21","system_id":"levelo_inurba_marseille","lat":43.3277,"lon":5.37458,"is_reserved":false,"is_disabled":false,"rental_uris":{"android":"levelo://app?vid=370cccf7-c9ba-46c2-819b-c8e8cacc4c21","ios":"levelo://app?vid=370cccf7-c9ba-46c2-819b-c8e8cacc4c21"},"vehicle_type_id":"4","last_reported":1704132550,"current_range_meters":11600,"station_id":"","pricing_plan_id":"free"},{"bike_id":"50833991-9dc9-4783-84e5-9fa0a822ddd1","system_id":"levelo_inurba_marseille","lat":43.2968,"lon":5.37291,"is_reserved":false,"is_disabled":false,"rental_uris":{"android":"levelo://app?vid=50833991-9dc9-4783-84e5-9fa0a822ddd1","ios":"levelo://app?vid=50833991-9dc9-4783-84e5-9fa0a822ddd1"},"vehicle_type_id":"4","last_reported":1704132550,"current_range_meters":22800,"station_id":"ce4bgk12rcd13ifvqbj0","pricing_plan_id":"free"},{"bike_id":"b8c2e6b2-afdf-484e-9fc4-357b6e171958","system_id":"levelo_inurba_marseille","lat":43.29602,"lon":5.36779,"is_reserved":false,"is_disabled":false,"rental_uris":{"android":"levelo://app?vid=b8c2e6b2-afdf-484e-9fc4-357b6e171958","ios":"levelo://app?vid=b8c2e6b2-afdf-484e-9fc4-357b6e171958"},"vehicle_type_id":"4","last_reported":1704132550,"current_range_meters":15600,"station_id":"ce4bgph2rcd13ifvqc2g","pricing_plan_id":"free"},{"bike_id":"aaf81196-0e4e-4b58-8b0b-f7d17cd21f89","system_id":"levelo_inurba_marseille","lat":43.29573,"lon":5.367355,"is_reserved":false,"is_disabled":false,"rental_uris":{"android":"levelo://app?vid=aaf81196-0e4e-4b58-8b0b-f7d17cd21f89","ios":"levelo://app?vid=aaf81196-0e4e-4b58-8b0b-f7d17cd21f89"},"vehicle_type_id":"4","last_reported":1704132550,"current_range_meters":12000,"station_id":"ce4bgph2rcd13ifvqc2g","pricing_plan_id":"free"},{"bike_id":"7db65d52-3619-4d24-8410-991a37862a5a","system_id":"levelo_inurba_marseille","lat":43.296921,"lon":5.376579,"is_reserved":false,"is_disabled":false,"rental_uris":{"android":"levelo://app?vid=7db65d52-3619-4d24-8410-991a37862a5a","ios":"levelo://app?vid=7db65d52-3619-4d24-8410-991a37862a5a"},"vehicle_type_id":"4","last_reported":1704132550,"current_range_meters":22000,"station_id":"ce4bgkh2rcd13ifvqbl0","pricing_plan_id":"free"},{"bike_id":"2308cc9d-6671-4874-b210-c30b26efc80c","system_id":"levelo_inurba_marseille","lat":43.299028,"lon":5.381509,"is_reserved":false,"is_disabled":false,"rental_uris":{"android":"levelo://app?vid=2308cc9d-6671-4874-b210-c30b26efc80c","ios":"levelo://app?vid=2308cc9d-6671-4874-b210-c30b26efc80c"},"vehicle_type_id":"4","last_reported":1704132550,"current_range_meters":15600,"station_id":"ce4bgj12rcd13ifvqbc0","pricing_plan_id":"free"},{"bike_id":"ea2fabf8-c1d1-4c14-8fc5-d63fa3971b2a","system_id":"levelo_inurba_marseille","lat":43.296935,"lon":5.376544,"is_reserved":false,"is_disabled":false,"rental_uris":{"android":"levelo://app?vid=ea2fabf8-c1d1-4c14-8fc5-d63fa3971b2a","ios":"levelo://app?vid=ea2fabf8-c1d1-4c14-8fc5-d63fa3971b2a"},"vehicle_type_id":"4","last_reported":1704132550,"current_range_meters":8400,"station_id":"ce4bgkh2rcd13ifvqbl0","pricing_plan_id":"free"},{"bike_id":"82fc3d83-93aa-4ce4-bd19-4015815af715","system_id":"levelo_inurba_marseille","lat":43.284534,"lon":5.358662,"is_reserved":false,"is_disabled":false,"rental_uris":{"android":"levelo://app?vid=82fc3d83-93aa-4ce4-bd19-4015815af715","ios":"levelo://app?vid=82fc3d83-93aa-4ce4-bd19-4015815af715"},"vehicle_type_id":"4","last_reported":1704132550,"current_range_meters":16800,"station_id":"ce4bhah2rcd13ifvqei0","pricing_plan_id":"free"},{"bike_id":"77d51744-95e3-4801-b840-1487b949a7ce","system_id":"levelo_inurba_marseille","lat":43.317557,"lon":5.390173,"is_reserved":false,"is_disabled":false,"rental_uris":{"android":"levelo://app?vid=77d51744-95e3-4801-b840-1487b949a7ce","ios":"levelo://app?vid=77d51744-95e3-4801-b840-1487b949a7ce"},"vehicle_type_id":"4","last_reported":1704132550,"current_range_meters":30800,"station_id":"ce4bhqp2rcd13ifvqhng","pricing_plan_id":"free"},{"bike_id":"5eb924fa-c39a-4260-b8ee-d69e93c5f06a","system_id":"levelo_inurba_marseille","lat":43.317557,"lon":5.390173,"is_reserved":false,"is_disabled":false,"rental_uris":{"android":"levelo://app?vid=5eb924fa-c39a-4260-b8ee-d69e93c5f06a","ios":"levelo://app?vid=5eb924fa-c39a-4260-b8ee-d69e93c5f06a"},"vehicle_type_id":"4","last_reported":1704132550,"current_range_meters":27600,"station_id":"ce4bhqp2rcd13ifvqhng","pricing_plan_id":"free"},{"bike_id":"126aa239-c556-468b-a96b-9a5e10e4fb83","system_id":"levelo_inurba_marseille","lat":43.298037,"lon":5.381066,"is_reserved":false,"is_disabled":false,"rental_uris":{"android":"levelo://app?vid=126aa239-c556-468b-a96b-9a5e10e4fb83","ios":"levelo://app?vid=126aa239-c556-468b-a96b-9a5e10e4fb83"},"vehicle_type_id":"4","last_reported":1704132550,"current_range_meters":14400,"station_id":"ce4bgip2rcd13ifvqbb0","pricing_plan_id":"free"},{"bike_id":"9081fc3d-a317-4c29-a45d-6b35203e09d5","system_id":"levelo_inurba_marseille","lat":43.2957,"lon":5.375,"is_reserved":false,"is_disabled":false,"rental_uris":{"android":"levelo://app?vid=9081fc3d-a317-4c29-a45d-6b35203e09d5","ios":"levelo://app?vid=9081fc3d-a317-4c29-a45d-6b35203e09d5"},"vehicle_type_id":"4","last_reported":1704132550,"current_range_meters":24400,"station_id":"ce4bgh92rcd13ifvqb50","pricing_plan_id":"free"},{"bike_id":"1540bc28-18c2-4b5e-bf73-b28ea319bba2","system_id":"levelo_inurba_marseille","lat":43.304274,"lon":5.388873,"is_reserved":false,"is_disabled":false,"rental_uris":{"android":"levelo://app?vid=1540bc28-18c2-4b5e-bf73-b28ea319bba2","ios":"levelo://app?vid=1540bc28-18c2-4b5e-bf73-b28ea319bba2"},"vehicle_type_id":"4","last_reported":1704132550,"current_range_meters":26400,"station_id":"ce4bgk12rcd13ifvqbi0","pricing_plan_id":"free"},{"bike_id":"ae851e8f-5fee-4c35-8c0e-a1ffa5c3c364","system_id":"levelo_inurba_marseille","lat":43.304278,"lon":5.388868,"is_reserved":false,"is_disabled":false,"rental_uris":{"android":"levelo://app?vid=ae851e8f-5fee-4c35-8c0e-a1ffa5c3c364","ios":"levelo://app?vid=ae851e8f-5fee-4c35-8c0e-a1ffa5c3c364"},"vehicle_type_id":"4","last_reported":1704132550,"current_range_meters":15200,"station_id":"ce4bgk12rcd13ifvqbi0","pricing_plan_id":"free"},{"bike_id":"71fc34ba-5bc2-4e63-b938-547fb91b9648","system_id":"levelo_inurba_marseille","lat":43.296263,"lon":5.377094,"is_reserved":false,"is_disabled":false,"rental_uris":{"android":"levelo://app?vid=71fc34ba-5bc2-4e63-b938-547fb91b9648","ios":"levelo://app?vid=71fc34ba-5bc2-4e63-b938-547fb91b9648"},"vehicle_type_id":"4","last_reported":1704132550,"current_range_meters":24400,"station_id":"ce4bgi92rcd13ifvqb90","pricing_plan_id":"free"},{"bike_id":"d60802d6-4f47-444a-b234-883690eec05b","system_id":"levelo_inurba_marseille","lat":43.33062,"lon":5.3627,"is_reserved":false,"is_disabled":false,"rental_uris":{"android":"levelo://app?vid=d60802d6-4f47-444a-b234-883690eec05b","ios":"levelo://app?vid=d60802d6-4f47-444a-b234-883690eec05b"},"vehicle_type_id":"4","last_reported":1704132550,"current_range_meters":18800,"station_id":"","pricing_plan_id":"free"},{"bike_id":"1d29da03-a1e4-4647-a7f2-3eb087882685","system_id":"levelo_inurba_marseille","lat":43.296263,"lon":5.377094,"is_reserved":false,"is_disabled":false,"rental_uris":{"android":"levelo://app?vid=1d29da03-a1e4-4647-a7f2-3eb087882685","ios":"levelo://app?vid=1d29da03-a1e4-4647-a7f2-3eb087882685"},"vehicle_type_id":"4","last_reported":1704132550,"current_range_meters":27200,"station_id":"ce4bgi92rcd13ifvqb90","pricing_plan_id":"free"},{"bike_id":"7119845d-00aa-4d9f-be8c-fc97d41f1380","system_id":"levelo_inurba_marseille","lat":43.297594,"lon":5.381134,"is_reserved":false,"is_disabled":false,"rental_uris":{"android":"levelo://app?vid=7119845d-00aa-4d9f-be8c-fc97d41f1380","ios":"levelo://app?vid=7119845d-00aa-4d9f-be8c-fc97d41f1380"},"vehicle_type_id":"4","last_reported":1704132550,"current_range_meters":7200,"station_id":"ce4bgip2rcd13ifvqbb0","pricing_plan_id":"free"},{"bike_id":"7bdd3ff0-8e76-4aaf-8cfa-27cf94f38e8f","system_id":"levelo_inurba_marseille","lat":43.29599,"lon":5.38099,"is_reserved":false,"is_disabled":false,"rental_uris":{"android":"levelo://app?vid=7bdd3ff0-8e76-4aaf-8cfa-27cf94f38e8f","ios":"levelo://app?vid=7bdd3ff0-8e76-4aaf-8cfa-27cf94f38e8f"},"vehicle_type_id":"4","last_reported":1704132550,"current_range_meters":26400,"station_id":"ce4bgl12rcd13ifvqbo0","pricing_plan_id":"free"},{"bike_id":"f41dd448-e50b-48f6-a42d-e8854eb6bbc8","system_id":"levelo_inurba_marseille","lat":43.305994,"lon":5.393687,"is_reserved":false,"is_disabled":false,"rental_uris":{"android":"levelo://app?vid=f41dd448-e50b-48f6-a42d-e8854eb6bbc8","ios":"levelo://app?vid=f41dd448-e50b-48f6-a42d-e8854eb6bbc8"},"vehicle_type_id":"4","last_reported":1704132550,"current_range_meters":24000,"station_id":"ce4bh0p2rcd13ifvqd80","pricing_plan_id":"free"},{"bike_id":"b0cf7ac3-4be5-43fb-a52f-af5f0977eb1e","system_id":"levelo_inurba_marseille","lat":43.2936,"lon":5.37835,"is_reserved":false,"is_disabled":false,"rental_uris":{"android":"levelo://app?vid=b0cf7ac3-4be5-43fb-a52f-af5f0977eb1e","ios":"levelo://app?vid=b0cf7ac3-4be5-43fb-a52f-af5f0977eb1e"},"vehicle_type_id":"4","last_reported":1704132550,"current_range_meters":13200,"station_id":"ce4bgjh2rcd13ifvqbf0","pricing_plan_id":"free"},{"bike_id":"5507c501-4d46-4d8c-ad7d-5de99a1246a2","system_id":"levelo_inurba_marseille","lat":43.302992,"lon":5.392136,"is_reserved":false,"is_disabled":false,"rental_uris":{"android":"levelo://app?vid=5507c501-4d46-4d8c-ad7d-5de99a1246a2","ios":"levelo://app?vid=5507c501-4d46-4d8c-ad7d-5de99a1246a2"},"vehicle_type_id":"4","last_reported":1704132550,"current_range_meters":14400,"station_id":"ce4bgkh2rcd13ifvqbk0","pricing_plan_id":"free"},{"bike_id":"260d3a4d-cb68-4070-9c6b-10bdf31b74ff","system_id":"levelo_inurba_marseille","lat":43.2936,"lon":5.37835,"is_reserved":false,"is_disabled":false,"rental_uris":{"android":"levelo://app?vid=260d3a4d-cb68-4070-9c6b-10bdf31b74ff","ios":"levelo://app?vid=260d3a4d-cb68-4070-9c6b-10bdf31b74ff"},"vehicle_type_id":"4","last_reported":1704132550,"current_range_meters":24000,"station_id":"ce4bgjh2rcd13ifvqbf0","pricing_plan_id":"free"},{"bike_id":"32995bde-fb01-44fb-9c88-cde115101ea8","system_id":"levelo_inurba_marseille","lat":43.30085,"lon":5.390856,"is_reserved":false,"is_disabled":false,"rental_uris":{"android":"levelo://app?vid=32995bde-fb01-44fb-9c88-cde115101ea8","ios":"levelo://app?vid=32995bde-fb01-44fb-9c88-cde115101ea8"},"vehicle_type_id":"4","last_reported":1704132550,"current_range_meters":23200,"station_id":"ce4bh192rcd13ifvqdb0","pricing_plan_id":"free"},{"bike_id":"453c26e7-1304-498d-9fbc-6cb9b1e286e8","system_id":"levelo_inurba_marseille","lat":43.300978,"lon":5.390848,"is_reserved":false,"is_disabled":false,"rental_uris":{"android":"levelo://app?vid=453c26e7-1304-498d-9fbc-6cb9b1e286e8","ios":"levelo://app?vid=453c26e7-1304-498d-9fbc-6cb9b1e286e8"},"vehicle_type_id":"4","last_reported":1704132550,"current_range_meters":23600,"station_id":"","pricing_plan_id":"free"},{"bike_id":"457488a3-6653-4c78-9047-494f44e7e47d","system_id":"levelo_inurba_marseille","lat":43.291671,"lon":5.371575,"is_reserved":false,"is_disabled":false,"rental_uris":{"android":"levelo://app?vid=457488a3-6653-4c78-9047-494f44e7e47d","ios":"levelo://app?vid=457488a3-6653-4c78-9047-494f44e7e47d"},"vehicle_type_id":"4","last_reported":1704132550,"current_range_meters":23600,"station_id":"ce4bha92rcd13ifvqeh0","pricing_plan_id":"free"},{"bike_id":"668942d6-33c2-433a-a4c3-8da233302454","system_id":"levelo_inurba_marseille","lat":43.313291,"lon":5.396838,"is_reserved":false,"is_disabled":false,"rental_uris":{"android":"levelo://app?vid=668942d6-33c2-433a-a4c3-8da233302454","ios":"levelo://app?vid=668942d6-33c2-433a-a4c3-8da233302454"},"vehicle_type_id":"4","last_reported":1704132550,"current_range_meters":30000,"station_id":"ce4bgvp2rcd13ifvqcu0","pricing_plan_id":"free"},{"bike_id":"be8f8d06-2cf9-49dd-9fbf-a20aa1f80808","system_id":"levelo_inurba_marseille","lat":43.313291,"lon":5.396838,"is_reserved":false,"is_disabled":false,"rental_uris":{"android":"levelo://app?vid=be8f8d06-2cf9-49dd-9fbf-a20aa1f80808","ios":"levelo://app?vid=be8f8d06-2cf9-49dd-9fbf-a20aa1f80808"},"vehicle_type_id":"4","last_reported":1704132550,"current_range_meters":21600,"station_id":"ce4bgvp2rcd13ifvqcu0","pricing_plan_id":"free"},{"bike_id":"4c3c48e4-d469-4c17-b378-ec5736c01d1e","system_id":"levelo_inurba_marseille","lat":43.29187,"lon":5.35797,"is_reserved":false,"is_disabled":false,"rental_uris":{"android":"levelo://app?vid=4c3c48e4-d469-4c17-b378-ec5736c01d1e","ios":"levelo://app?vid=4c3c48e4-d469-4c17-b378-ec5736c01d1e"},"vehicle_type_id":"4","last_reported":1704132550,"current_range_meters":30000,"station_id":"ce4bhb12rcd13ifvqel0","pricing_plan_id":"free"},{"bike_id":"0065f6c9-453c-4669-8293-64edd0792569","system_id":"levelo_inurba_marseille","lat":43.29529,"lon":5.385581,"is_reserved":false,"is_disabled":false,"rental_uris":{"android":"levelo://app?vid=0065f6c9-453c-4669-8293-64edd0792569","ios":"levelo://app?vid=0065f6c9-453c-4669-8293-64edd0792569"},"vehicle_type_id":"4","last_reported":1704132550,"current_range_meters":11200,"station_id":"ce4bgih2rcd13ifvqba0","pricing_plan_id":"free"},{"bike_id":"48a1cb65-8e46-4608-83a7-ec144ecde95b","system_id":"levelo_inurba_marseille","lat":43.29529,"lon":5.38546,"is_reserved":false,"is_disabled":false,"rental_uris":{"android":"levelo://app?vid=48a1cb65-8e46-4608-83a7-ec144ecde95b","ios":"levelo://app?vid=48a1cb65-8e46-4608-83a7-ec144ecde95b"},"vehicle_type_id":"4","last_reported":1704132550,"current_range_meters":24800,"station_id":"ce4bgih2rcd13ifvqba0","pricing_plan_id":"free"},{"bike_id":"fa17ed1a-6358-4f5b-b5db-32da6408825b","system_id":"levelo_inurba_marseille","lat":43.29529,"lon":5.385581,"is_reserved":false,"is_disabled":false,"rental_uris":{"android":"levelo://app?vid=fa17ed1a-6358-4f5b-b5db-32da6408825b","ios":"levelo://app?vid=fa17ed1a-6358-4f5b-b5db-32da6408825b"},"vehicle_type_id":"4","last_reported":1704132550,"current_range_meters":7600,"station_id":"ce4bgih2rcd13ifvqba0","pricing_plan_id":"free"},{"bike_id":"49ec858a-d786-44ef-8314-f63c90182734","system_id":"levelo_inurba_marseille","lat":43.29529,"lon":5.385581,"is_reserved":false,"is_disabled":false,"rental_uris":{"android":"levelo://app?vid=49ec858a-d786-44ef-8314-f63c90182734","ios":"levelo://app?vid=49ec858a-d786-44ef-8314-f63c90182734"},"vehicle_type_id":"4","last_reported":1704132550,"current_range_meters":13200,"station_id":"ce4bgih2rcd13ifvqba0","pricing_plan_id":"free"},{"bike_id":"3356c5ce-e806-4753-99d8-91fdf022e13f","system_id":"levelo_inurba_marseille","lat":43.29076,"lon":5.37169,"is_reserved":false,"is_disabled":false,"rental_uris":{"android":"levelo://app?vid=3356c5ce-e806-4753-99d8-91fdf022e13f","ios":"levelo://app?vid=3356c5ce-e806-4753-99d8-91fdf022e13f"},"vehicle_type_id":"4","last_reported":1704132550,"current_range_meters":31200,"station_id":"ce4bh5p2rcd13ifvqe4g","pricing_plan_id":"free"},{"bike_id":"342f6522-907c-4b60-9797-89e40161f6a9","system_id":"levelo_inurba_marseille","lat":43.290618,"lon":5.371658,"is_reserved":false,"is_disabled":false,"rental_uris":{"android":"levelo://app?vid=342f6522-907c-4b60-9797-89e40161f6a9","ios":"levelo://app?vid=342f6522-907c-4b60-9797-89e40161f6a9"},"vehicle_type_id":"4","last_reported":1704132550,"current_range_meters":30000,"station_id":"ce4bh5p2rcd13ifvqe4g","pricing_plan_id":"free"},{"bike_id":"2bb3acb9-bedd-4441-8b19-458215b4bd3d","system_id":"levelo_inurba_marseille","lat":43.290631,"lon":5.359244,"is_reserved":false,"is_disabled":false,"rental_uris":{"android":"levelo://app?vid=2bb3acb9-bedd-4441-8b19-458215b4bd3d","ios":"levelo://app?vid=2bb3acb9-bedd-4441-8b19-458215b4bd3d"},"vehicle_type_id":"4","last_reported":1704132550,"current_range_meters":16000,"station_id":"ce4bha92rcd13ifvqeg0","pricing_plan_id":"free"},{"bike_id":"1cbd73cd-e2a7-46e7-82a1-111a099e4677","system_id":"levelo_inurba_marseille","lat":43.294153,"lon":5.386305,"is_reserved":false,"is_disabled":false,"rental_uris":{"android":"levelo://app?vid=1cbd73cd-e2a7-46e7-82a1-111a099e4677","ios":"levelo://app?vid=1cbd73cd-e2a7-46e7-82a1-111a099e4677"},"vehicle_type_id":"4","last_reported":1704132550,"current_range_meters":12800,"station_id":"ce4bh2h2rcd13ifvqdh0","pricing_plan_id":"free"},{"bike_id":"6e13f63e-5d26-405f-820a-6f3091a32132","system_id":"levelo_inurba_marseille","lat":43.290327,"lon":5.375711,"is_reserved":false,"is_disabled":false,"rental_uris":{"android":"levelo://app?vid=6e13f63e-5d26-405f-820a-6f3091a32132","ios":"levelo://app?vid=6e13f63e-5d26-405f-820a-6f3091a32132"},"vehicle_type_id":"4","last_reported":1704132550,"current_range_meters":16000,"station_id":"ce4bh692rcd13ifvqe90","pricing_plan_id":"free"},{"bike_id":"4182c970-fdee-4777-b3c0-d6b5ffab7399","system_id":"levelo_inurba_marseille","lat":43.289184,"lon":5.366408,"is_reserved":false,"is_disabled":false,"rental_uris":{"android":"levelo://app?vid=4182c970-fdee-4777-b3c0-d6b5ffab7399","ios":"levelo://app?vid=4182c970-fdee-4777-b3c0-d6b5ffab7399"},"vehicle_type_id":"4","last_reported":1704132550,"current_range_meters":30800,"station_id":"ce4bhap2rcd13ifvqek0","pricing_plan_id":"free"},{"bike_id":"5f2349f3-fc15-4dfe-a6ce-bd1833bc36fa","system_id":"levelo_inurba_marseille","lat":43.3043,"lon":5.39748,"is_reserved":false,"is_disabled":false,"rental_uris":{"android":"levelo://app?vid=5f2349f3-fc15-4dfe-a6ce-bd1833bc36fa","ios":"levelo://app?vid=5f2349f3-fc15-4dfe-a6ce-bd1833bc36fa"},"vehicle_type_id":"4","last_reported":1704132550,"current_range_meters":30400,"station_id":"ce4bh092rcd13ifvqd20","pricing_plan_id":"free"},{"bike_id":"d78a5ad9-0a8c-40cf-9eed-6622c2e08aab","system_id":"levelo_inurba_marseille","lat":43.292642,"lon":5.384254,"is_reserved":false,"is_disabled":false,"rental_uris":{"android":"levelo://app?vid=d78a5ad9-0a8c-40cf-9eed-6622c2e08aab","ios":"levelo://app?vid=d78a5ad9-0a8c-40cf-9eed-6622c2e08aab"},"vehicle_type_id":"4","last_reported":1704132550,"current_range_meters":8400,"station_id":"ce4bh692rcd13ifvqea0","pricing_plan_id":"free"},{"bike_id":"218ccb51-d4f6-4c39-953e-a62f1c1758fd","system_id":"levelo_inurba_marseille","lat":43.292644,"lon":5.384257,"is_reserved":false,"is_disabled":false,"rental_uris":{"android":"levelo://app?vid=218ccb51-d4f6-4c39-953e-a62f1c1758fd","ios":"levelo://app?vid=218ccb51-d4f6-4c39-953e-a62f1c1758fd"},"vehicle_type_id":"4","last_reported":1704132550,"current_range_meters":25600,"station_id":"ce4bh692rcd13ifvqea0","pricing_plan_id":"free"},{"bike_id":"541ecede-9d50-4213-8c7f-fbb6d2abb4bb","system_id":"levelo_inurba_marseille","lat":43.290104,"lon":5.356111,"is_reserved":false,"is_disabled":false,"rental_uris":{"android":"levelo://app?vid=541ecede-9d50-4213-8c7f-fbb6d2abb4bb","ios":"levelo://app?vid=541ecede-9d50-4213-8c7f-fbb6d2abb4bb"},"vehicle_type_id":"4","last_reported":1704132550,"current_range_meters":20000,"station_id":"ce4bhb92rcd13ifvqen0","pricing_plan_id":"free"},{"bike_id":"1d8b7cf5-3b69-4713-9abc-3e71287d6022","system_id":"levelo_inurba_marseille","lat":43.29792,"lon":5.39336,"is_reserved":false,"is_disabled":false,"rental_uris":{"android":"levelo://app?vid=1d8b7cf5-3b69-4713-9abc-3e71287d6022","ios":"levelo://app?vid=1d8b7cf5-3b69-4713-9abc-3e71287d6022"},"vehicle_type_id":"4","last_reported":1704132550,"current_range_meters":4800,"station_id":"chh1huq6cuj3fo74tm60","pricing_plan_id":"free"},{"bike_id":"891e99cc-b383-415e-b204-6dddbcb897ea","system_id":"levelo_inurba_marseille","lat":43.290827,"lon":5.381421,"is_reserved":false,"is_disabled":false,"rental_uris":{"android":"levelo://app?vid=891e99cc-b383-415e-b204-6dddbcb897ea","ios":"levelo://app?vid=891e99cc-b383-415e-b204-6dddbcb897ea"},"vehicle_type_id":"4","last_reported":1704132550,"current_range_meters":20800,"station_id":"","pricing_plan_id":"free"},{"bike_id":"f82b6852-21e5-4d47-a3a3-c12a6ecd9435","system_id":"levelo_inurba_marseille","lat":43.29778,"lon":5.39335,"is_reserved":false,"is_disabled":false,"rental_uris":{"android":"levelo://app?vid=f82b6852-21e5-4d47-a3a3-c12a6ecd9435","ios":"levelo://app?vid=f82b6852-21e5-4d47-a3a3-c12a6ecd9435"},"vehicle_type_id":"4","last_reported":1704132550,"current_range_meters":4400,"station_id":"chh1huq6cuj3fo74tm60","pricing_plan_id":"free"},{"bike_id":"7d3f0707-26fc-41d0-8f63-88674e57e19c","system_id":"levelo_inurba_marseille","lat":43.33019,"lon":5.39031,"is_reserved":false,"is_disabled":false,"rental_uris":{"android":"levelo://app?vid=7d3f0707-26fc-41d0-8f63-88674e57e19c","ios":"levelo://app?vid=7d3f0707-26fc-41d0-8f63-88674e57e19c"},"vehicle_type_id":"4","last_reported":1704132550,"current_range_meters":10400,"station_id":"","pricing_plan_id":"free"},{"bike_id":"eb667b8e-7ce7-4622-8233-75ccb306ede3","system_id":"levelo_inurba_marseille","lat":43.29781,"lon":5.39349,"is_reserved":false,"is_disabled":false,"rental_uris":{"android":"levelo://app?vid=eb667b8e-7ce7-4622-8233-75ccb306ede3","ios":"levelo://app?vid=eb667b8e-7ce7-4622-8233-75ccb306ede3"},"vehicle_type_id":"4","last_reported":1704132550,"current_range_meters":12400,"station_id":"chh1huq6cuj3fo74tm60","pricing_plan_id":"free"},{"bike_id":"13d41c86-d361-4b17-ae49-6b5491dd4e85","system_id":"levelo_inurba_marseille","lat":43.330442,"lon":5.389148,"is_reserved":false,"is_disabled":false,"rental_uris":{"android":"levelo://app?vid=13d41c86-d361-4b17-ae49-6b5491dd4e85","ios":"levelo://app?vid=13d41c86-d361-4b17-ae49-6b5491dd4e85"},"vehicle_type_id":"4","last_reported":1704132550,"current_range_meters":28000,"station_id":"ce4bhr92rcd13ifvqhrg","pricing_plan_id":"free"},{"bike_id":"839a8312-0b23-4bb3-b5e9-4007662633c4","system_id":"levelo_inurba_marseille","lat":43.295172,"lon":5.390435,"is_reserved":false,"is_disabled":false,"rental_uris":{"android":"levelo://app?vid=839a8312-0b23-4bb3-b5e9-4007662633c4","ios":"levelo://app?vid=839a8312-0b23-4bb3-b5e9-4007662633c4"},"vehicle_type_id":"4","last_reported":1704132550,"current_range_meters":13200,"station_id":"ce4bh3p2rcd13ifvqdp0","pricing_plan_id":"free"},{"bike_id":"d63f9580-7020-4ac4-9100-0d302e2a78de","system_id":"levelo_inurba_marseille","lat":43.295169,"lon":5.390426,"is_reserved":false,"is_disabled":false,"rental_uris":{"android":"levelo://app?vid=d63f9580-7020-4ac4-9100-0d302e2a78de","ios":"levelo://app?vid=d63f9580-7020-4ac4-9100-0d302e2a78de"},"vehicle_type_id":"4","last_reported":1704132550,"current_range_meters":19600,"station_id":"ce4bh3p2rcd13ifvqdp0","pricing_plan_id":"free"},{"bike_id":"079ab7fc-02aa-4db4-b2de-3efeb4552347","system_id":"levelo_inurba_marseille","lat":43.2901,"lon":5.381269,"is_reserved":false,"is_disabled":false,"rental_uris":{"android":"levelo://app?vid=079ab7fc-02aa-4db4-b2de-3efeb4552347","ios":"levelo://app?vid=079ab7fc-02aa-4db4-b2de-3efeb4552347"},"vehicle_type_id":"4","last_reported":1704132550,"current_range_meters":13600,"station_id":"ce4bh4p2rcd13ifvqe1g","pricing_plan_id":"free"},{"bike_id":"319524fa-a912-4761-98a7-834aa4973289","system_id":"levelo_inurba_marseille","lat":43.2901,"lon":5.381269,"is_reserved":false,"is_disabled":false,"rental_uris":{"android":"levelo://app?vid=319524fa-a912-4761-98a7-834aa4973289","ios":"levelo://app?vid=319524fa-a912-4761-98a7-834aa4973289"},"vehicle_type_id":"4","last_reported":1704132550,"current_range_meters":5200,"station_id":"ce4bh4p2rcd13ifvqe1g","pricing_plan_id":"free"},{"bike_id":"acdd791b-b005-455d-8a15-399fdf59a552","system_id":"levelo_inurba_marseille","lat":43.337419,"lon":5.374721,"is_reserved":false,"is_disabled":false,"rental_uris":{"android":"levelo://app?vid=acdd791b-b005-455d-8a15-399fdf59a552","ios":"levelo://app?vid=acdd791b-b005-455d-8a15-399fdf59a552"},"vehicle_type_id":"4","last_reported":1704132550,"current_range_meters":5600,"station_id":"","pricing_plan_id":"free"},{"bike_id":"41a7d31f-1e0a-4058-8171-d9146d4a8418","system_id":"levelo_inurba_marseille","lat":43.33757,"lon":5.37465,"is_reserved":false,"is_disabled":false,"rental_uris":{"android":"levelo://app?vid=41a7d31f-1e0a-4058-8171-d9146d4a8418","ios":"levelo://app?vid=41a7d31f-1e0a-4058-8171-d9146d4a8418"},"vehicle_type_id":"4","last_reported":1704132550,"current_range_meters":28400,"station_id":"","pricing_plan_id":"free"},{"bike_id":"62216946-9c08-4de9-bf3e-20fcdfcc609e","system_id":"levelo_inurba_marseille","lat":43.306412,"lon":5.401035,"is_reserved":false,"is_disabled":false,"rental_uris":{"android":"levelo://app?vid=62216946-9c08-4de9-bf3e-20fcdfcc609e","ios":"levelo://app?vid=62216946-9c08-4de9-bf3e-20fcdfcc609e"},"vehicle_type_id":"4","last_reported":1704132550,"current_range_meters":28000,"station_id":"ce4bh112rcd13ifvqda0","pricing_plan_id":"free"},{"bike_id":"39fb78ff-e4da-4640-bb03-30ef6de1c6b6","system_id":"levelo_inurba_marseille","lat":43.301117,"lon":5.398795,"is_reserved":false,"is_disabled":false,"rental_uris":{"android":"levelo://app?vid=39fb78ff-e4da-4640-bb03-30ef6de1c6b6","ios":"levelo://app?vid=39fb78ff-e4da-4640-bb03-30ef6de1c6b6"},"vehicle_type_id":"4","last_reported":1704132550,"current_range_meters":24800,"station_id":"ce4bh0h2rcd13ifvqd40","pricing_plan_id":"free"},{"bike_id":"7e9a59ee-058b-4752-9380-1129ce8586dd","system_id":"levelo_inurba_marseille","lat":43.28727,"lon":5.36078,"is_reserved":false,"is_disabled":false,"rental_uris":{"android":"levelo://app?vid=7e9a59ee-058b-4752-9380-1129ce8586dd","ios":"levelo://app?vid=7e9a59ee-058b-4752-9380-1129ce8586dd"},"vehicle_type_id":"4","last_reported":1704132550,"current_range_meters":28000,"station_id":"cki0cbj6b192h4jlfktg","pricing_plan_id":"free"},{"bike_id":"3ee4bf3e-2472-4835-965c-e4e930a1a388","system_id":"levelo_inurba_marseille","lat":43.286961,"lon":5.373785,"is_reserved":false,"is_disabled":false,"rental_uris":{"android":"levelo://app?vid=3ee4bf3e-2472-4835-965c-e4e930a1a388","ios":"levelo://app?vid=3ee4bf3e-2472-4835-965c-e4e930a1a388"},"vehicle_type_id":"4","last_reported":1704132550,"current_range_meters":13600,"station_id":"ce4bh3p2rcd13ifvqdq0","pricing_plan_id":"free"},{"bike_id":"8bc1d976-7c72-432c-95f9-eb72c6c27bbf","system_id":"levelo_inurba_marseille","lat":43.298681,"lon":5.397225,"is_reserved":false,"is_disabled":false,"rental_uris":{"android":"levelo://app?vid=8bc1d976-7c72-432c-95f9-eb72c6c27bbf","ios":"levelo://app?vid=8bc1d976-7c72-432c-95f9-eb72c6c27bbf"},"vehicle_type_id":"4","last_reported":1704132550,"current_range_meters":20000,"station_id":"ce4bh0h2rcd13ifvqd50","pricing_plan_id":"free"},{"bike_id":"f53e27bf-8dd9-4276-a06b-ca575c086118","system_id":"levelo_inurba_marseille","lat":43.298681,"lon":5.397225,"is_reserved":false,"is_disabled":false,"rental_uris":{"android":"levelo://app?vid=f53e27bf-8dd9-4276-a06b-ca575c086118","ios":"levelo://app?vid=f53e27bf-8dd9-4276-a06b-ca575c086118"},"vehicle_type_id":"4","last_reported":1704132550,"current_range_meters":22000,"station_id":"ce4bh0h2rcd13ifvqd50","pricing_plan_id":"free"},{"bike_id":"36bbde72-523c-48c8-ad63-0a748b1a2666","system_id":"levelo_inurba_marseille","lat":43.298681,"lon":5.397225,"is_reserved":false,"is_disabled":false,"rental_uris":{"android":"levelo://app?vid=36bbde72-523c-48c8-ad63-0a748b1a2666","ios":"levelo://app?vid=36bbde72-523c-48c8-ad63-0a748b1a2666"},"vehicle_type_id":"4","last_reported":1704132550,"current_range_meters":2800,"station_id":"ce4bh0h2rcd13ifvqd50","pricing_plan_id":"free"},{"bike_id":"90b14df3-4153-404b-8b05-790584f2670a","system_id":"levelo_inurba_marseille","lat":43.286591,"lon":5.363346,"is_reserved":false,"is_disabled":false,"rental_uris":{"android":"levelo://app?vid=90b14df3-4153-404b-8b05-790584f2670a","ios":"levelo://app?vid=90b14df3-4153-404b-8b05-790584f2670a"},"vehicle_type_id":"4","last_reported":1704132550,"current_range_meters":28000,"station_id":"ce4bhah2rcd13ifvqej0","pricing_plan_id":"free"},{"bike_id":"4978b832-c2b9-41d7-8bfc-27d2430db808","system_id":"levelo_inurba_marseille","lat":43.298681,"lon":5.397225,"is_reserved":false,"is_disabled":false,"rental_uris":{"android":"levelo://app?vid=4978b832-c2b9-41d7-8bfc-27d2430db808","ios":"levelo://app?vid=4978b832-c2b9-41d7-8bfc-27d2430db808"},"vehicle_type_id":"4","last_reported":1704132550,"current_range_meters":20000,"station_id":"ce4bh0h2rcd13ifvqd50","pricing_plan_id":"free"},{"bike_id":"038fbe1a-a819-44e3-87d8-d13887e8702f","system_id":"levelo_inurba_marseille","lat":43.298681,"lon":5.397225,"is_reserved":false,"is_disabled":false,"rental_uris":{"android":"levelo://app?vid=038fbe1a-a819-44e3-87d8-d13887e8702f","ios":"levelo://app?vid=038fbe1a-a819-44e3-87d8-d13887e8702f"},"vehicle_type_id":"4","last_reported":1704132550,"current_range_meters":28800,"station_id":"ce4bh0h2rcd13ifvqd50","pricing_plan_id":"free"},{"bike_id":"f182ad30-578d-439a-b895-037c49f93cbb","system_id":"levelo_inurba_marseille","lat":43.28039,"lon":5.369297,"is_reserved":false,"is_disabled":false,"rental_uris":{"android":"levelo://app?vid=f182ad30-578d-439a-b895-037c49f93cbb","ios":"levelo://app?vid=f182ad30-578d-439a-b895-037c49f93cbb"},"vehicle_type_id":"4","last_reported":1704132550,"current_range_meters":31600,"station_id":"ce4bha12rcd13ifvqef0","pricing_plan_id":"free"},{"bike_id":"2fd4d545-339e-4574-adb8-9fa060d17c69","system_id":"levelo_inurba_marseille","lat":43.302759,"lon":5.400793,"is_reserved":false,"is_disabled":false,"rental_uris":{"android":"levelo://app?vid=2fd4d545-339e-4574-adb8-9fa060d17c69","ios":"levelo://app?vid=2fd4d545-339e-4574-adb8-9fa060d17c69"},"vehicle_type_id":"4","last_reported":1704132550,"current_range_meters":4400,"station_id":"ce4bgvh2rcd13ifvqcs0","pricing_plan_id":"free"},{"bike_id":"9da7227d-47de-4eb4-b462-00fbcf630aaf","system_id":"levelo_inurba_marseille","lat":43.289307,"lon":5.38406,"is_reserved":false,"is_disabled":false,"rental_uris":{"android":"levelo://app?vid=9da7227d-47de-4eb4-b462-00fbcf630aaf","ios":"levelo://app?vid=9da7227d-47de-4eb4-b462-00fbcf630aaf"},"vehicle_type_id":"4","last_reported":1704132550,"current_range_meters":19200,"station_id":"ce4bh612rcd13ifvqe6g","pricing_plan_id":"free"},{"bike_id":"3a7c5ded-ca9a-4ea1-b633-862d75654ad9","system_id":"levelo_inurba_marseille","lat":43.290103,"lon":5.356114,"is_reserved":false,"is_disabled":false,"rental_uris":{"android":"levelo://app?vid=3a7c5ded-ca9a-4ea1-b633-862d75654ad9","ios":"levelo://app?vid=3a7c5ded-ca9a-4ea1-b633-862d75654ad9"},"vehicle_type_id":"4","last_reported":1704132550,"current_range_meters":16400,"station_id":"ce4bhb92rcd13ifvqen0","pricing_plan_id":"free"},{"bike_id":"176b4f2e-72c7-4334-bf0d-237a84902dde","system_id":"levelo_inurba_marseille","lat":43.290336,"lon":5.386425,"is_reserved":false,"is_disabled":false,"rental_uris":{"android":"levelo://app?vid=176b4f2e-72c7-4334-bf0d-237a84902dde","ios":"levelo://app?vid=176b4f2e-72c7-4334-bf0d-237a84902dde"},"vehicle_type_id":"4","last_reported":1704132550,"current_range_meters":20000,"station_id":"ce4bh4p2rcd13ifvqe0g","pricing_plan_id":"free"},{"bike_id":"28889bd8-2f73-47ee-88f4-dfca45b5dd9d","system_id":"levelo_inurba_marseille","lat":43.302759,"lon":5.400793,"is_reserved":false,"is_disabled":false,"rental_uris":{"android":"levelo://app?vid=28889bd8-2f73-47ee-88f4-dfca45b5dd9d","ios":"levelo://app?vid=28889bd8-2f73-47ee-88f4-dfca45b5dd9d"},"vehicle_type_id":"4","last_reported":1704132550,"current_range_meters":0,"station_id":"ce4bgvh2rcd13ifvqcs0","pricing_plan_id":"free"},{"bike_id":"eae9b9f9-8495-40bc-8dcb-e90f7e5daf9a","system_id":"levelo_inurba_marseille","lat":43.287184,"lon":5.37937,"is_reserved":false,"is_disabled":false,"rental_uris":{"android":"levelo://app?vid=eae9b9f9-8495-40bc-8dcb-e90f7e5daf9a","ios":"levelo://app?vid=eae9b9f9-8495-40bc-8dcb-e90f7e5daf9a"},"vehicle_type_id":"4","last_reported":1704132550,"current_range_meters":28800,"station_id":"ce4bh9p2rcd13ifvqec0","pricing_plan_id":"free"},{"bike_id":"f9282769-68c6-4545-8745-cd8bf0085458","system_id":"levelo_inurba_marseille","lat":43.287184,"lon":5.37937,"is_reserved":false,"is_disabled":false,"rental_uris":{"android":"levelo://app?vid=f9282769-68c6-4545-8745-cd8bf0085458","ios":"levelo://app?vid=f9282769-68c6-4545-8745-cd8bf0085458"},"vehicle_type_id":"4","last_reported":1704132550,"current_range_meters":7600,"station_id":"ce4bh9p2rcd13ifvqec0","pricing_plan_id":"free"},{"bike_id":"841bf837-cf41-45ca-b40c-632fbc9a1baf","system_id":"levelo_inurba_marseille","lat":43.291994,"lon":5.392907,"is_reserved":false,"is_disabled":false,"rental_uris":{"android":"levelo://app?vid=841bf837-cf41-45ca-b40c-632fbc9a1baf","ios":"levelo://app?vid=841bf837-cf41-45ca-b40c-632fbc9a1baf"},"vehicle_type_id":"4","last_reported":1704132550,"current_range_meters":800,"station_id":"ce4bh192rcd13ifvqdd0","pricing_plan_id":"free"},{"bike_id":"47962c03-d8a9-4723-a1c5-90c5c1cb0308","system_id":"levelo_inurba_marseille","lat":43.291994,"lon":5.392907,"is_reserved":false,"is_disabled":false,"rental_uris":{"android":"levelo://app?vid=47962c03-d8a9-4723-a1c5-90c5c1cb0308","ios":"levelo://app?vid=47962c03-d8a9-4723-a1c5-90c5c1cb0308"},"vehicle_type_id":"4","last_reported":1704132550,"current_range_meters":29200,"station_id":"ce4bh192rcd13ifvqdd0","pricing_plan_id":"free"},{"bike_id":"96f7b394-f197-4016-bb3c-db29fc986cc1","system_id":"levelo_inurba_marseille","lat":43.291994,"lon":5.392907,"is_reserved":false,"is_disabled":false,"rental_uris":{"android":"levelo://app?vid=96f7b394-f197-4016-bb3c-db29fc986cc1","ios":"levelo://app?vid=96f7b394-f197-4016-bb3c-db29fc986cc1"},"vehicle_type_id":"4","last_reported":1704132550,"current_range_meters":31200,"station_id":"ce4bh192rcd13ifvqdd0","pricing_plan_id":"free"},{"bike_id":"995a28a3-fd13-471a-9214-8f22527e63c1","system_id":"levelo_inurba_marseille","lat":43.291994,"lon":5.392907,"is_reserved":false,"is_disabled":false,"rental_uris":{"android":"levelo://app?vid=995a28a3-fd13-471a-9214-8f22527e63c1","ios":"levelo://app?vid=995a28a3-fd13-471a-9214-8f22527e63c1"},"vehicle_type_id":"4","last_reported":1704132550,"current_range_meters":25200,"station_id":"ce4bh192rcd13ifvqdd0","pricing_plan_id":"free"},{"bike_id":"921e71ab-ab09-4c78-a486-96c0ede5dd88","system_id":"levelo_inurba_marseille","lat":43.291994,"lon":5.392907,"is_reserved":false,"is_disabled":false,"rental_uris":{"android":"levelo://app?vid=921e71ab-ab09-4c78-a486-96c0ede5dd88","ios":"levelo://app?vid=921e71ab-ab09-4c78-a486-96c0ede5dd88"},"vehicle_type_id":"4","last_reported":1704132550,"current_range_meters":23600,"station_id":"ce4bh192rcd13ifvqdd0","pricing_plan_id":"free"},{"bike_id":"20be2735-b079-499a-af99-188ab3a39ea1","system_id":"levelo_inurba_marseille","lat":43.284538,"lon":5.358657,"is_reserved":false,"is_disabled":false,"rental_uris":{"android":"levelo://app?vid=20be2735-b079-499a-af99-188ab3a39ea1","ios":"levelo://app?vid=20be2735-b079-499a-af99-188ab3a39ea1"},"vehicle_type_id":"4","last_reported":1704132550,"current_range_meters":22400,"station_id":"ce4bhah2rcd13ifvqei0","pricing_plan_id":"free"},{"bike_id":"c3a0a884-5397-4533-9417-fb99cbd51802","system_id":"levelo_inurba_marseille","lat":43.284538,"lon":5.358657,"is_reserved":false,"is_disabled":false,"rental_uris":{"android":"levelo://app?vid=c3a0a884-5397-4533-9417-fb99cbd51802","ios":"levelo://app?vid=c3a0a884-5397-4533-9417-fb99cbd51802"},"vehicle_type_id":"4","last_reported":1704132550,"current_range_meters":28800,"station_id":"ce4bhah2rcd13ifvqei0","pricing_plan_id":"free"},{"bike_id":"7be1fd96-9df7-4dc2-864e-e485fc92ec9f","system_id":"levelo_inurba_marseille","lat":43.28457,"lon":5.35896,"is_reserved":false,"is_disabled":false,"rental_uris":{"android":"levelo://app?vid=7be1fd96-9df7-4dc2-864e-e485fc92ec9f","ios":"levelo://app?vid=7be1fd96-9df7-4dc2-864e-e485fc92ec9f"},"vehicle_type_id":"4","last_reported":1704132550,"current_range_meters":25600,"station_id":"","pricing_plan_id":"free"},{"bike_id":"e07dd0c9-ff0a-49bd-8bcb-17f59a7f02a9","system_id":"levelo_inurba_marseille","lat":43.284538,"lon":5.358657,"is_reserved":false,"is_disabled":false,"rental_uris":{"android":"levelo://app?vid=e07dd0c9-ff0a-49bd-8bcb-17f59a7f02a9","ios":"levelo://app?vid=e07dd0c9-ff0a-49bd-8bcb-17f59a7f02a9"},"vehicle_type_id":"4","last_reported":1704132550,"current_range_meters":13600,"station_id":"ce4bhah2rcd13ifvqei0","pricing_plan_id":"free"},{"bike_id":"6ada2c0b-21ba-4d14-b3e2-2e610c3e64e1","system_id":"levelo_inurba_marseille","lat":43.284538,"lon":5.358657,"is_reserved":false,"is_disabled":false,"rental_uris":{"android":"levelo://app?vid=6ada2c0b-21ba-4d14-b3e2-2e610c3e64e1","ios":"levelo://app?vid=6ada2c0b-21ba-4d14-b3e2-2e610c3e64e1"},"vehicle_type_id":"4","last_reported":1704132550,"current_range_meters":0,"station_id":"ce4bhah2rcd13ifvqei0","pricing_plan_id":"free"},{"bike_id":"8ac7f1dd-1771-414b-8ebd-511b661b23d8","system_id":"levelo_inurba_marseille","lat":43.294314,"lon":5.397498,"is_reserved":false,"is_disabled":false,"rental_uris":{"android":"levelo://app?vid=8ac7f1dd-1771-414b-8ebd-511b661b23d8","ios":"levelo://app?vid=8ac7f1dd-1771-414b-8ebd-511b661b23d8"},"vehicle_type_id":"4","last_reported":1704132550,"current_range_meters":0,"station_id":"ce4bh3h2rcd13ifvqdo0","pricing_plan_id":"free"},{"bike_id":"745432f6-aa95-4114-866a-b6598f22388c","system_id":"levelo_inurba_marseille","lat":43.285848,"lon":5.350787,"is_reserved":false,"is_disabled":false,"rental_uris":{"android":"levelo://app?vid=745432f6-aa95-4114-866a-b6598f22388c","ios":"levelo://app?vid=745432f6-aa95-4114-866a-b6598f22388c"},"vehicle_type_id":"4","last_reported":1704132550,"current_range_meters":11200,"station_id":"ce4bhch2rcd13ifvqeug","pricing_plan_id":"free"},{"bike_id":"f5e45285-afef-41f1-a757-b72816a68ea4","system_id":"levelo_inurba_marseille","lat":43.285848,"lon":5.350787,"is_reserved":false,"is_disabled":false,"rental_uris":{"android":"levelo://app?vid=f5e45285-afef-41f1-a757-b72816a68ea4","ios":"levelo://app?vid=f5e45285-afef-41f1-a757-b72816a68ea4"},"vehicle_type_id":"4","last_reported":1704132550,"current_range_meters":16000,"station_id":"ce4bhch2rcd13ifvqeug","pricing_plan_id":"free"},{"bike_id":"557bac5d-04d9-428e-b2d9-ce22aee2b6e3","system_id":"levelo_inurba_marseille","lat":43.295713,"lon":5.399639,"is_reserved":false,"is_disabled":false,"rental_uris":{"android":"levelo://app?vid=557bac5d-04d9-428e-b2d9-ce22aee2b6e3","ios":"levelo://app?vid=557bac5d-04d9-428e-b2d9-ce22aee2b6e3"},"vehicle_type_id":"4","last_reported":1704132550,"current_range_meters":18000,"station_id":"ce4bh312rcd13ifvqdj0","pricing_plan_id":"free"},{"bike_id":"678d4739-8be7-49e1-a174-b84e4bdff705","system_id":"levelo_inurba_marseille","lat":43.28676,"lon":5.38659,"is_reserved":false,"is_disabled":false,"rental_uris":{"android":"levelo://app?vid=678d4739-8be7-49e1-a174-b84e4bdff705","ios":"levelo://app?vid=678d4739-8be7-49e1-a174-b84e4bdff705"},"vehicle_type_id":"4","last_reported":1704132550,"current_range_meters":1200,"station_id":"ce4bh492rcd13ifvqdug","pricing_plan_id":"free"},{"bike_id":"d8f34b4b-0482-4598-a007-c88e9675eb47","system_id":"levelo_inurba_marseille","lat":43.286595,"lon":5.386795,"is_reserved":false,"is_disabled":false,"rental_uris":{"android":"levelo://app?vid=d8f34b4b-0482-4598-a007-c88e9675eb47","ios":"levelo://app?vid=d8f34b4b-0482-4598-a007-c88e9675eb47"},"vehicle_type_id":"4","last_reported":1704132550,"current_range_meters":2800,"station_id":"ce4bh492rcd13ifvqdug","pricing_plan_id":"free"},{"bike_id":"8af6642b-e526-4770-8a06-6b115e68c32b","system_id":"levelo_inurba_marseille","lat":43.337196,"lon":5.391823,"is_reserved":false,"is_disabled":false,"rental_uris":{"android":"levelo://app?vid=8af6642b-e526-4770-8a06-6b115e68c32b","ios":"levelo://app?vid=8af6642b-e526-4770-8a06-6b115e68c32b"},"vehicle_type_id":"4","last_reported":1704132550,"current_range_meters":24000,"station_id":"ce4bhr92rcd13ifvqhsg","pricing_plan_id":"free"},{"bike_id":"1860c054-e673-4084-804e-8832a59aeb53","system_id":"levelo_inurba_marseille","lat":43.337168,"lon":5.391825,"is_reserved":false,"is_disabled":false,"rental_uris":{"android":"levelo://app?vid=1860c054-e673-4084-804e-8832a59aeb53","ios":"levelo://app?vid=1860c054-e673-4084-804e-8832a59aeb53"},"vehicle_type_id":"4","last_reported":1704132550,"current_range_meters":27200,"station_id":"ce4bhr92rcd13ifvqhsg","pricing_plan_id":"free"},{"bike_id":"1ee4d186-0276-478a-b3b1-81053b34918c","system_id":"levelo_inurba_marseille","lat":43.284793,"lon":5.384113,"is_reserved":false,"is_disabled":false,"rental_uris":{"android":"levelo://app?vid=1ee4d186-0276-478a-b3b1-81053b34918c","ios":"levelo://app?vid=1ee4d186-0276-478a-b3b1-81053b34918c"},"vehicle_type_id":"4","last_reported":1704132550,"current_range_meters":18400,"station_id":"ce4bh512rcd13ifvqe3g","pricing_plan_id":"free"},{"bike_id":"1039100a-3ac8-4d18-8091-11253bfd9c9b","system_id":"levelo_inurba_marseille","lat":43.28039,"lon":5.369297,"is_reserved":false,"is_disabled":false,"rental_uris":{"android":"levelo://app?vid=1039100a-3ac8-4d18-8091-11253bfd9c9b","ios":"levelo://app?vid=1039100a-3ac8-4d18-8091-11253bfd9c9b"},"vehicle_type_id":"4","last_reported":1704132550,"current_range_meters":29600,"station_id":"ce4bha12rcd13ifvqef0","pricing_plan_id":"free"},{"bike_id":"df044df3-dc84-4895-9b9a-0c47d09763a4","system_id":"levelo_inurba_marseille","lat":43.28039,"lon":5.369297,"is_reserved":false,"is_disabled":false,"rental_uris":{"android":"levelo://app?vid=df044df3-dc84-4895-9b9a-0c47d09763a4","ios":"levelo://app?vid=df044df3-dc84-4895-9b9a-0c47d09763a4"},"vehicle_type_id":"4","last_reported":1704132550,"current_range_meters":25600,"station_id":"ce4bha12rcd13ifvqef0","pricing_plan_id":"free"},{"bike_id":"71bfa987-0717-402c-90fc-719984464e12","system_id":"levelo_inurba_marseille","lat":43.280382,"lon":5.369291,"is_reserved":false,"is_disabled":false,"rental_uris":{"android":"levelo://app?vid=71bfa987-0717-402c-90fc-719984464e12","ios":"levelo://app?vid=71bfa987-0717-402c-90fc-719984464e12"},"vehicle_type_id":"4","last_reported":1704132550,"current_range_meters":23200,"station_id":"ce4bha12rcd13ifvqef0","pricing_plan_id":"free"},{"bike_id":"7a1beebc-52c8-47ad-9484-9d71ab7861e3","system_id":"levelo_inurba_marseille","lat":43.28039,"lon":5.369297,"is_reserved":false,"is_disabled":false,"rental_uris":{"android":"levelo://app?vid=7a1beebc-52c8-47ad-9484-9d71ab7861e3","ios":"levelo://app?vid=7a1beebc-52c8-47ad-9484-9d71ab7861e3"},"vehicle_type_id":"4","last_reported":1704132550,"current_range_meters":19200,"station_id":"ce4bha12rcd13ifvqef0","pricing_plan_id":"free"},{"bike_id":"4a98b203-2b9a-4f7a-ae1d-c99346f5a555","system_id":"levelo_inurba_marseille","lat":43.281044,"lon":5.378308,"is_reserved":false,"is_disabled":false,"rental_uris":{"android":"levelo://app?vid=4a98b203-2b9a-4f7a-ae1d-c99346f5a555","ios":"levelo://app?vid=4a98b203-2b9a-4f7a-ae1d-c99346f5a555"},"vehicle_type_id":"4","last_reported":1704132550,"current_range_meters":13200,"station_id":"ce4bha12rcd13ifvqee0","pricing_plan_id":"free"},{"bike_id":"e17379e8-152a-4a86-9021-9fae5fee53d5","system_id":"levelo_inurba_marseille","lat":43.296263,"lon":5.40601,"is_reserved":false,"is_disabled":false,"rental_uris":{"android":"levelo://app?vid=e17379e8-152a-4a86-9021-9fae5fee53d5","ios":"levelo://app?vid=e17379e8-152a-4a86-9021-9fae5fee53d5"},"vehicle_type_id":"4","last_reported":1704132550,"current_range_meters":25600,"station_id":"ce4bh0h2rcd13ifvqd60","pricing_plan_id":"free"},{"bike_id":"70740f2e-a156-440f-8a8d-3a9f7a21af70","system_id":"levelo_inurba_marseille","lat":43.28573,"lon":5.394992,"is_reserved":false,"is_disabled":false,"rental_uris":{"android":"levelo://app?vid=70740f2e-a156-440f-8a8d-3a9f7a21af70","ios":"levelo://app?vid=70740f2e-a156-440f-8a8d-3a9f7a21af70"},"vehicle_type_id":"4","last_reported":1704132550,"current_range_meters":19600,"station_id":"ce4bh292rcd13ifvqdg0","pricing_plan_id":"free"},{"bike_id":"c00b28db-ca57-4a05-9984-3aaf84686a30","system_id":"levelo_inurba_marseille","lat":43.28573,"lon":5.394992,"is_reserved":false,"is_disabled":false,"rental_uris":{"android":"levelo://app?vid=c00b28db-ca57-4a05-9984-3aaf84686a30","ios":"levelo://app?vid=c00b28db-ca57-4a05-9984-3aaf84686a30"},"vehicle_type_id":"4","last_reported":1704132550,"current_range_meters":27600,"station_id":"ce4bh292rcd13ifvqdg0","pricing_plan_id":"free"},{"bike_id":"f0b58c91-a121-4480-ae46-63ba6488ef01","system_id":"levelo_inurba_marseille","lat":43.304188,"lon":5.412904,"is_reserved":false,"is_disabled":false,"rental_uris":{"android":"levelo://app?vid=f0b58c91-a121-4480-ae46-63ba6488ef01","ios":"levelo://app?vid=f0b58c91-a121-4480-ae46-63ba6488ef01"},"vehicle_type_id":"4","last_reported":1704132550,"current_range_meters":22000,"station_id":"ce4bhop2rcd13ifvqh8g","pricing_plan_id":"free"},{"bike_id":"4266b66e-7361-4f27-bdcb-46d22a6ef3c4","system_id":"levelo_inurba_marseille","lat":43.304188,"lon":5.412904,"is_reserved":false,"is_disabled":false,"rental_uris":{"android":"levelo://app?vid=4266b66e-7361-4f27-bdcb-46d22a6ef3c4","ios":"levelo://app?vid=4266b66e-7361-4f27-bdcb-46d22a6ef3c4"},"vehicle_type_id":"4","last_reported":1704132550,"current_range_meters":29200,"station_id":"ce4bhop2rcd13ifvqh8g","pricing_plan_id":"free"},{"bike_id":"d6c9d56f-5a1e-4097-a2f2-c1bc2bc8b0e2","system_id":"levelo_inurba_marseille","lat":43.304188,"lon":5.412904,"is_reserved":false,"is_disabled":false,"rental_uris":{"android":"levelo://app?vid=d6c9d56f-5a1e-4097-a2f2-c1bc2bc8b0e2","ios":"levelo://app?vid=d6c9d56f-5a1e-4097-a2f2-c1bc2bc8b0e2"},"vehicle_type_id":"4","last_reported":1704132550,"current_range_meters":12400,"station_id":"ce4bhop2rcd13ifvqh8g","pricing_plan_id":"free"},{"bike_id":"9ea0e984-6109-49aa-9303-74d3144b8a25","system_id":"levelo_inurba_marseille","lat":43.304188,"lon":5.412904,"is_reserved":false,"is_disabled":false,"rental_uris":{"android":"levelo://app?vid=9ea0e984-6109-49aa-9303-74d3144b8a25","ios":"levelo://app?vid=9ea0e984-6109-49aa-9303-74d3144b8a25"},"vehicle_type_id":"4","last_reported":1704132550,"current_range_meters":26000,"station_id":"ce4bhop2rcd13ifvqh8g","pricing_plan_id":"free"},{"bike_id":"a727640c-5568-4228-bf01-47f754027641","system_id":"levelo_inurba_marseille","lat":43.279087,"lon":5.380114,"is_reserved":false,"is_disabled":false,"rental_uris":{"android":"levelo://app?vid=a727640c-5568-4228-bf01-47f754027641","ios":"levelo://app?vid=a727640c-5568-4228-bf01-47f754027641"},"vehicle_type_id":"4","last_reported":1704132550,"current_range_meters":4800,"station_id":"ce4bhf92rcd13ifvqf50","pricing_plan_id":"free"},{"bike_id":"8ac5f70f-ef3b-47c3-81be-ad0eaf6a4eee","system_id":"levelo_inurba_marseille","lat":43.279087,"lon":5.380114,"is_reserved":false,"is_disabled":false,"rental_uris":{"android":"levelo://app?vid=8ac5f70f-ef3b-47c3-81be-ad0eaf6a4eee","ios":"levelo://app?vid=8ac5f70f-ef3b-47c3-81be-ad0eaf6a4eee"},"vehicle_type_id":"4","last_reported":1704132550,"current_range_meters":16000,"station_id":"ce4bhf92rcd13ifvqf50","pricing_plan_id":"free"},{"bike_id":"c25adcf8-98fc-454b-a99d-391c26d666c5","system_id":"levelo_inurba_marseille","lat":43.279087,"lon":5.380114,"is_reserved":false,"is_disabled":false,"rental_uris":{"android":"levelo://app?vid=c25adcf8-98fc-454b-a99d-391c26d666c5","ios":"levelo://app?vid=c25adcf8-98fc-454b-a99d-391c26d666c5"},"vehicle_type_id":"4","last_reported":1704132550,"current_range_meters":16000,"station_id":"ce4bhf92rcd13ifvqf50","pricing_plan_id":"free"},{"bike_id":"ca4932be-7e4c-46b8-8abf-c197ae2dcc7e","system_id":"levelo_inurba_marseille","lat":43.287154,"lon":5.399979,"is_reserved":false,"is_disabled":false,"rental_uris":{"android":"levelo://app?vid=ca4932be-7e4c-46b8-8abf-c197ae2dcc7e","ios":"levelo://app?vid=ca4932be-7e4c-46b8-8abf-c197ae2dcc7e"},"vehicle_type_id":"4","last_reported":1704132550,"current_range_meters":16400,"station_id":"ce4bho92rcd13ifvqh3g","pricing_plan_id":"free"},{"bike_id":"4b79bdfe-9847-41bd-8b5d-fe96623da8a2","system_id":"levelo_inurba_marseille","lat":43.279087,"lon":5.380114,"is_reserved":false,"is_disabled":false,"rental_uris":{"android":"levelo://app?vid=4b79bdfe-9847-41bd-8b5d-fe96623da8a2","ios":"levelo://app?vid=4b79bdfe-9847-41bd-8b5d-fe96623da8a2"},"vehicle_type_id":"4","last_reported":1704132550,"current_range_meters":20400,"station_id":"ce4bhf92rcd13ifvqf50","pricing_plan_id":"free"},{"bike_id":"8571ddf1-8157-46ba-b747-ea46713afd05","system_id":"levelo_inurba_marseille","lat":43.29264,"lon":5.40715,"is_reserved":false,"is_disabled":false,"rental_uris":{"android":"levelo://app?vid=8571ddf1-8157-46ba-b747-ea46713afd05","ios":"levelo://app?vid=8571ddf1-8157-46ba-b747-ea46713afd05"},"vehicle_type_id":"4","last_reported":1704132550,"current_range_meters":3200,"station_id":"","pricing_plan_id":"free"},{"bike_id":"b125f00f-1c24-4f0f-9fc3-d65d33b48a76","system_id":"levelo_inurba_marseille","lat":43.279742,"lon":5.38744,"is_reserved":false,"is_disabled":false,"rental_uris":{"android":"levelo://app?vid=b125f00f-1c24-4f0f-9fc3-d65d33b48a76","ios":"levelo://app?vid=b125f00f-1c24-4f0f-9fc3-d65d33b48a76"},"vehicle_type_id":"4","last_reported":1704132550,"current_range_meters":13600,"station_id":"ce4bhg12rcd13ifvqf80","pricing_plan_id":"free"},{"bike_id":"baaaec8a-cbda-4329-b03f-06797ceef928","system_id":"levelo_inurba_marseille","lat":43.279742,"lon":5.38744,"is_reserved":false,"is_disabled":false,"rental_uris":{"android":"levelo://app?vid=baaaec8a-cbda-4329-b03f-06797ceef928","ios":"levelo://app?vid=baaaec8a-cbda-4329-b03f-06797ceef928"},"vehicle_type_id":"4","last_reported":1704132550,"current_range_meters":27200,"station_id":"ce4bhg12rcd13ifvqf80","pricing_plan_id":"free"},{"bike_id":"5af583b4-62d5-4af1-a246-cb2731f55720","system_id":"levelo_inurba_marseille","lat":43.279742,"lon":5.38744,"is_reserved":false,"is_disabled":false,"rental_uris":{"android":"levelo://app?vid=5af583b4-62d5-4af1-a246-cb2731f55720","ios":"levelo://app?vid=5af583b4-62d5-4af1-a246-cb2731f55720"},"vehicle_type_id":"4","last_reported":1704132550,"current_range_meters":15200,"station_id":"ce4bhg12rcd13ifvqf80","pricing_plan_id":"free"},{"bike_id":"205d6e90-5361-4895-8302-5460adcfd1de","system_id":"levelo_inurba_marseille","lat":43.292569,"lon":5.409107,"is_reserved":false,"is_disabled":false,"rental_uris":{"android":"levelo://app?vid=205d6e90-5361-4895-8302-5460adcfd1de","ios":"levelo://app?vid=205d6e90-5361-4895-8302-5460adcfd1de"},"vehicle_type_id":"4","last_reported":1704132550,"current_range_meters":5200,"station_id":"ce4bh192rcd13ifvqdc0","pricing_plan_id":"free"},{"bike_id":"9b79004f-b235-4acf-aaf6-11dfc1bcc384","system_id":"levelo_inurba_marseille","lat":43.292569,"lon":5.409107,"is_reserved":false,"is_disabled":false,"rental_uris":{"android":"levelo://app?vid=9b79004f-b235-4acf-aaf6-11dfc1bcc384","ios":"levelo://app?vid=9b79004f-b235-4acf-aaf6-11dfc1bcc384"},"vehicle_type_id":"4","last_reported":1704132550,"current_range_meters":31200,"station_id":"ce4bh192rcd13ifvqdc0","pricing_plan_id":"free"},{"bike_id":"13083173-d784-4a87-850f-f602f8724e39","system_id":"levelo_inurba_marseille","lat":43.276179,"lon":5.361009,"is_reserved":false,"is_disabled":false,"rental_uris":{"android":"levelo://app?vid=13083173-d784-4a87-850f-f602f8724e39","ios":"levelo://app?vid=13083173-d784-4a87-850f-f602f8724e39"},"vehicle_type_id":"4","last_reported":1704132550,"current_range_meters":20800,"station_id":"ce4bgj92rcd13ifvqbe0","pricing_plan_id":"free"},{"bike_id":"d2a3da75-7092-415e-b8a8-ce83ba1178e9","system_id":"levelo_inurba_marseille","lat":43.280784,"lon":5.396622,"is_reserved":false,"is_disabled":false,"rental_uris":{"android":"levelo://app?vid=d2a3da75-7092-415e-b8a8-ce83ba1178e9","ios":"levelo://app?vid=d2a3da75-7092-415e-b8a8-ce83ba1178e9"},"vehicle_type_id":"4","last_reported":1704132550,"current_range_meters":20400,"station_id":"ce4bho12rcd13ifvqh2g","pricing_plan_id":"free"},{"bike_id":"bd726a23-5118-4f62-8c5e-1477bf66150b","system_id":"levelo_inurba_marseille","lat":43.280784,"lon":5.396622,"is_reserved":false,"is_disabled":false,"rental_uris":{"android":"levelo://app?vid=bd726a23-5118-4f62-8c5e-1477bf66150b","ios":"levelo://app?vid=bd726a23-5118-4f62-8c5e-1477bf66150b"},"vehicle_type_id":"4","last_reported":1704132550,"current_range_meters":26800,"station_id":"ce4bho12rcd13ifvqh2g","pricing_plan_id":"free"},{"bike_id":"9443765f-359f-4674-8822-13206f57c02e","system_id":"levelo_inurba_marseille","lat":43.280784,"lon":5.396622,"is_reserved":false,"is_disabled":false,"rental_uris":{"android":"levelo://app?vid=9443765f-359f-4674-8822-13206f57c02e","ios":"levelo://app?vid=9443765f-359f-4674-8822-13206f57c02e"},"vehicle_type_id":"4","last_reported":1704132550,"current_range_meters":1600,"station_id":"ce4bho12rcd13ifvqh2g","pricing_plan_id":"free"},{"bike_id":"52710c2c-e727-4072-b4b3-43bca13f4228","system_id":"levelo_inurba_marseille","lat":43.280784,"lon":5.396622,"is_reserved":false,"is_disabled":false,"rental_uris":{"android":"levelo://app?vid=52710c2c-e727-4072-b4b3-43bca13f4228","ios":"levelo://app?vid=52710c2c-e727-4072-b4b3-43bca13f4228"},"vehicle_type_id":"4","last_reported":1704132550,"current_range_meters":23200,"station_id":"ce4bho12rcd13ifvqh2g","pricing_plan_id":"free"},{"bike_id":"e1838f9f-299f-437d-abd8-4f286644fe17","system_id":"levelo_inurba_marseille","lat":43.280784,"lon":5.396622,"is_reserved":false,"is_disabled":false,"rental_uris":{"android":"levelo://app?vid=e1838f9f-299f-437d-abd8-4f286644fe17","ios":"levelo://app?vid=e1838f9f-299f-437d-abd8-4f286644fe17"},"vehicle_type_id":"4","last_reported":1704132550,"current_range_meters":29600,"station_id":"ce4bho12rcd13ifvqh2g","pricing_plan_id":"free"},{"bike_id":"9727190a-b3e3-4d96-a370-472e6c8b4d96","system_id":"levelo_inurba_marseille","lat":43.303837,"lon":5.418724,"is_reserved":false,"is_disabled":false,"rental_uris":{"android":"levelo://app?vid=9727190a-b3e3-4d96-a370-472e6c8b4d96","ios":"levelo://app?vid=9727190a-b3e3-4d96-a370-472e6c8b4d96"},"vehicle_type_id":"4","last_reported":1704132550,"current_range_meters":15600,"station_id":"ce4bhop2rcd13ifvqh7g","pricing_plan_id":"free"},{"bike_id":"274d9a72-069f-4bbb-8dd5-f58c8b3273e9","system_id":"levelo_inurba_marseille","lat":43.303837,"lon":5.418724,"is_reserved":false,"is_disabled":false,"rental_uris":{"android":"levelo://app?vid=274d9a72-069f-4bbb-8dd5-f58c8b3273e9","ios":"levelo://app?vid=274d9a72-069f-4bbb-8dd5-f58c8b3273e9"},"vehicle_type_id":"4","last_reported":1704132550,"current_range_meters":10800,"station_id":"ce4bhop2rcd13ifvqh7g","pricing_plan_id":"free"},{"bike_id":"4e4ff796-b6c2-4ed5-bf16-c931dd6520f7","system_id":"levelo_inurba_marseille","lat":43.303837,"lon":5.418724,"is_reserved":false,"is_disabled":false,"rental_uris":{"android":"levelo://app?vid=4e4ff796-b6c2-4ed5-bf16-c931dd6520f7","ios":"levelo://app?vid=4e4ff796-b6c2-4ed5-bf16-c931dd6520f7"},"vehicle_type_id":"4","last_reported":1704132550,"current_range_meters":26400,"station_id":"ce4bhop2rcd13ifvqh7g","pricing_plan_id":"free"},{"bike_id":"496cb9c1-2730-4529-bf7a-c4297d8e3bb0","system_id":"levelo_inurba_marseille","lat":43.278401,"lon":5.392152,"is_reserved":false,"is_disabled":false,"rental_uris":{"android":"levelo://app?vid=496cb9c1-2730-4529-bf7a-c4297d8e3bb0","ios":"levelo://app?vid=496cb9c1-2730-4529-bf7a-c4297d8e3bb0"},"vehicle_type_id":"4","last_reported":1704132550,"current_range_meters":19200,"station_id":"ce4bhjp2rcd13ifvqga0","pricing_plan_id":"free"},{"bike_id":"6090cc09-0dbd-45d6-93fb-c517e7a33dfc","system_id":"levelo_inurba_marseille","lat":43.278401,"lon":5.392152,"is_reserved":false,"is_disabled":false,"rental_uris":{"android":"levelo://app?vid=6090cc09-0dbd-45d6-93fb-c517e7a33dfc","ios":"levelo://app?vid=6090cc09-0dbd-45d6-93fb-c517e7a33dfc"},"vehicle_type_id":"4","last_reported":1704132550,"current_range_meters":30400,"station_id":"ce4bhjp2rcd13ifvqga0","pricing_plan_id":"free"},{"bike_id":"9ebd5be7-ea73-40bb-b2ae-8a925684cc42","system_id":"levelo_inurba_marseille","lat":43.273613,"lon":5.362705,"is_reserved":false,"is_disabled":false,"rental_uris":{"android":"levelo://app?vid=9ebd5be7-ea73-40bb-b2ae-8a925684cc42","ios":"levelo://app?vid=9ebd5be7-ea73-40bb-b2ae-8a925684cc42"},"vehicle_type_id":"4","last_reported":1704132550,"current_range_meters":30400,"station_id":"ce4bhbh2rcd13ifvqeo0","pricing_plan_id":"free"},{"bike_id":"340e1e33-0ea1-47da-baff-693003d515df","system_id":"levelo_inurba_marseille","lat":43.275625,"lon":5.384392,"is_reserved":false,"is_disabled":false,"rental_uris":{"android":"levelo://app?vid=340e1e33-0ea1-47da-baff-693003d515df","ios":"levelo://app?vid=340e1e33-0ea1-47da-baff-693003d515df"},"vehicle_type_id":"4","last_reported":1704132550,"current_range_meters":31200,"station_id":"ce4bhh92rcd13ifvqfi0","pricing_plan_id":"free"},{"bike_id":"2bc78665-5366-4b01-966c-71dbf5251e0e","system_id":"levelo_inurba_marseille","lat":43.273609,"lon":5.362708,"is_reserved":false,"is_disabled":false,"rental_uris":{"android":"levelo://app?vid=2bc78665-5366-4b01-966c-71dbf5251e0e","ios":"levelo://app?vid=2bc78665-5366-4b01-966c-71dbf5251e0e"},"vehicle_type_id":"4","last_reported":1704132550,"current_range_meters":26000,"station_id":"ce4bhbh2rcd13ifvqeo0","pricing_plan_id":"free"},{"bike_id":"47001929-de8d-43e1-aae8-2e3522f38d25","system_id":"levelo_inurba_marseille","lat":43.275625,"lon":5.384392,"is_reserved":false,"is_disabled":false,"rental_uris":{"android":"levelo://app?vid=47001929-de8d-43e1-aae8-2e3522f38d25","ios":"levelo://app?vid=47001929-de8d-43e1-aae8-2e3522f38d25"},"vehicle_type_id":"4","last_reported":1704132550,"current_range_meters":12800,"station_id":"ce4bhh92rcd13ifvqfi0","pricing_plan_id":"free"},{"bike_id":"e42ed4fe-b247-49f7-8f13-da00979228c2","system_id":"levelo_inurba_marseille","lat":43.276771,"lon":5.388799,"is_reserved":false,"is_disabled":false,"rental_uris":{"android":"levelo://app?vid=e42ed4fe-b247-49f7-8f13-da00979228c2","ios":"levelo://app?vid=e42ed4fe-b247-49f7-8f13-da00979228c2"},"vehicle_type_id":"4","last_reported":1704132550,"current_range_meters":24800,"station_id":"ce4bhi12rcd13ifvqfo0","pricing_plan_id":"free"},{"bike_id":"838e390a-0d2f-44c2-87a4-d40aabcd8ccc","system_id":"levelo_inurba_marseille","lat":43.27671,"lon":5.389198,"is_reserved":false,"is_disabled":false,"rental_uris":{"android":"levelo://app?vid=838e390a-0d2f-44c2-87a4-d40aabcd8ccc","ios":"levelo://app?vid=838e390a-0d2f-44c2-87a4-d40aabcd8ccc"},"vehicle_type_id":"4","last_reported":1704132550,"current_range_meters":0,"station_id":"","pricing_plan_id":"free"},{"bike_id":"ad8ead7b-2150-462d-9ff1-f4303c6e32bd","system_id":"levelo_inurba_marseille","lat":43.27998,"lon":5.40015,"is_reserved":false,"is_disabled":false,"rental_uris":{"android":"levelo://app?vid=ad8ead7b-2150-462d-9ff1-f4303c6e32bd","ios":"levelo://app?vid=ad8ead7b-2150-462d-9ff1-f4303c6e32bd"},"vehicle_type_id":"4","last_reported":1704132550,"current_range_meters":27200,"station_id":"ce4bho92rcd13ifvqh4g","pricing_plan_id":"free"},{"bike_id":"95620b28-48e0-40ed-8f4c-f7654a31b6da","system_id":"levelo_inurba_marseille","lat":43.317167,"lon":5.423935,"is_reserved":false,"is_disabled":false,"rental_uris":{"android":"levelo://app?vid=95620b28-48e0-40ed-8f4c-f7654a31b6da","ios":"levelo://app?vid=95620b28-48e0-40ed-8f4c-f7654a31b6da"},"vehicle_type_id":"4","last_reported":1704132550,"current_range_meters":24000,"station_id":"ce4bhp92rcd13ifvqhbg","pricing_plan_id":"free"},{"bike_id":"c8e7703b-2edf-4796-b45d-2438019a9059","system_id":"levelo_inurba_marseille","lat":43.317121,"lon":5.423936,"is_reserved":false,"is_disabled":false,"rental_uris":{"android":"levelo://app?vid=c8e7703b-2edf-4796-b45d-2438019a9059","ios":"levelo://app?vid=c8e7703b-2edf-4796-b45d-2438019a9059"},"vehicle_type_id":"4","last_reported":1704132550,"current_range_meters":13200,"station_id":"ce4bhp92rcd13ifvqhbg","pricing_plan_id":"free"},{"bike_id":"f3e351f0-7ca3-497e-a450-69da3118abd7","system_id":"levelo_inurba_marseille","lat":43.31725,"lon":5.42397,"is_reserved":false,"is_disabled":false,"rental_uris":{"android":"levelo://app?vid=f3e351f0-7ca3-497e-a450-69da3118abd7","ios":"levelo://app?vid=f3e351f0-7ca3-497e-a450-69da3118abd7"},"vehicle_type_id":"4","last_reported":1704132550,"current_range_meters":28400,"station_id":"ce4bhp92rcd13ifvqhbg","pricing_plan_id":"free"},{"bike_id":"4760841b-4fd7-4b7d-aef3-782de75b0909","system_id":"levelo_inurba_marseille","lat":43.317121,"lon":5.423936,"is_reserved":false,"is_disabled":false,"rental_uris":{"android":"levelo://app?vid=4760841b-4fd7-4b7d-aef3-782de75b0909","ios":"levelo://app?vid=4760841b-4fd7-4b7d-aef3-782de75b0909"},"vehicle_type_id":"4","last_reported":1704132550,"current_range_meters":25200,"station_id":"ce4bhp92rcd13ifvqhbg","pricing_plan_id":"free"},{"bike_id":"5e3452d0-bbc8-463b-8852-ec98e809d5a0","system_id":"levelo_inurba_marseille","lat":43.317121,"lon":5.423936,"is_reserved":false,"is_disabled":false,"rental_uris":{"android":"levelo://app?vid=5e3452d0-bbc8-463b-8852-ec98e809d5a0","ios":"levelo://app?vid=5e3452d0-bbc8-463b-8852-ec98e809d5a0"},"vehicle_type_id":"4","last_reported":1704132550,"current_range_meters":31200,"station_id":"ce4bhp92rcd13ifvqhbg","pricing_plan_id":"free"},{"bike_id":"e2340435-a767-4a07-9db0-637fd4bce462","system_id":"levelo_inurba_marseille","lat":43.317121,"lon":5.423936,"is_reserved":false,"is_disabled":false,"rental_uris":{"android":"levelo://app?vid=e2340435-a767-4a07-9db0-637fd4bce462","ios":"levelo://app?vid=e2340435-a767-4a07-9db0-637fd4bce462"},"vehicle_type_id":"4","last_reported":1704132550,"current_range_meters":13600,"station_id":"ce4bhp92rcd13ifvqhbg","pricing_plan_id":"free"},{"bike_id":"72be8c87-95b5-44a3-a58e-8e3ac1a66cf3","system_id":"levelo_inurba_marseille","lat":43.340804,"lon":5.410219,"is_reserved":false,"is_disabled":false,"rental_uris":{"android":"levelo://app?vid=72be8c87-95b5-44a3-a58e-8e3ac1a66cf3","ios":"levelo://app?vid=72be8c87-95b5-44a3-a58e-8e3ac1a66cf3"},"vehicle_type_id":"4","last_reported":1704132550,"current_range_meters":31200,"station_id":"ce4bhqh2rcd13ifvqhlg","pricing_plan_id":"free"},{"bike_id":"1321cad9-2d86-42c0-9e69-f19e49ad0b15","system_id":"levelo_inurba_marseille","lat":43.340804,"lon":5.410219,"is_reserved":false,"is_disabled":false,"rental_uris":{"android":"levelo://app?vid=1321cad9-2d86-42c0-9e69-f19e49ad0b15","ios":"levelo://app?vid=1321cad9-2d86-42c0-9e69-f19e49ad0b15"},"vehicle_type_id":"4","last_reported":1704132550,"current_range_meters":6400,"station_id":"ce4bhqh2rcd13ifvqhlg","pricing_plan_id":"free"},{"bike_id":"90571ad6-316f-49da-bafa-db0ba0903b9c","system_id":"levelo_inurba_marseille","lat":43.273125,"lon":5.390731,"is_reserved":false,"is_disabled":false,"rental_uris":{"android":"levelo://app?vid=90571ad6-316f-49da-bafa-db0ba0903b9c","ios":"levelo://app?vid=90571ad6-316f-49da-bafa-db0ba0903b9c"},"vehicle_type_id":"4","last_reported":1704132550,"current_range_meters":29600,"station_id":"ce4bhgp2rcd13ifvqfe0","pricing_plan_id":"free"},{"bike_id":"d548d66b-88c9-49f9-867c-e26df10c9510","system_id":"levelo_inurba_marseille","lat":43.29553,"lon":5.42286,"is_reserved":false,"is_disabled":false,"rental_uris":{"android":"levelo://app?vid=d548d66b-88c9-49f9-867c-e26df10c9510","ios":"levelo://app?vid=d548d66b-88c9-49f9-867c-e26df10c9510"},"vehicle_type_id":"4","last_reported":1704132550,"current_range_meters":27200,"station_id":"ce4bhph2rcd13ifvqhdg","pricing_plan_id":"free"},{"bike_id":"e6695177-241b-466c-9432-e3898cb75c2c","system_id":"levelo_inurba_marseille","lat":43.278128,"lon":5.407195,"is_reserved":false,"is_disabled":false,"rental_uris":{"android":"levelo://app?vid=e6695177-241b-466c-9432-e3898cb75c2c","ios":"levelo://app?vid=e6695177-241b-466c-9432-e3898cb75c2c"},"vehicle_type_id":"4","last_reported":1704132550,"current_range_meters":7600,"station_id":"ce4bhnh2rcd13ifvqgtg","pricing_plan_id":"free"},{"bike_id":"92c62140-6073-4b50-887d-f4ed58f8da74","system_id":"levelo_inurba_marseille","lat":43.278128,"lon":5.407195,"is_reserved":false,"is_disabled":false,"rental_uris":{"android":"levelo://app?vid=92c62140-6073-4b50-887d-f4ed58f8da74","ios":"levelo://app?vid=92c62140-6073-4b50-887d-f4ed58f8da74"},"vehicle_type_id":"4","last_reported":1704132550,"current_range_meters":16000,"station_id":"ce4bhnh2rcd13ifvqgtg","pricing_plan_id":"free"},{"bike_id":"3fda408b-9e1d-457d-b0a8-8d90dd79118a","system_id":"levelo_inurba_marseille","lat":43.278128,"lon":5.407195,"is_reserved":false,"is_disabled":false,"rental_uris":{"android":"levelo://app?vid=3fda408b-9e1d-457d-b0a8-8d90dd79118a","ios":"levelo://app?vid=3fda408b-9e1d-457d-b0a8-8d90dd79118a"},"vehicle_type_id":"4","last_reported":1704132550,"current_range_meters":0,"station_id":"ce4bhnh2rcd13ifvqgtg","pricing_plan_id":"free"},{"bike_id":"425f9578-de78-4e61-bdf4-7cfac3cad89a","system_id":"levelo_inurba_marseille","lat":43.279465,"lon":5.410561,"is_reserved":false,"is_disabled":false,"rental_uris":{"android":"levelo://app?vid=425f9578-de78-4e61-bdf4-7cfac3cad89a","ios":"levelo://app?vid=425f9578-de78-4e61-bdf4-7cfac3cad89a"},"vehicle_type_id":"4","last_reported":1704132550,"current_range_meters":24800,"station_id":"ce4bhnp2rcd13ifvqh0g","pricing_plan_id":"free"},{"bike_id":"30fd2104-1b14-4ca9-b095-799969957ed3","system_id":"levelo_inurba_marseille","lat":43.269319,"lon":5.389397,"is_reserved":false,"is_disabled":false,"rental_uris":{"android":"levelo://app?vid=30fd2104-1b14-4ca9-b095-799969957ed3","ios":"levelo://app?vid=30fd2104-1b14-4ca9-b095-799969957ed3"},"vehicle_type_id":"4","last_reported":1704132550,"current_range_meters":31200,"station_id":"ce4bhhh2rcd13ifvqfl0","pricing_plan_id":"free"},{"bike_id":"af4755a8-5992-4c9a-b338-3caa5704529b","system_id":"levelo_inurba_marseille","lat":43.265714,"lon":5.372891,"is_reserved":false,"is_disabled":false,"rental_uris":{"android":"levelo://app?vid=af4755a8-5992-4c9a-b338-3caa5704529b","ios":"levelo://app?vid=af4755a8-5992-4c9a-b338-3caa5704529b"},"vehicle_type_id":"4","last_reported":1704132550,"current_range_meters":4400,"station_id":"ce4bhg12rcd13ifvqf70","pricing_plan_id":"free"},{"bike_id":"4e7b82a4-f271-4a72-bdbd-460d1cfbd58d","system_id":"levelo_inurba_marseille","lat":43.27181,"lon":5.404997,"is_reserved":false,"is_disabled":false,"rental_uris":{"android":"levelo://app?vid=4e7b82a4-f271-4a72-bdbd-460d1cfbd58d","ios":"levelo://app?vid=4e7b82a4-f271-4a72-bdbd-460d1cfbd58d"},"vehicle_type_id":"4","last_reported":1704132550,"current_range_meters":9200,"station_id":"","pricing_plan_id":"free"},{"bike_id":"34e62c0c-6e4c-4ce0-a32e-2a5972cc9649","system_id":"levelo_inurba_marseille","lat":43.26562,"lon":5.3899,"is_reserved":false,"is_disabled":false,"rental_uris":{"android":"levelo://app?vid=34e62c0c-6e4c-4ce0-a32e-2a5972cc9649","ios":"levelo://app?vid=34e62c0c-6e4c-4ce0-a32e-2a5972cc9649"},"vehicle_type_id":"4","last_reported":1704132550,"current_range_meters":15200,"station_id":"ce4bhe12rcd13ifvqf30","pricing_plan_id":"free"},{"bike_id":"e8dfbbad-95af-45d8-926a-e01b199b4fdd","system_id":"levelo_inurba_marseille","lat":43.265571,"lon":5.390032,"is_reserved":false,"is_disabled":false,"rental_uris":{"android":"levelo://app?vid=e8dfbbad-95af-45d8-926a-e01b199b4fdd","ios":"levelo://app?vid=e8dfbbad-95af-45d8-926a-e01b199b4fdd"},"vehicle_type_id":"4","last_reported":1704132550,"current_range_meters":12000,"station_id":"ce4bhe12rcd13ifvqf30","pricing_plan_id":"free"},{"bike_id":"45730320-d888-42aa-bc60-ab4966459db6","system_id":"levelo_inurba_marseille","lat":43.265571,"lon":5.390032,"is_reserved":false,"is_disabled":false,"rental_uris":{"android":"levelo://app?vid=45730320-d888-42aa-bc60-ab4966459db6","ios":"levelo://app?vid=45730320-d888-42aa-bc60-ab4966459db6"},"vehicle_type_id":"4","last_reported":1704132550,"current_range_meters":2400,"station_id":"ce4bhe12rcd13ifvqf30","pricing_plan_id":"free"},{"bike_id":"0109619f-e50e-476e-b2db-0b861cb046c1","system_id":"levelo_inurba_marseille","lat":43.265571,"lon":5.390032,"is_reserved":false,"is_disabled":false,"rental_uris":{"android":"levelo://app?vid=0109619f-e50e-476e-b2db-0b861cb046c1","ios":"levelo://app?vid=0109619f-e50e-476e-b2db-0b861cb046c1"},"vehicle_type_id":"4","last_reported":1704132550,"current_range_meters":11200,"station_id":"ce4bhe12rcd13ifvqf30","pricing_plan_id":"free"},{"bike_id":"73ca05e8-6b4d-4625-8de5-f982d9d39946","system_id":"levelo_inurba_marseille","lat":43.265569,"lon":5.390047,"is_reserved":false,"is_disabled":false,"rental_uris":{"android":"levelo://app?vid=73ca05e8-6b4d-4625-8de5-f982d9d39946","ios":"levelo://app?vid=73ca05e8-6b4d-4625-8de5-f982d9d39946"},"vehicle_type_id":"4","last_reported":1704132550,"current_range_meters":21200,"station_id":"ce4bhe12rcd13ifvqf30","pricing_plan_id":"free"},{"bike_id":"0a414c3e-b68e-4ac4-b207-e3ea0ff06ae4","system_id":"levelo_inurba_marseille","lat":43.26949,"lon":5.40262,"is_reserved":false,"is_disabled":false,"rental_uris":{"android":"levelo://app?vid=0a414c3e-b68e-4ac4-b207-e3ea0ff06ae4","ios":"levelo://app?vid=0a414c3e-b68e-4ac4-b207-e3ea0ff06ae4"},"vehicle_type_id":"4","last_reported":1704132550,"current_range_meters":26800,"station_id":"cjm6bp8fraef2m0cb0m0","pricing_plan_id":"free"},{"bike_id":"dac5ea74-92f7-462e-b536-31f322bb01c0","system_id":"levelo_inurba_marseille","lat":43.331893,"lon":5.431791,"is_reserved":false,"is_disabled":false,"rental_uris":{"android":"levelo://app?vid=dac5ea74-92f7-462e-b536-31f322bb01c0","ios":"levelo://app?vid=dac5ea74-92f7-462e-b536-31f322bb01c0"},"vehicle_type_id":"4","last_reported":1704132550,"current_range_meters":6800,"station_id":"","pricing_plan_id":"free"},{"bike_id":"99e45899-cc63-4fea-b01a-a07b9ce23fa3","system_id":"levelo_inurba_marseille","lat":43.2619,"lon":5.37441,"is_reserved":false,"is_disabled":false,"rental_uris":{"android":"levelo://app?vid=99e45899-cc63-4fea-b01a-a07b9ce23fa3","ios":"levelo://app?vid=99e45899-cc63-4fea-b01a-a07b9ce23fa3"},"vehicle_type_id":"4","last_reported":1704132550,"current_range_meters":31200,"station_id":"ce4bhgp2rcd13ifvqfc0","pricing_plan_id":"free"},{"bike_id":"8c7df74b-a509-49f1-af95-b0a69adf8f56","system_id":"levelo_inurba_marseille","lat":43.31708,"lon":5.43703,"is_reserved":false,"is_disabled":false,"rental_uris":{"android":"levelo://app?vid=8c7df74b-a509-49f1-af95-b0a69adf8f56","ios":"levelo://app?vid=8c7df74b-a509-49f1-af95-b0a69adf8f56"},"vehicle_type_id":"4","last_reported":1704132550,"current_range_meters":29200,"station_id":"ce4bhp92rcd13ifvqhcg","pricing_plan_id":"free"},{"bike_id":"ad81fa64-d046-4244-93c6-11215fae2baa","system_id":"levelo_inurba_marseille","lat":43.261782,"lon":5.374515,"is_reserved":false,"is_disabled":false,"rental_uris":{"android":"levelo://app?vid=ad81fa64-d046-4244-93c6-11215fae2baa","ios":"levelo://app?vid=ad81fa64-d046-4244-93c6-11215fae2baa"},"vehicle_type_id":"4","last_reported":1704132550,"current_range_meters":16400,"station_id":"ce4bhgp2rcd13ifvqfc0","pricing_plan_id":"free"},{"bike_id":"a0d5824e-3072-49db-b72b-9664c62890ce","system_id":"levelo_inurba_marseille","lat":43.317104,"lon":5.436818,"is_reserved":false,"is_disabled":false,"rental_uris":{"android":"levelo://app?vid=a0d5824e-3072-49db-b72b-9664c62890ce","ios":"levelo://app?vid=a0d5824e-3072-49db-b72b-9664c62890ce"},"vehicle_type_id":"4","last_reported":1704132550,"current_range_meters":23600,"station_id":"ce4bhp92rcd13ifvqhcg","pricing_plan_id":"free"},{"bike_id":"d50d8834-da3a-4ec7-8044-b32697a9ee6f","system_id":"levelo_inurba_marseille","lat":43.26202,"lon":5.379299,"is_reserved":false,"is_disabled":false,"rental_uris":{"android":"levelo://app?vid=d50d8834-da3a-4ec7-8044-b32697a9ee6f","ios":"levelo://app?vid=d50d8834-da3a-4ec7-8044-b32697a9ee6f"},"vehicle_type_id":"4","last_reported":1704132550,"current_range_meters":23600,"station_id":"ce4bhjp2rcd13ifvqg90","pricing_plan_id":"free"},{"bike_id":"6bdcb0b2-883e-41e2-92ab-23704c9cb261","system_id":"levelo_inurba_marseille","lat":43.267959,"lon":5.402687,"is_reserved":false,"is_disabled":false,"rental_uris":{"android":"levelo://app?vid=6bdcb0b2-883e-41e2-92ab-23704c9cb261","ios":"levelo://app?vid=6bdcb0b2-883e-41e2-92ab-23704c9cb261"},"vehicle_type_id":"4","last_reported":1704132550,"current_range_meters":4800,"station_id":"ce501612rcd8frsf0b60","pricing_plan_id":"free"},{"bike_id":"8475f879-31a9-434f-877e-815dcf813756","system_id":"levelo_inurba_marseille","lat":43.267959,"lon":5.402687,"is_reserved":false,"is_disabled":false,"rental_uris":{"android":"levelo://app?vid=8475f879-31a9-434f-877e-815dcf813756","ios":"levelo://app?vid=8475f879-31a9-434f-877e-815dcf813756"},"vehicle_type_id":"4","last_reported":1704132550,"current_range_meters":18800,"station_id":"ce501612rcd8frsf0b60","pricing_plan_id":"free"},{"bike_id":"561232c7-db97-4857-969f-2ad8276e1366","system_id":"levelo_inurba_marseille","lat":43.292724,"lon":5.401131,"is_reserved":false,"is_disabled":false,"rental_uris":{"android":"levelo://app?vid=561232c7-db97-4857-969f-2ad8276e1366","ios":"levelo://app?vid=561232c7-db97-4857-969f-2ad8276e1366"},"vehicle_type_id":"4","last_reported":1704132550,"current_range_meters":6000,"station_id":"ce4bh312rcd13ifvqdk0","pricing_plan_id":"free"},{"bike_id":"aee55816-91af-4090-b86d-2303bacde030","system_id":"levelo_inurba_marseille","lat":43.261268,"lon":5.375076,"is_reserved":false,"is_disabled":false,"rental_uris":{"android":"levelo://app?vid=aee55816-91af-4090-b86d-2303bacde030","ios":"levelo://app?vid=aee55816-91af-4090-b86d-2303bacde030"},"vehicle_type_id":"4","last_reported":1704132550,"current_range_meters":21200,"station_id":"","pricing_plan_id":"free"},{"bike_id":"d28be84f-5981-4a67-aa3e-279db14ed231","system_id":"levelo_inurba_marseille","lat":43.2651,"lon":5.39469,"is_reserved":false,"is_disabled":false,"rental_uris":{"android":"levelo://app?vid=d28be84f-5981-4a67-aa3e-279db14ed231","ios":"levelo://app?vid=d28be84f-5981-4a67-aa3e-279db14ed231"},"vehicle_type_id":"4","last_reported":1704132550,"current_range_meters":11600,"station_id":"ce4bhi12rcd13ifvqfq0","pricing_plan_id":"free"},{"bike_id":"f359195f-f069-42a0-b818-68741f0dae01","system_id":"levelo_inurba_marseille","lat":43.298768,"lon":5.43643,"is_reserved":false,"is_disabled":false,"rental_uris":{"android":"levelo://app?vid=f359195f-f069-42a0-b818-68741f0dae01","ios":"levelo://app?vid=f359195f-f069-42a0-b818-68741f0dae01"},"vehicle_type_id":"4","last_reported":1704132550,"current_range_meters":30800,"station_id":"ce4bhpp2rcd13ifvqhfg","pricing_plan_id":"free"},{"bike_id":"2aef17d2-5e1a-42db-a1a2-eebc4e3d678f","system_id":"levelo_inurba_marseille","lat":43.298768,"lon":5.43643,"is_reserved":false,"is_disabled":false,"rental_uris":{"android":"levelo://app?vid=2aef17d2-5e1a-42db-a1a2-eebc4e3d678f","ios":"levelo://app?vid=2aef17d2-5e1a-42db-a1a2-eebc4e3d678f"},"vehicle_type_id":"4","last_reported":1704132550,"current_range_meters":10400,"station_id":"ce4bhpp2rcd13ifvqhfg","pricing_plan_id":"free"},{"bike_id":"ec17f12b-76f2-4e38-bdf0-2f3dcd905333","system_id":"levelo_inurba_marseille","lat":43.298768,"lon":5.43643,"is_reserved":false,"is_disabled":false,"rental_uris":{"android":"levelo://app?vid=ec17f12b-76f2-4e38-bdf0-2f3dcd905333","ios":"levelo://app?vid=ec17f12b-76f2-4e38-bdf0-2f3dcd905333"},"vehicle_type_id":"4","last_reported":1704132550,"current_range_meters":29200,"station_id":"ce4bhpp2rcd13ifvqhfg","pricing_plan_id":"free"},{"bike_id":"136c62da-626c-4d09-a6d0-e27f29df86b0","system_id":"levelo_inurba_marseille","lat":43.298768,"lon":5.43643,"is_reserved":false,"is_disabled":false,"rental_uris":{"android":"levelo://app?vid=136c62da-626c-4d09-a6d0-e27f29df86b0","ios":"levelo://app?vid=136c62da-626c-4d09-a6d0-e27f29df86b0"},"vehicle_type_id":"4","last_reported":1704132550,"current_range_meters":14800,"station_id":"ce4bhpp2rcd13ifvqhfg","pricing_plan_id":"free"},{"bike_id":"0353ff31-8882-44a8-93b7-cce781c5ab60","system_id":"levelo_inurba_marseille","lat":43.298768,"lon":5.43643,"is_reserved":false,"is_disabled":false,"rental_uris":{"android":"levelo://app?vid=0353ff31-8882-44a8-93b7-cce781c5ab60","ios":"levelo://app?vid=0353ff31-8882-44a8-93b7-cce781c5ab60"},"vehicle_type_id":"4","last_reported":1704132550,"current_range_meters":18800,"station_id":"ce4bhpp2rcd13ifvqhfg","pricing_plan_id":"free"},{"bike_id":"9e79ebbd-8b93-4b65-ab2b-5fb82f1c880a","system_id":"levelo_inurba_marseille","lat":43.298768,"lon":5.43643,"is_reserved":false,"is_disabled":false,"rental_uris":{"android":"levelo://app?vid=9e79ebbd-8b93-4b65-ab2b-5fb82f1c880a","ios":"levelo://app?vid=9e79ebbd-8b93-4b65-ab2b-5fb82f1c880a"},"vehicle_type_id":"4","last_reported":1704132550,"current_range_meters":5600,"station_id":"ce4bhpp2rcd13ifvqhfg","pricing_plan_id":"free"},{"bike_id":"7595a3b0-7a36-4db5-bb3a-dec46a1c094e","system_id":"levelo_inurba_marseille","lat":43.298768,"lon":5.43643,"is_reserved":false,"is_disabled":false,"rental_uris":{"android":"levelo://app?vid=7595a3b0-7a36-4db5-bb3a-dec46a1c094e","ios":"levelo://app?vid=7595a3b0-7a36-4db5-bb3a-dec46a1c094e"},"vehicle_type_id":"4","last_reported":1704132550,"current_range_meters":3600,"station_id":"ce4bhpp2rcd13ifvqhfg","pricing_plan_id":"free"},{"bike_id":"d4b42ccf-716f-4bf3-a0e2-aa2ce8806f1d","system_id":"levelo_inurba_marseille","lat":43.298768,"lon":5.43643,"is_reserved":false,"is_disabled":false,"rental_uris":{"android":"levelo://app?vid=d4b42ccf-716f-4bf3-a0e2-aa2ce8806f1d","ios":"levelo://app?vid=d4b42ccf-716f-4bf3-a0e2-aa2ce8806f1d"},"vehicle_type_id":"4","last_reported":1704132550,"current_range_meters":9600,"station_id":"ce4bhpp2rcd13ifvqhfg","pricing_plan_id":"free"},{"bike_id":"e433e324-77b3-407f-8d3f-c503ac88a3ea","system_id":"levelo_inurba_marseille","lat":43.260219,"lon":5.37546,"is_reserved":false,"is_disabled":false,"rental_uris":{"android":"levelo://app?vid=e433e324-77b3-407f-8d3f-c503ac88a3ea","ios":"levelo://app?vid=e433e324-77b3-407f-8d3f-c503ac88a3ea"},"vehicle_type_id":"4","last_reported":1704132550,"current_range_meters":26800,"station_id":"ce4bhgh2rcd13ifvqfa0","pricing_plan_id":"free"},{"bike_id":"5f1555ac-704e-4a70-abf2-d97627b4f388","system_id":"levelo_inurba_marseille","lat":43.281548,"lon":5.42643,"is_reserved":false,"is_disabled":false,"rental_uris":{"android":"levelo://app?vid=5f1555ac-704e-4a70-abf2-d97627b4f388","ios":"levelo://app?vid=5f1555ac-704e-4a70-abf2-d97627b4f388"},"vehicle_type_id":"4","last_reported":1704132550,"current_range_meters":22000,"station_id":"ce4bhnh2rcd13ifvqgug","pricing_plan_id":"free"},{"bike_id":"51b307ad-3e03-4c88-8cbb-3669bbc8a1ad","system_id":"levelo_inurba_marseille","lat":43.281548,"lon":5.42643,"is_reserved":false,"is_disabled":false,"rental_uris":{"android":"levelo://app?vid=51b307ad-3e03-4c88-8cbb-3669bbc8a1ad","ios":"levelo://app?vid=51b307ad-3e03-4c88-8cbb-3669bbc8a1ad"},"vehicle_type_id":"4","last_reported":1704132550,"current_range_meters":31200,"station_id":"ce4bhnh2rcd13ifvqgug","pricing_plan_id":"free"},{"bike_id":"e32e8b2f-227a-41f1-a651-f92b4e26dae8","system_id":"levelo_inurba_marseille","lat":43.281548,"lon":5.42643,"is_reserved":false,"is_disabled":false,"rental_uris":{"android":"levelo://app?vid=e32e8b2f-227a-41f1-a651-f92b4e26dae8","ios":"levelo://app?vid=e32e8b2f-227a-41f1-a651-f92b4e26dae8"},