{"last_updated":1744348258,"ttl":60,"version":"2.2","data":{"bikes":[{"bike_id":"cdf7f30c-b91f-42b3-b758-22ad26becd66","system_id":"levelo_inurba_marseille","lat":43.29018,"lon":5.35937,"is_reserved":false,"is_disabled":true,"rental_uris":{"android":"levelo://app?vid=cdf7f30c-b91f-42b3-b758-22ad26becd66","ios":"levelo://app?vid=cdf7f30c-b91f-42b3-b758-22ad26becd66"},"vehicle_type_id":"4","last_reported":1744348258,"current_range_meters":2800,"station_id":"","pricing_plan_id":"cebpf4jnsgd1na2vs0mg"},{"bike_id":"2e305a41-d005-4b31-8c53-a76f6b2345c0","system_id":"levelo_inurba_marseille","lat":43.28969,"lon":5.37121,"is_reserved":false,"is_disabled":false,"rental_uris":{"android":"levelo://app?vid=2e305a41-d005-4b31-8c53-a76f6b2345c0","ios":"levelo://app?vid=2e305a41-d005-4b31-8c53-a76f6b2345c0"},"vehicle_type_id":"4","last_reported":1744348258,"current_range_meters":3200,"station_id":"","pricing_plan_id":"cebpf4jnsgd1na2vs0mg"},{"bike_id":"24350ec8-77b3-448b-986d-848774961b0c","system_id":"levelo_inurba_marseille","lat":43.28451,"lon":5.35894,"is_reserved":false,"is_disabled":false,"rental_uris":{"android":"levelo://app?vid=24350ec8-77b3-448b-986d-848774961b0c","ios":"levelo://app?vid=24350ec8-77b3-448b-986d-848774961b0c"},"vehicle_type_id":"4","last_reported":1744348258,"current_range_meters":3200,"station_id":"ce4bhah2rcd13ifvqei0","pricing_plan_id":"cebpf4jnsgd1na2vs0mg"},{"bike_id":"804f9788-3173-4f66-8926-c5ba23a1836c","system_id":"levelo_inurba_marseille","lat":43.25938,"lon":5.40907,"is_reserved":false,"is_disabled":false,"rental_uris":{"android":"levelo://app?vid=804f9788-3173-4f66-8926-c5ba23a1836c","ios":"levelo://app?vid=804f9788-3173-4f66-8926-c5ba23a1836c"},"vehicle_type_id":"4","last_reported":1744348258,"current_range_meters":3200,"station_id":"ce4bhm92rcd13ifvqglg","pricing_plan_id":"cebpf4jnsgd1na2vs0mg"},{"bike_id":"aebef7e1-b17c-47fa-8a44-49d856cc576e","system_id":"levelo_inurba_marseille","lat":43.27497,"lon":5.42467,"is_reserved":false,"is_disabled":false,"rental_uris":{"android":"levelo://app?vid=aebef7e1-b17c-47fa-8a44-49d856cc576e","ios":"levelo://app?vid=aebef7e1-b17c-47fa-8a44-49d856cc576e"},"vehicle_type_id":"4","last_reported":1744348258,"current_range_meters":3600,"station_id":"ce4bhn92rcd13ifvqgrg","pricing_plan_id":"cebpf4jnsgd1na2vs0mg"},{"bike_id":"597aee93-c763-4126-8ea8-497cbf8a2c86","system_id":"levelo_inurba_marseille","lat":43.30419,"lon":5.39761,"is_reserved":false,"is_disabled":false,"rental_uris":{"android":"levelo://app?vid=597aee93-c763-4126-8ea8-497cbf8a2c86","ios":"levelo://app?vid=597aee93-c763-4126-8ea8-497cbf8a2c86"},"vehicle_type_id":"4","last_reported":1744348258,"current_range_meters":3600,"station_id":"ce4bh092rcd13ifvqd20","pricing_plan_id":"cebpf4jnsgd1na2vs0mg"},{"bike_id":"74fb6ada-5912-4908-9bc3-7b7c6b0830fc","system_id":"levelo_inurba_marseille","lat":43.24689,"lon":5.4121,"is_reserved":false,"is_disabled":false,"rental_uris":{"android":"levelo://app?vid=74fb6ada-5912-4908-9bc3-7b7c6b0830fc","ios":"levelo://app?vid=74fb6ada-5912-4908-9bc3-7b7c6b0830fc"},"vehicle_type_id":"4","last_reported":1744348258,"current_range_meters":3600,"station_id":"","pricing_plan_id":"cebpf4jnsgd1na2vs0mg"},{"bike_id":"9b704737-af43-40c2-b70e-9e4ddeb764b6","system_id":"levelo_inurba_marseille","lat":43.230616,"lon":5.354953,"is_reserved":false,"is_disabled":false,"rental_uris":{"android":"levelo://app?vid=9b704737-af43-40c2-b70e-9e4ddeb764b6","ios":"levelo://app?vid=9b704737-af43-40c2-b70e-9e4ddeb764b6"},"vehicle_type_id":"4","last_reported":1744348258,"current_range_meters":4000,"station_id":"cpo3342slgdg3j2ifvpg","pricing_plan_id":"cebpf4jnsgd1na2vs0mg"},{"bike_id":"488970c7-ad85-4166-a4ad-456252c5bcc5","system_id":"levelo_inurba_marseille","lat":43.27286,"lon":5.42931,"is_reserved":false,"is_disabled":false,"rental_uris":{"android":"levelo://app?vid=488970c7-ad85-4166-a4ad-456252c5bcc5","ios":"levelo://app?vid=488970c7-ad85-4166-a4ad-456252c5bcc5"},"vehicle_type_id":"4","last_reported":1744348258,"current_range_meters":4400,"station_id":"","pricing_plan_id":"cebpf4jnsgd1na2vs0mg"},{"bike_id":"e05c1e2a-1ed0-4ae5-8a58-08e26deb95b9","system_id":"levelo_inurba_marseille","lat":43.28692,"lon":5.44829,"is_reserved":false,"is_disabled":false,"rental_uris":{"android":"levelo://app?vid=e05c1e2a-1ed0-4ae5-8a58-08e26deb95b9","ios":"levelo://app?vid=e05c1e2a-1ed0-4ae5-8a58-08e26deb95b9"},"vehicle_type_id":"4","last_reported":1744348258,"current_range_meters":4800,"station_id":"","pricing_plan_id":"cebpf4jnsgd1na2vs0mg"},{"bike_id":"98bde375-1946-4247-9779-ef60c95239a6","system_id":"levelo_inurba_marseille","lat":43.30785,"lon":5.43547,"is_reserved":false,"is_disabled":false,"rental_uris":{"android":"levelo://app?vid=98bde375-1946-4247-9779-ef60c95239a6","ios":"levelo://app?vid=98bde375-1946-4247-9779-ef60c95239a6"},"vehicle_type_id":"4","last_reported":1744348258,"current_range_meters":5600,"station_id":"ce4bhph2rcd13ifvqheg","pricing_plan_id":"cebpf4jnsgd1na2vs0mg"},{"bike_id":"2de0f1c2-453b-4a02-9bde-1cd104c577c5","system_id":"levelo_inurba_marseille","lat":43.283661,"lon":5.386447,"is_reserved":false,"is_disabled":false,"rental_uris":{"android":"levelo://app?vid=2de0f1c2-453b-4a02-9bde-1cd104c577c5","ios":"levelo://app?vid=2de0f1c2-453b-4a02-9bde-1cd104c577c5"},"vehicle_type_id":"4","last_reported":1744348258,"current_range_meters":5600,"station_id":"ce4bh492rcd13ifvqdvg","pricing_plan_id":"cebpf4jnsgd1na2vs0mg"},{"bike_id":"8c876ded-2351-4a40-b46f-d37e31decbcd","system_id":"levelo_inurba_marseille","lat":43.23171,"lon":5.39987,"is_reserved":false,"is_disabled":false,"rental_uris":{"android":"levelo://app?vid=8c876ded-2351-4a40-b46f-d37e31decbcd","ios":"levelo://app?vid=8c876ded-2351-4a40-b46f-d37e31decbcd"},"vehicle_type_id":"4","last_reported":1744348258,"current_range_meters":5600,"station_id":"ce4bhn12rcd13ifvqgqg","pricing_plan_id":"cebpf4jnsgd1na2vs0mg"},{"bike_id":"8decf391-6722-4e4f-a981-dcf2dc34ed97","system_id":"levelo_inurba_marseille","lat":43.30415,"lon":5.39767,"is_reserved":false,"is_disabled":false,"rental_uris":{"android":"levelo://app?vid=8decf391-6722-4e4f-a981-dcf2dc34ed97","ios":"levelo://app?vid=8decf391-6722-4e4f-a981-dcf2dc34ed97"},"vehicle_type_id":"4","last_reported":1744348258,"current_range_meters":5600,"station_id":"ce4bh092rcd13ifvqd20","pricing_plan_id":"cebpf4jnsgd1na2vs0mg"},{"bike_id":"a1216ca3-ea71-41ea-9599-16ad83b59722","system_id":"levelo_inurba_marseille","lat":43.302892,"lon":5.36588,"is_reserved":false,"is_disabled":false,"rental_uris":{"android":"levelo://app?vid=a1216ca3-ea71-41ea-9599-16ad83b59722","ios":"levelo://app?vid=a1216ca3-ea71-41ea-9599-16ad83b59722"},"vehicle_type_id":"4","last_reported":1744348258,"current_range_meters":6000,"station_id":"","pricing_plan_id":"cebpf4jnsgd1na2vs0mg"},{"bike_id":"a1451a1f-835a-4861-997a-faa2bbe05c1b","system_id":"levelo_inurba_marseille","lat":43.28095,"lon":5.3787,"is_reserved":false,"is_disabled":false,"rental_uris":{"android":"levelo://app?vid=a1451a1f-835a-4861-997a-faa2bbe05c1b","ios":"levelo://app?vid=a1451a1f-835a-4861-997a-faa2bbe05c1b"},"vehicle_type_id":"4","last_reported":1744348258,"current_range_meters":6000,"station_id":"ce4bha12rcd13ifvqee0","pricing_plan_id":"cebpf4jnsgd1na2vs0mg"},{"bike_id":"61176b24-97cc-449e-bd5a-111e6c711271","system_id":"levelo_inurba_marseille","lat":43.28448,"lon":5.35894,"is_reserved":false,"is_disabled":false,"rental_uris":{"android":"levelo://app?vid=61176b24-97cc-449e-bd5a-111e6c711271","ios":"levelo://app?vid=61176b24-97cc-449e-bd5a-111e6c711271"},"vehicle_type_id":"4","last_reported":1744348258,"current_range_meters":6000,"station_id":"ce4bhah2rcd13ifvqei0","pricing_plan_id":"cebpf4jnsgd1na2vs0mg"},{"bike_id":"fff87a7f-6766-4f8a-8d22-1d9d21fe9e0d","system_id":"levelo_inurba_marseille","lat":43.288503,"lon":5.393412,"is_reserved":false,"is_disabled":true,"rental_uris":{"android":"levelo://app?vid=fff87a7f-6766-4f8a-8d22-1d9d21fe9e0d","ios":"levelo://app?vid=fff87a7f-6766-4f8a-8d22-1d9d21fe9e0d"},"vehicle_type_id":"4","last_reported":1744348258,"current_range_meters":6000,"station_id":"ce4bh2p2rcd13ifvqdi0","pricing_plan_id":"cebpf4jnsgd1na2vs0mg"},{"bike_id":"495739a0-3cdb-4ea9-8899-361049b9af2e","system_id":"levelo_inurba_marseille","lat":43.29723,"lon":5.37696,"is_reserved":false,"is_disabled":false,"rental_uris":{"android":"levelo://app?vid=495739a0-3cdb-4ea9-8899-361049b9af2e","ios":"levelo://app?vid=495739a0-3cdb-4ea9-8899-361049b9af2e"},"vehicle_type_id":"4","last_reported":1744348258,"current_range_meters":5600,"station_id":"ce4bgkh2rcd13ifvqbl0","pricing_plan_id":"cebpf4jnsgd1na2vs0mg"},{"bike_id":"83c132b1-a954-4d5a-a32d-9f99af4faa3c","system_id":"levelo_inurba_marseille","lat":43.30922,"lon":5.41523,"is_reserved":false,"is_disabled":false,"rental_uris":{"android":"levelo://app?vid=83c132b1-a954-4d5a-a32d-9f99af4faa3c","ios":"levelo://app?vid=83c132b1-a954-4d5a-a32d-9f99af4faa3c"},"vehicle_type_id":"4","last_reported":1744348258,"current_range_meters":6400,"station_id":"","pricing_plan_id":"cebpf4jnsgd1na2vs0mg"},{"bike_id":"01e31f15-bc9b-4d18-bebd-edf19bcedef2","system_id":"levelo_inurba_marseille","lat":43.28709,"lon":5.37935,"is_reserved":false,"is_disabled":true,"rental_uris":{"android":"levelo://app?vid=01e31f15-bc9b-4d18-bebd-edf19bcedef2","ios":"levelo://app?vid=01e31f15-bc9b-4d18-bebd-edf19bcedef2"},"vehicle_type_id":"4","last_reported":1744348258,"current_range_meters":6400,"station_id":"ce4bh9p2rcd13ifvqec0","pricing_plan_id":"cebpf4jnsgd1na2vs0mg"},{"bike_id":"5f30a5a4-de9f-499e-b151-b811ebb3b43a","system_id":"levelo_inurba_marseille","lat":43.31066,"lon":5.38316,"is_reserved":false,"is_disabled":true,"rental_uris":{"android":"levelo://app?vid=5f30a5a4-de9f-499e-b151-b811ebb3b43a","ios":"levelo://app?vid=5f30a5a4-de9f-499e-b151-b811ebb3b43a"},"vehicle_type_id":"4","last_reported":1744348258,"current_range_meters":6400,"station_id":"ce4bgv92rcd13ifvqcr0","pricing_plan_id":"cebpf4jnsgd1na2vs0mg"},{"bike_id":"c243072f-6bd2-4d94-ba83-04162cf2a05c","system_id":"levelo_inurba_marseille","lat":43.271866,"lon":5.401406,"is_reserved":false,"is_disabled":false,"rental_uris":{"android":"levelo://app?vid=c243072f-6bd2-4d94-ba83-04162cf2a05c","ios":"levelo://app?vid=c243072f-6bd2-4d94-ba83-04162cf2a05c"},"vehicle_type_id":"4","last_reported":1744348258,"current_range_meters":6400,"station_id":"","pricing_plan_id":"cebpf4jnsgd1na2vs0mg"},{"bike_id":"a214e99d-b99a-4f98-870d-535e7f3ee3e1","system_id":"levelo_inurba_marseille","lat":43.27173,"lon":5.41034,"is_reserved":false,"is_disabled":false,"rental_uris":{"android":"levelo://app?vid=a214e99d-b99a-4f98-870d-535e7f3ee3e1","ios":"levelo://app?vid=a214e99d-b99a-4f98-870d-535e7f3ee3e1"},"vehicle_type_id":"4","last_reported":1744348258,"current_range_meters":6800,"station_id":"ce4bhl12rcd13ifvqgf0","pricing_plan_id":"cebpf4jnsgd1na2vs0mg"},{"bike_id":"0b27a068-eb9c-434f-b643-a15f24e5d3d7","system_id":"levelo_inurba_marseille","lat":43.281554,"lon":5.426491,"is_reserved":false,"is_disabled":false,"rental_uris":{"android":"levelo://app?vid=0b27a068-eb9c-434f-b643-a15f24e5d3d7","ios":"levelo://app?vid=0b27a068-eb9c-434f-b643-a15f24e5d3d7"},"vehicle_type_id":"4","last_reported":1744348258,"current_range_meters":6800,"station_id":"ce4bhnh2rcd13ifvqgug","pricing_plan_id":"cebpf4jnsgd1na2vs0mg"},{"bike_id":"07cc6c28-4c90-4a27-a829-295d10e64a1b","system_id":"levelo_inurba_marseille","lat":43.28435,"lon":5.39194,"is_reserved":false,"is_disabled":false,"rental_uris":{"android":"levelo://app?vid=07cc6c28-4c90-4a27-a829-295d10e64a1b","ios":"levelo://app?vid=07cc6c28-4c90-4a27-a829-295d10e64a1b"},"vehicle_type_id":"4","last_reported":1744348258,"current_range_meters":6800,"station_id":"ce4bhoh2rcd13ifvqh5g","pricing_plan_id":"cebpf4jnsgd1na2vs0mg"},{"bike_id":"3102b6c5-7de9-4edb-84c1-78cca2d45726","system_id":"levelo_inurba_marseille","lat":43.271648,"lon":5.410024,"is_reserved":false,"is_disabled":false,"rental_uris":{"android":"levelo://app?vid=3102b6c5-7de9-4edb-84c1-78cca2d45726","ios":"levelo://app?vid=3102b6c5-7de9-4edb-84c1-78cca2d45726"},"vehicle_type_id":"4","last_reported":1744348258,"current_range_meters":6800,"station_id":"ce4bhl12rcd13ifvqgf0","pricing_plan_id":"cebpf4jnsgd1na2vs0mg"},{"bike_id":"99237ec7-3662-4d5e-8599-de02e334af89","system_id":"levelo_inurba_marseille","lat":43.2794,"lon":5.41054,"is_reserved":false,"is_disabled":false,"rental_uris":{"android":"levelo://app?vid=99237ec7-3662-4d5e-8599-de02e334af89","ios":"levelo://app?vid=99237ec7-3662-4d5e-8599-de02e334af89"},"vehicle_type_id":"4","last_reported":1744348258,"current_range_meters":6800,"station_id":"ce4bhnp2rcd13ifvqh0g","pricing_plan_id":"cebpf4jnsgd1na2vs0mg"},{"bike_id":"c93b8155-102a-45aa-905a-566f8b1c281d","system_id":"levelo_inurba_marseille","lat":43.29273,"lon":5.40141,"is_reserved":false,"is_disabled":false,"rental_uris":{"android":"levelo://app?vid=c93b8155-102a-45aa-905a-566f8b1c281d","ios":"levelo://app?vid=c93b8155-102a-45aa-905a-566f8b1c281d"},"vehicle_type_id":"4","last_reported":1744348258,"current_range_meters":6800,"station_id":"ce4bh312rcd13ifvqdk0","pricing_plan_id":"cebpf4jnsgd1na2vs0mg"},{"bike_id":"77681eb7-0ca7-4181-8f4d-dc0d81e04ff3","system_id":"levelo_inurba_marseille","lat":43.24167,"lon":5.36409,"is_reserved":false,"is_disabled":false,"rental_uris":{"android":"levelo://app?vid=77681eb7-0ca7-4181-8f4d-dc0d81e04ff3","ios":"levelo://app?vid=77681eb7-0ca7-4181-8f4d-dc0d81e04ff3"},"vehicle_type_id":"4","last_reported":1744348258,"current_range_meters":6800,"station_id":"cpo36qri1sfpv3e86is0","pricing_plan_id":"cebpf4jnsgd1na2vs0mg"},{"bike_id":"9fdd0ff7-f232-4be7-96f3-9fb677c8b16f","system_id":"levelo_inurba_marseille","lat":43.3046,"lon":5.37916,"is_reserved":false,"is_disabled":false,"rental_uris":{"android":"levelo://app?vid=9fdd0ff7-f232-4be7-96f3-9fb677c8b16f","ios":"levelo://app?vid=9fdd0ff7-f232-4be7-96f3-9fb677c8b16f"},"vehicle_type_id":"4","last_reported":1744348258,"current_range_meters":7200,"station_id":"ce4bgup2rcd13ifvqcn0","pricing_plan_id":"cebpf4jnsgd1na2vs0mg"},{"bike_id":"10f72831-a14e-4eee-8e16-4a84e6f3ae45","system_id":"levelo_inurba_marseille","lat":43.30806,"lon":5.38138,"is_reserved":false,"is_disabled":false,"rental_uris":{"android":"levelo://app?vid=10f72831-a14e-4eee-8e16-4a84e6f3ae45","ios":"levelo://app?vid=10f72831-a14e-4eee-8e16-4a84e6f3ae45"},"vehicle_type_id":"4","last_reported":1744348258,"current_range_meters":7200,"station_id":"ce4bgt12rcd13ifvqce0","pricing_plan_id":"cebpf4jnsgd1na2vs0mg"},{"bike_id":"922aad61-4970-400d-aca6-905e06b6909a","system_id":"levelo_inurba_marseille","lat":43.28152,"lon":5.42651,"is_reserved":false,"is_disabled":false,"rental_uris":{"android":"levelo://app?vid=922aad61-4970-400d-aca6-905e06b6909a","ios":"levelo://app?vid=922aad61-4970-400d-aca6-905e06b6909a"},"vehicle_type_id":"4","last_reported":1744348258,"current_range_meters":7200,"station_id":"ce4bhnh2rcd13ifvqgug","pricing_plan_id":"cebpf4jnsgd1na2vs0mg"},{"bike_id":"b2a68182-0296-46b5-b1e6-959be548277d","system_id":"levelo_inurba_marseille","lat":43.30782,"lon":5.3721,"is_reserved":false,"is_disabled":false,"rental_uris":{"android":"levelo://app?vid=b2a68182-0296-46b5-b1e6-959be548277d","ios":"levelo://app?vid=b2a68182-0296-46b5-b1e6-959be548277d"},"vehicle_type_id":"4","last_reported":1744348258,"current_range_meters":7200,"station_id":"","pricing_plan_id":"cebpf4jnsgd1na2vs0mg"},{"bike_id":"4c1f7691-a169-4713-b675-2a5153227ffe","system_id":"levelo_inurba_marseille","lat":43.27811,"lon":5.40723,"is_reserved":false,"is_disabled":false,"rental_uris":{"android":"levelo://app?vid=4c1f7691-a169-4713-b675-2a5153227ffe","ios":"levelo://app?vid=4c1f7691-a169-4713-b675-2a5153227ffe"},"vehicle_type_id":"4","last_reported":1744348258,"current_range_meters":7200,"station_id":"ce4bhnh2rcd13ifvqgtg","pricing_plan_id":"cebpf4jnsgd1na2vs0mg"},{"bike_id":"0674074c-d22a-4f12-8a52-74091023d4b5","system_id":"levelo_inurba_marseille","lat":43.29686,"lon":5.366,"is_reserved":false,"is_disabled":false,"rental_uris":{"android":"levelo://app?vid=0674074c-d22a-4f12-8a52-74091023d4b5","ios":"levelo://app?vid=0674074c-d22a-4f12-8a52-74091023d4b5"},"vehicle_type_id":"4","last_reported":1744348258,"current_range_meters":7200,"station_id":"ce4bgn12rcd13ifvqbt0","pricing_plan_id":"cebpf4jnsgd1na2vs0mg"},{"bike_id":"14c1dd5c-6e0a-4ce0-bd00-df96c8952d21","system_id":"levelo_inurba_marseille","lat":43.27488,"lon":5.42448,"is_reserved":false,"is_disabled":false,"rental_uris":{"android":"levelo://app?vid=14c1dd5c-6e0a-4ce0-bd00-df96c8952d21","ios":"levelo://app?vid=14c1dd5c-6e0a-4ce0-bd00-df96c8952d21"},"vehicle_type_id":"4","last_reported":1744348258,"current_range_meters":7200,"station_id":"ce4bhn92rcd13ifvqgrg","pricing_plan_id":"cebpf4jnsgd1na2vs0mg"},{"bike_id":"da33d3e1-078a-490e-bdcf-05f338351ccc","system_id":"levelo_inurba_marseille","lat":43.278379,"lon":5.392104,"is_reserved":false,"is_disabled":false,"rental_uris":{"android":"levelo://app?vid=da33d3e1-078a-490e-bdcf-05f338351ccc","ios":"levelo://app?vid=da33d3e1-078a-490e-bdcf-05f338351ccc"},"vehicle_type_id":"4","last_reported":1744348258,"current_range_meters":7200,"station_id":"ce4bhjp2rcd13ifvqga0","pricing_plan_id":"cebpf4jnsgd1na2vs0mg"},{"bike_id":"b679a569-40c8-4aa5-9dd5-f42f649b2be2","system_id":"levelo_inurba_marseille","lat":43.30258,"lon":5.37724,"is_reserved":false,"is_disabled":false,"rental_uris":{"android":"levelo://app?vid=b679a569-40c8-4aa5-9dd5-f42f649b2be2","ios":"levelo://app?vid=b679a569-40c8-4aa5-9dd5-f42f649b2be2"},"vehicle_type_id":"4","last_reported":1744348258,"current_range_meters":8000,"station_id":"ce4bguh2rcd13ifvqcj0","pricing_plan_id":"cebpf4jnsgd1na2vs0mg"},{"bike_id":"4a3e0919-27c2-445a-a961-2bd3243a227d","system_id":"levelo_inurba_marseille","lat":43.31648,"lon":5.37321,"is_reserved":false,"is_disabled":false,"rental_uris":{"android":"levelo://app?vid=4a3e0919-27c2-445a-a961-2bd3243a227d","ios":"levelo://app?vid=4a3e0919-27c2-445a-a961-2bd3243a227d"},"vehicle_type_id":"4","last_reported":1744348258,"current_range_meters":8000,"station_id":"","pricing_plan_id":"cebpf4jnsgd1na2vs0mg"},{"bike_id":"d37408de-b5d7-4466-8973-ab7c2a7000bc","system_id":"levelo_inurba_marseille","lat":43.29264,"lon":5.36846,"is_reserved":false,"is_disabled":true,"rental_uris":{"android":"levelo://app?vid=d37408de-b5d7-4466-8973-ab7c2a7000bc","ios":"levelo://app?vid=d37408de-b5d7-4466-8973-ab7c2a7000bc"},"vehicle_type_id":"4","last_reported":1744348258,"current_range_meters":8000,"station_id":"ce4bhbp2rcd13ifvqesg","pricing_plan_id":"cebpf4jnsgd1na2vs0mg"},{"bike_id":"a1fdd794-2cd0-4fb6-96b3-8dafaa593e65","system_id":"levelo_inurba_marseille","lat":43.33763,"lon":5.37476,"is_reserved":false,"is_disabled":true,"rental_uris":{"android":"levelo://app?vid=a1fdd794-2cd0-4fb6-96b3-8dafaa593e65","ios":"levelo://app?vid=a1fdd794-2cd0-4fb6-96b3-8dafaa593e65"},"vehicle_type_id":"4","last_reported":1744348258,"current_range_meters":8000,"station_id":"","pricing_plan_id":"cebpf4jnsgd1na2vs0mg"},{"bike_id":"a08fdf65-f7c3-4eb9-83c1-6d1abed3497e","system_id":"levelo_inurba_marseille","lat":43.286966,"lon":5.39983,"is_reserved":false,"is_disabled":true,"rental_uris":{"android":"levelo://app?vid=a08fdf65-f7c3-4eb9-83c1-6d1abed3497e","ios":"levelo://app?vid=a08fdf65-f7c3-4eb9-83c1-6d1abed3497e"},"vehicle_type_id":"4","last_reported":1744348258,"current_range_meters":8000,"station_id":"ce4bho92rcd13ifvqh3g","pricing_plan_id":"cebpf4jnsgd1na2vs0mg"},{"bike_id":"383b3fd1-af92-4338-8167-08780a3ded94","system_id":"levelo_inurba_marseille","lat":43.298027,"lon":5.404004,"is_reserved":false,"is_disabled":false,"rental_uris":{"android":"levelo://app?vid=383b3fd1-af92-4338-8167-08780a3ded94","ios":"levelo://app?vid=383b3fd1-af92-4338-8167-08780a3ded94"},"vehicle_type_id":"4","last_reported":1744348258,"current_range_meters":8000,"station_id":"ce4bh112rcd13ifvqd90","pricing_plan_id":"cebpf4jnsgd1na2vs0mg"},{"bike_id":"98d26c59-b9fc-480c-8bbe-0f49bdd0f1cc","system_id":"levelo_inurba_marseille","lat":43.27056,"lon":5.40268,"is_reserved":false,"is_disabled":false,"rental_uris":{"android":"levelo://app?vid=98d26c59-b9fc-480c-8bbe-0f49bdd0f1cc","ios":"levelo://app?vid=98d26c59-b9fc-480c-8bbe-0f49bdd0f1cc"},"vehicle_type_id":"4","last_reported":1744348258,"current_range_meters":8000,"station_id":"ce4bhk92rcd13ifvqgc0","pricing_plan_id":"cebpf4jnsgd1na2vs0mg"},{"bike_id":"818034d3-704e-4d85-9ab2-72de705bb74a","system_id":"levelo_inurba_marseille","lat":43.25102,"lon":5.4034,"is_reserved":false,"is_disabled":false,"rental_uris":{"android":"levelo://app?vid=818034d3-704e-4d85-9ab2-72de705bb74a","ios":"levelo://app?vid=818034d3-704e-4d85-9ab2-72de705bb74a"},"vehicle_type_id":"4","last_reported":1744348258,"current_range_meters":8000,"station_id":"ce4bhlh2rcd13ifvqgig","pricing_plan_id":"cebpf4jnsgd1na2vs0mg"},{"bike_id":"9ce80678-2ca4-4baa-a7d2-19d4fc944020","system_id":"levelo_inurba_marseille","lat":43.241642,"lon":5.364094,"is_reserved":false,"is_disabled":false,"rental_uris":{"android":"levelo://app?vid=9ce80678-2ca4-4baa-a7d2-19d4fc944020","ios":"levelo://app?vid=9ce80678-2ca4-4baa-a7d2-19d4fc944020"},"vehicle_type_id":"4","last_reported":1744348258,"current_range_meters":8000,"station_id":"cpo36qri1sfpv3e86is0","pricing_plan_id":"cebpf4jnsgd1na2vs0mg"},{"bike_id":"ba2c16f2-a8de-459f-a35d-6bd74f3cc715","system_id":"levelo_inurba_marseille","lat":43.230577,"lon":5.354983,"is_reserved":false,"is_disabled":false,"rental_uris":{"android":"levelo://app?vid=ba2c16f2-a8de-459f-a35d-6bd74f3cc715","ios":"levelo://app?vid=ba2c16f2-a8de-459f-a35d-6bd74f3cc715"},"vehicle_type_id":"4","last_reported":1744348258,"current_range_meters":8400,"station_id":"cpo3342slgdg3j2ifvpg","pricing_plan_id":"cebpf4jnsgd1na2vs0mg"},{"bike_id":"c7922c9e-df40-4d6f-92a1-640cc6bd2ff7","system_id":"levelo_inurba_marseille","lat":43.241622,"lon":5.363984,"is_reserved":false,"is_disabled":false,"rental_uris":{"android":"levelo://app?vid=c7922c9e-df40-4d6f-92a1-640cc6bd2ff7","ios":"levelo://app?vid=c7922c9e-df40-4d6f-92a1-640cc6bd2ff7"},"vehicle_type_id":"4","last_reported":1744348258,"current_range_meters":8400,"station_id":"cpo36qri1sfpv3e86is0","pricing_plan_id":"cebpf4jnsgd1na2vs0mg"},{"bike_id":"bff67837-c676-4b88-9fdc-8db7fe587121","system_id":"levelo_inurba_marseille","lat":43.30251,"lon":5.40063,"is_reserved":false,"is_disabled":true,"rental_uris":{"android":"levelo://app?vid=bff67837-c676-4b88-9fdc-8db7fe587121","ios":"levelo://app?vid=bff67837-c676-4b88-9fdc-8db7fe587121"},"vehicle_type_id":"4","last_reported":1744348258,"current_range_meters":8400,"station_id":"ce4bgvh2rcd13ifvqcs0","pricing_plan_id":"cebpf4jnsgd1na2vs0mg"},{"bike_id":"6f159010-4e4b-41c8-ac0a-cef91ab39151","system_id":"levelo_inurba_marseille","lat":43.30459,"lon":5.37916,"is_reserved":false,"is_disabled":false,"rental_uris":{"android":"levelo://app?vid=6f159010-4e4b-41c8-ac0a-cef91ab39151","ios":"levelo://app?vid=6f159010-4e4b-41c8-ac0a-cef91ab39151"},"vehicle_type_id":"4","last_reported":1744348258,"current_range_meters":8400,"station_id":"ce4bgup2rcd13ifvqcn0","pricing_plan_id":"cebpf4jnsgd1na2vs0mg"},{"bike_id":"72c3168c-baf7-40e8-868c-731da670395c","system_id":"levelo_inurba_marseille","lat":43.30875,"lon":5.40216,"is_reserved":false,"is_disabled":false,"rental_uris":{"android":"levelo://app?vid=72c3168c-baf7-40e8-868c-731da670395c","ios":"levelo://app?vid=72c3168c-baf7-40e8-868c-731da670395c"},"vehicle_type_id":"4","last_reported":1744348258,"current_range_meters":8800,"station_id":"","pricing_plan_id":"cebpf4jnsgd1na2vs0mg"},{"bike_id":"3864ca11-eba3-4ea9-aa8d-c2b29b8c6d15","system_id":"levelo_inurba_marseille","lat":43.271856,"lon":5.409905,"is_reserved":false,"is_disabled":false,"rental_uris":{"android":"levelo://app?vid=3864ca11-eba3-4ea9-aa8d-c2b29b8c6d15","ios":"levelo://app?vid=3864ca11-eba3-4ea9-aa8d-c2b29b8c6d15"},"vehicle_type_id":"4","last_reported":1744348258,"current_range_meters":8800,"station_id":"ce4bhl12rcd13ifvqgf0","pricing_plan_id":"cebpf4jnsgd1na2vs0mg"},{"bike_id":"13927290-c79e-42f4-abe5-c08d8e48ab74","system_id":"levelo_inurba_marseille","lat":43.30459,"lon":5.37922,"is_reserved":false,"is_disabled":false,"rental_uris":{"android":"levelo://app?vid=13927290-c79e-42f4-abe5-c08d8e48ab74","ios":"levelo://app?vid=13927290-c79e-42f4-abe5-c08d8e48ab74"},"vehicle_type_id":"4","last_reported":1744348258,"current_range_meters":8800,"station_id":"ce4bgup2rcd13ifvqcn0","pricing_plan_id":"cebpf4jnsgd1na2vs0mg"},{"bike_id":"e9c0bd2a-86fe-408a-8f6b-fb39232f4a9e","system_id":"levelo_inurba_marseille","lat":43.29545,"lon":5.3749,"is_reserved":false,"is_disabled":true,"rental_uris":{"android":"levelo://app?vid=e9c0bd2a-86fe-408a-8f6b-fb39232f4a9e","ios":"levelo://app?vid=e9c0bd2a-86fe-408a-8f6b-fb39232f4a9e"},"vehicle_type_id":"4","last_reported":1744348258,"current_range_meters":8800,"station_id":"ce4bgkp2rcd13ifvqbmg","pricing_plan_id":"cebpf4jnsgd1na2vs0mg"},{"bike_id":"3cce7e82-3b3f-4afe-8abe-b91b82f9d784","system_id":"levelo_inurba_marseille","lat":43.28584,"lon":5.37074,"is_reserved":false,"is_disabled":false,"rental_uris":{"android":"levelo://app?vid=3cce7e82-3b3f-4afe-8abe-b91b82f9d784","ios":"levelo://app?vid=3cce7e82-3b3f-4afe-8abe-b91b82f9d784"},"vehicle_type_id":"4","last_reported":1744348258,"current_range_meters":8800,"station_id":"ce4bht12rcd13ifvqi60","pricing_plan_id":"cebpf4jnsgd1na2vs0mg"},{"bike_id":"3baae6a5-5d93-4f4e-8d05-e15c000058d0","system_id":"levelo_inurba_marseille","lat":43.29268,"lon":5.40906,"is_reserved":false,"is_disabled":false,"rental_uris":{"android":"levelo://app?vid=3baae6a5-5d93-4f4e-8d05-e15c000058d0","ios":"levelo://app?vid=3baae6a5-5d93-4f4e-8d05-e15c000058d0"},"vehicle_type_id":"4","last_reported":1744348258,"current_range_meters":8800,"station_id":"ce4bh192rcd13ifvqdc0","pricing_plan_id":"cebpf4jnsgd1na2vs0mg"},{"bike_id":"e3826ea7-fe13-444e-9279-3c8bb503bace","system_id":"levelo_inurba_marseille","lat":43.30415,"lon":5.41277,"is_reserved":false,"is_disabled":false,"rental_uris":{"android":"levelo://app?vid=e3826ea7-fe13-444e-9279-3c8bb503bace","ios":"levelo://app?vid=e3826ea7-fe13-444e-9279-3c8bb503bace"},"vehicle_type_id":"4","last_reported":1744348258,"current_range_meters":8800,"station_id":"ce4bhop2rcd13ifvqh8g","pricing_plan_id":"cebpf4jnsgd1na2vs0mg"},{"bike_id":"46d6c8fe-5b1f-4c8c-913c-40bd7e546de6","system_id":"levelo_inurba_marseille","lat":43.3045,"lon":5.37918,"is_reserved":false,"is_disabled":false,"rental_uris":{"android":"levelo://app?vid=46d6c8fe-5b1f-4c8c-913c-40bd7e546de6","ios":"levelo://app?vid=46d6c8fe-5b1f-4c8c-913c-40bd7e546de6"},"vehicle_type_id":"4","last_reported":1744348258,"current_range_meters":8800,"station_id":"ce4bgup2rcd13ifvqcn0","pricing_plan_id":"cebpf4jnsgd1na2vs0mg"},{"bike_id":"6eb61986-8e92-47db-8c9a-ad77976386e7","system_id":"levelo_inurba_marseille","lat":43.30532,"lon":5.38437,"is_reserved":false,"is_disabled":true,"rental_uris":{"android":"levelo://app?vid=6eb61986-8e92-47db-8c9a-ad77976386e7","ios":"levelo://app?vid=6eb61986-8e92-47db-8c9a-ad77976386e7"},"vehicle_type_id":"4","last_reported":1744348258,"current_range_meters":8800,"station_id":"ce4bgg92rcd13ifvqb30","pricing_plan_id":"cebpf4jnsgd1na2vs0mg"},{"bike_id":"cd94694b-42fa-44d6-807a-2d5a6758fe67","system_id":"levelo_inurba_marseille","lat":43.2818,"lon":5.42836,"is_reserved":false,"is_disabled":true,"rental_uris":{"android":"levelo://app?vid=cd94694b-42fa-44d6-807a-2d5a6758fe67","ios":"levelo://app?vid=cd94694b-42fa-44d6-807a-2d5a6758fe67"},"vehicle_type_id":"4","last_reported":1744348258,"current_range_meters":8800,"station_id":"","pricing_plan_id":"cebpf4jnsgd1na2vs0mg"},{"bike_id":"65f52e07-c7c1-4b0b-a98a-2cb0cb6e9ef2","system_id":"levelo_inurba_marseille","lat":43.24059,"lon":5.37714,"is_reserved":false,"is_disabled":false,"rental_uris":{"android":"levelo://app?vid=65f52e07-c7c1-4b0b-a98a-2cb0cb6e9ef2","ios":"levelo://app?vid=65f52e07-c7c1-4b0b-a98a-2cb0cb6e9ef2"},"vehicle_type_id":"4","last_reported":1744348258,"current_range_meters":8800,"station_id":"ce4bhnp2rcd13ifvqgvg","pricing_plan_id":"cebpf4jnsgd1na2vs0mg"},{"bike_id":"33443bd1-63f0-4476-823e-4549241d83bd","system_id":"levelo_inurba_marseille","lat":43.22936,"lon":5.35387,"is_reserved":false,"is_disabled":false,"rental_uris":{"android":"levelo://app?vid=33443bd1-63f0-4476-823e-4549241d83bd","ios":"levelo://app?vid=33443bd1-63f0-4476-823e-4549241d83bd"},"vehicle_type_id":"4","last_reported":1744348258,"current_range_meters":9200,"station_id":"cpo3532slgdg3j2ikp40","pricing_plan_id":"cebpf4jnsgd1na2vs0mg"},{"bike_id":"eb2a2906-4519-49e5-b09f-221125aa377a","system_id":"levelo_inurba_marseille","lat":43.30366,"lon":5.41349,"is_reserved":false,"is_disabled":false,"rental_uris":{"android":"levelo://app?vid=eb2a2906-4519-49e5-b09f-221125aa377a","ios":"levelo://app?vid=eb2a2906-4519-49e5-b09f-221125aa377a"},"vehicle_type_id":"4","last_reported":1744348258,"current_range_meters":9200,"station_id":"","pricing_plan_id":"cebpf4jnsgd1na2vs0mg"},{"bike_id":"9cc31833-c44a-42a9-bfe0-2165a64fe727","system_id":"levelo_inurba_marseille","lat":43.27931,"lon":5.41047,"is_reserved":false,"is_disabled":false,"rental_uris":{"android":"levelo://app?vid=9cc31833-c44a-42a9-bfe0-2165a64fe727","ios":"levelo://app?vid=9cc31833-c44a-42a9-bfe0-2165a64fe727"},"vehicle_type_id":"4","last_reported":1744348258,"current_range_meters":9200,"station_id":"ce4bhnp2rcd13ifvqh0g","pricing_plan_id":"cebpf4jnsgd1na2vs0mg"},{"bike_id":"2e3fc202-4684-4d64-b201-b745cfc357fe","system_id":"levelo_inurba_marseille","lat":43.24789,"lon":5.37484,"is_reserved":false,"is_disabled":false,"rental_uris":{"android":"levelo://app?vid=2e3fc202-4684-4d64-b201-b745cfc357fe","ios":"levelo://app?vid=2e3fc202-4684-4d64-b201-b745cfc357fe"},"vehicle_type_id":"4","last_reported":1744348258,"current_range_meters":9200,"station_id":"ce4bhgh2rcd13ifvqfb0","pricing_plan_id":"cebpf4jnsgd1na2vs0mg"},{"bike_id":"cdb818a6-fd2a-4195-84c0-ff94cd0f3a81","system_id":"levelo_inurba_marseille","lat":43.287105,"lon":5.399822,"is_reserved":false,"is_disabled":false,"rental_uris":{"android":"levelo://app?vid=cdb818a6-fd2a-4195-84c0-ff94cd0f3a81","ios":"levelo://app?vid=cdb818a6-fd2a-4195-84c0-ff94cd0f3a81"},"vehicle_type_id":"4","last_reported":1744348258,"current_range_meters":9200,"station_id":"","pricing_plan_id":"cebpf4jnsgd1na2vs0mg"},{"bike_id":"86e2480e-a990-4dee-9b96-1d05a42daa55","system_id":"levelo_inurba_marseille","lat":43.291818,"lon":5.39355,"is_reserved":false,"is_disabled":false,"rental_uris":{"android":"levelo://app?vid=86e2480e-a990-4dee-9b96-1d05a42daa55","ios":"levelo://app?vid=86e2480e-a990-4dee-9b96-1d05a42daa55"},"vehicle_type_id":"4","last_reported":1744348258,"current_range_meters":9200,"station_id":"ce4bh192rcd13ifvqdd0","pricing_plan_id":"cebpf4jnsgd1na2vs0mg"},{"bike_id":"4e47d0fb-2760-4784-8c81-8e8fb738bf29","system_id":"levelo_inurba_marseille","lat":43.25864,"lon":5.39917,"is_reserved":false,"is_disabled":false,"rental_uris":{"android":"levelo://app?vid=4e47d0fb-2760-4784-8c81-8e8fb738bf29","ios":"levelo://app?vid=4e47d0fb-2760-4784-8c81-8e8fb738bf29"},"vehicle_type_id":"4","last_reported":1744348258,"current_range_meters":9200,"station_id":"ce4bhl92rcd13ifvqghg","pricing_plan_id":"cebpf4jnsgd1na2vs0mg"},{"bike_id":"4c023299-68c6-4fe1-82cc-ec03fbc45384","system_id":"levelo_inurba_marseille","lat":43.303006,"lon":5.369008,"is_reserved":false,"is_disabled":false,"rental_uris":{"android":"levelo://app?vid=4c023299-68c6-4fe1-82cc-ec03fbc45384","ios":"levelo://app?vid=4c023299-68c6-4fe1-82cc-ec03fbc45384"},"vehicle_type_id":"4","last_reported":1744348258,"current_range_meters":9200,"station_id":"ce4bgqh2rcd13ifvqc5g","pricing_plan_id":"cebpf4jnsgd1na2vs0mg"},{"bike_id":"82522d85-616f-4b70-b6f0-591320032371","system_id":"levelo_inurba_marseille","lat":43.31717,"lon":5.42418,"is_reserved":false,"is_disabled":false,"rental_uris":{"android":"levelo://app?vid=82522d85-616f-4b70-b6f0-591320032371","ios":"levelo://app?vid=82522d85-616f-4b70-b6f0-591320032371"},"vehicle_type_id":"4","last_reported":1744348258,"current_range_meters":9200,"station_id":"ce4bhp92rcd13ifvqhbg","pricing_plan_id":"cebpf4jnsgd1na2vs0mg"},{"bike_id":"74bb5d65-537b-4c7c-9102-bad931df68ad","system_id":"levelo_inurba_marseille","lat":43.303,"lon":5.40453,"is_reserved":false,"is_disabled":false,"rental_uris":{"android":"levelo://app?vid=74bb5d65-537b-4c7c-9102-bad931df68ad","ios":"levelo://app?vid=74bb5d65-537b-4c7c-9102-bad931df68ad"},"vehicle_type_id":"4","last_reported":1744348258,"current_range_meters":9200,"station_id":"ce4bh012rcd13ifvqd10","pricing_plan_id":"cebpf4jnsgd1na2vs0mg"},{"bike_id":"68e0119a-8645-4479-b5b1-70d812883054","system_id":"levelo_inurba_marseille","lat":43.28099,"lon":5.37848,"is_reserved":false,"is_disabled":false,"rental_uris":{"android":"levelo://app?vid=68e0119a-8645-4479-b5b1-70d812883054","ios":"levelo://app?vid=68e0119a-8645-4479-b5b1-70d812883054"},"vehicle_type_id":"4","last_reported":1744348258,"current_range_meters":9600,"station_id":"ce4bha12rcd13ifvqee0","pricing_plan_id":"cebpf4jnsgd1na2vs0mg"},{"bike_id":"7986f528-e014-4751-bc08-903178eb0939","system_id":"levelo_inurba_marseille","lat":43.29778,"lon":5.39352,"is_reserved":false,"is_disabled":false,"rental_uris":{"android":"levelo://app?vid=7986f528-e014-4751-bc08-903178eb0939","ios":"levelo://app?vid=7986f528-e014-4751-bc08-903178eb0939"},"vehicle_type_id":"4","last_reported":1744348258,"current_range_meters":9600,"station_id":"chh1huq6cuj3fo74tm60","pricing_plan_id":"cebpf4jnsgd1na2vs0mg"},{"bike_id":"766488c0-e8c9-45da-a7ef-ba95d1783edc","system_id":"levelo_inurba_marseille","lat":43.28405,"lon":5.37541,"is_reserved":false,"is_disabled":false,"rental_uris":{"android":"levelo://app?vid=766488c0-e8c9-45da-a7ef-ba95d1783edc","ios":"levelo://app?vid=766488c0-e8c9-45da-a7ef-ba95d1783edc"},"vehicle_type_id":"4","last_reported":1744348258,"current_range_meters":9600,"station_id":"ce4bh412rcd13ifvqds0","pricing_plan_id":"cebpf4jnsgd1na2vs0mg"},{"bike_id":"5bb125d9-b23d-4fd1-92cb-d46d3b6177ec","system_id":"levelo_inurba_marseille","lat":43.3032,"lon":5.40446,"is_reserved":false,"is_disabled":false,"rental_uris":{"android":"levelo://app?vid=5bb125d9-b23d-4fd1-92cb-d46d3b6177ec","ios":"levelo://app?vid=5bb125d9-b23d-4fd1-92cb-d46d3b6177ec"},"vehicle_type_id":"4","last_reported":1744348258,"current_range_meters":9600,"station_id":"ce4bh012rcd13ifvqd10","pricing_plan_id":"cebpf4jnsgd1na2vs0mg"},{"bike_id":"8def42d5-7601-461e-b69f-dd41878701ec","system_id":"levelo_inurba_marseille","lat":43.30457,"lon":5.37918,"is_reserved":false,"is_disabled":false,"rental_uris":{"android":"levelo://app?vid=8def42d5-7601-461e-b69f-dd41878701ec","ios":"levelo://app?vid=8def42d5-7601-461e-b69f-dd41878701ec"},"vehicle_type_id":"4","last_reported":1744348258,"current_range_meters":9600,"station_id":"ce4bgup2rcd13ifvqcn0","pricing_plan_id":"cebpf4jnsgd1na2vs0mg"},{"bike_id":"2000497b-6d4b-416f-b43b-2a4143aad53b","system_id":"levelo_inurba_marseille","lat":43.322965,"lon":5.3867,"is_reserved":false,"is_disabled":false,"rental_uris":{"android":"levelo://app?vid=2000497b-6d4b-416f-b43b-2a4143aad53b","ios":"levelo://app?vid=2000497b-6d4b-416f-b43b-2a4143aad53b"},"vehicle_type_id":"4","last_reported":1744348258,"current_range_meters":9600,"station_id":"","pricing_plan_id":"cebpf4jnsgd1na2vs0mg"},{"bike_id":"a8ce148c-c646-49c7-bc93-8e16c53d9a41","system_id":"levelo_inurba_marseille","lat":43.23187,"lon":5.39981,"is_reserved":false,"is_disabled":false,"rental_uris":{"android":"levelo://app?vid=a8ce148c-c646-49c7-bc93-8e16c53d9a41","ios":"levelo://app?vid=a8ce148c-c646-49c7-bc93-8e16c53d9a41"},"vehicle_type_id":"4","last_reported":1744348258,"current_range_meters":9600,"station_id":"ce4bhn12rcd13ifvqgqg","pricing_plan_id":"cebpf4jnsgd1na2vs0mg"},{"bike_id":"04e74939-45c7-4674-bdb2-a942e20709ed","system_id":"levelo_inurba_marseille","lat":43.27943,"lon":5.41035,"is_reserved":false,"is_disabled":false,"rental_uris":{"android":"levelo://app?vid=04e74939-45c7-4674-bdb2-a942e20709ed","ios":"levelo://app?vid=04e74939-45c7-4674-bdb2-a942e20709ed"},"vehicle_type_id":"4","last_reported":1744348258,"current_range_meters":9600,"station_id":"ce4bhnp2rcd13ifvqh0g","pricing_plan_id":"cebpf4jnsgd1na2vs0mg"},{"bike_id":"b74ccc2f-e8ef-41bb-ab70-412b1cdf0515","system_id":"levelo_inurba_marseille","lat":43.30897,"lon":5.40178,"is_reserved":false,"is_disabled":false,"rental_uris":{"android":"levelo://app?vid=b74ccc2f-e8ef-41bb-ab70-412b1cdf0515","ios":"levelo://app?vid=b74ccc2f-e8ef-41bb-ab70-412b1cdf0515"},"vehicle_type_id":"4","last_reported":1744348258,"current_range_meters":10000,"station_id":"","pricing_plan_id":"cebpf4jnsgd1na2vs0mg"},{"bike_id":"bb860c5d-3678-41cc-9db3-5494163b0a3e","system_id":"levelo_inurba_marseille","lat":43.30142,"lon":5.38087,"is_reserved":false,"is_disabled":false,"rental_uris":{"android":"levelo://app?vid=bb860c5d-3678-41cc-9db3-5494163b0a3e","ios":"levelo://app?vid=bb860c5d-3678-41cc-9db3-5494163b0a3e"},"vehicle_type_id":"4","last_reported":1744348258,"current_range_meters":10000,"station_id":"ce4bgjp2rcd13ifvqbh0","pricing_plan_id":"cebpf4jnsgd1na2vs0mg"},{"bike_id":"a50ba3b3-ad34-4398-b71e-4df32bf58c7d","system_id":"levelo_inurba_marseille","lat":43.308109,"lon":5.381385,"is_reserved":false,"is_disabled":false,"rental_uris":{"android":"levelo://app?vid=a50ba3b3-ad34-4398-b71e-4df32bf58c7d","ios":"levelo://app?vid=a50ba3b3-ad34-4398-b71e-4df32bf58c7d"},"vehicle_type_id":"4","last_reported":1744348258,"current_range_meters":10000,"station_id":"ce4bgt12rcd13ifvqce0","pricing_plan_id":"cebpf4jnsgd1na2vs0mg"},{"bike_id":"9720b8b2-bab5-4ee6-b22e-33551c8f8095","system_id":"levelo_inurba_marseille","lat":43.28638,"lon":5.36381,"is_reserved":false,"is_disabled":false,"rental_uris":{"android":"levelo://app?vid=9720b8b2-bab5-4ee6-b22e-33551c8f8095","ios":"levelo://app?vid=9720b8b2-bab5-4ee6-b22e-33551c8f8095"},"vehicle_type_id":"4","last_reported":1744348258,"current_range_meters":10800,"station_id":"ce4bhah2rcd13ifvqej0","pricing_plan_id":"cebpf4jnsgd1na2vs0mg"},{"bike_id":"fb616cd3-23a4-48e3-9a4e-7023a427b4b8","system_id":"levelo_inurba_marseille","lat":43.29639,"lon":5.39592,"is_reserved":false,"is_disabled":false,"rental_uris":{"android":"levelo://app?vid=fb616cd3-23a4-48e3-9a4e-7023a427b4b8","ios":"levelo://app?vid=fb616cd3-23a4-48e3-9a4e-7023a427b4b8"},"vehicle_type_id":"4","last_reported":1744348258,"current_range_meters":10800,"station_id":"","pricing_plan_id":"cebpf4jnsgd1na2vs0mg"},{"bike_id":"c95b9089-1c33-4eee-b033-e37e6269370c","system_id":"levelo_inurba_marseille","lat":43.306003,"lon":5.393553,"is_reserved":false,"is_disabled":false,"rental_uris":{"android":"levelo://app?vid=c95b9089-1c33-4eee-b033-e37e6269370c","ios":"levelo://app?vid=c95b9089-1c33-4eee-b033-e37e6269370c"},"vehicle_type_id":"4","last_reported":1744348258,"current_range_meters":10800,"station_id":"ce4bh0p2rcd13ifvqd80","pricing_plan_id":"cebpf4jnsgd1na2vs0mg"},{"bike_id":"493a70a0-a26d-472d-b4e8-0aa8a8a2337c","system_id":"levelo_inurba_marseille","lat":43.31168,"lon":5.3872,"is_reserved":false,"is_disabled":false,"rental_uris":{"android":"levelo://app?vid=493a70a0-a26d-472d-b4e8-0aa8a8a2337c","ios":"levelo://app?vid=493a70a0-a26d-472d-b4e8-0aa8a8a2337c"},"vehicle_type_id":"4","last_reported":1744348258,"current_range_meters":10000,"station_id":"ce4bgv12rcd13ifvqcp0","pricing_plan_id":"cebpf4jnsgd1na2vs0mg"},{"bike_id":"eab6cbfa-cb8e-47d7-b0d6-226ab7facec7","system_id":"levelo_inurba_marseille","lat":43.31713,"lon":5.42399,"is_reserved":false,"is_disabled":true,"rental_uris":{"android":"levelo://app?vid=eab6cbfa-cb8e-47d7-b0d6-226ab7facec7","ios":"levelo://app?vid=eab6cbfa-cb8e-47d7-b0d6-226ab7facec7"},"vehicle_type_id":"4","last_reported":1744348258,"current_range_meters":10800,"station_id":"ce4bhp92rcd13ifvqhbg","pricing_plan_id":"cebpf4jnsgd1na2vs0mg"},{"bike_id":"36dd2f5e-4014-41b9-8f6e-aa54636e0b8b","system_id":"levelo_inurba_marseille","lat":43.241601,"lon":5.363921,"is_reserved":false,"is_disabled":false,"rental_uris":{"android":"levelo://app?vid=36dd2f5e-4014-41b9-8f6e-aa54636e0b8b","ios":"levelo://app?vid=36dd2f5e-4014-41b9-8f6e-aa54636e0b8b"},"vehicle_type_id":"4","last_reported":1744348258,"current_range_meters":10800,"station_id":"cpo36qri1sfpv3e86is0","pricing_plan_id":"cebpf4jnsgd1na2vs0mg"},{"bike_id":"de07953f-a368-43dd-aba2-34a7197efe50","system_id":"levelo_inurba_marseille","lat":43.256115,"lon":5.405147,"is_reserved":false,"is_disabled":false,"rental_uris":{"android":"levelo://app?vid=de07953f-a368-43dd-aba2-34a7197efe50","ios":"levelo://app?vid=de07953f-a368-43dd-aba2-34a7197efe50"},"vehicle_type_id":"4","last_reported":1744348258,"current_range_meters":11200,"station_id":"","pricing_plan_id":"cebpf4jnsgd1na2vs0mg"},{"bike_id":"e4584e81-d0ff-45d4-a366-ed824c8de9b6","system_id":"levelo_inurba_marseille","lat":43.23142,"lon":5.43735,"is_reserved":false,"is_disabled":false,"rental_uris":{"android":"levelo://app?vid=e4584e81-d0ff-45d4-a366-ed824c8de9b6","ios":"levelo://app?vid=e4584e81-d0ff-45d4-a366-ed824c8de9b6"},"vehicle_type_id":"4","last_reported":1744348258,"current_range_meters":11200,"station_id":"ce4bhmp2rcd13ifvqgog","pricing_plan_id":"cebpf4jnsgd1na2vs0mg"},{"bike_id":"037b1d37-e484-4907-b25c-9225f3c24703","system_id":"levelo_inurba_marseille","lat":43.265673,"lon":5.390011,"is_reserved":false,"is_disabled":false,"rental_uris":{"android":"levelo://app?vid=037b1d37-e484-4907-b25c-9225f3c24703","ios":"levelo://app?vid=037b1d37-e484-4907-b25c-9225f3c24703"},"vehicle_type_id":"4","last_reported":1744348258,"current_range_meters":11200,"station_id":"ce4bhe12rcd13ifvqf30","pricing_plan_id":"cebpf4jnsgd1na2vs0mg"},{"bike_id":"4343225f-d65e-4117-8b58-0d25b72bef25","system_id":"levelo_inurba_marseille","lat":43.24067,"lon":5.37768,"is_reserved":false,"is_disabled":false,"rental_uris":{"android":"levelo://app?vid=4343225f-d65e-4117-8b58-0d25b72bef25","ios":"levelo://app?vid=4343225f-d65e-4117-8b58-0d25b72bef25"},"vehicle_type_id":"4","last_reported":1744348258,"current_range_meters":10800,"station_id":"ce4bhnp2rcd13ifvqgvg","pricing_plan_id":"cebpf4jnsgd1na2vs0mg"},{"bike_id":"33f764f3-1958-431c-a50f-d5fe60e86d22","system_id":"levelo_inurba_marseille","lat":43.3087,"lon":5.40285,"is_reserved":false,"is_disabled":false,"rental_uris":{"android":"levelo://app?vid=33f764f3-1958-431c-a50f-d5fe60e86d22","ios":"levelo://app?vid=33f764f3-1958-431c-a50f-d5fe60e86d22"},"vehicle_type_id":"4","last_reported":1744348258,"current_range_meters":11200,"station_id":"ce4bgvp2rcd13ifvqct0","pricing_plan_id":"cebpf4jnsgd1na2vs0mg"},{"bike_id":"8c01c616-33d3-4f21-a94b-3bf76ab48ae7","system_id":"levelo_inurba_marseille","lat":43.289339,"lon":5.366259,"is_reserved":false,"is_disabled":true,"rental_uris":{"android":"levelo://app?vid=8c01c616-33d3-4f21-a94b-3bf76ab48ae7","ios":"levelo://app?vid=8c01c616-33d3-4f21-a94b-3bf76ab48ae7"},"vehicle_type_id":"4","last_reported":1744348258,"current_range_meters":11600,"station_id":"ce4bhap2rcd13ifvqek0","pricing_plan_id":"cebpf4jnsgd1na2vs0mg"},{"bike_id":"5c1f11c5-87b7-479e-b5dd-768ef8d07ce8","system_id":"levelo_inurba_marseille","lat":43.3116,"lon":5.38729,"is_reserved":false,"is_disabled":false,"rental_uris":{"android":"levelo://app?vid=5c1f11c5-87b7-479e-b5dd-768ef8d07ce8","ios":"levelo://app?vid=5c1f11c5-87b7-479e-b5dd-768ef8d07ce8"},"vehicle_type_id":"4","last_reported":1744348258,"current_range_meters":11600,"station_id":"ce4bgv12rcd13ifvqcp0","pricing_plan_id":"cebpf4jnsgd1na2vs0mg"},{"bike_id":"bd2f5995-27ec-4e39-9257-a3bd08cd44e1","system_id":"levelo_inurba_marseille","lat":43.28415,"lon":5.37527,"is_reserved":false,"is_disabled":false,"rental_uris":{"android":"levelo://app?vid=bd2f5995-27ec-4e39-9257-a3bd08cd44e1","ios":"levelo://app?vid=bd2f5995-27ec-4e39-9257-a3bd08cd44e1"},"vehicle_type_id":"4","last_reported":1744348258,"current_range_meters":11600,"station_id":"ce4bh412rcd13ifvqds0","pricing_plan_id":"cebpf4jnsgd1na2vs0mg"},{"bike_id":"a1be7942-93cf-48f2-9853-15a5ec50f101","system_id":"levelo_inurba_marseille","lat":43.231893,"lon":5.399857,"is_reserved":false,"is_disabled":false,"rental_uris":{"android":"levelo://app?vid=a1be7942-93cf-48f2-9853-15a5ec50f101","ios":"levelo://app?vid=a1be7942-93cf-48f2-9853-15a5ec50f101"},"vehicle_type_id":"4","last_reported":1744348258,"current_range_meters":11600,"station_id":"ce4bhn12rcd13ifvqgqg","pricing_plan_id":"cebpf4jnsgd1na2vs0mg"},{"bike_id":"0922821c-4e1d-4817-9469-860e55f8f0d1","system_id":"levelo_inurba_marseille","lat":43.225,"lon":5.34799,"is_reserved":false,"is_disabled":false,"rental_uris":{"android":"levelo://app?vid=0922821c-4e1d-4817-9469-860e55f8f0d1","ios":"levelo://app?vid=0922821c-4e1d-4817-9469-860e55f8f0d1"},"vehicle_type_id":"4","last_reported":1744348258,"current_range_meters":11600,"station_id":"st_cvj5dfep6f1abm77gieg","pricing_plan_id":"cebpf4jnsgd1na2vs0mg"},{"bike_id":"2f604b1b-d5c1-4825-8a1c-02d30e0bb26a","system_id":"levelo_inurba_marseille","lat":43.3104,"lon":5.38372,"is_reserved":false,"is_disabled":false,"rental_uris":{"android":"levelo://app?vid=2f604b1b-d5c1-4825-8a1c-02d30e0bb26a","ios":"levelo://app?vid=2f604b1b-d5c1-4825-8a1c-02d30e0bb26a"},"vehicle_type_id":"4","last_reported":1744348258,"current_range_meters":12000,"station_id":"ce4bgv92rcd13ifvqcr0","pricing_plan_id":"cebpf4jnsgd1na2vs0mg"},{"bike_id":"25241e57-b9f0-44b1-bbcd-54b9d3822c45","system_id":"levelo_inurba_marseille","lat":43.323379,"lon":5.406256,"is_reserved":false,"is_disabled":false,"rental_uris":{"android":"levelo://app?vid=25241e57-b9f0-44b1-bbcd-54b9d3822c45","ios":"levelo://app?vid=25241e57-b9f0-44b1-bbcd-54b9d3822c45"},"vehicle_type_id":"4","last_reported":1744348258,"current_range_meters":12000,"station_id":"ce4bhq92rcd13ifvqhjg","pricing_plan_id":"cebpf4jnsgd1na2vs0mg"},{"bike_id":"aca070cc-ba66-44c8-adde-e4314d297936","system_id":"levelo_inurba_marseille","lat":43.29591,"lon":5.3864,"is_reserved":false,"is_disabled":false,"rental_uris":{"android":"levelo://app?vid=aca070cc-ba66-44c8-adde-e4314d297936","ios":"levelo://app?vid=aca070cc-ba66-44c8-adde-e4314d297936"},"vehicle_type_id":"4","last_reported":1744348258,"current_range_meters":12000,"station_id":"","pricing_plan_id":"cebpf4jnsgd1na2vs0mg"},{"bike_id":"1a952879-6c88-4fe1-be76-32006d5594ff","system_id":"levelo_inurba_marseille","lat":43.29021,"lon":5.39993,"is_reserved":false,"is_disabled":false,"rental_uris":{"android":"levelo://app?vid=1a952879-6c88-4fe1-be76-32006d5594ff","ios":"levelo://app?vid=1a952879-6c88-4fe1-be76-32006d5594ff"},"vehicle_type_id":"4","last_reported":1744348258,"current_range_meters":12000,"station_id":"ce4bh392rcd13ifvqdm0","pricing_plan_id":"cebpf4jnsgd1na2vs0mg"},{"bike_id":"508b362c-971e-41d0-9a97-522956b1a8d5","system_id":"levelo_inurba_marseille","lat":43.297124,"lon":5.366108,"is_reserved":false,"is_disabled":false,"rental_uris":{"android":"levelo://app?vid=508b362c-971e-41d0-9a97-522956b1a8d5","ios":"levelo://app?vid=508b362c-971e-41d0-9a97-522956b1a8d5"},"vehicle_type_id":"4","last_reported":1744348258,"current_range_meters":12400,"station_id":"ce4bgn12rcd13ifvqbt0","pricing_plan_id":"cebpf4jnsgd1na2vs0mg"},{"bike_id":"989cfda3-e11f-45b5-a08c-71c9a276e15d","system_id":"levelo_inurba_marseille","lat":43.29783,"lon":5.39353,"is_reserved":false,"is_disabled":false,"rental_uris":{"android":"levelo://app?vid=989cfda3-e11f-45b5-a08c-71c9a276e15d","ios":"levelo://app?vid=989cfda3-e11f-45b5-a08c-71c9a276e15d"},"vehicle_type_id":"4","last_reported":1744348258,"current_range_meters":12400,"station_id":"chh1huq6cuj3fo74tm60","pricing_plan_id":"cebpf4jnsgd1na2vs0mg"},{"bike_id":"c266cdc4-c7b8-499b-9979-d13187952b82","system_id":"levelo_inurba_marseille","lat":43.26919,"lon":5.3893,"is_reserved":false,"is_disabled":false,"rental_uris":{"android":"levelo://app?vid=c266cdc4-c7b8-499b-9979-d13187952b82","ios":"levelo://app?vid=c266cdc4-c7b8-499b-9979-d13187952b82"},"vehicle_type_id":"4","last_reported":1744348258,"current_range_meters":12400,"station_id":"ce4bhhh2rcd13ifvqfl0","pricing_plan_id":"cebpf4jnsgd1na2vs0mg"},{"bike_id":"784f6f6f-9f28-47b2-878e-a7ec8d21c437","system_id":"levelo_inurba_marseille","lat":43.33773,"lon":5.37483,"is_reserved":false,"is_disabled":false,"rental_uris":{"android":"levelo://app?vid=784f6f6f-9f28-47b2-878e-a7ec8d21c437","ios":"levelo://app?vid=784f6f6f-9f28-47b2-878e-a7ec8d21c437"},"vehicle_type_id":"4","last_reported":1744348258,"current_range_meters":12400,"station_id":"","pricing_plan_id":"cebpf4jnsgd1na2vs0mg"},{"bike_id":"9f945758-9c31-4af1-844c-96a43b6dd16d","system_id":"levelo_inurba_marseille","lat":43.303737,"lon":5.424739,"is_reserved":false,"is_disabled":false,"rental_uris":{"android":"levelo://app?vid=9f945758-9c31-4af1-844c-96a43b6dd16d","ios":"levelo://app?vid=9f945758-9c31-4af1-844c-96a43b6dd16d"},"vehicle_type_id":"4","last_reported":1744348258,"current_range_meters":12400,"station_id":"ce4bhoh2rcd13ifvqh6g","pricing_plan_id":"cebpf4jnsgd1na2vs0mg"},{"bike_id":"a892d889-aa61-4cb5-8b7f-2797225bd9c4","system_id":"levelo_inurba_marseille","lat":43.265611,"lon":5.390144,"is_reserved":false,"is_disabled":false,"rental_uris":{"android":"levelo://app?vid=a892d889-aa61-4cb5-8b7f-2797225bd9c4","ios":"levelo://app?vid=a892d889-aa61-4cb5-8b7f-2797225bd9c4"},"vehicle_type_id":"4","last_reported":1744348258,"current_range_meters":12400,"station_id":"ce4bhe12rcd13ifvqf30","pricing_plan_id":"cebpf4jnsgd1na2vs0mg"},{"bike_id":"190bed17-6627-4f7f-9040-d999c64b1fa9","system_id":"levelo_inurba_marseille","lat":43.30416,"lon":5.41305,"is_reserved":false,"is_disabled":false,"rental_uris":{"android":"levelo://app?vid=190bed17-6627-4f7f-9040-d999c64b1fa9","ios":"levelo://app?vid=190bed17-6627-4f7f-9040-d999c64b1fa9"},"vehicle_type_id":"4","last_reported":1744348258,"current_range_meters":12400,"station_id":"ce4bhop2rcd13ifvqh8g","pricing_plan_id":"cebpf4jnsgd1na2vs0mg"},{"bike_id":"23718e9a-5ce7-4d28-99a5-8f754f56e13c","system_id":"levelo_inurba_marseille","lat":43.22495,"lon":5.3479,"is_reserved":false,"is_disabled":false,"rental_uris":{"android":"levelo://app?vid=23718e9a-5ce7-4d28-99a5-8f754f56e13c","ios":"levelo://app?vid=23718e9a-5ce7-4d28-99a5-8f754f56e13c"},"vehicle_type_id":"4","last_reported":1744348258,"current_range_meters":12800,"station_id":"st_cvj5dfep6f1abm77gieg","pricing_plan_id":"cebpf4jnsgd1na2vs0mg"},{"bike_id":"9c07b687-0cca-4a28-82f6-66c50d295640","system_id":"levelo_inurba_marseille","lat":43.32342,"lon":5.38328,"is_reserved":false,"is_disabled":false,"rental_uris":{"android":"levelo://app?vid=9c07b687-0cca-4a28-82f6-66c50d295640","ios":"levelo://app?vid=9c07b687-0cca-4a28-82f6-66c50d295640"},"vehicle_type_id":"4","last_reported":1744348258,"current_range_meters":12800,"station_id":"","pricing_plan_id":"cebpf4jnsgd1na2vs0mg"},{"bike_id":"4f3acd91-ce8e-4583-bef1-d80af5069254","system_id":"levelo_inurba_marseille","lat":43.24168,"lon":5.39736,"is_reserved":false,"is_disabled":false,"rental_uris":{"android":"levelo://app?vid=4f3acd91-ce8e-4583-bef1-d80af5069254","ios":"levelo://app?vid=4f3acd91-ce8e-4583-bef1-d80af5069254"},"vehicle_type_id":"4","last_reported":1744348258,"current_range_meters":13600,"station_id":"ce4bhn12rcd13ifvqgpg","pricing_plan_id":"cebpf4jnsgd1na2vs0mg"},{"bike_id":"a4cb75f8-85cb-4f4a-8281-971d890f52c2","system_id":"levelo_inurba_marseille","lat":43.24812,"lon":5.37456,"is_reserved":false,"is_disabled":false,"rental_uris":{"android":"levelo://app?vid=a4cb75f8-85cb-4f4a-8281-971d890f52c2","ios":"levelo://app?vid=a4cb75f8-85cb-4f4a-8281-971d890f52c2"},"vehicle_type_id":"4","last_reported":1744348258,"current_range_meters":13600,"station_id":"ce4bhgh2rcd13ifvqfb0","pricing_plan_id":"cebpf4jnsgd1na2vs0mg"},{"bike_id":"da6a57ea-c38f-48a5-89c8-6054329a947b","system_id":"levelo_inurba_marseille","lat":43.27179,"lon":5.409943,"is_reserved":false,"is_disabled":false,"rental_uris":{"android":"levelo://app?vid=da6a57ea-c38f-48a5-89c8-6054329a947b","ios":"levelo://app?vid=da6a57ea-c38f-48a5-89c8-6054329a947b"},"vehicle_type_id":"4","last_reported":1744348258,"current_range_meters":13600,"station_id":"ce4bhl12rcd13ifvqgf0","pricing_plan_id":"cebpf4jnsgd1na2vs0mg"},{"bike_id":"a737f5db-dfb3-4dd8-aeff-67617975e190","system_id":"levelo_inurba_marseille","lat":43.295997,"lon":5.377084,"is_reserved":false,"is_disabled":true,"rental_uris":{"android":"levelo://app?vid=a737f5db-dfb3-4dd8-aeff-67617975e190","ios":"levelo://app?vid=a737f5db-dfb3-4dd8-aeff-67617975e190"},"vehicle_type_id":"4","last_reported":1744348258,"current_range_meters":13600,"station_id":"ce4bgi92rcd13ifvqb90","pricing_plan_id":"cebpf4jnsgd1na2vs0mg"},{"bike_id":"078a6dc5-3c98-4f01-aecd-ecf8c0f132d9","system_id":"levelo_inurba_marseille","lat":43.29956,"lon":5.38532,"is_reserved":false,"is_disabled":true,"rental_uris":{"android":"levelo://app?vid=078a6dc5-3c98-4f01-aecd-ecf8c0f132d9","ios":"levelo://app?vid=078a6dc5-3c98-4f01-aecd-ecf8c0f132d9"},"vehicle_type_id":"4","last_reported":1744348258,"current_range_meters":13600,"station_id":"ce4bgj92rcd13ifvqbd0","pricing_plan_id":"cebpf4jnsgd1na2vs0mg"},{"bike_id":"94455896-0f19-4fae-bd72-9879f01fcd6e","system_id":"levelo_inurba_marseille","lat":43.29546,"lon":5.42285,"is_reserved":false,"is_disabled":true,"rental_uris":{"android":"levelo://app?vid=94455896-0f19-4fae-bd72-9879f01fcd6e","ios":"levelo://app?vid=94455896-0f19-4fae-bd72-9879f01fcd6e"},"vehicle_type_id":"4","last_reported":1744348258,"current_range_meters":13600,"station_id":"ce4bhph2rcd13ifvqhdg","pricing_plan_id":"cebpf4jnsgd1na2vs0mg"},{"bike_id":"e2caf266-2651-477b-85a4-aac441bb46ab","system_id":"levelo_inurba_marseille","lat":43.280998,"lon":5.378336,"is_reserved":false,"is_disabled":false,"rental_uris":{"android":"levelo://app?vid=e2caf266-2651-477b-85a4-aac441bb46ab","ios":"levelo://app?vid=e2caf266-2651-477b-85a4-aac441bb46ab"},"vehicle_type_id":"4","last_reported":1744348258,"current_range_meters":13600,"station_id":"ce4bha12rcd13ifvqee0","pricing_plan_id":"cebpf4jnsgd1na2vs0mg"},{"bike_id":"88b76a37-b923-434f-94b0-a0e6250c97d1","system_id":"levelo_inurba_marseille","lat":43.303271,"lon":5.404433,"is_reserved":false,"is_disabled":false,"rental_uris":{"android":"levelo://app?vid=88b76a37-b923-434f-94b0-a0e6250c97d1","ios":"levelo://app?vid=88b76a37-b923-434f-94b0-a0e6250c97d1"},"vehicle_type_id":"4","last_reported":1744348258,"current_range_meters":14000,"station_id":"ce4bh012rcd13ifvqd10","pricing_plan_id":"cebpf4jnsgd1na2vs0mg"},{"bike_id":"b44f7c5a-872e-47cb-9231-cd7a4e8aad72","system_id":"levelo_inurba_marseille","lat":43.29701,"lon":5.366,"is_reserved":false,"is_disabled":false,"rental_uris":{"android":"levelo://app?vid=b44f7c5a-872e-47cb-9231-cd7a4e8aad72","ios":"levelo://app?vid=b44f7c5a-872e-47cb-9231-cd7a4e8aad72"},"vehicle_type_id":"4","last_reported":1744348258,"current_range_meters":14000,"station_id":"ce4bgn12rcd13ifvqbt0","pricing_plan_id":"cebpf4jnsgd1na2vs0mg"},{"bike_id":"e6f2667a-967d-45e2-b958-44177a82c2c2","system_id":"levelo_inurba_marseille","lat":43.27933,"lon":5.41057,"is_reserved":false,"is_disabled":false,"rental_uris":{"android":"levelo://app?vid=e6f2667a-967d-45e2-b958-44177a82c2c2","ios":"levelo://app?vid=e6f2667a-967d-45e2-b958-44177a82c2c2"},"vehicle_type_id":"4","last_reported":1744348258,"current_range_meters":14400,"station_id":"ce4bhnp2rcd13ifvqh0g","pricing_plan_id":"cebpf4jnsgd1na2vs0mg"},{"bike_id":"923cd337-07e7-4598-88d9-f7475f9f2325","system_id":"levelo_inurba_marseille","lat":43.281048,"lon":5.378369,"is_reserved":false,"is_disabled":false,"rental_uris":{"android":"levelo://app?vid=923cd337-07e7-4598-88d9-f7475f9f2325","ios":"levelo://app?vid=923cd337-07e7-4598-88d9-f7475f9f2325"},"vehicle_type_id":"4","last_reported":1744348258,"current_range_meters":14400,"station_id":"ce4bha12rcd13ifvqee0","pricing_plan_id":"cebpf4jnsgd1na2vs0mg"},{"bike_id":"d1de17d8-8473-459c-ab85-65418194e22a","system_id":"levelo_inurba_marseille","lat":43.265653,"lon":5.390101,"is_reserved":false,"is_disabled":false,"rental_uris":{"android":"levelo://app?vid=d1de17d8-8473-459c-ab85-65418194e22a","ios":"levelo://app?vid=d1de17d8-8473-459c-ab85-65418194e22a"},"vehicle_type_id":"4","last_reported":1744348258,"current_range_meters":14400,"station_id":"ce4bhe12rcd13ifvqf30","pricing_plan_id":"cebpf4jnsgd1na2vs0mg"},{"bike_id":"a56ad44c-85b9-4806-af0d-040ee7eee1ec","system_id":"levelo_inurba_marseille","lat":43.269445,"lon":5.402554,"is_reserved":false,"is_disabled":false,"rental_uris":{"android":"levelo://app?vid=a56ad44c-85b9-4806-af0d-040ee7eee1ec","ios":"levelo://app?vid=a56ad44c-85b9-4806-af0d-040ee7eee1ec"},"vehicle_type_id":"4","last_reported":1744348258,"current_range_meters":14400,"station_id":"ce4bhk92rcd13ifvqgc0","pricing_plan_id":"cebpf4jnsgd1na2vs0mg"},{"bike_id":"1a8675f7-96a5-4fc2-8fd4-53f39f26b59b","system_id":"levelo_inurba_marseille","lat":43.32397,"lon":5.38997,"is_reserved":false,"is_disabled":false,"rental_uris":{"android":"levelo://app?vid=1a8675f7-96a5-4fc2-8fd4-53f39f26b59b","ios":"levelo://app?vid=1a8675f7-96a5-4fc2-8fd4-53f39f26b59b"},"vehicle_type_id":"4","last_reported":1744348258,"current_range_meters":14400,"station_id":"ce4bhr12rcd13ifvqhqg","pricing_plan_id":"cebpf4jnsgd1na2vs0mg"},{"bike_id":"182650a6-9433-4951-80ba-44b6e3878dab","system_id":"levelo_inurba_marseille","lat":43.30532,"lon":5.38418,"is_reserved":false,"is_disabled":true,"rental_uris":{"android":"levelo://app?vid=182650a6-9433-4951-80ba-44b6e3878dab","ios":"levelo://app?vid=182650a6-9433-4951-80ba-44b6e3878dab"},"vehicle_type_id":"4","last_reported":1744348258,"current_range_meters":14400,"station_id":"ce4bgg92rcd13ifvqb30","pricing_plan_id":"cebpf4jnsgd1na2vs0mg"},{"bike_id":"ce452e81-7f28-415f-85bc-f32107dc6383","system_id":"levelo_inurba_marseille","lat":43.323338,"lon":5.406175,"is_reserved":false,"is_disabled":false,"rental_uris":{"android":"levelo://app?vid=ce452e81-7f28-415f-85bc-f32107dc6383","ios":"levelo://app?vid=ce452e81-7f28-415f-85bc-f32107dc6383"},"vehicle_type_id":"4","last_reported":1744348258,"current_range_meters":14800,"station_id":"ce4bhq92rcd13ifvqhjg","pricing_plan_id":"cebpf4jnsgd1na2vs0mg"},{"bike_id":"965f43a6-4a0d-40a9-b4ab-5ea8390b4769","system_id":"levelo_inurba_marseille","lat":43.23186,"lon":5.39989,"is_reserved":false,"is_disabled":false,"rental_uris":{"android":"levelo://app?vid=965f43a6-4a0d-40a9-b4ab-5ea8390b4769","ios":"levelo://app?vid=965f43a6-4a0d-40a9-b4ab-5ea8390b4769"},"vehicle_type_id":"4","last_reported":1744348258,"current_range_meters":14800,"station_id":"ce4bhn12rcd13ifvqgqg","pricing_plan_id":"cebpf4jnsgd1na2vs0mg"},{"bike_id":"467924d9-889a-4591-a26d-c954ba0abb33","system_id":"levelo_inurba_marseille","lat":43.32381,"lon":5.38992,"is_reserved":false,"is_disabled":false,"rental_uris":{"android":"levelo://app?vid=467924d9-889a-4591-a26d-c954ba0abb33","ios":"levelo://app?vid=467924d9-889a-4591-a26d-c954ba0abb33"},"vehicle_type_id":"4","last_reported":1744348258,"current_range_meters":14800,"station_id":"","pricing_plan_id":"cebpf4jnsgd1na2vs0mg"},{"bike_id":"463b41fd-37bb-48c0-a6e4-12f737a3d7cf","system_id":"levelo_inurba_marseille","lat":43.26963,"lon":5.40243,"is_reserved":false,"is_disabled":true,"rental_uris":{"android":"levelo://app?vid=463b41fd-37bb-48c0-a6e4-12f737a3d7cf","ios":"levelo://app?vid=463b41fd-37bb-48c0-a6e4-12f737a3d7cf"},"vehicle_type_id":"4","last_reported":1744348258,"current_range_meters":14800,"station_id":"cjm6bp8fraef2m0cb0m0","pricing_plan_id":"cebpf4jnsgd1na2vs0mg"},{"bike_id":"3cc21430-ad05-4c1f-ae42-1925c305c6c3","system_id":"levelo_inurba_marseille","lat":43.281053,"lon":5.378399,"is_reserved":false,"is_disabled":false,"rental_uris":{"android":"levelo://app?vid=3cc21430-ad05-4c1f-ae42-1925c305c6c3","ios":"levelo://app?vid=3cc21430-ad05-4c1f-ae42-1925c305c6c3"},"vehicle_type_id":"4","last_reported":1744348258,"current_range_meters":14800,"station_id":"ce4bha12rcd13ifvqee0","pricing_plan_id":"cebpf4jnsgd1na2vs0mg"},{"bike_id":"d3d9cd65-8151-402d-bb2b-ab24c1581d73","system_id":"levelo_inurba_marseille","lat":43.32046,"lon":5.41539,"is_reserved":false,"is_disabled":false,"rental_uris":{"android":"levelo://app?vid=d3d9cd65-8151-402d-bb2b-ab24c1581d73","ios":"levelo://app?vid=d3d9cd65-8151-402d-bb2b-ab24c1581d73"},"vehicle_type_id":"4","last_reported":1744348258,"current_range_meters":14800,"station_id":"ce4bhq92rcd13ifvqhkg","pricing_plan_id":"cebpf4jnsgd1na2vs0mg"},{"bike_id":"4eb301e2-77f1-4208-aa3a-82260449b4aa","system_id":"levelo_inurba_marseille","lat":43.3093,"lon":5.40148,"is_reserved":false,"is_disabled":false,"rental_uris":{"android":"levelo://app?vid=4eb301e2-77f1-4208-aa3a-82260449b4aa","ios":"levelo://app?vid=4eb301e2-77f1-4208-aa3a-82260449b4aa"},"vehicle_type_id":"4","last_reported":1744348258,"current_range_meters":14800,"station_id":"ce4bgvp2rcd13ifvqct0","pricing_plan_id":"cebpf4jnsgd1na2vs0mg"},{"bike_id":"bb4d9553-6560-4093-a234-0c3120cf6112","system_id":"levelo_inurba_marseille","lat":43.28406,"lon":5.37537,"is_reserved":false,"is_disabled":false,"rental_uris":{"android":"levelo://app?vid=bb4d9553-6560-4093-a234-0c3120cf6112","ios":"levelo://app?vid=bb4d9553-6560-4093-a234-0c3120cf6112"},"vehicle_type_id":"4","last_reported":1744348258,"current_range_meters":14800,"station_id":"ce4bh412rcd13ifvqds0","pricing_plan_id":"cebpf4jnsgd1na2vs0mg"},{"bike_id":"97e1cf13-6cae-4046-8135-09aeffc329ab","system_id":"levelo_inurba_marseille","lat":43.28699,"lon":5.37406,"is_reserved":false,"is_disabled":true,"rental_uris":{"android":"levelo://app?vid=97e1cf13-6cae-4046-8135-09aeffc329ab","ios":"levelo://app?vid=97e1cf13-6cae-4046-8135-09aeffc329ab"},"vehicle_type_id":"4","last_reported":1744348258,"current_range_meters":15200,"station_id":"ce4bh3p2rcd13ifvqdq0","pricing_plan_id":"cebpf4jnsgd1na2vs0mg"},{"bike_id":"627403f8-4468-4a41-8798-323347b58cc9","system_id":"levelo_inurba_marseille","lat":43.27172,"lon":5.41002,"is_reserved":false,"is_disabled":false,"rental_uris":{"android":"levelo://app?vid=627403f8-4468-4a41-8798-323347b58cc9","ios":"levelo://app?vid=627403f8-4468-4a41-8798-323347b58cc9"},"vehicle_type_id":"4","last_reported":1744348258,"current_range_meters":15200,"station_id":"ce4bhl12rcd13ifvqgf0","pricing_plan_id":"cebpf4jnsgd1na2vs0mg"},{"bike_id":"8805ec8a-501d-414a-afa7-02f93ec255f0","system_id":"levelo_inurba_marseille","lat":43.30799,"lon":5.38168,"is_reserved":false,"is_disabled":false,"rental_uris":{"android":"levelo://app?vid=8805ec8a-501d-414a-afa7-02f93ec255f0","ios":"levelo://app?vid=8805ec8a-501d-414a-afa7-02f93ec255f0"},"vehicle_type_id":"4","last_reported":1744348258,"current_range_meters":15200,"station_id":"ce4bgt12rcd13ifvqce0","pricing_plan_id":"cebpf4jnsgd1na2vs0mg"},{"bike_id":"6d1f80b1-80e0-4012-99d1-3f8172cadb63","system_id":"levelo_inurba_marseille","lat":43.24163,"lon":5.36399,"is_reserved":false,"is_disabled":false,"rental_uris":{"android":"levelo://app?vid=6d1f80b1-80e0-4012-99d1-3f8172cadb63","ios":"levelo://app?vid=6d1f80b1-80e0-4012-99d1-3f8172cadb63"},"vehicle_type_id":"4","last_reported":1744348258,"current_range_meters":15200,"station_id":"cpo36qri1sfpv3e86is0","pricing_plan_id":"cebpf4jnsgd1na2vs0mg"},{"bike_id":"736eddc2-3840-4903-8185-09191dc96ccf","system_id":"levelo_inurba_marseille","lat":43.287045,"lon":5.399798,"is_reserved":false,"is_disabled":false,"rental_uris":{"android":"levelo://app?vid=736eddc2-3840-4903-8185-09191dc96ccf","ios":"levelo://app?vid=736eddc2-3840-4903-8185-09191dc96ccf"},"vehicle_type_id":"4","last_reported":1744348258,"current_range_meters":15200,"station_id":"ce4bho92rcd13ifvqh3g","pricing_plan_id":"cebpf4jnsgd1na2vs0mg"},{"bike_id":"586d4bfc-c6e9-40ef-a5b4-76722cbc0f98","system_id":"levelo_inurba_marseille","lat":43.268073,"lon":5.402529,"is_reserved":false,"is_disabled":false,"rental_uris":{"android":"levelo://app?vid=586d4bfc-c6e9-40ef-a5b4-76722cbc0f98","ios":"levelo://app?vid=586d4bfc-c6e9-40ef-a5b4-76722cbc0f98"},"vehicle_type_id":"4","last_reported":1744348258,"current_range_meters":16000,"station_id":"ce501612rcd8frsf0b60","pricing_plan_id":"cebpf4jnsgd1na2vs0mg"},{"bike_id":"bbdb582d-0808-4364-9404-10888e8930c5","system_id":"levelo_inurba_marseille","lat":43.2903,"lon":5.39976,"is_reserved":false,"is_disabled":false,"rental_uris":{"android":"levelo://app?vid=bbdb582d-0808-4364-9404-10888e8930c5","ios":"levelo://app?vid=bbdb582d-0808-4364-9404-10888e8930c5"},"vehicle_type_id":"4","last_reported":1744348258,"current_range_meters":16000,"station_id":"ce4bh392rcd13ifvqdm0","pricing_plan_id":"cebpf4jnsgd1na2vs0mg"},{"bike_id":"549918be-d79a-4899-a870-6473907900ee","system_id":"levelo_inurba_marseille","lat":43.29843,"lon":5.36292,"is_reserved":false,"is_disabled":true,"rental_uris":{"android":"levelo://app?vid=549918be-d79a-4899-a870-6473907900ee","ios":"levelo://app?vid=549918be-d79a-4899-a870-6473907900ee"},"vehicle_type_id":"4","last_reported":1744348258,"current_range_meters":16000,"station_id":"ce4bgpp2rcd13ifvqc3g","pricing_plan_id":"cebpf4jnsgd1na2vs0mg"},{"bike_id":"09b23838-ef8a-400d-9175-f211d64a4290","system_id":"levelo_inurba_marseille","lat":43.2571,"lon":5.410987,"is_reserved":false,"is_disabled":false,"rental_uris":{"android":"levelo://app?vid=09b23838-ef8a-400d-9175-f211d64a4290","ios":"levelo://app?vid=09b23838-ef8a-400d-9175-f211d64a4290"},"vehicle_type_id":"4","last_reported":1744348258,"current_range_meters":16000,"station_id":"ce4bhkp2rcd13ifvqgd0","pricing_plan_id":"cebpf4jnsgd1na2vs0mg"},{"bike_id":"9231697b-6013-4739-8145-946afd92531f","system_id":"levelo_inurba_marseille","lat":43.30043,"lon":5.40008,"is_reserved":false,"is_disabled":false,"rental_uris":{"android":"levelo://app?vid=9231697b-6013-4739-8145-946afd92531f","ios":"levelo://app?vid=9231697b-6013-4739-8145-946afd92531f"},"vehicle_type_id":"4","last_reported":1744348258,"current_range_meters":16000,"station_id":"","pricing_plan_id":"cebpf4jnsgd1na2vs0mg"},{"bike_id":"1b28a96e-ff57-4bf5-85d0-8da089b3d3cd","system_id":"levelo_inurba_marseille","lat":43.266925,"lon":5.382661,"is_reserved":false,"is_disabled":true,"rental_uris":{"android":"levelo://app?vid=1b28a96e-ff57-4bf5-85d0-8da089b3d3cd","ios":"levelo://app?vid=1b28a96e-ff57-4bf5-85d0-8da089b3d3cd"},"vehicle_type_id":"4","last_reported":1744348258,"current_range_meters":16000,"station_id":"ce4bhg92rcd13ifvqf90","pricing_plan_id":"cebpf4jnsgd1na2vs0mg"},{"bike_id":"0a12228f-61f9-48c1-9f2f-bd8159dce7a6","system_id":"levelo_inurba_marseille","lat":43.261939,"lon":5.374502,"is_reserved":false,"is_disabled":true,"rental_uris":{"android":"levelo://app?vid=0a12228f-61f9-48c1-9f2f-bd8159dce7a6","ios":"levelo://app?vid=0a12228f-61f9-48c1-9f2f-bd8159dce7a6"},"vehicle_type_id":"4","last_reported":1744348258,"current_range_meters":16000,"station_id":"ce4bhgp2rcd13ifvqfc0","pricing_plan_id":"cebpf4jnsgd1na2vs0mg"},{"bike_id":"8901bb4b-63ee-41d7-825f-22963c0e6b59","system_id":"levelo_inurba_marseille","lat":43.30316,"lon":5.40462,"is_reserved":false,"is_disabled":false,"rental_uris":{"android":"levelo://app?vid=8901bb4b-63ee-41d7-825f-22963c0e6b59","ios":"levelo://app?vid=8901bb4b-63ee-41d7-825f-22963c0e6b59"},"vehicle_type_id":"4","last_reported":1744348258,"current_range_meters":16000,"station_id":"ce4bh012rcd13ifvqd10","pricing_plan_id":"cebpf4jnsgd1na2vs0mg"},{"bike_id":"5e7d0457-f5ee-4493-97f8-5a21f1298ee9","system_id":"levelo_inurba_marseille","lat":43.30637,"lon":5.40088,"is_reserved":false,"is_disabled":false,"rental_uris":{"android":"levelo://app?vid=5e7d0457-f5ee-4493-97f8-5a21f1298ee9","ios":"levelo://app?vid=5e7d0457-f5ee-4493-97f8-5a21f1298ee9"},"vehicle_type_id":"4","last_reported":1744348258,"current_range_meters":16000,"station_id":"ce4bh112rcd13ifvqda0","pricing_plan_id":"cebpf4jnsgd1na2vs0mg"},{"bike_id":"f67d7abe-c297-4957-b269-6e3ec729c773","system_id":"levelo_inurba_marseille","lat":43.27819,"lon":5.39213,"is_reserved":false,"is_disabled":false,"rental_uris":{"android":"levelo://app?vid=f67d7abe-c297-4957-b269-6e3ec729c773","ios":"levelo://app?vid=f67d7abe-c297-4957-b269-6e3ec729c773"},"vehicle_type_id":"4","last_reported":1744348258,"current_range_meters":16000,"station_id":"ce4bhjp2rcd13ifvqga0","pricing_plan_id":"cebpf4jnsgd1na2vs0mg"},{"bike_id":"d3733724-f81e-49a0-9b35-7f1e48992c30","system_id":"levelo_inurba_marseille","lat":43.31895,"lon":5.407325,"is_reserved":false,"is_disabled":false,"rental_uris":{"android":"levelo://app?vid=d3733724-f81e-49a0-9b35-7f1e48992c30","ios":"levelo://app?vid=d3733724-f81e-49a0-9b35-7f1e48992c30"},"vehicle_type_id":"4","last_reported":1744348258,"current_range_meters":16000,"station_id":"ce4bhq12rcd13ifvqhig","pricing_plan_id":"cebpf4jnsgd1na2vs0mg"},{"bike_id":"2b22fed0-411d-45e5-8213-1ed68bfe78ac","system_id":"levelo_inurba_marseille","lat":43.2319,"lon":5.39973,"is_reserved":false,"is_disabled":false,"rental_uris":{"android":"levelo://app?vid=2b22fed0-411d-45e5-8213-1ed68bfe78ac","ios":"levelo://app?vid=2b22fed0-411d-45e5-8213-1ed68bfe78ac"},"vehicle_type_id":"4","last_reported":1744348258,"current_range_meters":16000,"station_id":"ce4bhn12rcd13ifvqgqg","pricing_plan_id":"cebpf4jnsgd1na2vs0mg"},{"bike_id":"cd5cd798-03bf-4411-a16f-e7360d877391","system_id":"levelo_inurba_marseille","lat":43.27938,"lon":5.41058,"is_reserved":false,"is_disabled":false,"rental_uris":{"android":"levelo://app?vid=cd5cd798-03bf-4411-a16f-e7360d877391","ios":"levelo://app?vid=cd5cd798-03bf-4411-a16f-e7360d877391"},"vehicle_type_id":"4","last_reported":1744348258,"current_range_meters":16000,"station_id":"ce4bhnp2rcd13ifvqh0g","pricing_plan_id":"cebpf4jnsgd1na2vs0mg"},{"bike_id":"7dae892c-e628-48ac-a4f7-362869bb9d1b","system_id":"levelo_inurba_marseille","lat":43.309298,"lon":5.401396,"is_reserved":false,"is_disabled":false,"rental_uris":{"android":"levelo://app?vid=7dae892c-e628-48ac-a4f7-362869bb9d1b","ios":"levelo://app?vid=7dae892c-e628-48ac-a4f7-362869bb9d1b"},"vehicle_type_id":"4","last_reported":1744348258,"current_range_meters":16000,"station_id":"ce4bgvp2rcd13ifvqct0","pricing_plan_id":"cebpf4jnsgd1na2vs0mg"},{"bike_id":"768f8d8f-bc42-4490-b022-4f37a7eba194","system_id":"levelo_inurba_marseille","lat":43.26943,"lon":5.4026,"is_reserved":false,"is_disabled":false,"rental_uris":{"android":"levelo://app?vid=768f8d8f-bc42-4490-b022-4f37a7eba194","ios":"levelo://app?vid=768f8d8f-bc42-4490-b022-4f37a7eba194"},"vehicle_type_id":"4","last_reported":1744348258,"current_range_meters":16000,"station_id":"cjm6bp8fraef2m0cb0m0","pricing_plan_id":"cebpf4jnsgd1na2vs0mg"},{"bike_id":"062b1ee1-d059-4792-8f14-745a52fbbd9b","system_id":"levelo_inurba_marseille","lat":43.30935,"lon":5.4015,"is_reserved":false,"is_disabled":false,"rental_uris":{"android":"levelo://app?vid=062b1ee1-d059-4792-8f14-745a52fbbd9b","ios":"levelo://app?vid=062b1ee1-d059-4792-8f14-745a52fbbd9b"},"vehicle_type_id":"4","last_reported":1744348258,"current_range_meters":16400,"station_id":"ce4bgvp2rcd13ifvqct0","pricing_plan_id":"cebpf4jnsgd1na2vs0mg"},{"bike_id":"7d3b44e2-e41b-45a7-b28a-d5034c0720d0","system_id":"levelo_inurba_marseille","lat":43.290294,"lon":5.399645,"is_reserved":false,"is_disabled":false,"rental_uris":{"android":"levelo://app?vid=7d3b44e2-e41b-45a7-b28a-d5034c0720d0","ios":"levelo://app?vid=7d3b44e2-e41b-45a7-b28a-d5034c0720d0"},"vehicle_type_id":"4","last_reported":1744348258,"current_range_meters":16400,"station_id":"ce4bh392rcd13ifvqdm0","pricing_plan_id":"cebpf4jnsgd1na2vs0mg"},{"bike_id":"c8552130-95bb-4240-8124-6420637dba94","system_id":"levelo_inurba_marseille","lat":43.28427,"lon":5.39198,"is_reserved":false,"is_disabled":false,"rental_uris":{"android":"levelo://app?vid=c8552130-95bb-4240-8124-6420637dba94","ios":"levelo://app?vid=c8552130-95bb-4240-8124-6420637dba94"},"vehicle_type_id":"4","last_reported":1744348258,"current_range_meters":16400,"station_id":"ce4bhoh2rcd13ifvqh5g","pricing_plan_id":"cebpf4jnsgd1na2vs0mg"},{"bike_id":"55f56f92-131a-48ea-be0d-6935144846b3","system_id":"levelo_inurba_marseille","lat":43.31079,"lon":5.42441,"is_reserved":false,"is_disabled":false,"rental_uris":{"android":"levelo://app?vid=55f56f92-131a-48ea-be0d-6935144846b3","ios":"levelo://app?vid=55f56f92-131a-48ea-be0d-6935144846b3"},"vehicle_type_id":"4","last_reported":1744348258,"current_range_meters":16400,"station_id":"ce4bhp92rcd13ifvqhag","pricing_plan_id":"cebpf4jnsgd1na2vs0mg"},{"bike_id":"a2ccb75d-7eb9-4d9d-8094-c61f30338d98","system_id":"levelo_inurba_marseille","lat":43.29033,"lon":5.39962,"is_reserved":false,"is_disabled":false,"rental_uris":{"android":"levelo://app?vid=a2ccb75d-7eb9-4d9d-8094-c61f30338d98","ios":"levelo://app?vid=a2ccb75d-7eb9-4d9d-8094-c61f30338d98"},"vehicle_type_id":"4","last_reported":1744348258,"current_range_meters":16400,"station_id":"ce4bh392rcd13ifvqdm0","pricing_plan_id":"cebpf4jnsgd1na2vs0mg"},{"bike_id":"6596d3ef-1fb1-4021-b608-c5c3a532ea65","system_id":"levelo_inurba_marseille","lat":43.30647,"lon":5.40069,"is_reserved":false,"is_disabled":false,"rental_uris":{"android":"levelo://app?vid=6596d3ef-1fb1-4021-b608-c5c3a532ea65","ios":"levelo://app?vid=6596d3ef-1fb1-4021-b608-c5c3a532ea65"},"vehicle_type_id":"4","last_reported":1744348258,"current_range_meters":16800,"station_id":"ce4bh112rcd13ifvqda0","pricing_plan_id":"cebpf4jnsgd1na2vs0mg"},{"bike_id":"4c893399-b4ed-40ed-a49f-713da320f269","system_id":"levelo_inurba_marseille","lat":43.29861,"lon":5.37841,"is_reserved":false,"is_disabled":false,"rental_uris":{"android":"levelo://app?vid=4c893399-b4ed-40ed-a49f-713da320f269","ios":"levelo://app?vid=4c893399-b4ed-40ed-a49f-713da320f269"},"vehicle_type_id":"4","last_reported":1744348258,"current_range_meters":16800,"station_id":"","pricing_plan_id":"cebpf4jnsgd1na2vs0mg"},{"bike_id":"8c58f2fa-99e1-41f8-bf90-9c1648b679b1","system_id":"levelo_inurba_marseille","lat":43.27325,"lon":5.41485,"is_reserved":false,"is_disabled":false,"rental_uris":{"android":"levelo://app?vid=8c58f2fa-99e1-41f8-bf90-9c1648b679b1","ios":"levelo://app?vid=8c58f2fa-99e1-41f8-bf90-9c1648b679b1"},"vehicle_type_id":"4","last_reported":1744348258,"current_range_meters":16800,"station_id":"","pricing_plan_id":"cebpf4jnsgd1na2vs0mg"},{"bike_id":"1167028c-7459-4619-b0df-13900c4ef2cf","system_id":"levelo_inurba_marseille","lat":43.35256,"lon":5.36435,"is_reserved":false,"is_disabled":false,"rental_uris":{"android":"levelo://app?vid=1167028c-7459-4619-b0df-13900c4ef2cf","ios":"levelo://app?vid=1167028c-7459-4619-b0df-13900c4ef2cf"},"vehicle_type_id":"4","last_reported":1744348258,"current_range_meters":17200,"station_id":"","pricing_plan_id":"cebpf4jnsgd1na2vs0mg"},{"bike_id":"ef291804-1477-432e-b153-82ea15725418","system_id":"levelo_inurba_marseille","lat":43.33742,"lon":5.37454,"is_reserved":false,"is_disabled":false,"rental_uris":{"android":"levelo://app?vid=ef291804-1477-432e-b153-82ea15725418","ios":"levelo://app?vid=ef291804-1477-432e-b153-82ea15725418"},"vehicle_type_id":"4","last_reported":1744348258,"current_range_meters":17200,"station_id":"","pricing_plan_id":"cebpf4jnsgd1na2vs0mg"},{"bike_id":"6fda0caf-a8ef-4887-bf2f-6a004969b4f2","system_id":"levelo_inurba_marseille","lat":43.31485,"lon":5.373,"is_reserved":false,"is_disabled":false,"rental_uris":{"android":"levelo://app?vid=6fda0caf-a8ef-4887-bf2f-6a004969b4f2","ios":"levelo://app?vid=6fda0caf-a8ef-4887-bf2f-6a004969b4f2"},"vehicle_type_id":"4","last_reported":1744348258,"current_range_meters":17200,"station_id":"ce4bgt12rcd13ifvqcd0","pricing_plan_id":"cebpf4jnsgd1na2vs0mg"},{"bike_id":"3c30d560-4424-42f3-861d-9100e4177d69","system_id":"levelo_inurba_marseille","lat":43.29874,"lon":5.397424,"is_reserved":false,"is_disabled":false,"rental_uris":{"android":"levelo://app?vid=3c30d560-4424-42f3-861d-9100e4177d69","ios":"levelo://app?vid=3c30d560-4424-42f3-861d-9100e4177d69"},"vehicle_type_id":"4","last_reported":1744348258,"current_range_meters":17200,"station_id":"ce4bh0h2rcd13ifvqd50","pricing_plan_id":"cebpf4jnsgd1na2vs0mg"},{"bike_id":"0b038a1f-e858-436e-a7a1-95f6b304f9a8","system_id":"levelo_inurba_marseille","lat":43.23172,"lon":5.40021,"is_reserved":false,"is_disabled":false,"rental_uris":{"android":"levelo://app?vid=0b038a1f-e858-436e-a7a1-95f6b304f9a8","ios":"levelo://app?vid=0b038a1f-e858-436e-a7a1-95f6b304f9a8"},"vehicle_type_id":"4","last_reported":1744348258,"current_range_meters":17200,"station_id":"ce4bhn12rcd13ifvqgqg","pricing_plan_id":"cebpf4jnsgd1na2vs0mg"},{"bike_id":"56b60e90-433b-438c-8ce1-d14fdb2623f9","system_id":"levelo_inurba_marseille","lat":43.309221,"lon":5.401556,"is_reserved":false,"is_disabled":false,"rental_uris":{"android":"levelo://app?vid=56b60e90-433b-438c-8ce1-d14fdb2623f9","ios":"levelo://app?vid=56b60e90-433b-438c-8ce1-d14fdb2623f9"},"vehicle_type_id":"4","last_reported":1744348258,"current_range_meters":17200,"station_id":"ce4bgvp2rcd13ifvqct0","pricing_plan_id":"cebpf4jnsgd1na2vs0mg"},{"bike_id":"aa36dfbf-f715-4783-bab7-c3482fffd87d","system_id":"levelo_inurba_marseille","lat":43.306518,"lon":5.400646,"is_reserved":false,"is_disabled":false,"rental_uris":{"android":"levelo://app?vid=aa36dfbf-f715-4783-bab7-c3482fffd87d","ios":"levelo://app?vid=aa36dfbf-f715-4783-bab7-c3482fffd87d"},"vehicle_type_id":"4","last_reported":1744348258,"current_range_meters":17200,"station_id":"ce4bh112rcd13ifvqda0","pricing_plan_id":"cebpf4jnsgd1na2vs0mg"},{"bike_id":"bd26530b-0f92-4e11-b8b3-926bb281a2c1","system_id":"levelo_inurba_marseille","lat":43.30799,"lon":5.38179,"is_reserved":false,"is_disabled":false,"rental_uris":{"android":"levelo://app?vid=bd26530b-0f92-4e11-b8b3-926bb281a2c1","ios":"levelo://app?vid=bd26530b-0f92-4e11-b8b3-926bb281a2c1"},"vehicle_type_id":"4","last_reported":1744348258,"current_range_meters":17600,"station_id":"ce4bgt12rcd13ifvqce0","pricing_plan_id":"cebpf4jnsgd1na2vs0mg"},{"bike_id":"b23c94b8-d5d3-4e0b-8152-41fe9d7297e8","system_id":"levelo_inurba_marseille","lat":43.3235,"lon":5.36806,"is_reserved":false,"is_disabled":false,"rental_uris":{"android":"levelo://app?vid=b23c94b8-d5d3-4e0b-8152-41fe9d7297e8","ios":"levelo://app?vid=b23c94b8-d5d3-4e0b-8152-41fe9d7297e8"},"vehicle_type_id":"4","last_reported":1744348258,"current_range_meters":17600,"station_id":"ce4bhsh2rcd13ifvqi2g","pricing_plan_id":"cebpf4jnsgd1na2vs0mg"},{"bike_id":"54a7d26a-c5f8-4008-b945-bcc5a036c746","system_id":"levelo_inurba_marseille","lat":43.233161,"lon":5.361558,"is_reserved":false,"is_disabled":false,"rental_uris":{"android":"levelo://app?vid=54a7d26a-c5f8-4008-b945-bcc5a036c746","ios":"levelo://app?vid=54a7d26a-c5f8-4008-b945-bcc5a036c746"},"vehicle_type_id":"4","last_reported":1744348258,"current_range_meters":17600,"station_id":"","pricing_plan_id":"cebpf4jnsgd1na2vs0mg"},{"bike_id":"217beddd-cd4c-4ed9-a5ca-13d55da6e6eb","system_id":"levelo_inurba_marseille","lat":43.31089,"lon":5.3777,"is_reserved":false,"is_disabled":false,"rental_uris":{"android":"levelo://app?vid=217beddd-cd4c-4ed9-a5ca-13d55da6e6eb","ios":"levelo://app?vid=217beddd-cd4c-4ed9-a5ca-13d55da6e6eb"},"vehicle_type_id":"4","last_reported":1744348258,"current_range_meters":17600,"station_id":"ce4bgt92rcd13ifvqcg0","pricing_plan_id":"cebpf4jnsgd1na2vs0mg"},{"bike_id":"f4c869aa-66cd-4d6c-8b94-ecf6ae1111a8","system_id":"levelo_inurba_marseille","lat":43.29514,"lon":5.41861,"is_reserved":false,"is_disabled":true,"rental_uris":{"android":"levelo://app?vid=f4c869aa-66cd-4d6c-8b94-ecf6ae1111a8","ios":"levelo://app?vid=f4c869aa-66cd-4d6c-8b94-ecf6ae1111a8"},"vehicle_type_id":"4","last_reported":1744348258,"current_range_meters":17600,"station_id":"","pricing_plan_id":"cebpf4jnsgd1na2vs0mg"},{"bike_id":"c0e1eb8b-6b19-424f-be34-f40f3fc1efbf","system_id":"levelo_inurba_marseille","lat":43.304321,"lon":5.388788,"is_reserved":false,"is_disabled":false,"rental_uris":{"android":"levelo://app?vid=c0e1eb8b-6b19-424f-be34-f40f3fc1efbf","ios":"levelo://app?vid=c0e1eb8b-6b19-424f-be34-f40f3fc1efbf"},"vehicle_type_id":"4","last_reported":1744348258,"current_range_meters":17600,"station_id":"ce4bgk12rcd13ifvqbi0","pricing_plan_id":"cebpf4jnsgd1na2vs0mg"},{"bike_id":"72a9dab1-164a-4342-ab13-5fc5b2ea5c60","system_id":"levelo_inurba_marseille","lat":43.2901,"lon":5.38148,"is_reserved":false,"is_disabled":true,"rental_uris":{"android":"levelo://app?vid=72a9dab1-164a-4342-ab13-5fc5b2ea5c60","ios":"levelo://app?vid=72a9dab1-164a-4342-ab13-5fc5b2ea5c60"},"vehicle_type_id":"4","last_reported":1744348258,"current_range_meters":17600,"station_id":"ce4bh4p2rcd13ifvqe1g","pricing_plan_id":"cebpf4jnsgd1na2vs0mg"},{"bike_id":"f321a79f-0374-4e1c-903d-d6cc70ee518e","system_id":"levelo_inurba_marseille","lat":43.33739,"lon":5.37472,"is_reserved":false,"is_disabled":false,"rental_uris":{"android":"levelo://app?vid=f321a79f-0374-4e1c-903d-d6cc70ee518e","ios":"levelo://app?vid=f321a79f-0374-4e1c-903d-d6cc70ee518e"},"vehicle_type_id":"4","last_reported":1744348258,"current_range_meters":17600,"station_id":"","pricing_plan_id":"cebpf4jnsgd1na2vs0mg"},{"bike_id":"afabcd61-0ae7-4011-ae42-d486774f83ff","system_id":"levelo_inurba_marseille","lat":43.33753,"lon":5.3747,"is_reserved":false,"is_disabled":false,"rental_uris":{"android":"levelo://app?vid=afabcd61-0ae7-4011-ae42-d486774f83ff","ios":"levelo://app?vid=afabcd61-0ae7-4011-ae42-d486774f83ff"},"vehicle_type_id":"4","last_reported":1744348258,"current_range_meters":17600,"station_id":"","pricing_plan_id":"cebpf4jnsgd1na2vs0mg"},{"bike_id":"a14445a7-8352-4579-b436-c4c39505d461","system_id":"levelo_inurba_marseille","lat":43.31306,"lon":5.3973,"is_reserved":false,"is_disabled":false,"rental_uris":{"android":"levelo://app?vid=a14445a7-8352-4579-b436-c4c39505d461","ios":"levelo://app?vid=a14445a7-8352-4579-b436-c4c39505d461"},"vehicle_type_id":"4","last_reported":1744348258,"current_range_meters":17600,"station_id":"ce4bgvp2rcd13ifvqcu0","pricing_plan_id":"cebpf4jnsgd1na2vs0mg"},{"bike_id":"4f4de84c-1176-4d21-abc8-1518f353f391","system_id":"levelo_inurba_marseille","lat":43.284109,"lon":5.375168,"is_reserved":false,"is_disabled":false,"rental_uris":{"android":"levelo://app?vid=4f4de84c-1176-4d21-abc8-1518f353f391","ios":"levelo://app?vid=4f4de84c-1176-4d21-abc8-1518f353f391"},"vehicle_type_id":"4","last_reported":1744348258,"current_range_meters":17600,"station_id":"ce4bh412rcd13ifvqds0","pricing_plan_id":"cebpf4jnsgd1na2vs0mg"},{"bike_id":"38eb924a-c0a1-47a8-a85d-d2b9a789cafb","system_id":"levelo_inurba_marseille","lat":43.25132,"lon":5.40306,"is_reserved":false,"is_disabled":false,"rental_uris":{"android":"levelo://app?vid=38eb924a-c0a1-47a8-a85d-d2b9a789cafb","ios":"levelo://app?vid=38eb924a-c0a1-47a8-a85d-d2b9a789cafb"},"vehicle_type_id":"4","last_reported":1744348258,"current_range_meters":18000,"station_id":"ce4bhlh2rcd13ifvqgig","pricing_plan_id":"cebpf4jnsgd1na2vs0mg"},{"bike_id":"ac6f3f78-a447-485b-a3d1-0fde050e38a0","system_id":"levelo_inurba_marseille","lat":43.284144,"lon":5.375069,"is_reserved":false,"is_disabled":false,"rental_uris":{"android":"levelo://app?vid=ac6f3f78-a447-485b-a3d1-0fde050e38a0","ios":"levelo://app?vid=ac6f3f78-a447-485b-a3d1-0fde050e38a0"},"vehicle_type_id":"4","last_reported":1744348258,"current_range_meters":18000,"station_id":"ce4bh412rcd13ifvqds0","pricing_plan_id":"cebpf4jnsgd1na2vs0mg"},{"bike_id":"46437bc3-d6e2-4d0e-9af4-ba573ce7dfb3","system_id":"levelo_inurba_marseille","lat":43.30945,"lon":5.40145,"is_reserved":false,"is_disabled":false,"rental_uris":{"android":"levelo://app?vid=46437bc3-d6e2-4d0e-9af4-ba573ce7dfb3","ios":"levelo://app?vid=46437bc3-d6e2-4d0e-9af4-ba573ce7dfb3"},"vehicle_type_id":"4","last_reported":1744348258,"current_range_meters":18000,"station_id":"ce4bgvp2rcd13ifvqct0","pricing_plan_id":"cebpf4jnsgd1na2vs0mg"},{"bike_id":"84b31b9a-3639-4a49-ba1b-b8657db4f117","system_id":"levelo_inurba_marseille","lat":43.30899,"lon":5.368648,"is_reserved":false,"is_disabled":true,"rental_uris":{"android":"levelo://app?vid=84b31b9a-3639-4a49-ba1b-b8657db4f117","ios":"levelo://app?vid=84b31b9a-3639-4a49-ba1b-b8657db4f117"},"vehicle_type_id":"4","last_reported":1744348258,"current_range_meters":18000,"station_id":"ce4bgn92rcd13ifvqbvg","pricing_plan_id":"cebpf4jnsgd1na2vs0mg"},{"bike_id":"5b77a833-8185-45c2-9fe3-07eb40df54ca","system_id":"levelo_inurba_marseille","lat":43.33995,"lon":5.38057,"is_reserved":false,"is_disabled":false,"rental_uris":{"android":"levelo://app?vid=5b77a833-8185-45c2-9fe3-07eb40df54ca","ios":"levelo://app?vid=5b77a833-8185-45c2-9fe3-07eb40df54ca"},"vehicle_type_id":"4","last_reported":1744348258,"current_range_meters":18000,"station_id":"","pricing_plan_id":"cebpf4jnsgd1na2vs0mg"},{"bike_id":"b9af6bbc-652a-42b6-a5ee-69693e5e4583","system_id":"levelo_inurba_marseille","lat":43.28353,"lon":5.38649,"is_reserved":false,"is_disabled":false,"rental_uris":{"android":"levelo://app?vid=b9af6bbc-652a-42b6-a5ee-69693e5e4583","ios":"levelo://app?vid=b9af6bbc-652a-42b6-a5ee-69693e5e4583"},"vehicle_type_id":"4","last_reported":1744348258,"current_range_meters":18800,"station_id":"ce4bh492rcd13ifvqdvg","pricing_plan_id":"cebpf4jnsgd1na2vs0mg"},{"bike_id":"17060317-2020-46da-b8d8-1bcd183ddced","system_id":"levelo_inurba_marseille","lat":43.29815,"lon":5.40399,"is_reserved":false,"is_disabled":false,"rental_uris":{"android":"levelo://app?vid=17060317-2020-46da-b8d8-1bcd183ddced","ios":"levelo://app?vid=17060317-2020-46da-b8d8-1bcd183ddced"},"vehicle_type_id":"4","last_reported":1744348258,"current_range_meters":18800,"station_id":"ce4bh112rcd13ifvqd90","pricing_plan_id":"cebpf4jnsgd1na2vs0mg"},{"bike_id":"94285f83-3b5d-462b-97b6-1d5eba6c8ae0","system_id":"levelo_inurba_marseille","lat":43.30436,"lon":5.37925,"is_reserved":false,"is_disabled":false,"rental_uris":{"android":"levelo://app?vid=94285f83-3b5d-462b-97b6-1d5eba6c8ae0","ios":"levelo://app?vid=94285f83-3b5d-462b-97b6-1d5eba6c8ae0"},"vehicle_type_id":"4","last_reported":1744348258,"current_range_meters":18800,"station_id":"ce4bgup2rcd13ifvqcn0","pricing_plan_id":"cebpf4jnsgd1na2vs0mg"},{"bike_id":"0cd017dd-56f6-44a6-b4b9-b2dcf457dbbd","system_id":"levelo_inurba_marseille","lat":43.31484,"lon":5.37308,"is_reserved":false,"is_disabled":false,"rental_uris":{"android":"levelo://app?vid=0cd017dd-56f6-44a6-b4b9-b2dcf457dbbd","ios":"levelo://app?vid=0cd017dd-56f6-44a6-b4b9-b2dcf457dbbd"},"vehicle_type_id":"4","last_reported":1744348258,"current_range_meters":18800,"station_id":"ce4bgt12rcd13ifvqcd0","pricing_plan_id":"cebpf4jnsgd1na2vs0mg"},{"bike_id":"6c89a360-ebfb-4f12-9f06-0ea498422bcf","system_id":"levelo_inurba_marseille","lat":43.28656,"lon":5.3636,"is_reserved":false,"is_disabled":false,"rental_uris":{"android":"levelo://app?vid=6c89a360-ebfb-4f12-9f06-0ea498422bcf","ios":"levelo://app?vid=6c89a360-ebfb-4f12-9f06-0ea498422bcf"},"vehicle_type_id":"4","last_reported":1744348258,"current_range_meters":18800,"station_id":"ce4bhah2rcd13ifvqej0","pricing_plan_id":"cebpf4jnsgd1na2vs0mg"},{"bike_id":"0e7bf4ae-5aed-4055-a1f8-96debbb9847e","system_id":"levelo_inurba_marseille","lat":43.241713,"lon":5.363994,"is_reserved":false,"is_disabled":false,"rental_uris":{"android":"levelo://app?vid=0e7bf4ae-5aed-4055-a1f8-96debbb9847e","ios":"levelo://app?vid=0e7bf4ae-5aed-4055-a1f8-96debbb9847e"},"vehicle_type_id":"4","last_reported":1744348258,"current_range_meters":18800,"station_id":"cpo36qri1sfpv3e86is0","pricing_plan_id":"cebpf4jnsgd1na2vs0mg"},{"bike_id":"fd7bf403-f44e-49bc-add2-9071b0ca820b","system_id":"levelo_inurba_marseille","lat":43.26492,"lon":5.39552,"is_reserved":false,"is_disabled":false,"rental_uris":{"android":"levelo://app?vid=fd7bf403-f44e-49bc-add2-9071b0ca820b","ios":"levelo://app?vid=fd7bf403-f44e-49bc-add2-9071b0ca820b"},"vehicle_type_id":"4","last_reported":1744348258,"current_range_meters":18800,"station_id":"ce4bhi12rcd13ifvqfq0","pricing_plan_id":"cebpf4jnsgd1na2vs0mg"},{"bike_id":"c7618aae-a918-4dbc-9908-a066748aae03","system_id":"levelo_inurba_marseille","lat":43.29507,"lon":5.39411,"is_reserved":false,"is_disabled":true,"rental_uris":{"android":"levelo://app?vid=c7618aae-a918-4dbc-9908-a066748aae03","ios":"levelo://app?vid=c7618aae-a918-4dbc-9908-a066748aae03"},"vehicle_type_id":"4","last_reported":1744348258,"current_range_meters":19200,"station_id":"ce4bh292rcd13ifvqdf0","pricing_plan_id":"cebpf4jnsgd1na2vs0mg"},{"bike_id":"eb137e41-b7c3-4dbb-8c1a-f2852147a346","system_id":"levelo_inurba_marseille","lat":43.31268,"lon":5.40173,"is_reserved":false,"is_disabled":false,"rental_uris":{"android":"levelo://app?vid=eb137e41-b7c3-4dbb-8c1a-f2852147a346","ios":"levelo://app?vid=eb137e41-b7c3-4dbb-8c1a-f2852147a346"},"vehicle_type_id":"4","last_reported":1744348258,"current_range_meters":19200,"station_id":"ce4bh092rcd13ifvqd30","pricing_plan_id":"cebpf4jnsgd1na2vs0mg"},{"bike_id":"90e2b8c4-48de-4087-92b6-327b079b2968","system_id":"levelo_inurba_marseille","lat":43.287058,"lon":5.399811,"is_reserved":false,"is_disabled":false,"rental_uris":{"android":"levelo://app?vid=90e2b8c4-48de-4087-92b6-327b079b2968","ios":"levelo://app?vid=90e2b8c4-48de-4087-92b6-327b079b2968"},"vehicle_type_id":"4","last_reported":1744348258,"current_range_meters":19200,"station_id":"ce4bho92rcd13ifvqh3g","pricing_plan_id":"cebpf4jnsgd1na2vs0mg"},{"bike_id":"7a5c9c76-4e30-46ad-a0c8-64088d059970","system_id":"levelo_inurba_marseille","lat":43.24071,"lon":5.3772,"is_reserved":false,"is_disabled":false,"rental_uris":{"android":"levelo://app?vid=7a5c9c76-4e30-46ad-a0c8-64088d059970","ios":"levelo://app?vid=7a5c9c76-4e30-46ad-a0c8-64088d059970"},"vehicle_type_id":"4","last_reported":1744348258,"current_range_meters":19200,"station_id":"ce4bhnp2rcd13ifvqgvg","pricing_plan_id":"cebpf4jnsgd1na2vs0mg"},{"bike_id":"9c068bc2-47c8-40c8-b9e7-a0fdc34e2ed7","system_id":"levelo_inurba_marseille","lat":43.308023,"lon":5.381529,"is_reserved":false,"is_disabled":false,"rental_uris":{"android":"levelo://app?vid=9c068bc2-47c8-40c8-b9e7-a0fdc34e2ed7","ios":"levelo://app?vid=9c068bc2-47c8-40c8-b9e7-a0fdc34e2ed7"},"vehicle_type_id":"4","last_reported":1744348258,"current_range_meters":19200,"station_id":"ce4bgt12rcd13ifvqce0","pricing_plan_id":"cebpf4jnsgd1na2vs0mg"},{"bike_id":"fd6b9a66-2bce-419b-a68f-68ad82b2993e","system_id":"levelo_inurba_marseille","lat":43.27051,"lon":5.40273,"is_reserved":false,"is_disabled":false,"rental_uris":{"android":"levelo://app?vid=fd6b9a66-2bce-419b-a68f-68ad82b2993e","ios":"levelo://app?vid=fd6b9a66-2bce-419b-a68f-68ad82b2993e"},"vehicle_type_id":"4","last_reported":1744348258,"current_range_meters":19600,"station_id":"ce4bhk92rcd13ifvqgc0","pricing_plan_id":"cebpf4jnsgd1na2vs0mg"},{"bike_id":"0c6f1472-f240-483d-b5dd-14617235d047","system_id":"levelo_inurba_marseille","lat":43.30138,"lon":5.38086,"is_reserved":false,"is_disabled":false,"rental_uris":{"android":"levelo://app?vid=0c6f1472-f240-483d-b5dd-14617235d047","ios":"levelo://app?vid=0c6f1472-f240-483d-b5dd-14617235d047"},"vehicle_type_id":"4","last_reported":1744348258,"current_range_meters":19600,"station_id":"ce4bgjp2rcd13ifvqbh0","pricing_plan_id":"cebpf4jnsgd1na2vs0mg"},{"bike_id":"772d659d-a13b-46dd-a26c-3b011bf76ef1","system_id":"levelo_inurba_marseille","lat":43.30639,"lon":5.40088,"is_reserved":false,"is_disabled":false,"rental_uris":{"android":"levelo://app?vid=772d659d-a13b-46dd-a26c-3b011bf76ef1","ios":"levelo://app?vid=772d659d-a13b-46dd-a26c-3b011bf76ef1"},"vehicle_type_id":"4","last_reported":1744348258,"current_range_meters":19600,"station_id":"ce4bh112rcd13ifvqda0","pricing_plan_id":"cebpf4jnsgd1na2vs0mg"},{"bike_id":"7c4545c3-c1b1-465e-91cc-14a8c8097af0","system_id":"levelo_inurba_marseille","lat":43.30596,"lon":5.39365,"is_reserved":false,"is_disabled":true,"rental_uris":{"android":"levelo://app?vid=7c4545c3-c1b1-465e-91cc-14a8c8097af0","ios":"levelo://app?vid=7c4545c3-c1b1-465e-91cc-14a8c8097af0"},"vehicle_type_id":"4","last_reported":1744348258,"current_range_meters":19600,"station_id":"ce4bh0p2rcd13ifvqd80","pricing_plan_id":"cebpf4jnsgd1na2vs0mg"},{"bike_id":"54efb31a-9abc-4304-a382-f972e36723b5","system_id":"levelo_inurba_marseille","lat":43.27862,"lon":5.3803,"is_reserved":false,"is_disabled":false,"rental_uris":{"android":"levelo://app?vid=54efb31a-9abc-4304-a382-f972e36723b5","ios":"levelo://app?vid=54efb31a-9abc-4304-a382-f972e36723b5"},"vehicle_type_id":"4","last_reported":1744348258,"current_range_meters":19600,"station_id":"","pricing_plan_id":"cebpf4jnsgd1na2vs0mg"},{"bike_id":"38bb33d8-577c-4490-b19e-3126b11bb352","system_id":"levelo_inurba_marseille","lat":43.30878,"lon":5.40262,"is_reserved":false,"is_disabled":false,"rental_uris":{"android":"levelo://app?vid=38bb33d8-577c-4490-b19e-3126b11bb352","ios":"levelo://app?vid=38bb33d8-577c-4490-b19e-3126b11bb352"},"vehicle_type_id":"4","last_reported":1744348258,"current_range_meters":19600,"station_id":"","pricing_plan_id":"cebpf4jnsgd1na2vs0mg"},{"bike_id":"44ea3182-88eb-4a7d-bbc8-aa868967f1bc","system_id":"levelo_inurba_marseille","lat":43.32045,"lon":5.37074,"is_reserved":false,"is_disabled":false,"rental_uris":{"android":"levelo://app?vid=44ea3182-88eb-4a7d-bbc8-aa868967f1bc","ios":"levelo://app?vid=44ea3182-88eb-4a7d-bbc8-aa868967f1bc"},"vehicle_type_id":"4","last_reported":1744348258,"current_range_meters":19600,"station_id":"","pricing_plan_id":"cebpf4jnsgd1na2vs0mg"},{"bike_id":"295f4571-ebf5-434f-9a0a-0e93d56f419b","system_id":"levelo_inurba_marseille","lat":43.30901,"lon":5.36855,"is_reserved":false,"is_disabled":false,"rental_uris":{"android":"levelo://app?vid=295f4571-ebf5-434f-9a0a-0e93d56f419b","ios":"levelo://app?vid=295f4571-ebf5-434f-9a0a-0e93d56f419b"},"vehicle_type_id":"4","last_reported":1744348258,"current_range_meters":19200,"station_id":"ce4bgn92rcd13ifvqbvg","pricing_plan_id":"cebpf4jnsgd1na2vs0mg"},{"bike_id":"ae2b16a9-bf4c-4094-9fda-8d249d692cd8","system_id":"levelo_inurba_marseille","lat":43.295064,"lon":5.417848,"is_reserved":false,"is_disabled":false,"rental_uris":{"android":"levelo://app?vid=ae2b16a9-bf4c-4094-9fda-8d249d692cd8","ios":"levelo://app?vid=ae2b16a9-bf4c-4094-9fda-8d249d692cd8"},"vehicle_type_id":"4","last_reported":1744348258,"current_range_meters":20000,"station_id":"","pricing_plan_id":"cebpf4jnsgd1na2vs0mg"},{"bike_id":"8be5fbd6-08b3-4bca-a4f6-a440bb49d90f","system_id":"levelo_inurba_marseille","lat":43.27934,"lon":5.41049,"is_reserved":false,"is_disabled":false,"rental_uris":{"android":"levelo://app?vid=8be5fbd6-08b3-4bca-a4f6-a440bb49d90f","ios":"levelo://app?vid=8be5fbd6-08b3-4bca-a4f6-a440bb49d90f"},"vehicle_type_id":"4","last_reported":1744348258,"current_range_meters":20000,"station_id":"ce4bhnp2rcd13ifvqh0g","pricing_plan_id":"cebpf4jnsgd1na2vs0mg"},{"bike_id":"0fedfa06-f63d-4eb0-94cb-0abd03c7bde6","system_id":"levelo_inurba_marseille","lat":43.30601,"lon":5.37237,"is_reserved":false,"is_disabled":false,"rental_uris":{"android":"levelo://app?vid=0fedfa06-f63d-4eb0-94cb-0abd03c7bde6","ios":"levelo://app?vid=0fedfa06-f63d-4eb0-94cb-0abd03c7bde6"},"vehicle_type_id":"4","last_reported":1744348258,"current_range_meters":19600,"station_id":"ce4bgqh2rcd13ifvqc4g","pricing_plan_id":"cebpf4jnsgd1na2vs0mg"},{"bike_id":"a52d7977-ba45-464c-88c5-c9fa8f536b42","system_id":"levelo_inurba_marseille","lat":43.22503,"lon":5.347864,"is_reserved":false,"is_disabled":false,"rental_uris":{"android":"levelo://app?vid=a52d7977-ba45-464c-88c5-c9fa8f536b42","ios":"levelo://app?vid=a52d7977-ba45-464c-88c5-c9fa8f536b42"},"vehicle_type_id":"4","last_reported":1744348258,"current_range_meters":20000,"station_id":"st_cvj5dfep6f1abm77gieg","pricing_plan_id":"cebpf4jnsgd1na2vs0mg"},{"bike_id":"90cddebc-2506-42ee-9df1-36a6154dff75","system_id":"levelo_inurba_marseille","lat":43.24156,"lon":5.36412,"is_reserved":false,"is_disabled":false,"rental_uris":{"android":"levelo://app?vid=90cddebc-2506-42ee-9df1-36a6154dff75","ios":"levelo://app?vid=90cddebc-2506-42ee-9df1-36a6154dff75"},"vehicle_type_id":"4","last_reported":1744348258,"current_range_meters":20000,"station_id":"cpo36qri1sfpv3e86is0","pricing_plan_id":"cebpf4jnsgd1na2vs0mg"},{"bike_id":"6da7ed18-5a5f-467e-8b00-c46a534110a8","system_id":"levelo_inurba_marseille","lat":43.298986,"lon":5.436532,"is_reserved":false,"is_disabled":false,"rental_uris":{"android":"levelo://app?vid=6da7ed18-5a5f-467e-8b00-c46a534110a8","ios":"levelo://app?vid=6da7ed18-5a5f-467e-8b00-c46a534110a8"},"vehicle_type_id":"4","last_reported":1744348258,"current_range_meters":20400,"station_id":"ce4bhpp2rcd13ifvqhfg","pricing_plan_id":"cebpf4jnsgd1na2vs0mg"},{"bike_id":"e13de261-883a-4080-affc-a7ed7ac621f8","system_id":"levelo_inurba_marseille","lat":43.30911,"lon":5.40181,"is_reserved":false,"is_disabled":false,"rental_uris":{"android":"levelo://app?vid=e13de261-883a-4080-affc-a7ed7ac621f8","ios":"levelo://app?vid=e13de261-883a-4080-affc-a7ed7ac621f8"},"vehicle_type_id":"4","last_reported":1744348258,"current_range_meters":20400,"station_id":"ce4bgvp2rcd13ifvqct0","pricing_plan_id":"cebpf4jnsgd1na2vs0mg"},{"bike_id":"3f62468d-f4f1-458d-b1e4-bfc99218a1f8","system_id":"levelo_inurba_marseille","lat":43.3042,"lon":5.38898,"is_reserved":false,"is_disabled":false,"rental_uris":{"android":"levelo://app?vid=3f62468d-f4f1-458d-b1e4-bfc99218a1f8","ios":"levelo://app?vid=3f62468d-f4f1-458d-b1e4-bfc99218a1f8"},"vehicle_type_id":"4","last_reported":1744348258,"current_range_meters":20400,"station_id":"ce4bgk12rcd13ifvqbi0","pricing_plan_id":"cebpf4jnsgd1na2vs0mg"},{"bike_id":"efed81fb-cb32-4956-b503-6eb2b5b0b2e5","system_id":"levelo_inurba_marseille","lat":43.3016,"lon":5.38086,"is_reserved":false,"is_disabled":false,"rental_uris":{"android":"levelo://app?vid=efed81fb-cb32-4956-b503-6eb2b5b0b2e5","ios":"levelo://app?vid=efed81fb-cb32-4956-b503-6eb2b5b0b2e5"},"vehicle_type_id":"4","last_reported":1744348258,"current_range_meters":20400,"station_id":"ce4bgjp2rcd13ifvqbh0","pricing_plan_id":"cebpf4jnsgd1na2vs0mg"},{"bike_id":"979cbb83-f1c4-432d-a336-843aea04a25f","system_id":"levelo_inurba_marseille","lat":43.231878,"lon":5.399836,"is_reserved":false,"is_disabled":false,"rental_uris":{"android":"levelo://app?vid=979cbb83-f1c4-432d-a336-843aea04a25f","ios":"levelo://app?vid=979cbb83-f1c4-432d-a336-843aea04a25f"},"vehicle_type_id":"4","last_reported":1744348258,"current_range_meters":20400,"station_id":"ce4bhn12rcd13ifvqgqg","pricing_plan_id":"cebpf4jnsgd1na2vs0mg"},{"bike_id":"a62ac68b-f4fa-49d3-90d7-f97eb97e1a6e","system_id":"levelo_inurba_marseille","lat":43.28427,"lon":5.39184,"is_reserved":false,"is_disabled":false,"rental_uris":{"android":"levelo://app?vid=a62ac68b-f4fa-49d3-90d7-f97eb97e1a6e","ios":"levelo://app?vid=a62ac68b-f4fa-49d3-90d7-f97eb97e1a6e"},"vehicle_type_id":"4","last_reported":1744348258,"current_range_meters":20800,"station_id":"ce4bhoh2rcd13ifvqh5g","pricing_plan_id":"cebpf4jnsgd1na2vs0mg"},{"bike_id":"ba4c7cdd-5ef3-4e5b-b638-3c3cf7c4ea5a","system_id":"levelo_inurba_marseille","lat":43.32359,"lon":5.38351,"is_reserved":false,"is_disabled":false,"rental_uris":{"android":"levelo://app?vid=ba4c7cdd-5ef3-4e5b-b638-3c3cf7c4ea5a","ios":"levelo://app?vid=ba4c7cdd-5ef3-4e5b-b638-3c3cf7c4ea5a"},"vehicle_type_id":"4","last_reported":1744348258,"current_range_meters":20800,"station_id":"","pricing_plan_id":"cebpf4jnsgd1na2vs0mg"},{"bike_id":"5573a844-d2d2-4c8d-8bb1-d1e19afdc008","system_id":"levelo_inurba_marseille","lat":43.27992,"lon":5.40041,"is_reserved":false,"is_disabled":false,"rental_uris":{"android":"levelo://app?vid=5573a844-d2d2-4c8d-8bb1-d1e19afdc008","ios":"levelo://app?vid=5573a844-d2d2-4c8d-8bb1-d1e19afdc008"},"vehicle_type_id":"4","last_reported":1744348258,"current_range_meters":20800,"station_id":"ce4bho92rcd13ifvqh4g","pricing_plan_id":"cebpf4jnsgd1na2vs0mg"},{"bike_id":"e7d64116-368f-421d-902b-041b68f32a12","system_id":"levelo_inurba_marseille","lat":43.30534,"lon":5.3656,"is_reserved":false,"is_disabled":false,"rental_uris":{"android":"levelo://app?vid=e7d64116-368f-421d-902b-041b68f32a12","ios":"levelo://app?vid=e7d64116-368f-421d-902b-041b68f32a12"},"vehicle_type_id":"4","last_reported":1744348258,"current_range_meters":21600,"station_id":"ce4bgs12rcd13ifvqcag","pricing_plan_id":"cebpf4jnsgd1na2vs0mg"},