{"last_updated":1700942916,"ttl":30,"version":"2.2","data":{"bikes":[{"bike_id":"1be7a314-267b-4c36-b676-668997f729fc","system_id":"levelo_inurba_marseille","lat":43.31341,"lon":5.367098,"is_reserved":false,"is_disabled":false,"rental_uris":{"android":"levelo://app?vid=1be7a314-267b-4c36-b676-668997f729fc","ios":"levelo://app?vid=1be7a314-267b-4c36-b676-668997f729fc"},"vehicle_type_id":"4","last_reported":1700942916,"current_range_meters":17200,"station_id":"ce4bgr92rcd13ifvqc6g","pricing_plan_id":"free"},{"bike_id":"6e88dd7f-23c6-49f1-884a-11c3d85f2d07","system_id":"levelo_inurba_marseille","lat":43.309076,"lon":5.368465,"is_reserved":false,"is_disabled":false,"rental_uris":{"android":"levelo://app?vid=6e88dd7f-23c6-49f1-884a-11c3d85f2d07","ios":"levelo://app?vid=6e88dd7f-23c6-49f1-884a-11c3d85f2d07"},"vehicle_type_id":"4","last_reported":1700942916,"current_range_meters":31200,"station_id":"ce4bgn92rcd13ifvqbvg","pricing_plan_id":"free"},{"bike_id":"b9ac10df-f71d-459b-82f5-c4118e03a755","system_id":"levelo_inurba_marseille","lat":43.309076,"lon":5.368465,"is_reserved":false,"is_disabled":false,"rental_uris":{"android":"levelo://app?vid=b9ac10df-f71d-459b-82f5-c4118e03a755","ios":"levelo://app?vid=b9ac10df-f71d-459b-82f5-c4118e03a755"},"vehicle_type_id":"4","last_reported":1700942916,"current_range_meters":30000,"station_id":"ce4bgn92rcd13ifvqbvg","pricing_plan_id":"free"},{"bike_id":"d0c4c140-4768-4061-a0b7-7f3c310ce967","system_id":"levelo_inurba_marseille","lat":43.309076,"lon":5.368465,"is_reserved":false,"is_disabled":false,"rental_uris":{"android":"levelo://app?vid=d0c4c140-4768-4061-a0b7-7f3c310ce967","ios":"levelo://app?vid=d0c4c140-4768-4061-a0b7-7f3c310ce967"},"vehicle_type_id":"4","last_reported":1700942916,"current_range_meters":14400,"station_id":"ce4bgn92rcd13ifvqbvg","pricing_plan_id":"free"},{"bike_id":"79fe6570-306d-4fae-b870-6d49c6367eee","system_id":"levelo_inurba_marseille","lat":43.314811,"lon":5.373104,"is_reserved":false,"is_disabled":false,"rental_uris":{"android":"levelo://app?vid=79fe6570-306d-4fae-b870-6d49c6367eee","ios":"levelo://app?vid=79fe6570-306d-4fae-b870-6d49c6367eee"},"vehicle_type_id":"4","last_reported":1700942916,"current_range_meters":5600,"station_id":"ce4bgt12rcd13ifvqcd0","pricing_plan_id":"free"},{"bike_id":"12fe559d-2c77-4748-b7cf-fc83d1aede07","system_id":"levelo_inurba_marseille","lat":43.309039,"lon":5.371797,"is_reserved":false,"is_disabled":false,"rental_uris":{"android":"levelo://app?vid=12fe559d-2c77-4748-b7cf-fc83d1aede07","ios":"levelo://app?vid=12fe559d-2c77-4748-b7cf-fc83d1aede07"},"vehicle_type_id":"4","last_reported":1700942916,"current_range_meters":21600,"station_id":"ce4bguh2rcd13ifvqckg","pricing_plan_id":"free"},{"bike_id":"56dcc7f6-2ea3-40fb-af50-611123df64d7","system_id":"levelo_inurba_marseille","lat":43.309039,"lon":5.371797,"is_reserved":false,"is_disabled":false,"rental_uris":{"android":"levelo://app?vid=56dcc7f6-2ea3-40fb-af50-611123df64d7","ios":"levelo://app?vid=56dcc7f6-2ea3-40fb-af50-611123df64d7"},"vehicle_type_id":"4","last_reported":1700942916,"current_range_meters":30400,"station_id":"ce4bguh2rcd13ifvqckg","pricing_plan_id":"free"},{"bike_id":"2c4e2ab4-2bc9-4e71-8e28-b7f9c78b7444","system_id":"levelo_inurba_marseille","lat":43.305714,"lon":5.365633,"is_reserved":false,"is_disabled":false,"rental_uris":{"android":"levelo://app?vid=2c4e2ab4-2bc9-4e71-8e28-b7f9c78b7444","ios":"levelo://app?vid=2c4e2ab4-2bc9-4e71-8e28-b7f9c78b7444"},"vehicle_type_id":"4","last_reported":1700942916,"current_range_meters":2800,"station_id":"ce4bgs12rcd13ifvqcag","pricing_plan_id":"free"},{"bike_id":"573a870a-b6c4-429d-8587-8103772b84bc","system_id":"levelo_inurba_marseille","lat":43.308161,"lon":5.376631,"is_reserved":false,"is_disabled":false,"rental_uris":{"android":"levelo://app?vid=573a870a-b6c4-429d-8587-8103772b84bc","ios":"levelo://app?vid=573a870a-b6c4-429d-8587-8103772b84bc"},"vehicle_type_id":"4","last_reported":1700942916,"current_range_meters":4000,"station_id":"ce4bgv92rcd13ifvqcq0","pricing_plan_id":"free"},{"bike_id":"f427a2c3-6e4a-446b-ae2f-9be8aa7f4122","system_id":"levelo_inurba_marseille","lat":43.31719,"lon":5.376813,"is_reserved":false,"is_disabled":false,"rental_uris":{"android":"levelo://app?vid=f427a2c3-6e4a-446b-ae2f-9be8aa7f4122","ios":"levelo://app?vid=f427a2c3-6e4a-446b-ae2f-9be8aa7f4122"},"vehicle_type_id":"4","last_reported":1700942916,"current_range_meters":23600,"station_id":"ce4bgth2rcd13ifvqch0","pricing_plan_id":"free"},{"bike_id":"c61244cd-48a9-4cd8-92b6-28b880afe65c","system_id":"levelo_inurba_marseille","lat":43.307945,"lon":5.376487,"is_reserved":false,"is_disabled":false,"rental_uris":{"android":"levelo://app?vid=c61244cd-48a9-4cd8-92b6-28b880afe65c","ios":"levelo://app?vid=c61244cd-48a9-4cd8-92b6-28b880afe65c"},"vehicle_type_id":"4","last_reported":1700942916,"current_range_meters":3200,"station_id":"ce4bgv92rcd13ifvqcq0","pricing_plan_id":"free"},{"bike_id":"b898b018-f57d-4901-bab2-fdd15d391de9","system_id":"levelo_inurba_marseille","lat":43.317168,"lon":5.376883,"is_reserved":false,"is_disabled":false,"rental_uris":{"android":"levelo://app?vid=b898b018-f57d-4901-bab2-fdd15d391de9","ios":"levelo://app?vid=b898b018-f57d-4901-bab2-fdd15d391de9"},"vehicle_type_id":"4","last_reported":1700942916,"current_range_meters":26000,"station_id":"ce4bgth2rcd13ifvqch0","pricing_plan_id":"free"},{"bike_id":"bcc8d573-4da5-491b-b9b4-fdffefb0c4d0","system_id":"levelo_inurba_marseille","lat":43.301939,"lon":5.366286,"is_reserved":false,"is_disabled":false,"rental_uris":{"android":"levelo://app?vid=bcc8d573-4da5-491b-b9b4-fdffefb0c4d0","ios":"levelo://app?vid=bcc8d573-4da5-491b-b9b4-fdffefb0c4d0"},"vehicle_type_id":"4","last_reported":1700942916,"current_range_meters":21200,"station_id":"ce4bgrh2rcd13ifvqc8g","pricing_plan_id":"free"},{"bike_id":"4fb7a681-52b6-4f5a-8831-6241cfe8d250","system_id":"levelo_inurba_marseille","lat":43.30808,"lon":5.38144,"is_reserved":false,"is_disabled":false,"rental_uris":{"android":"levelo://app?vid=4fb7a681-52b6-4f5a-8831-6241cfe8d250","ios":"levelo://app?vid=4fb7a681-52b6-4f5a-8831-6241cfe8d250"},"vehicle_type_id":"4","last_reported":1700942916,"current_range_meters":21200,"station_id":"ce4bgt12rcd13ifvqce0","pricing_plan_id":"free"},{"bike_id":"eb9c79ab-ec23-4f77-a884-4a766c1e20ba","system_id":"levelo_inurba_marseille","lat":43.301429,"lon":5.37413,"is_reserved":false,"is_disabled":false,"rental_uris":{"android":"levelo://app?vid=eb9c79ab-ec23-4f77-a884-4a766c1e20ba","ios":"levelo://app?vid=eb9c79ab-ec23-4f77-a884-4a766c1e20ba"},"vehicle_type_id":"4","last_reported":1700942916,"current_range_meters":20800,"station_id":"ce4bgs92rcd13ifvqcc0","pricing_plan_id":"free"},{"bike_id":"0fce9201-bb26-4476-a181-8104bbc417bd","system_id":"levelo_inurba_marseille","lat":43.301429,"lon":5.37413,"is_reserved":false,"is_disabled":false,"rental_uris":{"android":"levelo://app?vid=0fce9201-bb26-4476-a181-8104bbc417bd","ios":"levelo://app?vid=0fce9201-bb26-4476-a181-8104bbc417bd"},"vehicle_type_id":"4","last_reported":1700942916,"current_range_meters":20000,"station_id":"ce4bgs92rcd13ifvqcc0","pricing_plan_id":"free"},{"bike_id":"85a1b2e7-1092-41dc-8fea-b07cb6175595","system_id":"levelo_inurba_marseille","lat":43.319935,"lon":5.381699,"is_reserved":false,"is_disabled":false,"rental_uris":{"android":"levelo://app?vid=85a1b2e7-1092-41dc-8fea-b07cb6175595","ios":"levelo://app?vid=85a1b2e7-1092-41dc-8fea-b07cb6175595"},"vehicle_type_id":"4","last_reported":1700942916,"current_range_meters":20400,"station_id":"ce4bhr12rcd13ifvqhpg","pricing_plan_id":"free"},{"bike_id":"2c0cfbc9-8aed-4ab2-9052-67d693991efd","system_id":"levelo_inurba_marseille","lat":43.319935,"lon":5.381699,"is_reserved":false,"is_disabled":false,"rental_uris":{"android":"levelo://app?vid=2c0cfbc9-8aed-4ab2-9052-67d693991efd","ios":"levelo://app?vid=2c0cfbc9-8aed-4ab2-9052-67d693991efd"},"vehicle_type_id":"4","last_reported":1700942916,"current_range_meters":4800,"station_id":"ce4bhr12rcd13ifvqhpg","pricing_plan_id":"free"},{"bike_id":"9adda1c0-69b0-4cd2-8a9b-3388a2b807a8","system_id":"levelo_inurba_marseille","lat":43.31991,"lon":5.38164,"is_reserved":false,"is_disabled":false,"rental_uris":{"android":"levelo://app?vid=9adda1c0-69b0-4cd2-8a9b-3388a2b807a8","ios":"levelo://app?vid=9adda1c0-69b0-4cd2-8a9b-3388a2b807a8"},"vehicle_type_id":"4","last_reported":1700942916,"current_range_meters":20000,"station_id":"ce4bhr12rcd13ifvqhpg","pricing_plan_id":"free"},{"bike_id":"6a26d0ec-e476-4178-b7a4-38d9d3eba74c","system_id":"levelo_inurba_marseille","lat":43.320053,"lon":5.381587,"is_reserved":false,"is_disabled":false,"rental_uris":{"android":"levelo://app?vid=6a26d0ec-e476-4178-b7a4-38d9d3eba74c","ios":"levelo://app?vid=6a26d0ec-e476-4178-b7a4-38d9d3eba74c"},"vehicle_type_id":"4","last_reported":1700942916,"current_range_meters":18000,"station_id":"ce4bhr12rcd13ifvqhpg","pricing_plan_id":"free"},{"bike_id":"3ce7d3ba-4e15-4ac4-b5d8-b65b7ab1cde7","system_id":"levelo_inurba_marseille","lat":43.305364,"lon":5.384119,"is_reserved":false,"is_disabled":false,"rental_uris":{"android":"levelo://app?vid=3ce7d3ba-4e15-4ac4-b5d8-b65b7ab1cde7","ios":"levelo://app?vid=3ce7d3ba-4e15-4ac4-b5d8-b65b7ab1cde7"},"vehicle_type_id":"4","last_reported":1700942916,"current_range_meters":10000,"station_id":"ce4bgg92rcd13ifvqb30","pricing_plan_id":"free"},{"bike_id":"a049d5d6-5688-4698-a67e-b03645784859","system_id":"levelo_inurba_marseille","lat":43.298433,"lon":5.362774,"is_reserved":false,"is_disabled":false,"rental_uris":{"android":"levelo://app?vid=a049d5d6-5688-4698-a67e-b03645784859","ios":"levelo://app?vid=a049d5d6-5688-4698-a67e-b03645784859"},"vehicle_type_id":"4","last_reported":1700942916,"current_range_meters":22800,"station_id":"ce4bgpp2rcd13ifvqc3g","pricing_plan_id":"free"},{"bike_id":"304488ee-cada-41ff-9a0b-0f5ee33b114a","system_id":"levelo_inurba_marseille","lat":43.311722,"lon":5.387247,"is_reserved":false,"is_disabled":false,"rental_uris":{"android":"levelo://app?vid=304488ee-cada-41ff-9a0b-0f5ee33b114a","ios":"levelo://app?vid=304488ee-cada-41ff-9a0b-0f5ee33b114a"},"vehicle_type_id":"4","last_reported":1700942916,"current_range_meters":24000,"station_id":"ce4bgv12rcd13ifvqcp0","pricing_plan_id":"free"},{"bike_id":"0bc4b2c9-70b2-4813-812a-8caea2e32835","system_id":"levelo_inurba_marseille","lat":43.311722,"lon":5.387247,"is_reserved":false,"is_disabled":false,"rental_uris":{"android":"levelo://app?vid=0bc4b2c9-70b2-4813-812a-8caea2e32835","ios":"levelo://app?vid=0bc4b2c9-70b2-4813-812a-8caea2e32835"},"vehicle_type_id":"4","last_reported":1700942916,"current_range_meters":13200,"station_id":"ce4bgv12rcd13ifvqcp0","pricing_plan_id":"free"},{"bike_id":"f9fce30d-0cf4-4e60-9d5e-3e6280524e9e","system_id":"levelo_inurba_marseille","lat":43.322872,"lon":5.382756,"is_reserved":false,"is_disabled":false,"rental_uris":{"android":"levelo://app?vid=f9fce30d-0cf4-4e60-9d5e-3e6280524e9e","ios":"levelo://app?vid=f9fce30d-0cf4-4e60-9d5e-3e6280524e9e"},"vehicle_type_id":"4","last_reported":1700942916,"current_range_meters":30400,"station_id":"ce4bhr12rcd13ifvqhqg","pricing_plan_id":"free"},{"bike_id":"5a1baf68-f9af-496c-ab26-e428d44bc382","system_id":"levelo_inurba_marseille","lat":43.322872,"lon":5.382756,"is_reserved":false,"is_disabled":false,"rental_uris":{"android":"levelo://app?vid=5a1baf68-f9af-496c-ab26-e428d44bc382","ios":"levelo://app?vid=5a1baf68-f9af-496c-ab26-e428d44bc382"},"vehicle_type_id":"4","last_reported":1700942916,"current_range_meters":30000,"station_id":"ce4bhr12rcd13ifvqhqg","pricing_plan_id":"free"},{"bike_id":"0b85aafd-2d06-4b3d-bf23-17256839d1de","system_id":"levelo_inurba_marseille","lat":43.322872,"lon":5.382756,"is_reserved":false,"is_disabled":false,"rental_uris":{"android":"levelo://app?vid=0b85aafd-2d06-4b3d-bf23-17256839d1de","ios":"levelo://app?vid=0b85aafd-2d06-4b3d-bf23-17256839d1de"},"vehicle_type_id":"4","last_reported":1700942916,"current_range_meters":9600,"station_id":"ce4bhr12rcd13ifvqhqg","pricing_plan_id":"free"},{"bike_id":"95825c38-6c59-4753-b43e-2f944bdb26b9","system_id":"levelo_inurba_marseille","lat":43.32825,"lon":5.366817,"is_reserved":false,"is_disabled":false,"rental_uris":{"android":"levelo://app?vid=95825c38-6c59-4753-b43e-2f944bdb26b9","ios":"levelo://app?vid=95825c38-6c59-4753-b43e-2f944bdb26b9"},"vehicle_type_id":"4","last_reported":1700942916,"current_range_meters":14800,"station_id":"ce4bhs92rcd13ifvqi0g","pricing_plan_id":"free"},{"bike_id":"d4ce39f9-7fa1-46e3-a433-f250b4fdb796","system_id":"levelo_inurba_marseille","lat":43.322872,"lon":5.382756,"is_reserved":false,"is_disabled":false,"rental_uris":{"android":"levelo://app?vid=d4ce39f9-7fa1-46e3-a433-f250b4fdb796","ios":"levelo://app?vid=d4ce39f9-7fa1-46e3-a433-f250b4fdb796"},"vehicle_type_id":"4","last_reported":1700942916,"current_range_meters":27600,"station_id":"ce4bhr12rcd13ifvqhqg","pricing_plan_id":"free"},{"bike_id":"07a03e0e-e12b-474e-a940-8baf07c98432","system_id":"levelo_inurba_marseille","lat":43.32829,"lon":5.3668,"is_reserved":false,"is_disabled":false,"rental_uris":{"android":"levelo://app?vid=07a03e0e-e12b-474e-a940-8baf07c98432","ios":"levelo://app?vid=07a03e0e-e12b-474e-a940-8baf07c98432"},"vehicle_type_id":"4","last_reported":1700942916,"current_range_meters":14400,"station_id":"ce4bhs92rcd13ifvqi0g","pricing_plan_id":"free"},{"bike_id":"8791a58e-e3a0-43a8-b083-b15b0d3679b4","system_id":"levelo_inurba_marseille","lat":43.32831,"lon":5.36678,"is_reserved":false,"is_disabled":false,"rental_uris":{"android":"levelo://app?vid=8791a58e-e3a0-43a8-b083-b15b0d3679b4","ios":"levelo://app?vid=8791a58e-e3a0-43a8-b083-b15b0d3679b4"},"vehicle_type_id":"4","last_reported":1700942916,"current_range_meters":6800,"station_id":"ce4bhs92rcd13ifvqi0g","pricing_plan_id":"free"},{"bike_id":"71a104a3-4fa9-4688-bd64-7afc80b1b35c","system_id":"levelo_inurba_marseille","lat":43.297163,"lon":5.365866,"is_reserved":false,"is_disabled":false,"rental_uris":{"android":"levelo://app?vid=71a104a3-4fa9-4688-bd64-7afc80b1b35c","ios":"levelo://app?vid=71a104a3-4fa9-4688-bd64-7afc80b1b35c"},"vehicle_type_id":"4","last_reported":1700942916,"current_range_meters":4000,"station_id":"ce4bgn12rcd13ifvqbt0","pricing_plan_id":"free"},{"bike_id":"e6ace3a7-d53e-4fd0-b9c3-84f05e49a091","system_id":"levelo_inurba_marseille","lat":43.297163,"lon":5.365866,"is_reserved":false,"is_disabled":false,"rental_uris":{"android":"levelo://app?vid=e6ace3a7-d53e-4fd0-b9c3-84f05e49a091","ios":"levelo://app?vid=e6ace3a7-d53e-4fd0-b9c3-84f05e49a091"},"vehicle_type_id":"4","last_reported":1700942916,"current_range_meters":14800,"station_id":"ce4bgn12rcd13ifvqbt0","pricing_plan_id":"free"},{"bike_id":"85ad81bd-7359-4929-995d-9b6d386be598","system_id":"levelo_inurba_marseille","lat":43.296131,"lon":5.370773,"is_reserved":false,"is_disabled":false,"rental_uris":{"android":"levelo://app?vid=85ad81bd-7359-4929-995d-9b6d386be598","ios":"levelo://app?vid=85ad81bd-7359-4929-995d-9b6d386be598"},"vehicle_type_id":"4","last_reported":1700942916,"current_range_meters":10800,"station_id":"ce4bgnh2rcd13ifvqc0g","pricing_plan_id":"free"},{"bike_id":"6c34acba-7418-4dcb-88ae-ce72b6bf0000","system_id":"levelo_inurba_marseille","lat":43.309589,"lon":5.390258,"is_reserved":false,"is_disabled":false,"rental_uris":{"android":"levelo://app?vid=6c34acba-7418-4dcb-88ae-ce72b6bf0000","ios":"levelo://app?vid=6c34acba-7418-4dcb-88ae-ce72b6bf0000"},"vehicle_type_id":"4","last_reported":1700942916,"current_range_meters":4000,"station_id":"ce4bgup2rcd13ifvqco0","pricing_plan_id":"free"},{"bike_id":"11683cb2-b34a-48ae-9e63-3298a0ccaf91","system_id":"levelo_inurba_marseille","lat":43.309589,"lon":5.390258,"is_reserved":false,"is_disabled":false,"rental_uris":{"android":"levelo://app?vid=11683cb2-b34a-48ae-9e63-3298a0ccaf91","ios":"levelo://app?vid=11683cb2-b34a-48ae-9e63-3298a0ccaf91"},"vehicle_type_id":"4","last_reported":1700942916,"current_range_meters":400,"station_id":"ce4bgup2rcd13ifvqco0","pricing_plan_id":"free"},{"bike_id":"269c6317-87ce-4fc8-9c85-66e88533dc75","system_id":"levelo_inurba_marseille","lat":43.317557,"lon":5.390173,"is_reserved":false,"is_disabled":false,"rental_uris":{"android":"levelo://app?vid=269c6317-87ce-4fc8-9c85-66e88533dc75","ios":"levelo://app?vid=269c6317-87ce-4fc8-9c85-66e88533dc75"},"vehicle_type_id":"4","last_reported":1700942916,"current_range_meters":13200,"station_id":"ce4bhqp2rcd13ifvqhng","pricing_plan_id":"free"},{"bike_id":"182a8eba-b988-4234-b90d-84b803a31198","system_id":"levelo_inurba_marseille","lat":43.317557,"lon":5.390173,"is_reserved":false,"is_disabled":false,"rental_uris":{"android":"levelo://app?vid=182a8eba-b988-4234-b90d-84b803a31198","ios":"levelo://app?vid=182a8eba-b988-4234-b90d-84b803a31198"},"vehicle_type_id":"4","last_reported":1700942916,"current_range_meters":30000,"station_id":"ce4bhqp2rcd13ifvqhng","pricing_plan_id":"free"},{"bike_id":"3b339994-3557-4ddd-b662-012dc9114e7e","system_id":"levelo_inurba_marseille","lat":43.317557,"lon":5.390173,"is_reserved":false,"is_disabled":false,"rental_uris":{"android":"levelo://app?vid=3b339994-3557-4ddd-b662-012dc9114e7e","ios":"levelo://app?vid=3b339994-3557-4ddd-b662-012dc9114e7e"},"vehicle_type_id":"4","last_reported":1700942916,"current_range_meters":18000,"station_id":"ce4bhqp2rcd13ifvqhng","pricing_plan_id":"free"},{"bike_id":"8e0b024a-cf26-4b65-ac01-3f5bea6a73f0","system_id":"levelo_inurba_marseille","lat":43.31759,"lon":5.39023,"is_reserved":false,"is_disabled":false,"rental_uris":{"android":"levelo://app?vid=8e0b024a-cf26-4b65-ac01-3f5bea6a73f0","ios":"levelo://app?vid=8e0b024a-cf26-4b65-ac01-3f5bea6a73f0"},"vehicle_type_id":"4","last_reported":1700942916,"current_range_meters":0,"station_id":"ce4bhqp2rcd13ifvqhng","pricing_plan_id":"free"},{"bike_id":"554c8b08-be8a-4806-bcb7-31a4bf0a01d7","system_id":"levelo_inurba_marseille","lat":43.298037,"lon":5.381066,"is_reserved":false,"is_disabled":false,"rental_uris":{"android":"levelo://app?vid=554c8b08-be8a-4806-bcb7-31a4bf0a01d7","ios":"levelo://app?vid=554c8b08-be8a-4806-bcb7-31a4bf0a01d7"},"vehicle_type_id":"4","last_reported":1700942916,"current_range_meters":19600,"station_id":"ce4bgip2rcd13ifvqbb0","pricing_plan_id":"free"},{"bike_id":"24a7b7c0-2477-4e67-8e5e-51f943a23412","system_id":"levelo_inurba_marseille","lat":43.298037,"lon":5.381066,"is_reserved":false,"is_disabled":false,"rental_uris":{"android":"levelo://app?vid=24a7b7c0-2477-4e67-8e5e-51f943a23412","ios":"levelo://app?vid=24a7b7c0-2477-4e67-8e5e-51f943a23412"},"vehicle_type_id":"4","last_reported":1700942916,"current_range_meters":27600,"station_id":"ce4bgip2rcd13ifvqbb0","pricing_plan_id":"free"},{"bike_id":"3a73e7bb-a0d1-4cc6-a106-b51863bc3414","system_id":"levelo_inurba_marseille","lat":43.30429,"lon":5.388735,"is_reserved":false,"is_disabled":false,"rental_uris":{"android":"levelo://app?vid=3a73e7bb-a0d1-4cc6-a106-b51863bc3414","ios":"levelo://app?vid=3a73e7bb-a0d1-4cc6-a106-b51863bc3414"},"vehicle_type_id":"4","last_reported":1700942916,"current_range_meters":0,"station_id":"ce4bgk12rcd13ifvqbi0","pricing_plan_id":"free"},{"bike_id":"74b86f72-5bac-40d3-8697-6e3b66044c95","system_id":"levelo_inurba_marseille","lat":43.29613,"lon":5.37717,"is_reserved":false,"is_disabled":false,"rental_uris":{"android":"levelo://app?vid=74b86f72-5bac-40d3-8697-6e3b66044c95","ios":"levelo://app?vid=74b86f72-5bac-40d3-8697-6e3b66044c95"},"vehicle_type_id":"4","last_reported":1700942916,"current_range_meters":0,"station_id":"ce4bgqh2rcd13ifvqc4g","pricing_plan_id":"free"},{"bike_id":"6b621983-5e9e-42f7-990d-ad5a093820d2","system_id":"levelo_inurba_marseille","lat":43.293801,"lon":5.363066,"is_reserved":false,"is_disabled":false,"rental_uris":{"android":"levelo://app?vid=6b621983-5e9e-42f7-990d-ad5a093820d2","ios":"levelo://app?vid=6b621983-5e9e-42f7-990d-ad5a093820d2"},"vehicle_type_id":"4","last_reported":1700942916,"current_range_meters":0,"station_id":"","pricing_plan_id":"free"},{"bike_id":"c08692de-893b-4842-ac6a-624a77fd78ec","system_id":"levelo_inurba_marseille","lat":43.323799,"lon":5.389627,"is_reserved":false,"is_disabled":false,"rental_uris":{"android":"levelo://app?vid=c08692de-893b-4842-ac6a-624a77fd78ec","ios":"levelo://app?vid=c08692de-893b-4842-ac6a-624a77fd78ec"},"vehicle_type_id":"4","last_reported":1700942916,"current_range_meters":2400,"station_id":"","pricing_plan_id":"free"},{"bike_id":"a99a98c5-7e88-436c-8d20-73c6fda0c8bc","system_id":"levelo_inurba_marseille","lat":43.29272,"lon":5.36837,"is_reserved":false,"is_disabled":false,"rental_uris":{"android":"levelo://app?vid=a99a98c5-7e88-436c-8d20-73c6fda0c8bc","ios":"levelo://app?vid=a99a98c5-7e88-436c-8d20-73c6fda0c8bc"},"vehicle_type_id":"4","last_reported":1700942916,"current_range_meters":0,"station_id":"ce4bhbp2rcd13ifvqesg","pricing_plan_id":"free"},{"bike_id":"24d0f25a-8ab9-45e7-8ef6-0fcd37b8b18e","system_id":"levelo_inurba_marseille","lat":43.305994,"lon":5.393687,"is_reserved":false,"is_disabled":false,"rental_uris":{"android":"levelo://app?vid=24d0f25a-8ab9-45e7-8ef6-0fcd37b8b18e","ios":"levelo://app?vid=24d0f25a-8ab9-45e7-8ef6-0fcd37b8b18e"},"vehicle_type_id":"4","last_reported":1700942916,"current_range_meters":11600,"station_id":"ce4bh0p2rcd13ifvqd80","pricing_plan_id":"free"},{"bike_id":"8b979cd5-47a9-4f0f-8d74-76418eb3e94f","system_id":"levelo_inurba_marseille","lat":43.303002,"lon":5.392142,"is_reserved":false,"is_disabled":false,"rental_uris":{"android":"levelo://app?vid=8b979cd5-47a9-4f0f-8d74-76418eb3e94f","ios":"levelo://app?vid=8b979cd5-47a9-4f0f-8d74-76418eb3e94f"},"vehicle_type_id":"4","last_reported":1700942916,"current_range_meters":16000,"station_id":"ce4bgkh2rcd13ifvqbk0","pricing_plan_id":"free"},{"bike_id":"3eab7df0-99ce-4421-b0c5-5f5d66e77630","system_id":"levelo_inurba_marseille","lat":43.313291,"lon":5.396838,"is_reserved":false,"is_disabled":false,"rental_uris":{"android":"levelo://app?vid=3eab7df0-99ce-4421-b0c5-5f5d66e77630","ios":"levelo://app?vid=3eab7df0-99ce-4421-b0c5-5f5d66e77630"},"vehicle_type_id":"4","last_reported":1700942916,"current_range_meters":24800,"station_id":"ce4bgvp2rcd13ifvqcu0","pricing_plan_id":"free"},{"bike_id":"fb9779ef-74b8-4f04-b5c8-61b5820cbe87","system_id":"levelo_inurba_marseille","lat":43.309038,"lon":5.396546,"is_reserved":false,"is_disabled":false,"rental_uris":{"android":"levelo://app?vid=fb9779ef-74b8-4f04-b5c8-61b5820cbe87","ios":"levelo://app?vid=fb9779ef-74b8-4f04-b5c8-61b5820cbe87"},"vehicle_type_id":"4","last_reported":1700942916,"current_range_meters":6800,"station_id":"ce4bh012rcd13ifvqcv0","pricing_plan_id":"free"},{"bike_id":"98f58b60-bbb4-433e-a609-bdf44424887e","system_id":"levelo_inurba_marseille","lat":43.31337,"lon":5.39693,"is_reserved":false,"is_disabled":false,"rental_uris":{"android":"levelo://app?vid=98f58b60-bbb4-433e-a609-bdf44424887e","ios":"levelo://app?vid=98f58b60-bbb4-433e-a609-bdf44424887e"},"vehicle_type_id":"4","last_reported":1700942916,"current_range_meters":4800,"station_id":"ce4bgvp2rcd13ifvqcu0","pricing_plan_id":"free"},{"bike_id":"a9b05085-cbec-4d47-a5d2-469f36f40f42","system_id":"levelo_inurba_marseille","lat":43.313291,"lon":5.396838,"is_reserved":false,"is_disabled":false,"rental_uris":{"android":"levelo://app?vid=a9b05085-cbec-4d47-a5d2-469f36f40f42","ios":"levelo://app?vid=a9b05085-cbec-4d47-a5d2-469f36f40f42"},"vehicle_type_id":"4","last_reported":1700942916,"current_range_meters":0,"station_id":"ce4bgvp2rcd13ifvqcu0","pricing_plan_id":"free"},{"bike_id":"089841ca-e15a-4e51-9eeb-e30f6b36a6ed","system_id":"levelo_inurba_marseille","lat":43.308927,"lon":5.396517,"is_reserved":false,"is_disabled":false,"rental_uris":{"android":"levelo://app?vid=089841ca-e15a-4e51-9eeb-e30f6b36a6ed","ios":"levelo://app?vid=089841ca-e15a-4e51-9eeb-e30f6b36a6ed"},"vehicle_type_id":"4","last_reported":1700942916,"current_range_meters":6000,"station_id":"ce4bh012rcd13ifvqcv0","pricing_plan_id":"free"},{"bike_id":"a9ab8c96-60c7-4b45-9026-234f983145c8","system_id":"levelo_inurba_marseille","lat":43.312974,"lon":5.396993,"is_reserved":false,"is_disabled":false,"rental_uris":{"android":"levelo://app?vid=a9ab8c96-60c7-4b45-9026-234f983145c8","ios":"levelo://app?vid=a9ab8c96-60c7-4b45-9026-234f983145c8"},"vehicle_type_id":"4","last_reported":1700942916,"current_range_meters":0,"station_id":"","pricing_plan_id":"free"},{"bike_id":"73acb426-2cde-4ffa-a7c7-a8688acb1ef2","system_id":"levelo_inurba_marseille","lat":43.299028,"lon":5.381509,"is_reserved":false,"is_disabled":false,"rental_uris":{"android":"levelo://app?vid=73acb426-2cde-4ffa-a7c7-a8688acb1ef2","ios":"levelo://app?vid=73acb426-2cde-4ffa-a7c7-a8688acb1ef2"},"vehicle_type_id":"4","last_reported":1700942916,"current_range_meters":15600,"station_id":"ce4bgj12rcd13ifvqbc0","pricing_plan_id":"free"},{"bike_id":"8cfbcdd4-0fbc-416c-864e-cd1a5ca7bf1d","system_id":"levelo_inurba_marseille","lat":43.29534,"lon":5.38535,"is_reserved":false,"is_disabled":false,"rental_uris":{"android":"levelo://app?vid=8cfbcdd4-0fbc-416c-864e-cd1a5ca7bf1d","ios":"levelo://app?vid=8cfbcdd4-0fbc-416c-864e-cd1a5ca7bf1d"},"vehicle_type_id":"4","last_reported":1700942916,"current_range_meters":13600,"station_id":"ce4bgih2rcd13ifvqba0","pricing_plan_id":"free"},{"bike_id":"da709bde-0935-4eb8-81f3-e463e2e58380","system_id":"levelo_inurba_marseille","lat":43.295323,"lon":5.385397,"is_reserved":false,"is_disabled":false,"rental_uris":{"android":"levelo://app?vid=da709bde-0935-4eb8-81f3-e463e2e58380","ios":"levelo://app?vid=da709bde-0935-4eb8-81f3-e463e2e58380"},"vehicle_type_id":"4","last_reported":1700942916,"current_range_meters":20400,"station_id":"ce4bgih2rcd13ifvqba0","pricing_plan_id":"free"},{"bike_id":"d313d9a4-1251-4641-b4ad-43f072888bb1","system_id":"levelo_inurba_marseille","lat":43.290624,"lon":5.359245,"is_reserved":false,"is_disabled":false,"rental_uris":{"android":"levelo://app?vid=d313d9a4-1251-4641-b4ad-43f072888bb1","ios":"levelo://app?vid=d313d9a4-1251-4641-b4ad-43f072888bb1"},"vehicle_type_id":"4","last_reported":1700942916,"current_range_meters":7200,"station_id":"ce4bha92rcd13ifvqeg0","pricing_plan_id":"free"},{"bike_id":"0af62923-4987-4515-99a4-958cdba82876","system_id":"levelo_inurba_marseille","lat":43.294162,"lon":5.386292,"is_reserved":false,"is_disabled":false,"rental_uris":{"android":"levelo://app?vid=0af62923-4987-4515-99a4-958cdba82876","ios":"levelo://app?vid=0af62923-4987-4515-99a4-958cdba82876"},"vehicle_type_id":"4","last_reported":1700942916,"current_range_meters":3600,"station_id":"ce4bh2h2rcd13ifvqdh0","pricing_plan_id":"free"},{"bike_id":"29188ec1-eaf0-4ed9-af3b-47aacb868bdf","system_id":"levelo_inurba_marseille","lat":43.294162,"lon":5.386292,"is_reserved":false,"is_disabled":false,"rental_uris":{"android":"levelo://app?vid=29188ec1-eaf0-4ed9-af3b-47aacb868bdf","ios":"levelo://app?vid=29188ec1-eaf0-4ed9-af3b-47aacb868bdf"},"vehicle_type_id":"4","last_reported":1700942916,"current_range_meters":22000,"station_id":"ce4bh2h2rcd13ifvqdh0","pricing_plan_id":"free"},{"bike_id":"3cadec2a-aa0f-4129-b46f-457853a31e99","system_id":"levelo_inurba_marseille","lat":43.294162,"lon":5.386292,"is_reserved":false,"is_disabled":false,"rental_uris":{"android":"levelo://app?vid=3cadec2a-aa0f-4129-b46f-457853a31e99","ios":"levelo://app?vid=3cadec2a-aa0f-4129-b46f-457853a31e99"},"vehicle_type_id":"4","last_reported":1700942916,"current_range_meters":18800,"station_id":"ce4bh2h2rcd13ifvqdh0","pricing_plan_id":"free"},{"bike_id":"10d44578-881b-44ef-8e3e-b7143f8f6133","system_id":"levelo_inurba_marseille","lat":43.294162,"lon":5.386292,"is_reserved":false,"is_disabled":false,"rental_uris":{"android":"levelo://app?vid=10d44578-881b-44ef-8e3e-b7143f8f6133","ios":"levelo://app?vid=10d44578-881b-44ef-8e3e-b7143f8f6133"},"vehicle_type_id":"4","last_reported":1700942916,"current_range_meters":2400,"station_id":"ce4bh2h2rcd13ifvqdh0","pricing_plan_id":"free"},{"bike_id":"49fa5155-cb42-4a76-aa7d-ecb439f549a6","system_id":"levelo_inurba_marseille","lat":43.294162,"lon":5.386292,"is_reserved":false,"is_disabled":false,"rental_uris":{"android":"levelo://app?vid=49fa5155-cb42-4a76-aa7d-ecb439f549a6","ios":"levelo://app?vid=49fa5155-cb42-4a76-aa7d-ecb439f549a6"},"vehicle_type_id":"4","last_reported":1700942916,"current_range_meters":0,"station_id":"ce4bh2h2rcd13ifvqdh0","pricing_plan_id":"free"},{"bike_id":"e988c7cf-4981-4381-bd24-479f39527e50","system_id":"levelo_inurba_marseille","lat":43.292642,"lon":5.384254,"is_reserved":false,"is_disabled":false,"rental_uris":{"android":"levelo://app?vid=e988c7cf-4981-4381-bd24-479f39527e50","ios":"levelo://app?vid=e988c7cf-4981-4381-bd24-479f39527e50"},"vehicle_type_id":"4","last_reported":1700942916,"current_range_meters":1600,"station_id":"ce4bh692rcd13ifvqea0","pricing_plan_id":"free"},{"bike_id":"361936ed-1581-42a7-80c3-59b2a87f98ff","system_id":"levelo_inurba_marseille","lat":43.292642,"lon":5.384254,"is_reserved":false,"is_disabled":false,"rental_uris":{"android":"levelo://app?vid=361936ed-1581-42a7-80c3-59b2a87f98ff","ios":"levelo://app?vid=361936ed-1581-42a7-80c3-59b2a87f98ff"},"vehicle_type_id":"4","last_reported":1700942916,"current_range_meters":9200,"station_id":"ce4bh692rcd13ifvqea0","pricing_plan_id":"free"},{"bike_id":"7b24b8b3-5ae2-45d1-abfd-ccfcf97a4206","system_id":"levelo_inurba_marseille","lat":43.292644,"lon":5.384257,"is_reserved":false,"is_disabled":false,"rental_uris":{"android":"levelo://app?vid=7b24b8b3-5ae2-45d1-abfd-ccfcf97a4206","ios":"levelo://app?vid=7b24b8b3-5ae2-45d1-abfd-ccfcf97a4206"},"vehicle_type_id":"4","last_reported":1700942916,"current_range_meters":2400,"station_id":"ce4bh692rcd13ifvqea0","pricing_plan_id":"free"},{"bike_id":"67d973f3-6561-4347-815e-dc3330d1d3bf","system_id":"levelo_inurba_marseille","lat":43.2926,"lon":5.3844,"is_reserved":false,"is_disabled":false,"rental_uris":{"android":"levelo://app?vid=67d973f3-6561-4347-815e-dc3330d1d3bf","ios":"levelo://app?vid=67d973f3-6561-4347-815e-dc3330d1d3bf"},"vehicle_type_id":"4","last_reported":1700942916,"current_range_meters":28800,"station_id":"ce4bh692rcd13ifvqea0","pricing_plan_id":"free"},{"bike_id":"b420e4f6-1330-488a-a68e-de353d903bb2","system_id":"levelo_inurba_marseille","lat":43.330442,"lon":5.389148,"is_reserved":false,"is_disabled":false,"rental_uris":{"android":"levelo://app?vid=b420e4f6-1330-488a-a68e-de353d903bb2","ios":"levelo://app?vid=b420e4f6-1330-488a-a68e-de353d903bb2"},"vehicle_type_id":"4","last_reported":1700942916,"current_range_meters":7600,"station_id":"ce4bhr92rcd13ifvqhrg","pricing_plan_id":"free"},{"bike_id":"d0b9c72d-9625-492f-8f0b-3fc94e561819","system_id":"levelo_inurba_marseille","lat":43.290104,"lon":5.356111,"is_reserved":false,"is_disabled":false,"rental_uris":{"android":"levelo://app?vid=d0b9c72d-9625-492f-8f0b-3fc94e561819","ios":"levelo://app?vid=d0b9c72d-9625-492f-8f0b-3fc94e561819"},"vehicle_type_id":"4","last_reported":1700942916,"current_range_meters":2400,"station_id":"ce4bhb92rcd13ifvqen0","pricing_plan_id":"free"},{"bike_id":"bca6dae4-f1bf-4b7f-92e8-15b0759b48b2","system_id":"levelo_inurba_marseille","lat":43.290104,"lon":5.356111,"is_reserved":false,"is_disabled":false,"rental_uris":{"android":"levelo://app?vid=bca6dae4-f1bf-4b7f-92e8-15b0759b48b2","ios":"levelo://app?vid=bca6dae4-f1bf-4b7f-92e8-15b0759b48b2"},"vehicle_type_id":"4","last_reported":1700942916,"current_range_meters":12400,"station_id":"ce4bhb92rcd13ifvqen0","pricing_plan_id":"free"},{"bike_id":"117c73e0-31ca-4018-84ea-ecb56fef8fce","system_id":"levelo_inurba_marseille","lat":43.295169,"lon":5.390426,"is_reserved":false,"is_disabled":false,"rental_uris":{"android":"levelo://app?vid=117c73e0-31ca-4018-84ea-ecb56fef8fce","ios":"levelo://app?vid=117c73e0-31ca-4018-84ea-ecb56fef8fce"},"vehicle_type_id":"4","last_reported":1700942916,"current_range_meters":1200,"station_id":"ce4bh3p2rcd13ifvqdp0","pricing_plan_id":"free"},{"bike_id":"9c9bd7db-a71c-419c-ba42-83618cc977b4","system_id":"levelo_inurba_marseille","lat":43.30965,"lon":5.400747,"is_reserved":false,"is_disabled":false,"rental_uris":{"android":"levelo://app?vid=9c9bd7db-a71c-419c-ba42-83618cc977b4","ios":"levelo://app?vid=9c9bd7db-a71c-419c-ba42-83618cc977b4"},"vehicle_type_id":"4","last_reported":1700942916,"current_range_meters":0,"station_id":"","pricing_plan_id":"free"},{"bike_id":"6a422ec8-7fbe-49bc-bbc4-53d5f2aa699f","system_id":"levelo_inurba_marseille","lat":43.290094,"lon":5.381264,"is_reserved":false,"is_disabled":false,"rental_uris":{"android":"levelo://app?vid=6a422ec8-7fbe-49bc-bbc4-53d5f2aa699f","ios":"levelo://app?vid=6a422ec8-7fbe-49bc-bbc4-53d5f2aa699f"},"vehicle_type_id":"4","last_reported":1700942916,"current_range_meters":16000,"station_id":"ce4bh4p2rcd13ifvqe1g","pricing_plan_id":"free"},{"bike_id":"bbfc18f0-9589-4a85-8e9a-2de172ff2e7e","system_id":"levelo_inurba_marseille","lat":43.28856,"lon":5.358371,"is_reserved":false,"is_disabled":false,"rental_uris":{"android":"levelo://app?vid=bbfc18f0-9589-4a85-8e9a-2de172ff2e7e","ios":"levelo://app?vid=bbfc18f0-9589-4a85-8e9a-2de172ff2e7e"},"vehicle_type_id":"4","last_reported":1700942916,"current_range_meters":24400,"station_id":"ce4bhb12rcd13ifvqem0","pricing_plan_id":"free"},{"bike_id":"5e9a6e86-f054-41fd-ba8c-561dcd3a4283","system_id":"levelo_inurba_marseille","lat":43.28856,"lon":5.358371,"is_reserved":false,"is_disabled":false,"rental_uris":{"android":"levelo://app?vid=5e9a6e86-f054-41fd-ba8c-561dcd3a4283","ios":"levelo://app?vid=5e9a6e86-f054-41fd-ba8c-561dcd3a4283"},"vehicle_type_id":"4","last_reported":1700942916,"current_range_meters":26000,"station_id":"ce4bhb12rcd13ifvqem0","pricing_plan_id":"free"},{"bike_id":"2b23f38a-1831-49fe-a943-86c9ec15f136","system_id":"levelo_inurba_marseille","lat":43.337479,"lon":5.374539,"is_reserved":false,"is_disabled":false,"rental_uris":{"android":"levelo://app?vid=2b23f38a-1831-49fe-a943-86c9ec15f136","ios":"levelo://app?vid=2b23f38a-1831-49fe-a943-86c9ec15f136"},"vehicle_type_id":"4","last_reported":1700942916,"current_range_meters":400,"station_id":"","pricing_plan_id":"free"},{"bike_id":"ac285e26-46ab-4b23-8672-d078d8fed511","system_id":"levelo_inurba_marseille","lat":43.3376,"lon":5.37454,"is_reserved":false,"is_disabled":false,"rental_uris":{"android":"levelo://app?vid=ac285e26-46ab-4b23-8672-d078d8fed511","ios":"levelo://app?vid=ac285e26-46ab-4b23-8672-d078d8fed511"},"vehicle_type_id":"4","last_reported":1700942916,"current_range_meters":24800,"station_id":"","pricing_plan_id":"free"},{"bike_id":"9f3b8ec8-90d5-47fd-a129-f09ee70d6956","system_id":"levelo_inurba_marseille","lat":43.30142,"lon":5.39851,"is_reserved":false,"is_disabled":false,"rental_uris":{"android":"levelo://app?vid=9f3b8ec8-90d5-47fd-a129-f09ee70d6956","ios":"levelo://app?vid=9f3b8ec8-90d5-47fd-a129-f09ee70d6956"},"vehicle_type_id":"4","last_reported":1700942916,"current_range_meters":0,"station_id":"ce4bh0h2rcd13ifvqd40","pricing_plan_id":"free"},{"bike_id":"f3e0a1c6-27d0-4738-ab41-50bb7213b977","system_id":"levelo_inurba_marseille","lat":43.28727,"lon":5.36078,"is_reserved":false,"is_disabled":false,"rental_uris":{"android":"levelo://app?vid=f3e0a1c6-27d0-4738-ab41-50bb7213b977","ios":"levelo://app?vid=f3e0a1c6-27d0-4738-ab41-50bb7213b977"},"vehicle_type_id":"4","last_reported":1700942916,"current_range_meters":26400,"station_id":"cki0cbj6b192h4jlfktg","pricing_plan_id":"free"},{"bike_id":"5e07bcbe-f9ef-4d52-aa6b-3aa449d2ce0d","system_id":"levelo_inurba_marseille","lat":43.298681,"lon":5.397225,"is_reserved":false,"is_disabled":false,"rental_uris":{"android":"levelo://app?vid=5e07bcbe-f9ef-4d52-aa6b-3aa449d2ce0d","ios":"levelo://app?vid=5e07bcbe-f9ef-4d52-aa6b-3aa449d2ce0d"},"vehicle_type_id":"4","last_reported":1700942916,"current_range_meters":24000,"station_id":"ce4bh0h2rcd13ifvqd50","pricing_plan_id":"free"},{"bike_id":"83218b91-ed8b-47a5-bb7a-23e78074d896","system_id":"levelo_inurba_marseille","lat":43.286961,"lon":5.373785,"is_reserved":false,"is_disabled":false,"rental_uris":{"android":"levelo://app?vid=83218b91-ed8b-47a5-bb7a-23e78074d896","ios":"levelo://app?vid=83218b91-ed8b-47a5-bb7a-23e78074d896"},"vehicle_type_id":"4","last_reported":1700942916,"current_range_meters":4000,"station_id":"ce4bh3p2rcd13ifvqdq0","pricing_plan_id":"free"},{"bike_id":"ee338aed-8e14-41f1-aaa1-f0ca22f5c20c","system_id":"levelo_inurba_marseille","lat":43.286961,"lon":5.373785,"is_reserved":false,"is_disabled":false,"rental_uris":{"android":"levelo://app?vid=ee338aed-8e14-41f1-aaa1-f0ca22f5c20c","ios":"levelo://app?vid=ee338aed-8e14-41f1-aaa1-f0ca22f5c20c"},"vehicle_type_id":"4","last_reported":1700942916,"current_range_meters":14800,"station_id":"ce4bh3p2rcd13ifvqdq0","pricing_plan_id":"free"},{"bike_id":"1606dddc-4318-42b6-89a0-c8bd14dd605f","system_id":"levelo_inurba_marseille","lat":43.286593,"lon":5.363346,"is_reserved":false,"is_disabled":false,"rental_uris":{"android":"levelo://app?vid=1606dddc-4318-42b6-89a0-c8bd14dd605f","ios":"levelo://app?vid=1606dddc-4318-42b6-89a0-c8bd14dd605f"},"vehicle_type_id":"4","last_reported":1700942916,"current_range_meters":8800,"station_id":"ce4bhah2rcd13ifvqej0","pricing_plan_id":"free"},{"bike_id":"d4251a91-8d85-4580-8a19-5609146e105d","system_id":"levelo_inurba_marseille","lat":43.289307,"lon":5.38406,"is_reserved":false,"is_disabled":false,"rental_uris":{"android":"levelo://app?vid=d4251a91-8d85-4580-8a19-5609146e105d","ios":"levelo://app?vid=d4251a91-8d85-4580-8a19-5609146e105d"},"vehicle_type_id":"4","last_reported":1700942916,"current_range_meters":26400,"station_id":"ce4bh612rcd13ifvqe6g","pricing_plan_id":"free"},{"bike_id":"a6e25405-5779-4b45-9cb8-e7ec5d946bae","system_id":"levelo_inurba_marseille","lat":43.29038,"lon":5.38642,"is_reserved":false,"is_disabled":false,"rental_uris":{"android":"levelo://app?vid=a6e25405-5779-4b45-9cb8-e7ec5d946bae","ios":"levelo://app?vid=a6e25405-5779-4b45-9cb8-e7ec5d946bae"},"vehicle_type_id":"4","last_reported":1700942916,"current_range_meters":6800,"station_id":"ce4bh4p2rcd13ifvqe0g","pricing_plan_id":"free"},{"bike_id":"3de64d3f-fd5f-4f33-b627-01e2dd64a4e2","system_id":"levelo_inurba_marseille","lat":43.290319,"lon":5.386424,"is_reserved":false,"is_disabled":false,"rental_uris":{"android":"levelo://app?vid=3de64d3f-fd5f-4f33-b627-01e2dd64a4e2","ios":"levelo://app?vid=3de64d3f-fd5f-4f33-b627-01e2dd64a4e2"},"vehicle_type_id":"4","last_reported":1700942916,"current_range_meters":5600,"station_id":"ce4bh4p2rcd13ifvqe0g","pricing_plan_id":"free"},{"bike_id":"3542066d-d9fd-45d9-b02d-3611b1d69ca1","system_id":"levelo_inurba_marseille","lat":43.29034,"lon":5.3865,"is_reserved":false,"is_disabled":false,"rental_uris":{"android":"levelo://app?vid=3542066d-d9fd-45d9-b02d-3611b1d69ca1","ios":"levelo://app?vid=3542066d-d9fd-45d9-b02d-3611b1d69ca1"},"vehicle_type_id":"4","last_reported":1700942916,"current_range_meters":21600,"station_id":"ce4bh4p2rcd13ifvqe0g","pricing_plan_id":"free"},{"bike_id":"965626b1-7dcf-4d7b-a1a3-5aa63155c0f9","system_id":"levelo_inurba_marseille","lat":43.29034,"lon":5.38651,"is_reserved":false,"is_disabled":false,"rental_uris":{"android":"levelo://app?vid=965626b1-7dcf-4d7b-a1a3-5aa63155c0f9","ios":"levelo://app?vid=965626b1-7dcf-4d7b-a1a3-5aa63155c0f9"},"vehicle_type_id":"4","last_reported":1700942916,"current_range_meters":16800,"station_id":"ce4bh4p2rcd13ifvqe0g","pricing_plan_id":"free"},{"bike_id":"70661fb3-c0a0-4e75-9cc1-95789cf8c65b","system_id":"levelo_inurba_marseille","lat":43.30246,"lon":5.40065,"is_reserved":false,"is_disabled":false,"rental_uris":{"android":"levelo://app?vid=70661fb3-c0a0-4e75-9cc1-95789cf8c65b","ios":"levelo://app?vid=70661fb3-c0a0-4e75-9cc1-95789cf8c65b"},"vehicle_type_id":"4","last_reported":1700942916,"current_range_meters":0,"station_id":"ce4bgvh2rcd13ifvqcs0","pricing_plan_id":"free"},{"bike_id":"784ddb13-4bda-43aa-8f37-c3450d3f29b6","system_id":"levelo_inurba_marseille","lat":43.3024,"lon":5.40072,"is_reserved":false,"is_disabled":false,"rental_uris":{"android":"levelo://app?vid=784ddb13-4bda-43aa-8f37-c3450d3f29b6","ios":"levelo://app?vid=784ddb13-4bda-43aa-8f37-c3450d3f29b6"},"vehicle_type_id":"4","last_reported":1700942916,"current_range_meters":10000,"station_id":"ce4bgvh2rcd13ifvqcs0","pricing_plan_id":"free"},{"bike_id":"0f56fa0f-1117-4140-8fde-612592dc4d4f","system_id":"levelo_inurba_marseille","lat":43.286039,"lon":5.370679,"is_reserved":false,"is_disabled":false,"rental_uris":{"android":"levelo://app?vid=0f56fa0f-1117-4140-8fde-612592dc4d4f","ios":"levelo://app?vid=0f56fa0f-1117-4140-8fde-612592dc4d4f"},"vehicle_type_id":"4","last_reported":1700942916,"current_range_meters":20400,"station_id":"ce4bht12rcd13ifvqi60","pricing_plan_id":"free"},{"bike_id":"e1cfd804-c192-4c35-ad5c-c8d01222a441","system_id":"levelo_inurba_marseille","lat":43.286039,"lon":5.370679,"is_reserved":false,"is_disabled":false,"rental_uris":{"android":"levelo://app?vid=e1cfd804-c192-4c35-ad5c-c8d01222a441","ios":"levelo://app?vid=e1cfd804-c192-4c35-ad5c-c8d01222a441"},"vehicle_type_id":"4","last_reported":1700942916,"current_range_meters":11600,"station_id":"ce4bht12rcd13ifvqi60","pricing_plan_id":"free"},{"bike_id":"7109feb0-a723-4820-9abd-aab9b6f84b1f","system_id":"levelo_inurba_marseille","lat":43.272116,"lon":5.391747,"is_reserved":false,"is_disabled":false,"rental_uris":{"android":"levelo://app?vid=7109feb0-a723-4820-9abd-aab9b6f84b1f","ios":"levelo://app?vid=7109feb0-a723-4820-9abd-aab9b6f84b1f"},"vehicle_type_id":"4","last_reported":1700942916,"current_range_meters":6400,"station_id":"ce4bhhp2rcd13ifvqfm0","pricing_plan_id":"free"},{"bike_id":"a0d8f301-c9c4-4c50-aed1-5b3e61bede60","system_id":"levelo_inurba_marseille","lat":43.287184,"lon":5.37937,"is_reserved":false,"is_disabled":false,"rental_uris":{"android":"levelo://app?vid=a0d8f301-c9c4-4c50-aed1-5b3e61bede60","ios":"levelo://app?vid=a0d8f301-c9c4-4c50-aed1-5b3e61bede60"},"vehicle_type_id":"4","last_reported":1700942916,"current_range_meters":30800,"station_id":"ce4bh9p2rcd13ifvqec0","pricing_plan_id":"free"},{"bike_id":"45cc876c-5552-45a1-bdc8-2c9728980478","system_id":"levelo_inurba_marseille","lat":43.287184,"lon":5.37937,"is_reserved":false,"is_disabled":false,"rental_uris":{"android":"levelo://app?vid=45cc876c-5552-45a1-bdc8-2c9728980478","ios":"levelo://app?vid=45cc876c-5552-45a1-bdc8-2c9728980478"},"vehicle_type_id":"4","last_reported":1700942916,"current_range_meters":24400,"station_id":"ce4bh9p2rcd13ifvqec0","pricing_plan_id":"free"},{"bike_id":"759665d9-a082-42ab-8b75-9d90bc62109d","system_id":"levelo_inurba_marseille","lat":43.31646,"lon":5.40431,"is_reserved":false,"is_disabled":false,"rental_uris":{"android":"levelo://app?vid=759665d9-a082-42ab-8b75-9d90bc62109d","ios":"levelo://app?vid=759665d9-a082-42ab-8b75-9d90bc62109d"},"vehicle_type_id":"4","last_reported":1700942916,"current_range_meters":400,"station_id":"ce4bh012rcd13ifvqd00","pricing_plan_id":"free"},{"bike_id":"276ef7ef-e2af-45b4-a18f-0f94677440a1","system_id":"levelo_inurba_marseille","lat":43.316517,"lon":5.404375,"is_reserved":false,"is_disabled":false,"rental_uris":{"android":"levelo://app?vid=276ef7ef-e2af-45b4-a18f-0f94677440a1","ios":"levelo://app?vid=276ef7ef-e2af-45b4-a18f-0f94677440a1"},"vehicle_type_id":"4","last_reported":1700942916,"current_range_meters":12400,"station_id":"ce4bh012rcd13ifvqd00","pricing_plan_id":"free"},{"bike_id":"45124fe7-1850-40cc-9c0e-63ec9e1a191f","system_id":"levelo_inurba_marseille","lat":43.296447,"lon":5.400223,"is_reserved":false,"is_disabled":false,"rental_uris":{"android":"levelo://app?vid=45124fe7-1850-40cc-9c0e-63ec9e1a191f","ios":"levelo://app?vid=45124fe7-1850-40cc-9c0e-63ec9e1a191f"},"vehicle_type_id":"4","last_reported":1700942916,"current_range_meters":10000,"station_id":"","pricing_plan_id":"free"},{"bike_id":"2913d144-6683-4e76-a17d-5d1ccac91527","system_id":"levelo_inurba_marseille","lat":43.319179,"lon":5.407725,"is_reserved":false,"is_disabled":false,"rental_uris":{"android":"levelo://app?vid=2913d144-6683-4e76-a17d-5d1ccac91527","ios":"levelo://app?vid=2913d144-6683-4e76-a17d-5d1ccac91527"},"vehicle_type_id":"4","last_reported":1700942916,"current_range_meters":15600,"station_id":"ce4bhq12rcd13ifvqhig","pricing_plan_id":"free"},{"bike_id":"a3c897cd-3fcc-4045-93e6-4c5a72149642","system_id":"levelo_inurba_marseille","lat":43.33717,"lon":5.391857,"is_reserved":false,"is_disabled":false,"rental_uris":{"android":"levelo://app?vid=a3c897cd-3fcc-4045-93e6-4c5a72149642","ios":"levelo://app?vid=a3c897cd-3fcc-4045-93e6-4c5a72149642"},"vehicle_type_id":"4","last_reported":1700942916,"current_range_meters":22000,"station_id":"ce4bhr92rcd13ifvqhsg","pricing_plan_id":"free"},{"bike_id":"18371d18-a5af-458b-9b9c-ad334a7a05f4","system_id":"levelo_inurba_marseille","lat":43.284787,"lon":5.384116,"is_reserved":false,"is_disabled":false,"rental_uris":{"android":"levelo://app?vid=18371d18-a5af-458b-9b9c-ad334a7a05f4","ios":"levelo://app?vid=18371d18-a5af-458b-9b9c-ad334a7a05f4"},"vehicle_type_id":"4","last_reported":1700942916,"current_range_meters":8400,"station_id":"ce4bh512rcd13ifvqe3g","pricing_plan_id":"free"},{"bike_id":"5967382b-2d49-4c32-8eca-b54a3c1e3895","system_id":"levelo_inurba_marseille","lat":43.288501,"lon":5.393087,"is_reserved":false,"is_disabled":false,"rental_uris":{"android":"levelo://app?vid=5967382b-2d49-4c32-8eca-b54a3c1e3895","ios":"levelo://app?vid=5967382b-2d49-4c32-8eca-b54a3c1e3895"},"vehicle_type_id":"4","last_reported":1700942916,"current_range_meters":29600,"station_id":"ce4bh2p2rcd13ifvqdi0","pricing_plan_id":"free"},{"bike_id":"0cb47d8f-4d1d-44da-aa31-4a050411cdd4","system_id":"levelo_inurba_marseille","lat":43.288501,"lon":5.393087,"is_reserved":false,"is_disabled":false,"rental_uris":{"android":"levelo://app?vid=0cb47d8f-4d1d-44da-aa31-4a050411cdd4","ios":"levelo://app?vid=0cb47d8f-4d1d-44da-aa31-4a050411cdd4"},"vehicle_type_id":"4","last_reported":1700942916,"current_range_meters":11600,"station_id":"ce4bh2p2rcd13ifvqdi0","pricing_plan_id":"free"},{"bike_id":"d1ed7f2c-183e-4ed7-a081-5c8eb2646fab","system_id":"levelo_inurba_marseille","lat":43.28336,"lon":5.38109,"is_reserved":false,"is_disabled":false,"rental_uris":{"android":"levelo://app?vid=d1ed7f2c-183e-4ed7-a081-5c8eb2646fab","ios":"levelo://app?vid=d1ed7f2c-183e-4ed7-a081-5c8eb2646fab"},"vehicle_type_id":"4","last_reported":1700942916,"current_range_meters":0,"station_id":"ce4bh412rcd13ifvqdr0","pricing_plan_id":"free"},{"bike_id":"e2284003-4e46-4e0a-93e7-73d05c3666d9","system_id":"levelo_inurba_marseille","lat":43.33508,"lon":5.397755,"is_reserved":false,"is_disabled":false,"rental_uris":{"android":"levelo://app?vid=e2284003-4e46-4e0a-93e7-73d05c3666d9","ios":"levelo://app?vid=e2284003-4e46-4e0a-93e7-73d05c3666d9"},"vehicle_type_id":"4","last_reported":1700942916,"current_range_meters":21600,"station_id":"","pricing_plan_id":"free"},{"bike_id":"9d3f5624-b3d7-43b2-9f84-615004750da7","system_id":"levelo_inurba_marseille","lat":43.281044,"lon":5.378308,"is_reserved":false,"is_disabled":false,"rental_uris":{"android":"levelo://app?vid=9d3f5624-b3d7-43b2-9f84-615004750da7","ios":"levelo://app?vid=9d3f5624-b3d7-43b2-9f84-615004750da7"},"vehicle_type_id":"4","last_reported":1700942916,"current_range_meters":400,"station_id":"ce4bha12rcd13ifvqee0","pricing_plan_id":"free"},{"bike_id":"d8c6f6e3-988d-4285-bd76-bfaacad7d090","system_id":"levelo_inurba_marseille","lat":43.284462,"lon":5.392121,"is_reserved":false,"is_disabled":false,"rental_uris":{"android":"levelo://app?vid=d8c6f6e3-988d-4285-bd76-bfaacad7d090","ios":"levelo://app?vid=d8c6f6e3-988d-4285-bd76-bfaacad7d090"},"vehicle_type_id":"4","last_reported":1700942916,"current_range_meters":13600,"station_id":"ce4bhoh2rcd13ifvqh5g","pricing_plan_id":"free"},{"bike_id":"f00f54ec-0f37-4af4-b644-8b38806dd99a","system_id":"levelo_inurba_marseille","lat":43.284462,"lon":5.392121,"is_reserved":false,"is_disabled":false,"rental_uris":{"android":"levelo://app?vid=f00f54ec-0f37-4af4-b644-8b38806dd99a","ios":"levelo://app?vid=f00f54ec-0f37-4af4-b644-8b38806dd99a"},"vehicle_type_id":"4","last_reported":1700942916,"current_range_meters":14400,"station_id":"ce4bhoh2rcd13ifvqh5g","pricing_plan_id":"free"},{"bike_id":"7129b2a3-49ad-4263-b43e-28064b79bd22","system_id":"levelo_inurba_marseille","lat":43.326605,"lon":5.409903,"is_reserved":false,"is_disabled":false,"rental_uris":{"android":"levelo://app?vid=7129b2a3-49ad-4263-b43e-28064b79bd22","ios":"levelo://app?vid=7129b2a3-49ad-4263-b43e-28064b79bd22"},"vehicle_type_id":"4","last_reported":1700942916,"current_range_meters":23600,"station_id":"ce4bhpp2rcd13ifvqhgg","pricing_plan_id":"free"},{"bike_id":"2d7787f2-fab1-4738-9397-38e4e54c98e8","system_id":"levelo_inurba_marseille","lat":43.304188,"lon":5.412904,"is_reserved":false,"is_disabled":false,"rental_uris":{"android":"levelo://app?vid=2d7787f2-fab1-4738-9397-38e4e54c98e8","ios":"levelo://app?vid=2d7787f2-fab1-4738-9397-38e4e54c98e8"},"vehicle_type_id":"4","last_reported":1700942916,"current_range_meters":8800,"station_id":"ce4bhop2rcd13ifvqh8g","pricing_plan_id":"free"},{"bike_id":"c8a91390-4fd9-467d-b7f6-1491bfab42b1","system_id":"levelo_inurba_marseille","lat":43.320045,"lon":5.415046,"is_reserved":false,"is_disabled":false,"rental_uris":{"android":"levelo://app?vid=c8a91390-4fd9-467d-b7f6-1491bfab42b1","ios":"levelo://app?vid=c8a91390-4fd9-467d-b7f6-1491bfab42b1"},"vehicle_type_id":"4","last_reported":1700942916,"current_range_meters":26400,"station_id":"ce4bhq92rcd13ifvqhkg","pricing_plan_id":"free"},{"bike_id":"8cfbf325-ae1a-44db-8854-7a27bb4c686c","system_id":"levelo_inurba_marseille","lat":43.320045,"lon":5.415046,"is_reserved":false,"is_disabled":false,"rental_uris":{"android":"levelo://app?vid=8cfbf325-ae1a-44db-8854-7a27bb4c686c","ios":"levelo://app?vid=8cfbf325-ae1a-44db-8854-7a27bb4c686c"},"vehicle_type_id":"4","last_reported":1700942916,"current_range_meters":16000,"station_id":"ce4bhq92rcd13ifvqhkg","pricing_plan_id":"free"},{"bike_id":"363f2ae4-2b32-454f-8f89-76483a2ead65","system_id":"levelo_inurba_marseille","lat":43.299579,"lon":5.413255,"is_reserved":false,"is_disabled":false,"rental_uris":{"android":"levelo://app?vid=363f2ae4-2b32-454f-8f89-76483a2ead65","ios":"levelo://app?vid=363f2ae4-2b32-454f-8f89-76483a2ead65"},"vehicle_type_id":"4","last_reported":1700942916,"current_range_meters":30000,"station_id":"ce4bhp12rcd13ifvqh9g","pricing_plan_id":"free"},{"bike_id":"a14cb419-8d46-4832-a6d3-bc50cd076a27","system_id":"levelo_inurba_marseille","lat":43.279742,"lon":5.38744,"is_reserved":false,"is_disabled":false,"rental_uris":{"android":"levelo://app?vid=a14cb419-8d46-4832-a6d3-bc50cd076a27","ios":"levelo://app?vid=a14cb419-8d46-4832-a6d3-bc50cd076a27"},"vehicle_type_id":"4","last_reported":1700942916,"current_range_meters":800,"station_id":"ce4bhg12rcd13ifvqf80","pricing_plan_id":"free"},{"bike_id":"a3c6def1-5296-4c7a-9eea-c8d4b330c208","system_id":"levelo_inurba_marseille","lat":43.276179,"lon":5.361009,"is_reserved":false,"is_disabled":false,"rental_uris":{"android":"levelo://app?vid=a3c6def1-5296-4c7a-9eea-c8d4b330c208","ios":"levelo://app?vid=a3c6def1-5296-4c7a-9eea-c8d4b330c208"},"vehicle_type_id":"4","last_reported":1700942916,"current_range_meters":30800,"station_id":"ce4bgj92rcd13ifvqbe0","pricing_plan_id":"free"},{"bike_id":"b6bd24e6-943a-4566-9f51-569035dc9592","system_id":"levelo_inurba_marseille","lat":43.325243,"lon":5.414326,"is_reserved":false,"is_disabled":false,"rental_uris":{"android":"levelo://app?vid=b6bd24e6-943a-4566-9f51-569035dc9592","ios":"levelo://app?vid=b6bd24e6-943a-4566-9f51-569035dc9592"},"vehicle_type_id":"4","last_reported":1700942916,"current_range_meters":4800,"station_id":"ce4bhq12rcd13ifvqhhg","pricing_plan_id":"free"},{"bike_id":"e9333e17-ea63-4942-a642-cb0a1ba22a55","system_id":"levelo_inurba_marseille","lat":43.325243,"lon":5.414326,"is_reserved":false,"is_disabled":false,"rental_uris":{"android":"levelo://app?vid=e9333e17-ea63-4942-a642-cb0a1ba22a55","ios":"levelo://app?vid=e9333e17-ea63-4942-a642-cb0a1ba22a55"},"vehicle_type_id":"4","last_reported":1700942916,"current_range_meters":27600,"station_id":"ce4bhq12rcd13ifvqhhg","pricing_plan_id":"free"},{"bike_id":"c25ea147-e804-4786-9d25-91f61a8ed59a","system_id":"levelo_inurba_marseille","lat":43.293651,"lon":5.41268,"is_reserved":false,"is_disabled":false,"rental_uris":{"android":"levelo://app?vid=c25ea147-e804-4786-9d25-91f61a8ed59a","ios":"levelo://app?vid=c25ea147-e804-4786-9d25-91f61a8ed59a"},"vehicle_type_id":"4","last_reported":1700942916,"current_range_meters":0,"station_id":"","pricing_plan_id":"free"},{"bike_id":"512ab521-3072-448d-9f7d-ecc9a173dd01","system_id":"levelo_inurba_marseille","lat":43.280784,"lon":5.396622,"is_reserved":false,"is_disabled":false,"rental_uris":{"android":"levelo://app?vid=512ab521-3072-448d-9f7d-ecc9a173dd01","ios":"levelo://app?vid=512ab521-3072-448d-9f7d-ecc9a173dd01"},"vehicle_type_id":"4","last_reported":1700942916,"current_range_meters":9600,"station_id":"ce4bho12rcd13ifvqh2g","pricing_plan_id":"free"},{"bike_id":"9ad360ac-da03-4985-abd3-acecd73c2a42","system_id":"levelo_inurba_marseille","lat":43.280784,"lon":5.396622,"is_reserved":false,"is_disabled":false,"rental_uris":{"android":"levelo://app?vid=9ad360ac-da03-4985-abd3-acecd73c2a42","ios":"levelo://app?vid=9ad360ac-da03-4985-abd3-acecd73c2a42"},"vehicle_type_id":"4","last_reported":1700942916,"current_range_meters":21200,"station_id":"ce4bho12rcd13ifvqh2g","pricing_plan_id":"free"},{"bike_id":"44a713c1-e816-4c42-a0d6-57ff4dd012b2","system_id":"levelo_inurba_marseille","lat":43.27381,"lon":5.36251,"is_reserved":false,"is_disabled":false,"rental_uris":{"android":"levelo://app?vid=44a713c1-e816-4c42-a0d6-57ff4dd012b2","ios":"levelo://app?vid=44a713c1-e816-4c42-a0d6-57ff4dd012b2"},"vehicle_type_id":"4","last_reported":1700942916,"current_range_meters":9200,"station_id":"ce4bhbh2rcd13ifvqeo0","pricing_plan_id":"free"},{"bike_id":"e271bf8e-3cd9-42f8-b4c8-46f683f65960","system_id":"levelo_inurba_marseille","lat":43.27572,"lon":5.3842,"is_reserved":false,"is_disabled":false,"rental_uris":{"android":"levelo://app?vid=e271bf8e-3cd9-42f8-b4c8-46f683f65960","ios":"levelo://app?vid=e271bf8e-3cd9-42f8-b4c8-46f683f65960"},"vehicle_type_id":"4","last_reported":1700942916,"current_range_meters":22400,"station_id":"ce4bhh92rcd13ifvqfi0","pricing_plan_id":"free"},{"bike_id":"0fbf5b58-7ce4-4115-b285-fee12726188f","system_id":"levelo_inurba_marseille","lat":43.33618,"lon":5.41038,"is_reserved":false,"is_disabled":false,"rental_uris":{"android":"levelo://app?vid=0fbf5b58-7ce4-4115-b285-fee12726188f","ios":"levelo://app?vid=0fbf5b58-7ce4-4115-b285-fee12726188f"},"vehicle_type_id":"4","last_reported":1700942916,"current_range_meters":12400,"station_id":"ce4bhqh2rcd13ifvqhmg","pricing_plan_id":"free"},{"bike_id":"94284315-d2e9-4352-95e0-000aace26a61","system_id":"levelo_inurba_marseille","lat":43.28,"lon":5.40012,"is_reserved":false,"is_disabled":false,"rental_uris":{"android":"levelo://app?vid=94284315-d2e9-4352-95e0-000aace26a61","ios":"levelo://app?vid=94284315-d2e9-4352-95e0-000aace26a61"},"vehicle_type_id":"4","last_reported":1700942916,"current_range_meters":0,"station_id":"ce4bho92rcd13ifvqh4g","pricing_plan_id":"free"},{"bike_id":"71ae087c-92f7-4570-823d-987d29c34543","system_id":"levelo_inurba_marseille","lat":43.310785,"lon":5.424305,"is_reserved":false,"is_disabled":false,"rental_uris":{"android":"levelo://app?vid=71ae087c-92f7-4570-823d-987d29c34543","ios":"levelo://app?vid=71ae087c-92f7-4570-823d-987d29c34543"},"vehicle_type_id":"4","last_reported":1700942916,"current_range_meters":24000,"station_id":"ce4bhp92rcd13ifvqhag","pricing_plan_id":"free"},{"bike_id":"8eb5bdb0-5c9b-4999-93c3-a1a499ccf536","system_id":"levelo_inurba_marseille","lat":43.310785,"lon":5.424305,"is_reserved":false,"is_disabled":false,"rental_uris":{"android":"levelo://app?vid=8eb5bdb0-5c9b-4999-93c3-a1a499ccf536","ios":"levelo://app?vid=8eb5bdb0-5c9b-4999-93c3-a1a499ccf536"},"vehicle_type_id":"4","last_reported":1700942916,"current_range_meters":8400,"station_id":"ce4bhp92rcd13ifvqhag","pricing_plan_id":"free"},{"bike_id":"2de05027-7797-4106-81c1-0fbaf060e0d4","system_id":"levelo_inurba_marseille","lat":43.31714,"lon":5.424,"is_reserved":false,"is_disabled":false,"rental_uris":{"android":"levelo://app?vid=2de05027-7797-4106-81c1-0fbaf060e0d4","ios":"levelo://app?vid=2de05027-7797-4106-81c1-0fbaf060e0d4"},"vehicle_type_id":"4","last_reported":1700942916,"current_range_meters":16000,"station_id":"ce4bhp92rcd13ifvqhbg","pricing_plan_id":"free"},{"bike_id":"60395232-e532-4f5a-ae3e-52a22da3b50f","system_id":"levelo_inurba_marseille","lat":43.3108,"lon":5.42432,"is_reserved":false,"is_disabled":false,"rental_uris":{"android":"levelo://app?vid=60395232-e532-4f5a-ae3e-52a22da3b50f","ios":"levelo://app?vid=60395232-e532-4f5a-ae3e-52a22da3b50f"},"vehicle_type_id":"4","last_reported":1700942916,"current_range_meters":6400,"station_id":"ce4bhp92rcd13ifvqhag","pricing_plan_id":"free"},{"bike_id":"58a74f2c-3205-4aed-bf2c-a4151057b68d","system_id":"levelo_inurba_marseille","lat":43.295523,"lon":5.422926,"is_reserved":false,"is_disabled":false,"rental_uris":{"android":"levelo://app?vid=58a74f2c-3205-4aed-bf2c-a4151057b68d","ios":"levelo://app?vid=58a74f2c-3205-4aed-bf2c-a4151057b68d"},"vehicle_type_id":"4","last_reported":1700942916,"current_range_meters":23600,"station_id":"ce4bhph2rcd13ifvqhdg","pricing_plan_id":"free"},{"bike_id":"0c5fe61a-15d7-4bdf-8560-e838ed8fc746","system_id":"levelo_inurba_marseille","lat":43.295511,"lon":5.422926,"is_reserved":false,"is_disabled":false,"rental_uris":{"android":"levelo://app?vid=0c5fe61a-15d7-4bdf-8560-e838ed8fc746","ios":"levelo://app?vid=0c5fe61a-15d7-4bdf-8560-e838ed8fc746"},"vehicle_type_id":"4","last_reported":1700942916,"current_range_meters":10000,"station_id":"ce4bhph2rcd13ifvqhdg","pricing_plan_id":"free"},{"bike_id":"c87b1c43-241d-498d-b1dd-2d9bbf6cdf07","system_id":"levelo_inurba_marseille","lat":43.295523,"lon":5.422926,"is_reserved":false,"is_disabled":false,"rental_uris":{"android":"levelo://app?vid=c87b1c43-241d-498d-b1dd-2d9bbf6cdf07","ios":"levelo://app?vid=c87b1c43-241d-498d-b1dd-2d9bbf6cdf07"},"vehicle_type_id":"4","last_reported":1700942916,"current_range_meters":6000,"station_id":"ce4bhph2rcd13ifvqhdg","pricing_plan_id":"free"},{"bike_id":"6ddacc3a-4021-4e4b-83c9-f6089f1e79db","system_id":"levelo_inurba_marseille","lat":43.295511,"lon":5.422926,"is_reserved":false,"is_disabled":false,"rental_uris":{"android":"levelo://app?vid=6ddacc3a-4021-4e4b-83c9-f6089f1e79db","ios":"levelo://app?vid=6ddacc3a-4021-4e4b-83c9-f6089f1e79db"},"vehicle_type_id":"4","last_reported":1700942916,"current_range_meters":7200,"station_id":"ce4bhph2rcd13ifvqhdg","pricing_plan_id":"free"},{"bike_id":"a47ef0e3-338f-4543-8e63-8e0132c5e349","system_id":"levelo_inurba_marseille","lat":43.278128,"lon":5.407195,"is_reserved":false,"is_disabled":false,"rental_uris":{"android":"levelo://app?vid=a47ef0e3-338f-4543-8e63-8e0132c5e349","ios":"levelo://app?vid=a47ef0e3-338f-4543-8e63-8e0132c5e349"},"vehicle_type_id":"4","last_reported":1700942916,"current_range_meters":24000,"station_id":"ce4bhnh2rcd13ifvqgtg","pricing_plan_id":"free"},{"bike_id":"c5dd23ee-fe1d-4e6f-89e4-747a171a17c6","system_id":"levelo_inurba_marseille","lat":43.2655,"lon":5.37284,"is_reserved":false,"is_disabled":false,"rental_uris":{"android":"levelo://app?vid=c5dd23ee-fe1d-4e6f-89e4-747a171a17c6","ios":"levelo://app?vid=c5dd23ee-fe1d-4e6f-89e4-747a171a17c6"},"vehicle_type_id":"4","last_reported":1700942916,"current_range_meters":27200,"station_id":"ce4bhg12rcd13ifvqf70","pricing_plan_id":"free"},{"bike_id":"f23d8119-b478-4639-98c5-6883279f9f84","system_id":"levelo_inurba_marseille","lat":43.32592,"lon":5.43067,"is_reserved":false,"is_disabled":false,"rental_uris":{"android":"levelo://app?vid=f23d8119-b478-4639-98c5-6883279f9f84","ios":"levelo://app?vid=f23d8119-b478-4639-98c5-6883279f9f84"},"vehicle_type_id":"4","last_reported":1700942916,"current_range_meters":25600,"station_id":"","pricing_plan_id":"free"},{"bike_id":"e7b368e8-9edf-4ac8-acef-7e9558d427aa","system_id":"levelo_inurba_marseille","lat":43.32591,"lon":5.430713,"is_reserved":false,"is_disabled":false,"rental_uris":{"android":"levelo://app?vid=e7b368e8-9edf-4ac8-acef-7e9558d427aa","ios":"levelo://app?vid=e7b368e8-9edf-4ac8-acef-7e9558d427aa"},"vehicle_type_id":"4","last_reported":1700942916,"current_range_meters":0,"station_id":"","pricing_plan_id":"free"},{"bike_id":"ed30d6a1-b23a-49e5-9c83-5546be72a734","system_id":"levelo_inurba_marseille","lat":43.3259,"lon":5.43075,"is_reserved":false,"is_disabled":false,"rental_uris":{"android":"levelo://app?vid=ed30d6a1-b23a-49e5-9c83-5546be72a734","ios":"levelo://app?vid=ed30d6a1-b23a-49e5-9c83-5546be72a734"},"vehicle_type_id":"4","last_reported":1700942916,"current_range_meters":20400,"station_id":"","pricing_plan_id":"free"},{"bike_id":"d67469ee-5362-4610-a163-fe05ae3cf4f7","system_id":"levelo_inurba_marseille","lat":43.32604,"lon":5.430817,"is_reserved":false,"is_disabled":false,"rental_uris":{"android":"levelo://app?vid=d67469ee-5362-4610-a163-fe05ae3cf4f7","ios":"levelo://app?vid=d67469ee-5362-4610-a163-fe05ae3cf4f7"},"vehicle_type_id":"4","last_reported":1700942916,"current_range_meters":8800,"station_id":"","pricing_plan_id":"free"},{"bike_id":"97e80021-871f-43cf-ad8e-99b17a254f61","system_id":"levelo_inurba_marseille","lat":43.27996,"lon":5.416624,"is_reserved":false,"is_disabled":false,"rental_uris":{"android":"levelo://app?vid=97e80021-871f-43cf-ad8e-99b17a254f61","ios":"levelo://app?vid=97e80021-871f-43cf-ad8e-99b17a254f61"},"vehicle_type_id":"4","last_reported":1700942916,"current_range_meters":0,"station_id":"ce4bho12rcd13ifvqh1g","pricing_plan_id":"free"},{"bike_id":"3b632002-fc39-42a0-a2a8-cb9d9f0de3b9","system_id":"levelo_inurba_marseille","lat":43.265714,"lon":5.372891,"is_reserved":false,"is_disabled":false,"rental_uris":{"android":"levelo://app?vid=3b632002-fc39-42a0-a2a8-cb9d9f0de3b9","ios":"levelo://app?vid=3b632002-fc39-42a0-a2a8-cb9d9f0de3b9"},"vehicle_type_id":"4","last_reported":1700942916,"current_range_meters":22400,"station_id":"ce4bhg12rcd13ifvqf70","pricing_plan_id":"free"},{"bike_id":"2b5f0b27-ae58-4e9e-bd76-c585f78e8a73","system_id":"levelo_inurba_marseille","lat":43.26386,"lon":5.37454,"is_reserved":false,"is_disabled":false,"rental_uris":{"android":"levelo://app?vid=2b5f0b27-ae58-4e9e-bd76-c585f78e8a73","ios":"levelo://app?vid=2b5f0b27-ae58-4e9e-bd76-c585f78e8a73"},"vehicle_type_id":"4","last_reported":1700942916,"current_range_meters":9600,"station_id":"","pricing_plan_id":"free"},{"bike_id":"a638db44-01b2-4430-874e-cd86a05678ba","system_id":"levelo_inurba_marseille","lat":43.26949,"lon":5.40262,"is_reserved":false,"is_disabled":false,"rental_uris":{"android":"levelo://app?vid=a638db44-01b2-4430-874e-cd86a05678ba","ios":"levelo://app?vid=a638db44-01b2-4430-874e-cd86a05678ba"},"vehicle_type_id":"4","last_reported":1700942916,"current_range_meters":24800,"station_id":"cjm6bp8fraef2m0cb0m0","pricing_plan_id":"free"},{"bike_id":"9db8f32c-9221-4773-ac4a-ae648888acd4","system_id":"levelo_inurba_marseille","lat":43.26941,"lon":5.40258,"is_reserved":false,"is_disabled":false,"rental_uris":{"android":"levelo://app?vid=9db8f32c-9221-4773-ac4a-ae648888acd4","ios":"levelo://app?vid=9db8f32c-9221-4773-ac4a-ae648888acd4"},"vehicle_type_id":"4","last_reported":1700942916,"current_range_meters":22000,"station_id":"cjm6bp8fraef2m0cb0m0","pricing_plan_id":"free"},{"bike_id":"45c462de-3fa3-46b4-91af-f76c28f18892","system_id":"levelo_inurba_marseille","lat":43.261782,"lon":5.374515,"is_reserved":false,"is_disabled":false,"rental_uris":{"android":"levelo://app?vid=45c462de-3fa3-46b4-91af-f76c28f18892","ios":"levelo://app?vid=45c462de-3fa3-46b4-91af-f76c28f18892"},"vehicle_type_id":"4","last_reported":1700942916,"current_range_meters":7200,"station_id":"ce4bhgp2rcd13ifvqfc0","pricing_plan_id":"free"},{"bike_id":"a557bc3e-6255-419b-8a70-ddf4b9c79f66","system_id":"levelo_inurba_marseille","lat":43.317104,"lon":5.436818,"is_reserved":false,"is_disabled":false,"rental_uris":{"android":"levelo://app?vid=a557bc3e-6255-419b-8a70-ddf4b9c79f66","ios":"levelo://app?vid=a557bc3e-6255-419b-8a70-ddf4b9c79f66"},"vehicle_type_id":"4","last_reported":1700942916,"current_range_meters":2400,"station_id":"ce4bhp92rcd13ifvqhcg","pricing_plan_id":"free"},{"bike_id":"7f6bc14c-609a-459f-ad90-3c8e55a66b7b","system_id":"levelo_inurba_marseille","lat":43.317104,"lon":5.436818,"is_reserved":false,"is_disabled":false,"rental_uris":{"android":"levelo://app?vid=7f6bc14c-609a-459f-ad90-3c8e55a66b7b","ios":"levelo://app?vid=7f6bc14c-609a-459f-ad90-3c8e55a66b7b"},"vehicle_type_id":"4","last_reported":1700942916,"current_range_meters":11600,"station_id":"ce4bhp92rcd13ifvqhcg","pricing_plan_id":"free"},{"bike_id":"ec593df7-85d2-4a7c-a892-75fec147bf75","system_id":"levelo_inurba_marseille","lat":43.317104,"lon":5.436818,"is_reserved":false,"is_disabled":false,"rental_uris":{"android":"levelo://app?vid=ec593df7-85d2-4a7c-a892-75fec147bf75","ios":"levelo://app?vid=ec593df7-85d2-4a7c-a892-75fec147bf75"},"vehicle_type_id":"4","last_reported":1700942916,"current_range_meters":800,"station_id":"ce4bhp92rcd13ifvqhcg","pricing_plan_id":"free"},{"bike_id":"345d3c3d-5215-44d7-a610-0848b0e8b817","system_id":"levelo_inurba_marseille","lat":43.317104,"lon":5.436818,"is_reserved":false,"is_disabled":false,"rental_uris":{"android":"levelo://app?vid=345d3c3d-5215-44d7-a610-0848b0e8b817","ios":"levelo://app?vid=345d3c3d-5215-44d7-a610-0848b0e8b817"},"vehicle_type_id":"4","last_reported":1700942916,"current_range_meters":4000,"station_id":"ce4bhp92rcd13ifvqhcg","pricing_plan_id":"free"},{"bike_id":"55861d20-03e8-4416-8d73-55fb2140610b","system_id":"levelo_inurba_marseille","lat":43.317104,"lon":5.436818,"is_reserved":false,"is_disabled":false,"rental_uris":{"android":"levelo://app?vid=55861d20-03e8-4416-8d73-55fb2140610b","ios":"levelo://app?vid=55861d20-03e8-4416-8d73-55fb2140610b"},"vehicle_type_id":"4","last_reported":1700942916,"current_range_meters":30000,"station_id":"ce4bhp92rcd13ifvqhcg","pricing_plan_id":"free"},{"bike_id":"6261a5a1-cbd5-444f-b22f-51b0ae9b3d50","system_id":"levelo_inurba_marseille","lat":43.26202,"lon":5.379299,"is_reserved":false,"is_disabled":false,"rental_uris":{"android":"levelo://app?vid=6261a5a1-cbd5-444f-b22f-51b0ae9b3d50","ios":"levelo://app?vid=6261a5a1-cbd5-444f-b22f-51b0ae9b3d50"},"vehicle_type_id":"4","last_reported":1700942916,"current_range_meters":3600,"station_id":"ce4bhjp2rcd13ifvqg90","pricing_plan_id":"free"},{"bike_id":"22f3147d-5b3f-4ae9-9e18-cceefc4cd910","system_id":"levelo_inurba_marseille","lat":43.271388,"lon":5.409269,"is_reserved":false,"is_disabled":false,"rental_uris":{"android":"levelo://app?vid=22f3147d-5b3f-4ae9-9e18-cceefc4cd910","ios":"levelo://app?vid=22f3147d-5b3f-4ae9-9e18-cceefc4cd910"},"vehicle_type_id":"4","last_reported":1700942916,"current_range_meters":17200,"station_id":"ce4bhl12rcd13ifvqgf0","pricing_plan_id":"free"},{"bike_id":"80547084-53ce-4ff4-862e-c082056176bc","system_id":"levelo_inurba_marseille","lat":43.271368,"lon":5.40928,"is_reserved":false,"is_disabled":false,"rental_uris":{"android":"levelo://app?vid=80547084-53ce-4ff4-862e-c082056176bc","ios":"levelo://app?vid=80547084-53ce-4ff4-862e-c082056176bc"},"vehicle_type_id":"4","last_reported":1700942916,"current_range_meters":28400,"station_id":"ce4bhl12rcd13ifvqgf0","pricing_plan_id":"free"},{"bike_id":"d33ff373-472b-4acc-9928-25c5b0a30ee3","system_id":"levelo_inurba_marseille","lat":43.271368,"lon":5.40928,"is_reserved":false,"is_disabled":false,"rental_uris":{"android":"levelo://app?vid=d33ff373-472b-4acc-9928-25c5b0a30ee3","ios":"levelo://app?vid=d33ff373-472b-4acc-9928-25c5b0a30ee3"},"vehicle_type_id":"4","last_reported":1700942916,"current_range_meters":29600,"station_id":"ce4bhl12rcd13ifvqgf0","pricing_plan_id":"free"},{"bike_id":"dbf62bfb-d43b-46dc-b301-0e9e00d707fe","system_id":"levelo_inurba_marseille","lat":43.261755,"lon":5.379004,"is_reserved":false,"is_disabled":false,"rental_uris":{"android":"levelo://app?vid=dbf62bfb-d43b-46dc-b301-0e9e00d707fe","ios":"levelo://app?vid=dbf62bfb-d43b-46dc-b301-0e9e00d707fe"},"vehicle_type_id":"4","last_reported":1700942916,"current_range_meters":27200,"station_id":"ce4bhjp2rcd13ifvqg90","pricing_plan_id":"free"},{"bike_id":"d24921c1-8c61-4b91-941a-2e11a6ed2b73","system_id":"levelo_inurba_marseille","lat":43.29896,"lon":5.43651,"is_reserved":false,"is_disabled":false,"rental_uris":{"android":"levelo://app?vid=d24921c1-8c61-4b91-941a-2e11a6ed2b73","ios":"levelo://app?vid=d24921c1-8c61-4b91-941a-2e11a6ed2b73"},"vehicle_type_id":"4","last_reported":1700942916,"current_range_meters":10000,"station_id":"ce4bhpp2rcd13ifvqhfg","pricing_plan_id":"free"},{"bike_id":"7c5a83ac-336c-4b91-a5ea-82b3c6d6127d","system_id":"levelo_inurba_marseille","lat":43.298768,"lon":5.43643,"is_reserved":false,"is_disabled":false,"rental_uris":{"android":"levelo://app?vid=7c5a83ac-336c-4b91-a5ea-82b3c6d6127d","ios":"levelo://app?vid=7c5a83ac-336c-4b91-a5ea-82b3c6d6127d"},"vehicle_type_id":"4","last_reported":1700942916,"current_range_meters":31600,"station_id":"ce4bhpp2rcd13ifvqhfg","pricing_plan_id":"free"},{"bike_id":"f4f2e1d5-dafa-412d-9b3a-3611814786ce","system_id":"levelo_inurba_marseille","lat":43.298768,"lon":5.43643,"is_reserved":false,"is_disabled":false,"rental_uris":{"android":"levelo://app?vid=f4f2e1d5-dafa-412d-9b3a-3611814786ce","ios":"levelo://app?vid=f4f2e1d5-dafa-412d-9b3a-3611814786ce"},"vehicle_type_id":"4","last_reported":1700942916,"current_range_meters":25600,"station_id":"ce4bhpp2rcd13ifvqhfg","pricing_plan_id":"free"},{"bike_id":"8af0d2ed-93d1-485d-9803-40c71e52d0d9","system_id":"levelo_inurba_marseille","lat":43.299012,"lon":5.436725,"is_reserved":false,"is_disabled":false,"rental_uris":{"android":"levelo://app?vid=8af0d2ed-93d1-485d-9803-40c71e52d0d9","ios":"levelo://app?vid=8af0d2ed-93d1-485d-9803-40c71e52d0d9"},"vehicle_type_id":"4","last_reported":1700942916,"current_range_meters":12400,"station_id":"ce4bhpp2rcd13ifvqhfg","pricing_plan_id":"free"},{"bike_id":"372a56a6-b97f-4070-a187-8525964b44f5","system_id":"levelo_inurba_marseille","lat":43.260225,"lon":5.375455,"is_reserved":false,"is_disabled":false,"rental_uris":{"android":"levelo://app?vid=372a56a6-b97f-4070-a187-8525964b44f5","ios":"levelo://app?vid=372a56a6-b97f-4070-a187-8525964b44f5"},"vehicle_type_id":"4","last_reported":1700942916,"current_range_meters":9200,"station_id":"ce4bhgh2rcd13ifvqfa0","pricing_plan_id":"free"},{"bike_id":"cc1db4d9-f555-4a27-b0a8-6fca1c0b1288","system_id":"levelo_inurba_marseille","lat":43.260225,"lon":5.375455,"is_reserved":false,"is_disabled":false,"rental_uris":{"android":"levelo://app?vid=cc1db4d9-f555-4a27-b0a8-6fca1c0b1288","ios":"levelo://app?vid=cc1db4d9-f555-4a27-b0a8-6fca1c0b1288"},"vehicle_type_id":"4","last_reported":1700942916,"current_range_meters":26000,"station_id":"ce4bhgh2rcd13ifvqfa0","pricing_plan_id":"free"},{"bike_id":"1c8d74f7-5570-450a-a3f0-692cd9a40004","system_id":"levelo_inurba_marseille","lat":43.281548,"lon":5.42643,"is_reserved":false,"is_disabled":false,"rental_uris":{"android":"levelo://app?vid=1c8d74f7-5570-450a-a3f0-692cd9a40004","ios":"levelo://app?vid=1c8d74f7-5570-450a-a3f0-692cd9a40004"},"vehicle_type_id":"4","last_reported":1700942916,"current_range_meters":16000,"station_id":"ce4bhnh2rcd13ifvqgug","pricing_plan_id":"free"},{"bike_id":"6c9de495-5a95-4849-9083-067e994909fa","system_id":"levelo_inurba_marseille","lat":43.2607,"lon":5.393983,"is_reserved":false,"is_disabled":false,"rental_uris":{"android":"levelo://app?vid=6c9de495-5a95-4849-9083-067e994909fa","ios":"levelo://app?vid=6c9de495-5a95-4849-9083-067e994909fa"},"vehicle_type_id":"4","last_reported":1700942916,"current_range_meters":18800,"station_id":"ce4bhh92rcd13ifvqfj0","pricing_plan_id":"free"},{"bike_id":"e2482bab-1eb4-4a6f-b7fd-75767a4a3271","system_id":"levelo_inurba_marseille","lat":43.275028,"lon":5.424534,"is_reserved":false,"is_disabled":false,"rental_uris":{"android":"levelo://app?vid=e2482bab-1eb4-4a6f-b7fd-75767a4a3271","ios":"levelo://app?vid=e2482bab-1eb4-4a6f-b7fd-75767a4a3271"},"vehicle_type_id":"4","last_reported":1700942916,"current_range_meters":26800,"station_id":"ce4bhn92rcd13ifvqgrg","pricing_plan_id":"free"},{"bike_id":"7079113c-b6b3-426a-8800-027419405141","system_id":"levelo_inurba_marseille","lat":43.260909,"lon":5.397591,"is_reserved":false,"is_disabled":false,"rental_uris":{"android":"levelo://app?vid=7079113c-b6b3-426a-8800-027419405141","ios":"levelo://app?vid=7079113c-b6b3-426a-8800-027419405141"},"vehicle_type_id":"4","last_reported":1700942916,"current_range_meters":13600,"station_id":"ce4bhi12rcd13ifvqfq0","pricing_plan_id":"free"},{"bike_id":"c85f7616-3a9e-47a4-ae16-28a03e51ab4f","system_id":"levelo_inurba_marseille","lat":43.28926,"lon":5.43877,"is_reserved":false,"is_disabled":false,"rental_uris":{"android":"levelo://app?vid=c85f7616-3a9e-47a4-ae16-28a03e51ab4f","ios":"levelo://app?vid=c85f7616-3a9e-47a4-ae16-28a03e51ab4f"},"vehicle_type_id":"4","last_reported":1700942916,"current_range_meters":6400,"station_id":"","pricing_plan_id":"free"},{"bike_id":"53ae05c5-1664-4ddb-ae58-547f63e25710","system_id":"levelo_inurba_marseille","lat":43.25829,"lon":5.39427,"is_reserved":false,"is_disabled":false,"rental_uris":{"android":"levelo://app?vid=53ae05c5-1664-4ddb-ae58-547f63e25710","ios":"levelo://app?vid=53ae05c5-1664-4ddb-ae58-547f63e25710"},"vehicle_type_id":"4","last_reported":1700942916,"current_range_meters":29600,"station_id":"ce4bhip2rcd13ifvqft0","pricing_plan_id":"free"},{"bike_id":"2ffdcd9f-3493-4985-b831-2d43c5ba0dd3","system_id":"levelo_inurba_marseille","lat":43.25583,"lon":5.38235,"is_reserved":false,"is_disabled":false,"rental_uris":{"android":"levelo://app?vid=2ffdcd9f-3493-4985-b831-2d43c5ba0dd3","ios":"levelo://app?vid=2ffdcd9f-3493-4985-b831-2d43c5ba0dd3"},"vehicle_type_id":"4","last_reported":1700942916,"current_range_meters":0,"station_id":"ce4bhih2rcd13ifvqfs0","pricing_plan_id":"free"},{"bike_id":"e06a8c78-4d48-491c-8072-84514714cbe8","system_id":"levelo_inurba_marseille","lat":43.270721,"lon":5.422764,"is_reserved":false,"is_disabled":false,"rental_uris":{"android":"levelo://app?vid=e06a8c78-4d48-491c-8072-84514714cbe8","ios":"levelo://app?vid=e06a8c78-4d48-491c-8072-84514714cbe8"},"vehicle_type_id":"4","last_reported":1700942916,"current_range_meters":31200,"station_id":"ce4bhk92rcd13ifvqgb0","pricing_plan_id":"free"},{"bike_id":"d26b91b0-7080-4c02-baa9-575cb32ac54a","system_id":"levelo_inurba_marseille","lat":43.258658,"lon":5.398935,"is_reserved":false,"is_disabled":false,"rental_uris":{"android":"levelo://app?vid=d26b91b0-7080-4c02-baa9-575cb32ac54a","ios":"levelo://app?vid=d26b91b0-7080-4c02-baa9-575cb32ac54a"},"vehicle_type_id":"4","last_reported":1700942916,"current_range_meters":9200,"station_id":"ce4bhl92rcd13ifvqghg","pricing_plan_id":"free"},{"bike_id":"bbc4394d-1d8c-4efb-bde0-2f2d1a375d20","system_id":"levelo_inurba_marseille","lat":43.257079,"lon":5.411051,"is_reserved":false,"is_disabled":false,"rental_uris":{"android":"levelo://app?vid=bbc4394d-1d8c-4efb-bde0-2f2d1a375d20","ios":"levelo://app?vid=bbc4394d-1d8c-4efb-bde0-2f2d1a375d20"},"vehicle_type_id":"4","last_reported":1700942916,"current_range_meters":8800,"station_id":"ce4bhkp2rcd13ifvqgd0","pricing_plan_id":"free"},{"bike_id":"8b6e2a1b-c4f1-43f8-ad2c-fdfaa77fc447","system_id":"levelo_inurba_marseille","lat":43.257079,"lon":5.411051,"is_reserved":false,"is_disabled":false,"rental_uris":{"android":"levelo://app?vid=8b6e2a1b-c4f1-43f8-ad2c-fdfaa77fc447","ios":"levelo://app?vid=8b6e2a1b-c4f1-43f8-ad2c-fdfaa77fc447"},"vehicle_type_id":"4","last_reported":1700942916,"current_range_meters":25200,"station_id":"ce4bhkp2rcd13ifvqgd0","pricing_plan_id":"free"},{"bike_id":"76f36148-5dd9-400b-baa8-9aa3b229b966","system_id":"levelo_inurba_marseille","lat":43.250009,"lon":5.389195,"is_reserved":false,"is_disabled":false,"rental_uris":{"android":"levelo://app?vid=76f36148-5dd9-400b-baa8-9aa3b229b966","ios":"levelo://app?vid=76f36148-5dd9-400b-baa8-9aa3b229b966"},"vehicle_type_id":"4","last_reported":1700942916,"current_range_meters":29600,"station_id":"ce4bhgp2rcd13ifvqfd0","pricing_plan_id":"free"},{"bike_id":"59a7ae99-c4d3-4ebc-8af4-dec938d80e4e","system_id":"levelo_inurba_marseille","lat":43.250009,"lon":5.389195,"is_reserved":false,"is_disabled":false,"rental_uris":{"android":"levelo://app?vid=59a7ae99-c4d3-4ebc-8af4-dec938d80e4e","ios":"levelo://app?vid=59a7ae99-c4d3-4ebc-8af4-dec938d80e4e"},"vehicle_type_id":"4","last_reported":1700942916,"current_range_meters":24000,"station_id":"ce4bhgp2rcd13ifvqfd0","pricing_plan_id":"free"},{"bike_id":"c1f5b93e-9ddc-4ee6-9d4c-a11cbe8f3706","system_id":"levelo_inurba_marseille","lat":43.250023,"lon":5.38919,"is_reserved":false,"is_disabled":false,"rental_uris":{"android":"levelo://app?vid=c1f5b93e-9ddc-4ee6-9d4c-a11cbe8f3706","ios":"levelo://app?vid=c1f5b93e-9ddc-4ee6-9d4c-a11cbe8f3706"},"vehicle_type_id":"4","last_reported":1700942916,"current_range_meters":30000,"station_id":"ce4bhgp2rcd13ifvqfd0","pricing_plan_id":"free"},{"bike_id":"02d75adc-1043-49bf-8a92-cc2e66fe63fc","system_id":"levelo_inurba_marseille","lat":43.24806,"lon":5.37459,"is_reserved":false,"is_disabled":false,"rental_uris":{"android":"levelo://app?vid=02d75adc-1043-49bf-8a92-cc2e66fe63fc","ios":"levelo://app?vid=02d75adc-1043-49bf-8a92-cc2e66fe63fc"},"vehicle_type_id":"4","last_reported":1700942916,"current_range_meters":12400,"station_id":"ce4bhgh2rcd13ifvqfb0","pricing_plan_id":"free"},{"bike_id":"4718b3d7-4847-4237-a22f-3d52e449c36d","system_id":"levelo_inurba_marseille","lat":43.250897,"lon":5.395161,"is_reserved":false,"is_disabled":false,"rental_uris":{"android":"levelo://app?vid=4718b3d7-4847-4237-a22f-3d52e449c36d","ios":"levelo://app?vid=4718b3d7-4847-4237-a22f-3d52e449c36d"},"vehicle_type_id":"4","last_reported":1700942916,"current_range_meters":26800,"station_id":"ce4bhm12rcd13ifvqgkg","pricing_plan_id":"free"},{"bike_id":"4e22f755-9fb8-454a-aed8-0ce31691dc80","system_id":"levelo_inurba_marseille","lat":43.2473,"lon":5.37395,"is_reserved":false,"is_disabled":false,"rental_uris":{"android":"levelo://app?vid=4e22f755-9fb8-454a-aed8-0ce31691dc80","ios":"levelo://app?vid=4e22f755-9fb8-454a-aed8-0ce31691dc80"},"vehicle_type_id":"4","last_reported":1700942916,"current_range_meters":18000,"station_id":"","pricing_plan_id":"free"},{"bike_id":"0317d6ae-40ea-485c-8ac1-17cc21825d16","system_id":"levelo_inurba_marseille","lat":43.24693,"lon":5.382096,"is_reserved":false,"is_disabled":false,"rental_uris":{"android":"levelo://app?vid=0317d6ae-40ea-485c-8ac1-17cc21825d16","ios":"levelo://app?vid=0317d6ae-40ea-485c-8ac1-17cc21825d16"},"vehicle_type_id":"4","last_reported":1700942916,"current_range_meters":28000,"station_id":"ce4bhih2rcd13ifvqfr0","pricing_plan_id":"free"},{"bike_id":"2645cd39-512e-4061-b025-45f27893a23b","system_id":"levelo_inurba_marseille","lat":43.24664,"lon":5.38155,"is_reserved":false,"is_disabled":false,"rental_uris":{"android":"levelo://app?vid=2645cd39-512e-4061-b025-45f27893a23b","ios":"levelo://app?vid=2645cd39-512e-4061-b025-45f27893a23b"},"vehicle_type_id":"4","last_reported":1700942916,"current_range_meters":30400,"station_id":"ce4bhih2rcd13ifvqfr0","pricing_plan_id":"free"},{"bike_id":"890f1931-e5ec-4066-b5a7-0222afec386c","system_id":"levelo_inurba_marseille","lat":43.25102,"lon":5.403214,"is_reserved":false,"is_disabled":false,"rental_uris":{"android":"levelo://app?vid=890f1931-e5ec-4066-b5a7-0222afec386c","ios":"levelo://app?vid=890f1931-e5ec-4066-b5a7-0222afec386c"},"vehicle_type_id":"4","last_reported":1700942916,"current_range_meters":26800,"station_id":"ce4bhlh2rcd13ifvqgig","pricing_plan_id":"free"},{"bike_id":"297670fc-15cf-49ca-b4ad-d4387e65c566","system_id":"levelo_inurba_marseille","lat":43.25102,"lon":5.403214,"is_reserved":false,"is_disabled":false,"rental_uris":{"android":"levelo://app?vid=297670fc-15cf-49ca-b4ad-d4387e65c566","ios":"levelo://app?vid=297670fc-15cf-49ca-b4ad-d4387e65c566"},"vehicle_type_id":"4","last_reported":1700942916,"current_range_meters":26400,"station_id":"ce4bhlh2rcd13ifvqgig","pricing_plan_id":"free"},{"bike_id":"4754d520-6d94-4ceb-b936-c49fc9af26ed","system_id":"levelo_inurba_marseille","lat":43.2511,"lon":5.40326,"is_reserved":false,"is_disabled":false,"rental_uris":{"android":"levelo://app?vid=4754d520-6d94-4ceb-b936-c49fc9af26ed","ios":"levelo://app?vid=4754d520-6d94-4ceb-b936-c49fc9af26ed"},"vehicle_type_id":"4","last_reported":1700942916,"current_range_meters":0,"station_id":"ce4bhlh2rcd13ifvqgig","pricing_plan_id":"free"},{"bike_id":"c1ced6aa-0310-4bab-8214-1f856ce02a86","system_id":"levelo_inurba_marseille","lat":43.246461,"lon":5.389014,"is_reserved":false,"is_disabled":false,"rental_uris":{"android":"levelo://app?vid=c1ced6aa-0310-4bab-8214-1f856ce02a86","ios":"levelo://app?vid=c1ced6aa-0310-4bab-8214-1f856ce02a86"},"vehicle_type_id":"4","last_reported":1700942916,"current_range_meters":12800,"station_id":"ce4bhg12rcd13ifvqf60","pricing_plan_id":"free"},{"bike_id":"1f088b2a-bd00-4ce5-b39c-c0f45ad5c1e2","system_id":"levelo_inurba_marseille","lat":43.246467,"lon":5.388984,"is_reserved":false,"is_disabled":false,"rental_uris":{"android":"levelo://app?vid=1f088b2a-bd00-4ce5-b39c-c0f45ad5c1e2","ios":"levelo://app?vid=1f088b2a-bd00-4ce5-b39c-c0f45ad5c1e2"},"vehicle_type_id":"4","last_reported":1700942916,"current_range_meters":24800,"station_id":"ce4bhg12rcd13ifvqf60","pricing_plan_id":"free"},{"bike_id":"16cbc471-e842-49b7-be91-1309994883e2","system_id":"levelo_inurba_marseille","lat":43.246434,"lon":5.388971,"is_reserved":false,"is_disabled":false,"rental_uris":{"android":"levelo://app?vid=16cbc471-e842-49b7-be91-1309994883e2","ios":"levelo://app?vid=16cbc471-e842-49b7-be91-1309994883e2"},"vehicle_type_id":"4","last_reported":1700942916,"current_range_meters":24400,"station_id":"ce4bhg12rcd13ifvqf60","pricing_plan_id":"free"},{"bike_id":"74e5bbfa-81ea-48bb-b89d-a74d432a3090","system_id":"levelo_inurba_marseille","lat":43.246467,"lon":5.388984,"is_reserved":false,"is_disabled":false,"rental_uris":{"android":"levelo://app?vid=74e5bbfa-81ea-48bb-b89d-a74d432a3090","ios":"levelo://app?vid=74e5bbfa-81ea-48bb-b89d-a74d432a3090"},"vehicle_type_id":"4","last_reported":1700942916,"current_range_meters":23600,"station_id":"ce4bhg12rcd13ifvqf60","pricing_plan_id":"free"},{"bike_id":"0265b60e-d829-4d27-8cee-8f8a0b69f409","system_id":"levelo_inurba_marseille","lat":43.24076,"lon":5.377543,"is_reserved":false,"is_disabled":false,"rental_uris":{"android":"levelo://app?vid=0265b60e-d829-4d27-8cee-8f8a0b69f409","ios":"levelo://app?vid=0265b60e-d829-4d27-8cee-8f8a0b69f409"},"vehicle_type_id":"4","last_reported":1700942916,"current_range_meters":0,"station_id":"ce4bhnp2rcd13ifvqgvg","pricing_plan_id":"free"},{"bike_id":"21c17b12-290e-4fbd-8bbb-0601bd7da58c","system_id":"levelo_inurba_marseille","lat":43.240729,"lon":5.377619,"is_reserved":false,"is_disabled":false,"rental_uris":{"android":"levelo://app?vid=21c17b12-290e-4fbd-8bbb-0601bd7da58c","ios":"levelo://app?vid=21c17b12-290e-4fbd-8bbb-0601bd7da58c"},"vehicle_type_id":"4","last_reported":1700942916,"current_range_meters":16400,"station_id":"","pricing_plan_id":"free"},{"bike_id":"1e128d17-e64b-4270-9579-8a427e522e51","system_id":"levelo_inurba_marseille","lat":43.240623,"lon":5.377642,"is_reserved":false,"is_disabled":false,"rental_uris":{"android":"levelo://app?vid=1e128d17-e64b-4270-9579-8a427e522e51","ios":"levelo://app?vid=1e128d17-e64b-4270-9579-8a427e522e51"},"vehicle_type_id":"4","last_reported":1700942916,"current_range_meters":16800,"station_id":"ce4bhnp2rcd13ifvqgvg","pricing_plan_id":"free"},{"bike_id":"b1065339-1ece-4fd7-a651-bb5f8f2e4643","system_id":"levelo_inurba_marseille","lat":43.240623,"lon":5.377642,"is_reserved":false,"is_disabled":false,"rental_uris":{"android":"levelo://app?vid=b1065339-1ece-4fd7-a651-bb5f8f2e4643","ios":"levelo://app?vid=b1065339-1ece-4fd7-a651-bb5f8f2e4643"},"vehicle_type_id":"4","last_reported":1700942916,"current_range_meters":17200,"station_id":"ce4bhnp2rcd13ifvqgvg","pricing_plan_id":"free"},{"bike_id":"5b85e17b-a2dd-45ea-b255-ec063e06e703","system_id":"levelo_inurba_marseille","lat":43.240623,"lon":5.377642,"is_reserved":false,"is_disabled":false,"rental_uris":{"android":"levelo://app?vid=5b85e17b-a2dd-45ea-b255-ec063e06e703","ios":"levelo://app?vid=5b85e17b-a2dd-45ea-b255-ec063e06e703"},"vehicle_type_id":"4","last_reported":1700942916,"current_range_meters":26800,"station_id":"ce4bhnp2rcd13ifvqgvg","pricing_plan_id":"free"},{"bike_id":"ff01dbe1-223f-43a9-b0c6-51a5a8d2ed05","system_id":"levelo_inurba_marseille","lat":43.239588,"lon":5.366238,"is_reserved":false,"is_disabled":false,"rental_uris":{"android":"levelo://app?vid=ff01dbe1-223f-43a9-b0c6-51a5a8d2ed05","ios":"levelo://app?vid=ff01dbe1-223f-43a9-b0c6-51a5a8d2ed05"},"vehicle_type_id":"4","last_reported":1700942916,"current_range_meters":31200,"station_id":"ce4bhi12rcd13ifvqfp0","pricing_plan_id":"free"},{"bike_id":"340ba89e-beb6-4edd-9f37-a6ad2b2c6a9c","system_id":"levelo_inurba_marseille","lat":43.239588,"lon":5.366238,"is_reserved":false,"is_disabled":false,"rental_uris":{"android":"levelo://app?vid=340ba89e-beb6-4edd-9f37-a6ad2b2c6a9c","ios":"levelo://app?vid=340ba89e-beb6-4edd-9f37-a6ad2b2c6a9c"},"vehicle_type_id":"4","last_reported":1700942916,"current_range_meters":13600,"station_id":"ce4bhi12rcd13ifvqfp0","pricing_plan_id":"free"},{"bike_id":"3c551cb7-0b99-44ed-8b4c-bab8e2e15823","system_id":"levelo_inurba_marseille","lat":43.239588,"lon":5.366238,"is_reserved":false,"is_disabled":false,"rental_uris":{"android":"levelo://app?vid=3c551cb7-0b99-44ed-8b4c-bab8e2e15823","ios":"levelo://app?vid=3c551cb7-0b99-44ed-8b4c-bab8e2e15823"},"vehicle_type_id":"4","last_reported":1700942916,"current_range_meters":25200,"station_id":"ce4bhi12rcd13ifvqfp0","pricing_plan_id":"free"},{"bike_id":"4d21e23f-209a-4ef3-a650-acc9e00f2a62","system_id":"levelo_inurba_marseille","lat":43.239588,"lon":5.366238,"is_reserved":false,"is_disabled":false,"rental_uris":{"android":"levelo://app?vid=4d21e23f-209a-4ef3-a650-acc9e00f2a62","ios":"levelo://app?vid=4d21e23f-209a-4ef3-a650-acc9e00f2a62"},"vehicle_type_id":"4","last_reported":1700942916,"current_range_meters":17600,"station_id":"ce4bhi12rcd13ifvqfp0","pricing_plan_id":"free"},{"bike_id":"c8b0fc92-e06b-450c-b7d7-d6ab9ca59443","system_id":"levelo_inurba_marseille","lat":43.239648,"lon":5.366332,"is_reserved":false,"is_disabled":false,"rental_uris":{"android":"levelo://app?vid=c8b0fc92-e06b-450c-b7d7-d6ab9ca59443","ios":"levelo://app?vid=c8b0fc92-e06b-450c-b7d7-d6ab9ca59443"},"vehicle_type_id":"4","last_reported":1700942916,"current_range_meters":31200,"station_id":"ce4bhi12rcd13ifvqfp0","pricing_plan_id":"free"},{"bike_id":"8ddc8e40-82e4-4cc6-90af-c119357648f0","system_id":"levelo_inurba_marseille","lat":43.239588,"lon":5.366238,"is_reserved":false,"is_disabled":false,"rental_uris":{"android":"levelo://app?vid=8ddc8e40-82e4-4cc6-90af-c119357648f0","ios":"levelo://app?vid=8ddc8e40-82e4-4cc6-90af-c119357648f0"},"vehicle_type_id":"4","last_reported":1700942916,"current_range_meters":24800,"station_id":"ce4bhi12rcd13ifvqfp0","pricing_plan_id":"free"},{"bike_id":"a0e1f1d6-3f92-4eff-927c-9ca415b7ca93","system_id":"levelo_inurba_marseille","lat":43.23963,"lon":5.36634,"is_reserved":false,"is_disabled":false,"rental_uris":{"android":"levelo://app?vid=a0e1f1d6-3f92-4eff-927c-9ca415b7ca93","ios":"levelo://app?vid=a0e1f1d6-3f92-4eff-927c-9ca415b7ca93"},"vehicle_type_id":"4","last_reported":1700942916,"current_range_meters":4800,"station_id":"ce4bhi12rcd13ifvqfp0","pricing_plan_id":"free"},{"bike_id":"a59a9f52-9d06-4b12-9392-cdd5f569c2ca","system_id":"levelo_inurba_marseille","lat":43.239627,"lon":5.366281,"is_reserved":false,"is_disabled":false,"rental_uris":{"android":"levelo://app?vid=a59a9f52-9d06-4b12-9392-cdd5f569c2ca","ios":"levelo://app?vid=a59a9f52-9d06-4b12-9392-cdd5f569c2ca"},"vehicle_type_id":"4","last_reported":1700942916,"current_range_meters":30000,"station_id":"ce4bhi12rcd13ifvqfp0","pricing_plan_id":"free"},{"bike_id":"47e43998-06a7-44f6-a336-05874a757f9d","system_id":"levelo_inurba_marseille","lat":43.239588,"lon":5.366238,"is_reserved":false,"is_disabled":false,"rental_uris":{"android":"levelo://app?vid=47e43998-06a7-44f6-a336-05874a757f9d","ios":"levelo://app?vid=47e43998-06a7-44f6-a336-05874a757f9d"},"vehicle_type_id":"4","last_reported":1700942916,"current_range_meters":15200,"station_id":"ce4bhi12rcd13ifvqfp0","pricing_plan_id":"free"},{"bike_id":"2928aec4-a092-4b20-8697-2fcf599c9821","system_id":"levelo_inurba_marseille","lat":43.239588,"lon":5.366238,"is_reserved":false,"is_disabled":false,"rental_uris":{"android":"levelo://app?vid=2928aec4-a092-4b20-8697-2fcf599c9821","ios":"levelo://app?vid=2928aec4-a092-4b20-8697-2fcf599c9821"},"vehicle_type_id":"4","last_reported":1700942916,"current_range_meters":24800,"station_id":"ce4bhi12rcd13ifvqfp0","pricing_plan_id":"free"},{"bike_id":"fc6ccc5a-bc4d-4544-a669-27960c9fde66","system_id":"levelo_inurba_marseille","lat":43.239588,"lon":5.366238,"is_reserved":false,"is_disabled":false,"rental_uris":{"android":"levelo://app?vid=fc6ccc5a-bc4d-4544-a669-27960c9fde66","ios":"levelo://app?vid=fc6ccc5a-bc4d-4544-a669-27960c9fde66"},"vehicle_type_id":"4","last_reported":1700942916,"current_range_meters":18400,"station_id":"ce4bhi12rcd13ifvqfp0","pricing_plan_id":"free"},{"bike_id":"b3ffab4a-cf52-4b4f-9f0f-fcb873d0f038","system_id":"levelo_inurba_marseille","lat":43.239583,"lon":5.366301,"is_reserved":false,"is_disabled":false,"rental_uris":{"android":"levelo://app?vid=b3ffab4a-cf52-4b4f-9f0f-fcb873d0f038","ios":"levelo://app?vid=b3ffab4a-cf52-4b4f-9f0f-fcb873d0f038"},"vehicle_type_id":"4","last_reported":1700942916,"current_range_meters":30000,"station_id":"ce4bhi12rcd13ifvqfp0","pricing_plan_id":"free"},{"bike_id":"fb7be5a0-e980-436b-ac60-879a3e279215","system_id":"levelo_inurba_marseille","lat":43.239568,"lon":5.366319,"is_reserved":false,"is_disabled":false,"rental_uris":{"android":"levelo://app?vid=fb7be5a0-e980-436b-ac60-879a3e279215","ios":"levelo://app?vid=fb7be5a0-e980-436b-ac60-879a3e279215"},"vehicle_type_id":"4","last_reported":1700942916,"current_range_meters":22800,"station_id":"ce4bhi12rcd13ifvqfp0","pricing_plan_id":"free"},{"bike_id":"47bf6cc0-d560-42b0-9ba8-16e81a4e15b8","system_id":"levelo_inurba_marseille","lat":43.241766,"lon":5.397284,"is_reserved":false,"is_disabled":false,"rental_uris":{"android":"levelo://app?vid=47bf6cc0-d560-42b0-9ba8-16e81a4e15b8","ios":"levelo://app?vid=47bf6cc0-d560-42b0-9ba8-16e81a4e15b8"},"vehicle_type_id":"4","last_reported":1700942916,"current_range_meters":10400,"station_id":"","pricing_plan_id":"free"},{"bike_id":"26cf5b06-ea1a-435b-a012-9d75c20552b0","system_id":"levelo_inurba_marseille","lat":43.24165,"lon":5.39696,"is_reserved":false,"is_disabled":false,"rental_uris":{"android":"levelo://app?vid=26cf5b06-ea1a-435b-a012-9d75c20552b0","ios":"levelo://app?vid=26cf5b06-ea1a-435b-a012-9d75c20552b0"},"vehicle_type_id":"4","last_reported":1700942916,"current_range_meters":4800,"station_id":"ce4bhn12rcd13ifvqgpg","pricing_plan_id":"free"},{"bike_id":"cd658075-924a-4bf8-ad25-c269ea7ae49d","system_id":"levelo_inurba_marseille","lat":43.24111,"lon":5.39715,"is_reserved":false,"is_disabled":false,"rental_uris":{"android":"levelo://app?vid=cd658075-924a-4bf8-ad25-c269ea7ae49d","ios":"levelo://app?vid=cd658075-924a-4bf8-ad25-c269ea7ae49d"},"vehicle_type_id":"4","last_reported":1700942916,"current_range_meters":0,"station_id":"","pricing_plan_id":"free"},{"bike_id":"5bff0059-dd00-4b40-a553-4cfd62c8ce61","system_id":"levelo_inurba_marseille","lat":43.231923,"lon":5.355545,"is_reserved":false,"is_disabled":false,"rental_uris":{"android":"levelo://app?vid=5bff0059-dd00-4b40-a553-4cfd62c8ce61","ios":"levelo://app?vid=5bff0059-dd00-4b40-a553-4cfd62c8ce61"},"vehicle_type_id":"4","last_reported":1700942916,"current_range_meters":28400,"station_id":"ce4bhu92rcd13ifvqi70","pricing_plan_id":"free"},{"bike_id":"dcc8f0d2-659c-44cb-9a1d-9d57ae623781","system_id":"levelo_inurba_marseille","lat":43.23194,"lon":5.35561,"is_reserved":false,"is_disabled":false,"rental_uris":{"android":"levelo://app?vid=dcc8f0d2-659c-44cb-9a1d-9d57ae623781","ios":"levelo://app?vid=dcc8f0d2-659c-44cb-9a1d-9d57ae623781"},"vehicle_type_id":"4","last_reported":1700942916,"current_range_meters":19600,"station_id":"ce4bhu92rcd13ifvqi70","pricing_plan_id":"free"},{"bike_id":"0a349838-8936-442e-8a55-c173dbb54834","system_id":"levelo_inurba_marseille","lat":43.23194,"lon":5.3556,"is_reserved":false,"is_disabled":false,"rental_uris":{"android":"levelo://app?vid=0a349838-8936-442e-8a55-c173dbb54834","ios":"levelo://app?vid=0a349838-8936-442e-8a55-c173dbb54834"},"vehicle_type_id":"4","last_reported":1700942916,"current_range_meters":24400,"station_id":"ce4bhu92rcd13ifvqi70","pricing_plan_id":"free"},{"bike_id":"48217564-eee6-47a9-ae01-f8f1659e40db","system_id":"levelo_inurba_marseille","lat":43.231923,"lon":5.355545,"is_reserved":false,"is_disabled":false,"rental_uris":{"android":"levelo://app?vid=48217564-eee6-47a9-ae01-f8f1659e40db","ios":"levelo://app?vid=48217564-eee6-47a9-ae01-f8f1659e40db"},"vehicle_type_id":"4","last_reported":1700942916,"current_range_meters":31600,"station_id":"ce4bhu92rcd13ifvqi70","pricing_plan_id":"free"},{"bike_id":"76da77ba-a8a2-45d9-bea0-75d9631bba15","system_id":"levelo_inurba_marseille","lat":43.231923,"lon":5.355545,"is_reserved":false,"is_disabled":false,"rental_uris":{"android":"levelo://app?vid=76da77ba-a8a2-45d9-bea0-75d9631bba15","ios":"levelo://app?vid=76da77ba-a8a2-45d9-bea0-75d9631bba15"},"vehicle_type_id":"4","last_reported":1700942916,"current_range_meters":30000,"station_id":"ce4bhu92rcd13ifvqi70","pricing_plan_id":"free"},{"bike_id":"2c965575-bc91-4e3f-b6d2-1df5b195e3bf","system_id":"levelo_inurba_marseille","lat":43.2319,"lon":5.35559,"is_reserved":false,"is_disabled":false,"rental_uris":{"android":"levelo://app?vid=2c965575-bc91-4e3f-b6d2-1df5b195e3bf","ios":"levelo://app?vid=2c965575-bc91-4e3f-b6d2-1df5b195e3bf"},"vehicle_type_id":"4","last_reported":1700942916,"current_range_meters":20000,"station_id":"ce4bhu92rcd13ifvqi70","pricing_plan_id":"free"},{"bike_id":"1e16dd2f-319e-42df-a632-08aaf736ca5f","system_id":"levelo_inurba_marseille","lat":43.231923,"lon":5.355545,"is_reserved":false,"is_disabled":false,"rental_uris":{"android":"levelo://app?vid=1e16dd2f-319e-42df-a632-08aaf736ca5f","ios":"levelo://app?vid=1e16dd2f-319e-42df-a632-08aaf736ca5f"},"vehicle_type_id":"4","last_reported":1700942916,"current_range_meters":25200,"station_id":"ce4bhu92rcd13ifvqi70","pricing_plan_id":"free"},{"bike_id":"23a1829f-9a6c-49bf-9a74-ced5b141be40","system_id":"levelo_inurba_marseille","lat":43.237879,"lon":5.432228,"is_reserved":false,"is_disabled":false,"rental_uris":{"android":"levelo://app?vid=23a1829f-9a6c-49bf-9a74-ced5b141be40","ios":"levelo://app?vid=23a1829f-9a6c-49bf-9a74-ced5b141be40"},"vehicle_type_id":"4","last_reported":1700942916,"current_range_meters":1600,"station_id":"","pricing_plan_id":"free"},{"bike_id":"9f5a8eea-995a-45d5-8a53-0f7fe9b11cc0","system_id":"levelo_inurba_marseille","lat":43.231562,"lon":5.436933,"is_reserved":false,"is_disabled":false,"rental_uris":{"android":"levelo://app?vid=9f5a8eea-995a-45d5-8a53-0f7fe9b11cc0","ios":"levelo://app?vid=9f5a8eea-995a-45d5-8a53-0f7fe9b11cc0"},"vehicle_type_id":"4","last_reported":1700942916,"current_range_meters":14400,"station_id":"ce4bhmp2rcd13ifvqgog","pricing_plan_id":"free"},{"bike_id":"0508bfaa-dc89-4d6c-bd00-5fdfebdcd3d7","system_id":"levelo_inurba_marseille","lat":43.231562,"lon":5.436933,"is_reserved":false,"is_disabled":false,"rental_uris":{"android":"levelo://app?vid=0508bfaa-dc89-4d6c-bd00-5fdfebdcd3d7","ios":"levelo://app?vid=0508bfaa-dc89-4d6c-bd00-5fdfebdcd3d7"},"vehicle_type_id":"4","last_reported":1700942916,"current_range_meters":29200,"station_id":"ce4bhmp2rcd13ifvqgog","pricing_plan_id":"free"},{"bike_id":"fa6e6170-c6e0-4eea-ae59-68e940aa4abf","system_id":"levelo_inurba_marseille","lat":43.231562,"lon":5.436933,"is_reserved":false,"is_disabled":false,"rental_uris":{"android":"levelo://app?vid=fa6e6170-c6e0-4eea-ae59-68e940aa4abf","ios":"levelo://app?vid=fa6e6170-c6e0-4eea-ae59-68e940aa4abf"},"vehicle_type_id":"4","last_reported":1700942916,"current_range_meters":27600,"station_id":"ce4bhmp2rcd13ifvqgog","pricing_plan_id":"free"},{"bike_id":"cc2a9f89-2b4a-422c-9aac-e0b99b845eba","system_id":"levelo_inurba_marseille","lat":43.231562,"lon":5.436933,"is_reserved":false,"is_disabled":false,"rental_uris":{"android":"levelo://app?vid=cc2a9f89-2b4a-422c-9aac-e0b99b845eba","ios":"levelo://app?vid=cc2a9f89-2b4a-422c-9aac-e0b99b845eba"},"vehicle_type_id":"4","last_reported":1700942916,"current_range_meters":31200,"station_id":"ce4bhmp2rcd13ifvqgog","pricing_plan_id":"free"},{"bike_id":"5755b2d7-d39e-4498-81c8-c4857334ca10","system_id":"levelo_inurba_marseille","lat":43.231562,"lon":5.436933,"is_reserved":false,"is_disabled":false,"rental_uris":{"android":"levelo://app?vid=5755b2d7-d39e-4498-81c8-c4857334ca10","ios":"levelo://app?vid=5755b2d7-d39e-4498-81c8-c4857334ca10"},"vehicle_type_id":"4","last_reported":1700942916,"current_range_meters":4000,"station_id":"ce4bhmp2rcd13ifvqgog","pricing_plan_id":"free"}]}}