{"last_updated":1702807638,"ttl":30,"version":"2.2","data":{"bikes":[{"bike_id":"3f8b821f-e430-4a35-bf14-f8b6e777ea11","system_id":"levelo_inurba_marseille","lat":43.313939,"lon":5.375306,"is_reserved":false,"is_disabled":false,"rental_uris":{"android":"levelo://app?vid=3f8b821f-e430-4a35-bf14-f8b6e777ea11","ios":"levelo://app?vid=3f8b821f-e430-4a35-bf14-f8b6e777ea11"},"vehicle_type_id":"4","last_reported":1702807638,"current_range_meters":0,"station_id":"","pricing_plan_id":"free"},{"bike_id":"140a9b87-61e9-47c7-a9c8-8518fcaef02a","system_id":"levelo_inurba_marseille","lat":43.305712,"lon":5.365641,"is_reserved":false,"is_disabled":false,"rental_uris":{"android":"levelo://app?vid=140a9b87-61e9-47c7-a9c8-8518fcaef02a","ios":"levelo://app?vid=140a9b87-61e9-47c7-a9c8-8518fcaef02a"},"vehicle_type_id":"4","last_reported":1702807638,"current_range_meters":22800,"station_id":"ce4bgs12rcd13ifvqcag","pricing_plan_id":"free"},{"bike_id":"5113165c-de22-42ee-a775-4f7d8ab69b8c","system_id":"levelo_inurba_marseille","lat":43.305714,"lon":5.365633,"is_reserved":false,"is_disabled":false,"rental_uris":{"android":"levelo://app?vid=5113165c-de22-42ee-a775-4f7d8ab69b8c","ios":"levelo://app?vid=5113165c-de22-42ee-a775-4f7d8ab69b8c"},"vehicle_type_id":"4","last_reported":1702807638,"current_range_meters":26800,"station_id":"ce4bgs12rcd13ifvqcag","pricing_plan_id":"free"},{"bike_id":"955e4ab2-16e5-44e8-a986-a2f50ff96c06","system_id":"levelo_inurba_marseille","lat":43.305382,"lon":5.365389,"is_reserved":false,"is_disabled":false,"rental_uris":{"android":"levelo://app?vid=955e4ab2-16e5-44e8-a986-a2f50ff96c06","ios":"levelo://app?vid=955e4ab2-16e5-44e8-a986-a2f50ff96c06"},"vehicle_type_id":"4","last_reported":1702807638,"current_range_meters":12000,"station_id":"","pricing_plan_id":"free"},{"bike_id":"ae7a4ceb-1b75-4878-ad71-b67d7e8daa6d","system_id":"levelo_inurba_marseille","lat":43.305714,"lon":5.365633,"is_reserved":false,"is_disabled":false,"rental_uris":{"android":"levelo://app?vid=ae7a4ceb-1b75-4878-ad71-b67d7e8daa6d","ios":"levelo://app?vid=ae7a4ceb-1b75-4878-ad71-b67d7e8daa6d"},"vehicle_type_id":"4","last_reported":1702807638,"current_range_meters":29200,"station_id":"ce4bgs12rcd13ifvqcag","pricing_plan_id":"free"},{"bike_id":"ffb8790a-d413-4f06-a96d-1e2f6ffe7daa","system_id":"levelo_inurba_marseille","lat":43.30529,"lon":5.3671,"is_reserved":false,"is_disabled":false,"rental_uris":{"android":"levelo://app?vid=ffb8790a-d413-4f06-a96d-1e2f6ffe7daa","ios":"levelo://app?vid=ffb8790a-d413-4f06-a96d-1e2f6ffe7daa"},"vehicle_type_id":"4","last_reported":1702807638,"current_range_meters":28800,"station_id":"ce4bgrp2rcd13ifvqc9g","pricing_plan_id":"free"},{"bike_id":"ef5db245-de16-431e-b70f-9f2d51721870","system_id":"levelo_inurba_marseille","lat":43.305706,"lon":5.365654,"is_reserved":false,"is_disabled":false,"rental_uris":{"android":"levelo://app?vid=ef5db245-de16-431e-b70f-9f2d51721870","ios":"levelo://app?vid=ef5db245-de16-431e-b70f-9f2d51721870"},"vehicle_type_id":"4","last_reported":1702807638,"current_range_meters":17600,"station_id":"ce4bgs12rcd13ifvqcag","pricing_plan_id":"free"},{"bike_id":"b1d0e34c-fc9b-461f-aa3e-17e5f8ca89aa","system_id":"levelo_inurba_marseille","lat":43.305989,"lon":5.37225,"is_reserved":false,"is_disabled":false,"rental_uris":{"android":"levelo://app?vid=b1d0e34c-fc9b-461f-aa3e-17e5f8ca89aa","ios":"levelo://app?vid=b1d0e34c-fc9b-461f-aa3e-17e5f8ca89aa"},"vehicle_type_id":"4","last_reported":1702807638,"current_range_meters":31200,"station_id":"ce4bgqh2rcd13ifvqc4g","pricing_plan_id":"free"},{"bike_id":"34885e74-75cf-4f33-a428-c0df68a031f4","system_id":"levelo_inurba_marseille","lat":43.305989,"lon":5.37225,"is_reserved":false,"is_disabled":false,"rental_uris":{"android":"levelo://app?vid=34885e74-75cf-4f33-a428-c0df68a031f4","ios":"levelo://app?vid=34885e74-75cf-4f33-a428-c0df68a031f4"},"vehicle_type_id":"4","last_reported":1702807638,"current_range_meters":26400,"station_id":"ce4bgqh2rcd13ifvqc4g","pricing_plan_id":"free"},{"bike_id":"9e46d245-e675-4e01-a8d5-9045d3007059","system_id":"levelo_inurba_marseille","lat":43.314811,"lon":5.373104,"is_reserved":false,"is_disabled":false,"rental_uris":{"android":"levelo://app?vid=9e46d245-e675-4e01-a8d5-9045d3007059","ios":"levelo://app?vid=9e46d245-e675-4e01-a8d5-9045d3007059"},"vehicle_type_id":"4","last_reported":1702807638,"current_range_meters":26400,"station_id":"ce4bgt12rcd13ifvqcd0","pricing_plan_id":"free"},{"bike_id":"4f96b997-b58b-476a-9af3-ef3ebf042c82","system_id":"levelo_inurba_marseille","lat":43.30809,"lon":5.38152,"is_reserved":false,"is_disabled":false,"rental_uris":{"android":"levelo://app?vid=4f96b997-b58b-476a-9af3-ef3ebf042c82","ios":"levelo://app?vid=4f96b997-b58b-476a-9af3-ef3ebf042c82"},"vehicle_type_id":"4","last_reported":1702807638,"current_range_meters":28400,"station_id":"ce4bgt12rcd13ifvqce0","pricing_plan_id":"free"},{"bike_id":"c032f20b-1a42-4d6d-88fe-d36d84187ff3","system_id":"levelo_inurba_marseille","lat":43.308012,"lon":5.381511,"is_reserved":false,"is_disabled":false,"rental_uris":{"android":"levelo://app?vid=c032f20b-1a42-4d6d-88fe-d36d84187ff3","ios":"levelo://app?vid=c032f20b-1a42-4d6d-88fe-d36d84187ff3"},"vehicle_type_id":"4","last_reported":1702807638,"current_range_meters":23200,"station_id":"ce4bgt12rcd13ifvqce0","pricing_plan_id":"free"},{"bike_id":"9061c2c8-72f0-4ff0-895c-5171b6f6bd9a","system_id":"levelo_inurba_marseille","lat":43.308012,"lon":5.381511,"is_reserved":false,"is_disabled":false,"rental_uris":{"android":"levelo://app?vid=9061c2c8-72f0-4ff0-895c-5171b6f6bd9a","ios":"levelo://app?vid=9061c2c8-72f0-4ff0-895c-5171b6f6bd9a"},"vehicle_type_id":"4","last_reported":1702807638,"current_range_meters":26000,"station_id":"ce4bgt12rcd13ifvqce0","pricing_plan_id":"free"},{"bike_id":"2c1455a5-040e-4e6f-9c58-8499341a4105","system_id":"levelo_inurba_marseille","lat":43.304606,"lon":5.379026,"is_reserved":false,"is_disabled":false,"rental_uris":{"android":"levelo://app?vid=2c1455a5-040e-4e6f-9c58-8499341a4105","ios":"levelo://app?vid=2c1455a5-040e-4e6f-9c58-8499341a4105"},"vehicle_type_id":"4","last_reported":1702807638,"current_range_meters":28000,"station_id":"ce4bgup2rcd13ifvqcn0","pricing_plan_id":"free"},{"bike_id":"04285bb9-26a8-49bc-8e87-f0df2515bb14","system_id":"levelo_inurba_marseille","lat":43.304606,"lon":5.379026,"is_reserved":false,"is_disabled":false,"rental_uris":{"android":"levelo://app?vid=04285bb9-26a8-49bc-8e87-f0df2515bb14","ios":"levelo://app?vid=04285bb9-26a8-49bc-8e87-f0df2515bb14"},"vehicle_type_id":"4","last_reported":1702807638,"current_range_meters":29200,"station_id":"ce4bgup2rcd13ifvqcn0","pricing_plan_id":"free"},{"bike_id":"d93a5622-3885-4c88-b4de-f33b1bee13f9","system_id":"levelo_inurba_marseille","lat":43.304606,"lon":5.379026,"is_reserved":false,"is_disabled":false,"rental_uris":{"android":"levelo://app?vid=d93a5622-3885-4c88-b4de-f33b1bee13f9","ios":"levelo://app?vid=d93a5622-3885-4c88-b4de-f33b1bee13f9"},"vehicle_type_id":"4","last_reported":1702807638,"current_range_meters":29200,"station_id":"ce4bgup2rcd13ifvqcn0","pricing_plan_id":"free"},{"bike_id":"10e68dc9-796c-41eb-bfe9-a446884fb483","system_id":"levelo_inurba_marseille","lat":43.304606,"lon":5.379026,"is_reserved":false,"is_disabled":false,"rental_uris":{"android":"levelo://app?vid=10e68dc9-796c-41eb-bfe9-a446884fb483","ios":"levelo://app?vid=10e68dc9-796c-41eb-bfe9-a446884fb483"},"vehicle_type_id":"4","last_reported":1702807638,"current_range_meters":31200,"station_id":"ce4bgup2rcd13ifvqcn0","pricing_plan_id":"free"},{"bike_id":"0eec76c4-8659-4a4b-a6d0-d7bc09984c9c","system_id":"levelo_inurba_marseille","lat":43.304606,"lon":5.379026,"is_reserved":false,"is_disabled":false,"rental_uris":{"android":"levelo://app?vid=0eec76c4-8659-4a4b-a6d0-d7bc09984c9c","ios":"levelo://app?vid=0eec76c4-8659-4a4b-a6d0-d7bc09984c9c"},"vehicle_type_id":"4","last_reported":1702807638,"current_range_meters":30800,"station_id":"ce4bgup2rcd13ifvqcn0","pricing_plan_id":"free"},{"bike_id":"f7a38474-5b1f-43e6-8fab-4d92cca23854","system_id":"levelo_inurba_marseille","lat":43.304606,"lon":5.379026,"is_reserved":false,"is_disabled":false,"rental_uris":{"android":"levelo://app?vid=f7a38474-5b1f-43e6-8fab-4d92cca23854","ios":"levelo://app?vid=f7a38474-5b1f-43e6-8fab-4d92cca23854"},"vehicle_type_id":"4","last_reported":1702807638,"current_range_meters":22800,"station_id":"ce4bgup2rcd13ifvqcn0","pricing_plan_id":"free"},{"bike_id":"715a4743-f02e-4ceb-a433-461962e15aa7","system_id":"levelo_inurba_marseille","lat":43.304606,"lon":5.379026,"is_reserved":false,"is_disabled":false,"rental_uris":{"android":"levelo://app?vid=715a4743-f02e-4ceb-a433-461962e15aa7","ios":"levelo://app?vid=715a4743-f02e-4ceb-a433-461962e15aa7"},"vehicle_type_id":"4","last_reported":1702807638,"current_range_meters":22800,"station_id":"ce4bgup2rcd13ifvqcn0","pricing_plan_id":"free"},{"bike_id":"e5fc7f28-ee49-431f-8673-24c668ccc31d","system_id":"levelo_inurba_marseille","lat":43.304606,"lon":5.379026,"is_reserved":false,"is_disabled":false,"rental_uris":{"android":"levelo://app?vid=e5fc7f28-ee49-431f-8673-24c668ccc31d","ios":"levelo://app?vid=e5fc7f28-ee49-431f-8673-24c668ccc31d"},"vehicle_type_id":"4","last_reported":1702807638,"current_range_meters":27600,"station_id":"ce4bgup2rcd13ifvqcn0","pricing_plan_id":"free"},{"bike_id":"1b844105-3fca-4852-b11c-7a399bfebc04","system_id":"levelo_inurba_marseille","lat":43.304606,"lon":5.379026,"is_reserved":false,"is_disabled":false,"rental_uris":{"android":"levelo://app?vid=1b844105-3fca-4852-b11c-7a399bfebc04","ios":"levelo://app?vid=1b844105-3fca-4852-b11c-7a399bfebc04"},"vehicle_type_id":"4","last_reported":1702807638,"current_range_meters":24400,"station_id":"ce4bgup2rcd13ifvqcn0","pricing_plan_id":"free"},{"bike_id":"5ca9f29a-17d8-49d6-86a6-d00d5193fa14","system_id":"levelo_inurba_marseille","lat":43.304606,"lon":5.379026,"is_reserved":false,"is_disabled":false,"rental_uris":{"android":"levelo://app?vid=5ca9f29a-17d8-49d6-86a6-d00d5193fa14","ios":"levelo://app?vid=5ca9f29a-17d8-49d6-86a6-d00d5193fa14"},"vehicle_type_id":"4","last_reported":1702807638,"current_range_meters":24400,"station_id":"ce4bgup2rcd13ifvqcn0","pricing_plan_id":"free"},{"bike_id":"45a34301-2a73-4080-b6e6-d24569fa1f44","system_id":"levelo_inurba_marseille","lat":43.304606,"lon":5.379026,"is_reserved":false,"is_disabled":false,"rental_uris":{"android":"levelo://app?vid=45a34301-2a73-4080-b6e6-d24569fa1f44","ios":"levelo://app?vid=45a34301-2a73-4080-b6e6-d24569fa1f44"},"vehicle_type_id":"4","last_reported":1702807638,"current_range_meters":30400,"station_id":"ce4bgup2rcd13ifvqcn0","pricing_plan_id":"free"},{"bike_id":"88f7ea2a-62f7-4a88-9e9d-900940b4d7e5","system_id":"levelo_inurba_marseille","lat":43.324771,"lon":5.36557,"is_reserved":false,"is_disabled":false,"rental_uris":{"android":"levelo://app?vid=88f7ea2a-62f7-4a88-9e9d-900940b4d7e5","ios":"levelo://app?vid=88f7ea2a-62f7-4a88-9e9d-900940b4d7e5"},"vehicle_type_id":"4","last_reported":1702807638,"current_range_meters":29600,"station_id":"ce4bhs12rcd13ifvqhvg","pricing_plan_id":"free"},{"bike_id":"64afd97f-b5b6-4e23-9ea0-99faea134570","system_id":"levelo_inurba_marseille","lat":43.30143,"lon":5.37413,"is_reserved":false,"is_disabled":false,"rental_uris":{"android":"levelo://app?vid=64afd97f-b5b6-4e23-9ea0-99faea134570","ios":"levelo://app?vid=64afd97f-b5b6-4e23-9ea0-99faea134570"},"vehicle_type_id":"4","last_reported":1702807638,"current_range_meters":6800,"station_id":"ce4bgs92rcd13ifvqcc0","pricing_plan_id":"free"},{"bike_id":"dd62cb3a-3f08-44cf-8561-0c89ff17ac35","system_id":"levelo_inurba_marseille","lat":43.313604,"lon":5.384714,"is_reserved":false,"is_disabled":false,"rental_uris":{"android":"levelo://app?vid=dd62cb3a-3f08-44cf-8561-0c89ff17ac35","ios":"levelo://app?vid=dd62cb3a-3f08-44cf-8561-0c89ff17ac35"},"vehicle_type_id":"4","last_reported":1702807638,"current_range_meters":17200,"station_id":"ce4bgt92rcd13ifvqcf0","pricing_plan_id":"free"},{"bike_id":"01242d90-1298-4007-b9f8-f81ae8a86696","system_id":"levelo_inurba_marseille","lat":43.313571,"lon":5.384829,"is_reserved":false,"is_disabled":false,"rental_uris":{"android":"levelo://app?vid=01242d90-1298-4007-b9f8-f81ae8a86696","ios":"levelo://app?vid=01242d90-1298-4007-b9f8-f81ae8a86696"},"vehicle_type_id":"4","last_reported":1702807638,"current_range_meters":26000,"station_id":"ce4bgt92rcd13ifvqcf0","pricing_plan_id":"free"},{"bike_id":"c4e77394-aef9-4077-b745-e99148625344","system_id":"levelo_inurba_marseille","lat":43.32733,"lon":5.36707,"is_reserved":false,"is_disabled":false,"rental_uris":{"android":"levelo://app?vid=c4e77394-aef9-4077-b745-e99148625344","ios":"levelo://app?vid=c4e77394-aef9-4077-b745-e99148625344"},"vehicle_type_id":"4","last_reported":1702807638,"current_range_meters":19200,"station_id":"","pricing_plan_id":"free"},{"bike_id":"819cb438-2e9c-4e0b-902b-5e19ef554d5c","system_id":"levelo_inurba_marseille","lat":43.305514,"lon":5.384359,"is_reserved":false,"is_disabled":false,"rental_uris":{"android":"levelo://app?vid=819cb438-2e9c-4e0b-902b-5e19ef554d5c","ios":"levelo://app?vid=819cb438-2e9c-4e0b-902b-5e19ef554d5c"},"vehicle_type_id":"4","last_reported":1702807638,"current_range_meters":12000,"station_id":"ce4bgg92rcd13ifvqb30","pricing_plan_id":"free"},{"bike_id":"30125579-a96f-48fc-a3db-2ac153fc15c8","system_id":"levelo_inurba_marseille","lat":43.305364,"lon":5.384119,"is_reserved":false,"is_disabled":false,"rental_uris":{"android":"levelo://app?vid=30125579-a96f-48fc-a3db-2ac153fc15c8","ios":"levelo://app?vid=30125579-a96f-48fc-a3db-2ac153fc15c8"},"vehicle_type_id":"4","last_reported":1702807638,"current_range_meters":19200,"station_id":"ce4bgg92rcd13ifvqb30","pricing_plan_id":"free"},{"bike_id":"29bcd9f1-3ab5-41dd-98c4-fc48e63310fe","system_id":"levelo_inurba_marseille","lat":43.298433,"lon":5.362774,"is_reserved":false,"is_disabled":false,"rental_uris":{"android":"levelo://app?vid=29bcd9f1-3ab5-41dd-98c4-fc48e63310fe","ios":"levelo://app?vid=29bcd9f1-3ab5-41dd-98c4-fc48e63310fe"},"vehicle_type_id":"4","last_reported":1702807638,"current_range_meters":29200,"station_id":"ce4bgpp2rcd13ifvqc3g","pricing_plan_id":"free"},{"bike_id":"b7689c33-fc6b-4b35-99ca-8f3a8aa0c3e9","system_id":"levelo_inurba_marseille","lat":43.305364,"lon":5.384119,"is_reserved":false,"is_disabled":false,"rental_uris":{"android":"levelo://app?vid=b7689c33-fc6b-4b35-99ca-8f3a8aa0c3e9","ios":"levelo://app?vid=b7689c33-fc6b-4b35-99ca-8f3a8aa0c3e9"},"vehicle_type_id":"4","last_reported":1702807638,"current_range_meters":25600,"station_id":"ce4bgg92rcd13ifvqb30","pricing_plan_id":"free"},{"bike_id":"1cf66990-ec77-4925-a25e-8d9b2cd24333","system_id":"levelo_inurba_marseille","lat":43.298433,"lon":5.362774,"is_reserved":false,"is_disabled":false,"rental_uris":{"android":"levelo://app?vid=1cf66990-ec77-4925-a25e-8d9b2cd24333","ios":"levelo://app?vid=1cf66990-ec77-4925-a25e-8d9b2cd24333"},"vehicle_type_id":"4","last_reported":1702807638,"current_range_meters":28000,"station_id":"ce4bgpp2rcd13ifvqc3g","pricing_plan_id":"free"},{"bike_id":"6132e363-6fc3-45e3-87bf-fc40337a0436","system_id":"levelo_inurba_marseille","lat":43.322872,"lon":5.382756,"is_reserved":false,"is_disabled":false,"rental_uris":{"android":"levelo://app?vid=6132e363-6fc3-45e3-87bf-fc40337a0436","ios":"levelo://app?vid=6132e363-6fc3-45e3-87bf-fc40337a0436"},"vehicle_type_id":"4","last_reported":1702807638,"current_range_meters":29200,"station_id":"ce4bhr12rcd13ifvqhqg","pricing_plan_id":"free"},{"bike_id":"257e2c60-5deb-4d9a-9e2e-c2fc09067537","system_id":"levelo_inurba_marseille","lat":43.32828,"lon":5.36682,"is_reserved":false,"is_disabled":false,"rental_uris":{"android":"levelo://app?vid=257e2c60-5deb-4d9a-9e2e-c2fc09067537","ios":"levelo://app?vid=257e2c60-5deb-4d9a-9e2e-c2fc09067537"},"vehicle_type_id":"4","last_reported":1702807638,"current_range_meters":14800,"station_id":"ce4bhs92rcd13ifvqi0g","pricing_plan_id":"free"},{"bike_id":"f1491da4-2f54-4445-8640-37b7b5e9b0bd","system_id":"levelo_inurba_marseille","lat":43.32829,"lon":5.36676,"is_reserved":false,"is_disabled":false,"rental_uris":{"android":"levelo://app?vid=f1491da4-2f54-4445-8640-37b7b5e9b0bd","ios":"levelo://app?vid=f1491da4-2f54-4445-8640-37b7b5e9b0bd"},"vehicle_type_id":"4","last_reported":1702807638,"current_range_meters":30400,"station_id":"ce4bhs92rcd13ifvqi0g","pricing_plan_id":"free"},{"bike_id":"d552ebbe-3535-4233-b783-27841fdde344","system_id":"levelo_inurba_marseille","lat":43.3283,"lon":5.36678,"is_reserved":false,"is_disabled":false,"rental_uris":{"android":"levelo://app?vid=d552ebbe-3535-4233-b783-27841fdde344","ios":"levelo://app?vid=d552ebbe-3535-4233-b783-27841fdde344"},"vehicle_type_id":"4","last_reported":1702807638,"current_range_meters":31200,"station_id":"ce4bhs92rcd13ifvqi0g","pricing_plan_id":"free"},{"bike_id":"c2e8db70-2991-4692-ab34-0f4bdf5e108e","system_id":"levelo_inurba_marseille","lat":43.32831,"lon":5.36689,"is_reserved":false,"is_disabled":false,"rental_uris":{"android":"levelo://app?vid=c2e8db70-2991-4692-ab34-0f4bdf5e108e","ios":"levelo://app?vid=c2e8db70-2991-4692-ab34-0f4bdf5e108e"},"vehicle_type_id":"4","last_reported":1702807638,"current_range_meters":24400,"station_id":"ce4bhs92rcd13ifvqi0g","pricing_plan_id":"free"},{"bike_id":"f1ae8b73-ba64-4a47-8c3d-90e47434b3a8","system_id":"levelo_inurba_marseille","lat":43.297163,"lon":5.365866,"is_reserved":false,"is_disabled":false,"rental_uris":{"android":"levelo://app?vid=f1ae8b73-ba64-4a47-8c3d-90e47434b3a8","ios":"levelo://app?vid=f1ae8b73-ba64-4a47-8c3d-90e47434b3a8"},"vehicle_type_id":"4","last_reported":1702807638,"current_range_meters":7200,"station_id":"ce4bgn12rcd13ifvqbt0","pricing_plan_id":"free"},{"bike_id":"5028e81c-ab90-407c-8fb9-8359e2e50b5f","system_id":"levelo_inurba_marseille","lat":43.297163,"lon":5.365866,"is_reserved":false,"is_disabled":false,"rental_uris":{"android":"levelo://app?vid=5028e81c-ab90-407c-8fb9-8359e2e50b5f","ios":"levelo://app?vid=5028e81c-ab90-407c-8fb9-8359e2e50b5f"},"vehicle_type_id":"4","last_reported":1702807638,"current_range_meters":26000,"station_id":"ce4bgn12rcd13ifvqbt0","pricing_plan_id":"free"},{"bike_id":"6e16e1a6-fef2-477c-a21f-c135ddd5746a","system_id":"levelo_inurba_marseille","lat":43.297163,"lon":5.365866,"is_reserved":false,"is_disabled":false,"rental_uris":{"android":"levelo://app?vid=6e16e1a6-fef2-477c-a21f-c135ddd5746a","ios":"levelo://app?vid=6e16e1a6-fef2-477c-a21f-c135ddd5746a"},"vehicle_type_id":"4","last_reported":1702807638,"current_range_meters":24800,"station_id":"ce4bgn12rcd13ifvqbt0","pricing_plan_id":"free"},{"bike_id":"c9b37866-86bb-4a4e-adf7-ab56f3c550f9","system_id":"levelo_inurba_marseille","lat":43.297163,"lon":5.365866,"is_reserved":false,"is_disabled":false,"rental_uris":{"android":"levelo://app?vid=c9b37866-86bb-4a4e-adf7-ab56f3c550f9","ios":"levelo://app?vid=c9b37866-86bb-4a4e-adf7-ab56f3c550f9"},"vehicle_type_id":"4","last_reported":1702807638,"current_range_meters":15200,"station_id":"ce4bgn12rcd13ifvqbt0","pricing_plan_id":"free"},{"bike_id":"81c03ec1-295a-45ec-b011-3d4cf785c626","system_id":"levelo_inurba_marseille","lat":43.296129,"lon":5.370777,"is_reserved":false,"is_disabled":false,"rental_uris":{"android":"levelo://app?vid=81c03ec1-295a-45ec-b011-3d4cf785c626","ios":"levelo://app?vid=81c03ec1-295a-45ec-b011-3d4cf785c626"},"vehicle_type_id":"4","last_reported":1702807638,"current_range_meters":30400,"station_id":"ce4bgnh2rcd13ifvqc0g","pricing_plan_id":"free"},{"bike_id":"c2ae535f-f9eb-4529-ac7a-05433723504a","system_id":"levelo_inurba_marseille","lat":43.29573,"lon":5.367355,"is_reserved":false,"is_disabled":false,"rental_uris":{"android":"levelo://app?vid=c2ae535f-f9eb-4529-ac7a-05433723504a","ios":"levelo://app?vid=c2ae535f-f9eb-4529-ac7a-05433723504a"},"vehicle_type_id":"4","last_reported":1702807638,"current_range_meters":30000,"station_id":"ce4bgph2rcd13ifvqc2g","pricing_plan_id":"free"},{"bike_id":"516832ec-6eb1-4c35-a4eb-02399fd1b463","system_id":"levelo_inurba_marseille","lat":43.296921,"lon":5.376579,"is_reserved":false,"is_disabled":false,"rental_uris":{"android":"levelo://app?vid=516832ec-6eb1-4c35-a4eb-02399fd1b463","ios":"levelo://app?vid=516832ec-6eb1-4c35-a4eb-02399fd1b463"},"vehicle_type_id":"4","last_reported":1702807638,"current_range_meters":30000,"station_id":"ce4bgkh2rcd13ifvqbl0","pricing_plan_id":"free"},{"bike_id":"729c1c1f-ef5d-4c7e-8367-862d949ec8b3","system_id":"levelo_inurba_marseille","lat":43.30957,"lon":5.39046,"is_reserved":false,"is_disabled":false,"rental_uris":{"android":"levelo://app?vid=729c1c1f-ef5d-4c7e-8367-862d949ec8b3","ios":"levelo://app?vid=729c1c1f-ef5d-4c7e-8367-862d949ec8b3"},"vehicle_type_id":"4","last_reported":1702807638,"current_range_meters":24800,"station_id":"ce4bgup2rcd13ifvqco0","pricing_plan_id":"free"},{"bike_id":"2e4327a4-5c68-42c9-a75e-2a5f9b2ba77b","system_id":"levelo_inurba_marseille","lat":43.317557,"lon":5.390173,"is_reserved":false,"is_disabled":false,"rental_uris":{"android":"levelo://app?vid=2e4327a4-5c68-42c9-a75e-2a5f9b2ba77b","ios":"levelo://app?vid=2e4327a4-5c68-42c9-a75e-2a5f9b2ba77b"},"vehicle_type_id":"4","last_reported":1702807638,"current_range_meters":31200,"station_id":"ce4bhqp2rcd13ifvqhng","pricing_plan_id":"free"},{"bike_id":"668278d5-fd65-4d95-8d32-ef2280501078","system_id":"levelo_inurba_marseille","lat":43.317557,"lon":5.390173,"is_reserved":false,"is_disabled":false,"rental_uris":{"android":"levelo://app?vid=668278d5-fd65-4d95-8d32-ef2280501078","ios":"levelo://app?vid=668278d5-fd65-4d95-8d32-ef2280501078"},"vehicle_type_id":"4","last_reported":1702807638,"current_range_meters":30000,"station_id":"ce4bhqp2rcd13ifvqhng","pricing_plan_id":"free"},{"bike_id":"a1ef6613-f4ad-43b9-ae54-5c386ce0cd19","system_id":"levelo_inurba_marseille","lat":43.295748,"lon":5.37522,"is_reserved":false,"is_disabled":false,"rental_uris":{"android":"levelo://app?vid=a1ef6613-f4ad-43b9-ae54-5c386ce0cd19","ios":"levelo://app?vid=a1ef6613-f4ad-43b9-ae54-5c386ce0cd19"},"vehicle_type_id":"4","last_reported":1702807638,"current_range_meters":30400,"station_id":"ce4bgh92rcd13ifvqb50","pricing_plan_id":"free"},{"bike_id":"d32c89f8-d2c2-47ba-93c5-d9aa3f9be2fe","system_id":"levelo_inurba_marseille","lat":43.295748,"lon":5.37522,"is_reserved":false,"is_disabled":false,"rental_uris":{"android":"levelo://app?vid=d32c89f8-d2c2-47ba-93c5-d9aa3f9be2fe","ios":"levelo://app?vid=d32c89f8-d2c2-47ba-93c5-d9aa3f9be2fe"},"vehicle_type_id":"4","last_reported":1702807638,"current_range_meters":22000,"station_id":"ce4bgh92rcd13ifvqb50","pricing_plan_id":"free"},{"bike_id":"da2bf830-8371-4987-8296-d78e324a9b5b","system_id":"levelo_inurba_marseille","lat":43.29645,"lon":5.37942,"is_reserved":false,"is_disabled":false,"rental_uris":{"android":"levelo://app?vid=da2bf830-8371-4987-8296-d78e324a9b5b","ios":"levelo://app?vid=da2bf830-8371-4987-8296-d78e324a9b5b"},"vehicle_type_id":"4","last_reported":1702807638,"current_range_meters":800,"station_id":"","pricing_plan_id":"free"},{"bike_id":"2d339ccb-9fe7-4132-b39e-b9bd4a932749","system_id":"levelo_inurba_marseille","lat":43.32367,"lon":5.388836,"is_reserved":false,"is_disabled":false,"rental_uris":{"android":"levelo://app?vid=2d339ccb-9fe7-4132-b39e-b9bd4a932749","ios":"levelo://app?vid=2d339ccb-9fe7-4132-b39e-b9bd4a932749"},"vehicle_type_id":"4","last_reported":1702807638,"current_range_meters":12400,"station_id":"ce4bhqp2rcd13ifvqhog","pricing_plan_id":"free"},{"bike_id":"31954c81-37ea-46a3-a087-7d824ac76191","system_id":"levelo_inurba_marseille","lat":43.32367,"lon":5.388836,"is_reserved":false,"is_disabled":false,"rental_uris":{"android":"levelo://app?vid=31954c81-37ea-46a3-a087-7d824ac76191","ios":"levelo://app?vid=31954c81-37ea-46a3-a087-7d824ac76191"},"vehicle_type_id":"4","last_reported":1702807638,"current_range_meters":31200,"station_id":"ce4bhqp2rcd13ifvqhog","pricing_plan_id":"free"},{"bike_id":"7ff21894-2f32-4658-85e2-91c4f4d495d4","system_id":"levelo_inurba_marseille","lat":43.32367,"lon":5.388836,"is_reserved":false,"is_disabled":false,"rental_uris":{"android":"levelo://app?vid=7ff21894-2f32-4658-85e2-91c4f4d495d4","ios":"levelo://app?vid=7ff21894-2f32-4658-85e2-91c4f4d495d4"},"vehicle_type_id":"4","last_reported":1702807638,"current_range_meters":31200,"station_id":"ce4bhqp2rcd13ifvqhog","pricing_plan_id":"free"},{"bike_id":"2543cd0f-1186-449e-9ced-dccaf1b820ac","system_id":"levelo_inurba_marseille","lat":43.29284,"lon":5.36854,"is_reserved":false,"is_disabled":false,"rental_uris":{"android":"levelo://app?vid=2543cd0f-1186-449e-9ced-dccaf1b820ac","ios":"levelo://app?vid=2543cd0f-1186-449e-9ced-dccaf1b820ac"},"vehicle_type_id":"4","last_reported":1702807638,"current_range_meters":16400,"station_id":"ce4bhbp2rcd13ifvqesg","pricing_plan_id":"free"},{"bike_id":"4bd7d686-d71b-4007-b3cc-67bb6b91e7af","system_id":"levelo_inurba_marseille","lat":43.30085,"lon":5.390856,"is_reserved":false,"is_disabled":false,"rental_uris":{"android":"levelo://app?vid=4bd7d686-d71b-4007-b3cc-67bb6b91e7af","ios":"levelo://app?vid=4bd7d686-d71b-4007-b3cc-67bb6b91e7af"},"vehicle_type_id":"4","last_reported":1702807638,"current_range_meters":22800,"station_id":"ce4bh192rcd13ifvqdb0","pricing_plan_id":"free"},{"bike_id":"5f97394c-e919-413e-934e-2f22d94f68af","system_id":"levelo_inurba_marseille","lat":43.292311,"lon":5.360731,"is_reserved":false,"is_disabled":false,"rental_uris":{"android":"levelo://app?vid=5f97394c-e919-413e-934e-2f22d94f68af","ios":"levelo://app?vid=5f97394c-e919-413e-934e-2f22d94f68af"},"vehicle_type_id":"4","last_reported":1702807638,"current_range_meters":18400,"station_id":"ce4bhbh2rcd13ifvqeqg","pricing_plan_id":"free"},{"bike_id":"3e892209-4ad5-4135-9980-ff21ceafe430","system_id":"levelo_inurba_marseille","lat":43.309038,"lon":5.396546,"is_reserved":false,"is_disabled":false,"rental_uris":{"android":"levelo://app?vid=3e892209-4ad5-4135-9980-ff21ceafe430","ios":"levelo://app?vid=3e892209-4ad5-4135-9980-ff21ceafe430"},"vehicle_type_id":"4","last_reported":1702807638,"current_range_meters":26000,"station_id":"ce4bh012rcd13ifvqcv0","pricing_plan_id":"free"},{"bike_id":"605e32fe-2721-40a0-adc4-985c1fa585d7","system_id":"levelo_inurba_marseille","lat":43.313291,"lon":5.396838,"is_reserved":false,"is_disabled":false,"rental_uris":{"android":"levelo://app?vid=605e32fe-2721-40a0-adc4-985c1fa585d7","ios":"levelo://app?vid=605e32fe-2721-40a0-adc4-985c1fa585d7"},"vehicle_type_id":"4","last_reported":1702807638,"current_range_meters":29200,"station_id":"ce4bgvp2rcd13ifvqcu0","pricing_plan_id":"free"},{"bike_id":"0e02cd82-420c-4930-9588-bb0ef265132a","system_id":"levelo_inurba_marseille","lat":43.290624,"lon":5.359245,"is_reserved":false,"is_disabled":false,"rental_uris":{"android":"levelo://app?vid=0e02cd82-420c-4930-9588-bb0ef265132a","ios":"levelo://app?vid=0e02cd82-420c-4930-9588-bb0ef265132a"},"vehicle_type_id":"4","last_reported":1702807638,"current_range_meters":29600,"station_id":"ce4bha92rcd13ifvqeg0","pricing_plan_id":"free"},{"bike_id":"024376ed-e1db-4616-b911-329964ba4946","system_id":"levelo_inurba_marseille","lat":43.294153,"lon":5.386305,"is_reserved":false,"is_disabled":false,"rental_uris":{"android":"levelo://app?vid=024376ed-e1db-4616-b911-329964ba4946","ios":"levelo://app?vid=024376ed-e1db-4616-b911-329964ba4946"},"vehicle_type_id":"4","last_reported":1702807638,"current_range_meters":28400,"station_id":"ce4bh2h2rcd13ifvqdh0","pricing_plan_id":"free"},{"bike_id":"d2287ecb-c6ae-440a-bac4-faac5bcc29c2","system_id":"levelo_inurba_marseille","lat":43.294153,"lon":5.386305,"is_reserved":false,"is_disabled":false,"rental_uris":{"android":"levelo://app?vid=d2287ecb-c6ae-440a-bac4-faac5bcc29c2","ios":"levelo://app?vid=d2287ecb-c6ae-440a-bac4-faac5bcc29c2"},"vehicle_type_id":"4","last_reported":1702807638,"current_range_meters":22800,"station_id":"ce4bh2h2rcd13ifvqdh0","pricing_plan_id":"free"},{"bike_id":"20311670-fd95-4086-8b21-8b3d06c392f6","system_id":"levelo_inurba_marseille","lat":43.289184,"lon":5.366408,"is_reserved":false,"is_disabled":false,"rental_uris":{"android":"levelo://app?vid=20311670-fd95-4086-8b21-8b3d06c392f6","ios":"levelo://app?vid=20311670-fd95-4086-8b21-8b3d06c392f6"},"vehicle_type_id":"4","last_reported":1702807638,"current_range_meters":18800,"station_id":"ce4bhap2rcd13ifvqek0","pricing_plan_id":"free"},{"bike_id":"386ad1e4-b769-4a95-b659-1f7d483e0bdf","system_id":"levelo_inurba_marseille","lat":43.304296,"lon":5.397513,"is_reserved":false,"is_disabled":false,"rental_uris":{"android":"levelo://app?vid=386ad1e4-b769-4a95-b659-1f7d483e0bdf","ios":"levelo://app?vid=386ad1e4-b769-4a95-b659-1f7d483e0bdf"},"vehicle_type_id":"4","last_reported":1702807638,"current_range_meters":28400,"station_id":"ce4bh092rcd13ifvqd20","pricing_plan_id":"free"},{"bike_id":"69f2c7af-e745-496f-9423-50463ba8b70d","system_id":"levelo_inurba_marseille","lat":43.292642,"lon":5.384254,"is_reserved":false,"is_disabled":false,"rental_uris":{"android":"levelo://app?vid=69f2c7af-e745-496f-9423-50463ba8b70d","ios":"levelo://app?vid=69f2c7af-e745-496f-9423-50463ba8b70d"},"vehicle_type_id":"4","last_reported":1702807638,"current_range_meters":24000,"station_id":"ce4bh692rcd13ifvqea0","pricing_plan_id":"free"},{"bike_id":"0019cc72-50a3-4298-937a-c3025a814462","system_id":"levelo_inurba_marseille","lat":43.33047,"lon":5.38924,"is_reserved":false,"is_disabled":false,"rental_uris":{"android":"levelo://app?vid=0019cc72-50a3-4298-937a-c3025a814462","ios":"levelo://app?vid=0019cc72-50a3-4298-937a-c3025a814462"},"vehicle_type_id":"4","last_reported":1702807638,"current_range_meters":4800,"station_id":"ce4bhr92rcd13ifvqhrg","pricing_plan_id":"free"},{"bike_id":"ad0f6538-ba65-40b7-bd35-329a98101cc1","system_id":"levelo_inurba_marseille","lat":43.289841,"lon":5.354838,"is_reserved":false,"is_disabled":false,"rental_uris":{"android":"levelo://app?vid=ad0f6538-ba65-40b7-bd35-329a98101cc1","ios":"levelo://app?vid=ad0f6538-ba65-40b7-bd35-329a98101cc1"},"vehicle_type_id":"4","last_reported":1702807638,"current_range_meters":7600,"station_id":"","pricing_plan_id":"free"},{"bike_id":"9b307afa-abca-4c88-9d94-ba3ce93c4be2","system_id":"levelo_inurba_marseille","lat":43.290094,"lon":5.381264,"is_reserved":false,"is_disabled":false,"rental_uris":{"android":"levelo://app?vid=9b307afa-abca-4c88-9d94-ba3ce93c4be2","ios":"levelo://app?vid=9b307afa-abca-4c88-9d94-ba3ce93c4be2"},"vehicle_type_id":"4","last_reported":1702807638,"current_range_meters":27600,"station_id":"ce4bh4p2rcd13ifvqe1g","pricing_plan_id":"free"},{"bike_id":"f0cd831c-cfb9-44c7-9487-103b6df223ca","system_id":"levelo_inurba_marseille","lat":43.337445,"lon":5.374592,"is_reserved":false,"is_disabled":false,"rental_uris":{"android":"levelo://app?vid=f0cd831c-cfb9-44c7-9487-103b6df223ca","ios":"levelo://app?vid=f0cd831c-cfb9-44c7-9487-103b6df223ca"},"vehicle_type_id":"4","last_reported":1702807638,"current_range_meters":26000,"station_id":"","pricing_plan_id":"free"},{"bike_id":"ef80ceab-dc9f-4b6c-8f52-707d5177f481","system_id":"levelo_inurba_marseille","lat":43.33752,"lon":5.37466,"is_reserved":false,"is_disabled":false,"rental_uris":{"android":"levelo://app?vid=ef80ceab-dc9f-4b6c-8f52-707d5177f481","ios":"levelo://app?vid=ef80ceab-dc9f-4b6c-8f52-707d5177f481"},"vehicle_type_id":"4","last_reported":1702807638,"current_range_meters":25200,"station_id":"","pricing_plan_id":"free"},{"bike_id":"90af23d1-673e-4413-b5ce-552e47d61d81","system_id":"levelo_inurba_marseille","lat":43.30636,"lon":5.40087,"is_reserved":false,"is_disabled":false,"rental_uris":{"android":"levelo://app?vid=90af23d1-673e-4413-b5ce-552e47d61d81","ios":"levelo://app?vid=90af23d1-673e-4413-b5ce-552e47d61d81"},"vehicle_type_id":"4","last_reported":1702807638,"current_range_meters":23600,"station_id":"ce4bh112rcd13ifvqda0","pricing_plan_id":"free"},{"bike_id":"74029e47-c92e-4a09-93e2-966e816bf173","system_id":"levelo_inurba_marseille","lat":43.33764,"lon":5.37493,"is_reserved":false,"is_disabled":false,"rental_uris":{"android":"levelo://app?vid=74029e47-c92e-4a09-93e2-966e816bf173","ios":"levelo://app?vid=74029e47-c92e-4a09-93e2-966e816bf173"},"vehicle_type_id":"4","last_reported":1702807638,"current_range_meters":28800,"station_id":"","pricing_plan_id":"free"},{"bike_id":"efdc84f6-0f8c-4279-8a95-7dbc966c27d7","system_id":"levelo_inurba_marseille","lat":43.295196,"lon":5.39397,"is_reserved":false,"is_disabled":false,"rental_uris":{"android":"levelo://app?vid=efdc84f6-0f8c-4279-8a95-7dbc966c27d7","ios":"levelo://app?vid=efdc84f6-0f8c-4279-8a95-7dbc966c27d7"},"vehicle_type_id":"4","last_reported":1702807638,"current_range_meters":2000,"station_id":"ce4bh292rcd13ifvqdf0","pricing_plan_id":"free"},{"bike_id":"c148ee90-7e96-45a2-abe8-da7f1c9dbb79","system_id":"levelo_inurba_marseille","lat":43.289307,"lon":5.38406,"is_reserved":false,"is_disabled":false,"rental_uris":{"android":"levelo://app?vid=c148ee90-7e96-45a2-abe8-da7f1c9dbb79","ios":"levelo://app?vid=c148ee90-7e96-45a2-abe8-da7f1c9dbb79"},"vehicle_type_id":"4","last_reported":1702807638,"current_range_meters":25600,"station_id":"ce4bh612rcd13ifvqe6g","pricing_plan_id":"free"},{"bike_id":"b02fb099-f7ee-4b70-bbcf-73575aabc4c8","system_id":"levelo_inurba_marseille","lat":43.289307,"lon":5.38406,"is_reserved":false,"is_disabled":false,"rental_uris":{"android":"levelo://app?vid=b02fb099-f7ee-4b70-bbcf-73575aabc4c8","ios":"levelo://app?vid=b02fb099-f7ee-4b70-bbcf-73575aabc4c8"},"vehicle_type_id":"4","last_reported":1702807638,"current_range_meters":30400,"station_id":"ce4bh612rcd13ifvqe6g","pricing_plan_id":"free"},{"bike_id":"d16774d6-0e8b-48aa-bbad-76f49d0b3fe1","system_id":"levelo_inurba_marseille","lat":43.302759,"lon":5.400793,"is_reserved":false,"is_disabled":false,"rental_uris":{"android":"levelo://app?vid=d16774d6-0e8b-48aa-bbad-76f49d0b3fe1","ios":"levelo://app?vid=d16774d6-0e8b-48aa-bbad-76f49d0b3fe1"},"vehicle_type_id":"4","last_reported":1702807638,"current_range_meters":18400,"station_id":"ce4bgvh2rcd13ifvqcs0","pricing_plan_id":"free"},{"bike_id":"c97eab0e-b25d-483a-8f3e-86f1c047c500","system_id":"levelo_inurba_marseille","lat":43.28626,"lon":5.35092,"is_reserved":false,"is_disabled":false,"rental_uris":{"android":"levelo://app?vid=c97eab0e-b25d-483a-8f3e-86f1c047c500","ios":"levelo://app?vid=c97eab0e-b25d-483a-8f3e-86f1c047c500"},"vehicle_type_id":"4","last_reported":1702807638,"current_range_meters":25600,"station_id":"ce4bhch2rcd13ifvqeug","pricing_plan_id":"free"},{"bike_id":"f3339a89-d6de-47c9-9b03-1cdd8e90ab84","system_id":"levelo_inurba_marseille","lat":43.28616,"lon":5.35111,"is_reserved":false,"is_disabled":false,"rental_uris":{"android":"levelo://app?vid=f3339a89-d6de-47c9-9b03-1cdd8e90ab84","ios":"levelo://app?vid=f3339a89-d6de-47c9-9b03-1cdd8e90ab84"},"vehicle_type_id":"4","last_reported":1702807638,"current_range_meters":4800,"station_id":"ce4bhch2rcd13ifvqeug","pricing_plan_id":"free"},{"bike_id":"ee364f1e-ebbd-49bf-8db1-78c37e1cc9de","system_id":"levelo_inurba_marseille","lat":43.28616,"lon":5.35103,"is_reserved":false,"is_disabled":false,"rental_uris":{"android":"levelo://app?vid=ee364f1e-ebbd-49bf-8db1-78c37e1cc9de","ios":"levelo://app?vid=ee364f1e-ebbd-49bf-8db1-78c37e1cc9de"},"vehicle_type_id":"4","last_reported":1702807638,"current_range_meters":16000,"station_id":"ce4bhch2rcd13ifvqeug","pricing_plan_id":"free"},{"bike_id":"b96f9689-a9b5-42e6-9fd4-984f53a73994","system_id":"levelo_inurba_marseille","lat":43.28615,"lon":5.35102,"is_reserved":false,"is_disabled":false,"rental_uris":{"android":"levelo://app?vid=b96f9689-a9b5-42e6-9fd4-984f53a73994","ios":"levelo://app?vid=b96f9689-a9b5-42e6-9fd4-984f53a73994"},"vehicle_type_id":"4","last_reported":1702807638,"current_range_meters":28400,"station_id":"ce4bhch2rcd13ifvqeug","pricing_plan_id":"free"},{"bike_id":"6eaee1fe-fbcd-491e-b458-c7144f094edd","system_id":"levelo_inurba_marseille","lat":43.28613,"lon":5.35105,"is_reserved":false,"is_disabled":false,"rental_uris":{"android":"levelo://app?vid=6eaee1fe-fbcd-491e-b458-c7144f094edd","ios":"levelo://app?vid=6eaee1fe-fbcd-491e-b458-c7144f094edd"},"vehicle_type_id":"4","last_reported":1702807638,"current_range_meters":14000,"station_id":"ce4bhch2rcd13ifvqeug","pricing_plan_id":"free"},{"bike_id":"0ad2e20c-1807-44ba-bd8d-2b54d255ea26","system_id":"levelo_inurba_marseille","lat":43.28609,"lon":5.35107,"is_reserved":false,"is_disabled":false,"rental_uris":{"android":"levelo://app?vid=0ad2e20c-1807-44ba-bd8d-2b54d255ea26","ios":"levelo://app?vid=0ad2e20c-1807-44ba-bd8d-2b54d255ea26"},"vehicle_type_id":"4","last_reported":1702807638,"current_range_meters":22800,"station_id":"ce4bhch2rcd13ifvqeug","pricing_plan_id":"free"},{"bike_id":"d51d9011-1a2a-42a3-8053-6872d4a0c02c","system_id":"levelo_inurba_marseille","lat":43.28609,"lon":5.351,"is_reserved":false,"is_disabled":false,"rental_uris":{"android":"levelo://app?vid=d51d9011-1a2a-42a3-8053-6872d4a0c02c","ios":"levelo://app?vid=d51d9011-1a2a-42a3-8053-6872d4a0c02c"},"vehicle_type_id":"4","last_reported":1702807638,"current_range_meters":27200,"station_id":"ce4bhch2rcd13ifvqeug","pricing_plan_id":"free"},{"bike_id":"2dfa5049-0e1b-4839-b5c3-156910a65dbd","system_id":"levelo_inurba_marseille","lat":43.33179,"lon":5.39829,"is_reserved":false,"is_disabled":false,"rental_uris":{"android":"levelo://app?vid=2dfa5049-0e1b-4839-b5c3-156910a65dbd","ios":"levelo://app?vid=2dfa5049-0e1b-4839-b5c3-156910a65dbd"},"vehicle_type_id":"4","last_reported":1702807638,"current_range_meters":6800,"station_id":"","pricing_plan_id":"free"},{"bike_id":"c92e6398-52f0-4edf-992b-c38b7a2610c7","system_id":"levelo_inurba_marseille","lat":43.286613,"lon":5.386658,"is_reserved":false,"is_disabled":false,"rental_uris":{"android":"levelo://app?vid=c92e6398-52f0-4edf-992b-c38b7a2610c7","ios":"levelo://app?vid=c92e6398-52f0-4edf-992b-c38b7a2610c7"},"vehicle_type_id":"4","last_reported":1702807638,"current_range_meters":24800,"station_id":"ce4bh492rcd13ifvqdug","pricing_plan_id":"free"},{"bike_id":"5ec0f8ba-b798-496f-806f-deb4ce3500de","system_id":"levelo_inurba_marseille","lat":43.319179,"lon":5.407725,"is_reserved":false,"is_disabled":false,"rental_uris":{"android":"levelo://app?vid=5ec0f8ba-b798-496f-806f-deb4ce3500de","ios":"levelo://app?vid=5ec0f8ba-b798-496f-806f-deb4ce3500de"},"vehicle_type_id":"4","last_reported":1702807638,"current_range_meters":30000,"station_id":"ce4bhq12rcd13ifvqhig","pricing_plan_id":"free"},{"bike_id":"2727c664-bd75-4b2f-b8dd-f20bae895db9","system_id":"levelo_inurba_marseille","lat":43.323464,"lon":5.406297,"is_reserved":false,"is_disabled":false,"rental_uris":{"android":"levelo://app?vid=2727c664-bd75-4b2f-b8dd-f20bae895db9","ios":"levelo://app?vid=2727c664-bd75-4b2f-b8dd-f20bae895db9"},"vehicle_type_id":"4","last_reported":1702807638,"current_range_meters":23600,"station_id":"ce4bhq92rcd13ifvqhjg","pricing_plan_id":"free"},{"bike_id":"b1bba2b6-372d-49dd-b13b-1b4d710db23d","system_id":"levelo_inurba_marseille","lat":43.323464,"lon":5.406297,"is_reserved":false,"is_disabled":false,"rental_uris":{"android":"levelo://app?vid=b1bba2b6-372d-49dd-b13b-1b4d710db23d","ios":"levelo://app?vid=b1bba2b6-372d-49dd-b13b-1b4d710db23d"},"vehicle_type_id":"4","last_reported":1702807638,"current_range_meters":31200,"station_id":"ce4bhq92rcd13ifvqhjg","pricing_plan_id":"free"},{"bike_id":"ca937974-aab9-4352-b9a1-9591b104fd05","system_id":"levelo_inurba_marseille","lat":43.284793,"lon":5.384113,"is_reserved":false,"is_disabled":false,"rental_uris":{"android":"levelo://app?vid=ca937974-aab9-4352-b9a1-9591b104fd05","ios":"levelo://app?vid=ca937974-aab9-4352-b9a1-9591b104fd05"},"vehicle_type_id":"4","last_reported":1702807638,"current_range_meters":24000,"station_id":"ce4bh512rcd13ifvqe3g","pricing_plan_id":"free"},{"bike_id":"2fc40980-61cc-4ee7-8d1a-e1832ad51db0","system_id":"levelo_inurba_marseille","lat":43.284219,"lon":5.3497,"is_reserved":false,"is_disabled":false,"rental_uris":{"android":"levelo://app?vid=2fc40980-61cc-4ee7-8d1a-e1832ad51db0","ios":"levelo://app?vid=2fc40980-61cc-4ee7-8d1a-e1832ad51db0"},"vehicle_type_id":"4","last_reported":1702807638,"current_range_meters":31200,"station_id":"ce4bhbh2rcd13ifvqepg","pricing_plan_id":"free"},{"bike_id":"d26104a7-723b-4225-b77d-2cbe8cad953b","system_id":"levelo_inurba_marseille","lat":43.284188,"lon":5.349898,"is_reserved":false,"is_disabled":false,"rental_uris":{"android":"levelo://app?vid=d26104a7-723b-4225-b77d-2cbe8cad953b","ios":"levelo://app?vid=d26104a7-723b-4225-b77d-2cbe8cad953b"},"vehicle_type_id":"4","last_reported":1702807638,"current_range_meters":30800,"station_id":"ce4bhbh2rcd13ifvqepg","pricing_plan_id":"free"},{"bike_id":"0066084a-7741-4853-9036-28017a45020f","system_id":"levelo_inurba_marseille","lat":43.28419,"lon":5.34973,"is_reserved":false,"is_disabled":false,"rental_uris":{"android":"levelo://app?vid=0066084a-7741-4853-9036-28017a45020f","ios":"levelo://app?vid=0066084a-7741-4853-9036-28017a45020f"},"vehicle_type_id":"4","last_reported":1702807638,"current_range_meters":8000,"station_id":"ce4bhbh2rcd13ifvqepg","pricing_plan_id":"free"},{"bike_id":"555b7e83-f7ce-40ea-abf7-19d0ab752b8a","system_id":"levelo_inurba_marseille","lat":43.284217,"lon":5.349697,"is_reserved":false,"is_disabled":false,"rental_uris":{"android":"levelo://app?vid=555b7e83-f7ce-40ea-abf7-19d0ab752b8a","ios":"levelo://app?vid=555b7e83-f7ce-40ea-abf7-19d0ab752b8a"},"vehicle_type_id":"4","last_reported":1702807638,"current_range_meters":29600,"station_id":"ce4bhbh2rcd13ifvqepg","pricing_plan_id":"free"},{"bike_id":"e0823859-5724-4752-b674-ce200859fb0a","system_id":"levelo_inurba_marseille","lat":43.28414,"lon":5.34966,"is_reserved":false,"is_disabled":false,"rental_uris":{"android":"levelo://app?vid=e0823859-5724-4752-b674-ce200859fb0a","ios":"levelo://app?vid=e0823859-5724-4752-b674-ce200859fb0a"},"vehicle_type_id":"4","last_reported":1702807638,"current_range_meters":27200,"station_id":"ce4bhbh2rcd13ifvqepg","pricing_plan_id":"free"},{"bike_id":"ad1dbb6c-01e9-4c51-aa00-1bea8bfbdd8c","system_id":"levelo_inurba_marseille","lat":43.283502,"lon":5.386471,"is_reserved":false,"is_disabled":false,"rental_uris":{"android":"levelo://app?vid=ad1dbb6c-01e9-4c51-aa00-1bea8bfbdd8c","ios":"levelo://app?vid=ad1dbb6c-01e9-4c51-aa00-1bea8bfbdd8c"},"vehicle_type_id":"4","last_reported":1702807638,"current_range_meters":30400,"station_id":"ce4bh492rcd13ifvqdvg","pricing_plan_id":"free"},{"bike_id":"c48ac4ac-f1f9-410e-bca0-01df2c8dc181","system_id":"levelo_inurba_marseille","lat":43.28036,"lon":5.36942,"is_reserved":false,"is_disabled":false,"rental_uris":{"android":"levelo://app?vid=c48ac4ac-f1f9-410e-bca0-01df2c8dc181","ios":"levelo://app?vid=c48ac4ac-f1f9-410e-bca0-01df2c8dc181"},"vehicle_type_id":"4","last_reported":1702807638,"current_range_meters":28800,"station_id":"ce4bha12rcd13ifvqef0","pricing_plan_id":"free"},{"bike_id":"d40b807d-2f67-422a-9d5c-e96bab173e93","system_id":"levelo_inurba_marseille","lat":43.29041,"lon":5.399634,"is_reserved":false,"is_disabled":false,"rental_uris":{"android":"levelo://app?vid=d40b807d-2f67-422a-9d5c-e96bab173e93","ios":"levelo://app?vid=d40b807d-2f67-422a-9d5c-e96bab173e93"},"vehicle_type_id":"4","last_reported":1702807638,"current_range_meters":21600,"station_id":"ce4bh392rcd13ifvqdm0","pricing_plan_id":"free"},{"bike_id":"4f449caa-dd60-473b-8d41-901c75e8244e","system_id":"levelo_inurba_marseille","lat":43.296263,"lon":5.40601,"is_reserved":false,"is_disabled":false,"rental_uris":{"android":"levelo://app?vid=4f449caa-dd60-473b-8d41-901c75e8244e","ios":"levelo://app?vid=4f449caa-dd60-473b-8d41-901c75e8244e"},"vehicle_type_id":"4","last_reported":1702807638,"current_range_meters":21600,"station_id":"ce4bh0h2rcd13ifvqd60","pricing_plan_id":"free"},{"bike_id":"f4b5a001-c304-489d-ab56-e59dc260493c","system_id":"levelo_inurba_marseille","lat":43.284462,"lon":5.392121,"is_reserved":false,"is_disabled":false,"rental_uris":{"android":"levelo://app?vid=f4b5a001-c304-489d-ab56-e59dc260493c","ios":"levelo://app?vid=f4b5a001-c304-489d-ab56-e59dc260493c"},"vehicle_type_id":"4","last_reported":1702807638,"current_range_meters":3600,"station_id":"ce4bhoh2rcd13ifvqh5g","pricing_plan_id":"free"},{"bike_id":"d2b3a949-d029-4a2b-9bad-853b9b0aacf7","system_id":"levelo_inurba_marseille","lat":43.326605,"lon":5.409903,"is_reserved":false,"is_disabled":false,"rental_uris":{"android":"levelo://app?vid=d2b3a949-d029-4a2b-9bad-853b9b0aacf7","ios":"levelo://app?vid=d2b3a949-d029-4a2b-9bad-853b9b0aacf7"},"vehicle_type_id":"4","last_reported":1702807638,"current_range_meters":28800,"station_id":"ce4bhpp2rcd13ifvqhgg","pricing_plan_id":"free"},{"bike_id":"050ecf85-14e0-4001-9e17-62b649ceaa00","system_id":"levelo_inurba_marseille","lat":43.326605,"lon":5.409903,"is_reserved":false,"is_disabled":false,"rental_uris":{"android":"levelo://app?vid=050ecf85-14e0-4001-9e17-62b649ceaa00","ios":"levelo://app?vid=050ecf85-14e0-4001-9e17-62b649ceaa00"},"vehicle_type_id":"4","last_reported":1702807638,"current_range_meters":30000,"station_id":"ce4bhpp2rcd13ifvqhgg","pricing_plan_id":"free"},{"bike_id":"ef4ebfe6-544f-427a-ab41-4e8fcd066bd6","system_id":"levelo_inurba_marseille","lat":43.276143,"lon":5.361007,"is_reserved":false,"is_disabled":false,"rental_uris":{"android":"levelo://app?vid=ef4ebfe6-544f-427a-ab41-4e8fcd066bd6","ios":"levelo://app?vid=ef4ebfe6-544f-427a-ab41-4e8fcd066bd6"},"vehicle_type_id":"4","last_reported":1702807638,"current_range_meters":30400,"station_id":"ce4bgj92rcd13ifvqbe0","pricing_plan_id":"free"},{"bike_id":"3337a375-1c8b-4100-9c1e-7370b07e559b","system_id":"levelo_inurba_marseille","lat":43.280784,"lon":5.396622,"is_reserved":false,"is_disabled":false,"rental_uris":{"android":"levelo://app?vid=3337a375-1c8b-4100-9c1e-7370b07e559b","ios":"levelo://app?vid=3337a375-1c8b-4100-9c1e-7370b07e559b"},"vehicle_type_id":"4","last_reported":1702807638,"current_range_meters":25200,"station_id":"ce4bho12rcd13ifvqh2g","pricing_plan_id":"free"},{"bike_id":"9a083a92-81bf-4651-96be-9a20aa529416","system_id":"levelo_inurba_marseille","lat":43.280784,"lon":5.396622,"is_reserved":false,"is_disabled":false,"rental_uris":{"android":"levelo://app?vid=9a083a92-81bf-4651-96be-9a20aa529416","ios":"levelo://app?vid=9a083a92-81bf-4651-96be-9a20aa529416"},"vehicle_type_id":"4","last_reported":1702807638,"current_range_meters":15600,"station_id":"ce4bho12rcd13ifvqh2g","pricing_plan_id":"free"},{"bike_id":"39e47324-a6b9-4849-9e73-6268e418a338","system_id":"levelo_inurba_marseille","lat":43.280784,"lon":5.396622,"is_reserved":false,"is_disabled":false,"rental_uris":{"android":"levelo://app?vid=39e47324-a6b9-4849-9e73-6268e418a338","ios":"levelo://app?vid=39e47324-a6b9-4849-9e73-6268e418a338"},"vehicle_type_id":"4","last_reported":1702807638,"current_range_meters":21200,"station_id":"ce4bho12rcd13ifvqh2g","pricing_plan_id":"free"},{"bike_id":"4d09ba59-475c-441a-a6a2-f11ee374e806","system_id":"levelo_inurba_marseille","lat":43.303837,"lon":5.418724,"is_reserved":false,"is_disabled":false,"rental_uris":{"android":"levelo://app?vid=4d09ba59-475c-441a-a6a2-f11ee374e806","ios":"levelo://app?vid=4d09ba59-475c-441a-a6a2-f11ee374e806"},"vehicle_type_id":"4","last_reported":1702807638,"current_range_meters":20400,"station_id":"ce4bhop2rcd13ifvqh7g","pricing_plan_id":"free"},{"bike_id":"005e71b8-6df4-4728-86bc-e04d447edd38","system_id":"levelo_inurba_marseille","lat":43.273613,"lon":5.362705,"is_reserved":false,"is_disabled":false,"rental_uris":{"android":"levelo://app?vid=005e71b8-6df4-4728-86bc-e04d447edd38","ios":"levelo://app?vid=005e71b8-6df4-4728-86bc-e04d447edd38"},"vehicle_type_id":"4","last_reported":1702807638,"current_range_meters":27600,"station_id":"ce4bhbh2rcd13ifvqeo0","pricing_plan_id":"free"},{"bike_id":"d0bb7847-2900-4109-94f9-d2f412bc15a0","system_id":"levelo_inurba_marseille","lat":43.275625,"lon":5.384392,"is_reserved":false,"is_disabled":false,"rental_uris":{"android":"levelo://app?vid=d0bb7847-2900-4109-94f9-d2f412bc15a0","ios":"levelo://app?vid=d0bb7847-2900-4109-94f9-d2f412bc15a0"},"vehicle_type_id":"4","last_reported":1702807638,"current_range_meters":26400,"station_id":"ce4bhh92rcd13ifvqfi0","pricing_plan_id":"free"},{"bike_id":"2bed3501-fcea-4a7a-8a65-1bedf3ad5bdc","system_id":"levelo_inurba_marseille","lat":43.336134,"lon":5.410341,"is_reserved":false,"is_disabled":false,"rental_uris":{"android":"levelo://app?vid=2bed3501-fcea-4a7a-8a65-1bedf3ad5bdc","ios":"levelo://app?vid=2bed3501-fcea-4a7a-8a65-1bedf3ad5bdc"},"vehicle_type_id":"4","last_reported":1702807638,"current_range_meters":31200,"station_id":"ce4bhqh2rcd13ifvqhmg","pricing_plan_id":"free"},{"bike_id":"748568ba-a9a7-4552-b14d-0829f18a4133","system_id":"levelo_inurba_marseille","lat":43.336148,"lon":5.410349,"is_reserved":false,"is_disabled":false,"rental_uris":{"android":"levelo://app?vid=748568ba-a9a7-4552-b14d-0829f18a4133","ios":"levelo://app?vid=748568ba-a9a7-4552-b14d-0829f18a4133"},"vehicle_type_id":"4","last_reported":1702807638,"current_range_meters":30000,"station_id":"ce4bhqh2rcd13ifvqhmg","pricing_plan_id":"free"},{"bike_id":"342de8ab-a7ba-45ae-8699-5f0f787ef46d","system_id":"levelo_inurba_marseille","lat":43.276771,"lon":5.388799,"is_reserved":false,"is_disabled":false,"rental_uris":{"android":"levelo://app?vid=342de8ab-a7ba-45ae-8699-5f0f787ef46d","ios":"levelo://app?vid=342de8ab-a7ba-45ae-8699-5f0f787ef46d"},"vehicle_type_id":"4","last_reported":1702807638,"current_range_meters":11600,"station_id":"ce4bhi12rcd13ifvqfo0","pricing_plan_id":"free"},{"bike_id":"e15426ac-43b1-46a3-bfa0-5e340802bdee","system_id":"levelo_inurba_marseille","lat":43.336134,"lon":5.410341,"is_reserved":false,"is_disabled":false,"rental_uris":{"android":"levelo://app?vid=e15426ac-43b1-46a3-bfa0-5e340802bdee","ios":"levelo://app?vid=e15426ac-43b1-46a3-bfa0-5e340802bdee"},"vehicle_type_id":"4","last_reported":1702807638,"current_range_meters":23600,"station_id":"ce4bhqh2rcd13ifvqhmg","pricing_plan_id":"free"},{"bike_id":"ea3d35f6-b07e-4308-ae51-5376e9d8e7cc","system_id":"levelo_inurba_marseille","lat":43.273446,"lon":5.364511,"is_reserved":false,"is_disabled":false,"rental_uris":{"android":"levelo://app?vid=ea3d35f6-b07e-4308-ae51-5376e9d8e7cc","ios":"levelo://app?vid=ea3d35f6-b07e-4308-ae51-5376e9d8e7cc"},"vehicle_type_id":"4","last_reported":1702807638,"current_range_meters":12400,"station_id":"","pricing_plan_id":"free"},{"bike_id":"6cb0c20f-91c9-4fdd-920d-ba0bd7960208","system_id":"levelo_inurba_marseille","lat":43.310785,"lon":5.424305,"is_reserved":false,"is_disabled":false,"rental_uris":{"android":"levelo://app?vid=6cb0c20f-91c9-4fdd-920d-ba0bd7960208","ios":"levelo://app?vid=6cb0c20f-91c9-4fdd-920d-ba0bd7960208"},"vehicle_type_id":"4","last_reported":1702807638,"current_range_meters":22000,"station_id":"ce4bhp92rcd13ifvqhag","pricing_plan_id":"free"},{"bike_id":"251de0dc-299e-4a18-abf1-eec4ea9c23e2","system_id":"levelo_inurba_marseille","lat":43.310785,"lon":5.424305,"is_reserved":false,"is_disabled":false,"rental_uris":{"android":"levelo://app?vid=251de0dc-299e-4a18-abf1-eec4ea9c23e2","ios":"levelo://app?vid=251de0dc-299e-4a18-abf1-eec4ea9c23e2"},"vehicle_type_id":"4","last_reported":1702807638,"current_range_meters":30400,"station_id":"ce4bhp92rcd13ifvqhag","pricing_plan_id":"free"},{"bike_id":"a3776f53-cea4-49f3-8100-19e61a426b19","system_id":"levelo_inurba_marseille","lat":43.310785,"lon":5.424305,"is_reserved":false,"is_disabled":false,"rental_uris":{"android":"levelo://app?vid=a3776f53-cea4-49f3-8100-19e61a426b19","ios":"levelo://app?vid=a3776f53-cea4-49f3-8100-19e61a426b19"},"vehicle_type_id":"4","last_reported":1702807638,"current_range_meters":18000,"station_id":"ce4bhp92rcd13ifvqhag","pricing_plan_id":"free"},{"bike_id":"6cafcd50-5756-4ad3-b29b-b85e323da656","system_id":"levelo_inurba_marseille","lat":43.310785,"lon":5.424305,"is_reserved":false,"is_disabled":false,"rental_uris":{"android":"levelo://app?vid=6cafcd50-5756-4ad3-b29b-b85e323da656","ios":"levelo://app?vid=6cafcd50-5756-4ad3-b29b-b85e323da656"},"vehicle_type_id":"4","last_reported":1702807638,"current_range_meters":25200,"station_id":"ce4bhp92rcd13ifvqhag","pricing_plan_id":"free"},{"bike_id":"f97f3ae3-0746-4a73-8a97-072f8aa9cb10","system_id":"levelo_inurba_marseille","lat":43.310785,"lon":5.424305,"is_reserved":false,"is_disabled":false,"rental_uris":{"android":"levelo://app?vid=f97f3ae3-0746-4a73-8a97-072f8aa9cb10","ios":"levelo://app?vid=f97f3ae3-0746-4a73-8a97-072f8aa9cb10"},"vehicle_type_id":"4","last_reported":1702807638,"current_range_meters":31200,"station_id":"ce4bhp92rcd13ifvqhag","pricing_plan_id":"free"},{"bike_id":"16aab86d-d31d-4a4a-8644-d8799245d8e9","system_id":"levelo_inurba_marseille","lat":43.310785,"lon":5.424305,"is_reserved":false,"is_disabled":false,"rental_uris":{"android":"levelo://app?vid=16aab86d-d31d-4a4a-8644-d8799245d8e9","ios":"levelo://app?vid=16aab86d-d31d-4a4a-8644-d8799245d8e9"},"vehicle_type_id":"4","last_reported":1702807638,"current_range_meters":29600,"station_id":"ce4bhp92rcd13ifvqhag","pricing_plan_id":"free"},{"bike_id":"43844db9-0392-4da0-9a6e-40bbf1d336e6","system_id":"levelo_inurba_marseille","lat":43.340804,"lon":5.410219,"is_reserved":false,"is_disabled":false,"rental_uris":{"android":"levelo://app?vid=43844db9-0392-4da0-9a6e-40bbf1d336e6","ios":"levelo://app?vid=43844db9-0392-4da0-9a6e-40bbf1d336e6"},"vehicle_type_id":"4","last_reported":1702807638,"current_range_meters":29200,"station_id":"ce4bhqh2rcd13ifvqhlg","pricing_plan_id":"free"},{"bike_id":"cb8657c1-f91a-4cfd-a573-28533970bdba","system_id":"levelo_inurba_marseille","lat":43.340804,"lon":5.410219,"is_reserved":false,"is_disabled":false,"rental_uris":{"android":"levelo://app?vid=cb8657c1-f91a-4cfd-a573-28533970bdba","ios":"levelo://app?vid=cb8657c1-f91a-4cfd-a573-28533970bdba"},"vehicle_type_id":"4","last_reported":1702807638,"current_range_meters":28000,"station_id":"ce4bhqh2rcd13ifvqhlg","pricing_plan_id":"free"},{"bike_id":"3ca2c2d2-99b0-4aa6-a05d-e30f02e6a7fb","system_id":"levelo_inurba_marseille","lat":43.276092,"lon":5.395289,"is_reserved":false,"is_disabled":false,"rental_uris":{"android":"levelo://app?vid=3ca2c2d2-99b0-4aa6-a05d-e30f02e6a7fb","ios":"levelo://app?vid=3ca2c2d2-99b0-4aa6-a05d-e30f02e6a7fb"},"vehicle_type_id":"4","last_reported":1702807638,"current_range_meters":19200,"station_id":"","pricing_plan_id":"free"},{"bike_id":"3c9d8e8b-028c-4df8-8752-bf641c0347de","system_id":"levelo_inurba_marseille","lat":43.273125,"lon":5.390731,"is_reserved":false,"is_disabled":false,"rental_uris":{"android":"levelo://app?vid=3c9d8e8b-028c-4df8-8752-bf641c0347de","ios":"levelo://app?vid=3c9d8e8b-028c-4df8-8752-bf641c0347de"},"vehicle_type_id":"4","last_reported":1702807638,"current_range_meters":23600,"station_id":"ce4bhgp2rcd13ifvqfe0","pricing_plan_id":"free"},{"bike_id":"e6ec9af3-0d1f-4d24-8ddf-f17b8db61ea7","system_id":"levelo_inurba_marseille","lat":43.273125,"lon":5.390731,"is_reserved":false,"is_disabled":false,"rental_uris":{"android":"levelo://app?vid=e6ec9af3-0d1f-4d24-8ddf-f17b8db61ea7","ios":"levelo://app?vid=e6ec9af3-0d1f-4d24-8ddf-f17b8db61ea7"},"vehicle_type_id":"4","last_reported":1702807638,"current_range_meters":30800,"station_id":"ce4bhgp2rcd13ifvqfe0","pricing_plan_id":"free"},{"bike_id":"25f4d2f7-e7f7-4a99-b612-420976ff507b","system_id":"levelo_inurba_marseille","lat":43.273129,"lon":5.390725,"is_reserved":false,"is_disabled":false,"rental_uris":{"android":"levelo://app?vid=25f4d2f7-e7f7-4a99-b612-420976ff507b","ios":"levelo://app?vid=25f4d2f7-e7f7-4a99-b612-420976ff507b"},"vehicle_type_id":"4","last_reported":1702807638,"current_range_meters":5200,"station_id":"ce4bhgp2rcd13ifvqfe0","pricing_plan_id":"free"},{"bike_id":"0c71dc40-c452-4d48-8d92-74835b5ca020","system_id":"levelo_inurba_marseille","lat":43.273129,"lon":5.390725,"is_reserved":false,"is_disabled":false,"rental_uris":{"android":"levelo://app?vid=0c71dc40-c452-4d48-8d92-74835b5ca020","ios":"levelo://app?vid=0c71dc40-c452-4d48-8d92-74835b5ca020"},"vehicle_type_id":"4","last_reported":1702807638,"current_range_meters":9200,"station_id":"ce4bhgp2rcd13ifvqfe0","pricing_plan_id":"free"},{"bike_id":"40849b3b-99ce-4242-a2ef-f40b90d48e14","system_id":"levelo_inurba_marseille","lat":43.274099,"lon":5.394019,"is_reserved":false,"is_disabled":false,"rental_uris":{"android":"levelo://app?vid=40849b3b-99ce-4242-a2ef-f40b90d48e14","ios":"levelo://app?vid=40849b3b-99ce-4242-a2ef-f40b90d48e14"},"vehicle_type_id":"4","last_reported":1702807638,"current_range_meters":25600,"station_id":"ce4bhdp2rcd13ifvqf20","pricing_plan_id":"free"},{"bike_id":"826939a9-21e4-4a40-8aaf-a253527a8bfa","system_id":"levelo_inurba_marseille","lat":43.304088,"lon":5.425388,"is_reserved":false,"is_disabled":false,"rental_uris":{"android":"levelo://app?vid=826939a9-21e4-4a40-8aaf-a253527a8bfa","ios":"levelo://app?vid=826939a9-21e4-4a40-8aaf-a253527a8bfa"},"vehicle_type_id":"4","last_reported":1702807638,"current_range_meters":4000,"station_id":"ce4bhoh2rcd13ifvqh6g","pricing_plan_id":"free"},{"bike_id":"36e61037-18ce-44e4-b958-749542a5820e","system_id":"levelo_inurba_marseille","lat":43.272124,"lon":5.391768,"is_reserved":false,"is_disabled":false,"rental_uris":{"android":"levelo://app?vid=36e61037-18ce-44e4-b958-749542a5820e","ios":"levelo://app?vid=36e61037-18ce-44e4-b958-749542a5820e"},"vehicle_type_id":"4","last_reported":1702807638,"current_range_meters":25200,"station_id":"ce4bhhp2rcd13ifvqfm0","pricing_plan_id":"free"},{"bike_id":"b8ae7222-b30a-4070-81e3-2140819a7374","system_id":"levelo_inurba_marseille","lat":43.272116,"lon":5.391763,"is_reserved":false,"is_disabled":false,"rental_uris":{"android":"levelo://app?vid=b8ae7222-b30a-4070-81e3-2140819a7374","ios":"levelo://app?vid=b8ae7222-b30a-4070-81e3-2140819a7374"},"vehicle_type_id":"4","last_reported":1702807638,"current_range_meters":13600,"station_id":"ce4bhhp2rcd13ifvqfm0","pricing_plan_id":"free"},{"bike_id":"6fa8d114-da1f-4c1a-a70f-7ac5844b987d","system_id":"levelo_inurba_marseille","lat":43.272118,"lon":5.391758,"is_reserved":false,"is_disabled":false,"rental_uris":{"android":"levelo://app?vid=6fa8d114-da1f-4c1a-a70f-7ac5844b987d","ios":"levelo://app?vid=6fa8d114-da1f-4c1a-a70f-7ac5844b987d"},"vehicle_type_id":"4","last_reported":1702807638,"current_range_meters":12400,"station_id":"ce4bhhp2rcd13ifvqfm0","pricing_plan_id":"free"},{"bike_id":"ccec9b1c-3406-4973-ab95-26838313c0df","system_id":"levelo_inurba_marseille","lat":43.272118,"lon":5.391758,"is_reserved":false,"is_disabled":false,"rental_uris":{"android":"levelo://app?vid=ccec9b1c-3406-4973-ab95-26838313c0df","ios":"levelo://app?vid=ccec9b1c-3406-4973-ab95-26838313c0df"},"vehicle_type_id":"4","last_reported":1702807638,"current_range_meters":28400,"station_id":"ce4bhhp2rcd13ifvqfm0","pricing_plan_id":"free"},{"bike_id":"7c5e5a9a-9f39-4a14-9573-d5b8ab599dd5","system_id":"levelo_inurba_marseille","lat":43.27188,"lon":5.39224,"is_reserved":false,"is_disabled":false,"rental_uris":{"android":"levelo://app?vid=7c5e5a9a-9f39-4a14-9573-d5b8ab599dd5","ios":"levelo://app?vid=7c5e5a9a-9f39-4a14-9573-d5b8ab599dd5"},"vehicle_type_id":"4","last_reported":1702807638,"current_range_meters":18400,"station_id":"ce4bhhp2rcd13ifvqfm0","pricing_plan_id":"free"},{"bike_id":"a104c8c0-58c6-4c57-a3c8-58aad7e1b7d0","system_id":"levelo_inurba_marseille","lat":43.269467,"lon":5.386439,"is_reserved":false,"is_disabled":false,"rental_uris":{"android":"levelo://app?vid=a104c8c0-58c6-4c57-a3c8-58aad7e1b7d0","ios":"levelo://app?vid=a104c8c0-58c6-4c57-a3c8-58aad7e1b7d0"},"vehicle_type_id":"4","last_reported":1702807638,"current_range_meters":24400,"station_id":"ce4bhh92rcd13ifvqfh0","pricing_plan_id":"free"},{"bike_id":"3e5a97a0-3ac1-434f-8196-b193e573d443","system_id":"levelo_inurba_marseille","lat":43.269467,"lon":5.386439,"is_reserved":false,"is_disabled":false,"rental_uris":{"android":"levelo://app?vid=3e5a97a0-3ac1-434f-8196-b193e573d443","ios":"levelo://app?vid=3e5a97a0-3ac1-434f-8196-b193e573d443"},"vehicle_type_id":"4","last_reported":1702807638,"current_range_meters":28400,"station_id":"ce4bhh92rcd13ifvqfh0","pricing_plan_id":"free"},{"bike_id":"c0d4131f-8d8d-4750-bf09-aa224f883954","system_id":"levelo_inurba_marseille","lat":43.27948,"lon":5.41045,"is_reserved":false,"is_disabled":false,"rental_uris":{"android":"levelo://app?vid=c0d4131f-8d8d-4750-bf09-aa224f883954","ios":"levelo://app?vid=c0d4131f-8d8d-4750-bf09-aa224f883954"},"vehicle_type_id":"4","last_reported":1702807638,"current_range_meters":0,"station_id":"ce4bhnp2rcd13ifvqh0g","pricing_plan_id":"free"},{"bike_id":"1ad7abe3-bc25-4744-bfb3-235d518512b2","system_id":"levelo_inurba_marseille","lat":43.27946,"lon":5.4105,"is_reserved":false,"is_disabled":false,"rental_uris":{"android":"levelo://app?vid=1ad7abe3-bc25-4744-bfb3-235d518512b2","ios":"levelo://app?vid=1ad7abe3-bc25-4744-bfb3-235d518512b2"},"vehicle_type_id":"4","last_reported":1702807638,"current_range_meters":5200,"station_id":"ce4bhnp2rcd13ifvqh0g","pricing_plan_id":"free"},{"bike_id":"db774753-4382-453e-a138-c32d538f9839","system_id":"levelo_inurba_marseille","lat":43.358672,"lon":5.356739,"is_reserved":false,"is_disabled":false,"rental_uris":{"android":"levelo://app?vid=db774753-4382-453e-a138-c32d538f9839","ios":"levelo://app?vid=db774753-4382-453e-a138-c32d538f9839"},"vehicle_type_id":"4","last_reported":1702807638,"current_range_meters":11200,"station_id":"","pricing_plan_id":"free"},{"bike_id":"22a06de4-5066-4c36-b94f-1589b81b3263","system_id":"levelo_inurba_marseille","lat":43.26686,"lon":5.38267,"is_reserved":false,"is_disabled":false,"rental_uris":{"android":"levelo://app?vid=22a06de4-5066-4c36-b94f-1589b81b3263","ios":"levelo://app?vid=22a06de4-5066-4c36-b94f-1589b81b3263"},"vehicle_type_id":"4","last_reported":1702807638,"current_range_meters":28000,"station_id":"ce4bhg92rcd13ifvqf90","pricing_plan_id":"free"},{"bike_id":"86685e4e-c788-4234-9d9c-70773ada68ba","system_id":"levelo_inurba_marseille","lat":43.26557,"lon":5.37285,"is_reserved":false,"is_disabled":false,"rental_uris":{"android":"levelo://app?vid=86685e4e-c788-4234-9d9c-70773ada68ba","ios":"levelo://app?vid=86685e4e-c788-4234-9d9c-70773ada68ba"},"vehicle_type_id":"4","last_reported":1702807638,"current_range_meters":23200,"station_id":"ce4bhg12rcd13ifvqf70","pricing_plan_id":"free"},{"bike_id":"3ec397f0-b8da-4e84-be43-f4abb20ebecf","system_id":"levelo_inurba_marseille","lat":43.27664,"lon":5.41177,"is_reserved":false,"is_disabled":false,"rental_uris":{"android":"levelo://app?vid=3ec397f0-b8da-4e84-be43-f4abb20ebecf","ios":"levelo://app?vid=3ec397f0-b8da-4e84-be43-f4abb20ebecf"},"vehicle_type_id":"4","last_reported":1702807638,"current_range_meters":28000,"station_id":"","pricing_plan_id":"free"},{"bike_id":"8a74afc9-c8ee-428c-95f4-83fc1e519239","system_id":"levelo_inurba_marseille","lat":43.280003,"lon":5.416648,"is_reserved":false,"is_disabled":false,"rental_uris":{"android":"levelo://app?vid=8a74afc9-c8ee-428c-95f4-83fc1e519239","ios":"levelo://app?vid=8a74afc9-c8ee-428c-95f4-83fc1e519239"},"vehicle_type_id":"4","last_reported":1702807638,"current_range_meters":0,"station_id":"ce4bho12rcd13ifvqh1g","pricing_plan_id":"free"},{"bike_id":"a9d6c772-6107-4b1c-aca7-c146eb2ab9be","system_id":"levelo_inurba_marseille","lat":43.267966,"lon":5.393976,"is_reserved":false,"is_disabled":false,"rental_uris":{"android":"levelo://app?vid=a9d6c772-6107-4b1c-aca7-c146eb2ab9be","ios":"levelo://app?vid=a9d6c772-6107-4b1c-aca7-c146eb2ab9be"},"vehicle_type_id":"4","last_reported":1702807638,"current_range_meters":31200,"station_id":"ce4bhh12rcd13ifvqfg0","pricing_plan_id":"free"},{"bike_id":"4e980ddc-7118-4eaa-995f-0c2f94f3a9c2","system_id":"levelo_inurba_marseille","lat":43.267966,"lon":5.393976,"is_reserved":false,"is_disabled":false,"rental_uris":{"android":"levelo://app?vid=4e980ddc-7118-4eaa-995f-0c2f94f3a9c2","ios":"levelo://app?vid=4e980ddc-7118-4eaa-995f-0c2f94f3a9c2"},"vehicle_type_id":"4","last_reported":1702807638,"current_range_meters":31200,"station_id":"ce4bhh12rcd13ifvqfg0","pricing_plan_id":"free"},{"bike_id":"2746844a-95dc-45fd-8935-6ea3c65c9d0a","system_id":"levelo_inurba_marseille","lat":43.267966,"lon":5.393976,"is_reserved":false,"is_disabled":false,"rental_uris":{"android":"levelo://app?vid=2746844a-95dc-45fd-8935-6ea3c65c9d0a","ios":"levelo://app?vid=2746844a-95dc-45fd-8935-6ea3c65c9d0a"},"vehicle_type_id":"4","last_reported":1702807638,"current_range_meters":29200,"station_id":"ce4bhh12rcd13ifvqfg0","pricing_plan_id":"free"},{"bike_id":"1947af37-ac15-4ced-9080-fe6d611d7cb7","system_id":"levelo_inurba_marseille","lat":43.286595,"lon":5.386795,"is_reserved":false,"is_disabled":false,"rental_uris":{"android":"levelo://app?vid=1947af37-ac15-4ced-9080-fe6d611d7cb7","ios":"levelo://app?vid=1947af37-ac15-4ced-9080-fe6d611d7cb7"},"vehicle_type_id":"4","last_reported":1702807638,"current_range_meters":25600,"station_id":"ce4bh492rcd13ifvqdug","pricing_plan_id":"free"},{"bike_id":"c4a6971f-a23d-4658-a9dc-f4dbd6cc7eab","system_id":"levelo_inurba_marseille","lat":43.26187,"lon":5.37437,"is_reserved":false,"is_disabled":false,"rental_uris":{"android":"levelo://app?vid=c4a6971f-a23d-4658-a9dc-f4dbd6cc7eab","ios":"levelo://app?vid=c4a6971f-a23d-4658-a9dc-f4dbd6cc7eab"},"vehicle_type_id":"4","last_reported":1702807638,"current_range_meters":20400,"station_id":"ce4bhgp2rcd13ifvqfc0","pricing_plan_id":"free"},{"bike_id":"48c1e2a6-058d-4a3d-a13d-0f741c6fd1fe","system_id":"levelo_inurba_marseille","lat":43.261782,"lon":5.374515,"is_reserved":false,"is_disabled":false,"rental_uris":{"android":"levelo://app?vid=48c1e2a6-058d-4a3d-a13d-0f741c6fd1fe","ios":"levelo://app?vid=48c1e2a6-058d-4a3d-a13d-0f741c6fd1fe"},"vehicle_type_id":"4","last_reported":1702807638,"current_range_meters":31200,"station_id":"ce4bhgp2rcd13ifvqfc0","pricing_plan_id":"free"},{"bike_id":"65e77bcc-99d8-43c5-ae10-151bafc43501","system_id":"levelo_inurba_marseille","lat":43.26187,"lon":5.37444,"is_reserved":false,"is_disabled":false,"rental_uris":{"android":"levelo://app?vid=65e77bcc-99d8-43c5-ae10-151bafc43501","ios":"levelo://app?vid=65e77bcc-99d8-43c5-ae10-151bafc43501"},"vehicle_type_id":"4","last_reported":1702807638,"current_range_meters":31200,"station_id":"ce4bhgp2rcd13ifvqfc0","pricing_plan_id":"free"},{"bike_id":"c2190701-ca78-4a61-ab0f-35e0e94c194f","system_id":"levelo_inurba_marseille","lat":43.317104,"lon":5.436818,"is_reserved":false,"is_disabled":false,"rental_uris":{"android":"levelo://app?vid=c2190701-ca78-4a61-ab0f-35e0e94c194f","ios":"levelo://app?vid=c2190701-ca78-4a61-ab0f-35e0e94c194f"},"vehicle_type_id":"4","last_reported":1702807638,"current_range_meters":29200,"station_id":"ce4bhp92rcd13ifvqhcg","pricing_plan_id":"free"},{"bike_id":"7743d713-d033-44f0-9919-d35e21ec4494","system_id":"levelo_inurba_marseille","lat":43.26502,"lon":5.39539,"is_reserved":false,"is_disabled":false,"rental_uris":{"android":"levelo://app?vid=7743d713-d033-44f0-9919-d35e21ec4494","ios":"levelo://app?vid=7743d713-d033-44f0-9919-d35e21ec4494"},"vehicle_type_id":"4","last_reported":1702807638,"current_range_meters":18000,"station_id":"","pricing_plan_id":"free"},{"bike_id":"4c30ab0b-cc54-4ba6-ae72-a8fb812c2d2c","system_id":"levelo_inurba_marseille","lat":43.265,"lon":5.39538,"is_reserved":false,"is_disabled":false,"rental_uris":{"android":"levelo://app?vid=4c30ab0b-cc54-4ba6-ae72-a8fb812c2d2c","ios":"levelo://app?vid=4c30ab0b-cc54-4ba6-ae72-a8fb812c2d2c"},"vehicle_type_id":"4","last_reported":1702807638,"current_range_meters":24400,"station_id":"","pricing_plan_id":"free"},{"bike_id":"b6518228-12c3-4225-894a-5f7dce8e8e5d","system_id":"levelo_inurba_marseille","lat":43.26497,"lon":5.39535,"is_reserved":false,"is_disabled":false,"rental_uris":{"android":"levelo://app?vid=b6518228-12c3-4225-894a-5f7dce8e8e5d","ios":"levelo://app?vid=b6518228-12c3-4225-894a-5f7dce8e8e5d"},"vehicle_type_id":"4","last_reported":1702807638,"current_range_meters":0,"station_id":"","pricing_plan_id":"free"},{"bike_id":"f2318a53-9471-42dc-8d4f-a7730a7a36c8","system_id":"levelo_inurba_marseille","lat":43.26499,"lon":5.395437,"is_reserved":false,"is_disabled":false,"rental_uris":{"android":"levelo://app?vid=f2318a53-9471-42dc-8d4f-a7730a7a36c8","ios":"levelo://app?vid=f2318a53-9471-42dc-8d4f-a7730a7a36c8"},"vehicle_type_id":"4","last_reported":1702807638,"current_range_meters":2800,"station_id":"","pricing_plan_id":"free"},{"bike_id":"1027c1c2-ba39-4720-b00d-2c56da016646","system_id":"levelo_inurba_marseille","lat":43.26496,"lon":5.39548,"is_reserved":false,"is_disabled":false,"rental_uris":{"android":"levelo://app?vid=1027c1c2-ba39-4720-b00d-2c56da016646","ios":"levelo://app?vid=1027c1c2-ba39-4720-b00d-2c56da016646"},"vehicle_type_id":"4","last_reported":1702807638,"current_range_meters":28400,"station_id":"","pricing_plan_id":"free"},{"bike_id":"1765264f-1e74-4ce5-841e-c97748fde2f9","system_id":"levelo_inurba_marseille","lat":43.26495,"lon":5.39555,"is_reserved":false,"is_disabled":false,"rental_uris":{"android":"levelo://app?vid=1765264f-1e74-4ce5-841e-c97748fde2f9","ios":"levelo://app?vid=1765264f-1e74-4ce5-841e-c97748fde2f9"},"vehicle_type_id":"4","last_reported":1702807638,"current_range_meters":23200,"station_id":"","pricing_plan_id":"free"},{"bike_id":"84d23a6b-18c6-4e12-abea-edef63349583","system_id":"levelo_inurba_marseille","lat":43.298768,"lon":5.43643,"is_reserved":false,"is_disabled":false,"rental_uris":{"android":"levelo://app?vid=84d23a6b-18c6-4e12-abea-edef63349583","ios":"levelo://app?vid=84d23a6b-18c6-4e12-abea-edef63349583"},"vehicle_type_id":"4","last_reported":1702807638,"current_range_meters":22400,"station_id":"ce4bhpp2rcd13ifvqhfg","pricing_plan_id":"free"},{"bike_id":"d084d587-4b27-4e47-8734-14f6d302ab83","system_id":"levelo_inurba_marseille","lat":43.298768,"lon":5.43643,"is_reserved":false,"is_disabled":false,"rental_uris":{"android":"levelo://app?vid=d084d587-4b27-4e47-8734-14f6d302ab83","ios":"levelo://app?vid=d084d587-4b27-4e47-8734-14f6d302ab83"},"vehicle_type_id":"4","last_reported":1702807638,"current_range_meters":31200,"station_id":"ce4bhpp2rcd13ifvqhfg","pricing_plan_id":"free"},{"bike_id":"56d120e9-7f5f-4477-97bf-8dfa3b542850","system_id":"levelo_inurba_marseille","lat":43.281548,"lon":5.42643,"is_reserved":false,"is_disabled":false,"rental_uris":{"android":"levelo://app?vid=56d120e9-7f5f-4477-97bf-8dfa3b542850","ios":"levelo://app?vid=56d120e9-7f5f-4477-97bf-8dfa3b542850"},"vehicle_type_id":"4","last_reported":1702807638,"current_range_meters":20800,"station_id":"ce4bhnh2rcd13ifvqgug","pricing_plan_id":"free"},{"bike_id":"1d3dc963-dada-4257-8490-86427255d67c","system_id":"levelo_inurba_marseille","lat":43.281548,"lon":5.42643,"is_reserved":false,"is_disabled":false,"rental_uris":{"android":"levelo://app?vid=1d3dc963-dada-4257-8490-86427255d67c","ios":"levelo://app?vid=1d3dc963-dada-4257-8490-86427255d67c"},"vehicle_type_id":"4","last_reported":1702807638,"current_range_meters":25600,"station_id":"ce4bhnh2rcd13ifvqgug","pricing_plan_id":"free"},{"bike_id":"cb1dcb41-80e1-4183-a32a-eec2f4e17970","system_id":"levelo_inurba_marseille","lat":43.281548,"lon":5.42643,"is_reserved":false,"is_disabled":false,"rental_uris":{"android":"levelo://app?vid=cb1dcb41-80e1-4183-a32a-eec2f4e17970","ios":"levelo://app?vid=cb1dcb41-80e1-4183-a32a-eec2f4e17970"},"vehicle_type_id":"4","last_reported":1702807638,"current_range_meters":17600,"station_id":"ce4bhnh2rcd13ifvqgug","pricing_plan_id":"free"},{"bike_id":"22afafb4-509d-4c4f-87d3-f4844f631844","system_id":"levelo_inurba_marseille","lat":43.281548,"lon":5.42643,"is_reserved":false,"is_disabled":false,"rental_uris":{"android":"levelo://app?vid=22afafb4-509d-4c4f-87d3-f4844f631844","ios":"levelo://app?vid=22afafb4-509d-4c4f-87d3-f4844f631844"},"vehicle_type_id":"4","last_reported":1702807638,"current_range_meters":26400,"station_id":"ce4bhnh2rcd13ifvqgug","pricing_plan_id":"free"},{"bike_id":"71252ba5-5619-4f36-b490-0c5903f0700e","system_id":"levelo_inurba_marseille","lat":43.281548,"lon":5.42643,"is_reserved":false,"is_disabled":false,"rental_uris":{"android":"levelo://app?vid=71252ba5-5619-4f36-b490-0c5903f0700e","ios":"levelo://app?vid=71252ba5-5619-4f36-b490-0c5903f0700e"},"vehicle_type_id":"4","last_reported":1702807638,"current_range_meters":3600,"station_id":"ce4bhnh2rcd13ifvqgug","pricing_plan_id":"free"},{"bike_id":"0fbb9982-628a-458e-8599-3a52f552df95","system_id":"levelo_inurba_marseille","lat":43.281548,"lon":5.42643,"is_reserved":false,"is_disabled":false,"rental_uris":{"android":"levelo://app?vid=0fbb9982-628a-458e-8599-3a52f552df95","ios":"levelo://app?vid=0fbb9982-628a-458e-8599-3a52f552df95"},"vehicle_type_id":"4","last_reported":1702807638,"current_range_meters":28800,"station_id":"ce4bhnh2rcd13ifvqgug","pricing_plan_id":"free"},{"bike_id":"4dd764f6-774c-4512-8b0e-1beb34d8f863","system_id":"levelo_inurba_marseille","lat":43.281548,"lon":5.42643,"is_reserved":false,"is_disabled":false,"rental_uris":{"android":"levelo://app?vid=4dd764f6-774c-4512-8b0e-1beb34d8f863","ios":"levelo://app?vid=4dd764f6-774c-4512-8b0e-1beb34d8f863"},"vehicle_type_id":"4","last_reported":1702807638,"current_range_meters":30800,"station_id":"ce4bhnh2rcd13ifvqgug","pricing_plan_id":"free"},{"bike_id":"d179c498-6590-4265-ba74-db4d632b80df","system_id":"levelo_inurba_marseille","lat":43.281548,"lon":5.42643,"is_reserved":false,"is_disabled":false,"rental_uris":{"android":"levelo://app?vid=d179c498-6590-4265-ba74-db4d632b80df","ios":"levelo://app?vid=d179c498-6590-4265-ba74-db4d632b80df"},"vehicle_type_id":"4","last_reported":1702807638,"current_range_meters":31600,"station_id":"ce4bhnh2rcd13ifvqgug","pricing_plan_id":"free"},{"bike_id":"c15ae3b7-8e97-4a88-a9b4-a63f88042490","system_id":"levelo_inurba_marseille","lat":43.281548,"lon":5.42643,"is_reserved":false,"is_disabled":false,"rental_uris":{"android":"levelo://app?vid=c15ae3b7-8e97-4a88-a9b4-a63f88042490","ios":"levelo://app?vid=c15ae3b7-8e97-4a88-a9b4-a63f88042490"},"vehicle_type_id":"4","last_reported":1702807638,"current_range_meters":2000,"station_id":"ce4bhnh2rcd13ifvqgug","pricing_plan_id":"free"},{"bike_id":"e67adb0b-4217-4b03-8657-2f9486792d7e","system_id":"levelo_inurba_marseille","lat":43.2607,"lon":5.393983,"is_reserved":false,"is_disabled":false,"rental_uris":{"android":"levelo://app?vid=e67adb0b-4217-4b03-8657-2f9486792d7e","ios":"levelo://app?vid=e67adb0b-4217-4b03-8657-2f9486792d7e"},"vehicle_type_id":"4","last_reported":1702807638,"current_range_meters":29600,"station_id":"ce4bhh92rcd13ifvqfj0","pricing_plan_id":"free"},{"bike_id":"f6c9ec28-1c6e-466f-b884-a4af31134955","system_id":"levelo_inurba_marseille","lat":43.2607,"lon":5.393983,"is_reserved":false,"is_disabled":false,"rental_uris":{"android":"levelo://app?vid=f6c9ec28-1c6e-466f-b884-a4af31134955","ios":"levelo://app?vid=f6c9ec28-1c6e-466f-b884-a4af31134955"},"vehicle_type_id":"4","last_reported":1702807638,"current_range_meters":29600,"station_id":"ce4bhh92rcd13ifvqfj0","pricing_plan_id":"free"},{"bike_id":"86e8efcc-9a9d-4657-8fc4-7b76fe514acc","system_id":"levelo_inurba_marseille","lat":43.275028,"lon":5.424534,"is_reserved":false,"is_disabled":false,"rental_uris":{"android":"levelo://app?vid=86e8efcc-9a9d-4657-8fc4-7b76fe514acc","ios":"levelo://app?vid=86e8efcc-9a9d-4657-8fc4-7b76fe514acc"},"vehicle_type_id":"4","last_reported":1702807638,"current_range_meters":10800,"station_id":"ce4bhn92rcd13ifvqgrg","pricing_plan_id":"free"},{"bike_id":"41bc15f8-3b1d-4ccf-944e-034bbcc08f91","system_id":"levelo_inurba_marseille","lat":43.275028,"lon":5.424534,"is_reserved":false,"is_disabled":false,"rental_uris":{"android":"levelo://app?vid=41bc15f8-3b1d-4ccf-944e-034bbcc08f91","ios":"levelo://app?vid=41bc15f8-3b1d-4ccf-944e-034bbcc08f91"},"vehicle_type_id":"4","last_reported":1702807638,"current_range_meters":30000,"station_id":"ce4bhn92rcd13ifvqgrg","pricing_plan_id":"free"},{"bike_id":"26edb7e5-1cc5-434c-a417-271b88181037","system_id":"levelo_inurba_marseille","lat":43.275028,"lon":5.424534,"is_reserved":false,"is_disabled":false,"rental_uris":{"android":"levelo://app?vid=26edb7e5-1cc5-434c-a417-271b88181037","ios":"levelo://app?vid=26edb7e5-1cc5-434c-a417-271b88181037"},"vehicle_type_id":"4","last_reported":1702807638,"current_range_meters":28000,"station_id":"ce4bhn92rcd13ifvqgrg","pricing_plan_id":"free"},{"bike_id":"b6836b5c-bf87-43d1-afcb-477e491235ab","system_id":"levelo_inurba_marseille","lat":43.260875,"lon":5.39765,"is_reserved":false,"is_disabled":false,"rental_uris":{"android":"levelo://app?vid=b6836b5c-bf87-43d1-afcb-477e491235ab","ios":"levelo://app?vid=b6836b5c-bf87-43d1-afcb-477e491235ab"},"vehicle_type_id":"4","last_reported":1702807638,"current_range_meters":1600,"station_id":"","pricing_plan_id":"free"},{"bike_id":"cb4aa066-0acd-450f-a854-69855bd4d7ee","system_id":"levelo_inurba_marseille","lat":43.25828,"lon":5.39431,"is_reserved":false,"is_disabled":false,"rental_uris":{"android":"levelo://app?vid=cb4aa066-0acd-450f-a854-69855bd4d7ee","ios":"levelo://app?vid=cb4aa066-0acd-450f-a854-69855bd4d7ee"},"vehicle_type_id":"4","last_reported":1702807638,"current_range_meters":25600,"station_id":"ce4bhip2rcd13ifvqft0","pricing_plan_id":"free"},{"bike_id":"62de9976-dd34-404c-96bc-3d17794f52cd","system_id":"levelo_inurba_marseille","lat":43.25583,"lon":5.38227,"is_reserved":false,"is_disabled":false,"rental_uris":{"android":"levelo://app?vid=62de9976-dd34-404c-96bc-3d17794f52cd","ios":"levelo://app?vid=62de9976-dd34-404c-96bc-3d17794f52cd"},"vehicle_type_id":"4","last_reported":1702807638,"current_range_meters":30000,"station_id":"ce4bhih2rcd13ifvqfs0","pricing_plan_id":"free"},{"bike_id":"77ac79d5-c24d-4edd-95f5-261a49d22ea1","system_id":"levelo_inurba_marseille","lat":43.25583,"lon":5.38233,"is_reserved":false,"is_disabled":false,"rental_uris":{"android":"levelo://app?vid=77ac79d5-c24d-4edd-95f5-261a49d22ea1","ios":"levelo://app?vid=77ac79d5-c24d-4edd-95f5-261a49d22ea1"},"vehicle_type_id":"4","last_reported":1702807638,"current_range_meters":12800,"station_id":"ce4bhih2rcd13ifvqfs0","pricing_plan_id":"free"},{"bike_id":"2acb0db4-d2b7-4f74-a872-0c2246105d42","system_id":"levelo_inurba_marseille","lat":43.25828,"lon":5.39438,"is_reserved":false,"is_disabled":false,"rental_uris":{"android":"levelo://app?vid=2acb0db4-d2b7-4f74-a872-0c2246105d42","ios":"levelo://app?vid=2acb0db4-d2b7-4f74-a872-0c2246105d42"},"vehicle_type_id":"4","last_reported":1702807638,"current_range_meters":22000,"station_id":"ce4bhip2rcd13ifvqft0","pricing_plan_id":"free"},{"bike_id":"e868ad5a-8607-4e58-8bbe-8e6759ac085a","system_id":"levelo_inurba_marseille","lat":43.25579,"lon":5.38226,"is_reserved":false,"is_disabled":false,"rental_uris":{"android":"levelo://app?vid=e868ad5a-8607-4e58-8bbe-8e6759ac085a","ios":"levelo://app?vid=e868ad5a-8607-4e58-8bbe-8e6759ac085a"},"vehicle_type_id":"4","last_reported":1702807638,"current_range_meters":24800,"station_id":"ce4bhih2rcd13ifvqfs0","pricing_plan_id":"free"},{"bike_id":"73642b6a-15ef-4544-8c7c-ec9b51c6f4e1","system_id":"levelo_inurba_marseille","lat":43.25578,"lon":5.38226,"is_reserved":false,"is_disabled":false,"rental_uris":{"android":"levelo://app?vid=73642b6a-15ef-4544-8c7c-ec9b51c6f4e1","ios":"levelo://app?vid=73642b6a-15ef-4544-8c7c-ec9b51c6f4e1"},"vehicle_type_id":"4","last_reported":1702807638,"current_range_meters":28000,"station_id":"ce4bhih2rcd13ifvqfs0","pricing_plan_id":"free"},{"bike_id":"fa92de3d-5026-4d12-a072-d2de0d99176f","system_id":"levelo_inurba_marseille","lat":43.25578,"lon":5.3823,"is_reserved":false,"is_disabled":false,"rental_uris":{"android":"levelo://app?vid=fa92de3d-5026-4d12-a072-d2de0d99176f","ios":"levelo://app?vid=fa92de3d-5026-4d12-a072-d2de0d99176f"},"vehicle_type_id":"4","last_reported":1702807638,"current_range_meters":18000,"station_id":"ce4bhih2rcd13ifvqfs0","pricing_plan_id":"free"},{"bike_id":"4a14eb90-0bcc-46d5-a7ef-68f7a4f98435","system_id":"levelo_inurba_marseille","lat":43.25576,"lon":5.38235,"is_reserved":false,"is_disabled":false,"rental_uris":{"android":"levelo://app?vid=4a14eb90-0bcc-46d5-a7ef-68f7a4f98435","ios":"levelo://app?vid=4a14eb90-0bcc-46d5-a7ef-68f7a4f98435"},"vehicle_type_id":"4","last_reported":1702807638,"current_range_meters":30000,"station_id":"ce4bhih2rcd13ifvqfs0","pricing_plan_id":"free"},{"bike_id":"7a582b40-2371-4bb6-b6c9-3eebc8b67da8","system_id":"levelo_inurba_marseille","lat":43.25499,"lon":5.37649,"is_reserved":false,"is_disabled":false,"rental_uris":{"android":"levelo://app?vid=7a582b40-2371-4bb6-b6c9-3eebc8b67da8","ios":"levelo://app?vid=7a582b40-2371-4bb6-b6c9-3eebc8b67da8"},"vehicle_type_id":"4","last_reported":1702807638,"current_range_meters":15600,"station_id":"ce4bhh12rcd13ifvqff0","pricing_plan_id":"free"},{"bike_id":"ca09182d-f85e-490e-8b5c-94486064e272","system_id":"levelo_inurba_marseille","lat":43.254947,"lon":5.376454,"is_reserved":false,"is_disabled":false,"rental_uris":{"android":"levelo://app?vid=ca09182d-f85e-490e-8b5c-94486064e272","ios":"levelo://app?vid=ca09182d-f85e-490e-8b5c-94486064e272"},"vehicle_type_id":"4","last_reported":1702807638,"current_range_meters":27600,"station_id":"ce4bhh12rcd13ifvqff0","pricing_plan_id":"free"},{"bike_id":"e650bb41-64fd-4d3c-b646-23c994a756b9","system_id":"levelo_inurba_marseille","lat":43.25497,"lon":5.37648,"is_reserved":false,"is_disabled":false,"rental_uris":{"android":"levelo://app?vid=e650bb41-64fd-4d3c-b646-23c994a756b9","ios":"levelo://app?vid=e650bb41-64fd-4d3c-b646-23c994a756b9"},"vehicle_type_id":"4","last_reported":1702807638,"current_range_meters":22400,"station_id":"ce4bhh12rcd13ifvqff0","pricing_plan_id":"free"},{"bike_id":"cd7237e2-5c04-4af1-b2c3-bb908fd64e5d","system_id":"levelo_inurba_marseille","lat":43.25497,"lon":5.37649,"is_reserved":false,"is_disabled":false,"rental_uris":{"android":"levelo://app?vid=cd7237e2-5c04-4af1-b2c3-bb908fd64e5d","ios":"levelo://app?vid=cd7237e2-5c04-4af1-b2c3-bb908fd64e5d"},"vehicle_type_id":"4","last_reported":1702807638,"current_range_meters":16000,"station_id":"ce4bhh12rcd13ifvqff0","pricing_plan_id":"free"},{"bike_id":"b7b9f492-0af9-46ff-8b31-3a7906180874","system_id":"levelo_inurba_marseille","lat":43.25497,"lon":5.37649,"is_reserved":false,"is_disabled":false,"rental_uris":{"android":"levelo://app?vid=b7b9f492-0af9-46ff-8b31-3a7906180874","ios":"levelo://app?vid=b7b9f492-0af9-46ff-8b31-3a7906180874"},"vehicle_type_id":"4","last_reported":1702807638,"current_range_meters":0,"station_id":"ce4bhh12rcd13ifvqff0","pricing_plan_id":"free"},{"bike_id":"1ace9c64-be15-4225-91cc-d1d5e2234176","system_id":"levelo_inurba_marseille","lat":43.254947,"lon":5.376454,"is_reserved":false,"is_disabled":false,"rental_uris":{"android":"levelo://app?vid=1ace9c64-be15-4225-91cc-d1d5e2234176","ios":"levelo://app?vid=1ace9c64-be15-4225-91cc-d1d5e2234176"},"vehicle_type_id":"4","last_reported":1702807638,"current_range_meters":29600,"station_id":"ce4bhh12rcd13ifvqff0","pricing_plan_id":"free"},{"bike_id":"afbd7ab2-095b-4084-b983-42214e614bfd","system_id":"levelo_inurba_marseille","lat":43.254947,"lon":5.376454,"is_reserved":false,"is_disabled":false,"rental_uris":{"android":"levelo://app?vid=afbd7ab2-095b-4084-b983-42214e614bfd","ios":"levelo://app?vid=afbd7ab2-095b-4084-b983-42214e614bfd"},"vehicle_type_id":"4","last_reported":1702807638,"current_range_meters":24400,"station_id":"ce4bhh12rcd13ifvqff0","pricing_plan_id":"free"},{"bike_id":"04827576-03c1-4517-8c81-dbcc995a56ae","system_id":"levelo_inurba_marseille","lat":43.254947,"lon":5.376454,"is_reserved":false,"is_disabled":false,"rental_uris":{"android":"levelo://app?vid=04827576-03c1-4517-8c81-dbcc995a56ae","ios":"levelo://app?vid=04827576-03c1-4517-8c81-dbcc995a56ae"},"vehicle_type_id":"4","last_reported":1702807638,"current_range_meters":17600,"station_id":"ce4bhh12rcd13ifvqff0","pricing_plan_id":"free"},{"bike_id":"f83245c3-07b1-4f84-9165-12bdbf48239a","system_id":"levelo_inurba_marseille","lat":43.254947,"lon":5.376454,"is_reserved":false,"is_disabled":false,"rental_uris":{"android":"levelo://app?vid=f83245c3-07b1-4f84-9165-12bdbf48239a","ios":"levelo://app?vid=f83245c3-07b1-4f84-9165-12bdbf48239a"},"vehicle_type_id":"4","last_reported":1702807638,"current_range_meters":24000,"station_id":"ce4bhh12rcd13ifvqff0","pricing_plan_id":"free"},{"bike_id":"befc33c1-9b9f-4539-875e-700db1616fcd","system_id":"levelo_inurba_marseille","lat":43.270721,"lon":5.422764,"is_reserved":false,"is_disabled":false,"rental_uris":{"android":"levelo://app?vid=befc33c1-9b9f-4539-875e-700db1616fcd","ios":"levelo://app?vid=befc33c1-9b9f-4539-875e-700db1616fcd"},"vehicle_type_id":"4","last_reported":1702807638,"current_range_meters":21200,"station_id":"ce4bhk92rcd13ifvqgb0","pricing_plan_id":"free"},{"bike_id":"a7c679f4-aee4-4156-a9a5-69e3da159837","system_id":"levelo_inurba_marseille","lat":43.25861,"lon":5.39908,"is_reserved":false,"is_disabled":false,"rental_uris":{"android":"levelo://app?vid=a7c679f4-aee4-4156-a9a5-69e3da159837","ios":"levelo://app?vid=a7c679f4-aee4-4156-a9a5-69e3da159837"},"vehicle_type_id":"4","last_reported":1702807638,"current_range_meters":24000,"station_id":"ce4bhl92rcd13ifvqghg","pricing_plan_id":"free"},{"bike_id":"c7226a43-d231-428e-8d45-d36ac12c06d7","system_id":"levelo_inurba_marseille","lat":43.25859,"lon":5.39909,"is_reserved":false,"is_disabled":false,"rental_uris":{"android":"levelo://app?vid=c7226a43-d231-428e-8d45-d36ac12c06d7","ios":"levelo://app?vid=c7226a43-d231-428e-8d45-d36ac12c06d7"},"vehicle_type_id":"4","last_reported":1702807638,"current_range_meters":10000,"station_id":"ce4bhl92rcd13ifvqghg","pricing_plan_id":"free"},{"bike_id":"e341de01-5fcc-4f5d-9a6e-add29695d1df","system_id":"levelo_inurba_marseille","lat":43.25932,"lon":5.40917,"is_reserved":false,"is_disabled":false,"rental_uris":{"android":"levelo://app?vid=e341de01-5fcc-4f5d-9a6e-add29695d1df","ios":"levelo://app?vid=e341de01-5fcc-4f5d-9a6e-add29695d1df"},"vehicle_type_id":"4","last_reported":1702807638,"current_range_meters":18400,"station_id":"ce4bhm92rcd13ifvqglg","pricing_plan_id":"free"},{"bike_id":"790f0c85-435e-464f-af9f-df0afa087a9d","system_id":"levelo_inurba_marseille","lat":43.25929,"lon":5.40911,"is_reserved":false,"is_disabled":false,"rental_uris":{"android":"levelo://app?vid=790f0c85-435e-464f-af9f-df0afa087a9d","ios":"levelo://app?vid=790f0c85-435e-464f-af9f-df0afa087a9d"},"vehicle_type_id":"4","last_reported":1702807638,"current_range_meters":31200,"station_id":"ce4bhm92rcd13ifvqglg","pricing_plan_id":"free"},{"bike_id":"486de631-4303-438d-8a28-45c67f8e2772","system_id":"levelo_inurba_marseille","lat":43.25932,"lon":5.40919,"is_reserved":false,"is_disabled":false,"rental_uris":{"android":"levelo://app?vid=486de631-4303-438d-8a28-45c67f8e2772","ios":"levelo://app?vid=486de631-4303-438d-8a28-45c67f8e2772"},"vehicle_type_id":"4","last_reported":1702807638,"current_range_meters":18400,"station_id":"ce4bhm92rcd13ifvqglg","pricing_plan_id":"free"},{"bike_id":"c42c8265-a87f-4db6-b8a4-696660579129","system_id":"levelo_inurba_marseille","lat":43.257079,"lon":5.411051,"is_reserved":false,"is_disabled":false,"rental_uris":{"android":"levelo://app?vid=c42c8265-a87f-4db6-b8a4-696660579129","ios":"levelo://app?vid=c42c8265-a87f-4db6-b8a4-696660579129"},"vehicle_type_id":"4","last_reported":1702807638,"current_range_meters":30000,"station_id":"ce4bhkp2rcd13ifvqgd0","pricing_plan_id":"free"},{"bike_id":"ec80f2ee-d212-4255-95b5-c8ee4797f8bd","system_id":"levelo_inurba_marseille","lat":43.25725,"lon":5.4111,"is_reserved":false,"is_disabled":false,"rental_uris":{"android":"levelo://app?vid=ec80f2ee-d212-4255-95b5-c8ee4797f8bd","ios":"levelo://app?vid=ec80f2ee-d212-4255-95b5-c8ee4797f8bd"},"vehicle_type_id":"4","last_reported":1702807638,"current_range_meters":0,"station_id":"ce4bhkp2rcd13ifvqgd0","pricing_plan_id":"free"},{"bike_id":"dbac8eb5-7413-45ec-a01e-6c334b0b69fa","system_id":"levelo_inurba_marseille","lat":43.250009,"lon":5.389195,"is_reserved":false,"is_disabled":false,"rental_uris":{"android":"levelo://app?vid=dbac8eb5-7413-45ec-a01e-6c334b0b69fa","ios":"levelo://app?vid=dbac8eb5-7413-45ec-a01e-6c334b0b69fa"},"vehicle_type_id":"4","last_reported":1702807638,"current_range_meters":20000,"station_id":"ce4bhgp2rcd13ifvqfd0","pricing_plan_id":"free"},{"bike_id":"639c2119-0628-4038-9bfc-0f2d42541bd5","system_id":"levelo_inurba_marseille","lat":43.2479,"lon":5.374457,"is_reserved":false,"is_disabled":false,"rental_uris":{"android":"levelo://app?vid=639c2119-0628-4038-9bfc-0f2d42541bd5","ios":"levelo://app?vid=639c2119-0628-4038-9bfc-0f2d42541bd5"},"vehicle_type_id":"4","last_reported":1702807638,"current_range_meters":24000,"station_id":"ce4bhgh2rcd13ifvqfb0","pricing_plan_id":"free"},{"bike_id":"068fd7d6-15a7-4d1a-aa2a-d4034349bc14","system_id":"levelo_inurba_marseille","lat":43.2479,"lon":5.374457,"is_reserved":false,"is_disabled":false,"rental_uris":{"android":"levelo://app?vid=068fd7d6-15a7-4d1a-aa2a-d4034349bc14","ios":"levelo://app?vid=068fd7d6-15a7-4d1a-aa2a-d4034349bc14"},"vehicle_type_id":"4","last_reported":1702807638,"current_range_meters":21200,"station_id":"ce4bhgh2rcd13ifvqfb0","pricing_plan_id":"free"},{"bike_id":"fdfe0c96-8a2f-42f4-a5d8-562e26184c4b","system_id":"levelo_inurba_marseille","lat":43.2479,"lon":5.374457,"is_reserved":false,"is_disabled":false,"rental_uris":{"android":"levelo://app?vid=fdfe0c96-8a2f-42f4-a5d8-562e26184c4b","ios":"levelo://app?vid=fdfe0c96-8a2f-42f4-a5d8-562e26184c4b"},"vehicle_type_id":"4","last_reported":1702807638,"current_range_meters":25600,"station_id":"ce4bhgh2rcd13ifvqfb0","pricing_plan_id":"free"},{"bike_id":"94831cca-2d72-4df5-a4c3-ec10f794d54a","system_id":"levelo_inurba_marseille","lat":43.25102,"lon":5.403214,"is_reserved":false,"is_disabled":false,"rental_uris":{"android":"levelo://app?vid=94831cca-2d72-4df5-a4c3-ec10f794d54a","ios":"levelo://app?vid=94831cca-2d72-4df5-a4c3-ec10f794d54a"},"vehicle_type_id":"4","last_reported":1702807638,"current_range_meters":30400,"station_id":"ce4bhlh2rcd13ifvqgig","pricing_plan_id":"free"},{"bike_id":"d9ba70e8-18ac-4761-9308-1a5971009a5f","system_id":"levelo_inurba_marseille","lat":43.25102,"lon":5.403214,"is_reserved":false,"is_disabled":false,"rental_uris":{"android":"levelo://app?vid=d9ba70e8-18ac-4761-9308-1a5971009a5f","ios":"levelo://app?vid=d9ba70e8-18ac-4761-9308-1a5971009a5f"},"vehicle_type_id":"4","last_reported":1702807638,"current_range_meters":30000,"station_id":"ce4bhlh2rcd13ifvqgig","pricing_plan_id":"free"},{"bike_id":"f8dfd7a2-00c4-4756-a467-83d8f6a87c99","system_id":"levelo_inurba_marseille","lat":43.25102,"lon":5.403214,"is_reserved":false,"is_disabled":false,"rental_uris":{"android":"levelo://app?vid=f8dfd7a2-00c4-4756-a467-83d8f6a87c99","ios":"levelo://app?vid=f8dfd7a2-00c4-4756-a467-83d8f6a87c99"},"vehicle_type_id":"4","last_reported":1702807638,"current_range_meters":25600,"station_id":"ce4bhlh2rcd13ifvqgig","pricing_plan_id":"free"},{"bike_id":"cda151f2-9ad2-46c9-9115-b73ba9a06619","system_id":"levelo_inurba_marseille","lat":43.252202,"lon":5.406411,"is_reserved":false,"is_disabled":false,"rental_uris":{"android":"levelo://app?vid=cda151f2-9ad2-46c9-9115-b73ba9a06619","ios":"levelo://app?vid=cda151f2-9ad2-46c9-9115-b73ba9a06619"},"vehicle_type_id":"4","last_reported":1702807638,"current_range_meters":0,"station_id":"","pricing_plan_id":"free"},{"bike_id":"1179e3c0-9a61-4e20-bd6f-122c1196b4fa","system_id":"levelo_inurba_marseille","lat":43.25102,"lon":5.403214,"is_reserved":false,"is_disabled":false,"rental_uris":{"android":"levelo://app?vid=1179e3c0-9a61-4e20-bd6f-122c1196b4fa","ios":"levelo://app?vid=1179e3c0-9a61-4e20-bd6f-122c1196b4fa"},"vehicle_type_id":"4","last_reported":1702807638,"current_range_meters":23600,"station_id":"ce4bhlh2rcd13ifvqgig","pricing_plan_id":"free"},{"bike_id":"54bec3e4-6154-49d6-8ee6-d6d6fa5e7a18","system_id":"levelo_inurba_marseille","lat":43.25105,"lon":5.40327,"is_reserved":false,"is_disabled":false,"rental_uris":{"android":"levelo://app?vid=54bec3e4-6154-49d6-8ee6-d6d6fa5e7a18","ios":"levelo://app?vid=54bec3e4-6154-49d6-8ee6-d6d6fa5e7a18"},"vehicle_type_id":"4","last_reported":1702807638,"current_range_meters":24000,"station_id":"ce4bhlh2rcd13ifvqgig","pricing_plan_id":"free"},{"bike_id":"cf9a6542-b871-4f86-bcbb-bbf895d83b86","system_id":"levelo_inurba_marseille","lat":43.246467,"lon":5.388984,"is_reserved":false,"is_disabled":false,"rental_uris":{"android":"levelo://app?vid=cf9a6542-b871-4f86-bcbb-bbf895d83b86","ios":"levelo://app?vid=cf9a6542-b871-4f86-bcbb-bbf895d83b86"},"vehicle_type_id":"4","last_reported":1702807638,"current_range_meters":25600,"station_id":"ce4bhg12rcd13ifvqf60","pricing_plan_id":"free"},{"bike_id":"08f3b3c6-1b59-4a0b-bb63-b197d2370669","system_id":"levelo_inurba_marseille","lat":43.243884,"lon":5.370737,"is_reserved":false,"is_disabled":false,"rental_uris":{"android":"levelo://app?vid=08f3b3c6-1b59-4a0b-bb63-b197d2370669","ios":"levelo://app?vid=08f3b3c6-1b59-4a0b-bb63-b197d2370669"},"vehicle_type_id":"4","last_reported":1702807638,"current_range_meters":6400,"station_id":"ce4bhhh2rcd13ifvqfk0","pricing_plan_id":"free"},{"bike_id":"fb6b216e-c8bc-4f8b-9f09-6e8cc477e48d","system_id":"levelo_inurba_marseille","lat":43.243884,"lon":5.370736,"is_reserved":false,"is_disabled":false,"rental_uris":{"android":"levelo://app?vid=fb6b216e-c8bc-4f8b-9f09-6e8cc477e48d","ios":"levelo://app?vid=fb6b216e-c8bc-4f8b-9f09-6e8cc477e48d"},"vehicle_type_id":"4","last_reported":1702807638,"current_range_meters":25600,"station_id":"ce4bhhh2rcd13ifvqfk0","pricing_plan_id":"free"},{"bike_id":"3a342296-cbb3-4a72-9d8f-830899303254","system_id":"levelo_inurba_marseille","lat":43.243884,"lon":5.370737,"is_reserved":false,"is_disabled":false,"rental_uris":{"android":"levelo://app?vid=3a342296-cbb3-4a72-9d8f-830899303254","ios":"levelo://app?vid=3a342296-cbb3-4a72-9d8f-830899303254"},"vehicle_type_id":"4","last_reported":1702807638,"current_range_meters":21200,"station_id":"ce4bhhh2rcd13ifvqfk0","pricing_plan_id":"free"},{"bike_id":"e048174b-9a5a-45c9-9a41-3e830b6d71c5","system_id":"levelo_inurba_marseille","lat":43.243884,"lon":5.370737,"is_reserved":false,"is_disabled":false,"rental_uris":{"android":"levelo://app?vid=e048174b-9a5a-45c9-9a41-3e830b6d71c5","ios":"levelo://app?vid=e048174b-9a5a-45c9-9a41-3e830b6d71c5"},"vehicle_type_id":"4","last_reported":1702807638,"current_range_meters":7600,"station_id":"ce4bhhh2rcd13ifvqfk0","pricing_plan_id":"free"},{"bike_id":"a4ccbe62-8c48-4f40-b637-643e05b69ed0","system_id":"levelo_inurba_marseille","lat":43.245581,"lon":5.395069,"is_reserved":false,"is_disabled":false,"rental_uris":{"android":"levelo://app?vid=a4ccbe62-8c48-4f40-b637-643e05b69ed0","ios":"levelo://app?vid=a4ccbe62-8c48-4f40-b637-643e05b69ed0"},"vehicle_type_id":"4","last_reported":1702807638,"current_range_meters":29600,"station_id":"ce4bhlp2rcd13ifvqgjg","pricing_plan_id":"free"},{"bike_id":"e419126f-c388-4a30-9aef-a3cfa5c187e9","system_id":"levelo_inurba_marseille","lat":43.240623,"lon":5.377642,"is_reserved":false,"is_disabled":false,"rental_uris":{"android":"levelo://app?vid=e419126f-c388-4a30-9aef-a3cfa5c187e9","ios":"levelo://app?vid=e419126f-c388-4a30-9aef-a3cfa5c187e9"},"vehicle_type_id":"4","last_reported":1702807638,"current_range_meters":28800,"station_id":"ce4bhnp2rcd13ifvqgvg","pricing_plan_id":"free"},{"bike_id":"cacc37ba-1397-4aa2-8d42-888600d0f3f9","system_id":"levelo_inurba_marseille","lat":43.240623,"lon":5.377642,"is_reserved":false,"is_disabled":false,"rental_uris":{"android":"levelo://app?vid=cacc37ba-1397-4aa2-8d42-888600d0f3f9","ios":"levelo://app?vid=cacc37ba-1397-4aa2-8d42-888600d0f3f9"},"vehicle_type_id":"4","last_reported":1702807638,"current_range_meters":19600,"station_id":"ce4bhnp2rcd13ifvqgvg","pricing_plan_id":"free"},{"bike_id":"d47d7099-f565-422b-85f6-841b502258da","system_id":"levelo_inurba_marseille","lat":43.240623,"lon":5.377642,"is_reserved":false,"is_disabled":false,"rental_uris":{"android":"levelo://app?vid=d47d7099-f565-422b-85f6-841b502258da","ios":"levelo://app?vid=d47d7099-f565-422b-85f6-841b502258da"},"vehicle_type_id":"4","last_reported":1702807638,"current_range_meters":10800,"station_id":"ce4bhnp2rcd13ifvqgvg","pricing_plan_id":"free"},{"bike_id":"99dddd79-2a07-4af0-a550-fe20dbb7cfbb","system_id":"levelo_inurba_marseille","lat":43.239588,"lon":5.366238,"is_reserved":false,"is_disabled":false,"rental_uris":{"android":"levelo://app?vid=99dddd79-2a07-4af0-a550-fe20dbb7cfbb","ios":"levelo://app?vid=99dddd79-2a07-4af0-a550-fe20dbb7cfbb"},"vehicle_type_id":"4","last_reported":1702807638,"current_range_meters":26000,"station_id":"ce4bhi12rcd13ifvqfp0","pricing_plan_id":"free"},{"bike_id":"23d837c6-d638-457e-90aa-163ac6a13346","system_id":"levelo_inurba_marseille","lat":43.239588,"lon":5.366238,"is_reserved":false,"is_disabled":false,"rental_uris":{"android":"levelo://app?vid=23d837c6-d638-457e-90aa-163ac6a13346","ios":"levelo://app?vid=23d837c6-d638-457e-90aa-163ac6a13346"},"vehicle_type_id":"4","last_reported":1702807638,"current_range_meters":23200,"station_id":"ce4bhi12rcd13ifvqfp0","pricing_plan_id":"free"},{"bike_id":"faa31a7e-54c4-4e18-86c2-0c32117bc5eb","system_id":"levelo_inurba_marseille","lat":43.239588,"lon":5.366238,"is_reserved":false,"is_disabled":false,"rental_uris":{"android":"levelo://app?vid=faa31a7e-54c4-4e18-86c2-0c32117bc5eb","ios":"levelo://app?vid=faa31a7e-54c4-4e18-86c2-0c32117bc5eb"},"vehicle_type_id":"4","last_reported":1702807638,"current_range_meters":10000,"station_id":"ce4bhi12rcd13ifvqfp0","pricing_plan_id":"free"},{"bike_id":"c6d9dfd2-a539-439d-8118-546d7460c24f","system_id":"levelo_inurba_marseille","lat":43.239588,"lon":5.366238,"is_reserved":false,"is_disabled":false,"rental_uris":{"android":"levelo://app?vid=c6d9dfd2-a539-439d-8118-546d7460c24f","ios":"levelo://app?vid=c6d9dfd2-a539-439d-8118-546d7460c24f"},"vehicle_type_id":"4","last_reported":1702807638,"current_range_meters":16800,"station_id":"ce4bhi12rcd13ifvqfp0","pricing_plan_id":"free"},{"bike_id":"c9074b87-4262-4412-9d82-f62d3786e247","system_id":"levelo_inurba_marseille","lat":43.239588,"lon":5.366238,"is_reserved":false,"is_disabled":false,"rental_uris":{"android":"levelo://app?vid=c9074b87-4262-4412-9d82-f62d3786e247","ios":"levelo://app?vid=c9074b87-4262-4412-9d82-f62d3786e247"},"vehicle_type_id":"4","last_reported":1702807638,"current_range_meters":31200,"station_id":"ce4bhi12rcd13ifvqfp0","pricing_plan_id":"free"},{"bike_id":"0d33f72d-b436-4d71-b978-1c27d2583b3a","system_id":"levelo_inurba_marseille","lat":43.239588,"lon":5.366238,"is_reserved":false,"is_disabled":false,"rental_uris":{"android":"levelo://app?vid=0d33f72d-b436-4d71-b978-1c27d2583b3a","ios":"levelo://app?vid=0d33f72d-b436-4d71-b978-1c27d2583b3a"},"vehicle_type_id":"4","last_reported":1702807638,"current_range_meters":25200,"station_id":"ce4bhi12rcd13ifvqfp0","pricing_plan_id":"free"},{"bike_id":"630cf2f9-baf1-4860-be47-7a66ce2ac839","system_id":"levelo_inurba_marseille","lat":43.239563,"lon":5.366323,"is_reserved":false,"is_disabled":false,"rental_uris":{"android":"levelo://app?vid=630cf2f9-baf1-4860-be47-7a66ce2ac839","ios":"levelo://app?vid=630cf2f9-baf1-4860-be47-7a66ce2ac839"},"vehicle_type_id":"4","last_reported":1702807638,"current_range_meters":25200,"station_id":"ce4bhi12rcd13ifvqfp0","pricing_plan_id":"free"},{"bike_id":"ff923164-65ad-4633-b1c1-6cb44102d1bb","system_id":"levelo_inurba_marseille","lat":43.241782,"lon":5.397261,"is_reserved":false,"is_disabled":false,"rental_uris":{"android":"levelo://app?vid=ff923164-65ad-4633-b1c1-6cb44102d1bb","ios":"levelo://app?vid=ff923164-65ad-4633-b1c1-6cb44102d1bb"},"vehicle_type_id":"4","last_reported":1702807638,"current_range_meters":25200,"station_id":"ce4bhn12rcd13ifvqgpg","pricing_plan_id":"free"},{"bike_id":"89fda012-388e-411b-ac1f-4e1c6dcffa36","system_id":"levelo_inurba_marseille","lat":43.241782,"lon":5.397264,"is_reserved":false,"is_disabled":false,"rental_uris":{"android":"levelo://app?vid=89fda012-388e-411b-ac1f-4e1c6dcffa36","ios":"levelo://app?vid=89fda012-388e-411b-ac1f-4e1c6dcffa36"},"vehicle_type_id":"4","last_reported":1702807638,"current_range_meters":7200,"station_id":"ce4bhn12rcd13ifvqgpg","pricing_plan_id":"free"},