{"last_updated":1706814384,"ttl":30,"version":"2.2","data":{"bikes":[{"bike_id":"2adce5fe-069d-46c9-86f8-c685077d8896","system_id":"levelo_inurba_marseille","lat":43.31359,"lon":5.36712,"is_reserved":false,"is_disabled":false,"rental_uris":{"android":"levelo://app?vid=2adce5fe-069d-46c9-86f8-c685077d8896","ios":"levelo://app?vid=2adce5fe-069d-46c9-86f8-c685077d8896"},"vehicle_type_id":"4","last_reported":1706814384,"current_range_meters":16000,"station_id":"ce4bgr92rcd13ifvqc6g","pricing_plan_id":"free"},{"bike_id":"046630b6-8f60-40a5-bcbe-e6d82dfe147f","system_id":"levelo_inurba_marseille","lat":43.312239,"lon":5.368562,"is_reserved":false,"is_disabled":false,"rental_uris":{"android":"levelo://app?vid=046630b6-8f60-40a5-bcbe-e6d82dfe147f","ios":"levelo://app?vid=046630b6-8f60-40a5-bcbe-e6d82dfe147f"},"vehicle_type_id":"4","last_reported":1706814384,"current_range_meters":10800,"station_id":"ce4bgl92rcd13ifvqbq0","pricing_plan_id":"free"},{"bike_id":"def64640-9359-4eac-9481-985fafb91e5e","system_id":"levelo_inurba_marseille","lat":43.312239,"lon":5.368562,"is_reserved":false,"is_disabled":false,"rental_uris":{"android":"levelo://app?vid=def64640-9359-4eac-9481-985fafb91e5e","ios":"levelo://app?vid=def64640-9359-4eac-9481-985fafb91e5e"},"vehicle_type_id":"4","last_reported":1706814384,"current_range_meters":30000,"station_id":"ce4bgl92rcd13ifvqbq0","pricing_plan_id":"free"},{"bike_id":"bdbb7867-0c28-41f8-94bd-a4517ab72c61","system_id":"levelo_inurba_marseille","lat":43.312239,"lon":5.368562,"is_reserved":false,"is_disabled":false,"rental_uris":{"android":"levelo://app?vid=bdbb7867-0c28-41f8-94bd-a4517ab72c61","ios":"levelo://app?vid=bdbb7867-0c28-41f8-94bd-a4517ab72c61"},"vehicle_type_id":"4","last_reported":1706814384,"current_range_meters":4400,"station_id":"ce4bgl92rcd13ifvqbq0","pricing_plan_id":"free"},{"bike_id":"60b4b7f1-3079-4c8c-bbab-347db23c3144","system_id":"levelo_inurba_marseille","lat":43.312239,"lon":5.368562,"is_reserved":false,"is_disabled":false,"rental_uris":{"android":"levelo://app?vid=60b4b7f1-3079-4c8c-bbab-347db23c3144","ios":"levelo://app?vid=60b4b7f1-3079-4c8c-bbab-347db23c3144"},"vehicle_type_id":"4","last_reported":1706814384,"current_range_meters":26800,"station_id":"ce4bgl92rcd13ifvqbq0","pricing_plan_id":"free"},{"bike_id":"41f5c78a-e23a-41b4-b0e7-64370823b18d","system_id":"levelo_inurba_marseille","lat":43.309277,"lon":5.368173,"is_reserved":false,"is_disabled":false,"rental_uris":{"android":"levelo://app?vid=41f5c78a-e23a-41b4-b0e7-64370823b18d","ios":"levelo://app?vid=41f5c78a-e23a-41b4-b0e7-64370823b18d"},"vehicle_type_id":"4","last_reported":1706814384,"current_range_meters":0,"station_id":"ce4bgn92rcd13ifvqbvg","pricing_plan_id":"free"},{"bike_id":"56445fa9-5aa6-4c14-a98c-804fa837a710","system_id":"levelo_inurba_marseille","lat":43.30918,"lon":5.3685,"is_reserved":false,"is_disabled":false,"rental_uris":{"android":"levelo://app?vid=56445fa9-5aa6-4c14-a98c-804fa837a710","ios":"levelo://app?vid=56445fa9-5aa6-4c14-a98c-804fa837a710"},"vehicle_type_id":"4","last_reported":1706814384,"current_range_meters":0,"station_id":"ce4bgn92rcd13ifvqbvg","pricing_plan_id":"free"},{"bike_id":"93195d14-9b4c-4988-ab39-aee30b45c49e","system_id":"levelo_inurba_marseille","lat":43.309076,"lon":5.368465,"is_reserved":false,"is_disabled":false,"rental_uris":{"android":"levelo://app?vid=93195d14-9b4c-4988-ab39-aee30b45c49e","ios":"levelo://app?vid=93195d14-9b4c-4988-ab39-aee30b45c49e"},"vehicle_type_id":"4","last_reported":1706814384,"current_range_meters":12400,"station_id":"ce4bgn92rcd13ifvqbvg","pricing_plan_id":"free"},{"bike_id":"5943e710-1e01-4e14-ba9b-c90148d6cc22","system_id":"levelo_inurba_marseille","lat":43.309076,"lon":5.368465,"is_reserved":false,"is_disabled":false,"rental_uris":{"android":"levelo://app?vid=5943e710-1e01-4e14-ba9b-c90148d6cc22","ios":"levelo://app?vid=5943e710-1e01-4e14-ba9b-c90148d6cc22"},"vehicle_type_id":"4","last_reported":1706814384,"current_range_meters":24800,"station_id":"ce4bgn92rcd13ifvqbvg","pricing_plan_id":"free"},{"bike_id":"3a7f311c-a7ef-4019-b708-5ba935abfbfc","system_id":"levelo_inurba_marseille","lat":43.31306,"lon":5.37258,"is_reserved":false,"is_disabled":false,"rental_uris":{"android":"levelo://app?vid=3a7f311c-a7ef-4019-b708-5ba935abfbfc","ios":"levelo://app?vid=3a7f311c-a7ef-4019-b708-5ba935abfbfc"},"vehicle_type_id":"4","last_reported":1706814384,"current_range_meters":19200,"station_id":"","pricing_plan_id":"free"},{"bike_id":"1c16901d-858a-449e-ab72-37797c027f84","system_id":"levelo_inurba_marseille","lat":43.31489,"lon":5.37303,"is_reserved":false,"is_disabled":false,"rental_uris":{"android":"levelo://app?vid=1c16901d-858a-449e-ab72-37797c027f84","ios":"levelo://app?vid=1c16901d-858a-449e-ab72-37797c027f84"},"vehicle_type_id":"4","last_reported":1706814384,"current_range_meters":0,"station_id":"ce4bgt12rcd13ifvqcd0","pricing_plan_id":"free"},{"bike_id":"a26585e5-a065-41fe-934d-6519ae49ad70","system_id":"levelo_inurba_marseille","lat":43.314811,"lon":5.373103,"is_reserved":false,"is_disabled":false,"rental_uris":{"android":"levelo://app?vid=a26585e5-a065-41fe-934d-6519ae49ad70","ios":"levelo://app?vid=a26585e5-a065-41fe-934d-6519ae49ad70"},"vehicle_type_id":"4","last_reported":1706814384,"current_range_meters":16800,"station_id":"ce4bgt12rcd13ifvqcd0","pricing_plan_id":"free"},{"bike_id":"1173d58c-b3af-438b-8c92-c4c88fa762ef","system_id":"levelo_inurba_marseille","lat":43.314811,"lon":5.373103,"is_reserved":false,"is_disabled":false,"rental_uris":{"android":"levelo://app?vid=1173d58c-b3af-438b-8c92-c4c88fa762ef","ios":"levelo://app?vid=1173d58c-b3af-438b-8c92-c4c88fa762ef"},"vehicle_type_id":"4","last_reported":1706814384,"current_range_meters":21600,"station_id":"ce4bgt12rcd13ifvqcd0","pricing_plan_id":"free"},{"bike_id":"415525b4-76fe-4f47-a34d-731d474f8ff0","system_id":"levelo_inurba_marseille","lat":43.308884,"lon":5.372029,"is_reserved":false,"is_disabled":false,"rental_uris":{"android":"levelo://app?vid=415525b4-76fe-4f47-a34d-731d474f8ff0","ios":"levelo://app?vid=415525b4-76fe-4f47-a34d-731d474f8ff0"},"vehicle_type_id":"4","last_reported":1706814384,"current_range_meters":20000,"station_id":"","pricing_plan_id":"free"},{"bike_id":"077a6166-7218-4a58-a436-0c6a4d789236","system_id":"levelo_inurba_marseille","lat":43.305567,"lon":5.366969,"is_reserved":false,"is_disabled":false,"rental_uris":{"android":"levelo://app?vid=077a6166-7218-4a58-a436-0c6a4d789236","ios":"levelo://app?vid=077a6166-7218-4a58-a436-0c6a4d789236"},"vehicle_type_id":"4","last_reported":1706814384,"current_range_meters":20800,"station_id":"ce4bgrp2rcd13ifvqc9g","pricing_plan_id":"free"},{"bike_id":"1e2d9b78-459b-4af5-8b66-e03b0dde964a","system_id":"levelo_inurba_marseille","lat":43.30549,"lon":5.36547,"is_reserved":false,"is_disabled":false,"rental_uris":{"android":"levelo://app?vid=1e2d9b78-459b-4af5-8b66-e03b0dde964a","ios":"levelo://app?vid=1e2d9b78-459b-4af5-8b66-e03b0dde964a"},"vehicle_type_id":"4","last_reported":1706814384,"current_range_meters":0,"station_id":"ce4bgs12rcd13ifvqcag","pricing_plan_id":"free"},{"bike_id":"d1c6d5e5-4c38-4f86-a4f4-dde84d0ec262","system_id":"levelo_inurba_marseille","lat":43.305989,"lon":5.37225,"is_reserved":false,"is_disabled":false,"rental_uris":{"android":"levelo://app?vid=d1c6d5e5-4c38-4f86-a4f4-dde84d0ec262","ios":"levelo://app?vid=d1c6d5e5-4c38-4f86-a4f4-dde84d0ec262"},"vehicle_type_id":"4","last_reported":1706814384,"current_range_meters":31200,"station_id":"ce4bgqh2rcd13ifvqc4g","pricing_plan_id":"free"},{"bike_id":"8a6fccc3-e563-48ae-a67f-4d28be9b2014","system_id":"levelo_inurba_marseille","lat":43.31121,"lon":5.37766,"is_reserved":false,"is_disabled":false,"rental_uris":{"android":"levelo://app?vid=8a6fccc3-e563-48ae-a67f-4d28be9b2014","ios":"levelo://app?vid=8a6fccc3-e563-48ae-a67f-4d28be9b2014"},"vehicle_type_id":"4","last_reported":1706814384,"current_range_meters":400,"station_id":"ce4bgt92rcd13ifvqcg0","pricing_plan_id":"free"},{"bike_id":"e4620124-2ed1-4a12-87e1-36685f2159bb","system_id":"levelo_inurba_marseille","lat":43.31117,"lon":5.37771,"is_reserved":false,"is_disabled":false,"rental_uris":{"android":"levelo://app?vid=e4620124-2ed1-4a12-87e1-36685f2159bb","ios":"levelo://app?vid=e4620124-2ed1-4a12-87e1-36685f2159bb"},"vehicle_type_id":"4","last_reported":1706814384,"current_range_meters":0,"station_id":"ce4bgt92rcd13ifvqcg0","pricing_plan_id":"free"},{"bike_id":"d2baed39-4be6-4a8d-86ac-319bfda15a2c","system_id":"levelo_inurba_marseille","lat":43.307945,"lon":5.376487,"is_reserved":false,"is_disabled":false,"rental_uris":{"android":"levelo://app?vid=d2baed39-4be6-4a8d-86ac-319bfda15a2c","ios":"levelo://app?vid=d2baed39-4be6-4a8d-86ac-319bfda15a2c"},"vehicle_type_id":"4","last_reported":1706814384,"current_range_meters":1200,"station_id":"ce4bgv92rcd13ifvqcq0","pricing_plan_id":"free"},{"bike_id":"226beb80-4277-4c1b-9116-4d291f8dd004","system_id":"levelo_inurba_marseille","lat":43.317075,"lon":5.377367,"is_reserved":false,"is_disabled":false,"rental_uris":{"android":"levelo://app?vid=226beb80-4277-4c1b-9116-4d291f8dd004","ios":"levelo://app?vid=226beb80-4277-4c1b-9116-4d291f8dd004"},"vehicle_type_id":"4","last_reported":1706814384,"current_range_meters":6000,"station_id":"ce4bgth2rcd13ifvqch0","pricing_plan_id":"free"},{"bike_id":"b21f5c34-98e9-40a4-9595-318511423343","system_id":"levelo_inurba_marseille","lat":43.317075,"lon":5.377367,"is_reserved":false,"is_disabled":false,"rental_uris":{"android":"levelo://app?vid=b21f5c34-98e9-40a4-9595-318511423343","ios":"levelo://app?vid=b21f5c34-98e9-40a4-9595-318511423343"},"vehicle_type_id":"4","last_reported":1706814384,"current_range_meters":19200,"station_id":"ce4bgth2rcd13ifvqch0","pricing_plan_id":"free"},{"bike_id":"d2db6131-df63-43e2-bea2-6290ab93ff89","system_id":"levelo_inurba_marseille","lat":43.317075,"lon":5.377367,"is_reserved":false,"is_disabled":false,"rental_uris":{"android":"levelo://app?vid=d2db6131-df63-43e2-bea2-6290ab93ff89","ios":"levelo://app?vid=d2db6131-df63-43e2-bea2-6290ab93ff89"},"vehicle_type_id":"4","last_reported":1706814384,"current_range_meters":10000,"station_id":"ce4bgth2rcd13ifvqch0","pricing_plan_id":"free"},{"bike_id":"fc3c1539-28c3-4dd0-b015-753980613546","system_id":"levelo_inurba_marseille","lat":43.301939,"lon":5.366286,"is_reserved":false,"is_disabled":false,"rental_uris":{"android":"levelo://app?vid=fc3c1539-28c3-4dd0-b015-753980613546","ios":"levelo://app?vid=fc3c1539-28c3-4dd0-b015-753980613546"},"vehicle_type_id":"4","last_reported":1706814384,"current_range_meters":800,"station_id":"ce4bgrh2rcd13ifvqc8g","pricing_plan_id":"free"},{"bike_id":"924532ef-fb07-49a2-8f10-ccb8a59980fb","system_id":"levelo_inurba_marseille","lat":43.308012,"lon":5.381511,"is_reserved":false,"is_disabled":false,"rental_uris":{"android":"levelo://app?vid=924532ef-fb07-49a2-8f10-ccb8a59980fb","ios":"levelo://app?vid=924532ef-fb07-49a2-8f10-ccb8a59980fb"},"vehicle_type_id":"4","last_reported":1706814384,"current_range_meters":16800,"station_id":"ce4bgt12rcd13ifvqce0","pricing_plan_id":"free"},{"bike_id":"a8df3d52-f2e0-4fdd-995f-9edfd3199993","system_id":"levelo_inurba_marseille","lat":43.308012,"lon":5.381511,"is_reserved":false,"is_disabled":false,"rental_uris":{"android":"levelo://app?vid=a8df3d52-f2e0-4fdd-995f-9edfd3199993","ios":"levelo://app?vid=a8df3d52-f2e0-4fdd-995f-9edfd3199993"},"vehicle_type_id":"4","last_reported":1706814384,"current_range_meters":4400,"station_id":"ce4bgt12rcd13ifvqce0","pricing_plan_id":"free"},{"bike_id":"52095fb1-e276-495c-b71b-1108135af09f","system_id":"levelo_inurba_marseille","lat":43.308,"lon":5.38148,"is_reserved":false,"is_disabled":false,"rental_uris":{"android":"levelo://app?vid=52095fb1-e276-495c-b71b-1108135af09f","ios":"levelo://app?vid=52095fb1-e276-495c-b71b-1108135af09f"},"vehicle_type_id":"4","last_reported":1706814384,"current_range_meters":4800,"station_id":"ce4bgt12rcd13ifvqce0","pricing_plan_id":"free"},{"bike_id":"27519ada-c32f-4d61-8407-2ab41a1f561f","system_id":"levelo_inurba_marseille","lat":43.308012,"lon":5.381511,"is_reserved":false,"is_disabled":false,"rental_uris":{"android":"levelo://app?vid=27519ada-c32f-4d61-8407-2ab41a1f561f","ios":"levelo://app?vid=27519ada-c32f-4d61-8407-2ab41a1f561f"},"vehicle_type_id":"4","last_reported":1706814384,"current_range_meters":0,"station_id":"ce4bgt12rcd13ifvqce0","pricing_plan_id":"free"},{"bike_id":"ec6412b3-88cc-4d5d-a1ba-18d5f306e632","system_id":"levelo_inurba_marseille","lat":43.30473,"lon":5.37898,"is_reserved":false,"is_disabled":false,"rental_uris":{"android":"levelo://app?vid=ec6412b3-88cc-4d5d-a1ba-18d5f306e632","ios":"levelo://app?vid=ec6412b3-88cc-4d5d-a1ba-18d5f306e632"},"vehicle_type_id":"4","last_reported":1706814384,"current_range_meters":23600,"station_id":"ce4bgup2rcd13ifvqcn0","pricing_plan_id":"free"},{"bike_id":"26a2256d-b5f3-47f2-8f88-fd49bb301d72","system_id":"levelo_inurba_marseille","lat":43.30466,"lon":5.37901,"is_reserved":false,"is_disabled":false,"rental_uris":{"android":"levelo://app?vid=26a2256d-b5f3-47f2-8f88-fd49bb301d72","ios":"levelo://app?vid=26a2256d-b5f3-47f2-8f88-fd49bb301d72"},"vehicle_type_id":"4","last_reported":1706814384,"current_range_meters":0,"station_id":"ce4bgup2rcd13ifvqcn0","pricing_plan_id":"free"},{"bike_id":"9dbf9efd-f111-4981-92ce-6721521defda","system_id":"levelo_inurba_marseille","lat":43.30461,"lon":5.37899,"is_reserved":false,"is_disabled":false,"rental_uris":{"android":"levelo://app?vid=9dbf9efd-f111-4981-92ce-6721521defda","ios":"levelo://app?vid=9dbf9efd-f111-4981-92ce-6721521defda"},"vehicle_type_id":"4","last_reported":1706814384,"current_range_meters":0,"station_id":"ce4bgup2rcd13ifvqcn0","pricing_plan_id":"free"},{"bike_id":"54a04ce9-7d20-4124-b5ac-50619493cee5","system_id":"levelo_inurba_marseille","lat":43.30464,"lon":5.37903,"is_reserved":false,"is_disabled":false,"rental_uris":{"android":"levelo://app?vid=54a04ce9-7d20-4124-b5ac-50619493cee5","ios":"levelo://app?vid=54a04ce9-7d20-4124-b5ac-50619493cee5"},"vehicle_type_id":"4","last_reported":1706814384,"current_range_meters":19200,"station_id":"ce4bgup2rcd13ifvqcn0","pricing_plan_id":"free"},{"bike_id":"ae3bbbdf-94ec-412b-ac7c-83c20afd0aff","system_id":"levelo_inurba_marseille","lat":43.304629,"lon":5.379041,"is_reserved":false,"is_disabled":false,"rental_uris":{"android":"levelo://app?vid=ae3bbbdf-94ec-412b-ac7c-83c20afd0aff","ios":"levelo://app?vid=ae3bbbdf-94ec-412b-ac7c-83c20afd0aff"},"vehicle_type_id":"4","last_reported":1706814384,"current_range_meters":0,"station_id":"ce4bgup2rcd13ifvqcn0","pricing_plan_id":"free"},{"bike_id":"e5e5ab89-74d3-4ca6-9b78-cf4c40ea284b","system_id":"levelo_inurba_marseille","lat":43.30462,"lon":5.37905,"is_reserved":false,"is_disabled":false,"rental_uris":{"android":"levelo://app?vid=e5e5ab89-74d3-4ca6-9b78-cf4c40ea284b","ios":"levelo://app?vid=e5e5ab89-74d3-4ca6-9b78-cf4c40ea284b"},"vehicle_type_id":"4","last_reported":1706814384,"current_range_meters":12400,"station_id":"ce4bgup2rcd13ifvqcn0","pricing_plan_id":"free"},{"bike_id":"913b59fd-c2f1-4722-8693-c3993314d595","system_id":"levelo_inurba_marseille","lat":43.31341,"lon":5.367098,"is_reserved":false,"is_disabled":false,"rental_uris":{"android":"levelo://app?vid=913b59fd-c2f1-4722-8693-c3993314d595","ios":"levelo://app?vid=913b59fd-c2f1-4722-8693-c3993314d595"},"vehicle_type_id":"4","last_reported":1706814384,"current_range_meters":24400,"station_id":"ce4bgr92rcd13ifvqc6g","pricing_plan_id":"free"},{"bike_id":"9cf1598c-2134-488f-933b-56fff93a5ec2","system_id":"levelo_inurba_marseille","lat":43.30143,"lon":5.37405,"is_reserved":false,"is_disabled":false,"rental_uris":{"android":"levelo://app?vid=9cf1598c-2134-488f-933b-56fff93a5ec2","ios":"levelo://app?vid=9cf1598c-2134-488f-933b-56fff93a5ec2"},"vehicle_type_id":"4","last_reported":1706814384,"current_range_meters":0,"station_id":"ce4bgs92rcd13ifvqcc0","pricing_plan_id":"free"},{"bike_id":"c33db782-6fd5-4b21-943b-376f1508179d","system_id":"levelo_inurba_marseille","lat":43.30143,"lon":5.37413,"is_reserved":false,"is_disabled":false,"rental_uris":{"android":"levelo://app?vid=c33db782-6fd5-4b21-943b-376f1508179d","ios":"levelo://app?vid=c33db782-6fd5-4b21-943b-376f1508179d"},"vehicle_type_id":"4","last_reported":1706814384,"current_range_meters":4400,"station_id":"ce4bgs92rcd13ifvqcc0","pricing_plan_id":"free"},{"bike_id":"64d78273-fffd-4887-a48e-68932349843e","system_id":"levelo_inurba_marseille","lat":43.319918,"lon":5.381404,"is_reserved":false,"is_disabled":false,"rental_uris":{"android":"levelo://app?vid=64d78273-fffd-4887-a48e-68932349843e","ios":"levelo://app?vid=64d78273-fffd-4887-a48e-68932349843e"},"vehicle_type_id":"4","last_reported":1706814384,"current_range_meters":26000,"station_id":"","pricing_plan_id":"free"},{"bike_id":"33aa6591-fee3-4190-8337-a93734a2451e","system_id":"levelo_inurba_marseille","lat":43.319935,"lon":5.381699,"is_reserved":false,"is_disabled":false,"rental_uris":{"android":"levelo://app?vid=33aa6591-fee3-4190-8337-a93734a2451e","ios":"levelo://app?vid=33aa6591-fee3-4190-8337-a93734a2451e"},"vehicle_type_id":"4","last_reported":1706814384,"current_range_meters":26400,"station_id":"ce4bhr12rcd13ifvqhpg","pricing_plan_id":"free"},{"bike_id":"750ede20-1a92-4656-b5f3-684b58e12ed0","system_id":"levelo_inurba_marseille","lat":43.319935,"lon":5.381699,"is_reserved":false,"is_disabled":false,"rental_uris":{"android":"levelo://app?vid=750ede20-1a92-4656-b5f3-684b58e12ed0","ios":"levelo://app?vid=750ede20-1a92-4656-b5f3-684b58e12ed0"},"vehicle_type_id":"4","last_reported":1706814384,"current_range_meters":1600,"station_id":"ce4bhr12rcd13ifvqhpg","pricing_plan_id":"free"},{"bike_id":"241acec1-7741-4d2b-9f49-3260f940144d","system_id":"levelo_inurba_marseille","lat":43.305364,"lon":5.384119,"is_reserved":false,"is_disabled":false,"rental_uris":{"android":"levelo://app?vid=241acec1-7741-4d2b-9f49-3260f940144d","ios":"levelo://app?vid=241acec1-7741-4d2b-9f49-3260f940144d"},"vehicle_type_id":"4","last_reported":1706814384,"current_range_meters":4000,"station_id":"ce4bgg92rcd13ifvqb30","pricing_plan_id":"free"},{"bike_id":"0a431524-38b9-4c1b-956e-85b95de4b027","system_id":"levelo_inurba_marseille","lat":43.319935,"lon":5.381699,"is_reserved":false,"is_disabled":false,"rental_uris":{"android":"levelo://app?vid=0a431524-38b9-4c1b-956e-85b95de4b027","ios":"levelo://app?vid=0a431524-38b9-4c1b-956e-85b95de4b027"},"vehicle_type_id":"4","last_reported":1706814384,"current_range_meters":800,"station_id":"ce4bhr12rcd13ifvqhpg","pricing_plan_id":"free"},{"bike_id":"5d1f62cd-175b-4219-aa13-aee81343a1e5","system_id":"levelo_inurba_marseille","lat":43.319935,"lon":5.381699,"is_reserved":false,"is_disabled":false,"rental_uris":{"android":"levelo://app?vid=5d1f62cd-175b-4219-aa13-aee81343a1e5","ios":"levelo://app?vid=5d1f62cd-175b-4219-aa13-aee81343a1e5"},"vehicle_type_id":"4","last_reported":1706814384,"current_range_meters":18000,"station_id":"ce4bhr12rcd13ifvqhpg","pricing_plan_id":"free"},{"bike_id":"894b44a7-54f7-41b4-bb98-30de2e4f98db","system_id":"levelo_inurba_marseille","lat":43.31374,"lon":5.38482,"is_reserved":false,"is_disabled":false,"rental_uris":{"android":"levelo://app?vid=894b44a7-54f7-41b4-bb98-30de2e4f98db","ios":"levelo://app?vid=894b44a7-54f7-41b4-bb98-30de2e4f98db"},"vehicle_type_id":"4","last_reported":1706814384,"current_range_meters":18400,"station_id":"ce4bgt92rcd13ifvqcf0","pricing_plan_id":"free"},{"bike_id":"46c5fcf0-2722-4bbe-a99d-0958e8038721","system_id":"levelo_inurba_marseille","lat":43.31365,"lon":5.384966,"is_reserved":false,"is_disabled":false,"rental_uris":{"android":"levelo://app?vid=46c5fcf0-2722-4bbe-a99d-0958e8038721","ios":"levelo://app?vid=46c5fcf0-2722-4bbe-a99d-0958e8038721"},"vehicle_type_id":"4","last_reported":1706814384,"current_range_meters":0,"station_id":"ce4bgt92rcd13ifvqcf0","pricing_plan_id":"free"},{"bike_id":"2c2c0756-aec0-463f-92b6-ba56950aff19","system_id":"levelo_inurba_marseille","lat":43.313571,"lon":5.384829,"is_reserved":false,"is_disabled":false,"rental_uris":{"android":"levelo://app?vid=2c2c0756-aec0-463f-92b6-ba56950aff19","ios":"levelo://app?vid=2c2c0756-aec0-463f-92b6-ba56950aff19"},"vehicle_type_id":"4","last_reported":1706814384,"current_range_meters":0,"station_id":"ce4bgt92rcd13ifvqcf0","pricing_plan_id":"free"},{"bike_id":"0305078a-3640-4434-bad2-8645436b9beb","system_id":"levelo_inurba_marseille","lat":43.298433,"lon":5.362774,"is_reserved":false,"is_disabled":false,"rental_uris":{"android":"levelo://app?vid=0305078a-3640-4434-bad2-8645436b9beb","ios":"levelo://app?vid=0305078a-3640-4434-bad2-8645436b9beb"},"vehicle_type_id":"4","last_reported":1706814384,"current_range_meters":22400,"station_id":"ce4bgpp2rcd13ifvqc3g","pricing_plan_id":"free"},{"bike_id":"57169314-ff87-4841-afd6-b61cb14eb6a0","system_id":"levelo_inurba_marseille","lat":43.298433,"lon":5.362774,"is_reserved":false,"is_disabled":false,"rental_uris":{"android":"levelo://app?vid=57169314-ff87-4841-afd6-b61cb14eb6a0","ios":"levelo://app?vid=57169314-ff87-4841-afd6-b61cb14eb6a0"},"vehicle_type_id":"4","last_reported":1706814384,"current_range_meters":24000,"station_id":"ce4bgpp2rcd13ifvqc3g","pricing_plan_id":"free"},{"bike_id":"f43eb57a-aaac-48d1-b1e0-0658c452068d","system_id":"levelo_inurba_marseille","lat":43.298433,"lon":5.362774,"is_reserved":false,"is_disabled":false,"rental_uris":{"android":"levelo://app?vid=f43eb57a-aaac-48d1-b1e0-0658c452068d","ios":"levelo://app?vid=f43eb57a-aaac-48d1-b1e0-0658c452068d"},"vehicle_type_id":"4","last_reported":1706814384,"current_range_meters":17600,"station_id":"ce4bgpp2rcd13ifvqc3g","pricing_plan_id":"free"},{"bike_id":"89cded1e-925b-4bdf-9d5e-064be6f9784f","system_id":"levelo_inurba_marseille","lat":43.298433,"lon":5.362774,"is_reserved":false,"is_disabled":false,"rental_uris":{"android":"levelo://app?vid=89cded1e-925b-4bdf-9d5e-064be6f9784f","ios":"levelo://app?vid=89cded1e-925b-4bdf-9d5e-064be6f9784f"},"vehicle_type_id":"4","last_reported":1706814384,"current_range_meters":24400,"station_id":"ce4bgpp2rcd13ifvqc3g","pricing_plan_id":"free"},{"bike_id":"ea4b422e-8817-4ca5-a8b3-ed23f452bba9","system_id":"levelo_inurba_marseille","lat":43.311722,"lon":5.387247,"is_reserved":false,"is_disabled":false,"rental_uris":{"android":"levelo://app?vid=ea4b422e-8817-4ca5-a8b3-ed23f452bba9","ios":"levelo://app?vid=ea4b422e-8817-4ca5-a8b3-ed23f452bba9"},"vehicle_type_id":"4","last_reported":1706814384,"current_range_meters":0,"station_id":"ce4bgv12rcd13ifvqcp0","pricing_plan_id":"free"},{"bike_id":"ababc665-0323-4196-966a-430eb84efd6d","system_id":"levelo_inurba_marseille","lat":43.322872,"lon":5.382756,"is_reserved":false,"is_disabled":false,"rental_uris":{"android":"levelo://app?vid=ababc665-0323-4196-966a-430eb84efd6d","ios":"levelo://app?vid=ababc665-0323-4196-966a-430eb84efd6d"},"vehicle_type_id":"4","last_reported":1706814384,"current_range_meters":3600,"station_id":"ce4bhr12rcd13ifvqhqg","pricing_plan_id":"free"},{"bike_id":"b069e964-d710-4a2f-993a-1ab0b01ca06a","system_id":"levelo_inurba_marseille","lat":43.322872,"lon":5.382756,"is_reserved":false,"is_disabled":false,"rental_uris":{"android":"levelo://app?vid=b069e964-d710-4a2f-993a-1ab0b01ca06a","ios":"levelo://app?vid=b069e964-d710-4a2f-993a-1ab0b01ca06a"},"vehicle_type_id":"4","last_reported":1706814384,"current_range_meters":8400,"station_id":"ce4bhr12rcd13ifvqhqg","pricing_plan_id":"free"},{"bike_id":"c5d0d7d5-9b16-4eb0-a7f6-5fa1faf28471","system_id":"levelo_inurba_marseille","lat":43.322872,"lon":5.382756,"is_reserved":false,"is_disabled":false,"rental_uris":{"android":"levelo://app?vid=c5d0d7d5-9b16-4eb0-a7f6-5fa1faf28471","ios":"levelo://app?vid=c5d0d7d5-9b16-4eb0-a7f6-5fa1faf28471"},"vehicle_type_id":"4","last_reported":1706814384,"current_range_meters":6400,"station_id":"ce4bhr12rcd13ifvqhqg","pricing_plan_id":"free"},{"bike_id":"b667764d-fe48-4325-becc-a4e6eea43d1a","system_id":"levelo_inurba_marseille","lat":43.322872,"lon":5.382756,"is_reserved":false,"is_disabled":false,"rental_uris":{"android":"levelo://app?vid=b667764d-fe48-4325-becc-a4e6eea43d1a","ios":"levelo://app?vid=b667764d-fe48-4325-becc-a4e6eea43d1a"},"vehicle_type_id":"4","last_reported":1706814384,"current_range_meters":1200,"station_id":"ce4bhr12rcd13ifvqhqg","pricing_plan_id":"free"},{"bike_id":"6268e9ea-d457-41cb-b090-f7f91ef35cfb","system_id":"levelo_inurba_marseille","lat":43.322872,"lon":5.382756,"is_reserved":false,"is_disabled":false,"rental_uris":{"android":"levelo://app?vid=6268e9ea-d457-41cb-b090-f7f91ef35cfb","ios":"levelo://app?vid=6268e9ea-d457-41cb-b090-f7f91ef35cfb"},"vehicle_type_id":"4","last_reported":1706814384,"current_range_meters":31200,"station_id":"ce4bhr12rcd13ifvqhqg","pricing_plan_id":"free"},{"bike_id":"04133053-7e22-49fe-9a8e-cfae27a54d05","system_id":"levelo_inurba_marseille","lat":43.322872,"lon":5.382756,"is_reserved":false,"is_disabled":false,"rental_uris":{"android":"levelo://app?vid=04133053-7e22-49fe-9a8e-cfae27a54d05","ios":"levelo://app?vid=04133053-7e22-49fe-9a8e-cfae27a54d05"},"vehicle_type_id":"4","last_reported":1706814384,"current_range_meters":10800,"station_id":"ce4bhr12rcd13ifvqhqg","pricing_plan_id":"free"},{"bike_id":"2f814de7-ab89-4e81-bd56-ab00af80498f","system_id":"levelo_inurba_marseille","lat":43.322872,"lon":5.382756,"is_reserved":false,"is_disabled":false,"rental_uris":{"android":"levelo://app?vid=2f814de7-ab89-4e81-bd56-ab00af80498f","ios":"levelo://app?vid=2f814de7-ab89-4e81-bd56-ab00af80498f"},"vehicle_type_id":"4","last_reported":1706814384,"current_range_meters":18800,"station_id":"ce4bhr12rcd13ifvqhqg","pricing_plan_id":"free"},{"bike_id":"b43645aa-f2e5-486d-a2fa-bf46e0a03dc2","system_id":"levelo_inurba_marseille","lat":43.322872,"lon":5.382756,"is_reserved":false,"is_disabled":false,"rental_uris":{"android":"levelo://app?vid=b43645aa-f2e5-486d-a2fa-bf46e0a03dc2","ios":"levelo://app?vid=b43645aa-f2e5-486d-a2fa-bf46e0a03dc2"},"vehicle_type_id":"4","last_reported":1706814384,"current_range_meters":14000,"station_id":"ce4bhr12rcd13ifvqhqg","pricing_plan_id":"free"},{"bike_id":"9781ebb3-155f-4467-bcb9-a79d2aadab6e","system_id":"levelo_inurba_marseille","lat":43.322872,"lon":5.382756,"is_reserved":false,"is_disabled":false,"rental_uris":{"android":"levelo://app?vid=9781ebb3-155f-4467-bcb9-a79d2aadab6e","ios":"levelo://app?vid=9781ebb3-155f-4467-bcb9-a79d2aadab6e"},"vehicle_type_id":"4","last_reported":1706814384,"current_range_meters":4000,"station_id":"ce4bhr12rcd13ifvqhqg","pricing_plan_id":"free"},{"bike_id":"df7ed42e-867b-4350-aaa4-7ed8af048e36","system_id":"levelo_inurba_marseille","lat":43.328371,"lon":5.366909,"is_reserved":false,"is_disabled":false,"rental_uris":{"android":"levelo://app?vid=df7ed42e-867b-4350-aaa4-7ed8af048e36","ios":"levelo://app?vid=df7ed42e-867b-4350-aaa4-7ed8af048e36"},"vehicle_type_id":"4","last_reported":1706814384,"current_range_meters":30800,"station_id":"ce4bhs92rcd13ifvqi0g","pricing_plan_id":"free"},{"bike_id":"6b40fc3f-02da-4032-8a8d-22b3b4bdbcba","system_id":"levelo_inurba_marseille","lat":43.328371,"lon":5.366909,"is_reserved":false,"is_disabled":false,"rental_uris":{"android":"levelo://app?vid=6b40fc3f-02da-4032-8a8d-22b3b4bdbcba","ios":"levelo://app?vid=6b40fc3f-02da-4032-8a8d-22b3b4bdbcba"},"vehicle_type_id":"4","last_reported":1706814384,"current_range_meters":28000,"station_id":"ce4bhs92rcd13ifvqi0g","pricing_plan_id":"free"},{"bike_id":"c5941e73-0993-401d-9783-32e45f8ef8be","system_id":"levelo_inurba_marseille","lat":43.328371,"lon":5.366909,"is_reserved":false,"is_disabled":false,"rental_uris":{"android":"levelo://app?vid=c5941e73-0993-401d-9783-32e45f8ef8be","ios":"levelo://app?vid=c5941e73-0993-401d-9783-32e45f8ef8be"},"vehicle_type_id":"4","last_reported":1706814384,"current_range_meters":4000,"station_id":"ce4bhs92rcd13ifvqi0g","pricing_plan_id":"free"},{"bike_id":"54d2e451-9cd4-400a-bfa8-eb46cefbc970","system_id":"levelo_inurba_marseille","lat":43.328371,"lon":5.366909,"is_reserved":false,"is_disabled":false,"rental_uris":{"android":"levelo://app?vid=54d2e451-9cd4-400a-bfa8-eb46cefbc970","ios":"levelo://app?vid=54d2e451-9cd4-400a-bfa8-eb46cefbc970"},"vehicle_type_id":"4","last_reported":1706814384,"current_range_meters":30800,"station_id":"ce4bhs92rcd13ifvqi0g","pricing_plan_id":"free"},{"bike_id":"c9532b94-de17-472c-9517-0e7f44fcca60","system_id":"levelo_inurba_marseille","lat":43.297163,"lon":5.365866,"is_reserved":false,"is_disabled":false,"rental_uris":{"android":"levelo://app?vid=c9532b94-de17-472c-9517-0e7f44fcca60","ios":"levelo://app?vid=c9532b94-de17-472c-9517-0e7f44fcca60"},"vehicle_type_id":"4","last_reported":1706814384,"current_range_meters":30000,"station_id":"ce4bgn12rcd13ifvqbt0","pricing_plan_id":"free"},{"bike_id":"9efb79d0-e2ba-456d-ba9a-99a10d4c7b7e","system_id":"levelo_inurba_marseille","lat":43.328371,"lon":5.366909,"is_reserved":false,"is_disabled":false,"rental_uris":{"android":"levelo://app?vid=9efb79d0-e2ba-456d-ba9a-99a10d4c7b7e","ios":"levelo://app?vid=9efb79d0-e2ba-456d-ba9a-99a10d4c7b7e"},"vehicle_type_id":"4","last_reported":1706814384,"current_range_meters":7600,"station_id":"ce4bhs92rcd13ifvqi0g","pricing_plan_id":"free"},{"bike_id":"65fc335e-45c8-4311-b5d8-53a51b4b3050","system_id":"levelo_inurba_marseille","lat":43.2968,"lon":5.37291,"is_reserved":false,"is_disabled":false,"rental_uris":{"android":"levelo://app?vid=65fc335e-45c8-4311-b5d8-53a51b4b3050","ios":"levelo://app?vid=65fc335e-45c8-4311-b5d8-53a51b4b3050"},"vehicle_type_id":"4","last_reported":1706814384,"current_range_meters":0,"station_id":"ce4bgk12rcd13ifvqbj0","pricing_plan_id":"free"},{"bike_id":"403355ab-17d0-4baa-9b21-96891eb6763f","system_id":"levelo_inurba_marseille","lat":43.2968,"lon":5.37291,"is_reserved":false,"is_disabled":false,"rental_uris":{"android":"levelo://app?vid=403355ab-17d0-4baa-9b21-96891eb6763f","ios":"levelo://app?vid=403355ab-17d0-4baa-9b21-96891eb6763f"},"vehicle_type_id":"4","last_reported":1706814384,"current_range_meters":6400,"station_id":"ce4bgk12rcd13ifvqbj0","pricing_plan_id":"free"},{"bike_id":"9f123490-797c-48bf-b0fe-6381975956a5","system_id":"levelo_inurba_marseille","lat":43.31751,"lon":5.38907,"is_reserved":false,"is_disabled":false,"rental_uris":{"android":"levelo://app?vid=9f123490-797c-48bf-b0fe-6381975956a5","ios":"levelo://app?vid=9f123490-797c-48bf-b0fe-6381975956a5"},"vehicle_type_id":"4","last_reported":1706814384,"current_range_meters":22800,"station_id":"","pricing_plan_id":"free"},{"bike_id":"8e8d5e09-fbcd-42ba-971e-4812e2d543b1","system_id":"levelo_inurba_marseille","lat":43.29584,"lon":5.36742,"is_reserved":false,"is_disabled":false,"rental_uris":{"android":"levelo://app?vid=8e8d5e09-fbcd-42ba-971e-4812e2d543b1","ios":"levelo://app?vid=8e8d5e09-fbcd-42ba-971e-4812e2d543b1"},"vehicle_type_id":"4","last_reported":1706814384,"current_range_meters":20800,"station_id":"ce4bgph2rcd13ifvqc2g","pricing_plan_id":"free"},{"bike_id":"5b46968d-d1ed-4159-91fe-1f7e078c653f","system_id":"levelo_inurba_marseille","lat":43.29573,"lon":5.367355,"is_reserved":false,"is_disabled":false,"rental_uris":{"android":"levelo://app?vid=5b46968d-d1ed-4159-91fe-1f7e078c653f","ios":"levelo://app?vid=5b46968d-d1ed-4159-91fe-1f7e078c653f"},"vehicle_type_id":"4","last_reported":1706814384,"current_range_meters":30800,"station_id":"ce4bgph2rcd13ifvqc2g","pricing_plan_id":"free"},{"bike_id":"62f24234-b45c-456f-a110-352edadb4879","system_id":"levelo_inurba_marseille","lat":43.29582,"lon":5.36741,"is_reserved":false,"is_disabled":false,"rental_uris":{"android":"levelo://app?vid=62f24234-b45c-456f-a110-352edadb4879","ios":"levelo://app?vid=62f24234-b45c-456f-a110-352edadb4879"},"vehicle_type_id":"4","last_reported":1706814384,"current_range_meters":24800,"station_id":"ce4bgph2rcd13ifvqc2g","pricing_plan_id":"free"},{"bike_id":"7e8f5e31-d362-4882-b05c-fd4318c0f860","system_id":"levelo_inurba_marseille","lat":43.29573,"lon":5.367355,"is_reserved":false,"is_disabled":false,"rental_uris":{"android":"levelo://app?vid=7e8f5e31-d362-4882-b05c-fd4318c0f860","ios":"levelo://app?vid=7e8f5e31-d362-4882-b05c-fd4318c0f860"},"vehicle_type_id":"4","last_reported":1706814384,"current_range_meters":22400,"station_id":"ce4bgph2rcd13ifvqc2g","pricing_plan_id":"free"},{"bike_id":"e1f3b95b-2238-422a-9316-290466ff036d","system_id":"levelo_inurba_marseille","lat":43.296921,"lon":5.376579,"is_reserved":false,"is_disabled":false,"rental_uris":{"android":"levelo://app?vid=e1f3b95b-2238-422a-9316-290466ff036d","ios":"levelo://app?vid=e1f3b95b-2238-422a-9316-290466ff036d"},"vehicle_type_id":"4","last_reported":1706814384,"current_range_meters":3600,"station_id":"ce4bgkh2rcd13ifvqbl0","pricing_plan_id":"free"},{"bike_id":"646447d3-b90a-4c79-80bc-61cfee8e1fb0","system_id":"levelo_inurba_marseille","lat":43.317557,"lon":5.390173,"is_reserved":false,"is_disabled":false,"rental_uris":{"android":"levelo://app?vid=646447d3-b90a-4c79-80bc-61cfee8e1fb0","ios":"levelo://app?vid=646447d3-b90a-4c79-80bc-61cfee8e1fb0"},"vehicle_type_id":"4","last_reported":1706814384,"current_range_meters":400,"station_id":"ce4bhqp2rcd13ifvqhng","pricing_plan_id":"free"},{"bike_id":"3fecf167-fccf-451d-8a9a-2c9fc14b9ce3","system_id":"levelo_inurba_marseille","lat":43.317557,"lon":5.390173,"is_reserved":false,"is_disabled":false,"rental_uris":{"android":"levelo://app?vid=3fecf167-fccf-451d-8a9a-2c9fc14b9ce3","ios":"levelo://app?vid=3fecf167-fccf-451d-8a9a-2c9fc14b9ce3"},"vehicle_type_id":"4","last_reported":1706814384,"current_range_meters":23200,"station_id":"ce4bhqp2rcd13ifvqhng","pricing_plan_id":"free"},{"bike_id":"cd8fa63d-c98a-4b5e-8b87-f5021ff62786","system_id":"levelo_inurba_marseille","lat":43.298037,"lon":5.381066,"is_reserved":false,"is_disabled":false,"rental_uris":{"android":"levelo://app?vid=cd8fa63d-c98a-4b5e-8b87-f5021ff62786","ios":"levelo://app?vid=cd8fa63d-c98a-4b5e-8b87-f5021ff62786"},"vehicle_type_id":"4","last_reported":1706814384,"current_range_meters":6000,"station_id":"ce4bgip2rcd13ifvqbb0","pricing_plan_id":"free"},{"bike_id":"3368347a-c716-4d50-afe2-bbf95a2fe630","system_id":"levelo_inurba_marseille","lat":43.29799,"lon":5.38101,"is_reserved":false,"is_disabled":false,"rental_uris":{"android":"levelo://app?vid=3368347a-c716-4d50-afe2-bbf95a2fe630","ios":"levelo://app?vid=3368347a-c716-4d50-afe2-bbf95a2fe630"},"vehicle_type_id":"4","last_reported":1706814384,"current_range_meters":9200,"station_id":"ce4bgip2rcd13ifvqbb0","pricing_plan_id":"free"},{"bike_id":"c01279cc-0b4b-4497-a708-46117488381a","system_id":"levelo_inurba_marseille","lat":43.304278,"lon":5.388868,"is_reserved":false,"is_disabled":false,"rental_uris":{"android":"levelo://app?vid=c01279cc-0b4b-4497-a708-46117488381a","ios":"levelo://app?vid=c01279cc-0b4b-4497-a708-46117488381a"},"vehicle_type_id":"4","last_reported":1706814384,"current_range_meters":3200,"station_id":"ce4bgk12rcd13ifvqbi0","pricing_plan_id":"free"},{"bike_id":"3f32812a-fdfe-469c-a30e-4cc5efa57c0c","system_id":"levelo_inurba_marseille","lat":43.295748,"lon":5.37522,"is_reserved":false,"is_disabled":false,"rental_uris":{"android":"levelo://app?vid=3f32812a-fdfe-469c-a30e-4cc5efa57c0c","ios":"levelo://app?vid=3f32812a-fdfe-469c-a30e-4cc5efa57c0c"},"vehicle_type_id":"4","last_reported":1706814384,"current_range_meters":12000,"station_id":"ce4bgh92rcd13ifvqb50","pricing_plan_id":"free"},{"bike_id":"7a74c030-cae7-46ce-9925-3c034fa51af1","system_id":"levelo_inurba_marseille","lat":43.304274,"lon":5.388873,"is_reserved":false,"is_disabled":false,"rental_uris":{"android":"levelo://app?vid=7a74c030-cae7-46ce-9925-3c034fa51af1","ios":"levelo://app?vid=7a74c030-cae7-46ce-9925-3c034fa51af1"},"vehicle_type_id":"4","last_reported":1706814384,"current_range_meters":22800,"station_id":"ce4bgk12rcd13ifvqbi0","pricing_plan_id":"free"},{"bike_id":"e40808ab-f158-4f50-ac72-96bea3e2e8f8","system_id":"levelo_inurba_marseille","lat":43.304278,"lon":5.388868,"is_reserved":false,"is_disabled":false,"rental_uris":{"android":"levelo://app?vid=e40808ab-f158-4f50-ac72-96bea3e2e8f8","ios":"levelo://app?vid=e40808ab-f158-4f50-ac72-96bea3e2e8f8"},"vehicle_type_id":"4","last_reported":1706814384,"current_range_meters":400,"station_id":"ce4bgk12rcd13ifvqbi0","pricing_plan_id":"free"},{"bike_id":"7ab581a0-3933-4376-b965-8072a9b2dd64","system_id":"levelo_inurba_marseille","lat":43.32367,"lon":5.388836,"is_reserved":false,"is_disabled":false,"rental_uris":{"android":"levelo://app?vid=7ab581a0-3933-4376-b965-8072a9b2dd64","ios":"levelo://app?vid=7ab581a0-3933-4376-b965-8072a9b2dd64"},"vehicle_type_id":"4","last_reported":1706814384,"current_range_meters":4000,"station_id":"ce4bhqp2rcd13ifvqhog","pricing_plan_id":"free"},{"bike_id":"df49dca8-eff4-4fb6-b5ec-7abf9e25044f","system_id":"levelo_inurba_marseille","lat":43.32367,"lon":5.388836,"is_reserved":false,"is_disabled":false,"rental_uris":{"android":"levelo://app?vid=df49dca8-eff4-4fb6-b5ec-7abf9e25044f","ios":"levelo://app?vid=df49dca8-eff4-4fb6-b5ec-7abf9e25044f"},"vehicle_type_id":"4","last_reported":1706814384,"current_range_meters":17600,"station_id":"ce4bhqp2rcd13ifvqhog","pricing_plan_id":"free"},{"bike_id":"d245749e-1cc3-4f73-8b63-addd261ec499","system_id":"levelo_inurba_marseille","lat":43.32367,"lon":5.388836,"is_reserved":false,"is_disabled":false,"rental_uris":{"android":"levelo://app?vid=d245749e-1cc3-4f73-8b63-addd261ec499","ios":"levelo://app?vid=d245749e-1cc3-4f73-8b63-addd261ec499"},"vehicle_type_id":"4","last_reported":1706814384,"current_range_meters":5200,"station_id":"ce4bhqp2rcd13ifvqhog","pricing_plan_id":"free"},{"bike_id":"ba6df169-e42e-41e1-9099-8133b958ca2c","system_id":"levelo_inurba_marseille","lat":43.32367,"lon":5.388836,"is_reserved":false,"is_disabled":false,"rental_uris":{"android":"levelo://app?vid=ba6df169-e42e-41e1-9099-8133b958ca2c","ios":"levelo://app?vid=ba6df169-e42e-41e1-9099-8133b958ca2c"},"vehicle_type_id":"4","last_reported":1706814384,"current_range_meters":5200,"station_id":"ce4bhqp2rcd13ifvqhog","pricing_plan_id":"free"},{"bike_id":"202df9dd-3b20-4310-9dde-7a88eca4db2d","system_id":"levelo_inurba_marseille","lat":43.32367,"lon":5.388836,"is_reserved":false,"is_disabled":false,"rental_uris":{"android":"levelo://app?vid=202df9dd-3b20-4310-9dde-7a88eca4db2d","ios":"levelo://app?vid=202df9dd-3b20-4310-9dde-7a88eca4db2d"},"vehicle_type_id":"4","last_reported":1706814384,"current_range_meters":3600,"station_id":"ce4bhqp2rcd13ifvqhog","pricing_plan_id":"free"},{"bike_id":"5118de90-c727-4c12-bf98-99f5b63d7830","system_id":"levelo_inurba_marseille","lat":43.32367,"lon":5.388836,"is_reserved":false,"is_disabled":false,"rental_uris":{"android":"levelo://app?vid=5118de90-c727-4c12-bf98-99f5b63d7830","ios":"levelo://app?vid=5118de90-c727-4c12-bf98-99f5b63d7830"},"vehicle_type_id":"4","last_reported":1706814384,"current_range_meters":5200,"station_id":"ce4bhqp2rcd13ifvqhog","pricing_plan_id":"free"},{"bike_id":"efa6bd51-c94f-4107-9e97-437d3697b8cb","system_id":"levelo_inurba_marseille","lat":43.32367,"lon":5.388836,"is_reserved":false,"is_disabled":false,"rental_uris":{"android":"levelo://app?vid=efa6bd51-c94f-4107-9e97-437d3697b8cb","ios":"levelo://app?vid=efa6bd51-c94f-4107-9e97-437d3697b8cb"},"vehicle_type_id":"4","last_reported":1706814384,"current_range_meters":5600,"station_id":"ce4bhqp2rcd13ifvqhog","pricing_plan_id":"free"},{"bike_id":"8a95fa2d-22e9-49e9-b83e-c425ecfb1916","system_id":"levelo_inurba_marseille","lat":43.323718,"lon":5.388888,"is_reserved":false,"is_disabled":false,"rental_uris":{"android":"levelo://app?vid=8a95fa2d-22e9-49e9-b83e-c425ecfb1916","ios":"levelo://app?vid=8a95fa2d-22e9-49e9-b83e-c425ecfb1916"},"vehicle_type_id":"4","last_reported":1706814384,"current_range_meters":26400,"station_id":"ce4bhqp2rcd13ifvqhog","pricing_plan_id":"free"},{"bike_id":"ce65d65d-0811-486a-a293-ea2aa489aaab","system_id":"levelo_inurba_marseille","lat":43.29601,"lon":5.380918,"is_reserved":false,"is_disabled":false,"rental_uris":{"android":"levelo://app?vid=ce65d65d-0811-486a-a293-ea2aa489aaab","ios":"levelo://app?vid=ce65d65d-0811-486a-a293-ea2aa489aaab"},"vehicle_type_id":"4","last_reported":1706814384,"current_range_meters":0,"station_id":"ce4bgl12rcd13ifvqbo0","pricing_plan_id":"free"},{"bike_id":"78e54708-26d6-4641-ba3a-56fab91b7e0e","system_id":"levelo_inurba_marseille","lat":43.296008,"lon":5.380963,"is_reserved":false,"is_disabled":false,"rental_uris":{"android":"levelo://app?vid=78e54708-26d6-4641-ba3a-56fab91b7e0e","ios":"levelo://app?vid=78e54708-26d6-4641-ba3a-56fab91b7e0e"},"vehicle_type_id":"4","last_reported":1706814384,"current_range_meters":0,"station_id":"ce4bgl12rcd13ifvqbo0","pricing_plan_id":"free"},{"bike_id":"30abc200-3b8d-4408-80dd-79c39aee75e4","system_id":"levelo_inurba_marseille","lat":43.29286,"lon":5.36847,"is_reserved":false,"is_disabled":false,"rental_uris":{"android":"levelo://app?vid=30abc200-3b8d-4408-80dd-79c39aee75e4","ios":"levelo://app?vid=30abc200-3b8d-4408-80dd-79c39aee75e4"},"vehicle_type_id":"4","last_reported":1706814384,"current_range_meters":18000,"station_id":"ce4bhbp2rcd13ifvqesg","pricing_plan_id":"free"},{"bike_id":"49a97404-72bd-46c3-a483-f508344e67e7","system_id":"levelo_inurba_marseille","lat":43.293249,"lon":5.371578,"is_reserved":false,"is_disabled":false,"rental_uris":{"android":"levelo://app?vid=49a97404-72bd-46c3-a483-f508344e67e7","ios":"levelo://app?vid=49a97404-72bd-46c3-a483-f508344e67e7"},"vehicle_type_id":"4","last_reported":1706814384,"current_range_meters":6800,"station_id":"ce4bgh92rcd13ifvqb40","pricing_plan_id":"free"},{"bike_id":"87de8b7f-2ad7-4e6c-9b6e-b642044dfbe0","system_id":"levelo_inurba_marseille","lat":43.292749,"lon":5.368402,"is_reserved":false,"is_disabled":false,"rental_uris":{"android":"levelo://app?vid=87de8b7f-2ad7-4e6c-9b6e-b642044dfbe0","ios":"levelo://app?vid=87de8b7f-2ad7-4e6c-9b6e-b642044dfbe0"},"vehicle_type_id":"4","last_reported":1706814384,"current_range_meters":6000,"station_id":"ce4bhbp2rcd13ifvqesg","pricing_plan_id":"free"},{"bike_id":"317012b3-a904-4233-b09e-6a2bff5d1b57","system_id":"levelo_inurba_marseille","lat":43.292749,"lon":5.368402,"is_reserved":false,"is_disabled":false,"rental_uris":{"android":"levelo://app?vid=317012b3-a904-4233-b09e-6a2bff5d1b57","ios":"levelo://app?vid=317012b3-a904-4233-b09e-6a2bff5d1b57"},"vehicle_type_id":"4","last_reported":1706814384,"current_range_meters":4800,"station_id":"ce4bhbp2rcd13ifvqesg","pricing_plan_id":"free"},{"bike_id":"3e523946-a610-4b17-9847-aaf10210e7db","system_id":"levelo_inurba_marseille","lat":43.292749,"lon":5.368402,"is_reserved":false,"is_disabled":false,"rental_uris":{"android":"levelo://app?vid=3e523946-a610-4b17-9847-aaf10210e7db","ios":"levelo://app?vid=3e523946-a610-4b17-9847-aaf10210e7db"},"vehicle_type_id":"4","last_reported":1706814384,"current_range_meters":20400,"station_id":"ce4bhbp2rcd13ifvqesg","pricing_plan_id":"free"},{"bike_id":"43d2aa9e-3050-43b1-9645-839105dd7976","system_id":"levelo_inurba_marseille","lat":43.292749,"lon":5.368402,"is_reserved":false,"is_disabled":false,"rental_uris":{"android":"levelo://app?vid=43d2aa9e-3050-43b1-9645-839105dd7976","ios":"levelo://app?vid=43d2aa9e-3050-43b1-9645-839105dd7976"},"vehicle_type_id":"4","last_reported":1706814384,"current_range_meters":0,"station_id":"ce4bhbp2rcd13ifvqesg","pricing_plan_id":"free"},{"bike_id":"d95fa448-0dd1-47be-b016-0ba368234a52","system_id":"levelo_inurba_marseille","lat":43.292749,"lon":5.368402,"is_reserved":false,"is_disabled":false,"rental_uris":{"android":"levelo://app?vid=d95fa448-0dd1-47be-b016-0ba368234a52","ios":"levelo://app?vid=d95fa448-0dd1-47be-b016-0ba368234a52"},"vehicle_type_id":"4","last_reported":1706814384,"current_range_meters":6800,"station_id":"ce4bhbp2rcd13ifvqesg","pricing_plan_id":"free"},{"bike_id":"89ff45ae-f551-4795-9105-ca8fb0c5d6e7","system_id":"levelo_inurba_marseille","lat":43.292749,"lon":5.368398,"is_reserved":false,"is_disabled":false,"rental_uris":{"android":"levelo://app?vid=89ff45ae-f551-4795-9105-ca8fb0c5d6e7","ios":"levelo://app?vid=89ff45ae-f551-4795-9105-ca8fb0c5d6e7"},"vehicle_type_id":"4","last_reported":1706814384,"current_range_meters":9200,"station_id":"ce4bhbp2rcd13ifvqesg","pricing_plan_id":"free"},{"bike_id":"2e2f6dbd-5e28-4d89-ac8b-3eac8634e4ed","system_id":"levelo_inurba_marseille","lat":43.292749,"lon":5.368402,"is_reserved":false,"is_disabled":false,"rental_uris":{"android":"levelo://app?vid=2e2f6dbd-5e28-4d89-ac8b-3eac8634e4ed","ios":"levelo://app?vid=2e2f6dbd-5e28-4d89-ac8b-3eac8634e4ed"},"vehicle_type_id":"4","last_reported":1706814384,"current_range_meters":23600,"station_id":"ce4bhbp2rcd13ifvqesg","pricing_plan_id":"free"},{"bike_id":"042c9333-f09a-4385-b574-5f9abd88a319","system_id":"levelo_inurba_marseille","lat":43.292749,"lon":5.368402,"is_reserved":false,"is_disabled":false,"rental_uris":{"android":"levelo://app?vid=042c9333-f09a-4385-b574-5f9abd88a319","ios":"levelo://app?vid=042c9333-f09a-4385-b574-5f9abd88a319"},"vehicle_type_id":"4","last_reported":1706814384,"current_range_meters":2800,"station_id":"ce4bhbp2rcd13ifvqesg","pricing_plan_id":"free"},{"bike_id":"46751822-489a-4960-8d58-fa22e83b9cae","system_id":"levelo_inurba_marseille","lat":43.29281,"lon":5.36853,"is_reserved":false,"is_disabled":false,"rental_uris":{"android":"levelo://app?vid=46751822-489a-4960-8d58-fa22e83b9cae","ios":"levelo://app?vid=46751822-489a-4960-8d58-fa22e83b9cae"},"vehicle_type_id":"4","last_reported":1706814384,"current_range_meters":0,"station_id":"ce4bhbp2rcd13ifvqesg","pricing_plan_id":"free"},{"bike_id":"aa3e57ea-dbe7-40f0-b521-f7139236e7f2","system_id":"levelo_inurba_marseille","lat":43.292749,"lon":5.368398,"is_reserved":false,"is_disabled":false,"rental_uris":{"android":"levelo://app?vid=aa3e57ea-dbe7-40f0-b521-f7139236e7f2","ios":"levelo://app?vid=aa3e57ea-dbe7-40f0-b521-f7139236e7f2"},"vehicle_type_id":"4","last_reported":1706814384,"current_range_meters":10400,"station_id":"ce4bhbp2rcd13ifvqesg","pricing_plan_id":"free"},{"bike_id":"8fa160d0-6228-4d23-9ad3-69c81c46ab5d","system_id":"levelo_inurba_marseille","lat":43.292749,"lon":5.368402,"is_reserved":false,"is_disabled":false,"rental_uris":{"android":"levelo://app?vid=8fa160d0-6228-4d23-9ad3-69c81c46ab5d","ios":"levelo://app?vid=8fa160d0-6228-4d23-9ad3-69c81c46ab5d"},"vehicle_type_id":"4","last_reported":1706814384,"current_range_meters":6000,"station_id":"ce4bhbp2rcd13ifvqesg","pricing_plan_id":"free"},{"bike_id":"bd5afd6e-284a-4751-a0be-9a1fe865711d","system_id":"levelo_inurba_marseille","lat":43.292797,"lon":5.368483,"is_reserved":false,"is_disabled":false,"rental_uris":{"android":"levelo://app?vid=bd5afd6e-284a-4751-a0be-9a1fe865711d","ios":"levelo://app?vid=bd5afd6e-284a-4751-a0be-9a1fe865711d"},"vehicle_type_id":"4","last_reported":1706814384,"current_range_meters":4400,"station_id":"ce4bhbp2rcd13ifvqesg","pricing_plan_id":"free"},{"bike_id":"e311eba2-c901-4dcc-aadb-4a829e46de51","system_id":"levelo_inurba_marseille","lat":43.292749,"lon":5.368402,"is_reserved":false,"is_disabled":false,"rental_uris":{"android":"levelo://app?vid=e311eba2-c901-4dcc-aadb-4a829e46de51","ios":"levelo://app?vid=e311eba2-c901-4dcc-aadb-4a829e46de51"},"vehicle_type_id":"4","last_reported":1706814384,"current_range_meters":23600,"station_id":"ce4bhbp2rcd13ifvqesg","pricing_plan_id":"free"},{"bike_id":"7be72cc3-3301-4613-83e0-99d037a8723f","system_id":"levelo_inurba_marseille","lat":43.292749,"lon":5.368402,"is_reserved":false,"is_disabled":false,"rental_uris":{"android":"levelo://app?vid=7be72cc3-3301-4613-83e0-99d037a8723f","ios":"levelo://app?vid=7be72cc3-3301-4613-83e0-99d037a8723f"},"vehicle_type_id":"4","last_reported":1706814384,"current_range_meters":5600,"station_id":"ce4bhbp2rcd13ifvqesg","pricing_plan_id":"free"},{"bike_id":"5965ea80-d4e1-47dd-badd-c308b2abf701","system_id":"levelo_inurba_marseille","lat":43.292749,"lon":5.368402,"is_reserved":false,"is_disabled":false,"rental_uris":{"android":"levelo://app?vid=5965ea80-d4e1-47dd-badd-c308b2abf701","ios":"levelo://app?vid=5965ea80-d4e1-47dd-badd-c308b2abf701"},"vehicle_type_id":"4","last_reported":1706814384,"current_range_meters":25600,"station_id":"ce4bhbp2rcd13ifvqesg","pricing_plan_id":"free"},{"bike_id":"48b7a46c-4b4e-4c3f-8d02-8ae9e3bf3a19","system_id":"levelo_inurba_marseille","lat":43.292749,"lon":5.368402,"is_reserved":false,"is_disabled":false,"rental_uris":{"android":"levelo://app?vid=48b7a46c-4b4e-4c3f-8d02-8ae9e3bf3a19","ios":"levelo://app?vid=48b7a46c-4b4e-4c3f-8d02-8ae9e3bf3a19"},"vehicle_type_id":"4","last_reported":1706814384,"current_range_meters":27200,"station_id":"ce4bhbp2rcd13ifvqesg","pricing_plan_id":"free"},{"bike_id":"78aad8d7-19b9-4760-9614-d317706800d4","system_id":"levelo_inurba_marseille","lat":43.292749,"lon":5.368402,"is_reserved":false,"is_disabled":false,"rental_uris":{"android":"levelo://app?vid=78aad8d7-19b9-4760-9614-d317706800d4","ios":"levelo://app?vid=78aad8d7-19b9-4760-9614-d317706800d4"},"vehicle_type_id":"4","last_reported":1706814384,"current_range_meters":21200,"station_id":"ce4bhbp2rcd13ifvqesg","pricing_plan_id":"free"},{"bike_id":"3d22a4e2-53d1-41fc-a54e-53acf5f7d7f9","system_id":"levelo_inurba_marseille","lat":43.292749,"lon":5.368402,"is_reserved":false,"is_disabled":false,"rental_uris":{"android":"levelo://app?vid=3d22a4e2-53d1-41fc-a54e-53acf5f7d7f9","ios":"levelo://app?vid=3d22a4e2-53d1-41fc-a54e-53acf5f7d7f9"},"vehicle_type_id":"4","last_reported":1706814384,"current_range_meters":22000,"station_id":"ce4bhbp2rcd13ifvqesg","pricing_plan_id":"free"},{"bike_id":"ea724b38-3269-4e2b-9538-5e666e3f8efa","system_id":"levelo_inurba_marseille","lat":43.292749,"lon":5.368398,"is_reserved":false,"is_disabled":false,"rental_uris":{"android":"levelo://app?vid=ea724b38-3269-4e2b-9538-5e666e3f8efa","ios":"levelo://app?vid=ea724b38-3269-4e2b-9538-5e666e3f8efa"},"vehicle_type_id":"4","last_reported":1706814384,"current_range_meters":4000,"station_id":"ce4bhbp2rcd13ifvqesg","pricing_plan_id":"free"},{"bike_id":"5a27ee9d-d168-43a1-8005-5b175a522e9d","system_id":"levelo_inurba_marseille","lat":43.292749,"lon":5.368402,"is_reserved":false,"is_disabled":false,"rental_uris":{"android":"levelo://app?vid=5a27ee9d-d168-43a1-8005-5b175a522e9d","ios":"levelo://app?vid=5a27ee9d-d168-43a1-8005-5b175a522e9d"},"vehicle_type_id":"4","last_reported":1706814384,"current_range_meters":26400,"station_id":"ce4bhbp2rcd13ifvqesg","pricing_plan_id":"free"},{"bike_id":"ab248cbe-7a40-452c-a3e3-b9091efe8a5f","system_id":"levelo_inurba_marseille","lat":43.293249,"lon":5.371578,"is_reserved":false,"is_disabled":false,"rental_uris":{"android":"levelo://app?vid=ab248cbe-7a40-452c-a3e3-b9091efe8a5f","ios":"levelo://app?vid=ab248cbe-7a40-452c-a3e3-b9091efe8a5f"},"vehicle_type_id":"4","last_reported":1706814384,"current_range_meters":16400,"station_id":"ce4bgh92rcd13ifvqb40","pricing_plan_id":"free"},{"bike_id":"9c3723f9-a95c-446f-b4f2-6095c4fc7d4d","system_id":"levelo_inurba_marseille","lat":43.292749,"lon":5.368402,"is_reserved":false,"is_disabled":false,"rental_uris":{"android":"levelo://app?vid=9c3723f9-a95c-446f-b4f2-6095c4fc7d4d","ios":"levelo://app?vid=9c3723f9-a95c-446f-b4f2-6095c4fc7d4d"},"vehicle_type_id":"4","last_reported":1706814384,"current_range_meters":10800,"station_id":"ce4bhbp2rcd13ifvqesg","pricing_plan_id":"free"},{"bike_id":"931efab2-03ca-4fd5-b5e4-11e9acd23146","system_id":"levelo_inurba_marseille","lat":43.292749,"lon":5.368398,"is_reserved":false,"is_disabled":false,"rental_uris":{"android":"levelo://app?vid=931efab2-03ca-4fd5-b5e4-11e9acd23146","ios":"levelo://app?vid=931efab2-03ca-4fd5-b5e4-11e9acd23146"},"vehicle_type_id":"4","last_reported":1706814384,"current_range_meters":16800,"station_id":"ce4bhbp2rcd13ifvqesg","pricing_plan_id":"free"},{"bike_id":"d91138f3-af5d-4440-bc88-28f7f93b0367","system_id":"levelo_inurba_marseille","lat":43.29275,"lon":5.36841,"is_reserved":false,"is_disabled":false,"rental_uris":{"android":"levelo://app?vid=d91138f3-af5d-4440-bc88-28f7f93b0367","ios":"levelo://app?vid=d91138f3-af5d-4440-bc88-28f7f93b0367"},"vehicle_type_id":"4","last_reported":1706814384,"current_range_meters":3600,"station_id":"ce4bhbp2rcd13ifvqesg","pricing_plan_id":"free"},{"bike_id":"dd82ae11-8d33-4733-a293-2895ba296241","system_id":"levelo_inurba_marseille","lat":43.29275,"lon":5.36842,"is_reserved":false,"is_disabled":false,"rental_uris":{"android":"levelo://app?vid=dd82ae11-8d33-4733-a293-2895ba296241","ios":"levelo://app?vid=dd82ae11-8d33-4733-a293-2895ba296241"},"vehicle_type_id":"4","last_reported":1706814384,"current_range_meters":2800,"station_id":"ce4bhbp2rcd13ifvqesg","pricing_plan_id":"free"},{"bike_id":"46ce8125-9a91-43e2-8ea4-9a1c7b4a6327","system_id":"levelo_inurba_marseille","lat":43.294162,"lon":5.386292,"is_reserved":false,"is_disabled":false,"rental_uris":{"android":"levelo://app?vid=46ce8125-9a91-43e2-8ea4-9a1c7b4a6327","ios":"levelo://app?vid=46ce8125-9a91-43e2-8ea4-9a1c7b4a6327"},"vehicle_type_id":"4","last_reported":1706814384,"current_range_meters":15600,"station_id":"ce4bh2h2rcd13ifvqdh0","pricing_plan_id":"free"},{"bike_id":"017b0daf-e82a-425d-9b11-add5f496a4e2","system_id":"levelo_inurba_marseille","lat":43.292749,"lon":5.368402,"is_reserved":false,"is_disabled":false,"rental_uris":{"android":"levelo://app?vid=017b0daf-e82a-425d-9b11-add5f496a4e2","ios":"levelo://app?vid=017b0daf-e82a-425d-9b11-add5f496a4e2"},"vehicle_type_id":"4","last_reported":1706814384,"current_range_meters":2000,"station_id":"ce4bhbp2rcd13ifvqesg","pricing_plan_id":"free"},{"bike_id":"f169fcfa-d3c4-4a60-8112-0607ef004037","system_id":"levelo_inurba_marseille","lat":43.292749,"lon":5.368398,"is_reserved":false,"is_disabled":false,"rental_uris":{"android":"levelo://app?vid=f169fcfa-d3c4-4a60-8112-0607ef004037","ios":"levelo://app?vid=f169fcfa-d3c4-4a60-8112-0607ef004037"},"vehicle_type_id":"4","last_reported":1706814384,"current_range_meters":0,"station_id":"ce4bhbp2rcd13ifvqesg","pricing_plan_id":"free"},{"bike_id":"a006908d-d1a3-43be-a074-e650f3ac6922","system_id":"levelo_inurba_marseille","lat":43.293009,"lon":5.374584,"is_reserved":false,"is_disabled":false,"rental_uris":{"android":"levelo://app?vid=a006908d-d1a3-43be-a074-e650f3ac6922","ios":"levelo://app?vid=a006908d-d1a3-43be-a074-e650f3ac6922"},"vehicle_type_id":"4","last_reported":1706814384,"current_range_meters":8000,"station_id":"ce4bgi12rcd13ifvqb70","pricing_plan_id":"free"},{"bike_id":"61082777-a711-46cb-9d0e-858779c375b5","system_id":"levelo_inurba_marseille","lat":43.305994,"lon":5.393687,"is_reserved":false,"is_disabled":false,"rental_uris":{"android":"levelo://app?vid=61082777-a711-46cb-9d0e-858779c375b5","ios":"levelo://app?vid=61082777-a711-46cb-9d0e-858779c375b5"},"vehicle_type_id":"4","last_reported":1706814384,"current_range_meters":13600,"station_id":"ce4bh0p2rcd13ifvqd80","pricing_plan_id":"free"},{"bike_id":"a67fbc5e-1e61-41a6-8f85-b7dbc0293afc","system_id":"levelo_inurba_marseille","lat":43.293009,"lon":5.374584,"is_reserved":false,"is_disabled":false,"rental_uris":{"android":"levelo://app?vid=a67fbc5e-1e61-41a6-8f85-b7dbc0293afc","ios":"levelo://app?vid=a67fbc5e-1e61-41a6-8f85-b7dbc0293afc"},"vehicle_type_id":"4","last_reported":1706814384,"current_range_meters":10800,"station_id":"ce4bgi12rcd13ifvqb70","pricing_plan_id":"free"},{"bike_id":"f425a125-d079-4b7e-bcdc-504849bc4941","system_id":"levelo_inurba_marseille","lat":43.302992,"lon":5.392136,"is_reserved":false,"is_disabled":false,"rental_uris":{"android":"levelo://app?vid=f425a125-d079-4b7e-bcdc-504849bc4941","ios":"levelo://app?vid=f425a125-d079-4b7e-bcdc-504849bc4941"},"vehicle_type_id":"4","last_reported":1706814384,"current_range_meters":30400,"station_id":"ce4bgkh2rcd13ifvqbk0","pricing_plan_id":"free"},{"bike_id":"514716b6-1f8d-4d32-997e-b9fb8c885a7c","system_id":"levelo_inurba_marseille","lat":43.30304,"lon":5.392067,"is_reserved":false,"is_disabled":false,"rental_uris":{"android":"levelo://app?vid=514716b6-1f8d-4d32-997e-b9fb8c885a7c","ios":"levelo://app?vid=514716b6-1f8d-4d32-997e-b9fb8c885a7c"},"vehicle_type_id":"4","last_reported":1706814384,"current_range_meters":0,"station_id":"ce4bgkh2rcd13ifvqbk0","pricing_plan_id":"free"},{"bike_id":"ee5a6da1-efdf-4d28-b571-28ee94ad31b9","system_id":"levelo_inurba_marseille","lat":43.298681,"lon":5.397225,"is_reserved":false,"is_disabled":false,"rental_uris":{"android":"levelo://app?vid=ee5a6da1-efdf-4d28-b571-28ee94ad31b9","ios":"levelo://app?vid=ee5a6da1-efdf-4d28-b571-28ee94ad31b9"},"vehicle_type_id":"4","last_reported":1706814384,"current_range_meters":28000,"station_id":"ce4bh0h2rcd13ifvqd50","pricing_plan_id":"free"},{"bike_id":"c7d2f740-e47a-4ffa-9333-c4d734640fca","system_id":"levelo_inurba_marseille","lat":43.302992,"lon":5.392136,"is_reserved":false,"is_disabled":false,"rental_uris":{"android":"levelo://app?vid=c7d2f740-e47a-4ffa-9333-c4d734640fca","ios":"levelo://app?vid=c7d2f740-e47a-4ffa-9333-c4d734640fca"},"vehicle_type_id":"4","last_reported":1706814384,"current_range_meters":5200,"station_id":"ce4bgkh2rcd13ifvqbk0","pricing_plan_id":"free"},{"bike_id":"95295859-ecd5-454c-87fe-eb2ff1c493c6","system_id":"levelo_inurba_marseille","lat":43.30085,"lon":5.390856,"is_reserved":false,"is_disabled":false,"rental_uris":{"android":"levelo://app?vid=95295859-ecd5-454c-87fe-eb2ff1c493c6","ios":"levelo://app?vid=95295859-ecd5-454c-87fe-eb2ff1c493c6"},"vehicle_type_id":"4","last_reported":1706814384,"current_range_meters":8400,"station_id":"ce4bh192rcd13ifvqdb0","pricing_plan_id":"free"},{"bike_id":"e7123392-7d14-4711-89c5-fd5396789f83","system_id":"levelo_inurba_marseille","lat":43.298764,"lon":5.388973,"is_reserved":false,"is_disabled":false,"rental_uris":{"android":"levelo://app?vid=e7123392-7d14-4711-89c5-fd5396789f83","ios":"levelo://app?vid=e7123392-7d14-4711-89c5-fd5396789f83"},"vehicle_type_id":"4","last_reported":1706814384,"current_range_meters":18800,"station_id":"ce4bh392rcd13ifvqdl0","pricing_plan_id":"free"},{"bike_id":"b4b16144-62c4-466d-a1bc-60ceadfcc9a6","system_id":"levelo_inurba_marseille","lat":43.325725,"lon":5.389862,"is_reserved":false,"is_disabled":false,"rental_uris":{"android":"levelo://app?vid=b4b16144-62c4-466d-a1bc-60ceadfcc9a6","ios":"levelo://app?vid=b4b16144-62c4-466d-a1bc-60ceadfcc9a6"},"vehicle_type_id":"4","last_reported":1706814384,"current_range_meters":19200,"station_id":"","pricing_plan_id":"free"},{"bike_id":"efd58dce-c291-4b13-a0b2-0d90dbf551e2","system_id":"levelo_inurba_marseille","lat":43.298764,"lon":5.388973,"is_reserved":false,"is_disabled":false,"rental_uris":{"android":"levelo://app?vid=efd58dce-c291-4b13-a0b2-0d90dbf551e2","ios":"levelo://app?vid=efd58dce-c291-4b13-a0b2-0d90dbf551e2"},"vehicle_type_id":"4","last_reported":1706814384,"current_range_meters":15200,"station_id":"ce4bh392rcd13ifvqdl0","pricing_plan_id":"free"},{"bike_id":"d8e89909-70dc-4717-a68e-0779493500bf","system_id":"levelo_inurba_marseille","lat":43.291671,"lon":5.371575,"is_reserved":false,"is_disabled":false,"rental_uris":{"android":"levelo://app?vid=d8e89909-70dc-4717-a68e-0779493500bf","ios":"levelo://app?vid=d8e89909-70dc-4717-a68e-0779493500bf"},"vehicle_type_id":"4","last_reported":1706814384,"current_range_meters":11600,"station_id":"ce4bha92rcd13ifvqeh0","pricing_plan_id":"free"},{"bike_id":"f77bca62-3268-491e-bd47-34082a639eb2","system_id":"levelo_inurba_marseille","lat":43.291675,"lon":5.371583,"is_reserved":false,"is_disabled":false,"rental_uris":{"android":"levelo://app?vid=f77bca62-3268-491e-bd47-34082a639eb2","ios":"levelo://app?vid=f77bca62-3268-491e-bd47-34082a639eb2"},"vehicle_type_id":"4","last_reported":1706814384,"current_range_meters":12400,"station_id":"ce4bha92rcd13ifvqeh0","pricing_plan_id":"free"},{"bike_id":"817b8d79-8faa-45fe-a5b7-82876b135814","system_id":"levelo_inurba_marseille","lat":43.298764,"lon":5.388973,"is_reserved":false,"is_disabled":false,"rental_uris":{"android":"levelo://app?vid=817b8d79-8faa-45fe-a5b7-82876b135814","ios":"levelo://app?vid=817b8d79-8faa-45fe-a5b7-82876b135814"},"vehicle_type_id":"4","last_reported":1706814384,"current_range_meters":21200,"station_id":"ce4bh392rcd13ifvqdl0","pricing_plan_id":"free"},{"bike_id":"3cb84d99-a630-4d0d-b151-4386949045dd","system_id":"levelo_inurba_marseille","lat":43.298764,"lon":5.388973,"is_reserved":false,"is_disabled":false,"rental_uris":{"android":"levelo://app?vid=3cb84d99-a630-4d0d-b151-4386949045dd","ios":"levelo://app?vid=3cb84d99-a630-4d0d-b151-4386949045dd"},"vehicle_type_id":"4","last_reported":1706814384,"current_range_meters":4000,"station_id":"ce4bh392rcd13ifvqdl0","pricing_plan_id":"free"},{"bike_id":"f4ae57b8-3aa7-4839-a155-bf44bb58c0fc","system_id":"levelo_inurba_marseille","lat":43.291675,"lon":5.371583,"is_reserved":false,"is_disabled":false,"rental_uris":{"android":"levelo://app?vid=f4ae57b8-3aa7-4839-a155-bf44bb58c0fc","ios":"levelo://app?vid=f4ae57b8-3aa7-4839-a155-bf44bb58c0fc"},"vehicle_type_id":"4","last_reported":1706814384,"current_range_meters":6000,"station_id":"ce4bha92rcd13ifvqeh0","pricing_plan_id":"free"},{"bike_id":"b67d32b6-d53a-4bc3-ac8e-4086407151f4","system_id":"levelo_inurba_marseille","lat":43.313335,"lon":5.396865,"is_reserved":false,"is_disabled":false,"rental_uris":{"android":"levelo://app?vid=b67d32b6-d53a-4bc3-ac8e-4086407151f4","ios":"levelo://app?vid=b67d32b6-d53a-4bc3-ac8e-4086407151f4"},"vehicle_type_id":"4","last_reported":1706814384,"current_range_meters":3600,"station_id":"ce4bgvp2rcd13ifvqcu0","pricing_plan_id":"free"},{"bike_id":"f448e916-3647-423b-a728-5f525867e401","system_id":"levelo_inurba_marseille","lat":43.31335,"lon":5.39688,"is_reserved":false,"is_disabled":false,"rental_uris":{"android":"levelo://app?vid=f448e916-3647-423b-a728-5f525867e401","ios":"levelo://app?vid=f448e916-3647-423b-a728-5f525867e401"},"vehicle_type_id":"4","last_reported":1706814384,"current_range_meters":8800,"station_id":"ce4bgvp2rcd13ifvqcu0","pricing_plan_id":"free"},{"bike_id":"7f911037-81fc-42db-a46e-20ae80ece393","system_id":"levelo_inurba_marseille","lat":43.3133,"lon":5.39689,"is_reserved":false,"is_disabled":false,"rental_uris":{"android":"levelo://app?vid=7f911037-81fc-42db-a46e-20ae80ece393","ios":"levelo://app?vid=7f911037-81fc-42db-a46e-20ae80ece393"},"vehicle_type_id":"4","last_reported":1706814384,"current_range_meters":14000,"station_id":"ce4bgvp2rcd13ifvqcu0","pricing_plan_id":"free"},{"bike_id":"87989443-7fa3-4b52-a83a-15f62c484860","system_id":"levelo_inurba_marseille","lat":43.313291,"lon":5.396838,"is_reserved":false,"is_disabled":false,"rental_uris":{"android":"levelo://app?vid=87989443-7fa3-4b52-a83a-15f62c484860","ios":"levelo://app?vid=87989443-7fa3-4b52-a83a-15f62c484860"},"vehicle_type_id":"4","last_reported":1706814384,"current_range_meters":7600,"station_id":"ce4bgvp2rcd13ifvqcu0","pricing_plan_id":"free"},{"bike_id":"9bca7773-0269-4da2-84e2-2245ac834de6","system_id":"levelo_inurba_marseille","lat":43.31325,"lon":5.39691,"is_reserved":false,"is_disabled":false,"rental_uris":{"android":"levelo://app?vid=9bca7773-0269-4da2-84e2-2245ac834de6","ios":"levelo://app?vid=9bca7773-0269-4da2-84e2-2245ac834de6"},"vehicle_type_id":"4","last_reported":1706814384,"current_range_meters":6000,"station_id":"ce4bgvp2rcd13ifvqcu0","pricing_plan_id":"free"},{"bike_id":"34f9b118-51c9-4565-a5fd-502a141f777e","system_id":"levelo_inurba_marseille","lat":43.313291,"lon":5.396838,"is_reserved":false,"is_disabled":false,"rental_uris":{"android":"levelo://app?vid=34f9b118-51c9-4565-a5fd-502a141f777e","ios":"levelo://app?vid=34f9b118-51c9-4565-a5fd-502a141f777e"},"vehicle_type_id":"4","last_reported":1706814384,"current_range_meters":0,"station_id":"ce4bgvp2rcd13ifvqcu0","pricing_plan_id":"free"},{"bike_id":"67272d4c-5d0c-4edf-a12e-1790b8a03d98","system_id":"levelo_inurba_marseille","lat":43.31324,"lon":5.39693,"is_reserved":false,"is_disabled":false,"rental_uris":{"android":"levelo://app?vid=67272d4c-5d0c-4edf-a12e-1790b8a03d98","ios":"levelo://app?vid=67272d4c-5d0c-4edf-a12e-1790b8a03d98"},"vehicle_type_id":"4","last_reported":1706814384,"current_range_meters":16400,"station_id":"ce4bgvp2rcd13ifvqcu0","pricing_plan_id":"free"},{"bike_id":"4e4365e4-a262-4917-9c3a-1ce9d4fd8b13","system_id":"levelo_inurba_marseille","lat":43.313393,"lon":5.39695,"is_reserved":false,"is_disabled":false,"rental_uris":{"android":"levelo://app?vid=4e4365e4-a262-4917-9c3a-1ce9d4fd8b13","ios":"levelo://app?vid=4e4365e4-a262-4917-9c3a-1ce9d4fd8b13"},"vehicle_type_id":"4","last_reported":1706814384,"current_range_meters":5200,"station_id":"ce4bgvp2rcd13ifvqcu0","pricing_plan_id":"free"},{"bike_id":"a9c8d04d-db39-4533-afe8-3c027a580322","system_id":"levelo_inurba_marseille","lat":43.309038,"lon":5.396546,"is_reserved":false,"is_disabled":false,"rental_uris":{"android":"levelo://app?vid=a9c8d04d-db39-4533-afe8-3c027a580322","ios":"levelo://app?vid=a9c8d04d-db39-4533-afe8-3c027a580322"},"vehicle_type_id":"4","last_reported":1706814384,"current_range_meters":0,"station_id":"ce4bh012rcd13ifvqcv0","pricing_plan_id":"free"},{"bike_id":"6059cdb7-e586-4f49-bdd1-50519a1f0f1e","system_id":"levelo_inurba_marseille","lat":43.29529,"lon":5.385581,"is_reserved":false,"is_disabled":false,"rental_uris":{"android":"levelo://app?vid=6059cdb7-e586-4f49-bdd1-50519a1f0f1e","ios":"levelo://app?vid=6059cdb7-e586-4f49-bdd1-50519a1f0f1e"},"vehicle_type_id":"4","last_reported":1706814384,"current_range_meters":1200,"station_id":"ce4bgih2rcd13ifvqba0","pricing_plan_id":"free"},{"bike_id":"7da86454-f854-4acd-a7ba-1296f0d0f6f9","system_id":"levelo_inurba_marseille","lat":43.29529,"lon":5.385581,"is_reserved":false,"is_disabled":false,"rental_uris":{"android":"levelo://app?vid=7da86454-f854-4acd-a7ba-1296f0d0f6f9","ios":"levelo://app?vid=7da86454-f854-4acd-a7ba-1296f0d0f6f9"},"vehicle_type_id":"4","last_reported":1706814384,"current_range_meters":2400,"station_id":"ce4bgih2rcd13ifvqba0","pricing_plan_id":"free"},{"bike_id":"87f346ed-bfc3-40a8-995b-0c1363fb1aaa","system_id":"levelo_inurba_marseille","lat":43.29539,"lon":5.38544,"is_reserved":false,"is_disabled":false,"rental_uris":{"android":"levelo://app?vid=87f346ed-bfc3-40a8-995b-0c1363fb1aaa","ios":"levelo://app?vid=87f346ed-bfc3-40a8-995b-0c1363fb1aaa"},"vehicle_type_id":"4","last_reported":1706814384,"current_range_meters":0,"station_id":"ce4bgih2rcd13ifvqba0","pricing_plan_id":"free"},{"bike_id":"a902d05f-2090-4c85-9f60-1c89a90a6567","system_id":"levelo_inurba_marseille","lat":43.29532,"lon":5.38537,"is_reserved":false,"is_disabled":false,"rental_uris":{"android":"levelo://app?vid=a902d05f-2090-4c85-9f60-1c89a90a6567","ios":"levelo://app?vid=a902d05f-2090-4c85-9f60-1c89a90a6567"},"vehicle_type_id":"4","last_reported":1706814384,"current_range_meters":11600,"station_id":"ce4bgih2rcd13ifvqba0","pricing_plan_id":"free"},{"bike_id":"6b6e577a-c634-4592-b8a7-ec11116b19cc","system_id":"levelo_inurba_marseille","lat":43.29529,"lon":5.385581,"is_reserved":false,"is_disabled":false,"rental_uris":{"android":"levelo://app?vid=6b6e577a-c634-4592-b8a7-ec11116b19cc","ios":"levelo://app?vid=6b6e577a-c634-4592-b8a7-ec11116b19cc"},"vehicle_type_id":"4","last_reported":1706814384,"current_range_meters":2000,"station_id":"ce4bgih2rcd13ifvqba0","pricing_plan_id":"free"},{"bike_id":"bcd27e9d-6443-4c0a-8bfe-93b45c338107","system_id":"levelo_inurba_marseille","lat":43.29529,"lon":5.385581,"is_reserved":false,"is_disabled":false,"rental_uris":{"android":"levelo://app?vid=bcd27e9d-6443-4c0a-8bfe-93b45c338107","ios":"levelo://app?vid=bcd27e9d-6443-4c0a-8bfe-93b45c338107"},"vehicle_type_id":"4","last_reported":1706814384,"current_range_meters":6000,"station_id":"ce4bgih2rcd13ifvqba0","pricing_plan_id":"free"},{"bike_id":"0e59441f-59b1-4bb9-9f36-53bd983b94c5","system_id":"levelo_inurba_marseille","lat":43.29529,"lon":5.385581,"is_reserved":false,"is_disabled":false,"rental_uris":{"android":"levelo://app?vid=0e59441f-59b1-4bb9-9f36-53bd983b94c5","ios":"levelo://app?vid=0e59441f-59b1-4bb9-9f36-53bd983b94c5"},"vehicle_type_id":"4","last_reported":1706814384,"current_range_meters":12800,"station_id":"ce4bgih2rcd13ifvqba0","pricing_plan_id":"free"},{"bike_id":"2aa0c0ab-545b-44c1-8bbb-5d6ff0c109ca","system_id":"levelo_inurba_marseille","lat":43.29342,"lon":5.381975,"is_reserved":false,"is_disabled":false,"rental_uris":{"android":"levelo://app?vid=2aa0c0ab-545b-44c1-8bbb-5d6ff0c109ca","ios":"levelo://app?vid=2aa0c0ab-545b-44c1-8bbb-5d6ff0c109ca"},"vehicle_type_id":"4","last_reported":1706814384,"current_range_meters":18000,"station_id":"","pricing_plan_id":"free"},{"bike_id":"4f408207-dc00-4162-805a-29a0c53f336d","system_id":"levelo_inurba_marseille","lat":43.302008,"lon":5.394694,"is_reserved":false,"is_disabled":false,"rental_uris":{"android":"levelo://app?vid=4f408207-dc00-4162-805a-29a0c53f336d","ios":"levelo://app?vid=4f408207-dc00-4162-805a-29a0c53f336d"},"vehicle_type_id":"4","last_reported":1706814384,"current_range_meters":16800,"station_id":"ce4bh0p2rcd13ifvqd70","pricing_plan_id":"free"},{"bike_id":"a57fa556-09a8-4b4c-84f7-5102de93df33","system_id":"levelo_inurba_marseille","lat":43.302008,"lon":5.394694,"is_reserved":false,"is_disabled":false,"rental_uris":{"android":"levelo://app?vid=a57fa556-09a8-4b4c-84f7-5102de93df33","ios":"levelo://app?vid=a57fa556-09a8-4b4c-84f7-5102de93df33"},"vehicle_type_id":"4","last_reported":1706814384,"current_range_meters":6800,"station_id":"ce4bh0p2rcd13ifvqd70","pricing_plan_id":"free"},{"bike_id":"f9aab88e-dce4-4ce2-a44f-2cfeeabcf585","system_id":"levelo_inurba_marseille","lat":43.302008,"lon":5.394694,"is_reserved":false,"is_disabled":false,"rental_uris":{"android":"levelo://app?vid=f9aab88e-dce4-4ce2-a44f-2cfeeabcf585","ios":"levelo://app?vid=f9aab88e-dce4-4ce2-a44f-2cfeeabcf585"},"vehicle_type_id":"4","last_reported":1706814384,"current_range_meters":24400,"station_id":"ce4bh0p2rcd13ifvqd70","pricing_plan_id":"free"},{"bike_id":"85925803-15bc-4800-b841-9a6450c59a12","system_id":"levelo_inurba_marseille","lat":43.302008,"lon":5.394694,"is_reserved":false,"is_disabled":false,"rental_uris":{"android":"levelo://app?vid=85925803-15bc-4800-b841-9a6450c59a12","ios":"levelo://app?vid=85925803-15bc-4800-b841-9a6450c59a12"},"vehicle_type_id":"4","last_reported":1706814384,"current_range_meters":20400,"station_id":"ce4bh0p2rcd13ifvqd70","pricing_plan_id":"free"},{"bike_id":"2c1e47ad-3478-424c-8c66-23a600b1f0dc","system_id":"levelo_inurba_marseille","lat":43.290441,"lon":5.359123,"is_reserved":false,"is_disabled":false,"rental_uris":{"android":"levelo://app?vid=2c1e47ad-3478-424c-8c66-23a600b1f0dc","ios":"levelo://app?vid=2c1e47ad-3478-424c-8c66-23a600b1f0dc"},"vehicle_type_id":"4","last_reported":1706814384,"current_range_meters":9200,"station_id":"","pricing_plan_id":"free"},{"bike_id":"6a9973a5-6f93-44d8-8066-ab005989f338","system_id":"levelo_inurba_marseille","lat":43.294153,"lon":5.386305,"is_reserved":false,"is_disabled":false,"rental_uris":{"android":"levelo://app?vid=6a9973a5-6f93-44d8-8066-ab005989f338","ios":"levelo://app?vid=6a9973a5-6f93-44d8-8066-ab005989f338"},"vehicle_type_id":"4","last_reported":1706814384,"current_range_meters":26800,"station_id":"ce4bh2h2rcd13ifvqdh0","pricing_plan_id":"free"},{"bike_id":"0e6a1afa-b2d2-4e94-8547-025841c9d1cb","system_id":"levelo_inurba_marseille","lat":43.294162,"lon":5.386292,"is_reserved":false,"is_disabled":false,"rental_uris":{"android":"levelo://app?vid=0e6a1afa-b2d2-4e94-8547-025841c9d1cb","ios":"levelo://app?vid=0e6a1afa-b2d2-4e94-8547-025841c9d1cb"},"vehicle_type_id":"4","last_reported":1706814384,"current_range_meters":7600,"station_id":"ce4bh2h2rcd13ifvqdh0","pricing_plan_id":"free"},{"bike_id":"0986da16-0463-4df3-a007-f49f8cf3ebf4","system_id":"levelo_inurba_marseille","lat":43.294162,"lon":5.386292,"is_reserved":false,"is_disabled":false,"rental_uris":{"android":"levelo://app?vid=0986da16-0463-4df3-a007-f49f8cf3ebf4","ios":"levelo://app?vid=0986da16-0463-4df3-a007-f49f8cf3ebf4"},"vehicle_type_id":"4","last_reported":1706814384,"current_range_meters":400,"station_id":"ce4bh2h2rcd13ifvqdh0","pricing_plan_id":"free"},{"bike_id":"b00aa2ae-008f-4875-861b-bee8cc66019c","system_id":"levelo_inurba_marseille","lat":43.294162,"lon":5.386292,"is_reserved":false,"is_disabled":false,"rental_uris":{"android":"levelo://app?vid=b00aa2ae-008f-4875-861b-bee8cc66019c","ios":"levelo://app?vid=b00aa2ae-008f-4875-861b-bee8cc66019c"},"vehicle_type_id":"4","last_reported":1706814384,"current_range_meters":17200,"station_id":"ce4bh2h2rcd13ifvqdh0","pricing_plan_id":"free"},{"bike_id":"39a5b2fc-1160-473c-a9ce-f66035edb8b9","system_id":"levelo_inurba_marseille","lat":43.289184,"lon":5.366408,"is_reserved":false,"is_disabled":false,"rental_uris":{"android":"levelo://app?vid=39a5b2fc-1160-473c-a9ce-f66035edb8b9","ios":"levelo://app?vid=39a5b2fc-1160-473c-a9ce-f66035edb8b9"},"vehicle_type_id":"4","last_reported":1706814384,"current_range_meters":28000,"station_id":"ce4bhap2rcd13ifvqek0","pricing_plan_id":"free"},{"bike_id":"105feb2c-171f-41d6-a0d9-8fdc10e3c257","system_id":"levelo_inurba_marseille","lat":43.289184,"lon":5.366408,"is_reserved":false,"is_disabled":false,"rental_uris":{"android":"levelo://app?vid=105feb2c-171f-41d6-a0d9-8fdc10e3c257","ios":"levelo://app?vid=105feb2c-171f-41d6-a0d9-8fdc10e3c257"},"vehicle_type_id":"4","last_reported":1706814384,"current_range_meters":0,"station_id":"ce4bhap2rcd13ifvqek0","pricing_plan_id":"free"},{"bike_id":"67fe4afa-5a13-478d-9ca2-c203ca2214b0","system_id":"levelo_inurba_marseille","lat":43.289184,"lon":5.366408,"is_reserved":false,"is_disabled":false,"rental_uris":{"android":"levelo://app?vid=67fe4afa-5a13-478d-9ca2-c203ca2214b0","ios":"levelo://app?vid=67fe4afa-5a13-478d-9ca2-c203ca2214b0"},"vehicle_type_id":"4","last_reported":1706814384,"current_range_meters":0,"station_id":"ce4bhap2rcd13ifvqek0","pricing_plan_id":"free"},{"bike_id":"d0b61783-3ed3-4e27-905c-351ee1c04d7d","system_id":"levelo_inurba_marseille","lat":43.289184,"lon":5.366408,"is_reserved":false,"is_disabled":false,"rental_uris":{"android":"levelo://app?vid=d0b61783-3ed3-4e27-905c-351ee1c04d7d","ios":"levelo://app?vid=d0b61783-3ed3-4e27-905c-351ee1c04d7d"},"vehicle_type_id":"4","last_reported":1706814384,"current_range_meters":31200,"station_id":"ce4bhap2rcd13ifvqek0","pricing_plan_id":"free"},{"bike_id":"25ffcb4c-4614-4d38-a99d-e24275f42a23","system_id":"levelo_inurba_marseille","lat":43.289184,"lon":5.366408,"is_reserved":false,"is_disabled":false,"rental_uris":{"android":"levelo://app?vid=25ffcb4c-4614-4d38-a99d-e24275f42a23","ios":"levelo://app?vid=25ffcb4c-4614-4d38-a99d-e24275f42a23"},"vehicle_type_id":"4","last_reported":1706814384,"current_range_meters":0,"station_id":"ce4bhap2rcd13ifvqek0","pricing_plan_id":"free"},{"bike_id":"c8c365c9-72f9-4361-9578-1ec9fd4b89cd","system_id":"levelo_inurba_marseille","lat":43.289184,"lon":5.366408,"is_reserved":false,"is_disabled":false,"rental_uris":{"android":"levelo://app?vid=c8c365c9-72f9-4361-9578-1ec9fd4b89cd","ios":"levelo://app?vid=c8c365c9-72f9-4361-9578-1ec9fd4b89cd"},"vehicle_type_id":"4","last_reported":1706814384,"current_range_meters":0,"station_id":"ce4bhap2rcd13ifvqek0","pricing_plan_id":"free"},{"bike_id":"2a189486-898c-4e39-ab9a-b4113f99a8e3","system_id":"levelo_inurba_marseille","lat":43.294162,"lon":5.386292,"is_reserved":false,"is_disabled":false,"rental_uris":{"android":"levelo://app?vid=2a189486-898c-4e39-ab9a-b4113f99a8e3","ios":"levelo://app?vid=2a189486-898c-4e39-ab9a-b4113f99a8e3"},"vehicle_type_id":"4","last_reported":1706814384,"current_range_meters":28000,"station_id":"ce4bh2h2rcd13ifvqdh0","pricing_plan_id":"free"},{"bike_id":"c912b22d-7828-451a-8678-c7b2a981d7bc","system_id":"levelo_inurba_marseille","lat":43.289184,"lon":5.366408,"is_reserved":false,"is_disabled":false,"rental_uris":{"android":"levelo://app?vid=c912b22d-7828-451a-8678-c7b2a981d7bc","ios":"levelo://app?vid=c912b22d-7828-451a-8678-c7b2a981d7bc"},"vehicle_type_id":"4","last_reported":1706814384,"current_range_meters":6800,"station_id":"ce4bhap2rcd13ifvqek0","pricing_plan_id":"free"},{"bike_id":"17621d9b-7fa6-4276-9bbe-16902caaf1ab","system_id":"levelo_inurba_marseille","lat":43.289468,"lon":5.363719,"is_reserved":false,"is_disabled":false,"rental_uris":{"android":"levelo://app?vid=17621d9b-7fa6-4276-9bbe-16902caaf1ab","ios":"levelo://app?vid=17621d9b-7fa6-4276-9bbe-16902caaf1ab"},"vehicle_type_id":"4","last_reported":1706814384,"current_range_meters":6800,"station_id":"ce4bhc92rcd13ifvqetg","pricing_plan_id":"free"},{"bike_id":"6e655cfd-fb09-4d8d-a46e-fc6e8cf967e9","system_id":"levelo_inurba_marseille","lat":43.289468,"lon":5.363719,"is_reserved":false,"is_disabled":false,"rental_uris":{"android":"levelo://app?vid=6e655cfd-fb09-4d8d-a46e-fc6e8cf967e9","ios":"levelo://app?vid=6e655cfd-fb09-4d8d-a46e-fc6e8cf967e9"},"vehicle_type_id":"4","last_reported":1706814384,"current_range_meters":19600,"station_id":"ce4bhc92rcd13ifvqetg","pricing_plan_id":"free"},{"bike_id":"b0c58f94-81dd-4919-aef7-11df3eedefa1","system_id":"levelo_inurba_marseille","lat":43.28944,"lon":5.36397,"is_reserved":false,"is_disabled":false,"rental_uris":{"android":"levelo://app?vid=b0c58f94-81dd-4919-aef7-11df3eedefa1","ios":"levelo://app?vid=b0c58f94-81dd-4919-aef7-11df3eedefa1"},"vehicle_type_id":"4","last_reported":1706814384,"current_range_meters":0,"station_id":"ce4bhc92rcd13ifvqetg","pricing_plan_id":"free"},{"bike_id":"2bfde91a-d68f-4ae7-99ce-7e2414dfbf22","system_id":"levelo_inurba_marseille","lat":43.289184,"lon":5.366408,"is_reserved":false,"is_disabled":false,"rental_uris":{"android":"levelo://app?vid=2bfde91a-d68f-4ae7-99ce-7e2414dfbf22","ios":"levelo://app?vid=2bfde91a-d68f-4ae7-99ce-7e2414dfbf22"},"vehicle_type_id":"4","last_reported":1706814384,"current_range_meters":12800,"station_id":"ce4bhap2rcd13ifvqek0","pricing_plan_id":"free"},{"bike_id":"2f12ef4e-92f0-45c3-8d3f-38161ca29894","system_id":"levelo_inurba_marseille","lat":43.28943,"lon":5.36403,"is_reserved":false,"is_disabled":false,"rental_uris":{"android":"levelo://app?vid=2f12ef4e-92f0-45c3-8d3f-38161ca29894","ios":"levelo://app?vid=2f12ef4e-92f0-45c3-8d3f-38161ca29894"},"vehicle_type_id":"4","last_reported":1706814384,"current_range_meters":9200,"station_id":"ce4bhc92rcd13ifvqetg","pricing_plan_id":"free"},{"bike_id":"a90d8c3b-b633-458c-b602-78acabbbee05","system_id":"levelo_inurba_marseille","lat":43.289184,"lon":5.366408,"is_reserved":false,"is_disabled":false,"rental_uris":{"android":"levelo://app?vid=a90d8c3b-b633-458c-b602-78acabbbee05","ios":"levelo://app?vid=a90d8c3b-b633-458c-b602-78acabbbee05"},"vehicle_type_id":"4","last_reported":1706814384,"current_range_meters":31200,"station_id":"ce4bhap2rcd13ifvqek0","pricing_plan_id":"free"},{"bike_id":"b8d21f03-11ac-4602-9ebf-b56c137c8ce5","system_id":"levelo_inurba_marseille","lat":43.289468,"lon":5.363719,"is_reserved":false,"is_disabled":false,"rental_uris":{"android":"levelo://app?vid=b8d21f03-11ac-4602-9ebf-b56c137c8ce5","ios":"levelo://app?vid=b8d21f03-11ac-4602-9ebf-b56c137c8ce5"},"vehicle_type_id":"4","last_reported":1706814384,"current_range_meters":12400,"station_id":"ce4bhc92rcd13ifvqetg","pricing_plan_id":"free"},{"bike_id":"2f47120d-8c96-43f2-9f3d-f6e66faa5562","system_id":"levelo_inurba_marseille","lat":43.289184,"lon":5.366408,"is_reserved":false,"is_disabled":false,"rental_uris":{"android":"levelo://app?vid=2f47120d-8c96-43f2-9f3d-f6e66faa5562","ios":"levelo://app?vid=2f47120d-8c96-43f2-9f3d-f6e66faa5562"},"vehicle_type_id":"4","last_reported":1706814384,"current_range_meters":11600,"station_id":"ce4bhap2rcd13ifvqek0","pricing_plan_id":"free"},{"bike_id":"25ee8c28-9951-44d4-b417-7f0bae4fd1eb","system_id":"levelo_inurba_marseille","lat":43.29281,"lon":5.38434,"is_reserved":false,"is_disabled":false,"rental_uris":{"android":"levelo://app?vid=25ee8c28-9951-44d4-b417-7f0bae4fd1eb","ios":"levelo://app?vid=25ee8c28-9951-44d4-b417-7f0bae4fd1eb"},"vehicle_type_id":"4","last_reported":1706814384,"current_range_meters":13600,"station_id":"ce4bh692rcd13ifvqea0","pricing_plan_id":"free"},{"bike_id":"5356625a-3097-4bee-a983-f0dbf043e9a2","system_id":"levelo_inurba_marseille","lat":43.292642,"lon":5.384254,"is_reserved":false,"is_disabled":false,"rental_uris":{"android":"levelo://app?vid=5356625a-3097-4bee-a983-f0dbf043e9a2","ios":"levelo://app?vid=5356625a-3097-4bee-a983-f0dbf043e9a2"},"vehicle_type_id":"4","last_reported":1706814384,"current_range_meters":9200,"station_id":"ce4bh692rcd13ifvqea0","pricing_plan_id":"free"},{"bike_id":"3b277c8b-f93f-49a3-99c1-5b74b37d94f0","system_id":"levelo_inurba_marseille","lat":43.292642,"lon":5.384254,"is_reserved":false,"is_disabled":false,"rental_uris":{"android":"levelo://app?vid=3b277c8b-f93f-49a3-99c1-5b74b37d94f0","ios":"levelo://app?vid=3b277c8b-f93f-49a3-99c1-5b74b37d94f0"},"vehicle_type_id":"4","last_reported":1706814384,"current_range_meters":21600,"station_id":"ce4bh692rcd13ifvqea0","pricing_plan_id":"free"},{"bike_id":"f69b474a-03c8-4643-b4c8-b8717bfd2ffe","system_id":"levelo_inurba_marseille","lat":43.292642,"lon":5.384254,"is_reserved":false,"is_disabled":false,"rental_uris":{"android":"levelo://app?vid=f69b474a-03c8-4643-b4c8-b8717bfd2ffe","ios":"levelo://app?vid=f69b474a-03c8-4643-b4c8-b8717bfd2ffe"},"vehicle_type_id":"4","last_reported":1706814384,"current_range_meters":11600,"station_id":"ce4bh692rcd13ifvqea0","pricing_plan_id":"free"},{"bike_id":"adbb2552-d4a9-4e94-b179-4795b3ff939e","system_id":"levelo_inurba_marseille","lat":43.292642,"lon":5.384254,"is_reserved":false,"is_disabled":false,"rental_uris":{"android":"levelo://app?vid=adbb2552-d4a9-4e94-b179-4795b3ff939e","ios":"levelo://app?vid=adbb2552-d4a9-4e94-b179-4795b3ff939e"},"vehicle_type_id":"4","last_reported":1706814384,"current_range_meters":18400,"station_id":"ce4bh692rcd13ifvqea0","pricing_plan_id":"free"},{"bike_id":"4e79924a-2d34-4eba-9bab-87248e161a36","system_id":"levelo_inurba_marseille","lat":43.304274,"lon":5.397513,"is_reserved":false,"is_disabled":false,"rental_uris":{"android":"levelo://app?vid=4e79924a-2d34-4eba-9bab-87248e161a36","ios":"levelo://app?vid=4e79924a-2d34-4eba-9bab-87248e161a36"},"vehicle_type_id":"4","last_reported":1706814384,"current_range_meters":9600,"station_id":"ce4bh092rcd13ifvqd20","pricing_plan_id":"free"},{"bike_id":"9210ad48-b6fe-4aba-bacf-ef4bf8a0dde4","system_id":"levelo_inurba_marseille","lat":43.292642,"lon":5.384254,"is_reserved":false,"is_disabled":false,"rental_uris":{"android":"levelo://app?vid=9210ad48-b6fe-4aba-bacf-ef4bf8a0dde4","ios":"levelo://app?vid=9210ad48-b6fe-4aba-bacf-ef4bf8a0dde4"},"vehicle_type_id":"4","last_reported":1706814384,"current_range_meters":16400,"station_id":"ce4bh692rcd13ifvqea0","pricing_plan_id":"free"},{"bike_id":"b3aa138d-e894-4b29-a745-be34e64185d5","system_id":"levelo_inurba_marseille","lat":43.292683,"lon":5.384463,"is_reserved":false,"is_disabled":false,"rental_uris":{"android":"levelo://app?vid=b3aa138d-e894-4b29-a745-be34e64185d5","ios":"levelo://app?vid=b3aa138d-e894-4b29-a745-be34e64185d5"},"vehicle_type_id":"4","last_reported":1706814384,"current_range_meters":18800,"station_id":"ce4bh692rcd13ifvqea0","pricing_plan_id":"free"},{"bike_id":"15b0de81-b760-4d0a-b04a-6afbbead21a6","system_id":"levelo_inurba_marseille","lat":43.292642,"lon":5.384254,"is_reserved":false,"is_disabled":false,"rental_uris":{"android":"levelo://app?vid=15b0de81-b760-4d0a-b04a-6afbbead21a6","ios":"levelo://app?vid=15b0de81-b760-4d0a-b04a-6afbbead21a6"},"vehicle_type_id":"4","last_reported":1706814384,"current_range_meters":0,"station_id":"ce4bh692rcd13ifvqea0","pricing_plan_id":"free"},{"bike_id":"3d119ca2-c224-4cec-af07-db7b1790ea41","system_id":"levelo_inurba_marseille","lat":43.29265,"lon":5.38447,"is_reserved":false,"is_disabled":false,"rental_uris":{"android":"levelo://app?vid=3d119ca2-c224-4cec-af07-db7b1790ea41","ios":"levelo://app?vid=3d119ca2-c224-4cec-af07-db7b1790ea41"},"vehicle_type_id":"4","last_reported":1706814384,"current_range_meters":800,"station_id":"ce4bh692rcd13ifvqea0","pricing_plan_id":"free"},{"bike_id":"38303279-c1d4-436b-a95d-9213f8508542","system_id":"levelo_inurba_marseille","lat":43.292642,"lon":5.384254,"is_reserved":false,"is_disabled":false,"rental_uris":{"android":"levelo://app?vid=38303279-c1d4-436b-a95d-9213f8508542","ios":"levelo://app?vid=38303279-c1d4-436b-a95d-9213f8508542"},"vehicle_type_id":"4","last_reported":1706814384,"current_range_meters":5200,"station_id":"ce4bh692rcd13ifvqea0","pricing_plan_id":"free"},{"bike_id":"3b7c2289-22af-47b7-b34d-c568f42ad1c5","system_id":"levelo_inurba_marseille","lat":43.29266,"lon":5.38456,"is_reserved":false,"is_disabled":false,"rental_uris":{"android":"levelo://app?vid=3b7c2289-22af-47b7-b34d-c568f42ad1c5","ios":"levelo://app?vid=3b7c2289-22af-47b7-b34d-c568f42ad1c5"},"vehicle_type_id":"4","last_reported":1706814384,"current_range_meters":23600,"station_id":"ce4bh692rcd13ifvqea0","pricing_plan_id":"free"},{"bike_id":"bf63e0d8-4ca9-4fae-94ae-0dbd6b5e65c6","system_id":"levelo_inurba_marseille","lat":43.292642,"lon":5.384254,"is_reserved":false,"is_disabled":false,"rental_uris":{"android":"levelo://app?vid=bf63e0d8-4ca9-4fae-94ae-0dbd6b5e65c6","ios":"levelo://app?vid=bf63e0d8-4ca9-4fae-94ae-0dbd6b5e65c6"},"vehicle_type_id":"4","last_reported":1706814384,"current_range_meters":6400,"station_id":"ce4bh692rcd13ifvqea0","pricing_plan_id":"free"},{"bike_id":"e95f8a77-3ca9-45a6-9a59-71ed75655c1a","system_id":"levelo_inurba_marseille","lat":43.29011,"lon":5.3562,"is_reserved":false,"is_disabled":false,"rental_uris":{"android":"levelo://app?vid=e95f8a77-3ca9-45a6-9a59-71ed75655c1a","ios":"levelo://app?vid=e95f8a77-3ca9-45a6-9a59-71ed75655c1a"},"vehicle_type_id":"4","last_reported":1706814384,"current_range_meters":28000,"station_id":"ce4bhb92rcd13ifvqen0","pricing_plan_id":"free"},{"bike_id":"b336cafc-f3f4-4d05-9435-f081523f9abe","system_id":"levelo_inurba_marseille","lat":43.29006,"lon":5.35613,"is_reserved":false,"is_disabled":false,"rental_uris":{"android":"levelo://app?vid=b336cafc-f3f4-4d05-9435-f081523f9abe","ios":"levelo://app?vid=b336cafc-f3f4-4d05-9435-f081523f9abe"},"vehicle_type_id":"4","last_reported":1706814384,"current_range_meters":14400,"station_id":"ce4bhb92rcd13ifvqen0","pricing_plan_id":"free"},{"bike_id":"dc996dda-c04e-444b-8d51-db24eafb8b64","system_id":"levelo_inurba_marseille","lat":43.290073,"lon":5.35606,"is_reserved":false,"is_disabled":false,"rental_uris":{"android":"levelo://app?vid=dc996dda-c04e-444b-8d51-db24eafb8b64","ios":"levelo://app?vid=dc996dda-c04e-444b-8d51-db24eafb8b64"},"vehicle_type_id":"4","last_reported":1706814384,"current_range_meters":3600,"station_id":"ce4bhb92rcd13ifvqen0","pricing_plan_id":"free"},{"bike_id":"77e72c8c-796c-49cf-98ad-3bdc57dbec6d","system_id":"levelo_inurba_marseille","lat":43.295169,"lon":5.390426,"is_reserved":false,"is_disabled":false,"rental_uris":{"android":"levelo://app?vid=77e72c8c-796c-49cf-98ad-3bdc57dbec6d","ios":"levelo://app?vid=77e72c8c-796c-49cf-98ad-3bdc57dbec6d"},"vehicle_type_id":"4","last_reported":1706814384,"current_range_meters":16800,"station_id":"ce4bh3p2rcd13ifvqdp0","pricing_plan_id":"free"},{"bike_id":"de0b2a19-a75b-4f1a-a843-bb85cf004731","system_id":"levelo_inurba_marseille","lat":43.297867,"lon":5.393328,"is_reserved":false,"is_disabled":false,"rental_uris":{"android":"levelo://app?vid=de0b2a19-a75b-4f1a-a843-bb85cf004731","ios":"levelo://app?vid=de0b2a19-a75b-4f1a-a843-bb85cf004731"},"vehicle_type_id":"4","last_reported":1706814384,"current_range_meters":7200,"station_id":"chh1huq6cuj3fo74tm60","pricing_plan_id":"free"},{"bike_id":"a491302e-3c65-41f7-a413-5a567107ab32","system_id":"levelo_inurba_marseille","lat":43.295169,"lon":5.390426,"is_reserved":false,"is_disabled":false,"rental_uris":{"android":"levelo://app?vid=a491302e-3c65-41f7-a413-5a567107ab32","ios":"levelo://app?vid=a491302e-3c65-41f7-a413-5a567107ab32"},"vehicle_type_id":"4","last_reported":1706814384,"current_range_meters":0,"station_id":"ce4bh3p2rcd13ifvqdp0","pricing_plan_id":"free"},{"bike_id":"83fe5b23-50b3-4007-b8bc-33c41aa204c4","system_id":"levelo_inurba_marseille","lat":43.295169,"lon":5.390426,"is_reserved":false,"is_disabled":false,"rental_uris":{"android":"levelo://app?vid=83fe5b23-50b3-4007-b8bc-33c41aa204c4","ios":"levelo://app?vid=83fe5b23-50b3-4007-b8bc-33c41aa204c4"},"vehicle_type_id":"4","last_reported":1706814384,"current_range_meters":2000,"station_id":"ce4bh3p2rcd13ifvqdp0","pricing_plan_id":"free"},{"bike_id":"cf0c12e8-be80-4c74-8a36-ee445dffdda4","system_id":"levelo_inurba_marseille","lat":43.29533,"lon":5.39041,"is_reserved":false,"is_disabled":false,"rental_uris":{"android":"levelo://app?vid=cf0c12e8-be80-4c74-8a36-ee445dffdda4","ios":"levelo://app?vid=cf0c12e8-be80-4c74-8a36-ee445dffdda4"},"vehicle_type_id":"4","last_reported":1706814384,"current_range_meters":0,"station_id":"ce4bh3p2rcd13ifvqdp0","pricing_plan_id":"free"},{"bike_id":"5ef6c031-a2da-411e-ac46-bc5c9a72bb40","system_id":"levelo_inurba_marseille","lat":43.295271,"lon":5.390345,"is_reserved":false,"is_disabled":false,"rental_uris":{"android":"levelo://app?vid=5ef6c031-a2da-411e-ac46-bc5c9a72bb40","ios":"levelo://app?vid=5ef6c031-a2da-411e-ac46-bc5c9a72bb40"},"vehicle_type_id":"4","last_reported":1706814384,"current_range_meters":0,"station_id":"ce4bh3p2rcd13ifvqdp0","pricing_plan_id":"free"},{"bike_id":"4f3e8428-a987-4219-8d81-7eaf62aa4307","system_id":"levelo_inurba_marseille","lat":43.289743,"lon":5.378304,"is_reserved":false,"is_disabled":false,"rental_uris":{"android":"levelo://app?vid=4f3e8428-a987-4219-8d81-7eaf62aa4307","ios":"levelo://app?vid=4f3e8428-a987-4219-8d81-7eaf62aa4307"},"vehicle_type_id":"4","last_reported":1706814384,"current_range_meters":0,"station_id":"ce4bh9p2rcd13ifvqed0","pricing_plan_id":"free"},{"bike_id":"1b26e9c4-7fc6-49aa-9499-cf686af3f3aa","system_id":"levelo_inurba_marseille","lat":43.330442,"lon":5.389148,"is_reserved":false,"is_disabled":false,"rental_uris":{"android":"levelo://app?vid=1b26e9c4-7fc6-49aa-9499-cf686af3f3aa","ios":"levelo://app?vid=1b26e9c4-7fc6-49aa-9499-cf686af3f3aa"},"vehicle_type_id":"4","last_reported":1706814384,"current_range_meters":13600,"station_id":"ce4bhr92rcd13ifvqhrg","pricing_plan_id":"free"},{"bike_id":"7aa9bf11-8278-40ca-80fa-77b214e7719f","system_id":"levelo_inurba_marseille","lat":43.295169,"lon":5.390426,"is_reserved":false,"is_disabled":false,"rental_uris":{"android":"levelo://app?vid=7aa9bf11-8278-40ca-80fa-77b214e7719f","ios":"levelo://app?vid=7aa9bf11-8278-40ca-80fa-77b214e7719f"},"vehicle_type_id":"4","last_reported":1706814384,"current_range_meters":400,"station_id":"ce4bh3p2rcd13ifvqdp0","pricing_plan_id":"free"},{"bike_id":"64a64528-8754-45b2-97f2-2ab770af81c1","system_id":"levelo_inurba_marseille","lat":43.295169,"lon":5.390426,"is_reserved":false,"is_disabled":false,"rental_uris":{"android":"levelo://app?vid=64a64528-8754-45b2-97f2-2ab770af81c1","ios":"levelo://app?vid=64a64528-8754-45b2-97f2-2ab770af81c1"},"vehicle_type_id":"4","last_reported":1706814384,"current_range_meters":26800,"station_id":"ce4bh3p2rcd13ifvqdp0","pricing_plan_id":"free"},{"bike_id":"711e10df-db27-418d-90b5-3d08ada01449","system_id":"levelo_inurba_marseille","lat":43.290631,"lon":5.359244,"is_reserved":false,"is_disabled":false,"rental_uris":{"android":"levelo://app?vid=711e10df-db27-418d-90b5-3d08ada01449","ios":"levelo://app?vid=711e10df-db27-418d-90b5-3d08ada01449"},"vehicle_type_id":"4","last_reported":1706814384,"current_range_meters":3200,"station_id":"ce4bha92rcd13ifvqeg0","pricing_plan_id":"free"},{"bike_id":"a2b764b9-c4c7-4e5e-b5e8-99abca8e3d0f","system_id":"levelo_inurba_marseille","lat":43.290094,"lon":5.381264,"is_reserved":false,"is_disabled":false,"rental_uris":{"android":"levelo://app?vid=a2b764b9-c4c7-4e5e-b5e8-99abca8e3d0f","ios":"levelo://app?vid=a2b764b9-c4c7-4e5e-b5e8-99abca8e3d0f"},"vehicle_type_id":"4","last_reported":1706814384,"current_range_meters":18000,"station_id":"ce4bh4p2rcd13ifvqe1g","pricing_plan_id":"free"},{"bike_id":"fc5e1abd-c6a8-49fe-a177-bd96f74a41e2","system_id":"levelo_inurba_marseille","lat":43.28856,"lon":5.358371,"is_reserved":false,"is_disabled":false,"rental_uris":{"android":"levelo://app?vid=fc5e1abd-c6a8-49fe-a177-bd96f74a41e2","ios":"levelo://app?vid=fc5e1abd-c6a8-49fe-a177-bd96f74a41e2"},"vehicle_type_id":"4","last_reported":1706814384,"current_range_meters":10400,"station_id":"ce4bhb12rcd13ifvqem0","pricing_plan_id":"free"},{"bike_id":"3bd8b647-3223-476e-9f8b-145e0676925e","system_id":"levelo_inurba_marseille","lat":43.28856,"lon":5.358371,"is_reserved":false,"is_disabled":false,"rental_uris":{"android":"levelo://app?vid=3bd8b647-3223-476e-9f8b-145e0676925e","ios":"levelo://app?vid=3bd8b647-3223-476e-9f8b-145e0676925e"},"vehicle_type_id":"4","last_reported":1706814384,"current_range_meters":27600,"station_id":"ce4bhb12rcd13ifvqem0","pricing_plan_id":"free"},{"bike_id":"9a163306-55f4-452b-abb8-1fc8b6192e5f","system_id":"levelo_inurba_marseille","lat":43.28856,"lon":5.358371,"is_reserved":false,"is_disabled":false,"rental_uris":{"android":"levelo://app?vid=9a163306-55f4-452b-abb8-1fc8b6192e5f","ios":"levelo://app?vid=9a163306-55f4-452b-abb8-1fc8b6192e5f"},"vehicle_type_id":"4","last_reported":1706814384,"current_range_meters":2400,"station_id":"ce4bhb12rcd13ifvqem0","pricing_plan_id":"free"},{"bike_id":"590b888d-05fd-46ca-80a7-31701bf0cb8b","system_id":"levelo_inurba_marseille","lat":43.28856,"lon":5.358371,"is_reserved":false,"is_disabled":false,"rental_uris":{"android":"levelo://app?vid=590b888d-05fd-46ca-80a7-31701bf0cb8b","ios":"levelo://app?vid=590b888d-05fd-46ca-80a7-31701bf0cb8b"},"vehicle_type_id":"4","last_reported":1706814384,"current_range_meters":4000,"station_id":"ce4bhb12rcd13ifvqem0","pricing_plan_id":"free"},{"bike_id":"4e921a40-892d-4840-ab3e-d8fba56ce083","system_id":"levelo_inurba_marseille","lat":43.28856,"lon":5.358371,"is_reserved":false,"is_disabled":false,"rental_uris":{"android":"levelo://app?vid=4e921a40-892d-4840-ab3e-d8fba56ce083","ios":"levelo://app?vid=4e921a40-892d-4840-ab3e-d8fba56ce083"},"vehicle_type_id":"4","last_reported":1706814384,"current_range_meters":8800,"station_id":"ce4bhb12rcd13ifvqem0","pricing_plan_id":"free"},{"bike_id":"4dea2505-7482-4166-a6c1-d47027e35e33","system_id":"levelo_inurba_marseille","lat":43.28856,"lon":5.358371,"is_reserved":false,"is_disabled":false,"rental_uris":{"android":"levelo://app?vid=4dea2505-7482-4166-a6c1-d47027e35e33","ios":"levelo://app?vid=4dea2505-7482-4166-a6c1-d47027e35e33"},"vehicle_type_id":"4","last_reported":1706814384,"current_range_meters":8000,"station_id":"ce4bhb12rcd13ifvqem0","pricing_plan_id":"free"},{"bike_id":"722fda1d-1e67-4f7a-9f23-691f54699f10","system_id":"levelo_inurba_marseille","lat":43.28856,"lon":5.358371,"is_reserved":false,"is_disabled":false,"rental_uris":{"android":"levelo://app?vid=722fda1d-1e67-4f7a-9f23-691f54699f10","ios":"levelo://app?vid=722fda1d-1e67-4f7a-9f23-691f54699f10"},"vehicle_type_id":"4","last_reported":1706814384,"current_range_meters":19600,"station_id":"ce4bhb12rcd13ifvqem0","pricing_plan_id":"free"},{"bike_id":"5e529af9-c9b1-40aa-91f3-25d6c3ef02dc","system_id":"levelo_inurba_marseille","lat":43.28856,"lon":5.358371,"is_reserved":false,"is_disabled":false,"rental_uris":{"android":"levelo://app?vid=5e529af9-c9b1-40aa-91f3-25d6c3ef02dc","ios":"levelo://app?vid=5e529af9-c9b1-40aa-91f3-25d6c3ef02dc"},"vehicle_type_id":"4","last_reported":1706814384,"current_range_meters":0,"station_id":"ce4bhb12rcd13ifvqem0","pricing_plan_id":"free"},{"bike_id":"7a1b413f-69ad-42d8-b859-a87b3362e77e","system_id":"levelo_inurba_marseille","lat":43.28856,"lon":5.358371,"is_reserved":false,"is_disabled":false,"rental_uris":{"android":"levelo://app?vid=7a1b413f-69ad-42d8-b859-a87b3362e77e","ios":"levelo://app?vid=7a1b413f-69ad-42d8-b859-a87b3362e77e"},"vehicle_type_id":"4","last_reported":1706814384,"current_range_meters":23600,"station_id":"ce4bhb12rcd13ifvqem0","pricing_plan_id":"free"},{"bike_id":"73e1421d-4be3-4045-8a04-3feab0d79759","system_id":"levelo_inurba_marseille","lat":43.309371,"lon":5.401449,"is_reserved":false,"is_disabled":false,"rental_uris":{"android":"levelo://app?vid=73e1421d-4be3-4045-8a04-3feab0d79759","ios":"levelo://app?vid=73e1421d-4be3-4045-8a04-3feab0d79759"},"vehicle_type_id":"4","last_reported":1706814384,"current_range_meters":0,"station_id":"ce4bgvp2rcd13ifvqct0","pricing_plan_id":"free"},{"bike_id":"39c4e282-adf3-4c1f-98cc-a2a9175595bd","system_id":"levelo_inurba_marseille","lat":43.301117,"lon":5.398795,"is_reserved":false,"is_disabled":false,"rental_uris":{"android":"levelo://app?vid=39c4e282-adf3-4c1f-98cc-a2a9175595bd","ios":"levelo://app?vid=39c4e282-adf3-4c1f-98cc-a2a9175595bd"},"vehicle_type_id":"4","last_reported":1706814384,"current_range_meters":2800,"station_id":"ce4bh0h2rcd13ifvqd40","pricing_plan_id":"free"},{"bike_id":"9384cccd-0891-4c00-bd04-134f6c06196e","system_id":"levelo_inurba_marseille","lat":43.301117,"lon":5.398795,"is_reserved":false,"is_disabled":false,"rental_uris":{"android":"levelo://app?vid=9384cccd-0891-4c00-bd04-134f6c06196e","ios":"levelo://app?vid=9384cccd-0891-4c00-bd04-134f6c06196e"},"vehicle_type_id":"4","last_reported":1706814384,"current_range_meters":0,"station_id":"ce4bh0h2rcd13ifvqd40","pricing_plan_id":"free"},{"bike_id":"a92fecb2-cce1-45fa-a6c6-174b16ca62fa","system_id":"levelo_inurba_marseille","lat":43.337834,"lon":5.374506,"is_reserved":false,"is_disabled":false,"rental_uris":{"android":"levelo://app?vid=a92fecb2-cce1-45fa-a6c6-174b16ca62fa","ios":"levelo://app?vid=a92fecb2-cce1-45fa-a6c6-174b16ca62fa"},"vehicle_type_id":"4","last_reported":1706814384,"current_range_meters":29200,"station_id":"","pricing_plan_id":"free"},{"bike_id":"51fdf29b-51cc-4cd9-9df9-5212c3d7c913","system_id":"levelo_inurba_marseille","lat":43.301117,"lon":5.398795,"is_reserved":false,"is_disabled":false,"rental_uris":{"android":"levelo://app?vid=51fdf29b-51cc-4cd9-9df9-5212c3d7c913","ios":"levelo://app?vid=51fdf29b-51cc-4cd9-9df9-5212c3d7c913"},"vehicle_type_id":"4","last_reported":1706814384,"current_range_meters":800,"station_id":"ce4bh0h2rcd13ifvqd40","pricing_plan_id":"free"},{"bike_id":"27e5110e-37d5-4e4b-a904-91fcd02a4b97","system_id":"levelo_inurba_marseille","lat":43.28727,"lon":5.36078,"is_reserved":false,"is_disabled":false,"rental_uris":{"android":"levelo://app?vid=27e5110e-37d5-4e4b-a904-91fcd02a4b97","ios":"levelo://app?vid=27e5110e-37d5-4e4b-a904-91fcd02a4b97"},"vehicle_type_id":"4","last_reported":1706814384,"current_range_meters":17600,"station_id":"cki0cbj6b192h4jlfktg","pricing_plan_id":"free"},{"bike_id":"11292ed4-7f89-4a31-80de-9eac6b278d46","system_id":"levelo_inurba_marseille","lat":43.28727,"lon":5.36078,"is_reserved":false,"is_disabled":false,"rental_uris":{"android":"levelo://app?vid=11292ed4-7f89-4a31-80de-9eac6b278d46","ios":"levelo://app?vid=11292ed4-7f89-4a31-80de-9eac6b278d46"},"vehicle_type_id":"4","last_reported":1706814384,"current_range_meters":15200,"station_id":"cki0cbj6b192h4jlfktg","pricing_plan_id":"free"},{"bike_id":"63175c26-c156-466f-be5b-794cec8c153f","system_id":"levelo_inurba_marseille","lat":43.28727,"lon":5.36078,"is_reserved":false,"is_disabled":false,"rental_uris":{"android":"levelo://app?vid=63175c26-c156-466f-be5b-794cec8c153f","ios":"levelo://app?vid=63175c26-c156-466f-be5b-794cec8c153f"},"vehicle_type_id":"4","last_reported":1706814384,"current_range_meters":26000,"station_id":"cki0cbj6b192h4jlfktg","pricing_plan_id":"free"},{"bike_id":"b664ef4d-4d0e-40d0-92a0-ecf760b3dc95","system_id":"levelo_inurba_marseille","lat":43.30456,"lon":5.40059,"is_reserved":false,"is_disabled":false,"rental_uris":{"android":"levelo://app?vid=b664ef4d-4d0e-40d0-92a0-ecf760b3dc95","ios":"levelo://app?vid=b664ef4d-4d0e-40d0-92a0-ecf760b3dc95"},"vehicle_type_id":"4","last_reported":1706814384,"current_range_meters":22000,"station_id":"","pricing_plan_id":"free"},{"bike_id":"e45895cb-c91e-4163-84ea-0361fce94755","system_id":"levelo_inurba_marseille","lat":43.28727,"lon":5.36078,"is_reserved":false,"is_disabled":false,"rental_uris":{"android":"levelo://app?vid=e45895cb-c91e-4163-84ea-0361fce94755","ios":"levelo://app?vid=e45895cb-c91e-4163-84ea-0361fce94755"},