{"last_updated":1729436853,"ttl":60,"version":"2.2","data":{"bikes":[{"bike_id":"183655fa-1ccf-484b-bce6-00019dff763a","system_id":"levelo_inurba_marseille","lat":43.28044,"lon":5.36941,"is_reserved":false,"is_disabled":false,"rental_uris":{"android":"levelo://app?vid=183655fa-1ccf-484b-bce6-00019dff763a","ios":"levelo://app?vid=183655fa-1ccf-484b-bce6-00019dff763a"},"vehicle_type_id":"4","last_reported":1729436854,"current_range_meters":12000,"station_id":"ce4bha12rcd13ifvqef0","pricing_plan_id":"cebpf4jnsgd1na2vs0mg"},{"bike_id":"8f211892-9c09-4c5d-9d1a-6ef92d57301d","system_id":"levelo_inurba_marseille","lat":43.26553,"lon":5.37287,"is_reserved":false,"is_disabled":false,"rental_uris":{"android":"levelo://app?vid=8f211892-9c09-4c5d-9d1a-6ef92d57301d","ios":"levelo://app?vid=8f211892-9c09-4c5d-9d1a-6ef92d57301d"},"vehicle_type_id":"4","last_reported":1729436854,"current_range_meters":36400,"station_id":"ce4bhg12rcd13ifvqf70","pricing_plan_id":"cebpf4jnsgd1na2vs0mg"},{"bike_id":"b453e957-4bee-4d7b-9617-ca1b3e7e4873","system_id":"levelo_inurba_marseille","lat":43.31885,"lon":5.38031,"is_reserved":false,"is_disabled":false,"rental_uris":{"android":"levelo://app?vid=b453e957-4bee-4d7b-9617-ca1b3e7e4873","ios":"levelo://app?vid=b453e957-4bee-4d7b-9617-ca1b3e7e4873"},"vehicle_type_id":"4","last_reported":1729436854,"current_range_meters":14800,"station_id":"ce4bgt92rcd13ifvqcf0","pricing_plan_id":"cebpf4jnsgd1na2vs0mg"},{"bike_id":"814a8b4c-43f0-4f31-87f7-0f70c081bccd","system_id":"levelo_inurba_marseille","lat":43.24809,"lon":5.37458,"is_reserved":false,"is_disabled":false,"rental_uris":{"android":"levelo://app?vid=814a8b4c-43f0-4f31-87f7-0f70c081bccd","ios":"levelo://app?vid=814a8b4c-43f0-4f31-87f7-0f70c081bccd"},"vehicle_type_id":"4","last_reported":1729436854,"current_range_meters":37600,"station_id":"ce4bhgh2rcd13ifvqfb0","pricing_plan_id":"cebpf4jnsgd1na2vs0mg"},{"bike_id":"a0d572d6-38a8-494d-bb5c-517472ff38aa","system_id":"levelo_inurba_marseille","lat":43.26781,"lon":5.39426,"is_reserved":false,"is_disabled":false,"rental_uris":{"android":"levelo://app?vid=a0d572d6-38a8-494d-bb5c-517472ff38aa","ios":"levelo://app?vid=a0d572d6-38a8-494d-bb5c-517472ff38aa"},"vehicle_type_id":"4","last_reported":1729436854,"current_range_meters":17600,"station_id":"ce4bhh12rcd13ifvqfg0","pricing_plan_id":"cebpf4jnsgd1na2vs0mg"},{"bike_id":"e4794a4c-4976-48dc-8e74-1040b2c32ee4","system_id":"levelo_inurba_marseille","lat":43.301,"lon":5.39069,"is_reserved":false,"is_disabled":false,"rental_uris":{"android":"levelo://app?vid=e4794a4c-4976-48dc-8e74-1040b2c32ee4","ios":"levelo://app?vid=e4794a4c-4976-48dc-8e74-1040b2c32ee4"},"vehicle_type_id":"4","last_reported":1729436854,"current_range_meters":9200,"station_id":"","pricing_plan_id":"cebpf4jnsgd1na2vs0mg"},{"bike_id":"481d201b-0f9b-4ded-8406-5042d6b7a84b","system_id":"levelo_inurba_marseille","lat":43.23963,"lon":5.36622,"is_reserved":false,"is_disabled":false,"rental_uris":{"android":"levelo://app?vid=481d201b-0f9b-4ded-8406-5042d6b7a84b","ios":"levelo://app?vid=481d201b-0f9b-4ded-8406-5042d6b7a84b"},"vehicle_type_id":"4","last_reported":1729436854,"current_range_meters":28400,"station_id":"ce4bhi12rcd13ifvqfp0","pricing_plan_id":"cebpf4jnsgd1na2vs0mg"},{"bike_id":"8a0ddfed-ada9-4701-9b05-9801b88f2871","system_id":"levelo_inurba_marseille","lat":43.29542,"lon":5.39387,"is_reserved":false,"is_disabled":false,"rental_uris":{"android":"levelo://app?vid=8a0ddfed-ada9-4701-9b05-9801b88f2871","ios":"levelo://app?vid=8a0ddfed-ada9-4701-9b05-9801b88f2871"},"vehicle_type_id":"4","last_reported":1729436854,"current_range_meters":12800,"station_id":"ce4bh292rcd13ifvqdf0","pricing_plan_id":"cebpf4jnsgd1na2vs0mg"},{"bike_id":"be7e2511-4961-47b2-bca2-7eb21d279032","system_id":"levelo_inurba_marseille","lat":43.289205,"lon":5.384131,"is_reserved":false,"is_disabled":false,"rental_uris":{"android":"levelo://app?vid=be7e2511-4961-47b2-bca2-7eb21d279032","ios":"levelo://app?vid=be7e2511-4961-47b2-bca2-7eb21d279032"},"vehicle_type_id":"4","last_reported":1729436854,"current_range_meters":7200,"station_id":"ce4bh612rcd13ifvqe6g","pricing_plan_id":"cebpf4jnsgd1na2vs0mg"},{"bike_id":"474ccd54-d884-4c48-ac27-1f7190ae4438","system_id":"levelo_inurba_marseille","lat":43.33721,"lon":5.39191,"is_reserved":false,"is_disabled":false,"rental_uris":{"android":"levelo://app?vid=474ccd54-d884-4c48-ac27-1f7190ae4438","ios":"levelo://app?vid=474ccd54-d884-4c48-ac27-1f7190ae4438"},"vehicle_type_id":"4","last_reported":1729436854,"current_range_meters":7200,"station_id":"ce4bhr92rcd13ifvqhsg","pricing_plan_id":"cebpf4jnsgd1na2vs0mg"},{"bike_id":"6c8c8aa8-d21a-42d0-92a4-7a76db787d44","system_id":"levelo_inurba_marseille","lat":43.24075,"lon":5.37759,"is_reserved":false,"is_disabled":false,"rental_uris":{"android":"levelo://app?vid=6c8c8aa8-d21a-42d0-92a4-7a76db787d44","ios":"levelo://app?vid=6c8c8aa8-d21a-42d0-92a4-7a76db787d44"},"vehicle_type_id":"4","last_reported":1729436854,"current_range_meters":27600,"station_id":"ce4bhnp2rcd13ifvqgvg","pricing_plan_id":"cebpf4jnsgd1na2vs0mg"},{"bike_id":"d85aed35-4005-4c2e-863d-273016e09085","system_id":"levelo_inurba_marseille","lat":43.24394,"lon":5.37059,"is_reserved":false,"is_disabled":false,"rental_uris":{"android":"levelo://app?vid=d85aed35-4005-4c2e-863d-273016e09085","ios":"levelo://app?vid=d85aed35-4005-4c2e-863d-273016e09085"},"vehicle_type_id":"4","last_reported":1729436854,"current_range_meters":30000,"station_id":"ce4bhhh2rcd13ifvqfk0","pricing_plan_id":"cebpf4jnsgd1na2vs0mg"},{"bike_id":"f37ef088-4d6e-4189-9de5-e137db50c2a5","system_id":"levelo_inurba_marseille","lat":43.304281,"lon":5.397473,"is_reserved":false,"is_disabled":false,"rental_uris":{"android":"levelo://app?vid=f37ef088-4d6e-4189-9de5-e137db50c2a5","ios":"levelo://app?vid=f37ef088-4d6e-4189-9de5-e137db50c2a5"},"vehicle_type_id":"4","last_reported":1729436854,"current_range_meters":24000,"station_id":"ce4bh092rcd13ifvqd20","pricing_plan_id":"cebpf4jnsgd1na2vs0mg"},{"bike_id":"5b47cbfd-3740-4a35-b9bd-478cf093a87d","system_id":"levelo_inurba_marseille","lat":43.23965,"lon":5.36611,"is_reserved":false,"is_disabled":false,"rental_uris":{"android":"levelo://app?vid=5b47cbfd-3740-4a35-b9bd-478cf093a87d","ios":"levelo://app?vid=5b47cbfd-3740-4a35-b9bd-478cf093a87d"},"vehicle_type_id":"4","last_reported":1729436854,"current_range_meters":27600,"station_id":"ce4bhi12rcd13ifvqfp0","pricing_plan_id":"cebpf4jnsgd1na2vs0mg"},{"bike_id":"6c4fed87-6be3-4d97-9301-4412accaca73","system_id":"levelo_inurba_marseille","lat":43.23974,"lon":5.36632,"is_reserved":false,"is_disabled":false,"rental_uris":{"android":"levelo://app?vid=6c4fed87-6be3-4d97-9301-4412accaca73","ios":"levelo://app?vid=6c4fed87-6be3-4d97-9301-4412accaca73"},"vehicle_type_id":"4","last_reported":1729436854,"current_range_meters":38800,"station_id":"ce4bhi12rcd13ifvqfp0","pricing_plan_id":"cebpf4jnsgd1na2vs0mg"},{"bike_id":"37ba4aaf-d154-4ae5-bbad-fa05fbb51db3","system_id":"levelo_inurba_marseille","lat":43.24808,"lon":5.37458,"is_reserved":false,"is_disabled":false,"rental_uris":{"android":"levelo://app?vid=37ba4aaf-d154-4ae5-bbad-fa05fbb51db3","ios":"levelo://app?vid=37ba4aaf-d154-4ae5-bbad-fa05fbb51db3"},"vehicle_type_id":"4","last_reported":1729436854,"current_range_meters":6800,"station_id":"ce4bhgh2rcd13ifvqfb0","pricing_plan_id":"cebpf4jnsgd1na2vs0mg"},{"bike_id":"ab25e50e-031e-49b2-92c3-bc31c1e4e638","system_id":"levelo_inurba_marseille","lat":43.279751,"lon":5.416774,"is_reserved":false,"is_disabled":false,"rental_uris":{"android":"levelo://app?vid=ab25e50e-031e-49b2-92c3-bc31c1e4e638","ios":"levelo://app?vid=ab25e50e-031e-49b2-92c3-bc31c1e4e638"},"vehicle_type_id":"4","last_reported":1729436854,"current_range_meters":8800,"station_id":"ce4bho12rcd13ifvqh1g","pricing_plan_id":"cebpf4jnsgd1na2vs0mg"},{"bike_id":"92eb6746-c0e1-4203-a011-69d7e9b92cb7","system_id":"levelo_inurba_marseille","lat":43.27206,"lon":5.39188,"is_reserved":false,"is_disabled":false,"rental_uris":{"android":"levelo://app?vid=92eb6746-c0e1-4203-a011-69d7e9b92cb7","ios":"levelo://app?vid=92eb6746-c0e1-4203-a011-69d7e9b92cb7"},"vehicle_type_id":"4","last_reported":1729436854,"current_range_meters":37600,"station_id":"ce4bhhp2rcd13ifvqfm0","pricing_plan_id":"cebpf4jnsgd1na2vs0mg"},{"bike_id":"57dd0012-e7c2-43e3-90a1-087125ac63fa","system_id":"levelo_inurba_marseille","lat":43.33753,"lon":5.37454,"is_reserved":false,"is_disabled":false,"rental_uris":{"android":"levelo://app?vid=57dd0012-e7c2-43e3-90a1-087125ac63fa","ios":"levelo://app?vid=57dd0012-e7c2-43e3-90a1-087125ac63fa"},"vehicle_type_id":"4","last_reported":1729436854,"current_range_meters":34800,"station_id":"","pricing_plan_id":"cebpf4jnsgd1na2vs0mg"},{"bike_id":"6257c51b-f6f9-4f39-8329-039315d6280d","system_id":"levelo_inurba_marseille","lat":43.29202,"lon":5.39323,"is_reserved":false,"is_disabled":false,"rental_uris":{"android":"levelo://app?vid=6257c51b-f6f9-4f39-8329-039315d6280d","ios":"levelo://app?vid=6257c51b-f6f9-4f39-8329-039315d6280d"},"vehicle_type_id":"4","last_reported":1729436854,"current_range_meters":8800,"station_id":"ce4bh192rcd13ifvqdd0","pricing_plan_id":"cebpf4jnsgd1na2vs0mg"},{"bike_id":"400f182b-cdd9-43e1-90a7-f30ff73f0bea","system_id":"levelo_inurba_marseille","lat":43.28156,"lon":5.4264,"is_reserved":false,"is_disabled":false,"rental_uris":{"android":"levelo://app?vid=400f182b-cdd9-43e1-90a7-f30ff73f0bea","ios":"levelo://app?vid=400f182b-cdd9-43e1-90a7-f30ff73f0bea"},"vehicle_type_id":"4","last_reported":1729436854,"current_range_meters":34800,"station_id":"ce4bhnh2rcd13ifvqgug","pricing_plan_id":"cebpf4jnsgd1na2vs0mg"},{"bike_id":"88c5e8ac-8a28-4193-a72f-47d96705bf41","system_id":"levelo_inurba_marseille","lat":43.2738,"lon":5.36266,"is_reserved":false,"is_disabled":false,"rental_uris":{"android":"levelo://app?vid=88c5e8ac-8a28-4193-a72f-47d96705bf41","ios":"levelo://app?vid=88c5e8ac-8a28-4193-a72f-47d96705bf41"},"vehicle_type_id":"4","last_reported":1729436854,"current_range_meters":2800,"station_id":"ce4bhbh2rcd13ifvqeo0","pricing_plan_id":"cebpf4jnsgd1na2vs0mg"},{"bike_id":"76a33b44-bdf9-4c3f-abd1-546a60682599","system_id":"levelo_inurba_marseille","lat":43.25576,"lon":5.38241,"is_reserved":false,"is_disabled":false,"rental_uris":{"android":"levelo://app?vid=76a33b44-bdf9-4c3f-abd1-546a60682599","ios":"levelo://app?vid=76a33b44-bdf9-4c3f-abd1-546a60682599"},"vehicle_type_id":"4","last_reported":1729436854,"current_range_meters":38000,"station_id":"ce4bhih2rcd13ifvqfs0","pricing_plan_id":"cebpf4jnsgd1na2vs0mg"},{"bike_id":"e7d0f3d1-2517-4d9e-928d-f502577c2180","system_id":"levelo_inurba_marseille","lat":43.26219,"lon":5.3744,"is_reserved":false,"is_disabled":false,"rental_uris":{"android":"levelo://app?vid=e7d0f3d1-2517-4d9e-928d-f502577c2180","ios":"levelo://app?vid=e7d0f3d1-2517-4d9e-928d-f502577c2180"},"vehicle_type_id":"4","last_reported":1729436854,"current_range_meters":22000,"station_id":"ce4bhgp2rcd13ifvqfc0","pricing_plan_id":"cebpf4jnsgd1na2vs0mg"},{"bike_id":"9bb3ac6f-37d0-42b2-9b8d-92b91170d31d","system_id":"levelo_inurba_marseille","lat":43.292848,"lon":5.40107,"is_reserved":false,"is_disabled":false,"rental_uris":{"android":"levelo://app?vid=9bb3ac6f-37d0-42b2-9b8d-92b91170d31d","ios":"levelo://app?vid=9bb3ac6f-37d0-42b2-9b8d-92b91170d31d"},"vehicle_type_id":"4","last_reported":1729436854,"current_range_meters":800,"station_id":"ce4bh312rcd13ifvqdk0","pricing_plan_id":"cebpf4jnsgd1na2vs0mg"},{"bike_id":"343aa4d1-f953-489c-ab86-dc9d91d2a18b","system_id":"levelo_inurba_marseille","lat":43.30394,"lon":5.37006,"is_reserved":false,"is_disabled":false,"rental_uris":{"android":"levelo://app?vid=343aa4d1-f953-489c-ab86-dc9d91d2a18b","ios":"levelo://app?vid=343aa4d1-f953-489c-ab86-dc9d91d2a18b"},"vehicle_type_id":"4","last_reported":1729436854,"current_range_meters":23200,"station_id":"ce4bgnh2rcd13ifvqc0g","pricing_plan_id":"cebpf4jnsgd1na2vs0mg"},{"bike_id":"fca55886-769e-4104-8bc2-0030b8dbff79","system_id":"levelo_inurba_marseille","lat":43.24087,"lon":5.37743,"is_reserved":false,"is_disabled":false,"rental_uris":{"android":"levelo://app?vid=fca55886-769e-4104-8bc2-0030b8dbff79","ios":"levelo://app?vid=fca55886-769e-4104-8bc2-0030b8dbff79"},"vehicle_type_id":"4","last_reported":1729436854,"current_range_meters":38000,"station_id":"ce4bhnp2rcd13ifvqgvg","pricing_plan_id":"cebpf4jnsgd1na2vs0mg"},{"bike_id":"c052e5f3-0f87-4988-9be5-74b491b82108","system_id":"levelo_inurba_marseille","lat":43.32489,"lon":5.36557,"is_reserved":false,"is_disabled":false,"rental_uris":{"android":"levelo://app?vid=c052e5f3-0f87-4988-9be5-74b491b82108","ios":"levelo://app?vid=c052e5f3-0f87-4988-9be5-74b491b82108"},"vehicle_type_id":"4","last_reported":1729436854,"current_range_meters":38800,"station_id":"ce4bhs12rcd13ifvqhvg","pricing_plan_id":"cebpf4jnsgd1na2vs0mg"},{"bike_id":"6d852f49-d2f9-4b18-8b5e-b88d24849e73","system_id":"levelo_inurba_marseille","lat":43.23059,"lon":5.35493,"is_reserved":false,"is_disabled":false,"rental_uris":{"android":"levelo://app?vid=6d852f49-d2f9-4b18-8b5e-b88d24849e73","ios":"levelo://app?vid=6d852f49-d2f9-4b18-8b5e-b88d24849e73"},"vehicle_type_id":"4","last_reported":1729436854,"current_range_meters":15200,"station_id":"cpo3342slgdg3j2ifvpg","pricing_plan_id":"cebpf4jnsgd1na2vs0mg"},{"bike_id":"08fd2fcf-de45-467c-80fd-dff7c4232679","system_id":"levelo_inurba_marseille","lat":43.27065,"lon":5.4228,"is_reserved":false,"is_disabled":false,"rental_uris":{"android":"levelo://app?vid=08fd2fcf-de45-467c-80fd-dff7c4232679","ios":"levelo://app?vid=08fd2fcf-de45-467c-80fd-dff7c4232679"},"vehicle_type_id":"4","last_reported":1729436854,"current_range_meters":38000,"station_id":"ce4bhk92rcd13ifvqgb0","pricing_plan_id":"cebpf4jnsgd1na2vs0mg"},{"bike_id":"9d72efb5-067b-4e7b-bb8c-c3db84e079d4","system_id":"levelo_inurba_marseille","lat":43.26494,"lon":5.3954,"is_reserved":false,"is_disabled":false,"rental_uris":{"android":"levelo://app?vid=9d72efb5-067b-4e7b-bb8c-c3db84e079d4","ios":"levelo://app?vid=9d72efb5-067b-4e7b-bb8c-c3db84e079d4"},"vehicle_type_id":"4","last_reported":1729436854,"current_range_meters":8800,"station_id":"ce4bhi12rcd13ifvqfq0","pricing_plan_id":"cebpf4jnsgd1na2vs0mg"},{"bike_id":"55b3a8f5-19d1-4d08-bf99-ccf2c312bc04","system_id":"levelo_inurba_marseille","lat":43.23193,"lon":5.35559,"is_reserved":false,"is_disabled":false,"rental_uris":{"android":"levelo://app?vid=55b3a8f5-19d1-4d08-bf99-ccf2c312bc04","ios":"levelo://app?vid=55b3a8f5-19d1-4d08-bf99-ccf2c312bc04"},"vehicle_type_id":"4","last_reported":1729436854,"current_range_meters":38000,"station_id":"ce4bhu92rcd13ifvqi70","pricing_plan_id":"cebpf4jnsgd1na2vs0mg"},{"bike_id":"43d24770-4ece-4a77-a029-fe46e9bde13b","system_id":"levelo_inurba_marseille","lat":43.3157,"lon":5.3743,"is_reserved":false,"is_disabled":false,"rental_uris":{"android":"levelo://app?vid=43d24770-4ece-4a77-a029-fe46e9bde13b","ios":"levelo://app?vid=43d24770-4ece-4a77-a029-fe46e9bde13b"},"vehicle_type_id":"4","last_reported":1729436854,"current_range_meters":36400,"station_id":"","pricing_plan_id":"cebpf4jnsgd1na2vs0mg"},{"bike_id":"7f39c3d2-8289-4592-a8d8-aa1a6bb14ee3","system_id":"levelo_inurba_marseille","lat":43.231537,"lon":5.437061,"is_reserved":false,"is_disabled":false,"rental_uris":{"android":"levelo://app?vid=7f39c3d2-8289-4592-a8d8-aa1a6bb14ee3","ios":"levelo://app?vid=7f39c3d2-8289-4592-a8d8-aa1a6bb14ee3"},"vehicle_type_id":"4","last_reported":1729436854,"current_range_meters":6800,"station_id":"ce4bhmp2rcd13ifvqgog","pricing_plan_id":"cebpf4jnsgd1na2vs0mg"},{"bike_id":"07b8ebf7-e829-45ba-888c-66d6665142b1","system_id":"levelo_inurba_marseille","lat":43.26551,"lon":5.37288,"is_reserved":false,"is_disabled":false,"rental_uris":{"android":"levelo://app?vid=07b8ebf7-e829-45ba-888c-66d6665142b1","ios":"levelo://app?vid=07b8ebf7-e829-45ba-888c-66d6665142b1"},"vehicle_type_id":"4","last_reported":1729436854,"current_range_meters":34000,"station_id":"ce4bhg12rcd13ifvqf70","pricing_plan_id":"cebpf4jnsgd1na2vs0mg"},{"bike_id":"766da900-471d-42f5-8cfa-8db494f945d7","system_id":"levelo_inurba_marseille","lat":43.289146,"lon":5.460528,"is_reserved":false,"is_disabled":false,"rental_uris":{"android":"levelo://app?vid=766da900-471d-42f5-8cfa-8db494f945d7","ios":"levelo://app?vid=766da900-471d-42f5-8cfa-8db494f945d7"},"vehicle_type_id":"4","last_reported":1729436854,"current_range_meters":24800,"station_id":"","pricing_plan_id":"cebpf4jnsgd1na2vs0mg"},{"bike_id":"2fca5d61-ebcc-43ac-ba0e-ae9d7de247cd","system_id":"levelo_inurba_marseille","lat":43.29716,"lon":5.37731,"is_reserved":false,"is_disabled":false,"rental_uris":{"android":"levelo://app?vid=2fca5d61-ebcc-43ac-ba0e-ae9d7de247cd","ios":"levelo://app?vid=2fca5d61-ebcc-43ac-ba0e-ae9d7de247cd"},"vehicle_type_id":"4","last_reported":1729436854,"current_range_meters":39200,"station_id":"ce4bgkh2rcd13ifvqbl0","pricing_plan_id":"cebpf4jnsgd1na2vs0mg"},{"bike_id":"8238713c-1998-469c-9a4e-1871047d78fd","system_id":"levelo_inurba_marseille","lat":43.28713,"lon":5.374,"is_reserved":false,"is_disabled":false,"rental_uris":{"android":"levelo://app?vid=8238713c-1998-469c-9a4e-1871047d78fd","ios":"levelo://app?vid=8238713c-1998-469c-9a4e-1871047d78fd"},"vehicle_type_id":"4","last_reported":1729436854,"current_range_meters":17200,"station_id":"ce4bh3p2rcd13ifvqdq0","pricing_plan_id":"cebpf4jnsgd1na2vs0mg"},{"bike_id":"61aab6bf-f1b0-4966-a148-ea1e7445d90f","system_id":"levelo_inurba_marseille","lat":43.23959,"lon":5.36626,"is_reserved":false,"is_disabled":false,"rental_uris":{"android":"levelo://app?vid=61aab6bf-f1b0-4966-a148-ea1e7445d90f","ios":"levelo://app?vid=61aab6bf-f1b0-4966-a148-ea1e7445d90f"},"vehicle_type_id":"4","last_reported":1729436854,"current_range_meters":31200,"station_id":"ce4bhi12rcd13ifvqfp0","pricing_plan_id":"cebpf4jnsgd1na2vs0mg"},{"bike_id":"073f8473-75ba-4514-85be-f99d70adf6ba","system_id":"levelo_inurba_marseille","lat":43.28004,"lon":5.40004,"is_reserved":false,"is_disabled":false,"rental_uris":{"android":"levelo://app?vid=073f8473-75ba-4514-85be-f99d70adf6ba","ios":"levelo://app?vid=073f8473-75ba-4514-85be-f99d70adf6ba"},"vehicle_type_id":"4","last_reported":1729436854,"current_range_meters":18000,"station_id":"ce4bho92rcd13ifvqh4g","pricing_plan_id":"cebpf4jnsgd1na2vs0mg"},{"bike_id":"dacfc94d-6140-480f-845a-f5ed00233451","system_id":"levelo_inurba_marseille","lat":43.23967,"lon":5.36618,"is_reserved":false,"is_disabled":false,"rental_uris":{"android":"levelo://app?vid=dacfc94d-6140-480f-845a-f5ed00233451","ios":"levelo://app?vid=dacfc94d-6140-480f-845a-f5ed00233451"},"vehicle_type_id":"4","last_reported":1729436854,"current_range_meters":11600,"station_id":"ce4bhi12rcd13ifvqfp0","pricing_plan_id":"cebpf4jnsgd1na2vs0mg"},{"bike_id":"7772d39f-5e28-445c-af91-069b0cf63793","system_id":"levelo_inurba_marseille","lat":43.33765,"lon":5.37438,"is_reserved":false,"is_disabled":false,"rental_uris":{"android":"levelo://app?vid=7772d39f-5e28-445c-af91-069b0cf63793","ios":"levelo://app?vid=7772d39f-5e28-445c-af91-069b0cf63793"},"vehicle_type_id":"4","last_reported":1729436854,"current_range_meters":4000,"station_id":"","pricing_plan_id":"cebpf4jnsgd1na2vs0mg"},{"bike_id":"3213665e-989c-4d22-9f5a-31c8522597dd","system_id":"levelo_inurba_marseille","lat":43.296,"lon":5.36142,"is_reserved":false,"is_disabled":false,"rental_uris":{"android":"levelo://app?vid=3213665e-989c-4d22-9f5a-31c8522597dd","ios":"levelo://app?vid=3213665e-989c-4d22-9f5a-31c8522597dd"},"vehicle_type_id":"4","last_reported":1729436854,"current_range_meters":14400,"station_id":"","pricing_plan_id":"cebpf4jnsgd1na2vs0mg"},{"bike_id":"23bad941-e7bc-4f53-853a-62bdf995de8f","system_id":"levelo_inurba_marseille","lat":43.33025,"lon":5.39042,"is_reserved":false,"is_disabled":false,"rental_uris":{"android":"levelo://app?vid=23bad941-e7bc-4f53-853a-62bdf995de8f","ios":"levelo://app?vid=23bad941-e7bc-4f53-853a-62bdf995de8f"},"vehicle_type_id":"4","last_reported":1729436854,"current_range_meters":32400,"station_id":"ce4bhr92rcd13ifvqhrg","pricing_plan_id":"cebpf4jnsgd1na2vs0mg"},{"bike_id":"88d51291-f326-4aea-852e-ef9c97e924f9","system_id":"levelo_inurba_marseille","lat":43.320459,"lon":5.415292,"is_reserved":false,"is_disabled":false,"rental_uris":{"android":"levelo://app?vid=88d51291-f326-4aea-852e-ef9c97e924f9","ios":"levelo://app?vid=88d51291-f326-4aea-852e-ef9c97e924f9"},"vehicle_type_id":"4","last_reported":1729436854,"current_range_meters":7200,"station_id":"ce4bhq92rcd13ifvqhkg","pricing_plan_id":"cebpf4jnsgd1na2vs0mg"},{"bike_id":"9a2117f0-c5b0-4dc2-891b-026a24af23f1","system_id":"levelo_inurba_marseille","lat":43.3105,"lon":5.40092,"is_reserved":false,"is_disabled":false,"rental_uris":{"android":"levelo://app?vid=9a2117f0-c5b0-4dc2-891b-026a24af23f1","ios":"levelo://app?vid=9a2117f0-c5b0-4dc2-891b-026a24af23f1"},"vehicle_type_id":"4","last_reported":1729436854,"current_range_meters":35200,"station_id":"","pricing_plan_id":"cebpf4jnsgd1na2vs0mg"},{"bike_id":"6653c05c-b056-431e-95b1-69c94fffe4a3","system_id":"levelo_inurba_marseille","lat":43.29198,"lon":5.3583,"is_reserved":false,"is_disabled":false,"rental_uris":{"android":"levelo://app?vid=6653c05c-b056-431e-95b1-69c94fffe4a3","ios":"levelo://app?vid=6653c05c-b056-431e-95b1-69c94fffe4a3"},"vehicle_type_id":"4","last_reported":1729436854,"current_range_meters":36400,"station_id":"ce4bhb12rcd13ifvqel0","pricing_plan_id":"cebpf4jnsgd1na2vs0mg"},{"bike_id":"549a6cba-9348-427f-a886-e3cf72992d4a","system_id":"levelo_inurba_marseille","lat":43.29424,"lon":5.38621,"is_reserved":false,"is_disabled":false,"rental_uris":{"android":"levelo://app?vid=549a6cba-9348-427f-a886-e3cf72992d4a","ios":"levelo://app?vid=549a6cba-9348-427f-a886-e3cf72992d4a"},"vehicle_type_id":"4","last_reported":1729436854,"current_range_meters":9200,"station_id":"ce4bh2h2rcd13ifvqdh0","pricing_plan_id":"cebpf4jnsgd1na2vs0mg"},{"bike_id":"ea6887db-a5ea-4511-baf6-3397e42c1739","system_id":"levelo_inurba_marseille","lat":43.30884,"lon":5.39667,"is_reserved":false,"is_disabled":false,"rental_uris":{"android":"levelo://app?vid=ea6887db-a5ea-4511-baf6-3397e42c1739","ios":"levelo://app?vid=ea6887db-a5ea-4511-baf6-3397e42c1739"},"vehicle_type_id":"4","last_reported":1729436854,"current_range_meters":3200,"station_id":"ce4bh012rcd13ifvqcv0","pricing_plan_id":"cebpf4jnsgd1na2vs0mg"},{"bike_id":"fe927562-b3f7-48e4-90fe-1fb1c52107bc","system_id":"levelo_inurba_marseille","lat":43.31142,"lon":5.40116,"is_reserved":false,"is_disabled":false,"rental_uris":{"android":"levelo://app?vid=fe927562-b3f7-48e4-90fe-1fb1c52107bc","ios":"levelo://app?vid=fe927562-b3f7-48e4-90fe-1fb1c52107bc"},"vehicle_type_id":"4","last_reported":1729436854,"current_range_meters":30000,"station_id":"ce4bh092rcd13ifvqd30","pricing_plan_id":"cebpf4jnsgd1na2vs0mg"},{"bike_id":"9699d475-988e-4872-92a3-80233b0c79da","system_id":"levelo_inurba_marseille","lat":43.24078,"lon":5.37755,"is_reserved":false,"is_disabled":false,"rental_uris":{"android":"levelo://app?vid=9699d475-988e-4872-92a3-80233b0c79da","ios":"levelo://app?vid=9699d475-988e-4872-92a3-80233b0c79da"},"vehicle_type_id":"4","last_reported":1729436854,"current_range_meters":30400,"station_id":"ce4bhnp2rcd13ifvqgvg","pricing_plan_id":"cebpf4jnsgd1na2vs0mg"},{"bike_id":"47f10990-c8a6-4894-80cc-dc5e4a2a2b35","system_id":"levelo_inurba_marseille","lat":43.23971,"lon":5.36629,"is_reserved":false,"is_disabled":false,"rental_uris":{"android":"levelo://app?vid=47f10990-c8a6-4894-80cc-dc5e4a2a2b35","ios":"levelo://app?vid=47f10990-c8a6-4894-80cc-dc5e4a2a2b35"},"vehicle_type_id":"4","last_reported":1729436854,"current_range_meters":8000,"station_id":"ce4bhi12rcd13ifvqfp0","pricing_plan_id":"cebpf4jnsgd1na2vs0mg"},{"bike_id":"c0643a34-b589-4832-ba9a-429d6f6a1645","system_id":"levelo_inurba_marseille","lat":43.30949,"lon":5.37537,"is_reserved":false,"is_disabled":false,"rental_uris":{"android":"levelo://app?vid=c0643a34-b589-4832-ba9a-429d6f6a1645","ios":"levelo://app?vid=c0643a34-b589-4832-ba9a-429d6f6a1645"},"vehicle_type_id":"4","last_reported":1729436854,"current_range_meters":30400,"station_id":"","pricing_plan_id":"cebpf4jnsgd1na2vs0mg"},{"bike_id":"fac9a3a2-2dd0-4efd-afd6-73cc4f4edd9a","system_id":"levelo_inurba_marseille","lat":43.24813,"lon":5.37456,"is_reserved":false,"is_disabled":false,"rental_uris":{"android":"levelo://app?vid=fac9a3a2-2dd0-4efd-afd6-73cc4f4edd9a","ios":"levelo://app?vid=fac9a3a2-2dd0-4efd-afd6-73cc4f4edd9a"},"vehicle_type_id":"4","last_reported":1729436854,"current_range_meters":36800,"station_id":"ce4bhgh2rcd13ifvqfb0","pricing_plan_id":"cebpf4jnsgd1na2vs0mg"},{"bike_id":"2a246db4-f904-41af-827f-2dc4e0c10587","system_id":"levelo_inurba_marseille","lat":43.27496,"lon":5.42455,"is_reserved":false,"is_disabled":false,"rental_uris":{"android":"levelo://app?vid=2a246db4-f904-41af-827f-2dc4e0c10587","ios":"levelo://app?vid=2a246db4-f904-41af-827f-2dc4e0c10587"},"vehicle_type_id":"4","last_reported":1729436854,"current_range_meters":28000,"station_id":"ce4bhn92rcd13ifvqgrg","pricing_plan_id":"cebpf4jnsgd1na2vs0mg"},{"bike_id":"65bdf8a7-581b-4618-bccb-c8132147d71a","system_id":"levelo_inurba_marseille","lat":43.27563,"lon":5.36021,"is_reserved":false,"is_disabled":false,"rental_uris":{"android":"levelo://app?vid=65bdf8a7-581b-4618-bccb-c8132147d71a","ios":"levelo://app?vid=65bdf8a7-581b-4618-bccb-c8132147d71a"},"vehicle_type_id":"4","last_reported":1729436854,"current_range_meters":11600,"station_id":"","pricing_plan_id":"cebpf4jnsgd1na2vs0mg"},{"bike_id":"6a3f1423-c6ad-4544-962f-71a5699f9a13","system_id":"levelo_inurba_marseille","lat":43.26191,"lon":5.37452,"is_reserved":false,"is_disabled":false,"rental_uris":{"android":"levelo://app?vid=6a3f1423-c6ad-4544-962f-71a5699f9a13","ios":"levelo://app?vid=6a3f1423-c6ad-4544-962f-71a5699f9a13"},"vehicle_type_id":"4","last_reported":1729436854,"current_range_meters":38000,"station_id":"ce4bhgp2rcd13ifvqfc0","pricing_plan_id":"cebpf4jnsgd1na2vs0mg"},{"bike_id":"a310ebd0-a67e-4c32-aec9-42b1f7b8265f","system_id":"levelo_inurba_marseille","lat":43.28982,"lon":5.3784,"is_reserved":false,"is_disabled":false,"rental_uris":{"android":"levelo://app?vid=a310ebd0-a67e-4c32-aec9-42b1f7b8265f","ios":"levelo://app?vid=a310ebd0-a67e-4c32-aec9-42b1f7b8265f"},"vehicle_type_id":"4","last_reported":1729436854,"current_range_meters":7200,"station_id":"ce4bh9p2rcd13ifvqed0","pricing_plan_id":"cebpf4jnsgd1na2vs0mg"},{"bike_id":"528fef3b-bb8b-42d1-985d-ca1adbc390f0","system_id":"levelo_inurba_marseille","lat":43.24394,"lon":5.37058,"is_reserved":false,"is_disabled":false,"rental_uris":{"android":"levelo://app?vid=528fef3b-bb8b-42d1-985d-ca1adbc390f0","ios":"levelo://app?vid=528fef3b-bb8b-42d1-985d-ca1adbc390f0"},"vehicle_type_id":"4","last_reported":1729436854,"current_range_meters":10000,"station_id":"ce4bhhh2rcd13ifvqfk0","pricing_plan_id":"cebpf4jnsgd1na2vs0mg"},{"bike_id":"fb8cede0-5f49-49e1-aaf1-f97f7864fb33","system_id":"levelo_inurba_marseille","lat":43.32629,"lon":5.38898,"is_reserved":false,"is_disabled":false,"rental_uris":{"android":"levelo://app?vid=fb8cede0-5f49-49e1-aaf1-f97f7864fb33","ios":"levelo://app?vid=fb8cede0-5f49-49e1-aaf1-f97f7864fb33"},"vehicle_type_id":"4","last_reported":1729436854,"current_range_meters":33200,"station_id":"","pricing_plan_id":"cebpf4jnsgd1na2vs0mg"},{"bike_id":"0419c0fc-bfd2-4f0f-9f92-b330bfbd274a","system_id":"levelo_inurba_marseille","lat":43.289337,"lon":5.363986,"is_reserved":false,"is_disabled":false,"rental_uris":{"android":"levelo://app?vid=0419c0fc-bfd2-4f0f-9f92-b330bfbd274a","ios":"levelo://app?vid=0419c0fc-bfd2-4f0f-9f92-b330bfbd274a"},"vehicle_type_id":"4","last_reported":1729436854,"current_range_meters":24000,"station_id":"ce4bhc92rcd13ifvqetg","pricing_plan_id":"cebpf4jnsgd1na2vs0mg"},{"bike_id":"4f2eab08-dd71-45a7-98ce-83b994d7b352","system_id":"levelo_inurba_marseille","lat":43.23195,"lon":5.35549,"is_reserved":false,"is_disabled":false,"rental_uris":{"android":"levelo://app?vid=4f2eab08-dd71-45a7-98ce-83b994d7b352","ios":"levelo://app?vid=4f2eab08-dd71-45a7-98ce-83b994d7b352"},"vehicle_type_id":"4","last_reported":1729436854,"current_range_meters":19600,"station_id":"ce4bhu92rcd13ifvqi70","pricing_plan_id":"cebpf4jnsgd1na2vs0mg"},{"bike_id":"4cf3e5d8-4f9a-4007-b965-622ecd99339e","system_id":"levelo_inurba_marseille","lat":43.31074,"lon":5.40085,"is_reserved":false,"is_disabled":false,"rental_uris":{"android":"levelo://app?vid=4cf3e5d8-4f9a-4007-b965-622ecd99339e","ios":"levelo://app?vid=4cf3e5d8-4f9a-4007-b965-622ecd99339e"},"vehicle_type_id":"4","last_reported":1729436854,"current_range_meters":8400,"station_id":"","pricing_plan_id":"cebpf4jnsgd1na2vs0mg"},{"bike_id":"83408be8-5489-4d85-8e30-1d051185bc8d","system_id":"levelo_inurba_marseille","lat":43.28613,"lon":5.35103,"is_reserved":false,"is_disabled":false,"rental_uris":{"android":"levelo://app?vid=83408be8-5489-4d85-8e30-1d051185bc8d","ios":"levelo://app?vid=83408be8-5489-4d85-8e30-1d051185bc8d"},"vehicle_type_id":"4","last_reported":1729436854,"current_range_meters":8400,"station_id":"ce4bhch2rcd13ifvqeug","pricing_plan_id":"cebpf4jnsgd1na2vs0mg"},{"bike_id":"7894aa5c-5e2f-43a4-bdd5-caab2e1fa2b4","system_id":"levelo_inurba_marseille","lat":43.30605,"lon":5.37232,"is_reserved":false,"is_disabled":false,"rental_uris":{"android":"levelo://app?vid=7894aa5c-5e2f-43a4-bdd5-caab2e1fa2b4","ios":"levelo://app?vid=7894aa5c-5e2f-43a4-bdd5-caab2e1fa2b4"},"vehicle_type_id":"4","last_reported":1729436854,"current_range_meters":32800,"station_id":"ce4bgqh2rcd13ifvqc4g","pricing_plan_id":"cebpf4jnsgd1na2vs0mg"},{"bike_id":"f9928a1b-5e01-4359-8549-3825d8c7f41a","system_id":"levelo_inurba_marseille","lat":43.22928,"lon":5.35377,"is_reserved":false,"is_disabled":false,"rental_uris":{"android":"levelo://app?vid=f9928a1b-5e01-4359-8549-3825d8c7f41a","ios":"levelo://app?vid=f9928a1b-5e01-4359-8549-3825d8c7f41a"},"vehicle_type_id":"4","last_reported":1729436854,"current_range_meters":38000,"station_id":"cpo3532slgdg3j2ikp40","pricing_plan_id":"cebpf4jnsgd1na2vs0mg"},{"bike_id":"b3da6c3a-2a10-4172-a1ac-14d12204275b","system_id":"levelo_inurba_marseille","lat":43.27492,"lon":5.42452,"is_reserved":false,"is_disabled":false,"rental_uris":{"android":"levelo://app?vid=b3da6c3a-2a10-4172-a1ac-14d12204275b","ios":"levelo://app?vid=b3da6c3a-2a10-4172-a1ac-14d12204275b"},"vehicle_type_id":"4","last_reported":1729436854,"current_range_meters":40000,"station_id":"ce4bhn92rcd13ifvqgrg","pricing_plan_id":"cebpf4jnsgd1na2vs0mg"},{"bike_id":"76536070-92d5-4302-8e45-15c764d0c051","system_id":"levelo_inurba_marseille","lat":43.23199,"lon":5.35551,"is_reserved":false,"is_disabled":false,"rental_uris":{"android":"levelo://app?vid=76536070-92d5-4302-8e45-15c764d0c051","ios":"levelo://app?vid=76536070-92d5-4302-8e45-15c764d0c051"},"vehicle_type_id":"4","last_reported":1729436854,"current_range_meters":8400,"station_id":"ce4bhu92rcd13ifvqi70","pricing_plan_id":"cebpf4jnsgd1na2vs0mg"},{"bike_id":"302ee9eb-1625-4100-81c1-9ce981ea692e","system_id":"levelo_inurba_marseille","lat":43.2749,"lon":5.42467,"is_reserved":false,"is_disabled":false,"rental_uris":{"android":"levelo://app?vid=302ee9eb-1625-4100-81c1-9ce981ea692e","ios":"levelo://app?vid=302ee9eb-1625-4100-81c1-9ce981ea692e"},"vehicle_type_id":"4","last_reported":1729436854,"current_range_meters":10000,"station_id":"ce4bhn92rcd13ifvqgrg","pricing_plan_id":"cebpf4jnsgd1na2vs0mg"},{"bike_id":"501ed392-34b4-48dd-b4dc-292339c68d81","system_id":"levelo_inurba_marseille","lat":43.32108,"lon":5.36773,"is_reserved":false,"is_disabled":false,"rental_uris":{"android":"levelo://app?vid=501ed392-34b4-48dd-b4dc-292339c68d81","ios":"levelo://app?vid=501ed392-34b4-48dd-b4dc-292339c68d81"},"vehicle_type_id":"4","last_reported":1729436854,"current_range_meters":17200,"station_id":"ce4bhrh2rcd13ifvqhug","pricing_plan_id":"cebpf4jnsgd1na2vs0mg"},{"bike_id":"ed1e5003-3313-48b5-8d05-de760221319d","system_id":"levelo_inurba_marseille","lat":43.23063,"lon":5.3549,"is_reserved":false,"is_disabled":false,"rental_uris":{"android":"levelo://app?vid=ed1e5003-3313-48b5-8d05-de760221319d","ios":"levelo://app?vid=ed1e5003-3313-48b5-8d05-de760221319d"},"vehicle_type_id":"4","last_reported":1729436854,"current_range_meters":26000,"station_id":"cpo3342slgdg3j2ifvpg","pricing_plan_id":"cebpf4jnsgd1na2vs0mg"},{"bike_id":"102a786b-3faa-41df-9a3e-6f3b93f697a9","system_id":"levelo_inurba_marseille","lat":43.26805,"lon":5.40266,"is_reserved":false,"is_disabled":false,"rental_uris":{"android":"levelo://app?vid=102a786b-3faa-41df-9a3e-6f3b93f697a9","ios":"levelo://app?vid=102a786b-3faa-41df-9a3e-6f3b93f697a9"},"vehicle_type_id":"4","last_reported":1729436854,"current_range_meters":12800,"station_id":"ce501612rcd8frsf0b60","pricing_plan_id":"cebpf4jnsgd1na2vs0mg"},{"bike_id":"9cf8169b-445c-4699-a9ab-404e70d8526c","system_id":"levelo_inurba_marseille","lat":43.30461,"lon":5.37899,"is_reserved":false,"is_disabled":false,"rental_uris":{"android":"levelo://app?vid=9cf8169b-445c-4699-a9ab-404e70d8526c","ios":"levelo://app?vid=9cf8169b-445c-4699-a9ab-404e70d8526c"},"vehicle_type_id":"4","last_reported":1729436854,"current_range_meters":6000,"station_id":"ce4bgup2rcd13ifvqcn0","pricing_plan_id":"cebpf4jnsgd1na2vs0mg"},{"bike_id":"7bf0808b-0043-4e01-808e-a816548bc3af","system_id":"levelo_inurba_marseille","lat":43.30797,"lon":5.38144,"is_reserved":false,"is_disabled":false,"rental_uris":{"android":"levelo://app?vid=7bf0808b-0043-4e01-808e-a816548bc3af","ios":"levelo://app?vid=7bf0808b-0043-4e01-808e-a816548bc3af"},"vehicle_type_id":"4","last_reported":1729436854,"current_range_meters":32400,"station_id":"ce4bgt12rcd13ifvqce0","pricing_plan_id":"cebpf4jnsgd1na2vs0mg"},{"bike_id":"595711b7-de3f-41c9-b47f-ff6c3f6c4612","system_id":"levelo_inurba_marseille","lat":43.2307,"lon":5.35491,"is_reserved":false,"is_disabled":false,"rental_uris":{"android":"levelo://app?vid=595711b7-de3f-41c9-b47f-ff6c3f6c4612","ios":"levelo://app?vid=595711b7-de3f-41c9-b47f-ff6c3f6c4612"},"vehicle_type_id":"4","last_reported":1729436854,"current_range_meters":28800,"station_id":"cpo3342slgdg3j2ifvpg","pricing_plan_id":"cebpf4jnsgd1na2vs0mg"},{"bike_id":"f3b18d4c-688e-4e02-9104-7f1d559134af","system_id":"levelo_inurba_marseille","lat":43.32099,"lon":5.36774,"is_reserved":false,"is_disabled":false,"rental_uris":{"android":"levelo://app?vid=f3b18d4c-688e-4e02-9104-7f1d559134af","ios":"levelo://app?vid=f3b18d4c-688e-4e02-9104-7f1d559134af"},"vehicle_type_id":"4","last_reported":1729436854,"current_range_meters":36400,"station_id":"ce4bhrh2rcd13ifvqhug","pricing_plan_id":"cebpf4jnsgd1na2vs0mg"},{"bike_id":"99a36e8e-83dc-4174-97c1-e95b5764b998","system_id":"levelo_inurba_marseille","lat":43.23961,"lon":5.36632,"is_reserved":false,"is_disabled":false,"rental_uris":{"android":"levelo://app?vid=99a36e8e-83dc-4174-97c1-e95b5764b998","ios":"levelo://app?vid=99a36e8e-83dc-4174-97c1-e95b5764b998"},"vehicle_type_id":"4","last_reported":1729436854,"current_range_meters":8400,"station_id":"ce4bhi12rcd13ifvqfp0","pricing_plan_id":"cebpf4jnsgd1na2vs0mg"},{"bike_id":"f734b23b-e393-400c-b243-15b0ef493006","system_id":"levelo_inurba_marseille","lat":43.25602,"lon":5.40052,"is_reserved":false,"is_disabled":false,"rental_uris":{"android":"levelo://app?vid=f734b23b-e393-400c-b243-15b0ef493006","ios":"levelo://app?vid=f734b23b-e393-400c-b243-15b0ef493006"},"vehicle_type_id":"4","last_reported":1729436854,"current_range_meters":24000,"station_id":"ce4bhlh2rcd13ifvqgig","pricing_plan_id":"cebpf4jnsgd1na2vs0mg"},{"bike_id":"9e2c2af9-809c-4a21-9b5a-999a63e2cb02","system_id":"levelo_inurba_marseille","lat":43.3032,"lon":5.36907,"is_reserved":false,"is_disabled":false,"rental_uris":{"android":"levelo://app?vid=9e2c2af9-809c-4a21-9b5a-999a63e2cb02","ios":"levelo://app?vid=9e2c2af9-809c-4a21-9b5a-999a63e2cb02"},"vehicle_type_id":"4","last_reported":1729436854,"current_range_meters":16800,"station_id":"ce4bgqh2rcd13ifvqc5g","pricing_plan_id":"cebpf4jnsgd1na2vs0mg"},{"bike_id":"8a61b0d3-96ba-49fc-af75-dd8176297036","system_id":"levelo_inurba_marseille","lat":43.23958,"lon":5.36625,"is_reserved":false,"is_disabled":false,"rental_uris":{"android":"levelo://app?vid=8a61b0d3-96ba-49fc-af75-dd8176297036","ios":"levelo://app?vid=8a61b0d3-96ba-49fc-af75-dd8176297036"},"vehicle_type_id":"4","last_reported":1729436854,"current_range_meters":8800,"station_id":"ce4bhi12rcd13ifvqfp0","pricing_plan_id":"cebpf4jnsgd1na2vs0mg"},{"bike_id":"bf216531-e568-4be7-b9fc-4f5160a2cd87","system_id":"levelo_inurba_marseille","lat":43.23195,"lon":5.35555,"is_reserved":false,"is_disabled":false,"rental_uris":{"android":"levelo://app?vid=bf216531-e568-4be7-b9fc-4f5160a2cd87","ios":"levelo://app?vid=bf216531-e568-4be7-b9fc-4f5160a2cd87"},"vehicle_type_id":"4","last_reported":1729436854,"current_range_meters":14000,"station_id":"ce4bhu92rcd13ifvqi70","pricing_plan_id":"cebpf4jnsgd1na2vs0mg"},{"bike_id":"865d56d8-3bdc-4f19-bbfd-efec386a1dd7","system_id":"levelo_inurba_marseille","lat":43.27996,"lon":5.40008,"is_reserved":false,"is_disabled":false,"rental_uris":{"android":"levelo://app?vid=865d56d8-3bdc-4f19-bbfd-efec386a1dd7","ios":"levelo://app?vid=865d56d8-3bdc-4f19-bbfd-efec386a1dd7"},"vehicle_type_id":"4","last_reported":1729436854,"current_range_meters":38000,"station_id":"ce4bho92rcd13ifvqh4g","pricing_plan_id":"cebpf4jnsgd1na2vs0mg"},{"bike_id":"4f357a8f-803f-4ef1-b82a-19fa9f305e74","system_id":"levelo_inurba_marseille","lat":43.23195,"lon":5.355553,"is_reserved":false,"is_disabled":false,"rental_uris":{"android":"levelo://app?vid=4f357a8f-803f-4ef1-b82a-19fa9f305e74","ios":"levelo://app?vid=4f357a8f-803f-4ef1-b82a-19fa9f305e74"},"vehicle_type_id":"4","last_reported":1729436854,"current_range_meters":36800,"station_id":"ce4bhu92rcd13ifvqi70","pricing_plan_id":"cebpf4jnsgd1na2vs0mg"},{"bike_id":"57d6c459-9f04-4869-8203-b0341cdb2874","system_id":"levelo_inurba_marseille","lat":43.290009,"lon":5.356181,"is_reserved":false,"is_disabled":false,"rental_uris":{"android":"levelo://app?vid=57d6c459-9f04-4869-8203-b0341cdb2874","ios":"levelo://app?vid=57d6c459-9f04-4869-8203-b0341cdb2874"},"vehicle_type_id":"4","last_reported":1729436854,"current_range_meters":19600,"station_id":"","pricing_plan_id":"cebpf4jnsgd1na2vs0mg"},{"bike_id":"00628067-a533-4c3d-ba92-5303b07ceaf2","system_id":"levelo_inurba_marseille","lat":43.24386,"lon":5.37061,"is_reserved":false,"is_disabled":false,"rental_uris":{"android":"levelo://app?vid=00628067-a533-4c3d-ba92-5303b07ceaf2","ios":"levelo://app?vid=00628067-a533-4c3d-ba92-5303b07ceaf2"},"vehicle_type_id":"4","last_reported":1729436854,"current_range_meters":30800,"station_id":"ce4bhhh2rcd13ifvqfk0","pricing_plan_id":"cebpf4jnsgd1na2vs0mg"},{"bike_id":"e78e5b07-8aad-4233-8caa-3a2852780ccb","system_id":"levelo_inurba_marseille","lat":43.239632,"lon":5.366349,"is_reserved":false,"is_disabled":false,"rental_uris":{"android":"levelo://app?vid=e78e5b07-8aad-4233-8caa-3a2852780ccb","ios":"levelo://app?vid=e78e5b07-8aad-4233-8caa-3a2852780ccb"},"vehicle_type_id":"4","last_reported":1729436854,"current_range_meters":16400,"station_id":"ce4bhi12rcd13ifvqfp0","pricing_plan_id":"cebpf4jnsgd1na2vs0mg"},{"bike_id":"ab284a00-3046-432a-96ca-cb41ba83ad70","system_id":"levelo_inurba_marseille","lat":43.31079,"lon":5.37854,"is_reserved":false,"is_disabled":false,"rental_uris":{"android":"levelo://app?vid=ab284a00-3046-432a-96ca-cb41ba83ad70","ios":"levelo://app?vid=ab284a00-3046-432a-96ca-cb41ba83ad70"},"vehicle_type_id":"4","last_reported":1729436854,"current_range_meters":33200,"station_id":"","pricing_plan_id":"cebpf4jnsgd1na2vs0mg"},{"bike_id":"95b5204a-e23e-4a0d-885c-51c63dbfecb4","system_id":"levelo_inurba_marseille","lat":43.269494,"lon":5.386235,"is_reserved":false,"is_disabled":false,"rental_uris":{"android":"levelo://app?vid=95b5204a-e23e-4a0d-885c-51c63dbfecb4","ios":"levelo://app?vid=95b5204a-e23e-4a0d-885c-51c63dbfecb4"},"vehicle_type_id":"4","last_reported":1729436854,"current_range_meters":38800,"station_id":"ce4bhh92rcd13ifvqfh0","pricing_plan_id":"cebpf4jnsgd1na2vs0mg"},{"bike_id":"3c807220-758f-40c8-b4f1-96669d1b8d8b","system_id":"levelo_inurba_marseille","lat":43.23193,"lon":5.35557,"is_reserved":false,"is_disabled":false,"rental_uris":{"android":"levelo://app?vid=3c807220-758f-40c8-b4f1-96669d1b8d8b","ios":"levelo://app?vid=3c807220-758f-40c8-b4f1-96669d1b8d8b"},"vehicle_type_id":"4","last_reported":1729436854,"current_range_meters":32800,"station_id":"ce4bhu92rcd13ifvqi70","pricing_plan_id":"cebpf4jnsgd1na2vs0mg"},{"bike_id":"c11b0555-b997-4036-8536-79587f1a9f2e","system_id":"levelo_inurba_marseille","lat":43.27673,"lon":5.389,"is_reserved":false,"is_disabled":false,"rental_uris":{"android":"levelo://app?vid=c11b0555-b997-4036-8536-79587f1a9f2e","ios":"levelo://app?vid=c11b0555-b997-4036-8536-79587f1a9f2e"},"vehicle_type_id":"4","last_reported":1729436854,"current_range_meters":31200,"station_id":"ce4bhi12rcd13ifvqfo0","pricing_plan_id":"cebpf4jnsgd1na2vs0mg"},{"bike_id":"efaa11d9-cf33-46eb-81c8-1d6547059dc0","system_id":"levelo_inurba_marseille","lat":43.27177,"lon":5.41007,"is_reserved":false,"is_disabled":false,"rental_uris":{"android":"levelo://app?vid=efaa11d9-cf33-46eb-81c8-1d6547059dc0","ios":"levelo://app?vid=efaa11d9-cf33-46eb-81c8-1d6547059dc0"},"vehicle_type_id":"4","last_reported":1729436854,"current_range_meters":36800,"station_id":"ce4bhl12rcd13ifvqgf0","pricing_plan_id":"cebpf4jnsgd1na2vs0mg"},{"bike_id":"ace5ed96-d0b5-4783-902b-e427f05cb922","system_id":"levelo_inurba_marseille","lat":43.25724,"lon":5.41109,"is_reserved":false,"is_disabled":false,"rental_uris":{"android":"levelo://app?vid=ace5ed96-d0b5-4783-902b-e427f05cb922","ios":"levelo://app?vid=ace5ed96-d0b5-4783-902b-e427f05cb922"},"vehicle_type_id":"4","last_reported":1729436854,"current_range_meters":14800,"station_id":"ce4bhkp2rcd13ifvqgd0","pricing_plan_id":"cebpf4jnsgd1na2vs0mg"},{"bike_id":"b93b21c1-6660-47dd-b694-c09472999d91","system_id":"levelo_inurba_marseille","lat":43.31366,"lon":5.38494,"is_reserved":false,"is_disabled":false,"rental_uris":{"android":"levelo://app?vid=b93b21c1-6660-47dd-b694-c09472999d91","ios":"levelo://app?vid=b93b21c1-6660-47dd-b694-c09472999d91"},"vehicle_type_id":"4","last_reported":1729436854,"current_range_meters":32800,"station_id":"ce4bgt92rcd13ifvqcf0","pricing_plan_id":"cebpf4jnsgd1na2vs0mg"},{"bike_id":"598ee8ed-5462-4333-8934-4bed8f36d266","system_id":"levelo_inurba_marseille","lat":43.30423,"lon":5.41289,"is_reserved":false,"is_disabled":false,"rental_uris":{"android":"levelo://app?vid=598ee8ed-5462-4333-8934-4bed8f36d266","ios":"levelo://app?vid=598ee8ed-5462-4333-8934-4bed8f36d266"},"vehicle_type_id":"4","last_reported":1729436854,"current_range_meters":9600,"station_id":"ce4bhop2rcd13ifvqh8g","pricing_plan_id":"cebpf4jnsgd1na2vs0mg"},{"bike_id":"a4b90952-f040-4ba4-927a-04611093225c","system_id":"levelo_inurba_marseille","lat":43.27678,"lon":5.38871,"is_reserved":false,"is_disabled":false,"rental_uris":{"android":"levelo://app?vid=a4b90952-f040-4ba4-927a-04611093225c","ios":"levelo://app?vid=a4b90952-f040-4ba4-927a-04611093225c"},"vehicle_type_id":"4","last_reported":1729436854,"current_range_meters":2800,"station_id":"ce4bgi12rcd13ifvqb70","pricing_plan_id":"cebpf4jnsgd1na2vs0mg"},{"bike_id":"8550474a-48cf-406a-999f-00f715815bad","system_id":"levelo_inurba_marseille","lat":43.25111,"lon":5.40319,"is_reserved":false,"is_disabled":false,"rental_uris":{"android":"levelo://app?vid=8550474a-48cf-406a-999f-00f715815bad","ios":"levelo://app?vid=8550474a-48cf-406a-999f-00f715815bad"},"vehicle_type_id":"4","last_reported":1729436854,"current_range_meters":8400,"station_id":"ce4bhlh2rcd13ifvqgig","pricing_plan_id":"cebpf4jnsgd1na2vs0mg"},{"bike_id":"bf24d256-8265-4904-871b-7092d76f5df5","system_id":"levelo_inurba_marseille","lat":43.25582,"lon":5.38232,"is_reserved":false,"is_disabled":false,"rental_uris":{"android":"levelo://app?vid=bf24d256-8265-4904-871b-7092d76f5df5","ios":"levelo://app?vid=bf24d256-8265-4904-871b-7092d76f5df5"},"vehicle_type_id":"4","last_reported":1729436854,"current_range_meters":37600,"station_id":"ce4bhih2rcd13ifvqfs0","pricing_plan_id":"cebpf4jnsgd1na2vs0mg"},{"bike_id":"d1ca469b-b396-4867-8b4f-97c7673ce247","system_id":"levelo_inurba_marseille","lat":43.32488,"lon":5.36567,"is_reserved":false,"is_disabled":false,"rental_uris":{"android":"levelo://app?vid=d1ca469b-b396-4867-8b4f-97c7673ce247","ios":"levelo://app?vid=d1ca469b-b396-4867-8b4f-97c7673ce247"},"vehicle_type_id":"4","last_reported":1729436854,"current_range_meters":19600,"station_id":"ce4bhs12rcd13ifvqhvg","pricing_plan_id":"cebpf4jnsgd1na2vs0mg"},{"bike_id":"765477b4-7648-4c7a-8240-1916f126a509","system_id":"levelo_inurba_marseille","lat":43.2815,"lon":5.42641,"is_reserved":false,"is_disabled":false,"rental_uris":{"android":"levelo://app?vid=765477b4-7648-4c7a-8240-1916f126a509","ios":"levelo://app?vid=765477b4-7648-4c7a-8240-1916f126a509"},"vehicle_type_id":"4","last_reported":1729436854,"current_range_meters":37600,"station_id":"ce4bhnh2rcd13ifvqgug","pricing_plan_id":"cebpf4jnsgd1na2vs0mg"},{"bike_id":"5c28a995-646a-4a1d-888e-296e57e3c789","system_id":"levelo_inurba_marseille","lat":43.23963,"lon":5.366259,"is_reserved":false,"is_disabled":false,"rental_uris":{"android":"levelo://app?vid=5c28a995-646a-4a1d-888e-296e57e3c789","ios":"levelo://app?vid=5c28a995-646a-4a1d-888e-296e57e3c789"},"vehicle_type_id":"4","last_reported":1729436854,"current_range_meters":30800,"station_id":"ce4bhi12rcd13ifvqfp0","pricing_plan_id":"cebpf4jnsgd1na2vs0mg"},{"bike_id":"c63541db-4883-409a-9bb2-7bd763353469","system_id":"levelo_inurba_marseille","lat":43.31499,"lon":5.43018,"is_reserved":false,"is_disabled":false,"rental_uris":{"android":"levelo://app?vid=c63541db-4883-409a-9bb2-7bd763353469","ios":"levelo://app?vid=c63541db-4883-409a-9bb2-7bd763353469"},"vehicle_type_id":"4","last_reported":1729436854,"current_range_meters":26800,"station_id":"ce4bhp92rcd13ifvqhcg","pricing_plan_id":"cebpf4jnsgd1na2vs0mg"},{"bike_id":"743cd33d-7b3b-4d0a-bca6-04ba4616722a","system_id":"levelo_inurba_marseille","lat":43.2872,"lon":5.3795,"is_reserved":false,"is_disabled":false,"rental_uris":{"android":"levelo://app?vid=743cd33d-7b3b-4d0a-bca6-04ba4616722a","ios":"levelo://app?vid=743cd33d-7b3b-4d0a-bca6-04ba4616722a"},"vehicle_type_id":"4","last_reported":1729436854,"current_range_meters":6800,"station_id":"ce4bh9p2rcd13ifvqec0","pricing_plan_id":"cebpf4jnsgd1na2vs0mg"},{"bike_id":"73834f8c-ef12-4652-8f75-18c4940f7a00","system_id":"levelo_inurba_marseille","lat":43.3372,"lon":5.3918,"is_reserved":false,"is_disabled":false,"rental_uris":{"android":"levelo://app?vid=73834f8c-ef12-4652-8f75-18c4940f7a00","ios":"levelo://app?vid=73834f8c-ef12-4652-8f75-18c4940f7a00"},"vehicle_type_id":"4","last_reported":1729436854,"current_range_meters":37600,"station_id":"ce4bhr92rcd13ifvqhsg","pricing_plan_id":"cebpf4jnsgd1na2vs0mg"},{"bike_id":"1d3b7f9b-291e-4fef-a8b3-8dd76e2a8253","system_id":"levelo_inurba_marseille","lat":43.28613,"lon":5.35097,"is_reserved":false,"is_disabled":false,"rental_uris":{"android":"levelo://app?vid=1d3b7f9b-291e-4fef-a8b3-8dd76e2a8253","ios":"levelo://app?vid=1d3b7f9b-291e-4fef-a8b3-8dd76e2a8253"},"vehicle_type_id":"4","last_reported":1729436854,"current_range_meters":2800,"station_id":"ce4bhch2rcd13ifvqeug","pricing_plan_id":"cebpf4jnsgd1na2vs0mg"},{"bike_id":"e3785e5c-f0cc-4707-bd0a-b4e6ca95246e","system_id":"levelo_inurba_marseille","lat":43.27999,"lon":5.41662,"is_reserved":false,"is_disabled":false,"rental_uris":{"android":"levelo://app?vid=e3785e5c-f0cc-4707-bd0a-b4e6ca95246e","ios":"levelo://app?vid=e3785e5c-f0cc-4707-bd0a-b4e6ca95246e"},"vehicle_type_id":"4","last_reported":1729436854,"current_range_meters":12000,"station_id":"ce4bho12rcd13ifvqh1g","pricing_plan_id":"cebpf4jnsgd1na2vs0mg"},{"bike_id":"401d27b2-8f28-45bb-8c0a-e379ec341dd1","system_id":"levelo_inurba_marseille","lat":43.23964,"lon":5.36622,"is_reserved":false,"is_disabled":false,"rental_uris":{"android":"levelo://app?vid=401d27b2-8f28-45bb-8c0a-e379ec341dd1","ios":"levelo://app?vid=401d27b2-8f28-45bb-8c0a-e379ec341dd1"},"vehicle_type_id":"4","last_reported":1729436854,"current_range_meters":32400,"station_id":"ce4bhi12rcd13ifvqfp0","pricing_plan_id":"cebpf4jnsgd1na2vs0mg"},{"bike_id":"edc0a489-ca28-4533-9cf0-f3c89aca80df","system_id":"levelo_inurba_marseille","lat":43.29706,"lon":5.377,"is_reserved":false,"is_disabled":false,"rental_uris":{"android":"levelo://app?vid=edc0a489-ca28-4533-9cf0-f3c89aca80df","ios":"levelo://app?vid=edc0a489-ca28-4533-9cf0-f3c89aca80df"},"vehicle_type_id":"4","last_reported":1729436854,"current_range_meters":2800,"station_id":"ce4bgkh2rcd13ifvqbl0","pricing_plan_id":"cebpf4jnsgd1na2vs0mg"},{"bike_id":"895f60bd-077a-4880-b56f-58cba7ed23d0","system_id":"levelo_inurba_marseille","lat":43.24071,"lon":5.37768,"is_reserved":false,"is_disabled":false,"rental_uris":{"android":"levelo://app?vid=895f60bd-077a-4880-b56f-58cba7ed23d0","ios":"levelo://app?vid=895f60bd-077a-4880-b56f-58cba7ed23d0"},"vehicle_type_id":"4","last_reported":1729436854,"current_range_meters":6800,"station_id":"ce4bhnp2rcd13ifvqgvg","pricing_plan_id":"cebpf4jnsgd1na2vs0mg"},{"bike_id":"a5f5976e-bb38-4546-853e-ee940cb9cef6","system_id":"levelo_inurba_marseille","lat":43.28422,"lon":5.34985,"is_reserved":false,"is_disabled":false,"rental_uris":{"android":"levelo://app?vid=a5f5976e-bb38-4546-853e-ee940cb9cef6","ios":"levelo://app?vid=a5f5976e-bb38-4546-853e-ee940cb9cef6"},"vehicle_type_id":"4","last_reported":1729436854,"current_range_meters":26000,"station_id":"ce4bhbh2rcd13ifvqepg","pricing_plan_id":"cebpf4jnsgd1na2vs0mg"},{"bike_id":"6c49840f-5594-47a2-986f-ee5ca0009ad6","system_id":"levelo_inurba_marseille","lat":43.29035,"lon":5.37575,"is_reserved":false,"is_disabled":false,"rental_uris":{"android":"levelo://app?vid=6c49840f-5594-47a2-986f-ee5ca0009ad6","ios":"levelo://app?vid=6c49840f-5594-47a2-986f-ee5ca0009ad6"},"vehicle_type_id":"4","last_reported":1729436854,"current_range_meters":8400,"station_id":"ce4bh692rcd13ifvqe90","pricing_plan_id":"cebpf4jnsgd1na2vs0mg"},{"bike_id":"26b6d3e6-81ac-4221-a49e-f12588a12a04","system_id":"levelo_inurba_marseille","lat":43.29301,"lon":5.37464,"is_reserved":false,"is_disabled":false,"rental_uris":{"android":"levelo://app?vid=26b6d3e6-81ac-4221-a49e-f12588a12a04","ios":"levelo://app?vid=26b6d3e6-81ac-4221-a49e-f12588a12a04"},"vehicle_type_id":"4","last_reported":1729436854,"current_range_meters":7200,"station_id":"ce4bgi12rcd13ifvqb70","pricing_plan_id":"cebpf4jnsgd1na2vs0mg"},{"bike_id":"b4cff49e-366f-49bf-bc22-33014a49b23a","system_id":"levelo_inurba_marseille","lat":43.257184,"lon":5.411167,"is_reserved":false,"is_disabled":false,"rental_uris":{"android":"levelo://app?vid=b4cff49e-366f-49bf-bc22-33014a49b23a","ios":"levelo://app?vid=b4cff49e-366f-49bf-bc22-33014a49b23a"},"vehicle_type_id":"4","last_reported":1729436854,"current_range_meters":5600,"station_id":"ce4bhgp2rcd13ifvqfe0","pricing_plan_id":"cebpf4jnsgd1na2vs0mg"},{"bike_id":"996b68ea-a3b8-48c9-9cf2-f66df1d63882","system_id":"levelo_inurba_marseille","lat":43.23204,"lon":5.35546,"is_reserved":false,"is_disabled":false,"rental_uris":{"android":"levelo://app?vid=996b68ea-a3b8-48c9-9cf2-f66df1d63882","ios":"levelo://app?vid=996b68ea-a3b8-48c9-9cf2-f66df1d63882"},"vehicle_type_id":"4","last_reported":1729436854,"current_range_meters":10000,"station_id":"ce4bhu92rcd13ifvqi70","pricing_plan_id":"cebpf4jnsgd1na2vs0mg"},{"bike_id":"4b3496a2-d393-48e7-b24c-bc5f8d6f4d51","system_id":"levelo_inurba_marseille","lat":43.23962,"lon":5.36617,"is_reserved":false,"is_disabled":false,"rental_uris":{"android":"levelo://app?vid=4b3496a2-d393-48e7-b24c-bc5f8d6f4d51","ios":"levelo://app?vid=4b3496a2-d393-48e7-b24c-bc5f8d6f4d51"},"vehicle_type_id":"4","last_reported":1729436854,"current_range_meters":30800,"station_id":"ce4bhi12rcd13ifvqfp0","pricing_plan_id":"cebpf4jnsgd1na2vs0mg"},{"bike_id":"3c63acc5-e1f7-42b2-9526-3daa93ac094f","system_id":"levelo_inurba_marseille","lat":43.24386,"lon":5.37058,"is_reserved":false,"is_disabled":false,"rental_uris":{"android":"levelo://app?vid=3c63acc5-e1f7-42b2-9526-3daa93ac094f","ios":"levelo://app?vid=3c63acc5-e1f7-42b2-9526-3daa93ac094f"},"vehicle_type_id":"4","last_reported":1729436854,"current_range_meters":40000,"station_id":"ce4bhhh2rcd13ifvqfk0","pricing_plan_id":"cebpf4jnsgd1na2vs0mg"},{"bike_id":"8d99fe7c-4c30-4da2-8979-2868dacaac42","system_id":"levelo_inurba_marseille","lat":43.29224,"lon":5.36051,"is_reserved":false,"is_disabled":false,"rental_uris":{"android":"levelo://app?vid=8d99fe7c-4c30-4da2-8979-2868dacaac42","ios":"levelo://app?vid=8d99fe7c-4c30-4da2-8979-2868dacaac42"},"vehicle_type_id":"4","last_reported":1729436854,"current_range_meters":2000,"station_id":"ce4bhbh2rcd13ifvqeqg","pricing_plan_id":"cebpf4jnsgd1na2vs0mg"},{"bike_id":"e9a6d85d-70e2-402b-90eb-502b3aedbdb3","system_id":"levelo_inurba_marseille","lat":43.29169,"lon":5.37936,"is_reserved":false,"is_disabled":false,"rental_uris":{"android":"levelo://app?vid=e9a6d85d-70e2-402b-90eb-502b3aedbdb3","ios":"levelo://app?vid=e9a6d85d-70e2-402b-90eb-502b3aedbdb3"},"vehicle_type_id":"4","last_reported":1729436854,"current_range_meters":8800,"station_id":"","pricing_plan_id":"cebpf4jnsgd1na2vs0mg"},{"bike_id":"551e4cae-27ad-43f8-bfc5-8e0a93c14612","system_id":"levelo_inurba_marseille","lat":43.32106,"lon":5.36776,"is_reserved":false,"is_disabled":false,"rental_uris":{"android":"levelo://app?vid=551e4cae-27ad-43f8-bfc5-8e0a93c14612","ios":"levelo://app?vid=551e4cae-27ad-43f8-bfc5-8e0a93c14612"},"vehicle_type_id":"4","last_reported":1729436854,"current_range_meters":37600,"station_id":"ce4bhrh2rcd13ifvqhug","pricing_plan_id":"cebpf4jnsgd1na2vs0mg"},{"bike_id":"d6b6d9c6-c04c-44c6-9708-54056b46823b","system_id":"levelo_inurba_marseille","lat":43.24181,"lon":5.38837,"is_reserved":false,"is_disabled":false,"rental_uris":{"android":"levelo://app?vid=d6b6d9c6-c04c-44c6-9708-54056b46823b","ios":"levelo://app?vid=d6b6d9c6-c04c-44c6-9708-54056b46823b"},"vehicle_type_id":"4","last_reported":1729436854,"current_range_meters":13600,"station_id":"","pricing_plan_id":"cebpf4jnsgd1na2vs0mg"},{"bike_id":"edf3f2ab-fd8b-48bf-950f-c545a1a2eb4b","system_id":"levelo_inurba_marseille","lat":43.2655,"lon":5.37287,"is_reserved":false,"is_disabled":false,"rental_uris":{"android":"levelo://app?vid=edf3f2ab-fd8b-48bf-950f-c545a1a2eb4b","ios":"levelo://app?vid=edf3f2ab-fd8b-48bf-950f-c545a1a2eb4b"},"vehicle_type_id":"4","last_reported":1729436854,"current_range_meters":30800,"station_id":"ce4bhg12rcd13ifvqf70","pricing_plan_id":"cebpf4jnsgd1na2vs0mg"},{"bike_id":"1935cdcd-2aea-43c4-a1d5-d52d7ca4a70b","system_id":"levelo_inurba_marseille","lat":43.23199,"lon":5.35547,"is_reserved":false,"is_disabled":false,"rental_uris":{"android":"levelo://app?vid=1935cdcd-2aea-43c4-a1d5-d52d7ca4a70b","ios":"levelo://app?vid=1935cdcd-2aea-43c4-a1d5-d52d7ca4a70b"},"vehicle_type_id":"4","last_reported":1729436854,"current_range_meters":4000,"station_id":"ce4bhu92rcd13ifvqi70","pricing_plan_id":"cebpf4jnsgd1na2vs0mg"},{"bike_id":"c68d7fca-797a-4d2a-a4dd-2913ef493297","system_id":"levelo_inurba_marseille","lat":43.27205,"lon":5.39191,"is_reserved":false,"is_disabled":false,"rental_uris":{"android":"levelo://app?vid=c68d7fca-797a-4d2a-a4dd-2913ef493297","ios":"levelo://app?vid=c68d7fca-797a-4d2a-a4dd-2913ef493297"},"vehicle_type_id":"4","last_reported":1729436854,"current_range_meters":28400,"station_id":"ce4bhhp2rcd13ifvqfm0","pricing_plan_id":"cebpf4jnsgd1na2vs0mg"},{"bike_id":"3efba5df-c492-459f-b740-dbbf8b24debd","system_id":"levelo_inurba_marseille","lat":43.23181,"lon":5.39982,"is_reserved":false,"is_disabled":false,"rental_uris":{"android":"levelo://app?vid=3efba5df-c492-459f-b740-dbbf8b24debd","ios":"levelo://app?vid=3efba5df-c492-459f-b740-dbbf8b24debd"},"vehicle_type_id":"4","last_reported":1729436854,"current_range_meters":16400,"station_id":"ce4bhn12rcd13ifvqgqg","pricing_plan_id":"cebpf4jnsgd1na2vs0mg"},{"bike_id":"fa0bbd7b-32cd-4e4f-aa1b-03e13450c1ca","system_id":"levelo_inurba_marseille","lat":43.29516,"lon":5.39405,"is_reserved":false,"is_disabled":false,"rental_uris":{"android":"levelo://app?vid=fa0bbd7b-32cd-4e4f-aa1b-03e13450c1ca","ios":"levelo://app?vid=fa0bbd7b-32cd-4e4f-aa1b-03e13450c1ca"},"vehicle_type_id":"4","last_reported":1729436854,"current_range_meters":32800,"station_id":"ce4bh292rcd13ifvqdf0","pricing_plan_id":"cebpf4jnsgd1na2vs0mg"},{"bike_id":"6769b2c3-2c42-4f02-8be3-13baf797b25b","system_id":"levelo_inurba_marseille","lat":43.29278,"lon":5.40119,"is_reserved":false,"is_disabled":false,"rental_uris":{"android":"levelo://app?vid=6769b2c3-2c42-4f02-8be3-13baf797b25b","ios":"levelo://app?vid=6769b2c3-2c42-4f02-8be3-13baf797b25b"},"vehicle_type_id":"4","last_reported":1729436854,"current_range_meters":16400,"station_id":"ce4bh312rcd13ifvqdk0","pricing_plan_id":"cebpf4jnsgd1na2vs0mg"},{"bike_id":"69663e99-fe51-4c5b-876a-882008f8d5d8","system_id":"levelo_inurba_marseille","lat":43.30186,"lon":5.39786,"is_reserved":false,"is_disabled":false,"rental_uris":{"android":"levelo://app?vid=69663e99-fe51-4c5b-876a-882008f8d5d8","ios":"levelo://app?vid=69663e99-fe51-4c5b-876a-882008f8d5d8"},"vehicle_type_id":"4","last_reported":1729436854,"current_range_meters":6000,"station_id":"","pricing_plan_id":"cebpf4jnsgd1na2vs0mg"},{"bike_id":"a29d8bd2-aafb-49d8-8500-52184463119c","system_id":"levelo_inurba_marseille","lat":43.28155,"lon":5.42636,"is_reserved":false,"is_disabled":false,"rental_uris":{"android":"levelo://app?vid=a29d8bd2-aafb-49d8-8500-52184463119c","ios":"levelo://app?vid=a29d8bd2-aafb-49d8-8500-52184463119c"},"vehicle_type_id":"4","last_reported":1729436854,"current_range_meters":3200,"station_id":"ce4bhnh2rcd13ifvqgug","pricing_plan_id":"cebpf4jnsgd1na2vs0mg"},{"bike_id":"001d1961-8aed-4924-aea5-81dbe1d6d449","system_id":"levelo_inurba_marseille","lat":43.30416,"lon":5.41292,"is_reserved":false,"is_disabled":false,"rental_uris":{"android":"levelo://app?vid=001d1961-8aed-4924-aea5-81dbe1d6d449","ios":"levelo://app?vid=001d1961-8aed-4924-aea5-81dbe1d6d449"},"vehicle_type_id":"4","last_reported":1729436854,"current_range_meters":39200,"station_id":"ce4bhop2rcd13ifvqh8g","pricing_plan_id":"cebpf4jnsgd1na2vs0mg"},{"bike_id":"e1005a16-8bf1-41a2-89f3-2bdce1b74800","system_id":"levelo_inurba_marseille","lat":43.23204,"lon":5.35553,"is_reserved":false,"is_disabled":false,"rental_uris":{"android":"levelo://app?vid=e1005a16-8bf1-41a2-89f3-2bdce1b74800","ios":"levelo://app?vid=e1005a16-8bf1-41a2-89f3-2bdce1b74800"},"vehicle_type_id":"4","last_reported":1729436854,"current_range_meters":28400,"station_id":"ce4bhu92rcd13ifvqi70","pricing_plan_id":"cebpf4jnsgd1na2vs0mg"},{"bike_id":"074d6620-0caa-4ec6-8aa0-d21cffc49a9e","system_id":"levelo_inurba_marseille","lat":43.28606,"lon":5.37065,"is_reserved":false,"is_disabled":false,"rental_uris":{"android":"levelo://app?vid=074d6620-0caa-4ec6-8aa0-d21cffc49a9e","ios":"levelo://app?vid=074d6620-0caa-4ec6-8aa0-d21cffc49a9e"},"vehicle_type_id":"4","last_reported":1729436854,"current_range_meters":17600,"station_id":"ce4bht12rcd13ifvqi60","pricing_plan_id":"cebpf4jnsgd1na2vs0mg"},{"bike_id":"d549c3f8-5a8f-4fd8-b6d9-f54b8c032ca2","system_id":"levelo_inurba_marseille","lat":43.33027,"lon":5.39041,"is_reserved":false,"is_disabled":false,"rental_uris":{"android":"levelo://app?vid=d549c3f8-5a8f-4fd8-b6d9-f54b8c032ca2","ios":"levelo://app?vid=d549c3f8-5a8f-4fd8-b6d9-f54b8c032ca2"},"vehicle_type_id":"4","last_reported":1729436854,"current_range_meters":9200,"station_id":"ce4bhr92rcd13ifvqhrg","pricing_plan_id":"cebpf4jnsgd1na2vs0mg"},{"bike_id":"f357d317-303f-4db6-a6b2-a7c7395ce5d8","system_id":"levelo_inurba_marseille","lat":43.28098,"lon":5.37842,"is_reserved":false,"is_disabled":false,"rental_uris":{"android":"levelo://app?vid=f357d317-303f-4db6-a6b2-a7c7395ce5d8","ios":"levelo://app?vid=f357d317-303f-4db6-a6b2-a7c7395ce5d8"},"vehicle_type_id":"4","last_reported":1729436854,"current_range_meters":34000,"station_id":"ce4bha12rcd13ifvqee0","pricing_plan_id":"cebpf4jnsgd1na2vs0mg"},{"bike_id":"4d066589-d7f7-444d-87bf-eb705d2285d0","system_id":"levelo_inurba_marseille","lat":43.23199,"lon":5.35547,"is_reserved":false,"is_disabled":false,"rental_uris":{"android":"levelo://app?vid=4d066589-d7f7-444d-87bf-eb705d2285d0","ios":"levelo://app?vid=4d066589-d7f7-444d-87bf-eb705d2285d0"},"vehicle_type_id":"4","last_reported":1729436854,"current_range_meters":20000,"station_id":"ce4bhu92rcd13ifvqi70","pricing_plan_id":"cebpf4jnsgd1na2vs0mg"},{"bike_id":"c0c57f2d-3cf9-483c-84f1-c5c54840eea2","system_id":"levelo_inurba_marseille","lat":43.30973,"lon":5.40085,"is_reserved":false,"is_disabled":false,"rental_uris":{"android":"levelo://app?vid=c0c57f2d-3cf9-483c-84f1-c5c54840eea2","ios":"levelo://app?vid=c0c57f2d-3cf9-483c-84f1-c5c54840eea2"},"vehicle_type_id":"4","last_reported":1729436854,"current_range_meters":31200,"station_id":"ce4bhq12rcd13ifvqhig","pricing_plan_id":"cebpf4jnsgd1na2vs0mg"},{"bike_id":"64854e5d-90f2-4456-8b4c-dc81f228673e","system_id":"levelo_inurba_marseille","lat":43.321139,"lon":5.367638,"is_reserved":false,"is_disabled":false,"rental_uris":{"android":"levelo://app?vid=64854e5d-90f2-4456-8b4c-dc81f228673e","ios":"levelo://app?vid=64854e5d-90f2-4456-8b4c-dc81f228673e"},"vehicle_type_id":"4","last_reported":1729436854,"current_range_meters":29600,"station_id":"ce4bhrh2rcd13ifvqhug","pricing_plan_id":"cebpf4jnsgd1na2vs0mg"},{"bike_id":"ca2bcdce-b499-4244-85d5-e1165783f713","system_id":"levelo_inurba_marseille","lat":43.23195,"lon":5.35545,"is_reserved":false,"is_disabled":false,"rental_uris":{"android":"levelo://app?vid=ca2bcdce-b499-4244-85d5-e1165783f713","ios":"levelo://app?vid=ca2bcdce-b499-4244-85d5-e1165783f713"},"vehicle_type_id":"4","last_reported":1729436854,"current_range_meters":36800,"station_id":"ce4bhu92rcd13ifvqi70","pricing_plan_id":"cebpf4jnsgd1na2vs0mg"},{"bike_id":"9efcec66-cedc-4280-817e-056ddbc557fa","system_id":"levelo_inurba_marseille","lat":43.28041,"lon":5.36944,"is_reserved":false,"is_disabled":false,"rental_uris":{"android":"levelo://app?vid=9efcec66-cedc-4280-817e-056ddbc557fa","ios":"levelo://app?vid=9efcec66-cedc-4280-817e-056ddbc557fa"},"vehicle_type_id":"4","last_reported":1729436854,"current_range_meters":24800,"station_id":"ce4bha12rcd13ifvqef0","pricing_plan_id":"cebpf4jnsgd1na2vs0mg"},{"bike_id":"a1596875-e208-43e5-a90d-2a6e5c9aeefb","system_id":"levelo_inurba_marseille","lat":43.23968,"lon":5.36619,"is_reserved":false,"is_disabled":false,"rental_uris":{"android":"levelo://app?vid=a1596875-e208-43e5-a90d-2a6e5c9aeefb","ios":"levelo://app?vid=a1596875-e208-43e5-a90d-2a6e5c9aeefb"},"vehicle_type_id":"4","last_reported":1729436854,"current_range_meters":36800,"station_id":"ce4bhi12rcd13ifvqfp0","pricing_plan_id":"cebpf4jnsgd1na2vs0mg"},{"bike_id":"e471b288-248f-4342-95f3-6b9752803f7c","system_id":"levelo_inurba_marseille","lat":43.28423,"lon":5.34999,"is_reserved":false,"is_disabled":false,"rental_uris":{"android":"levelo://app?vid=e471b288-248f-4342-95f3-6b9752803f7c","ios":"levelo://app?vid=e471b288-248f-4342-95f3-6b9752803f7c"},"vehicle_type_id":"4","last_reported":1729436854,"current_range_meters":3200,"station_id":"ce4bhbh2rcd13ifvqepg","pricing_plan_id":"cebpf4jnsgd1na2vs0mg"},{"bike_id":"2a9f13c8-c789-4cbb-b231-288baea1add8","system_id":"levelo_inurba_marseille","lat":43.31083,"lon":5.42427,"is_reserved":false,"is_disabled":false,"rental_uris":{"android":"levelo://app?vid=2a9f13c8-c789-4cbb-b231-288baea1add8","ios":"levelo://app?vid=2a9f13c8-c789-4cbb-b231-288baea1add8"},"vehicle_type_id":"4","last_reported":1729436854,"current_range_meters":22000,"station_id":"ce4bhp92rcd13ifvqhag","pricing_plan_id":"cebpf4jnsgd1na2vs0mg"},{"bike_id":"3bf115c6-8efa-475f-af9e-5ee9038c1b80","system_id":"levelo_inurba_marseille","lat":43.31065,"lon":5.40095,"is_reserved":false,"is_disabled":false,"rental_uris":{"android":"levelo://app?vid=3bf115c6-8efa-475f-af9e-5ee9038c1b80","ios":"levelo://app?vid=3bf115c6-8efa-475f-af9e-5ee9038c1b80"},"vehicle_type_id":"4","last_reported":1729436854,"current_range_meters":34000,"station_id":"","pricing_plan_id":"cebpf4jnsgd1na2vs0mg"},{"bike_id":"161be0d3-bfbd-4ce5-9c5b-584131ba80c1","system_id":"levelo_inurba_marseille","lat":43.32338,"lon":5.40622,"is_reserved":false,"is_disabled":false,"rental_uris":{"android":"levelo://app?vid=161be0d3-bfbd-4ce5-9c5b-584131ba80c1","ios":"levelo://app?vid=161be0d3-bfbd-4ce5-9c5b-584131ba80c1"},"vehicle_type_id":"4","last_reported":1729436854,"current_range_meters":8800,"station_id":"ce4bhq92rcd13ifvqhjg","pricing_plan_id":"cebpf4jnsgd1na2vs0mg"},{"bike_id":"c006e2dc-9bef-4ff7-9460-453f1f7dfacc","system_id":"levelo_inurba_marseille","lat":43.2656,"lon":5.37286,"is_reserved":false,"is_disabled":false,"rental_uris":{"android":"levelo://app?vid=c006e2dc-9bef-4ff7-9460-453f1f7dfacc","ios":"levelo://app?vid=c006e2dc-9bef-4ff7-9460-453f1f7dfacc"},"vehicle_type_id":"4","last_reported":1729436854,"current_range_meters":28800,"station_id":"ce4bhg12rcd13ifvqf70","pricing_plan_id":"cebpf4jnsgd1na2vs0mg"},{"bike_id":"11c6652e-1285-4ad7-87b7-f9732ac8194e","system_id":"levelo_inurba_marseille","lat":43.2621,"lon":5.37445,"is_reserved":false,"is_disabled":false,"rental_uris":{"android":"levelo://app?vid=11c6652e-1285-4ad7-87b7-f9732ac8194e","ios":"levelo://app?vid=11c6652e-1285-4ad7-87b7-f9732ac8194e"},"vehicle_type_id":"4","last_reported":1729436854,"current_range_meters":6400,"station_id":"ce4bhgp2rcd13ifvqfc0","pricing_plan_id":"cebpf4jnsgd1na2vs0mg"},{"bike_id":"45d8fea0-f37f-40d6-bd2a-5bc7fd8556f4","system_id":"levelo_inurba_marseille","lat":43.28348,"lon":5.38108,"is_reserved":false,"is_disabled":false,"rental_uris":{"android":"levelo://app?vid=45d8fea0-f37f-40d6-bd2a-5bc7fd8556f4","ios":"levelo://app?vid=45d8fea0-f37f-40d6-bd2a-5bc7fd8556f4"},"vehicle_type_id":"4","last_reported":1729436854,"current_range_meters":4800,"station_id":"ce4bh412rcd13ifvqdr0","pricing_plan_id":"cebpf4jnsgd1na2vs0mg"},{"bike_id":"11306656-148d-4f6e-9190-63f10fa518ea","system_id":"levelo_inurba_marseille","lat":43.22925,"lon":5.35374,"is_reserved":false,"is_disabled":false,"rental_uris":{"android":"levelo://app?vid=11306656-148d-4f6e-9190-63f10fa518ea","ios":"levelo://app?vid=11306656-148d-4f6e-9190-63f10fa518ea"},"vehicle_type_id":"4","last_reported":1729436854,"current_range_meters":14000,"station_id":"cpo3532slgdg3j2ikp40","pricing_plan_id":"cebpf4jnsgd1na2vs0mg"},{"bike_id":"2ac09ecd-d7f3-4a0d-876f-2bb653f1a5d1","system_id":"levelo_inurba_marseille","lat":43.23962,"lon":5.36618,"is_reserved":false,"is_disabled":false,"rental_uris":{"android":"levelo://app?vid=2ac09ecd-d7f3-4a0d-876f-2bb653f1a5d1","ios":"levelo://app?vid=2ac09ecd-d7f3-4a0d-876f-2bb653f1a5d1"},"vehicle_type_id":"4","last_reported":1729436854,"current_range_meters":10800,"station_id":"ce4bhi12rcd13ifvqfp0","pricing_plan_id":"cebpf4jnsgd1na2vs0mg"},{"bike_id":"3771b71b-8fbe-429b-8133-4bcb11b46de5","system_id":"levelo_inurba_marseille","lat":43.287172,"lon":5.379345,"is_reserved":false,"is_disabled":false,"rental_uris":{"android":"levelo://app?vid=3771b71b-8fbe-429b-8133-4bcb11b46de5","ios":"levelo://app?vid=3771b71b-8fbe-429b-8133-4bcb11b46de5"},"vehicle_type_id":"4","last_reported":1729436854,"current_range_meters":19200,"station_id":"ce4bh9p2rcd13ifvqec0","pricing_plan_id":"cebpf4jnsgd1na2vs0mg"},{"bike_id":"efe3cf88-77ce-427a-83e3-ddeb1b5f32cf","system_id":"levelo_inurba_marseille","lat":43.31039,"lon":5.40094,"is_reserved":false,"is_disabled":false,"rental_uris":{"android":"levelo://app?vid=efe3cf88-77ce-427a-83e3-ddeb1b5f32cf","ios":"levelo://app?vid=efe3cf88-77ce-427a-83e3-ddeb1b5f32cf"},"vehicle_type_id":"4","last_reported":1729436854,"current_range_meters":34000,"station_id":"","pricing_plan_id":"cebpf4jnsgd1na2vs0mg"},{"bike_id":"5520f689-3f32-45da-ad03-1701ef85a031","system_id":"levelo_inurba_marseille","lat":43.28005,"lon":5.40007,"is_reserved":false,"is_disabled":false,"rental_uris":{"android":"levelo://app?vid=5520f689-3f32-45da-ad03-1701ef85a031","ios":"levelo://app?vid=5520f689-3f32-45da-ad03-1701ef85a031"},"vehicle_type_id":"4","last_reported":1729436854,"current_range_meters":6000,"station_id":"ce4bho92rcd13ifvqh4g","pricing_plan_id":"cebpf4jnsgd1na2vs0mg"},{"bike_id":"c261be21-8632-42d2-8152-266a16341d30","system_id":"levelo_inurba_marseille","lat":43.232,"lon":5.35548,"is_reserved":false,"is_disabled":false,"rental_uris":{"android":"levelo://app?vid=c261be21-8632-42d2-8152-266a16341d30","ios":"levelo://app?vid=c261be21-8632-42d2-8152-266a16341d30"},"vehicle_type_id":"4","last_reported":1729436854,"current_range_meters":18000,"station_id":"ce4bhu92rcd13ifvqi70","pricing_plan_id":"cebpf4jnsgd1na2vs0mg"},{"bike_id":"f694e61a-e915-48fe-9947-7262aa177a01","system_id":"levelo_inurba_marseille","lat":43.24078,"lon":5.37759,"is_reserved":false,"is_disabled":false,"rental_uris":{"android":"levelo://app?vid=f694e61a-e915-48fe-9947-7262aa177a01","ios":"levelo://app?vid=f694e61a-e915-48fe-9947-7262aa177a01"},"vehicle_type_id":"4","last_reported":1729436854,"current_range_meters":24400,"station_id":"ce4bhnp2rcd13ifvqgvg","pricing_plan_id":"cebpf4jnsgd1na2vs0mg"},{"bike_id":"d8d7df98-3c7f-4758-ac86-224ed98ebf4c","system_id":"levelo_inurba_marseille","lat":43.2757,"lon":5.38424,"is_reserved":false,"is_disabled":false,"rental_uris":{"android":"levelo://app?vid=d8d7df98-3c7f-4758-ac86-224ed98ebf4c","ios":"levelo://app?vid=d8d7df98-3c7f-4758-ac86-224ed98ebf4c"},"vehicle_type_id":"4","last_reported":1729436854,"current_range_meters":11600,"station_id":"ce4bhh92rcd13ifvqfi0","pricing_plan_id":"cebpf4jnsgd1na2vs0mg"},{"bike_id":"08747ef7-b2be-4610-bce6-612deffffa1a","system_id":"levelo_inurba_marseille","lat":43.23195,"lon":5.35551,"is_reserved":false,"is_disabled":false,"rental_uris":{"android":"levelo://app?vid=08747ef7-b2be-4610-bce6-612deffffa1a","ios":"levelo://app?vid=08747ef7-b2be-4610-bce6-612deffffa1a"},"vehicle_type_id":"4","last_reported":1729436854,"current_range_meters":9600,"station_id":"ce4bhu92rcd13ifvqi70","pricing_plan_id":"cebpf4jnsgd1na2vs0mg"},{"bike_id":"e53fe37b-5f8e-4b8f-8a38-3370fa969665","system_id":"levelo_inurba_marseille","lat":43.29526,"lon":5.38556,"is_reserved":false,"is_disabled":false,"rental_uris":{"android":"levelo://app?vid=e53fe37b-5f8e-4b8f-8a38-3370fa969665","ios":"levelo://app?vid=e53fe37b-5f8e-4b8f-8a38-3370fa969665"},"vehicle_type_id":"4","last_reported":1729436854,"current_range_meters":38800,"station_id":"ce4bgih2rcd13ifvqba0","pricing_plan_id":"cebpf4jnsgd1na2vs0mg"},{"bike_id":"e7966b91-0697-4020-ae05-523388b63a80","system_id":"levelo_inurba_marseille","lat":43.273031,"lon":5.391104,"is_reserved":false,"is_disabled":false,"rental_uris":{"android":"levelo://app?vid=e7966b91-0697-4020-ae05-523388b63a80","ios":"levelo://app?vid=e7966b91-0697-4020-ae05-523388b63a80"},"vehicle_type_id":"4","last_reported":1729436854,"current_range_meters":4800,"station_id":"","pricing_plan_id":"cebpf4jnsgd1na2vs0mg"},{"bike_id":"d96ec20b-dc54-477e-aa46-6ea9351c0eed","system_id":"levelo_inurba_marseille","lat":43.32483,"lon":5.36569,"is_reserved":false,"is_disabled":false,"rental_uris":{"android":"levelo://app?vid=d96ec20b-dc54-477e-aa46-6ea9351c0eed","ios":"levelo://app?vid=d96ec20b-dc54-477e-aa46-6ea9351c0eed"},"vehicle_type_id":"4","last_reported":1729436854,"current_range_meters":27600,"station_id":"ce4bhs12rcd13ifvqhvg","pricing_plan_id":"cebpf4jnsgd1na2vs0mg"},{"bike_id":"38297564-435b-4e12-94c3-169a45cf0766","system_id":"levelo_inurba_marseille","lat":43.302121,"lon":5.394734,"is_reserved":false,"is_disabled":false,"rental_uris":{"android":"levelo://app?vid=38297564-435b-4e12-94c3-169a45cf0766","ios":"levelo://app?vid=38297564-435b-4e12-94c3-169a45cf0766"},"vehicle_type_id":"4","last_reported":1729436854,"current_range_meters":21600,"station_id":"ce4bh0p2rcd13ifvqd70","pricing_plan_id":"cebpf4jnsgd1na2vs0mg"},{"bike_id":"d3a32632-6cd1-4aea-aea8-1a4504d638df","system_id":"levelo_inurba_marseille","lat":43.301428,"lon":5.374192,"is_reserved":false,"is_disabled":false,"rental_uris":{"android":"levelo://app?vid=d3a32632-6cd1-4aea-aea8-1a4504d638df","ios":"levelo://app?vid=d3a32632-6cd1-4aea-aea8-1a4504d638df"},"vehicle_type_id":"4","last_reported":1729436854,"current_range_meters":5600,"station_id":"ce4bgs92rcd13ifvqcc0","pricing_plan_id":"cebpf4jnsgd1na2vs0mg"},{"bike_id":"13bf376d-9fa2-49e9-b619-1c453b6e6c21","system_id":"levelo_inurba_marseille","lat":43.30956,"lon":5.39035,"is_reserved":false,"is_disabled":false,"rental_uris":{"android":"levelo://app?vid=13bf376d-9fa2-49e9-b619-1c453b6e6c21","ios":"levelo://app?vid=13bf376d-9fa2-49e9-b619-1c453b6e6c21"},"vehicle_type_id":"4","last_reported":1729436854,"current_range_meters":16400,"station_id":"ce4bgup2rcd13ifvqco0","pricing_plan_id":"cebpf4jnsgd1na2vs0mg"},{"bike_id":"ac61f13d-506a-4180-ae00-ae4e8b866d85","system_id":"levelo_inurba_marseille","lat":43.27496,"lon":5.42451,"is_reserved":false,"is_disabled":false,"rental_uris":{"android":"levelo://app?vid=ac61f13d-506a-4180-ae00-ae4e8b866d85","ios":"levelo://app?vid=ac61f13d-506a-4180-ae00-ae4e8b866d85"},"vehicle_type_id":"4","last_reported":1729436854,"current_range_meters":40000,"station_id":"ce4bhn92rcd13ifvqgrg","pricing_plan_id":"cebpf4jnsgd1na2vs0mg"},{"bike_id":"90122bb4-12c8-47e1-a4d2-34c422cb6f6a","system_id":"levelo_inurba_marseille","lat":43.31073,"lon":5.40079,"is_reserved":false,"is_disabled":false,"rental_uris":{"android":"levelo://app?vid=90122bb4-12c8-47e1-a4d2-34c422cb6f6a","ios":"levelo://app?vid=90122bb4-12c8-47e1-a4d2-34c422cb6f6a"},"vehicle_type_id":"4","last_reported":1729436854,"current_range_meters":16800,"station_id":"","pricing_plan_id":"cebpf4jnsgd1na2vs0mg"},{"bike_id":"e69b0b86-c744-471d-800e-08592436a597","system_id":"levelo_inurba_marseille","lat":43.27908,"lon":5.38013,"is_reserved":false,"is_disabled":false,"rental_uris":{"android":"levelo://app?vid=e69b0b86-c744-471d-800e-08592436a597","ios":"levelo://app?vid=e69b0b86-c744-471d-800e-08592436a597"},"vehicle_type_id":"4","last_reported":1729436854,"current_range_meters":38000,"station_id":"ce4bhf92rcd13ifvqf50","pricing_plan_id":"cebpf4jnsgd1na2vs0mg"},{"bike_id":"f5d87189-3407-4317-b17d-a808a7638fe3","system_id":"levelo_inurba_marseille","lat":43.26192,"lon":5.3746,"is_reserved":false,"is_disabled":false,"rental_uris":{"android":"levelo://app?vid=f5d87189-3407-4317-b17d-a808a7638fe3","ios":"levelo://app?vid=f5d87189-3407-4317-b17d-a808a7638fe3"},"vehicle_type_id":"4","last_reported":1729436854,"current_range_meters":33600,"station_id":"ce4bhgp2rcd13ifvqfc0","pricing_plan_id":"cebpf4jnsgd1na2vs0mg"},{"bike_id":"398f8ed7-fd71-4a18-8304-b60d1d8ef002","system_id":"levelo_inurba_marseille","lat":43.29201,"lon":5.39324,"is_reserved":false,"is_disabled":false,"rental_uris":{"android":"levelo://app?vid=398f8ed7-fd71-4a18-8304-b60d1d8ef002","ios":"levelo://app?vid=398f8ed7-fd71-4a18-8304-b60d1d8ef002"},"vehicle_type_id":"4","last_reported":1729436854,"current_range_meters":38400,"station_id":"ce4bh192rcd13ifvqdd0","pricing_plan_id":"cebpf4jnsgd1na2vs0mg"},{"bike_id":"4167552c-9382-4bd3-9d35-da5c8a829b85","system_id":"levelo_inurba_marseille","lat":43.305345,"lon":5.384239,"is_reserved":false,"is_disabled":false,"rental_uris":{"android":"levelo://app?vid=4167552c-9382-4bd3-9d35-da5c8a829b85","ios":"levelo://app?vid=4167552c-9382-4bd3-9d35-da5c8a829b85"},"vehicle_type_id":"4","last_reported":1729436854,"current_range_meters":14400,"station_id":"ce4bgg92rcd13ifvqb30","pricing_plan_id":"cebpf4jnsgd1na2vs0mg"},{"bike_id":"606f86f8-0dd3-4ecc-8cbd-43ee6e941b67","system_id":"levelo_inurba_marseille","lat":43.23191,"lon":5.39997,"is_reserved":false,"is_disabled":false,"rental_uris":{"android":"levelo://app?vid=606f86f8-0dd3-4ecc-8cbd-43ee6e941b67","ios":"levelo://app?vid=606f86f8-0dd3-4ecc-8cbd-43ee6e941b67"},"vehicle_type_id":"4","last_reported":1729436854,"current_range_meters":37600,"station_id":"ce4bhn12rcd13ifvqgqg","pricing_plan_id":"cebpf4jnsgd1na2vs0mg"},{"bike_id":"7d2ead0d-8afd-4aad-80dc-bb42157f68de","system_id":"levelo_inurba_marseille","lat":43.2669,"lon":5.38271,"is_reserved":false,"is_disabled":false,"rental_uris":{"android":"levelo://app?vid=7d2ead0d-8afd-4aad-80dc-bb42157f68de","ios":"levelo://app?vid=7d2ead0d-8afd-4aad-80dc-bb42157f68de"},"vehicle_type_id":"4","last_reported":1729436854,"current_range_meters":25200,"station_id":"ce4bhg92rcd13ifvqf90","pricing_plan_id":"cebpf4jnsgd1na2vs0mg"},{"bike_id":"ab5217ac-696f-47ea-accf-7f46c4063444","system_id":"levelo_inurba_marseille","lat":43.337444,"lon":5.374475,"is_reserved":false,"is_disabled":false,"rental_uris":{"android":"levelo://app?vid=ab5217ac-696f-47ea-accf-7f46c4063444","ios":"levelo://app?vid=ab5217ac-696f-47ea-accf-7f46c4063444"},"vehicle_type_id":"4","last_reported":1729436854,"current_range_meters":11600,"station_id":"","pricing_plan_id":"cebpf4jnsgd1na2vs0mg"},{"bike_id":"79bbbf9d-5d02-4733-9880-dd1e26721cc7","system_id":"levelo_inurba_marseille","lat":43.22929,"lon":5.35374,"is_reserved":false,"is_disabled":false,"rental_uris":{"android":"levelo://app?vid=79bbbf9d-5d02-4733-9880-dd1e26721cc7","ios":"levelo://app?vid=79bbbf9d-5d02-4733-9880-dd1e26721cc7"},"vehicle_type_id":"4","last_reported":1729436854,"current_range_meters":24400,"station_id":"cpo3532slgdg3j2ikp40","pricing_plan_id":"cebpf4jnsgd1na2vs0mg"},{"bike_id":"8c564cee-2947-4763-9d1e-891b648ef022","system_id":"levelo_inurba_marseille","lat":43.29035,"lon":5.38656,"is_reserved":false,"is_disabled":false,"rental_uris":{"android":"levelo://app?vid=8c564cee-2947-4763-9d1e-891b648ef022","ios":"levelo://app?vid=8c564cee-2947-4763-9d1e-891b648ef022"},"vehicle_type_id":"4","last_reported":1729436854,"current_range_meters":4400,"station_id":"ce4bh4p2rcd13ifvqe0g","pricing_plan_id":"cebpf4jnsgd1na2vs0mg"},{"bike_id":"20f48d56-30c1-485a-949c-2a7c3c4e2267","system_id":"levelo_inurba_marseille","lat":43.3015,"lon":5.37421,"is_reserved":false,"is_disabled":false,"rental_uris":{"android":"levelo://app?vid=20f48d56-30c1-485a-949c-2a7c3c4e2267","ios":"levelo://app?vid=20f48d56-30c1-485a-949c-2a7c3c4e2267"},"vehicle_type_id":"4","last_reported":1729436854,"current_range_meters":3600,"station_id":"ce4bgs92rcd13ifvqcc0","pricing_plan_id":"cebpf4jnsgd1na2vs0mg"},{"bike_id":"a8fd6ad2-c92b-4b5a-8d70-08b01b56b9e8","system_id":"levelo_inurba_marseille","lat":43.33177,"lon":5.4196,"is_reserved":false,"is_disabled":false,"rental_uris":{"android":"levelo://app?vid=a8fd6ad2-c92b-4b5a-8d70-08b01b56b9e8","ios":"levelo://app?vid=a8fd6ad2-c92b-4b5a-8d70-08b01b56b9e8"},"vehicle_type_id":"4","last_reported":1729436854,"current_range_meters":20000,"station_id":"ce4bhq12rcd13ifvqhhg","pricing_plan_id":"cebpf4jnsgd1na2vs0mg"},{"bike_id":"b94a40fc-74ba-493b-8132-4d6d44690820","system_id":"levelo_inurba_marseille","lat":43.23962,"lon":5.36623,"is_reserved":false,"is_disabled":false,"rental_uris":{"android":"levelo://app?vid=b94a40fc-74ba-493b-8132-4d6d44690820","ios":"levelo://app?vid=b94a40fc-74ba-493b-8132-4d6d44690820"},"vehicle_type_id":"4","last_reported":1729436854,"current_range_meters":23200,"station_id":"ce4bhi12rcd13ifvqfp0","pricing_plan_id":"cebpf4jnsgd1na2vs0mg"},{"bike_id":"52e06f4d-4944-4b1d-ac97-fc5c430781ac","system_id":"levelo_inurba_marseille","lat":43.23183,"lon":5.39996,"is_reserved":false,"is_disabled":false,"rental_uris":{"android":"levelo://app?vid=52e06f4d-4944-4b1d-ac97-fc5c430781ac","ios":"levelo://app?vid=52e06f4d-4944-4b1d-ac97-fc5c430781ac"},"vehicle_type_id":"4","last_reported":1729436854,"current_range_meters":5600,"station_id":"ce4bhn12rcd13ifvqgqg","pricing_plan_id":"cebpf4jnsgd1na2vs0mg"},{"bike_id":"b170c69c-4089-4321-bba9-c9612fefa913","system_id":"levelo_inurba_marseille","lat":43.32451,"lon":5.38405,"is_reserved":false,"is_disabled":false,"rental_uris":{"android":"levelo://app?vid=b170c69c-4089-4321-bba9-c9612fefa913","ios":"levelo://app?vid=b170c69c-4089-4321-bba9-c9612fefa913"},"vehicle_type_id":"4","last_reported":1729436854,"current_range_meters":15200,"station_id":"ce4bhr12rcd13ifvqhqg","pricing_plan_id":"cebpf4jnsgd1na2vs0mg"},{"bike_id":"95f8a644-39a6-419b-887d-cce15ebab5db","system_id":"levelo_inurba_marseille","lat":43.284088,"lon":5.375171,"is_reserved":false,"is_disabled":false,"rental_uris":{"android":"levelo://app?vid=95f8a644-39a6-419b-887d-cce15ebab5db","ios":"levelo://app?vid=95f8a644-39a6-419b-887d-cce15ebab5db"},"vehicle_type_id":"4","last_reported":1729436854,"current_range_meters":21600,"station_id":"ce4bh412rcd13ifvqds0","pricing_plan_id":"cebpf4jnsgd1na2vs0mg"},{"bike_id":"dff56c4a-9bc1-4737-859c-1045d8f14397","system_id":"levelo_inurba_marseille","lat":43.23962,"lon":5.36631,"is_reserved":false,"is_disabled":false,"rental_uris":{"android":"levelo://app?vid=dff56c4a-9bc1-4737-859c-1045d8f14397","ios":"levelo://app?vid=dff56c4a-9bc1-4737-859c-1045d8f14397"},"vehicle_type_id":"4","last_reported":1729436854,"current_range_meters":7200,"station_id":"ce4bhi12rcd13ifvqfp0","pricing_plan_id":"cebpf4jnsgd1na2vs0mg"},{"bike_id":"d7e4d8fd-ff3f-453e-9beb-d4a90474e3da","system_id":"levelo_inurba_marseille","lat":43.28156,"lon":5.42636,"is_reserved":false,"is_disabled":false,"rental_uris":{"android":"levelo://app?vid=d7e4d8fd-ff3f-453e-9beb-d4a90474e3da","ios":"levelo://app?vid=d7e4d8fd-ff3f-453e-9beb-d4a90474e3da"},"vehicle_type_id":"4","last_reported":1729436854,"current_range_meters":26000,"station_id":"ce4bhnh2rcd13ifvqgug","pricing_plan_id":"cebpf4jnsgd1na2vs0mg"},{"bike_id":"fa1a805d-9d9a-427a-ae6c-34b142430a20","system_id":"levelo_inurba_marseille","lat":43.25721,"lon":5.41119,"is_reserved":false,"is_disabled":false,"rental_uris":{"android":"levelo://app?vid=fa1a805d-9d9a-427a-ae6c-34b142430a20","ios":"levelo://app?vid=fa1a805d-9d9a-427a-ae6c-34b142430a20"},"vehicle_type_id":"4","last_reported":1729436854,"current_range_meters":7200,"station_id":"ce4bhkp2rcd13ifvqgd0","pricing_plan_id":"cebpf4jnsgd1na2vs0mg"},{"bike_id":"480d8884-d329-47e1-8f9d-d6b9bd4684d9","system_id":"levelo_inurba_marseille","lat":43.286698,"lon":5.383692,"is_reserved":false,"is_disabled":false,"rental_uris":{"android":"levelo://app?vid=480d8884-d329-47e1-8f9d-d6b9bd4684d9","ios":"levelo://app?vid=480d8884-d329-47e1-8f9d-d6b9bd4684d9"},"vehicle_type_id":"4","last_reported":1729436854,"current_range_meters":8400,"station_id":"ce4bhoh2rcd13ifvqh5g","pricing_plan_id":"cebpf4jnsgd1na2vs0mg"},{"bike_id":"496b7ccd-aa1a-4812-8449-4367f213bf24","system_id":"levelo_inurba_marseille","lat":43.31756,"lon":5.39015,"is_reserved":false,"is_disabled":false,"rental_uris":{"android":"levelo://app?vid=496b7ccd-aa1a-4812-8449-4367f213bf24","ios":"levelo://app?vid=496b7ccd-aa1a-4812-8449-4367f213bf24"},"vehicle_type_id":"4","last_reported":1729436854,"current_range_meters":14800,"station_id":"ce4bhqp2rcd13ifvqhng","pricing_plan_id":"cebpf4jnsgd1na2vs0mg"},{"bike_id":"116ff3b9-be6e-47ed-856a-7b484a953f3b","system_id":"levelo_inurba_marseille","lat":43.232,"lon":5.35548,"is_reserved":false,"is_disabled":false,"rental_uris":{"android":"levelo://app?vid=116ff3b9-be6e-47ed-856a-7b484a953f3b","ios":"levelo://app?vid=116ff3b9-be6e-47ed-856a-7b484a953f3b"},"vehicle_type_id":"4","last_reported":1729436854,"current_range_meters":39200,"station_id":"ce4bhu92rcd13ifvqi70","pricing_plan_id":"cebpf4jnsgd1na2vs0mg"},{"bike_id":"dfaa52d8-cb06-46fc-a8e4-c95843a2eca2","system_id":"levelo_inurba_marseille","lat":43.239623,"lon":5.366249,"is_reserved":false,"is_disabled":false,"rental_uris":{"android":"levelo://app?vid=dfaa52d8-cb06-46fc-a8e4-c95843a2eca2","ios":"levelo://app?vid=dfaa52d8-cb06-46fc-a8e4-c95843a2eca2"},"vehicle_type_id":"4","last_reported":1729436854,"current_range_meters":16400,"station_id":"ce4bhi12rcd13ifvqfp0","pricing_plan_id":"cebpf4jnsgd1na2vs0mg"},{"bike_id":"346c0bea-50e5-4208-a02f-a7b52551ab22","system_id":"levelo_inurba_marseille","lat":43.2481,"lon":5.37457,"is_reserved":false,"is_disabled":false,"rental_uris":{"android":"levelo://app?vid=346c0bea-50e5-4208-a02f-a7b52551ab22","ios":"levelo://app?vid=346c0bea-50e5-4208-a02f-a7b52551ab22"},"vehicle_type_id":"4","last_reported":1729436854,"current_range_meters":38800,"station_id":"ce4bhgh2rcd13ifvqfb0","pricing_plan_id":"cebpf4jnsgd1na2vs0mg"},{"bike_id":"f2cad942-fdd0-40ff-8fb2-16aa38af1e7c","system_id":"levelo_inurba_marseille","lat":43.31584,"lon":5.40257,"is_reserved":false,"is_disabled":false,"rental_uris":{"android":"levelo://app?vid=f2cad942-fdd0-40ff-8fb2-16aa38af1e7c","ios":"levelo://app?vid=f2cad942-fdd0-40ff-8fb2-16aa38af1e7c"},"vehicle_type_id":"4","last_reported":1729436854,"current_range_meters":20000,"station_id":"ce4bhqp2rcd13ifvqhng","pricing_plan_id":"cebpf4jnsgd1na2vs0mg"},{"bike_id":"dbbe9b87-9867-4c6d-af13-5221ebd4dbbf","system_id":"levelo_inurba_marseille","lat":43.299647,"lon":5.365822,"is_reserved":false,"is_disabled":false,"rental_uris":{"android":"levelo://app?vid=dbbe9b87-9867-4c6d-af13-5221ebd4dbbf","ios":"levelo://app?vid=dbbe9b87-9867-4c6d-af13-5221ebd4dbbf"},"vehicle_type_id":"4","last_reported":1729436854,"current_range_meters":28000,"station_id":"ce4bgm92rcd13ifvqbr0","pricing_plan_id":"cebpf4jnsgd1na2vs0mg"},{"bike_id":"460d5c2c-f145-4925-ba3b-5872fb3423dd","system_id":"levelo_inurba_marseille","lat":43.23205,"lon":5.35561,"is_reserved":false,"is_disabled":false,"rental_uris":{"android":"levelo://app?vid=460d5c2c-f145-4925-ba3b-5872fb3423dd","ios":"levelo://app?vid=460d5c2c-f145-4925-ba3b-5872fb3423dd"},"vehicle_type_id":"4","last_reported":1729436854,"current_range_meters":11600,"station_id":"ce4bhu92rcd13ifvqi70","pricing_plan_id":"cebpf4jnsgd1na2vs0mg"},{"bike_id":"1874cd2d-8b9e-4295-8bfe-164f2d16f14c","system_id":"levelo_inurba_marseille","lat":43.30593,"lon":5.39367,"is_reserved":false,"is_disabled":false,"rental_uris":{"android":"levelo://app?vid=1874cd2d-8b9e-4295-8bfe-164f2d16f14c","ios":"levelo://app?vid=1874cd2d-8b9e-4295-8bfe-164f2d16f14c"},"vehicle_type_id":"4","last_reported":1729436854,"current_range_meters":11600,"station_id":"ce4bh0p2rcd13ifvqd80","pricing_plan_id":"cebpf4jnsgd1na2vs0mg"},{"bike_id":"e2c44cd5-c6c2-4d45-9652-6c1bb971e525","system_id":"levelo_inurba_marseille","lat":43.314946,"lon":5.37025,"is_reserved":false,"is_disabled":false,"rental_uris":{"android":"levelo://app?vid=e2c44cd5-c6c2-4d45-9652-6c1bb971e525","ios":"levelo://app?vid=e2c44cd5-c6c2-4d45-9652-6c1bb971e525"},"vehicle_type_id":"4","last_reported":1729436854,"current_range_meters":20800,"station_id":"ce4bhbh2rcd13ifvqepg","pricing_plan_id":"cebpf4jnsgd1na2vs0mg"},{"bike_id":"b3eac2e0-448e-43cc-a1b1-f0cd5ad71fb4","system_id":"levelo_inurba_marseille","lat":43.28446,"lon":5.39185,"is_reserved":false,"is_disabled":false,"rental_uris":{"android":"levelo://app?vid=b3eac2e0-448e-43cc-a1b1-f0cd5ad71fb4","ios":"levelo://app?vid=b3eac2e0-448e-43cc-a1b1-f0cd5ad71fb4"},"vehicle_type_id":"4","last_reported":1729436854,"current_range_meters":11600,"station_id":"ce4bhoh2rcd13ifvqh5g","pricing_plan_id":"cebpf4jnsgd1na2vs0mg"},{"bike_id":"99784c89-408b-47f1-b49f-58d3ca57068d","system_id":"levelo_inurba_marseille","lat":43.29962,"lon":5.41328,"is_reserved":false,"is_disabled":false,"rental_uris":{"android":"levelo://app?vid=99784c89-408b-47f1-b49f-58d3ca57068d","ios":"levelo://app?vid=99784c89-408b-47f1-b49f-58d3ca57068d"},"vehicle_type_id":"4","last_reported":1729436854,"current_range_meters":34000,"station_id":"ce4bhp12rcd13ifvqh9g","pricing_plan_id":"cebpf4jnsgd1na2vs0mg"},{"bike_id":"67935990-c302-4ed7-9e2a-5051f9eb220f","system_id":"levelo_inurba_marseille","lat":43.23959,"lon":5.36618,"is_reserved":false,"is_disabled":false,"rental_uris":{"android":"levelo://app?vid=67935990-c302-4ed7-9e2a-5051f9eb220f","ios":"levelo://app?vid=67935990-c302-4ed7-9e2a-5051f9eb220f"},"vehicle_type_id":"4","last_reported":1729436854,"current_range_meters":22800,"station_id":"ce4bhi12rcd13ifvqfp0","pricing_plan_id":"cebpf4jnsgd1na2vs0mg"},{"bike_id":"1e9689a9-e88c-4a7d-aa34-cf34ed0a7fa2","system_id":"levelo_inurba_marseille","lat":43.30319,"lon":5.36901,"is_reserved":false,"is_disabled":false,"rental_uris":{"android":"levelo://app?vid=1e9689a9-e88c-4a7d-aa34-cf34ed0a7fa2","ios":"levelo://app?vid=1e9689a9-e88c-4a7d-aa34-cf34ed0a7fa2"},"vehicle_type_id":"4","last_reported":1729436854,"current_range_meters":2800,"station_id":"ce4bgqh2rcd13ifvqc5g","pricing_plan_id":"cebpf4jnsgd1na2vs0mg"},{"bike_id":"ba93e1d7-9b58-4cbc-b42b-df659df176f2","system_id":"levelo_inurba_marseille","lat":43.22936,"lon":5.35378,"is_reserved":false,"is_disabled":false,"rental_uris":{"android":"levelo://app?vid=ba93e1d7-9b58-4cbc-b42b-df659df176f2","ios":"levelo://app?vid=ba93e1d7-9b58-4cbc-b42b-df659df176f2"},"vehicle_type_id":"4","last_reported":1729436854,"current_range_meters":5600,"station_id":"cpo3532slgdg3j2ikp40","pricing_plan_id":"cebpf4jnsgd1na2vs0mg"},{"bike_id":"9cb84353-e1e7-4ad3-bc51-3a0f0ce837ea","system_id":"levelo_inurba_marseille","lat":43.299042,"lon":5.436737,"is_reserved":false,"is_disabled":false,"rental_uris":{"android":"levelo://app?vid=9cb84353-e1e7-4ad3-bc51-3a0f0ce837ea","ios":"levelo://app?vid=9cb84353-e1e7-4ad3-bc51-3a0f0ce837ea"},"vehicle_type_id":"4","last_reported":1729436854,"current_range_meters":35200,"station_id":"ce4bhpp2rcd13ifvqhfg","pricing_plan_id":"cebpf4jnsgd1na2vs0mg"},{"bike_id":"d5397a9f-818f-447c-9ba0-bc7b634e89a1","system_id":"levelo_inurba_marseille","lat":43.29619,"lon":5.37172,"is_reserved":false,"is_disabled":false,"rental_uris":{"android":"levelo://app?vid=d5397a9f-818f-447c-9ba0-bc7b634e89a1","ios":"levelo://app?vid=d5397a9f-818f-447c-9ba0-bc7b634e89a1"},"vehicle_type_id":"4","last_reported":1729436854,"current_range_meters":9200,"station_id":"ce4bgnh2rcd13ifvqc0g","pricing_plan_id":"cebpf4jnsgd1na2vs0mg"},{"bike_id":"452a6ac2-61c9-4a1a-958e-94701c679daa","system_id":"levelo_inurba_marseille","lat":43.29571,"lon":5.39976,"is_reserved":false,"is_disabled":false,"rental_uris":{"android":"levelo://app?vid=452a6ac2-61c9-4a1a-958e-94701c679daa","ios":"levelo://app?vid=452a6ac2-61c9-4a1a-958e-94701c679daa"},"vehicle_type_id":"4","last_reported":1729436854,"current_range_meters":17600,"station_id":"ce4bh312rcd13ifvqdj0","pricing_plan_id":"cebpf4jnsgd1na2vs0mg"},{"bike_id":"6311f596-daec-48f5-92e7-240c458db6c9","system_id":"levelo_inurba_marseille","lat":43.31762,"lon":5.39026,"is_reserved":false,"is_disabled":false,"rental_uris":{"android":"levelo://app?vid=6311f596-daec-48f5-92e7-240c458db6c9","ios":"levelo://app?vid=6311f596-daec-48f5-92e7-240c458db6c9"},"vehicle_type_id":"4","last_reported":1729436854,"current_range_meters":33600,"station_id":"ce4bhqp2rcd13ifvqhng","pricing_plan_id":"cebpf4jnsgd1na2vs0mg"},{"bike_id":"a14fdf4c-a60c-42da-8e95-dc473c85bccb","system_id":"levelo_inurba_marseille","lat":43.28615,"lon":5.37065,"is_reserved":false,"is_disabled":false,"rental_uris":{"android":"levelo://app?vid=a14fdf4c-a60c-42da-8e95-dc473c85bccb","ios":"levelo://app?vid=a14fdf4c-a60c-42da-8e95-dc473c85bccb"},"vehicle_type_id":"4","last_reported":1729436854,"current_range_meters":11200,"station_id":"ce4bht12rcd13ifvqi60","pricing_plan_id":"cebpf4jnsgd1na2vs0mg"},{"bike_id":"acce8f49-e830-4a1b-b57f-c163fc0244a3","system_id":"levelo_inurba_marseille","lat":43.27494,"lon":5.42458,"is_reserved":false,"is_disabled":false,"rental_uris":{"android":"levelo://app?vid=acce8f49-e830-4a1b-b57f-c163fc0244a3","ios":"levelo://app?vid=acce8f49-e830-4a1b-b57f-c163fc0244a3"},"vehicle_type_id":"4","last_reported":1729436854,"current_range_meters":16800,"station_id":"ce4bhn92rcd13ifvqgrg","pricing_plan_id":"cebpf4jnsgd1na2vs0mg"},{"bike_id":"f0b45635-6cbe-40ce-b69c-f3eb0df802e7","system_id":"levelo_inurba_marseille","lat":43.31075,"lon":5.38364,"is_reserved":false,"is_disabled":false,"rental_uris":{"android":"levelo://app?vid=f0b45635-6cbe-40ce-b69c-f3eb0df802e7","ios":"levelo://app?vid=f0b45635-6cbe-40ce-b69c-f3eb0df802e7"},"vehicle_type_id":"4","last_reported":1729436854,"current_range_meters":18800,"station_id":"ce4bgv92rcd13ifvqcr0","pricing_plan_id":"cebpf4jnsgd1na2vs0mg"},{"bike_id":"86f95809-82de-4cba-ab15-4a620d94bd5b","system_id":"levelo_inurba_marseille","lat":43.28609,"lon":5.37062,"is_reserved":false,"is_disabled":false,"rental_uris":{"android":"levelo://app?vid=86f95809-82de-4cba-ab15-4a620d94bd5b","ios":"levelo://app?vid=86f95809-82de-4cba-ab15-4a620d94bd5b"},"vehicle_type_id":"4","last_reported":1729436854,"current_range_meters":8800,"station_id":"ce4bht12rcd13ifvqi60","pricing_plan_id":"cebpf4jnsgd1na2vs0mg"},{"bike_id":"88dfbfe8-e7db-4756-b2f6-e2cf339cc248","system_id":"levelo_inurba_marseille","lat":43.23193,"lon":5.35554,"is_reserved":false,"is_disabled":false,"rental_uris":{"android":"levelo://app?vid=88dfbfe8-e7db-4756-b2f6-e2cf339cc248","ios":"levelo://app?vid=88dfbfe8-e7db-4756-b2f6-e2cf339cc248"},"vehicle_type_id":"4","last_reported":1729436854,"current_range_meters":29600,"station_id":"ce4bhu92rcd13ifvqi70","pricing_plan_id":"cebpf4jnsgd1na2vs0mg"},{"bike_id":"fcc6e016-340a-46d4-b2c1-da7bdb734769","system_id":"levelo_inurba_marseille","lat":43.28156,"lon":5.42644,"is_reserved":false,"is_disabled":false,"rental_uris":{"android":"levelo://app?vid=fcc6e016-340a-46d4-b2c1-da7bdb734769","ios":"levelo://app?vid=fcc6e016-340a-46d4-b2c1-da7bdb734769"},"vehicle_type_id":"4","last_reported":1729436854,"current_range_meters":36400,"station_id":"ce4bhnh2rcd13ifvqgug","pricing_plan_id":"cebpf4jnsgd1na2vs0mg"},{"bike_id":"37fd51a3-e139-4b4d-a6f8-c6c878120739","system_id":"levelo_inurba_marseille","lat":43.23963,"lon":5.36617,"is_reserved":false,"is_disabled":false,"rental_uris":{"android":"levelo://app?vid=37fd51a3-e139-4b4d-a6f8-c6c878120739","ios":"levelo://app?vid=37fd51a3-e139-4b4d-a6f8-c6c878120739"},"vehicle_type_id":"4","last_reported":1729436854,"current_range_meters":32800,"station_id":"ce4bhi12rcd13ifvqfp0","pricing_plan_id":"cebpf4jnsgd1na2vs0mg"},{"bike_id":"33b4f674-be38-4a7d-a31b-42951a7093e1","system_id":"levelo_inurba_marseille","lat":43.28947,"lon":5.36643,"is_reserved":false,"is_disabled":false,"rental_uris":{"android":"levelo://app?vid=33b4f674-be38-4a7d-a31b-42951a7093e1","ios":"levelo://app?vid=33b4f674-be38-4a7d-a31b-42951a7093e1"},"vehicle_type_id":"4","last_reported":1729436854,"current_range_meters":2800,"station_id":"ce4bhap2rcd13ifvqek0","pricing_plan_id":"cebpf4jnsgd1na2vs0mg"},{"bike_id":"01d2312e-6c42-431e-bb41-99f61dd1a0ca","system_id":"levelo_inurba_marseille","lat":43.33728,"lon":5.3918,"is_reserved":false,"is_disabled":false,"rental_uris":{"android":"levelo://app?vid=01d2312e-6c42-431e-bb41-99f61dd1a0ca","ios":"levelo://app?vid=01d2312e-6c42-431e-bb41-99f61dd1a0ca"},"vehicle_type_id":"4","last_reported":1729436854,"current_range_meters":22000,"station_id":"ce4bhr92rcd13ifvqhsg","pricing_plan_id":"cebpf4jnsgd1na2vs0mg"},{"bike_id":"1d26d641-7496-4821-b5a9-625ace6a0900","system_id":"levelo_inurba_marseille","lat":43.32271,"lon":5.38702,"is_reserved":false,"is_disabled":false,"rental_uris":{"android":"levelo://app?vid=1d26d641-7496-4821-b5a9-625ace6a0900","ios":"levelo://app?vid=1d26d641-7496-4821-b5a9-625ace6a0900"},"vehicle_type_id":"4","last_reported":1729436854,"current_range_meters":38400,"station_id":"","pricing_plan_id":"cebpf4jnsgd1na2vs0mg"},{"bike_id":"cc1fc662-3f08-443b-a376-a0baa98684f1","system_id":"levelo_inurba_marseille","lat":43.28941,"lon":5.39633,"is_reserved":false,"is_disabled":false,"rental_uris":{"android":"levelo://app?vid=cc1fc662-3f08-443b-a376-a0baa98684f1","ios":"levelo://app?vid=cc1fc662-3f08-443b-a376-a0baa98684f1"},"vehicle_type_id":"4","last_reported":1729436854,"current_range_meters":37600,"station_id":"ce4bh3h2rcd13ifvqdn0","pricing_plan_id":"cebpf4jnsgd1na2vs0mg"},{"bike_id":"d4ec7079-682f-49c2-9d80-970f136d88fb","system_id":"levelo_inurba_marseille","lat":43.30432,"lon":5.38897,"is_reserved":false,"is_disabled":false,"rental_uris":{"android":"levelo://app?vid=d4ec7079-682f-49c2-9d80-970f136d88fb","ios":"levelo://app?vid=d4ec7079-682f-49c2-9d80-970f136d88fb"},"vehicle_type_id":"4","last_reported":1729436854,"current_range_meters":14800,"station_id":"ce4bgk12rcd13ifvqbi0","pricing_plan_id":"cebpf4jnsgd1na2vs0mg"},{"bike_id":"04db41bf-c8dd-4c77-b71d-38ac8a38077e","system_id":"levelo_inurba_marseille","lat":43.28614,"lon":5.35108,"is_reserved":false,"is_disabled":false,"rental_uris":{"android":"levelo://app?vid=04db41bf-c8dd-4c77-b71d-38ac8a38077e","ios":"levelo://app?vid=04db41bf-c8dd-4c77-b71d-38ac8a38077e"},"vehicle_type_id":"4","last_reported":1729436854,"current_range_meters":8800,"station_id":"ce4bhch2rcd13ifvqeug","pricing_plan_id":"cebpf4jnsgd1na2vs0mg"},{"bike_id":"87174b82-a538-4824-aa72-35047d3c02c4","system_id":"levelo_inurba_marseille","lat":43.23183,"lon":5.39994,"is_reserved":false,"is_disabled":false,"rental_uris":{"android":"levelo://app?vid=87174b82-a538-4824-aa72-35047d3c02c4","ios":"levelo://app?vid=87174b82-a538-4824-aa72-35047d3c02c4"},"vehicle_type_id":"4","last_reported":1729436854,"current_range_meters":36400,"station_id":"ce4bhn12rcd13ifvqgqg","pricing_plan_id":"cebpf4jnsgd1na2vs0mg"},{"bike_id":"6aba4f93-b471-4c4a-9cb4-ba6492209a6e","system_id":"levelo_inurba_marseille","lat":43.23972,"lon":5.3663,"is_reserved":false,"is_disabled":false,"rental_uris":{"android":"levelo://app?vid=6aba4f93-b471-4c4a-9cb4-ba6492209a6e","ios":"levelo://app?vid=6aba4f93-b471-4c4a-9cb4-ba6492209a6e"},"vehicle_type_id":"4","last_reported":1729436854,"current_range_meters":38800,"station_id":"ce4bhi12rcd13ifvqfp0","pricing_plan_id":"cebpf4jnsgd1na2vs0mg"},{"bike_id":"542dd8b3-8745-44b7-ace1-8b96643507a0","system_id":"levelo_inurba_marseille","lat":43.232,"lon":5.35558,"is_reserved":false,"is_disabled":false,"rental_uris":{"android":"levelo://app?vid=542dd8b3-8745-44b7-ace1-8b96643507a0","ios":"levelo://app?vid=542dd8b3-8745-44b7-ace1-8b96643507a0"},"vehicle_type_id":"4","last_reported":1729436854,"current_range_meters":39200,"station_id":"ce4bhu92rcd13ifvqi70","pricing_plan_id":"cebpf4jnsgd1na2vs0mg"},{"bike_id":"430d65de-864b-42d9-a7fe-7991f1412ced","system_id":"levelo_inurba_marseille","lat":43.27372,"lon":5.36258,"is_reserved":false,"is_disabled":false,"rental_uris":{"android":"levelo://app?vid=430d65de-864b-42d9-a7fe-7991f1412ced","ios":"levelo://app?vid=430d65de-864b-42d9-a7fe-7991f1412ced"},"vehicle_type_id":"4","last_reported":1729436854,"current_range_meters":20000,"station_id":"ce4bhbh2rcd13ifvqeo0","pricing_plan_id":"cebpf4jnsgd1na2vs0mg"},{"bike_id":"a6fc013f-9232-472e-97bd-cbbe59fda4fe","system_id":"levelo_inurba_marseille","lat":43.29236,"lon":5.36059,"is_reserved":false,"is_disabled":false,"rental_uris":{"android":"levelo://app?vid=a6fc013f-9232-472e-97bd-cbbe59fda4fe","ios":"levelo://app?vid=a6fc013f-9232-472e-97bd-cbbe59fda4fe"},"vehicle_type_id":"4","last_reported":1729436854,"current_range_meters":31200,"station_id":"ce4bhbh2rcd13ifvqeqg","pricing_plan_id":"cebpf4jnsgd1na2vs0mg"},{"bike_id":"0ecd7046-c126-4e35-a170-01c575bb59e2","system_id":"levelo_inurba_marseille","lat":43.28152,"lon":5.42642,"is_reserved":false,"is_disabled":false,"rental_uris":{"android":"levelo://app?vid=0ecd7046-c126-4e35-a170-01c575bb59e2","ios":"levelo://app?vid=0ecd7046-c126-4e35-a170-01c575bb59e2"},"vehicle_type_id":"4","last_reported":1729436854,"current_range_meters":38800,"station_id":"ce4bhnh2rcd13ifvqgug","pricing_plan_id":"cebpf4jnsgd1na2vs0mg"},{"bike_id":"2f6bc926-d3f8-439f-acc3-10d42e553953","system_id":"levelo_inurba_marseille","lat":43.23966,"lon":5.36632,"is_reserved":false,"is_disabled":false,"rental_uris":{"android":"levelo://app?vid=2f6bc926-d3f8-439f-acc3-10d42e553953","ios":"levelo://app?vid=2f6bc926-d3f8-439f-acc3-10d42e553953"},"vehicle_type_id":"4","last_reported":1729436854,"current_range_meters":10800,"station_id":"ce4bhi12rcd13ifvqfp0","pricing_plan_id":"cebpf4jnsgd1na2vs0mg"},{"bike_id":"0250d91f-e267-47c2-a2ea-3872eb99dabb","system_id":"levelo_inurba_marseille","lat":43.23962,"lon":5.3663,"is_reserved":false,"is_disabled":false,"rental_uris":{"android":"levelo://app?vid=0250d91f-e267-47c2-a2ea-3872eb99dabb","ios":"levelo://app?vid=0250d91f-e267-47c2-a2ea-3872eb99dabb"},