{"last_updated":1699052788,"ttl":30,"version":"2.2","data":{"bikes":[{"bike_id":"ded5a652-9a55-442d-879c-ddf0eae91740","system_id":"levelo_inurba_marseille","lat":43.31334,"lon":5.36745,"is_reserved":false,"is_disabled":false,"rental_uris":{"android":"levelo://app?vid=ded5a652-9a55-442d-879c-ddf0eae91740","ios":"levelo://app?vid=ded5a652-9a55-442d-879c-ddf0eae91740"},"vehicle_type_id":"4","last_reported":1699052789,"current_range_meters":2800,"station_id":"ce4bgr92rcd13ifvqc6g","pricing_plan_id":"free"},{"bike_id":"4c64ed26-b637-41e2-a9e8-9bd2f0fbc833","system_id":"levelo_inurba_marseille","lat":43.313504,"lon":5.367138,"is_reserved":false,"is_disabled":false,"rental_uris":{"android":"levelo://app?vid=4c64ed26-b637-41e2-a9e8-9bd2f0fbc833","ios":"levelo://app?vid=4c64ed26-b637-41e2-a9e8-9bd2f0fbc833"},"vehicle_type_id":"4","last_reported":1699052789,"current_range_meters":0,"station_id":"ce4bgr92rcd13ifvqc6g","pricing_plan_id":"free"},{"bike_id":"622fb3fc-f7d3-4aec-a69d-75dd8a3760d9","system_id":"levelo_inurba_marseille","lat":43.309076,"lon":5.368465,"is_reserved":false,"is_disabled":false,"rental_uris":{"android":"levelo://app?vid=622fb3fc-f7d3-4aec-a69d-75dd8a3760d9","ios":"levelo://app?vid=622fb3fc-f7d3-4aec-a69d-75dd8a3760d9"},"vehicle_type_id":"4","last_reported":1699052789,"current_range_meters":28400,"station_id":"ce4bgn92rcd13ifvqbvg","pricing_plan_id":"free"},{"bike_id":"8e91edc2-1995-4bed-8944-34c8c8a1e69c","system_id":"levelo_inurba_marseille","lat":43.31495,"lon":5.3731,"is_reserved":false,"is_disabled":false,"rental_uris":{"android":"levelo://app?vid=8e91edc2-1995-4bed-8944-34c8c8a1e69c","ios":"levelo://app?vid=8e91edc2-1995-4bed-8944-34c8c8a1e69c"},"vehicle_type_id":"4","last_reported":1699052789,"current_range_meters":21600,"station_id":"ce4bgt12rcd13ifvqcd0","pricing_plan_id":"free"},{"bike_id":"297f911e-e248-4634-a9da-b298d9f81822","system_id":"levelo_inurba_marseille","lat":43.309039,"lon":5.371797,"is_reserved":false,"is_disabled":false,"rental_uris":{"android":"levelo://app?vid=297f911e-e248-4634-a9da-b298d9f81822","ios":"levelo://app?vid=297f911e-e248-4634-a9da-b298d9f81822"},"vehicle_type_id":"4","last_reported":1699052789,"current_range_meters":16800,"station_id":"ce4bguh2rcd13ifvqckg","pricing_plan_id":"free"},{"bike_id":"3d57072e-bdd1-4adc-a4c2-bc3031dbf5f4","system_id":"levelo_inurba_marseille","lat":43.308868,"lon":5.371942,"is_reserved":false,"is_disabled":false,"rental_uris":{"android":"levelo://app?vid=3d57072e-bdd1-4adc-a4c2-bc3031dbf5f4","ios":"levelo://app?vid=3d57072e-bdd1-4adc-a4c2-bc3031dbf5f4"},"vehicle_type_id":"4","last_reported":1699052789,"current_range_meters":22000,"station_id":"ce4bguh2rcd13ifvqckg","pricing_plan_id":"free"},{"bike_id":"9fbf07fa-0ea4-43d6-8ed6-82424e129746","system_id":"levelo_inurba_marseille","lat":43.31889,"lon":5.36719,"is_reserved":false,"is_disabled":false,"rental_uris":{"android":"levelo://app?vid=9fbf07fa-0ea4-43d6-8ed6-82424e129746","ios":"levelo://app?vid=9fbf07fa-0ea4-43d6-8ed6-82424e129746"},"vehicle_type_id":"4","last_reported":1699052789,"current_range_meters":7200,"station_id":"","pricing_plan_id":"free"},{"bike_id":"7f6d1821-d960-4aa5-81c2-8064a10d310c","system_id":"levelo_inurba_marseille","lat":43.31885,"lon":5.370823,"is_reserved":false,"is_disabled":false,"rental_uris":{"android":"levelo://app?vid=7f6d1821-d960-4aa5-81c2-8064a10d310c","ios":"levelo://app?vid=7f6d1821-d960-4aa5-81c2-8064a10d310c"},"vehicle_type_id":"4","last_reported":1699052789,"current_range_meters":11600,"station_id":"","pricing_plan_id":"free"},{"bike_id":"f252b071-dddd-4e5f-ad07-506846af6d1a","system_id":"levelo_inurba_marseille","lat":43.305714,"lon":5.365633,"is_reserved":false,"is_disabled":false,"rental_uris":{"android":"levelo://app?vid=f252b071-dddd-4e5f-ad07-506846af6d1a","ios":"levelo://app?vid=f252b071-dddd-4e5f-ad07-506846af6d1a"},"vehicle_type_id":"4","last_reported":1699052789,"current_range_meters":7200,"station_id":"ce4bgs12rcd13ifvqcag","pricing_plan_id":"free"},{"bike_id":"c3d6641c-e52b-4d3e-adcc-6311c642d0ed","system_id":"levelo_inurba_marseille","lat":43.305714,"lon":5.365633,"is_reserved":false,"is_disabled":false,"rental_uris":{"android":"levelo://app?vid=c3d6641c-e52b-4d3e-adcc-6311c642d0ed","ios":"levelo://app?vid=c3d6641c-e52b-4d3e-adcc-6311c642d0ed"},"vehicle_type_id":"4","last_reported":1699052789,"current_range_meters":0,"station_id":"ce4bgs12rcd13ifvqcag","pricing_plan_id":"free"},{"bike_id":"d766e9ca-c4ac-4c69-8f45-4620e9ae06ec","system_id":"levelo_inurba_marseille","lat":43.30535,"lon":5.36704,"is_reserved":false,"is_disabled":false,"rental_uris":{"android":"levelo://app?vid=d766e9ca-c4ac-4c69-8f45-4620e9ae06ec","ios":"levelo://app?vid=d766e9ca-c4ac-4c69-8f45-4620e9ae06ec"},"vehicle_type_id":"4","last_reported":1699052789,"current_range_meters":5600,"station_id":"ce4bgrp2rcd13ifvqc9g","pricing_plan_id":"free"},{"bike_id":"080235d9-9737-47d7-8e4b-53ca57766c71","system_id":"levelo_inurba_marseille","lat":43.305989,"lon":5.37225,"is_reserved":false,"is_disabled":false,"rental_uris":{"android":"levelo://app?vid=080235d9-9737-47d7-8e4b-53ca57766c71","ios":"levelo://app?vid=080235d9-9737-47d7-8e4b-53ca57766c71"},"vehicle_type_id":"4","last_reported":1699052789,"current_range_meters":29600,"station_id":"ce4bgqh2rcd13ifvqc4g","pricing_plan_id":"free"},{"bike_id":"5ba7c412-6a58-4d41-925b-e7f13f29e2dd","system_id":"levelo_inurba_marseille","lat":43.305989,"lon":5.37225,"is_reserved":false,"is_disabled":false,"rental_uris":{"android":"levelo://app?vid=5ba7c412-6a58-4d41-925b-e7f13f29e2dd","ios":"levelo://app?vid=5ba7c412-6a58-4d41-925b-e7f13f29e2dd"},"vehicle_type_id":"4","last_reported":1699052789,"current_range_meters":18800,"station_id":"ce4bgqh2rcd13ifvqc4g","pricing_plan_id":"free"},{"bike_id":"2646f1cc-f17d-494f-9878-2ce7d6c5cdfc","system_id":"levelo_inurba_marseille","lat":43.305989,"lon":5.37225,"is_reserved":false,"is_disabled":false,"rental_uris":{"android":"levelo://app?vid=2646f1cc-f17d-494f-9878-2ce7d6c5cdfc","ios":"levelo://app?vid=2646f1cc-f17d-494f-9878-2ce7d6c5cdfc"},"vehicle_type_id":"4","last_reported":1699052789,"current_range_meters":30800,"station_id":"ce4bgqh2rcd13ifvqc4g","pricing_plan_id":"free"},{"bike_id":"bc7ee3fc-1b40-451a-b6c4-d11240fb044d","system_id":"levelo_inurba_marseille","lat":43.305989,"lon":5.37225,"is_reserved":false,"is_disabled":false,"rental_uris":{"android":"levelo://app?vid=bc7ee3fc-1b40-451a-b6c4-d11240fb044d","ios":"levelo://app?vid=bc7ee3fc-1b40-451a-b6c4-d11240fb044d"},"vehicle_type_id":"4","last_reported":1699052789,"current_range_meters":19200,"station_id":"ce4bgqh2rcd13ifvqc4g","pricing_plan_id":"free"},{"bike_id":"0f51eeca-dbf8-4370-817e-3dbe729957da","system_id":"levelo_inurba_marseille","lat":43.311131,"lon":5.377651,"is_reserved":false,"is_disabled":false,"rental_uris":{"android":"levelo://app?vid=0f51eeca-dbf8-4370-817e-3dbe729957da","ios":"levelo://app?vid=0f51eeca-dbf8-4370-817e-3dbe729957da"},"vehicle_type_id":"4","last_reported":1699052789,"current_range_meters":10800,"station_id":"ce4bgt92rcd13ifvqcg0","pricing_plan_id":"free"},{"bike_id":"6ad94e05-81db-409b-a031-0611c4f73cc5","system_id":"levelo_inurba_marseille","lat":43.311131,"lon":5.377651,"is_reserved":false,"is_disabled":false,"rental_uris":{"android":"levelo://app?vid=6ad94e05-81db-409b-a031-0611c4f73cc5","ios":"levelo://app?vid=6ad94e05-81db-409b-a031-0611c4f73cc5"},"vehicle_type_id":"4","last_reported":1699052789,"current_range_meters":23600,"station_id":"ce4bgt92rcd13ifvqcg0","pricing_plan_id":"free"},{"bike_id":"4f52c69d-fdb5-4cf6-9b19-9b348108c8b7","system_id":"levelo_inurba_marseille","lat":43.311131,"lon":5.377651,"is_reserved":false,"is_disabled":false,"rental_uris":{"android":"levelo://app?vid=4f52c69d-fdb5-4cf6-9b19-9b348108c8b7","ios":"levelo://app?vid=4f52c69d-fdb5-4cf6-9b19-9b348108c8b7"},"vehicle_type_id":"4","last_reported":1699052789,"current_range_meters":29200,"station_id":"ce4bgt92rcd13ifvqcg0","pricing_plan_id":"free"},{"bike_id":"abded77b-4658-43d4-b992-689d7f7681e6","system_id":"levelo_inurba_marseille","lat":43.311131,"lon":5.377651,"is_reserved":false,"is_disabled":false,"rental_uris":{"android":"levelo://app?vid=abded77b-4658-43d4-b992-689d7f7681e6","ios":"levelo://app?vid=abded77b-4658-43d4-b992-689d7f7681e6"},"vehicle_type_id":"4","last_reported":1699052789,"current_range_meters":4000,"station_id":"ce4bgt92rcd13ifvqcg0","pricing_plan_id":"free"},{"bike_id":"3dc7b6ab-8dc2-4939-9c57-dd5493dc0179","system_id":"levelo_inurba_marseille","lat":43.311125,"lon":5.377624,"is_reserved":false,"is_disabled":false,"rental_uris":{"android":"levelo://app?vid=3dc7b6ab-8dc2-4939-9c57-dd5493dc0179","ios":"levelo://app?vid=3dc7b6ab-8dc2-4939-9c57-dd5493dc0179"},"vehicle_type_id":"4","last_reported":1699052789,"current_range_meters":31200,"station_id":"ce4bgt92rcd13ifvqcg0","pricing_plan_id":"free"},{"bike_id":"6f366f34-a72c-4371-8706-470978dceaa6","system_id":"levelo_inurba_marseille","lat":43.311125,"lon":5.377624,"is_reserved":false,"is_disabled":false,"rental_uris":{"android":"levelo://app?vid=6f366f34-a72c-4371-8706-470978dceaa6","ios":"levelo://app?vid=6f366f34-a72c-4371-8706-470978dceaa6"},"vehicle_type_id":"4","last_reported":1699052789,"current_range_meters":20400,"station_id":"ce4bgt92rcd13ifvqcg0","pricing_plan_id":"free"},{"bike_id":"9932eb6f-79e3-42e0-a50c-3b02791319a2","system_id":"levelo_inurba_marseille","lat":43.311125,"lon":5.377624,"is_reserved":false,"is_disabled":false,"rental_uris":{"android":"levelo://app?vid=9932eb6f-79e3-42e0-a50c-3b02791319a2","ios":"levelo://app?vid=9932eb6f-79e3-42e0-a50c-3b02791319a2"},"vehicle_type_id":"4","last_reported":1699052789,"current_range_meters":20800,"station_id":"ce4bgt92rcd13ifvqcg0","pricing_plan_id":"free"},{"bike_id":"a4d1fc7d-c67a-466d-9e7e-959fcaaf9846","system_id":"levelo_inurba_marseille","lat":43.311131,"lon":5.377651,"is_reserved":false,"is_disabled":false,"rental_uris":{"android":"levelo://app?vid=a4d1fc7d-c67a-466d-9e7e-959fcaaf9846","ios":"levelo://app?vid=a4d1fc7d-c67a-466d-9e7e-959fcaaf9846"},"vehicle_type_id":"4","last_reported":1699052789,"current_range_meters":19600,"station_id":"ce4bgt92rcd13ifvqcg0","pricing_plan_id":"free"},{"bike_id":"3bb97351-ad9e-4be9-9a3c-fd527238e90d","system_id":"levelo_inurba_marseille","lat":43.30785,"lon":5.37634,"is_reserved":false,"is_disabled":false,"rental_uris":{"android":"levelo://app?vid=3bb97351-ad9e-4be9-9a3c-fd527238e90d","ios":"levelo://app?vid=3bb97351-ad9e-4be9-9a3c-fd527238e90d"},"vehicle_type_id":"4","last_reported":1699052789,"current_range_meters":2000,"station_id":"ce4bgv92rcd13ifvqcq0","pricing_plan_id":"free"},{"bike_id":"9706ce7b-1600-4b42-8fa2-00281be62d83","system_id":"levelo_inurba_marseille","lat":43.317075,"lon":5.377367,"is_reserved":false,"is_disabled":false,"rental_uris":{"android":"levelo://app?vid=9706ce7b-1600-4b42-8fa2-00281be62d83","ios":"levelo://app?vid=9706ce7b-1600-4b42-8fa2-00281be62d83"},"vehicle_type_id":"4","last_reported":1699052789,"current_range_meters":24800,"station_id":"ce4bgth2rcd13ifvqch0","pricing_plan_id":"free"},{"bike_id":"c9ebbfc0-4b0e-46d2-a016-64edd2d5b82c","system_id":"levelo_inurba_marseille","lat":43.30085,"lon":5.390856,"is_reserved":false,"is_disabled":false,"rental_uris":{"android":"levelo://app?vid=c9ebbfc0-4b0e-46d2-a016-64edd2d5b82c","ios":"levelo://app?vid=c9ebbfc0-4b0e-46d2-a016-64edd2d5b82c"},"vehicle_type_id":"4","last_reported":1699052789,"current_range_meters":0,"station_id":"ce4bh192rcd13ifvqdb0","pricing_plan_id":"free"},{"bike_id":"901d79d8-5da7-45a0-9324-7b85f1cebe70","system_id":"levelo_inurba_marseille","lat":43.31533,"lon":5.38029,"is_reserved":false,"is_disabled":false,"rental_uris":{"android":"levelo://app?vid=901d79d8-5da7-45a0-9324-7b85f1cebe70","ios":"levelo://app?vid=901d79d8-5da7-45a0-9324-7b85f1cebe70"},"vehicle_type_id":"4","last_reported":1699052789,"current_range_meters":24800,"station_id":"ce4bhsp2rcd13ifvqi50","pricing_plan_id":"free"},{"bike_id":"01ef606b-f0f5-4ed0-a01d-ebd3a6d1e347","system_id":"levelo_inurba_marseille","lat":43.301939,"lon":5.366286,"is_reserved":false,"is_disabled":false,"rental_uris":{"android":"levelo://app?vid=01ef606b-f0f5-4ed0-a01d-ebd3a6d1e347","ios":"levelo://app?vid=01ef606b-f0f5-4ed0-a01d-ebd3a6d1e347"},"vehicle_type_id":"4","last_reported":1699052789,"current_range_meters":30000,"station_id":"ce4bgrh2rcd13ifvqc8g","pricing_plan_id":"free"},{"bike_id":"6edda9e3-251a-4472-8216-15f2d2fa7a23","system_id":"levelo_inurba_marseille","lat":43.308012,"lon":5.381511,"is_reserved":false,"is_disabled":false,"rental_uris":{"android":"levelo://app?vid=6edda9e3-251a-4472-8216-15f2d2fa7a23","ios":"levelo://app?vid=6edda9e3-251a-4472-8216-15f2d2fa7a23"},"vehicle_type_id":"4","last_reported":1699052789,"current_range_meters":29200,"station_id":"ce4bgt12rcd13ifvqce0","pricing_plan_id":"free"},{"bike_id":"b5f64bd7-1b40-4039-89ab-2fae10a43260","system_id":"levelo_inurba_marseille","lat":43.30798,"lon":5.38149,"is_reserved":false,"is_disabled":false,"rental_uris":{"android":"levelo://app?vid=b5f64bd7-1b40-4039-89ab-2fae10a43260","ios":"levelo://app?vid=b5f64bd7-1b40-4039-89ab-2fae10a43260"},"vehicle_type_id":"4","last_reported":1699052789,"current_range_meters":11600,"station_id":"ce4bgt12rcd13ifvqce0","pricing_plan_id":"free"},{"bike_id":"8cde2534-0d19-420c-9854-59fa5ab45e66","system_id":"levelo_inurba_marseille","lat":43.308012,"lon":5.381511,"is_reserved":false,"is_disabled":false,"rental_uris":{"android":"levelo://app?vid=8cde2534-0d19-420c-9854-59fa5ab45e66","ios":"levelo://app?vid=8cde2534-0d19-420c-9854-59fa5ab45e66"},"vehicle_type_id":"4","last_reported":1699052789,"current_range_meters":13600,"station_id":"ce4bgt12rcd13ifvqce0","pricing_plan_id":"free"},{"bike_id":"bb8bacc7-96e2-4222-8bbf-88f35abe576b","system_id":"levelo_inurba_marseille","lat":43.32306,"lon":5.374543,"is_reserved":false,"is_disabled":false,"rental_uris":{"android":"levelo://app?vid=bb8bacc7-96e2-4222-8bbf-88f35abe576b","ios":"levelo://app?vid=bb8bacc7-96e2-4222-8bbf-88f35abe576b"},"vehicle_type_id":"4","last_reported":1699052789,"current_range_meters":6000,"station_id":"","pricing_plan_id":"free"},{"bike_id":"c35fa1fb-4214-4301-aa55-30a80bade1f8","system_id":"levelo_inurba_marseille","lat":43.308012,"lon":5.381511,"is_reserved":false,"is_disabled":false,"rental_uris":{"android":"levelo://app?vid=c35fa1fb-4214-4301-aa55-30a80bade1f8","ios":"levelo://app?vid=c35fa1fb-4214-4301-aa55-30a80bade1f8"},"vehicle_type_id":"4","last_reported":1699052789,"current_range_meters":15200,"station_id":"ce4bgt12rcd13ifvqce0","pricing_plan_id":"free"},{"bike_id":"ed2548e1-c523-4b97-b4ee-4190a55045b8","system_id":"levelo_inurba_marseille","lat":43.304606,"lon":5.379026,"is_reserved":false,"is_disabled":false,"rental_uris":{"android":"levelo://app?vid=ed2548e1-c523-4b97-b4ee-4190a55045b8","ios":"levelo://app?vid=ed2548e1-c523-4b97-b4ee-4190a55045b8"},"vehicle_type_id":"4","last_reported":1699052789,"current_range_meters":22400,"station_id":"ce4bgup2rcd13ifvqcn0","pricing_plan_id":"free"},{"bike_id":"ae4c77e4-83ce-4cc9-bf1f-45bb471f37d9","system_id":"levelo_inurba_marseille","lat":43.30457,"lon":5.37894,"is_reserved":false,"is_disabled":false,"rental_uris":{"android":"levelo://app?vid=ae4c77e4-83ce-4cc9-bf1f-45bb471f37d9","ios":"levelo://app?vid=ae4c77e4-83ce-4cc9-bf1f-45bb471f37d9"},"vehicle_type_id":"4","last_reported":1699052789,"current_range_meters":0,"station_id":"ce4bgup2rcd13ifvqcn0","pricing_plan_id":"free"},{"bike_id":"46ea3467-5894-4ab8-a01c-000815bdc2ae","system_id":"levelo_inurba_marseille","lat":43.304664,"lon":5.379102,"is_reserved":false,"is_disabled":false,"rental_uris":{"android":"levelo://app?vid=46ea3467-5894-4ab8-a01c-000815bdc2ae","ios":"levelo://app?vid=46ea3467-5894-4ab8-a01c-000815bdc2ae"},"vehicle_type_id":"4","last_reported":1699052789,"current_range_meters":0,"station_id":"ce4bgup2rcd13ifvqcn0","pricing_plan_id":"free"},{"bike_id":"4417582d-c2ca-40fe-a249-37e4da6d0b93","system_id":"levelo_inurba_marseille","lat":43.304632,"lon":5.379095,"is_reserved":false,"is_disabled":false,"rental_uris":{"android":"levelo://app?vid=4417582d-c2ca-40fe-a249-37e4da6d0b93","ios":"levelo://app?vid=4417582d-c2ca-40fe-a249-37e4da6d0b93"},"vehicle_type_id":"4","last_reported":1699052789,"current_range_meters":29600,"station_id":"ce4bgup2rcd13ifvqcn0","pricing_plan_id":"free"},{"bike_id":"4986324b-34a1-47d0-80ea-0156b356432e","system_id":"levelo_inurba_marseille","lat":43.304606,"lon":5.379026,"is_reserved":false,"is_disabled":false,"rental_uris":{"android":"levelo://app?vid=4986324b-34a1-47d0-80ea-0156b356432e","ios":"levelo://app?vid=4986324b-34a1-47d0-80ea-0156b356432e"},"vehicle_type_id":"4","last_reported":1699052789,"current_range_meters":31200,"station_id":"ce4bgup2rcd13ifvqcn0","pricing_plan_id":"free"},{"bike_id":"33ef5c95-6277-432e-9c5e-9920fbf0c3e8","system_id":"levelo_inurba_marseille","lat":43.304606,"lon":5.379026,"is_reserved":false,"is_disabled":false,"rental_uris":{"android":"levelo://app?vid=33ef5c95-6277-432e-9c5e-9920fbf0c3e8","ios":"levelo://app?vid=33ef5c95-6277-432e-9c5e-9920fbf0c3e8"},"vehicle_type_id":"4","last_reported":1699052789,"current_range_meters":27600,"station_id":"ce4bgup2rcd13ifvqcn0","pricing_plan_id":"free"},{"bike_id":"c37a60ff-8992-4e74-8e8e-b094339c7ef0","system_id":"levelo_inurba_marseille","lat":43.324763,"lon":5.365508,"is_reserved":false,"is_disabled":false,"rental_uris":{"android":"levelo://app?vid=c37a60ff-8992-4e74-8e8e-b094339c7ef0","ios":"levelo://app?vid=c37a60ff-8992-4e74-8e8e-b094339c7ef0"},"vehicle_type_id":"4","last_reported":1699052789,"current_range_meters":21200,"station_id":"ce4bhs12rcd13ifvqhvg","pricing_plan_id":"free"},{"bike_id":"0c7d76d3-fffd-4473-b1ee-abf2802f1081","system_id":"levelo_inurba_marseille","lat":43.324771,"lon":5.36557,"is_reserved":false,"is_disabled":false,"rental_uris":{"android":"levelo://app?vid=0c7d76d3-fffd-4473-b1ee-abf2802f1081","ios":"levelo://app?vid=0c7d76d3-fffd-4473-b1ee-abf2802f1081"},"vehicle_type_id":"4","last_reported":1699052789,"current_range_meters":25200,"station_id":"ce4bhs12rcd13ifvqhvg","pricing_plan_id":"free"},{"bike_id":"e8584f7f-3a22-4191-9ecd-5314ed574e4e","system_id":"levelo_inurba_marseille","lat":43.303586,"lon":5.377754,"is_reserved":false,"is_disabled":false,"rental_uris":{"android":"levelo://app?vid=e8584f7f-3a22-4191-9ecd-5314ed574e4e","ios":"levelo://app?vid=e8584f7f-3a22-4191-9ecd-5314ed574e4e"},"vehicle_type_id":"4","last_reported":1699052789,"current_range_meters":20400,"station_id":"","pricing_plan_id":"free"},{"bike_id":"d7139bad-49ad-4903-8bb0-96ba7544fe3e","system_id":"levelo_inurba_marseille","lat":43.324784,"lon":5.365613,"is_reserved":false,"is_disabled":false,"rental_uris":{"android":"levelo://app?vid=d7139bad-49ad-4903-8bb0-96ba7544fe3e","ios":"levelo://app?vid=d7139bad-49ad-4903-8bb0-96ba7544fe3e"},"vehicle_type_id":"4","last_reported":1699052789,"current_range_meters":18000,"station_id":"ce4bhs12rcd13ifvqhvg","pricing_plan_id":"free"},{"bike_id":"77ec974e-92d0-4028-86f4-f806586b892e","system_id":"levelo_inurba_marseille","lat":43.302784,"lon":5.377158,"is_reserved":false,"is_disabled":false,"rental_uris":{"android":"levelo://app?vid=77ec974e-92d0-4028-86f4-f806586b892e","ios":"levelo://app?vid=77ec974e-92d0-4028-86f4-f806586b892e"},"vehicle_type_id":"4","last_reported":1699052789,"current_range_meters":0,"station_id":"ce4bguh2rcd13ifvqcj0","pricing_plan_id":"free"},{"bike_id":"4d1c984e-dd9b-48d6-89e3-ca9e71df32da","system_id":"levelo_inurba_marseille","lat":43.30143,"lon":5.37413,"is_reserved":false,"is_disabled":false,"rental_uris":{"android":"levelo://app?vid=4d1c984e-dd9b-48d6-89e3-ca9e71df32da","ios":"levelo://app?vid=4d1c984e-dd9b-48d6-89e3-ca9e71df32da"},"vehicle_type_id":"4","last_reported":1699052789,"current_range_meters":13600,"station_id":"ce4bgs92rcd13ifvqcc0","pricing_plan_id":"free"},{"bike_id":"cde09343-cb34-42b4-bd82-ba3dc99ca7a9","system_id":"levelo_inurba_marseille","lat":43.31541,"lon":5.38404,"is_reserved":false,"is_disabled":false,"rental_uris":{"android":"levelo://app?vid=cde09343-cb34-42b4-bd82-ba3dc99ca7a9","ios":"levelo://app?vid=cde09343-cb34-42b4-bd82-ba3dc99ca7a9"},"vehicle_type_id":"4","last_reported":1699052789,"current_range_meters":14400,"station_id":"ce4bhqp2rcd13ifvqhng","pricing_plan_id":"free"},{"bike_id":"8fb8c0f8-f16b-4f62-97d0-42b6616f09c9","system_id":"levelo_inurba_marseille","lat":43.319912,"lon":5.381494,"is_reserved":false,"is_disabled":false,"rental_uris":{"android":"levelo://app?vid=8fb8c0f8-f16b-4f62-97d0-42b6616f09c9","ios":"levelo://app?vid=8fb8c0f8-f16b-4f62-97d0-42b6616f09c9"},"vehicle_type_id":"4","last_reported":1699052789,"current_range_meters":12000,"station_id":"ce4bhr12rcd13ifvqhpg","pricing_plan_id":"free"},{"bike_id":"cf991fb9-c9e5-4dc3-8a83-ef868324cca6","system_id":"levelo_inurba_marseille","lat":43.319916,"lon":5.381493,"is_reserved":false,"is_disabled":false,"rental_uris":{"android":"levelo://app?vid=cf991fb9-c9e5-4dc3-8a83-ef868324cca6","ios":"levelo://app?vid=cf991fb9-c9e5-4dc3-8a83-ef868324cca6"},"vehicle_type_id":"4","last_reported":1699052789,"current_range_meters":9600,"station_id":"ce4bhr12rcd13ifvqhpg","pricing_plan_id":"free"},{"bike_id":"add9b08f-8fd6-4d79-8d96-799fd63b2d0d","system_id":"levelo_inurba_marseille","lat":43.319931,"lon":5.381507,"is_reserved":false,"is_disabled":false,"rental_uris":{"android":"levelo://app?vid=add9b08f-8fd6-4d79-8d96-799fd63b2d0d","ios":"levelo://app?vid=add9b08f-8fd6-4d79-8d96-799fd63b2d0d"},"vehicle_type_id":"4","last_reported":1699052789,"current_range_meters":11600,"station_id":"ce4bhr12rcd13ifvqhpg","pricing_plan_id":"free"},{"bike_id":"5fe8c6f4-78a2-4ea7-bd51-5d4a26798d19","system_id":"levelo_inurba_marseille","lat":43.31997,"lon":5.38151,"is_reserved":false,"is_disabled":false,"rental_uris":{"android":"levelo://app?vid=5fe8c6f4-78a2-4ea7-bd51-5d4a26798d19","ios":"levelo://app?vid=5fe8c6f4-78a2-4ea7-bd51-5d4a26798d19"},"vehicle_type_id":"4","last_reported":1699052789,"current_range_meters":15200,"station_id":"ce4bhr12rcd13ifvqhpg","pricing_plan_id":"free"},{"bike_id":"3f2c2093-4a23-4121-b50d-71f37016ef76","system_id":"levelo_inurba_marseille","lat":43.314811,"lon":5.373103,"is_reserved":false,"is_disabled":false,"rental_uris":{"android":"levelo://app?vid=3f2c2093-4a23-4121-b50d-71f37016ef76","ios":"levelo://app?vid=3f2c2093-4a23-4121-b50d-71f37016ef76"},"vehicle_type_id":"4","last_reported":1699052789,"current_range_meters":22800,"station_id":"ce4bgt12rcd13ifvqcd0","pricing_plan_id":"free"},{"bike_id":"2afb0464-0345-4907-a6b1-0de894b11597","system_id":"levelo_inurba_marseille","lat":43.319968,"lon":5.38162,"is_reserved":false,"is_disabled":false,"rental_uris":{"android":"levelo://app?vid=2afb0464-0345-4907-a6b1-0de894b11597","ios":"levelo://app?vid=2afb0464-0345-4907-a6b1-0de894b11597"},"vehicle_type_id":"4","last_reported":1699052789,"current_range_meters":0,"station_id":"ce4bhr12rcd13ifvqhpg","pricing_plan_id":"free"},{"bike_id":"e4858baf-592a-49c6-a3e3-95751bda04e5","system_id":"levelo_inurba_marseille","lat":43.31998,"lon":5.38162,"is_reserved":false,"is_disabled":false,"rental_uris":{"android":"levelo://app?vid=e4858baf-592a-49c6-a3e3-95751bda04e5","ios":"levelo://app?vid=e4858baf-592a-49c6-a3e3-95751bda04e5"},"vehicle_type_id":"4","last_reported":1699052789,"current_range_meters":24000,"station_id":"ce4bhr12rcd13ifvqhpg","pricing_plan_id":"free"},{"bike_id":"a9f984be-3833-44e0-82c8-267f4706d012","system_id":"levelo_inurba_marseille","lat":43.313571,"lon":5.384829,"is_reserved":false,"is_disabled":false,"rental_uris":{"android":"levelo://app?vid=a9f984be-3833-44e0-82c8-267f4706d012","ios":"levelo://app?vid=a9f984be-3833-44e0-82c8-267f4706d012"},"vehicle_type_id":"4","last_reported":1699052789,"current_range_meters":19600,"station_id":"ce4bgt92rcd13ifvqcf0","pricing_plan_id":"free"},{"bike_id":"49e9a2f0-9562-4fe8-81dc-763f76d1e943","system_id":"levelo_inurba_marseille","lat":43.313571,"lon":5.384829,"is_reserved":false,"is_disabled":false,"rental_uris":{"android":"levelo://app?vid=49e9a2f0-9562-4fe8-81dc-763f76d1e943","ios":"levelo://app?vid=49e9a2f0-9562-4fe8-81dc-763f76d1e943"},"vehicle_type_id":"4","last_reported":1699052789,"current_range_meters":400,"station_id":"ce4bgt92rcd13ifvqcf0","pricing_plan_id":"free"},{"bike_id":"af31bbb1-e8d5-4286-a43b-fb6fb4c240ce","system_id":"levelo_inurba_marseille","lat":43.313571,"lon":5.384829,"is_reserved":false,"is_disabled":false,"rental_uris":{"android":"levelo://app?vid=af31bbb1-e8d5-4286-a43b-fb6fb4c240ce","ios":"levelo://app?vid=af31bbb1-e8d5-4286-a43b-fb6fb4c240ce"},"vehicle_type_id":"4","last_reported":1699052789,"current_range_meters":31200,"station_id":"ce4bgt92rcd13ifvqcf0","pricing_plan_id":"free"},{"bike_id":"27913e16-499e-4575-88e5-42c0d0cb3504","system_id":"levelo_inurba_marseille","lat":43.313635,"lon":5.384941,"is_reserved":false,"is_disabled":false,"rental_uris":{"android":"levelo://app?vid=27913e16-499e-4575-88e5-42c0d0cb3504","ios":"levelo://app?vid=27913e16-499e-4575-88e5-42c0d0cb3504"},"vehicle_type_id":"4","last_reported":1699052789,"current_range_meters":6000,"station_id":"ce4bgt92rcd13ifvqcf0","pricing_plan_id":"free"},{"bike_id":"a0ac36b4-8b76-4087-a623-f54b09bb6563","system_id":"levelo_inurba_marseille","lat":43.313571,"lon":5.384829,"is_reserved":false,"is_disabled":false,"rental_uris":{"android":"levelo://app?vid=a0ac36b4-8b76-4087-a623-f54b09bb6563","ios":"levelo://app?vid=a0ac36b4-8b76-4087-a623-f54b09bb6563"},"vehicle_type_id":"4","last_reported":1699052789,"current_range_meters":16800,"station_id":"ce4bgt92rcd13ifvqcf0","pricing_plan_id":"free"},{"bike_id":"4801985b-f5e0-4a2d-9053-e2302a618a34","system_id":"levelo_inurba_marseille","lat":43.313571,"lon":5.384829,"is_reserved":false,"is_disabled":false,"rental_uris":{"android":"levelo://app?vid=4801985b-f5e0-4a2d-9053-e2302a618a34","ios":"levelo://app?vid=4801985b-f5e0-4a2d-9053-e2302a618a34"},"vehicle_type_id":"4","last_reported":1699052789,"current_range_meters":31200,"station_id":"ce4bgt92rcd13ifvqcf0","pricing_plan_id":"free"},{"bike_id":"588e4a77-5913-45fa-99e9-f93608911743","system_id":"levelo_inurba_marseille","lat":43.313571,"lon":5.384829,"is_reserved":false,"is_disabled":false,"rental_uris":{"android":"levelo://app?vid=588e4a77-5913-45fa-99e9-f93608911743","ios":"levelo://app?vid=588e4a77-5913-45fa-99e9-f93608911743"},"vehicle_type_id":"4","last_reported":1699052789,"current_range_meters":4000,"station_id":"ce4bgt92rcd13ifvqcf0","pricing_plan_id":"free"},{"bike_id":"ae7f1c7d-e06a-4d43-ad6e-c589a6e26751","system_id":"levelo_inurba_marseille","lat":43.313665,"lon":5.385017,"is_reserved":false,"is_disabled":false,"rental_uris":{"android":"levelo://app?vid=ae7f1c7d-e06a-4d43-ad6e-c589a6e26751","ios":"levelo://app?vid=ae7f1c7d-e06a-4d43-ad6e-c589a6e26751"},"vehicle_type_id":"4","last_reported":1699052789,"current_range_meters":22800,"station_id":"ce4bgt92rcd13ifvqcf0","pricing_plan_id":"free"},{"bike_id":"086b3565-42df-4ea8-ab22-e5b711b9c425","system_id":"levelo_inurba_marseille","lat":43.31373,"lon":5.38504,"is_reserved":false,"is_disabled":false,"rental_uris":{"android":"levelo://app?vid=086b3565-42df-4ea8-ab22-e5b711b9c425","ios":"levelo://app?vid=086b3565-42df-4ea8-ab22-e5b711b9c425"},"vehicle_type_id":"4","last_reported":1699052789,"current_range_meters":0,"station_id":"ce4bgt92rcd13ifvqcf0","pricing_plan_id":"free"},{"bike_id":"d6dc47a7-6fa1-40c0-a5ca-92d045a29ddc","system_id":"levelo_inurba_marseille","lat":43.299222,"lon":5.365554,"is_reserved":false,"is_disabled":false,"rental_uris":{"android":"levelo://app?vid=d6dc47a7-6fa1-40c0-a5ca-92d045a29ddc","ios":"levelo://app?vid=d6dc47a7-6fa1-40c0-a5ca-92d045a29ddc"},"vehicle_type_id":"4","last_reported":1699052789,"current_range_meters":24000,"station_id":"ce4bgm92rcd13ifvqbr0","pricing_plan_id":"free"},{"bike_id":"cffe800b-8e46-4367-92e9-d9a0f2cba0f2","system_id":"levelo_inurba_marseille","lat":43.299626,"lon":5.375372,"is_reserved":false,"is_disabled":false,"rental_uris":{"android":"levelo://app?vid=cffe800b-8e46-4367-92e9-d9a0f2cba0f2","ios":"levelo://app?vid=cffe800b-8e46-4367-92e9-d9a0f2cba0f2"},"vehicle_type_id":"4","last_reported":1699052789,"current_range_meters":28800,"station_id":"ce4bgjh2rcd13ifvqbg0","pricing_plan_id":"free"},{"bike_id":"c836065e-32af-4ac2-9ed4-5ccae2ce382b","system_id":"levelo_inurba_marseille","lat":43.305364,"lon":5.384119,"is_reserved":false,"is_disabled":false,"rental_uris":{"android":"levelo://app?vid=c836065e-32af-4ac2-9ed4-5ccae2ce382b","ios":"levelo://app?vid=c836065e-32af-4ac2-9ed4-5ccae2ce382b"},"vehicle_type_id":"4","last_reported":1699052789,"current_range_meters":18400,"station_id":"ce4bgg92rcd13ifvqb30","pricing_plan_id":"free"},{"bike_id":"31b80b4f-d2a9-4e8d-8371-5240f20f4cbb","system_id":"levelo_inurba_marseille","lat":43.305364,"lon":5.384119,"is_reserved":false,"is_disabled":false,"rental_uris":{"android":"levelo://app?vid=31b80b4f-d2a9-4e8d-8371-5240f20f4cbb","ios":"levelo://app?vid=31b80b4f-d2a9-4e8d-8371-5240f20f4cbb"},"vehicle_type_id":"4","last_reported":1699052789,"current_range_meters":7200,"station_id":"ce4bgg92rcd13ifvqb30","pricing_plan_id":"free"},{"bike_id":"e4657aea-8519-47f8-bab4-06b0dae8f242","system_id":"levelo_inurba_marseille","lat":43.305364,"lon":5.384119,"is_reserved":false,"is_disabled":false,"rental_uris":{"android":"levelo://app?vid=e4657aea-8519-47f8-bab4-06b0dae8f242","ios":"levelo://app?vid=e4657aea-8519-47f8-bab4-06b0dae8f242"},"vehicle_type_id":"4","last_reported":1699052789,"current_range_meters":29200,"station_id":"ce4bgg92rcd13ifvqb30","pricing_plan_id":"free"},{"bike_id":"a90efb10-77ad-4f3b-a8e7-29b712450795","system_id":"levelo_inurba_marseille","lat":43.305364,"lon":5.384119,"is_reserved":false,"is_disabled":false,"rental_uris":{"android":"levelo://app?vid=a90efb10-77ad-4f3b-a8e7-29b712450795","ios":"levelo://app?vid=a90efb10-77ad-4f3b-a8e7-29b712450795"},"vehicle_type_id":"4","last_reported":1699052789,"current_range_meters":22400,"station_id":"ce4bgg92rcd13ifvqb30","pricing_plan_id":"free"},{"bike_id":"d6912ba9-e1eb-4114-97ed-3f87c1da1d90","system_id":"levelo_inurba_marseille","lat":43.299243,"lon":5.37481,"is_reserved":false,"is_disabled":false,"rental_uris":{"android":"levelo://app?vid=d6912ba9-e1eb-4114-97ed-3f87c1da1d90","ios":"levelo://app?vid=d6912ba9-e1eb-4114-97ed-3f87c1da1d90"},"vehicle_type_id":"4","last_reported":1699052789,"current_range_meters":19600,"station_id":"ce4bgjh2rcd13ifvqbg0","pricing_plan_id":"free"},{"bike_id":"98afa840-1e89-4103-af07-3563fbb9df6c","system_id":"levelo_inurba_marseille","lat":43.305364,"lon":5.384119,"is_reserved":false,"is_disabled":false,"rental_uris":{"android":"levelo://app?vid=98afa840-1e89-4103-af07-3563fbb9df6c","ios":"levelo://app?vid=98afa840-1e89-4103-af07-3563fbb9df6c"},"vehicle_type_id":"4","last_reported":1699052789,"current_range_meters":29600,"station_id":"ce4bgg92rcd13ifvqb30","pricing_plan_id":"free"},{"bike_id":"1aa05440-d3e4-4cc4-a015-dc0c40d0d3f6","system_id":"levelo_inurba_marseille","lat":43.311722,"lon":5.387247,"is_reserved":false,"is_disabled":false,"rental_uris":{"android":"levelo://app?vid=1aa05440-d3e4-4cc4-a015-dc0c40d0d3f6","ios":"levelo://app?vid=1aa05440-d3e4-4cc4-a015-dc0c40d0d3f6"},"vehicle_type_id":"4","last_reported":1699052789,"current_range_meters":18000,"station_id":"ce4bgv12rcd13ifvqcp0","pricing_plan_id":"free"},{"bike_id":"1a7c7676-3f3f-45f3-9e0e-4460b9766121","system_id":"levelo_inurba_marseille","lat":43.311722,"lon":5.387247,"is_reserved":false,"is_disabled":false,"rental_uris":{"android":"levelo://app?vid=1a7c7676-3f3f-45f3-9e0e-4460b9766121","ios":"levelo://app?vid=1a7c7676-3f3f-45f3-9e0e-4460b9766121"},"vehicle_type_id":"4","last_reported":1699052789,"current_range_meters":6000,"station_id":"ce4bgv12rcd13ifvqcp0","pricing_plan_id":"free"},{"bike_id":"0ee78968-ea5d-403a-977a-08f3fb1a5ec8","system_id":"levelo_inurba_marseille","lat":43.299243,"lon":5.37481,"is_reserved":false,"is_disabled":false,"rental_uris":{"android":"levelo://app?vid=0ee78968-ea5d-403a-977a-08f3fb1a5ec8","ios":"levelo://app?vid=0ee78968-ea5d-403a-977a-08f3fb1a5ec8"},"vehicle_type_id":"4","last_reported":1699052789,"current_range_meters":5200,"station_id":"ce4bgjh2rcd13ifvqbg0","pricing_plan_id":"free"},{"bike_id":"4fe3ce85-8502-4ba9-bd82-ee9b5d6564ff","system_id":"levelo_inurba_marseille","lat":43.311722,"lon":5.387247,"is_reserved":false,"is_disabled":false,"rental_uris":{"android":"levelo://app?vid=4fe3ce85-8502-4ba9-bd82-ee9b5d6564ff","ios":"levelo://app?vid=4fe3ce85-8502-4ba9-bd82-ee9b5d6564ff"},"vehicle_type_id":"4","last_reported":1699052789,"current_range_meters":28800,"station_id":"ce4bgv12rcd13ifvqcp0","pricing_plan_id":"free"},{"bike_id":"6fb3ce84-0832-4f03-aa40-befd2d458dd2","system_id":"levelo_inurba_marseille","lat":43.311722,"lon":5.387247,"is_reserved":false,"is_disabled":false,"rental_uris":{"android":"levelo://app?vid=6fb3ce84-0832-4f03-aa40-befd2d458dd2","ios":"levelo://app?vid=6fb3ce84-0832-4f03-aa40-befd2d458dd2"},"vehicle_type_id":"4","last_reported":1699052789,"current_range_meters":18800,"station_id":"ce4bgv12rcd13ifvqcp0","pricing_plan_id":"free"},{"bike_id":"30e99107-eed3-497c-a11b-e13a73688b6a","system_id":"levelo_inurba_marseille","lat":43.311722,"lon":5.387247,"is_reserved":false,"is_disabled":false,"rental_uris":{"android":"levelo://app?vid=30e99107-eed3-497c-a11b-e13a73688b6a","ios":"levelo://app?vid=30e99107-eed3-497c-a11b-e13a73688b6a"},"vehicle_type_id":"4","last_reported":1699052789,"current_range_meters":27600,"station_id":"ce4bgv12rcd13ifvqcp0","pricing_plan_id":"free"},{"bike_id":"f77f7db4-413d-4f5a-b45f-951796e99a0d","system_id":"levelo_inurba_marseille","lat":43.311722,"lon":5.387247,"is_reserved":false,"is_disabled":false,"rental_uris":{"android":"levelo://app?vid=f77f7db4-413d-4f5a-b45f-951796e99a0d","ios":"levelo://app?vid=f77f7db4-413d-4f5a-b45f-951796e99a0d"},"vehicle_type_id":"4","last_reported":1699052789,"current_range_meters":2400,"station_id":"ce4bgv12rcd13ifvqcp0","pricing_plan_id":"free"},{"bike_id":"e780bff0-fdb4-433e-bda2-e3a59b8ee66e","system_id":"levelo_inurba_marseille","lat":43.311722,"lon":5.387247,"is_reserved":false,"is_disabled":false,"rental_uris":{"android":"levelo://app?vid=e780bff0-fdb4-433e-bda2-e3a59b8ee66e","ios":"levelo://app?vid=e780bff0-fdb4-433e-bda2-e3a59b8ee66e"},"vehicle_type_id":"4","last_reported":1699052789,"current_range_meters":31200,"station_id":"ce4bgv12rcd13ifvqcp0","pricing_plan_id":"free"},{"bike_id":"efd49251-3155-4ae1-959b-3dbe1b8f8577","system_id":"levelo_inurba_marseille","lat":43.299265,"lon":5.375378,"is_reserved":false,"is_disabled":false,"rental_uris":{"android":"levelo://app?vid=efd49251-3155-4ae1-959b-3dbe1b8f8577","ios":"levelo://app?vid=efd49251-3155-4ae1-959b-3dbe1b8f8577"},"vehicle_type_id":"4","last_reported":1699052789,"current_range_meters":22400,"station_id":"","pricing_plan_id":"free"},{"bike_id":"adafeafd-0c45-4641-9026-2bbaa2a54e43","system_id":"levelo_inurba_marseille","lat":43.311722,"lon":5.387247,"is_reserved":false,"is_disabled":false,"rental_uris":{"android":"levelo://app?vid=adafeafd-0c45-4641-9026-2bbaa2a54e43","ios":"levelo://app?vid=adafeafd-0c45-4641-9026-2bbaa2a54e43"},"vehicle_type_id":"4","last_reported":1699052789,"current_range_meters":28000,"station_id":"ce4bgv12rcd13ifvqcp0","pricing_plan_id":"free"},{"bike_id":"3ebbf325-a24d-4453-adfe-558f45de65cf","system_id":"levelo_inurba_marseille","lat":43.311722,"lon":5.387247,"is_reserved":false,"is_disabled":false,"rental_uris":{"android":"levelo://app?vid=3ebbf325-a24d-4453-adfe-558f45de65cf","ios":"levelo://app?vid=3ebbf325-a24d-4453-adfe-558f45de65cf"},"vehicle_type_id":"4","last_reported":1699052789,"current_range_meters":4000,"station_id":"ce4bgv12rcd13ifvqcp0","pricing_plan_id":"free"},{"bike_id":"1c2c73ff-4601-4f33-b97f-da95bc589609","system_id":"levelo_inurba_marseille","lat":43.322131,"lon":5.382728,"is_reserved":false,"is_disabled":false,"rental_uris":{"android":"levelo://app?vid=1c2c73ff-4601-4f33-b97f-da95bc589609","ios":"levelo://app?vid=1c2c73ff-4601-4f33-b97f-da95bc589609"},"vehicle_type_id":"4","last_reported":1699052789,"current_range_meters":18400,"station_id":"","pricing_plan_id":"free"},{"bike_id":"ee04e5cc-451d-44b6-bca0-cfc749a45964","system_id":"levelo_inurba_marseille","lat":43.322872,"lon":5.382756,"is_reserved":false,"is_disabled":false,"rental_uris":{"android":"levelo://app?vid=ee04e5cc-451d-44b6-bca0-cfc749a45964","ios":"levelo://app?vid=ee04e5cc-451d-44b6-bca0-cfc749a45964"},"vehicle_type_id":"4","last_reported":1699052789,"current_range_meters":26800,"station_id":"ce4bhr12rcd13ifvqhqg","pricing_plan_id":"free"},{"bike_id":"b697629d-425e-4f98-b283-fdda312f1cec","system_id":"levelo_inurba_marseille","lat":43.322872,"lon":5.382756,"is_reserved":false,"is_disabled":false,"rental_uris":{"android":"levelo://app?vid=b697629d-425e-4f98-b283-fdda312f1cec","ios":"levelo://app?vid=b697629d-425e-4f98-b283-fdda312f1cec"},"vehicle_type_id":"4","last_reported":1699052789,"current_range_meters":23600,"station_id":"ce4bhr12rcd13ifvqhqg","pricing_plan_id":"free"},{"bike_id":"c9428514-9197-4976-812b-d61139ef9187","system_id":"levelo_inurba_marseille","lat":43.318846,"lon":5.386473,"is_reserved":false,"is_disabled":false,"rental_uris":{"android":"levelo://app?vid=c9428514-9197-4976-812b-d61139ef9187","ios":"levelo://app?vid=c9428514-9197-4976-812b-d61139ef9187"},"vehicle_type_id":"4","last_reported":1699052789,"current_range_meters":11200,"station_id":"","pricing_plan_id":"free"},{"bike_id":"5c14b4e6-da06-4ab2-b6ba-b1edddc68652","system_id":"levelo_inurba_marseille","lat":43.328246,"lon":5.366834,"is_reserved":false,"is_disabled":false,"rental_uris":{"android":"levelo://app?vid=5c14b4e6-da06-4ab2-b6ba-b1edddc68652","ios":"levelo://app?vid=5c14b4e6-da06-4ab2-b6ba-b1edddc68652"},"vehicle_type_id":"4","last_reported":1699052789,"current_range_meters":7200,"station_id":"ce4bhs92rcd13ifvqi0g","pricing_plan_id":"free"},{"bike_id":"21426a0d-604c-4933-9dde-aad2feebdc38","system_id":"levelo_inurba_marseille","lat":43.328257,"lon":5.366917,"is_reserved":false,"is_disabled":false,"rental_uris":{"android":"levelo://app?vid=21426a0d-604c-4933-9dde-aad2feebdc38","ios":"levelo://app?vid=21426a0d-604c-4933-9dde-aad2feebdc38"},"vehicle_type_id":"4","last_reported":1699052789,"current_range_meters":4000,"station_id":"ce4bhs92rcd13ifvqi0g","pricing_plan_id":"free"},{"bike_id":"d2255325-c858-4507-8c11-bdd56a1224e0","system_id":"levelo_inurba_marseille","lat":43.32826,"lon":5.36692,"is_reserved":false,"is_disabled":false,"rental_uris":{"android":"levelo://app?vid=d2255325-c858-4507-8c11-bdd56a1224e0","ios":"levelo://app?vid=d2255325-c858-4507-8c11-bdd56a1224e0"},"vehicle_type_id":"4","last_reported":1699052789,"current_range_meters":6000,"station_id":"ce4bhs92rcd13ifvqi0g","pricing_plan_id":"free"},{"bike_id":"f53f541f-7eea-4f04-9b6f-009d5c35ca5e","system_id":"levelo_inurba_marseille","lat":43.328263,"lon":5.366892,"is_reserved":false,"is_disabled":false,"rental_uris":{"android":"levelo://app?vid=f53f541f-7eea-4f04-9b6f-009d5c35ca5e","ios":"levelo://app?vid=f53f541f-7eea-4f04-9b6f-009d5c35ca5e"},"vehicle_type_id":"4","last_reported":1699052789,"current_range_meters":10400,"station_id":"ce4bhs92rcd13ifvqi0g","pricing_plan_id":"free"},{"bike_id":"260c645f-b280-4251-8fb9-e89c0f995509","system_id":"levelo_inurba_marseille","lat":43.32827,"lon":5.36692,"is_reserved":false,"is_disabled":false,"rental_uris":{"android":"levelo://app?vid=260c645f-b280-4251-8fb9-e89c0f995509","ios":"levelo://app?vid=260c645f-b280-4251-8fb9-e89c0f995509"},"vehicle_type_id":"4","last_reported":1699052789,"current_range_meters":13600,"station_id":"ce4bhs92rcd13ifvqi0g","pricing_plan_id":"free"},{"bike_id":"cfba6876-7d13-4127-9fa5-b0d2ec8c021a","system_id":"levelo_inurba_marseille","lat":43.32827,"lon":5.3669,"is_reserved":false,"is_disabled":false,"rental_uris":{"android":"levelo://app?vid=cfba6876-7d13-4127-9fa5-b0d2ec8c021a","ios":"levelo://app?vid=cfba6876-7d13-4127-9fa5-b0d2ec8c021a"},"vehicle_type_id":"4","last_reported":1699052789,"current_range_meters":15600,"station_id":"ce4bhs92rcd13ifvqi0g","pricing_plan_id":"free"},{"bike_id":"7654d496-15f6-460d-8aaa-7eaa097202e7","system_id":"levelo_inurba_marseille","lat":43.328285,"lon":5.366884,"is_reserved":false,"is_disabled":false,"rental_uris":{"android":"levelo://app?vid=7654d496-15f6-460d-8aaa-7eaa097202e7","ios":"levelo://app?vid=7654d496-15f6-460d-8aaa-7eaa097202e7"},"vehicle_type_id":"4","last_reported":1699052789,"current_range_meters":22000,"station_id":"ce4bhs92rcd13ifvqi0g","pricing_plan_id":"free"},{"bike_id":"67bb7dbe-50ea-4249-bc98-d0ad4814b4a6","system_id":"levelo_inurba_marseille","lat":43.321453,"lon":5.385595,"is_reserved":false,"is_disabled":false,"rental_uris":{"android":"levelo://app?vid=67bb7dbe-50ea-4249-bc98-d0ad4814b4a6","ios":"levelo://app?vid=67bb7dbe-50ea-4249-bc98-d0ad4814b4a6"},"vehicle_type_id":"4","last_reported":1699052789,"current_range_meters":21200,"station_id":"","pricing_plan_id":"free"},{"bike_id":"ac64cfce-5505-455a-9537-62af5dd3a90a","system_id":"levelo_inurba_marseille","lat":43.32355,"lon":5.38416,"is_reserved":false,"is_disabled":false,"rental_uris":{"android":"levelo://app?vid=ac64cfce-5505-455a-9537-62af5dd3a90a","ios":"levelo://app?vid=ac64cfce-5505-455a-9537-62af5dd3a90a"},"vehicle_type_id":"4","last_reported":1699052789,"current_range_meters":22800,"station_id":"","pricing_plan_id":"free"},{"bike_id":"5a3e4389-a6dc-483b-abd6-709292f6e071","system_id":"levelo_inurba_marseille","lat":43.295861,"lon":5.367129,"is_reserved":false,"is_disabled":false,"rental_uris":{"android":"levelo://app?vid=5a3e4389-a6dc-483b-abd6-709292f6e071","ios":"levelo://app?vid=5a3e4389-a6dc-483b-abd6-709292f6e071"},"vehicle_type_id":"4","last_reported":1699052789,"current_range_meters":17600,"station_id":"ce4bgph2rcd13ifvqc2g","pricing_plan_id":"free"},{"bike_id":"770aa8b0-74e4-477c-8cc4-fd5d552902a6","system_id":"levelo_inurba_marseille","lat":43.321356,"lon":5.386887,"is_reserved":false,"is_disabled":false,"rental_uris":{"android":"levelo://app?vid=770aa8b0-74e4-477c-8cc4-fd5d552902a6","ios":"levelo://app?vid=770aa8b0-74e4-477c-8cc4-fd5d552902a6"},"vehicle_type_id":"4","last_reported":1699052789,"current_range_meters":9200,"station_id":"","pricing_plan_id":"free"},{"bike_id":"b02845ae-9eef-482a-b4ae-7fa5fe922f9d","system_id":"levelo_inurba_marseille","lat":43.309589,"lon":5.390258,"is_reserved":false,"is_disabled":false,"rental_uris":{"android":"levelo://app?vid=b02845ae-9eef-482a-b4ae-7fa5fe922f9d","ios":"levelo://app?vid=b02845ae-9eef-482a-b4ae-7fa5fe922f9d"},"vehicle_type_id":"4","last_reported":1699052789,"current_range_meters":6400,"station_id":"ce4bgup2rcd13ifvqco0","pricing_plan_id":"free"},{"bike_id":"c9a9fb9e-5fbc-4dd2-ad3a-4e26b9b7f39c","system_id":"levelo_inurba_marseille","lat":43.309589,"lon":5.390258,"is_reserved":false,"is_disabled":false,"rental_uris":{"android":"levelo://app?vid=c9a9fb9e-5fbc-4dd2-ad3a-4e26b9b7f39c","ios":"levelo://app?vid=c9a9fb9e-5fbc-4dd2-ad3a-4e26b9b7f39c"},"vehicle_type_id":"4","last_reported":1699052789,"current_range_meters":2800,"station_id":"ce4bgup2rcd13ifvqco0","pricing_plan_id":"free"},{"bike_id":"b3b46045-64d7-42a5-b768-0057184ae92d","system_id":"levelo_inurba_marseille","lat":43.309589,"lon":5.390258,"is_reserved":false,"is_disabled":false,"rental_uris":{"android":"levelo://app?vid=b3b46045-64d7-42a5-b768-0057184ae92d","ios":"levelo://app?vid=b3b46045-64d7-42a5-b768-0057184ae92d"},"vehicle_type_id":"4","last_reported":1699052789,"current_range_meters":28400,"station_id":"ce4bgup2rcd13ifvqco0","pricing_plan_id":"free"},{"bike_id":"549077a0-761c-4c9a-8ca8-ece096372dfe","system_id":"levelo_inurba_marseille","lat":43.29686,"lon":5.37679,"is_reserved":false,"is_disabled":false,"rental_uris":{"android":"levelo://app?vid=549077a0-761c-4c9a-8ca8-ece096372dfe","ios":"levelo://app?vid=549077a0-761c-4c9a-8ca8-ece096372dfe"},"vehicle_type_id":"4","last_reported":1699052789,"current_range_meters":20000,"station_id":"ce4bgkh2rcd13ifvqbl0","pricing_plan_id":"free"},{"bike_id":"d5c9ee0a-78c9-46f1-87d4-bbc5f0a44700","system_id":"levelo_inurba_marseille","lat":43.317557,"lon":5.390173,"is_reserved":false,"is_disabled":false,"rental_uris":{"android":"levelo://app?vid=d5c9ee0a-78c9-46f1-87d4-bbc5f0a44700","ios":"levelo://app?vid=d5c9ee0a-78c9-46f1-87d4-bbc5f0a44700"},"vehicle_type_id":"4","last_reported":1699052789,"current_range_meters":18800,"station_id":"ce4bhqp2rcd13ifvqhng","pricing_plan_id":"free"},{"bike_id":"94055e37-3ed7-4f2c-9e71-a020e433bf13","system_id":"levelo_inurba_marseille","lat":43.317557,"lon":5.390173,"is_reserved":false,"is_disabled":false,"rental_uris":{"android":"levelo://app?vid=94055e37-3ed7-4f2c-9e71-a020e433bf13","ios":"levelo://app?vid=94055e37-3ed7-4f2c-9e71-a020e433bf13"},"vehicle_type_id":"4","last_reported":1699052789,"current_range_meters":22000,"station_id":"ce4bhqp2rcd13ifvqhng","pricing_plan_id":"free"},{"bike_id":"00489ca4-d92c-4240-ac05-bd645584ff93","system_id":"levelo_inurba_marseille","lat":43.317557,"lon":5.390173,"is_reserved":false,"is_disabled":false,"rental_uris":{"android":"levelo://app?vid=00489ca4-d92c-4240-ac05-bd645584ff93","ios":"levelo://app?vid=00489ca4-d92c-4240-ac05-bd645584ff93"},"vehicle_type_id":"4","last_reported":1699052789,"current_range_meters":31600,"station_id":"ce4bhqp2rcd13ifvqhng","pricing_plan_id":"free"},{"bike_id":"e5fa755e-a8dc-460e-9d07-b913fcd4d5ba","system_id":"levelo_inurba_marseille","lat":43.304274,"lon":5.388873,"is_reserved":false,"is_disabled":false,"rental_uris":{"android":"levelo://app?vid=e5fa755e-a8dc-460e-9d07-b913fcd4d5ba","ios":"levelo://app?vid=e5fa755e-a8dc-460e-9d07-b913fcd4d5ba"},"vehicle_type_id":"4","last_reported":1699052789,"current_range_meters":7600,"station_id":"ce4bgk12rcd13ifvqbi0","pricing_plan_id":"free"},{"bike_id":"e543606a-6069-4123-8ea1-cedb0e80bd9d","system_id":"levelo_inurba_marseille","lat":43.304278,"lon":5.388868,"is_reserved":false,"is_disabled":false,"rental_uris":{"android":"levelo://app?vid=e543606a-6069-4123-8ea1-cedb0e80bd9d","ios":"levelo://app?vid=e543606a-6069-4123-8ea1-cedb0e80bd9d"},"vehicle_type_id":"4","last_reported":1699052789,"current_range_meters":26400,"station_id":"ce4bgk12rcd13ifvqbi0","pricing_plan_id":"free"},{"bike_id":"c25749d7-3495-4a79-ae7c-08ff3799a264","system_id":"levelo_inurba_marseille","lat":43.296238,"lon":5.377179,"is_reserved":false,"is_disabled":false,"rental_uris":{"android":"levelo://app?vid=c25749d7-3495-4a79-ae7c-08ff3799a264","ios":"levelo://app?vid=c25749d7-3495-4a79-ae7c-08ff3799a264"},"vehicle_type_id":"4","last_reported":1699052789,"current_range_meters":18400,"station_id":"ce4bgh92rcd13ifvqb50","pricing_plan_id":"free"},{"bike_id":"bb9c906d-57e7-470c-b348-d033ce3137d9","system_id":"levelo_inurba_marseille","lat":43.304274,"lon":5.388873,"is_reserved":false,"is_disabled":false,"rental_uris":{"android":"levelo://app?vid=bb9c906d-57e7-470c-b348-d033ce3137d9","ios":"levelo://app?vid=bb9c906d-57e7-470c-b348-d033ce3137d9"},"vehicle_type_id":"4","last_reported":1699052789,"current_range_meters":4000,"station_id":"ce4bgk12rcd13ifvqbi0","pricing_plan_id":"free"},{"bike_id":"3449a84f-ccf8-4d0c-a429-c19990a5bd4d","system_id":"levelo_inurba_marseille","lat":43.304278,"lon":5.388868,"is_reserved":false,"is_disabled":false,"rental_uris":{"android":"levelo://app?vid=3449a84f-ccf8-4d0c-a429-c19990a5bd4d","ios":"levelo://app?vid=3449a84f-ccf8-4d0c-a429-c19990a5bd4d"},"vehicle_type_id":"4","last_reported":1699052789,"current_range_meters":10000,"station_id":"ce4bgk12rcd13ifvqbi0","pricing_plan_id":"free"},{"bike_id":"85db3686-7510-4bd8-bb3f-1a50ad25f758","system_id":"levelo_inurba_marseille","lat":43.299666,"lon":5.384966,"is_reserved":false,"is_disabled":false,"rental_uris":{"android":"levelo://app?vid=85db3686-7510-4bd8-bb3f-1a50ad25f758","ios":"levelo://app?vid=85db3686-7510-4bd8-bb3f-1a50ad25f758"},"vehicle_type_id":"4","last_reported":1699052789,"current_range_meters":0,"station_id":"ce4bgj92rcd13ifvqbd0","pricing_plan_id":"free"},{"bike_id":"64560e26-d73a-4ea9-b8e5-ee1c933b2a60","system_id":"levelo_inurba_marseille","lat":43.295279,"lon":5.375048,"is_reserved":false,"is_disabled":false,"rental_uris":{"android":"levelo://app?vid=64560e26-d73a-4ea9-b8e5-ee1c933b2a60","ios":"levelo://app?vid=64560e26-d73a-4ea9-b8e5-ee1c933b2a60"},"vehicle_type_id":"4","last_reported":1699052789,"current_range_meters":10000,"station_id":"ce4bgkp2rcd13ifvqbmg","pricing_plan_id":"free"},{"bike_id":"1f580447-7b2c-4630-9a51-33e28281b372","system_id":"levelo_inurba_marseille","lat":43.329065,"lon":5.379814,"is_reserved":false,"is_disabled":false,"rental_uris":{"android":"levelo://app?vid=1f580447-7b2c-4630-9a51-33e28281b372","ios":"levelo://app?vid=1f580447-7b2c-4630-9a51-33e28281b372"},"vehicle_type_id":"4","last_reported":1699052789,"current_range_meters":18000,"station_id":"","pricing_plan_id":"free"},{"bike_id":"ecf94d7b-2238-4a61-8042-e3febbffae63","system_id":"levelo_inurba_marseille","lat":43.299323,"lon":5.385518,"is_reserved":false,"is_disabled":false,"rental_uris":{"android":"levelo://app?vid=ecf94d7b-2238-4a61-8042-e3febbffae63","ios":"levelo://app?vid=ecf94d7b-2238-4a61-8042-e3febbffae63"},"vehicle_type_id":"4","last_reported":1699052789,"current_range_meters":30400,"station_id":"","pricing_plan_id":"free"},{"bike_id":"eab5d605-eaca-4660-a5fd-3fd2b2fdfd03","system_id":"levelo_inurba_marseille","lat":43.29476,"lon":5.37582,"is_reserved":false,"is_disabled":false,"rental_uris":{"android":"levelo://app?vid=eab5d605-eaca-4660-a5fd-3fd2b2fdfd03","ios":"levelo://app?vid=eab5d605-eaca-4660-a5fd-3fd2b2fdfd03"},"vehicle_type_id":"4","last_reported":1699052789,"current_range_meters":2000,"station_id":"","pricing_plan_id":"free"},{"bike_id":"40a1ec77-ae36-4bf2-a77e-781fcd5fa853","system_id":"levelo_inurba_marseille","lat":43.306938,"lon":5.392166,"is_reserved":false,"is_disabled":false,"rental_uris":{"android":"levelo://app?vid=40a1ec77-ae36-4bf2-a77e-781fcd5fa853","ios":"levelo://app?vid=40a1ec77-ae36-4bf2-a77e-781fcd5fa853"},"vehicle_type_id":"4","last_reported":1699052789,"current_range_meters":21600,"station_id":"","pricing_plan_id":"free"},{"bike_id":"29291321-bca7-47e1-96f9-047cfb45e33f","system_id":"levelo_inurba_marseille","lat":43.32367,"lon":5.388836,"is_reserved":false,"is_disabled":false,"rental_uris":{"android":"levelo://app?vid=29291321-bca7-47e1-96f9-047cfb45e33f","ios":"levelo://app?vid=29291321-bca7-47e1-96f9-047cfb45e33f"},"vehicle_type_id":"4","last_reported":1699052789,"current_range_meters":4400,"station_id":"ce4bhqp2rcd13ifvqhog","pricing_plan_id":"free"},{"bike_id":"e7d86f5e-bfb3-429e-8a33-e0fa29650d46","system_id":"levelo_inurba_marseille","lat":43.32366,"lon":5.38885,"is_reserved":false,"is_disabled":false,"rental_uris":{"android":"levelo://app?vid=e7d86f5e-bfb3-429e-8a33-e0fa29650d46","ios":"levelo://app?vid=e7d86f5e-bfb3-429e-8a33-e0fa29650d46"},"vehicle_type_id":"4","last_reported":1699052789,"current_range_meters":18800,"station_id":"ce4bhqp2rcd13ifvqhog","pricing_plan_id":"free"},{"bike_id":"547a7cfc-5b52-446d-9105-ee3d3597290f","system_id":"levelo_inurba_marseille","lat":43.33055,"lon":5.37881,"is_reserved":false,"is_disabled":false,"rental_uris":{"android":"levelo://app?vid=547a7cfc-5b52-446d-9105-ee3d3597290f","ios":"levelo://app?vid=547a7cfc-5b52-446d-9105-ee3d3597290f"},"vehicle_type_id":"4","last_reported":1699052789,"current_range_meters":24000,"station_id":"","pricing_plan_id":"free"},{"bike_id":"3720384f-efdc-45d6-89f1-e388bdb9723b","system_id":"levelo_inurba_marseille","lat":43.29577,"lon":5.38105,"is_reserved":false,"is_disabled":false,"rental_uris":{"android":"levelo://app?vid=3720384f-efdc-45d6-89f1-e388bdb9723b","ios":"levelo://app?vid=3720384f-efdc-45d6-89f1-e388bdb9723b"},"vehicle_type_id":"4","last_reported":1699052789,"current_range_meters":4400,"station_id":"ce4bgl12rcd13ifvqbo0","pricing_plan_id":"free"},{"bike_id":"403d407a-6bd7-4ff6-8f34-3671373e8312","system_id":"levelo_inurba_marseille","lat":43.292698,"lon":5.368463,"is_reserved":false,"is_disabled":false,"rental_uris":{"android":"levelo://app?vid=403d407a-6bd7-4ff6-8f34-3671373e8312","ios":"levelo://app?vid=403d407a-6bd7-4ff6-8f34-3671373e8312"},"vehicle_type_id":"4","last_reported":1699052789,"current_range_meters":24800,"station_id":"ce4bhbp2rcd13ifvqesg","pricing_plan_id":"free"},{"bike_id":"95b38f76-361d-45af-93a5-4380100f8206","system_id":"levelo_inurba_marseille","lat":43.305994,"lon":5.393687,"is_reserved":false,"is_disabled":false,"rental_uris":{"android":"levelo://app?vid=95b38f76-361d-45af-93a5-4380100f8206","ios":"levelo://app?vid=95b38f76-361d-45af-93a5-4380100f8206"},"vehicle_type_id":"4","last_reported":1699052789,"current_range_meters":31200,"station_id":"ce4bh0p2rcd13ifvqd80","pricing_plan_id":"free"},{"bike_id":"ff732c45-2cb6-4f0d-805a-3b306294612c","system_id":"levelo_inurba_marseille","lat":43.30306,"lon":5.39215,"is_reserved":false,"is_disabled":false,"rental_uris":{"android":"levelo://app?vid=ff732c45-2cb6-4f0d-805a-3b306294612c","ios":"levelo://app?vid=ff732c45-2cb6-4f0d-805a-3b306294612c"},"vehicle_type_id":"4","last_reported":1699052789,"current_range_meters":29600,"station_id":"ce4bgkh2rcd13ifvqbk0","pricing_plan_id":"free"},{"bike_id":"c68ea0d7-ca41-4605-aab2-8121858163fe","system_id":"levelo_inurba_marseille","lat":43.303002,"lon":5.392142,"is_reserved":false,"is_disabled":false,"rental_uris":{"android":"levelo://app?vid=c68ea0d7-ca41-4605-aab2-8121858163fe","ios":"levelo://app?vid=c68ea0d7-ca41-4605-aab2-8121858163fe"},"vehicle_type_id":"4","last_reported":1699052789,"current_range_meters":4400,"station_id":"ce4bgkh2rcd13ifvqbk0","pricing_plan_id":"free"},{"bike_id":"d5ab0680-358b-475b-a651-8f053a3fab4f","system_id":"levelo_inurba_marseille","lat":43.2936,"lon":5.37835,"is_reserved":false,"is_disabled":false,"rental_uris":{"android":"levelo://app?vid=d5ab0680-358b-475b-a651-8f053a3fab4f","ios":"levelo://app?vid=d5ab0680-358b-475b-a651-8f053a3fab4f"},"vehicle_type_id":"4","last_reported":1699052789,"current_range_meters":18800,"station_id":"ce4bgjh2rcd13ifvqbf0","pricing_plan_id":"free"},{"bike_id":"ecd5fcfb-e675-41c4-803e-df009ca85e60","system_id":"levelo_inurba_marseille","lat":43.309809,"lon":5.395479,"is_reserved":false,"is_disabled":false,"rental_uris":{"android":"levelo://app?vid=ecd5fcfb-e675-41c4-803e-df009ca85e60","ios":"levelo://app?vid=ecd5fcfb-e675-41c4-803e-df009ca85e60"},"vehicle_type_id":"4","last_reported":1699052789,"current_range_meters":16400,"station_id":"","pricing_plan_id":"free"},{"bike_id":"a6ea5838-a4e6-4dfc-b184-0f9e2e8b44a5","system_id":"levelo_inurba_marseille","lat":43.292311,"lon":5.360731,"is_reserved":false,"is_disabled":false,"rental_uris":{"android":"levelo://app?vid=a6ea5838-a4e6-4dfc-b184-0f9e2e8b44a5","ios":"levelo://app?vid=a6ea5838-a4e6-4dfc-b184-0f9e2e8b44a5"},"vehicle_type_id":"4","last_reported":1699052789,"current_range_meters":2000,"station_id":"ce4bhbh2rcd13ifvqeqg","pricing_plan_id":"free"},{"bike_id":"924f2b8f-6516-4ff7-9de3-39f3f06546f9","system_id":"levelo_inurba_marseille","lat":43.29225,"lon":5.36062,"is_reserved":false,"is_disabled":false,"rental_uris":{"android":"levelo://app?vid=924f2b8f-6516-4ff7-9de3-39f3f06546f9","ios":"levelo://app?vid=924f2b8f-6516-4ff7-9de3-39f3f06546f9"},"vehicle_type_id":"4","last_reported":1699052789,"current_range_meters":11200,"station_id":"ce4bhbh2rcd13ifvqeqg","pricing_plan_id":"free"},{"bike_id":"6f2b2704-95b9-49be-8692-cbdf1b27f728","system_id":"levelo_inurba_marseille","lat":43.29221,"lon":5.36085,"is_reserved":false,"is_disabled":false,"rental_uris":{"android":"levelo://app?vid=6f2b2704-95b9-49be-8692-cbdf1b27f728","ios":"levelo://app?vid=6f2b2704-95b9-49be-8692-cbdf1b27f728"},"vehicle_type_id":"4","last_reported":1699052789,"current_range_meters":25200,"station_id":"ce4bhbh2rcd13ifvqeqg","pricing_plan_id":"free"},{"bike_id":"1575422b-f99f-4525-ab00-681f712b3765","system_id":"levelo_inurba_marseille","lat":43.333047,"lon":5.359521,"is_reserved":false,"is_disabled":false,"rental_uris":{"android":"levelo://app?vid=1575422b-f99f-4525-ab00-681f712b3765","ios":"levelo://app?vid=1575422b-f99f-4525-ab00-681f712b3765"},"vehicle_type_id":"4","last_reported":1699052789,"current_range_meters":10400,"station_id":"","pricing_plan_id":"free"},{"bike_id":"6c113429-8631-41e5-96f7-7c0d661721bc","system_id":"levelo_inurba_marseille","lat":43.300852,"lon":5.390859,"is_reserved":false,"is_disabled":false,"rental_uris":{"android":"levelo://app?vid=6c113429-8631-41e5-96f7-7c0d661721bc","ios":"levelo://app?vid=6c113429-8631-41e5-96f7-7c0d661721bc"},"vehicle_type_id":"4","last_reported":1699052789,"current_range_meters":21200,"station_id":"ce4bh192rcd13ifvqdb0","pricing_plan_id":"free"},{"bike_id":"f6477174-8c1b-4580-9578-3ff5a26265ff","system_id":"levelo_inurba_marseille","lat":43.292683,"lon":5.376188,"is_reserved":false,"is_disabled":false,"rental_uris":{"android":"levelo://app?vid=f6477174-8c1b-4580-9578-3ff5a26265ff","ios":"levelo://app?vid=f6477174-8c1b-4580-9578-3ff5a26265ff"},"vehicle_type_id":"4","last_reported":1699052789,"current_range_meters":26800,"station_id":"ce4bgi12rcd13ifvqb80","pricing_plan_id":"free"},{"bike_id":"321ce8d6-4aab-46c3-963f-c0d730feb1fc","system_id":"levelo_inurba_marseille","lat":43.298764,"lon":5.388973,"is_reserved":false,"is_disabled":false,"rental_uris":{"android":"levelo://app?vid=321ce8d6-4aab-46c3-963f-c0d730feb1fc","ios":"levelo://app?vid=321ce8d6-4aab-46c3-963f-c0d730feb1fc"},"vehicle_type_id":"4","last_reported":1699052789,"current_range_meters":1200,"station_id":"ce4bh392rcd13ifvqdl0","pricing_plan_id":"free"},{"bike_id":"d797f1e6-f3ca-4ad7-8b56-5ed6191da53c","system_id":"levelo_inurba_marseille","lat":43.2926,"lon":5.376148,"is_reserved":false,"is_disabled":false,"rental_uris":{"android":"levelo://app?vid=d797f1e6-f3ca-4ad7-8b56-5ed6191da53c","ios":"levelo://app?vid=d797f1e6-f3ca-4ad7-8b56-5ed6191da53c"},"vehicle_type_id":"4","last_reported":1699052789,"current_range_meters":30000,"station_id":"ce4bgi12rcd13ifvqb80","pricing_plan_id":"free"},{"bike_id":"0e8233d2-0d57-470f-8c07-e9f753046a4f","system_id":"levelo_inurba_marseille","lat":43.33217,"lon":5.3788,"is_reserved":false,"is_disabled":false,"rental_uris":{"android":"levelo://app?vid=0e8233d2-0d57-470f-8c07-e9f753046a4f","ios":"levelo://app?vid=0e8233d2-0d57-470f-8c07-e9f753046a4f"},"vehicle_type_id":"4","last_reported":1699052789,"current_range_meters":15200,"station_id":"","pricing_plan_id":"free"},{"bike_id":"b9b0a47a-74bc-4198-a455-e15eabda4e53","system_id":"levelo_inurba_marseille","lat":43.298764,"lon":5.388973,"is_reserved":false,"is_disabled":false,"rental_uris":{"android":"levelo://app?vid=b9b0a47a-74bc-4198-a455-e15eabda4e53","ios":"levelo://app?vid=b9b0a47a-74bc-4198-a455-e15eabda4e53"},"vehicle_type_id":"4","last_reported":1699052789,"current_range_meters":31600,"station_id":"ce4bh392rcd13ifvqdl0","pricing_plan_id":"free"},{"bike_id":"ab8b8929-39fe-442f-96e2-e1eb7a8fc3f4","system_id":"levelo_inurba_marseille","lat":43.298764,"lon":5.388973,"is_reserved":false,"is_disabled":false,"rental_uris":{"android":"levelo://app?vid=ab8b8929-39fe-442f-96e2-e1eb7a8fc3f4","ios":"levelo://app?vid=ab8b8929-39fe-442f-96e2-e1eb7a8fc3f4"},"vehicle_type_id":"4","last_reported":1699052789,"current_range_meters":26800,"station_id":"ce4bh392rcd13ifvqdl0","pricing_plan_id":"free"},{"bike_id":"fb6ed35b-df4d-4c9b-8d8f-1120bd09053d","system_id":"levelo_inurba_marseille","lat":43.298764,"lon":5.388973,"is_reserved":false,"is_disabled":false,"rental_uris":{"android":"levelo://app?vid=fb6ed35b-df4d-4c9b-8d8f-1120bd09053d","ios":"levelo://app?vid=fb6ed35b-df4d-4c9b-8d8f-1120bd09053d"},"vehicle_type_id":"4","last_reported":1699052789,"current_range_meters":19200,"station_id":"ce4bh392rcd13ifvqdl0","pricing_plan_id":"free"},{"bike_id":"5c826228-a813-4321-a3d2-18a6d85744c2","system_id":"levelo_inurba_marseille","lat":43.298764,"lon":5.388973,"is_reserved":false,"is_disabled":false,"rental_uris":{"android":"levelo://app?vid=5c826228-a813-4321-a3d2-18a6d85744c2","ios":"levelo://app?vid=5c826228-a813-4321-a3d2-18a6d85744c2"},"vehicle_type_id":"4","last_reported":1699052789,"current_range_meters":400,"station_id":"ce4bh392rcd13ifvqdl0","pricing_plan_id":"free"},{"bike_id":"f0429db2-3dc3-415c-9f3c-2a89eea1c5e4","system_id":"levelo_inurba_marseille","lat":43.298764,"lon":5.388973,"is_reserved":false,"is_disabled":false,"rental_uris":{"android":"levelo://app?vid=f0429db2-3dc3-415c-9f3c-2a89eea1c5e4","ios":"levelo://app?vid=f0429db2-3dc3-415c-9f3c-2a89eea1c5e4"},"vehicle_type_id":"4","last_reported":1699052789,"current_range_meters":11600,"station_id":"ce4bh392rcd13ifvqdl0","pricing_plan_id":"free"},{"bike_id":"b1f26bfd-86ba-4abb-ae9f-317640f0201d","system_id":"levelo_inurba_marseille","lat":43.309038,"lon":5.396546,"is_reserved":false,"is_disabled":false,"rental_uris":{"android":"levelo://app?vid=b1f26bfd-86ba-4abb-ae9f-317640f0201d","ios":"levelo://app?vid=b1f26bfd-86ba-4abb-ae9f-317640f0201d"},"vehicle_type_id":"4","last_reported":1699052789,"current_range_meters":28400,"station_id":"ce4bh012rcd13ifvqcv0","pricing_plan_id":"free"},{"bike_id":"1c685617-0259-42dd-bbf0-35a37adc68e9","system_id":"levelo_inurba_marseille","lat":43.291994,"lon":5.357886,"is_reserved":false,"is_disabled":false,"rental_uris":{"android":"levelo://app?vid=1c685617-0259-42dd-bbf0-35a37adc68e9","ios":"levelo://app?vid=1c685617-0259-42dd-bbf0-35a37adc68e9"},"vehicle_type_id":"4","last_reported":1699052789,"current_range_meters":0,"station_id":"ce4bhb12rcd13ifvqel0","pricing_plan_id":"free"},{"bike_id":"54d07c9c-84ef-4b4a-807d-499be647912b","system_id":"levelo_inurba_marseille","lat":43.309038,"lon":5.396546,"is_reserved":false,"is_disabled":false,"rental_uris":{"android":"levelo://app?vid=54d07c9c-84ef-4b4a-807d-499be647912b","ios":"levelo://app?vid=54d07c9c-84ef-4b4a-807d-499be647912b"},"vehicle_type_id":"4","last_reported":1699052789,"current_range_meters":12000,"station_id":"ce4bh012rcd13ifvqcv0","pricing_plan_id":"free"},{"bike_id":"d6de2a5f-69d9-48f9-b2b5-efae29b2f74f","system_id":"levelo_inurba_marseille","lat":43.308878,"lon":5.396396,"is_reserved":false,"is_disabled":false,"rental_uris":{"android":"levelo://app?vid=d6de2a5f-69d9-48f9-b2b5-efae29b2f74f","ios":"levelo://app?vid=d6de2a5f-69d9-48f9-b2b5-efae29b2f74f"},"vehicle_type_id":"4","last_reported":1699052789,"current_range_meters":14800,"station_id":"ce4bh012rcd13ifvqcv0","pricing_plan_id":"free"},{"bike_id":"90b28657-aae9-4fb8-b606-b7f1df65ec05","system_id":"levelo_inurba_marseille","lat":43.291994,"lon":5.357886,"is_reserved":false,"is_disabled":false,"rental_uris":{"android":"levelo://app?vid=90b28657-aae9-4fb8-b606-b7f1df65ec05","ios":"levelo://app?vid=90b28657-aae9-4fb8-b606-b7f1df65ec05"},"vehicle_type_id":"4","last_reported":1699052789,"current_range_meters":20800,"station_id":"ce4bhb12rcd13ifvqel0","pricing_plan_id":"free"},{"bike_id":"44a1e822-2a42-4976-85de-d1ae231bff8b","system_id":"levelo_inurba_marseille","lat":43.30888,"lon":5.39648,"is_reserved":false,"is_disabled":false,"rental_uris":{"android":"levelo://app?vid=44a1e822-2a42-4976-85de-d1ae231bff8b","ios":"levelo://app?vid=44a1e822-2a42-4976-85de-d1ae231bff8b"},"vehicle_type_id":"4","last_reported":1699052789,"current_range_meters":26800,"station_id":"ce4bh012rcd13ifvqcv0","pricing_plan_id":"free"},{"bike_id":"8c9fe78e-d26b-4699-8bac-4120eb80cf54","system_id":"levelo_inurba_marseille","lat":43.3133,"lon":5.39695,"is_reserved":false,"is_disabled":false,"rental_uris":{"android":"levelo://app?vid=8c9fe78e-d26b-4699-8bac-4120eb80cf54","ios":"levelo://app?vid=8c9fe78e-d26b-4699-8bac-4120eb80cf54"},"vehicle_type_id":"4","last_reported":1699052789,"current_range_meters":0,"station_id":"ce4bgvp2rcd13ifvqcu0","pricing_plan_id":"free"},{"bike_id":"41eccb81-f783-410a-8abc-161b478b4cea","system_id":"levelo_inurba_marseille","lat":43.31323,"lon":5.39696,"is_reserved":false,"is_disabled":false,"rental_uris":{"android":"levelo://app?vid=41eccb81-f783-410a-8abc-161b478b4cea","ios":"levelo://app?vid=41eccb81-f783-410a-8abc-161b478b4cea"},"vehicle_type_id":"4","last_reported":1699052789,"current_range_meters":18800,"station_id":"ce4bgvp2rcd13ifvqcu0","pricing_plan_id":"free"},{"bike_id":"3924b65a-9b13-4a9c-bf28-b6360571d29e","system_id":"levelo_inurba_marseille","lat":43.31329,"lon":5.39696,"is_reserved":false,"is_disabled":false,"rental_uris":{"android":"levelo://app?vid=3924b65a-9b13-4a9c-bf28-b6360571d29e","ios":"levelo://app?vid=3924b65a-9b13-4a9c-bf28-b6360571d29e"},"vehicle_type_id":"4","last_reported":1699052789,"current_range_meters":18400,"station_id":"ce4bgvp2rcd13ifvqcu0","pricing_plan_id":"free"},{"bike_id":"1797b155-5f99-4f02-b83d-9824efa350ab","system_id":"levelo_inurba_marseille","lat":43.30879,"lon":5.39648,"is_reserved":false,"is_disabled":false,"rental_uris":{"android":"levelo://app?vid=1797b155-5f99-4f02-b83d-9824efa350ab","ios":"levelo://app?vid=1797b155-5f99-4f02-b83d-9824efa350ab"},"vehicle_type_id":"4","last_reported":1699052789,"current_range_meters":8000,"station_id":"ce4bh012rcd13ifvqcv0","pricing_plan_id":"free"},{"bike_id":"12a6d102-0d0b-4d1c-b475-96df27f06345","system_id":"levelo_inurba_marseille","lat":43.3133,"lon":5.39697,"is_reserved":false,"is_disabled":false,"rental_uris":{"android":"levelo://app?vid=12a6d102-0d0b-4d1c-b475-96df27f06345","ios":"levelo://app?vid=12a6d102-0d0b-4d1c-b475-96df27f06345"},"vehicle_type_id":"4","last_reported":1699052789,"current_range_meters":11200,"station_id":"ce4bgvp2rcd13ifvqcu0","pricing_plan_id":"free"},{"bike_id":"fa748e67-f342-40a3-a6e6-126a6e32a271","system_id":"levelo_inurba_marseille","lat":43.31322,"lon":5.39698,"is_reserved":false,"is_disabled":false,"rental_uris":{"android":"levelo://app?vid=fa748e67-f342-40a3-a6e6-126a6e32a271","ios":"levelo://app?vid=fa748e67-f342-40a3-a6e6-126a6e32a271"},"vehicle_type_id":"4","last_reported":1699052789,"current_range_meters":19600,"station_id":"ce4bgvp2rcd13ifvqcu0","pricing_plan_id":"free"},{"bike_id":"7a10aec6-9e75-4634-8b0b-148d4677b2b1","system_id":"levelo_inurba_marseille","lat":43.309047,"lon":5.396551,"is_reserved":false,"is_disabled":false,"rental_uris":{"android":"levelo://app?vid=7a10aec6-9e75-4634-8b0b-148d4677b2b1","ios":"levelo://app?vid=7a10aec6-9e75-4634-8b0b-148d4677b2b1"},"vehicle_type_id":"4","last_reported":1699052789,"current_range_meters":27200,"station_id":"ce4bh012rcd13ifvqcv0","pricing_plan_id":"free"},{"bike_id":"29a25884-ef20-4d07-adb9-8d7a6dd89c87","system_id":"levelo_inurba_marseille","lat":43.31317,"lon":5.39703,"is_reserved":false,"is_disabled":false,"rental_uris":{"android":"levelo://app?vid=29a25884-ef20-4d07-adb9-8d7a6dd89c87","ios":"levelo://app?vid=29a25884-ef20-4d07-adb9-8d7a6dd89c87"},"vehicle_type_id":"4","last_reported":1699052789,"current_range_meters":5200,"station_id":"ce4bgvp2rcd13ifvqcu0","pricing_plan_id":"free"},{"bike_id":"e0a0d93b-f8c3-44b5-92f7-98721f58c0a5","system_id":"levelo_inurba_marseille","lat":43.3089,"lon":5.39657,"is_reserved":false,"is_disabled":false,"rental_uris":{"android":"levelo://app?vid=e0a0d93b-f8c3-44b5-92f7-98721f58c0a5","ios":"levelo://app?vid=e0a0d93b-f8c3-44b5-92f7-98721f58c0a5"},"vehicle_type_id":"4","last_reported":1699052789,"current_range_meters":22400,"station_id":"ce4bh012rcd13ifvqcv0","pricing_plan_id":"free"},{"bike_id":"061dc70e-85ba-4bfc-8a59-21ef4b3377d0","system_id":"levelo_inurba_marseille","lat":43.30887,"lon":5.3966,"is_reserved":false,"is_disabled":false,"rental_uris":{"android":"levelo://app?vid=061dc70e-85ba-4bfc-8a59-21ef4b3377d0","ios":"levelo://app?vid=061dc70e-85ba-4bfc-8a59-21ef4b3377d0"},"vehicle_type_id":"4","last_reported":1699052789,"current_range_meters":6800,"station_id":"ce4bh012rcd13ifvqcv0","pricing_plan_id":"free"},{"bike_id":"cdfd8650-7da4-45fe-a7fc-9ce1d2810b07","system_id":"levelo_inurba_marseille","lat":43.30879,"lon":5.39661,"is_reserved":false,"is_disabled":false,"rental_uris":{"android":"levelo://app?vid=cdfd8650-7da4-45fe-a7fc-9ce1d2810b07","ios":"levelo://app?vid=cdfd8650-7da4-45fe-a7fc-9ce1d2810b07"},"vehicle_type_id":"4","last_reported":1699052789,"current_range_meters":22000,"station_id":"ce4bh012rcd13ifvqcv0","pricing_plan_id":"free"},{"bike_id":"9d49bf9e-6cab-4689-aea0-a75c75ca90a0","system_id":"levelo_inurba_marseille","lat":43.30879,"lon":5.39661,"is_reserved":false,"is_disabled":false,"rental_uris":{"android":"levelo://app?vid=9d49bf9e-6cab-4689-aea0-a75c75ca90a0","ios":"levelo://app?vid=9d49bf9e-6cab-4689-aea0-a75c75ca90a0"},"vehicle_type_id":"4","last_reported":1699052789,"current_range_meters":0,"station_id":"ce4bh012rcd13ifvqcv0","pricing_plan_id":"free"},{"bike_id":"ef96b0e2-3068-40ae-89b1-21faaf1484ec","system_id":"levelo_inurba_marseille","lat":43.29531,"lon":5.38543,"is_reserved":false,"is_disabled":false,"rental_uris":{"android":"levelo://app?vid=ef96b0e2-3068-40ae-89b1-21faaf1484ec","ios":"levelo://app?vid=ef96b0e2-3068-40ae-89b1-21faaf1484ec"},"vehicle_type_id":"4","last_reported":1699052789,"current_range_meters":11600,"station_id":"ce4bgih2rcd13ifvqba0","pricing_plan_id":"free"},{"bike_id":"18a7bc58-bb30-409b-9f17-5a8306163944","system_id":"levelo_inurba_marseille","lat":43.30208,"lon":5.39475,"is_reserved":false,"is_disabled":false,"rental_uris":{"android":"levelo://app?vid=18a7bc58-bb30-409b-9f17-5a8306163944","ios":"levelo://app?vid=18a7bc58-bb30-409b-9f17-5a8306163944"},"vehicle_type_id":"4","last_reported":1699052789,"current_range_meters":31200,"station_id":"ce4bh0p2rcd13ifvqd70","pricing_plan_id":"free"},{"bike_id":"db873d00-26f2-4e4c-8f17-e7da2f582224","system_id":"levelo_inurba_marseille","lat":43.290624,"lon":5.359245,"is_reserved":false,"is_disabled":false,"rental_uris":{"android":"levelo://app?vid=db873d00-26f2-4e4c-8f17-e7da2f582224","ios":"levelo://app?vid=db873d00-26f2-4e4c-8f17-e7da2f582224"},"vehicle_type_id":"4","last_reported":1699052789,"current_range_meters":17600,"station_id":"ce4bha92rcd13ifvqeg0","pricing_plan_id":"free"},{"bike_id":"32a5903f-983f-4439-9002-fa022088fd0d","system_id":"levelo_inurba_marseille","lat":43.290631,"lon":5.359244,"is_reserved":false,"is_disabled":false,"rental_uris":{"android":"levelo://app?vid=32a5903f-983f-4439-9002-fa022088fd0d","ios":"levelo://app?vid=32a5903f-983f-4439-9002-fa022088fd0d"},"vehicle_type_id":"4","last_reported":1699052789,"current_range_meters":24800,"station_id":"ce4bha92rcd13ifvqeg0","pricing_plan_id":"free"},{"bike_id":"a4911d8d-0c74-4af8-852a-2f4eac372219","system_id":"levelo_inurba_marseille","lat":43.290631,"lon":5.359244,"is_reserved":false,"is_disabled":false,"rental_uris":{"android":"levelo://app?vid=a4911d8d-0c74-4af8-852a-2f4eac372219","ios":"levelo://app?vid=a4911d8d-0c74-4af8-852a-2f4eac372219"},"vehicle_type_id":"4","last_reported":1699052789,"current_range_meters":11200,"station_id":"ce4bha92rcd13ifvqeg0","pricing_plan_id":"free"},{"bike_id":"988d4820-c5bd-4b14-8333-61b3b7b1d04a","system_id":"levelo_inurba_marseille","lat":43.290631,"lon":5.359244,"is_reserved":false,"is_disabled":false,"rental_uris":{"android":"levelo://app?vid=988d4820-c5bd-4b14-8333-61b3b7b1d04a","ios":"levelo://app?vid=988d4820-c5bd-4b14-8333-61b3b7b1d04a"},"vehicle_type_id":"4","last_reported":1699052789,"current_range_meters":6000,"station_id":"ce4bha92rcd13ifvqeg0","pricing_plan_id":"free"},{"bike_id":"967c14b4-cb71-4966-949f-7d54eb8b3c0b","system_id":"levelo_inurba_marseille","lat":43.294162,"lon":5.386292,"is_reserved":false,"is_disabled":false,"rental_uris":{"android":"levelo://app?vid=967c14b4-cb71-4966-949f-7d54eb8b3c0b","ios":"levelo://app?vid=967c14b4-cb71-4966-949f-7d54eb8b3c0b"},"vehicle_type_id":"4","last_reported":1699052789,"current_range_meters":3600,"station_id":"ce4bh2h2rcd13ifvqdh0","pricing_plan_id":"free"},{"bike_id":"c3ba2c03-c980-4cc8-a94b-d7d3967e5c1c","system_id":"levelo_inurba_marseille","lat":43.29418,"lon":5.38631,"is_reserved":false,"is_disabled":false,"rental_uris":{"android":"levelo://app?vid=c3ba2c03-c980-4cc8-a94b-d7d3967e5c1c","ios":"levelo://app?vid=c3ba2c03-c980-4cc8-a94b-d7d3967e5c1c"},"vehicle_type_id":"4","last_reported":1699052789,"current_range_meters":22000,"station_id":"ce4bh2h2rcd13ifvqdh0","pricing_plan_id":"free"},{"bike_id":"7b819ab1-c7a7-4023-852d-153497055acf","system_id":"levelo_inurba_marseille","lat":43.289468,"lon":5.363719,"is_reserved":false,"is_disabled":false,"rental_uris":{"android":"levelo://app?vid=7b819ab1-c7a7-4023-852d-153497055acf","ios":"levelo://app?vid=7b819ab1-c7a7-4023-852d-153497055acf"},"vehicle_type_id":"4","last_reported":1699052789,"current_range_meters":14800,"station_id":"ce4bhc92rcd13ifvqetg","pricing_plan_id":"free"},{"bike_id":"7545a2f1-559c-40c2-908d-99ad6ef39151","system_id":"levelo_inurba_marseille","lat":43.33039,"lon":5.3892,"is_reserved":false,"is_disabled":false,"rental_uris":{"android":"levelo://app?vid=7545a2f1-559c-40c2-908d-99ad6ef39151","ios":"levelo://app?vid=7545a2f1-559c-40c2-908d-99ad6ef39151"},"vehicle_type_id":"4","last_reported":1699052789,"current_range_meters":18000,"station_id":"ce4bhr92rcd13ifvqhrg","pricing_plan_id":"free"},{"bike_id":"b0223261-d01d-4482-8419-892ea86377ea","system_id":"levelo_inurba_marseille","lat":43.33041,"lon":5.38921,"is_reserved":false,"is_disabled":false,"rental_uris":{"android":"levelo://app?vid=b0223261-d01d-4482-8419-892ea86377ea","ios":"levelo://app?vid=b0223261-d01d-4482-8419-892ea86377ea"},"vehicle_type_id":"4","last_reported":1699052789,"current_range_meters":9600,"station_id":"ce4bhr92rcd13ifvqhrg","pricing_plan_id":"free"},{"bike_id":"007a9622-d031-41d9-ae95-e9d53e0ad17e","system_id":"levelo_inurba_marseille","lat":43.33044,"lon":5.3892,"is_reserved":false,"is_disabled":false,"rental_uris":{"android":"levelo://app?vid=007a9622-d031-41d9-ae95-e9d53e0ad17e","ios":"levelo://app?vid=007a9622-d031-41d9-ae95-e9d53e0ad17e"},"vehicle_type_id":"4","last_reported":1699052789,"current_range_meters":14000,"station_id":"ce4bhr92rcd13ifvqhrg","pricing_plan_id":"free"},{"bike_id":"f53bcdcf-76af-4e4a-b4b1-d7c5abaf9aed","system_id":"levelo_inurba_marseille","lat":43.29005,"lon":5.35619,"is_reserved":false,"is_disabled":false,"rental_uris":{"android":"levelo://app?vid=f53bcdcf-76af-4e4a-b4b1-d7c5abaf9aed","ios":"levelo://app?vid=f53bcdcf-76af-4e4a-b4b1-d7c5abaf9aed"},"vehicle_type_id":"4","last_reported":1699052789,"current_range_meters":12800,"station_id":"ce4bhb92rcd13ifvqen0","pricing_plan_id":"free"},{"bike_id":"3236d04d-7b22-49ec-b4b9-4d053a2b97fa","system_id":"levelo_inurba_marseille","lat":43.29006,"lon":5.35607,"is_reserved":false,"is_disabled":false,"rental_uris":{"android":"levelo://app?vid=3236d04d-7b22-49ec-b4b9-4d053a2b97fa","ios":"levelo://app?vid=3236d04d-7b22-49ec-b4b9-4d053a2b97fa"},"vehicle_type_id":"4","last_reported":1699052789,"current_range_meters":20400,"station_id":"ce4bhb92rcd13ifvqen0","pricing_plan_id":"free"},{"bike_id":"6b02bc29-1aaf-4afc-978e-1b2537eccea9","system_id":"levelo_inurba_marseille","lat":43.29003,"lon":5.35615,"is_reserved":false,"is_disabled":false,"rental_uris":{"android":"levelo://app?vid=6b02bc29-1aaf-4afc-978e-1b2537eccea9","ios":"levelo://app?vid=6b02bc29-1aaf-4afc-978e-1b2537eccea9"},"vehicle_type_id":"4","last_reported":1699052789,"current_range_meters":15600,"station_id":"ce4bhb92rcd13ifvqen0","pricing_plan_id":"free"},{"bike_id":"9ca908c3-201f-4c3e-9dcc-e18657ec600a","system_id":"levelo_inurba_marseille","lat":43.290103,"lon":5.356114,"is_reserved":false,"is_disabled":false,"rental_uris":{"android":"levelo://app?vid=9ca908c3-201f-4c3e-9dcc-e18657ec600a","ios":"levelo://app?vid=9ca908c3-201f-4c3e-9dcc-e18657ec600a"},"vehicle_type_id":"4","last_reported":1699052789,"current_range_meters":25600,"station_id":"ce4bhb92rcd13ifvqen0","pricing_plan_id":"free"},{"bike_id":"a2badb18-1861-4727-bf66-fe9d89d2edae","system_id":"levelo_inurba_marseille","lat":43.290995,"lon":5.381361,"is_reserved":false,"is_disabled":false,"rental_uris":{"android":"levelo://app?vid=a2badb18-1861-4727-bf66-fe9d89d2edae","ios":"levelo://app?vid=a2badb18-1861-4727-bf66-fe9d89d2edae"},"vehicle_type_id":"4","last_reported":1699052789,"current_range_meters":29200,"station_id":"ce4bh512rcd13ifvqe2g","pricing_plan_id":"free"},{"bike_id":"e0d713cd-ec81-44ec-8ba4-571dd76a2b05","system_id":"levelo_inurba_marseille","lat":43.295169,"lon":5.390426,"is_reserved":false,"is_disabled":false,"rental_uris":{"android":"levelo://app?vid=e0d713cd-ec81-44ec-8ba4-571dd76a2b05","ios":"levelo://app?vid=e0d713cd-ec81-44ec-8ba4-571dd76a2b05"},"vehicle_type_id":"4","last_reported":1699052789,"current_range_meters":3600,"station_id":"ce4bh3p2rcd13ifvqdp0","pricing_plan_id":"free"},{"bike_id":"7e74eef3-622d-42ce-8972-bc5484036710","system_id":"levelo_inurba_marseille","lat":43.297815,"lon":5.393548,"is_reserved":false,"is_disabled":false,"rental_uris":{"android":"levelo://app?vid=7e74eef3-622d-42ce-8972-bc5484036710","ios":"levelo://app?vid=7e74eef3-622d-42ce-8972-bc5484036710"},"vehicle_type_id":"4","last_reported":1699052789,"current_range_meters":12800,"station_id":"chh1huq6cuj3fo74tm60","pricing_plan_id":"free"},{"bike_id":"431065aa-d543-4fd9-8d05-b3596993c70e","system_id":"levelo_inurba_marseille","lat":43.297815,"lon":5.393548,"is_reserved":false,"is_disabled":false,"rental_uris":{"android":"levelo://app?vid=431065aa-d543-4fd9-8d05-b3596993c70e","ios":"levelo://app?vid=431065aa-d543-4fd9-8d05-b3596993c70e"},"vehicle_type_id":"4","last_reported":1699052789,"current_range_meters":31600,"station_id":"chh1huq6cuj3fo74tm60","pricing_plan_id":"free"},{"bike_id":"6aa0f57f-db09-4269-99e3-1142a136e006","system_id":"levelo_inurba_marseille","lat":43.297815,"lon":5.393548,"is_reserved":false,"is_disabled":false,"rental_uris":{"android":"levelo://app?vid=6aa0f57f-db09-4269-99e3-1142a136e006","ios":"levelo://app?vid=6aa0f57f-db09-4269-99e3-1142a136e006"},"vehicle_type_id":"4","last_reported":1699052789,"current_range_meters":5200,"station_id":"chh1huq6cuj3fo74tm60","pricing_plan_id":"free"},{"bike_id":"72b93a91-7841-4d2b-8e0b-fd1a4396e1d7","system_id":"levelo_inurba_marseille","lat":43.295169,"lon":5.390426,"is_reserved":false,"is_disabled":false,"rental_uris":{"android":"levelo://app?vid=72b93a91-7841-4d2b-8e0b-fd1a4396e1d7","ios":"levelo://app?vid=72b93a91-7841-4d2b-8e0b-fd1a4396e1d7"},"vehicle_type_id":"4","last_reported":1699052789,"current_range_meters":19200,"station_id":"ce4bh3p2rcd13ifvqdp0","pricing_plan_id":"free"},{"bike_id":"87459c01-7ab1-4cbb-962a-ee5b6d484f49","system_id":"levelo_inurba_marseille","lat":43.29772,"lon":5.39348,"is_reserved":false,"is_disabled":false,"rental_uris":{"android":"levelo://app?vid=87459c01-7ab1-4cbb-962a-ee5b6d484f49","ios":"levelo://app?vid=87459c01-7ab1-4cbb-962a-ee5b6d484f49"},"vehicle_type_id":"4","last_reported":1699052789,"current_range_meters":26000,"station_id":"chh1huq6cuj3fo74tm60","pricing_plan_id":"free"},{"bike_id":"5e3661ad-80ea-46cc-9c08-eca9294d93fb","system_id":"levelo_inurba_marseille","lat":43.295169,"lon":5.390426,"is_reserved":false,"is_disabled":false,"rental_uris":{"android":"levelo://app?vid=5e3661ad-80ea-46cc-9c08-eca9294d93fb","ios":"levelo://app?vid=5e3661ad-80ea-46cc-9c08-eca9294d93fb"},"vehicle_type_id":"4","last_reported":1699052789,"current_range_meters":29600,"station_id":"ce4bh3p2rcd13ifvqdp0","pricing_plan_id":"free"},{"bike_id":"b808ae93-f78d-4779-ad48-d260c017f855","system_id":"levelo_inurba_marseille","lat":43.295169,"lon":5.390426,"is_reserved":false,"is_disabled":false,"rental_uris":{"android":"levelo://app?vid=b808ae93-f78d-4779-ad48-d260c017f855","ios":"levelo://app?vid=b808ae93-f78d-4779-ad48-d260c017f855"},"vehicle_type_id":"4","last_reported":1699052789,"current_range_meters":14000,"station_id":"ce4bh3p2rcd13ifvqdp0","pricing_plan_id":"free"},{"bike_id":"4fc572e1-14db-4400-a794-76679005bc2b","system_id":"levelo_inurba_marseille","lat":43.295169,"lon":5.390426,"is_reserved":false,"is_disabled":false,"rental_uris":{"android":"levelo://app?vid=4fc572e1-14db-4400-a794-76679005bc2b","ios":"levelo://app?vid=4fc572e1-14db-4400-a794-76679005bc2b"},"vehicle_type_id":"4","last_reported":1699052789,"current_range_meters":8000,"station_id":"ce4bh3p2rcd13ifvqdp0","pricing_plan_id":"free"},{"bike_id":"8e98071c-be76-4337-9fba-e24f07512af9","system_id":"levelo_inurba_marseille","lat":43.28856,"lon":5.358371,"is_reserved":false,"is_disabled":false,"rental_uris":{"android":"levelo://app?vid=8e98071c-be76-4337-9fba-e24f07512af9","ios":"levelo://app?vid=8e98071c-be76-4337-9fba-e24f07512af9"},"vehicle_type_id":"4","last_reported":1699052789,"current_range_meters":22400,"station_id":"ce4bhb12rcd13ifvqem0","pricing_plan_id":"free"},{"bike_id":"babe89bd-d9bd-4ea3-9598-81a43ebc6df6","system_id":"levelo_inurba_marseille","lat":43.289551,"lon":5.379817,"is_reserved":false,"is_disabled":false,"rental_uris":{"android":"levelo://app?vid=babe89bd-d9bd-4ea3-9598-81a43ebc6df6","ios":"levelo://app?vid=babe89bd-d9bd-4ea3-9598-81a43ebc6df6"},"vehicle_type_id":"4","last_reported":1699052789,"current_range_meters":5200,"station_id":"","pricing_plan_id":"free"},{"bike_id":"b51698a5-5c5b-44d3-8532-1edded6deeaf","system_id":"levelo_inurba_marseille","lat":43.28856,"lon":5.358371,"is_reserved":false,"is_disabled":false,"rental_uris":{"android":"levelo://app?vid=b51698a5-5c5b-44d3-8532-1edded6deeaf","ios":"levelo://app?vid=b51698a5-5c5b-44d3-8532-1edded6deeaf"},"vehicle_type_id":"4","last_reported":1699052789,"current_range_meters":17200,"station_id":"ce4bhb12rcd13ifvqem0","pricing_plan_id":"free"},{"bike_id":"a57e97c7-8b78-4f4a-84cd-76f235c34a96","system_id":"levelo_inurba_marseille","lat":43.28856,"lon":5.358371,"is_reserved":false,"is_disabled":false,"rental_uris":{"android":"levelo://app?vid=a57e97c7-8b78-4f4a-84cd-76f235c34a96","ios":"levelo://app?vid=a57e97c7-8b78-4f4a-84cd-76f235c34a96"},"vehicle_type_id":"4","last_reported":1699052789,"current_range_meters":9200,"station_id":"ce4bhb12rcd13ifvqem0","pricing_plan_id":"free"},{"bike_id":"59204193-e990-4799-bc98-56c5219bde12","system_id":"levelo_inurba_marseille","lat":43.28856,"lon":5.358371,"is_reserved":false,"is_disabled":false,"rental_uris":{"android":"levelo://app?vid=59204193-e990-4799-bc98-56c5219bde12","ios":"levelo://app?vid=59204193-e990-4799-bc98-56c5219bde12"},"vehicle_type_id":"4","last_reported":1699052789,"current_range_meters":20400,"station_id":"ce4bhb12rcd13ifvqem0","pricing_plan_id":"free"},{"bike_id":"52826df6-8d37-4dea-9544-d137fe477fe8","system_id":"levelo_inurba_marseille","lat":43.309284,"lon":5.40135,"is_reserved":false,"is_disabled":false,"rental_uris":{"android":"levelo://app?vid=52826df6-8d37-4dea-9544-d137fe477fe8","ios":"levelo://app?vid=52826df6-8d37-4dea-9544-d137fe477fe8"},"vehicle_type_id":"4","last_reported":1699052789,"current_range_meters":30400,"station_id":"ce4bgvp2rcd13ifvqct0","pricing_plan_id":"free"},{"bike_id":"b2000199-581f-42fa-89e0-6c626085d003","system_id":"levelo_inurba_marseille","lat":43.309364,"lon":5.401389,"is_reserved":false,"is_disabled":false,"rental_uris":{"android":"levelo://app?vid=b2000199-581f-42fa-89e0-6c626085d003","ios":"levelo://app?vid=b2000199-581f-42fa-89e0-6c626085d003"},"vehicle_type_id":"4","last_reported":1699052789,"current_range_meters":24000,"station_id":"ce4bgvp2rcd13ifvqct0","pricing_plan_id":"free"},{"bike_id":"2d68e3e6-3efb-45e5-b4e5-be9446c0b82c","system_id":"levelo_inurba_marseille","lat":43.3128,"lon":5.40176,"is_reserved":false,"is_disabled":false,"rental_uris":{"android":"levelo://app?vid=2d68e3e6-3efb-45e5-b4e5-be9446c0b82c","ios":"levelo://app?vid=2d68e3e6-3efb-45e5-b4e5-be9446c0b82c"},"vehicle_type_id":"4","last_reported":1699052789,"current_range_meters":5200,"station_id":"ce4bh092rcd13ifvqd30","pricing_plan_id":"free"},{"bike_id":"a7177c7d-f069-46ad-b501-27f3ec21fc6e","system_id":"levelo_inurba_marseille","lat":43.312609,"lon":5.401662,"is_reserved":false,"is_disabled":false,"rental_uris":{"android":"levelo://app?vid=a7177c7d-f069-46ad-b501-27f3ec21fc6e","ios":"levelo://app?vid=a7177c7d-f069-46ad-b501-27f3ec21fc6e"},"vehicle_type_id":"4","last_reported":1699052789,"current_range_meters":28000,"station_id":"ce4bh092rcd13ifvqd30","pricing_plan_id":"free"},{"bike_id":"ad320267-ef33-4067-9236-75995af4f7f8","system_id":"levelo_inurba_marseille","lat":43.30927,"lon":5.40145,"is_reserved":false,"is_disabled":false,"rental_uris":{"android":"levelo://app?vid=ad320267-ef33-4067-9236-75995af4f7f8","ios":"levelo://app?vid=ad320267-ef33-4067-9236-75995af4f7f8"},"vehicle_type_id":"4","last_reported":1699052789,"current_range_meters":29200,"station_id":"ce4bgvp2rcd13ifvqct0","pricing_plan_id":"free"},{"bike_id":"991cc3fb-5fc5-4aa6-9a42-f40cdc5055a5","system_id":"levelo_inurba_marseille","lat":43.309281,"lon":5.401463,"is_reserved":false,"is_disabled":false,"rental_uris":{"android":"levelo://app?vid=991cc3fb-5fc5-4aa6-9a42-f40cdc5055a5","ios":"levelo://app?vid=991cc3fb-5fc5-4aa6-9a42-f40cdc5055a5"},"vehicle_type_id":"4","last_reported":1699052789,"current_range_meters":30400,"station_id":"ce4bgvp2rcd13ifvqct0","pricing_plan_id":"free"},{"bike_id":"0fde627c-5a15-4d7b-8096-e9ca1a824908","system_id":"levelo_inurba_marseille","lat":43.3092,"lon":5.40146,"is_reserved":false,"is_disabled":false,"rental_uris":{"android":"levelo://app?vid=0fde627c-5a15-4d7b-8096-e9ca1a824908","ios":"levelo://app?vid=0fde627c-5a15-4d7b-8096-e9ca1a824908"},"vehicle_type_id":"4","last_reported":1699052789,"current_range_meters":24400,"station_id":"ce4bgvp2rcd13ifvqct0","pricing_plan_id":"free"},{"bike_id":"a2905c41-882a-42fb-9a4e-0f684a5329b9","system_id":"levelo_inurba_marseille","lat":43.337517,"lon":5.37454,"is_reserved":false,"is_disabled":false,"rental_uris":{"android":"levelo://app?vid=a2905c41-882a-42fb-9a4e-0f684a5329b9","ios":"levelo://app?vid=a2905c41-882a-42fb-9a4e-0f684a5329b9"},"vehicle_type_id":"4","last_reported":1699052789,"current_range_meters":24400,"station_id":"","pricing_plan_id":"free"},{"bike_id":"6edda02c-e290-457f-a703-9c7901068760","system_id":"levelo_inurba_marseille","lat":43.309217,"lon":5.401487,"is_reserved":false,"is_disabled":false,"rental_uris":{"android":"levelo://app?vid=6edda02c-e290-457f-a703-9c7901068760","ios":"levelo://app?vid=6edda02c-e290-457f-a703-9c7901068760"},"vehicle_type_id":"4","last_reported":1699052789,"current_range_meters":11600,"station_id":"ce4bgvp2rcd13ifvqct0","pricing_plan_id":"free"},{"bike_id":"99f72612-500c-40ee-986e-28d77d67d38a","system_id":"levelo_inurba_marseille","lat":43.30919,"lon":5.40149,"is_reserved":false,"is_disabled":false,"rental_uris":{"android":"levelo://app?vid=99f72612-500c-40ee-986e-28d77d67d38a","ios":"levelo://app?vid=99f72612-500c-40ee-986e-28d77d67d38a"},"vehicle_type_id":"4","last_reported":1699052789,"current_range_meters":14400,"station_id":"ce4bgvp2rcd13ifvqct0","pricing_plan_id":"free"},{"bike_id":"ffcd66dc-09a2-43c6-bdd2-6ab2f3d9ba80","system_id":"levelo_inurba_marseille","lat":43.337653,"lon":5.374332,"is_reserved":false,"is_disabled":false,"rental_uris":{"android":"levelo://app?vid=ffcd66dc-09a2-43c6-bdd2-6ab2f3d9ba80","ios":"levelo://app?vid=ffcd66dc-09a2-43c6-bdd2-6ab2f3d9ba80"},"vehicle_type_id":"4","last_reported":1699052789,"current_range_meters":15600,"station_id":"","pricing_plan_id":"free"},{"bike_id":"3c572c3f-cc4c-4d3a-a0f0-73ed1ad39fef","system_id":"levelo_inurba_marseille","lat":43.33031,"lon":5.392311,"is_reserved":false,"is_disabled":false,"rental_uris":{"android":"levelo://app?vid=3c572c3f-cc4c-4d3a-a0f0-73ed1ad39fef","ios":"levelo://app?vid=3c572c3f-cc4c-4d3a-a0f0-73ed1ad39fef"},"vehicle_type_id":"4","last_reported":1699052789,"current_range_meters":11600,"station_id":"","pricing_plan_id":"free"},{"bike_id":"c639deb6-6b48-441a-a2fd-b39fc8743120","system_id":"levelo_inurba_marseille","lat":43.30642,"lon":5.401031,"is_reserved":false,"is_disabled":false,"rental_uris":{"android":"levelo://app?vid=c639deb6-6b48-441a-a2fd-b39fc8743120","ios":"levelo://app?vid=c639deb6-6b48-441a-a2fd-b39fc8743120"},"vehicle_type_id":"4","last_reported":1699052789,"current_range_meters":31200,"station_id":"ce4bh112rcd13ifvqda0","pricing_plan_id":"free"},{"bike_id":"92199dda-4062-4329-97d4-89a2be05fcba","system_id":"levelo_inurba_marseille","lat":43.306412,"lon":5.401035,"is_reserved":false,"is_disabled":false,"rental_uris":{"android":"levelo://app?vid=92199dda-4062-4329-97d4-89a2be05fcba","ios":"levelo://app?vid=92199dda-4062-4329-97d4-89a2be05fcba"},"vehicle_type_id":"4","last_reported":1699052789,"current_range_meters":25600,"station_id":"ce4bh112rcd13ifvqda0","pricing_plan_id":"free"},{"bike_id":"d733a1f5-bb53-447c-8ae7-7a4ce2a67a9f","system_id":"levelo_inurba_marseille","lat":43.30642,"lon":5.401031,"is_reserved":false,"is_disabled":false,"rental_uris":{"android":"levelo://app?vid=d733a1f5-bb53-447c-8ae7-7a4ce2a67a9f","ios":"levelo://app?vid=d733a1f5-bb53-447c-8ae7-7a4ce2a67a9f"},"vehicle_type_id":"4","last_reported":1699052789,"current_range_meters":18800,"station_id":"ce4bh112rcd13ifvqda0","pricing_plan_id":"free"},{"bike_id":"13a57af5-0186-4576-a5c0-619fa9c985a0","system_id":"levelo_inurba_marseille","lat":43.301117,"lon":5.398795,"is_reserved":false,"is_disabled":false,"rental_uris":{"android":"levelo://app?vid=13a57af5-0186-4576-a5c0-619fa9c985a0","ios":"levelo://app?vid=13a57af5-0186-4576-a5c0-619fa9c985a0"},"vehicle_type_id":"4","last_reported":1699052789,"current_range_meters":0,"station_id":"ce4bh0h2rcd13ifvqd40","pricing_plan_id":"free"},{"bike_id":"ef52b5dd-63b7-452c-9d0e-f05dc89abcd2","system_id":"levelo_inurba_marseille","lat":43.28727,"lon":5.36078,"is_reserved":false,"is_disabled":false,"rental_uris":{"android":"levelo://app?vid=ef52b5dd-63b7-452c-9d0e-f05dc89abcd2","ios":"levelo://app?vid=ef52b5dd-63b7-452c-9d0e-f05dc89abcd2"},"vehicle_type_id":"4","last_reported":1699052789,"current_range_meters":14800,"station_id":"cki0cbj6b192h4jlfktg","pricing_plan_id":"free"},{"bike_id":"4fc91a79-3842-4902-b109-ed8497d7504c","system_id":"levelo_inurba_marseille","lat":43.28727,"lon":5.36078,"is_reserved":false,"is_disabled":false,"rental_uris":{"android":"levelo://app?vid=4fc91a79-3842-4902-b109-ed8497d7504c","ios":"levelo://app?vid=4fc91a79-3842-4902-b109-ed8497d7504c"},"vehicle_type_id":"4","last_reported":1699052789,"current_range_meters":31200,"station_id":"cki0cbj6b192h4jlfktg","pricing_plan_id":"free"},{"bike_id":"4d4b48eb-2c82-441f-81d4-bcad2c4e0c67","system_id":"levelo_inurba_marseille","lat":43.30148,"lon":5.3989,"is_reserved":false,"is_disabled":false,"rental_uris":{"android":"levelo://app?vid=4d4b48eb-2c82-441f-81d4-bcad2c4e0c67","ios":"levelo://app?vid=4d4b48eb-2c82-441f-81d4-bcad2c4e0c67"},"vehicle_type_id":"4","last_reported":1699052789,"current_range_meters":5600,"station_id":"ce4bh0h2rcd13ifvqd40","pricing_plan_id":"free"},{"bike_id":"391cbb9e-4e4d-46ad-9221-35f0a6237e2a","system_id":"levelo_inurba_marseille","lat":43.28727,"lon":5.36078,"is_reserved":false,"is_disabled":false,"rental_uris":{"android":"levelo://app?vid=391cbb9e-4e4d-46ad-9221-35f0a6237e2a","ios":"levelo://app?vid=391cbb9e-4e4d-46ad-9221-35f0a6237e2a"},"vehicle_type_id":"4","last_reported":1699052789,"current_range_meters":1600,"station_id":"cki0cbj6b192h4jlfktg","pricing_plan_id":"free"},{"bike_id":"8b2b5d63-d43a-4df2-b7b3-bc979a7dc332","system_id":"levelo_inurba_marseille","lat":43.28727,"lon":5.36078,"is_reserved":false,"is_disabled":false,"rental_uris":{"android":"levelo://app?vid=8b2b5d63-d43a-4df2-b7b3-bc979a7dc332","ios":"levelo://app?vid=8b2b5d63-d43a-4df2-b7b3-bc979a7dc332"},"vehicle_type_id":"4","last_reported":1699052789,"current_range_meters":31200,"station_id":"cki0cbj6b192h4jlfktg","pricing_plan_id":"free"},{"bike_id":"772cb2df-972a-417f-aa4d-3e062289d9ab","system_id":"levelo_inurba_marseille","lat":43.28727,"lon":5.36078,"is_reserved":false,"is_disabled":false,"rental_uris":{"android":"levelo://app?vid=772cb2df-972a-417f-aa4d-3e062289d9ab","ios":"levelo://app?vid=772cb2df-972a-417f-aa4d-3e062289d9ab"},"vehicle_type_id":"4","last_reported":1699052789,"current_range_meters":27200,"station_id":"cki0cbj6b192h4jlfktg","pricing_plan_id":"free"},{"bike_id":"262c6b13-b7f8-4212-9aee-2c302f372fac","system_id":"levelo_inurba_marseille","lat":43.28727,"lon":5.36078,"is_reserved":false,"is_disabled":false,"rental_uris":{"android":"levelo://app?vid=262c6b13-b7f8-4212-9aee-2c302f372fac","ios":"levelo://app?vid=262c6b13-b7f8-4212-9aee-2c302f372fac"},"vehicle_type_id":"4","last_reported":1699052789,"current_range_meters":28400,"station_id":"cki0cbj6b192h4jlfktg","pricing_plan_id":"free"},{"bike_id":"4997e7d9-6b46-41e9-acda-412709d9c4a3","system_id":"levelo_inurba_marseille","lat":43.286961,"lon":5.373785,"is_reserved":false,"is_disabled":false,"rental_uris":{"android":"levelo://app?vid=4997e7d9-6b46-41e9-acda-412709d9c4a3","ios":"levelo://app?vid=4997e7d9-6b46-41e9-acda-412709d9c4a3"},"vehicle_type_id":"4","last_reported":1699052789,"current_range_meters":32000,"station_id":"ce4bh3p2rcd13ifvqdq0","pricing_plan_id":"free"},{"bike_id":"f4f67aa5-d5f2-4463-b890-3335f32dd922","system_id":"levelo_inurba_marseille","lat":43.298681,"lon":5.397225,"is_reserved":false,"is_disabled":false,"rental_uris":{"android":"levelo://app?vid=f4f67aa5-d5f2-4463-b890-3335f32dd922","ios":"levelo://app?vid=f4f67aa5-d5f2-4463-b890-3335f32dd922"},"vehicle_type_id":"4","last_reported":1699052789,"current_range_meters":25600,"station_id":"ce4bh0h2rcd13ifvqd50","pricing_plan_id":"free"},{"bike_id":"5b6645ba-a3e4-4f87-828a-4f4dc487a806","system_id":"levelo_inurba_marseille","lat":43.286961,"lon":5.373785,"is_reserved":false,"is_disabled":false,"rental_uris":{"android":"levelo://app?vid=5b6645ba-a3e4-4f87-828a-4f4dc487a806","ios":"levelo://app?vid=5b6645ba-a3e4-4f87-828a-4f4dc487a806"},"vehicle_type_id":"4","last_reported":1699052789,"current_range_meters":28800,"station_id":"ce4bh3p2rcd13ifvqdq0","pricing_plan_id":"free"},{"bike_id":"d1caeead-0971-403b-9e50-2243d94feddd","system_id":"levelo_inurba_marseille","lat":43.286591,"lon":5.363346,"is_reserved":false,"is_disabled":false,"rental_uris":{"android":"levelo://app?vid=d1caeead-0971-403b-9e50-2243d94feddd","ios":"levelo://app?vid=d1caeead-0971-403b-9e50-2243d94feddd"},"vehicle_type_id":"4","last_reported":1699052789,"current_range_meters":18800,"station_id":"ce4bhah2rcd13ifvqej0","pricing_plan_id":"free"},{"bike_id":"97376240-315a-407d-bd96-183f83f7f83a","system_id":"levelo_inurba_marseille","lat":43.286961,"lon":5.373785,"is_reserved":false,"is_disabled":false,"rental_uris":{"android":"levelo://app?vid=97376240-315a-407d-bd96-183f83f7f83a","ios":"levelo://app?vid=97376240-315a-407d-bd96-183f83f7f83a"},"vehicle_type_id":"4","last_reported":1699052789,"current_range_meters":13600,"station_id":"ce4bh3p2rcd13ifvqdq0","pricing_plan_id":"free"},{"bike_id":"709e4abb-1835-4ec9-a5d5-e66f1c539408","system_id":"levelo_inurba_marseille","lat":43.287018,"lon":5.373945,"is_reserved":false,"is_disabled":false,"rental_uris":{"android":"levelo://app?vid=709e4abb-1835-4ec9-a5d5-e66f1c539408","ios":"levelo://app?vid=709e4abb-1835-4ec9-a5d5-e66f1c539408"},"vehicle_type_id":"4","last_reported":1699052789,"current_range_meters":27600,"station_id":"ce4bh3p2rcd13ifvqdq0","pricing_plan_id":"free"},{"bike_id":"4e1a2024-2fb9-48eb-8883-3f6fe075457a","system_id":"levelo_inurba_marseille","lat":43.295196,"lon":5.39397,"is_reserved":false,"is_disabled":false,"rental_uris":{"android":"levelo://app?vid=4e1a2024-2fb9-48eb-8883-3f6fe075457a","ios":"levelo://app?vid=4e1a2024-2fb9-48eb-8883-3f6fe075457a"},"vehicle_type_id":"4","last_reported":1699052789,"current_range_meters":26800,"station_id":"ce4bh292rcd13ifvqdf0","pricing_plan_id":"free"},{"bike_id":"e24e2701-7a0c-42dc-85cd-a94ed34fa67f","system_id":"levelo_inurba_marseille","lat":43.29871,"lon":5.39745,"is_reserved":false,"is_disabled":false,"rental_uris":{"android":"levelo://app?vid=e24e2701-7a0c-42dc-85cd-a94ed34fa67f","ios":"levelo://app?vid=e24e2701-7a0c-42dc-85cd-a94ed34fa67f"},"vehicle_type_id":"4","last_reported":1699052789,"current_range_meters":12000,"station_id":"ce4bh0h2rcd13ifvqd50","pricing_plan_id":"free"},{"bike_id":"947b9158-12a6-4a9a-bf22-63e8a7af1a66","system_id":"levelo_inurba_marseille","lat":43.295194,"lon":5.39397,"is_reserved":false,"is_disabled":false,"rental_uris":{"android":"levelo://app?vid=947b9158-12a6-4a9a-bf22-63e8a7af1a66","ios":"levelo://app?vid=947b9158-12a6-4a9a-bf22-63e8a7af1a66"},"vehicle_type_id":"4","last_reported":1699052789,"current_range_meters":25600,"station_id":"ce4bh292rcd13ifvqdf0","pricing_plan_id":"free"},{"bike_id":"60a38274-a745-4414-b58f-ff97604b1366","system_id":"levelo_inurba_marseille","lat":43.298681,"lon":5.397225,"is_reserved":false,"is_disabled":false,"rental_uris":{"android":"levelo://app?vid=60a38274-a745-4414-b58f-ff97604b1366","ios":"levelo://app?vid=60a38274-a745-4414-b58f-ff97604b1366"},"vehicle_type_id":"4","last_reported":1699052789,"current_range_meters":13200,"station_id":"ce4bh0h2rcd13ifvqd50","pricing_plan_id":"free"},{"bike_id":"4ead16af-d2a1-487a-b426-82c77009146e","system_id":"levelo_inurba_marseille","lat":43.302759,"lon":5.400793,"is_reserved":false,"is_disabled":false,"rental_uris":{"android":"levelo://app?vid=4ead16af-d2a1-487a-b426-82c77009146e","ios":"levelo://app?vid=4ead16af-d2a1-487a-b426-82c77009146e"},"vehicle_type_id":"4","last_reported":1699052789,"current_range_meters":28400,"station_id":"ce4bgvh2rcd13ifvqcs0","pricing_plan_id":"free"},{"bike_id":"95a9cc0f-da72-4880-b276-b6e507e3597d","system_id":"levelo_inurba_marseille","lat":43.28933,"lon":5.38396,"is_reserved":false,"is_disabled":false,"rental_uris":{"android":"levelo://app?vid=95a9cc0f-da72-4880-b276-b6e507e3597d","ios":"levelo://app?vid=95a9cc0f-da72-4880-b276-b6e507e3597d"},"vehicle_type_id":"4","last_reported":1699052789,"current_range_meters":20000,"station_id":"ce4bh612rcd13ifvqe6g","pricing_plan_id":"free"},{"bike_id":"4fe0f41d-dccf-435f-93a6-fb96b2c2b71e","system_id":"levelo_inurba_marseille","lat":43.302759,"lon":5.400793,"is_reserved":false,"is_disabled":false,"rental_uris":{"android":"levelo://app?vid=4fe0f41d-dccf-435f-93a6-fb96b2c2b71e","ios":"levelo://app?vid=4fe0f41d-dccf-435f-93a6-fb96b2c2b71e"},"vehicle_type_id":"4","last_reported":1699052789,"current_range_meters":31200,"station_id":"ce4bgvh2rcd13ifvqcs0","pricing_plan_id":"free"},{"bike_id":"54978390-65b7-4753-be04-6405b3bae4b1","system_id":"levelo_inurba_marseille","lat":43.302759,"lon":5.400793,"is_reserved":false,"is_disabled":false,"rental_uris":{"android":"levelo://app?vid=54978390-65b7-4753-be04-6405b3bae4b1","ios":"levelo://app?vid=54978390-65b7-4753-be04-6405b3bae4b1"},"vehicle_type_id":"4","last_reported":1699052789,"current_range_meters":28000,"station_id":"ce4bgvh2rcd13ifvqcs0","pricing_plan_id":"free"},{"bike_id":"6553a97f-1ddf-4560-89a8-e37f86212c37","system_id":"levelo_inurba_marseille","lat":43.302759,"lon":5.400793,"is_reserved":false,"is_disabled":false,"rental_uris":{"android":"levelo://app?vid=6553a97f-1ddf-4560-89a8-e37f86212c37","ios":"levelo://app?vid=6553a97f-1ddf-4560-89a8-e37f86212c37"},"vehicle_type_id":"4","last_reported":1699052789,"current_range_meters":24400,"station_id":"ce4bgvh2rcd13ifvqcs0","pricing_plan_id":"free"},{"bike_id":"57f0cb67-6f1f-446d-aa6d-5d1175b89ba3","system_id":"levelo_inurba_marseille","lat":43.28609,"lon":5.37066,"is_reserved":false,"is_disabled":false,"rental_uris":{"android":"levelo://app?vid=57f0cb67-6f1f-446d-aa6d-5d1175b89ba3","ios":"levelo://app?vid=57f0cb67-6f1f-446d-aa6d-5d1175b89ba3"},"vehicle_type_id":"4","last_reported":1699052789,"current_range_meters":24800,"station_id":"ce4bht12rcd13ifvqi60","pricing_plan_id":"free"},{"bike_id":"0f395e23-c73b-4e43-a3b9-0179f0029c73","system_id":"levelo_inurba_marseille","lat":43.286071,"lon":5.370703,"is_reserved":false,"is_disabled":false,"rental_uris":{"android":"levelo://app?vid=0f395e23-c73b-4e43-a3b9-0179f0029c73","ios":"levelo://app?vid=0f395e23-c73b-4e43-a3b9-0179f0029c73"},"vehicle_type_id":"4","last_reported":1699052789,"current_range_meters":26800,"station_id":"ce4bht12rcd13ifvqi60","pricing_plan_id":"free"},