{"last_updated":1747523334,"ttl":60,"version":"2.2","data":{"bikes":[{"bike_id":"c0b9fd4f-e181-46ce-b0bf-f5119973334f","system_id":"levelo_inurba_marseille","lat":43.33771,"lon":5.37424,"is_reserved":false,"is_disabled":false,"rental_uris":{"android":"levelo://app?vid=c0b9fd4f-e181-46ce-b0bf-f5119973334f","ios":"levelo://app?vid=c0b9fd4f-e181-46ce-b0bf-f5119973334f"},"vehicle_type_id":"4","last_reported":1747523334,"current_range_meters":3600,"station_id":"","pricing_plan_id":"cebpf4jnsgd1na2vs0mg"},{"bike_id":"fc2577e7-1497-425b-9d4f-ab8d7dc843c6","system_id":"levelo_inurba_marseille","lat":43.33771,"lon":5.37485,"is_reserved":false,"is_disabled":true,"rental_uris":{"android":"levelo://app?vid=fc2577e7-1497-425b-9d4f-ab8d7dc843c6","ios":"levelo://app?vid=fc2577e7-1497-425b-9d4f-ab8d7dc843c6"},"vehicle_type_id":"4","last_reported":1747523334,"current_range_meters":0,"station_id":"","pricing_plan_id":"cebpf4jnsgd1na2vs0mg"},{"bike_id":"7e8f9622-74b3-4df1-9fba-94b450718227","system_id":"levelo_inurba_marseille","lat":43.287855,"lon":5.382357,"is_reserved":false,"is_disabled":true,"rental_uris":{"android":"levelo://app?vid=7e8f9622-74b3-4df1-9fba-94b450718227","ios":"levelo://app?vid=7e8f9622-74b3-4df1-9fba-94b450718227"},"vehicle_type_id":"4","last_reported":1747523334,"current_range_meters":0,"station_id":"","pricing_plan_id":"cebpf4jnsgd1na2vs0mg"},{"bike_id":"80d0d83f-909d-4568-b4e7-8a3ef4eed2de","system_id":"levelo_inurba_marseille","lat":43.254038,"lon":5.418965,"is_reserved":false,"is_disabled":true,"rental_uris":{"android":"levelo://app?vid=80d0d83f-909d-4568-b4e7-8a3ef4eed2de","ios":"levelo://app?vid=80d0d83f-909d-4568-b4e7-8a3ef4eed2de"},"vehicle_type_id":"4","last_reported":1747523334,"current_range_meters":0,"station_id":"","pricing_plan_id":"cebpf4jnsgd1na2vs0mg"},{"bike_id":"8a67ee22-e899-46db-bf38-31fcb7e4849f","system_id":"levelo_inurba_marseille","lat":43.2961,"lon":5.37732,"is_reserved":false,"is_disabled":true,"rental_uris":{"android":"levelo://app?vid=8a67ee22-e899-46db-bf38-31fcb7e4849f","ios":"levelo://app?vid=8a67ee22-e899-46db-bf38-31fcb7e4849f"},"vehicle_type_id":"4","last_reported":1747523334,"current_range_meters":0,"station_id":"","pricing_plan_id":"cebpf4jnsgd1na2vs0mg"},{"bike_id":"59e33bab-443b-4b82-946a-94b602858b07","system_id":"levelo_inurba_marseille","lat":43.28189,"lon":5.38446,"is_reserved":false,"is_disabled":true,"rental_uris":{"android":"levelo://app?vid=59e33bab-443b-4b82-946a-94b602858b07","ios":"levelo://app?vid=59e33bab-443b-4b82-946a-94b602858b07"},"vehicle_type_id":"4","last_reported":1747523334,"current_range_meters":0,"station_id":"","pricing_plan_id":"cebpf4jnsgd1na2vs0mg"},{"bike_id":"0b7b8d9e-a565-4a78-b09b-a8c868649f48","system_id":"levelo_inurba_marseille","lat":43.337444,"lon":5.374475,"is_reserved":false,"is_disabled":true,"rental_uris":{"android":"levelo://app?vid=0b7b8d9e-a565-4a78-b09b-a8c868649f48","ios":"levelo://app?vid=0b7b8d9e-a565-4a78-b09b-a8c868649f48"},"vehicle_type_id":"4","last_reported":1747523334,"current_range_meters":0,"station_id":"","pricing_plan_id":"cebpf4jnsgd1na2vs0mg"},{"bike_id":"ce4325af-2448-4172-bdec-81d552ee0b62","system_id":"levelo_inurba_marseille","lat":43.26164,"lon":5.42008,"is_reserved":false,"is_disabled":true,"rental_uris":{"android":"levelo://app?vid=ce4325af-2448-4172-bdec-81d552ee0b62","ios":"levelo://app?vid=ce4325af-2448-4172-bdec-81d552ee0b62"},"vehicle_type_id":"4","last_reported":1747523334,"current_range_meters":0,"station_id":"","pricing_plan_id":"cebpf4jnsgd1na2vs0mg"},{"bike_id":"23939faf-d206-4b93-ade4-199417584041","system_id":"levelo_inurba_marseille","lat":43.24948,"lon":5.37559,"is_reserved":false,"is_disabled":true,"rental_uris":{"android":"levelo://app?vid=23939faf-d206-4b93-ade4-199417584041","ios":"levelo://app?vid=23939faf-d206-4b93-ade4-199417584041"},"vehicle_type_id":"4","last_reported":1747523334,"current_range_meters":0,"station_id":"","pricing_plan_id":"cebpf4jnsgd1na2vs0mg"},{"bike_id":"c94af0c5-fcda-4413-885f-4b4f3e453db7","system_id":"levelo_inurba_marseille","lat":43.24549,"lon":5.37329,"is_reserved":false,"is_disabled":true,"rental_uris":{"android":"levelo://app?vid=c94af0c5-fcda-4413-885f-4b4f3e453db7","ios":"levelo://app?vid=c94af0c5-fcda-4413-885f-4b4f3e453db7"},"vehicle_type_id":"4","last_reported":1747523334,"current_range_meters":0,"station_id":"","pricing_plan_id":"cebpf4jnsgd1na2vs0mg"},{"bike_id":"792567c6-0442-4011-aff0-9c05e25deb48","system_id":"levelo_inurba_marseille","lat":43.337444,"lon":5.374475,"is_reserved":false,"is_disabled":true,"rental_uris":{"android":"levelo://app?vid=792567c6-0442-4011-aff0-9c05e25deb48","ios":"levelo://app?vid=792567c6-0442-4011-aff0-9c05e25deb48"},"vehicle_type_id":"4","last_reported":1747523334,"current_range_meters":0,"station_id":"","pricing_plan_id":"cebpf4jnsgd1na2vs0mg"},{"bike_id":"bb0baa39-1e01-43e0-a77c-5ba8d631e8a2","system_id":"levelo_inurba_marseille","lat":43.27265,"lon":5.38538,"is_reserved":false,"is_disabled":true,"rental_uris":{"android":"levelo://app?vid=bb0baa39-1e01-43e0-a77c-5ba8d631e8a2","ios":"levelo://app?vid=bb0baa39-1e01-43e0-a77c-5ba8d631e8a2"},"vehicle_type_id":"4","last_reported":1747523334,"current_range_meters":0,"station_id":"","pricing_plan_id":"cebpf4jnsgd1na2vs0mg"},{"bike_id":"b77386f6-d95e-4896-90f8-463e136a5631","system_id":"levelo_inurba_marseille","lat":43.2931,"lon":5.37455,"is_reserved":false,"is_disabled":true,"rental_uris":{"android":"levelo://app?vid=b77386f6-d95e-4896-90f8-463e136a5631","ios":"levelo://app?vid=b77386f6-d95e-4896-90f8-463e136a5631"},"vehicle_type_id":"4","last_reported":1747523334,"current_range_meters":0,"station_id":"ce4bgi12rcd13ifvqb70","pricing_plan_id":"cebpf4jnsgd1na2vs0mg"},{"bike_id":"a915da08-5621-4abf-afcd-b10cf6d04b89","system_id":"levelo_inurba_marseille","lat":43.295337,"lon":5.375019,"is_reserved":false,"is_disabled":true,"rental_uris":{"android":"levelo://app?vid=a915da08-5621-4abf-afcd-b10cf6d04b89","ios":"levelo://app?vid=a915da08-5621-4abf-afcd-b10cf6d04b89"},"vehicle_type_id":"4","last_reported":1747523334,"current_range_meters":0,"station_id":"ce4bgkp2rcd13ifvqbmg","pricing_plan_id":"cebpf4jnsgd1na2vs0mg"},{"bike_id":"a5033b18-066a-4230-b4e3-ba83e3434b14","system_id":"levelo_inurba_marseille","lat":43.30884,"lon":5.37189,"is_reserved":false,"is_disabled":true,"rental_uris":{"android":"levelo://app?vid=a5033b18-066a-4230-b4e3-ba83e3434b14","ios":"levelo://app?vid=a5033b18-066a-4230-b4e3-ba83e3434b14"},"vehicle_type_id":"4","last_reported":1747523334,"current_range_meters":0,"station_id":"ce4bguh2rcd13ifvqckg","pricing_plan_id":"cebpf4jnsgd1na2vs0mg"},{"bike_id":"9100749d-be08-42e9-8f5e-3f7e1ef6b100","system_id":"levelo_inurba_marseille","lat":43.30247,"lon":5.40063,"is_reserved":false,"is_disabled":true,"rental_uris":{"android":"levelo://app?vid=9100749d-be08-42e9-8f5e-3f7e1ef6b100","ios":"levelo://app?vid=9100749d-be08-42e9-8f5e-3f7e1ef6b100"},"vehicle_type_id":"4","last_reported":1747523334,"current_range_meters":0,"station_id":"ce4bgvh2rcd13ifvqcs0","pricing_plan_id":"cebpf4jnsgd1na2vs0mg"},{"bike_id":"d14921dd-efe4-4551-95fb-eb2126c9aea9","system_id":"levelo_inurba_marseille","lat":43.28484,"lon":5.3856,"is_reserved":false,"is_disabled":true,"rental_uris":{"android":"levelo://app?vid=d14921dd-efe4-4551-95fb-eb2126c9aea9","ios":"levelo://app?vid=d14921dd-efe4-4551-95fb-eb2126c9aea9"},"vehicle_type_id":"4","last_reported":1747523334,"current_range_meters":0,"station_id":"ce4bh8p2rcd13ifvqeb0","pricing_plan_id":"cebpf4jnsgd1na2vs0mg"},{"bike_id":"cb977ed9-a3ad-487e-8bd4-4c281ceed186","system_id":"levelo_inurba_marseille","lat":43.28268,"lon":5.35063,"is_reserved":false,"is_disabled":true,"rental_uris":{"android":"levelo://app?vid=cb977ed9-a3ad-487e-8bd4-4c281ceed186","ios":"levelo://app?vid=cb977ed9-a3ad-487e-8bd4-4c281ceed186"},"vehicle_type_id":"4","last_reported":1747523334,"current_range_meters":0,"station_id":"ce4bhbp2rcd13ifvqerg","pricing_plan_id":"cebpf4jnsgd1na2vs0mg"},{"bike_id":"c77eb0ef-4e6c-4c84-965d-05b071de57be","system_id":"levelo_inurba_marseille","lat":43.26551,"lon":5.37287,"is_reserved":false,"is_disabled":true,"rental_uris":{"android":"levelo://app?vid=c77eb0ef-4e6c-4c84-965d-05b071de57be","ios":"levelo://app?vid=c77eb0ef-4e6c-4c84-965d-05b071de57be"},"vehicle_type_id":"4","last_reported":1747523334,"current_range_meters":0,"station_id":"ce4bhg12rcd13ifvqf70","pricing_plan_id":"cebpf4jnsgd1na2vs0mg"},{"bike_id":"9c62cbe5-365c-4a4d-a88b-f3470c604186","system_id":"levelo_inurba_marseille","lat":43.2781,"lon":5.40718,"is_reserved":false,"is_disabled":true,"rental_uris":{"android":"levelo://app?vid=9c62cbe5-365c-4a4d-a88b-f3470c604186","ios":"levelo://app?vid=9c62cbe5-365c-4a4d-a88b-f3470c604186"},"vehicle_type_id":"4","last_reported":1747523334,"current_range_meters":0,"station_id":"ce4bhnh2rcd13ifvqgtg","pricing_plan_id":"cebpf4jnsgd1na2vs0mg"},{"bike_id":"4e5cfbec-6aac-4ee7-ac9c-110bf218aee5","system_id":"levelo_inurba_marseille","lat":43.281623,"lon":5.426547,"is_reserved":false,"is_disabled":true,"rental_uris":{"android":"levelo://app?vid=4e5cfbec-6aac-4ee7-ac9c-110bf218aee5","ios":"levelo://app?vid=4e5cfbec-6aac-4ee7-ac9c-110bf218aee5"},"vehicle_type_id":"4","last_reported":1747523334,"current_range_meters":0,"station_id":"ce4bhnh2rcd13ifvqgug","pricing_plan_id":"cebpf4jnsgd1na2vs0mg"},{"bike_id":"bccd608b-c3e3-46dc-8bf6-d46fa3400a4b","system_id":"levelo_inurba_marseille","lat":43.3035,"lon":5.41866,"is_reserved":false,"is_disabled":true,"rental_uris":{"android":"levelo://app?vid=bccd608b-c3e3-46dc-8bf6-d46fa3400a4b","ios":"levelo://app?vid=bccd608b-c3e3-46dc-8bf6-d46fa3400a4b"},"vehicle_type_id":"4","last_reported":1747523334,"current_range_meters":0,"station_id":"ce4bhop2rcd13ifvqh7g","pricing_plan_id":"cebpf4jnsgd1na2vs0mg"},{"bike_id":"79014c20-9fb3-4bde-888f-87cd4445595a","system_id":"levelo_inurba_marseille","lat":43.31715,"lon":5.423907,"is_reserved":false,"is_disabled":true,"rental_uris":{"android":"levelo://app?vid=79014c20-9fb3-4bde-888f-87cd4445595a","ios":"levelo://app?vid=79014c20-9fb3-4bde-888f-87cd4445595a"},"vehicle_type_id":"4","last_reported":1747523334,"current_range_meters":0,"station_id":"ce4bhp92rcd13ifvqhbg","pricing_plan_id":"cebpf4jnsgd1na2vs0mg"},{"bike_id":"91f4d74d-8cd6-4144-a459-36736ff88fa3","system_id":"levelo_inurba_marseille","lat":43.32539,"lon":5.41422,"is_reserved":false,"is_disabled":true,"rental_uris":{"android":"levelo://app?vid=91f4d74d-8cd6-4144-a459-36736ff88fa3","ios":"levelo://app?vid=91f4d74d-8cd6-4144-a459-36736ff88fa3"},"vehicle_type_id":"4","last_reported":1747523334,"current_range_meters":0,"station_id":"ce4bhq12rcd13ifvqhhg","pricing_plan_id":"cebpf4jnsgd1na2vs0mg"},{"bike_id":"761f97ef-3d44-49e1-a980-dbcf9a00e013","system_id":"levelo_inurba_marseille","lat":43.22502,"lon":5.34763,"is_reserved":false,"is_disabled":true,"rental_uris":{"android":"levelo://app?vid=761f97ef-3d44-49e1-a980-dbcf9a00e013","ios":"levelo://app?vid=761f97ef-3d44-49e1-a980-dbcf9a00e013"},"vehicle_type_id":"4","last_reported":1747523334,"current_range_meters":0,"station_id":"st_cvj5dfep6f1abm77gieg","pricing_plan_id":"cebpf4jnsgd1na2vs0mg"},{"bike_id":"78a72d2e-086e-4202-8619-96d6a7e70ccc","system_id":"levelo_inurba_marseille","lat":43.283643,"lon":5.399016,"is_reserved":false,"is_disabled":true,"rental_uris":{"android":"levelo://app?vid=78a72d2e-086e-4202-8619-96d6a7e70ccc","ios":"levelo://app?vid=78a72d2e-086e-4202-8619-96d6a7e70ccc"},"vehicle_type_id":"4","last_reported":1747523334,"current_range_meters":400,"station_id":"","pricing_plan_id":"cebpf4jnsgd1na2vs0mg"},{"bike_id":"78e93374-98ab-4902-994e-50dbcdac3199","system_id":"levelo_inurba_marseille","lat":43.28848,"lon":5.39311,"is_reserved":false,"is_disabled":true,"rental_uris":{"android":"levelo://app?vid=78e93374-98ab-4902-994e-50dbcdac3199","ios":"levelo://app?vid=78e93374-98ab-4902-994e-50dbcdac3199"},"vehicle_type_id":"4","last_reported":1747523334,"current_range_meters":400,"station_id":"ce4bh2p2rcd13ifvqdi0","pricing_plan_id":"cebpf4jnsgd1na2vs0mg"},{"bike_id":"e62b182d-4f96-430c-8805-6434088e3bd0","system_id":"levelo_inurba_marseille","lat":43.24814,"lon":5.3746,"is_reserved":false,"is_disabled":true,"rental_uris":{"android":"levelo://app?vid=e62b182d-4f96-430c-8805-6434088e3bd0","ios":"levelo://app?vid=e62b182d-4f96-430c-8805-6434088e3bd0"},"vehicle_type_id":"4","last_reported":1747523334,"current_range_meters":400,"station_id":"ce4bhgh2rcd13ifvqfb0","pricing_plan_id":"cebpf4jnsgd1na2vs0mg"},{"bike_id":"e83e1a34-3c6b-4b39-b6c2-57fd55530e73","system_id":"levelo_inurba_marseille","lat":43.27623,"lon":5.3611,"is_reserved":false,"is_disabled":true,"rental_uris":{"android":"levelo://app?vid=e83e1a34-3c6b-4b39-b6c2-57fd55530e73","ios":"levelo://app?vid=e83e1a34-3c6b-4b39-b6c2-57fd55530e73"},"vehicle_type_id":"4","last_reported":1747523334,"current_range_meters":800,"station_id":"ce4bgj92rcd13ifvqbe0","pricing_plan_id":"cebpf4jnsgd1na2vs0mg"},{"bike_id":"550b917b-ee99-432c-8213-e48cc7ede0a4","system_id":"levelo_inurba_marseille","lat":43.27373,"lon":5.362563,"is_reserved":false,"is_disabled":true,"rental_uris":{"android":"levelo://app?vid=550b917b-ee99-432c-8213-e48cc7ede0a4","ios":"levelo://app?vid=550b917b-ee99-432c-8213-e48cc7ede0a4"},"vehicle_type_id":"4","last_reported":1747523334,"current_range_meters":800,"station_id":"ce4bhbh2rcd13ifvqeo0","pricing_plan_id":"cebpf4jnsgd1na2vs0mg"},{"bike_id":"f632a678-8774-422c-81d6-2e35570ee319","system_id":"levelo_inurba_marseille","lat":43.25106,"lon":5.40331,"is_reserved":false,"is_disabled":true,"rental_uris":{"android":"levelo://app?vid=f632a678-8774-422c-81d6-2e35570ee319","ios":"levelo://app?vid=f632a678-8774-422c-81d6-2e35570ee319"},"vehicle_type_id":"4","last_reported":1747523334,"current_range_meters":800,"station_id":"ce4bhlh2rcd13ifvqgig","pricing_plan_id":"cebpf4jnsgd1na2vs0mg"},{"bike_id":"59f9598d-e110-4192-bc18-7a255f754535","system_id":"levelo_inurba_marseille","lat":43.217501,"lon":5.346021,"is_reserved":false,"is_disabled":true,"rental_uris":{"android":"levelo://app?vid=59f9598d-e110-4192-bc18-7a255f754535","ios":"levelo://app?vid=59f9598d-e110-4192-bc18-7a255f754535"},"vehicle_type_id":"4","last_reported":1747523334,"current_range_meters":800,"station_id":"st_cvj6r9ubvosntc0bgbag","pricing_plan_id":"cebpf4jnsgd1na2vs0mg"},{"bike_id":"d8911881-e82e-4c7b-963e-42a565f0cadb","system_id":"levelo_inurba_marseille","lat":43.27042,"lon":5.40717,"is_reserved":false,"is_disabled":true,"rental_uris":{"android":"levelo://app?vid=d8911881-e82e-4c7b-963e-42a565f0cadb","ios":"levelo://app?vid=d8911881-e82e-4c7b-963e-42a565f0cadb"},"vehicle_type_id":"4","last_reported":1747523334,"current_range_meters":1200,"station_id":"","pricing_plan_id":"cebpf4jnsgd1na2vs0mg"},{"bike_id":"167004c3-432d-4e4b-bfd1-36dec2658679","system_id":"levelo_inurba_marseille","lat":43.299946,"lon":5.375822,"is_reserved":false,"is_disabled":true,"rental_uris":{"android":"levelo://app?vid=167004c3-432d-4e4b-bfd1-36dec2658679","ios":"levelo://app?vid=167004c3-432d-4e4b-bfd1-36dec2658679"},"vehicle_type_id":"4","last_reported":1747523334,"current_range_meters":1200,"station_id":"ce4bgqh2rcd13ifvqc5g","pricing_plan_id":"cebpf4jnsgd1na2vs0mg"},{"bike_id":"15bdb2cb-60a0-4c42-8c18-0e6826a8f67b","system_id":"levelo_inurba_marseille","lat":43.274072,"lon":5.394152,"is_reserved":false,"is_disabled":true,"rental_uris":{"android":"levelo://app?vid=15bdb2cb-60a0-4c42-8c18-0e6826a8f67b","ios":"levelo://app?vid=15bdb2cb-60a0-4c42-8c18-0e6826a8f67b"},"vehicle_type_id":"4","last_reported":1747523334,"current_range_meters":1200,"station_id":"ce4bhdp2rcd13ifvqf20","pricing_plan_id":"cebpf4jnsgd1na2vs0mg"},{"bike_id":"a870f763-98f7-46d5-ac70-dd8136b807ad","system_id":"levelo_inurba_marseille","lat":43.260574,"lon":5.393964,"is_reserved":false,"is_disabled":true,"rental_uris":{"android":"levelo://app?vid=a870f763-98f7-46d5-ac70-dd8136b807ad","ios":"levelo://app?vid=a870f763-98f7-46d5-ac70-dd8136b807ad"},"vehicle_type_id":"4","last_reported":1747523334,"current_range_meters":1200,"station_id":"ce4bhh92rcd13ifvqfj0","pricing_plan_id":"cebpf4jnsgd1na2vs0mg"},{"bike_id":"75fecf2b-ed5e-44df-981f-1e4c861bf2f8","system_id":"levelo_inurba_marseille","lat":43.24386,"lon":5.37058,"is_reserved":false,"is_disabled":true,"rental_uris":{"android":"levelo://app?vid=75fecf2b-ed5e-44df-981f-1e4c861bf2f8","ios":"levelo://app?vid=75fecf2b-ed5e-44df-981f-1e4c861bf2f8"},"vehicle_type_id":"4","last_reported":1747523334,"current_range_meters":1200,"station_id":"ce4bhhh2rcd13ifvqfk0","pricing_plan_id":"cebpf4jnsgd1na2vs0mg"},{"bike_id":"ac74ea5f-a343-4763-ad31-fb8960bcc3b9","system_id":"levelo_inurba_marseille","lat":43.251182,"lon":5.403243,"is_reserved":false,"is_disabled":true,"rental_uris":{"android":"levelo://app?vid=ac74ea5f-a343-4763-ad31-fb8960bcc3b9","ios":"levelo://app?vid=ac74ea5f-a343-4763-ad31-fb8960bcc3b9"},"vehicle_type_id":"4","last_reported":1747523334,"current_range_meters":2000,"station_id":"ce4bhlh2rcd13ifvqgig","pricing_plan_id":"cebpf4jnsgd1na2vs0mg"},{"bike_id":"247923c1-8cb9-486a-8e5a-c9b973edfdcc","system_id":"levelo_inurba_marseille","lat":43.28407,"lon":5.37508,"is_reserved":false,"is_disabled":false,"rental_uris":{"android":"levelo://app?vid=247923c1-8cb9-486a-8e5a-c9b973edfdcc","ios":"levelo://app?vid=247923c1-8cb9-486a-8e5a-c9b973edfdcc"},"vehicle_type_id":"4","last_reported":1747523334,"current_range_meters":2800,"station_id":"ce4bh412rcd13ifvqds0","pricing_plan_id":"cebpf4jnsgd1na2vs0mg"},{"bike_id":"1b892b37-9949-435a-83a3-1f0366d4e6da","system_id":"levelo_inurba_marseille","lat":43.30245,"lon":5.40063,"is_reserved":false,"is_disabled":false,"rental_uris":{"android":"levelo://app?vid=1b892b37-9949-435a-83a3-1f0366d4e6da","ios":"levelo://app?vid=1b892b37-9949-435a-83a3-1f0366d4e6da"},"vehicle_type_id":"4","last_reported":1747523334,"current_range_meters":3200,"station_id":"ce4bgvh2rcd13ifvqcs0","pricing_plan_id":"cebpf4jnsgd1na2vs0mg"},{"bike_id":"3193ad55-2474-4440-81b7-a1e4a46d043c","system_id":"levelo_inurba_marseille","lat":43.28458,"lon":5.35891,"is_reserved":false,"is_disabled":false,"rental_uris":{"android":"levelo://app?vid=3193ad55-2474-4440-81b7-a1e4a46d043c","ios":"levelo://app?vid=3193ad55-2474-4440-81b7-a1e4a46d043c"},"vehicle_type_id":"4","last_reported":1747523334,"current_range_meters":3200,"station_id":"ce4bhah2rcd13ifvqei0","pricing_plan_id":"cebpf4jnsgd1na2vs0mg"},{"bike_id":"13a2bb50-d9d0-4fd0-9679-ec4d8dec6129","system_id":"levelo_inurba_marseille","lat":43.27891,"lon":5.38016,"is_reserved":false,"is_disabled":false,"rental_uris":{"android":"levelo://app?vid=13a2bb50-d9d0-4fd0-9679-ec4d8dec6129","ios":"levelo://app?vid=13a2bb50-d9d0-4fd0-9679-ec4d8dec6129"},"vehicle_type_id":"4","last_reported":1747523334,"current_range_meters":3200,"station_id":"ce4bhf92rcd13ifvqf50","pricing_plan_id":"cebpf4jnsgd1na2vs0mg"},{"bike_id":"4a08e98b-6cd6-417f-a89f-cdba287205f7","system_id":"levelo_inurba_marseille","lat":43.29779,"lon":5.38115,"is_reserved":false,"is_disabled":false,"rental_uris":{"android":"levelo://app?vid=4a08e98b-6cd6-417f-a89f-cdba287205f7","ios":"levelo://app?vid=4a08e98b-6cd6-417f-a89f-cdba287205f7"},"vehicle_type_id":"4","last_reported":1747523334,"current_range_meters":4000,"station_id":"","pricing_plan_id":"cebpf4jnsgd1na2vs0mg"},{"bike_id":"e9dd3aa4-b5e7-4480-926d-d7f537719bfa","system_id":"levelo_inurba_marseille","lat":43.23006,"lon":5.40189,"is_reserved":false,"is_disabled":false,"rental_uris":{"android":"levelo://app?vid=e9dd3aa4-b5e7-4480-926d-d7f537719bfa","ios":"levelo://app?vid=e9dd3aa4-b5e7-4480-926d-d7f537719bfa"},"vehicle_type_id":"4","last_reported":1747523334,"current_range_meters":4000,"station_id":"","pricing_plan_id":"cebpf4jnsgd1na2vs0mg"},{"bike_id":"ed0e90fa-98c9-4440-8a43-d592dca713fc","system_id":"levelo_inurba_marseille","lat":43.287675,"lon":5.390107,"is_reserved":false,"is_disabled":false,"rental_uris":{"android":"levelo://app?vid=ed0e90fa-98c9-4440-8a43-d592dca713fc","ios":"levelo://app?vid=ed0e90fa-98c9-4440-8a43-d592dca713fc"},"vehicle_type_id":"4","last_reported":1747523334,"current_range_meters":4000,"station_id":"ce4bh2p2rcd13ifvqdi0","pricing_plan_id":"cebpf4jnsgd1na2vs0mg"},{"bike_id":"8e733541-fd75-4317-8f11-f26c38aca832","system_id":"levelo_inurba_marseille","lat":43.241785,"lon":5.397321,"is_reserved":false,"is_disabled":false,"rental_uris":{"android":"levelo://app?vid=8e733541-fd75-4317-8f11-f26c38aca832","ios":"levelo://app?vid=8e733541-fd75-4317-8f11-f26c38aca832"},"vehicle_type_id":"4","last_reported":1747523334,"current_range_meters":4000,"station_id":"ce4bhn12rcd13ifvqgpg","pricing_plan_id":"cebpf4jnsgd1na2vs0mg"},{"bike_id":"03921903-6b5d-43cc-9b01-96ff9c50c166","system_id":"levelo_inurba_marseille","lat":43.23171,"lon":5.39986,"is_reserved":false,"is_disabled":false,"rental_uris":{"android":"levelo://app?vid=03921903-6b5d-43cc-9b01-96ff9c50c166","ios":"levelo://app?vid=03921903-6b5d-43cc-9b01-96ff9c50c166"},"vehicle_type_id":"4","last_reported":1747523334,"current_range_meters":4000,"station_id":"ce4bhn12rcd13ifvqgqg","pricing_plan_id":"cebpf4jnsgd1na2vs0mg"},{"bike_id":"76235c6d-5d23-4c93-9da4-b171bfb8961c","system_id":"levelo_inurba_marseille","lat":43.29969,"lon":5.37169,"is_reserved":false,"is_disabled":false,"rental_uris":{"android":"levelo://app?vid=76235c6d-5d23-4c93-9da4-b171bfb8961c","ios":"levelo://app?vid=76235c6d-5d23-4c93-9da4-b171bfb8961c"},"vehicle_type_id":"4","last_reported":1747523334,"current_range_meters":4400,"station_id":"ce4bgr92rcd13ifvqc7g","pricing_plan_id":"cebpf4jnsgd1na2vs0mg"},{"bike_id":"d796888f-19f7-44cb-b77a-5927886255b3","system_id":"levelo_inurba_marseille","lat":43.30464,"lon":5.37908,"is_reserved":false,"is_disabled":false,"rental_uris":{"android":"levelo://app?vid=d796888f-19f7-44cb-b77a-5927886255b3","ios":"levelo://app?vid=d796888f-19f7-44cb-b77a-5927886255b3"},"vehicle_type_id":"4","last_reported":1747523334,"current_range_meters":4400,"station_id":"ce4bgup2rcd13ifvqcn0","pricing_plan_id":"cebpf4jnsgd1na2vs0mg"},{"bike_id":"566adc86-6127-44ab-8e50-1918798c55f9","system_id":"levelo_inurba_marseille","lat":43.24665,"lon":5.38163,"is_reserved":false,"is_disabled":false,"rental_uris":{"android":"levelo://app?vid=566adc86-6127-44ab-8e50-1918798c55f9","ios":"levelo://app?vid=566adc86-6127-44ab-8e50-1918798c55f9"},"vehicle_type_id":"4","last_reported":1747523334,"current_range_meters":4400,"station_id":"ce4bhih2rcd13ifvqfr0","pricing_plan_id":"cebpf4jnsgd1na2vs0mg"},{"bike_id":"68e3d075-c8d2-4c17-85a4-31baebb175fc","system_id":"levelo_inurba_marseille","lat":43.23594,"lon":5.40348,"is_reserved":false,"is_disabled":false,"rental_uris":{"android":"levelo://app?vid=68e3d075-c8d2-4c17-85a4-31baebb175fc","ios":"levelo://app?vid=68e3d075-c8d2-4c17-85a4-31baebb175fc"},"vehicle_type_id":"4","last_reported":1747523334,"current_range_meters":4800,"station_id":"","pricing_plan_id":"cebpf4jnsgd1na2vs0mg"},{"bike_id":"a377e757-06fa-4e74-a459-39953c1a6a0b","system_id":"levelo_inurba_marseille","lat":43.287,"lon":5.37401,"is_reserved":false,"is_disabled":false,"rental_uris":{"android":"levelo://app?vid=a377e757-06fa-4e74-a459-39953c1a6a0b","ios":"levelo://app?vid=a377e757-06fa-4e74-a459-39953c1a6a0b"},"vehicle_type_id":"4","last_reported":1747523334,"current_range_meters":4800,"station_id":"ce4bh3p2rcd13ifvqdq0","pricing_plan_id":"cebpf4jnsgd1na2vs0mg"},{"bike_id":"f2b1768d-62c3-46de-93f0-887c0475cb42","system_id":"levelo_inurba_marseille","lat":43.28038,"lon":5.36944,"is_reserved":false,"is_disabled":false,"rental_uris":{"android":"levelo://app?vid=f2b1768d-62c3-46de-93f0-887c0475cb42","ios":"levelo://app?vid=f2b1768d-62c3-46de-93f0-887c0475cb42"},"vehicle_type_id":"4","last_reported":1747523334,"current_range_meters":4800,"station_id":"ce4bha12rcd13ifvqef0","pricing_plan_id":"cebpf4jnsgd1na2vs0mg"},{"bike_id":"8fa791da-5aef-4b1f-a1a3-d532be58bee4","system_id":"levelo_inurba_marseille","lat":43.29001,"lon":5.3561,"is_reserved":false,"is_disabled":false,"rental_uris":{"android":"levelo://app?vid=8fa791da-5aef-4b1f-a1a3-d532be58bee4","ios":"levelo://app?vid=8fa791da-5aef-4b1f-a1a3-d532be58bee4"},"vehicle_type_id":"4","last_reported":1747523334,"current_range_meters":4800,"station_id":"ce4bhb92rcd13ifvqen0","pricing_plan_id":"cebpf4jnsgd1na2vs0mg"},{"bike_id":"94b47f84-5aa4-4d95-aa49-bb10bfb164fa","system_id":"levelo_inurba_marseille","lat":43.3414,"lon":5.409,"is_reserved":false,"is_disabled":false,"rental_uris":{"android":"levelo://app?vid=94b47f84-5aa4-4d95-aa49-bb10bfb164fa","ios":"levelo://app?vid=94b47f84-5aa4-4d95-aa49-bb10bfb164fa"},"vehicle_type_id":"4","last_reported":1747523334,"current_range_meters":4800,"station_id":"ce4bhqh2rcd13ifvqhlg","pricing_plan_id":"cebpf4jnsgd1na2vs0mg"},{"bike_id":"6e612e7b-28be-478c-9618-97651a5de57b","system_id":"levelo_inurba_marseille","lat":43.24656,"lon":5.39585,"is_reserved":false,"is_disabled":false,"rental_uris":{"android":"levelo://app?vid=6e612e7b-28be-478c-9618-97651a5de57b","ios":"levelo://app?vid=6e612e7b-28be-478c-9618-97651a5de57b"},"vehicle_type_id":"4","last_reported":1747523334,"current_range_meters":5600,"station_id":"","pricing_plan_id":"cebpf4jnsgd1na2vs0mg"},{"bike_id":"a4063de7-3465-4b39-9bf8-ef1a75de7c2d","system_id":"levelo_inurba_marseille","lat":43.285814,"lon":5.460837,"is_reserved":false,"is_disabled":false,"rental_uris":{"android":"levelo://app?vid=a4063de7-3465-4b39-9bf8-ef1a75de7c2d","ios":"levelo://app?vid=a4063de7-3465-4b39-9bf8-ef1a75de7c2d"},"vehicle_type_id":"4","last_reported":1747523334,"current_range_meters":5600,"station_id":"","pricing_plan_id":"cebpf4jnsgd1na2vs0mg"},{"bike_id":"c4842f2c-2caf-42cd-a69f-adb966206205","system_id":"levelo_inurba_marseille","lat":43.30427,"lon":5.38883,"is_reserved":false,"is_disabled":false,"rental_uris":{"android":"levelo://app?vid=c4842f2c-2caf-42cd-a69f-adb966206205","ios":"levelo://app?vid=c4842f2c-2caf-42cd-a69f-adb966206205"},"vehicle_type_id":"4","last_reported":1747523334,"current_range_meters":5600,"station_id":"ce4bgk12rcd13ifvqbi0","pricing_plan_id":"cebpf4jnsgd1na2vs0mg"},{"bike_id":"6906f954-bb21-4ff3-9038-904a598decd8","system_id":"levelo_inurba_marseille","lat":43.287,"lon":5.37387,"is_reserved":false,"is_disabled":false,"rental_uris":{"android":"levelo://app?vid=6906f954-bb21-4ff3-9038-904a598decd8","ios":"levelo://app?vid=6906f954-bb21-4ff3-9038-904a598decd8"},"vehicle_type_id":"4","last_reported":1747523334,"current_range_meters":5600,"station_id":"ce4bh3p2rcd13ifvqdq0","pricing_plan_id":"cebpf4jnsgd1na2vs0mg"},{"bike_id":"18524f64-02db-44be-879b-785127c15095","system_id":"levelo_inurba_marseille","lat":43.25812,"lon":5.39428,"is_reserved":false,"is_disabled":false,"rental_uris":{"android":"levelo://app?vid=18524f64-02db-44be-879b-785127c15095","ios":"levelo://app?vid=18524f64-02db-44be-879b-785127c15095"},"vehicle_type_id":"4","last_reported":1747523334,"current_range_meters":5600,"station_id":"ce4bhip2rcd13ifvqft0","pricing_plan_id":"cebpf4jnsgd1na2vs0mg"},{"bike_id":"476e55d2-99d2-4ac6-b77c-2a95345a9fc0","system_id":"levelo_inurba_marseille","lat":43.27807,"lon":5.40712,"is_reserved":false,"is_disabled":false,"rental_uris":{"android":"levelo://app?vid=476e55d2-99d2-4ac6-b77c-2a95345a9fc0","ios":"levelo://app?vid=476e55d2-99d2-4ac6-b77c-2a95345a9fc0"},"vehicle_type_id":"4","last_reported":1747523334,"current_range_meters":5600,"station_id":"ce4bhnh2rcd13ifvqgtg","pricing_plan_id":"cebpf4jnsgd1na2vs0mg"},{"bike_id":"412b7944-d9c6-437d-84f1-edf0f9988092","system_id":"levelo_inurba_marseille","lat":43.295757,"lon":5.422792,"is_reserved":false,"is_disabled":false,"rental_uris":{"android":"levelo://app?vid=412b7944-d9c6-437d-84f1-edf0f9988092","ios":"levelo://app?vid=412b7944-d9c6-437d-84f1-edf0f9988092"},"vehicle_type_id":"4","last_reported":1747523334,"current_range_meters":5600,"station_id":"ce4bhph2rcd13ifvqhdg","pricing_plan_id":"cebpf4jnsgd1na2vs0mg"},{"bike_id":"69aa41dd-00d4-4743-85c7-2382bfa71cba","system_id":"levelo_inurba_marseille","lat":43.28443,"lon":5.39193,"is_reserved":false,"is_disabled":false,"rental_uris":{"android":"levelo://app?vid=69aa41dd-00d4-4743-85c7-2382bfa71cba","ios":"levelo://app?vid=69aa41dd-00d4-4743-85c7-2382bfa71cba"},"vehicle_type_id":"4","last_reported":1747523334,"current_range_meters":6000,"station_id":"ce4bhoh2rcd13ifvqh5g","pricing_plan_id":"cebpf4jnsgd1na2vs0mg"},{"bike_id":"6f0eb859-c354-4ec9-9ed0-fc59fdc99960","system_id":"levelo_inurba_marseille","lat":43.31724,"lon":5.42382,"is_reserved":false,"is_disabled":false,"rental_uris":{"android":"levelo://app?vid=6f0eb859-c354-4ec9-9ed0-fc59fdc99960","ios":"levelo://app?vid=6f0eb859-c354-4ec9-9ed0-fc59fdc99960"},"vehicle_type_id":"4","last_reported":1747523334,"current_range_meters":6000,"station_id":"ce4bhp92rcd13ifvqhbg","pricing_plan_id":"cebpf4jnsgd1na2vs0mg"},{"bike_id":"3fa58c22-00c6-48db-914d-ec2861a3d890","system_id":"levelo_inurba_marseille","lat":43.31075,"lon":5.402225,"is_reserved":false,"is_disabled":false,"rental_uris":{"android":"levelo://app?vid=3fa58c22-00c6-48db-914d-ec2861a3d890","ios":"levelo://app?vid=3fa58c22-00c6-48db-914d-ec2861a3d890"},"vehicle_type_id":"4","last_reported":1747523334,"current_range_meters":6400,"station_id":"","pricing_plan_id":"cebpf4jnsgd1na2vs0mg"},{"bike_id":"4e3887f9-e7b2-4189-aaca-af9fc375aa32","system_id":"levelo_inurba_marseille","lat":43.30102,"lon":5.39085,"is_reserved":false,"is_disabled":false,"rental_uris":{"android":"levelo://app?vid=4e3887f9-e7b2-4189-aaca-af9fc375aa32","ios":"levelo://app?vid=4e3887f9-e7b2-4189-aaca-af9fc375aa32"},"vehicle_type_id":"4","last_reported":1747523334,"current_range_meters":6400,"station_id":"ce4bh192rcd13ifvqdb0","pricing_plan_id":"cebpf4jnsgd1na2vs0mg"},{"bike_id":"68364eed-5b57-4b53-9405-fc8f34be9c52","system_id":"levelo_inurba_marseille","lat":43.27922,"lon":5.39586,"is_reserved":false,"is_disabled":false,"rental_uris":{"android":"levelo://app?vid=68364eed-5b57-4b53-9405-fc8f34be9c52","ios":"levelo://app?vid=68364eed-5b57-4b53-9405-fc8f34be9c52"},"vehicle_type_id":"4","last_reported":1747523334,"current_range_meters":6400,"station_id":"ce4bhf92rcd13ifvqf40","pricing_plan_id":"cebpf4jnsgd1na2vs0mg"},{"bike_id":"8d0605c7-c504-4d3f-a225-d74b87044891","system_id":"levelo_inurba_marseille","lat":43.27876,"lon":5.380954,"is_reserved":false,"is_disabled":false,"rental_uris":{"android":"levelo://app?vid=8d0605c7-c504-4d3f-a225-d74b87044891","ios":"levelo://app?vid=8d0605c7-c504-4d3f-a225-d74b87044891"},"vehicle_type_id":"4","last_reported":1747523334,"current_range_meters":6400,"station_id":"ce4bhf92rcd13ifvqf50","pricing_plan_id":"cebpf4jnsgd1na2vs0mg"},{"bike_id":"5e16ea8f-95fb-446c-ab51-fae1112c0aff","system_id":"levelo_inurba_marseille","lat":43.25925,"lon":5.40902,"is_reserved":false,"is_disabled":false,"rental_uris":{"android":"levelo://app?vid=5e16ea8f-95fb-446c-ab51-fae1112c0aff","ios":"levelo://app?vid=5e16ea8f-95fb-446c-ab51-fae1112c0aff"},"vehicle_type_id":"4","last_reported":1747523334,"current_range_meters":6400,"station_id":"ce4bhm92rcd13ifvqglg","pricing_plan_id":"cebpf4jnsgd1na2vs0mg"},{"bike_id":"6cd5c425-f8ac-4068-b8ea-a8bfbef29ee5","system_id":"levelo_inurba_marseille","lat":43.249941,"lon":5.379334,"is_reserved":false,"is_disabled":false,"rental_uris":{"android":"levelo://app?vid=6cd5c425-f8ac-4068-b8ea-a8bfbef29ee5","ios":"levelo://app?vid=6cd5c425-f8ac-4068-b8ea-a8bfbef29ee5"},"vehicle_type_id":"4","last_reported":1747523334,"current_range_meters":6800,"station_id":"","pricing_plan_id":"cebpf4jnsgd1na2vs0mg"},{"bike_id":"36b1745a-43fa-4776-bad2-1802bcb8f390","system_id":"levelo_inurba_marseille","lat":43.29796,"lon":5.40407,"is_reserved":false,"is_disabled":false,"rental_uris":{"android":"levelo://app?vid=36b1745a-43fa-4776-bad2-1802bcb8f390","ios":"levelo://app?vid=36b1745a-43fa-4776-bad2-1802bcb8f390"},"vehicle_type_id":"4","last_reported":1747523334,"current_range_meters":6800,"station_id":"ce4bh112rcd13ifvqd90","pricing_plan_id":"cebpf4jnsgd1na2vs0mg"},{"bike_id":"c15dbf6e-14f9-4a28-9b6e-d1cfada22015","system_id":"levelo_inurba_marseille","lat":43.29256,"lon":5.36849,"is_reserved":false,"is_disabled":false,"rental_uris":{"android":"levelo://app?vid=c15dbf6e-14f9-4a28-9b6e-d1cfada22015","ios":"levelo://app?vid=c15dbf6e-14f9-4a28-9b6e-d1cfada22015"},"vehicle_type_id":"4","last_reported":1747523334,"current_range_meters":6800,"station_id":"ce4bhbp2rcd13ifvqesg","pricing_plan_id":"cebpf4jnsgd1na2vs0mg"},{"bike_id":"3d1a6ddd-db33-4efd-a96c-363b26846597","system_id":"levelo_inurba_marseille","lat":43.25492,"lon":5.3765,"is_reserved":false,"is_disabled":false,"rental_uris":{"android":"levelo://app?vid=3d1a6ddd-db33-4efd-a96c-363b26846597","ios":"levelo://app?vid=3d1a6ddd-db33-4efd-a96c-363b26846597"},"vehicle_type_id":"4","last_reported":1747523334,"current_range_meters":6800,"station_id":"ce4bhh12rcd13ifvqff0","pricing_plan_id":"cebpf4jnsgd1na2vs0mg"},{"bike_id":"e2fc8af1-f5b5-4887-bcc2-61f17df64fdc","system_id":"levelo_inurba_marseille","lat":43.24661,"lon":5.38156,"is_reserved":false,"is_disabled":false,"rental_uris":{"android":"levelo://app?vid=e2fc8af1-f5b5-4887-bcc2-61f17df64fdc","ios":"levelo://app?vid=e2fc8af1-f5b5-4887-bcc2-61f17df64fdc"},"vehicle_type_id":"4","last_reported":1747523334,"current_range_meters":6800,"station_id":"ce4bhih2rcd13ifvqfr0","pricing_plan_id":"cebpf4jnsgd1na2vs0mg"},{"bike_id":"3b843dca-d67a-4b0e-916b-710ebb36ec6d","system_id":"levelo_inurba_marseille","lat":43.32513,"lon":5.401353,"is_reserved":false,"is_disabled":false,"rental_uris":{"android":"levelo://app?vid=3b843dca-d67a-4b0e-916b-710ebb36ec6d","ios":"levelo://app?vid=3b843dca-d67a-4b0e-916b-710ebb36ec6d"},"vehicle_type_id":"4","last_reported":1747523334,"current_range_meters":7200,"station_id":"","pricing_plan_id":"cebpf4jnsgd1na2vs0mg"},{"bike_id":"c7060397-596a-4fa4-b91a-9b4c2eae310b","system_id":"levelo_inurba_marseille","lat":43.30263,"lon":5.40047,"is_reserved":false,"is_disabled":false,"rental_uris":{"android":"levelo://app?vid=c7060397-596a-4fa4-b91a-9b4c2eae310b","ios":"levelo://app?vid=c7060397-596a-4fa4-b91a-9b4c2eae310b"},"vehicle_type_id":"4","last_reported":1747523334,"current_range_meters":7200,"station_id":"ce4bgvh2rcd13ifvqcs0","pricing_plan_id":"cebpf4jnsgd1na2vs0mg"},{"bike_id":"fd8cc24a-6707-458f-be40-b0fcf29dedae","system_id":"levelo_inurba_marseille","lat":43.28574,"lon":5.39503,"is_reserved":false,"is_disabled":false,"rental_uris":{"android":"levelo://app?vid=fd8cc24a-6707-458f-be40-b0fcf29dedae","ios":"levelo://app?vid=fd8cc24a-6707-458f-be40-b0fcf29dedae"},"vehicle_type_id":"4","last_reported":1747523334,"current_range_meters":7200,"station_id":"ce4bh292rcd13ifvqdg0","pricing_plan_id":"cebpf4jnsgd1na2vs0mg"},{"bike_id":"2bdbf59f-e481-4844-905c-61239f926a33","system_id":"levelo_inurba_marseille","lat":43.231783,"lon":5.39985,"is_reserved":false,"is_disabled":false,"rental_uris":{"android":"levelo://app?vid=2bdbf59f-e481-4844-905c-61239f926a33","ios":"levelo://app?vid=2bdbf59f-e481-4844-905c-61239f926a33"},"vehicle_type_id":"4","last_reported":1747523334,"current_range_meters":7200,"station_id":"ce4bhn12rcd13ifvqgqg","pricing_plan_id":"cebpf4jnsgd1na2vs0mg"},{"bike_id":"1a2305d1-8be9-429f-ad5f-2c1b076bbdfc","system_id":"levelo_inurba_marseille","lat":43.2846,"lon":5.35877,"is_reserved":false,"is_disabled":false,"rental_uris":{"android":"levelo://app?vid=1a2305d1-8be9-429f-ad5f-2c1b076bbdfc","ios":"levelo://app?vid=1a2305d1-8be9-429f-ad5f-2c1b076bbdfc"},"vehicle_type_id":"4","last_reported":1747523334,"current_range_meters":8000,"station_id":"ce4bhah2rcd13ifvqei0","pricing_plan_id":"cebpf4jnsgd1na2vs0mg"},{"bike_id":"1e5a7839-d218-47a9-988d-f5fdcdfa5acb","system_id":"levelo_inurba_marseille","lat":43.258309,"lon":5.394439,"is_reserved":false,"is_disabled":false,"rental_uris":{"android":"levelo://app?vid=1e5a7839-d218-47a9-988d-f5fdcdfa5acb","ios":"levelo://app?vid=1e5a7839-d218-47a9-988d-f5fdcdfa5acb"},"vehicle_type_id":"4","last_reported":1747523334,"current_range_meters":8000,"station_id":"ce4bhip2rcd13ifvqft0","pricing_plan_id":"cebpf4jnsgd1na2vs0mg"},{"bike_id":"7711fff8-1c30-4c3a-aa27-6e5dbb51f698","system_id":"levelo_inurba_marseille","lat":43.251017,"lon":5.403234,"is_reserved":false,"is_disabled":false,"rental_uris":{"android":"levelo://app?vid=7711fff8-1c30-4c3a-aa27-6e5dbb51f698","ios":"levelo://app?vid=7711fff8-1c30-4c3a-aa27-6e5dbb51f698"},"vehicle_type_id":"4","last_reported":1747523334,"current_range_meters":8000,"station_id":"ce4bhlh2rcd13ifvqgig","pricing_plan_id":"cebpf4jnsgd1na2vs0mg"},{"bike_id":"55fb771a-6e76-45c4-a9b7-cda97a0011d0","system_id":"levelo_inurba_marseille","lat":43.2876,"lon":5.38291,"is_reserved":false,"is_disabled":false,"rental_uris":{"android":"levelo://app?vid=55fb771a-6e76-45c4-a9b7-cda97a0011d0","ios":"levelo://app?vid=55fb771a-6e76-45c4-a9b7-cda97a0011d0"},"vehicle_type_id":"4","last_reported":1747523334,"current_range_meters":8400,"station_id":"","pricing_plan_id":"cebpf4jnsgd1na2vs0mg"},{"bike_id":"442318fb-23da-4bf5-b6ab-5b3f9a8de48a","system_id":"levelo_inurba_marseille","lat":43.3106,"lon":5.38346,"is_reserved":false,"is_disabled":false,"rental_uris":{"android":"levelo://app?vid=442318fb-23da-4bf5-b6ab-5b3f9a8de48a","ios":"levelo://app?vid=442318fb-23da-4bf5-b6ab-5b3f9a8de48a"},"vehicle_type_id":"4","last_reported":1747523334,"current_range_meters":8400,"station_id":"ce4bgv92rcd13ifvqcr0","pricing_plan_id":"cebpf4jnsgd1na2vs0mg"},{"bike_id":"d4b635f7-1684-4b59-a58f-8e73221fd62e","system_id":"levelo_inurba_marseille","lat":43.275625,"lon":5.384175,"is_reserved":false,"is_disabled":false,"rental_uris":{"android":"levelo://app?vid=d4b635f7-1684-4b59-a58f-8e73221fd62e","ios":"levelo://app?vid=d4b635f7-1684-4b59-a58f-8e73221fd62e"},"vehicle_type_id":"4","last_reported":1747523334,"current_range_meters":8400,"station_id":"ce4bhh92rcd13ifvqfi0","pricing_plan_id":"cebpf4jnsgd1na2vs0mg"},{"bike_id":"456df13e-096a-4823-8eea-67f822f45ee6","system_id":"levelo_inurba_marseille","lat":43.25109,"lon":5.40326,"is_reserved":false,"is_disabled":false,"rental_uris":{"android":"levelo://app?vid=456df13e-096a-4823-8eea-67f822f45ee6","ios":"levelo://app?vid=456df13e-096a-4823-8eea-67f822f45ee6"},"vehicle_type_id":"4","last_reported":1747523334,"current_range_meters":8400,"station_id":"ce4bhlh2rcd13ifvqgig","pricing_plan_id":"cebpf4jnsgd1na2vs0mg"},{"bike_id":"3a75c5f4-243e-4f18-b95d-8635947008bf","system_id":"levelo_inurba_marseille","lat":43.25114,"lon":5.40323,"is_reserved":false,"is_disabled":false,"rental_uris":{"android":"levelo://app?vid=3a75c5f4-243e-4f18-b95d-8635947008bf","ios":"levelo://app?vid=3a75c5f4-243e-4f18-b95d-8635947008bf"},"vehicle_type_id":"4","last_reported":1747523334,"current_range_meters":8400,"station_id":"ce4bhlh2rcd13ifvqgig","pricing_plan_id":"cebpf4jnsgd1na2vs0mg"},{"bike_id":"d0cc36ba-dea5-4301-b9bc-2db32098db5e","system_id":"levelo_inurba_marseille","lat":43.25091,"lon":5.39522,"is_reserved":false,"is_disabled":false,"rental_uris":{"android":"levelo://app?vid=d0cc36ba-dea5-4301-b9bc-2db32098db5e","ios":"levelo://app?vid=d0cc36ba-dea5-4301-b9bc-2db32098db5e"},"vehicle_type_id":"4","last_reported":1747523334,"current_range_meters":8400,"station_id":"ce4bhm12rcd13ifvqgkg","pricing_plan_id":"cebpf4jnsgd1na2vs0mg"},{"bike_id":"18e4ed23-84c4-4801-91e1-7b53274d9ead","system_id":"levelo_inurba_marseille","lat":43.321077,"lon":5.36776,"is_reserved":false,"is_disabled":false,"rental_uris":{"android":"levelo://app?vid=18e4ed23-84c4-4801-91e1-7b53274d9ead","ios":"levelo://app?vid=18e4ed23-84c4-4801-91e1-7b53274d9ead"},"vehicle_type_id":"4","last_reported":1747523334,"current_range_meters":8400,"station_id":"ce4bhrh2rcd13ifvqhug","pricing_plan_id":"cebpf4jnsgd1na2vs0mg"},{"bike_id":"436eca5c-a2fc-4fb0-98f9-7a997a6d51bd","system_id":"levelo_inurba_marseille","lat":43.30142,"lon":5.38055,"is_reserved":false,"is_disabled":false,"rental_uris":{"android":"levelo://app?vid=436eca5c-a2fc-4fb0-98f9-7a997a6d51bd","ios":"levelo://app?vid=436eca5c-a2fc-4fb0-98f9-7a997a6d51bd"},"vehicle_type_id":"4","last_reported":1747523334,"current_range_meters":8800,"station_id":"ce4bgjp2rcd13ifvqbh0","pricing_plan_id":"cebpf4jnsgd1na2vs0mg"},{"bike_id":"dc90dba8-61be-49b2-98c8-a8e3d46f6759","system_id":"levelo_inurba_marseille","lat":43.30926,"lon":5.4014,"is_reserved":false,"is_disabled":false,"rental_uris":{"android":"levelo://app?vid=dc90dba8-61be-49b2-98c8-a8e3d46f6759","ios":"levelo://app?vid=dc90dba8-61be-49b2-98c8-a8e3d46f6759"},"vehicle_type_id":"4","last_reported":1747523334,"current_range_meters":8800,"station_id":"ce4bgvp2rcd13ifvqct0","pricing_plan_id":"cebpf4jnsgd1na2vs0mg"},{"bike_id":"4a359f0d-38e1-4bd1-b1c0-cbfd2075ef44","system_id":"levelo_inurba_marseille","lat":43.28848,"lon":5.35844,"is_reserved":false,"is_disabled":false,"rental_uris":{"android":"levelo://app?vid=4a359f0d-38e1-4bd1-b1c0-cbfd2075ef44","ios":"levelo://app?vid=4a359f0d-38e1-4bd1-b1c0-cbfd2075ef44"},"vehicle_type_id":"4","last_reported":1747523334,"current_range_meters":8800,"station_id":"ce4bhb12rcd13ifvqem0","pricing_plan_id":"cebpf4jnsgd1na2vs0mg"},{"bike_id":"82862649-485d-4988-aeb2-e287bb522774","system_id":"levelo_inurba_marseille","lat":43.2893,"lon":5.36402,"is_reserved":false,"is_disabled":false,"rental_uris":{"android":"levelo://app?vid=82862649-485d-4988-aeb2-e287bb522774","ios":"levelo://app?vid=82862649-485d-4988-aeb2-e287bb522774"},"vehicle_type_id":"4","last_reported":1747523334,"current_range_meters":9200,"station_id":"ce4bhc92rcd13ifvqetg","pricing_plan_id":"cebpf4jnsgd1na2vs0mg"},{"bike_id":"5ea6f467-857b-4ea7-a4b9-4a241fcc702a","system_id":"levelo_inurba_marseille","lat":43.24668,"lon":5.3812,"is_reserved":false,"is_disabled":false,"rental_uris":{"android":"levelo://app?vid=5ea6f467-857b-4ea7-a4b9-4a241fcc702a","ios":"levelo://app?vid=5ea6f467-857b-4ea7-a4b9-4a241fcc702a"},"vehicle_type_id":"4","last_reported":1747523334,"current_range_meters":9200,"station_id":"ce4bhih2rcd13ifvqfr0","pricing_plan_id":"cebpf4jnsgd1na2vs0mg"},{"bike_id":"0e643c49-55b7-4013-9035-8e29a4bbf97b","system_id":"levelo_inurba_marseille","lat":43.24661,"lon":5.38161,"is_reserved":false,"is_disabled":false,"rental_uris":{"android":"levelo://app?vid=0e643c49-55b7-4013-9035-8e29a4bbf97b","ios":"levelo://app?vid=0e643c49-55b7-4013-9035-8e29a4bbf97b"},"vehicle_type_id":"4","last_reported":1747523334,"current_range_meters":9200,"station_id":"ce4bhih2rcd13ifvqfr0","pricing_plan_id":"cebpf4jnsgd1na2vs0mg"},{"bike_id":"6bad99d6-c400-4729-a6f1-dd5f2da6c3f2","system_id":"levelo_inurba_marseille","lat":43.31724,"lon":5.42392,"is_reserved":false,"is_disabled":false,"rental_uris":{"android":"levelo://app?vid=6bad99d6-c400-4729-a6f1-dd5f2da6c3f2","ios":"levelo://app?vid=6bad99d6-c400-4729-a6f1-dd5f2da6c3f2"},"vehicle_type_id":"4","last_reported":1747523334,"current_range_meters":9200,"station_id":"ce4bhp92rcd13ifvqhbg","pricing_plan_id":"cebpf4jnsgd1na2vs0mg"},{"bike_id":"26f611de-728d-479b-a369-2aa08e8f7434","system_id":"levelo_inurba_marseille","lat":43.241674,"lon":5.363924,"is_reserved":false,"is_disabled":false,"rental_uris":{"android":"levelo://app?vid=26f611de-728d-479b-a369-2aa08e8f7434","ios":"levelo://app?vid=26f611de-728d-479b-a369-2aa08e8f7434"},"vehicle_type_id":"4","last_reported":1747523334,"current_range_meters":9200,"station_id":"cpo36qri1sfpv3e86is0","pricing_plan_id":"cebpf4jnsgd1na2vs0mg"},{"bike_id":"b8e6468b-87db-4ff6-8122-ef13bf5b7c8c","system_id":"levelo_inurba_marseille","lat":43.31379,"lon":5.37916,"is_reserved":false,"is_disabled":false,"rental_uris":{"android":"levelo://app?vid=b8e6468b-87db-4ff6-8122-ef13bf5b7c8c","ios":"levelo://app?vid=b8e6468b-87db-4ff6-8122-ef13bf5b7c8c"},"vehicle_type_id":"4","last_reported":1747523334,"current_range_meters":9600,"station_id":"","pricing_plan_id":"cebpf4jnsgd1na2vs0mg"},{"bike_id":"822dd0b4-7412-48bb-99dc-94cac0c42c1e","system_id":"levelo_inurba_marseille","lat":43.29388,"lon":5.39723,"is_reserved":false,"is_disabled":false,"rental_uris":{"android":"levelo://app?vid=822dd0b4-7412-48bb-99dc-94cac0c42c1e","ios":"levelo://app?vid=822dd0b4-7412-48bb-99dc-94cac0c42c1e"},"vehicle_type_id":"4","last_reported":1747523334,"current_range_meters":9600,"station_id":"","pricing_plan_id":"cebpf4jnsgd1na2vs0mg"},{"bike_id":"979afead-8673-46a7-8050-e23d5ee206b1","system_id":"levelo_inurba_marseille","lat":43.29968,"lon":5.38494,"is_reserved":false,"is_disabled":false,"rental_uris":{"android":"levelo://app?vid=979afead-8673-46a7-8050-e23d5ee206b1","ios":"levelo://app?vid=979afead-8673-46a7-8050-e23d5ee206b1"},"vehicle_type_id":"4","last_reported":1747523334,"current_range_meters":9600,"station_id":"ce4bgj92rcd13ifvqbd0","pricing_plan_id":"cebpf4jnsgd1na2vs0mg"},{"bike_id":"dd0bf4a8-6ce4-430e-88df-7de97096471b","system_id":"levelo_inurba_marseille","lat":43.31065,"lon":5.38349,"is_reserved":false,"is_disabled":false,"rental_uris":{"android":"levelo://app?vid=dd0bf4a8-6ce4-430e-88df-7de97096471b","ios":"levelo://app?vid=dd0bf4a8-6ce4-430e-88df-7de97096471b"},"vehicle_type_id":"4","last_reported":1747523334,"current_range_meters":9600,"station_id":"ce4bgv92rcd13ifvqcr0","pricing_plan_id":"cebpf4jnsgd1na2vs0mg"},{"bike_id":"3cd3b9ed-35cd-412d-b071-5c8e1afa6ee6","system_id":"levelo_inurba_marseille","lat":43.28929,"lon":5.38403,"is_reserved":false,"is_disabled":false,"rental_uris":{"android":"levelo://app?vid=3cd3b9ed-35cd-412d-b071-5c8e1afa6ee6","ios":"levelo://app?vid=3cd3b9ed-35cd-412d-b071-5c8e1afa6ee6"},"vehicle_type_id":"4","last_reported":1747523334,"current_range_meters":9600,"station_id":"ce4bh612rcd13ifvqe6g","pricing_plan_id":"cebpf4jnsgd1na2vs0mg"},{"bike_id":"8f189487-f31d-4ca2-a926-e41f071bd7f5","system_id":"levelo_inurba_marseille","lat":43.24069,"lon":5.37744,"is_reserved":false,"is_disabled":false,"rental_uris":{"android":"levelo://app?vid=8f189487-f31d-4ca2-a926-e41f071bd7f5","ios":"levelo://app?vid=8f189487-f31d-4ca2-a926-e41f071bd7f5"},"vehicle_type_id":"4","last_reported":1747523334,"current_range_meters":9600,"station_id":"ce4bhnp2rcd13ifvqgvg","pricing_plan_id":"cebpf4jnsgd1na2vs0mg"},{"bike_id":"1268de3c-1801-4199-8a5b-49c70085e3ce","system_id":"levelo_inurba_marseille","lat":43.28703,"lon":5.40004,"is_reserved":false,"is_disabled":false,"rental_uris":{"android":"levelo://app?vid=1268de3c-1801-4199-8a5b-49c70085e3ce","ios":"levelo://app?vid=1268de3c-1801-4199-8a5b-49c70085e3ce"},"vehicle_type_id":"4","last_reported":1747523334,"current_range_meters":9600,"station_id":"ce4bho92rcd13ifvqh3g","pricing_plan_id":"cebpf4jnsgd1na2vs0mg"},{"bike_id":"21c6d32c-90d0-47be-94c5-48372006aeda","system_id":"levelo_inurba_marseille","lat":43.324903,"lon":5.36561,"is_reserved":false,"is_disabled":false,"rental_uris":{"android":"levelo://app?vid=21c6d32c-90d0-47be-94c5-48372006aeda","ios":"levelo://app?vid=21c6d32c-90d0-47be-94c5-48372006aeda"},"vehicle_type_id":"4","last_reported":1747523334,"current_range_meters":9600,"station_id":"ce4bhs12rcd13ifvqhvg","pricing_plan_id":"cebpf4jnsgd1na2vs0mg"},{"bike_id":"80ce8948-82cf-42c6-8ab6-4636b50ac5f8","system_id":"levelo_inurba_marseille","lat":43.31512,"lon":5.38037,"is_reserved":false,"is_disabled":false,"rental_uris":{"android":"levelo://app?vid=80ce8948-82cf-42c6-8ab6-4636b50ac5f8","ios":"levelo://app?vid=80ce8948-82cf-42c6-8ab6-4636b50ac5f8"},"vehicle_type_id":"4","last_reported":1747523334,"current_range_meters":9600,"station_id":"ce4bhsp2rcd13ifvqi50","pricing_plan_id":"cebpf4jnsgd1na2vs0mg"},{"bike_id":"87b1d5a0-ca20-4099-8fc3-ab0909b77445","system_id":"levelo_inurba_marseille","lat":43.30915,"lon":5.40142,"is_reserved":false,"is_disabled":false,"rental_uris":{"android":"levelo://app?vid=87b1d5a0-ca20-4099-8fc3-ab0909b77445","ios":"levelo://app?vid=87b1d5a0-ca20-4099-8fc3-ab0909b77445"},"vehicle_type_id":"4","last_reported":1747523334,"current_range_meters":10000,"station_id":"ce4bgvp2rcd13ifvqct0","pricing_plan_id":"cebpf4jnsgd1na2vs0mg"},{"bike_id":"895399d8-2d54-4356-be86-d86002b19b67","system_id":"levelo_inurba_marseille","lat":43.24811,"lon":5.37462,"is_reserved":false,"is_disabled":false,"rental_uris":{"android":"levelo://app?vid=895399d8-2d54-4356-be86-d86002b19b67","ios":"levelo://app?vid=895399d8-2d54-4356-be86-d86002b19b67"},"vehicle_type_id":"4","last_reported":1747523334,"current_range_meters":10000,"station_id":"ce4bhgh2rcd13ifvqfb0","pricing_plan_id":"cebpf4jnsgd1na2vs0mg"},{"bike_id":"4a9c1adc-5669-4a00-9d7d-f8ba0270da02","system_id":"levelo_inurba_marseille","lat":43.26201,"lon":5.37932,"is_reserved":false,"is_disabled":false,"rental_uris":{"android":"levelo://app?vid=4a9c1adc-5669-4a00-9d7d-f8ba0270da02","ios":"levelo://app?vid=4a9c1adc-5669-4a00-9d7d-f8ba0270da02"},"vehicle_type_id":"4","last_reported":1747523334,"current_range_meters":10000,"station_id":"ce4bhjp2rcd13ifvqg90","pricing_plan_id":"cebpf4jnsgd1na2vs0mg"},{"bike_id":"ab717c00-35ed-4fda-8613-66e36eeaf35d","system_id":"levelo_inurba_marseille","lat":43.295534,"lon":5.423061,"is_reserved":false,"is_disabled":false,"rental_uris":{"android":"levelo://app?vid=ab717c00-35ed-4fda-8613-66e36eeaf35d","ios":"levelo://app?vid=ab717c00-35ed-4fda-8613-66e36eeaf35d"},"vehicle_type_id":"4","last_reported":1747523334,"current_range_meters":10000,"station_id":"ce4bhph2rcd13ifvqhdg","pricing_plan_id":"cebpf4jnsgd1na2vs0mg"},{"bike_id":"2013cd87-0d43-443c-a50a-2ae65b408add","system_id":"levelo_inurba_marseille","lat":43.3237,"lon":5.388817,"is_reserved":false,"is_disabled":false,"rental_uris":{"android":"levelo://app?vid=2013cd87-0d43-443c-a50a-2ae65b408add","ios":"levelo://app?vid=2013cd87-0d43-443c-a50a-2ae65b408add"},"vehicle_type_id":"4","last_reported":1747523334,"current_range_meters":10000,"station_id":"ce4bhqp2rcd13ifvqhog","pricing_plan_id":"cebpf4jnsgd1na2vs0mg"},{"bike_id":"0fb02880-5c6e-4026-9e4a-07529c572b44","system_id":"levelo_inurba_marseille","lat":43.25511,"lon":5.37364,"is_reserved":false,"is_disabled":false,"rental_uris":{"android":"levelo://app?vid=0fb02880-5c6e-4026-9e4a-07529c572b44","ios":"levelo://app?vid=0fb02880-5c6e-4026-9e4a-07529c572b44"},"vehicle_type_id":"4","last_reported":1747523334,"current_range_meters":10800,"station_id":"","pricing_plan_id":"cebpf4jnsgd1na2vs0mg"},{"bike_id":"6e1bd625-3ec1-43df-9657-36d71ae09f8d","system_id":"levelo_inurba_marseille","lat":43.33755,"lon":5.37425,"is_reserved":false,"is_disabled":false,"rental_uris":{"android":"levelo://app?vid=6e1bd625-3ec1-43df-9657-36d71ae09f8d","ios":"levelo://app?vid=6e1bd625-3ec1-43df-9657-36d71ae09f8d"},"vehicle_type_id":"4","last_reported":1747523334,"current_range_meters":10800,"station_id":"","pricing_plan_id":"cebpf4jnsgd1na2vs0mg"},{"bike_id":"538166f1-7bc0-4670-a04b-d5e739b8a9ff","system_id":"levelo_inurba_marseille","lat":43.30149,"lon":5.38785,"is_reserved":false,"is_disabled":false,"rental_uris":{"android":"levelo://app?vid=538166f1-7bc0-4670-a04b-d5e739b8a9ff","ios":"levelo://app?vid=538166f1-7bc0-4670-a04b-d5e739b8a9ff"},"vehicle_type_id":"4","last_reported":1747523334,"current_range_meters":10800,"station_id":"ce4bghh2rcd13ifvqb60","pricing_plan_id":"cebpf4jnsgd1na2vs0mg"},{"bike_id":"fbb9dc35-fa9d-42e4-9fd8-bc3154190a90","system_id":"levelo_inurba_marseille","lat":43.309307,"lon":5.401605,"is_reserved":false,"is_disabled":false,"rental_uris":{"android":"levelo://app?vid=fbb9dc35-fa9d-42e4-9fd8-bc3154190a90","ios":"levelo://app?vid=fbb9dc35-fa9d-42e4-9fd8-bc3154190a90"},"vehicle_type_id":"4","last_reported":1747523334,"current_range_meters":10800,"station_id":"ce4bgvp2rcd13ifvqct0","pricing_plan_id":"cebpf4jnsgd1na2vs0mg"},{"bike_id":"db22b70b-7de1-403c-85af-ebb538cde99e","system_id":"levelo_inurba_marseille","lat":43.2987,"lon":5.39737,"is_reserved":false,"is_disabled":false,"rental_uris":{"android":"levelo://app?vid=db22b70b-7de1-403c-85af-ebb538cde99e","ios":"levelo://app?vid=db22b70b-7de1-403c-85af-ebb538cde99e"},"vehicle_type_id":"4","last_reported":1747523334,"current_range_meters":10800,"station_id":"ce4bh0h2rcd13ifvqd50","pricing_plan_id":"cebpf4jnsgd1na2vs0mg"},{"bike_id":"337b08c3-9453-4585-b2d5-7cd494c9cc9f","system_id":"levelo_inurba_marseille","lat":43.28407,"lon":5.3753,"is_reserved":false,"is_disabled":false,"rental_uris":{"android":"levelo://app?vid=337b08c3-9453-4585-b2d5-7cd494c9cc9f","ios":"levelo://app?vid=337b08c3-9453-4585-b2d5-7cd494c9cc9f"},"vehicle_type_id":"4","last_reported":1747523334,"current_range_meters":10800,"station_id":"ce4bh412rcd13ifvqds0","pricing_plan_id":"cebpf4jnsgd1na2vs0mg"},{"bike_id":"792c9dbd-158e-4661-91d4-2c1ed379e655","system_id":"levelo_inurba_marseille","lat":43.24665,"lon":5.38158,"is_reserved":false,"is_disabled":false,"rental_uris":{"android":"levelo://app?vid=792c9dbd-158e-4661-91d4-2c1ed379e655","ios":"levelo://app?vid=792c9dbd-158e-4661-91d4-2c1ed379e655"},"vehicle_type_id":"4","last_reported":1747523334,"current_range_meters":10800,"station_id":"ce4bhih2rcd13ifvqfr0","pricing_plan_id":"cebpf4jnsgd1na2vs0mg"},{"bike_id":"bf984e61-6bf7-4230-8a5b-4fca28462353","system_id":"levelo_inurba_marseille","lat":43.27812,"lon":5.40707,"is_reserved":false,"is_disabled":false,"rental_uris":{"android":"levelo://app?vid=bf984e61-6bf7-4230-8a5b-4fca28462353","ios":"levelo://app?vid=bf984e61-6bf7-4230-8a5b-4fca28462353"},"vehicle_type_id":"4","last_reported":1747523334,"current_range_meters":10800,"station_id":"ce4bhnh2rcd13ifvqgtg","pricing_plan_id":"cebpf4jnsgd1na2vs0mg"},{"bike_id":"3980d76b-e904-45ba-9bbd-4ee10919b44c","system_id":"levelo_inurba_marseille","lat":43.310691,"lon":5.381933,"is_reserved":false,"is_disabled":false,"rental_uris":{"android":"levelo://app?vid=3980d76b-e904-45ba-9bbd-4ee10919b44c","ios":"levelo://app?vid=3980d76b-e904-45ba-9bbd-4ee10919b44c"},"vehicle_type_id":"4","last_reported":1747523334,"current_range_meters":11200,"station_id":"","pricing_plan_id":"cebpf4jnsgd1na2vs0mg"},{"bike_id":"14603e41-b2dd-4757-a53c-2e366aa4f983","system_id":"levelo_inurba_marseille","lat":43.269909,"lon":5.428235,"is_reserved":false,"is_disabled":false,"rental_uris":{"android":"levelo://app?vid=14603e41-b2dd-4757-a53c-2e366aa4f983","ios":"levelo://app?vid=14603e41-b2dd-4757-a53c-2e366aa4f983"},"vehicle_type_id":"4","last_reported":1747523334,"current_range_meters":11200,"station_id":"","pricing_plan_id":"cebpf4jnsgd1na2vs0mg"},{"bike_id":"372cd235-8ff0-45c5-a704-674db75f07e5","system_id":"levelo_inurba_marseille","lat":43.29516,"lon":5.394,"is_reserved":false,"is_disabled":false,"rental_uris":{"android":"levelo://app?vid=372cd235-8ff0-45c5-a704-674db75f07e5","ios":"levelo://app?vid=372cd235-8ff0-45c5-a704-674db75f07e5"},"vehicle_type_id":"4","last_reported":1747523334,"current_range_meters":11200,"station_id":"ce4bh292rcd13ifvqdf0","pricing_plan_id":"cebpf4jnsgd1na2vs0mg"},{"bike_id":"3db69897-4eb5-42f7-bca3-c41f6cdaef15","system_id":"levelo_inurba_marseille","lat":43.278112,"lon":5.40709,"is_reserved":false,"is_disabled":false,"rental_uris":{"android":"levelo://app?vid=3db69897-4eb5-42f7-bca3-c41f6cdaef15","ios":"levelo://app?vid=3db69897-4eb5-42f7-bca3-c41f6cdaef15"},"vehicle_type_id":"4","last_reported":1747523334,"current_range_meters":11200,"station_id":"ce4bhnh2rcd13ifvqgtg","pricing_plan_id":"cebpf4jnsgd1na2vs0mg"},{"bike_id":"2aaa1fec-5d89-4772-858b-830dca7816ff","system_id":"levelo_inurba_marseille","lat":43.30162,"lon":5.37376,"is_reserved":false,"is_disabled":false,"rental_uris":{"android":"levelo://app?vid=2aaa1fec-5d89-4772-858b-830dca7816ff","ios":"levelo://app?vid=2aaa1fec-5d89-4772-858b-830dca7816ff"},"vehicle_type_id":"4","last_reported":1747523334,"current_range_meters":11600,"station_id":"ce4bgs92rcd13ifvqcc0","pricing_plan_id":"cebpf4jnsgd1na2vs0mg"},{"bike_id":"0f42c805-92e1-4274-b532-29e3edd02304","system_id":"levelo_inurba_marseille","lat":43.29231,"lon":5.40097,"is_reserved":false,"is_disabled":false,"rental_uris":{"android":"levelo://app?vid=0f42c805-92e1-4274-b532-29e3edd02304","ios":"levelo://app?vid=0f42c805-92e1-4274-b532-29e3edd02304"},"vehicle_type_id":"4","last_reported":1747523334,"current_range_meters":11600,"station_id":"ce4bh312rcd13ifvqdk0","pricing_plan_id":"cebpf4jnsgd1na2vs0mg"},{"bike_id":"59289096-0b37-498e-b485-7d249d610a4c","system_id":"levelo_inurba_marseille","lat":43.29554,"lon":5.42296,"is_reserved":false,"is_disabled":false,"rental_uris":{"android":"levelo://app?vid=59289096-0b37-498e-b485-7d249d610a4c","ios":"levelo://app?vid=59289096-0b37-498e-b485-7d249d610a4c"},"vehicle_type_id":"4","last_reported":1747523334,"current_range_meters":11600,"station_id":"ce4bhph2rcd13ifvqhdg","pricing_plan_id":"cebpf4jnsgd1na2vs0mg"},{"bike_id":"caf4c81d-8b81-4d8d-a4f9-9d00bac7ad70","system_id":"levelo_inurba_marseille","lat":43.307725,"lon":5.428035,"is_reserved":false,"is_disabled":false,"rental_uris":{"android":"levelo://app?vid=caf4c81d-8b81-4d8d-a4f9-9d00bac7ad70","ios":"levelo://app?vid=caf4c81d-8b81-4d8d-a4f9-9d00bac7ad70"},"vehicle_type_id":"4","last_reported":1747523334,"current_range_meters":12000,"station_id":"","pricing_plan_id":"cebpf4jnsgd1na2vs0mg"},{"bike_id":"bc2fdf39-c7a3-4227-9f7c-c6dba2bec27b","system_id":"levelo_inurba_marseille","lat":43.2958,"lon":5.37509,"is_reserved":false,"is_disabled":false,"rental_uris":{"android":"levelo://app?vid=bc2fdf39-c7a3-4227-9f7c-c6dba2bec27b","ios":"levelo://app?vid=bc2fdf39-c7a3-4227-9f7c-c6dba2bec27b"},"vehicle_type_id":"4","last_reported":1747523334,"current_range_meters":12000,"station_id":"ce4bgh92rcd13ifvqb50","pricing_plan_id":"cebpf4jnsgd1na2vs0mg"},{"bike_id":"7d9dd8c1-69f5-4957-8992-21b219e4420c","system_id":"levelo_inurba_marseille","lat":43.24675,"lon":5.3817,"is_reserved":false,"is_disabled":false,"rental_uris":{"android":"levelo://app?vid=7d9dd8c1-69f5-4957-8992-21b219e4420c","ios":"levelo://app?vid=7d9dd8c1-69f5-4957-8992-21b219e4420c"},"vehicle_type_id":"4","last_reported":1747523334,"current_range_meters":12000,"station_id":"ce4bhih2rcd13ifvqfr0","pricing_plan_id":"cebpf4jnsgd1na2vs0mg"},{"bike_id":"d6849d74-ad3b-488c-8321-ee8690ed731a","system_id":"levelo_inurba_marseille","lat":43.258239,"lon":5.394451,"is_reserved":false,"is_disabled":false,"rental_uris":{"android":"levelo://app?vid=d6849d74-ad3b-488c-8321-ee8690ed731a","ios":"levelo://app?vid=d6849d74-ad3b-488c-8321-ee8690ed731a"},"vehicle_type_id":"4","last_reported":1747523334,"current_range_meters":12000,"station_id":"ce4bhip2rcd13ifvqft0","pricing_plan_id":"cebpf4jnsgd1na2vs0mg"},{"bike_id":"ffc3ddf2-0082-4578-9e25-c91f5b4279bc","system_id":"levelo_inurba_marseille","lat":43.28315,"lon":5.41134,"is_reserved":false,"is_disabled":false,"rental_uris":{"android":"levelo://app?vid=ffc3ddf2-0082-4578-9e25-c91f5b4279bc","ios":"levelo://app?vid=ffc3ddf2-0082-4578-9e25-c91f5b4279bc"},"vehicle_type_id":"4","last_reported":1747523334,"current_range_meters":12400,"station_id":"","pricing_plan_id":"cebpf4jnsgd1na2vs0mg"},{"bike_id":"99aab1ac-0e74-4853-a5d5-d682d1f9422c","system_id":"levelo_inurba_marseille","lat":43.30938,"lon":5.40156,"is_reserved":false,"is_disabled":false,"rental_uris":{"android":"levelo://app?vid=99aab1ac-0e74-4853-a5d5-d682d1f9422c","ios":"levelo://app?vid=99aab1ac-0e74-4853-a5d5-d682d1f9422c"},"vehicle_type_id":"4","last_reported":1747523334,"current_range_meters":12400,"station_id":"ce4bgvp2rcd13ifvqct0","pricing_plan_id":"cebpf4jnsgd1na2vs0mg"},{"bike_id":"7fdcf52b-541b-4360-8c0a-0ae336ff6d66","system_id":"levelo_inurba_marseille","lat":43.30127,"lon":5.398567,"is_reserved":false,"is_disabled":false,"rental_uris":{"android":"levelo://app?vid=7fdcf52b-541b-4360-8c0a-0ae336ff6d66","ios":"levelo://app?vid=7fdcf52b-541b-4360-8c0a-0ae336ff6d66"},"vehicle_type_id":"4","last_reported":1747523334,"current_range_meters":12400,"station_id":"ce4bh0h2rcd13ifvqd40","pricing_plan_id":"cebpf4jnsgd1na2vs0mg"},{"bike_id":"c608898e-58b6-42f7-903a-6008119c7a64","system_id":"levelo_inurba_marseille","lat":43.24062,"lon":5.37764,"is_reserved":false,"is_disabled":false,"rental_uris":{"android":"levelo://app?vid=c608898e-58b6-42f7-903a-6008119c7a64","ios":"levelo://app?vid=c608898e-58b6-42f7-903a-6008119c7a64"},"vehicle_type_id":"4","last_reported":1747523334,"current_range_meters":12400,"station_id":"ce4bhnp2rcd13ifvqgvg","pricing_plan_id":"cebpf4jnsgd1na2vs0mg"},{"bike_id":"afcd447e-66af-4e5f-8811-b93c86a0e1e4","system_id":"levelo_inurba_marseille","lat":43.31883,"lon":5.40741,"is_reserved":false,"is_disabled":false,"rental_uris":{"android":"levelo://app?vid=afcd447e-66af-4e5f-8811-b93c86a0e1e4","ios":"levelo://app?vid=afcd447e-66af-4e5f-8811-b93c86a0e1e4"},"vehicle_type_id":"4","last_reported":1747523334,"current_range_meters":12400,"station_id":"ce4bhq12rcd13ifvqhig","pricing_plan_id":"cebpf4jnsgd1na2vs0mg"},{"bike_id":"262036fe-d80c-4d06-a49b-dfb02bc52ea7","system_id":"levelo_inurba_marseille","lat":43.30927,"lon":5.40137,"is_reserved":false,"is_disabled":false,"rental_uris":{"android":"levelo://app?vid=262036fe-d80c-4d06-a49b-dfb02bc52ea7","ios":"levelo://app?vid=262036fe-d80c-4d06-a49b-dfb02bc52ea7"},"vehicle_type_id":"4","last_reported":1747523334,"current_range_meters":12800,"station_id":"ce4bgvp2rcd13ifvqct0","pricing_plan_id":"cebpf4jnsgd1na2vs0mg"},{"bike_id":"8dfe3edc-82df-4b5a-a412-16963c595c57","system_id":"levelo_inurba_marseille","lat":43.308738,"lon":5.396347,"is_reserved":false,"is_disabled":false,"rental_uris":{"android":"levelo://app?vid=8dfe3edc-82df-4b5a-a412-16963c595c57","ios":"levelo://app?vid=8dfe3edc-82df-4b5a-a412-16963c595c57"},"vehicle_type_id":"4","last_reported":1747523334,"current_range_meters":12800,"station_id":"ce4bh012rcd13ifvqcv0","pricing_plan_id":"cebpf4jnsgd1na2vs0mg"},{"bike_id":"8e053a5a-ef4f-44c3-9056-fe8a35fe7e12","system_id":"levelo_inurba_marseille","lat":43.3009,"lon":5.39086,"is_reserved":false,"is_disabled":false,"rental_uris":{"android":"levelo://app?vid=8e053a5a-ef4f-44c3-9056-fe8a35fe7e12","ios":"levelo://app?vid=8e053a5a-ef4f-44c3-9056-fe8a35fe7e12"},"vehicle_type_id":"4","last_reported":1747523334,"current_range_meters":12800,"station_id":"ce4bh192rcd13ifvqdb0","pricing_plan_id":"cebpf4jnsgd1na2vs0mg"},{"bike_id":"d40407b4-0c3a-4065-9c94-b5b69de8eff4","system_id":"levelo_inurba_marseille","lat":43.28402,"lon":5.37504,"is_reserved":false,"is_disabled":false,"rental_uris":{"android":"levelo://app?vid=d40407b4-0c3a-4065-9c94-b5b69de8eff4","ios":"levelo://app?vid=d40407b4-0c3a-4065-9c94-b5b69de8eff4"},"vehicle_type_id":"4","last_reported":1747523334,"current_range_meters":12800,"station_id":"ce4bh412rcd13ifvqds0","pricing_plan_id":"cebpf4jnsgd1na2vs0mg"},{"bike_id":"41474638-ef39-4de5-b53c-fac27e738cc4","system_id":"levelo_inurba_marseille","lat":43.287046,"lon":5.399875,"is_reserved":false,"is_disabled":false,"rental_uris":{"android":"levelo://app?vid=41474638-ef39-4de5-b53c-fac27e738cc4","ios":"levelo://app?vid=41474638-ef39-4de5-b53c-fac27e738cc4"},"vehicle_type_id":"4","last_reported":1747523334,"current_range_meters":12800,"station_id":"ce4bho92rcd13ifvqh3g","pricing_plan_id":"cebpf4jnsgd1na2vs0mg"},{"bike_id":"8a824188-a832-41fd-8c98-3864b6a08878","system_id":"levelo_inurba_marseille","lat":43.31358,"lon":5.38492,"is_reserved":false,"is_disabled":false,"rental_uris":{"android":"levelo://app?vid=8a824188-a832-41fd-8c98-3864b6a08878","ios":"levelo://app?vid=8a824188-a832-41fd-8c98-3864b6a08878"},"vehicle_type_id":"4","last_reported":1747523334,"current_range_meters":13600,"station_id":"ce4bgt92rcd13ifvqcf0","pricing_plan_id":"cebpf4jnsgd1na2vs0mg"},{"bike_id":"cc97a290-0f95-41b8-82c0-8e92756e3d13","system_id":"levelo_inurba_marseille","lat":43.31074,"lon":5.38363,"is_reserved":false,"is_disabled":false,"rental_uris":{"android":"levelo://app?vid=cc97a290-0f95-41b8-82c0-8e92756e3d13","ios":"levelo://app?vid=cc97a290-0f95-41b8-82c0-8e92756e3d13"},"vehicle_type_id":"4","last_reported":1747523334,"current_range_meters":13600,"station_id":"ce4bgv92rcd13ifvqcr0","pricing_plan_id":"cebpf4jnsgd1na2vs0mg"},{"bike_id":"72771d95-cb40-4d43-855c-111cabe8fd3f","system_id":"levelo_inurba_marseille","lat":43.28359,"lon":5.38098,"is_reserved":false,"is_disabled":false,"rental_uris":{"android":"levelo://app?vid=72771d95-cb40-4d43-855c-111cabe8fd3f","ios":"levelo://app?vid=72771d95-cb40-4d43-855c-111cabe8fd3f"},"vehicle_type_id":"4","last_reported":1747523334,"current_range_meters":13600,"station_id":"ce4bh412rcd13ifvqdr0","pricing_plan_id":"cebpf4jnsgd1na2vs0mg"},{"bike_id":"04caccac-fac0-4257-8dfe-104b91321d87","system_id":"levelo_inurba_marseille","lat":43.28406,"lon":5.37515,"is_reserved":false,"is_disabled":false,"rental_uris":{"android":"levelo://app?vid=04caccac-fac0-4257-8dfe-104b91321d87","ios":"levelo://app?vid=04caccac-fac0-4257-8dfe-104b91321d87"},"vehicle_type_id":"4","last_reported":1747523334,"current_range_meters":13600,"station_id":"ce4bh412rcd13ifvqds0","pricing_plan_id":"cebpf4jnsgd1na2vs0mg"},{"bike_id":"bbad5bf7-b54d-4284-aeee-744acb86bc7d","system_id":"levelo_inurba_marseille","lat":43.2781,"lon":5.4071,"is_reserved":false,"is_disabled":false,"rental_uris":{"android":"levelo://app?vid=bbad5bf7-b54d-4284-aeee-744acb86bc7d","ios":"levelo://app?vid=bbad5bf7-b54d-4284-aeee-744acb86bc7d"},"vehicle_type_id":"4","last_reported":1747523334,"current_range_meters":13600,"station_id":"ce4bhnh2rcd13ifvqgtg","pricing_plan_id":"cebpf4jnsgd1na2vs0mg"},{"bike_id":"21636d1a-5e3b-453d-8c70-3c3d4353efc3","system_id":"levelo_inurba_marseille","lat":43.29968,"lon":5.38493,"is_reserved":false,"is_disabled":false,"rental_uris":{"android":"levelo://app?vid=21636d1a-5e3b-453d-8c70-3c3d4353efc3","ios":"levelo://app?vid=21636d1a-5e3b-453d-8c70-3c3d4353efc3"},"vehicle_type_id":"4","last_reported":1747523334,"current_range_meters":14000,"station_id":"ce4bgj92rcd13ifvqbd0","pricing_plan_id":"cebpf4jnsgd1na2vs0mg"},{"bike_id":"cdb75374-7640-45b9-a9f0-012a227f79f6","system_id":"levelo_inurba_marseille","lat":43.30146,"lon":5.38068,"is_reserved":false,"is_disabled":false,"rental_uris":{"android":"levelo://app?vid=cdb75374-7640-45b9-a9f0-012a227f79f6","ios":"levelo://app?vid=cdb75374-7640-45b9-a9f0-012a227f79f6"},"vehicle_type_id":"4","last_reported":1747523334,"current_range_meters":14000,"station_id":"ce4bgjp2rcd13ifvqbh0","pricing_plan_id":"cebpf4jnsgd1na2vs0mg"},{"bike_id":"4739d0ee-0dbc-4b41-a171-18fe3d7e3cc9","system_id":"levelo_inurba_marseille","lat":43.29875,"lon":5.39718,"is_reserved":false,"is_disabled":false,"rental_uris":{"android":"levelo://app?vid=4739d0ee-0dbc-4b41-a171-18fe3d7e3cc9","ios":"levelo://app?vid=4739d0ee-0dbc-4b41-a171-18fe3d7e3cc9"},"vehicle_type_id":"4","last_reported":1747523334,"current_range_meters":14000,"station_id":"ce4bh0h2rcd13ifvqd50","pricing_plan_id":"cebpf4jnsgd1na2vs0mg"},{"bike_id":"a0186345-64cf-4b1d-a7f8-924fd58ee162","system_id":"levelo_inurba_marseille","lat":43.29029,"lon":5.38648,"is_reserved":false,"is_disabled":false,"rental_uris":{"android":"levelo://app?vid=a0186345-64cf-4b1d-a7f8-924fd58ee162","ios":"levelo://app?vid=a0186345-64cf-4b1d-a7f8-924fd58ee162"},"vehicle_type_id":"4","last_reported":1747523334,"current_range_meters":14000,"station_id":"ce4bh4p2rcd13ifvqe0g","pricing_plan_id":"cebpf4jnsgd1na2vs0mg"},{"bike_id":"e33ec7c3-c738-46e8-b31e-ac64141a24f8","system_id":"levelo_inurba_marseille","lat":43.23174,"lon":5.39964,"is_reserved":false,"is_disabled":false,"rental_uris":{"android":"levelo://app?vid=e33ec7c3-c738-46e8-b31e-ac64141a24f8","ios":"levelo://app?vid=e33ec7c3-c738-46e8-b31e-ac64141a24f8"},"vehicle_type_id":"4","last_reported":1747523334,"current_range_meters":14000,"station_id":"ce4bhn12rcd13ifvqgqg","pricing_plan_id":"cebpf4jnsgd1na2vs0mg"},{"bike_id":"f4588f75-e24a-44fc-9584-e819284e357a","system_id":"levelo_inurba_marseille","lat":43.292629,"lon":5.371807,"is_reserved":false,"is_disabled":false,"rental_uris":{"android":"levelo://app?vid=f4588f75-e24a-44fc-9584-e819284e357a","ios":"levelo://app?vid=f4588f75-e24a-44fc-9584-e819284e357a"},"vehicle_type_id":"4","last_reported":1747523334,"current_range_meters":14400,"station_id":"ce4bgh92rcd13ifvqb40","pricing_plan_id":"cebpf4jnsgd1na2vs0mg"},{"bike_id":"27f05115-decc-4fbb-b226-cbb837efe701","system_id":"levelo_inurba_marseille","lat":43.3025,"lon":5.40041,"is_reserved":false,"is_disabled":false,"rental_uris":{"android":"levelo://app?vid=27f05115-decc-4fbb-b226-cbb837efe701","ios":"levelo://app?vid=27f05115-decc-4fbb-b226-cbb837efe701"},"vehicle_type_id":"4","last_reported":1747523334,"current_range_meters":14400,"station_id":"ce4bgvh2rcd13ifvqcs0","pricing_plan_id":"cebpf4jnsgd1na2vs0mg"},{"bike_id":"ac7d4980-9f53-497a-88b3-0ac215705db1","system_id":"levelo_inurba_marseille","lat":43.27435,"lon":5.39417,"is_reserved":false,"is_disabled":false,"rental_uris":{"android":"levelo://app?vid=ac7d4980-9f53-497a-88b3-0ac215705db1","ios":"levelo://app?vid=ac7d4980-9f53-497a-88b3-0ac215705db1"},"vehicle_type_id":"4","last_reported":1747523334,"current_range_meters":14400,"station_id":"ce4bhdp2rcd13ifvqf20","pricing_plan_id":"cebpf4jnsgd1na2vs0mg"},{"bike_id":"073b04fc-81d8-4d02-9068-9f3e68c33eb2","system_id":"levelo_inurba_marseille","lat":43.25815,"lon":5.3943,"is_reserved":false,"is_disabled":false,"rental_uris":{"android":"levelo://app?vid=073b04fc-81d8-4d02-9068-9f3e68c33eb2","ios":"levelo://app?vid=073b04fc-81d8-4d02-9068-9f3e68c33eb2"},"vehicle_type_id":"4","last_reported":1747523334,"current_range_meters":14400,"station_id":"ce4bhip2rcd13ifvqft0","pricing_plan_id":"cebpf4jnsgd1na2vs0mg"},{"bike_id":"b40ec634-17dc-4d9e-835e-75dd76d7c46d","system_id":"levelo_inurba_marseille","lat":43.317234,"lon":5.423886,"is_reserved":false,"is_disabled":false,"rental_uris":{"android":"levelo://app?vid=b40ec634-17dc-4d9e-835e-75dd76d7c46d","ios":"levelo://app?vid=b40ec634-17dc-4d9e-835e-75dd76d7c46d"},"vehicle_type_id":"4","last_reported":1747523334,"current_range_meters":14400,"station_id":"ce4bhp92rcd13ifvqhbg","pricing_plan_id":"cebpf4jnsgd1na2vs0mg"},{"bike_id":"66455db8-733b-443f-8b74-2678ef895d47","system_id":"levelo_inurba_marseille","lat":43.30132,"lon":5.38805,"is_reserved":false,"is_disabled":false,"rental_uris":{"android":"levelo://app?vid=66455db8-733b-443f-8b74-2678ef895d47","ios":"levelo://app?vid=66455db8-733b-443f-8b74-2678ef895d47"},"vehicle_type_id":"4","last_reported":1747523334,"current_range_meters":14800,"station_id":"ce4bghh2rcd13ifvqb60","pricing_plan_id":"cebpf4jnsgd1na2vs0mg"},{"bike_id":"23d54d96-0263-4d93-8337-17c82c1a4e8e","system_id":"levelo_inurba_marseille","lat":43.30214,"lon":5.3947,"is_reserved":false,"is_disabled":false,"rental_uris":{"android":"levelo://app?vid=23d54d96-0263-4d93-8337-17c82c1a4e8e","ios":"levelo://app?vid=23d54d96-0263-4d93-8337-17c82c1a4e8e"},"vehicle_type_id":"4","last_reported":1747523334,"current_range_meters":14800,"station_id":"ce4bh0p2rcd13ifvqd70","pricing_plan_id":"cebpf4jnsgd1na2vs0mg"},{"bike_id":"2f0cadb4-d32c-481d-b010-d7df56ff1e9c","system_id":"levelo_inurba_marseille","lat":43.29246,"lon":5.40903,"is_reserved":false,"is_disabled":false,"rental_uris":{"android":"levelo://app?vid=2f0cadb4-d32c-481d-b010-d7df56ff1e9c","ios":"levelo://app?vid=2f0cadb4-d32c-481d-b010-d7df56ff1e9c"},"vehicle_type_id":"4","last_reported":1747523334,"current_range_meters":14800,"station_id":"ce4bh192rcd13ifvqdc0","pricing_plan_id":"cebpf4jnsgd1na2vs0mg"},{"bike_id":"ef2ac606-4489-45ff-b810-9b7154f5f522","system_id":"levelo_inurba_marseille","lat":43.28856,"lon":5.39298,"is_reserved":false,"is_disabled":false,"rental_uris":{"android":"levelo://app?vid=ef2ac606-4489-45ff-b810-9b7154f5f522","ios":"levelo://app?vid=ef2ac606-4489-45ff-b810-9b7154f5f522"},"vehicle_type_id":"4","last_reported":1747523334,"current_range_meters":14800,"station_id":"ce4bh2p2rcd13ifvqdi0","pricing_plan_id":"cebpf4jnsgd1na2vs0mg"},{"bike_id":"ac3834a9-965b-4a58-89b3-af339b7bb1c6","system_id":"levelo_inurba_marseille","lat":43.284164,"lon":5.375088,"is_reserved":false,"is_disabled":false,"rental_uris":{"android":"levelo://app?vid=ac3834a9-965b-4a58-89b3-af339b7bb1c6","ios":"levelo://app?vid=ac3834a9-965b-4a58-89b3-af339b7bb1c6"},"vehicle_type_id":"4","last_reported":1747523334,"current_range_meters":14800,"station_id":"ce4bh412rcd13ifvqds0","pricing_plan_id":"cebpf4jnsgd1na2vs0mg"},{"bike_id":"584c70d0-0918-4aa0-b289-fcc6a9442003","system_id":"levelo_inurba_marseille","lat":43.25087,"lon":5.39535,"is_reserved":false,"is_disabled":false,"rental_uris":{"android":"levelo://app?vid=584c70d0-0918-4aa0-b289-fcc6a9442003","ios":"levelo://app?vid=584c70d0-0918-4aa0-b289-fcc6a9442003"},"vehicle_type_id":"4","last_reported":1747523334,"current_range_meters":14800,"station_id":"ce4bhm12rcd13ifvqgkg","pricing_plan_id":"cebpf4jnsgd1na2vs0mg"},{"bike_id":"8bc07169-4467-4326-86b2-365cd55d31b8","system_id":"levelo_inurba_marseille","lat":43.28701,"lon":5.39987,"is_reserved":false,"is_disabled":false,"rental_uris":{"android":"levelo://app?vid=8bc07169-4467-4326-86b2-365cd55d31b8","ios":"levelo://app?vid=8bc07169-4467-4326-86b2-365cd55d31b8"},"vehicle_type_id":"4","last_reported":1747523334,"current_range_meters":14800,"station_id":"ce4bho92rcd13ifvqh3g","pricing_plan_id":"cebpf4jnsgd1na2vs0mg"},{"bike_id":"4b0b1f5b-0b5f-4c37-a22b-41ace886ce88","system_id":"levelo_inurba_marseille","lat":43.27618,"lon":5.42635,"is_reserved":false,"is_disabled":false,"rental_uris":{"android":"levelo://app?vid=4b0b1f5b-0b5f-4c37-a22b-41ace886ce88","ios":"levelo://app?vid=4b0b1f5b-0b5f-4c37-a22b-41ace886ce88"},"vehicle_type_id":"4","last_reported":1747523334,"current_range_meters":15200,"station_id":"","pricing_plan_id":"cebpf4jnsgd1na2vs0mg"},{"bike_id":"3845b92b-2215-4a79-be64-fa2b0d45d0ba","system_id":"levelo_inurba_marseille","lat":43.302435,"lon":5.400575,"is_reserved":false,"is_disabled":false,"rental_uris":{"android":"levelo://app?vid=3845b92b-2215-4a79-be64-fa2b0d45d0ba","ios":"levelo://app?vid=3845b92b-2215-4a79-be64-fa2b0d45d0ba"},"vehicle_type_id":"4","last_reported":1747523334,"current_range_meters":15200,"station_id":"ce4bgvh2rcd13ifvqcs0","pricing_plan_id":"cebpf4jnsgd1na2vs0mg"},{"bike_id":"0c165bca-f7c3-4796-b1ff-9699ac228cc9","system_id":"levelo_inurba_marseille","lat":43.29028,"lon":5.38645,"is_reserved":false,"is_disabled":false,"rental_uris":{"android":"levelo://app?vid=0c165bca-f7c3-4796-b1ff-9699ac228cc9","ios":"levelo://app?vid=0c165bca-f7c3-4796-b1ff-9699ac228cc9"},"vehicle_type_id":"4","last_reported":1747523334,"current_range_meters":15200,"station_id":"ce4bh4p2rcd13ifvqe0g","pricing_plan_id":"cebpf4jnsgd1na2vs0mg"},{"bike_id":"143b3c84-12ee-4971-be5f-a354417e1619","system_id":"levelo_inurba_marseille","lat":43.27998,"lon":5.40016,"is_reserved":false,"is_disabled":false,"rental_uris":{"android":"levelo://app?vid=143b3c84-12ee-4971-be5f-a354417e1619","ios":"levelo://app?vid=143b3c84-12ee-4971-be5f-a354417e1619"},"vehicle_type_id":"4","last_reported":1747523334,"current_range_meters":15200,"station_id":"ce4bho92rcd13ifvqh4g","pricing_plan_id":"cebpf4jnsgd1na2vs0mg"},{"bike_id":"55982159-14b0-423d-a8c0-c157cf2770cd","system_id":"levelo_inurba_marseille","lat":43.277762,"lon":5.36234,"is_reserved":false,"is_disabled":false,"rental_uris":{"android":"levelo://app?vid=55982159-14b0-423d-a8c0-c157cf2770cd","ios":"levelo://app?vid=55982159-14b0-423d-a8c0-c157cf2770cd"},"vehicle_type_id":"4","last_reported":1747523334,"current_range_meters":16000,"station_id":"","pricing_plan_id":"cebpf4jnsgd1na2vs0mg"},{"bike_id":"b26a0dd7-cbdc-4ab7-8def-31c4b88b224a","system_id":"levelo_inurba_marseille","lat":43.312204,"lon":5.392542,"is_reserved":false,"is_disabled":false,"rental_uris":{"android":"levelo://app?vid=b26a0dd7-cbdc-4ab7-8def-31c4b88b224a","ios":"levelo://app?vid=b26a0dd7-cbdc-4ab7-8def-31c4b88b224a"},"vehicle_type_id":"4","last_reported":1747523334,"current_range_meters":16000,"station_id":"","pricing_plan_id":"cebpf4jnsgd1na2vs0mg"},{"bike_id":"5911af4c-0fec-4cf2-a307-b3bae3f3f5c8","system_id":"levelo_inurba_marseille","lat":43.31331,"lon":5.39704,"is_reserved":false,"is_disabled":false,"rental_uris":{"android":"levelo://app?vid=5911af4c-0fec-4cf2-a307-b3bae3f3f5c8","ios":"levelo://app?vid=5911af4c-0fec-4cf2-a307-b3bae3f3f5c8"},"vehicle_type_id":"4","last_reported":1747523334,"current_range_meters":16000,"station_id":"ce4bgvp2rcd13ifvqcu0","pricing_plan_id":"cebpf4jnsgd1na2vs0mg"},{"bike_id":"7a31f435-63bc-4ff6-838b-d79912959956","system_id":"levelo_inurba_marseille","lat":43.26227,"lon":5.40453,"is_reserved":false,"is_disabled":false,"rental_uris":{"android":"levelo://app?vid=7a31f435-63bc-4ff6-838b-d79912959956","ios":"levelo://app?vid=7a31f435-63bc-4ff6-838b-d79912959956"},"vehicle_type_id":"4","last_reported":1747523334,"current_range_meters":16000,"station_id":"ce4bhmh2rcd13ifvqgmg","pricing_plan_id":"cebpf4jnsgd1na2vs0mg"},{"bike_id":"cbff0bd8-ab69-455f-978e-8e044433b1ea","system_id":"levelo_inurba_marseille","lat":43.30323,"lon":5.40426,"is_reserved":false,"is_disabled":false,"rental_uris":{"android":"levelo://app?vid=cbff0bd8-ab69-455f-978e-8e044433b1ea","ios":"levelo://app?vid=cbff0bd8-ab69-455f-978e-8e044433b1ea"},"vehicle_type_id":"4","last_reported":1747523334,"current_range_meters":16400,"station_id":"ce4bh012rcd13ifvqd10","pricing_plan_id":"cebpf4jnsgd1na2vs0mg"},{"bike_id":"f1c591de-b384-4b9c-864e-3bb64cf3b906","system_id":"levelo_inurba_marseille","lat":43.29268,"lon":5.3684,"is_reserved":false,"is_disabled":false,"rental_uris":{"android":"levelo://app?vid=f1c591de-b384-4b9c-864e-3bb64cf3b906","ios":"levelo://app?vid=f1c591de-b384-4b9c-864e-3bb64cf3b906"},"vehicle_type_id":"4","last_reported":1747523334,"current_range_meters":16400,"station_id":"ce4bhbp2rcd13ifvqesg","pricing_plan_id":"cebpf4jnsgd1na2vs0mg"},{"bike_id":"1df77482-56ed-43f0-a80c-7f28eed744f8","system_id":"levelo_inurba_marseille","lat":43.25124,"lon":5.4031,"is_reserved":false,"is_disabled":false,"rental_uris":{"android":"levelo://app?vid=1df77482-56ed-43f0-a80c-7f28eed744f8","ios":"levelo://app?vid=1df77482-56ed-43f0-a80c-7f28eed744f8"},"vehicle_type_id":"4","last_reported":1747523334,"current_range_meters":16400,"station_id":"ce4bhlh2rcd13ifvqgig","pricing_plan_id":"cebpf4jnsgd1na2vs0mg"},{"bike_id":"c5ff94be-c2ea-413f-a053-ee20ee5d180d","system_id":"levelo_inurba_marseille","lat":43.31112,"lon":5.37762,"is_reserved":false,"is_disabled":false,"rental_uris":{"android":"levelo://app?vid=c5ff94be-c2ea-413f-a053-ee20ee5d180d","ios":"levelo://app?vid=c5ff94be-c2ea-413f-a053-ee20ee5d180d"},"vehicle_type_id":"4","last_reported":1747523334,"current_range_meters":16800,"station_id":"ce4bgt92rcd13ifvqcg0","pricing_plan_id":"cebpf4jnsgd1na2vs0mg"},{"bike_id":"d96dc6bd-f013-4f09-a73c-897b2d8c0f21","system_id":"levelo_inurba_marseille","lat":43.31062,"lon":5.3836,"is_reserved":false,"is_disabled":false,"rental_uris":{"android":"levelo://app?vid=d96dc6bd-f013-4f09-a73c-897b2d8c0f21","ios":"levelo://app?vid=d96dc6bd-f013-4f09-a73c-897b2d8c0f21"},"vehicle_type_id":"4","last_reported":1747523334,"current_range_meters":16800,"station_id":"ce4bgv92rcd13ifvqcr0","pricing_plan_id":"cebpf4jnsgd1na2vs0mg"},{"bike_id":"a850da5e-2c6f-4699-bc79-e368f4fdbff8","system_id":"levelo_inurba_marseille","lat":43.31068,"lon":5.3836,"is_reserved":false,"is_disabled":false,"rental_uris":{"android":"levelo://app?vid=a850da5e-2c6f-4699-bc79-e368f4fdbff8","ios":"levelo://app?vid=a850da5e-2c6f-4699-bc79-e368f4fdbff8"},"vehicle_type_id":"4","last_reported":1747523334,"current_range_meters":16800,"station_id":"ce4bgv92rcd13ifvqcr0","pricing_plan_id":"cebpf4jnsgd1na2vs0mg"},{"bike_id":"3d9a5ea7-d254-47c2-95e0-bc3bfbece4e5","system_id":"levelo_inurba_marseille","lat":43.29883,"lon":5.38898,"is_reserved":false,"is_disabled":false,"rental_uris":{"android":"levelo://app?vid=3d9a5ea7-d254-47c2-95e0-bc3bfbece4e5","ios":"levelo://app?vid=3d9a5ea7-d254-47c2-95e0-bc3bfbece4e5"},"vehicle_type_id":"4","last_reported":1747523334,"current_range_meters":16800,"station_id":"ce4bh392rcd13ifvqdl0","pricing_plan_id":"cebpf4jnsgd1na2vs0mg"},{"bike_id":"3cb5ab65-e080-4f1c-86ed-bc2cf7eb2012","system_id":"levelo_inurba_marseille","lat":43.24654,"lon":5.38894,"is_reserved":false,"is_disabled":false,"rental_uris":{"android":"levelo://app?vid=3cb5ab65-e080-4f1c-86ed-bc2cf7eb2012","ios":"levelo://app?vid=3cb5ab65-e080-4f1c-86ed-bc2cf7eb2012"},"vehicle_type_id":"4","last_reported":1747523334,"current_range_meters":16800,"station_id":"ce4bhg12rcd13ifvqf60","pricing_plan_id":"cebpf4jnsgd1na2vs0mg"},{"bike_id":"28747bfc-b322-4c3b-83de-42165f9287b2","system_id":"levelo_inurba_marseille","lat":43.26929,"lon":5.38908,"is_reserved":false,"is_disabled":false,"rental_uris":{"android":"levelo://app?vid=28747bfc-b322-4c3b-83de-42165f9287b2","ios":"levelo://app?vid=28747bfc-b322-4c3b-83de-42165f9287b2"},"vehicle_type_id":"4","last_reported":1747523334,"current_range_meters":16800,"station_id":"ce4bhhh2rcd13ifvqfl0","pricing_plan_id":"cebpf4jnsgd1na2vs0mg"},{"bike_id":"942d70f0-6de3-463e-b885-a14fc7604da5","system_id":"levelo_inurba_marseille","lat":43.246633,"lon":5.381653,"is_reserved":false,"is_disabled":false,"rental_uris":{"android":"levelo://app?vid=942d70f0-6de3-463e-b885-a14fc7604da5","ios":"levelo://app?vid=942d70f0-6de3-463e-b885-a14fc7604da5"},"vehicle_type_id":"4","last_reported":1747523334,"current_range_meters":16800,"station_id":"ce4bhih2rcd13ifvqfr0","pricing_plan_id":"cebpf4jnsgd1na2vs0mg"},{"bike_id":"5dee036b-29cd-483a-bada-e312729a7e07","system_id":"levelo_inurba_marseille","lat":43.307998,"lon":5.38157,"is_reserved":false,"is_disabled":false,"rental_uris":{"android":"levelo://app?vid=5dee036b-29cd-483a-bada-e312729a7e07","ios":"levelo://app?vid=5dee036b-29cd-483a-bada-e312729a7e07"},"vehicle_type_id":"4","last_reported":1747523334,"current_range_meters":17200,"station_id":"ce4bgt12rcd13ifvqce0","pricing_plan_id":"cebpf4jnsgd1na2vs0mg"},{"bike_id":"6fcf7786-604b-45e4-ad5a-9622ad3ce05f","system_id":"levelo_inurba_marseille","lat":43.29208,"lon":5.39328,"is_reserved":false,"is_disabled":false,"rental_uris":{"android":"levelo://app?vid=6fcf7786-604b-45e4-ad5a-9622ad3ce05f","ios":"levelo://app?vid=6fcf7786-604b-45e4-ad5a-9622ad3ce05f"},"vehicle_type_id":"4","last_reported":1747523334,"current_range_meters":17200,"station_id":"ce4bh192rcd13ifvqdd0","pricing_plan_id":"cebpf4jnsgd1na2vs0mg"},{"bike_id":"62d25987-b4d0-457b-adca-d6ea029e5e3c","system_id":"levelo_inurba_marseille","lat":43.28105,"lon":5.3783,"is_reserved":false,"is_disabled":false,"rental_uris":{"android":"levelo://app?vid=62d25987-b4d0-457b-adca-d6ea029e5e3c","ios":"levelo://app?vid=62d25987-b4d0-457b-adca-d6ea029e5e3c"},"vehicle_type_id":"4","last_reported":1747523334,"current_range_meters":17200,"station_id":"ce4bha12rcd13ifvqee0","pricing_plan_id":"cebpf4jnsgd1na2vs0mg"},{"bike_id":"3fb3ba9a-2780-4c8e-ba17-5b1e963c55ae","system_id":"levelo_inurba_marseille","lat":43.24648,"lon":5.38886,"is_reserved":false,"is_disabled":false,"rental_uris":{"android":"levelo://app?vid=3fb3ba9a-2780-4c8e-ba17-5b1e963c55ae","ios":"levelo://app?vid=3fb3ba9a-2780-4c8e-ba17-5b1e963c55ae"},"vehicle_type_id":"4","last_reported":1747523334,"current_range_meters":17200,"station_id":"ce4bhg12rcd13ifvqf60","pricing_plan_id":"cebpf4jnsgd1na2vs0mg"},{"bike_id":"c38c0434-7c0b-4918-a236-1841e549db1d","system_id":"levelo_inurba_marseille","lat":43.250993,"lon":5.403153,"is_reserved":false,"is_disabled":false,"rental_uris":{"android":"levelo://app?vid=c38c0434-7c0b-4918-a236-1841e549db1d","ios":"levelo://app?vid=c38c0434-7c0b-4918-a236-1841e549db1d"},"vehicle_type_id":"4","last_reported":1747523334,"current_range_meters":17200,"station_id":"ce4bhlh2rcd13ifvqgig","pricing_plan_id":"cebpf4jnsgd1na2vs0mg"},{"bike_id":"ac25e498-bb19-40a6-9b78-628d48d84d83","system_id":"levelo_inurba_marseille","lat":43.25116,"lon":5.40318,"is_reserved":false,"is_disabled":false,"rental_uris":{"android":"levelo://app?vid=ac25e498-bb19-40a6-9b78-628d48d84d83","ios":"levelo://app?vid=ac25e498-bb19-40a6-9b78-628d48d84d83"},"vehicle_type_id":"4","last_reported":1747523334,"current_range_meters":17200,"station_id":"ce4bhlh2rcd13ifvqgig","pricing_plan_id":"cebpf4jnsgd1na2vs0mg"},{"bike_id":"58887f66-7108-4294-a00e-551c17af804a","system_id":"levelo_inurba_marseille","lat":43.262258,"lon":5.404436,"is_reserved":false,"is_disabled":false,"rental_uris":{"android":"levelo://app?vid=58887f66-7108-4294-a00e-551c17af804a","ios":"levelo://app?vid=58887f66-7108-4294-a00e-551c17af804a"},"vehicle_type_id":"4","last_reported":1747523334,"current_range_meters":17200,"station_id":"ce4bhmh2rcd13ifvqgmg","pricing_plan_id":"cebpf4jnsgd1na2vs0mg"},{"bike_id":"06c033d2-3862-4b05-a45e-6ce62efead61","system_id":"levelo_inurba_marseille","lat":43.27814,"lon":5.40702,"is_reserved":false,"is_disabled":false,"rental_uris":{"android":"levelo://app?vid=06c033d2-3862-4b05-a45e-6ce62efead61","ios":"levelo://app?vid=06c033d2-3862-4b05-a45e-6ce62efead61"},"vehicle_type_id":"4","last_reported":1747523334,"current_range_meters":17200,"station_id":"ce4bhnh2rcd13ifvqgtg","pricing_plan_id":"cebpf4jnsgd1na2vs0mg"},{"bike_id":"d0778812-f85e-4a0f-a86e-17cdf7e231cd","system_id":"levelo_inurba_marseille","lat":43.27987,"lon":5.41657,"is_reserved":false,"is_disabled":false,"rental_uris":{"android":"levelo://app?vid=d0778812-f85e-4a0f-a86e-17cdf7e231cd","ios":"levelo://app?vid=d0778812-f85e-4a0f-a86e-17cdf7e231cd"},"vehicle_type_id":"4","last_reported":1747523334,"current_range_meters":17200,"station_id":"ce4bho12rcd13ifvqh1g","pricing_plan_id":"cebpf4jnsgd1na2vs0mg"},{"bike_id":"e436e3b2-b385-4a38-ae08-f41134a00608","system_id":"levelo_inurba_marseille","lat":43.29559,"lon":5.42283,"is_reserved":false,"is_disabled":false,"rental_uris":{"android":"levelo://app?vid=e436e3b2-b385-4a38-ae08-f41134a00608","ios":"levelo://app?vid=e436e3b2-b385-4a38-ae08-f41134a00608"},"vehicle_type_id":"4","last_reported":1747523334,"current_range_meters":17200,"station_id":"ce4bhph2rcd13ifvqhdg","pricing_plan_id":"cebpf4jnsgd1na2vs0mg"},{"bike_id":"ed34fad4-c48e-4c1a-b9b1-8eb1cd77d573","system_id":"levelo_inurba_marseille","lat":43.30949,"lon":5.38636,"is_reserved":false,"is_disabled":false,"rental_uris":{"android":"levelo://app?vid=ed34fad4-c48e-4c1a-b9b1-8eb1cd77d573","ios":"levelo://app?vid=ed34fad4-c48e-4c1a-b9b1-8eb1cd77d573"},"vehicle_type_id":"4","last_reported":1747523334,"current_range_meters":17200,"station_id":"ce4bhqh2rcd13ifvqhmg","pricing_plan_id":"cebpf4jnsgd1na2vs0mg"},{"bike_id":"bf2b2bfb-9733-4bda-908d-03391ae976cc","system_id":"levelo_inurba_marseille","lat":43.31184,"lon":5.4162,"is_reserved":false,"is_disabled":false,"rental_uris":{"android":"levelo://app?vid=bf2b2bfb-9733-4bda-908d-03391ae976cc","ios":"levelo://app?vid=bf2b2bfb-9733-4bda-908d-03391ae976cc"},"vehicle_type_id":"4","last_reported":1747523334,"current_range_meters":17600,"station_id":"","pricing_plan_id":"cebpf4jnsgd1na2vs0mg"},{"bike_id":"b2bcb91a-c797-44d3-b11c-a9c924fdd37f","system_id":"levelo_inurba_marseille","lat":43.308815,"lon":5.396325,"is_reserved":false,"is_disabled":false,"rental_uris":{"android":"levelo://app?vid=b2bcb91a-c797-44d3-b11c-a9c924fdd37f","ios":"levelo://app?vid=b2bcb91a-c797-44d3-b11c-a9c924fdd37f"},"vehicle_type_id":"4","last_reported":1747523334,"current_range_meters":17600,"station_id":"ce4bh012rcd13ifvqcv0","pricing_plan_id":"cebpf4jnsgd1na2vs0mg"},{"bike_id":"8fd9a013-85a1-4997-91c5-cbde0eea7c21","system_id":"levelo_inurba_marseille","lat":43.27832,"lon":5.39203,"is_reserved":false,"is_disabled":false,"rental_uris":{"android":"levelo://app?vid=8fd9a013-85a1-4997-91c5-cbde0eea7c21","ios":"levelo://app?vid=8fd9a013-85a1-4997-91c5-cbde0eea7c21"},"vehicle_type_id":"4","last_reported":1747523334,"current_range_meters":17600,"station_id":"ce4bhjp2rcd13ifvqga0","pricing_plan_id":"cebpf4jnsgd1na2vs0mg"},{"bike_id":"c591037e-9bdc-4128-b08a-269580cd419f","system_id":"levelo_inurba_marseille","lat":43.319787,"lon":5.381243,"is_reserved":false,"is_disabled":false,"rental_uris":{"android":"levelo://app?vid=c591037e-9bdc-4128-b08a-269580cd419f","ios":"levelo://app?vid=c591037e-9bdc-4128-b08a-269580cd419f"},"vehicle_type_id":"4","last_reported":1747523334,"current_range_meters":17600,"station_id":"ce4bhr12rcd13ifvqhpg","pricing_plan_id":"cebpf4jnsgd1na2vs0mg"},{"bike_id":"19456222-7d38-48cf-a950-06daadd07927","system_id":"levelo_inurba_marseille","lat":43.250214,"lon":5.3754,"is_reserved":false,"is_disabled":false,"rental_uris":{"android":"levelo://app?vid=19456222-7d38-48cf-a950-06daadd07927","ios":"levelo://app?vid=19456222-7d38-48cf-a950-06daadd07927"},"vehicle_type_id":"4","last_reported":1747523334,"current_range_meters":18000,"station_id":"","pricing_plan_id":"cebpf4jnsgd1na2vs0mg"},{"bike_id":"86603db7-b462-4e72-8622-a2dee8bb2920","system_id":"levelo_inurba_marseille","lat":43.337444,"lon":5.374475,"is_reserved":false,"is_disabled":false,"rental_uris":{"android":"levelo://app?vid=86603db7-b462-4e72-8622-a2dee8bb2920","ios":"levelo://app?vid=86603db7-b462-4e72-8622-a2dee8bb2920"},"vehicle_type_id":"4","last_reported":1747523334,"current_range_meters":18000,"station_id":"","pricing_plan_id":"cebpf4jnsgd1na2vs0mg"},{"bike_id":"05fe01d2-40f3-4e3b-90d4-04bfd9be0ae2","system_id":"levelo_inurba_marseille","lat":43.30292,"lon":5.39208,"is_reserved":false,"is_disabled":false,"rental_uris":{"android":"levelo://app?vid=05fe01d2-40f3-4e3b-90d4-04bfd9be0ae2","ios":"levelo://app?vid=05fe01d2-40f3-4e3b-90d4-04bfd9be0ae2"},"vehicle_type_id":"4","last_reported":1747523334,"current_range_meters":18000,"station_id":"ce4bgkh2rcd13ifvqbk0","pricing_plan_id":"cebpf4jnsgd1na2vs0mg"},{"bike_id":"9c7ceeee-6144-4485-9453-d506f726ede0","system_id":"levelo_inurba_marseille","lat":43.30327,"lon":5.40434,"is_reserved":false,"is_disabled":false,"rental_uris":{"android":"levelo://app?vid=9c7ceeee-6144-4485-9453-d506f726ede0","ios":"levelo://app?vid=9c7ceeee-6144-4485-9453-d506f726ede0"},"vehicle_type_id":"4","last_reported":1747523334,"current_range_meters":18000,"station_id":"ce4bh012rcd13ifvqd10","pricing_plan_id":"cebpf4jnsgd1na2vs0mg"},{"bike_id":"8d2d9f61-e608-4b0f-bb8a-b346f6f803f9","system_id":"levelo_inurba_marseille","lat":43.30134,"lon":5.39863,"is_reserved":false,"is_disabled":false,"rental_uris":{"android":"levelo://app?vid=8d2d9f61-e608-4b0f-bb8a-b346f6f803f9","ios":"levelo://app?vid=8d2d9f61-e608-4b0f-bb8a-b346f6f803f9"},"vehicle_type_id":"4","last_reported":1747523334,"current_range_meters":18000,"station_id":"ce4bh0h2rcd13ifvqd40","pricing_plan_id":"cebpf4jnsgd1na2vs0mg"},{"bike_id":"242ebe33-e299-44a7-8eed-0c78cc77e27f","system_id":"levelo_inurba_marseille","lat":43.24665,"lon":5.38139,"is_reserved":false,"is_disabled":false,"rental_uris":{"android":"levelo://app?vid=242ebe33-e299-44a7-8eed-0c78cc77e27f","ios":"levelo://app?vid=242ebe33-e299-44a7-8eed-0c78cc77e27f"},"vehicle_type_id":"4","last_reported":1747523334,"current_range_meters":18000,"station_id":"ce4bhih2rcd13ifvqfr0","pricing_plan_id":"cebpf4jnsgd1na2vs0mg"},{"bike_id":"5ddd41df-5811-4b09-99f7-599fa0ee82b0","system_id":"levelo_inurba_marseille","lat":43.24537,"lon":5.39533,"is_reserved":false,"is_disabled":false,"rental_uris":{"android":"levelo://app?vid=5ddd41df-5811-4b09-99f7-599fa0ee82b0","ios":"levelo://app?vid=5ddd41df-5811-4b09-99f7-599fa0ee82b0"},"vehicle_type_id":"4","last_reported":1747523334,"current_range_meters":18000,"station_id":"ce4bhlp2rcd13ifvqgjg","pricing_plan_id":"cebpf4jnsgd1na2vs0mg"},{"bike_id":"db647a88-7197-40ac-aeb0-6195ce252bd5","system_id":"levelo_inurba_marseille","lat":43.31076,"lon":5.42435,"is_reserved":false,"is_disabled":false,"rental_uris":{"android":"levelo://app?vid=db647a88-7197-40ac-aeb0-6195ce252bd5","ios":"levelo://app?vid=db647a88-7197-40ac-aeb0-6195ce252bd5"},"vehicle_type_id":"4","last_reported":1747523334,"current_range_meters":18000,"station_id":"ce4bhp92rcd13ifvqhag","pricing_plan_id":"cebpf4jnsgd1na2vs0mg"},{"bike_id":"1e2f0c80-2ce7-417a-ae75-e6a168f4d00d","system_id":"levelo_inurba_marseille","lat":43.28611,"lon":5.38679,"is_reserved":false,"is_disabled":false,"rental_uris":{"android":"levelo://app?vid=1e2f0c80-2ce7-417a-ae75-e6a168f4d00d","ios":"levelo://app?vid=1e2f0c80-2ce7-417a-ae75-e6a168f4d00d"},"vehicle_type_id":"4","last_reported":1747523334,"current_range_meters":18800,"station_id":"","pricing_plan_id":"cebpf4jnsgd1na2vs0mg"},{"bike_id":"a8085997-0af4-4667-a061-b271c4b9805c","system_id":"levelo_inurba_marseille","lat":43.29248,"lon":5.40918,"is_reserved":false,"is_disabled":false,"rental_uris":{"android":"levelo://app?vid=a8085997-0af4-4667-a061-b271c4b9805c","ios":"levelo://app?vid=a8085997-0af4-4667-a061-b271c4b9805c"},"vehicle_type_id":"4","last_reported":1747523334,"current_range_meters":18800,"station_id":"ce4bh192rcd13ifvqdc0","pricing_plan_id":"cebpf4jnsgd1na2vs0mg"},{"bike_id":"3041cd5e-fc09-4e0a-b51a-14bc0455bed0","system_id":"levelo_inurba_marseille","lat":43.288308,"lon":5.392619,"is_reserved":false,"is_disabled":false,"rental_uris":{"android":"levelo://app?vid=3041cd5e-fc09-4e0a-b51a-14bc0455bed0","ios":"levelo://app?vid=3041cd5e-fc09-4e0a-b51a-14bc0455bed0"},"vehicle_type_id":"4","last_reported":1747523334,"current_range_meters":18800,"station_id":"ce4bh292rcd13ifvqdg0","pricing_plan_id":"cebpf4jnsgd1na2vs0mg"},{"bike_id":"06ce6dc4-ef33-4c7e-8fe4-965d98e984fb","system_id":"levelo_inurba_marseille","lat":43.283404,"lon":5.38098,"is_reserved":false,"is_disabled":false,"rental_uris":{"android":"levelo://app?vid=06ce6dc4-ef33-4c7e-8fe4-965d98e984fb","ios":"levelo://app?vid=06ce6dc4-ef33-4c7e-8fe4-965d98e984fb"},"vehicle_type_id":"4","last_reported":1747523334,"current_range_meters":18800,"station_id":"ce4bh412rcd13ifvqdr0","pricing_plan_id":"cebpf4jnsgd1na2vs0mg"},{"bike_id":"5d081277-6802-4c07-af4c-e3a6ac5a50f2","system_id":"levelo_inurba_marseille","lat":43.28716,"lon":5.37939,"is_reserved":false,"is_disabled":false,"rental_uris":{"android":"levelo://app?vid=5d081277-6802-4c07-af4c-e3a6ac5a50f2","ios":"levelo://app?vid=5d081277-6802-4c07-af4c-e3a6ac5a50f2"},"vehicle_type_id":"4","last_reported":1747523334,"current_range_meters":18800,"station_id":"ce4bh9p2rcd13ifvqec0","pricing_plan_id":"cebpf4jnsgd1na2vs0mg"},{"bike_id":"cf99a182-05bd-4cbc-b6a6-6a33541bdb08","system_id":"levelo_inurba_marseille","lat":43.2511,"lon":5.40329,"is_reserved":false,"is_disabled":false,"rental_uris":{"android":"levelo://app?vid=cf99a182-05bd-4cbc-b6a6-6a33541bdb08","ios":"levelo://app?vid=cf99a182-05bd-4cbc-b6a6-6a33541bdb08"},"vehicle_type_id":"4","last_reported":1747523334,"current_range_meters":18800,"station_id":"ce4bhlh2rcd13ifvqgig","pricing_plan_id":"cebpf4jnsgd1na2vs0mg"},{"bike_id":"671a5881-cd5a-496b-a9eb-24089ab6cb15","system_id":"levelo_inurba_marseille","lat":43.32284,"lon":5.38271,"is_reserved":false,"is_disabled":false,"rental_uris":{"android":"levelo://app?vid=671a5881-cd5a-496b-a9eb-24089ab6cb15","ios":"levelo://app?vid=671a5881-cd5a-496b-a9eb-24089ab6cb15"},"vehicle_type_id":"4","last_reported":1747523334,"current_range_meters":18800,"station_id":"ce4bhr12rcd13ifvqhqg","pricing_plan_id":"cebpf4jnsgd1na2vs0mg"},{"bike_id":"89f39b3d-b959-496f-bb0e-9b5f1bc9bb6f","system_id":"levelo_inurba_marseille","lat":43.2981,"lon":5.39353,"is_reserved":false,"is_disabled":false,"rental_uris":{"android":"levelo://app?vid=89f39b3d-b959-496f-bb0e-9b5f1bc9bb6f","ios":"levelo://app?vid=89f39b3d-b959-496f-bb0e-9b5f1bc9bb6f"},"vehicle_type_id":"4","last_reported":1747523334,"current_range_meters":18800,"station_id":"chh1huq6cuj3fo74tm60","pricing_plan_id":"cebpf4jnsgd1na2vs0mg"},{"bike_id":"26ae3f71-446b-4d48-9715-d0cb78472fbf","system_id":"levelo_inurba_marseille","lat":43.31115,"lon":5.37032,"is_reserved":false,"is_disabled":false,"rental_uris":{"android":"levelo://app?vid=26ae3f71-446b-4d48-9715-d0cb78472fbf","ios":"levelo://app?vid=26ae3f71-446b-4d48-9715-d0cb78472fbf"},"vehicle_type_id":"4","last_reported":1747523334,"current_range_meters":19200,"station_id":"","pricing_plan_id":"cebpf4jnsgd1na2vs0mg"},{"bike_id":"cec3f715-614f-4bf0-96bd-7080ba74ba99","system_id":"levelo_inurba_marseille","lat":43.3113,"lon":5.37744,"is_reserved":false,"is_disabled":false,"rental_uris":{"android":"levelo://app?vid=cec3f715-614f-4bf0-96bd-7080ba74ba99","ios":"levelo://app?vid=cec3f715-614f-4bf0-96bd-7080ba74ba99"},"vehicle_type_id":"4","last_reported":1747523334,"current_range_meters":19200,"station_id":"ce4bgt92rcd13ifvqcg0","pricing_plan_id":"cebpf4jnsgd1na2vs0mg"},{"bike_id":"f208bd28-fabc-4a88-9482-6fdde26dad0c","system_id":"levelo_inurba_marseille","lat":43.31075,"lon":5.383533,"is_reserved":false,"is_disabled":false,"rental_uris":{"android":"levelo://app?vid=f208bd28-fabc-4a88-9482-6fdde26dad0c","ios":"levelo://app?vid=f208bd28-fabc-4a88-9482-6fdde26dad0c"},"vehicle_type_id":"4","last_reported":1747523334,"current_range_meters":19200,"station_id":"ce4bgv92rcd13ifvqcr0","pricing_plan_id":"cebpf4jnsgd1na2vs0mg"},{"bike_id":"10c61589-e6eb-469d-8214-e4ff226596c8","system_id":"levelo_inurba_marseille","lat":43.28701,"lon":5.37375,"is_reserved":false,"is_disabled":false,"rental_uris":{"android":"levelo://app?vid=10c61589-e6eb-469d-8214-e4ff226596c8","ios":"levelo://app?vid=10c61589-e6eb-469d-8214-e4ff226596c8"},"vehicle_type_id":"4","last_reported":1747523334,"current_range_meters":19200,"station_id":"ce4bh3p2rcd13ifvqdq0","pricing_plan_id":"cebpf4jnsgd1na2vs0mg"},{"bike_id":"9fd2e10c-fbe3-4e23-a9c1-0ffaab070447","system_id":"levelo_inurba_marseille","lat":43.28715,"lon":5.37937,"is_reserved":false,"is_disabled":false,"rental_uris":{"android":"levelo://app?vid=9fd2e10c-fbe3-4e23-a9c1-0ffaab070447","ios":"levelo://app?vid=9fd2e10c-fbe3-4e23-a9c1-0ffaab070447"},"vehicle_type_id":"4","last_reported":1747523334,"current_range_meters":19200,"station_id":"ce4bh9p2rcd13ifvqec0","pricing_plan_id":"cebpf4jnsgd1na2vs0mg"},{"bike_id":"bcd68d26-4679-4684-aa18-77b2de475792","system_id":"levelo_inurba_marseille","lat":43.28702,"lon":5.3999,"is_reserved":false,"is_disabled":false,"rental_uris":{"android":"levelo://app?vid=bcd68d26-4679-4684-aa18-77b2de475792","ios":"levelo://app?vid=bcd68d26-4679-4684-aa18-77b2de475792"},"vehicle_type_id":"4","last_reported":1747523334,"current_range_meters":19200,"station_id":"ce4bho92rcd13ifvqh3g","pricing_plan_id":"cebpf4jnsgd1na2vs0mg"},{"bike_id":"e380e188-a303-474b-b80b-a2c302d00fcc","system_id":"levelo_inurba_marseille","lat":43.29791,"lon":5.39344,"is_reserved":false,"is_disabled":false,"rental_uris":{"android":"levelo://app?vid=e380e188-a303-474b-b80b-a2c302d00fcc","ios":"levelo://app?vid=e380e188-a303-474b-b80b-a2c302d00fcc"},"vehicle_type_id":"4","last_reported":1747523334,"current_range_meters":19200,"station_id":"chh1huq6cuj3fo74tm60","pricing_plan_id":"cebpf4jnsgd1na2vs0mg"},{"bike_id":"598b36b3-51a7-475c-9d83-0758256661d9","system_id":"levelo_inurba_marseille","lat":43.26941,"lon":5.40247,"is_reserved":false,"is_disabled":false,"rental_uris":{"android":"levelo://app?vid=598b36b3-51a7-475c-9d83-0758256661d9","ios":"levelo://app?vid=598b36b3-51a7-475c-9d83-0758256661d9"},"vehicle_type_id":"4","last_reported":1747523334,"current_range_meters":19200,"station_id":"cjm6bp8fraef2m0cb0m0","pricing_plan_id":"cebpf4jnsgd1na2vs0mg"},{"bike_id":"fd02712b-7e36-413d-9b23-073fcfa4aeec","system_id":"levelo_inurba_marseille","lat":43.3088,"lon":5.39643,"is_reserved":false,"is_disabled":false,"rental_uris":{"android":"levelo://app?vid=fd02712b-7e36-413d-9b23-073fcfa4aeec","ios":"levelo://app?vid=fd02712b-7e36-413d-9b23-073fcfa4aeec"},"vehicle_type_id":"4","last_reported":1747523334,"current_range_meters":19600,"station_id":"ce4bh012rcd13ifvqcv0","pricing_plan_id":"cebpf4jnsgd1na2vs0mg"},{"bike_id":"d07e06d1-a7ee-4f19-bbc2-614753adbadc","system_id":"levelo_inurba_marseille","lat":43.28412,"lon":5.37523,"is_reserved":false,"is_disabled":false,"rental_uris":{"android":"levelo://app?vid=d07e06d1-a7ee-4f19-bbc2-614753adbadc","ios":"levelo://app?vid=d07e06d1-a7ee-4f19-bbc2-614753adbadc"},"vehicle_type_id":"4","last_reported":1747523334,"current_range_meters":19600,"station_id":"ce4bh412rcd13ifvqds0","pricing_plan_id":"cebpf4jnsgd1na2vs0mg"},{"bike_id":"2cccc4a8-7d9e-43b1-8627-6177fd70d89a","system_id":"levelo_inurba_marseille","lat":43.263342,"lon":5.396885,"is_reserved":false,"is_disabled":false,"rental_uris":{"android":"levelo://app?vid=2cccc4a8-7d9e-43b1-8627-6177fd70d89a","ios":"levelo://app?vid=2cccc4a8-7d9e-43b1-8627-6177fd70d89a"},