{"last_updated":1744647167,"ttl":60,"version":"2.2","data":{"bikes":[{"bike_id":"a59dbcaf-7c3d-4a5c-921f-0456f8855e32","system_id":"levelo_inurba_marseille","lat":43.26588,"lon":5.39053,"is_reserved":false,"is_disabled":false,"rental_uris":{"android":"levelo://app?vid=a59dbcaf-7c3d-4a5c-921f-0456f8855e32","ios":"levelo://app?vid=a59dbcaf-7c3d-4a5c-921f-0456f8855e32"},"vehicle_type_id":"4","last_reported":1744647167,"current_range_meters":2800,"station_id":"","pricing_plan_id":"cebpf4jnsgd1na2vs0mg"},{"bike_id":"4a0973b0-92a0-41e8-9b0d-a99e944bafe0","system_id":"levelo_inurba_marseille","lat":43.34514,"lon":5.41253,"is_reserved":false,"is_disabled":false,"rental_uris":{"android":"levelo://app?vid=4a0973b0-92a0-41e8-9b0d-a99e944bafe0","ios":"levelo://app?vid=4a0973b0-92a0-41e8-9b0d-a99e944bafe0"},"vehicle_type_id":"4","last_reported":1744647167,"current_range_meters":2800,"station_id":"","pricing_plan_id":"cebpf4jnsgd1na2vs0mg"},{"bike_id":"493cde9e-7859-4c26-a2e6-f744ee5d8553","system_id":"levelo_inurba_marseille","lat":43.31493,"lon":5.36576,"is_reserved":false,"is_disabled":false,"rental_uris":{"android":"levelo://app?vid=493cde9e-7859-4c26-a2e6-f744ee5d8553","ios":"levelo://app?vid=493cde9e-7859-4c26-a2e6-f744ee5d8553"},"vehicle_type_id":"4","last_reported":1744647167,"current_range_meters":2800,"station_id":"","pricing_plan_id":"cebpf4jnsgd1na2vs0mg"},{"bike_id":"ad63b8f2-c865-4619-85f1-8500baa1c3ed","system_id":"levelo_inurba_marseille","lat":43.25128,"lon":5.40321,"is_reserved":false,"is_disabled":false,"rental_uris":{"android":"levelo://app?vid=ad63b8f2-c865-4619-85f1-8500baa1c3ed","ios":"levelo://app?vid=ad63b8f2-c865-4619-85f1-8500baa1c3ed"},"vehicle_type_id":"4","last_reported":1744647167,"current_range_meters":2800,"station_id":"ce4bhlh2rcd13ifvqgig","pricing_plan_id":"cebpf4jnsgd1na2vs0mg"},{"bike_id":"5b77a833-8185-45c2-9fe3-07eb40df54ca","system_id":"levelo_inurba_marseille","lat":43.33995,"lon":5.38057,"is_reserved":false,"is_disabled":false,"rental_uris":{"android":"levelo://app?vid=5b77a833-8185-45c2-9fe3-07eb40df54ca","ios":"levelo://app?vid=5b77a833-8185-45c2-9fe3-07eb40df54ca"},"vehicle_type_id":"4","last_reported":1744647167,"current_range_meters":2800,"station_id":"","pricing_plan_id":"cebpf4jnsgd1na2vs0mg"},{"bike_id":"caffca0f-4aa3-4aaf-a020-b7190befb739","system_id":"levelo_inurba_marseille","lat":43.3015,"lon":5.38778,"is_reserved":false,"is_disabled":true,"rental_uris":{"android":"levelo://app?vid=caffca0f-4aa3-4aaf-a020-b7190befb739","ios":"levelo://app?vid=caffca0f-4aa3-4aaf-a020-b7190befb739"},"vehicle_type_id":"4","last_reported":1744647167,"current_range_meters":3200,"station_id":"ce4bghh2rcd13ifvqb60","pricing_plan_id":"cebpf4jnsgd1na2vs0mg"},{"bike_id":"f07ce176-e024-4c4e-9c18-d54829b7e79a","system_id":"levelo_inurba_marseille","lat":43.30798,"lon":5.37658,"is_reserved":false,"is_disabled":false,"rental_uris":{"android":"levelo://app?vid=f07ce176-e024-4c4e-9c18-d54829b7e79a","ios":"levelo://app?vid=f07ce176-e024-4c4e-9c18-d54829b7e79a"},"vehicle_type_id":"4","last_reported":1744647167,"current_range_meters":3200,"station_id":"ce4bgv92rcd13ifvqcq0","pricing_plan_id":"cebpf4jnsgd1na2vs0mg"},{"bike_id":"66ba59d6-ccd3-4cc0-88d5-c6e0b9af3849","system_id":"levelo_inurba_marseille","lat":43.25115,"lon":5.40322,"is_reserved":false,"is_disabled":false,"rental_uris":{"android":"levelo://app?vid=66ba59d6-ccd3-4cc0-88d5-c6e0b9af3849","ios":"levelo://app?vid=66ba59d6-ccd3-4cc0-88d5-c6e0b9af3849"},"vehicle_type_id":"4","last_reported":1744647167,"current_range_meters":3200,"station_id":"ce4bhlh2rcd13ifvqgig","pricing_plan_id":"cebpf4jnsgd1na2vs0mg"},{"bike_id":"b343f529-b279-42fb-a111-2a4b4ced8a49","system_id":"levelo_inurba_marseille","lat":43.24544,"lon":5.39521,"is_reserved":false,"is_disabled":false,"rental_uris":{"android":"levelo://app?vid=b343f529-b279-42fb-a111-2a4b4ced8a49","ios":"levelo://app?vid=b343f529-b279-42fb-a111-2a4b4ced8a49"},"vehicle_type_id":"4","last_reported":1744647167,"current_range_meters":3200,"station_id":"ce4bhlp2rcd13ifvqgjg","pricing_plan_id":"cebpf4jnsgd1na2vs0mg"},{"bike_id":"1abf3969-1fde-4cf1-a3d4-90481f4f8152","system_id":"levelo_inurba_marseille","lat":43.27838,"lon":5.39216,"is_reserved":false,"is_disabled":false,"rental_uris":{"android":"levelo://app?vid=1abf3969-1fde-4cf1-a3d4-90481f4f8152","ios":"levelo://app?vid=1abf3969-1fde-4cf1-a3d4-90481f4f8152"},"vehicle_type_id":"4","last_reported":1744647167,"current_range_meters":3200,"station_id":"ce4bhjp2rcd13ifvqga0","pricing_plan_id":"cebpf4jnsgd1na2vs0mg"},{"bike_id":"ea445c4b-60d5-4ed0-a71f-f9c99bb9783c","system_id":"levelo_inurba_marseille","lat":43.24674,"lon":5.3816,"is_reserved":false,"is_disabled":false,"rental_uris":{"android":"levelo://app?vid=ea445c4b-60d5-4ed0-a71f-f9c99bb9783c","ios":"levelo://app?vid=ea445c4b-60d5-4ed0-a71f-f9c99bb9783c"},"vehicle_type_id":"4","last_reported":1744647167,"current_range_meters":3600,"station_id":"ce4bhih2rcd13ifvqfr0","pricing_plan_id":"cebpf4jnsgd1na2vs0mg"},{"bike_id":"944bddab-9f41-4da7-80e2-b3e803e6b9a5","system_id":"levelo_inurba_marseille","lat":43.21199,"lon":5.35078,"is_reserved":false,"is_disabled":false,"rental_uris":{"android":"levelo://app?vid=944bddab-9f41-4da7-80e2-b3e803e6b9a5","ios":"levelo://app?vid=944bddab-9f41-4da7-80e2-b3e803e6b9a5"},"vehicle_type_id":"4","last_reported":1744647167,"current_range_meters":3600,"station_id":"st_cvj6sg6p6f1abm77japg","pricing_plan_id":"cebpf4jnsgd1na2vs0mg"},{"bike_id":"6db93bc8-c7a5-430b-85c6-1725072957c9","system_id":"levelo_inurba_marseille","lat":43.30055,"lon":5.37761,"is_reserved":false,"is_disabled":false,"rental_uris":{"android":"levelo://app?vid=6db93bc8-c7a5-430b-85c6-1725072957c9","ios":"levelo://app?vid=6db93bc8-c7a5-430b-85c6-1725072957c9"},"vehicle_type_id":"4","last_reported":1744647167,"current_range_meters":4000,"station_id":"","pricing_plan_id":"cebpf4jnsgd1na2vs0mg"},{"bike_id":"3d16c2e3-7c12-4342-883a-029e0fc16b05","system_id":"levelo_inurba_marseille","lat":43.31067,"lon":5.37122,"is_reserved":false,"is_disabled":false,"rental_uris":{"android":"levelo://app?vid=3d16c2e3-7c12-4342-883a-029e0fc16b05","ios":"levelo://app?vid=3d16c2e3-7c12-4342-883a-029e0fc16b05"},"vehicle_type_id":"4","last_reported":1744647167,"current_range_meters":4000,"station_id":"","pricing_plan_id":"cebpf4jnsgd1na2vs0mg"},{"bike_id":"49c83fe9-f9f2-4e2f-8066-5f58e0bee74e","system_id":"levelo_inurba_marseille","lat":43.23165,"lon":5.43694,"is_reserved":false,"is_disabled":false,"rental_uris":{"android":"levelo://app?vid=49c83fe9-f9f2-4e2f-8066-5f58e0bee74e","ios":"levelo://app?vid=49c83fe9-f9f2-4e2f-8066-5f58e0bee74e"},"vehicle_type_id":"4","last_reported":1744647167,"current_range_meters":4000,"station_id":"ce4bhmp2rcd13ifvqgog","pricing_plan_id":"cebpf4jnsgd1na2vs0mg"},{"bike_id":"4f38e127-be9f-468e-8871-e9cd4f365dca","system_id":"levelo_inurba_marseille","lat":43.24684,"lon":5.41191,"is_reserved":false,"is_disabled":false,"rental_uris":{"android":"levelo://app?vid=4f38e127-be9f-468e-8871-e9cd4f365dca","ios":"levelo://app?vid=4f38e127-be9f-468e-8871-e9cd4f365dca"},"vehicle_type_id":"4","last_reported":1744647167,"current_range_meters":4400,"station_id":"","pricing_plan_id":"cebpf4jnsgd1na2vs0mg"},{"bike_id":"17bcdb68-6679-48a9-9506-4dfa2d2ddaf7","system_id":"levelo_inurba_marseille","lat":43.27942,"lon":5.41047,"is_reserved":false,"is_disabled":false,"rental_uris":{"android":"levelo://app?vid=17bcdb68-6679-48a9-9506-4dfa2d2ddaf7","ios":"levelo://app?vid=17bcdb68-6679-48a9-9506-4dfa2d2ddaf7"},"vehicle_type_id":"4","last_reported":1744647167,"current_range_meters":4400,"station_id":"ce4bhnp2rcd13ifvqh0g","pricing_plan_id":"cebpf4jnsgd1na2vs0mg"},{"bike_id":"103a0598-bcdb-4ecd-93d5-9a88a653e8eb","system_id":"levelo_inurba_marseille","lat":43.28618,"lon":5.35109,"is_reserved":false,"is_disabled":false,"rental_uris":{"android":"levelo://app?vid=103a0598-bcdb-4ecd-93d5-9a88a653e8eb","ios":"levelo://app?vid=103a0598-bcdb-4ecd-93d5-9a88a653e8eb"},"vehicle_type_id":"4","last_reported":1744647167,"current_range_meters":4400,"station_id":"ce4bhch2rcd13ifvqeug","pricing_plan_id":"cebpf4jnsgd1na2vs0mg"},{"bike_id":"3ca547e8-96ad-41dc-b3b7-d045762b5ecf","system_id":"levelo_inurba_marseille","lat":43.24653,"lon":5.38894,"is_reserved":false,"is_disabled":false,"rental_uris":{"android":"levelo://app?vid=3ca547e8-96ad-41dc-b3b7-d045762b5ecf","ios":"levelo://app?vid=3ca547e8-96ad-41dc-b3b7-d045762b5ecf"},"vehicle_type_id":"4","last_reported":1744647167,"current_range_meters":4800,"station_id":"ce4bhg12rcd13ifvqf60","pricing_plan_id":"cebpf4jnsgd1na2vs0mg"},{"bike_id":"fe43a598-f175-479f-ba6d-ddd570f17a01","system_id":"levelo_inurba_marseille","lat":43.31327,"lon":5.39689,"is_reserved":false,"is_disabled":false,"rental_uris":{"android":"levelo://app?vid=fe43a598-f175-479f-ba6d-ddd570f17a01","ios":"levelo://app?vid=fe43a598-f175-479f-ba6d-ddd570f17a01"},"vehicle_type_id":"4","last_reported":1744647167,"current_range_meters":4400,"station_id":"ce4bgvp2rcd13ifvqcu0","pricing_plan_id":"cebpf4jnsgd1na2vs0mg"},{"bike_id":"09e637f0-af02-4c3a-a0b0-e525e44a452e","system_id":"levelo_inurba_marseille","lat":43.29195,"lon":5.3932,"is_reserved":false,"is_disabled":false,"rental_uris":{"android":"levelo://app?vid=09e637f0-af02-4c3a-a0b0-e525e44a452e","ios":"levelo://app?vid=09e637f0-af02-4c3a-a0b0-e525e44a452e"},"vehicle_type_id":"4","last_reported":1744647167,"current_range_meters":4800,"station_id":"ce4bh192rcd13ifvqdd0","pricing_plan_id":"cebpf4jnsgd1na2vs0mg"},{"bike_id":"d80fab47-8c2b-47b9-a8b2-0263ef85ec03","system_id":"levelo_inurba_marseille","lat":43.289384,"lon":5.366442,"is_reserved":false,"is_disabled":false,"rental_uris":{"android":"levelo://app?vid=d80fab47-8c2b-47b9-a8b2-0263ef85ec03","ios":"levelo://app?vid=d80fab47-8c2b-47b9-a8b2-0263ef85ec03"},"vehicle_type_id":"4","last_reported":1744647167,"current_range_meters":6000,"station_id":"ce4bh512rcd13ifvqe3g","pricing_plan_id":"cebpf4jnsgd1na2vs0mg"},{"bike_id":"76450c2c-888f-4d08-a5c0-d825237615aa","system_id":"levelo_inurba_marseille","lat":43.27248,"lon":5.42306,"is_reserved":false,"is_disabled":false,"rental_uris":{"android":"levelo://app?vid=76450c2c-888f-4d08-a5c0-d825237615aa","ios":"levelo://app?vid=76450c2c-888f-4d08-a5c0-d825237615aa"},"vehicle_type_id":"4","last_reported":1744647167,"current_range_meters":6000,"station_id":"","pricing_plan_id":"cebpf4jnsgd1na2vs0mg"},{"bike_id":"17637803-ed28-487c-b796-1f9bd7ef5a65","system_id":"levelo_inurba_marseille","lat":43.23063,"lon":5.35488,"is_reserved":false,"is_disabled":false,"rental_uris":{"android":"levelo://app?vid=17637803-ed28-487c-b796-1f9bd7ef5a65","ios":"levelo://app?vid=17637803-ed28-487c-b796-1f9bd7ef5a65"},"vehicle_type_id":"4","last_reported":1744647167,"current_range_meters":6000,"station_id":"cpo3342slgdg3j2ifvpg","pricing_plan_id":"cebpf4jnsgd1na2vs0mg"},{"bike_id":"3b38ab1c-2331-433b-b0c5-9f7913e6bf1b","system_id":"levelo_inurba_marseille","lat":43.28482,"lon":5.38425,"is_reserved":false,"is_disabled":false,"rental_uris":{"android":"levelo://app?vid=3b38ab1c-2331-433b-b0c5-9f7913e6bf1b","ios":"levelo://app?vid=3b38ab1c-2331-433b-b0c5-9f7913e6bf1b"},"vehicle_type_id":"4","last_reported":1744647167,"current_range_meters":6400,"station_id":"ce4bh512rcd13ifvqe3g","pricing_plan_id":"cebpf4jnsgd1na2vs0mg"},{"bike_id":"e8a97774-4d0d-433b-8cc1-c99e33568527","system_id":"levelo_inurba_marseille","lat":43.25016,"lon":5.38945,"is_reserved":false,"is_disabled":false,"rental_uris":{"android":"levelo://app?vid=e8a97774-4d0d-433b-8cc1-c99e33568527","ios":"levelo://app?vid=e8a97774-4d0d-433b-8cc1-c99e33568527"},"vehicle_type_id":"4","last_reported":1744647167,"current_range_meters":6800,"station_id":"ce4bhgp2rcd13ifvqfd0","pricing_plan_id":"cebpf4jnsgd1na2vs0mg"},{"bike_id":"02c1e6c3-f776-4c2a-93df-8d1cefcd6e4c","system_id":"levelo_inurba_marseille","lat":43.29521,"lon":5.39062,"is_reserved":false,"is_disabled":false,"rental_uris":{"android":"levelo://app?vid=02c1e6c3-f776-4c2a-93df-8d1cefcd6e4c","ios":"levelo://app?vid=02c1e6c3-f776-4c2a-93df-8d1cefcd6e4c"},"vehicle_type_id":"4","last_reported":1744647167,"current_range_meters":6800,"station_id":"ce4bh3p2rcd13ifvqdp0","pricing_plan_id":"cebpf4jnsgd1na2vs0mg"},{"bike_id":"8d438b08-9244-47e9-a32d-4f2af1b316db","system_id":"levelo_inurba_marseille","lat":43.26573,"lon":5.38983,"is_reserved":false,"is_disabled":false,"rental_uris":{"android":"levelo://app?vid=8d438b08-9244-47e9-a32d-4f2af1b316db","ios":"levelo://app?vid=8d438b08-9244-47e9-a32d-4f2af1b316db"},"vehicle_type_id":"4","last_reported":1744647167,"current_range_meters":6800,"station_id":"ce4bhe12rcd13ifvqf30","pricing_plan_id":"cebpf4jnsgd1na2vs0mg"},{"bike_id":"b55dd5e7-54b2-4035-b945-7b626dd7afc7","system_id":"levelo_inurba_marseille","lat":43.27992,"lon":5.4065,"is_reserved":false,"is_disabled":false,"rental_uris":{"android":"levelo://app?vid=b55dd5e7-54b2-4035-b945-7b626dd7afc7","ios":"levelo://app?vid=b55dd5e7-54b2-4035-b945-7b626dd7afc7"},"vehicle_type_id":"4","last_reported":1744647167,"current_range_meters":6800,"station_id":"","pricing_plan_id":"cebpf4jnsgd1na2vs0mg"},{"bike_id":"c42a70f7-6c2e-4d36-974d-849a82c96980","system_id":"levelo_inurba_marseille","lat":43.29006,"lon":5.35602,"is_reserved":false,"is_disabled":false,"rental_uris":{"android":"levelo://app?vid=c42a70f7-6c2e-4d36-974d-849a82c96980","ios":"levelo://app?vid=c42a70f7-6c2e-4d36-974d-849a82c96980"},"vehicle_type_id":"4","last_reported":1744647167,"current_range_meters":7200,"station_id":"ce4bhb92rcd13ifvqen0","pricing_plan_id":"cebpf4jnsgd1na2vs0mg"},{"bike_id":"d46dd18b-2b1b-4c0f-ae66-4a1cdfc33d87","system_id":"levelo_inurba_marseille","lat":43.30247,"lon":5.40072,"is_reserved":false,"is_disabled":false,"rental_uris":{"android":"levelo://app?vid=d46dd18b-2b1b-4c0f-ae66-4a1cdfc33d87","ios":"levelo://app?vid=d46dd18b-2b1b-4c0f-ae66-4a1cdfc33d87"},"vehicle_type_id":"4","last_reported":1744647167,"current_range_meters":7200,"station_id":"ce4bgvh2rcd13ifvqcs0","pricing_plan_id":"cebpf4jnsgd1na2vs0mg"},{"bike_id":"50763a2a-a417-48b2-86ae-71fbf301b868","system_id":"levelo_inurba_marseille","lat":43.25117,"lon":5.4033,"is_reserved":false,"is_disabled":false,"rental_uris":{"android":"levelo://app?vid=50763a2a-a417-48b2-86ae-71fbf301b868","ios":"levelo://app?vid=50763a2a-a417-48b2-86ae-71fbf301b868"},"vehicle_type_id":"4","last_reported":1744647167,"current_range_meters":7200,"station_id":"ce4bhlh2rcd13ifvqgig","pricing_plan_id":"cebpf4jnsgd1na2vs0mg"},{"bike_id":"394af9b5-e0c4-4fc1-b927-0a59e5d94c79","system_id":"levelo_inurba_marseille","lat":43.26213,"lon":5.3744,"is_reserved":false,"is_disabled":false,"rental_uris":{"android":"levelo://app?vid=394af9b5-e0c4-4fc1-b927-0a59e5d94c79","ios":"levelo://app?vid=394af9b5-e0c4-4fc1-b927-0a59e5d94c79"},"vehicle_type_id":"4","last_reported":1744647167,"current_range_meters":7200,"station_id":"ce4bhgp2rcd13ifvqfc0","pricing_plan_id":"cebpf4jnsgd1na2vs0mg"},{"bike_id":"05cb192b-cc9e-4b4b-a3c3-6919c529bec6","system_id":"levelo_inurba_marseille","lat":43.29041,"lon":5.37554,"is_reserved":false,"is_disabled":false,"rental_uris":{"android":"levelo://app?vid=05cb192b-cc9e-4b4b-a3c3-6919c529bec6","ios":"levelo://app?vid=05cb192b-cc9e-4b4b-a3c3-6919c529bec6"},"vehicle_type_id":"4","last_reported":1744647167,"current_range_meters":7200,"station_id":"ce4bh692rcd13ifvqe90","pricing_plan_id":"cebpf4jnsgd1na2vs0mg"},{"bike_id":"07832a45-a031-41ae-8b8f-3cbe5c9ece8f","system_id":"levelo_inurba_marseille","lat":43.284887,"lon":5.385646,"is_reserved":false,"is_disabled":false,"rental_uris":{"android":"levelo://app?vid=07832a45-a031-41ae-8b8f-3cbe5c9ece8f","ios":"levelo://app?vid=07832a45-a031-41ae-8b8f-3cbe5c9ece8f"},"vehicle_type_id":"4","last_reported":1744647167,"current_range_meters":6800,"station_id":"ce4bho12rcd13ifvqh1g","pricing_plan_id":"cebpf4jnsgd1na2vs0mg"},{"bike_id":"cdefaf23-b564-4f66-ad44-d79e40a15561","system_id":"levelo_inurba_marseille","lat":43.30418,"lon":5.41289,"is_reserved":false,"is_disabled":false,"rental_uris":{"android":"levelo://app?vid=cdefaf23-b564-4f66-ad44-d79e40a15561","ios":"levelo://app?vid=cdefaf23-b564-4f66-ad44-d79e40a15561"},"vehicle_type_id":"4","last_reported":1744647167,"current_range_meters":7200,"station_id":"ce4bhop2rcd13ifvqh8g","pricing_plan_id":"cebpf4jnsgd1na2vs0mg"},{"bike_id":"65ef64e1-2539-4cd5-b52e-b5442c349487","system_id":"levelo_inurba_marseille","lat":43.26197,"lon":5.37454,"is_reserved":false,"is_disabled":false,"rental_uris":{"android":"levelo://app?vid=65ef64e1-2539-4cd5-b52e-b5442c349487","ios":"levelo://app?vid=65ef64e1-2539-4cd5-b52e-b5442c349487"},"vehicle_type_id":"4","last_reported":1744647167,"current_range_meters":7200,"station_id":"ce4bhgp2rcd13ifvqfc0","pricing_plan_id":"cebpf4jnsgd1na2vs0mg"},{"bike_id":"bed57c8c-9582-431a-b58f-e7a08533b07e","system_id":"levelo_inurba_marseille","lat":43.26215,"lon":5.37441,"is_reserved":false,"is_disabled":false,"rental_uris":{"android":"levelo://app?vid=bed57c8c-9582-431a-b58f-e7a08533b07e","ios":"levelo://app?vid=bed57c8c-9582-431a-b58f-e7a08533b07e"},"vehicle_type_id":"4","last_reported":1744647167,"current_range_meters":8000,"station_id":"ce4bhgp2rcd13ifvqfc0","pricing_plan_id":"cebpf4jnsgd1na2vs0mg"},{"bike_id":"da57be08-8e47-45de-a743-a73884b8e027","system_id":"levelo_inurba_marseille","lat":43.30137,"lon":5.39814,"is_reserved":false,"is_disabled":false,"rental_uris":{"android":"levelo://app?vid=da57be08-8e47-45de-a743-a73884b8e027","ios":"levelo://app?vid=da57be08-8e47-45de-a743-a73884b8e027"},"vehicle_type_id":"4","last_reported":1744647167,"current_range_meters":8000,"station_id":"ce4bh0h2rcd13ifvqd40","pricing_plan_id":"cebpf4jnsgd1na2vs0mg"},{"bike_id":"c6a421d2-ff36-4f77-850f-3f141b7630b7","system_id":"levelo_inurba_marseille","lat":43.29886,"lon":5.39725,"is_reserved":false,"is_disabled":false,"rental_uris":{"android":"levelo://app?vid=c6a421d2-ff36-4f77-850f-3f141b7630b7","ios":"levelo://app?vid=c6a421d2-ff36-4f77-850f-3f141b7630b7"},"vehicle_type_id":"4","last_reported":1744647167,"current_range_meters":8000,"station_id":"ce4bh0h2rcd13ifvqd50","pricing_plan_id":"cebpf4jnsgd1na2vs0mg"},{"bike_id":"35abd90b-a356-4d2e-8bd4-567e3d57e9d2","system_id":"levelo_inurba_marseille","lat":43.24812,"lon":5.37466,"is_reserved":false,"is_disabled":false,"rental_uris":{"android":"levelo://app?vid=35abd90b-a356-4d2e-8bd4-567e3d57e9d2","ios":"levelo://app?vid=35abd90b-a356-4d2e-8bd4-567e3d57e9d2"},"vehicle_type_id":"4","last_reported":1744647167,"current_range_meters":8000,"station_id":"ce4bhgh2rcd13ifvqfb0","pricing_plan_id":"cebpf4jnsgd1na2vs0mg"},{"bike_id":"e38e4216-2f71-40db-ac13-38272b78ae3e","system_id":"levelo_inurba_marseille","lat":43.27068,"lon":5.42281,"is_reserved":false,"is_disabled":false,"rental_uris":{"android":"levelo://app?vid=e38e4216-2f71-40db-ac13-38272b78ae3e","ios":"levelo://app?vid=e38e4216-2f71-40db-ac13-38272b78ae3e"},"vehicle_type_id":"4","last_reported":1744647167,"current_range_meters":8400,"station_id":"ce4bhk92rcd13ifvqgb0","pricing_plan_id":"cebpf4jnsgd1na2vs0mg"},{"bike_id":"bc1e941d-5514-4193-a637-cfb6de114bfa","system_id":"levelo_inurba_marseille","lat":43.25583,"lon":5.38226,"is_reserved":false,"is_disabled":false,"rental_uris":{"android":"levelo://app?vid=bc1e941d-5514-4193-a637-cfb6de114bfa","ios":"levelo://app?vid=bc1e941d-5514-4193-a637-cfb6de114bfa"},"vehicle_type_id":"4","last_reported":1744647167,"current_range_meters":8400,"station_id":"ce4bhih2rcd13ifvqfs0","pricing_plan_id":"cebpf4jnsgd1na2vs0mg"},{"bike_id":"398432aa-ff8d-40d6-b279-8a697888128e","system_id":"levelo_inurba_marseille","lat":43.29896,"lon":5.38917,"is_reserved":false,"is_disabled":false,"rental_uris":{"android":"levelo://app?vid=398432aa-ff8d-40d6-b279-8a697888128e","ios":"levelo://app?vid=398432aa-ff8d-40d6-b279-8a697888128e"},"vehicle_type_id":"4","last_reported":1744647167,"current_range_meters":8400,"station_id":"ce4bh392rcd13ifvqdl0","pricing_plan_id":"cebpf4jnsgd1na2vs0mg"},{"bike_id":"73fa2654-1a5b-4beb-b685-69d83e9ac020","system_id":"levelo_inurba_marseille","lat":43.29046,"lon":5.35917,"is_reserved":false,"is_disabled":false,"rental_uris":{"android":"levelo://app?vid=73fa2654-1a5b-4beb-b685-69d83e9ac020","ios":"levelo://app?vid=73fa2654-1a5b-4beb-b685-69d83e9ac020"},"vehicle_type_id":"4","last_reported":1744647167,"current_range_meters":8400,"station_id":"ce4bha92rcd13ifvqeg0","pricing_plan_id":"cebpf4jnsgd1na2vs0mg"},{"bike_id":"201e6de0-2fc4-4869-882e-6ea2067d48df","system_id":"levelo_inurba_marseille","lat":43.3117,"lon":5.38723,"is_reserved":false,"is_disabled":false,"rental_uris":{"android":"levelo://app?vid=201e6de0-2fc4-4869-882e-6ea2067d48df","ios":"levelo://app?vid=201e6de0-2fc4-4869-882e-6ea2067d48df"},"vehicle_type_id":"4","last_reported":1744647167,"current_range_meters":8000,"station_id":"ce4bgv12rcd13ifvqcp0","pricing_plan_id":"cebpf4jnsgd1na2vs0mg"},{"bike_id":"952707cf-f39b-4f17-95e5-15d401a278de","system_id":"levelo_inurba_marseille","lat":43.2804,"lon":5.36947,"is_reserved":false,"is_disabled":false,"rental_uris":{"android":"levelo://app?vid=952707cf-f39b-4f17-95e5-15d401a278de","ios":"levelo://app?vid=952707cf-f39b-4f17-95e5-15d401a278de"},"vehicle_type_id":"4","last_reported":1744647167,"current_range_meters":8800,"station_id":"ce4bha12rcd13ifvqef0","pricing_plan_id":"cebpf4jnsgd1na2vs0mg"},{"bike_id":"1c6bece6-15fe-407c-b5dd-8f6c195679f8","system_id":"levelo_inurba_marseille","lat":43.2902,"lon":5.35612,"is_reserved":false,"is_disabled":false,"rental_uris":{"android":"levelo://app?vid=1c6bece6-15fe-407c-b5dd-8f6c195679f8","ios":"levelo://app?vid=1c6bece6-15fe-407c-b5dd-8f6c195679f8"},"vehicle_type_id":"4","last_reported":1744647167,"current_range_meters":8800,"station_id":"ce4bhb92rcd13ifvqen0","pricing_plan_id":"cebpf4jnsgd1na2vs0mg"},{"bike_id":"ed296113-9ba0-46af-b154-8b0bbad72688","system_id":"levelo_inurba_marseille","lat":43.28153,"lon":5.42641,"is_reserved":false,"is_disabled":false,"rental_uris":{"android":"levelo://app?vid=ed296113-9ba0-46af-b154-8b0bbad72688","ios":"levelo://app?vid=ed296113-9ba0-46af-b154-8b0bbad72688"},"vehicle_type_id":"4","last_reported":1744647167,"current_range_meters":8800,"station_id":"ce4bhnh2rcd13ifvqgug","pricing_plan_id":"cebpf4jnsgd1na2vs0mg"},{"bike_id":"b5c33e66-f7d1-4f8e-b002-5060bc28e3b1","system_id":"levelo_inurba_marseille","lat":43.26492,"lon":5.39548,"is_reserved":false,"is_disabled":false,"rental_uris":{"android":"levelo://app?vid=b5c33e66-f7d1-4f8e-b002-5060bc28e3b1","ios":"levelo://app?vid=b5c33e66-f7d1-4f8e-b002-5060bc28e3b1"},"vehicle_type_id":"4","last_reported":1744647167,"current_range_meters":8800,"station_id":"ce4bhi12rcd13ifvqfq0","pricing_plan_id":"cebpf4jnsgd1na2vs0mg"},{"bike_id":"1169afed-51ae-45b0-893b-21e00635d52d","system_id":"levelo_inurba_marseille","lat":43.314558,"lon":5.403335,"is_reserved":false,"is_disabled":false,"rental_uris":{"android":"levelo://app?vid=1169afed-51ae-45b0-893b-21e00635d52d","ios":"levelo://app?vid=1169afed-51ae-45b0-893b-21e00635d52d"},"vehicle_type_id":"4","last_reported":1744647167,"current_range_meters":9200,"station_id":"ce4bgth2rcd13ifvqch0","pricing_plan_id":"cebpf4jnsgd1na2vs0mg"},{"bike_id":"f387af2d-75f8-4bd2-9e02-111d64cbca16","system_id":"levelo_inurba_marseille","lat":43.305661,"lon":5.400322,"is_reserved":false,"is_disabled":false,"rental_uris":{"android":"levelo://app?vid=f387af2d-75f8-4bd2-9e02-111d64cbca16","ios":"levelo://app?vid=f387af2d-75f8-4bd2-9e02-111d64cbca16"},"vehicle_type_id":"4","last_reported":1744647167,"current_range_meters":9200,"station_id":"ce4bh0h2rcd13ifvqd40","pricing_plan_id":"cebpf4jnsgd1na2vs0mg"},{"bike_id":"5cacdac6-936a-44c6-9e06-3d5924e24ab3","system_id":"levelo_inurba_marseille","lat":43.28427,"lon":5.34974,"is_reserved":false,"is_disabled":false,"rental_uris":{"android":"levelo://app?vid=5cacdac6-936a-44c6-9e06-3d5924e24ab3","ios":"levelo://app?vid=5cacdac6-936a-44c6-9e06-3d5924e24ab3"},"vehicle_type_id":"4","last_reported":1744647167,"current_range_meters":9600,"station_id":"ce4bhbh2rcd13ifvqepg","pricing_plan_id":"cebpf4jnsgd1na2vs0mg"},{"bike_id":"7c1d75e5-7b84-4289-8466-aa729a9da09a","system_id":"levelo_inurba_marseille","lat":43.29641,"lon":5.40599,"is_reserved":false,"is_disabled":false,"rental_uris":{"android":"levelo://app?vid=7c1d75e5-7b84-4289-8466-aa729a9da09a","ios":"levelo://app?vid=7c1d75e5-7b84-4289-8466-aa729a9da09a"},"vehicle_type_id":"4","last_reported":1744647167,"current_range_meters":9600,"station_id":"ce4bh0h2rcd13ifvqd60","pricing_plan_id":"cebpf4jnsgd1na2vs0mg"},{"bike_id":"b62d1434-c42b-4d2d-977d-d90a2291da9b","system_id":"levelo_inurba_marseille","lat":43.26937,"lon":5.40261,"is_reserved":false,"is_disabled":true,"rental_uris":{"android":"levelo://app?vid=b62d1434-c42b-4d2d-977d-d90a2291da9b","ios":"levelo://app?vid=b62d1434-c42b-4d2d-977d-d90a2291da9b"},"vehicle_type_id":"4","last_reported":1744647167,"current_range_meters":9600,"station_id":"cjm6bp8fraef2m0cb0m0","pricing_plan_id":"cebpf4jnsgd1na2vs0mg"},{"bike_id":"52467ef2-bb23-4d5a-aebd-2782338dc161","system_id":"levelo_inurba_marseille","lat":43.211946,"lon":5.350721,"is_reserved":false,"is_disabled":false,"rental_uris":{"android":"levelo://app?vid=52467ef2-bb23-4d5a-aebd-2782338dc161","ios":"levelo://app?vid=52467ef2-bb23-4d5a-aebd-2782338dc161"},"vehicle_type_id":"4","last_reported":1744647167,"current_range_meters":9600,"station_id":"st_cvj6sg6p6f1abm77japg","pricing_plan_id":"cebpf4jnsgd1na2vs0mg"},{"bike_id":"1363ba94-73b1-43ac-bf9a-356748a6b335","system_id":"levelo_inurba_marseille","lat":43.29257,"lon":5.40901,"is_reserved":false,"is_disabled":false,"rental_uris":{"android":"levelo://app?vid=1363ba94-73b1-43ac-bf9a-356748a6b335","ios":"levelo://app?vid=1363ba94-73b1-43ac-bf9a-356748a6b335"},"vehicle_type_id":"4","last_reported":1744647167,"current_range_meters":9600,"station_id":"ce4bh192rcd13ifvqdc0","pricing_plan_id":"cebpf4jnsgd1na2vs0mg"},{"bike_id":"b55bf084-1379-4304-af35-a56c8815c408","system_id":"levelo_inurba_marseille","lat":43.27368,"lon":5.36259,"is_reserved":false,"is_disabled":false,"rental_uris":{"android":"levelo://app?vid=b55bf084-1379-4304-af35-a56c8815c408","ios":"levelo://app?vid=b55bf084-1379-4304-af35-a56c8815c408"},"vehicle_type_id":"4","last_reported":1744647167,"current_range_meters":9600,"station_id":"ce4bhbh2rcd13ifvqeo0","pricing_plan_id":"cebpf4jnsgd1na2vs0mg"},{"bike_id":"a69ab16d-e6aa-4be1-8180-6f8a6653da85","system_id":"levelo_inurba_marseille","lat":43.276241,"lon":5.361098,"is_reserved":false,"is_disabled":false,"rental_uris":{"android":"levelo://app?vid=a69ab16d-e6aa-4be1-8180-6f8a6653da85","ios":"levelo://app?vid=a69ab16d-e6aa-4be1-8180-6f8a6653da85"},"vehicle_type_id":"4","last_reported":1744647167,"current_range_meters":9600,"station_id":"ce4bgj92rcd13ifvqbe0","pricing_plan_id":"cebpf4jnsgd1na2vs0mg"},{"bike_id":"e02e966a-dc04-4782-bb08-89f8691eaef5","system_id":"levelo_inurba_marseille","lat":43.28493,"lon":5.38552,"is_reserved":false,"is_disabled":false,"rental_uris":{"android":"levelo://app?vid=e02e966a-dc04-4782-bb08-89f8691eaef5","ios":"levelo://app?vid=e02e966a-dc04-4782-bb08-89f8691eaef5"},"vehicle_type_id":"4","last_reported":1744647167,"current_range_meters":10800,"station_id":"ce4bh8p2rcd13ifvqeb0","pricing_plan_id":"cebpf4jnsgd1na2vs0mg"},{"bike_id":"cb8b7b66-066d-40db-ac44-db5d6c0b2b8f","system_id":"levelo_inurba_marseille","lat":43.29424,"lon":5.38636,"is_reserved":false,"is_disabled":false,"rental_uris":{"android":"levelo://app?vid=cb8b7b66-066d-40db-ac44-db5d6c0b2b8f","ios":"levelo://app?vid=cb8b7b66-066d-40db-ac44-db5d6c0b2b8f"},"vehicle_type_id":"4","last_reported":1744647167,"current_range_meters":10000,"station_id":"ce4bh2h2rcd13ifvqdh0","pricing_plan_id":"cebpf4jnsgd1na2vs0mg"},{"bike_id":"3cd132f2-4343-4551-82b5-23cd67025484","system_id":"levelo_inurba_marseille","lat":43.25586,"lon":5.38227,"is_reserved":false,"is_disabled":false,"rental_uris":{"android":"levelo://app?vid=3cd132f2-4343-4551-82b5-23cd67025484","ios":"levelo://app?vid=3cd132f2-4343-4551-82b5-23cd67025484"},"vehicle_type_id":"4","last_reported":1744647167,"current_range_meters":10000,"station_id":"ce4bhih2rcd13ifvqfs0","pricing_plan_id":"cebpf4jnsgd1na2vs0mg"},{"bike_id":"000cce46-0aba-4c03-8967-d18cf441ccd3","system_id":"levelo_inurba_marseille","lat":43.30335,"lon":5.40437,"is_reserved":false,"is_disabled":false,"rental_uris":{"android":"levelo://app?vid=000cce46-0aba-4c03-8967-d18cf441ccd3","ios":"levelo://app?vid=000cce46-0aba-4c03-8967-d18cf441ccd3"},"vehicle_type_id":"4","last_reported":1744647167,"current_range_meters":10000,"station_id":"ce4bh012rcd13ifvqd10","pricing_plan_id":"cebpf4jnsgd1na2vs0mg"},{"bike_id":"9e798c5f-19cf-4598-9607-22270b62e5a6","system_id":"levelo_inurba_marseille","lat":43.30249,"lon":5.40082,"is_reserved":false,"is_disabled":false,"rental_uris":{"android":"levelo://app?vid=9e798c5f-19cf-4598-9607-22270b62e5a6","ios":"levelo://app?vid=9e798c5f-19cf-4598-9607-22270b62e5a6"},"vehicle_type_id":"4","last_reported":1744647167,"current_range_meters":10000,"station_id":"ce4bgvh2rcd13ifvqcs0","pricing_plan_id":"cebpf4jnsgd1na2vs0mg"},{"bike_id":"02907599-00a7-4d5d-bd46-181de4468a5e","system_id":"levelo_inurba_marseille","lat":43.28613,"lon":5.35103,"is_reserved":false,"is_disabled":false,"rental_uris":{"android":"levelo://app?vid=02907599-00a7-4d5d-bd46-181de4468a5e","ios":"levelo://app?vid=02907599-00a7-4d5d-bd46-181de4468a5e"},"vehicle_type_id":"4","last_reported":1744647167,"current_range_meters":10000,"station_id":"ce4bhch2rcd13ifvqeug","pricing_plan_id":"cebpf4jnsgd1na2vs0mg"},{"bike_id":"cf7c3172-9ca2-47b2-bf81-464c6223b01c","system_id":"levelo_inurba_marseille","lat":43.29842,"lon":5.36256,"is_reserved":false,"is_disabled":false,"rental_uris":{"android":"levelo://app?vid=cf7c3172-9ca2-47b2-bf81-464c6223b01c","ios":"levelo://app?vid=cf7c3172-9ca2-47b2-bf81-464c6223b01c"},"vehicle_type_id":"4","last_reported":1744647167,"current_range_meters":10000,"station_id":"ce4bgpp2rcd13ifvqc3g","pricing_plan_id":"cebpf4jnsgd1na2vs0mg"},{"bike_id":"1a94df5d-f579-4039-9634-fc4e04cd539d","system_id":"levelo_inurba_marseille","lat":43.309518,"lon":5.390377,"is_reserved":false,"is_disabled":false,"rental_uris":{"android":"levelo://app?vid=1a94df5d-f579-4039-9634-fc4e04cd539d","ios":"levelo://app?vid=1a94df5d-f579-4039-9634-fc4e04cd539d"},"vehicle_type_id":"4","last_reported":1744647167,"current_range_meters":10800,"station_id":"ce4bgup2rcd13ifvqco0","pricing_plan_id":"cebpf4jnsgd1na2vs0mg"},{"bike_id":"0a8c5b8d-a3a9-4afc-8e9f-0df0fdc0291e","system_id":"levelo_inurba_marseille","lat":43.29258,"lon":5.40928,"is_reserved":false,"is_disabled":false,"rental_uris":{"android":"levelo://app?vid=0a8c5b8d-a3a9-4afc-8e9f-0df0fdc0291e","ios":"levelo://app?vid=0a8c5b8d-a3a9-4afc-8e9f-0df0fdc0291e"},"vehicle_type_id":"4","last_reported":1744647167,"current_range_meters":10800,"station_id":"ce4bh192rcd13ifvqdc0","pricing_plan_id":"cebpf4jnsgd1na2vs0mg"},{"bike_id":"a805b716-d3f2-41f8-8ac2-43d02ff2936a","system_id":"levelo_inurba_marseille","lat":43.28348,"lon":5.381027,"is_reserved":false,"is_disabled":false,"rental_uris":{"android":"levelo://app?vid=a805b716-d3f2-41f8-8ac2-43d02ff2936a","ios":"levelo://app?vid=a805b716-d3f2-41f8-8ac2-43d02ff2936a"},"vehicle_type_id":"4","last_reported":1744647167,"current_range_meters":10800,"station_id":"ce4bh412rcd13ifvqdr0","pricing_plan_id":"cebpf4jnsgd1na2vs0mg"},{"bike_id":"95958729-baca-4565-8e32-3dd4ccd661af","system_id":"levelo_inurba_marseille","lat":43.28347,"lon":5.38112,"is_reserved":false,"is_disabled":false,"rental_uris":{"android":"levelo://app?vid=95958729-baca-4565-8e32-3dd4ccd661af","ios":"levelo://app?vid=95958729-baca-4565-8e32-3dd4ccd661af"},"vehicle_type_id":"4","last_reported":1744647167,"current_range_meters":11200,"station_id":"ce4bh412rcd13ifvqdr0","pricing_plan_id":"cebpf4jnsgd1na2vs0mg"},{"bike_id":"7cc2947c-8cb6-4386-b1d2-36189be2deaf","system_id":"levelo_inurba_marseille","lat":43.28345,"lon":5.38112,"is_reserved":false,"is_disabled":false,"rental_uris":{"android":"levelo://app?vid=7cc2947c-8cb6-4386-b1d2-36189be2deaf","ios":"levelo://app?vid=7cc2947c-8cb6-4386-b1d2-36189be2deaf"},"vehicle_type_id":"4","last_reported":1744647167,"current_range_meters":11200,"station_id":"ce4bh412rcd13ifvqdr0","pricing_plan_id":"cebpf4jnsgd1na2vs0mg"},{"bike_id":"e488abf6-18bb-4031-be76-8e036da821cc","system_id":"levelo_inurba_marseille","lat":43.29538,"lon":5.39035,"is_reserved":false,"is_disabled":false,"rental_uris":{"android":"levelo://app?vid=e488abf6-18bb-4031-be76-8e036da821cc","ios":"levelo://app?vid=e488abf6-18bb-4031-be76-8e036da821cc"},"vehicle_type_id":"4","last_reported":1744647167,"current_range_meters":11200,"station_id":"ce4bh3p2rcd13ifvqdp0","pricing_plan_id":"cebpf4jnsgd1na2vs0mg"},{"bike_id":"9dbb1681-3b9f-4c32-8df9-de3ed60878f8","system_id":"levelo_inurba_marseille","lat":43.29569,"lon":5.39988,"is_reserved":false,"is_disabled":false,"rental_uris":{"android":"levelo://app?vid=9dbb1681-3b9f-4c32-8df9-de3ed60878f8","ios":"levelo://app?vid=9dbb1681-3b9f-4c32-8df9-de3ed60878f8"},"vehicle_type_id":"4","last_reported":1744647167,"current_range_meters":11200,"station_id":"ce4bh312rcd13ifvqdj0","pricing_plan_id":"cebpf4jnsgd1na2vs0mg"},{"bike_id":"66d880e8-1272-47c8-b7a8-25c6d31c6e9a","system_id":"levelo_inurba_marseille","lat":43.29208,"lon":5.39326,"is_reserved":false,"is_disabled":false,"rental_uris":{"android":"levelo://app?vid=66d880e8-1272-47c8-b7a8-25c6d31c6e9a","ios":"levelo://app?vid=66d880e8-1272-47c8-b7a8-25c6d31c6e9a"},"vehicle_type_id":"4","last_reported":1744647167,"current_range_meters":11600,"station_id":"ce4bh192rcd13ifvqdd0","pricing_plan_id":"cebpf4jnsgd1na2vs0mg"},{"bike_id":"4ba6339e-11fd-40e2-9bbf-52cf93fdaacb","system_id":"levelo_inurba_marseille","lat":43.30303,"lon":5.39211,"is_reserved":false,"is_disabled":false,"rental_uris":{"android":"levelo://app?vid=4ba6339e-11fd-40e2-9bbf-52cf93fdaacb","ios":"levelo://app?vid=4ba6339e-11fd-40e2-9bbf-52cf93fdaacb"},"vehicle_type_id":"4","last_reported":1744647167,"current_range_meters":11600,"station_id":"ce4bgrh2rcd13ifvqc8g","pricing_plan_id":"cebpf4jnsgd1na2vs0mg"},{"bike_id":"9357e327-cb00-4fd9-852c-698a42e274fa","system_id":"levelo_inurba_marseille","lat":43.29911,"lon":5.43675,"is_reserved":false,"is_disabled":false,"rental_uris":{"android":"levelo://app?vid=9357e327-cb00-4fd9-852c-698a42e274fa","ios":"levelo://app?vid=9357e327-cb00-4fd9-852c-698a42e274fa"},"vehicle_type_id":"4","last_reported":1744647167,"current_range_meters":11600,"station_id":"ce4bhpp2rcd13ifvqhfg","pricing_plan_id":"cebpf4jnsgd1na2vs0mg"},{"bike_id":"cc5e50a3-f568-4ae6-bb7a-5aa672cd859e","system_id":"levelo_inurba_marseille","lat":43.30902,"lon":5.40214,"is_reserved":false,"is_disabled":false,"rental_uris":{"android":"levelo://app?vid=cc5e50a3-f568-4ae6-bb7a-5aa672cd859e","ios":"levelo://app?vid=cc5e50a3-f568-4ae6-bb7a-5aa672cd859e"},"vehicle_type_id":"4","last_reported":1744647167,"current_range_meters":12000,"station_id":"","pricing_plan_id":"cebpf4jnsgd1na2vs0mg"},{"bike_id":"46c410fb-ddc4-4906-88de-f0e882772919","system_id":"levelo_inurba_marseille","lat":43.30212,"lon":5.3947,"is_reserved":false,"is_disabled":false,"rental_uris":{"android":"levelo://app?vid=46c410fb-ddc4-4906-88de-f0e882772919","ios":"levelo://app?vid=46c410fb-ddc4-4906-88de-f0e882772919"},"vehicle_type_id":"4","last_reported":1744647167,"current_range_meters":12000,"station_id":"ce4bh0p2rcd13ifvqd70","pricing_plan_id":"cebpf4jnsgd1na2vs0mg"},{"bike_id":"3f89569d-4a8f-44ab-a9e1-fcde37318c28","system_id":"levelo_inurba_marseille","lat":43.2669,"lon":5.38274,"is_reserved":false,"is_disabled":false,"rental_uris":{"android":"levelo://app?vid=3f89569d-4a8f-44ab-a9e1-fcde37318c28","ios":"levelo://app?vid=3f89569d-4a8f-44ab-a9e1-fcde37318c28"},"vehicle_type_id":"4","last_reported":1744647167,"current_range_meters":12000,"station_id":"ce4bhg92rcd13ifvqf90","pricing_plan_id":"cebpf4jnsgd1na2vs0mg"},{"bike_id":"b7f2ab3e-7333-4a50-9375-1a8103e49920","system_id":"levelo_inurba_marseille","lat":43.25837,"lon":5.39429,"is_reserved":false,"is_disabled":false,"rental_uris":{"android":"levelo://app?vid=b7f2ab3e-7333-4a50-9375-1a8103e49920","ios":"levelo://app?vid=b7f2ab3e-7333-4a50-9375-1a8103e49920"},"vehicle_type_id":"4","last_reported":1744647167,"current_range_meters":12000,"station_id":"ce4bhip2rcd13ifvqft0","pricing_plan_id":"cebpf4jnsgd1na2vs0mg"},{"bike_id":"59e1b3af-53f9-43ef-b1e1-ed4318226aaa","system_id":"levelo_inurba_marseille","lat":43.297752,"lon":5.371028,"is_reserved":false,"is_disabled":false,"rental_uris":{"android":"levelo://app?vid=59e1b3af-53f9-43ef-b1e1-ed4318226aaa","ios":"levelo://app?vid=59e1b3af-53f9-43ef-b1e1-ed4318226aaa"},"vehicle_type_id":"4","last_reported":1744647167,"current_range_meters":12000,"station_id":"ce4bgop2rcd13ifvqc1g","pricing_plan_id":"cebpf4jnsgd1na2vs0mg"},{"bike_id":"fa477394-7125-4ad6-acd0-f2750f64082f","system_id":"levelo_inurba_marseille","lat":43.284175,"lon":5.374934,"is_reserved":false,"is_disabled":false,"rental_uris":{"android":"levelo://app?vid=fa477394-7125-4ad6-acd0-f2750f64082f","ios":"levelo://app?vid=fa477394-7125-4ad6-acd0-f2750f64082f"},"vehicle_type_id":"4","last_reported":1744647167,"current_range_meters":12000,"station_id":"","pricing_plan_id":"cebpf4jnsgd1na2vs0mg"},{"bike_id":"ebcb9f9c-2e3a-4703-aed0-070d7d78c5d9","system_id":"levelo_inurba_marseille","lat":43.296278,"lon":5.377144,"is_reserved":false,"is_disabled":false,"rental_uris":{"android":"levelo://app?vid=ebcb9f9c-2e3a-4703-aed0-070d7d78c5d9","ios":"levelo://app?vid=ebcb9f9c-2e3a-4703-aed0-070d7d78c5d9"},"vehicle_type_id":"4","last_reported":1744647167,"current_range_meters":12000,"station_id":"ce4bha12rcd13ifvqee0","pricing_plan_id":"cebpf4jnsgd1na2vs0mg"},{"bike_id":"9dd7c5a6-5142-4b4c-a24c-d3e00c5e1dea","system_id":"levelo_inurba_marseille","lat":43.26561,"lon":5.39011,"is_reserved":false,"is_disabled":false,"rental_uris":{"android":"levelo://app?vid=9dd7c5a6-5142-4b4c-a24c-d3e00c5e1dea","ios":"levelo://app?vid=9dd7c5a6-5142-4b4c-a24c-d3e00c5e1dea"},"vehicle_type_id":"4","last_reported":1744647167,"current_range_meters":12000,"station_id":"ce4bhe12rcd13ifvqf30","pricing_plan_id":"cebpf4jnsgd1na2vs0mg"},{"bike_id":"1020528f-fb01-4546-ba5a-44e9df6a34aa","system_id":"levelo_inurba_marseille","lat":43.29245,"lon":5.40913,"is_reserved":false,"is_disabled":false,"rental_uris":{"android":"levelo://app?vid=1020528f-fb01-4546-ba5a-44e9df6a34aa","ios":"levelo://app?vid=1020528f-fb01-4546-ba5a-44e9df6a34aa"},"vehicle_type_id":"4","last_reported":1744647167,"current_range_meters":12400,"station_id":"ce4bh192rcd13ifvqdc0","pricing_plan_id":"cebpf4jnsgd1na2vs0mg"},{"bike_id":"fb13c941-1858-46a4-86ad-2a5e302996c3","system_id":"levelo_inurba_marseille","lat":43.25866,"lon":5.39911,"is_reserved":false,"is_disabled":true,"rental_uris":{"android":"levelo://app?vid=fb13c941-1858-46a4-86ad-2a5e302996c3","ios":"levelo://app?vid=fb13c941-1858-46a4-86ad-2a5e302996c3"},"vehicle_type_id":"4","last_reported":1744647167,"current_range_meters":12400,"station_id":"ce4bhl92rcd13ifvqghg","pricing_plan_id":"cebpf4jnsgd1na2vs0mg"},{"bike_id":"c798fce4-f453-40f6-9acd-c299a779b499","system_id":"levelo_inurba_marseille","lat":43.29965,"lon":5.38498,"is_reserved":false,"is_disabled":false,"rental_uris":{"android":"levelo://app?vid=c798fce4-f453-40f6-9acd-c299a779b499","ios":"levelo://app?vid=c798fce4-f453-40f6-9acd-c299a779b499"},"vehicle_type_id":"4","last_reported":1744647167,"current_range_meters":12400,"station_id":"ce4bgj92rcd13ifvqbd0","pricing_plan_id":"cebpf4jnsgd1na2vs0mg"},{"bike_id":"89b2827b-021d-48a4-b8c6-fe39a43369e1","system_id":"levelo_inurba_marseille","lat":43.26226,"lon":5.37457,"is_reserved":false,"is_disabled":false,"rental_uris":{"android":"levelo://app?vid=89b2827b-021d-48a4-b8c6-fe39a43369e1","ios":"levelo://app?vid=89b2827b-021d-48a4-b8c6-fe39a43369e1"},"vehicle_type_id":"4","last_reported":1744647167,"current_range_meters":12400,"station_id":"","pricing_plan_id":"cebpf4jnsgd1na2vs0mg"},{"bike_id":"e0fe31e7-7eec-4c4e-98cf-d7761ba8f20b","system_id":"levelo_inurba_marseille","lat":43.29843,"lon":5.36272,"is_reserved":false,"is_disabled":false,"rental_uris":{"android":"levelo://app?vid=e0fe31e7-7eec-4c4e-98cf-d7761ba8f20b","ios":"levelo://app?vid=e0fe31e7-7eec-4c4e-98cf-d7761ba8f20b"},"vehicle_type_id":"4","last_reported":1744647167,"current_range_meters":12800,"station_id":"ce4bgpp2rcd13ifvqc3g","pricing_plan_id":"cebpf4jnsgd1na2vs0mg"},{"bike_id":"0ef591a8-f243-47c7-8fba-61762f7de82b","system_id":"levelo_inurba_marseille","lat":43.2315,"lon":5.43704,"is_reserved":false,"is_disabled":false,"rental_uris":{"android":"levelo://app?vid=0ef591a8-f243-47c7-8fba-61762f7de82b","ios":"levelo://app?vid=0ef591a8-f243-47c7-8fba-61762f7de82b"},"vehicle_type_id":"4","last_reported":1744647167,"current_range_meters":6000,"station_id":"ce4bhmp2rcd13ifvqgog","pricing_plan_id":"cebpf4jnsgd1na2vs0mg"},{"bike_id":"9032fd9f-8258-4b06-828f-3216c8110290","system_id":"levelo_inurba_marseille","lat":43.31022,"lon":5.41764,"is_reserved":false,"is_disabled":false,"rental_uris":{"android":"levelo://app?vid=9032fd9f-8258-4b06-828f-3216c8110290","ios":"levelo://app?vid=9032fd9f-8258-4b06-828f-3216c8110290"},"vehicle_type_id":"4","last_reported":1744647167,"current_range_meters":12800,"station_id":"","pricing_plan_id":"cebpf4jnsgd1na2vs0mg"},{"bike_id":"2e12a9c8-c42a-473b-aca6-98520cf90aef","system_id":"levelo_inurba_marseille","lat":43.30332,"lon":5.40414,"is_reserved":false,"is_disabled":false,"rental_uris":{"android":"levelo://app?vid=2e12a9c8-c42a-473b-aca6-98520cf90aef","ios":"levelo://app?vid=2e12a9c8-c42a-473b-aca6-98520cf90aef"},"vehicle_type_id":"4","last_reported":1744647167,"current_range_meters":13600,"station_id":"ce4bh012rcd13ifvqd10","pricing_plan_id":"cebpf4jnsgd1na2vs0mg"},{"bike_id":"a81d28cd-a39e-4e56-8109-2dcb06a43997","system_id":"levelo_inurba_marseille","lat":43.296256,"lon":5.377075,"is_reserved":false,"is_disabled":false,"rental_uris":{"android":"levelo://app?vid=a81d28cd-a39e-4e56-8109-2dcb06a43997","ios":"levelo://app?vid=a81d28cd-a39e-4e56-8109-2dcb06a43997"},"vehicle_type_id":"4","last_reported":1744647167,"current_range_meters":13600,"station_id":"ce4bgi92rcd13ifvqb90","pricing_plan_id":"cebpf4jnsgd1na2vs0mg"},{"bike_id":"daa25467-d3c8-4543-b2db-b479af9a06f4","system_id":"levelo_inurba_marseille","lat":43.27952,"lon":5.41053,"is_reserved":false,"is_disabled":false,"rental_uris":{"android":"levelo://app?vid=daa25467-d3c8-4543-b2db-b479af9a06f4","ios":"levelo://app?vid=daa25467-d3c8-4543-b2db-b479af9a06f4"},"vehicle_type_id":"4","last_reported":1744647167,"current_range_meters":13600,"station_id":"ce4bhnp2rcd13ifvqh0g","pricing_plan_id":"cebpf4jnsgd1na2vs0mg"},{"bike_id":"01c3c289-7088-4e10-a1ff-8fe0d2d31714","system_id":"levelo_inurba_marseille","lat":43.28946,"lon":5.36406,"is_reserved":false,"is_disabled":false,"rental_uris":{"android":"levelo://app?vid=01c3c289-7088-4e10-a1ff-8fe0d2d31714","ios":"levelo://app?vid=01c3c289-7088-4e10-a1ff-8fe0d2d31714"},"vehicle_type_id":"4","last_reported":1744647167,"current_range_meters":12800,"station_id":"ce4bhc92rcd13ifvqetg","pricing_plan_id":"cebpf4jnsgd1na2vs0mg"},{"bike_id":"4b9f7d4a-0479-4b7e-a435-cf6377c22d6e","system_id":"levelo_inurba_marseille","lat":43.30953,"lon":5.390167,"is_reserved":false,"is_disabled":false,"rental_uris":{"android":"levelo://app?vid=4b9f7d4a-0479-4b7e-a435-cf6377c22d6e","ios":"levelo://app?vid=4b9f7d4a-0479-4b7e-a435-cf6377c22d6e"},"vehicle_type_id":"4","last_reported":1744647167,"current_range_meters":14000,"station_id":"ce4bgup2rcd13ifvqco0","pricing_plan_id":"cebpf4jnsgd1na2vs0mg"},{"bike_id":"6218e19b-cf6e-4f46-b92c-3ca4edb993df","system_id":"levelo_inurba_marseille","lat":43.30794,"lon":5.37643,"is_reserved":false,"is_disabled":false,"rental_uris":{"android":"levelo://app?vid=6218e19b-cf6e-4f46-b92c-3ca4edb993df","ios":"levelo://app?vid=6218e19b-cf6e-4f46-b92c-3ca4edb993df"},"vehicle_type_id":"4","last_reported":1744647167,"current_range_meters":14000,"station_id":"ce4bgv92rcd13ifvqcq0","pricing_plan_id":"cebpf4jnsgd1na2vs0mg"},{"bike_id":"40729bc1-7295-4b26-99e8-18f976e61f42","system_id":"levelo_inurba_marseille","lat":43.30298,"lon":5.39213,"is_reserved":false,"is_disabled":false,"rental_uris":{"android":"levelo://app?vid=40729bc1-7295-4b26-99e8-18f976e61f42","ios":"levelo://app?vid=40729bc1-7295-4b26-99e8-18f976e61f42"},"vehicle_type_id":"4","last_reported":1744647167,"current_range_meters":14000,"station_id":"ce4bgkh2rcd13ifvqbk0","pricing_plan_id":"cebpf4jnsgd1na2vs0mg"},{"bike_id":"27a55245-8dd2-4f1a-af63-95a9d7b71690","system_id":"levelo_inurba_marseille","lat":43.31063,"lon":5.37864,"is_reserved":false,"is_disabled":true,"rental_uris":{"android":"levelo://app?vid=27a55245-8dd2-4f1a-af63-95a9d7b71690","ios":"levelo://app?vid=27a55245-8dd2-4f1a-af63-95a9d7b71690"},"vehicle_type_id":"4","last_reported":1744647167,"current_range_meters":14000,"station_id":"","pricing_plan_id":"cebpf4jnsgd1na2vs0mg"},{"bike_id":"2e81a4e0-6a01-4a86-84b4-ab4de90b41d0","system_id":"levelo_inurba_marseille","lat":43.26499,"lon":5.39539,"is_reserved":false,"is_disabled":false,"rental_uris":{"android":"levelo://app?vid=2e81a4e0-6a01-4a86-84b4-ab4de90b41d0","ios":"levelo://app?vid=2e81a4e0-6a01-4a86-84b4-ab4de90b41d0"},"vehicle_type_id":"4","last_reported":1744647167,"current_range_meters":14400,"station_id":"ce4bhi12rcd13ifvqfq0","pricing_plan_id":"cebpf4jnsgd1na2vs0mg"},{"bike_id":"6fc5862c-e3cb-431e-8164-f5340cb4bf86","system_id":"levelo_inurba_marseille","lat":43.29534,"lon":5.39072,"is_reserved":false,"is_disabled":false,"rental_uris":{"android":"levelo://app?vid=6fc5862c-e3cb-431e-8164-f5340cb4bf86","ios":"levelo://app?vid=6fc5862c-e3cb-431e-8164-f5340cb4bf86"},"vehicle_type_id":"4","last_reported":1744647167,"current_range_meters":14400,"station_id":"ce4bh3h2rcd13ifvqdo0","pricing_plan_id":"cebpf4jnsgd1na2vs0mg"},{"bike_id":"23d34635-bb7f-4dd6-958c-d8de175310c8","system_id":"levelo_inurba_marseille","lat":43.30951,"lon":5.39032,"is_reserved":false,"is_disabled":false,"rental_uris":{"android":"levelo://app?vid=23d34635-bb7f-4dd6-958c-d8de175310c8","ios":"levelo://app?vid=23d34635-bb7f-4dd6-958c-d8de175310c8"},"vehicle_type_id":"4","last_reported":1744647167,"current_range_meters":14400,"station_id":"ce4bgup2rcd13ifvqco0","pricing_plan_id":"cebpf4jnsgd1na2vs0mg"},{"bike_id":"61377ee4-fd99-4c2f-b5ad-a5ac167d945b","system_id":"levelo_inurba_marseille","lat":43.231652,"lon":5.436954,"is_reserved":false,"is_disabled":false,"rental_uris":{"android":"levelo://app?vid=61377ee4-fd99-4c2f-b5ad-a5ac167d945b","ios":"levelo://app?vid=61377ee4-fd99-4c2f-b5ad-a5ac167d945b"},"vehicle_type_id":"4","last_reported":1744647167,"current_range_meters":14400,"station_id":"ce4bhmp2rcd13ifvqgog","pricing_plan_id":"cebpf4jnsgd1na2vs0mg"},{"bike_id":"93b02a0f-e2f5-49ef-90ae-4a058707e43d","system_id":"levelo_inurba_marseille","lat":43.29694,"lon":5.3729,"is_reserved":false,"is_disabled":true,"rental_uris":{"android":"levelo://app?vid=93b02a0f-e2f5-49ef-90ae-4a058707e43d","ios":"levelo://app?vid=93b02a0f-e2f5-49ef-90ae-4a058707e43d"},"vehicle_type_id":"4","last_reported":1744647167,"current_range_meters":14400,"station_id":"ce4bgk12rcd13ifvqbj0","pricing_plan_id":"cebpf4jnsgd1na2vs0mg"},{"bike_id":"b7fe283b-b8fd-4360-80ec-f88003568e8e","system_id":"levelo_inurba_marseille","lat":43.28101,"lon":5.37833,"is_reserved":false,"is_disabled":false,"rental_uris":{"android":"levelo://app?vid=b7fe283b-b8fd-4360-80ec-f88003568e8e","ios":"levelo://app?vid=b7fe283b-b8fd-4360-80ec-f88003568e8e"},"vehicle_type_id":"4","last_reported":1744647167,"current_range_meters":14800,"station_id":"ce4bha12rcd13ifvqee0","pricing_plan_id":"cebpf4jnsgd1na2vs0mg"},{"bike_id":"0a24d23b-6cf6-4d2a-b061-12526a7801b5","system_id":"levelo_inurba_marseille","lat":43.289216,"lon":5.383953,"is_reserved":false,"is_disabled":false,"rental_uris":{"android":"levelo://app?vid=0a24d23b-6cf6-4d2a-b061-12526a7801b5","ios":"levelo://app?vid=0a24d23b-6cf6-4d2a-b061-12526a7801b5"},"vehicle_type_id":"4","last_reported":1744647167,"current_range_meters":14800,"station_id":"ce4bh612rcd13ifvqe6g","pricing_plan_id":"cebpf4jnsgd1na2vs0mg"},{"bike_id":"ae1d1965-2f19-46d1-979f-f2f72107f955","system_id":"levelo_inurba_marseille","lat":43.30789,"lon":5.37642,"is_reserved":false,"is_disabled":false,"rental_uris":{"android":"levelo://app?vid=ae1d1965-2f19-46d1-979f-f2f72107f955","ios":"levelo://app?vid=ae1d1965-2f19-46d1-979f-f2f72107f955"},"vehicle_type_id":"4","last_reported":1744647167,"current_range_meters":14800,"station_id":"ce4bgv92rcd13ifvqcq0","pricing_plan_id":"cebpf4jnsgd1na2vs0mg"},{"bike_id":"79ca7404-4ff5-4d41-9196-cc1ffaa63cc3","system_id":"levelo_inurba_marseille","lat":43.244194,"lon":5.396654,"is_reserved":false,"is_disabled":false,"rental_uris":{"android":"levelo://app?vid=79ca7404-4ff5-4d41-9196-cc1ffaa63cc3","ios":"levelo://app?vid=79ca7404-4ff5-4d41-9196-cc1ffaa63cc3"},"vehicle_type_id":"4","last_reported":1744647167,"current_range_meters":15200,"station_id":"ce4bhn12rcd13ifvqgpg","pricing_plan_id":"cebpf4jnsgd1na2vs0mg"},{"bike_id":"13b712ce-f355-4b10-aae7-a53defd965d4","system_id":"levelo_inurba_marseille","lat":43.28263,"lon":5.351,"is_reserved":false,"is_disabled":false,"rental_uris":{"android":"levelo://app?vid=13b712ce-f355-4b10-aae7-a53defd965d4","ios":"levelo://app?vid=13b712ce-f355-4b10-aae7-a53defd965d4"},"vehicle_type_id":"4","last_reported":1744647167,"current_range_meters":15200,"station_id":"ce4bhbp2rcd13ifvqerg","pricing_plan_id":"cebpf4jnsgd1na2vs0mg"},{"bike_id":"97792ef7-6549-4594-ba7d-a2f3a8f22b21","system_id":"levelo_inurba_marseille","lat":43.30133,"lon":5.39858,"is_reserved":false,"is_disabled":false,"rental_uris":{"android":"levelo://app?vid=97792ef7-6549-4594-ba7d-a2f3a8f22b21","ios":"levelo://app?vid=97792ef7-6549-4594-ba7d-a2f3a8f22b21"},"vehicle_type_id":"4","last_reported":1744647167,"current_range_meters":15200,"station_id":"ce4bh0h2rcd13ifvqd40","pricing_plan_id":"cebpf4jnsgd1na2vs0mg"},{"bike_id":"40db818b-5b9e-46bf-8274-264778958c39","system_id":"levelo_inurba_marseille","lat":43.23156,"lon":5.43695,"is_reserved":false,"is_disabled":false,"rental_uris":{"android":"levelo://app?vid=40db818b-5b9e-46bf-8274-264778958c39","ios":"levelo://app?vid=40db818b-5b9e-46bf-8274-264778958c39"},"vehicle_type_id":"4","last_reported":1744647167,"current_range_meters":15200,"station_id":"ce4bhmp2rcd13ifvqgog","pricing_plan_id":"cebpf4jnsgd1na2vs0mg"},{"bike_id":"02dc5853-d17c-47ac-a646-82ded7ba5800","system_id":"levelo_inurba_marseille","lat":43.30247,"lon":5.40086,"is_reserved":false,"is_disabled":true,"rental_uris":{"android":"levelo://app?vid=02dc5853-d17c-47ac-a646-82ded7ba5800","ios":"levelo://app?vid=02dc5853-d17c-47ac-a646-82ded7ba5800"},"vehicle_type_id":"4","last_reported":1744647167,"current_range_meters":16000,"station_id":"ce4bgvh2rcd13ifvqcs0","pricing_plan_id":"cebpf4jnsgd1na2vs0mg"},{"bike_id":"90aa782d-c877-47eb-9eb0-31b31157cc06","system_id":"levelo_inurba_marseille","lat":43.28158,"lon":5.42642,"is_reserved":false,"is_disabled":false,"rental_uris":{"android":"levelo://app?vid=90aa782d-c877-47eb-9eb0-31b31157cc06","ios":"levelo://app?vid=90aa782d-c877-47eb-9eb0-31b31157cc06"},"vehicle_type_id":"4","last_reported":1744647167,"current_range_meters":16000,"station_id":"ce4bhnh2rcd13ifvqgug","pricing_plan_id":"cebpf4jnsgd1na2vs0mg"},{"bike_id":"a818834f-725d-4dbb-9bab-d3518b1b13c4","system_id":"levelo_inurba_marseille","lat":43.3237,"lon":5.36777,"is_reserved":false,"is_disabled":false,"rental_uris":{"android":"levelo://app?vid=a818834f-725d-4dbb-9bab-d3518b1b13c4","ios":"levelo://app?vid=a818834f-725d-4dbb-9bab-d3518b1b13c4"},"vehicle_type_id":"4","last_reported":1744647167,"current_range_meters":16000,"station_id":"ce4bhsh2rcd13ifvqi2g","pricing_plan_id":"cebpf4jnsgd1na2vs0mg"},{"bike_id":"9481a4d4-998c-4242-822b-0b8fa3017440","system_id":"levelo_inurba_marseille","lat":43.288575,"lon":5.393263,"is_reserved":false,"is_disabled":true,"rental_uris":{"android":"levelo://app?vid=9481a4d4-998c-4242-822b-0b8fa3017440","ios":"levelo://app?vid=9481a4d4-998c-4242-822b-0b8fa3017440"},"vehicle_type_id":"4","last_reported":1744647167,"current_range_meters":16000,"station_id":"ce4bh2p2rcd13ifvqdi0","pricing_plan_id":"cebpf4jnsgd1na2vs0mg"},{"bike_id":"56135a82-d19f-45ea-a72c-58b1131d0fcb","system_id":"levelo_inurba_marseille","lat":43.28092,"lon":5.39654,"is_reserved":false,"is_disabled":true,"rental_uris":{"android":"levelo://app?vid=56135a82-d19f-45ea-a72c-58b1131d0fcb","ios":"levelo://app?vid=56135a82-d19f-45ea-a72c-58b1131d0fcb"},"vehicle_type_id":"4","last_reported":1744647167,"current_range_meters":16000,"station_id":"ce4bho12rcd13ifvqh2g","pricing_plan_id":"cebpf4jnsgd1na2vs0mg"},{"bike_id":"adc57c37-ce55-4115-a740-875a9e1ac006","system_id":"levelo_inurba_marseille","lat":43.28455,"lon":5.35892,"is_reserved":false,"is_disabled":false,"rental_uris":{"android":"levelo://app?vid=adc57c37-ce55-4115-a740-875a9e1ac006","ios":"levelo://app?vid=adc57c37-ce55-4115-a740-875a9e1ac006"},"vehicle_type_id":"4","last_reported":1744647167,"current_range_meters":16000,"station_id":"ce4bhah2rcd13ifvqei0","pricing_plan_id":"cebpf4jnsgd1na2vs0mg"},{"bike_id":"fd3f12af-0a25-4322-bd32-a12346e013e6","system_id":"levelo_inurba_marseille","lat":43.24803,"lon":5.37456,"is_reserved":false,"is_disabled":false,"rental_uris":{"android":"levelo://app?vid=fd3f12af-0a25-4322-bd32-a12346e013e6","ios":"levelo://app?vid=fd3f12af-0a25-4322-bd32-a12346e013e6"},"vehicle_type_id":"4","last_reported":1744647167,"current_range_meters":16000,"station_id":"ce4bhgh2rcd13ifvqfb0","pricing_plan_id":"cebpf4jnsgd1na2vs0mg"},{"bike_id":"8ca52510-9c00-4344-aaf5-b78b6b5a8d5f","system_id":"levelo_inurba_marseille","lat":43.29094,"lon":5.38124,"is_reserved":false,"is_disabled":false,"rental_uris":{"android":"levelo://app?vid=8ca52510-9c00-4344-aaf5-b78b6b5a8d5f","ios":"levelo://app?vid=8ca52510-9c00-4344-aaf5-b78b6b5a8d5f"},"vehicle_type_id":"4","last_reported":1744647167,"current_range_meters":16400,"station_id":"ce4bh512rcd13ifvqe2g","pricing_plan_id":"cebpf4jnsgd1na2vs0mg"},{"bike_id":"3fe87057-a1c9-47e2-8f8c-b8e707256d56","system_id":"levelo_inurba_marseille","lat":43.27919,"lon":5.39579,"is_reserved":false,"is_disabled":false,"rental_uris":{"android":"levelo://app?vid=3fe87057-a1c9-47e2-8f8c-b8e707256d56","ios":"levelo://app?vid=3fe87057-a1c9-47e2-8f8c-b8e707256d56"},"vehicle_type_id":"4","last_reported":1744647167,"current_range_meters":16800,"station_id":"ce4bhf92rcd13ifvqf40","pricing_plan_id":"cebpf4jnsgd1na2vs0mg"},{"bike_id":"ec55715f-50ef-4b62-b932-d89df8729be7","system_id":"levelo_inurba_marseille","lat":43.31569,"lon":5.38846,"is_reserved":false,"is_disabled":false,"rental_uris":{"android":"levelo://app?vid=ec55715f-50ef-4b62-b932-d89df8729be7","ios":"levelo://app?vid=ec55715f-50ef-4b62-b932-d89df8729be7"},"vehicle_type_id":"4","last_reported":1744647167,"current_range_meters":16800,"station_id":"","pricing_plan_id":"cebpf4jnsgd1na2vs0mg"},{"bike_id":"bb1ecad1-1d0b-4caa-9580-d0e566a95ae2","system_id":"levelo_inurba_marseille","lat":43.24662,"lon":5.38162,"is_reserved":false,"is_disabled":false,"rental_uris":{"android":"levelo://app?vid=bb1ecad1-1d0b-4caa-9580-d0e566a95ae2","ios":"levelo://app?vid=bb1ecad1-1d0b-4caa-9580-d0e566a95ae2"},"vehicle_type_id":"4","last_reported":1744647167,"current_range_meters":16800,"station_id":"ce4bhih2rcd13ifvqfr0","pricing_plan_id":"cebpf4jnsgd1na2vs0mg"},{"bike_id":"37342bdf-d586-43ba-a25b-da22b3393da6","system_id":"levelo_inurba_marseille","lat":43.29185,"lon":5.37495,"is_reserved":false,"is_disabled":false,"rental_uris":{"android":"levelo://app?vid=37342bdf-d586-43ba-a25b-da22b3393da6","ios":"levelo://app?vid=37342bdf-d586-43ba-a25b-da22b3393da6"},"vehicle_type_id":"4","last_reported":1744647167,"current_range_meters":16800,"station_id":"","pricing_plan_id":"cebpf4jnsgd1na2vs0mg"},{"bike_id":"e940fe48-7b63-48b4-bb24-c777924f46c0","system_id":"levelo_inurba_marseille","lat":43.29569,"lon":5.39977,"is_reserved":false,"is_disabled":false,"rental_uris":{"android":"levelo://app?vid=e940fe48-7b63-48b4-bb24-c777924f46c0","ios":"levelo://app?vid=e940fe48-7b63-48b4-bb24-c777924f46c0"},"vehicle_type_id":"4","last_reported":1744647167,"current_range_meters":16800,"station_id":"ce4bh312rcd13ifvqdj0","pricing_plan_id":"cebpf4jnsgd1na2vs0mg"},{"bike_id":"ef3b894f-dbff-415e-a4e9-c6ff4a4cb150","system_id":"levelo_inurba_marseille","lat":43.27941,"lon":5.41051,"is_reserved":false,"is_disabled":false,"rental_uris":{"android":"levelo://app?vid=ef3b894f-dbff-415e-a4e9-c6ff4a4cb150","ios":"levelo://app?vid=ef3b894f-dbff-415e-a4e9-c6ff4a4cb150"},"vehicle_type_id":"4","last_reported":1744647167,"current_range_meters":16800,"station_id":"ce4bhnp2rcd13ifvqh0g","pricing_plan_id":"cebpf4jnsgd1na2vs0mg"},{"bike_id":"86507adb-43c1-4a89-acc7-c74cd80a099f","system_id":"levelo_inurba_marseille","lat":43.23129,"lon":5.36663,"is_reserved":false,"is_disabled":false,"rental_uris":{"android":"levelo://app?vid=86507adb-43c1-4a89-acc7-c74cd80a099f","ios":"levelo://app?vid=86507adb-43c1-4a89-acc7-c74cd80a099f"},"vehicle_type_id":"4","last_reported":1744647167,"current_range_meters":16800,"station_id":"","pricing_plan_id":"cebpf4jnsgd1na2vs0mg"},{"bike_id":"0d97217b-392d-4d73-96b1-1eb3fdebbe3b","system_id":"levelo_inurba_marseille","lat":43.31071,"lon":5.38362,"is_reserved":false,"is_disabled":false,"rental_uris":{"android":"levelo://app?vid=0d97217b-392d-4d73-96b1-1eb3fdebbe3b","ios":"levelo://app?vid=0d97217b-392d-4d73-96b1-1eb3fdebbe3b"},"vehicle_type_id":"4","last_reported":1744647167,"current_range_meters":16800,"station_id":"ce4bgv92rcd13ifvqcr0","pricing_plan_id":"cebpf4jnsgd1na2vs0mg"},{"bike_id":"5c0cc5dd-7c03-4f8b-838c-65a8bfb31b5b","system_id":"levelo_inurba_marseille","lat":43.24663,"lon":5.38151,"is_reserved":false,"is_disabled":false,"rental_uris":{"android":"levelo://app?vid=5c0cc5dd-7c03-4f8b-838c-65a8bfb31b5b","ios":"levelo://app?vid=5c0cc5dd-7c03-4f8b-838c-65a8bfb31b5b"},"vehicle_type_id":"4","last_reported":1744647167,"current_range_meters":17200,"station_id":"ce4bhih2rcd13ifvqfr0","pricing_plan_id":"cebpf4jnsgd1na2vs0mg"},{"bike_id":"b480ffb1-672d-407b-b2c6-f0af4858e1b2","system_id":"levelo_inurba_marseille","lat":43.287,"lon":5.37376,"is_reserved":false,"is_disabled":false,"rental_uris":{"android":"levelo://app?vid=b480ffb1-672d-407b-b2c6-f0af4858e1b2","ios":"levelo://app?vid=b480ffb1-672d-407b-b2c6-f0af4858e1b2"},"vehicle_type_id":"4","last_reported":1744647167,"current_range_meters":16800,"station_id":"ce4bh3p2rcd13ifvqdq0","pricing_plan_id":"cebpf4jnsgd1na2vs0mg"},{"bike_id":"382a1a40-cce5-4bcf-8677-ad51fb5a2457","system_id":"levelo_inurba_marseille","lat":43.28847,"lon":5.39361,"is_reserved":false,"is_disabled":true,"rental_uris":{"android":"levelo://app?vid=382a1a40-cce5-4bcf-8677-ad51fb5a2457","ios":"levelo://app?vid=382a1a40-cce5-4bcf-8677-ad51fb5a2457"},"vehicle_type_id":"4","last_reported":1744647167,"current_range_meters":17200,"station_id":"ce4bh2p2rcd13ifvqdi0","pricing_plan_id":"cebpf4jnsgd1na2vs0mg"},{"bike_id":"9cbdb7fd-c38a-40d4-96dd-748a8908657f","system_id":"levelo_inurba_marseille","lat":43.26029,"lon":5.37549,"is_reserved":false,"is_disabled":false,"rental_uris":{"android":"levelo://app?vid=9cbdb7fd-c38a-40d4-96dd-748a8908657f","ios":"levelo://app?vid=9cbdb7fd-c38a-40d4-96dd-748a8908657f"},"vehicle_type_id":"4","last_reported":1744647167,"current_range_meters":17600,"station_id":"ce4bhgh2rcd13ifvqfa0","pricing_plan_id":"cebpf4jnsgd1na2vs0mg"},{"bike_id":"8a0a8065-6fa9-4097-ba21-6595ce58263c","system_id":"levelo_inurba_marseille","lat":43.283847,"lon":5.349824,"is_reserved":false,"is_disabled":false,"rental_uris":{"android":"levelo://app?vid=8a0a8065-6fa9-4097-ba21-6595ce58263c","ios":"levelo://app?vid=8a0a8065-6fa9-4097-ba21-6595ce58263c"},"vehicle_type_id":"4","last_reported":1744647167,"current_range_meters":17600,"station_id":"ce4bhbh2rcd13ifvqepg","pricing_plan_id":"cebpf4jnsgd1na2vs0mg"},{"bike_id":"3f077539-f3f6-4bef-b50d-79005cba6892","system_id":"levelo_inurba_marseille","lat":43.290315,"lon":5.375558,"is_reserved":false,"is_disabled":false,"rental_uris":{"android":"levelo://app?vid=3f077539-f3f6-4bef-b50d-79005cba6892","ios":"levelo://app?vid=3f077539-f3f6-4bef-b50d-79005cba6892"},"vehicle_type_id":"4","last_reported":1744647167,"current_range_meters":17600,"station_id":"ce4bh692rcd13ifvqe90","pricing_plan_id":"cebpf4jnsgd1na2vs0mg"},{"bike_id":"d40b0ea4-7452-4d12-b4f2-b4a710090bac","system_id":"levelo_inurba_marseille","lat":43.29848,"lon":5.362888,"is_reserved":false,"is_disabled":false,"rental_uris":{"android":"levelo://app?vid=d40b0ea4-7452-4d12-b4f2-b4a710090bac","ios":"levelo://app?vid=d40b0ea4-7452-4d12-b4f2-b4a710090bac"},"vehicle_type_id":"4","last_reported":1744647167,"current_range_meters":17600,"station_id":"ce4bgpp2rcd13ifvqc3g","pricing_plan_id":"cebpf4jnsgd1na2vs0mg"},{"bike_id":"d2d37f01-fa46-4fbc-a721-7789f4003663","system_id":"levelo_inurba_marseille","lat":43.24973,"lon":5.38958,"is_reserved":false,"is_disabled":false,"rental_uris":{"android":"levelo://app?vid=d2d37f01-fa46-4fbc-a721-7789f4003663","ios":"levelo://app?vid=d2d37f01-fa46-4fbc-a721-7789f4003663"},"vehicle_type_id":"4","last_reported":1744647167,"current_range_meters":17600,"station_id":"ce4bhgp2rcd13ifvqfd0","pricing_plan_id":"cebpf4jnsgd1na2vs0mg"},{"bike_id":"1c9e9234-582e-48f1-b8f5-13540958fcd4","system_id":"levelo_inurba_marseille","lat":43.24661,"lon":5.38168,"is_reserved":false,"is_disabled":false,"rental_uris":{"android":"levelo://app?vid=1c9e9234-582e-48f1-b8f5-13540958fcd4","ios":"levelo://app?vid=1c9e9234-582e-48f1-b8f5-13540958fcd4"},"vehicle_type_id":"4","last_reported":1744647167,"current_range_meters":17600,"station_id":"ce4bhih2rcd13ifvqfr0","pricing_plan_id":"cebpf4jnsgd1na2vs0mg"},{"bike_id":"205a676e-388e-4b5d-b5d4-92bca6b76c07","system_id":"levelo_inurba_marseille","lat":43.31155,"lon":5.38016,"is_reserved":false,"is_disabled":true,"rental_uris":{"android":"levelo://app?vid=205a676e-388e-4b5d-b5d4-92bca6b76c07","ios":"levelo://app?vid=205a676e-388e-4b5d-b5d4-92bca6b76c07"},"vehicle_type_id":"4","last_reported":1744647167,"current_range_meters":17600,"station_id":"","pricing_plan_id":"cebpf4jnsgd1na2vs0mg"},{"bike_id":"d1128e90-f69c-41bc-ac3b-fe0564b706bc","system_id":"levelo_inurba_marseille","lat":43.29415,"lon":5.3862,"is_reserved":false,"is_disabled":false,"rental_uris":{"android":"levelo://app?vid=d1128e90-f69c-41bc-ac3b-fe0564b706bc","ios":"levelo://app?vid=d1128e90-f69c-41bc-ac3b-fe0564b706bc"},"vehicle_type_id":"4","last_reported":1744647167,"current_range_meters":18000,"station_id":"ce4bh2h2rcd13ifvqdh0","pricing_plan_id":"cebpf4jnsgd1na2vs0mg"},{"bike_id":"e2fc9132-5c8d-456b-a5bf-54f6e2f0a9f4","system_id":"levelo_inurba_marseille","lat":43.286902,"lon":5.374007,"is_reserved":false,"is_disabled":false,"rental_uris":{"android":"levelo://app?vid=e2fc9132-5c8d-456b-a5bf-54f6e2f0a9f4","ios":"levelo://app?vid=e2fc9132-5c8d-456b-a5bf-54f6e2f0a9f4"},"vehicle_type_id":"4","last_reported":1744647167,"current_range_meters":18000,"station_id":"ce4bh3p2rcd13ifvqdq0","pricing_plan_id":"cebpf4jnsgd1na2vs0mg"},{"bike_id":"ab143d3b-d8a2-4b5a-8fc4-bf7907d0796e","system_id":"levelo_inurba_marseille","lat":43.28438,"lon":5.38424,"is_reserved":false,"is_disabled":false,"rental_uris":{"android":"levelo://app?vid=ab143d3b-d8a2-4b5a-8fc4-bf7907d0796e","ios":"levelo://app?vid=ab143d3b-d8a2-4b5a-8fc4-bf7907d0796e"},"vehicle_type_id":"4","last_reported":1744647167,"current_range_meters":18000,"station_id":"ce4bh512rcd13ifvqe3g","pricing_plan_id":"cebpf4jnsgd1na2vs0mg"},{"bike_id":"8688e724-e1a7-41ca-9a63-c0e95801648c","system_id":"levelo_inurba_marseille","lat":43.29417,"lon":5.38627,"is_reserved":false,"is_disabled":false,"rental_uris":{"android":"levelo://app?vid=8688e724-e1a7-41ca-9a63-c0e95801648c","ios":"levelo://app?vid=8688e724-e1a7-41ca-9a63-c0e95801648c"},"vehicle_type_id":"4","last_reported":1744647167,"current_range_meters":18800,"station_id":"ce4bh2h2rcd13ifvqdh0","pricing_plan_id":"cebpf4jnsgd1na2vs0mg"},{"bike_id":"5182a8c6-f0bc-4b99-9c68-71057c8f2344","system_id":"levelo_inurba_marseille","lat":43.29691,"lon":5.36588,"is_reserved":false,"is_disabled":false,"rental_uris":{"android":"levelo://app?vid=5182a8c6-f0bc-4b99-9c68-71057c8f2344","ios":"levelo://app?vid=5182a8c6-f0bc-4b99-9c68-71057c8f2344"},"vehicle_type_id":"4","last_reported":1744647167,"current_range_meters":18800,"station_id":"ce4bgn12rcd13ifvqbt0","pricing_plan_id":"cebpf4jnsgd1na2vs0mg"},{"bike_id":"f6ec66e1-6d5d-4d61-9591-c35eb9630874","system_id":"levelo_inurba_marseille","lat":43.26034,"lon":5.37559,"is_reserved":false,"is_disabled":false,"rental_uris":{"android":"levelo://app?vid=f6ec66e1-6d5d-4d61-9591-c35eb9630874","ios":"levelo://app?vid=f6ec66e1-6d5d-4d61-9591-c35eb9630874"},"vehicle_type_id":"4","last_reported":1744647167,"current_range_meters":18800,"station_id":"ce4bhgh2rcd13ifvqfa0","pricing_plan_id":"cebpf4jnsgd1na2vs0mg"},{"bike_id":"e7aceb28-226d-48f8-9d3b-6c0ee6706aa1","system_id":"levelo_inurba_marseille","lat":43.26594,"lon":5.39056,"is_reserved":false,"is_disabled":false,"rental_uris":{"android":"levelo://app?vid=e7aceb28-226d-48f8-9d3b-6c0ee6706aa1","ios":"levelo://app?vid=e7aceb28-226d-48f8-9d3b-6c0ee6706aa1"},"vehicle_type_id":"4","last_reported":1744647167,"current_range_meters":18800,"station_id":"ce4bhe12rcd13ifvqf30","pricing_plan_id":"cebpf4jnsgd1na2vs0mg"},{"bike_id":"ff217e6c-eec0-4ea7-9e3b-e76fc169a863","system_id":"levelo_inurba_marseille","lat":43.29191,"lon":5.39332,"is_reserved":false,"is_disabled":false,"rental_uris":{"android":"levelo://app?vid=ff217e6c-eec0-4ea7-9e3b-e76fc169a863","ios":"levelo://app?vid=ff217e6c-eec0-4ea7-9e3b-e76fc169a863"},"vehicle_type_id":"4","last_reported":1744647167,"current_range_meters":19200,"station_id":"ce4bh192rcd13ifvqdd0","pricing_plan_id":"cebpf4jnsgd1na2vs0mg"},{"bike_id":"9a81aacf-b09e-41ae-b786-df8e8f8b8754","system_id":"levelo_inurba_marseille","lat":43.30578,"lon":5.36534,"is_reserved":false,"is_disabled":false,"rental_uris":{"android":"levelo://app?vid=9a81aacf-b09e-41ae-b786-df8e8f8b8754","ios":"levelo://app?vid=9a81aacf-b09e-41ae-b786-df8e8f8b8754"},"vehicle_type_id":"4","last_reported":1744647167,"current_range_meters":19200,"station_id":"ce4bgs12rcd13ifvqcag","pricing_plan_id":"cebpf4jnsgd1na2vs0mg"},{"bike_id":"3b8ebf16-c736-4754-8798-240c46534420","system_id":"levelo_inurba_marseille","lat":43.271,"lon":5.42291,"is_reserved":false,"is_disabled":false,"rental_uris":{"android":"levelo://app?vid=3b8ebf16-c736-4754-8798-240c46534420","ios":"levelo://app?vid=3b8ebf16-c736-4754-8798-240c46534420"},"vehicle_type_id":"4","last_reported":1744647167,"current_range_meters":19200,"station_id":"ce4bhk92rcd13ifvqgb0","pricing_plan_id":"cebpf4jnsgd1na2vs0mg"},{"bike_id":"c1c136a9-3fe6-408a-a2d9-f5423d116933","system_id":"levelo_inurba_marseille","lat":43.28075,"lon":5.39667,"is_reserved":false,"is_disabled":false,"rental_uris":{"android":"levelo://app?vid=c1c136a9-3fe6-408a-a2d9-f5423d116933","ios":"levelo://app?vid=c1c136a9-3fe6-408a-a2d9-f5423d116933"},"vehicle_type_id":"4","last_reported":1744647167,"current_range_meters":19200,"station_id":"ce4bho12rcd13ifvqh2g","pricing_plan_id":"cebpf4jnsgd1na2vs0mg"},{"bike_id":"013a924c-1ee5-4674-a305-ba7bd5a1d58b","system_id":"levelo_inurba_marseille","lat":43.230652,"lon":5.354926,"is_reserved":false,"is_disabled":false,"rental_uris":{"android":"levelo://app?vid=013a924c-1ee5-4674-a305-ba7bd5a1d58b","ios":"levelo://app?vid=013a924c-1ee5-4674-a305-ba7bd5a1d58b"},"vehicle_type_id":"4","last_reported":1744647167,"current_range_meters":19200,"station_id":"cpo3342slgdg3j2ifvpg","pricing_plan_id":"cebpf4jnsgd1na2vs0mg"},{"bike_id":"c5638e12-fa99-4c3b-9eb1-dc4ba2e840ba","system_id":"levelo_inurba_marseille","lat":43.28446,"lon":5.39187,"is_reserved":false,"is_disabled":false,"rental_uris":{"android":"levelo://app?vid=c5638e12-fa99-4c3b-9eb1-dc4ba2e840ba","ios":"levelo://app?vid=c5638e12-fa99-4c3b-9eb1-dc4ba2e840ba"},"vehicle_type_id":"4","last_reported":1744647167,"current_range_meters":19200,"station_id":"ce4bhoh2rcd13ifvqh5g","pricing_plan_id":"cebpf4jnsgd1na2vs0mg"},{"bike_id":"738843f9-89f9-45ec-9315-a1bdff1752ed","system_id":"levelo_inurba_marseille","lat":43.26929,"lon":5.38913,"is_reserved":false,"is_disabled":false,"rental_uris":{"android":"levelo://app?vid=738843f9-89f9-45ec-9315-a1bdff1752ed","ios":"levelo://app?vid=738843f9-89f9-45ec-9315-a1bdff1752ed"},"vehicle_type_id":"4","last_reported":1744647167,"current_range_meters":19600,"station_id":"ce4bhhh2rcd13ifvqfl0","pricing_plan_id":"cebpf4jnsgd1na2vs0mg"},{"bike_id":"69ab595a-0d38-4c64-acbf-de2deb74927e","system_id":"levelo_inurba_marseille","lat":43.27918,"lon":5.39577,"is_reserved":false,"is_disabled":false,"rental_uris":{"android":"levelo://app?vid=69ab595a-0d38-4c64-acbf-de2deb74927e","ios":"levelo://app?vid=69ab595a-0d38-4c64-acbf-de2deb74927e"},"vehicle_type_id":"4","last_reported":1744647167,"current_range_meters":19600,"station_id":"ce4bhf92rcd13ifvqf40","pricing_plan_id":"cebpf4jnsgd1na2vs0mg"},{"bike_id":"874723af-5701-43d5-81f0-010331b86cde","system_id":"levelo_inurba_marseille","lat":43.30335,"lon":5.40445,"is_reserved":false,"is_disabled":false,"rental_uris":{"android":"levelo://app?vid=874723af-5701-43d5-81f0-010331b86cde","ios":"levelo://app?vid=874723af-5701-43d5-81f0-010331b86cde"},"vehicle_type_id":"4","last_reported":1744647167,"current_range_meters":19600,"station_id":"ce4bh012rcd13ifvqd10","pricing_plan_id":"cebpf4jnsgd1na2vs0mg"},{"bike_id":"7eacb872-0584-4b06-8fad-feb612d3799a","system_id":"levelo_inurba_marseille","lat":43.29689,"lon":5.38104,"is_reserved":false,"is_disabled":false,"rental_uris":{"android":"levelo://app?vid=7eacb872-0584-4b06-8fad-feb612d3799a","ios":"levelo://app?vid=7eacb872-0584-4b06-8fad-feb612d3799a"},"vehicle_type_id":"4","last_reported":1744647167,"current_range_meters":19600,"station_id":"","pricing_plan_id":"cebpf4jnsgd1na2vs0mg"},{"bike_id":"04784701-771e-4e59-a903-09e2de2bef5b","system_id":"levelo_inurba_marseille","lat":43.28108,"lon":5.37814,"is_reserved":false,"is_disabled":false,"rental_uris":{"android":"levelo://app?vid=04784701-771e-4e59-a903-09e2de2bef5b","ios":"levelo://app?vid=04784701-771e-4e59-a903-09e2de2bef5b"},"vehicle_type_id":"4","last_reported":1744647167,"current_range_meters":19600,"station_id":"ce4bha12rcd13ifvqee0","pricing_plan_id":"cebpf4jnsgd1na2vs0mg"},{"bike_id":"778836a3-a911-4ef7-97b9-a6531645217f","system_id":"levelo_inurba_marseille","lat":43.294228,"lon":5.386264,"is_reserved":false,"is_disabled":false,"rental_uris":{"android":"levelo://app?vid=778836a3-a911-4ef7-97b9-a6531645217f","ios":"levelo://app?vid=778836a3-a911-4ef7-97b9-a6531645217f"},"vehicle_type_id":"4","last_reported":1744647167,"current_range_meters":19600,"station_id":"ce4bh2h2rcd13ifvqdh0","pricing_plan_id":"cebpf4jnsgd1na2vs0mg"},{"bike_id":"5abc756f-3f30-4812-85e9-a976f29d7cfe","system_id":"levelo_inurba_marseille","lat":43.298849,"lon":5.366226,"is_reserved":false,"is_disabled":false,"rental_uris":{"android":"levelo://app?vid=5abc756f-3f30-4812-85e9-a976f29d7cfe","ios":"levelo://app?vid=5abc756f-3f30-4812-85e9-a976f29d7cfe"},"vehicle_type_id":"4","last_reported":1744647167,"current_range_meters":19600,"station_id":"ce4bgn12rcd13ifvqbt0","pricing_plan_id":"cebpf4jnsgd1na2vs0mg"},{"bike_id":"1b4c8cb4-c3c5-4dff-80a2-7d020758e166","system_id":"levelo_inurba_marseille","lat":43.29575,"lon":5.39983,"is_reserved":false,"is_disabled":false,"rental_uris":{"android":"levelo://app?vid=1b4c8cb4-c3c5-4dff-80a2-7d020758e166","ios":"levelo://app?vid=1b4c8cb4-c3c5-4dff-80a2-7d020758e166"},"vehicle_type_id":"4","last_reported":1744647167,"current_range_meters":19600,"station_id":"ce4bh312rcd13ifvqdj0","pricing_plan_id":"cebpf4jnsgd1na2vs0mg"},{"bike_id":"e5f32608-379f-4a2c-93e9-61fe3f915bbc","system_id":"levelo_inurba_marseille","lat":43.27433,"lon":5.39418,"is_reserved":false,"is_disabled":false,"rental_uris":{"android":"levelo://app?vid=e5f32608-379f-4a2c-93e9-61fe3f915bbc","ios":"levelo://app?vid=e5f32608-379f-4a2c-93e9-61fe3f915bbc"},"vehicle_type_id":"4","last_reported":1744647167,"current_range_meters":19600,"station_id":"ce4bhdp2rcd13ifvqf20","pricing_plan_id":"cebpf4jnsgd1na2vs0mg"},{"bike_id":"1175d9e6-e3ac-4aa2-a551-bea3d9efc2c5","system_id":"levelo_inurba_marseille","lat":43.279928,"lon":5.41663,"is_reserved":false,"is_disabled":false,"rental_uris":{"android":"levelo://app?vid=1175d9e6-e3ac-4aa2-a551-bea3d9efc2c5","ios":"levelo://app?vid=1175d9e6-e3ac-4aa2-a551-bea3d9efc2c5"},"vehicle_type_id":"4","last_reported":1744647167,"current_range_meters":20000,"station_id":"ce4bho12rcd13ifvqh1g","pricing_plan_id":"cebpf4jnsgd1na2vs0mg"},{"bike_id":"f49ddffc-7bab-4ae8-aed8-c4afb43e0f8b","system_id":"levelo_inurba_marseille","lat":43.31529,"lon":5.38039,"is_reserved":false,"is_disabled":false,"rental_uris":{"android":"levelo://app?vid=f49ddffc-7bab-4ae8-aed8-c4afb43e0f8b","ios":"levelo://app?vid=f49ddffc-7bab-4ae8-aed8-c4afb43e0f8b"},"vehicle_type_id":"4","last_reported":1744647167,"current_range_meters":20000,"station_id":"ce4bhsp2rcd13ifvqi50","pricing_plan_id":"cebpf4jnsgd1na2vs0mg"},{"bike_id":"d953c3b8-2acf-4d04-8a2c-3c66cb332dd9","system_id":"levelo_inurba_marseille","lat":43.29008,"lon":5.35608,"is_reserved":false,"is_disabled":false,"rental_uris":{"android":"levelo://app?vid=d953c3b8-2acf-4d04-8a2c-3c66cb332dd9","ios":"levelo://app?vid=d953c3b8-2acf-4d04-8a2c-3c66cb332dd9"},"vehicle_type_id":"4","last_reported":1744647167,"current_range_meters":20000,"station_id":"ce4bhb92rcd13ifvqen0","pricing_plan_id":"cebpf4jnsgd1na2vs0mg"},{"bike_id":"7f23977e-f6c5-497f-93a6-ea1e22796b85","system_id":"levelo_inurba_marseille","lat":43.29876,"lon":5.39732,"is_reserved":false,"is_disabled":false,"rental_uris":{"android":"levelo://app?vid=7f23977e-f6c5-497f-93a6-ea1e22796b85","ios":"levelo://app?vid=7f23977e-f6c5-497f-93a6-ea1e22796b85"},"vehicle_type_id":"4","last_reported":1744647167,"current_range_meters":19600,"station_id":"ce4bh0h2rcd13ifvqd50","pricing_plan_id":"cebpf4jnsgd1na2vs0mg"},{"bike_id":"db4ec86c-4e8c-480d-b07d-8ceb567c237a","system_id":"levelo_inurba_marseille","lat":43.25725,"lon":5.4111,"is_reserved":false,"is_disabled":false,"rental_uris":{"android":"levelo://app?vid=db4ec86c-4e8c-480d-b07d-8ceb567c237a","ios":"levelo://app?vid=db4ec86c-4e8c-480d-b07d-8ceb567c237a"},"vehicle_type_id":"4","last_reported":1744647167,"current_range_meters":20000,"station_id":"ce4bhkp2rcd13ifvqgd0","pricing_plan_id":"cebpf4jnsgd1na2vs0mg"},{"bike_id":"9001dd4b-7b69-4479-b10a-9d1627ae32a8","system_id":"levelo_inurba_marseille","lat":43.28041,"lon":5.36941,"is_reserved":false,"is_disabled":false,"rental_uris":{"android":"levelo://app?vid=9001dd4b-7b69-4479-b10a-9d1627ae32a8","ios":"levelo://app?vid=9001dd4b-7b69-4479-b10a-9d1627ae32a8"},"vehicle_type_id":"4","last_reported":1744647167,"current_range_meters":20400,"station_id":"ce4bha12rcd13ifvqef0","pricing_plan_id":"cebpf4jnsgd1na2vs0mg"},{"bike_id":"b194b76c-0c26-4dea-94f4-1ff46a05dacc","system_id":"levelo_inurba_marseille","lat":43.299002,"lon":5.436602,"is_reserved":false,"is_disabled":false,"rental_uris":{"android":"levelo://app?vid=b194b76c-0c26-4dea-94f4-1ff46a05dacc","ios":"levelo://app?vid=b194b76c-0c26-4dea-94f4-1ff46a05dacc"},"vehicle_type_id":"4","last_reported":1744647167,"current_range_meters":20400,"station_id":"ce4bhpp2rcd13ifvqhfg","pricing_plan_id":"cebpf4jnsgd1na2vs0mg"},{"bike_id":"2d1f7e77-f0a2-4a04-8b10-0110f1be0b1f","system_id":"levelo_inurba_marseille","lat":43.23154,"lon":5.4372,"is_reserved":false,"is_disabled":false,"rental_uris":{"android":"levelo://app?vid=2d1f7e77-f0a2-4a04-8b10-0110f1be0b1f","ios":"levelo://app?vid=2d1f7e77-f0a2-4a04-8b10-0110f1be0b1f"},"vehicle_type_id":"4","last_reported":1744647167,"current_range_meters":20400,"station_id":"ce4bhmp2rcd13ifvqgog","pricing_plan_id":"cebpf4jnsgd1na2vs0mg"},{"bike_id":"247e7291-e29e-406a-bd92-7dc08451027d","system_id":"levelo_inurba_marseille","lat":43.29252,"lon":5.40919,"is_reserved":false,"is_disabled":false,"rental_uris":{"android":"levelo://app?vid=247e7291-e29e-406a-bd92-7dc08451027d","ios":"levelo://app?vid=247e7291-e29e-406a-bd92-7dc08451027d"},"vehicle_type_id":"4","last_reported":1744647167,"current_range_meters":20400,"station_id":"ce4bh192rcd13ifvqdc0","pricing_plan_id":"cebpf4jnsgd1na2vs0mg"},{"bike_id":"dff2b4d6-b76f-43b4-9f99-8127ba4dd920","system_id":"levelo_inurba_marseille","lat":43.2582,"lon":5.39434,"is_reserved":false,"is_disabled":false,"rental_uris":{"android":"levelo://app?vid=dff2b4d6-b76f-43b4-9f99-8127ba4dd920","ios":"levelo://app?vid=dff2b4d6-b76f-43b4-9f99-8127ba4dd920"},"vehicle_type_id":"4","last_reported":1744647167,"current_range_meters":20000,"station_id":"ce4bhip2rcd13ifvqft0","pricing_plan_id":"cebpf4jnsgd1na2vs0mg"},{"bike_id":"d16e0556-a2b9-483b-9837-2074b3afccee","system_id":"levelo_inurba_marseille","lat":43.30539,"lon":5.36725,"is_reserved":false,"is_disabled":false,"rental_uris":{"android":"levelo://app?vid=d16e0556-a2b9-483b-9837-2074b3afccee","ios":"levelo://app?vid=d16e0556-a2b9-483b-9837-2074b3afccee"},"vehicle_type_id":"4","last_reported":1744647167,"current_range_meters":20400,"station_id":"ce4bgrp2rcd13ifvqc9g","pricing_plan_id":"cebpf4jnsgd1na2vs0mg"},{"bike_id":"0dbb8451-6fbf-4474-9639-bd687b68c8c2","system_id":"levelo_inurba_marseille","lat":43.3284,"lon":5.36549,"is_reserved":false,"is_disabled":false,"rental_uris":{"android":"levelo://app?vid=0dbb8451-6fbf-4474-9639-bd687b68c8c2","ios":"levelo://app?vid=0dbb8451-6fbf-4474-9639-bd687b68c8c2"},"vehicle_type_id":"4","last_reported":1744647167,"current_range_meters":20400,"station_id":"","pricing_plan_id":"cebpf4jnsgd1na2vs0mg"},{"bike_id":"0c4d89eb-fd87-49ff-9143-7a7609e2fd93","system_id":"levelo_inurba_marseille","lat":43.29874,"lon":5.38898,"is_reserved":false,"is_disabled":false,"rental_uris":{"android":"levelo://app?vid=0c4d89eb-fd87-49ff-9143-7a7609e2fd93","ios":"levelo://app?vid=0c4d89eb-fd87-49ff-9143-7a7609e2fd93"},"vehicle_type_id":"4","last_reported":1744647167,"current_range_meters":20400,"station_id":"ce4bh392rcd13ifvqdl0","pricing_plan_id":"cebpf4jnsgd1na2vs0mg"},{"bike_id":"4b86ecf7-f345-41d5-838d-5b8d5c18e192","system_id":"levelo_inurba_marseille","lat":43.26228,"lon":5.4208,"is_reserved":false,"is_disabled":false,"rental_uris":{"android":"levelo://app?vid=4b86ecf7-f345-41d5-838d-5b8d5c18e192","ios":"levelo://app?vid=4b86ecf7-f345-41d5-838d-5b8d5c18e192"},"vehicle_type_id":"4","last_reported":1744647167,"current_range_meters":20400,"station_id":"","pricing_plan_id":"cebpf4jnsgd1na2vs0mg"},{"bike_id":"8ea3856d-522b-47fe-a944-6f0e3cf0fa49","system_id":"levelo_inurba_marseille","lat":43.280824,"lon":5.396576,"is_reserved":false,"is_disabled":false,"rental_uris":{"android":"levelo://app?vid=8ea3856d-522b-47fe-a944-6f0e3cf0fa49","ios":"levelo://app?vid=8ea3856d-522b-47fe-a944-6f0e3cf0fa49"},"vehicle_type_id":"4","last_reported":1744647167,"current_range_meters":20400,"station_id":"ce4bho12rcd13ifvqh2g","pricing_plan_id":"cebpf4jnsgd1na2vs0mg"},{"bike_id":"05664e36-336b-404a-b8de-2ca42d4238f0","system_id":"levelo_inurba_marseille","lat":43.25004,"lon":5.38211,"is_reserved":false,"is_disabled":false,"rental_uris":{"android":"levelo://app?vid=05664e36-336b-404a-b8de-2ca42d4238f0","ios":"levelo://app?vid=05664e36-336b-404a-b8de-2ca42d4238f0"},"vehicle_type_id":"4","last_reported":1744647167,"current_range_meters":20400,"station_id":"","pricing_plan_id":"cebpf4jnsgd1na2vs0mg"},{"bike_id":"8b4d3ef3-72b0-4a48-acf3-035e4494a59d","system_id":"levelo_inurba_marseille","lat":43.30139,"lon":5.39844,"is_reserved":false,"is_disabled":false,"rental_uris":{"android":"levelo://app?vid=8b4d3ef3-72b0-4a48-acf3-035e4494a59d","ios":"levelo://app?vid=8b4d3ef3-72b0-4a48-acf3-035e4494a59d"},"vehicle_type_id":"4","last_reported":1744647167,"current_range_meters":20400,"station_id":"ce4bh0h2rcd13ifvqd40","pricing_plan_id":"cebpf4jnsgd1na2vs0mg"},{"bike_id":"4ec3896b-feba-44b0-994e-bd999fed9e88","system_id":"levelo_inurba_marseille","lat":43.25496,"lon":5.3765,"is_reserved":false,"is_disabled":false,"rental_uris":{"android":"levelo://app?vid=4ec3896b-feba-44b0-994e-bd999fed9e88","ios":"levelo://app?vid=4ec3896b-feba-44b0-994e-bd999fed9e88"},"vehicle_type_id":"4","last_reported":1744647167,"current_range_meters":20800,"station_id":"ce4bhh12rcd13ifvqff0","pricing_plan_id":"cebpf4jnsgd1na2vs0mg"},{"bike_id":"118aebfc-cfc9-4277-9e70-0a0eb7996dc1","system_id":"levelo_inurba_marseille","lat":43.28402,"lon":5.3753,"is_reserved":false,"is_disabled":false,"rental_uris":{"android":"levelo://app?vid=118aebfc-cfc9-4277-9e70-0a0eb7996dc1","ios":"levelo://app?vid=118aebfc-cfc9-4277-9e70-0a0eb7996dc1"},"vehicle_type_id":"4","last_reported":1744647167,"current_range_meters":20800,"station_id":"ce4bh412rcd13ifvqds0","pricing_plan_id":"cebpf4jnsgd1na2vs0mg"},{"bike_id":"56bc507f-9c85-4547-8ea3-1bd3c04e0265","system_id":"levelo_inurba_marseille","lat":43.28078,"lon":5.39653,"is_reserved":false,"is_disabled":false,"rental_uris":{"android":"levelo://app?vid=56bc507f-9c85-4547-8ea3-1bd3c04e0265","ios":"levelo://app?vid=56bc507f-9c85-4547-8ea3-1bd3c04e0265"},"vehicle_type_id":"4","last_reported":1744647167,"current_range_meters":20800,"station_id":"ce4bho12rcd13ifvqh2g","pricing_plan_id":"cebpf4jnsgd1na2vs0mg"},{"bike_id":"450f972b-cd7a-4bb4-b482-b4d5769bca30","system_id":"levelo_inurba_marseille","lat":43.28703,"lon":5.37386,"is_reserved":false,"is_disabled":false,"rental_uris":{"android":"levelo://app?vid=450f972b-cd7a-4bb4-b482-b4d5769bca30","ios":"levelo://app?vid=450f972b-cd7a-4bb4-b482-b4d5769bca30"},"vehicle_type_id":"4","last_reported":1744647167,"current_range_meters":20800,"station_id":"ce4bh3p2rcd13ifvqdq0","pricing_plan_id":"cebpf4jnsgd1na2vs0mg"},{"bike_id":"f8a9e2da-82ad-4614-af49-2e7d253dd31a","system_id":"levelo_inurba_marseille","lat":43.30192,"lon":5.36626,"is_reserved":false,"is_disabled":false,"rental_uris":{"android":"levelo://app?vid=f8a9e2da-82ad-4614-af49-2e7d253dd31a","ios":"levelo://app?vid=f8a9e2da-82ad-4614-af49-2e7d253dd31a"},"vehicle_type_id":"4","last_reported":1744647167,"current_range_meters":20800,"station_id":"ce4bgrh2rcd13ifvqc8g","pricing_plan_id":"cebpf4jnsgd1na2vs0mg"},{"bike_id":"604e17de-c072-4145-ac1f-bc4fe8e2d042","system_id":"levelo_inurba_marseille","lat":43.29793,"lon":5.38119,"is_reserved":false,"is_disabled":false,"rental_uris":{"android":"levelo://app?vid=604e17de-c072-4145-ac1f-bc4fe8e2d042","ios":"levelo://app?vid=604e17de-c072-4145-ac1f-bc4fe8e2d042"},"vehicle_type_id":"4","last_reported":1744647167,"current_range_meters":20800,"station_id":"ce4bgip2rcd13ifvqbb0","pricing_plan_id":"cebpf4jnsgd1na2vs0mg"},{"bike_id":"5a2244aa-b417-4875-b87f-086b7519a0e1","system_id":"levelo_inurba_marseille","lat":43.30305,"lon":5.3921,"is_reserved":false,"is_disabled":false,"rental_uris":{"android":"levelo://app?vid=5a2244aa-b417-4875-b87f-086b7519a0e1","ios":"levelo://app?vid=5a2244aa-b417-4875-b87f-086b7519a0e1"},"vehicle_type_id":"4","last_reported":1744647167,"current_range_meters":20800,"station_id":"ce4bgkh2rcd13ifvqbk0","pricing_plan_id":"cebpf4jnsgd1na2vs0mg"},{"bike_id":"8b3f884d-d22f-43b6-8fbd-5c009cb27efd","system_id":"levelo_inurba_marseille","lat":43.28446,"lon":5.39203,"is_reserved":false,"is_disabled":false,"rental_uris":{"android":"levelo://app?vid=8b3f884d-d22f-43b6-8fbd-5c009cb27efd","ios":"levelo://app?vid=8b3f884d-d22f-43b6-8fbd-5c009cb27efd"},"vehicle_type_id":"4","last_reported":1744647167,"current_range_meters":20800,"station_id":"ce4bhoh2rcd13ifvqh5g","pricing_plan_id":"cebpf4jnsgd1na2vs0mg"},{"bike_id":"d1b6b007-3c39-461f-bf6a-2ad56bec4aa5","system_id":"levelo_inurba_marseille","lat":43.23184,"lon":5.39982,"is_reserved":false,"is_disabled":false,"rental_uris":{"android":"levelo://app?vid=d1b6b007-3c39-461f-bf6a-2ad56bec4aa5","ios":"levelo://app?vid=d1b6b007-3c39-461f-bf6a-2ad56bec4aa5"},"vehicle_type_id":"4","last_reported":1744647167,"current_range_meters":21600,"station_id":"ce4bhn12rcd13ifvqgqg","pricing_plan_id":"cebpf4jnsgd1na2vs0mg"},{"bike_id":"7e10ecbd-2dd0-401f-9fd5-76fbdd3d3777","system_id":"levelo_inurba_marseille","lat":43.26612,"lon":5.39045,"is_reserved":false,"is_disabled":false,"rental_uris":{"android":"levelo://app?vid=7e10ecbd-2dd0-401f-9fd5-76fbdd3d3777","ios":"levelo://app?vid=7e10ecbd-2dd0-401f-9fd5-76fbdd3d3777"},"vehicle_type_id":"4","last_reported":1744647167,"current_range_meters":21600,"station_id":"","pricing_plan_id":"cebpf4jnsgd1na2vs0mg"},{"bike_id":"1ac6cae9-5a5f-4765-b8d5-20772275ca89","system_id":"levelo_inurba_marseille","lat":43.23351,"lon":5.36147,"is_reserved":false,"is_disabled":false,"rental_uris":{"android":"levelo://app?vid=1ac6cae9-5a5f-4765-b8d5-20772275ca89","ios":"levelo://app?vid=1ac6cae9-5a5f-4765-b8d5-20772275ca89"},"vehicle_type_id":"4","last_reported":1744647167,"current_range_meters":21600,"station_id":"","pricing_plan_id":"cebpf4jnsgd1na2vs0mg"},{"bike_id":"58c681ac-9782-48cd-ba62-4112798ce22e","system_id":"levelo_inurba_marseille","lat":43.28463,"lon":5.35892,"is_reserved":false,"is_disabled":false,"rental_uris":{"android":"levelo://app?vid=58c681ac-9782-48cd-ba62-4112798ce22e","ios":"levelo://app?vid=58c681ac-9782-48cd-ba62-4112798ce22e"},"vehicle_type_id":"4","last_reported":1744647167,"current_range_meters":21600,"station_id":"ce4bhah2rcd13ifvqei0","pricing_plan_id":"cebpf4jnsgd1na2vs0mg"},{"bike_id":"c96f8076-74c1-4118-9f4e-192049c4ecb4","system_id":"levelo_inurba_marseille","lat":43.25825,"lon":5.39437,"is_reserved":false,"is_disabled":false,"rental_uris":{"android":"levelo://app?vid=c96f8076-74c1-4118-9f4e-192049c4ecb4","ios":"levelo://app?vid=c96f8076-74c1-4118-9f4e-192049c4ecb4"},"vehicle_type_id":"4","last_reported":1744647167,"current_range_meters":21600,"station_id":"ce4bhip2rcd13ifvqft0","pricing_plan_id":"cebpf4jnsgd1na2vs0mg"},{"bike_id":"9a92e406-dfd9-4c32-a8ea-c0b51e2cde10","system_id":"levelo_inurba_marseille","lat":43.30153,"lon":5.39848,"is_reserved":false,"is_disabled":false,"rental_uris":{"android":"levelo://app?vid=9a92e406-dfd9-4c32-a8ea-c0b51e2cde10","ios":"levelo://app?vid=9a92e406-dfd9-4c32-a8ea-c0b51e2cde10"},"vehicle_type_id":"4","last_reported":1744647167,"current_range_meters":21600,"station_id":"ce4bh0h2rcd13ifvqd40","pricing_plan_id":"cebpf4jnsgd1na2vs0mg"},{"bike_id":"0a1e5dcf-da5b-431d-bcab-7c79deac1057","system_id":"levelo_inurba_marseille","lat":43.29274,"lon":5.38438,"is_reserved":false,"is_disabled":false,"rental_uris":{"android":"levelo://app?vid=0a1e5dcf-da5b-431d-bcab-7c79deac1057","ios":"levelo://app?vid=0a1e5dcf-da5b-431d-bcab-7c79deac1057"},"vehicle_type_id":"4","last_reported":1744647167,"current_range_meters":22000,"station_id":"ce4bh692rcd13ifvqea0","pricing_plan_id":"cebpf4jnsgd1na2vs0mg"},{"bike_id":"c5803a64-80dd-40d2-b372-42ee2a785c5b","system_id":"levelo_inurba_marseille","lat":43.28256,"lon":5.350616,"is_reserved":false,"is_disabled":false,"rental_uris":{"android":"levelo://app?vid=c5803a64-80dd-40d2-b372-42ee2a785c5b","ios":"levelo://app?vid=c5803a64-80dd-40d2-b372-42ee2a785c5b"},"vehicle_type_id":"4","last_reported":1744647167,"current_range_meters":22000,"station_id":"ce4bhbp2rcd13ifvqerg","pricing_plan_id":"cebpf4jnsgd1na2vs0mg"},{"bike_id":"b035f8ab-1633-42ac-9aa2-e0f018b270f8","system_id":"levelo_inurba_marseille","lat":43.26043,"lon":5.37545,"is_reserved":false,"is_disabled":false,"rental_uris":{"android":"levelo://app?vid=b035f8ab-1633-42ac-9aa2-e0f018b270f8","ios":"levelo://app?vid=b035f8ab-1633-42ac-9aa2-e0f018b270f8"},"vehicle_type_id":"4","last_reported":1744647167,"current_range_meters":22400,"station_id":"ce4bhgh2rcd13ifvqfa0","pricing_plan_id":"cebpf4jnsgd1na2vs0mg"},{"bike_id":"b281e6d7-3c2f-4685-83a7-ba60184e4d8b","system_id":"levelo_inurba_marseille","lat":43.31724,"lon":5.42384,"is_reserved":false,"is_disabled":false,"rental_uris":{"android":"levelo://app?vid=b281e6d7-3c2f-4685-83a7-ba60184e4d8b","ios":"levelo://app?vid=b281e6d7-3c2f-4685-83a7-ba60184e4d8b"},"vehicle_type_id":"4","last_reported":1744647167,"current_range_meters":22400,"station_id":"ce4bhp92rcd13ifvqhbg","pricing_plan_id":"cebpf4jnsgd1na2vs0mg"},{"bike_id":"6647c20a-1688-4cbe-b503-a5dc78cb1c5c","system_id":"levelo_inurba_marseille","lat":43.29431,"lon":5.38627,"is_reserved":false,"is_disabled":false,"rental_uris":{"android":"levelo://app?vid=6647c20a-1688-4cbe-b503-a5dc78cb1c5c","ios":"levelo://app?vid=6647c20a-1688-4cbe-b503-a5dc78cb1c5c"},"vehicle_type_id":"4","last_reported":1744647167,"current_range_meters":22400,"station_id":"ce4bh2h2rcd13ifvqdh0","pricing_plan_id":"cebpf4jnsgd1na2vs0mg"},{"bike_id":"22be9879-69d4-4b37-b9ee-556020f7a07c","system_id":"levelo_inurba_marseille","lat":43.2917,"lon":5.37166,"is_reserved":false,"is_disabled":false,"rental_uris":{"android":"levelo://app?vid=22be9879-69d4-4b37-b9ee-556020f7a07c","ios":"levelo://app?vid=22be9879-69d4-4b37-b9ee-556020f7a07c"},"vehicle_type_id":"4","last_reported":1744647167,"current_range_meters":22400,"station_id":"ce4bha92rcd13ifvqeh0","pricing_plan_id":"cebpf4jnsgd1na2vs0mg"},{"bike_id":"cf22aba7-da1c-4222-b8ad-9dd540fc6a22","system_id":"levelo_inurba_marseille","lat":43.28991,"lon":5.366223,"is_reserved":false,"is_disabled":false,"rental_uris":{"android":"levelo://app?vid=cf22aba7-da1c-4222-b8ad-9dd540fc6a22","ios":"levelo://app?vid=cf22aba7-da1c-4222-b8ad-9dd540fc6a22"},"vehicle_type_id":"4","last_reported":1744647167,"current_range_meters":22000,"station_id":"cki0cbj6b192h4jlfktg","pricing_plan_id":"cebpf4jnsgd1na2vs0mg"},{"bike_id":"17843909-1fc3-42d8-9979-2d0638a625f1","system_id":"levelo_inurba_marseille","lat":43.24532,"lon":5.39511,"is_reserved":false,"is_disabled":false,"rental_uris":{"android":"levelo://app?vid=17843909-1fc3-42d8-9979-2d0638a625f1","ios":"levelo://app?vid=17843909-1fc3-42d8-9979-2d0638a625f1"},"vehicle_type_id":"4","last_reported":1744647167,"current_range_meters":22800,"station_id":"ce4bhlp2rcd13ifvqgjg","pricing_plan_id":"cebpf4jnsgd1na2vs0mg"},{"bike_id":"bf6500f2-6fa6-417b-ac9c-ede340ffb784","system_id":"levelo_inurba_marseille","lat":43.28017,"lon":5.408978,"is_reserved":false,"is_disabled":false,"rental_uris":{"android":"levelo://app?vid=bf6500f2-6fa6-417b-ac9c-ede340ffb784","ios":"levelo://app?vid=bf6500f2-6fa6-417b-ac9c-ede340ffb784"},"vehicle_type_id":"4","last_reported":1744647167,"current_range_meters":22800,"station_id":"ce4bhnp2rcd13ifvqh0g","pricing_plan_id":"cebpf4jnsgd1na2vs0mg"},{"bike_id":"473966a4-8134-4f96-a952-1f7a3ce10896","system_id":"levelo_inurba_marseille","lat":43.284125,"lon":5.375182,"is_reserved":false,"is_disabled":false,"rental_uris":{"android":"levelo://app?vid=473966a4-8134-4f96-a952-1f7a3ce10896","ios":"levelo://app?vid=473966a4-8134-4f96-a952-1f7a3ce10896"},"vehicle_type_id":"4","last_reported":1744647167,"current_range_meters":22800,"station_id":"ce4bh412rcd13ifvqds0","pricing_plan_id":"cebpf4jnsgd1na2vs0mg"},{"bike_id":"58865f51-d34a-49ac-8f37-d14aa3ef6ace","system_id":"levelo_inurba_marseille","lat":43.32418,"lon":5.39106,"is_reserved":false,"is_disabled":false,"rental_uris":{"android":"levelo://app?vid=58865f51-d34a-49ac-8f37-d14aa3ef6ace","ios":"levelo://app?vid=58865f51-d34a-49ac-8f37-d14aa3ef6ace"},"vehicle_type_id":"4","last_reported":1744647167,"current_range_meters":22800,"station_id":"","pricing_plan_id":"cebpf4jnsgd1na2vs0mg"},{"bike_id":"07153329-98bc-42b9-be38-a7c869df3a2e","system_id":"levelo_inurba_marseille","lat":43.29717,"lon":5.37699,"is_reserved":false,"is_disabled":false,"rental_uris":{"android":"levelo://app?vid=07153329-98bc-42b9-be38-a7c869df3a2e","ios":"levelo://app?vid=07153329-98bc-42b9-be38-a7c869df3a2e"},"vehicle_type_id":"4","last_reported":1744647167,"current_range_meters":22800,"station_id":"ce4bgkh2rcd13ifvqbl0","pricing_plan_id":"cebpf4jnsgd1na2vs0mg"},{"bike_id":"d2ee4f1f-7870-4a93-92e9-560e00b23f45","system_id":"levelo_inurba_marseille","lat":43.2499,"lon":5.38932,"is_reserved":false,"is_disabled":false,"rental_uris":{"android":"levelo://app?vid=d2ee4f1f-7870-4a93-92e9-560e00b23f45","ios":"levelo://app?vid=d2ee4f1f-7870-4a93-92e9-560e00b23f45"},"vehicle_type_id":"4","last_reported":1744647167,"current_range_meters":22800,"station_id":"ce4bhgp2rcd13ifvqfd0","pricing_plan_id":"cebpf4jnsgd1na2vs0mg"},{"bike_id":"460edd7b-57db-48e2-a2ef-b0622b050c5f","system_id":"levelo_inurba_marseille","lat":43.24812,"lon":5.37456,"is_reserved":false,"is_disabled":false,"rental_uris":{"android":"levelo://app?vid=460edd7b-57db-48e2-a2ef-b0622b050c5f","ios":"levelo://app?vid=460edd7b-57db-48e2-a2ef-b0622b050c5f"},"vehicle_type_id":"4","last_reported":1744647167,"current_range_meters":22800,"station_id":"ce4bhgh2rcd13ifvqfb0","pricing_plan_id":"cebpf4jnsgd1na2vs0mg"},{"bike_id":"e61eb72d-2152-4e42-a8db-1ea20dfcb944","system_id":"levelo_inurba_marseille","lat":43.25109,"lon":5.39539,"is_reserved":false,"is_disabled":true,"rental_uris":{"android":"levelo://app?vid=e61eb72d-2152-4e42-a8db-1ea20dfcb944","ios":"levelo://app?vid=e61eb72d-2152-4e42-a8db-1ea20dfcb944"},"vehicle_type_id":"4","last_reported":1744647167,"current_range_meters":22800,"station_id":"ce4bhm12rcd13ifvqgkg","pricing_plan_id":"cebpf4jnsgd1na2vs0mg"},{"bike_id":"9189d906-7f6b-4207-9d44-f672bc1bbc54","system_id":"levelo_inurba_marseille","lat":43.29897,"lon":5.43669,"is_reserved":false,"is_disabled":false,"rental_uris":{"android":"levelo://app?vid=9189d906-7f6b-4207-9d44-f672bc1bbc54","ios":"levelo://app?vid=9189d906-7f6b-4207-9d44-f672bc1bbc54"},"vehicle_type_id":"4","last_reported":1744647167,"current_range_meters":23200,"station_id":"ce4bhpp2rcd13ifvqhfg","pricing_plan_id":"cebpf4jnsgd1na2vs0mg"},{"bike_id":"e574b3d2-7d50-422d-a320-1dbd226a92e3","system_id":"levelo_inurba_marseille","lat":43.24688,"lon":5.38143,"is_reserved":false,"is_disabled":false,"rental_uris":{"android":"levelo://app?vid=e574b3d2-7d50-422d-a320-1dbd226a92e3","ios":"levelo://app?vid=e574b3d2-7d50-422d-a320-1dbd226a92e3"},"vehicle_type_id":"4","last_reported":1744647167,"current_range_meters":23200,"station_id":"ce4bhih2rcd13ifvqfr0","pricing_plan_id":"cebpf4jnsgd1na2vs0mg"},{"bike_id":"c8577a26-7e73-46df-8e82-914727f13f86","system_id":"levelo_inurba_marseille","lat":43.30164,"lon":5.38151,"is_reserved":false,"is_disabled":true,"rental_uris":{"android":"levelo://app?vid=c8577a26-7e73-46df-8e82-914727f13f86","ios":"levelo://app?vid=c8577a26-7e73-46df-8e82-914727f13f86"},"vehicle_type_id":"4","last_reported":1744647167,"current_range_meters":23200,"station_id":"","pricing_plan_id":"cebpf4jnsgd1na2vs0mg"},{"bike_id":"ee33e4a3-9ed1-445d-9974-26da2f858986","system_id":"levelo_inurba_marseille","lat":43.32421,"lon":5.39094,"is_reserved":false,"is_disabled":false,"rental_uris":{"android":"levelo://app?vid=ee33e4a3-9ed1-445d-9974-26da2f858986","ios":"levelo://app?vid=ee33e4a3-9ed1-445d-9974-26da2f858986"},"vehicle_type_id":"4","last_reported":1744647167,"current_range_meters":23200,"station_id":"","pricing_plan_id":"cebpf4jnsgd1na2vs0mg"},{"bike_id":"ff3cc019-99c3-492c-8ecb-48ce179d14ed","system_id":"levelo_inurba_marseille","lat":43.28619,"lon":5.35106,"is_reserved":false,"is_disabled":false,"rental_uris":{"android":"levelo://app?vid=ff3cc019-99c3-492c-8ecb-48ce179d14ed","ios":"levelo://app?vid=ff3cc019-99c3-492c-8ecb-48ce179d14ed"},"vehicle_type_id":"4","last_reported":1744647167,"current_range_meters":23200,"station_id":"ce4bhch2rcd13ifvqeug","pricing_plan_id":"cebpf4jnsgd1na2vs0mg"},{"bike_id":"912e134f-d96c-4d7c-883c-3981831d472a","system_id":"levelo_inurba_marseille","lat":43.2306,"lon":5.35489,"is_reserved":false,"is_disabled":false,"rental_uris":{"android":"levelo://app?vid=912e134f-d96c-4d7c-883c-3981831d472a","ios":"levelo://app?vid=912e134f-d96c-4d7c-883c-3981831d472a"},"vehicle_type_id":"4","last_reported":1744647167,"current_range_meters":23200,"station_id":"cpo3342slgdg3j2ifvpg","pricing_plan_id":"cebpf4jnsgd1na2vs0mg"},{"bike_id":"71ea48cc-5b9c-409a-86f0-85e7cef4526a","system_id":"levelo_inurba_marseille","lat":43.30523,"lon":5.38417,"is_reserved":false,"is_disabled":false,"rental_uris":{"android":"levelo://app?vid=71ea48cc-5b9c-409a-86f0-85e7cef4526a","ios":"levelo://app?vid=71ea48cc-5b9c-409a-86f0-85e7cef4526a"},"vehicle_type_id":"4","last_reported":1744647167,"current_range_meters":22800,"station_id":"ce4bgg92rcd13ifvqb30","pricing_plan_id":"cebpf4jnsgd1na2vs0mg"},{"bike_id":"7baf1664-da1c-4289-a57b-0c9f437b32aa","system_id":"levelo_inurba_marseille","lat":43.29042,"lon":5.35909,"is_reserved":false,"is_disabled":false,"rental_uris":{"android":"levelo://app?vid=7baf1664-da1c-4289-a57b-0c9f437b32aa","ios":"levelo://app?vid=7baf1664-da1c-4289-a57b-0c9f437b32aa"},"vehicle_type_id":"4","last_reported":1744647167,"current_range_meters":24000,"station_id":"ce4bha92rcd13ifvqeg0","pricing_plan_id":"cebpf4jnsgd1na2vs0mg"},{"bike_id":"17712a99-aaf5-4896-bd86-a90d0a157911","system_id":"levelo_inurba_marseille","lat":43.24079,"lon":5.37752,"is_reserved":false,"is_disabled":false,"rental_uris":{"android":"levelo://app?vid=17712a99-aaf5-4896-bd86-a90d0a157911","ios":"levelo://app?vid=17712a99-aaf5-4896-bd86-a90d0a157911"},"vehicle_type_id":"4","last_reported":1744647167,"current_range_meters":24000,"station_id":"ce4bhnp2rcd13ifvqgvg","pricing_plan_id":"cebpf4jnsgd1na2vs0mg"},{"bike_id":"b6a0eb77-3ef6-4a32-8206-4ef3c2136296","system_id":"levelo_inurba_marseille","lat":43.29457,"lon":5.37593,"is_reserved":false,"is_disabled":false,"rental_uris":{"android":"levelo://app?vid=b6a0eb77-3ef6-4a32-8206-4ef3c2136296","ios":"levelo://app?vid=b6a0eb77-3ef6-4a32-8206-4ef3c2136296"},"vehicle_type_id":"4","last_reported":1744647167,"current_range_meters":24000,"station_id":"","pricing_plan_id":"cebpf4jnsgd1na2vs0mg"},{"bike_id":"4b7663bd-83d8-441c-a819-7b85b634720d","system_id":"levelo_inurba_marseille","lat":43.28081,"lon":5.39661,"is_reserved":false,"is_disabled":false,"rental_uris":{"android":"levelo://app?vid=4b7663bd-83d8-441c-a819-7b85b634720d","ios":"levelo://app?vid=4b7663bd-83d8-441c-a819-7b85b634720d"},"vehicle_type_id":"4","last_reported":1744647167,"current_range_meters":24000,"station_id":"ce4bho12rcd13ifvqh2g","pricing_plan_id":"cebpf4jnsgd1na2vs0mg"},{"bike_id":"91365af0-3c63-4264-8d6c-ea167b19b61c","system_id":"levelo_inurba_marseille","lat":43.28155,"lon":5.42639,"is_reserved":false,"is_disabled":false,"rental_uris":{"android":"levelo://app?vid=91365af0-3c63-4264-8d6c-ea167b19b61c","ios":"levelo://app?vid=91365af0-3c63-4264-8d6c-ea167b19b61c"},"vehicle_type_id":"4","last_reported":1744647167,"current_range_meters":23200,"station_id":"ce4bhnh2rcd13ifvqgug","pricing_plan_id":"cebpf4jnsgd1na2vs0mg"},{"bike_id":"2f73f0f7-2db5-4083-b323-0a0d9a020966","system_id":"levelo_inurba_marseille","lat":43.29266,"lon":5.38434,"is_reserved":false,"is_disabled":false,"rental_uris":{"android":"levelo://app?vid=2f73f0f7-2db5-4083-b323-0a0d9a020966","ios":"levelo://app?vid=2f73f0f7-2db5-4083-b323-0a0d9a020966"},"vehicle_type_id":"4","last_reported":1744647167,"current_range_meters":24000,"station_id":"ce4bh692rcd13ifvqea0","pricing_plan_id":"cebpf4jnsgd1na2vs0mg"},{"bike_id":"45d0477f-d2f7-4e34-b308-bedc308da75a","system_id":"levelo_inurba_marseille","lat":43.28046,"lon":5.36935,"is_reserved":false,"is_disabled":false,"rental_uris":{"android":"levelo://app?vid=45d0477f-d2f7-4e34-b308-bedc308da75a","ios":"levelo://app?vid=45d0477f-d2f7-4e34-b308-bedc308da75a"},"vehicle_type_id":"4","last_reported":1744647167,"current_range_meters":24000,"station_id":"ce4bha12rcd13ifvqef0","pricing_plan_id":"cebpf4jnsgd1na2vs0mg"},{"bike_id":"6bf5a380-400e-4cd6-bc1e-356afac9ee45","system_id":"levelo_inurba_marseille","lat":43.24199,"lon":5.36389,"is_reserved":false,"is_disabled":false,"rental_uris":{"android":"levelo://app?vid=6bf5a380-400e-4cd6-bc1e-356afac9ee45","ios":"levelo://app?vid=6bf5a380-400e-4cd6-bc1e-356afac9ee45"},