{"last_updated":1729260488,"ttl":60,"version":"2.2","data":{"bikes":[{"bike_id":"e73ea45c-1d11-49d6-9f51-bce7944b922c","system_id":"levelo_inurba_marseille","lat":43.28929,"lon":5.38397,"is_reserved":false,"is_disabled":false,"rental_uris":{"android":"levelo://app?vid=e73ea45c-1d11-49d6-9f51-bce7944b922c","ios":"levelo://app?vid=e73ea45c-1d11-49d6-9f51-bce7944b922c"},"vehicle_type_id":"4","last_reported":1729260488,"current_range_meters":36800,"station_id":"ce4bh612rcd13ifvqe6g","pricing_plan_id":"cebpf4jnsgd1na2vs0mg"},{"bike_id":"8f1edd8a-7507-40fc-884c-2f406f197a6f","system_id":"levelo_inurba_marseille","lat":43.294525,"lon":5.386019,"is_reserved":false,"is_disabled":false,"rental_uris":{"android":"levelo://app?vid=8f1edd8a-7507-40fc-884c-2f406f197a6f","ios":"levelo://app?vid=8f1edd8a-7507-40fc-884c-2f406f197a6f"},"vehicle_type_id":"4","last_reported":1729260488,"current_range_meters":20400,"station_id":"ce4bh2h2rcd13ifvqdh0","pricing_plan_id":"cebpf4jnsgd1na2vs0mg"},{"bike_id":"7c215bb1-a727-4569-986d-c8f6cf1e676e","system_id":"levelo_inurba_marseille","lat":43.31712,"lon":5.43706,"is_reserved":false,"is_disabled":false,"rental_uris":{"android":"levelo://app?vid=7c215bb1-a727-4569-986d-c8f6cf1e676e","ios":"levelo://app?vid=7c215bb1-a727-4569-986d-c8f6cf1e676e"},"vehicle_type_id":"4","last_reported":1729260488,"current_range_meters":30400,"station_id":"ce4bhp92rcd13ifvqhcg","pricing_plan_id":"cebpf4jnsgd1na2vs0mg"},{"bike_id":"0bd29515-40d3-4b3d-a1be-6c5884ab24e6","system_id":"levelo_inurba_marseille","lat":43.3228,"lon":5.3827,"is_reserved":false,"is_disabled":false,"rental_uris":{"android":"levelo://app?vid=0bd29515-40d3-4b3d-a1be-6c5884ab24e6","ios":"levelo://app?vid=0bd29515-40d3-4b3d-a1be-6c5884ab24e6"},"vehicle_type_id":"4","last_reported":1729260488,"current_range_meters":22400,"station_id":"ce4bhr12rcd13ifvqhqg","pricing_plan_id":"cebpf4jnsgd1na2vs0mg"},{"bike_id":"676ec6c4-6b42-43e0-81fe-327782965da5","system_id":"levelo_inurba_marseille","lat":43.33765,"lon":5.37484,"is_reserved":false,"is_disabled":false,"rental_uris":{"android":"levelo://app?vid=676ec6c4-6b42-43e0-81fe-327782965da5","ios":"levelo://app?vid=676ec6c4-6b42-43e0-81fe-327782965da5"},"vehicle_type_id":"4","last_reported":1729260488,"current_range_meters":17600,"station_id":"","pricing_plan_id":"cebpf4jnsgd1na2vs0mg"},{"bike_id":"d1cc0b33-90ab-41d1-8d27-f59cdb60a000","system_id":"levelo_inurba_marseille","lat":43.25815,"lon":5.39434,"is_reserved":false,"is_disabled":false,"rental_uris":{"android":"levelo://app?vid=d1cc0b33-90ab-41d1-8d27-f59cdb60a000","ios":"levelo://app?vid=d1cc0b33-90ab-41d1-8d27-f59cdb60a000"},"vehicle_type_id":"4","last_reported":1729260488,"current_range_meters":38000,"station_id":"","pricing_plan_id":"cebpf4jnsgd1na2vs0mg"},{"bike_id":"966f251d-4412-4e77-82b7-c125675614ef","system_id":"levelo_inurba_marseille","lat":43.337444,"lon":5.374475,"is_reserved":false,"is_disabled":false,"rental_uris":{"android":"levelo://app?vid=966f251d-4412-4e77-82b7-c125675614ef","ios":"levelo://app?vid=966f251d-4412-4e77-82b7-c125675614ef"},"vehicle_type_id":"4","last_reported":1729260488,"current_range_meters":8000,"station_id":"","pricing_plan_id":"cebpf4jnsgd1na2vs0mg"},{"bike_id":"209c4dd2-b03a-4063-a376-a84a0a83adf8","system_id":"levelo_inurba_marseille","lat":43.296204,"lon":5.371544,"is_reserved":false,"is_disabled":false,"rental_uris":{"android":"levelo://app?vid=209c4dd2-b03a-4063-a376-a84a0a83adf8","ios":"levelo://app?vid=209c4dd2-b03a-4063-a376-a84a0a83adf8"},"vehicle_type_id":"4","last_reported":1729260488,"current_range_meters":32400,"station_id":"ce4bgnh2rcd13ifvqc0g","pricing_plan_id":"cebpf4jnsgd1na2vs0mg"},{"bike_id":"c27cf383-7e73-4c9d-bbe8-221b8bc0a31c","system_id":"levelo_inurba_marseille","lat":43.27062,"lon":5.40255,"is_reserved":false,"is_disabled":false,"rental_uris":{"android":"levelo://app?vid=c27cf383-7e73-4c9d-bbe8-221b8bc0a31c","ios":"levelo://app?vid=c27cf383-7e73-4c9d-bbe8-221b8bc0a31c"},"vehicle_type_id":"4","last_reported":1729260488,"current_range_meters":16000,"station_id":"ce4bhk92rcd13ifvqgc0","pricing_plan_id":"cebpf4jnsgd1na2vs0mg"},{"bike_id":"e1aa55b8-78fb-4a00-9fcc-610187b1aea3","system_id":"levelo_inurba_marseille","lat":43.292,"lon":5.35809,"is_reserved":false,"is_disabled":false,"rental_uris":{"android":"levelo://app?vid=e1aa55b8-78fb-4a00-9fcc-610187b1aea3","ios":"levelo://app?vid=e1aa55b8-78fb-4a00-9fcc-610187b1aea3"},"vehicle_type_id":"4","last_reported":1729260488,"current_range_meters":8400,"station_id":"ce4bhb12rcd13ifvqel0","pricing_plan_id":"cebpf4jnsgd1na2vs0mg"},{"bike_id":"1b666300-eaa5-4a1d-a265-5c4400d95778","system_id":"levelo_inurba_marseille","lat":43.30544,"lon":5.36563,"is_reserved":false,"is_disabled":false,"rental_uris":{"android":"levelo://app?vid=1b666300-eaa5-4a1d-a265-5c4400d95778","ios":"levelo://app?vid=1b666300-eaa5-4a1d-a265-5c4400d95778"},"vehicle_type_id":"4","last_reported":1729260488,"current_range_meters":34800,"station_id":"ce4bgs12rcd13ifvqcag","pricing_plan_id":"cebpf4jnsgd1na2vs0mg"},{"bike_id":"d7f0be7e-8c9e-4f9b-aa9c-5801dca719bc","system_id":"levelo_inurba_marseille","lat":43.29551,"lon":5.37498,"is_reserved":false,"is_disabled":false,"rental_uris":{"android":"levelo://app?vid=d7f0be7e-8c9e-4f9b-aa9c-5801dca719bc","ios":"levelo://app?vid=d7f0be7e-8c9e-4f9b-aa9c-5801dca719bc"},"vehicle_type_id":"4","last_reported":1729260488,"current_range_meters":6800,"station_id":"ce4bgkp2rcd13ifvqbmg","pricing_plan_id":"cebpf4jnsgd1na2vs0mg"},{"bike_id":"25668d1a-6b94-4045-a721-d94eb38e1ae7","system_id":"levelo_inurba_marseille","lat":43.27372,"lon":5.3625,"is_reserved":false,"is_disabled":false,"rental_uris":{"android":"levelo://app?vid=25668d1a-6b94-4045-a721-d94eb38e1ae7","ios":"levelo://app?vid=25668d1a-6b94-4045-a721-d94eb38e1ae7"},"vehicle_type_id":"4","last_reported":1729260488,"current_range_meters":39200,"station_id":"ce4bhbh2rcd13ifvqeo0","pricing_plan_id":"cebpf4jnsgd1na2vs0mg"},{"bike_id":"e82366a5-98f2-4e1a-ba62-dc38cc4fb3cb","system_id":"levelo_inurba_marseille","lat":43.28154,"lon":5.42641,"is_reserved":false,"is_disabled":false,"rental_uris":{"android":"levelo://app?vid=e82366a5-98f2-4e1a-ba62-dc38cc4fb3cb","ios":"levelo://app?vid=e82366a5-98f2-4e1a-ba62-dc38cc4fb3cb"},"vehicle_type_id":"4","last_reported":1729260488,"current_range_meters":12800,"station_id":"ce4bhnh2rcd13ifvqgug","pricing_plan_id":"cebpf4jnsgd1na2vs0mg"},{"bike_id":"5720e528-edc6-4468-a68a-ac0130e83182","system_id":"levelo_inurba_marseille","lat":43.28456,"lon":5.35884,"is_reserved":false,"is_disabled":false,"rental_uris":{"android":"levelo://app?vid=5720e528-edc6-4468-a68a-ac0130e83182","ios":"levelo://app?vid=5720e528-edc6-4468-a68a-ac0130e83182"},"vehicle_type_id":"4","last_reported":1729260488,"current_range_meters":14800,"station_id":"ce4bhah2rcd13ifvqei0","pricing_plan_id":"cebpf4jnsgd1na2vs0mg"},{"bike_id":"0e9ad9af-e89b-412e-a7df-344fe8f113f7","system_id":"levelo_inurba_marseille","lat":43.24997,"lon":5.38924,"is_reserved":false,"is_disabled":false,"rental_uris":{"android":"levelo://app?vid=0e9ad9af-e89b-412e-a7df-344fe8f113f7","ios":"levelo://app?vid=0e9ad9af-e89b-412e-a7df-344fe8f113f7"},"vehicle_type_id":"4","last_reported":1729260488,"current_range_meters":39200,"station_id":"ce4bhgp2rcd13ifvqfd0","pricing_plan_id":"cebpf4jnsgd1na2vs0mg"},{"bike_id":"f7760841-ccc8-404a-af73-61c3a9ad5f7b","system_id":"levelo_inurba_marseille","lat":43.25721,"lon":5.38421,"is_reserved":false,"is_disabled":false,"rental_uris":{"android":"levelo://app?vid=f7760841-ccc8-404a-af73-61c3a9ad5f7b","ios":"levelo://app?vid=f7760841-ccc8-404a-af73-61c3a9ad5f7b"},"vehicle_type_id":"4","last_reported":1729260488,"current_range_meters":37600,"station_id":"ce4bhm12rcd13ifvqgkg","pricing_plan_id":"cebpf4jnsgd1na2vs0mg"},{"bike_id":"ab2376eb-bbd0-47f6-96e3-29315f976dbf","system_id":"levelo_inurba_marseille","lat":43.28416,"lon":5.3499,"is_reserved":false,"is_disabled":false,"rental_uris":{"android":"levelo://app?vid=ab2376eb-bbd0-47f6-96e3-29315f976dbf","ios":"levelo://app?vid=ab2376eb-bbd0-47f6-96e3-29315f976dbf"},"vehicle_type_id":"4","last_reported":1729260488,"current_range_meters":30000,"station_id":"ce4bhbh2rcd13ifvqepg","pricing_plan_id":"cebpf4jnsgd1na2vs0mg"},{"bike_id":"22b5e924-2117-457a-9b90-5b743cf64171","system_id":"levelo_inurba_marseille","lat":43.29076,"lon":5.3717,"is_reserved":false,"is_disabled":false,"rental_uris":{"android":"levelo://app?vid=22b5e924-2117-457a-9b90-5b743cf64171","ios":"levelo://app?vid=22b5e924-2117-457a-9b90-5b743cf64171"},"vehicle_type_id":"4","last_reported":1729260488,"current_range_meters":10000,"station_id":"ce4bh5p2rcd13ifvqe4g","pricing_plan_id":"cebpf4jnsgd1na2vs0mg"},{"bike_id":"ab0a1ff0-9f1e-4bf7-b3cd-abf65dc62249","system_id":"levelo_inurba_marseille","lat":43.2694,"lon":5.40249,"is_reserved":false,"is_disabled":false,"rental_uris":{"android":"levelo://app?vid=ab0a1ff0-9f1e-4bf7-b3cd-abf65dc62249","ios":"levelo://app?vid=ab0a1ff0-9f1e-4bf7-b3cd-abf65dc62249"},"vehicle_type_id":"4","last_reported":1729260488,"current_range_meters":34000,"station_id":"cjm6bp8fraef2m0cb0m0","pricing_plan_id":"cebpf4jnsgd1na2vs0mg"},{"bike_id":"c17654b6-8517-4ac1-b41c-83b36e87f37e","system_id":"levelo_inurba_marseille","lat":43.26036,"lon":5.37542,"is_reserved":false,"is_disabled":false,"rental_uris":{"android":"levelo://app?vid=c17654b6-8517-4ac1-b41c-83b36e87f37e","ios":"levelo://app?vid=c17654b6-8517-4ac1-b41c-83b36e87f37e"},"vehicle_type_id":"4","last_reported":1729260488,"current_range_meters":36000,"station_id":"ce4bhb12rcd13ifvqel0","pricing_plan_id":"cebpf4jnsgd1na2vs0mg"},{"bike_id":"41fba4a5-f487-4c32-be57-64b7d5d1728c","system_id":"levelo_inurba_marseille","lat":43.27967,"lon":5.38739,"is_reserved":false,"is_disabled":false,"rental_uris":{"android":"levelo://app?vid=41fba4a5-f487-4c32-be57-64b7d5d1728c","ios":"levelo://app?vid=41fba4a5-f487-4c32-be57-64b7d5d1728c"},"vehicle_type_id":"4","last_reported":1729260488,"current_range_meters":38800,"station_id":"ce4bhg12rcd13ifvqf80","pricing_plan_id":"cebpf4jnsgd1na2vs0mg"},{"bike_id":"53c14399-2566-4749-960c-1f2cf62075bc","system_id":"levelo_inurba_marseille","lat":43.28275,"lon":5.35066,"is_reserved":false,"is_disabled":false,"rental_uris":{"android":"levelo://app?vid=53c14399-2566-4749-960c-1f2cf62075bc","ios":"levelo://app?vid=53c14399-2566-4749-960c-1f2cf62075bc"},"vehicle_type_id":"4","last_reported":1729260488,"current_range_meters":30400,"station_id":"ce4bhbp2rcd13ifvqerg","pricing_plan_id":"cebpf4jnsgd1na2vs0mg"},{"bike_id":"5591f93d-66e8-40d2-a38e-f1e627b6ecf9","system_id":"levelo_inurba_marseille","lat":43.26213,"lon":5.37445,"is_reserved":false,"is_disabled":false,"rental_uris":{"android":"levelo://app?vid=5591f93d-66e8-40d2-a38e-f1e627b6ecf9","ios":"levelo://app?vid=5591f93d-66e8-40d2-a38e-f1e627b6ecf9"},"vehicle_type_id":"4","last_reported":1729260488,"current_range_meters":38000,"station_id":"ce4bhgp2rcd13ifvqfc0","pricing_plan_id":"cebpf4jnsgd1na2vs0mg"},{"bike_id":"5bdd134b-7ea6-40ee-aae3-e29fd0f285d7","system_id":"levelo_inurba_marseille","lat":43.24393,"lon":5.37055,"is_reserved":false,"is_disabled":false,"rental_uris":{"android":"levelo://app?vid=5bdd134b-7ea6-40ee-aae3-e29fd0f285d7","ios":"levelo://app?vid=5bdd134b-7ea6-40ee-aae3-e29fd0f285d7"},"vehicle_type_id":"4","last_reported":1729260488,"current_range_meters":32000,"station_id":"ce4bhhh2rcd13ifvqfk0","pricing_plan_id":"cebpf4jnsgd1na2vs0mg"},{"bike_id":"d5d87b96-496a-454b-9e81-b0e5a09c72cf","system_id":"levelo_inurba_marseille","lat":43.28613,"lon":5.37061,"is_reserved":false,"is_disabled":false,"rental_uris":{"android":"levelo://app?vid=d5d87b96-496a-454b-9e81-b0e5a09c72cf","ios":"levelo://app?vid=d5d87b96-496a-454b-9e81-b0e5a09c72cf"},"vehicle_type_id":"4","last_reported":1729260488,"current_range_meters":37600,"station_id":"ce4bht12rcd13ifvqi60","pricing_plan_id":"cebpf4jnsgd1na2vs0mg"},{"bike_id":"c664c061-e4f3-4e88-a3b3-53b8afa76dc4","system_id":"levelo_inurba_marseille","lat":43.32469,"lon":5.36553,"is_reserved":false,"is_disabled":false,"rental_uris":{"android":"levelo://app?vid=c664c061-e4f3-4e88-a3b3-53b8afa76dc4","ios":"levelo://app?vid=c664c061-e4f3-4e88-a3b3-53b8afa76dc4"},"vehicle_type_id":"4","last_reported":1729260488,"current_range_meters":11600,"station_id":"ce4bhs12rcd13ifvqhvg","pricing_plan_id":"cebpf4jnsgd1na2vs0mg"},{"bike_id":"14845f0c-a4df-470f-a3f1-887d6e70b442","system_id":"levelo_inurba_marseille","lat":43.28271,"lon":5.35071,"is_reserved":false,"is_disabled":false,"rental_uris":{"android":"levelo://app?vid=14845f0c-a4df-470f-a3f1-887d6e70b442","ios":"levelo://app?vid=14845f0c-a4df-470f-a3f1-887d6e70b442"},"vehicle_type_id":"4","last_reported":1729260488,"current_range_meters":30400,"station_id":"ce4bhbp2rcd13ifvqerg","pricing_plan_id":"cebpf4jnsgd1na2vs0mg"},{"bike_id":"95da5f1d-b5bc-4eec-b601-d221becf0a91","system_id":"levelo_inurba_marseille","lat":43.30273,"lon":5.37712,"is_reserved":false,"is_disabled":false,"rental_uris":{"android":"levelo://app?vid=95da5f1d-b5bc-4eec-b601-d221becf0a91","ios":"levelo://app?vid=95da5f1d-b5bc-4eec-b601-d221becf0a91"},"vehicle_type_id":"4","last_reported":1729260488,"current_range_meters":24000,"station_id":"ce4bguh2rcd13ifvqcj0","pricing_plan_id":"cebpf4jnsgd1na2vs0mg"},{"bike_id":"c746da30-0175-4c63-8cc4-f4d0284e8127","system_id":"levelo_inurba_marseille","lat":43.239627,"lon":5.366318,"is_reserved":false,"is_disabled":false,"rental_uris":{"android":"levelo://app?vid=c746da30-0175-4c63-8cc4-f4d0284e8127","ios":"levelo://app?vid=c746da30-0175-4c63-8cc4-f4d0284e8127"},"vehicle_type_id":"4","last_reported":1729260488,"current_range_meters":21600,"station_id":"ce4bhi12rcd13ifvqfp0","pricing_plan_id":"cebpf4jnsgd1na2vs0mg"},{"bike_id":"c0dbf1a3-a16b-47cc-b294-315090b8ba5b","system_id":"levelo_inurba_marseille","lat":43.25503,"lon":5.37652,"is_reserved":false,"is_disabled":false,"rental_uris":{"android":"levelo://app?vid=c0dbf1a3-a16b-47cc-b294-315090b8ba5b","ios":"levelo://app?vid=c0dbf1a3-a16b-47cc-b294-315090b8ba5b"},"vehicle_type_id":"4","last_reported":1729260488,"current_range_meters":30400,"station_id":"ce4bhh12rcd13ifvqff0","pricing_plan_id":"cebpf4jnsgd1na2vs0mg"},{"bike_id":"84bd4613-315d-4003-a7de-04ca64361464","system_id":"levelo_inurba_marseille","lat":43.25119,"lon":5.40326,"is_reserved":false,"is_disabled":false,"rental_uris":{"android":"levelo://app?vid=84bd4613-315d-4003-a7de-04ca64361464","ios":"levelo://app?vid=84bd4613-315d-4003-a7de-04ca64361464"},"vehicle_type_id":"4","last_reported":1729260488,"current_range_meters":12000,"station_id":"ce4bhlh2rcd13ifvqgig","pricing_plan_id":"cebpf4jnsgd1na2vs0mg"},{"bike_id":"b2c17ec4-da02-4e6e-a4f6-3c7ef8760397","system_id":"levelo_inurba_marseille","lat":43.28361,"lon":5.38101,"is_reserved":false,"is_disabled":false,"rental_uris":{"android":"levelo://app?vid=b2c17ec4-da02-4e6e-a4f6-3c7ef8760397","ios":"levelo://app?vid=b2c17ec4-da02-4e6e-a4f6-3c7ef8760397"},"vehicle_type_id":"4","last_reported":1729260488,"current_range_meters":7200,"station_id":"ce4bh412rcd13ifvqdr0","pricing_plan_id":"cebpf4jnsgd1na2vs0mg"},{"bike_id":"6b7c65c8-2620-406b-9377-2ca6fb33b7b1","system_id":"levelo_inurba_marseille","lat":43.26215,"lon":5.37443,"is_reserved":false,"is_disabled":false,"rental_uris":{"android":"levelo://app?vid=6b7c65c8-2620-406b-9377-2ca6fb33b7b1","ios":"levelo://app?vid=6b7c65c8-2620-406b-9377-2ca6fb33b7b1"},"vehicle_type_id":"4","last_reported":1729260488,"current_range_meters":38800,"station_id":"ce4bhgp2rcd13ifvqfc0","pricing_plan_id":"cebpf4jnsgd1na2vs0mg"},{"bike_id":"0b0719e6-c919-4c9d-ae90-bec7ea479140","system_id":"levelo_inurba_marseille","lat":43.29006,"lon":5.35604,"is_reserved":false,"is_disabled":false,"rental_uris":{"android":"levelo://app?vid=0b0719e6-c919-4c9d-ae90-bec7ea479140","ios":"levelo://app?vid=0b0719e6-c919-4c9d-ae90-bec7ea479140"},"vehicle_type_id":"4","last_reported":1729260488,"current_range_meters":18800,"station_id":"ce4bhb92rcd13ifvqen0","pricing_plan_id":"cebpf4jnsgd1na2vs0mg"},{"bike_id":"889b9bb3-8963-4f08-8cc0-fd064c95f10f","system_id":"levelo_inurba_marseille","lat":43.27817,"lon":5.40722,"is_reserved":false,"is_disabled":false,"rental_uris":{"android":"levelo://app?vid=889b9bb3-8963-4f08-8cc0-fd064c95f10f","ios":"levelo://app?vid=889b9bb3-8963-4f08-8cc0-fd064c95f10f"},"vehicle_type_id":"4","last_reported":1729260488,"current_range_meters":9200,"station_id":"ce4bhnh2rcd13ifvqgtg","pricing_plan_id":"cebpf4jnsgd1na2vs0mg"},{"bike_id":"fb716a80-f176-4b3c-a6d8-0d4fc87ede55","system_id":"levelo_inurba_marseille","lat":43.31354,"lon":5.36711,"is_reserved":false,"is_disabled":false,"rental_uris":{"android":"levelo://app?vid=fb716a80-f176-4b3c-a6d8-0d4fc87ede55","ios":"levelo://app?vid=fb716a80-f176-4b3c-a6d8-0d4fc87ede55"},"vehicle_type_id":"4","last_reported":1729260488,"current_range_meters":38800,"station_id":"ce4bgr92rcd13ifvqc6g","pricing_plan_id":"cebpf4jnsgd1na2vs0mg"},{"bike_id":"01dec81f-c775-4c10-a2f3-ad987891192a","system_id":"levelo_inurba_marseille","lat":43.24663,"lon":5.38164,"is_reserved":false,"is_disabled":false,"rental_uris":{"android":"levelo://app?vid=01dec81f-c775-4c10-a2f3-ad987891192a","ios":"levelo://app?vid=01dec81f-c775-4c10-a2f3-ad987891192a"},"vehicle_type_id":"4","last_reported":1729260488,"current_range_meters":38000,"station_id":"ce4bhih2rcd13ifvqfr0","pricing_plan_id":"cebpf4jnsgd1na2vs0mg"},{"bike_id":"24292e89-981d-4413-9426-3c98baeeeb67","system_id":"levelo_inurba_marseille","lat":43.30239,"lon":5.40051,"is_reserved":false,"is_disabled":false,"rental_uris":{"android":"levelo://app?vid=24292e89-981d-4413-9426-3c98baeeeb67","ios":"levelo://app?vid=24292e89-981d-4413-9426-3c98baeeeb67"},"vehicle_type_id":"4","last_reported":1729260488,"current_range_meters":22000,"station_id":"ce4bgvh2rcd13ifvqcs0","pricing_plan_id":"cebpf4jnsgd1na2vs0mg"},{"bike_id":"3cc9ca15-d23c-4891-9216-c134fa816eb8","system_id":"levelo_inurba_marseille","lat":43.24182,"lon":5.39734,"is_reserved":false,"is_disabled":false,"rental_uris":{"android":"levelo://app?vid=3cc9ca15-d23c-4891-9216-c134fa816eb8","ios":"levelo://app?vid=3cc9ca15-d23c-4891-9216-c134fa816eb8"},"vehicle_type_id":"4","last_reported":1729260488,"current_range_meters":27600,"station_id":"ce4bhn12rcd13ifvqgpg","pricing_plan_id":"cebpf4jnsgd1na2vs0mg"},{"bike_id":"299dfc52-ccaa-46a8-85e5-ed1f38c31e59","system_id":"levelo_inurba_marseille","lat":43.2418,"lon":5.39728,"is_reserved":false,"is_disabled":false,"rental_uris":{"android":"levelo://app?vid=299dfc52-ccaa-46a8-85e5-ed1f38c31e59","ios":"levelo://app?vid=299dfc52-ccaa-46a8-85e5-ed1f38c31e59"},"vehicle_type_id":"4","last_reported":1729260488,"current_range_meters":18800,"station_id":"ce4bhn12rcd13ifvqgpg","pricing_plan_id":"cebpf4jnsgd1na2vs0mg"},{"bike_id":"4b726cf1-6c99-4602-b9f6-580ba884e1cf","system_id":"levelo_inurba_marseille","lat":43.27804,"lon":5.40308,"is_reserved":false,"is_disabled":false,"rental_uris":{"android":"levelo://app?vid=4b726cf1-6c99-4602-b9f6-580ba884e1cf","ios":"levelo://app?vid=4b726cf1-6c99-4602-b9f6-580ba884e1cf"},"vehicle_type_id":"4","last_reported":1729260488,"current_range_meters":21600,"station_id":"ce4bhnh2rcd13ifvqgtg","pricing_plan_id":"cebpf4jnsgd1na2vs0mg"},{"bike_id":"55cc1308-1d5e-4240-8fbe-be408e451cad","system_id":"levelo_inurba_marseille","lat":43.29702,"lon":5.36287,"is_reserved":false,"is_disabled":false,"rental_uris":{"android":"levelo://app?vid=55cc1308-1d5e-4240-8fbe-be408e451cad","ios":"levelo://app?vid=55cc1308-1d5e-4240-8fbe-be408e451cad"},"vehicle_type_id":"4","last_reported":1729260488,"current_range_meters":8400,"station_id":"","pricing_plan_id":"cebpf4jnsgd1na2vs0mg"},{"bike_id":"e6d78a90-bced-4e01-9f3f-5aee7ce2ea67","system_id":"levelo_inurba_marseille","lat":43.33027,"lon":5.39048,"is_reserved":false,"is_disabled":false,"rental_uris":{"android":"levelo://app?vid=e6d78a90-bced-4e01-9f3f-5aee7ce2ea67","ios":"levelo://app?vid=e6d78a90-bced-4e01-9f3f-5aee7ce2ea67"},"vehicle_type_id":"4","last_reported":1729260488,"current_range_meters":38400,"station_id":"ce4bhr92rcd13ifvqhrg","pricing_plan_id":"cebpf4jnsgd1na2vs0mg"},{"bike_id":"4815eb48-2215-4550-9f51-cdef686890dd","system_id":"levelo_inurba_marseille","lat":43.28933,"lon":5.38395,"is_reserved":false,"is_disabled":false,"rental_uris":{"android":"levelo://app?vid=4815eb48-2215-4550-9f51-cdef686890dd","ios":"levelo://app?vid=4815eb48-2215-4550-9f51-cdef686890dd"},"vehicle_type_id":"4","last_reported":1729260488,"current_range_meters":26800,"station_id":"ce4bh612rcd13ifvqe6g","pricing_plan_id":"cebpf4jnsgd1na2vs0mg"},{"bike_id":"3d7546d0-4dba-4212-88c9-dfe9a2032237","system_id":"levelo_inurba_marseille","lat":43.24165,"lon":5.36399,"is_reserved":false,"is_disabled":false,"rental_uris":{"android":"levelo://app?vid=3d7546d0-4dba-4212-88c9-dfe9a2032237","ios":"levelo://app?vid=3d7546d0-4dba-4212-88c9-dfe9a2032237"},"vehicle_type_id":"4","last_reported":1729260488,"current_range_meters":37600,"station_id":"cpo36qri1sfpv3e86is0","pricing_plan_id":"cebpf4jnsgd1na2vs0mg"},{"bike_id":"007f1dfd-0d2c-426c-a157-0f8331696688","system_id":"levelo_inurba_marseille","lat":43.23192,"lon":5.35547,"is_reserved":false,"is_disabled":false,"rental_uris":{"android":"levelo://app?vid=007f1dfd-0d2c-426c-a157-0f8331696688","ios":"levelo://app?vid=007f1dfd-0d2c-426c-a157-0f8331696688"},"vehicle_type_id":"4","last_reported":1729260488,"current_range_meters":8000,"station_id":"ce4bhu92rcd13ifvqi70","pricing_plan_id":"cebpf4jnsgd1na2vs0mg"},{"bike_id":"4a7be492-19b6-48b1-b7c2-11aa7a381c9e","system_id":"levelo_inurba_marseille","lat":43.26211,"lon":5.37445,"is_reserved":false,"is_disabled":false,"rental_uris":{"android":"levelo://app?vid=4a7be492-19b6-48b1-b7c2-11aa7a381c9e","ios":"levelo://app?vid=4a7be492-19b6-48b1-b7c2-11aa7a381c9e"},"vehicle_type_id":"4","last_reported":1729260488,"current_range_meters":38800,"station_id":"ce4bhgp2rcd13ifvqfc0","pricing_plan_id":"cebpf4jnsgd1na2vs0mg"},{"bike_id":"e6f7c3c8-29db-4c8a-b6f4-3f50a3cd3cc5","system_id":"levelo_inurba_marseille","lat":43.28697,"lon":5.39986,"is_reserved":false,"is_disabled":false,"rental_uris":{"android":"levelo://app?vid=e6f7c3c8-29db-4c8a-b6f4-3f50a3cd3cc5","ios":"levelo://app?vid=e6f7c3c8-29db-4c8a-b6f4-3f50a3cd3cc5"},"vehicle_type_id":"4","last_reported":1729260488,"current_range_meters":8800,"station_id":"ce4bho92rcd13ifvqh3g","pricing_plan_id":"cebpf4jnsgd1na2vs0mg"},{"bike_id":"25573e2f-a445-4919-a85f-8daef7637352","system_id":"levelo_inurba_marseille","lat":43.30802,"lon":5.43524,"is_reserved":false,"is_disabled":false,"rental_uris":{"android":"levelo://app?vid=25573e2f-a445-4919-a85f-8daef7637352","ios":"levelo://app?vid=25573e2f-a445-4919-a85f-8daef7637352"},"vehicle_type_id":"4","last_reported":1729260488,"current_range_meters":33200,"station_id":"ce4bhph2rcd13ifvqheg","pricing_plan_id":"cebpf4jnsgd1na2vs0mg"},{"bike_id":"5333435e-c582-4a89-84c8-b8da08e55882","system_id":"levelo_inurba_marseille","lat":43.30884,"lon":5.39648,"is_reserved":false,"is_disabled":false,"rental_uris":{"android":"levelo://app?vid=5333435e-c582-4a89-84c8-b8da08e55882","ios":"levelo://app?vid=5333435e-c582-4a89-84c8-b8da08e55882"},"vehicle_type_id":"4","last_reported":1729260488,"current_range_meters":8400,"station_id":"ce4bh012rcd13ifvqcv0","pricing_plan_id":"cebpf4jnsgd1na2vs0mg"},{"bike_id":"90b7df2b-2805-4913-a745-07d80216980c","system_id":"levelo_inurba_marseille","lat":43.30801,"lon":5.43519,"is_reserved":false,"is_disabled":false,"rental_uris":{"android":"levelo://app?vid=90b7df2b-2805-4913-a745-07d80216980c","ios":"levelo://app?vid=90b7df2b-2805-4913-a745-07d80216980c"},"vehicle_type_id":"4","last_reported":1729260488,"current_range_meters":11200,"station_id":"ce4bhph2rcd13ifvqheg","pricing_plan_id":"cebpf4jnsgd1na2vs0mg"},{"bike_id":"32ce68a3-3fc7-4257-974f-ab657619c295","system_id":"levelo_inurba_marseille","lat":43.3376,"lon":5.37461,"is_reserved":false,"is_disabled":false,"rental_uris":{"android":"levelo://app?vid=32ce68a3-3fc7-4257-974f-ab657619c295","ios":"levelo://app?vid=32ce68a3-3fc7-4257-974f-ab657619c295"},"vehicle_type_id":"4","last_reported":1729260488,"current_range_meters":10000,"station_id":"","pricing_plan_id":"cebpf4jnsgd1na2vs0mg"},{"bike_id":"df3030cc-38a2-4886-9b57-a0436ee6432c","system_id":"levelo_inurba_marseille","lat":43.26192,"lon":5.37452,"is_reserved":false,"is_disabled":false,"rental_uris":{"android":"levelo://app?vid=df3030cc-38a2-4886-9b57-a0436ee6432c","ios":"levelo://app?vid=df3030cc-38a2-4886-9b57-a0436ee6432c"},"vehicle_type_id":"4","last_reported":1729260488,"current_range_meters":32400,"station_id":"ce4bhgp2rcd13ifvqfc0","pricing_plan_id":"cebpf4jnsgd1na2vs0mg"},{"bike_id":"a77fabbd-8e98-4fe0-bc83-af89d4e8c260","system_id":"levelo_inurba_marseille","lat":43.249969,"lon":5.389258,"is_reserved":false,"is_disabled":false,"rental_uris":{"android":"levelo://app?vid=a77fabbd-8e98-4fe0-bc83-af89d4e8c260","ios":"levelo://app?vid=a77fabbd-8e98-4fe0-bc83-af89d4e8c260"},"vehicle_type_id":"4","last_reported":1729260488,"current_range_meters":27600,"station_id":"ce4bhgp2rcd13ifvqfd0","pricing_plan_id":"cebpf4jnsgd1na2vs0mg"},{"bike_id":"555ff3cf-777b-4ff4-b149-9575fc002950","system_id":"levelo_inurba_marseille","lat":43.24177,"lon":5.39731,"is_reserved":false,"is_disabled":false,"rental_uris":{"android":"levelo://app?vid=555ff3cf-777b-4ff4-b149-9575fc002950","ios":"levelo://app?vid=555ff3cf-777b-4ff4-b149-9575fc002950"},"vehicle_type_id":"4","last_reported":1729260488,"current_range_meters":31200,"station_id":"ce4bhn12rcd13ifvqgpg","pricing_plan_id":"cebpf4jnsgd1na2vs0mg"},{"bike_id":"b64362e2-b043-4f67-8e42-f68524e828ed","system_id":"levelo_inurba_marseille","lat":43.241768,"lon":5.397092,"is_reserved":false,"is_disabled":false,"rental_uris":{"android":"levelo://app?vid=b64362e2-b043-4f67-8e42-f68524e828ed","ios":"levelo://app?vid=b64362e2-b043-4f67-8e42-f68524e828ed"},"vehicle_type_id":"4","last_reported":1729260488,"current_range_meters":24800,"station_id":"ce4bhn12rcd13ifvqgpg","pricing_plan_id":"cebpf4jnsgd1na2vs0mg"},{"bike_id":"fa7bbdc9-afbe-404d-8676-647037cc76a9","system_id":"levelo_inurba_marseille","lat":43.23193,"lon":5.35546,"is_reserved":false,"is_disabled":false,"rental_uris":{"android":"levelo://app?vid=fa7bbdc9-afbe-404d-8676-647037cc76a9","ios":"levelo://app?vid=fa7bbdc9-afbe-404d-8676-647037cc76a9"},"vehicle_type_id":"4","last_reported":1729260488,"current_range_meters":28800,"station_id":"ce4bhu92rcd13ifvqi70","pricing_plan_id":"cebpf4jnsgd1na2vs0mg"},{"bike_id":"ae72d7e7-44c5-4936-b652-a590a2ba24a2","system_id":"levelo_inurba_marseille","lat":43.28033,"lon":5.36933,"is_reserved":false,"is_disabled":false,"rental_uris":{"android":"levelo://app?vid=ae72d7e7-44c5-4936-b652-a590a2ba24a2","ios":"levelo://app?vid=ae72d7e7-44c5-4936-b652-a590a2ba24a2"},"vehicle_type_id":"4","last_reported":1729260488,"current_range_meters":36000,"station_id":"ce4bha12rcd13ifvqef0","pricing_plan_id":"cebpf4jnsgd1na2vs0mg"},{"bike_id":"f8d2e239-573b-4f9d-8955-e6720aa9663e","system_id":"levelo_inurba_marseille","lat":43.24647,"lon":5.38897,"is_reserved":false,"is_disabled":false,"rental_uris":{"android":"levelo://app?vid=f8d2e239-573b-4f9d-8955-e6720aa9663e","ios":"levelo://app?vid=f8d2e239-573b-4f9d-8955-e6720aa9663e"},"vehicle_type_id":"4","last_reported":1729260488,"current_range_meters":31200,"station_id":"ce4bhg12rcd13ifvqf60","pricing_plan_id":"cebpf4jnsgd1na2vs0mg"},{"bike_id":"d88aeb6e-c2cc-4a3f-be09-bedf13f1d5fa","system_id":"levelo_inurba_marseille","lat":43.3199,"lon":5.38148,"is_reserved":false,"is_disabled":false,"rental_uris":{"android":"levelo://app?vid=d88aeb6e-c2cc-4a3f-be09-bedf13f1d5fa","ios":"levelo://app?vid=d88aeb6e-c2cc-4a3f-be09-bedf13f1d5fa"},"vehicle_type_id":"4","last_reported":1729260488,"current_range_meters":38400,"station_id":"ce4bhr12rcd13ifvqhpg","pricing_plan_id":"cebpf4jnsgd1na2vs0mg"},{"bike_id":"8c1ec6cb-2291-4814-837b-be8625c706f3","system_id":"levelo_inurba_marseille","lat":43.23195,"lon":5.35544,"is_reserved":false,"is_disabled":false,"rental_uris":{"android":"levelo://app?vid=8c1ec6cb-2291-4814-837b-be8625c706f3","ios":"levelo://app?vid=8c1ec6cb-2291-4814-837b-be8625c706f3"},"vehicle_type_id":"4","last_reported":1729260488,"current_range_meters":32400,"station_id":"ce4bhu92rcd13ifvqi70","pricing_plan_id":"cebpf4jnsgd1na2vs0mg"},{"bike_id":"e05a8545-65f7-4cf3-8739-ba534517b4f3","system_id":"levelo_inurba_marseille","lat":43.27374,"lon":5.36251,"is_reserved":false,"is_disabled":false,"rental_uris":{"android":"levelo://app?vid=e05a8545-65f7-4cf3-8739-ba534517b4f3","ios":"levelo://app?vid=e05a8545-65f7-4cf3-8739-ba534517b4f3"},"vehicle_type_id":"4","last_reported":1729260488,"current_range_meters":29600,"station_id":"","pricing_plan_id":"cebpf4jnsgd1na2vs0mg"},{"bike_id":"c86d1537-d527-4f2d-bdcd-410c5541f1da","system_id":"levelo_inurba_marseille","lat":43.24998,"lon":5.38936,"is_reserved":false,"is_disabled":false,"rental_uris":{"android":"levelo://app?vid=c86d1537-d527-4f2d-bdcd-410c5541f1da","ios":"levelo://app?vid=c86d1537-d527-4f2d-bdcd-410c5541f1da"},"vehicle_type_id":"4","last_reported":1729260488,"current_range_meters":4800,"station_id":"ce4bhgp2rcd13ifvqfd0","pricing_plan_id":"cebpf4jnsgd1na2vs0mg"},{"bike_id":"e828a4fb-5838-48f2-b979-4f6f6d3eb5dc","system_id":"levelo_inurba_marseille","lat":43.32049,"lon":5.41548,"is_reserved":false,"is_disabled":false,"rental_uris":{"android":"levelo://app?vid=e828a4fb-5838-48f2-b979-4f6f6d3eb5dc","ios":"levelo://app?vid=e828a4fb-5838-48f2-b979-4f6f6d3eb5dc"},"vehicle_type_id":"4","last_reported":1729260488,"current_range_meters":22800,"station_id":"ce4bhq92rcd13ifvqhkg","pricing_plan_id":"cebpf4jnsgd1na2vs0mg"},{"bike_id":"c89c2319-61a9-47ef-9229-e31c9eaab143","system_id":"levelo_inurba_marseille","lat":43.23192,"lon":5.35542,"is_reserved":false,"is_disabled":false,"rental_uris":{"android":"levelo://app?vid=c89c2319-61a9-47ef-9229-e31c9eaab143","ios":"levelo://app?vid=c89c2319-61a9-47ef-9229-e31c9eaab143"},"vehicle_type_id":"4","last_reported":1729260488,"current_range_meters":36400,"station_id":"ce4bhu92rcd13ifvqi70","pricing_plan_id":"cebpf4jnsgd1na2vs0mg"},{"bike_id":"ba9bd7c4-d1e3-4f57-8f18-78d353422ae9","system_id":"levelo_inurba_marseille","lat":43.23063,"lon":5.35496,"is_reserved":false,"is_disabled":false,"rental_uris":{"android":"levelo://app?vid=ba9bd7c4-d1e3-4f57-8f18-78d353422ae9","ios":"levelo://app?vid=ba9bd7c4-d1e3-4f57-8f18-78d353422ae9"},"vehicle_type_id":"4","last_reported":1729260488,"current_range_meters":32000,"station_id":"cpo3342slgdg3j2ifvpg","pricing_plan_id":"cebpf4jnsgd1na2vs0mg"},{"bike_id":"224a7c67-c85e-440a-8b29-424083c0c94b","system_id":"levelo_inurba_marseille","lat":43.29782,"lon":5.39335,"is_reserved":false,"is_disabled":false,"rental_uris":{"android":"levelo://app?vid=224a7c67-c85e-440a-8b29-424083c0c94b","ios":"levelo://app?vid=224a7c67-c85e-440a-8b29-424083c0c94b"},"vehicle_type_id":"4","last_reported":1729260488,"current_range_meters":36800,"station_id":"chh1huq6cuj3fo74tm60","pricing_plan_id":"cebpf4jnsgd1na2vs0mg"},{"bike_id":"577452e1-011f-4403-92bc-6f12ac4d3520","system_id":"levelo_inurba_marseille","lat":43.3189,"lon":5.40736,"is_reserved":false,"is_disabled":false,"rental_uris":{"android":"levelo://app?vid=577452e1-011f-4403-92bc-6f12ac4d3520","ios":"levelo://app?vid=577452e1-011f-4403-92bc-6f12ac4d3520"},"vehicle_type_id":"4","last_reported":1729260488,"current_range_meters":27200,"station_id":"ce4bhq12rcd13ifvqhig","pricing_plan_id":"cebpf4jnsgd1na2vs0mg"},{"bike_id":"6fbd7e7b-8c1b-415b-9656-6aa4cae267a5","system_id":"levelo_inurba_marseille","lat":43.276215,"lon":5.361056,"is_reserved":false,"is_disabled":false,"rental_uris":{"android":"levelo://app?vid=6fbd7e7b-8c1b-415b-9656-6aa4cae267a5","ios":"levelo://app?vid=6fbd7e7b-8c1b-415b-9656-6aa4cae267a5"},"vehicle_type_id":"4","last_reported":1729260488,"current_range_meters":12000,"station_id":"ce4bgj92rcd13ifvqbe0","pricing_plan_id":"cebpf4jnsgd1na2vs0mg"},{"bike_id":"eda11a60-0fc9-4d73-ac22-b837e08adaf5","system_id":"levelo_inurba_marseille","lat":43.28433,"lon":5.35,"is_reserved":false,"is_disabled":false,"rental_uris":{"android":"levelo://app?vid=eda11a60-0fc9-4d73-ac22-b837e08adaf5","ios":"levelo://app?vid=eda11a60-0fc9-4d73-ac22-b837e08adaf5"},"vehicle_type_id":"4","last_reported":1729260488,"current_range_meters":33200,"station_id":"ce4bhbh2rcd13ifvqepg","pricing_plan_id":"cebpf4jnsgd1na2vs0mg"},{"bike_id":"a14cfc8d-fbbd-40b0-aa99-e624d97946a6","system_id":"levelo_inurba_marseille","lat":43.308,"lon":5.4352,"is_reserved":false,"is_disabled":false,"rental_uris":{"android":"levelo://app?vid=a14cfc8d-fbbd-40b0-aa99-e624d97946a6","ios":"levelo://app?vid=a14cfc8d-fbbd-40b0-aa99-e624d97946a6"},"vehicle_type_id":"4","last_reported":1729260488,"current_range_meters":28000,"station_id":"ce4bhph2rcd13ifvqheg","pricing_plan_id":"cebpf4jnsgd1na2vs0mg"},{"bike_id":"c28e7529-b2b3-4295-9393-92bde8fe9fe4","system_id":"levelo_inurba_marseille","lat":43.26793,"lon":5.39411,"is_reserved":false,"is_disabled":false,"rental_uris":{"android":"levelo://app?vid=c28e7529-b2b3-4295-9393-92bde8fe9fe4","ios":"levelo://app?vid=c28e7529-b2b3-4295-9393-92bde8fe9fe4"},"vehicle_type_id":"4","last_reported":1729260488,"current_range_meters":11200,"station_id":"ce4bhh12rcd13ifvqfg0","pricing_plan_id":"cebpf4jnsgd1na2vs0mg"},{"bike_id":"874494de-7452-4f47-9fec-c5ec79478035","system_id":"levelo_inurba_marseille","lat":43.23971,"lon":5.36641,"is_reserved":false,"is_disabled":false,"rental_uris":{"android":"levelo://app?vid=874494de-7452-4f47-9fec-c5ec79478035","ios":"levelo://app?vid=874494de-7452-4f47-9fec-c5ec79478035"},"vehicle_type_id":"4","last_reported":1729260488,"current_range_meters":24000,"station_id":"ce4bhi12rcd13ifvqfp0","pricing_plan_id":"cebpf4jnsgd1na2vs0mg"},{"bike_id":"8b33911e-5d42-46bd-b00d-c1d5ce72f577","system_id":"levelo_inurba_marseille","lat":43.23193,"lon":5.39989,"is_reserved":false,"is_disabled":false,"rental_uris":{"android":"levelo://app?vid=8b33911e-5d42-46bd-b00d-c1d5ce72f577","ios":"levelo://app?vid=8b33911e-5d42-46bd-b00d-c1d5ce72f577"},"vehicle_type_id":"4","last_reported":1729260488,"current_range_meters":38800,"station_id":"ce4bhn12rcd13ifvqgqg","pricing_plan_id":"cebpf4jnsgd1na2vs0mg"},{"bike_id":"e823df99-badf-44fe-98b7-572b90c49a05","system_id":"levelo_inurba_marseille","lat":43.28726,"lon":5.36082,"is_reserved":false,"is_disabled":false,"rental_uris":{"android":"levelo://app?vid=e823df99-badf-44fe-98b7-572b90c49a05","ios":"levelo://app?vid=e823df99-badf-44fe-98b7-572b90c49a05"},"vehicle_type_id":"4","last_reported":1729260488,"current_range_meters":6800,"station_id":"cki0cbj6b192h4jlfktg","pricing_plan_id":"cebpf4jnsgd1na2vs0mg"},{"bike_id":"e004dd35-c47c-4743-bcf6-1c0f60bae00c","system_id":"levelo_inurba_marseille","lat":43.28358,"lon":5.38632,"is_reserved":false,"is_disabled":false,"rental_uris":{"android":"levelo://app?vid=e004dd35-c47c-4743-bcf6-1c0f60bae00c","ios":"levelo://app?vid=e004dd35-c47c-4743-bcf6-1c0f60bae00c"},"vehicle_type_id":"4","last_reported":1729260488,"current_range_meters":27200,"station_id":"ce4bh492rcd13ifvqdvg","pricing_plan_id":"cebpf4jnsgd1na2vs0mg"},{"bike_id":"0994d7f0-fa2e-480f-b967-2b1e1b476b78","system_id":"levelo_inurba_marseille","lat":43.2319,"lon":5.35555,"is_reserved":false,"is_disabled":false,"rental_uris":{"android":"levelo://app?vid=0994d7f0-fa2e-480f-b967-2b1e1b476b78","ios":"levelo://app?vid=0994d7f0-fa2e-480f-b967-2b1e1b476b78"},"vehicle_type_id":"4","last_reported":1729260488,"current_range_meters":8400,"station_id":"ce4bhu92rcd13ifvqi70","pricing_plan_id":"cebpf4jnsgd1na2vs0mg"},{"bike_id":"350d5c82-77b3-4406-a0db-05f9d2d9a3d8","system_id":"levelo_inurba_marseille","lat":43.23054,"lon":5.35497,"is_reserved":false,"is_disabled":false,"rental_uris":{"android":"levelo://app?vid=350d5c82-77b3-4406-a0db-05f9d2d9a3d8","ios":"levelo://app?vid=350d5c82-77b3-4406-a0db-05f9d2d9a3d8"},"vehicle_type_id":"4","last_reported":1729260488,"current_range_meters":23200,"station_id":"cpo3342slgdg3j2ifvpg","pricing_plan_id":"cebpf4jnsgd1na2vs0mg"},{"bike_id":"66ccc46d-618e-4760-b09c-27382152bdab","system_id":"levelo_inurba_marseille","lat":43.23188,"lon":5.35546,"is_reserved":false,"is_disabled":false,"rental_uris":{"android":"levelo://app?vid=66ccc46d-618e-4760-b09c-27382152bdab","ios":"levelo://app?vid=66ccc46d-618e-4760-b09c-27382152bdab"},"vehicle_type_id":"4","last_reported":1729260488,"current_range_meters":28000,"station_id":"ce4bhu92rcd13ifvqi70","pricing_plan_id":"cebpf4jnsgd1na2vs0mg"},{"bike_id":"90978e39-6203-4f91-bed4-5708c3fdb92e","system_id":"levelo_inurba_marseille","lat":43.30889,"lon":5.39658,"is_reserved":false,"is_disabled":false,"rental_uris":{"android":"levelo://app?vid=90978e39-6203-4f91-bed4-5708c3fdb92e","ios":"levelo://app?vid=90978e39-6203-4f91-bed4-5708c3fdb92e"},"vehicle_type_id":"4","last_reported":1729260488,"current_range_meters":24000,"station_id":"ce4bh012rcd13ifvqcv0","pricing_plan_id":"cebpf4jnsgd1na2vs0mg"},{"bike_id":"839dccd1-11e3-4f72-9fc0-a0ad98128473","system_id":"levelo_inurba_marseille","lat":43.28843,"lon":5.35856,"is_reserved":false,"is_disabled":false,"rental_uris":{"android":"levelo://app?vid=839dccd1-11e3-4f72-9fc0-a0ad98128473","ios":"levelo://app?vid=839dccd1-11e3-4f72-9fc0-a0ad98128473"},"vehicle_type_id":"4","last_reported":1729260488,"current_range_meters":14800,"station_id":"ce4bhb12rcd13ifvqem0","pricing_plan_id":"cebpf4jnsgd1na2vs0mg"},{"bike_id":"b9425720-cb02-4acd-aaa8-2e92a331dc6e","system_id":"levelo_inurba_marseille","lat":43.2679,"lon":5.39413,"is_reserved":false,"is_disabled":false,"rental_uris":{"android":"levelo://app?vid=b9425720-cb02-4acd-aaa8-2e92a331dc6e","ios":"levelo://app?vid=b9425720-cb02-4acd-aaa8-2e92a331dc6e"},"vehicle_type_id":"4","last_reported":1729260488,"current_range_meters":30400,"station_id":"ce4bhh12rcd13ifvqfg0","pricing_plan_id":"cebpf4jnsgd1na2vs0mg"},{"bike_id":"aeb6ef8e-cab2-4479-b567-0b2741ce6261","system_id":"levelo_inurba_marseille","lat":43.28421,"lon":5.34997,"is_reserved":false,"is_disabled":false,"rental_uris":{"android":"levelo://app?vid=aeb6ef8e-cab2-4479-b567-0b2741ce6261","ios":"levelo://app?vid=aeb6ef8e-cab2-4479-b567-0b2741ce6261"},"vehicle_type_id":"4","last_reported":1729260488,"current_range_meters":14400,"station_id":"ce4bhbh2rcd13ifvqepg","pricing_plan_id":"cebpf4jnsgd1na2vs0mg"},{"bike_id":"2624a451-20b3-4c73-9911-2d9f08fce5d7","system_id":"levelo_inurba_marseille","lat":43.30599,"lon":5.3722,"is_reserved":false,"is_disabled":false,"rental_uris":{"android":"levelo://app?vid=2624a451-20b3-4c73-9911-2d9f08fce5d7","ios":"levelo://app?vid=2624a451-20b3-4c73-9911-2d9f08fce5d7"},"vehicle_type_id":"4","last_reported":1729260488,"current_range_meters":7200,"station_id":"ce4bgqh2rcd13ifvqc4g","pricing_plan_id":"cebpf4jnsgd1na2vs0mg"},{"bike_id":"9fd48101-3cf7-4007-8b32-97ae3e9f6171","system_id":"levelo_inurba_marseille","lat":43.308971,"lon":5.368499,"is_reserved":false,"is_disabled":false,"rental_uris":{"android":"levelo://app?vid=9fd48101-3cf7-4007-8b32-97ae3e9f6171","ios":"levelo://app?vid=9fd48101-3cf7-4007-8b32-97ae3e9f6171"},"vehicle_type_id":"4","last_reported":1729260488,"current_range_meters":17200,"station_id":"ce4bhbh2rcd13ifvqepg","pricing_plan_id":"cebpf4jnsgd1na2vs0mg"},{"bike_id":"e9e06989-753d-4795-b8db-5902cb11facd","system_id":"levelo_inurba_marseille","lat":43.29166,"lon":5.37157,"is_reserved":false,"is_disabled":false,"rental_uris":{"android":"levelo://app?vid=e9e06989-753d-4795-b8db-5902cb11facd","ios":"levelo://app?vid=e9e06989-753d-4795-b8db-5902cb11facd"},"vehicle_type_id":"4","last_reported":1729260488,"current_range_meters":4000,"station_id":"ce4bha92rcd13ifvqeh0","pricing_plan_id":"cebpf4jnsgd1na2vs0mg"},{"bike_id":"fc262b45-2b88-4d3d-8020-e7c946d1fec3","system_id":"levelo_inurba_marseille","lat":43.32111,"lon":5.36778,"is_reserved":false,"is_disabled":false,"rental_uris":{"android":"levelo://app?vid=fc262b45-2b88-4d3d-8020-e7c946d1fec3","ios":"levelo://app?vid=fc262b45-2b88-4d3d-8020-e7c946d1fec3"},"vehicle_type_id":"4","last_reported":1729260488,"current_range_meters":37600,"station_id":"ce4bhrh2rcd13ifvqhug","pricing_plan_id":"cebpf4jnsgd1na2vs0mg"},{"bike_id":"626c9f37-1f6b-4efd-aaa2-93828f3b4f42","system_id":"levelo_inurba_marseille","lat":43.26027,"lon":5.37551,"is_reserved":false,"is_disabled":false,"rental_uris":{"android":"levelo://app?vid=626c9f37-1f6b-4efd-aaa2-93828f3b4f42","ios":"levelo://app?vid=626c9f37-1f6b-4efd-aaa2-93828f3b4f42"},"vehicle_type_id":"4","last_reported":1729260488,"current_range_meters":28400,"station_id":"ce4bhgh2rcd13ifvqfa0","pricing_plan_id":"cebpf4jnsgd1na2vs0mg"},{"bike_id":"907d90e2-7e08-4846-bbc2-01977b54a9bd","system_id":"levelo_inurba_marseille","lat":43.24167,"lon":5.36392,"is_reserved":false,"is_disabled":false,"rental_uris":{"android":"levelo://app?vid=907d90e2-7e08-4846-bbc2-01977b54a9bd","ios":"levelo://app?vid=907d90e2-7e08-4846-bbc2-01977b54a9bd"},"vehicle_type_id":"4","last_reported":1729260488,"current_range_meters":17200,"station_id":"cpo36qri1sfpv3e86is0","pricing_plan_id":"cebpf4jnsgd1na2vs0mg"},{"bike_id":"8538416e-149d-41d2-bd58-9e180507c311","system_id":"levelo_inurba_marseille","lat":43.29555,"lon":5.37529,"is_reserved":false,"is_disabled":false,"rental_uris":{"android":"levelo://app?vid=8538416e-149d-41d2-bd58-9e180507c311","ios":"levelo://app?vid=8538416e-149d-41d2-bd58-9e180507c311"},"vehicle_type_id":"4","last_reported":1729260488,"current_range_meters":33600,"station_id":"ce4bgh92rcd13ifvqb50","pricing_plan_id":"cebpf4jnsgd1na2vs0mg"},{"bike_id":"b687f929-cbed-496e-bfd3-d8b429a6ba25","system_id":"levelo_inurba_marseille","lat":43.31486,"lon":5.373,"is_reserved":false,"is_disabled":false,"rental_uris":{"android":"levelo://app?vid=b687f929-cbed-496e-bfd3-d8b429a6ba25","ios":"levelo://app?vid=b687f929-cbed-496e-bfd3-d8b429a6ba25"},"vehicle_type_id":"4","last_reported":1729260488,"current_range_meters":20000,"station_id":"ce4bgt12rcd13ifvqcd0","pricing_plan_id":"cebpf4jnsgd1na2vs0mg"},{"bike_id":"46b9d997-f8a2-4011-9958-a986ffb43361","system_id":"levelo_inurba_marseille","lat":43.32107,"lon":5.36775,"is_reserved":false,"is_disabled":false,"rental_uris":{"android":"levelo://app?vid=46b9d997-f8a2-4011-9958-a986ffb43361","ios":"levelo://app?vid=46b9d997-f8a2-4011-9958-a986ffb43361"},"vehicle_type_id":"4","last_reported":1729260488,"current_range_meters":30400,"station_id":"ce4bhrh2rcd13ifvqhug","pricing_plan_id":"cebpf4jnsgd1na2vs0mg"},{"bike_id":"27bbaeee-67f8-445f-9a78-77195707271f","system_id":"levelo_inurba_marseille","lat":43.28281,"lon":5.3508,"is_reserved":false,"is_disabled":false,"rental_uris":{"android":"levelo://app?vid=27bbaeee-67f8-445f-9a78-77195707271f","ios":"levelo://app?vid=27bbaeee-67f8-445f-9a78-77195707271f"},"vehicle_type_id":"4","last_reported":1729260488,"current_range_meters":9200,"station_id":"ce4bhbp2rcd13ifvqerg","pricing_plan_id":"cebpf4jnsgd1na2vs0mg"},{"bike_id":"d5453104-4e26-49cc-8e26-384ccaaff964","system_id":"levelo_inurba_marseille","lat":43.26564,"lon":5.37284,"is_reserved":false,"is_disabled":false,"rental_uris":{"android":"levelo://app?vid=d5453104-4e26-49cc-8e26-384ccaaff964","ios":"levelo://app?vid=d5453104-4e26-49cc-8e26-384ccaaff964"},"vehicle_type_id":"4","last_reported":1729260488,"current_range_meters":30400,"station_id":"ce4bhg12rcd13ifvqf70","pricing_plan_id":"cebpf4jnsgd1na2vs0mg"},{"bike_id":"646e2cf2-8282-4589-a194-12e4d373c2b1","system_id":"levelo_inurba_marseille","lat":43.23186,"lon":5.35548,"is_reserved":false,"is_disabled":false,"rental_uris":{"android":"levelo://app?vid=646e2cf2-8282-4589-a194-12e4d373c2b1","ios":"levelo://app?vid=646e2cf2-8282-4589-a194-12e4d373c2b1"},"vehicle_type_id":"4","last_reported":1729260488,"current_range_meters":38800,"station_id":"ce4bhu92rcd13ifvqi70","pricing_plan_id":"cebpf4jnsgd1na2vs0mg"},{"bike_id":"94dad7f8-6585-4b37-b691-74420d23ef13","system_id":"levelo_inurba_marseille","lat":43.30802,"lon":5.43522,"is_reserved":false,"is_disabled":false,"rental_uris":{"android":"levelo://app?vid=94dad7f8-6585-4b37-b691-74420d23ef13","ios":"levelo://app?vid=94dad7f8-6585-4b37-b691-74420d23ef13"},"vehicle_type_id":"4","last_reported":1729260488,"current_range_meters":36000,"station_id":"ce4bhph2rcd13ifvqheg","pricing_plan_id":"cebpf4jnsgd1na2vs0mg"},{"bike_id":"09ebda69-021e-4699-b51b-19ad1a1f9b6d","system_id":"levelo_inurba_marseille","lat":43.29718,"lon":5.37687,"is_reserved":false,"is_disabled":false,"rental_uris":{"android":"levelo://app?vid=09ebda69-021e-4699-b51b-19ad1a1f9b6d","ios":"levelo://app?vid=09ebda69-021e-4699-b51b-19ad1a1f9b6d"},"vehicle_type_id":"4","last_reported":1729260488,"current_range_meters":32400,"station_id":"ce4bgkh2rcd13ifvqbl0","pricing_plan_id":"cebpf4jnsgd1na2vs0mg"},{"bike_id":"3c420797-40a2-4ab1-ac9d-c778d1b2e9bc","system_id":"levelo_inurba_marseille","lat":43.23057,"lon":5.3549,"is_reserved":false,"is_disabled":false,"rental_uris":{"android":"levelo://app?vid=3c420797-40a2-4ab1-ac9d-c778d1b2e9bc","ios":"levelo://app?vid=3c420797-40a2-4ab1-ac9d-c778d1b2e9bc"},"vehicle_type_id":"4","last_reported":1729260488,"current_range_meters":27600,"station_id":"cpo3342slgdg3j2ifvpg","pricing_plan_id":"cebpf4jnsgd1na2vs0mg"},{"bike_id":"4562e9bb-7c1e-4e0e-95e1-858d0f8d86d1","system_id":"levelo_inurba_marseille","lat":43.2319,"lon":5.35563,"is_reserved":false,"is_disabled":false,"rental_uris":{"android":"levelo://app?vid=4562e9bb-7c1e-4e0e-95e1-858d0f8d86d1","ios":"levelo://app?vid=4562e9bb-7c1e-4e0e-95e1-858d0f8d86d1"},"vehicle_type_id":"4","last_reported":1729260488,"current_range_meters":33600,"station_id":"ce4bhu92rcd13ifvqi70","pricing_plan_id":"cebpf4jnsgd1na2vs0mg"},{"bike_id":"3bfa9c42-4152-4ec6-99d3-f1112205c95d","system_id":"levelo_inurba_marseille","lat":43.31889,"lon":5.40724,"is_reserved":false,"is_disabled":false,"rental_uris":{"android":"levelo://app?vid=3bfa9c42-4152-4ec6-99d3-f1112205c95d","ios":"levelo://app?vid=3bfa9c42-4152-4ec6-99d3-f1112205c95d"},"vehicle_type_id":"4","last_reported":1729260488,"current_range_meters":24800,"station_id":"ce4bhq12rcd13ifvqhig","pricing_plan_id":"cebpf4jnsgd1na2vs0mg"},{"bike_id":"c908dea0-1bf8-48cd-b078-1b7592311c05","system_id":"levelo_inurba_marseille","lat":43.271729,"lon":5.409935,"is_reserved":false,"is_disabled":false,"rental_uris":{"android":"levelo://app?vid=c908dea0-1bf8-48cd-b078-1b7592311c05","ios":"levelo://app?vid=c908dea0-1bf8-48cd-b078-1b7592311c05"},"vehicle_type_id":"4","last_reported":1729260488,"current_range_meters":3600,"station_id":"ce4bhl12rcd13ifvqgf0","pricing_plan_id":"cebpf4jnsgd1na2vs0mg"},{"bike_id":"6837ac97-30a8-4145-8047-b6d6df61ac48","system_id":"levelo_inurba_marseille","lat":43.23185,"lon":5.39993,"is_reserved":false,"is_disabled":false,"rental_uris":{"android":"levelo://app?vid=6837ac97-30a8-4145-8047-b6d6df61ac48","ios":"levelo://app?vid=6837ac97-30a8-4145-8047-b6d6df61ac48"},"vehicle_type_id":"4","last_reported":1729260488,"current_range_meters":38800,"station_id":"ce4bhn12rcd13ifvqgqg","pricing_plan_id":"cebpf4jnsgd1na2vs0mg"},{"bike_id":"2140b6a3-5118-4150-823e-9225aeb56201","system_id":"levelo_inurba_marseille","lat":43.23195,"lon":5.35553,"is_reserved":false,"is_disabled":false,"rental_uris":{"android":"levelo://app?vid=2140b6a3-5118-4150-823e-9225aeb56201","ios":"levelo://app?vid=2140b6a3-5118-4150-823e-9225aeb56201"},"vehicle_type_id":"4","last_reported":1729260488,"current_range_meters":31200,"station_id":"ce4bhu92rcd13ifvqi70","pricing_plan_id":"cebpf4jnsgd1na2vs0mg"},{"bike_id":"50223d13-23b2-4f5e-b5c6-2e91dbd2a6f8","system_id":"levelo_inurba_marseille","lat":43.23186,"lon":5.3999,"is_reserved":false,"is_disabled":false,"rental_uris":{"android":"levelo://app?vid=50223d13-23b2-4f5e-b5c6-2e91dbd2a6f8","ios":"levelo://app?vid=50223d13-23b2-4f5e-b5c6-2e91dbd2a6f8"},"vehicle_type_id":"4","last_reported":1729260488,"current_range_meters":32400,"station_id":"ce4bhn12rcd13ifvqgqg","pricing_plan_id":"cebpf4jnsgd1na2vs0mg"},{"bike_id":"e4dfcd48-a44f-472b-aa8c-37ed1a35f43b","system_id":"levelo_inurba_marseille","lat":43.295344,"lon":5.394072,"is_reserved":false,"is_disabled":false,"rental_uris":{"android":"levelo://app?vid=e4dfcd48-a44f-472b-aa8c-37ed1a35f43b","ios":"levelo://app?vid=e4dfcd48-a44f-472b-aa8c-37ed1a35f43b"},"vehicle_type_id":"4","last_reported":1729260488,"current_range_meters":30000,"station_id":"ce4bh292rcd13ifvqdf0","pricing_plan_id":"cebpf4jnsgd1na2vs0mg"},{"bike_id":"0f567863-8611-4b54-a3ed-79ef0549e466","system_id":"levelo_inurba_marseille","lat":43.269306,"lon":5.421386,"is_reserved":false,"is_disabled":false,"rental_uris":{"android":"levelo://app?vid=0f567863-8611-4b54-a3ed-79ef0549e466","ios":"levelo://app?vid=0f567863-8611-4b54-a3ed-79ef0549e466"},"vehicle_type_id":"4","last_reported":1729260488,"current_range_meters":10800,"station_id":"ce4bhk92rcd13ifvqgb0","pricing_plan_id":"cebpf4jnsgd1na2vs0mg"},{"bike_id":"a575fb03-7d63-4bfc-a072-f976e9df2bf2","system_id":"levelo_inurba_marseille","lat":43.25499,"lon":5.37645,"is_reserved":false,"is_disabled":false,"rental_uris":{"android":"levelo://app?vid=a575fb03-7d63-4bfc-a072-f976e9df2bf2","ios":"levelo://app?vid=a575fb03-7d63-4bfc-a072-f976e9df2bf2"},"vehicle_type_id":"4","last_reported":1729260488,"current_range_meters":17600,"station_id":"ce4bhh12rcd13ifvqff0","pricing_plan_id":"cebpf4jnsgd1na2vs0mg"},{"bike_id":"f38be5cd-ab63-462f-9cd3-b0d8507440f0","system_id":"levelo_inurba_marseille","lat":43.24926,"lon":5.40524,"is_reserved":false,"is_disabled":false,"rental_uris":{"android":"levelo://app?vid=f38be5cd-ab63-462f-9cd3-b0d8507440f0","ios":"levelo://app?vid=f38be5cd-ab63-462f-9cd3-b0d8507440f0"},"vehicle_type_id":"4","last_reported":1729260488,"current_range_meters":6000,"station_id":"ce4bhi12rcd13ifvqfq0","pricing_plan_id":"cebpf4jnsgd1na2vs0mg"},{"bike_id":"73571360-6624-497e-ae84-61a3fbd766b0","system_id":"levelo_inurba_marseille","lat":43.255,"lon":5.37653,"is_reserved":false,"is_disabled":false,"rental_uris":{"android":"levelo://app?vid=73571360-6624-497e-ae84-61a3fbd766b0","ios":"levelo://app?vid=73571360-6624-497e-ae84-61a3fbd766b0"},"vehicle_type_id":"4","last_reported":1729260488,"current_range_meters":38800,"station_id":"ce4bhh12rcd13ifvqff0","pricing_plan_id":"cebpf4jnsgd1na2vs0mg"},{"bike_id":"971eba59-4e62-4d7b-b54f-d65aedbb6c3a","system_id":"levelo_inurba_marseille","lat":43.30902,"lon":5.36856,"is_reserved":false,"is_disabled":false,"rental_uris":{"android":"levelo://app?vid=971eba59-4e62-4d7b-b54f-d65aedbb6c3a","ios":"levelo://app?vid=971eba59-4e62-4d7b-b54f-d65aedbb6c3a"},"vehicle_type_id":"4","last_reported":1729260488,"current_range_meters":2800,"station_id":"ce4bgn92rcd13ifvqbvg","pricing_plan_id":"cebpf4jnsgd1na2vs0mg"},{"bike_id":"fa9433b4-083f-47af-bd7b-c30153b643c4","system_id":"levelo_inurba_marseille","lat":43.2808,"lon":5.39656,"is_reserved":false,"is_disabled":false,"rental_uris":{"android":"levelo://app?vid=fa9433b4-083f-47af-bd7b-c30153b643c4","ios":"levelo://app?vid=fa9433b4-083f-47af-bd7b-c30153b643c4"},"vehicle_type_id":"4","last_reported":1729260488,"current_range_meters":28800,"station_id":"ce4bho12rcd13ifvqh2g","pricing_plan_id":"cebpf4jnsgd1na2vs0mg"},{"bike_id":"8f2575d5-8431-43b5-a78d-e94d58d62347","system_id":"levelo_inurba_marseille","lat":43.29305,"lon":5.37183,"is_reserved":false,"is_disabled":false,"rental_uris":{"android":"levelo://app?vid=8f2575d5-8431-43b5-a78d-e94d58d62347","ios":"levelo://app?vid=8f2575d5-8431-43b5-a78d-e94d58d62347"},"vehicle_type_id":"4","last_reported":1729260488,"current_range_meters":6400,"station_id":"ce4bgh92rcd13ifvqb40","pricing_plan_id":"cebpf4jnsgd1na2vs0mg"},{"bike_id":"175755d7-0c67-48b4-8af6-3d11fd590c37","system_id":"levelo_inurba_marseille","lat":43.239605,"lon":5.366298,"is_reserved":false,"is_disabled":false,"rental_uris":{"android":"levelo://app?vid=175755d7-0c67-48b4-8af6-3d11fd590c37","ios":"levelo://app?vid=175755d7-0c67-48b4-8af6-3d11fd590c37"},"vehicle_type_id":"4","last_reported":1729260488,"current_range_meters":32800,"station_id":"ce4bhi12rcd13ifvqfp0","pricing_plan_id":"cebpf4jnsgd1na2vs0mg"},{"bike_id":"e331bd53-bdd3-4bff-b9d8-237a94734b3f","system_id":"levelo_inurba_marseille","lat":43.31995,"lon":5.38153,"is_reserved":false,"is_disabled":false,"rental_uris":{"android":"levelo://app?vid=e331bd53-bdd3-4bff-b9d8-237a94734b3f","ios":"levelo://app?vid=e331bd53-bdd3-4bff-b9d8-237a94734b3f"},"vehicle_type_id":"4","last_reported":1729260488,"current_range_meters":27600,"station_id":"ce4bhr12rcd13ifvqhpg","pricing_plan_id":"cebpf4jnsgd1na2vs0mg"},{"bike_id":"7772d39f-5e28-445c-af91-069b0cf63793","system_id":"levelo_inurba_marseille","lat":43.33765,"lon":5.37438,"is_reserved":false,"is_disabled":false,"rental_uris":{"android":"levelo://app?vid=7772d39f-5e28-445c-af91-069b0cf63793","ios":"levelo://app?vid=7772d39f-5e28-445c-af91-069b0cf63793"},"vehicle_type_id":"4","last_reported":1729260488,"current_range_meters":12800,"station_id":"","pricing_plan_id":"cebpf4jnsgd1na2vs0mg"},{"bike_id":"e0ab6bb6-c6b9-4385-b41c-27bea5d9c0cb","system_id":"levelo_inurba_marseille","lat":43.33038,"lon":5.39035,"is_reserved":false,"is_disabled":false,"rental_uris":{"android":"levelo://app?vid=e0ab6bb6-c6b9-4385-b41c-27bea5d9c0cb","ios":"levelo://app?vid=e0ab6bb6-c6b9-4385-b41c-27bea5d9c0cb"},"vehicle_type_id":"4","last_reported":1729260488,"current_range_meters":22800,"station_id":"ce4bhr92rcd13ifvqhrg","pricing_plan_id":"cebpf4jnsgd1na2vs0mg"},{"bike_id":"058ec527-60b8-4877-8817-19590c3cd4f5","system_id":"levelo_inurba_marseille","lat":43.32293,"lon":5.38274,"is_reserved":false,"is_disabled":false,"rental_uris":{"android":"levelo://app?vid=058ec527-60b8-4877-8817-19590c3cd4f5","ios":"levelo://app?vid=058ec527-60b8-4877-8817-19590c3cd4f5"},"vehicle_type_id":"4","last_reported":1729260488,"current_range_meters":32400,"station_id":"ce4bhr12rcd13ifvqhqg","pricing_plan_id":"cebpf4jnsgd1na2vs0mg"},{"bike_id":"3213665e-989c-4d22-9f5a-31c8522597dd","system_id":"levelo_inurba_marseille","lat":43.296,"lon":5.36142,"is_reserved":false,"is_disabled":false,"rental_uris":{"android":"levelo://app?vid=3213665e-989c-4d22-9f5a-31c8522597dd","ios":"levelo://app?vid=3213665e-989c-4d22-9f5a-31c8522597dd"},"vehicle_type_id":"4","last_reported":1729260488,"current_range_meters":24000,"station_id":"","pricing_plan_id":"cebpf4jnsgd1na2vs0mg"},{"bike_id":"c36aca91-d98b-488f-9f90-a0f96e6434ef","system_id":"levelo_inurba_marseille","lat":43.25109,"lon":5.40327,"is_reserved":false,"is_disabled":false,"rental_uris":{"android":"levelo://app?vid=c36aca91-d98b-488f-9f90-a0f96e6434ef","ios":"levelo://app?vid=c36aca91-d98b-488f-9f90-a0f96e6434ef"},"vehicle_type_id":"4","last_reported":1729260488,"current_range_meters":28400,"station_id":"ce4bhlh2rcd13ifvqgig","pricing_plan_id":"cebpf4jnsgd1na2vs0mg"},{"bike_id":"cddb2538-acdb-46a5-bc95-6e0a8d74ef0c","system_id":"levelo_inurba_marseille","lat":43.30797,"lon":5.43526,"is_reserved":false,"is_disabled":false,"rental_uris":{"android":"levelo://app?vid=cddb2538-acdb-46a5-bc95-6e0a8d74ef0c","ios":"levelo://app?vid=cddb2538-acdb-46a5-bc95-6e0a8d74ef0c"},"vehicle_type_id":"4","last_reported":1729260488,"current_range_meters":30800,"station_id":"ce4bhph2rcd13ifvqheg","pricing_plan_id":"cebpf4jnsgd1na2vs0mg"},{"bike_id":"6e848f13-df44-4a93-8a40-e555356f31da","system_id":"levelo_inurba_marseille","lat":43.2905,"lon":5.35917,"is_reserved":false,"is_disabled":false,"rental_uris":{"android":"levelo://app?vid=6e848f13-df44-4a93-8a40-e555356f31da","ios":"levelo://app?vid=6e848f13-df44-4a93-8a40-e555356f31da"},"vehicle_type_id":"4","last_reported":1729260488,"current_range_meters":28400,"station_id":"ce4bha92rcd13ifvqeg0","pricing_plan_id":"cebpf4jnsgd1na2vs0mg"},{"bike_id":"a12b17dc-9398-4e4c-8e04-8ccdff1e768c","system_id":"levelo_inurba_marseille","lat":43.28365,"lon":5.38631,"is_reserved":false,"is_disabled":false,"rental_uris":{"android":"levelo://app?vid=a12b17dc-9398-4e4c-8e04-8ccdff1e768c","ios":"levelo://app?vid=a12b17dc-9398-4e4c-8e04-8ccdff1e768c"},"vehicle_type_id":"4","last_reported":1729260488,"current_range_meters":21600,"station_id":"ce4bh492rcd13ifvqdvg","pricing_plan_id":"cebpf4jnsgd1na2vs0mg"},{"bike_id":"1641b826-604a-4181-8231-dca386f637a6","system_id":"levelo_inurba_marseille","lat":43.23186,"lon":5.35553,"is_reserved":false,"is_disabled":false,"rental_uris":{"android":"levelo://app?vid=1641b826-604a-4181-8231-dca386f637a6","ios":"levelo://app?vid=1641b826-604a-4181-8231-dca386f637a6"},"vehicle_type_id":"4","last_reported":1729260488,"current_range_meters":28800,"station_id":"ce4bhu92rcd13ifvqi70","pricing_plan_id":"cebpf4jnsgd1na2vs0mg"},{"bike_id":"89211ee2-076f-4df3-92bd-cd8885f2e76d","system_id":"levelo_inurba_marseille","lat":43.23194,"lon":5.35556,"is_reserved":false,"is_disabled":false,"rental_uris":{"android":"levelo://app?vid=89211ee2-076f-4df3-92bd-cd8885f2e76d","ios":"levelo://app?vid=89211ee2-076f-4df3-92bd-cd8885f2e76d"},"vehicle_type_id":"4","last_reported":1729260488,"current_range_meters":28000,"station_id":"ce4bhu92rcd13ifvqi70","pricing_plan_id":"cebpf4jnsgd1na2vs0mg"},{"bike_id":"eb3f7db6-8fbf-4f4f-aeef-d767d6d6e3e2","system_id":"levelo_inurba_marseille","lat":43.27204,"lon":5.3918,"is_reserved":false,"is_disabled":false,"rental_uris":{"android":"levelo://app?vid=eb3f7db6-8fbf-4f4f-aeef-d767d6d6e3e2","ios":"levelo://app?vid=eb3f7db6-8fbf-4f4f-aeef-d767d6d6e3e2"},"vehicle_type_id":"4","last_reported":1729260488,"current_range_meters":8800,"station_id":"ce4bhhp2rcd13ifvqfm0","pricing_plan_id":"cebpf4jnsgd1na2vs0mg"},{"bike_id":"a91218a4-1ffd-4675-814c-60f6415a97d0","system_id":"levelo_inurba_marseille","lat":43.257897,"lon":5.410081,"is_reserved":false,"is_disabled":false,"rental_uris":{"android":"levelo://app?vid=a91218a4-1ffd-4675-814c-60f6415a97d0","ios":"levelo://app?vid=a91218a4-1ffd-4675-814c-60f6415a97d0"},"vehicle_type_id":"4","last_reported":1729260488,"current_range_meters":28800,"station_id":"ce4bhkp2rcd13ifvqgd0","pricing_plan_id":"cebpf4jnsgd1na2vs0mg"},{"bike_id":"918a11f3-b243-4e1a-aeec-8c83a805c239","system_id":"levelo_inurba_marseille","lat":43.28275,"lon":5.35083,"is_reserved":false,"is_disabled":false,"rental_uris":{"android":"levelo://app?vid=918a11f3-b243-4e1a-aeec-8c83a805c239","ios":"levelo://app?vid=918a11f3-b243-4e1a-aeec-8c83a805c239"},"vehicle_type_id":"4","last_reported":1729260488,"current_range_meters":38800,"station_id":"ce4bhbp2rcd13ifvqerg","pricing_plan_id":"cebpf4jnsgd1na2vs0mg"},{"bike_id":"4bde2823-0805-4d23-a761-2d98917883db","system_id":"levelo_inurba_marseille","lat":43.23956,"lon":5.36636,"is_reserved":false,"is_disabled":false,"rental_uris":{"android":"levelo://app?vid=4bde2823-0805-4d23-a761-2d98917883db","ios":"levelo://app?vid=4bde2823-0805-4d23-a761-2d98917883db"},"vehicle_type_id":"4","last_reported":1729260488,"current_range_meters":22000,"station_id":"ce4bhi12rcd13ifvqfp0","pricing_plan_id":"cebpf4jnsgd1na2vs0mg"},{"bike_id":"98d3c8bb-22e2-4a08-b8a2-daf908b220d5","system_id":"levelo_inurba_marseille","lat":43.29061,"lon":5.37163,"is_reserved":false,"is_disabled":false,"rental_uris":{"android":"levelo://app?vid=98d3c8bb-22e2-4a08-b8a2-daf908b220d5","ios":"levelo://app?vid=98d3c8bb-22e2-4a08-b8a2-daf908b220d5"},"vehicle_type_id":"4","last_reported":1729260488,"current_range_meters":12400,"station_id":"ce4bh5p2rcd13ifvqe4g","pricing_plan_id":"cebpf4jnsgd1na2vs0mg"},{"bike_id":"458722ae-46f7-4ec2-9679-058bc30a6a1a","system_id":"levelo_inurba_marseille","lat":43.31069,"lon":5.38351,"is_reserved":false,"is_disabled":false,"rental_uris":{"android":"levelo://app?vid=458722ae-46f7-4ec2-9679-058bc30a6a1a","ios":"levelo://app?vid=458722ae-46f7-4ec2-9679-058bc30a6a1a"},"vehicle_type_id":"4","last_reported":1729260488,"current_range_meters":36800,"station_id":"ce4bgv92rcd13ifvqcr0","pricing_plan_id":"cebpf4jnsgd1na2vs0mg"},{"bike_id":"bc58b94f-c3ab-468d-844d-7f4b0d8fa752","system_id":"levelo_inurba_marseille","lat":43.32656,"lon":5.40994,"is_reserved":false,"is_disabled":false,"rental_uris":{"android":"levelo://app?vid=bc58b94f-c3ab-468d-844d-7f4b0d8fa752","ios":"levelo://app?vid=bc58b94f-c3ab-468d-844d-7f4b0d8fa752"},"vehicle_type_id":"4","last_reported":1729260488,"current_range_meters":39200,"station_id":"ce4bhpp2rcd13ifvqhgg","pricing_plan_id":"cebpf4jnsgd1na2vs0mg"},{"bike_id":"ba3fead7-53fb-47e5-b5b1-6d5b3a92b7cb","system_id":"levelo_inurba_marseille","lat":43.29361,"lon":5.378545,"is_reserved":false,"is_disabled":false,"rental_uris":{"android":"levelo://app?vid=ba3fead7-53fb-47e5-b5b1-6d5b3a92b7cb","ios":"levelo://app?vid=ba3fead7-53fb-47e5-b5b1-6d5b3a92b7cb"},"vehicle_type_id":"4","last_reported":1729260488,"current_range_meters":36000,"station_id":"ce4bgjh2rcd13ifvqbf0","pricing_plan_id":"cebpf4jnsgd1na2vs0mg"},{"bike_id":"4cb6a8c7-659b-4f57-ae8d-a604bef697ca","system_id":"levelo_inurba_marseille","lat":43.29784,"lon":5.37103,"is_reserved":false,"is_disabled":false,"rental_uris":{"android":"levelo://app?vid=4cb6a8c7-659b-4f57-ae8d-a604bef697ca","ios":"levelo://app?vid=4cb6a8c7-659b-4f57-ae8d-a604bef697ca"},"vehicle_type_id":"4","last_reported":1729260488,"current_range_meters":33200,"station_id":"ce4bgop2rcd13ifvqc1g","pricing_plan_id":"cebpf4jnsgd1na2vs0mg"},{"bike_id":"9bdb5919-d96d-4b16-9f22-31bf96471670","system_id":"levelo_inurba_marseille","lat":43.26678,"lon":5.38271,"is_reserved":false,"is_disabled":false,"rental_uris":{"android":"levelo://app?vid=9bdb5919-d96d-4b16-9f22-31bf96471670","ios":"levelo://app?vid=9bdb5919-d96d-4b16-9f22-31bf96471670"},"vehicle_type_id":"4","last_reported":1729260488,"current_range_meters":38000,"station_id":"ce4bhg92rcd13ifvqf90","pricing_plan_id":"cebpf4jnsgd1na2vs0mg"},{"bike_id":"b3e6e423-6c67-4aa9-b0f8-4ce841857eee","system_id":"levelo_inurba_marseille","lat":43.29005,"lon":5.35606,"is_reserved":false,"is_disabled":false,"rental_uris":{"android":"levelo://app?vid=b3e6e423-6c67-4aa9-b0f8-4ce841857eee","ios":"levelo://app?vid=b3e6e423-6c67-4aa9-b0f8-4ce841857eee"},"vehicle_type_id":"4","last_reported":1729260488,"current_range_meters":37600,"station_id":"ce4bhb92rcd13ifvqen0","pricing_plan_id":"cebpf4jnsgd1na2vs0mg"},{"bike_id":"422d485a-ee3c-4fc3-b2c4-fc8dab31d119","system_id":"levelo_inurba_marseille","lat":43.2396,"lon":5.36631,"is_reserved":false,"is_disabled":false,"rental_uris":{"android":"levelo://app?vid=422d485a-ee3c-4fc3-b2c4-fc8dab31d119","ios":"levelo://app?vid=422d485a-ee3c-4fc3-b2c4-fc8dab31d119"},"vehicle_type_id":"4","last_reported":1729260488,"current_range_meters":14400,"station_id":"ce4bhi12rcd13ifvqfp0","pricing_plan_id":"cebpf4jnsgd1na2vs0mg"},{"bike_id":"6b642bb0-ecbd-4114-9765-55a0a71d3237","system_id":"levelo_inurba_marseille","lat":43.30944,"lon":5.36921,"is_reserved":false,"is_disabled":false,"rental_uris":{"android":"levelo://app?vid=6b642bb0-ecbd-4114-9765-55a0a71d3237","ios":"levelo://app?vid=6b642bb0-ecbd-4114-9765-55a0a71d3237"},"vehicle_type_id":"4","last_reported":1729260488,"current_range_meters":38000,"station_id":"ce4bgn92rcd13ifvqbvg","pricing_plan_id":"cebpf4jnsgd1na2vs0mg"},{"bike_id":"87440bd7-4730-412f-b52f-03b263c3d6ba","system_id":"levelo_inurba_marseille","lat":43.23191,"lon":5.35557,"is_reserved":false,"is_disabled":false,"rental_uris":{"android":"levelo://app?vid=87440bd7-4730-412f-b52f-03b263c3d6ba","ios":"levelo://app?vid=87440bd7-4730-412f-b52f-03b263c3d6ba"},"vehicle_type_id":"4","last_reported":1729260488,"current_range_meters":12400,"station_id":"ce4bhu92rcd13ifvqi70","pricing_plan_id":"cebpf4jnsgd1na2vs0mg"},{"bike_id":"9b4e48b5-6dfa-43ef-9af9-18ff7870d350","system_id":"levelo_inurba_marseille","lat":43.31172,"lon":5.38711,"is_reserved":false,"is_disabled":false,"rental_uris":{"android":"levelo://app?vid=9b4e48b5-6dfa-43ef-9af9-18ff7870d350","ios":"levelo://app?vid=9b4e48b5-6dfa-43ef-9af9-18ff7870d350"},"vehicle_type_id":"4","last_reported":1729260488,"current_range_meters":39200,"station_id":"ce4bgv12rcd13ifvqcp0","pricing_plan_id":"cebpf4jnsgd1na2vs0mg"},{"bike_id":"8e6784a6-c5c7-410e-8b96-a2b15e20620e","system_id":"levelo_inurba_marseille","lat":43.30604,"lon":5.37224,"is_reserved":false,"is_disabled":false,"rental_uris":{"android":"levelo://app?vid=8e6784a6-c5c7-410e-8b96-a2b15e20620e","ios":"levelo://app?vid=8e6784a6-c5c7-410e-8b96-a2b15e20620e"},"vehicle_type_id":"4","last_reported":1729260488,"current_range_meters":38800,"station_id":"ce4bgqh2rcd13ifvqc4g","pricing_plan_id":"cebpf4jnsgd1na2vs0mg"},{"bike_id":"f8495750-1404-456a-bb9d-3e718e009b60","system_id":"levelo_inurba_marseille","lat":43.25114,"lon":5.40319,"is_reserved":false,"is_disabled":false,"rental_uris":{"android":"levelo://app?vid=f8495750-1404-456a-bb9d-3e718e009b60","ios":"levelo://app?vid=f8495750-1404-456a-bb9d-3e718e009b60"},"vehicle_type_id":"4","last_reported":1729260488,"current_range_meters":12800,"station_id":"ce4bhlh2rcd13ifvqgig","pricing_plan_id":"cebpf4jnsgd1na2vs0mg"},{"bike_id":"df50999f-2c36-4645-8915-f1b914616dfc","system_id":"levelo_inurba_marseille","lat":43.32112,"lon":5.36765,"is_reserved":false,"is_disabled":false,"rental_uris":{"android":"levelo://app?vid=df50999f-2c36-4645-8915-f1b914616dfc","ios":"levelo://app?vid=df50999f-2c36-4645-8915-f1b914616dfc"},"vehicle_type_id":"4","last_reported":1729260488,"current_range_meters":28000,"station_id":"ce4bhrh2rcd13ifvqhug","pricing_plan_id":"cebpf4jnsgd1na2vs0mg"},{"bike_id":"f1108100-f667-42b9-8300-7ac540b9f970","system_id":"levelo_inurba_marseille","lat":43.29278,"lon":5.40123,"is_reserved":false,"is_disabled":false,"rental_uris":{"android":"levelo://app?vid=f1108100-f667-42b9-8300-7ac540b9f970","ios":"levelo://app?vid=f1108100-f667-42b9-8300-7ac540b9f970"},"vehicle_type_id":"4","last_reported":1729260488,"current_range_meters":24400,"station_id":"ce4bh312rcd13ifvqdk0","pricing_plan_id":"cebpf4jnsgd1na2vs0mg"},{"bike_id":"1b1a444a-1a66-4302-8189-a77ce483f46d","system_id":"levelo_inurba_marseille","lat":43.26212,"lon":5.37448,"is_reserved":false,"is_disabled":false,"rental_uris":{"android":"levelo://app?vid=1b1a444a-1a66-4302-8189-a77ce483f46d","ios":"levelo://app?vid=1b1a444a-1a66-4302-8189-a77ce483f46d"},"vehicle_type_id":"4","last_reported":1729260488,"current_range_meters":36000,"station_id":"ce4bhgp2rcd13ifvqfc0","pricing_plan_id":"cebpf4jnsgd1na2vs0mg"},{"bike_id":"5dea50a4-1d92-4427-a32b-1890395130ff","system_id":"levelo_inurba_marseille","lat":43.27365,"lon":5.3625,"is_reserved":false,"is_disabled":false,"rental_uris":{"android":"levelo://app?vid=5dea50a4-1d92-4427-a32b-1890395130ff","ios":"levelo://app?vid=5dea50a4-1d92-4427-a32b-1890395130ff"},"vehicle_type_id":"4","last_reported":1729260488,"current_range_meters":39200,"station_id":"ce4bhbh2rcd13ifvqeo0","pricing_plan_id":"cebpf4jnsgd1na2vs0mg"},{"bike_id":"c23403d1-a246-4cd7-93d3-bac0d8d33665","system_id":"levelo_inurba_marseille","lat":43.26681,"lon":5.38271,"is_reserved":false,"is_disabled":false,"rental_uris":{"android":"levelo://app?vid=c23403d1-a246-4cd7-93d3-bac0d8d33665","ios":"levelo://app?vid=c23403d1-a246-4cd7-93d3-bac0d8d33665"},"vehicle_type_id":"4","last_reported":1729260488,"current_range_meters":38800,"station_id":"ce4bhg92rcd13ifvqf90","pricing_plan_id":"cebpf4jnsgd1na2vs0mg"},{"bike_id":"2d1cc5f2-8585-46d7-8f3b-ab560ed54f24","system_id":"levelo_inurba_marseille","lat":43.27982,"lon":5.38736,"is_reserved":false,"is_disabled":false,"rental_uris":{"android":"levelo://app?vid=2d1cc5f2-8585-46d7-8f3b-ab560ed54f24","ios":"levelo://app?vid=2d1cc5f2-8585-46d7-8f3b-ab560ed54f24"},"vehicle_type_id":"4","last_reported":1729260488,"current_range_meters":2800,"station_id":"ce4bhg12rcd13ifvqf80","pricing_plan_id":"cebpf4jnsgd1na2vs0mg"},{"bike_id":"908a7267-f22a-4e8f-be2f-0c2edc4bd6c8","system_id":"levelo_inurba_marseille","lat":43.2717,"lon":5.41001,"is_reserved":false,"is_disabled":false,"rental_uris":{"android":"levelo://app?vid=908a7267-f22a-4e8f-be2f-0c2edc4bd6c8","ios":"levelo://app?vid=908a7267-f22a-4e8f-be2f-0c2edc4bd6c8"},"vehicle_type_id":"4","last_reported":1729260488,"current_range_meters":21600,"station_id":"ce4bhl12rcd13ifvqgf0","pricing_plan_id":"cebpf4jnsgd1na2vs0mg"},{"bike_id":"38e46808-5ff9-43c9-bbe8-fefe6ece3407","system_id":"levelo_inurba_marseille","lat":43.28425,"lon":5.34993,"is_reserved":false,"is_disabled":false,"rental_uris":{"android":"levelo://app?vid=38e46808-5ff9-43c9-bbe8-fefe6ece3407","ios":"levelo://app?vid=38e46808-5ff9-43c9-bbe8-fefe6ece3407"},"vehicle_type_id":"4","last_reported":1729260488,"current_range_meters":20000,"station_id":"ce4bhbh2rcd13ifvqepg","pricing_plan_id":"cebpf4jnsgd1na2vs0mg"},{"bike_id":"a0d1f48f-4d8d-4385-8400-04795ef1f250","system_id":"levelo_inurba_marseille","lat":43.26559,"lon":5.37285,"is_reserved":false,"is_disabled":false,"rental_uris":{"android":"levelo://app?vid=a0d1f48f-4d8d-4385-8400-04795ef1f250","ios":"levelo://app?vid=a0d1f48f-4d8d-4385-8400-04795ef1f250"},"vehicle_type_id":"4","last_reported":1729260488,"current_range_meters":38400,"station_id":"ce4bhg12rcd13ifvqf70","pricing_plan_id":"cebpf4jnsgd1na2vs0mg"},{"bike_id":"5352c1d9-f7fc-4960-b3e1-825ebee36908","system_id":"levelo_inurba_marseille","lat":43.26805,"lon":5.40277,"is_reserved":false,"is_disabled":false,"rental_uris":{"android":"levelo://app?vid=5352c1d9-f7fc-4960-b3e1-825ebee36908","ios":"levelo://app?vid=5352c1d9-f7fc-4960-b3e1-825ebee36908"},"vehicle_type_id":"4","last_reported":1729260488,"current_range_meters":27200,"station_id":"ce501612rcd8frsf0b60","pricing_plan_id":"cebpf4jnsgd1na2vs0mg"},{"bike_id":"a9295dde-ceb4-4ca6-940b-7dd28fc752be","system_id":"levelo_inurba_marseille","lat":43.32481,"lon":5.36558,"is_reserved":false,"is_disabled":false,"rental_uris":{"android":"levelo://app?vid=a9295dde-ceb4-4ca6-940b-7dd28fc752be","ios":"levelo://app?vid=a9295dde-ceb4-4ca6-940b-7dd28fc752be"},"vehicle_type_id":"4","last_reported":1729260488,"current_range_meters":22800,"station_id":"ce4bhs12rcd13ifvqhvg","pricing_plan_id":"cebpf4jnsgd1na2vs0mg"},{"bike_id":"292b9425-1372-40d4-bf0a-fe57aa779a41","system_id":"levelo_inurba_marseille","lat":43.23053,"lon":5.35509,"is_reserved":false,"is_disabled":false,"rental_uris":{"android":"levelo://app?vid=292b9425-1372-40d4-bf0a-fe57aa779a41","ios":"levelo://app?vid=292b9425-1372-40d4-bf0a-fe57aa779a41"},"vehicle_type_id":"4","last_reported":1729260488,"current_range_meters":17200,"station_id":"cpo3342slgdg3j2ifvpg","pricing_plan_id":"cebpf4jnsgd1na2vs0mg"},{"bike_id":"3ed38786-470d-411a-80d4-a7d4d45bb2a0","system_id":"levelo_inurba_marseille","lat":43.26562,"lon":5.37277,"is_reserved":false,"is_disabled":false,"rental_uris":{"android":"levelo://app?vid=3ed38786-470d-411a-80d4-a7d4d45bb2a0","ios":"levelo://app?vid=3ed38786-470d-411a-80d4-a7d4d45bb2a0"},"vehicle_type_id":"4","last_reported":1729260488,"current_range_meters":33600,"station_id":"ce4bhg12rcd13ifvqf70","pricing_plan_id":"cebpf4jnsgd1na2vs0mg"},{"bike_id":"ca1b6973-02f2-460b-89b4-be09e371fec2","system_id":"levelo_inurba_marseille","lat":43.296051,"lon":5.377216,"is_reserved":false,"is_disabled":false,"rental_uris":{"android":"levelo://app?vid=ca1b6973-02f2-460b-89b4-be09e371fec2","ios":"levelo://app?vid=ca1b6973-02f2-460b-89b4-be09e371fec2"},"vehicle_type_id":"4","last_reported":1729260488,"current_range_meters":16400,"station_id":"ce4bgi92rcd13ifvqb90","pricing_plan_id":"cebpf4jnsgd1na2vs0mg"},{"bike_id":"ce69f5a3-381f-4fe0-85a4-5e734388eafa","system_id":"levelo_inurba_marseille","lat":43.27816,"lon":5.40716,"is_reserved":false,"is_disabled":false,"rental_uris":{"android":"levelo://app?vid=ce69f5a3-381f-4fe0-85a4-5e734388eafa","ios":"levelo://app?vid=ce69f5a3-381f-4fe0-85a4-5e734388eafa"},"vehicle_type_id":"4","last_reported":1729260488,"current_range_meters":29600,"station_id":"ce4bhnh2rcd13ifvqgtg","pricing_plan_id":"cebpf4jnsgd1na2vs0mg"},{"bike_id":"0c819c01-6eb9-418f-b34e-284bb2e615f0","system_id":"levelo_inurba_marseille","lat":43.3042,"lon":5.41281,"is_reserved":false,"is_disabled":false,"rental_uris":{"android":"levelo://app?vid=0c819c01-6eb9-418f-b34e-284bb2e615f0","ios":"levelo://app?vid=0c819c01-6eb9-418f-b34e-284bb2e615f0"},"vehicle_type_id":"4","last_reported":1729260488,"current_range_meters":16000,"station_id":"ce4bhop2rcd13ifvqh8g","pricing_plan_id":"cebpf4jnsgd1na2vs0mg"},{"bike_id":"b45deb77-5a2f-4959-a9c9-736119b28fb6","system_id":"levelo_inurba_marseille","lat":43.28427,"lon":5.34982,"is_reserved":false,"is_disabled":false,"rental_uris":{"android":"levelo://app?vid=b45deb77-5a2f-4959-a9c9-736119b28fb6","ios":"levelo://app?vid=b45deb77-5a2f-4959-a9c9-736119b28fb6"},"vehicle_type_id":"4","last_reported":1729260488,"current_range_meters":36400,"station_id":"ce4bhbh2rcd13ifvqepg","pricing_plan_id":"cebpf4jnsgd1na2vs0mg"},{"bike_id":"3c6bb0f2-3938-4727-ac60-0bc8fdb3bc39","system_id":"levelo_inurba_marseille","lat":43.28615,"lon":5.37056,"is_reserved":false,"is_disabled":false,"rental_uris":{"android":"levelo://app?vid=3c6bb0f2-3938-4727-ac60-0bc8fdb3bc39","ios":"levelo://app?vid=3c6bb0f2-3938-4727-ac60-0bc8fdb3bc39"},"vehicle_type_id":"4","last_reported":1729260488,"current_range_meters":22400,"station_id":"ce4bht12rcd13ifvqi60","pricing_plan_id":"cebpf4jnsgd1na2vs0mg"},{"bike_id":"e3ca7803-aaa7-4ddf-8937-86afb5d1cee8","system_id":"levelo_inurba_marseille","lat":43.3171,"lon":5.437,"is_reserved":false,"is_disabled":false,"rental_uris":{"android":"levelo://app?vid=e3ca7803-aaa7-4ddf-8937-86afb5d1cee8","ios":"levelo://app?vid=e3ca7803-aaa7-4ddf-8937-86afb5d1cee8"},"vehicle_type_id":"4","last_reported":1729260488,"current_range_meters":38800,"station_id":"ce4bhp92rcd13ifvqhcg","pricing_plan_id":"cebpf4jnsgd1na2vs0mg"},{"bike_id":"87a62a5a-6731-4ae0-88c0-85b276181ce1","system_id":"levelo_inurba_marseille","lat":43.26219,"lon":5.37446,"is_reserved":false,"is_disabled":false,"rental_uris":{"android":"levelo://app?vid=87a62a5a-6731-4ae0-88c0-85b276181ce1","ios":"levelo://app?vid=87a62a5a-6731-4ae0-88c0-85b276181ce1"},"vehicle_type_id":"4","last_reported":1729260488,"current_range_meters":26800,"station_id":"ce4bhgp2rcd13ifvqfc0","pricing_plan_id":"cebpf4jnsgd1na2vs0mg"},{"bike_id":"e21595e1-b1b9-462e-a301-60868bfc4062","system_id":"levelo_inurba_marseille","lat":43.25866,"lon":5.39896,"is_reserved":false,"is_disabled":false,"rental_uris":{"android":"levelo://app?vid=e21595e1-b1b9-462e-a301-60868bfc4062","ios":"levelo://app?vid=e21595e1-b1b9-462e-a301-60868bfc4062"},"vehicle_type_id":"4","last_reported":1729260488,"current_range_meters":38800,"station_id":"ce4bhl92rcd13ifvqghg","pricing_plan_id":"cebpf4jnsgd1na2vs0mg"},{"bike_id":"c16e903c-fc46-4f61-85df-8813be6861dc","system_id":"levelo_inurba_marseille","lat":43.25121,"lon":5.40315,"is_reserved":false,"is_disabled":false,"rental_uris":{"android":"levelo://app?vid=c16e903c-fc46-4f61-85df-8813be6861dc","ios":"levelo://app?vid=c16e903c-fc46-4f61-85df-8813be6861dc"},"vehicle_type_id":"4","last_reported":1729260488,"current_range_meters":12400,"station_id":"ce4bhlh2rcd13ifvqgig","pricing_plan_id":"cebpf4jnsgd1na2vs0mg"},{"bike_id":"19389fe6-838b-410a-886d-e2d15f6134b7","system_id":"levelo_inurba_marseille","lat":43.29678,"lon":5.36455,"is_reserved":false,"is_disabled":false,"rental_uris":{"android":"levelo://app?vid=19389fe6-838b-410a-886d-e2d15f6134b7","ios":"levelo://app?vid=19389fe6-838b-410a-886d-e2d15f6134b7"},"vehicle_type_id":"4","last_reported":1729260488,"current_range_meters":4000,"station_id":"","pricing_plan_id":"cebpf4jnsgd1na2vs0mg"},{"bike_id":"3664398f-378f-46f2-bd12-30042ad8db9d","system_id":"levelo_inurba_marseille","lat":43.23187,"lon":5.39978,"is_reserved":false,"is_disabled":false,"rental_uris":{"android":"levelo://app?vid=3664398f-378f-46f2-bd12-30042ad8db9d","ios":"levelo://app?vid=3664398f-378f-46f2-bd12-30042ad8db9d"},"vehicle_type_id":"4","last_reported":1729260488,"current_range_meters":29600,"station_id":"ce4bhn12rcd13ifvqgqg","pricing_plan_id":"cebpf4jnsgd1na2vs0mg"},{"bike_id":"4d71f6f2-7a8b-49ee-8e11-5827b3bbb72d","system_id":"levelo_inurba_marseille","lat":43.29616,"lon":5.37731,"is_reserved":false,"is_disabled":false,"rental_uris":{"android":"levelo://app?vid=4d71f6f2-7a8b-49ee-8e11-5827b3bbb72d","ios":"levelo://app?vid=4d71f6f2-7a8b-49ee-8e11-5827b3bbb72d"},"vehicle_type_id":"4","last_reported":1729260488,"current_range_meters":30400,"station_id":"ce4bgi92rcd13ifvqb90","pricing_plan_id":"cebpf4jnsgd1na2vs0mg"},{"bike_id":"a9d80141-cb04-4f88-bcc5-9763572e3517","system_id":"levelo_inurba_marseille","lat":43.23194,"lon":5.35546,"is_reserved":false,"is_disabled":false,"rental_uris":{"android":"levelo://app?vid=a9d80141-cb04-4f88-bcc5-9763572e3517","ios":"levelo://app?vid=a9d80141-cb04-4f88-bcc5-9763572e3517"},"vehicle_type_id":"4","last_reported":1729260488,"current_range_meters":28000,"station_id":"ce4bhu92rcd13ifvqi70","pricing_plan_id":"cebpf4jnsgd1na2vs0mg"},{"bike_id":"3ab31a18-af13-40ac-ae62-308000937349","system_id":"levelo_inurba_marseille","lat":43.25493,"lon":5.37643,"is_reserved":false,"is_disabled":false,"rental_uris":{"android":"levelo://app?vid=3ab31a18-af13-40ac-ae62-308000937349","ios":"levelo://app?vid=3ab31a18-af13-40ac-ae62-308000937349"},"vehicle_type_id":"4","last_reported":1729260488,"current_range_meters":32000,"station_id":"ce4bhh12rcd13ifvqff0","pricing_plan_id":"cebpf4jnsgd1na2vs0mg"},{"bike_id":"41dc868c-79a3-4a7f-92c5-3249dd0648e5","system_id":"levelo_inurba_marseille","lat":43.27205,"lon":5.39186,"is_reserved":false,"is_disabled":false,"rental_uris":{"android":"levelo://app?vid=41dc868c-79a3-4a7f-92c5-3249dd0648e5","ios":"levelo://app?vid=41dc868c-79a3-4a7f-92c5-3249dd0648e5"},"vehicle_type_id":"4","last_reported":1729260488,"current_range_meters":17200,"station_id":"ce4bhhp2rcd13ifvqfm0","pricing_plan_id":"cebpf4jnsgd1na2vs0mg"},{"bike_id":"d7e2a574-d234-4ea8-a4ee-fe4b60b7ca12","system_id":"levelo_inurba_marseille","lat":43.26199,"lon":5.37933,"is_reserved":false,"is_disabled":false,"rental_uris":{"android":"levelo://app?vid=d7e2a574-d234-4ea8-a4ee-fe4b60b7ca12","ios":"levelo://app?vid=d7e2a574-d234-4ea8-a4ee-fe4b60b7ca12"},"vehicle_type_id":"4","last_reported":1729260488,"current_range_meters":38000,"station_id":"ce4bhjp2rcd13ifvqg90","pricing_plan_id":"cebpf4jnsgd1na2vs0mg"},{"bike_id":"92ed6ea8-0488-443c-ab33-71b715b608a1","system_id":"levelo_inurba_marseille","lat":43.23957,"lon":5.36651,"is_reserved":false,"is_disabled":false,"rental_uris":{"android":"levelo://app?vid=92ed6ea8-0488-443c-ab33-71b715b608a1","ios":"levelo://app?vid=92ed6ea8-0488-443c-ab33-71b715b608a1"},"vehicle_type_id":"4","last_reported":1729260488,"current_range_meters":6000,"station_id":"ce4bhi12rcd13ifvqfp0","pricing_plan_id":"cebpf4jnsgd1na2vs0mg"},{"bike_id":"fd495570-0604-40fb-9f36-3e2dfe8010cf","system_id":"levelo_inurba_marseille","lat":43.25498,"lon":5.3765,"is_reserved":false,"is_disabled":false,"rental_uris":{"android":"levelo://app?vid=fd495570-0604-40fb-9f36-3e2dfe8010cf","ios":"levelo://app?vid=fd495570-0604-40fb-9f36-3e2dfe8010cf"},"vehicle_type_id":"4","last_reported":1729260488,"current_range_meters":38800,"station_id":"ce4bhh12rcd13ifvqff0","pricing_plan_id":"cebpf4jnsgd1na2vs0mg"},{"bike_id":"4d25dcad-5428-4640-be44-6f83b2f0ccb6","system_id":"levelo_inurba_marseille","lat":43.29539,"lon":5.37506,"is_reserved":false,"is_disabled":false,"rental_uris":{"android":"levelo://app?vid=4d25dcad-5428-4640-be44-6f83b2f0ccb6","ios":"levelo://app?vid=4d25dcad-5428-4640-be44-6f83b2f0ccb6"},"vehicle_type_id":"4","last_reported":1729260488,"current_range_meters":32000,"station_id":"ce4bgkp2rcd13ifvqbmg","pricing_plan_id":"cebpf4jnsgd1na2vs0mg"},{"bike_id":"88bd48d3-aa63-49aa-a146-5137b03bcd9e","system_id":"levelo_inurba_marseille","lat":43.26552,"lon":5.37288,"is_reserved":false,"is_disabled":false,"rental_uris":{"android":"levelo://app?vid=88bd48d3-aa63-49aa-a146-5137b03bcd9e","ios":"levelo://app?vid=88bd48d3-aa63-49aa-a146-5137b03bcd9e"},"vehicle_type_id":"4","last_reported":1729260488,"current_range_meters":12000,"station_id":"ce4bhg12rcd13ifvqf70","pricing_plan_id":"cebpf4jnsgd1na2vs0mg"},{"bike_id":"e696baec-9182-4cbd-96bf-1c6979927b31","system_id":"levelo_inurba_marseille","lat":43.27945,"lon":5.41054,"is_reserved":false,"is_disabled":false,"rental_uris":{"android":"levelo://app?vid=e696baec-9182-4cbd-96bf-1c6979927b31","ios":"levelo://app?vid=e696baec-9182-4cbd-96bf-1c6979927b31"},"vehicle_type_id":"4","last_reported":1729260488,"current_range_meters":12000,"station_id":"ce4bhnp2rcd13ifvqh0g","pricing_plan_id":"cebpf4jnsgd1na2vs0mg"},{"bike_id":"d41309ab-1a1f-4395-acaa-455483c3f8e1","system_id":"levelo_inurba_marseille","lat":43.23199,"lon":5.35558,"is_reserved":false,"is_disabled":false,"rental_uris":{"android":"levelo://app?vid=d41309ab-1a1f-4395-acaa-455483c3f8e1","ios":"levelo://app?vid=d41309ab-1a1f-4395-acaa-455483c3f8e1"},"vehicle_type_id":"4","last_reported":1729260488,"current_range_meters":30800,"station_id":"ce4bhu92rcd13ifvqi70","pricing_plan_id":"cebpf4jnsgd1na2vs0mg"},{"bike_id":"d1c20ab7-5a76-456c-9900-c9bca7b178aa","system_id":"levelo_inurba_marseille","lat":43.28431,"lon":5.34991,"is_reserved":false,"is_disabled":false,"rental_uris":{"android":"levelo://app?vid=d1c20ab7-5a76-456c-9900-c9bca7b178aa","ios":"levelo://app?vid=d1c20ab7-5a76-456c-9900-c9bca7b178aa"},"vehicle_type_id":"4","last_reported":1729260488,"current_range_meters":8000,"station_id":"ce4bhbh2rcd13ifvqepg","pricing_plan_id":"cebpf4jnsgd1na2vs0mg"},{"bike_id":"4d10104a-dde3-457b-97c2-39bb81969051","system_id":"levelo_inurba_marseille","lat":43.32047,"lon":5.41532,"is_reserved":false,"is_disabled":false,"rental_uris":{"android":"levelo://app?vid=4d10104a-dde3-457b-97c2-39bb81969051","ios":"levelo://app?vid=4d10104a-dde3-457b-97c2-39bb81969051"},"vehicle_type_id":"4","last_reported":1729260488,"current_range_meters":38800,"station_id":"ce4bhq92rcd13ifvqhkg","pricing_plan_id":"cebpf4jnsgd1na2vs0mg"},{"bike_id":"12e7275f-82d6-4e54-bc00-8ef5bd02d0f0","system_id":"levelo_inurba_marseille","lat":43.26574,"lon":5.39007,"is_reserved":false,"is_disabled":false,"rental_uris":{"android":"levelo://app?vid=12e7275f-82d6-4e54-bc00-8ef5bd02d0f0","ios":"levelo://app?vid=12e7275f-82d6-4e54-bc00-8ef5bd02d0f0"},"vehicle_type_id":"4","last_reported":1729260488,"current_range_meters":26800,"station_id":"ce4bhe12rcd13ifvqf30","pricing_plan_id":"cebpf4jnsgd1na2vs0mg"},{"bike_id":"b5aff8d7-ba3a-4f86-93cd-a66ab415c01a","system_id":"levelo_inurba_marseille","lat":43.31696,"lon":5.40476,"is_reserved":false,"is_disabled":false,"rental_uris":{"android":"levelo://app?vid=b5aff8d7-ba3a-4f86-93cd-a66ab415c01a","ios":"levelo://app?vid=b5aff8d7-ba3a-4f86-93cd-a66ab415c01a"},"vehicle_type_id":"4","last_reported":1729260488,"current_range_meters":36800,"station_id":"ce4bh012rcd13ifvqd00","pricing_plan_id":"cebpf4jnsgd1na2vs0mg"},{"bike_id":"8efdf593-ae5f-4ec4-9efe-d2f319d9d013","system_id":"levelo_inurba_marseille","lat":43.29619,"lon":5.37153,"is_reserved":false,"is_disabled":false,"rental_uris":{"android":"levelo://app?vid=8efdf593-ae5f-4ec4-9efe-d2f319d9d013","ios":"levelo://app?vid=8efdf593-ae5f-4ec4-9efe-d2f319d9d013"},"vehicle_type_id":"4","last_reported":1729260488,"current_range_meters":26800,"station_id":"ce4bgnh2rcd13ifvqc0g","pricing_plan_id":"cebpf4jnsgd1na2vs0mg"},{"bike_id":"30e534a4-be84-4d68-8a27-03119b573fb6","system_id":"levelo_inurba_marseille","lat":43.31361,"lon":5.36689,"is_reserved":false,"is_disabled":false,"rental_uris":{"android":"levelo://app?vid=30e534a4-be84-4d68-8a27-03119b573fb6","ios":"levelo://app?vid=30e534a4-be84-4d68-8a27-03119b573fb6"},"vehicle_type_id":"4","last_reported":1729260488,"current_range_meters":18800,"station_id":"ce4bgr92rcd13ifvqc6g","pricing_plan_id":"cebpf4jnsgd1na2vs0mg"},{"bike_id":"94e7b930-f9a2-4ef0-b013-586ebf7d9e70","system_id":"levelo_inurba_marseille","lat":43.31713,"lon":5.43709,"is_reserved":false,"is_disabled":false,"rental_uris":{"android":"levelo://app?vid=94e7b930-f9a2-4ef0-b013-586ebf7d9e70","ios":"levelo://app?vid=94e7b930-f9a2-4ef0-b013-586ebf7d9e70"},"vehicle_type_id":"4","last_reported":1729260488,"current_range_meters":11200,"station_id":"ce4bhp92rcd13ifvqhcg","pricing_plan_id":"cebpf4jnsgd1na2vs0mg"},{"bike_id":"8283e6a2-ca81-4b03-a198-8f68a9510e03","system_id":"levelo_inurba_marseille","lat":43.24167,"lon":5.36399,"is_reserved":false,"is_disabled":false,"rental_uris":{"android":"levelo://app?vid=8283e6a2-ca81-4b03-a198-8f68a9510e03","ios":"levelo://app?vid=8283e6a2-ca81-4b03-a198-8f68a9510e03"},"vehicle_type_id":"4","last_reported":1729260488,"current_range_meters":28000,"station_id":"cpo36qri1sfpv3e86is0","pricing_plan_id":"cebpf4jnsgd1na2vs0mg"},{"bike_id":"7092418f-b2af-40a6-86eb-439d3e716807","system_id":"levelo_inurba_marseille","lat":43.29011,"lon":5.35609,"is_reserved":false,"is_disabled":false,"rental_uris":{"android":"levelo://app?vid=7092418f-b2af-40a6-86eb-439d3e716807","ios":"levelo://app?vid=7092418f-b2af-40a6-86eb-439d3e716807"},"vehicle_type_id":"4","last_reported":1729260488,"current_range_meters":26000,"station_id":"ce4bhb92rcd13ifvqen0","pricing_plan_id":"cebpf4jnsgd1na2vs0mg"},{"bike_id":"9af8fbfe-4f52-4631-9930-e569be6e4929","system_id":"levelo_inurba_marseille","lat":43.28271,"lon":5.3507,"is_reserved":false,"is_disabled":false,"rental_uris":{"android":"levelo://app?vid=9af8fbfe-4f52-4631-9930-e569be6e4929","ios":"levelo://app?vid=9af8fbfe-4f52-4631-9930-e569be6e4929"},"vehicle_type_id":"4","last_reported":1729260488,"current_range_meters":12400,"station_id":"ce4bhbp2rcd13ifvqerg","pricing_plan_id":"cebpf4jnsgd1na2vs0mg"},{"bike_id":"be8c2fdc-e85b-4bd4-8d4b-fd64a9ddbb2e","system_id":"levelo_inurba_marseille","lat":43.29273,"lon":5.36854,"is_reserved":false,"is_disabled":false,"rental_uris":{"android":"levelo://app?vid=be8c2fdc-e85b-4bd4-8d4b-fd64a9ddbb2e","ios":"levelo://app?vid=be8c2fdc-e85b-4bd4-8d4b-fd64a9ddbb2e"},"vehicle_type_id":"4","last_reported":1729260488,"current_range_meters":30000,"station_id":"ce4bhbp2rcd13ifvqesg","pricing_plan_id":"cebpf4jnsgd1na2vs0mg"},{"bike_id":"1f4eaf3f-5960-4c61-a8db-6f42afd0180d","system_id":"levelo_inurba_marseille","lat":43.28448,"lon":5.39204,"is_reserved":false,"is_disabled":false,"rental_uris":{"android":"levelo://app?vid=1f4eaf3f-5960-4c61-a8db-6f42afd0180d","ios":"levelo://app?vid=1f4eaf3f-5960-4c61-a8db-6f42afd0180d"},"vehicle_type_id":"4","last_reported":1729260488,"current_range_meters":16400,"station_id":"ce4bhoh2rcd13ifvqh5g","pricing_plan_id":"cebpf4jnsgd1na2vs0mg"},{"bike_id":"12567185-2752-4c7c-9eda-58f3fa710c41","system_id":"levelo_inurba_marseille","lat":43.26743,"lon":5.38301,"is_reserved":false,"is_disabled":false,"rental_uris":{"android":"levelo://app?vid=12567185-2752-4c7c-9eda-58f3fa710c41","ios":"levelo://app?vid=12567185-2752-4c7c-9eda-58f3fa710c41"},"vehicle_type_id":"4","last_reported":1729260488,"current_range_meters":36800,"station_id":"ce4bhg92rcd13ifvqf90","pricing_plan_id":"cebpf4jnsgd1na2vs0mg"},{"bike_id":"a6e2c93e-d490-44e0-aaf0-4c17d4f821fd","system_id":"levelo_inurba_marseille","lat":43.23964,"lon":5.36633,"is_reserved":false,"is_disabled":false,"rental_uris":{"android":"levelo://app?vid=a6e2c93e-d490-44e0-aaf0-4c17d4f821fd","ios":"levelo://app?vid=a6e2c93e-d490-44e0-aaf0-4c17d4f821fd"},"vehicle_type_id":"4","last_reported":1729260488,"current_range_meters":22800,"station_id":"ce4bhi12rcd13ifvqfp0","pricing_plan_id":"cebpf4jnsgd1na2vs0mg"},{"bike_id":"20a7cc4c-8cf9-4286-99b0-89129c6c6b3a","system_id":"levelo_inurba_marseille","lat":43.32364,"lon":5.38885,"is_reserved":false,"is_disabled":false,"rental_uris":{"android":"levelo://app?vid=20a7cc4c-8cf9-4286-99b0-89129c6c6b3a","ios":"levelo://app?vid=20a7cc4c-8cf9-4286-99b0-89129c6c6b3a"},"vehicle_type_id":"4","last_reported":1729260488,"current_range_meters":30800,"station_id":"ce4bhqp2rcd13ifvqhog","pricing_plan_id":"cebpf4jnsgd1na2vs0mg"},{"bike_id":"faf95d6e-d6c4-472e-9c4a-35cbc75edc05","system_id":"levelo_inurba_marseille","lat":43.2706,"lon":5.40256,"is_reserved":false,"is_disabled":false,"rental_uris":{"android":"levelo://app?vid=faf95d6e-d6c4-472e-9c4a-35cbc75edc05","ios":"levelo://app?vid=faf95d6e-d6c4-472e-9c4a-35cbc75edc05"},"vehicle_type_id":"4","last_reported":1729260488,"current_range_meters":3200,"station_id":"ce4bhk92rcd13ifvqgc0","pricing_plan_id":"cebpf4jnsgd1na2vs0mg"},{"bike_id":"2da2516f-4b57-4227-9a62-63e923e24041","system_id":"levelo_inurba_marseille","lat":43.25001,"lon":5.38923,"is_reserved":false,"is_disabled":false,"rental_uris":{"android":"levelo://app?vid=2da2516f-4b57-4227-9a62-63e923e24041","ios":"levelo://app?vid=2da2516f-4b57-4227-9a62-63e923e24041"},"vehicle_type_id":"4","last_reported":1729260488,"current_range_meters":22400,"station_id":"ce4bhgp2rcd13ifvqfd0","pricing_plan_id":"cebpf4jnsgd1na2vs0mg"},{"bike_id":"f93454e1-a669-4c63-a4ca-b572042c7971","system_id":"levelo_inurba_marseille","lat":43.23194,"lon":5.35554,"is_reserved":false,"is_disabled":false,"rental_uris":{"android":"levelo://app?vid=f93454e1-a669-4c63-a4ca-b572042c7971","ios":"levelo://app?vid=f93454e1-a669-4c63-a4ca-b572042c7971"},"vehicle_type_id":"4","last_reported":1729260488,"current_range_meters":8400,"station_id":"ce4bhu92rcd13ifvqi70","pricing_plan_id":"cebpf4jnsgd1na2vs0mg"},{"bike_id":"9feebf6a-cf06-4283-9475-cface9a88761","system_id":"levelo_inurba_marseille","lat":43.30801,"lon":5.43519,"is_reserved":false,"is_disabled":false,"rental_uris":{"android":"levelo://app?vid=9feebf6a-cf06-4283-9475-cface9a88761","ios":"levelo://app?vid=9feebf6a-cf06-4283-9475-cface9a88761"},"vehicle_type_id":"4","last_reported":1729260488,"current_range_meters":33200,"station_id":"ce4bhph2rcd13ifvqheg","pricing_plan_id":"cebpf4jnsgd1na2vs0mg"},{"bike_id":"ef24c3b3-fa7d-45fb-9f09-ccd38e75e082","system_id":"levelo_inurba_marseille","lat":43.3117,"lon":5.38715,"is_reserved":false,"is_disabled":false,"rental_uris":{"android":"levelo://app?vid=ef24c3b3-fa7d-45fb-9f09-ccd38e75e082","ios":"levelo://app?vid=ef24c3b3-fa7d-45fb-9f09-ccd38e75e082"},"vehicle_type_id":"4","last_reported":1729260488,"current_range_meters":38800,"station_id":"ce4bgv12rcd13ifvqcp0","pricing_plan_id":"cebpf4jnsgd1na2vs0mg"},{"bike_id":"b1e38fa3-bc04-46dc-9334-d58520cc8bec","system_id":"levelo_inurba_marseille","lat":43.27677,"lon":5.42471,"is_reserved":false,"is_disabled":false,"rental_uris":{"android":"levelo://app?vid=b1e38fa3-bc04-46dc-9334-d58520cc8bec","ios":"levelo://app?vid=b1e38fa3-bc04-46dc-9334-d58520cc8bec"},"vehicle_type_id":"4","last_reported":1729260488,"current_range_meters":27600,"station_id":"","pricing_plan_id":"cebpf4jnsgd1na2vs0mg"},{"bike_id":"22b37876-70ac-4ba0-9001-79de88a5c4f9","system_id":"levelo_inurba_marseille","lat":43.33762,"lon":5.3744,"is_reserved":false,"is_disabled":false,"rental_uris":{"android":"levelo://app?vid=22b37876-70ac-4ba0-9001-79de88a5c4f9","ios":"levelo://app?vid=22b37876-70ac-4ba0-9001-79de88a5c4f9"},"vehicle_type_id":"4","last_reported":1729260488,"current_range_meters":33600,"station_id":"","pricing_plan_id":"cebpf4jnsgd1na2vs0mg"},{"bike_id":"c41c2c86-5b41-4498-aa79-334ae66457bc","system_id":"levelo_inurba_marseille","lat":43.29846,"lon":5.36277,"is_reserved":false,"is_disabled":false,"rental_uris":{"android":"levelo://app?vid=c41c2c86-5b41-4498-aa79-334ae66457bc","ios":"levelo://app?vid=c41c2c86-5b41-4498-aa79-334ae66457bc"},"vehicle_type_id":"4","last_reported":1729260488,"current_range_meters":38800,"station_id":"ce4bgpp2rcd13ifvqc3g","pricing_plan_id":"cebpf4jnsgd1na2vs0mg"},{"bike_id":"87a7d836-4630-4beb-b176-d7ee190ca106","system_id":"levelo_inurba_marseille","lat":43.2417,"lon":5.36396,"is_reserved":false,"is_disabled":false,"rental_uris":{"android":"levelo://app?vid=87a7d836-4630-4beb-b176-d7ee190ca106","ios":"levelo://app?vid=87a7d836-4630-4beb-b176-d7ee190ca106"},"vehicle_type_id":"4","last_reported":1729260488,"current_range_meters":28800,"station_id":"cpo36qri1sfpv3e86is0","pricing_plan_id":"cebpf4jnsgd1na2vs0mg"},{"bike_id":"9b78167b-ae5a-47c9-9d1b-58b45505fd1c","system_id":"levelo_inurba_marseille","lat":43.2417,"lon":5.36404,"is_reserved":false,"is_disabled":false,"rental_uris":{"android":"levelo://app?vid=9b78167b-ae5a-47c9-9d1b-58b45505fd1c","ios":"levelo://app?vid=9b78167b-ae5a-47c9-9d1b-58b45505fd1c"},"vehicle_type_id":"4","last_reported":1729260488,"current_range_meters":38800,"station_id":"cpo36qri1sfpv3e86is0","pricing_plan_id":"cebpf4jnsgd1na2vs0mg"},{"bike_id":"896fe0e3-6026-4192-bb2f-f919775be63d","system_id":"levelo_inurba_marseille","lat":43.30784,"lon":5.37641,"is_reserved":false,"is_disabled":false,"rental_uris":{"android":"levelo://app?vid=896fe0e3-6026-4192-bb2f-f919775be63d","ios":"levelo://app?vid=896fe0e3-6026-4192-bb2f-f919775be63d"},"vehicle_type_id":"4","last_reported":1729260488,"current_range_meters":38800,"station_id":"ce4bgv92rcd13ifvqcq0","pricing_plan_id":"cebpf4jnsgd1na2vs0mg"},{"bike_id":"8bddebcf-9bd8-4960-b212-f469bf9df7d9","system_id":"levelo_inurba_marseille","lat":43.28273,"lon":5.35065,"is_reserved":false,"is_disabled":false,"rental_uris":{"android":"levelo://app?vid=8bddebcf-9bd8-4960-b212-f469bf9df7d9","ios":"levelo://app?vid=8bddebcf-9bd8-4960-b212-f469bf9df7d9"},"vehicle_type_id":"4","last_reported":1729260488,"current_range_meters":12800,"station_id":"ce4bhbp2rcd13ifvqerg","pricing_plan_id":"cebpf4jnsgd1na2vs0mg"},{"bike_id":"f69af24b-a2f7-42cd-ba75-d2efae660907","system_id":"levelo_inurba_marseille","lat":43.31084,"lon":5.4243,"is_reserved":false,"is_disabled":false,"rental_uris":{"android":"levelo://app?vid=f69af24b-a2f7-42cd-ba75-d2efae660907","ios":"levelo://app?vid=f69af24b-a2f7-42cd-ba75-d2efae660907"},"vehicle_type_id":"4","last_reported":1729260488,"current_range_meters":33200,"station_id":"ce4bhp92rcd13ifvqhag","pricing_plan_id":"cebpf4jnsgd1na2vs0mg"},{"bike_id":"0efb87e6-e6db-4887-8631-8d7539cd2cd9","system_id":"levelo_inurba_marseille","lat":43.26553,"lon":5.37285,"is_reserved":false,"is_disabled":false,"rental_uris":{"android":"levelo://app?vid=0efb87e6-e6db-4887-8631-8d7539cd2cd9","ios":"levelo://app?vid=0efb87e6-e6db-4887-8631-8d7539cd2cd9"},"vehicle_type_id":"4","last_reported":1729260488,"current_range_meters":32000,"station_id":"ce4bhg12rcd13ifvqf70","pricing_plan_id":"cebpf4jnsgd1na2vs0mg"},{"bike_id":"f61e25b1-853e-464f-bd0f-238416877e7d","system_id":"levelo_inurba_marseille","lat":43.33749,"lon":5.37465,"is_reserved":false,"is_disabled":false,"rental_uris":{"android":"levelo://app?vid=f61e25b1-853e-464f-bd0f-238416877e7d","ios":"levelo://app?vid=f61e25b1-853e-464f-bd0f-238416877e7d"},"vehicle_type_id":"4","last_reported":1729260488,"current_range_meters":36800,"station_id":"","pricing_plan_id":"cebpf4jnsgd1na2vs0mg"},{"bike_id":"41cd0dcc-b181-4205-b453-5a8260b94b06","system_id":"levelo_inurba_marseille","lat":43.29617,"lon":5.37724,"is_reserved":false,"is_disabled":false,"rental_uris":{"android":"levelo://app?vid=41cd0dcc-b181-4205-b453-5a8260b94b06","ios":"levelo://app?vid=41cd0dcc-b181-4205-b453-5a8260b94b06"},"vehicle_type_id":"4","last_reported":1729260488,"current_range_meters":32000,"station_id":"ce4bgi92rcd13ifvqb90","pricing_plan_id":"cebpf4jnsgd1na2vs0mg"},{"bike_id":"ff6be656-7cbd-467b-86bc-bc0b8b568d21","system_id":"levelo_inurba_marseille","lat":43.29669,"lon":5.3729,"is_reserved":false,"is_disabled":false,"rental_uris":{"android":"levelo://app?vid=ff6be656-7cbd-467b-86bc-bc0b8b568d21","ios":"levelo://app?vid=ff6be656-7cbd-467b-86bc-bc0b8b568d21"},"vehicle_type_id":"4","last_reported":1729260488,"current_range_meters":30000,"station_id":"ce4bgk12rcd13ifvqbj0","pricing_plan_id":"cebpf4jnsgd1na2vs0mg"},{"bike_id":"6b2f6c48-e1d2-4711-8d8d-304e5d17a738","system_id":"levelo_inurba_marseille","lat":43.27322,"lon":5.39114,"is_reserved":false,"is_disabled":false,"rental_uris":{"android":"levelo://app?vid=6b2f6c48-e1d2-4711-8d8d-304e5d17a738","ios":"levelo://app?vid=6b2f6c48-e1d2-4711-8d8d-304e5d17a738"},"vehicle_type_id":"4","last_reported":1729260488,"current_range_meters":3200,"station_id":"ce4bhgp2rcd13ifvqfe0","pricing_plan_id":"cebpf4jnsgd1na2vs0mg"},{"bike_id":"0acd75ca-842a-4eca-a0ca-69a2e1ffe1f9","system_id":"levelo_inurba_marseille","lat":43.295227,"lon":5.392685,"is_reserved":false,"is_disabled":false,"rental_uris":{"android":"levelo://app?vid=0acd75ca-842a-4eca-a0ca-69a2e1ffe1f9","ios":"levelo://app?vid=0acd75ca-842a-4eca-a0ca-69a2e1ffe1f9"},"vehicle_type_id":"4","last_reported":1729260488,"current_range_meters":8000,"station_id":"ce4bho92rcd13ifvqh3g","pricing_plan_id":"cebpf4jnsgd1na2vs0mg"},{"bike_id":"9441912c-9e5c-4e48-82dc-53d5133fce10","system_id":"levelo_inurba_marseille","lat":43.31461,"lon":5.37823,"is_reserved":false,"is_disabled":false,"rental_uris":{"android":"levelo://app?vid=9441912c-9e5c-4e48-82dc-53d5133fce10","ios":"levelo://app?vid=9441912c-9e5c-4e48-82dc-53d5133fce10"},"vehicle_type_id":"4","last_reported":1729260488,"current_range_meters":3600,"station_id":"","pricing_plan_id":"cebpf4jnsgd1na2vs0mg"},{"bike_id":"333d6603-e75b-44c9-8dcc-f13568f96f04","system_id":"levelo_inurba_marseille","lat":43.29166,"lon":5.37164,"is_reserved":false,"is_disabled":false,"rental_uris":{"android":"levelo://app?vid=333d6603-e75b-44c9-8dcc-f13568f96f04","ios":"levelo://app?vid=333d6603-e75b-44c9-8dcc-f13568f96f04"},"vehicle_type_id":"4","last_reported":1729260488,"current_range_meters":17600,"station_id":"ce4bha92rcd13ifvqeh0","pricing_plan_id":"cebpf4jnsgd1na2vs0mg"},{"bike_id":"23ce90b5-fd02-4e77-81f9-e67033a87ab8","system_id":"levelo_inurba_marseille","lat":43.27317,"lon":5.39078,"is_reserved":false,"is_disabled":false,"rental_uris":{"android":"levelo://app?vid=23ce90b5-fd02-4e77-81f9-e67033a87ab8","ios":"levelo://app?vid=23ce90b5-fd02-4e77-81f9-e67033a87ab8"},"vehicle_type_id":"4","last_reported":1729260488,"current_range_meters":38400,"station_id":"ce4bhgp2rcd13ifvqfe0","pricing_plan_id":"cebpf4jnsgd1na2vs0mg"},{"bike_id":"e26dccbc-83fd-46bb-854c-4bac4b8dc630","system_id":"levelo_inurba_marseille","lat":43.301819,"lon":5.373543,"is_reserved":false,"is_disabled":false,"rental_uris":{"android":"levelo://app?vid=e26dccbc-83fd-46bb-854c-4bac4b8dc630","ios":"levelo://app?vid=e26dccbc-83fd-46bb-854c-4bac4b8dc630"},"vehicle_type_id":"4","last_reported":1729260488,"current_range_meters":26800,"station_id":"ce4bgs92rcd13ifvqcc0","pricing_plan_id":"cebpf4jnsgd1na2vs0mg"},{"bike_id":"4502493b-2199-4790-a55e-150832784c75","system_id":"levelo_inurba_marseille","lat":43.292969,"lon":5.374642,"is_reserved":false,"is_disabled":false,"rental_uris":{"android":"levelo://app?vid=4502493b-2199-4790-a55e-150832784c75","ios":"levelo://app?vid=4502493b-2199-4790-a55e-150832784c75"},"vehicle_type_id":"4","last_reported":1729260488,"current_range_meters":26800,"station_id":"ce4bgi12rcd13ifvqb70","pricing_plan_id":"cebpf4jnsgd1na2vs0mg"},{"bike_id":"e07c25aa-8a76-474f-8938-a84dfcd7d019","system_id":"levelo_inurba_marseille","lat":43.27622,"lon":5.36112,"is_reserved":false,"is_disabled":false,"rental_uris":{"android":"levelo://app?vid=e07c25aa-8a76-474f-8938-a84dfcd7d019","ios":"levelo://app?vid=e07c25aa-8a76-474f-8938-a84dfcd7d019"},"vehicle_type_id":"4","last_reported":1729260488,"current_range_meters":17600,"station_id":"ce4bgj92rcd13ifvqbe0","pricing_plan_id":"cebpf4jnsgd1na2vs0mg"},{"bike_id":"bc134d2d-37be-4b04-96be-db71fa4ee6c9","system_id":"levelo_inurba_marseille","lat":43.30322,"lon":5.404415,"is_reserved":false,"is_disabled":false,"rental_uris":{"android":"levelo://app?vid=bc134d2d-37be-4b04-96be-db71fa4ee6c9","ios":"levelo://app?vid=bc134d2d-37be-4b04-96be-db71fa4ee6c9"},"vehicle_type_id":"4","last_reported":1729260488,"current_range_meters":38800,"station_id":"ce4bh012rcd13ifvqd10","pricing_plan_id":"cebpf4jnsgd1na2vs0mg"},{"bike_id":"918c7a2a-a4ec-4c2f-9515-3c7ec0006f1e","system_id":"levelo_inurba_marseille","lat":43.30534,"lon":5.36546,"is_reserved":false,"is_disabled":false,"rental_uris":{"android":"levelo://app?vid=918c7a2a-a4ec-4c2f-9515-3c7ec0006f1e","ios":"levelo://app?vid=918c7a2a-a4ec-4c2f-9515-3c7ec0006f1e"},"vehicle_type_id":"4","last_reported":1729260488,"current_range_meters":12400,"station_id":"ce4bgs12rcd13ifvqcag","pricing_plan_id":"cebpf4jnsgd1na2vs0mg"},