{"last_updated":1758215324,"ttl":60,"version":"2.2","data":{"bikes":[{"bike_id":"a783f5f7-9c31-423f-bb51-7a2c5cc587fa","system_id":"levelo_inurba_marseille","lat":43.29683,"lon":5.37294,"is_reserved":false,"is_disabled":false,"rental_uris":{"android":"levelo://app?vid=a783f5f7-9c31-423f-bb51-7a2c5cc587fa","ios":"levelo://app?vid=a783f5f7-9c31-423f-bb51-7a2c5cc587fa"},"vehicle_type_id":"4","last_reported":1758215324,"current_range_meters":2800,"station_id":"ce4bgk12rcd13ifvqbj0","pricing_plan_id":"cebpf4jnsgd1na2vs0mg"},{"bike_id":"61ba0f1c-51b9-450c-868e-e326170c7a03","system_id":"levelo_inurba_marseille","lat":43.27615,"lon":5.36105,"is_reserved":false,"is_disabled":false,"rental_uris":{"android":"levelo://app?vid=61ba0f1c-51b9-450c-868e-e326170c7a03","ios":"levelo://app?vid=61ba0f1c-51b9-450c-868e-e326170c7a03"},"vehicle_type_id":"4","last_reported":1758215324,"current_range_meters":2000,"station_id":"ce4bgj92rcd13ifvqbe0","pricing_plan_id":"cebpf4jnsgd1na2vs0mg"},{"bike_id":"c50cf70f-f1b0-45b4-845c-7e711878c1e9","system_id":"levelo_inurba_marseille","lat":43.30121,"lon":5.38782,"is_reserved":false,"is_disabled":false,"rental_uris":{"android":"levelo://app?vid=c50cf70f-f1b0-45b4-845c-7e711878c1e9","ios":"levelo://app?vid=c50cf70f-f1b0-45b4-845c-7e711878c1e9"},"vehicle_type_id":"4","last_reported":1758215324,"current_range_meters":2800,"station_id":"","pricing_plan_id":"cebpf4jnsgd1na2vs0mg"},{"bike_id":"dbd23cf4-ae5b-4d5d-97e1-211949b1ac88","system_id":"levelo_inurba_marseille","lat":43.29023,"lon":5.3865,"is_reserved":false,"is_disabled":false,"rental_uris":{"android":"levelo://app?vid=dbd23cf4-ae5b-4d5d-97e1-211949b1ac88","ios":"levelo://app?vid=dbd23cf4-ae5b-4d5d-97e1-211949b1ac88"},"vehicle_type_id":"4","last_reported":1758215324,"current_range_meters":2800,"station_id":"ce4bh4p2rcd13ifvqe0g","pricing_plan_id":"cebpf4jnsgd1na2vs0mg"},{"bike_id":"382993a0-8c60-4c5f-a4da-154f7468b059","system_id":"levelo_inurba_marseille","lat":43.26569,"lon":5.39027,"is_reserved":false,"is_disabled":false,"rental_uris":{"android":"levelo://app?vid=382993a0-8c60-4c5f-a4da-154f7468b059","ios":"levelo://app?vid=382993a0-8c60-4c5f-a4da-154f7468b059"},"vehicle_type_id":"4","last_reported":1758215324,"current_range_meters":3200,"station_id":"ce4bhe12rcd13ifvqf30","pricing_plan_id":"cebpf4jnsgd1na2vs0mg"},{"bike_id":"b2086849-0239-41e7-9af1-e47b840e1830","system_id":"levelo_inurba_marseille","lat":43.30143,"lon":5.38767,"is_reserved":false,"is_disabled":false,"rental_uris":{"android":"levelo://app?vid=b2086849-0239-41e7-9af1-e47b840e1830","ios":"levelo://app?vid=b2086849-0239-41e7-9af1-e47b840e1830"},"vehicle_type_id":"4","last_reported":1758215324,"current_range_meters":3600,"station_id":"","pricing_plan_id":"cebpf4jnsgd1na2vs0mg"},{"bike_id":"83767ece-a14f-4b7b-b26e-19b48c86af71","system_id":"levelo_inurba_marseille","lat":43.30722,"lon":5.42432,"is_reserved":false,"is_disabled":false,"rental_uris":{"android":"levelo://app?vid=83767ece-a14f-4b7b-b26e-19b48c86af71","ios":"levelo://app?vid=83767ece-a14f-4b7b-b26e-19b48c86af71"},"vehicle_type_id":"4","last_reported":1758215324,"current_range_meters":3600,"station_id":"st_cvj6ca6bvosntc0bfgr0","pricing_plan_id":"cebpf4jnsgd1na2vs0mg"},{"bike_id":"e13adbb4-a4f9-4d82-b39f-586917b4c1e8","system_id":"levelo_inurba_marseille","lat":43.287088,"lon":5.373963,"is_reserved":false,"is_disabled":false,"rental_uris":{"android":"levelo://app?vid=e13adbb4-a4f9-4d82-b39f-586917b4c1e8","ios":"levelo://app?vid=e13adbb4-a4f9-4d82-b39f-586917b4c1e8"},"vehicle_type_id":"4","last_reported":1758215324,"current_range_meters":3600,"station_id":"ce4bh3p2rcd13ifvqdq0","pricing_plan_id":"cebpf4jnsgd1na2vs0mg"},{"bike_id":"74f632bd-d323-49dd-828b-5328d4429505","system_id":"levelo_inurba_marseille","lat":43.30133,"lon":5.38779,"is_reserved":false,"is_disabled":false,"rental_uris":{"android":"levelo://app?vid=74f632bd-d323-49dd-828b-5328d4429505","ios":"levelo://app?vid=74f632bd-d323-49dd-828b-5328d4429505"},"vehicle_type_id":"4","last_reported":1758215324,"current_range_meters":3600,"station_id":"ce4bghh2rcd13ifvqb60","pricing_plan_id":"cebpf4jnsgd1na2vs0mg"},{"bike_id":"b6a849af-ac5e-4a53-b7a0-1ab6f8274914","system_id":"levelo_inurba_marseille","lat":43.29618,"lon":5.37711,"is_reserved":false,"is_disabled":true,"rental_uris":{"android":"levelo://app?vid=b6a849af-ac5e-4a53-b7a0-1ab6f8274914","ios":"levelo://app?vid=b6a849af-ac5e-4a53-b7a0-1ab6f8274914"},"vehicle_type_id":"4","last_reported":1758215324,"current_range_meters":3600,"station_id":"","pricing_plan_id":"cebpf4jnsgd1na2vs0mg"},{"bike_id":"ea75a451-9b9f-4ce9-983c-5d55fcf8fb42","system_id":"levelo_inurba_marseille","lat":43.257256,"lon":5.411065,"is_reserved":false,"is_disabled":false,"rental_uris":{"android":"levelo://app?vid=ea75a451-9b9f-4ce9-983c-5d55fcf8fb42","ios":"levelo://app?vid=ea75a451-9b9f-4ce9-983c-5d55fcf8fb42"},"vehicle_type_id":"4","last_reported":1758215324,"current_range_meters":4000,"station_id":"ce4bhkp2rcd13ifvqgd0","pricing_plan_id":"cebpf4jnsgd1na2vs0mg"},{"bike_id":"5b1a3548-4384-418f-b6b2-16eb93ba4829","system_id":"levelo_inurba_marseille","lat":43.28659,"lon":5.36343,"is_reserved":false,"is_disabled":true,"rental_uris":{"android":"levelo://app?vid=5b1a3548-4384-418f-b6b2-16eb93ba4829","ios":"levelo://app?vid=5b1a3548-4384-418f-b6b2-16eb93ba4829"},"vehicle_type_id":"4","last_reported":1758215324,"current_range_meters":4000,"station_id":"ce4bhah2rcd13ifvqej0","pricing_plan_id":"cebpf4jnsgd1na2vs0mg"},{"bike_id":"a0b54020-9493-4a8e-8aac-dca6f2c5bb86","system_id":"levelo_inurba_marseille","lat":43.32333,"lon":5.40623,"is_reserved":false,"is_disabled":false,"rental_uris":{"android":"levelo://app?vid=a0b54020-9493-4a8e-8aac-dca6f2c5bb86","ios":"levelo://app?vid=a0b54020-9493-4a8e-8aac-dca6f2c5bb86"},"vehicle_type_id":"4","last_reported":1758215324,"current_range_meters":4000,"station_id":"ce4bhq92rcd13ifvqhjg","pricing_plan_id":"cebpf4jnsgd1na2vs0mg"},{"bike_id":"0447291b-7cb3-4bb7-8bb8-81808618b2fe","system_id":"levelo_inurba_marseille","lat":43.26223,"lon":5.40456,"is_reserved":false,"is_disabled":false,"rental_uris":{"android":"levelo://app?vid=0447291b-7cb3-4bb7-8bb8-81808618b2fe","ios":"levelo://app?vid=0447291b-7cb3-4bb7-8bb8-81808618b2fe"},"vehicle_type_id":"4","last_reported":1758215324,"current_range_meters":4000,"station_id":"ce4bhmh2rcd13ifvqgmg","pricing_plan_id":"cebpf4jnsgd1na2vs0mg"},{"bike_id":"2877d870-3d7d-4435-a8cf-b896398b3338","system_id":"levelo_inurba_marseille","lat":43.292014,"lon":5.393292,"is_reserved":false,"is_disabled":false,"rental_uris":{"android":"levelo://app?vid=2877d870-3d7d-4435-a8cf-b896398b3338","ios":"levelo://app?vid=2877d870-3d7d-4435-a8cf-b896398b3338"},"vehicle_type_id":"4","last_reported":1758215324,"current_range_meters":4000,"station_id":"ce4bh192rcd13ifvqdd0","pricing_plan_id":"cebpf4jnsgd1na2vs0mg"},{"bike_id":"775af279-8ac9-4585-9121-809be9b13265","system_id":"levelo_inurba_marseille","lat":43.33807,"lon":5.37465,"is_reserved":false,"is_disabled":false,"rental_uris":{"android":"levelo://app?vid=775af279-8ac9-4585-9121-809be9b13265","ios":"levelo://app?vid=775af279-8ac9-4585-9121-809be9b13265"},"vehicle_type_id":"4","last_reported":1758215324,"current_range_meters":4400,"station_id":"","pricing_plan_id":"cebpf4jnsgd1na2vs0mg"},{"bike_id":"f6f829bf-f7d3-4113-a059-40ff4bef9cde","system_id":"levelo_inurba_marseille","lat":43.29589,"lon":5.38114,"is_reserved":false,"is_disabled":false,"rental_uris":{"android":"levelo://app?vid=f6f829bf-f7d3-4113-a059-40ff4bef9cde","ios":"levelo://app?vid=f6f829bf-f7d3-4113-a059-40ff4bef9cde"},"vehicle_type_id":"4","last_reported":1758215324,"current_range_meters":4400,"station_id":"","pricing_plan_id":"cebpf4jnsgd1na2vs0mg"},{"bike_id":"5d56f274-8118-421b-bb60-11ce9f649b00","system_id":"levelo_inurba_marseille","lat":43.23961,"lon":5.36633,"is_reserved":false,"is_disabled":false,"rental_uris":{"android":"levelo://app?vid=5d56f274-8118-421b-bb60-11ce9f649b00","ios":"levelo://app?vid=5d56f274-8118-421b-bb60-11ce9f649b00"},"vehicle_type_id":"4","last_reported":1758215324,"current_range_meters":4800,"station_id":"ce4bhi12rcd13ifvqfp0","pricing_plan_id":"cebpf4jnsgd1na2vs0mg"},{"bike_id":"e7e48340-73c0-48a2-a586-378ed1e37c37","system_id":"levelo_inurba_marseille","lat":43.29269,"lon":5.36854,"is_reserved":false,"is_disabled":false,"rental_uris":{"android":"levelo://app?vid=e7e48340-73c0-48a2-a586-378ed1e37c37","ios":"levelo://app?vid=e7e48340-73c0-48a2-a586-378ed1e37c37"},"vehicle_type_id":"4","last_reported":1758215324,"current_range_meters":4800,"station_id":"ce4bhbp2rcd13ifvqesg","pricing_plan_id":"cebpf4jnsgd1na2vs0mg"},{"bike_id":"059c0ba7-1dcb-4f29-8d05-6060640937cc","system_id":"levelo_inurba_marseille","lat":43.3293,"lon":5.39098,"is_reserved":false,"is_disabled":false,"rental_uris":{"android":"levelo://app?vid=059c0ba7-1dcb-4f29-8d05-6060640937cc","ios":"levelo://app?vid=059c0ba7-1dcb-4f29-8d05-6060640937cc"},"vehicle_type_id":"4","last_reported":1758215324,"current_range_meters":4800,"station_id":"","pricing_plan_id":"cebpf4jnsgd1na2vs0mg"},{"bike_id":"e4866abf-7b6c-485b-a3fa-c4b24c73d8b9","system_id":"levelo_inurba_marseille","lat":43.25086,"lon":5.39491,"is_reserved":false,"is_disabled":true,"rental_uris":{"android":"levelo://app?vid=e4866abf-7b6c-485b-a3fa-c4b24c73d8b9","ios":"levelo://app?vid=e4866abf-7b6c-485b-a3fa-c4b24c73d8b9"},"vehicle_type_id":"4","last_reported":1758215324,"current_range_meters":4800,"station_id":"ce4bhm12rcd13ifvqgkg","pricing_plan_id":"cebpf4jnsgd1na2vs0mg"},{"bike_id":"ed462a54-e503-4e88-9411-7ebbafb02d31","system_id":"levelo_inurba_marseille","lat":43.29605,"lon":5.3811,"is_reserved":false,"is_disabled":false,"rental_uris":{"android":"levelo://app?vid=ed462a54-e503-4e88-9411-7ebbafb02d31","ios":"levelo://app?vid=ed462a54-e503-4e88-9411-7ebbafb02d31"},"vehicle_type_id":"4","last_reported":1758215324,"current_range_meters":4800,"station_id":"","pricing_plan_id":"cebpf4jnsgd1na2vs0mg"},{"bike_id":"90880271-3c5a-4e07-9ef3-d9edc496b2c1","system_id":"levelo_inurba_marseille","lat":43.28459,"lon":5.35883,"is_reserved":false,"is_disabled":false,"rental_uris":{"android":"levelo://app?vid=90880271-3c5a-4e07-9ef3-d9edc496b2c1","ios":"levelo://app?vid=90880271-3c5a-4e07-9ef3-d9edc496b2c1"},"vehicle_type_id":"4","last_reported":1758215324,"current_range_meters":5600,"station_id":"ce4bhah2rcd13ifvqei0","pricing_plan_id":"cebpf4jnsgd1na2vs0mg"},{"bike_id":"30410edb-5c2d-4550-9559-31903cc33c84","system_id":"levelo_inurba_marseille","lat":43.26054,"lon":5.39401,"is_reserved":false,"is_disabled":false,"rental_uris":{"android":"levelo://app?vid=30410edb-5c2d-4550-9559-31903cc33c84","ios":"levelo://app?vid=30410edb-5c2d-4550-9559-31903cc33c84"},"vehicle_type_id":"4","last_reported":1758215324,"current_range_meters":5600,"station_id":"ce4bhh92rcd13ifvqfj0","pricing_plan_id":"cebpf4jnsgd1na2vs0mg"},{"bike_id":"70edc04e-87c6-45ce-9a8e-beb73fb6fb32","system_id":"levelo_inurba_marseille","lat":43.28718,"lon":5.37943,"is_reserved":false,"is_disabled":false,"rental_uris":{"android":"levelo://app?vid=70edc04e-87c6-45ce-9a8e-beb73fb6fb32","ios":"levelo://app?vid=70edc04e-87c6-45ce-9a8e-beb73fb6fb32"},"vehicle_type_id":"4","last_reported":1758215324,"current_range_meters":5600,"station_id":"ce4bh9p2rcd13ifvqec0","pricing_plan_id":"cebpf4jnsgd1na2vs0mg"},{"bike_id":"7ef7d5d1-3f7e-402a-8cbf-d02230728c07","system_id":"levelo_inurba_marseille","lat":43.29531,"lon":5.37513,"is_reserved":false,"is_disabled":false,"rental_uris":{"android":"levelo://app?vid=7ef7d5d1-3f7e-402a-8cbf-d02230728c07","ios":"levelo://app?vid=7ef7d5d1-3f7e-402a-8cbf-d02230728c07"},"vehicle_type_id":"4","last_reported":1758215324,"current_range_meters":6000,"station_id":"","pricing_plan_id":"cebpf4jnsgd1na2vs0mg"},{"bike_id":"a05daa3d-5275-4bde-be1c-be6dd340adac","system_id":"levelo_inurba_marseille","lat":43.23148,"lon":5.43708,"is_reserved":false,"is_disabled":false,"rental_uris":{"android":"levelo://app?vid=a05daa3d-5275-4bde-be1c-be6dd340adac","ios":"levelo://app?vid=a05daa3d-5275-4bde-be1c-be6dd340adac"},"vehicle_type_id":"4","last_reported":1758215324,"current_range_meters":6000,"station_id":"ce4bhmp2rcd13ifvqgog","pricing_plan_id":"cebpf4jnsgd1na2vs0mg"},{"bike_id":"e820c689-e974-4315-9bed-010e44b9c698","system_id":"levelo_inurba_marseille","lat":43.28121,"lon":5.35029,"is_reserved":false,"is_disabled":false,"rental_uris":{"android":"levelo://app?vid=e820c689-e974-4315-9bed-010e44b9c698","ios":"levelo://app?vid=e820c689-e974-4315-9bed-010e44b9c698"},"vehicle_type_id":"4","last_reported":1758215324,"current_range_meters":6400,"station_id":"","pricing_plan_id":"cebpf4jnsgd1na2vs0mg"},{"bike_id":"731fe0dd-0f00-4d30-8932-49cd3a2e29b2","system_id":"levelo_inurba_marseille","lat":43.28938,"lon":5.36641,"is_reserved":false,"is_disabled":false,"rental_uris":{"android":"levelo://app?vid=731fe0dd-0f00-4d30-8932-49cd3a2e29b2","ios":"levelo://app?vid=731fe0dd-0f00-4d30-8932-49cd3a2e29b2"},"vehicle_type_id":"4","last_reported":1758215324,"current_range_meters":6000,"station_id":"ce4bhap2rcd13ifvqek0","pricing_plan_id":"cebpf4jnsgd1na2vs0mg"},{"bike_id":"7a52d7f7-5b01-4df2-a497-8a626c1bc03d","system_id":"levelo_inurba_marseille","lat":43.28352,"lon":5.38106,"is_reserved":false,"is_disabled":false,"rental_uris":{"android":"levelo://app?vid=7a52d7f7-5b01-4df2-a497-8a626c1bc03d","ios":"levelo://app?vid=7a52d7f7-5b01-4df2-a497-8a626c1bc03d"},"vehicle_type_id":"4","last_reported":1758215324,"current_range_meters":6400,"station_id":"ce4bh412rcd13ifvqdr0","pricing_plan_id":"cebpf4jnsgd1na2vs0mg"},{"bike_id":"3441cffa-a7c3-486f-834a-3f61c74248d7","system_id":"levelo_inurba_marseille","lat":43.3024,"lon":5.40061,"is_reserved":false,"is_disabled":false,"rental_uris":{"android":"levelo://app?vid=3441cffa-a7c3-486f-834a-3f61c74248d7","ios":"levelo://app?vid=3441cffa-a7c3-486f-834a-3f61c74248d7"},"vehicle_type_id":"4","last_reported":1758215324,"current_range_meters":6400,"station_id":"ce4bgvh2rcd13ifvqcs0","pricing_plan_id":"cebpf4jnsgd1na2vs0mg"},{"bike_id":"5cebaa99-7be9-4a3f-9cc0-5cdfdaef03f0","system_id":"levelo_inurba_marseille","lat":43.225319,"lon":5.348348,"is_reserved":false,"is_disabled":false,"rental_uris":{"android":"levelo://app?vid=5cebaa99-7be9-4a3f-9cc0-5cdfdaef03f0","ios":"levelo://app?vid=5cebaa99-7be9-4a3f-9cc0-5cdfdaef03f0"},"vehicle_type_id":"4","last_reported":1758215324,"current_range_meters":6400,"station_id":"","pricing_plan_id":"cebpf4jnsgd1na2vs0mg"},{"bike_id":"25b2da70-3345-491c-80f8-92888481b5a8","system_id":"levelo_inurba_marseille","lat":43.30155,"lon":5.37428,"is_reserved":false,"is_disabled":true,"rental_uris":{"android":"levelo://app?vid=25b2da70-3345-491c-80f8-92888481b5a8","ios":"levelo://app?vid=25b2da70-3345-491c-80f8-92888481b5a8"},"vehicle_type_id":"4","last_reported":1758215324,"current_range_meters":6400,"station_id":"","pricing_plan_id":"cebpf4jnsgd1na2vs0mg"},{"bike_id":"7f77cd42-9ede-4bb1-b3e5-a267d8b449be","system_id":"levelo_inurba_marseille","lat":43.290455,"lon":5.359282,"is_reserved":false,"is_disabled":false,"rental_uris":{"android":"levelo://app?vid=7f77cd42-9ede-4bb1-b3e5-a267d8b449be","ios":"levelo://app?vid=7f77cd42-9ede-4bb1-b3e5-a267d8b449be"},"vehicle_type_id":"4","last_reported":1758215324,"current_range_meters":6800,"station_id":"ce4bha92rcd13ifvqeg0","pricing_plan_id":"cebpf4jnsgd1na2vs0mg"},{"bike_id":"537146fd-77f3-4a7e-aef6-61209f803e53","system_id":"levelo_inurba_marseille","lat":43.3033,"lon":5.37721,"is_reserved":false,"is_disabled":true,"rental_uris":{"android":"levelo://app?vid=537146fd-77f3-4a7e-aef6-61209f803e53","ios":"levelo://app?vid=537146fd-77f3-4a7e-aef6-61209f803e53"},"vehicle_type_id":"4","last_reported":1758215324,"current_range_meters":6800,"station_id":"","pricing_plan_id":"cebpf4jnsgd1na2vs0mg"},{"bike_id":"cc703f61-31ff-40a6-ae5f-0d17286e1be4","system_id":"levelo_inurba_marseille","lat":43.27994,"lon":5.40009,"is_reserved":false,"is_disabled":false,"rental_uris":{"android":"levelo://app?vid=cc703f61-31ff-40a6-ae5f-0d17286e1be4","ios":"levelo://app?vid=cc703f61-31ff-40a6-ae5f-0d17286e1be4"},"vehicle_type_id":"4","last_reported":1758215324,"current_range_meters":6800,"station_id":"ce4bho92rcd13ifvqh4g","pricing_plan_id":"cebpf4jnsgd1na2vs0mg"},{"bike_id":"003515e8-8117-44bb-979d-5f47e8d50fda","system_id":"levelo_inurba_marseille","lat":43.30641,"lon":5.37591,"is_reserved":false,"is_disabled":false,"rental_uris":{"android":"levelo://app?vid=003515e8-8117-44bb-979d-5f47e8d50fda","ios":"levelo://app?vid=003515e8-8117-44bb-979d-5f47e8d50fda"},"vehicle_type_id":"4","last_reported":1758215324,"current_range_meters":7200,"station_id":"","pricing_plan_id":"cebpf4jnsgd1na2vs0mg"},{"bike_id":"3948922d-b009-4a7e-9dc0-d8395dd70a8f","system_id":"levelo_inurba_marseille","lat":43.279104,"lon":5.412095,"is_reserved":false,"is_disabled":false,"rental_uris":{"android":"levelo://app?vid=3948922d-b009-4a7e-9dc0-d8395dd70a8f","ios":"levelo://app?vid=3948922d-b009-4a7e-9dc0-d8395dd70a8f"},"vehicle_type_id":"4","last_reported":1758215324,"current_range_meters":7200,"station_id":"","pricing_plan_id":"cebpf4jnsgd1na2vs0mg"},{"bike_id":"81ea6637-4118-4bfe-b01c-7d60e0449db6","system_id":"levelo_inurba_marseille","lat":43.29595,"lon":5.37708,"is_reserved":false,"is_disabled":true,"rental_uris":{"android":"levelo://app?vid=81ea6637-4118-4bfe-b01c-7d60e0449db6","ios":"levelo://app?vid=81ea6637-4118-4bfe-b01c-7d60e0449db6"},"vehicle_type_id":"4","last_reported":1758215324,"current_range_meters":7200,"station_id":"","pricing_plan_id":"cebpf4jnsgd1na2vs0mg"},{"bike_id":"1f287015-2248-4b66-8c7e-d97fdf73917d","system_id":"levelo_inurba_marseille","lat":43.27066,"lon":5.42278,"is_reserved":false,"is_disabled":false,"rental_uris":{"android":"levelo://app?vid=1f287015-2248-4b66-8c7e-d97fdf73917d","ios":"levelo://app?vid=1f287015-2248-4b66-8c7e-d97fdf73917d"},"vehicle_type_id":"4","last_reported":1758215324,"current_range_meters":7200,"station_id":"ce4bhk92rcd13ifvqgb0","pricing_plan_id":"cebpf4jnsgd1na2vs0mg"},{"bike_id":"a3de2fd2-66bd-482d-8c7a-3205970c4f72","system_id":"levelo_inurba_marseille","lat":43.26545,"lon":5.37307,"is_reserved":false,"is_disabled":true,"rental_uris":{"android":"levelo://app?vid=a3de2fd2-66bd-482d-8c7a-3205970c4f72","ios":"levelo://app?vid=a3de2fd2-66bd-482d-8c7a-3205970c4f72"},"vehicle_type_id":"4","last_reported":1758215324,"current_range_meters":8000,"station_id":"ce4bhg12rcd13ifvqf70","pricing_plan_id":"cebpf4jnsgd1na2vs0mg"},{"bike_id":"190d0825-c1b9-4efd-8a03-d87285d4a5b6","system_id":"levelo_inurba_marseille","lat":43.29813,"lon":5.37737,"is_reserved":false,"is_disabled":false,"rental_uris":{"android":"levelo://app?vid=190d0825-c1b9-4efd-8a03-d87285d4a5b6","ios":"levelo://app?vid=190d0825-c1b9-4efd-8a03-d87285d4a5b6"},"vehicle_type_id":"4","last_reported":1758215324,"current_range_meters":8000,"station_id":"","pricing_plan_id":"cebpf4jnsgd1na2vs0mg"},{"bike_id":"4ef0c8a4-5692-4444-9132-df7c8daa202b","system_id":"levelo_inurba_marseille","lat":43.28149,"lon":5.42646,"is_reserved":false,"is_disabled":false,"rental_uris":{"android":"levelo://app?vid=4ef0c8a4-5692-4444-9132-df7c8daa202b","ios":"levelo://app?vid=4ef0c8a4-5692-4444-9132-df7c8daa202b"},"vehicle_type_id":"4","last_reported":1758215324,"current_range_meters":8000,"station_id":"ce4bhnh2rcd13ifvqgug","pricing_plan_id":"cebpf4jnsgd1na2vs0mg"},{"bike_id":"f97bda25-e66e-4738-bbc4-8aaf12ba8570","system_id":"levelo_inurba_marseille","lat":43.31883,"lon":5.40735,"is_reserved":false,"is_disabled":false,"rental_uris":{"android":"levelo://app?vid=f97bda25-e66e-4738-bbc4-8aaf12ba8570","ios":"levelo://app?vid=f97bda25-e66e-4738-bbc4-8aaf12ba8570"},"vehicle_type_id":"4","last_reported":1758215324,"current_range_meters":8000,"station_id":"ce4bhq12rcd13ifvqhig","pricing_plan_id":"cebpf4jnsgd1na2vs0mg"},{"bike_id":"206687dc-2f70-49b2-824d-e3a708a72833","system_id":"levelo_inurba_marseille","lat":43.30327,"lon":5.4044,"is_reserved":false,"is_disabled":false,"rental_uris":{"android":"levelo://app?vid=206687dc-2f70-49b2-824d-e3a708a72833","ios":"levelo://app?vid=206687dc-2f70-49b2-824d-e3a708a72833"},"vehicle_type_id":"4","last_reported":1758215324,"current_range_meters":7200,"station_id":"ce4bh012rcd13ifvqd10","pricing_plan_id":"cebpf4jnsgd1na2vs0mg"},{"bike_id":"30bf0cd8-e919-42e6-a337-4b1a8f1949cd","system_id":"levelo_inurba_marseille","lat":43.30138,"lon":5.37419,"is_reserved":false,"is_disabled":true,"rental_uris":{"android":"levelo://app?vid=30bf0cd8-e919-42e6-a337-4b1a8f1949cd","ios":"levelo://app?vid=30bf0cd8-e919-42e6-a337-4b1a8f1949cd"},"vehicle_type_id":"4","last_reported":1758215324,"current_range_meters":8400,"station_id":"","pricing_plan_id":"cebpf4jnsgd1na2vs0mg"},{"bike_id":"34204743-a723-4435-950f-16b638938353","system_id":"levelo_inurba_marseille","lat":43.22566,"lon":5.41626,"is_reserved":false,"is_disabled":false,"rental_uris":{"android":"levelo://app?vid=34204743-a723-4435-950f-16b638938353","ios":"levelo://app?vid=34204743-a723-4435-950f-16b638938353"},"vehicle_type_id":"4","last_reported":1758215324,"current_range_meters":4000,"station_id":"st_d2o4gvlbi1j2169b742g","pricing_plan_id":"cebpf4jnsgd1na2vs0mg"},{"bike_id":"c2876bdc-420e-4d56-a958-c70dcc5c18ea","system_id":"levelo_inurba_marseille","lat":43.28151,"lon":5.4263,"is_reserved":false,"is_disabled":false,"rental_uris":{"android":"levelo://app?vid=c2876bdc-420e-4d56-a958-c70dcc5c18ea","ios":"levelo://app?vid=c2876bdc-420e-4d56-a958-c70dcc5c18ea"},"vehicle_type_id":"4","last_reported":1758215324,"current_range_meters":8800,"station_id":"ce4bhnh2rcd13ifvqgug","pricing_plan_id":"cebpf4jnsgd1na2vs0mg"},{"bike_id":"3b8b87b4-c2d4-49fb-97c9-8b8f774a7e66","system_id":"levelo_inurba_marseille","lat":43.337444,"lon":5.374475,"is_reserved":false,"is_disabled":false,"rental_uris":{"android":"levelo://app?vid=3b8b87b4-c2d4-49fb-97c9-8b8f774a7e66","ios":"levelo://app?vid=3b8b87b4-c2d4-49fb-97c9-8b8f774a7e66"},"vehicle_type_id":"4","last_reported":1758215324,"current_range_meters":8800,"station_id":"","pricing_plan_id":"cebpf4jnsgd1na2vs0mg"},{"bike_id":"438ead59-de14-4fa0-a61d-03a70a4122ae","system_id":"levelo_inurba_marseille","lat":43.3153,"lon":5.38045,"is_reserved":false,"is_disabled":false,"rental_uris":{"android":"levelo://app?vid=438ead59-de14-4fa0-a61d-03a70a4122ae","ios":"levelo://app?vid=438ead59-de14-4fa0-a61d-03a70a4122ae"},"vehicle_type_id":"4","last_reported":1758215324,"current_range_meters":8800,"station_id":"ce4bhsp2rcd13ifvqi50","pricing_plan_id":"cebpf4jnsgd1na2vs0mg"},{"bike_id":"29eb35d2-1e3d-4941-a298-ac4ac31fc5da","system_id":"levelo_inurba_marseille","lat":43.30725,"lon":5.42453,"is_reserved":false,"is_disabled":false,"rental_uris":{"android":"levelo://app?vid=29eb35d2-1e3d-4941-a298-ac4ac31fc5da","ios":"levelo://app?vid=29eb35d2-1e3d-4941-a298-ac4ac31fc5da"},"vehicle_type_id":"4","last_reported":1758215324,"current_range_meters":9200,"station_id":"st_cvj6ca6bvosntc0bfgr0","pricing_plan_id":"cebpf4jnsgd1na2vs0mg"},{"bike_id":"72ed949a-316d-42e5-b3d6-9599a83e6fae","system_id":"levelo_inurba_marseille","lat":43.2815,"lon":5.4264,"is_reserved":false,"is_disabled":false,"rental_uris":{"android":"levelo://app?vid=72ed949a-316d-42e5-b3d6-9599a83e6fae","ios":"levelo://app?vid=72ed949a-316d-42e5-b3d6-9599a83e6fae"},"vehicle_type_id":"4","last_reported":1758215324,"current_range_meters":8800,"station_id":"ce4bhnh2rcd13ifvqgug","pricing_plan_id":"cebpf4jnsgd1na2vs0mg"},{"bike_id":"45afe5f4-5cbe-49c2-a913-33c967100178","system_id":"levelo_inurba_marseille","lat":43.29776,"lon":5.380931,"is_reserved":false,"is_disabled":false,"rental_uris":{"android":"levelo://app?vid=45afe5f4-5cbe-49c2-a913-33c967100178","ios":"levelo://app?vid=45afe5f4-5cbe-49c2-a913-33c967100178"},"vehicle_type_id":"4","last_reported":1758215324,"current_range_meters":9200,"station_id":"","pricing_plan_id":"cebpf4jnsgd1na2vs0mg"},{"bike_id":"67df8158-2909-41b3-8de5-88ec92603a08","system_id":"levelo_inurba_marseille","lat":43.28816,"lon":5.36188,"is_reserved":false,"is_disabled":false,"rental_uris":{"android":"levelo://app?vid=67df8158-2909-41b3-8de5-88ec92603a08","ios":"levelo://app?vid=67df8158-2909-41b3-8de5-88ec92603a08"},"vehicle_type_id":"4","last_reported":1758215324,"current_range_meters":9600,"station_id":"","pricing_plan_id":"cebpf4jnsgd1na2vs0mg"},{"bike_id":"9631174b-49aa-4cb7-b58d-c26f37486126","system_id":"levelo_inurba_marseille","lat":43.30316,"lon":5.40443,"is_reserved":false,"is_disabled":false,"rental_uris":{"android":"levelo://app?vid=9631174b-49aa-4cb7-b58d-c26f37486126","ios":"levelo://app?vid=9631174b-49aa-4cb7-b58d-c26f37486126"},"vehicle_type_id":"4","last_reported":1758215324,"current_range_meters":9600,"station_id":"ce4bh012rcd13ifvqd10","pricing_plan_id":"cebpf4jnsgd1na2vs0mg"},{"bike_id":"21352f8d-3484-48ad-a23e-1bbd0c9d0210","system_id":"levelo_inurba_marseille","lat":43.28934,"lon":5.36639,"is_reserved":false,"is_disabled":false,"rental_uris":{"android":"levelo://app?vid=21352f8d-3484-48ad-a23e-1bbd0c9d0210","ios":"levelo://app?vid=21352f8d-3484-48ad-a23e-1bbd0c9d0210"},"vehicle_type_id":"4","last_reported":1758215324,"current_range_meters":10000,"station_id":"ce4bhap2rcd13ifvqek0","pricing_plan_id":"cebpf4jnsgd1na2vs0mg"},{"bike_id":"002bcdf3-bc61-48b2-b6a7-252c935b445b","system_id":"levelo_inurba_marseille","lat":43.30427,"lon":5.38895,"is_reserved":false,"is_disabled":false,"rental_uris":{"android":"levelo://app?vid=002bcdf3-bc61-48b2-b6a7-252c935b445b","ios":"levelo://app?vid=002bcdf3-bc61-48b2-b6a7-252c935b445b"},"vehicle_type_id":"4","last_reported":1758215324,"current_range_meters":10000,"station_id":"ce4bgk12rcd13ifvqbi0","pricing_plan_id":"cebpf4jnsgd1na2vs0mg"},{"bike_id":"55dfb17a-dc13-4669-82ac-2c676d600c2d","system_id":"levelo_inurba_marseille","lat":43.31351,"lon":5.37936,"is_reserved":false,"is_disabled":true,"rental_uris":{"android":"levelo://app?vid=55dfb17a-dc13-4669-82ac-2c676d600c2d","ios":"levelo://app?vid=55dfb17a-dc13-4669-82ac-2c676d600c2d"},"vehicle_type_id":"4","last_reported":1758215324,"current_range_meters":10000,"station_id":"","pricing_plan_id":"cebpf4jnsgd1na2vs0mg"},{"bike_id":"5b48a8d1-e62e-4b0a-86f5-49258d071760","system_id":"levelo_inurba_marseille","lat":43.30776,"lon":5.3765,"is_reserved":false,"is_disabled":false,"rental_uris":{"android":"levelo://app?vid=5b48a8d1-e62e-4b0a-86f5-49258d071760","ios":"levelo://app?vid=5b48a8d1-e62e-4b0a-86f5-49258d071760"},"vehicle_type_id":"4","last_reported":1758215324,"current_range_meters":10000,"station_id":"ce4bgv92rcd13ifvqcq0","pricing_plan_id":"cebpf4jnsgd1na2vs0mg"},{"bike_id":"5fd49cde-47a3-4374-8244-755086bd8669","system_id":"levelo_inurba_marseille","lat":43.287028,"lon":5.373899,"is_reserved":false,"is_disabled":false,"rental_uris":{"android":"levelo://app?vid=5fd49cde-47a3-4374-8244-755086bd8669","ios":"levelo://app?vid=5fd49cde-47a3-4374-8244-755086bd8669"},"vehicle_type_id":"4","last_reported":1758215324,"current_range_meters":10000,"station_id":"ce4bh3p2rcd13ifvqdq0","pricing_plan_id":"cebpf4jnsgd1na2vs0mg"},{"bike_id":"d507ce46-00f5-4d3f-ba03-b31a89c0d325","system_id":"levelo_inurba_marseille","lat":43.225353,"lon":5.348406,"is_reserved":false,"is_disabled":false,"rental_uris":{"android":"levelo://app?vid=d507ce46-00f5-4d3f-ba03-b31a89c0d325","ios":"levelo://app?vid=d507ce46-00f5-4d3f-ba03-b31a89c0d325"},"vehicle_type_id":"4","last_reported":1758215324,"current_range_meters":10000,"station_id":"","pricing_plan_id":"cebpf4jnsgd1na2vs0mg"},{"bike_id":"b65733ac-e679-4e8d-92dc-04c43765cd2d","system_id":"levelo_inurba_marseille","lat":43.30128,"lon":5.39874,"is_reserved":false,"is_disabled":false,"rental_uris":{"android":"levelo://app?vid=b65733ac-e679-4e8d-92dc-04c43765cd2d","ios":"levelo://app?vid=b65733ac-e679-4e8d-92dc-04c43765cd2d"},"vehicle_type_id":"4","last_reported":1758215324,"current_range_meters":10000,"station_id":"ce4bh0h2rcd13ifvqd40","pricing_plan_id":"cebpf4jnsgd1na2vs0mg"},{"bike_id":"0d222c7d-adf8-405f-9e5f-7bb1053eaf5b","system_id":"levelo_inurba_marseille","lat":43.29071,"lon":5.37167,"is_reserved":false,"is_disabled":false,"rental_uris":{"android":"levelo://app?vid=0d222c7d-adf8-405f-9e5f-7bb1053eaf5b","ios":"levelo://app?vid=0d222c7d-adf8-405f-9e5f-7bb1053eaf5b"},"vehicle_type_id":"4","last_reported":1758215324,"current_range_meters":10800,"station_id":"ce4bh5p2rcd13ifvqe4g","pricing_plan_id":"cebpf4jnsgd1na2vs0mg"},{"bike_id":"5701fe9c-3e98-4b9f-a910-5eb395d4e5d3","system_id":"levelo_inurba_marseille","lat":43.305389,"lon":5.384223,"is_reserved":false,"is_disabled":false,"rental_uris":{"android":"levelo://app?vid=5701fe9c-3e98-4b9f-a910-5eb395d4e5d3","ios":"levelo://app?vid=5701fe9c-3e98-4b9f-a910-5eb395d4e5d3"},"vehicle_type_id":"4","last_reported":1758215324,"current_range_meters":10800,"station_id":"ce4bgg92rcd13ifvqb30","pricing_plan_id":"cebpf4jnsgd1na2vs0mg"},{"bike_id":"7455ab97-ba58-4b1f-9638-3798a732d1ab","system_id":"levelo_inurba_marseille","lat":43.22555,"lon":5.41651,"is_reserved":false,"is_disabled":false,"rental_uris":{"android":"levelo://app?vid=7455ab97-ba58-4b1f-9638-3798a732d1ab","ios":"levelo://app?vid=7455ab97-ba58-4b1f-9638-3798a732d1ab"},"vehicle_type_id":"4","last_reported":1758215324,"current_range_meters":11600,"station_id":"st_d2o4gvlbi1j2169b742g","pricing_plan_id":"cebpf4jnsgd1na2vs0mg"},{"bike_id":"d1788760-0706-4b90-8999-db00a9e42210","system_id":"levelo_inurba_marseille","lat":43.32797,"lon":5.41011,"is_reserved":false,"is_disabled":true,"rental_uris":{"android":"levelo://app?vid=d1788760-0706-4b90-8999-db00a9e42210","ios":"levelo://app?vid=d1788760-0706-4b90-8999-db00a9e42210"},"vehicle_type_id":"4","last_reported":1758215324,"current_range_meters":11600,"station_id":"","pricing_plan_id":"cebpf4jnsgd1na2vs0mg"},{"bike_id":"fa249d42-7865-4370-b926-67c52044c04f","system_id":"levelo_inurba_marseille","lat":43.29003,"lon":5.35617,"is_reserved":false,"is_disabled":false,"rental_uris":{"android":"levelo://app?vid=fa249d42-7865-4370-b926-67c52044c04f","ios":"levelo://app?vid=fa249d42-7865-4370-b926-67c52044c04f"},"vehicle_type_id":"4","last_reported":1758215324,"current_range_meters":11600,"station_id":"ce4bhb92rcd13ifvqen0","pricing_plan_id":"cebpf4jnsgd1na2vs0mg"},{"bike_id":"64b8f5d2-16ee-4c85-a97d-7145fcb10104","system_id":"levelo_inurba_marseille","lat":43.225343,"lon":5.348349,"is_reserved":false,"is_disabled":false,"rental_uris":{"android":"levelo://app?vid=64b8f5d2-16ee-4c85-a97d-7145fcb10104","ios":"levelo://app?vid=64b8f5d2-16ee-4c85-a97d-7145fcb10104"},"vehicle_type_id":"4","last_reported":1758215324,"current_range_meters":12000,"station_id":"","pricing_plan_id":"cebpf4jnsgd1na2vs0mg"},{"bike_id":"cf66592a-d8fa-4c6c-9927-5d7a9fef5026","system_id":"levelo_inurba_marseille","lat":43.26276,"lon":5.39843,"is_reserved":false,"is_disabled":false,"rental_uris":{"android":"levelo://app?vid=cf66592a-d8fa-4c6c-9927-5d7a9fef5026","ios":"levelo://app?vid=cf66592a-d8fa-4c6c-9927-5d7a9fef5026"},"vehicle_type_id":"4","last_reported":1758215324,"current_range_meters":12000,"station_id":"","pricing_plan_id":"cebpf4jnsgd1na2vs0mg"},{"bike_id":"315f367b-945e-48e9-9810-8183f084f5fc","system_id":"levelo_inurba_marseille","lat":43.27496,"lon":5.42453,"is_reserved":false,"is_disabled":true,"rental_uris":{"android":"levelo://app?vid=315f367b-945e-48e9-9810-8183f084f5fc","ios":"levelo://app?vid=315f367b-945e-48e9-9810-8183f084f5fc"},"vehicle_type_id":"4","last_reported":1758215324,"current_range_meters":12000,"station_id":"ce4bhn92rcd13ifvqgrg","pricing_plan_id":"cebpf4jnsgd1na2vs0mg"},{"bike_id":"456f41f4-5269-4b20-9590-50a40165b525","system_id":"levelo_inurba_marseille","lat":43.29001,"lon":5.35605,"is_reserved":false,"is_disabled":false,"rental_uris":{"android":"levelo://app?vid=456f41f4-5269-4b20-9590-50a40165b525","ios":"levelo://app?vid=456f41f4-5269-4b20-9590-50a40165b525"},"vehicle_type_id":"4","last_reported":1758215324,"current_range_meters":12400,"station_id":"ce4bhb92rcd13ifvqen0","pricing_plan_id":"cebpf4jnsgd1na2vs0mg"},{"bike_id":"b91dad06-54e7-45f3-ae1a-dcd46d01fa2b","system_id":"levelo_inurba_marseille","lat":43.32542,"lon":5.41482,"is_reserved":false,"is_disabled":false,"rental_uris":{"android":"levelo://app?vid=b91dad06-54e7-45f3-ae1a-dcd46d01fa2b","ios":"levelo://app?vid=b91dad06-54e7-45f3-ae1a-dcd46d01fa2b"},"vehicle_type_id":"4","last_reported":1758215324,"current_range_meters":12000,"station_id":"ce4bhq12rcd13ifvqhhg","pricing_plan_id":"cebpf4jnsgd1na2vs0mg"},{"bike_id":"4ab89489-97c5-45d7-adca-0f229a54e087","system_id":"levelo_inurba_marseille","lat":43.28853,"lon":5.35857,"is_reserved":false,"is_disabled":false,"rental_uris":{"android":"levelo://app?vid=4ab89489-97c5-45d7-adca-0f229a54e087","ios":"levelo://app?vid=4ab89489-97c5-45d7-adca-0f229a54e087"},"vehicle_type_id":"4","last_reported":1758215324,"current_range_meters":12800,"station_id":"ce4bhb12rcd13ifvqem0","pricing_plan_id":"cebpf4jnsgd1na2vs0mg"},{"bike_id":"42323a1a-489c-43cb-90ae-c675b27444d5","system_id":"levelo_inurba_marseille","lat":43.21648,"lon":5.34374,"is_reserved":false,"is_disabled":false,"rental_uris":{"android":"levelo://app?vid=42323a1a-489c-43cb-90ae-c675b27444d5","ios":"levelo://app?vid=42323a1a-489c-43cb-90ae-c675b27444d5"},"vehicle_type_id":"4","last_reported":1758215324,"current_range_meters":12800,"station_id":"","pricing_plan_id":"cebpf4jnsgd1na2vs0mg"},{"bike_id":"b08e1265-10f7-4e6d-85a5-998e6376cde9","system_id":"levelo_inurba_marseille","lat":43.29004,"lon":5.35612,"is_reserved":false,"is_disabled":false,"rental_uris":{"android":"levelo://app?vid=b08e1265-10f7-4e6d-85a5-998e6376cde9","ios":"levelo://app?vid=b08e1265-10f7-4e6d-85a5-998e6376cde9"},"vehicle_type_id":"4","last_reported":1758215324,"current_range_meters":12800,"station_id":"ce4bhb92rcd13ifvqen0","pricing_plan_id":"cebpf4jnsgd1na2vs0mg"},{"bike_id":"6fe5ee4d-d638-47ed-9e67-4166b3f93870","system_id":"levelo_inurba_marseille","lat":43.25338,"lon":5.42196,"is_reserved":false,"is_disabled":false,"rental_uris":{"android":"levelo://app?vid=6fe5ee4d-d638-47ed-9e67-4166b3f93870","ios":"levelo://app?vid=6fe5ee4d-d638-47ed-9e67-4166b3f93870"},"vehicle_type_id":"4","last_reported":1758215324,"current_range_meters":13600,"station_id":"st_d2m65c5bi1j21697t3ng","pricing_plan_id":"cebpf4jnsgd1na2vs0mg"},{"bike_id":"05517112-e7a5-450f-b7fc-6cb45613fdfa","system_id":"levelo_inurba_marseille","lat":43.28099,"lon":5.37837,"is_reserved":false,"is_disabled":false,"rental_uris":{"android":"levelo://app?vid=05517112-e7a5-450f-b7fc-6cb45613fdfa","ios":"levelo://app?vid=05517112-e7a5-450f-b7fc-6cb45613fdfa"},"vehicle_type_id":"4","last_reported":1758215324,"current_range_meters":13600,"station_id":"ce4bha12rcd13ifvqee0","pricing_plan_id":"cebpf4jnsgd1na2vs0mg"},{"bike_id":"0570f89c-1406-40e4-b77e-c6eeb6d308b8","system_id":"levelo_inurba_marseille","lat":43.26478,"lon":5.39548,"is_reserved":false,"is_disabled":false,"rental_uris":{"android":"levelo://app?vid=0570f89c-1406-40e4-b77e-c6eeb6d308b8","ios":"levelo://app?vid=0570f89c-1406-40e4-b77e-c6eeb6d308b8"},"vehicle_type_id":"4","last_reported":1758215324,"current_range_meters":13600,"station_id":"ce4bhi12rcd13ifvqfq0","pricing_plan_id":"cebpf4jnsgd1na2vs0mg"},{"bike_id":"f1cb89fd-3aae-45dd-8b07-61c162b2375e","system_id":"levelo_inurba_marseille","lat":43.33798,"lon":5.37369,"is_reserved":false,"is_disabled":false,"rental_uris":{"android":"levelo://app?vid=f1cb89fd-3aae-45dd-8b07-61c162b2375e","ios":"levelo://app?vid=f1cb89fd-3aae-45dd-8b07-61c162b2375e"},"vehicle_type_id":"4","last_reported":1758215324,"current_range_meters":13600,"station_id":"","pricing_plan_id":"cebpf4jnsgd1na2vs0mg"},{"bike_id":"8e94ae51-cfe3-4fdf-97c4-650205e1a139","system_id":"levelo_inurba_marseille","lat":43.30134,"lon":5.38778,"is_reserved":false,"is_disabled":false,"rental_uris":{"android":"levelo://app?vid=8e94ae51-cfe3-4fdf-97c4-650205e1a139","ios":"levelo://app?vid=8e94ae51-cfe3-4fdf-97c4-650205e1a139"},"vehicle_type_id":"4","last_reported":1758215324,"current_range_meters":13600,"station_id":"ce4bghh2rcd13ifvqb60","pricing_plan_id":"cebpf4jnsgd1na2vs0mg"},{"bike_id":"cca80ad6-26d7-45b6-aae3-6a0c2584976d","system_id":"levelo_inurba_marseille","lat":43.22568,"lon":5.41627,"is_reserved":false,"is_disabled":false,"rental_uris":{"android":"levelo://app?vid=cca80ad6-26d7-45b6-aae3-6a0c2584976d","ios":"levelo://app?vid=cca80ad6-26d7-45b6-aae3-6a0c2584976d"},"vehicle_type_id":"4","last_reported":1758215324,"current_range_meters":14000,"station_id":"st_d2o4gvlbi1j2169b742g","pricing_plan_id":"cebpf4jnsgd1na2vs0mg"},{"bike_id":"80a9a218-f77f-42ce-8136-b0dceb9fc366","system_id":"levelo_inurba_marseille","lat":43.267867,"lon":5.394102,"is_reserved":false,"is_disabled":false,"rental_uris":{"android":"levelo://app?vid=80a9a218-f77f-42ce-8136-b0dceb9fc366","ios":"levelo://app?vid=80a9a218-f77f-42ce-8136-b0dceb9fc366"},"vehicle_type_id":"4","last_reported":1758215324,"current_range_meters":14000,"station_id":"ce4bhh12rcd13ifvqfg0","pricing_plan_id":"cebpf4jnsgd1na2vs0mg"},{"bike_id":"a4faa1fd-62ee-404a-aff8-b79ea6b6b5d2","system_id":"levelo_inurba_marseille","lat":43.32986,"lon":5.39245,"is_reserved":false,"is_disabled":false,"rental_uris":{"android":"levelo://app?vid=a4faa1fd-62ee-404a-aff8-b79ea6b6b5d2","ios":"levelo://app?vid=a4faa1fd-62ee-404a-aff8-b79ea6b6b5d2"},"vehicle_type_id":"4","last_reported":1758215324,"current_range_meters":14000,"station_id":"","pricing_plan_id":"cebpf4jnsgd1na2vs0mg"},{"bike_id":"d9f0ae84-d732-44f5-b420-064e325a0d60","system_id":"levelo_inurba_marseille","lat":43.320183,"lon":5.381343,"is_reserved":false,"is_disabled":false,"rental_uris":{"android":"levelo://app?vid=d9f0ae84-d732-44f5-b420-064e325a0d60","ios":"levelo://app?vid=d9f0ae84-d732-44f5-b420-064e325a0d60"},"vehicle_type_id":"4","last_reported":1758215324,"current_range_meters":14000,"station_id":"","pricing_plan_id":"cebpf4jnsgd1na2vs0mg"},{"bike_id":"fa0847a4-8d8b-47a2-9c0d-c16fe7a48c9b","system_id":"levelo_inurba_marseille","lat":43.330285,"lon":5.390556,"is_reserved":false,"is_disabled":false,"rental_uris":{"android":"levelo://app?vid=fa0847a4-8d8b-47a2-9c0d-c16fe7a48c9b","ios":"levelo://app?vid=fa0847a4-8d8b-47a2-9c0d-c16fe7a48c9b"},"vehicle_type_id":"4","last_reported":1758215324,"current_range_meters":14000,"station_id":"","pricing_plan_id":"cebpf4jnsgd1na2vs0mg"},{"bike_id":"e6588542-4cd2-425d-b231-fd6f7478d2ed","system_id":"levelo_inurba_marseille","lat":43.29875,"lon":5.38905,"is_reserved":false,"is_disabled":false,"rental_uris":{"android":"levelo://app?vid=e6588542-4cd2-425d-b231-fd6f7478d2ed","ios":"levelo://app?vid=e6588542-4cd2-425d-b231-fd6f7478d2ed"},"vehicle_type_id":"4","last_reported":1758215324,"current_range_meters":14000,"station_id":"ce4bh392rcd13ifvqdl0","pricing_plan_id":"cebpf4jnsgd1na2vs0mg"},{"bike_id":"be9ee84b-9ec1-497c-800c-5907ad1418ae","system_id":"levelo_inurba_marseille","lat":43.22566,"lon":5.41628,"is_reserved":false,"is_disabled":false,"rental_uris":{"android":"levelo://app?vid=be9ee84b-9ec1-497c-800c-5907ad1418ae","ios":"levelo://app?vid=be9ee84b-9ec1-497c-800c-5907ad1418ae"},"vehicle_type_id":"4","last_reported":1758215324,"current_range_meters":14000,"station_id":"st_d2o4gvlbi1j2169b742g","pricing_plan_id":"cebpf4jnsgd1na2vs0mg"},{"bike_id":"36789205-3cf2-458c-b684-2fb41486c37a","system_id":"levelo_inurba_marseille","lat":43.292704,"lon":5.368562,"is_reserved":false,"is_disabled":false,"rental_uris":{"android":"levelo://app?vid=36789205-3cf2-458c-b684-2fb41486c37a","ios":"levelo://app?vid=36789205-3cf2-458c-b684-2fb41486c37a"},"vehicle_type_id":"4","last_reported":1758215324,"current_range_meters":14000,"station_id":"ce4bhbp2rcd13ifvqesg","pricing_plan_id":"cebpf4jnsgd1na2vs0mg"},{"bike_id":"831dbf9d-e825-4059-a187-b41b08458005","system_id":"levelo_inurba_marseille","lat":43.28684,"lon":5.38672,"is_reserved":false,"is_disabled":false,"rental_uris":{"android":"levelo://app?vid=831dbf9d-e825-4059-a187-b41b08458005","ios":"levelo://app?vid=831dbf9d-e825-4059-a187-b41b08458005"},"vehicle_type_id":"4","last_reported":1758215324,"current_range_meters":14400,"station_id":"ce4bh492rcd13ifvqdug","pricing_plan_id":"cebpf4jnsgd1na2vs0mg"},{"bike_id":"c117ccd9-f50e-4b4c-8dd1-dcbd7ecc67bc","system_id":"levelo_inurba_marseille","lat":43.279275,"lon":5.410333,"is_reserved":false,"is_disabled":false,"rental_uris":{"android":"levelo://app?vid=c117ccd9-f50e-4b4c-8dd1-dcbd7ecc67bc","ios":"levelo://app?vid=c117ccd9-f50e-4b4c-8dd1-dcbd7ecc67bc"},"vehicle_type_id":"4","last_reported":1758215324,"current_range_meters":14400,"station_id":"ce4bhnp2rcd13ifvqh0g","pricing_plan_id":"cebpf4jnsgd1na2vs0mg"},{"bike_id":"ff44f1ad-2efa-4491-b8e1-7e77aa981a6b","system_id":"levelo_inurba_marseille","lat":43.30142,"lon":5.37422,"is_reserved":false,"is_disabled":true,"rental_uris":{"android":"levelo://app?vid=ff44f1ad-2efa-4491-b8e1-7e77aa981a6b","ios":"levelo://app?vid=ff44f1ad-2efa-4491-b8e1-7e77aa981a6b"},"vehicle_type_id":"4","last_reported":1758215324,"current_range_meters":14400,"station_id":"","pricing_plan_id":"cebpf4jnsgd1na2vs0mg"},{"bike_id":"22f0687d-25d3-4094-9c4a-293a61e189a6","system_id":"levelo_inurba_marseille","lat":43.2463,"lon":5.39626,"is_reserved":false,"is_disabled":false,"rental_uris":{"android":"levelo://app?vid=22f0687d-25d3-4094-9c4a-293a61e189a6","ios":"levelo://app?vid=22f0687d-25d3-4094-9c4a-293a61e189a6"},"vehicle_type_id":"4","last_reported":1758215324,"current_range_meters":14400,"station_id":"","pricing_plan_id":"cebpf4jnsgd1na2vs0mg"},{"bike_id":"14b0b536-1224-48a2-9649-a40684ff5788","system_id":"levelo_inurba_marseille","lat":43.2961,"lon":5.37715,"is_reserved":false,"is_disabled":true,"rental_uris":{"android":"levelo://app?vid=14b0b536-1224-48a2-9649-a40684ff5788","ios":"levelo://app?vid=14b0b536-1224-48a2-9649-a40684ff5788"},"vehicle_type_id":"4","last_reported":1758215324,"current_range_meters":14800,"station_id":"","pricing_plan_id":"cebpf4jnsgd1na2vs0mg"},{"bike_id":"fe0aea26-4a67-49c0-b3c3-c022327e8ea2","system_id":"levelo_inurba_marseille","lat":43.28144,"lon":5.42647,"is_reserved":false,"is_disabled":false,"rental_uris":{"android":"levelo://app?vid=fe0aea26-4a67-49c0-b3c3-c022327e8ea2","ios":"levelo://app?vid=fe0aea26-4a67-49c0-b3c3-c022327e8ea2"},"vehicle_type_id":"4","last_reported":1758215324,"current_range_meters":15200,"station_id":"ce4bhnh2rcd13ifvqgug","pricing_plan_id":"cebpf4jnsgd1na2vs0mg"},{"bike_id":"c0144ee2-79ae-47b9-a975-84527f6f4095","system_id":"levelo_inurba_marseille","lat":43.26062,"lon":5.394,"is_reserved":false,"is_disabled":false,"rental_uris":{"android":"levelo://app?vid=c0144ee2-79ae-47b9-a975-84527f6f4095","ios":"levelo://app?vid=c0144ee2-79ae-47b9-a975-84527f6f4095"},"vehicle_type_id":"4","last_reported":1758215324,"current_range_meters":15200,"station_id":"ce4bhh92rcd13ifvqfj0","pricing_plan_id":"cebpf4jnsgd1na2vs0mg"},{"bike_id":"e942f984-8fe7-48d1-8f04-3806656b9996","system_id":"levelo_inurba_marseille","lat":43.33608,"lon":5.37931,"is_reserved":false,"is_disabled":false,"rental_uris":{"android":"levelo://app?vid=e942f984-8fe7-48d1-8f04-3806656b9996","ios":"levelo://app?vid=e942f984-8fe7-48d1-8f04-3806656b9996"},"vehicle_type_id":"4","last_reported":1758215324,"current_range_meters":16000,"station_id":"","pricing_plan_id":"cebpf4jnsgd1na2vs0mg"},{"bike_id":"7eed94c4-182d-4460-826b-78b4ef60c719","system_id":"levelo_inurba_marseille","lat":43.295859,"lon":5.375163,"is_reserved":false,"is_disabled":false,"rental_uris":{"android":"levelo://app?vid=7eed94c4-182d-4460-826b-78b4ef60c719","ios":"levelo://app?vid=7eed94c4-182d-4460-826b-78b4ef60c719"},"vehicle_type_id":"4","last_reported":1758215324,"current_range_meters":16000,"station_id":"","pricing_plan_id":"cebpf4jnsgd1na2vs0mg"},{"bike_id":"5887eb8f-50cb-4614-98bf-4b8cb460ce32","system_id":"levelo_inurba_marseille","lat":43.29569,"lon":5.37522,"is_reserved":false,"is_disabled":false,"rental_uris":{"android":"levelo://app?vid=5887eb8f-50cb-4614-98bf-4b8cb460ce32","ios":"levelo://app?vid=5887eb8f-50cb-4614-98bf-4b8cb460ce32"},"vehicle_type_id":"4","last_reported":1758215324,"current_range_meters":16000,"station_id":"","pricing_plan_id":"cebpf4jnsgd1na2vs0mg"},{"bike_id":"f9418cc9-c64d-43d9-9060-3aeedd69cdee","system_id":"levelo_inurba_marseille","lat":43.33068,"lon":5.37876,"is_reserved":false,"is_disabled":false,"rental_uris":{"android":"levelo://app?vid=f9418cc9-c64d-43d9-9060-3aeedd69cdee","ios":"levelo://app?vid=f9418cc9-c64d-43d9-9060-3aeedd69cdee"},"vehicle_type_id":"4","last_reported":1758215324,"current_range_meters":16000,"station_id":"","pricing_plan_id":"cebpf4jnsgd1na2vs0mg"},{"bike_id":"fb78ea42-e26f-45b3-a617-d3474b811b72","system_id":"levelo_inurba_marseille","lat":43.29885,"lon":5.37937,"is_reserved":false,"is_disabled":false,"rental_uris":{"android":"levelo://app?vid=fb78ea42-e26f-45b3-a617-d3474b811b72","ios":"levelo://app?vid=fb78ea42-e26f-45b3-a617-d3474b811b72"},"vehicle_type_id":"4","last_reported":1758215324,"current_range_meters":16400,"station_id":"","pricing_plan_id":"cebpf4jnsgd1na2vs0mg"},{"bike_id":"7ac6c551-29a1-43f5-be8c-c6b361de7a4a","system_id":"levelo_inurba_marseille","lat":43.28071,"lon":5.39634,"is_reserved":false,"is_disabled":false,"rental_uris":{"android":"levelo://app?vid=7ac6c551-29a1-43f5-be8c-c6b361de7a4a","ios":"levelo://app?vid=7ac6c551-29a1-43f5-be8c-c6b361de7a4a"},"vehicle_type_id":"4","last_reported":1758215324,"current_range_meters":16400,"station_id":"ce4bho12rcd13ifvqh2g","pricing_plan_id":"cebpf4jnsgd1na2vs0mg"},{"bike_id":"9d8b4944-013e-4958-9415-40d7b5ee9701","system_id":"levelo_inurba_marseille","lat":43.3161,"lon":5.38184,"is_reserved":false,"is_disabled":false,"rental_uris":{"android":"levelo://app?vid=9d8b4944-013e-4958-9415-40d7b5ee9701","ios":"levelo://app?vid=9d8b4944-013e-4958-9415-40d7b5ee9701"},"vehicle_type_id":"4","last_reported":1758215324,"current_range_meters":16400,"station_id":"","pricing_plan_id":"cebpf4jnsgd1na2vs0mg"},{"bike_id":"98d3b87d-9c68-42a6-b158-b29fef693808","system_id":"levelo_inurba_marseille","lat":43.284737,"lon":5.384232,"is_reserved":false,"is_disabled":false,"rental_uris":{"android":"levelo://app?vid=98d3b87d-9c68-42a6-b158-b29fef693808","ios":"levelo://app?vid=98d3b87d-9c68-42a6-b158-b29fef693808"},"vehicle_type_id":"4","last_reported":1758215324,"current_range_meters":16400,"station_id":"ce4bh512rcd13ifvqe3g","pricing_plan_id":"cebpf4jnsgd1na2vs0mg"},{"bike_id":"0d82b35c-17e7-4268-966b-cc4ee5eb3f1c","system_id":"levelo_inurba_marseille","lat":43.231835,"lon":5.399916,"is_reserved":false,"is_disabled":false,"rental_uris":{"android":"levelo://app?vid=0d82b35c-17e7-4268-966b-cc4ee5eb3f1c","ios":"levelo://app?vid=0d82b35c-17e7-4268-966b-cc4ee5eb3f1c"},"vehicle_type_id":"4","last_reported":1758215324,"current_range_meters":16400,"station_id":"ce4bhn12rcd13ifvqgqg","pricing_plan_id":"cebpf4jnsgd1na2vs0mg"},{"bike_id":"0bd70e70-7c4d-4d10-a069-9a76bcced8c4","system_id":"levelo_inurba_marseille","lat":43.29599,"lon":5.38102,"is_reserved":false,"is_disabled":false,"rental_uris":{"android":"levelo://app?vid=0bd70e70-7c4d-4d10-a069-9a76bcced8c4","ios":"levelo://app?vid=0bd70e70-7c4d-4d10-a069-9a76bcced8c4"},"vehicle_type_id":"4","last_reported":1758215324,"current_range_meters":16400,"station_id":"","pricing_plan_id":"cebpf4jnsgd1na2vs0mg"},{"bike_id":"553f8368-9fc7-4fab-ab6b-4ab64407d3bf","system_id":"levelo_inurba_marseille","lat":43.28853,"lon":5.42524,"is_reserved":false,"is_disabled":false,"rental_uris":{"android":"levelo://app?vid=553f8368-9fc7-4fab-ab6b-4ab64407d3bf","ios":"levelo://app?vid=553f8368-9fc7-4fab-ab6b-4ab64407d3bf"},"vehicle_type_id":"4","last_reported":1758215324,"current_range_meters":16400,"station_id":"","pricing_plan_id":"cebpf4jnsgd1na2vs0mg"},{"bike_id":"be1890b8-e55a-418e-b852-e5a5ada6177d","system_id":"levelo_inurba_marseille","lat":43.29002,"lon":5.35615,"is_reserved":false,"is_disabled":false,"rental_uris":{"android":"levelo://app?vid=be1890b8-e55a-418e-b852-e5a5ada6177d","ios":"levelo://app?vid=be1890b8-e55a-418e-b852-e5a5ada6177d"},"vehicle_type_id":"4","last_reported":1758215324,"current_range_meters":16800,"station_id":"ce4bhb92rcd13ifvqen0","pricing_plan_id":"cebpf4jnsgd1na2vs0mg"},{"bike_id":"bf6e6d27-c09e-4725-9fbc-20073fd5a515","system_id":"levelo_inurba_marseille","lat":43.289376,"lon":5.396214,"is_reserved":false,"is_disabled":false,"rental_uris":{"android":"levelo://app?vid=bf6e6d27-c09e-4725-9fbc-20073fd5a515","ios":"levelo://app?vid=bf6e6d27-c09e-4725-9fbc-20073fd5a515"},"vehicle_type_id":"4","last_reported":1758215324,"current_range_meters":16800,"station_id":"","pricing_plan_id":"cebpf4jnsgd1na2vs0mg"},{"bike_id":"0960e3dd-c358-4474-bd10-8223758e1f6b","system_id":"levelo_inurba_marseille","lat":43.296996,"lon":5.376855,"is_reserved":false,"is_disabled":false,"rental_uris":{"android":"levelo://app?vid=0960e3dd-c358-4474-bd10-8223758e1f6b","ios":"levelo://app?vid=0960e3dd-c358-4474-bd10-8223758e1f6b"},"vehicle_type_id":"4","last_reported":1758215324,"current_range_meters":16800,"station_id":"","pricing_plan_id":"cebpf4jnsgd1na2vs0mg"},{"bike_id":"06319b1f-bb7d-4df8-beb6-4cc890d4ea37","system_id":"levelo_inurba_marseille","lat":43.33759,"lon":5.37449,"is_reserved":false,"is_disabled":false,"rental_uris":{"android":"levelo://app?vid=06319b1f-bb7d-4df8-beb6-4cc890d4ea37","ios":"levelo://app?vid=06319b1f-bb7d-4df8-beb6-4cc890d4ea37"},"vehicle_type_id":"4","last_reported":1758215324,"current_range_meters":17200,"station_id":"","pricing_plan_id":"cebpf4jnsgd1na2vs0mg"},{"bike_id":"c43882b1-5e02-4ad9-b699-728f77e5b88f","system_id":"levelo_inurba_marseille","lat":43.31497,"lon":5.37297,"is_reserved":false,"is_disabled":true,"rental_uris":{"android":"levelo://app?vid=c43882b1-5e02-4ad9-b699-728f77e5b88f","ios":"levelo://app?vid=c43882b1-5e02-4ad9-b699-728f77e5b88f"},"vehicle_type_id":"4","last_reported":1758215324,"current_range_meters":17200,"station_id":"ce4bgt12rcd13ifvqcd0","pricing_plan_id":"cebpf4jnsgd1na2vs0mg"},{"bike_id":"4b25ad77-301b-4be3-89f8-94f9df20251d","system_id":"levelo_inurba_marseille","lat":43.27487,"lon":5.42453,"is_reserved":false,"is_disabled":true,"rental_uris":{"android":"levelo://app?vid=4b25ad77-301b-4be3-89f8-94f9df20251d","ios":"levelo://app?vid=4b25ad77-301b-4be3-89f8-94f9df20251d"},"vehicle_type_id":"4","last_reported":1758215324,"current_range_meters":17200,"station_id":"ce4bhn92rcd13ifvqgrg","pricing_plan_id":"cebpf4jnsgd1na2vs0mg"},{"bike_id":"8326ecc1-08df-439a-b0e4-db172cab9005","system_id":"levelo_inurba_marseille","lat":43.297323,"lon":5.380969,"is_reserved":false,"is_disabled":false,"rental_uris":{"android":"levelo://app?vid=8326ecc1-08df-439a-b0e4-db172cab9005","ios":"levelo://app?vid=8326ecc1-08df-439a-b0e4-db172cab9005"},"vehicle_type_id":"4","last_reported":1758215324,"current_range_meters":17600,"station_id":"ce4bgl12rcd13ifvqbo0","pricing_plan_id":"cebpf4jnsgd1na2vs0mg"},{"bike_id":"35415e14-8099-4767-bb8d-7ff6094c722c","system_id":"levelo_inurba_marseille","lat":43.28667,"lon":5.38661,"is_reserved":false,"is_disabled":false,"rental_uris":{"android":"levelo://app?vid=35415e14-8099-4767-bb8d-7ff6094c722c","ios":"levelo://app?vid=35415e14-8099-4767-bb8d-7ff6094c722c"},"vehicle_type_id":"4","last_reported":1758215324,"current_range_meters":17600,"station_id":"ce4bh492rcd13ifvqdug","pricing_plan_id":"cebpf4jnsgd1na2vs0mg"},{"bike_id":"43d57fd4-047e-4ac8-97e5-ec9b96239472","system_id":"levelo_inurba_marseille","lat":43.327066,"lon":5.392255,"is_reserved":false,"is_disabled":false,"rental_uris":{"android":"levelo://app?vid=43d57fd4-047e-4ac8-97e5-ec9b96239472","ios":"levelo://app?vid=43d57fd4-047e-4ac8-97e5-ec9b96239472"},"vehicle_type_id":"4","last_reported":1758215324,"current_range_meters":17600,"station_id":"","pricing_plan_id":"cebpf4jnsgd1na2vs0mg"},{"bike_id":"7d25b2fb-0dd9-4e60-9790-a46abfa4a29d","system_id":"levelo_inurba_marseille","lat":43.28461,"lon":5.35901,"is_reserved":false,"is_disabled":false,"rental_uris":{"android":"levelo://app?vid=7d25b2fb-0dd9-4e60-9790-a46abfa4a29d","ios":"levelo://app?vid=7d25b2fb-0dd9-4e60-9790-a46abfa4a29d"},"vehicle_type_id":"4","last_reported":1758215324,"current_range_meters":17600,"station_id":"ce4bhah2rcd13ifvqei0","pricing_plan_id":"cebpf4jnsgd1na2vs0mg"},{"bike_id":"83981190-f3d9-45bf-a46e-4ee5e9cd6e7e","system_id":"levelo_inurba_marseille","lat":43.23203,"lon":5.39991,"is_reserved":false,"is_disabled":false,"rental_uris":{"android":"levelo://app?vid=83981190-f3d9-45bf-a46e-4ee5e9cd6e7e","ios":"levelo://app?vid=83981190-f3d9-45bf-a46e-4ee5e9cd6e7e"},"vehicle_type_id":"4","last_reported":1758215324,"current_range_meters":18000,"station_id":"ce4bhn12rcd13ifvqgqg","pricing_plan_id":"cebpf4jnsgd1na2vs0mg"},{"bike_id":"9c0693b2-33f4-40d9-85fa-754a770a9d54","system_id":"levelo_inurba_marseille","lat":43.295188,"lon":5.390328,"is_reserved":false,"is_disabled":false,"rental_uris":{"android":"levelo://app?vid=9c0693b2-33f4-40d9-85fa-754a770a9d54","ios":"levelo://app?vid=9c0693b2-33f4-40d9-85fa-754a770a9d54"},"vehicle_type_id":"4","last_reported":1758215324,"current_range_meters":18000,"station_id":"ce4bh312rcd13ifvqdj0","pricing_plan_id":"cebpf4jnsgd1na2vs0mg"},{"bike_id":"499c392c-dc24-4401-b542-3195940fd8d9","system_id":"levelo_inurba_marseille","lat":43.26949,"lon":5.38629,"is_reserved":false,"is_disabled":false,"rental_uris":{"android":"levelo://app?vid=499c392c-dc24-4401-b542-3195940fd8d9","ios":"levelo://app?vid=499c392c-dc24-4401-b542-3195940fd8d9"},"vehicle_type_id":"4","last_reported":1758215324,"current_range_meters":18000,"station_id":"ce4bhh92rcd13ifvqfh0","pricing_plan_id":"cebpf4jnsgd1na2vs0mg"},{"bike_id":"f85a8c4d-f9d0-4136-9b57-8bfb28db950c","system_id":"levelo_inurba_marseille","lat":43.31847,"lon":5.37445,"is_reserved":false,"is_disabled":false,"rental_uris":{"android":"levelo://app?vid=f85a8c4d-f9d0-4136-9b57-8bfb28db950c","ios":"levelo://app?vid=f85a8c4d-f9d0-4136-9b57-8bfb28db950c"},"vehicle_type_id":"4","last_reported":1758215324,"current_range_meters":18800,"station_id":"","pricing_plan_id":"cebpf4jnsgd1na2vs0mg"},{"bike_id":"47fdaea0-633a-4aba-a274-12bf533a21ea","system_id":"levelo_inurba_marseille","lat":43.29554,"lon":5.42299,"is_reserved":false,"is_disabled":false,"rental_uris":{"android":"levelo://app?vid=47fdaea0-633a-4aba-a274-12bf533a21ea","ios":"levelo://app?vid=47fdaea0-633a-4aba-a274-12bf533a21ea"},"vehicle_type_id":"4","last_reported":1758215324,"current_range_meters":18000,"station_id":"ce4bhph2rcd13ifvqhdg","pricing_plan_id":"cebpf4jnsgd1na2vs0mg"},{"bike_id":"51ef99cf-ff2c-4723-9be1-98e43bf3667e","system_id":"levelo_inurba_marseille","lat":43.29005,"lon":5.35613,"is_reserved":false,"is_disabled":false,"rental_uris":{"android":"levelo://app?vid=51ef99cf-ff2c-4723-9be1-98e43bf3667e","ios":"levelo://app?vid=51ef99cf-ff2c-4723-9be1-98e43bf3667e"},"vehicle_type_id":"4","last_reported":1758215324,"current_range_meters":18800,"station_id":"ce4bhb92rcd13ifvqen0","pricing_plan_id":"cebpf4jnsgd1na2vs0mg"},{"bike_id":"38f67df6-b0cc-4c76-a191-9c2fee3d7abf","system_id":"levelo_inurba_marseille","lat":43.27942,"lon":5.41052,"is_reserved":false,"is_disabled":false,"rental_uris":{"android":"levelo://app?vid=38f67df6-b0cc-4c76-a191-9c2fee3d7abf","ios":"levelo://app?vid=38f67df6-b0cc-4c76-a191-9c2fee3d7abf"},"vehicle_type_id":"4","last_reported":1758215324,"current_range_meters":18800,"station_id":"ce4bhnp2rcd13ifvqh0g","pricing_plan_id":"cebpf4jnsgd1na2vs0mg"},{"bike_id":"ec0e87a3-2f85-4b9b-8977-e93e02e63cf9","system_id":"levelo_inurba_marseille","lat":43.30431,"lon":5.38882,"is_reserved":false,"is_disabled":false,"rental_uris":{"android":"levelo://app?vid=ec0e87a3-2f85-4b9b-8977-e93e02e63cf9","ios":"levelo://app?vid=ec0e87a3-2f85-4b9b-8977-e93e02e63cf9"},"vehicle_type_id":"4","last_reported":1758215324,"current_range_meters":18800,"station_id":"ce4bgk12rcd13ifvqbi0","pricing_plan_id":"cebpf4jnsgd1na2vs0mg"},{"bike_id":"7df5983d-afc7-4c15-a3e6-ba7d41a736f9","system_id":"levelo_inurba_marseille","lat":43.24525,"lon":5.37329,"is_reserved":false,"is_disabled":true,"rental_uris":{"android":"levelo://app?vid=7df5983d-afc7-4c15-a3e6-ba7d41a736f9","ios":"levelo://app?vid=7df5983d-afc7-4c15-a3e6-ba7d41a736f9"},"vehicle_type_id":"4","last_reported":1758215324,"current_range_meters":18800,"station_id":"","pricing_plan_id":"cebpf4jnsgd1na2vs0mg"},{"bike_id":"73d02e95-e5a4-4300-aaf4-5842cc070637","system_id":"levelo_inurba_marseille","lat":43.28489,"lon":5.38459,"is_reserved":false,"is_disabled":true,"rental_uris":{"android":"levelo://app?vid=73d02e95-e5a4-4300-aaf4-5842cc070637","ios":"levelo://app?vid=73d02e95-e5a4-4300-aaf4-5842cc070637"},"vehicle_type_id":"4","last_reported":1758215324,"current_range_meters":19200,"station_id":"ce4bh512rcd13ifvqe3g","pricing_plan_id":"cebpf4jnsgd1na2vs0mg"},{"bike_id":"4b8537a5-4736-4d92-b52d-2168a000a2e9","system_id":"levelo_inurba_marseille","lat":43.28935,"lon":5.36418,"is_reserved":false,"is_disabled":true,"rental_uris":{"android":"levelo://app?vid=4b8537a5-4736-4d92-b52d-2168a000a2e9","ios":"levelo://app?vid=4b8537a5-4736-4d92-b52d-2168a000a2e9"},"vehicle_type_id":"4","last_reported":1758215324,"current_range_meters":19200,"station_id":"ce4bhc92rcd13ifvqetg","pricing_plan_id":"cebpf4jnsgd1na2vs0mg"},{"bike_id":"4b3e8128-0cba-44be-a6fb-61899439f2dd","system_id":"levelo_inurba_marseille","lat":43.23191,"lon":5.39978,"is_reserved":false,"is_disabled":false,"rental_uris":{"android":"levelo://app?vid=4b3e8128-0cba-44be-a6fb-61899439f2dd","ios":"levelo://app?vid=4b3e8128-0cba-44be-a6fb-61899439f2dd"},"vehicle_type_id":"4","last_reported":1758215324,"current_range_meters":19200,"station_id":"ce4bhn12rcd13ifvqgqg","pricing_plan_id":"cebpf4jnsgd1na2vs0mg"},{"bike_id":"f952f4b4-66c1-4c5a-851a-549975956e81","system_id":"levelo_inurba_marseille","lat":43.28931,"lon":5.36635,"is_reserved":false,"is_disabled":false,"rental_uris":{"android":"levelo://app?vid=f952f4b4-66c1-4c5a-851a-549975956e81","ios":"levelo://app?vid=f952f4b4-66c1-4c5a-851a-549975956e81"},"vehicle_type_id":"4","last_reported":1758215324,"current_range_meters":19200,"station_id":"ce4bhap2rcd13ifvqek0","pricing_plan_id":"cebpf4jnsgd1na2vs0mg"},{"bike_id":"518eef5b-9e3c-4b06-94a9-56e70af9d262","system_id":"levelo_inurba_marseille","lat":43.30799,"lon":5.3816,"is_reserved":false,"is_disabled":true,"rental_uris":{"android":"levelo://app?vid=518eef5b-9e3c-4b06-94a9-56e70af9d262","ios":"levelo://app?vid=518eef5b-9e3c-4b06-94a9-56e70af9d262"},"vehicle_type_id":"4","last_reported":1758215324,"current_range_meters":19200,"station_id":"ce4bgt12rcd13ifvqce0","pricing_plan_id":"cebpf4jnsgd1na2vs0mg"},{"bike_id":"1ba21734-54cb-4f39-a75d-b62c444e2b23","system_id":"levelo_inurba_marseille","lat":43.27837,"lon":5.39207,"is_reserved":false,"is_disabled":false,"rental_uris":{"android":"levelo://app?vid=1ba21734-54cb-4f39-a75d-b62c444e2b23","ios":"levelo://app?vid=1ba21734-54cb-4f39-a75d-b62c444e2b23"},"vehicle_type_id":"4","last_reported":1758215324,"current_range_meters":19200,"station_id":"ce4bhjp2rcd13ifvqga0","pricing_plan_id":"cebpf4jnsgd1na2vs0mg"},{"bike_id":"aeb31814-7637-4c0c-b808-55b71b4a0457","system_id":"levelo_inurba_marseille","lat":43.27564,"lon":5.38422,"is_reserved":false,"is_disabled":false,"rental_uris":{"android":"levelo://app?vid=aeb31814-7637-4c0c-b808-55b71b4a0457","ios":"levelo://app?vid=aeb31814-7637-4c0c-b808-55b71b4a0457"},"vehicle_type_id":"4","last_reported":1758215324,"current_range_meters":19600,"station_id":"ce4bhh92rcd13ifvqfi0","pricing_plan_id":"cebpf4jnsgd1na2vs0mg"},{"bike_id":"630de323-2afc-47ee-bfd4-7e399599970c","system_id":"levelo_inurba_marseille","lat":43.322072,"lon":5.382975,"is_reserved":false,"is_disabled":false,"rental_uris":{"android":"levelo://app?vid=630de323-2afc-47ee-bfd4-7e399599970c","ios":"levelo://app?vid=630de323-2afc-47ee-bfd4-7e399599970c"},"vehicle_type_id":"4","last_reported":1758215324,"current_range_meters":19200,"station_id":"ce4bhr12rcd13ifvqhqg","pricing_plan_id":"cebpf4jnsgd1na2vs0mg"},{"bike_id":"40646b6d-992c-4d14-b0f8-6c16472024c2","system_id":"levelo_inurba_marseille","lat":43.21742,"lon":5.34602,"is_reserved":false,"is_disabled":true,"rental_uris":{"android":"levelo://app?vid=40646b6d-992c-4d14-b0f8-6c16472024c2","ios":"levelo://app?vid=40646b6d-992c-4d14-b0f8-6c16472024c2"},"vehicle_type_id":"4","last_reported":1758215324,"current_range_meters":19600,"station_id":"","pricing_plan_id":"cebpf4jnsgd1na2vs0mg"},{"bike_id":"fba32ab2-1e43-4af0-a1e4-aa9ec1d370ca","system_id":"levelo_inurba_marseille","lat":43.2416,"lon":5.36409,"is_reserved":false,"is_disabled":false,"rental_uris":{"android":"levelo://app?vid=fba32ab2-1e43-4af0-a1e4-aa9ec1d370ca","ios":"levelo://app?vid=fba32ab2-1e43-4af0-a1e4-aa9ec1d370ca"},"vehicle_type_id":"4","last_reported":1758215324,"current_range_meters":19600,"station_id":"cpo36qri1sfpv3e86is0","pricing_plan_id":"cebpf4jnsgd1na2vs0mg"},{"bike_id":"110f9e34-ea92-496b-a718-456d72d62dc8","system_id":"levelo_inurba_marseille","lat":43.2689,"lon":5.40891,"is_reserved":false,"is_disabled":false,"rental_uris":{"android":"levelo://app?vid=110f9e34-ea92-496b-a718-456d72d62dc8","ios":"levelo://app?vid=110f9e34-ea92-496b-a718-456d72d62dc8"},"vehicle_type_id":"4","last_reported":1758215324,"current_range_meters":19600,"station_id":"","pricing_plan_id":"cebpf4jnsgd1na2vs0mg"},{"bike_id":"bdefe7ca-3fc0-4fc7-af94-af6daaffd723","system_id":"levelo_inurba_marseille","lat":43.24067,"lon":5.37768,"is_reserved":false,"is_disabled":false,"rental_uris":{"android":"levelo://app?vid=bdefe7ca-3fc0-4fc7-af94-af6daaffd723","ios":"levelo://app?vid=bdefe7ca-3fc0-4fc7-af94-af6daaffd723"},"vehicle_type_id":"4","last_reported":1758215324,"current_range_meters":19600,"station_id":"ce4bhnp2rcd13ifvqgvg","pricing_plan_id":"cebpf4jnsgd1na2vs0mg"},{"bike_id":"1322316a-0db7-41ff-a6fd-078039767127","system_id":"levelo_inurba_marseille","lat":43.29884,"lon":5.43662,"is_reserved":false,"is_disabled":false,"rental_uris":{"android":"levelo://app?vid=1322316a-0db7-41ff-a6fd-078039767127","ios":"levelo://app?vid=1322316a-0db7-41ff-a6fd-078039767127"},"vehicle_type_id":"4","last_reported":1758215324,"current_range_meters":19600,"station_id":"ce4bhpp2rcd13ifvqhfg","pricing_plan_id":"cebpf4jnsgd1na2vs0mg"},{"bike_id":"835975a0-27c7-47e7-bc1c-b8ba0b505127","system_id":"levelo_inurba_marseille","lat":43.32588,"lon":5.37789,"is_reserved":false,"is_disabled":false,"rental_uris":{"android":"levelo://app?vid=835975a0-27c7-47e7-bc1c-b8ba0b505127","ios":"levelo://app?vid=835975a0-27c7-47e7-bc1c-b8ba0b505127"},"vehicle_type_id":"4","last_reported":1758215324,"current_range_meters":20000,"station_id":"","pricing_plan_id":"cebpf4jnsgd1na2vs0mg"},{"bike_id":"914256b3-d52c-42a5-9777-48836a592533","system_id":"levelo_inurba_marseille","lat":43.28858,"lon":5.35864,"is_reserved":false,"is_disabled":false,"rental_uris":{"android":"levelo://app?vid=914256b3-d52c-42a5-9777-48836a592533","ios":"levelo://app?vid=914256b3-d52c-42a5-9777-48836a592533"},"vehicle_type_id":"4","last_reported":1758215324,"current_range_meters":20400,"station_id":"ce4bhb12rcd13ifvqem0","pricing_plan_id":"cebpf4jnsgd1na2vs0mg"},{"bike_id":"c4706891-6ce1-4440-91ff-a3ecf2ff007e","system_id":"levelo_inurba_marseille","lat":43.26374,"lon":5.40075,"is_reserved":false,"is_disabled":false,"rental_uris":{"android":"levelo://app?vid=c4706891-6ce1-4440-91ff-a3ecf2ff007e","ios":"levelo://app?vid=c4706891-6ce1-4440-91ff-a3ecf2ff007e"},"vehicle_type_id":"4","last_reported":1758215324,"current_range_meters":20400,"station_id":"","pricing_plan_id":"cebpf4jnsgd1na2vs0mg"},{"bike_id":"1206f800-61f7-417f-b3cb-210d7cd1476e","system_id":"levelo_inurba_marseille","lat":43.2971,"lon":5.36612,"is_reserved":false,"is_disabled":false,"rental_uris":{"android":"levelo://app?vid=1206f800-61f7-417f-b3cb-210d7cd1476e","ios":"levelo://app?vid=1206f800-61f7-417f-b3cb-210d7cd1476e"},"vehicle_type_id":"4","last_reported":1758215324,"current_range_meters":20400,"station_id":"ce4bgn12rcd13ifvqbt0","pricing_plan_id":"cebpf4jnsgd1na2vs0mg"},{"bike_id":"e7179af3-abdc-4b9f-a252-8785027fa8f2","system_id":"levelo_inurba_marseille","lat":43.28072,"lon":5.39663,"is_reserved":false,"is_disabled":false,"rental_uris":{"android":"levelo://app?vid=e7179af3-abdc-4b9f-a252-8785027fa8f2","ios":"levelo://app?vid=e7179af3-abdc-4b9f-a252-8785027fa8f2"},"vehicle_type_id":"4","last_reported":1758215324,"current_range_meters":20400,"station_id":"ce4bho12rcd13ifvqh2g","pricing_plan_id":"cebpf4jnsgd1na2vs0mg"},{"bike_id":"55d1bc08-fd54-4a82-afc7-2adcaa7b1c4e","system_id":"levelo_inurba_marseille","lat":43.30034,"lon":5.37697,"is_reserved":false,"is_disabled":false,"rental_uris":{"android":"levelo://app?vid=55d1bc08-fd54-4a82-afc7-2adcaa7b1c4e","ios":"levelo://app?vid=55d1bc08-fd54-4a82-afc7-2adcaa7b1c4e"},"vehicle_type_id":"4","last_reported":1758215324,"current_range_meters":20400,"station_id":"","pricing_plan_id":"cebpf4jnsgd1na2vs0mg"},{"bike_id":"0eda2df8-e078-4c8b-b031-6ac4115ed463","system_id":"levelo_inurba_marseille","lat":43.31989,"lon":5.38166,"is_reserved":false,"is_disabled":false,"rental_uris":{"android":"levelo://app?vid=0eda2df8-e078-4c8b-b031-6ac4115ed463","ios":"levelo://app?vid=0eda2df8-e078-4c8b-b031-6ac4115ed463"},"vehicle_type_id":"4","last_reported":1758215324,"current_range_meters":20400,"station_id":"ce4bhr12rcd13ifvqhpg","pricing_plan_id":"cebpf4jnsgd1na2vs0mg"},{"bike_id":"af92115d-6f7a-49ce-a65e-77f9182df835","system_id":"levelo_inurba_marseille","lat":43.21741,"lon":5.34629,"is_reserved":false,"is_disabled":true,"rental_uris":{"android":"levelo://app?vid=af92115d-6f7a-49ce-a65e-77f9182df835","ios":"levelo://app?vid=af92115d-6f7a-49ce-a65e-77f9182df835"},"vehicle_type_id":"4","last_reported":1758215324,"current_range_meters":20800,"station_id":"st_cvj6r9ubvosntc0bgbag","pricing_plan_id":"cebpf4jnsgd1na2vs0mg"},{"bike_id":"85caa2a8-7f37-475f-99ee-0f4a440535d2","system_id":"levelo_inurba_marseille","lat":43.29543,"lon":5.37545,"is_reserved":false,"is_disabled":false,"rental_uris":{"android":"levelo://app?vid=85caa2a8-7f37-475f-99ee-0f4a440535d2","ios":"levelo://app?vid=85caa2a8-7f37-475f-99ee-0f4a440535d2"},"vehicle_type_id":"4","last_reported":1758215324,"current_range_meters":20800,"station_id":"","pricing_plan_id":"cebpf4jnsgd1na2vs0mg"},{"bike_id":"5304049e-91d5-46c7-b1ae-caae14291e88","system_id":"levelo_inurba_marseille","lat":43.29267,"lon":5.37614,"is_reserved":false,"is_disabled":true,"rental_uris":{"android":"levelo://app?vid=5304049e-91d5-46c7-b1ae-caae14291e88","ios":"levelo://app?vid=5304049e-91d5-46c7-b1ae-caae14291e88"},"vehicle_type_id":"4","last_reported":1758215324,"current_range_meters":21600,"station_id":"ce4bgi12rcd13ifvqb80","pricing_plan_id":"cebpf4jnsgd1na2vs0mg"},{"bike_id":"2d8c70ee-a395-4542-bdb8-276bd868fdf2","system_id":"levelo_inurba_marseille","lat":43.27169,"lon":5.41004,"is_reserved":false,"is_disabled":false,"rental_uris":{"android":"levelo://app?vid=2d8c70ee-a395-4542-bdb8-276bd868fdf2","ios":"levelo://app?vid=2d8c70ee-a395-4542-bdb8-276bd868fdf2"},"vehicle_type_id":"4","last_reported":1758215324,"current_range_meters":20800,"station_id":"ce4bhl12rcd13ifvqgf0","pricing_plan_id":"cebpf4jnsgd1na2vs0mg"},{"bike_id":"af0490b6-c1c9-4895-8a15-568d23e0a730","system_id":"levelo_inurba_marseille","lat":43.28056,"lon":5.40786,"is_reserved":false,"is_disabled":false,"rental_uris":{"android":"levelo://app?vid=af0490b6-c1c9-4895-8a15-568d23e0a730","ios":"levelo://app?vid=af0490b6-c1c9-4895-8a15-568d23e0a730"},"vehicle_type_id":"4","last_reported":1758215324,"current_range_meters":22000,"station_id":"","pricing_plan_id":"cebpf4jnsgd1na2vs0mg"},{"bike_id":"420f298b-50e5-4f5b-9e86-83c485c14b29","system_id":"levelo_inurba_marseille","lat":43.27492,"lon":5.42455,"is_reserved":false,"is_disabled":true,"rental_uris":{"android":"levelo://app?vid=420f298b-50e5-4f5b-9e86-83c485c14b29","ios":"levelo://app?vid=420f298b-50e5-4f5b-9e86-83c485c14b29"},"vehicle_type_id":"4","last_reported":1758215324,"current_range_meters":21600,"station_id":"ce4bhn92rcd13ifvqgrg","pricing_plan_id":"cebpf4jnsgd1na2vs0mg"},{"bike_id":"cad97885-b582-49b2-8b83-0a6c3d079fc6","system_id":"levelo_inurba_marseille","lat":43.297018,"lon":5.365873,"is_reserved":false,"is_disabled":false,"rental_uris":{"android":"levelo://app?vid=cad97885-b582-49b2-8b83-0a6c3d079fc6","ios":"levelo://app?vid=cad97885-b582-49b2-8b83-0a6c3d079fc6"},"vehicle_type_id":"4","last_reported":1758215324,"current_range_meters":22400,"station_id":"ce4bgn12rcd13ifvqbt0","pricing_plan_id":"cebpf4jnsgd1na2vs0mg"},{"bike_id":"e66483f8-2d81-441b-822e-79a774a2a4e8","system_id":"levelo_inurba_marseille","lat":43.29786,"lon":5.3701,"is_reserved":false,"is_disabled":false,"rental_uris":{"android":"levelo://app?vid=e66483f8-2d81-441b-822e-79a774a2a4e8","ios":"levelo://app?vid=e66483f8-2d81-441b-822e-79a774a2a4e8"},"vehicle_type_id":"4","last_reported":1758215324,"current_range_meters":22000,"station_id":"","pricing_plan_id":"cebpf4jnsgd1na2vs0mg"},{"bike_id":"3325b9fd-efe9-458e-9c8f-4f9413f00611","system_id":"levelo_inurba_marseille","lat":43.25867,"lon":5.39906,"is_reserved":false,"is_disabled":false,"rental_uris":{"android":"levelo://app?vid=3325b9fd-efe9-458e-9c8f-4f9413f00611","ios":"levelo://app?vid=3325b9fd-efe9-458e-9c8f-4f9413f00611"},"vehicle_type_id":"4","last_reported":1758215324,"current_range_meters":22000,"station_id":"","pricing_plan_id":"cebpf4jnsgd1na2vs0mg"},{"bike_id":"3d158a28-bece-4b10-9f82-ab3eb3313408","system_id":"levelo_inurba_marseille","lat":43.337485,"lon":5.374512,"is_reserved":false,"is_disabled":false,"rental_uris":{"android":"levelo://app?vid=3d158a28-bece-4b10-9f82-ab3eb3313408","ios":"levelo://app?vid=3d158a28-bece-4b10-9f82-ab3eb3313408"},"vehicle_type_id":"4","last_reported":1758215324,"current_range_meters":22000,"station_id":"","pricing_plan_id":"cebpf4jnsgd1na2vs0mg"},{"bike_id":"17e2a758-4bfa-4040-919a-c52801e1eaab","system_id":"levelo_inurba_marseille","lat":43.30893,"lon":5.39661,"is_reserved":false,"is_disabled":true,"rental_uris":{"android":"levelo://app?vid=17e2a758-4bfa-4040-919a-c52801e1eaab","ios":"levelo://app?vid=17e2a758-4bfa-4040-919a-c52801e1eaab"},"vehicle_type_id":"4","last_reported":1758215324,"current_range_meters":21600,"station_id":"ce4bh012rcd13ifvqcv0","pricing_plan_id":"cebpf4jnsgd1na2vs0mg"},{"bike_id":"b810ec46-97ab-4356-95f9-0c9d02506d5a","system_id":"levelo_inurba_marseille","lat":43.24458,"lon":5.39039,"is_reserved":false,"is_disabled":false,"rental_uris":{"android":"levelo://app?vid=b810ec46-97ab-4356-95f9-0c9d02506d5a","ios":"levelo://app?vid=b810ec46-97ab-4356-95f9-0c9d02506d5a"},"vehicle_type_id":"4","last_reported":1758215324,"current_range_meters":22400,"station_id":"","pricing_plan_id":"cebpf4jnsgd1na2vs0mg"},{"bike_id":"43656096-3901-4c1c-ba91-d79ba028e521","system_id":"levelo_inurba_marseille","lat":43.27502,"lon":5.42469,"is_reserved":false,"is_disabled":true,"rental_uris":{"android":"levelo://app?vid=43656096-3901-4c1c-ba91-d79ba028e521","ios":"levelo://app?vid=43656096-3901-4c1c-ba91-d79ba028e521"},"vehicle_type_id":"4","last_reported":1758215324,"current_range_meters":22400,"station_id":"ce4bhn92rcd13ifvqgrg","pricing_plan_id":"cebpf4jnsgd1na2vs0mg"},{"bike_id":"ca6cfb19-1dc3-4908-b50d-fcb1e1ef8339","system_id":"levelo_inurba_marseille","lat":43.27357,"lon":5.36306,"is_reserved":false,"is_disabled":false,"rental_uris":{"android":"levelo://app?vid=ca6cfb19-1dc3-4908-b50d-fcb1e1ef8339","ios":"levelo://app?vid=ca6cfb19-1dc3-4908-b50d-fcb1e1ef8339"},"vehicle_type_id":"4","last_reported":1758215324,"current_range_meters":22400,"station_id":"ce4bhbh2rcd13ifvqeo0","pricing_plan_id":"cebpf4jnsgd1na2vs0mg"},{"bike_id":"44e729b2-5579-4d80-bf9f-d6fa94ed1678","system_id":"levelo_inurba_marseille","lat":43.28155,"lon":5.42655,"is_reserved":false,"is_disabled":false,"rental_uris":{"android":"levelo://app?vid=44e729b2-5579-4d80-bf9f-d6fa94ed1678","ios":"levelo://app?vid=44e729b2-5579-4d80-bf9f-d6fa94ed1678"},"vehicle_type_id":"4","last_reported":1758215324,"current_range_meters":22400,"station_id":"ce4bhnh2rcd13ifvqgug","pricing_plan_id":"cebpf4jnsgd1na2vs0mg"},{"bike_id":"99d8100c-bd42-4e6d-ad1d-792f56543765","system_id":"levelo_inurba_marseille","lat":43.32364,"lon":5.38884,"is_reserved":false,"is_disabled":false,"rental_uris":{"android":"levelo://app?vid=99d8100c-bd42-4e6d-ad1d-792f56543765","ios":"levelo://app?vid=99d8100c-bd42-4e6d-ad1d-792f56543765"},"vehicle_type_id":"4","last_reported":1758215324,"current_range_meters":22400,"station_id":"ce4bhqp2rcd13ifvqhog","pricing_plan_id":"cebpf4jnsgd1na2vs0mg"},{"bike_id":"0b374166-0a66-4ea1-aa25-73f63725870c","system_id":"levelo_inurba_marseille","lat":43.272434,"lon":5.362642,"is_reserved":false,"is_disabled":false,"rental_uris":{"android":"levelo://app?vid=0b374166-0a66-4ea1-aa25-73f63725870c","ios":"levelo://app?vid=0b374166-0a66-4ea1-aa25-73f63725870c"},"vehicle_type_id":"4","last_reported":1758215324,"current_range_meters":22400,"station_id":"","pricing_plan_id":"cebpf4jnsgd1na2vs0mg"},{"bike_id":"0f7caa9f-1d1a-40d7-9b4a-2f8720e63681","system_id":"levelo_inurba_marseille","lat":43.3086,"lon":5.37503,"is_reserved":false,"is_disabled":false,"rental_uris":{"android":"levelo://app?vid=0f7caa9f-1d1a-40d7-9b4a-2f8720e63681","ios":"levelo://app?vid=0f7caa9f-1d1a-40d7-9b4a-2f8720e63681"},"vehicle_type_id":"4","last_reported":1758215324,"current_range_meters":22800,"station_id":"","pricing_plan_id":"cebpf4jnsgd1na2vs0mg"},{"bike_id":"2c734c36-442f-468e-ab47-e34ad5183e32","system_id":"levelo_inurba_marseille","lat":43.25772,"lon":5.41047,"is_reserved":false,"is_disabled":false,"rental_uris":{"android":"levelo://app?vid=2c734c36-442f-468e-ab47-e34ad5183e32","ios":"levelo://app?vid=2c734c36-442f-468e-ab47-e34ad5183e32"},"vehicle_type_id":"4","last_reported":1758215324,"current_range_meters":22800,"station_id":"","pricing_plan_id":"cebpf4jnsgd1na2vs0mg"},{"bike_id":"9701fadd-b192-4122-b2a8-b77e6f387b58","system_id":"levelo_inurba_marseille","lat":43.29592,"lon":5.38091,"is_reserved":false,"is_disabled":false,"rental_uris":{"android":"levelo://app?vid=9701fadd-b192-4122-b2a8-b77e6f387b58","ios":"levelo://app?vid=9701fadd-b192-4122-b2a8-b77e6f387b58"},"vehicle_type_id":"4","last_reported":1758215324,"current_range_meters":22800,"station_id":"","pricing_plan_id":"cebpf4jnsgd1na2vs0mg"},{"bike_id":"f8e9a8a7-5822-4d88-ba20-7cb8052c0a8f","system_id":"levelo_inurba_marseille","lat":43.29928,"lon":5.36551,"is_reserved":false,"is_disabled":false,"rental_uris":{"android":"levelo://app?vid=f8e9a8a7-5822-4d88-ba20-7cb8052c0a8f","ios":"levelo://app?vid=f8e9a8a7-5822-4d88-ba20-7cb8052c0a8f"},"vehicle_type_id":"4","last_reported":1758215324,"current_range_meters":22800,"station_id":"ce4bgm92rcd13ifvqbr0","pricing_plan_id":"cebpf4jnsgd1na2vs0mg"},{"bike_id":"adbab27a-e95d-4607-b8a3-6dfd23cf79c3","system_id":"levelo_inurba_marseille","lat":43.31726,"lon":5.42399,"is_reserved":false,"is_disabled":false,"rental_uris":{"android":"levelo://app?vid=adbab27a-e95d-4607-b8a3-6dfd23cf79c3","ios":"levelo://app?vid=adbab27a-e95d-4607-b8a3-6dfd23cf79c3"},"vehicle_type_id":"4","last_reported":1758215324,"current_range_meters":22800,"station_id":"ce4bhp92rcd13ifvqhbg","pricing_plan_id":"cebpf4jnsgd1na2vs0mg"},{"bike_id":"a07a513e-e5a9-4481-8592-d991379bc662","system_id":"levelo_inurba_marseille","lat":43.337536,"lon":5.374536,"is_reserved":false,"is_disabled":false,"rental_uris":{"android":"levelo://app?vid=a07a513e-e5a9-4481-8592-d991379bc662","ios":"levelo://app?vid=a07a513e-e5a9-4481-8592-d991379bc662"},"vehicle_type_id":"4","last_reported":1758215324,"current_range_meters":22800,"station_id":"","pricing_plan_id":"cebpf4jnsgd1na2vs0mg"},{"bike_id":"95913ca2-1462-4825-a4f2-85b2cee0ee58","system_id":"levelo_inurba_marseille","lat":43.29688,"lon":5.37294,"is_reserved":false,"is_disabled":false,"rental_uris":{"android":"levelo://app?vid=95913ca2-1462-4825-a4f2-85b2cee0ee58","ios":"levelo://app?vid=95913ca2-1462-4825-a4f2-85b2cee0ee58"},"vehicle_type_id":"4","last_reported":1758215324,"current_range_meters":23200,"station_id":"","pricing_plan_id":"cebpf4jnsgd1na2vs0mg"},{"bike_id":"b54d06bf-82d9-48cb-ae8d-065a5bec2925","system_id":"levelo_inurba_marseille","lat":43.268343,"lon":5.403002,"is_reserved":false,"is_disabled":false,"rental_uris":{"android":"levelo://app?vid=b54d06bf-82d9-48cb-ae8d-065a5bec2925","ios":"levelo://app?vid=b54d06bf-82d9-48cb-ae8d-065a5bec2925"},"vehicle_type_id":"4","last_reported":1758215324,"current_range_meters":23200,"station_id":"ce501612rcd8frsf0b60","pricing_plan_id":"cebpf4jnsgd1na2vs0mg"},{"bike_id":"08faf21b-3bbb-4d4e-975e-8b59b390f18e","system_id":"levelo_inurba_marseille","lat":43.29542,"lon":5.37505,"is_reserved":false,"is_disabled":false,"rental_uris":{"android":"levelo://app?vid=08faf21b-3bbb-4d4e-975e-8b59b390f18e","ios":"levelo://app?vid=08faf21b-3bbb-4d4e-975e-8b59b390f18e"},"vehicle_type_id":"4","last_reported":1758215324,"current_range_meters":23200,"station_id":"ce4bgkp2rcd13ifvqbmg","pricing_plan_id":"cebpf4jnsgd1na2vs0mg"},{"bike_id":"3edab8b5-08ab-4bd7-a8e3-46e14fec2b69","system_id":"levelo_inurba_marseille","lat":43.22571,"lon":5.41644,"is_reserved":false,"is_disabled":false,"rental_uris":{"android":"levelo://app?vid=3edab8b5-08ab-4bd7-a8e3-46e14fec2b69","ios":"levelo://app?vid=3edab8b5-08ab-4bd7-a8e3-46e14fec2b69"},"vehicle_type_id":"4","last_reported":1758215324,"current_range_meters":23200,"station_id":"st_d2o4gvlbi1j2169b742g","pricing_plan_id":"cebpf4jnsgd1na2vs0mg"},{"bike_id":"53e02f6e-4962-4ee9-b9b2-dc9c168d5296","system_id":"levelo_inurba_marseille","lat":43.2781,"lon":5.40721,"is_reserved":false,"is_disabled":false,"rental_uris":{"android":"levelo://app?vid=53e02f6e-4962-4ee9-b9b2-dc9c168d5296","ios":"levelo://app?vid=53e02f6e-4962-4ee9-b9b2-dc9c168d5296"},"vehicle_type_id":"4","last_reported":1758215324,"current_range_meters":23200,"station_id":"ce4bhnh2rcd13ifvqgtg","pricing_plan_id":"cebpf4jnsgd1na2vs0mg"},{"bike_id":"af73c4cf-f4c8-4d3b-902e-58e02def4a83","system_id":"levelo_inurba_marseille","lat":43.29531,"lon":5.37512,"is_reserved":false,"is_disabled":false,"rental_uris":{"android":"levelo://app?vid=af73c4cf-f4c8-4d3b-902e-58e02def4a83","ios":"levelo://app?vid=af73c4cf-f4c8-4d3b-902e-58e02def4a83"},"vehicle_type_id":"4","last_reported":1758215324,"current_range_meters":23200,"station_id":"ce4bgkp2rcd13ifvqbmg","pricing_plan_id":"cebpf4jnsgd1na2vs0mg"},{"bike_id":"3dcdc0f5-6b20-4dff-8e27-770c4b24b581","system_id":"levelo_inurba_marseille","lat":43.30135,"lon":5.38779,"is_reserved":false,"is_disabled":false,"rental_uris":{"android":"levelo://app?vid=3dcdc0f5-6b20-4dff-8e27-770c4b24b581","ios":"levelo://app?vid=3dcdc0f5-6b20-4dff-8e27-770c4b24b581"},"vehicle_type_id":"4","last_reported":1758215324,"current_range_meters":23200,"station_id":"ce4bghh2rcd13ifvqb60","pricing_plan_id":"cebpf4jnsgd1na2vs0mg"},{"bike_id":"68adab37-f5ad-4072-b58a-fe6c68285ca6","system_id":"levelo_inurba_marseille","lat":43.30627,"lon":5.37633,"is_reserved":false,"is_disabled":false,"rental_uris":{"android":"levelo://app?vid=68adab37-f5ad-4072-b58a-fe6c68285ca6","ios":"levelo://app?vid=68adab37-f5ad-4072-b58a-fe6c68285ca6"},"vehicle_type_id":"4","last_reported":1758215324,"current_range_meters":24000,"station_id":"","pricing_plan_id":"cebpf4jnsgd1na2vs0mg"},{"bike_id":"81373f40-0e73-4824-a3a2-7061827dd5a8","system_id":"levelo_inurba_marseille","lat":43.21752,"lon":5.34605,"is_reserved":false,"is_disabled":false,"rental_uris":{"android":"levelo://app?vid=81373f40-0e73-4824-a3a2-7061827dd5a8","ios":"levelo://app?vid=81373f40-0e73-4824-a3a2-7061827dd5a8"},"vehicle_type_id":"4","last_reported":1758215324,"current_range_meters":24000,"station_id":"","pricing_plan_id":"cebpf4jnsgd1na2vs0mg"},{"bike_id":"2dbb25d8-e9da-48a9-99d5-d9f17b655900","system_id":"levelo_inurba_marseille","lat":43.24167,"lon":5.36401,"is_reserved":false,"is_disabled":false,"rental_uris":{"android":"levelo://app?vid=2dbb25d8-e9da-48a9-99d5-d9f17b655900","ios":"levelo://app?vid=2dbb25d8-e9da-48a9-99d5-d9f17b655900"},"vehicle_type_id":"4","last_reported":1758215324,"current_range_meters":24000,"station_id":"cpo36qri1sfpv3e86is0","pricing_plan_id":"cebpf4jnsgd1na2vs0mg"},{"bike_id":"07dd6c8a-80ab-4a0a-916c-157583460dab","system_id":"levelo_inurba_marseille","lat":43.28419,"lon":5.34989,"is_reserved":false,"is_disabled":false,"rental_uris":{"android":"levelo://app?vid=07dd6c8a-80ab-4a0a-916c-157583460dab","ios":"levelo://app?vid=07dd6c8a-80ab-4a0a-916c-157583460dab"},"vehicle_type_id":"4","last_reported":1758215324,"current_range_meters":24400,"station_id":"ce4bhbh2rcd13ifvqepg","pricing_plan_id":"cebpf4jnsgd1na2vs0mg"},{"bike_id":"fad88954-767e-45cc-a537-fd67a4baa58f","system_id":"levelo_inurba_marseille","lat":43.28837,"lon":5.39306,"is_reserved":false,"is_disabled":false,"rental_uris":{"android":"levelo://app?vid=fad88954-767e-45cc-a537-fd67a4baa58f","ios":"levelo://app?vid=fad88954-767e-45cc-a537-fd67a4baa58f"},"vehicle_type_id":"4","last_reported":1758215324,"current_range_meters":24000,"station_id":"ce4bh2p2rcd13ifvqdi0","pricing_plan_id":"cebpf4jnsgd1na2vs0mg"},{"bike_id":"562cce2b-a9ca-4211-8f9a-56da2dc6d559","system_id":"levelo_inurba_marseille","lat":43.30944,"lon":5.39039,"is_reserved":false,"is_disabled":false,"rental_uris":{"android":"levelo://app?vid=562cce2b-a9ca-4211-8f9a-56da2dc6d559","ios":"levelo://app?vid=562cce2b-a9ca-4211-8f9a-56da2dc6d559"},"vehicle_type_id":"4","last_reported":1758215324,"current_range_meters":24400,"station_id":"ce4bgup2rcd13ifvqco0","pricing_plan_id":"cebpf4jnsgd1na2vs0mg"},{"bike_id":"308f5fcf-8e8f-4435-baef-5d542f9a78c1","system_id":"levelo_inurba_marseille","lat":43.28002,"lon":5.40019,"is_reserved":false,"is_disabled":false,"rental_uris":{"android":"levelo://app?vid=308f5fcf-8e8f-4435-baef-5d542f9a78c1","ios":"levelo://app?vid=308f5fcf-8e8f-4435-baef-5d542f9a78c1"},"vehicle_type_id":"4","last_reported":1758215324,"current_range_meters":24400,"station_id":"ce4bho92rcd13ifvqh4g","pricing_plan_id":"cebpf4jnsgd1na2vs0mg"},{"bike_id":"e2210011-dd7e-48e2-a8e7-c885ad93852c","system_id":"levelo_inurba_marseille","lat":43.254495,"lon":5.418624,"is_reserved":false,"is_disabled":false,"rental_uris":{"android":"levelo://app?vid=e2210011-dd7e-48e2-a8e7-c885ad93852c","ios":"levelo://app?vid=e2210011-dd7e-48e2-a8e7-c885ad93852c"},"vehicle_type_id":"4","last_reported":1758215324,"current_range_meters":24400,"station_id":"","pricing_plan_id":"cebpf4jnsgd1na2vs0mg"},{"bike_id":"b8af4056-fb36-4e39-a4f0-5cd179383459","system_id":"levelo_inurba_marseille","lat":43.32918,"lon":5.38949,"is_reserved":false,"is_disabled":false,"rental_uris":{"android":"levelo://app?vid=b8af4056-fb36-4e39-a4f0-5cd179383459","ios":"levelo://app?vid=b8af4056-fb36-4e39-a4f0-5cd179383459"},"vehicle_type_id":"4","last_reported":1758215324,"current_range_meters":24400,"station_id":"","pricing_plan_id":"cebpf4jnsgd1na2vs0mg"},{"bike_id":"45fd4f40-65b4-4693-81af-894a9f3276d0","system_id":"levelo_inurba_marseille","lat":43.30086,"lon":5.39079,"is_reserved":false,"is_disabled":false,"rental_uris":{"android":"levelo://app?vid=45fd4f40-65b4-4693-81af-894a9f3276d0","ios":"levelo://app?vid=45fd4f40-65b4-4693-81af-894a9f3276d0"},"vehicle_type_id":"4","last_reported":1758215324,"current_range_meters":24400,"station_id":"ce4bh192rcd13ifvqdb0","pricing_plan_id":"cebpf4jnsgd1na2vs0mg"},{"bike_id":"97514a44-1f4d-4ae1-a270-04ca7b75c621","system_id":"levelo_inurba_marseille","lat":43.28841,"lon":5.42524,"is_reserved":false,"is_disabled":false,"rental_uris":{"android":"levelo://app?vid=97514a44-1f4d-4ae1-a270-04ca7b75c621","ios":"levelo://app?vid=97514a44-1f4d-4ae1-a270-04ca7b75c621"},"vehicle_type_id":"4","last_reported":1758215324,"current_range_meters":24800,"station_id":"","pricing_plan_id":"cebpf4jnsgd1na2vs0mg"},{"bike_id":"932aaedf-dd17-4047-8c0a-8fa28c4ede96","system_id":"levelo_inurba_marseille","lat":43.33775,"lon":5.37481,"is_reserved":false,"is_disabled":false,"rental_uris":{"android":"levelo://app?vid=932aaedf-dd17-4047-8c0a-8fa28c4ede96","ios":"levelo://app?vid=932aaedf-dd17-4047-8c0a-8fa28c4ede96"},"vehicle_type_id":"4","last_reported":1758215324,"current_range_meters":24800,"station_id":"","pricing_plan_id":"cebpf4jnsgd1na2vs0mg"},{"bike_id":"a03c09ad-b3e9-4837-a2db-c7aaf6087e68","system_id":"levelo_inurba_marseille","lat":43.28069,"lon":5.39657,"is_reserved":false,"is_disabled":false,"rental_uris":{"android":"levelo://app?vid=a03c09ad-b3e9-4837-a2db-c7aaf6087e68","ios":"levelo://app?vid=a03c09ad-b3e9-4837-a2db-c7aaf6087e68"},"vehicle_type_id":"4","last_reported":1758215324,"current_range_meters":24400,"station_id":"ce4bho12rcd13ifvqh2g","pricing_plan_id":"cebpf4jnsgd1na2vs0mg"},{"bike_id":"e5dd9a0e-a122-4005-a718-fcd69b226c9b","system_id":"levelo_inurba_marseille","lat":43.297424,"lon":5.37674,"is_reserved":false,"is_disabled":true,"rental_uris":{"android":"levelo://app?vid=e5dd9a0e-a122-4005-a718-fcd69b226c9b","ios":"levelo://app?vid=e5dd9a0e-a122-4005-a718-fcd69b226c9b"},"vehicle_type_id":"4","last_reported":1758215324,"current_range_meters":24800,"station_id":"","pricing_plan_id":"cebpf4jnsgd1na2vs0mg"},{"bike_id":"49bd167c-473f-4dfe-a13a-8aeddc071050","system_id":"levelo_inurba_marseille","lat":43.27806,"lon":5.40712,"is_reserved":false,"is_disabled":false,"rental_uris":{"android":"levelo://app?vid=49bd167c-473f-4dfe-a13a-8aeddc071050","ios":"levelo://app?vid=49bd167c-473f-4dfe-a13a-8aeddc071050"},"vehicle_type_id":"4","last_reported":1758215324,"current_range_meters":24800,"station_id":"ce4bhnh2rcd13ifvqgtg","pricing_plan_id":"cebpf4jnsgd1na2vs0mg"},{"bike_id":"37f99d20-8b7f-45c6-94aa-9a4143897022","system_id":"levelo_inurba_marseille","lat":43.30924,"lon":5.40131,"is_reserved":false,"is_disabled":false,"rental_uris":{"android":"levelo://app?vid=37f99d20-8b7f-45c6-94aa-9a4143897022","ios":"levelo://app?vid=37f99d20-8b7f-45c6-94aa-9a4143897022"},"vehicle_type_id":"4","last_reported":1758215324,"current_range_meters":24800,"station_id":"","pricing_plan_id":"cebpf4jnsgd1na2vs0mg"},{"bike_id":"76bbf107-7ec5-4826-b296-ab629ecd14ab","system_id":"levelo_inurba_marseille","lat":43.29831,"lon":5.42056,"is_reserved":false,"is_disabled":false,"rental_uris":{"android":"levelo://app?vid=76bbf107-7ec5-4826-b296-ab629ecd14ab","ios":"levelo://app?vid=76bbf107-7ec5-4826-b296-ab629ecd14ab"},"vehicle_type_id":"4","last_reported":1758215324,"current_range_meters":24800,"station_id":"","pricing_plan_id":"cebpf4jnsgd1na2vs0mg"},{"bike_id":"cfe6dec4-7099-43b3-9e41-3212cd5eeadd","system_id":"levelo_inurba_marseille","lat":43.29614,"lon":5.37697,"is_reserved":false,"is_disabled":true,"rental_uris":{"android":"levelo://app?vid=cfe6dec4-7099-43b3-9e41-3212cd5eeadd","ios":"levelo://app?vid=cfe6dec4-7099-43b3-9e41-3212cd5eeadd"},"vehicle_type_id":"4","last_reported":1758215324,"current_range_meters":25200,"station_id":"","pricing_plan_id":"cebpf4jnsgd1na2vs0mg"},{"bike_id":"62e7025b-6989-462a-a28d-a93d612d9049","system_id":"levelo_inurba_marseille","lat":43.29715,"lon":5.38102,"is_reserved":false,"is_disabled":false,"rental_uris":{"android":"levelo://app?vid=62e7025b-6989-462a-a28d-a93d612d9049","ios":"levelo://app?vid=62e7025b-6989-462a-a28d-a93d612d9049"},"vehicle_type_id":"4","last_reported":1758215324,"current_range_meters":25200,"station_id":"","pricing_plan_id":"cebpf4jnsgd1na2vs0mg"},{"bike_id":"3bba1a18-8246-482c-a097-fc3e7b197e9b","system_id":"levelo_inurba_marseille","lat":43.29625,"lon":5.37707,"is_reserved":false,"is_disabled":true,"rental_uris":{"android":"levelo://app?vid=3bba1a18-8246-482c-a097-fc3e7b197e9b","ios":"levelo://app?vid=3bba1a18-8246-482c-a097-fc3e7b197e9b"},"vehicle_type_id":"4","last_reported":1758215324,"current_range_meters":25200,"station_id":"","pricing_plan_id":"cebpf4jnsgd1na2vs0mg"},{"bike_id":"ce5eebfb-f89a-4680-92e0-9b0f8b1831a6","system_id":"levelo_inurba_marseille","lat":43.29617,"lon":5.37706,"is_reserved":false,"is_disabled":true,"rental_uris":{"android":"levelo://app?vid=ce5eebfb-f89a-4680-92e0-9b0f8b1831a6","ios":"levelo://app?vid=ce5eebfb-f89a-4680-92e0-9b0f8b1831a6"},"vehicle_type_id":"4","last_reported":1758215324,"current_range_meters":25200,"station_id":"","pricing_plan_id":"cebpf4jnsgd1na2vs0mg"},{"bike_id":"b3e55afa-2b43-4d1d-b70b-d95b59fcb664","system_id":"levelo_inurba_marseille","lat":43.3014,"lon":5.3742,"is_reserved":false,"is_disabled":true,"rental_uris":{"android":"levelo://app?vid=b3e55afa-2b43-4d1d-b70b-d95b59fcb664","ios":"levelo://app?vid=b3e55afa-2b43-4d1d-b70b-d95b59fcb664"},"vehicle_type_id":"4","last_reported":1758215324,"current_range_meters":25200,"station_id":"","pricing_plan_id":"cebpf4jnsgd1na2vs0mg"},{"bike_id":"aee4e66a-da70-4a67-a0c6-9fb24af213c2","system_id":"levelo_inurba_marseille","lat":43.24172,"lon":5.36394,"is_reserved":false,"is_disabled":false,"rental_uris":{"android":"levelo://app?vid=aee4e66a-da70-4a67-a0c6-9fb24af213c2","ios":"levelo://app?vid=aee4e66a-da70-4a67-a0c6-9fb24af213c2"},"vehicle_type_id":"4","last_reported":1758215324,"current_range_meters":25200,"station_id":"cpo36qri1sfpv3e86is0","pricing_plan_id":"cebpf4jnsgd1na2vs0mg"},{"bike_id":"4266b374-d4bf-4fd2-bb94-51b2d7d40946","system_id":"levelo_inurba_marseille","lat":43.22582,"lon":5.41646,"is_reserved":false,"is_disabled":false,"rental_uris":{"android":"levelo://app?vid=4266b374-d4bf-4fd2-bb94-51b2d7d40946","ios":"levelo://app?vid=4266b374-d4bf-4fd2-bb94-51b2d7d40946"},"vehicle_type_id":"4","last_reported":1758215324,"current_range_meters":25600,"station_id":"st_d2o4gvlbi1j2169b742g","pricing_plan_id":"cebpf4jnsgd1na2vs0mg"},{"bike_id":"2feaafe9-0b17-4507-a211-588c91f7df41","system_id":"levelo_inurba_marseille","lat":43.29958,"lon":5.37157,"is_reserved":false,"is_disabled":false,"rental_uris":{"android":"levelo://app?vid=2feaafe9-0b17-4507-a211-588c91f7df41","ios":"levelo://app?vid=2feaafe9-0b17-4507-a211-588c91f7df41"},"vehicle_type_id":"4","last_reported":1758215324,"current_range_meters":25600,"station_id":"","pricing_plan_id":"cebpf4jnsgd1na2vs0mg"},{"bike_id":"6f86a30f-0fe3-4374-9f4f-580e96f3958b","system_id":"levelo_inurba_marseille","lat":43.28675,"lon":5.38655,"is_reserved":false,"is_disabled":false,"rental_uris":{"android":"levelo://app?vid=6f86a30f-0fe3-4374-9f4f-580e96f3958b","ios":"levelo://app?vid=6f86a30f-0fe3-4374-9f4f-580e96f3958b"},"vehicle_type_id":"4","last_reported":1758215324,"current_range_meters":25600,"station_id":"ce4bh492rcd13ifvqdug","pricing_plan_id":"cebpf4jnsgd1na2vs0mg"},{"bike_id":"5ebdbe86-9bd9-4f97-a39b-82a77b050d9a","system_id":"levelo_inurba_marseille","lat":43.231754,"lon":5.399964,"is_reserved":false,"is_disabled":false,"rental_uris":{"android":"levelo://app?vid=5ebdbe86-9bd9-4f97-a39b-82a77b050d9a","ios":"levelo://app?vid=5ebdbe86-9bd9-4f97-a39b-82a77b050d9a"},"vehicle_type_id":"4","last_reported":1758215324,"current_range_meters":25600,"station_id":"ce4bhn12rcd13ifvqgqg","pricing_plan_id":"cebpf4jnsgd1na2vs0mg"},{"bike_id":"cbc3d8ff-5140-499f-98d1-87b622cfd1d4","system_id":"levelo_inurba_marseille","lat":43.29885,"lon":5.39784,"is_reserved":false,"is_disabled":false,"rental_uris":{"android":"levelo://app?vid=cbc3d8ff-5140-499f-98d1-87b622cfd1d4","ios":"levelo://app?vid=cbc3d8ff-5140-499f-98d1-87b622cfd1d4"},"vehicle_type_id":"4","last_reported":1758215324,"current_range_meters":25600,"station_id":"","pricing_plan_id":"cebpf4jnsgd1na2vs0mg"},{"bike_id":"65201847-9cc5-4858-b783-32a87c66d952","system_id":"levelo_inurba_marseille","lat":43.28855,"lon":5.42527,"is_reserved":false,"is_disabled":false,"rental_uris":{"android":"levelo://app?vid=65201847-9cc5-4858-b783-32a87c66d952","ios":"levelo://app?vid=65201847-9cc5-4858-b783-32a87c66d952"},"vehicle_type_id":"4","last_reported":1758215324,"current_range_meters":25600,"station_id":"","pricing_plan_id":"cebpf4jnsgd1na2vs0mg"},{"bike_id":"1d0b5d60-568f-4170-98dc-84bbc30b1c4e","system_id":"levelo_inurba_marseille","lat":43.28377,"lon":5.43844,"is_reserved":false,"is_disabled":false,"rental_uris":{"android":"levelo://app?vid=1d0b5d60-568f-4170-98dc-84bbc30b1c4e","ios":"levelo://app?vid=1d0b5d60-568f-4170-98dc-84bbc30b1c4e"},"vehicle_type_id":"4","last_reported":1758215324,"current_range_meters":25600,"station_id":"","pricing_plan_id":"cebpf4jnsgd1na2vs0mg"},{"bike_id":"b709b1de-3955-4581-b798-9dc1df4d6a3f","system_id":"levelo_inurba_marseille","lat":43.28477,"lon":5.38451,"is_reserved":false,"is_disabled":true,"rental_uris":{"android":"levelo://app?vid=b709b1de-3955-4581-b798-9dc1df4d6a3f","ios":"levelo://app?vid=b709b1de-3955-4581-b798-9dc1df4d6a3f"},"vehicle_type_id":"4","last_reported":1758215324,"current_range_meters":26000,"station_id":"ce4bh512rcd13ifvqe3g","pricing_plan_id":"cebpf4jnsgd1na2vs0mg"},{"bike_id":"c72ca9cb-9508-4433-b06d-56c939349529","system_id":"levelo_inurba_marseille","lat":43.29567,"lon":5.39974,"is_reserved":false,"is_disabled":false,"rental_uris":{"android":"levelo://app?vid=c72ca9cb-9508-4433-b06d-56c939349529","ios":"levelo://app?vid=c72ca9cb-9508-4433-b06d-56c939349529"},"vehicle_type_id":"4","last_reported":1758215324,"current_range_meters":26000,"station_id":"","pricing_plan_id":"cebpf4jnsgd1na2vs0mg"},{"bike_id":"e86857f8-f405-4657-b145-ec58ed187087","system_id":"levelo_inurba_marseille","lat":43.31484,"lon":5.3881,"is_reserved":false,"is_disabled":false,"rental_uris":{"android":"levelo://app?vid=e86857f8-f405-4657-b145-ec58ed187087","ios":"levelo://app?vid=e86857f8-f405-4657-b145-ec58ed187087"},"vehicle_type_id":"4","last_reported":1758215324,"current_range_meters":26000,"station_id":"ce4bgt92rcd13ifvqcf0","pricing_plan_id":"cebpf4jnsgd1na2vs0mg"},{"bike_id":"fe6eeac7-fd25-4af2-b3cb-30d70e84259d","system_id":"levelo_inurba_marseille","lat":43.29167,"lon":5.37173,"is_reserved":false,"is_disabled":false,"rental_uris":{"android":"levelo://app?vid=fe6eeac7-fd25-4af2-b3cb-30d70e84259d","ios":"levelo://app?vid=fe6eeac7-fd25-4af2-b3cb-30d70e84259d"},"vehicle_type_id":"4","last_reported":1758215324,"current_range_meters":26000,"station_id":"ce4bha92rcd13ifvqeh0","pricing_plan_id":"cebpf4jnsgd1na2vs0mg"},{"bike_id":"2f41627e-68dd-4b97-98c4-9278de79949d","system_id":"levelo_inurba_marseille","lat":43.30593,"lon":5.39367,"is_reserved":false,"is_disabled":false,"rental_uris":{"android":"levelo://app?vid=2f41627e-68dd-4b97-98c4-9278de79949d","ios":"levelo://app?vid=2f41627e-68dd-4b97-98c4-9278de79949d"},"vehicle_type_id":"4","last_reported":1758215324,"current_range_meters":26000,"station_id":"ce4bh0p2rcd13ifvqd80","pricing_plan_id":"cebpf4jnsgd1na2vs0mg"},{"bike_id":"e167e025-8eea-4a20-b7b2-46b465480b09","system_id":"levelo_inurba_marseille","lat":43.29308,"lon":5.37183,"is_reserved":false,"is_disabled":false,"rental_uris":{"android":"levelo://app?vid=e167e025-8eea-4a20-b7b2-46b465480b09","ios":"levelo://app?vid=e167e025-8eea-4a20-b7b2-46b465480b09"},"vehicle_type_id":"4","last_reported":1758215324,"current_range_meters":26800,"station_id":"","pricing_plan_id":"cebpf4jnsgd1na2vs0mg"},{"bike_id":"dbb66c19-5640-445e-913d-44c89b1297ed","system_id":"levelo_inurba_marseille","lat":43.29786,"lon":5.39358,"is_reserved":false,"is_disabled":true,"rental_uris":{"android":"levelo://app?vid=dbb66c19-5640-445e-913d-44c89b1297ed","ios":"levelo://app?vid=dbb66c19-5640-445e-913d-44c89b1297ed"},"vehicle_type_id":"4","last_reported":1758215324,"current_range_meters":26800,"station_id":"chh1huq6cuj3fo74tm60","pricing_plan_id":"cebpf4jnsgd1na2vs0mg"},{"bike_id":"444b2dd7-03dc-4d8f-8e7f-442801b28af4","system_id":"levelo_inurba_marseille","lat":43.30804,"lon":5.43533,"is_reserved":false,"is_disabled":false,"rental_uris":{"android":"levelo://app?vid=444b2dd7-03dc-4d8f-8e7f-442801b28af4","ios":"levelo://app?vid=444b2dd7-03dc-4d8f-8e7f-442801b28af4"},"vehicle_type_id":"4","last_reported":1758215324,"current_range_meters":26800,"station_id":"ce4bhph2rcd13ifvqheg","pricing_plan_id":"cebpf4jnsgd1na2vs0mg"},{"bike_id":"75859d22-21a8-4c4d-b707-29743ffc5b3e","system_id":"levelo_inurba_marseille","lat":43.24064,"lon":5.37749,"is_reserved":false,"is_disabled":false,"rental_uris":{"android":"levelo://app?vid=75859d22-21a8-4c4d-b707-29743ffc5b3e","ios":"levelo://app?vid=75859d22-21a8-4c4d-b707-29743ffc5b3e"},"vehicle_type_id":"4","last_reported":1758215324,"current_range_meters":26800,"station_id":"ce4bhnp2rcd13ifvqgvg","pricing_plan_id":"cebpf4jnsgd1na2vs0mg"},{"bike_id":"0316ec0a-4633-4ecc-a55f-12cb5c586b17","system_id":"levelo_inurba_marseille","lat":43.29248,"lon":5.40912,"is_reserved":false,"is_disabled":false,"rental_uris":{"android":"levelo://app?vid=0316ec0a-4633-4ecc-a55f-12cb5c586b17","ios":"levelo://app?vid=0316ec0a-4633-4ecc-a55f-12cb5c586b17"},"vehicle_type_id":"4","last_reported":1758215324,"current_range_meters":27200,"station_id":"ce4bh192rcd13ifvqdc0","pricing_plan_id":"cebpf4jnsgd1na2vs0mg"},{"bike_id":"0d325681-9541-45e8-882a-ea58b6044e26","system_id":"levelo_inurba_marseille","lat":43.22923,"lon":5.35381,"is_reserved":false,"is_disabled":false,"rental_uris":{"android":"levelo://app?vid=0d325681-9541-45e8-882a-ea58b6044e26","ios":"levelo://app?vid=0d325681-9541-45e8-882a-ea58b6044e26"},"vehicle_type_id":"4","last_reported":1758215324,"current_range_meters":27200,"station_id":"cpo3532slgdg3j2ikp40","pricing_plan_id":"cebpf4jnsgd1na2vs0mg"},{"bike_id":"7d714080-82f3-4198-8a00-5d3bd218bbb0","system_id":"levelo_inurba_marseille","lat":43.2407,"lon":5.37764,"is_reserved":false,"is_disabled":false,"rental_uris":{"android":"levelo://app?vid=7d714080-82f3-4198-8a00-5d3bd218bbb0","ios":"levelo://app?vid=7d714080-82f3-4198-8a00-5d3bd218bbb0"},"vehicle_type_id":"4","last_reported":1758215324,"current_range_meters":27200,"station_id":"ce4bhnp2rcd13ifvqgvg","pricing_plan_id":"cebpf4jnsgd1na2vs0mg"},{"bike_id":"c19ce7ae-5df8-42b3-9193-4e9d9c3ade45","system_id":"levelo_inurba_marseille","lat":43.282654,"lon":5.350599,"is_reserved":false,"is_disabled":true,"rental_uris":{"android":"levelo://app?vid=c19ce7ae-5df8-42b3-9193-4e9d9c3ade45","ios":"levelo://app?vid=c19ce7ae-5df8-42b3-9193-4e9d9c3ade45"},"vehicle_type_id":"4","last_reported":1758215324,"current_range_meters":27200,"station_id":"ce4bhbp2rcd13ifvqerg","pricing_plan_id":"cebpf4jnsgd1na2vs0mg"},{"bike_id":"57d2fd44-dcdc-4a09-947f-3f2b39cd9847","system_id":"levelo_inurba_marseille","lat":43.29001,"lon":5.35614,"is_reserved":false,"is_disabled":false,"rental_uris":{"android":"levelo://app?vid=57d2fd44-dcdc-4a09-947f-3f2b39cd9847","ios":"levelo://app?vid=57d2fd44-dcdc-4a09-947f-3f2b39cd9847"},"vehicle_type_id":"4","last_reported":1758215324,"current_range_meters":27200,"station_id":"ce4bhb92rcd13ifvqen0","pricing_plan_id":"cebpf4jnsgd1na2vs0mg"},{"bike_id":"c1fe14cd-728d-4e7d-838d-c323e5e8aaf1","system_id":"levelo_inurba_marseille","lat":43.28463,"lon":5.38532,"is_reserved":false,"is_disabled":true,"rental_uris":{"android":"levelo://app?vid=c1fe14cd-728d-4e7d-838d-c323e5e8aaf1","ios":"levelo://app?vid=c1fe14cd-728d-4e7d-838d-c323e5e8aaf1"},"vehicle_type_id":"4","last_reported":1758215324,"current_range_meters":27200,"station_id":"ce4bh8p2rcd13ifvqeb0","pricing_plan_id":"cebpf4jnsgd1na2vs0mg"},{"bike_id":"9176512c-2cc1-4df2-a8e0-6be514fbcdbf","system_id":"levelo_inurba_marseille","lat":43.33748,"lon":5.37465,"is_reserved":false,"is_disabled":false,"rental_uris":{"android":"levelo://app?vid=9176512c-2cc1-4df2-a8e0-6be514fbcdbf","ios":"levelo://app?vid=9176512c-2cc1-4df2-a8e0-6be514fbcdbf"},"vehicle_type_id":"4","last_reported":1758215324,"current_range_meters":27200,"station_id":"","pricing_plan_id":"cebpf4jnsgd1na2vs0mg"},{"bike_id":"3789a9ae-ad87-458b-9531-74f7a80fcda2","system_id":"levelo_inurba_marseille","lat":43.26031,"lon":5.41749,"is_reserved":false,"is_disabled":false,"rental_uris":{"android":"levelo://app?vid=3789a9ae-ad87-458b-9531-74f7a80fcda2","ios":"levelo://app?vid=3789a9ae-ad87-458b-9531-74f7a80fcda2"},"vehicle_type_id":"4","last_reported":1758215324,"current_range_meters":27200,"station_id":"","pricing_plan_id":"cebpf4jnsgd1na2vs0mg"},