{"last_updated":1745593837,"ttl":60,"version":"2.2","data":{"bikes":[{"bike_id":"1d8c1cd8-0b31-4f6e-867b-0abdc71242e6","system_id":"levelo_inurba_marseille","lat":43.289551,"lon":5.364283,"is_reserved":false,"is_disabled":false,"rental_uris":{"android":"levelo://app?vid=1d8c1cd8-0b31-4f6e-867b-0abdc71242e6","ios":"levelo://app?vid=1d8c1cd8-0b31-4f6e-867b-0abdc71242e6"},"vehicle_type_id":"4","last_reported":1745593837,"current_range_meters":2800,"station_id":"ce4bhc92rcd13ifvqetg","pricing_plan_id":"cebpf4jnsgd1na2vs0mg"},{"bike_id":"ad574ec0-7edf-4505-8b23-b3663f128725","system_id":"levelo_inurba_marseille","lat":43.27379,"lon":5.36258,"is_reserved":false,"is_disabled":false,"rental_uris":{"android":"levelo://app?vid=ad574ec0-7edf-4505-8b23-b3663f128725","ios":"levelo://app?vid=ad574ec0-7edf-4505-8b23-b3663f128725"},"vehicle_type_id":"4","last_reported":1745593837,"current_range_meters":2800,"station_id":"ce4bhbh2rcd13ifvqeo0","pricing_plan_id":"cebpf4jnsgd1na2vs0mg"},{"bike_id":"9fb03f25-f0a1-4b46-924c-e47e20174dc4","system_id":"levelo_inurba_marseille","lat":43.27383,"lon":5.36247,"is_reserved":false,"is_disabled":false,"rental_uris":{"android":"levelo://app?vid=9fb03f25-f0a1-4b46-924c-e47e20174dc4","ios":"levelo://app?vid=9fb03f25-f0a1-4b46-924c-e47e20174dc4"},"vehicle_type_id":"4","last_reported":1745593837,"current_range_meters":2800,"station_id":"ce4bhbh2rcd13ifvqeo0","pricing_plan_id":"cebpf4jnsgd1na2vs0mg"},{"bike_id":"6262037e-9f57-43de-ab03-ad8ec57b4a63","system_id":"levelo_inurba_marseille","lat":43.26927,"lon":5.38909,"is_reserved":false,"is_disabled":false,"rental_uris":{"android":"levelo://app?vid=6262037e-9f57-43de-ab03-ad8ec57b4a63","ios":"levelo://app?vid=6262037e-9f57-43de-ab03-ad8ec57b4a63"},"vehicle_type_id":"4","last_reported":1745593837,"current_range_meters":2800,"station_id":"ce4bhhh2rcd13ifvqfl0","pricing_plan_id":"cebpf4jnsgd1na2vs0mg"},{"bike_id":"c9f4adb2-61de-4328-8333-4a1f71b653a4","system_id":"levelo_inurba_marseille","lat":43.28623,"lon":5.35105,"is_reserved":false,"is_disabled":false,"rental_uris":{"android":"levelo://app?vid=c9f4adb2-61de-4328-8333-4a1f71b653a4","ios":"levelo://app?vid=c9f4adb2-61de-4328-8333-4a1f71b653a4"},"vehicle_type_id":"4","last_reported":1745593837,"current_range_meters":3200,"station_id":"ce4bhch2rcd13ifvqeug","pricing_plan_id":"cebpf4jnsgd1na2vs0mg"},{"bike_id":"f9475263-93f7-4578-8336-f5a3f5f08ff5","system_id":"levelo_inurba_marseille","lat":43.25004,"lon":5.38921,"is_reserved":false,"is_disabled":false,"rental_uris":{"android":"levelo://app?vid=f9475263-93f7-4578-8336-f5a3f5f08ff5","ios":"levelo://app?vid=f9475263-93f7-4578-8336-f5a3f5f08ff5"},"vehicle_type_id":"4","last_reported":1745593837,"current_range_meters":6000,"station_id":"ce4bhgp2rcd13ifvqfd0","pricing_plan_id":"cebpf4jnsgd1na2vs0mg"},{"bike_id":"04de76c4-a1ad-45bf-9e28-7c78bfcbb5c0","system_id":"levelo_inurba_marseille","lat":43.25217,"lon":5.37418,"is_reserved":false,"is_disabled":false,"rental_uris":{"android":"levelo://app?vid=04de76c4-a1ad-45bf-9e28-7c78bfcbb5c0","ios":"levelo://app?vid=04de76c4-a1ad-45bf-9e28-7c78bfcbb5c0"},"vehicle_type_id":"4","last_reported":1745593837,"current_range_meters":3200,"station_id":"","pricing_plan_id":"cebpf4jnsgd1na2vs0mg"},{"bike_id":"8cf8da14-e1fd-4fcc-b81a-bf72a0e4400c","system_id":"levelo_inurba_marseille","lat":43.26715,"lon":5.38274,"is_reserved":false,"is_disabled":true,"rental_uris":{"android":"levelo://app?vid=8cf8da14-e1fd-4fcc-b81a-bf72a0e4400c","ios":"levelo://app?vid=8cf8da14-e1fd-4fcc-b81a-bf72a0e4400c"},"vehicle_type_id":"4","last_reported":1745593837,"current_range_meters":3200,"station_id":"ce4bhg92rcd13ifvqf90","pricing_plan_id":"cebpf4jnsgd1na2vs0mg"},{"bike_id":"6e3abe62-c4e5-42e2-84f5-24f00292925b","system_id":"levelo_inurba_marseille","lat":43.22927,"lon":5.3539,"is_reserved":false,"is_disabled":false,"rental_uris":{"android":"levelo://app?vid=6e3abe62-c4e5-42e2-84f5-24f00292925b","ios":"levelo://app?vid=6e3abe62-c4e5-42e2-84f5-24f00292925b"},"vehicle_type_id":"4","last_reported":1745593837,"current_range_meters":4000,"station_id":"cpo3532slgdg3j2ikp40","pricing_plan_id":"cebpf4jnsgd1na2vs0mg"},{"bike_id":"149c8dc5-eb5e-4d50-8bf9-6f18924ad5d9","system_id":"levelo_inurba_marseille","lat":43.2927,"lon":5.38433,"is_reserved":false,"is_disabled":false,"rental_uris":{"android":"levelo://app?vid=149c8dc5-eb5e-4d50-8bf9-6f18924ad5d9","ios":"levelo://app?vid=149c8dc5-eb5e-4d50-8bf9-6f18924ad5d9"},"vehicle_type_id":"4","last_reported":1745593837,"current_range_meters":4000,"station_id":"ce4bh692rcd13ifvqea0","pricing_plan_id":"cebpf4jnsgd1na2vs0mg"},{"bike_id":"47c415eb-9c02-4094-bc4c-e5bc6add6cc6","system_id":"levelo_inurba_marseille","lat":43.212,"lon":5.35068,"is_reserved":false,"is_disabled":false,"rental_uris":{"android":"levelo://app?vid=47c415eb-9c02-4094-bc4c-e5bc6add6cc6","ios":"levelo://app?vid=47c415eb-9c02-4094-bc4c-e5bc6add6cc6"},"vehicle_type_id":"4","last_reported":1745593837,"current_range_meters":4000,"station_id":"st_cvj6sg6p6f1abm77japg","pricing_plan_id":"cebpf4jnsgd1na2vs0mg"},{"bike_id":"93c818e0-211c-4835-9ae2-920c5a111f13","system_id":"levelo_inurba_marseille","lat":43.295202,"lon":5.390461,"is_reserved":false,"is_disabled":false,"rental_uris":{"android":"levelo://app?vid=93c818e0-211c-4835-9ae2-920c5a111f13","ios":"levelo://app?vid=93c818e0-211c-4835-9ae2-920c5a111f13"},"vehicle_type_id":"4","last_reported":1745593837,"current_range_meters":3600,"station_id":"ce4bh492rcd13ifvqdug","pricing_plan_id":"cebpf4jnsgd1na2vs0mg"},{"bike_id":"1ad821f0-3398-42be-99e2-5422ff077661","system_id":"levelo_inurba_marseille","lat":43.30932,"lon":5.40144,"is_reserved":false,"is_disabled":true,"rental_uris":{"android":"levelo://app?vid=1ad821f0-3398-42be-99e2-5422ff077661","ios":"levelo://app?vid=1ad821f0-3398-42be-99e2-5422ff077661"},"vehicle_type_id":"4","last_reported":1745593837,"current_range_meters":4000,"station_id":"ce4bgvp2rcd13ifvqct0","pricing_plan_id":"cebpf4jnsgd1na2vs0mg"},{"bike_id":"2b88805e-14a3-46a3-825c-252eab244fea","system_id":"levelo_inurba_marseille","lat":43.26565,"lon":5.38987,"is_reserved":false,"is_disabled":false,"rental_uris":{"android":"levelo://app?vid=2b88805e-14a3-46a3-825c-252eab244fea","ios":"levelo://app?vid=2b88805e-14a3-46a3-825c-252eab244fea"},"vehicle_type_id":"4","last_reported":1745593837,"current_range_meters":4000,"station_id":"ce4bhe12rcd13ifvqf30","pricing_plan_id":"cebpf4jnsgd1na2vs0mg"},{"bike_id":"6ab7868f-544a-42d8-bfe6-5e25c91b6b87","system_id":"levelo_inurba_marseille","lat":43.25586,"lon":5.38239,"is_reserved":false,"is_disabled":false,"rental_uris":{"android":"levelo://app?vid=6ab7868f-544a-42d8-bfe6-5e25c91b6b87","ios":"levelo://app?vid=6ab7868f-544a-42d8-bfe6-5e25c91b6b87"},"vehicle_type_id":"4","last_reported":1745593837,"current_range_meters":4400,"station_id":"ce4bhih2rcd13ifvqfs0","pricing_plan_id":"cebpf4jnsgd1na2vs0mg"},{"bike_id":"fd265570-119b-4158-9264-8701f39090e6","system_id":"levelo_inurba_marseille","lat":43.29081,"lon":5.37173,"is_reserved":false,"is_disabled":true,"rental_uris":{"android":"levelo://app?vid=fd265570-119b-4158-9264-8701f39090e6","ios":"levelo://app?vid=fd265570-119b-4158-9264-8701f39090e6"},"vehicle_type_id":"4","last_reported":1745593837,"current_range_meters":4400,"station_id":"ce4bh5p2rcd13ifvqe4g","pricing_plan_id":"cebpf4jnsgd1na2vs0mg"},{"bike_id":"fd11b8f9-a69c-4391-b638-b974a641e6d2","system_id":"levelo_inurba_marseille","lat":43.26214,"lon":5.3792,"is_reserved":false,"is_disabled":false,"rental_uris":{"android":"levelo://app?vid=fd11b8f9-a69c-4391-b638-b974a641e6d2","ios":"levelo://app?vid=fd11b8f9-a69c-4391-b638-b974a641e6d2"},"vehicle_type_id":"4","last_reported":1745593837,"current_range_meters":4800,"station_id":"ce4bhjp2rcd13ifvqg90","pricing_plan_id":"cebpf4jnsgd1na2vs0mg"},{"bike_id":"7f7bb490-3591-4178-ba68-ba46ba841033","system_id":"levelo_inurba_marseille","lat":43.255061,"lon":5.381969,"is_reserved":false,"is_disabled":false,"rental_uris":{"android":"levelo://app?vid=7f7bb490-3591-4178-ba68-ba46ba841033","ios":"levelo://app?vid=7f7bb490-3591-4178-ba68-ba46ba841033"},"vehicle_type_id":"4","last_reported":1745593837,"current_range_meters":4800,"station_id":"ce4bhih2rcd13ifvqfs0","pricing_plan_id":"cebpf4jnsgd1na2vs0mg"},{"bike_id":"bb9e542f-6e55-42a6-990a-1ca501554663","system_id":"levelo_inurba_marseille","lat":43.265628,"lon":5.37282,"is_reserved":false,"is_disabled":false,"rental_uris":{"android":"levelo://app?vid=bb9e542f-6e55-42a6-990a-1ca501554663","ios":"levelo://app?vid=bb9e542f-6e55-42a6-990a-1ca501554663"},"vehicle_type_id":"4","last_reported":1745593837,"current_range_meters":4800,"station_id":"ce4bhg12rcd13ifvqf70","pricing_plan_id":"cebpf4jnsgd1na2vs0mg"},{"bike_id":"98635f2b-e15d-453d-a28b-b57fac4e7bb3","system_id":"levelo_inurba_marseille","lat":43.284149,"lon":5.349866,"is_reserved":false,"is_disabled":false,"rental_uris":{"android":"levelo://app?vid=98635f2b-e15d-453d-a28b-b57fac4e7bb3","ios":"levelo://app?vid=98635f2b-e15d-453d-a28b-b57fac4e7bb3"},"vehicle_type_id":"4","last_reported":1745593837,"current_range_meters":5600,"station_id":"ce4bhbh2rcd13ifvqepg","pricing_plan_id":"cebpf4jnsgd1na2vs0mg"},{"bike_id":"4d8c1cc4-7d58-4a75-968e-cbc15710d38f","system_id":"levelo_inurba_marseille","lat":43.26929,"lon":5.38897,"is_reserved":false,"is_disabled":false,"rental_uris":{"android":"levelo://app?vid=4d8c1cc4-7d58-4a75-968e-cbc15710d38f","ios":"levelo://app?vid=4d8c1cc4-7d58-4a75-968e-cbc15710d38f"},"vehicle_type_id":"4","last_reported":1745593837,"current_range_meters":5600,"station_id":"ce4bhhh2rcd13ifvqfl0","pricing_plan_id":"cebpf4jnsgd1na2vs0mg"},{"bike_id":"0114c796-716b-4508-9472-913034e685f5","system_id":"levelo_inurba_marseille","lat":43.27379,"lon":5.36258,"is_reserved":false,"is_disabled":false,"rental_uris":{"android":"levelo://app?vid=0114c796-716b-4508-9472-913034e685f5","ios":"levelo://app?vid=0114c796-716b-4508-9472-913034e685f5"},"vehicle_type_id":"4","last_reported":1745593837,"current_range_meters":4800,"station_id":"ce4bhbh2rcd13ifvqeo0","pricing_plan_id":"cebpf4jnsgd1na2vs0mg"},{"bike_id":"b7d9078d-cf9c-40b9-b694-32aee9f270d1","system_id":"levelo_inurba_marseille","lat":43.25817,"lon":5.39428,"is_reserved":false,"is_disabled":false,"rental_uris":{"android":"levelo://app?vid=b7d9078d-cf9c-40b9-b694-32aee9f270d1","ios":"levelo://app?vid=b7d9078d-cf9c-40b9-b694-32aee9f270d1"},"vehicle_type_id":"4","last_reported":1745593837,"current_range_meters":5600,"station_id":"ce4bhip2rcd13ifvqft0","pricing_plan_id":"cebpf4jnsgd1na2vs0mg"},{"bike_id":"ebd86740-c4a2-4d12-a9da-f8021c74921e","system_id":"levelo_inurba_marseille","lat":43.22533,"lon":5.34783,"is_reserved":false,"is_disabled":false,"rental_uris":{"android":"levelo://app?vid=ebd86740-c4a2-4d12-a9da-f8021c74921e","ios":"levelo://app?vid=ebd86740-c4a2-4d12-a9da-f8021c74921e"},"vehicle_type_id":"4","last_reported":1745593837,"current_range_meters":5600,"station_id":"st_cvj5dfep6f1abm77gieg","pricing_plan_id":"cebpf4jnsgd1na2vs0mg"},{"bike_id":"141535cf-fb3b-46b7-aef5-8d6d20a2c722","system_id":"levelo_inurba_marseille","lat":43.28117,"lon":5.37856,"is_reserved":false,"is_disabled":false,"rental_uris":{"android":"levelo://app?vid=141535cf-fb3b-46b7-aef5-8d6d20a2c722","ios":"levelo://app?vid=141535cf-fb3b-46b7-aef5-8d6d20a2c722"},"vehicle_type_id":"4","last_reported":1745593837,"current_range_meters":5600,"station_id":"ce4bha12rcd13ifvqee0","pricing_plan_id":"cebpf4jnsgd1na2vs0mg"},{"bike_id":"ed9a1615-9ebd-4fd5-b0be-333c7c630664","system_id":"levelo_inurba_marseille","lat":43.21746,"lon":5.34603,"is_reserved":false,"is_disabled":false,"rental_uris":{"android":"levelo://app?vid=ed9a1615-9ebd-4fd5-b0be-333c7c630664","ios":"levelo://app?vid=ed9a1615-9ebd-4fd5-b0be-333c7c630664"},"vehicle_type_id":"4","last_reported":1745593837,"current_range_meters":5600,"station_id":"st_cvj6r9ubvosntc0bgbag","pricing_plan_id":"cebpf4jnsgd1na2vs0mg"},{"bike_id":"c5374539-7c37-499c-80af-a351e78acf0a","system_id":"levelo_inurba_marseille","lat":43.3021,"lon":5.39461,"is_reserved":false,"is_disabled":false,"rental_uris":{"android":"levelo://app?vid=c5374539-7c37-499c-80af-a351e78acf0a","ios":"levelo://app?vid=c5374539-7c37-499c-80af-a351e78acf0a"},"vehicle_type_id":"4","last_reported":1745593837,"current_range_meters":5600,"station_id":"ce4bh0p2rcd13ifvqd70","pricing_plan_id":"cebpf4jnsgd1na2vs0mg"},{"bike_id":"47102044-670c-4d5c-95a2-8c143df22447","system_id":"levelo_inurba_marseille","lat":43.29717,"lon":5.36607,"is_reserved":false,"is_disabled":false,"rental_uris":{"android":"levelo://app?vid=47102044-670c-4d5c-95a2-8c143df22447","ios":"levelo://app?vid=47102044-670c-4d5c-95a2-8c143df22447"},"vehicle_type_id":"4","last_reported":1745593837,"current_range_meters":5600,"station_id":"ce4bgn12rcd13ifvqbt0","pricing_plan_id":"cebpf4jnsgd1na2vs0mg"},{"bike_id":"888ecc97-51fb-4288-86df-9c93fa50270f","system_id":"levelo_inurba_marseille","lat":43.29697,"lon":5.37293,"is_reserved":false,"is_disabled":false,"rental_uris":{"android":"levelo://app?vid=888ecc97-51fb-4288-86df-9c93fa50270f","ios":"levelo://app?vid=888ecc97-51fb-4288-86df-9c93fa50270f"},"vehicle_type_id":"4","last_reported":1745593837,"current_range_meters":5600,"station_id":"ce4bgk12rcd13ifvqbj0","pricing_plan_id":"cebpf4jnsgd1na2vs0mg"},{"bike_id":"b3c8afe3-b177-434e-8280-bbdf37ebad67","system_id":"levelo_inurba_marseille","lat":43.29453,"lon":5.39734,"is_reserved":false,"is_disabled":false,"rental_uris":{"android":"levelo://app?vid=b3c8afe3-b177-434e-8280-bbdf37ebad67","ios":"levelo://app?vid=b3c8afe3-b177-434e-8280-bbdf37ebad67"},"vehicle_type_id":"4","last_reported":1745593837,"current_range_meters":6400,"station_id":"ce4bh3h2rcd13ifvqdo0","pricing_plan_id":"cebpf4jnsgd1na2vs0mg"},{"bike_id":"89a290e3-f036-44a7-9c12-0464c574ef21","system_id":"levelo_inurba_marseille","lat":43.23198,"lon":5.3555,"is_reserved":false,"is_disabled":false,"rental_uris":{"android":"levelo://app?vid=89a290e3-f036-44a7-9c12-0464c574ef21","ios":"levelo://app?vid=89a290e3-f036-44a7-9c12-0464c574ef21"},"vehicle_type_id":"4","last_reported":1745593837,"current_range_meters":6000,"station_id":"ce4bhu92rcd13ifvqi70","pricing_plan_id":"cebpf4jnsgd1na2vs0mg"},{"bike_id":"6f0b8099-c5b6-451d-9e30-2fc3e48492f8","system_id":"levelo_inurba_marseille","lat":43.29268,"lon":5.3844,"is_reserved":false,"is_disabled":false,"rental_uris":{"android":"levelo://app?vid=6f0b8099-c5b6-451d-9e30-2fc3e48492f8","ios":"levelo://app?vid=6f0b8099-c5b6-451d-9e30-2fc3e48492f8"},"vehicle_type_id":"4","last_reported":1745593837,"current_range_meters":6000,"station_id":"ce4bh692rcd13ifvqea0","pricing_plan_id":"cebpf4jnsgd1na2vs0mg"},{"bike_id":"ffb5f629-94fa-4bdb-b561-ada4506d5085","system_id":"levelo_inurba_marseille","lat":43.28268,"lon":5.35062,"is_reserved":false,"is_disabled":false,"rental_uris":{"android":"levelo://app?vid=ffb5f629-94fa-4bdb-b561-ada4506d5085","ios":"levelo://app?vid=ffb5f629-94fa-4bdb-b561-ada4506d5085"},"vehicle_type_id":"4","last_reported":1745593837,"current_range_meters":6000,"station_id":"ce4bhbp2rcd13ifvqerg","pricing_plan_id":"cebpf4jnsgd1na2vs0mg"},{"bike_id":"93816a58-87b9-4716-aa86-00402b0b20cf","system_id":"levelo_inurba_marseille","lat":43.2418,"lon":5.3639,"is_reserved":false,"is_disabled":false,"rental_uris":{"android":"levelo://app?vid=93816a58-87b9-4716-aa86-00402b0b20cf","ios":"levelo://app?vid=93816a58-87b9-4716-aa86-00402b0b20cf"},"vehicle_type_id":"4","last_reported":1745593837,"current_range_meters":6000,"station_id":"cpo36qri1sfpv3e86is0","pricing_plan_id":"cebpf4jnsgd1na2vs0mg"},{"bike_id":"0415bb27-35f7-4d6d-92d6-df46856fefc6","system_id":"levelo_inurba_marseille","lat":43.30143,"lon":5.38782,"is_reserved":false,"is_disabled":false,"rental_uris":{"android":"levelo://app?vid=0415bb27-35f7-4d6d-92d6-df46856fefc6","ios":"levelo://app?vid=0415bb27-35f7-4d6d-92d6-df46856fefc6"},"vehicle_type_id":"4","last_reported":1745593837,"current_range_meters":6400,"station_id":"ce4bghh2rcd13ifvqb60","pricing_plan_id":"cebpf4jnsgd1na2vs0mg"},{"bike_id":"e3718777-1093-4940-a109-8876650aaabf","system_id":"levelo_inurba_marseille","lat":43.29977,"lon":5.37179,"is_reserved":false,"is_disabled":false,"rental_uris":{"android":"levelo://app?vid=e3718777-1093-4940-a109-8876650aaabf","ios":"levelo://app?vid=e3718777-1093-4940-a109-8876650aaabf"},"vehicle_type_id":"4","last_reported":1745593837,"current_range_meters":6000,"station_id":"ce4bgr92rcd13ifvqc7g","pricing_plan_id":"cebpf4jnsgd1na2vs0mg"},{"bike_id":"85ab376c-3b1c-4656-b95c-951ea7b3b72f","system_id":"levelo_inurba_marseille","lat":43.254944,"lon":5.376438,"is_reserved":false,"is_disabled":false,"rental_uris":{"android":"levelo://app?vid=85ab376c-3b1c-4656-b95c-951ea7b3b72f","ios":"levelo://app?vid=85ab376c-3b1c-4656-b95c-951ea7b3b72f"},"vehicle_type_id":"4","last_reported":1745593837,"current_range_meters":6400,"station_id":"ce4bhh12rcd13ifvqff0","pricing_plan_id":"cebpf4jnsgd1na2vs0mg"},{"bike_id":"f67cd600-903c-4931-8029-39e0505809f0","system_id":"levelo_inurba_marseille","lat":43.29802,"lon":5.40395,"is_reserved":false,"is_disabled":false,"rental_uris":{"android":"levelo://app?vid=f67cd600-903c-4931-8029-39e0505809f0","ios":"levelo://app?vid=f67cd600-903c-4931-8029-39e0505809f0"},"vehicle_type_id":"4","last_reported":1745593837,"current_range_meters":6400,"station_id":"ce4bh112rcd13ifvqd90","pricing_plan_id":"cebpf4jnsgd1na2vs0mg"},{"bike_id":"41528498-d76f-4998-934c-429ad804d4cc","system_id":"levelo_inurba_marseille","lat":43.29035,"lon":5.38142,"is_reserved":false,"is_disabled":true,"rental_uris":{"android":"levelo://app?vid=41528498-d76f-4998-934c-429ad804d4cc","ios":"levelo://app?vid=41528498-d76f-4998-934c-429ad804d4cc"},"vehicle_type_id":"4","last_reported":1745593837,"current_range_meters":6800,"station_id":"ce4bh4p2rcd13ifvqe1g","pricing_plan_id":"cebpf4jnsgd1na2vs0mg"},{"bike_id":"46374c49-3adc-4c5a-8966-e00f056c0d57","system_id":"levelo_inurba_marseille","lat":43.27846,"lon":5.35442,"is_reserved":false,"is_disabled":false,"rental_uris":{"android":"levelo://app?vid=46374c49-3adc-4c5a-8966-e00f056c0d57","ios":"levelo://app?vid=46374c49-3adc-4c5a-8966-e00f056c0d57"},"vehicle_type_id":"4","last_reported":1745593837,"current_range_meters":6800,"station_id":"","pricing_plan_id":"cebpf4jnsgd1na2vs0mg"},{"bike_id":"7ea7cbdd-c9c1-4f9a-9ccd-9e19fd4af8b6","system_id":"levelo_inurba_marseille","lat":43.29039,"lon":5.359,"is_reserved":false,"is_disabled":false,"rental_uris":{"android":"levelo://app?vid=7ea7cbdd-c9c1-4f9a-9ccd-9e19fd4af8b6","ios":"levelo://app?vid=7ea7cbdd-c9c1-4f9a-9ccd-9e19fd4af8b6"},"vehicle_type_id":"4","last_reported":1745593837,"current_range_meters":6400,"station_id":"ce4bha92rcd13ifvqeg0","pricing_plan_id":"cebpf4jnsgd1na2vs0mg"},{"bike_id":"0ef090c8-b30d-42aa-a986-f1a5509bf3d5","system_id":"levelo_inurba_marseille","lat":43.26008,"lon":5.37559,"is_reserved":false,"is_disabled":false,"rental_uris":{"android":"levelo://app?vid=0ef090c8-b30d-42aa-a986-f1a5509bf3d5","ios":"levelo://app?vid=0ef090c8-b30d-42aa-a986-f1a5509bf3d5"},"vehicle_type_id":"4","last_reported":1745593837,"current_range_meters":6800,"station_id":"ce4bhgh2rcd13ifvqfa0","pricing_plan_id":"cebpf4jnsgd1na2vs0mg"},{"bike_id":"58c3fb6a-603b-4fe2-9f5b-6f791dd8c3be","system_id":"levelo_inurba_marseille","lat":43.23184,"lon":5.39988,"is_reserved":false,"is_disabled":false,"rental_uris":{"android":"levelo://app?vid=58c3fb6a-603b-4fe2-9f5b-6f791dd8c3be","ios":"levelo://app?vid=58c3fb6a-603b-4fe2-9f5b-6f791dd8c3be"},"vehicle_type_id":"4","last_reported":1745593837,"current_range_meters":6800,"station_id":"ce4bhn12rcd13ifvqgqg","pricing_plan_id":"cebpf4jnsgd1na2vs0mg"},{"bike_id":"60a983a0-3a77-4501-a833-b71ac54833d6","system_id":"levelo_inurba_marseille","lat":43.23189,"lon":5.39979,"is_reserved":false,"is_disabled":false,"rental_uris":{"android":"levelo://app?vid=60a983a0-3a77-4501-a833-b71ac54833d6","ios":"levelo://app?vid=60a983a0-3a77-4501-a833-b71ac54833d6"},"vehicle_type_id":"4","last_reported":1745593837,"current_range_meters":6800,"station_id":"ce4bhn12rcd13ifvqgqg","pricing_plan_id":"cebpf4jnsgd1na2vs0mg"},{"bike_id":"1f83779a-bbc9-463d-9e58-e274e388bf33","system_id":"levelo_inurba_marseille","lat":43.26504,"lon":5.39531,"is_reserved":false,"is_disabled":false,"rental_uris":{"android":"levelo://app?vid=1f83779a-bbc9-463d-9e58-e274e388bf33","ios":"levelo://app?vid=1f83779a-bbc9-463d-9e58-e274e388bf33"},"vehicle_type_id":"4","last_reported":1745593837,"current_range_meters":6400,"station_id":"ce4bhi12rcd13ifvqfq0","pricing_plan_id":"cebpf4jnsgd1na2vs0mg"},{"bike_id":"f587b1ad-8767-42fd-bb98-bdf1bb330f9a","system_id":"levelo_inurba_marseille","lat":43.32343,"lon":5.42091,"is_reserved":false,"is_disabled":false,"rental_uris":{"android":"levelo://app?vid=f587b1ad-8767-42fd-bb98-bdf1bb330f9a","ios":"levelo://app?vid=f587b1ad-8767-42fd-bb98-bdf1bb330f9a"},"vehicle_type_id":"4","last_reported":1745593837,"current_range_meters":6800,"station_id":"","pricing_plan_id":"cebpf4jnsgd1na2vs0mg"},{"bike_id":"98182166-4fcb-4dc0-9c52-de1b349f298b","system_id":"levelo_inurba_marseille","lat":43.28726,"lon":5.4,"is_reserved":false,"is_disabled":true,"rental_uris":{"android":"levelo://app?vid=98182166-4fcb-4dc0-9c52-de1b349f298b","ios":"levelo://app?vid=98182166-4fcb-4dc0-9c52-de1b349f298b"},"vehicle_type_id":"4","last_reported":1745593837,"current_range_meters":6800,"station_id":"ce4bho92rcd13ifvqh3g","pricing_plan_id":"cebpf4jnsgd1na2vs0mg"},{"bike_id":"7db4dd8f-2413-4c0a-a46e-b3672bc48374","system_id":"levelo_inurba_marseille","lat":43.250038,"lon":5.389224,"is_reserved":false,"is_disabled":false,"rental_uris":{"android":"levelo://app?vid=7db4dd8f-2413-4c0a-a46e-b3672bc48374","ios":"levelo://app?vid=7db4dd8f-2413-4c0a-a46e-b3672bc48374"},"vehicle_type_id":"4","last_reported":1745593837,"current_range_meters":7200,"station_id":"ce4bhgp2rcd13ifvqfd0","pricing_plan_id":"cebpf4jnsgd1na2vs0mg"},{"bike_id":"14ff1369-c2d5-41fc-8179-4e65aaf33642","system_id":"levelo_inurba_marseille","lat":43.26559,"lon":5.37279,"is_reserved":false,"is_disabled":false,"rental_uris":{"android":"levelo://app?vid=14ff1369-c2d5-41fc-8179-4e65aaf33642","ios":"levelo://app?vid=14ff1369-c2d5-41fc-8179-4e65aaf33642"},"vehicle_type_id":"4","last_reported":1745593837,"current_range_meters":7200,"station_id":"ce4bhg12rcd13ifvqf70","pricing_plan_id":"cebpf4jnsgd1na2vs0mg"},{"bike_id":"9cb8d187-15a9-42ad-b937-513721b5dbe0","system_id":"levelo_inurba_marseille","lat":43.28025,"lon":5.3694,"is_reserved":false,"is_disabled":false,"rental_uris":{"android":"levelo://app?vid=9cb8d187-15a9-42ad-b937-513721b5dbe0","ios":"levelo://app?vid=9cb8d187-15a9-42ad-b937-513721b5dbe0"},"vehicle_type_id":"4","last_reported":1745593837,"current_range_meters":7200,"station_id":"ce4bha12rcd13ifvqef0","pricing_plan_id":"cebpf4jnsgd1na2vs0mg"},{"bike_id":"3cb68874-9bcd-4b72-aa80-911d9f3d30fc","system_id":"levelo_inurba_marseille","lat":43.270593,"lon":5.402564,"is_reserved":false,"is_disabled":false,"rental_uris":{"android":"levelo://app?vid=3cb68874-9bcd-4b72-aa80-911d9f3d30fc","ios":"levelo://app?vid=3cb68874-9bcd-4b72-aa80-911d9f3d30fc"},"vehicle_type_id":"4","last_reported":1745593837,"current_range_meters":7200,"station_id":"ce4bhnh2rcd13ifvqgug","pricing_plan_id":"cebpf4jnsgd1na2vs0mg"},{"bike_id":"7396bd0a-5678-4c78-892e-e84a063ebef2","system_id":"levelo_inurba_marseille","lat":43.29606,"lon":5.38093,"is_reserved":false,"is_disabled":false,"rental_uris":{"android":"levelo://app?vid=7396bd0a-5678-4c78-892e-e84a063ebef2","ios":"levelo://app?vid=7396bd0a-5678-4c78-892e-e84a063ebef2"},"vehicle_type_id":"4","last_reported":1745593837,"current_range_meters":8000,"station_id":"ce4bgl12rcd13ifvqbo0","pricing_plan_id":"cebpf4jnsgd1na2vs0mg"},{"bike_id":"155491d3-3d29-4ef2-ac5a-934b6eed3d1c","system_id":"levelo_inurba_marseille","lat":43.27443,"lon":5.361464,"is_reserved":false,"is_disabled":false,"rental_uris":{"android":"levelo://app?vid=155491d3-3d29-4ef2-ac5a-934b6eed3d1c","ios":"levelo://app?vid=155491d3-3d29-4ef2-ac5a-934b6eed3d1c"},"vehicle_type_id":"4","last_reported":1745593837,"current_range_meters":8000,"station_id":"ce4bhbh2rcd13ifvqeo0","pricing_plan_id":"cebpf4jnsgd1na2vs0mg"},{"bike_id":"0baf0519-4f74-4b8b-811a-d2c3bceba98e","system_id":"levelo_inurba_marseille","lat":43.26961,"lon":5.3894,"is_reserved":false,"is_disabled":false,"rental_uris":{"android":"levelo://app?vid=0baf0519-4f74-4b8b-811a-d2c3bceba98e","ios":"levelo://app?vid=0baf0519-4f74-4b8b-811a-d2c3bceba98e"},"vehicle_type_id":"4","last_reported":1745593837,"current_range_meters":8000,"station_id":"ce4bhhh2rcd13ifvqfl0","pricing_plan_id":"cebpf4jnsgd1na2vs0mg"},{"bike_id":"fa08c917-15f0-46bf-9b4b-3ce0e752e62f","system_id":"levelo_inurba_marseille","lat":43.33446,"lon":5.40059,"is_reserved":false,"is_disabled":false,"rental_uris":{"android":"levelo://app?vid=fa08c917-15f0-46bf-9b4b-3ce0e752e62f","ios":"levelo://app?vid=fa08c917-15f0-46bf-9b4b-3ce0e752e62f"},"vehicle_type_id":"4","last_reported":1745593837,"current_range_meters":8000,"station_id":"","pricing_plan_id":"cebpf4jnsgd1na2vs0mg"},{"bike_id":"5f6ab5be-9f6b-4863-99c3-f36e0e25fd2c","system_id":"levelo_inurba_marseille","lat":43.27182,"lon":5.40986,"is_reserved":false,"is_disabled":false,"rental_uris":{"android":"levelo://app?vid=5f6ab5be-9f6b-4863-99c3-f36e0e25fd2c","ios":"levelo://app?vid=5f6ab5be-9f6b-4863-99c3-f36e0e25fd2c"},"vehicle_type_id":"4","last_reported":1745593837,"current_range_meters":8000,"station_id":"ce4bhl12rcd13ifvqgf0","pricing_plan_id":"cebpf4jnsgd1na2vs0mg"},{"bike_id":"9c150916-a4a9-4907-a7b0-3fa560a57492","system_id":"levelo_inurba_marseille","lat":43.320497,"lon":5.415463,"is_reserved":false,"is_disabled":false,"rental_uris":{"android":"levelo://app?vid=9c150916-a4a9-4907-a7b0-3fa560a57492","ios":"levelo://app?vid=9c150916-a4a9-4907-a7b0-3fa560a57492"},"vehicle_type_id":"4","last_reported":1745593837,"current_range_meters":8000,"station_id":"ce4bhq92rcd13ifvqhkg","pricing_plan_id":"cebpf4jnsgd1na2vs0mg"},{"bike_id":"f534dd7a-bed7-49b2-9a34-e604f9c12ede","system_id":"levelo_inurba_marseille","lat":43.27905,"lon":5.37983,"is_reserved":false,"is_disabled":false,"rental_uris":{"android":"levelo://app?vid=f534dd7a-bed7-49b2-9a34-e604f9c12ede","ios":"levelo://app?vid=f534dd7a-bed7-49b2-9a34-e604f9c12ede"},"vehicle_type_id":"4","last_reported":1745593837,"current_range_meters":8000,"station_id":"ce4bhf92rcd13ifvqf50","pricing_plan_id":"cebpf4jnsgd1na2vs0mg"},{"bike_id":"a7dd8732-3dd5-48e3-a40a-dbb5dc83a921","system_id":"levelo_inurba_marseille","lat":43.25504,"lon":5.37649,"is_reserved":false,"is_disabled":false,"rental_uris":{"android":"levelo://app?vid=a7dd8732-3dd5-48e3-a40a-dbb5dc83a921","ios":"levelo://app?vid=a7dd8732-3dd5-48e3-a40a-dbb5dc83a921"},"vehicle_type_id":"4","last_reported":1745593837,"current_range_meters":8000,"station_id":"ce4bhh12rcd13ifvqff0","pricing_plan_id":"cebpf4jnsgd1na2vs0mg"},{"bike_id":"e2b478cf-32ea-41d9-8a2c-285808543592","system_id":"levelo_inurba_marseille","lat":43.30945,"lon":5.40142,"is_reserved":false,"is_disabled":false,"rental_uris":{"android":"levelo://app?vid=e2b478cf-32ea-41d9-8a2c-285808543592","ios":"levelo://app?vid=e2b478cf-32ea-41d9-8a2c-285808543592"},"vehicle_type_id":"4","last_reported":1745593837,"current_range_meters":11200,"station_id":"ce4bgvp2rcd13ifvqct0","pricing_plan_id":"cebpf4jnsgd1na2vs0mg"},{"bike_id":"f9faf3a0-931b-4d9b-8248-a9449c945cd4","system_id":"levelo_inurba_marseille","lat":43.23182,"lon":5.39986,"is_reserved":false,"is_disabled":false,"rental_uris":{"android":"levelo://app?vid=f9faf3a0-931b-4d9b-8248-a9449c945cd4","ios":"levelo://app?vid=f9faf3a0-931b-4d9b-8248-a9449c945cd4"},"vehicle_type_id":"4","last_reported":1745593837,"current_range_meters":8400,"station_id":"ce4bhn12rcd13ifvqgqg","pricing_plan_id":"cebpf4jnsgd1na2vs0mg"},{"bike_id":"c77ca7e3-4050-41c9-856d-00b528f94157","system_id":"levelo_inurba_marseille","lat":43.29281,"lon":5.40102,"is_reserved":false,"is_disabled":false,"rental_uris":{"android":"levelo://app?vid=c77ca7e3-4050-41c9-856d-00b528f94157","ios":"levelo://app?vid=c77ca7e3-4050-41c9-856d-00b528f94157"},"vehicle_type_id":"4","last_reported":1745593837,"current_range_meters":8400,"station_id":"ce4bh312rcd13ifvqdk0","pricing_plan_id":"cebpf4jnsgd1na2vs0mg"},{"bike_id":"ab49b0ae-90ee-4214-bbd8-e0867a6763e8","system_id":"levelo_inurba_marseille","lat":43.31255,"lon":5.37167,"is_reserved":false,"is_disabled":false,"rental_uris":{"android":"levelo://app?vid=ab49b0ae-90ee-4214-bbd8-e0867a6763e8","ios":"levelo://app?vid=ab49b0ae-90ee-4214-bbd8-e0867a6763e8"},"vehicle_type_id":"4","last_reported":1745593837,"current_range_meters":8400,"station_id":"","pricing_plan_id":"cebpf4jnsgd1na2vs0mg"},{"bike_id":"d54ef0f7-9ac7-4dc7-af22-0d437d9b8e0b","system_id":"levelo_inurba_marseille","lat":43.212,"lon":5.35066,"is_reserved":false,"is_disabled":false,"rental_uris":{"android":"levelo://app?vid=d54ef0f7-9ac7-4dc7-af22-0d437d9b8e0b","ios":"levelo://app?vid=d54ef0f7-9ac7-4dc7-af22-0d437d9b8e0b"},"vehicle_type_id":"4","last_reported":1745593837,"current_range_meters":8400,"station_id":"st_cvj6sg6p6f1abm77japg","pricing_plan_id":"cebpf4jnsgd1na2vs0mg"},{"bike_id":"3767ba54-0ee2-464a-8805-d28bad95405b","system_id":"levelo_inurba_marseille","lat":43.25974,"lon":5.37543,"is_reserved":false,"is_disabled":false,"rental_uris":{"android":"levelo://app?vid=3767ba54-0ee2-464a-8805-d28bad95405b","ios":"levelo://app?vid=3767ba54-0ee2-464a-8805-d28bad95405b"},"vehicle_type_id":"4","last_reported":1745593837,"current_range_meters":8400,"station_id":"","pricing_plan_id":"cebpf4jnsgd1na2vs0mg"},{"bike_id":"fde2ce1c-d450-498e-b472-76623fe5ce23","system_id":"levelo_inurba_marseille","lat":43.21196,"lon":5.35066,"is_reserved":false,"is_disabled":false,"rental_uris":{"android":"levelo://app?vid=fde2ce1c-d450-498e-b472-76623fe5ce23","ios":"levelo://app?vid=fde2ce1c-d450-498e-b472-76623fe5ce23"},"vehicle_type_id":"4","last_reported":1745593837,"current_range_meters":8400,"station_id":"st_cvj6sg6p6f1abm77japg","pricing_plan_id":"cebpf4jnsgd1na2vs0mg"},{"bike_id":"60743cc3-d560-4694-a1a1-e53308691aef","system_id":"levelo_inurba_marseille","lat":43.30647,"lon":5.40091,"is_reserved":false,"is_disabled":false,"rental_uris":{"android":"levelo://app?vid=60743cc3-d560-4694-a1a1-e53308691aef","ios":"levelo://app?vid=60743cc3-d560-4694-a1a1-e53308691aef"},"vehicle_type_id":"4","last_reported":1745593837,"current_range_meters":8400,"station_id":"ce4bh112rcd13ifvqda0","pricing_plan_id":"cebpf4jnsgd1na2vs0mg"},{"bike_id":"68f692b0-8774-483a-87f0-e282868cd2ef","system_id":"levelo_inurba_marseille","lat":43.28502,"lon":5.385533,"is_reserved":false,"is_disabled":false,"rental_uris":{"android":"levelo://app?vid=68f692b0-8774-483a-87f0-e282868cd2ef","ios":"levelo://app?vid=68f692b0-8774-483a-87f0-e282868cd2ef"},"vehicle_type_id":"4","last_reported":1745593837,"current_range_meters":8400,"station_id":"ce4bgvp2rcd13ifvqcu0","pricing_plan_id":"cebpf4jnsgd1na2vs0mg"},{"bike_id":"3788797d-6164-4d5c-a117-b6c9609c8c8a","system_id":"levelo_inurba_marseille","lat":43.27969,"lon":5.38737,"is_reserved":false,"is_disabled":false,"rental_uris":{"android":"levelo://app?vid=3788797d-6164-4d5c-a117-b6c9609c8c8a","ios":"levelo://app?vid=3788797d-6164-4d5c-a117-b6c9609c8c8a"},"vehicle_type_id":"4","last_reported":1745593837,"current_range_meters":8800,"station_id":"ce4bhg12rcd13ifvqf80","pricing_plan_id":"cebpf4jnsgd1na2vs0mg"},{"bike_id":"f555aa36-7a1b-4124-a1cf-b636d2be8301","system_id":"levelo_inurba_marseille","lat":43.30912,"lon":5.36855,"is_reserved":false,"is_disabled":false,"rental_uris":{"android":"levelo://app?vid=f555aa36-7a1b-4124-a1cf-b636d2be8301","ios":"levelo://app?vid=f555aa36-7a1b-4124-a1cf-b636d2be8301"},"vehicle_type_id":"4","last_reported":1745593837,"current_range_meters":9600,"station_id":"ce4bgn92rcd13ifvqbvg","pricing_plan_id":"cebpf4jnsgd1na2vs0mg"},{"bike_id":"4c83ebfd-b63e-459d-a1e8-bc23eea3d56b","system_id":"levelo_inurba_marseille","lat":43.28278,"lon":5.35066,"is_reserved":false,"is_disabled":false,"rental_uris":{"android":"levelo://app?vid=4c83ebfd-b63e-459d-a1e8-bc23eea3d56b","ios":"levelo://app?vid=4c83ebfd-b63e-459d-a1e8-bc23eea3d56b"},"vehicle_type_id":"4","last_reported":1745593837,"current_range_meters":8800,"station_id":"ce4bhbp2rcd13ifvqerg","pricing_plan_id":"cebpf4jnsgd1na2vs0mg"},{"bike_id":"3186f033-ac2f-4608-9251-ec5f3bf36b9c","system_id":"levelo_inurba_marseille","lat":43.282611,"lon":5.350689,"is_reserved":false,"is_disabled":false,"rental_uris":{"android":"levelo://app?vid=3186f033-ac2f-4608-9251-ec5f3bf36b9c","ios":"levelo://app?vid=3186f033-ac2f-4608-9251-ec5f3bf36b9c"},"vehicle_type_id":"4","last_reported":1745593837,"current_range_meters":8400,"station_id":"ce4bhm12rcd13ifvqgkg","pricing_plan_id":"cebpf4jnsgd1na2vs0mg"},{"bike_id":"c1ccd199-3bfe-4293-a4cb-6829c97c125f","system_id":"levelo_inurba_marseille","lat":43.32415,"lon":5.39097,"is_reserved":false,"is_disabled":false,"rental_uris":{"android":"levelo://app?vid=c1ccd199-3bfe-4293-a4cb-6829c97c125f","ios":"levelo://app?vid=c1ccd199-3bfe-4293-a4cb-6829c97c125f"},"vehicle_type_id":"4","last_reported":1745593837,"current_range_meters":8800,"station_id":"","pricing_plan_id":"cebpf4jnsgd1na2vs0mg"},{"bike_id":"34d24ccb-7a94-4047-ab51-44d9a09b2e32","system_id":"levelo_inurba_marseille","lat":43.2998,"lon":5.3718,"is_reserved":false,"is_disabled":false,"rental_uris":{"android":"levelo://app?vid=34d24ccb-7a94-4047-ab51-44d9a09b2e32","ios":"levelo://app?vid=34d24ccb-7a94-4047-ab51-44d9a09b2e32"},"vehicle_type_id":"4","last_reported":1745593837,"current_range_meters":11600,"station_id":"ce4bgr92rcd13ifvqc7g","pricing_plan_id":"cebpf4jnsgd1na2vs0mg"},{"bike_id":"3fea2e24-70fa-4cae-849c-73acd09533f2","system_id":"levelo_inurba_marseille","lat":43.27496,"lon":5.42452,"is_reserved":false,"is_disabled":false,"rental_uris":{"android":"levelo://app?vid=3fea2e24-70fa-4cae-849c-73acd09533f2","ios":"levelo://app?vid=3fea2e24-70fa-4cae-849c-73acd09533f2"},"vehicle_type_id":"4","last_reported":1745593837,"current_range_meters":8800,"station_id":"ce4bhn92rcd13ifvqgrg","pricing_plan_id":"cebpf4jnsgd1na2vs0mg"},{"bike_id":"1c762556-d1a5-47cf-8b55-79517f258d48","system_id":"levelo_inurba_marseille","lat":43.21199,"lon":5.35074,"is_reserved":false,"is_disabled":false,"rental_uris":{"android":"levelo://app?vid=1c762556-d1a5-47cf-8b55-79517f258d48","ios":"levelo://app?vid=1c762556-d1a5-47cf-8b55-79517f258d48"},"vehicle_type_id":"4","last_reported":1745593837,"current_range_meters":8800,"station_id":"st_cvj6sg6p6f1abm77japg","pricing_plan_id":"cebpf4jnsgd1na2vs0mg"},{"bike_id":"cfa34a75-efec-4eb8-a020-77feca0ad5e2","system_id":"levelo_inurba_marseille","lat":43.21239,"lon":5.3509,"is_reserved":false,"is_disabled":false,"rental_uris":{"android":"levelo://app?vid=cfa34a75-efec-4eb8-a020-77feca0ad5e2","ios":"levelo://app?vid=cfa34a75-efec-4eb8-a020-77feca0ad5e2"},"vehicle_type_id":"4","last_reported":1745593837,"current_range_meters":9200,"station_id":"","pricing_plan_id":"cebpf4jnsgd1na2vs0mg"},{"bike_id":"eb5911ef-96fa-41ff-9e52-3efc75290efc","system_id":"levelo_inurba_marseille","lat":43.27377,"lon":5.36266,"is_reserved":false,"is_disabled":false,"rental_uris":{"android":"levelo://app?vid=eb5911ef-96fa-41ff-9e52-3efc75290efc","ios":"levelo://app?vid=eb5911ef-96fa-41ff-9e52-3efc75290efc"},"vehicle_type_id":"4","last_reported":1745593837,"current_range_meters":9200,"station_id":"ce4bhbh2rcd13ifvqeo0","pricing_plan_id":"cebpf4jnsgd1na2vs0mg"},{"bike_id":"80cca495-71a9-4575-a6c3-603cddfecd6e","system_id":"levelo_inurba_marseille","lat":43.27922,"lon":5.39574,"is_reserved":false,"is_disabled":false,"rental_uris":{"android":"levelo://app?vid=80cca495-71a9-4575-a6c3-603cddfecd6e","ios":"levelo://app?vid=80cca495-71a9-4575-a6c3-603cddfecd6e"},"vehicle_type_id":"4","last_reported":1745593837,"current_range_meters":9200,"station_id":"ce4bhf92rcd13ifvqf40","pricing_plan_id":"cebpf4jnsgd1na2vs0mg"},{"bike_id":"1d6d102f-89dc-4052-9661-a1eaff1c6b0a","system_id":"levelo_inurba_marseille","lat":43.2481,"lon":5.37457,"is_reserved":false,"is_disabled":false,"rental_uris":{"android":"levelo://app?vid=1d6d102f-89dc-4052-9661-a1eaff1c6b0a","ios":"levelo://app?vid=1d6d102f-89dc-4052-9661-a1eaff1c6b0a"},"vehicle_type_id":"4","last_reported":1745593837,"current_range_meters":9200,"station_id":"ce4bhgh2rcd13ifvqfb0","pricing_plan_id":"cebpf4jnsgd1na2vs0mg"},{"bike_id":"1e3d3a8f-837d-49e2-9662-f7f09f4541fa","system_id":"levelo_inurba_marseille","lat":43.23142,"lon":5.43759,"is_reserved":false,"is_disabled":false,"rental_uris":{"android":"levelo://app?vid=1e3d3a8f-837d-49e2-9662-f7f09f4541fa","ios":"levelo://app?vid=1e3d3a8f-837d-49e2-9662-f7f09f4541fa"},"vehicle_type_id":"4","last_reported":1745593837,"current_range_meters":9200,"station_id":"","pricing_plan_id":"cebpf4jnsgd1na2vs0mg"},{"bike_id":"d5e5bb55-8b1e-41b6-8f5d-cb19f906c79b","system_id":"levelo_inurba_marseille","lat":43.30132,"lon":5.39869,"is_reserved":false,"is_disabled":false,"rental_uris":{"android":"levelo://app?vid=d5e5bb55-8b1e-41b6-8f5d-cb19f906c79b","ios":"levelo://app?vid=d5e5bb55-8b1e-41b6-8f5d-cb19f906c79b"},"vehicle_type_id":"4","last_reported":1745593837,"current_range_meters":9200,"station_id":"ce4bh0h2rcd13ifvqd40","pricing_plan_id":"cebpf4jnsgd1na2vs0mg"},{"bike_id":"4d85172b-2726-49ee-82ca-5a844a307cf1","system_id":"levelo_inurba_marseille","lat":43.23193,"lon":5.39976,"is_reserved":false,"is_disabled":false,"rental_uris":{"android":"levelo://app?vid=4d85172b-2726-49ee-82ca-5a844a307cf1","ios":"levelo://app?vid=4d85172b-2726-49ee-82ca-5a844a307cf1"},"vehicle_type_id":"4","last_reported":1745593837,"current_range_meters":9600,"station_id":"ce4bhn12rcd13ifvqgqg","pricing_plan_id":"cebpf4jnsgd1na2vs0mg"},{"bike_id":"5491fa9b-8495-4772-982c-d257a9e1eb47","system_id":"levelo_inurba_marseille","lat":43.26938,"lon":5.38915,"is_reserved":false,"is_disabled":false,"rental_uris":{"android":"levelo://app?vid=5491fa9b-8495-4772-982c-d257a9e1eb47","ios":"levelo://app?vid=5491fa9b-8495-4772-982c-d257a9e1eb47"},"vehicle_type_id":"4","last_reported":1745593837,"current_range_meters":12800,"station_id":"ce4bhhh2rcd13ifvqfl0","pricing_plan_id":"cebpf4jnsgd1na2vs0mg"},{"bike_id":"3b43bcc0-c3a4-463d-8c02-09032f76183b","system_id":"levelo_inurba_marseille","lat":43.29873,"lon":5.39728,"is_reserved":false,"is_disabled":false,"rental_uris":{"android":"levelo://app?vid=3b43bcc0-c3a4-463d-8c02-09032f76183b","ios":"levelo://app?vid=3b43bcc0-c3a4-463d-8c02-09032f76183b"},"vehicle_type_id":"4","last_reported":1745593837,"current_range_meters":9600,"station_id":"ce4bh0h2rcd13ifvqd50","pricing_plan_id":"cebpf4jnsgd1na2vs0mg"},{"bike_id":"a8cfdffe-4cc8-413a-bc12-97cff6edb68b","system_id":"levelo_inurba_marseille","lat":43.30254,"lon":5.40051,"is_reserved":false,"is_disabled":false,"rental_uris":{"android":"levelo://app?vid=a8cfdffe-4cc8-413a-bc12-97cff6edb68b","ios":"levelo://app?vid=a8cfdffe-4cc8-413a-bc12-97cff6edb68b"},"vehicle_type_id":"4","last_reported":1745593837,"current_range_meters":10000,"station_id":"ce4bgvh2rcd13ifvqcs0","pricing_plan_id":"cebpf4jnsgd1na2vs0mg"},{"bike_id":"4c79909e-3dc1-4e69-b98e-60c41d6d3d0c","system_id":"levelo_inurba_marseille","lat":43.23058,"lon":5.35487,"is_reserved":false,"is_disabled":false,"rental_uris":{"android":"levelo://app?vid=4c79909e-3dc1-4e69-b98e-60c41d6d3d0c","ios":"levelo://app?vid=4c79909e-3dc1-4e69-b98e-60c41d6d3d0c"},"vehicle_type_id":"4","last_reported":1745593837,"current_range_meters":9600,"station_id":"cpo3342slgdg3j2ifvpg","pricing_plan_id":"cebpf4jnsgd1na2vs0mg"},{"bike_id":"060dda24-9731-49e5-87ba-af3ee6e0a773","system_id":"levelo_inurba_marseille","lat":43.30287,"lon":5.37705,"is_reserved":false,"is_disabled":false,"rental_uris":{"android":"levelo://app?vid=060dda24-9731-49e5-87ba-af3ee6e0a773","ios":"levelo://app?vid=060dda24-9731-49e5-87ba-af3ee6e0a773"},"vehicle_type_id":"4","last_reported":1745593837,"current_range_meters":9200,"station_id":"ce4bguh2rcd13ifvqcj0","pricing_plan_id":"cebpf4jnsgd1na2vs0mg"},{"bike_id":"2508d271-a40e-46cc-85b6-3fc05e6cc526","system_id":"levelo_inurba_marseille","lat":43.24166,"lon":5.36389,"is_reserved":false,"is_disabled":false,"rental_uris":{"android":"levelo://app?vid=2508d271-a40e-46cc-85b6-3fc05e6cc526","ios":"levelo://app?vid=2508d271-a40e-46cc-85b6-3fc05e6cc526"},"vehicle_type_id":"4","last_reported":1745593837,"current_range_meters":9600,"station_id":"cpo36qri1sfpv3e86is0","pricing_plan_id":"cebpf4jnsgd1na2vs0mg"},{"bike_id":"4b81d817-609e-42bb-8f5a-a4da8735e598","system_id":"levelo_inurba_marseille","lat":43.27394,"lon":5.36285,"is_reserved":false,"is_disabled":false,"rental_uris":{"android":"levelo://app?vid=4b81d817-609e-42bb-8f5a-a4da8735e598","ios":"levelo://app?vid=4b81d817-609e-42bb-8f5a-a4da8735e598"},"vehicle_type_id":"4","last_reported":1745593837,"current_range_meters":9600,"station_id":"ce4bhbh2rcd13ifvqeo0","pricing_plan_id":"cebpf4jnsgd1na2vs0mg"},{"bike_id":"78f19e36-dab0-45ec-9a71-d5a822870982","system_id":"levelo_inurba_marseille","lat":43.30309,"lon":5.39202,"is_reserved":false,"is_disabled":false,"rental_uris":{"android":"levelo://app?vid=78f19e36-dab0-45ec-9a71-d5a822870982","ios":"levelo://app?vid=78f19e36-dab0-45ec-9a71-d5a822870982"},"vehicle_type_id":"4","last_reported":1745593837,"current_range_meters":12000,"station_id":"ce4bgkh2rcd13ifvqbk0","pricing_plan_id":"cebpf4jnsgd1na2vs0mg"},{"bike_id":"3341b49d-e198-4290-b017-3196fa1d4a22","system_id":"levelo_inurba_marseille","lat":43.23197,"lon":5.35552,"is_reserved":false,"is_disabled":false,"rental_uris":{"android":"levelo://app?vid=3341b49d-e198-4290-b017-3196fa1d4a22","ios":"levelo://app?vid=3341b49d-e198-4290-b017-3196fa1d4a22"},"vehicle_type_id":"4","last_reported":1745593837,"current_range_meters":10000,"station_id":"ce4bhu92rcd13ifvqi70","pricing_plan_id":"cebpf4jnsgd1na2vs0mg"},{"bike_id":"c55b20a2-970f-4233-b554-d55a6870c18e","system_id":"levelo_inurba_marseille","lat":43.24167,"lon":5.36389,"is_reserved":false,"is_disabled":false,"rental_uris":{"android":"levelo://app?vid=c55b20a2-970f-4233-b554-d55a6870c18e","ios":"levelo://app?vid=c55b20a2-970f-4233-b554-d55a6870c18e"},"vehicle_type_id":"4","last_reported":1745593837,"current_range_meters":10000,"station_id":"cpo36qri1sfpv3e86is0","pricing_plan_id":"cebpf4jnsgd1na2vs0mg"},{"bike_id":"065dc3fd-bcf6-41a9-a84a-319a1a3d5548","system_id":"levelo_inurba_marseille","lat":43.23178,"lon":5.39969,"is_reserved":false,"is_disabled":false,"rental_uris":{"android":"levelo://app?vid=065dc3fd-bcf6-41a9-a84a-319a1a3d5548","ios":"levelo://app?vid=065dc3fd-bcf6-41a9-a84a-319a1a3d5548"},"vehicle_type_id":"4","last_reported":1745593837,"current_range_meters":10000,"station_id":"ce4bhn12rcd13ifvqgqg","pricing_plan_id":"cebpf4jnsgd1na2vs0mg"},{"bike_id":"dba5d5fb-c373-4186-b4bd-cd0687e4fef9","system_id":"levelo_inurba_marseille","lat":43.22935,"lon":5.35373,"is_reserved":false,"is_disabled":false,"rental_uris":{"android":"levelo://app?vid=dba5d5fb-c373-4186-b4bd-cd0687e4fef9","ios":"levelo://app?vid=dba5d5fb-c373-4186-b4bd-cd0687e4fef9"},"vehicle_type_id":"4","last_reported":1745593837,"current_range_meters":10000,"station_id":"cpo3532slgdg3j2ikp40","pricing_plan_id":"cebpf4jnsgd1na2vs0mg"},{"bike_id":"c6ec32c7-a1b5-47c3-8cbf-5fbd75de7902","system_id":"levelo_inurba_marseille","lat":43.2846,"lon":5.35872,"is_reserved":false,"is_disabled":false,"rental_uris":{"android":"levelo://app?vid=c6ec32c7-a1b5-47c3-8cbf-5fbd75de7902","ios":"levelo://app?vid=c6ec32c7-a1b5-47c3-8cbf-5fbd75de7902"},"vehicle_type_id":"4","last_reported":1745593837,"current_range_meters":10000,"station_id":"ce4bhah2rcd13ifvqei0","pricing_plan_id":"cebpf4jnsgd1na2vs0mg"},{"bike_id":"762e6e92-d327-4aaf-b9c8-d552bb274fb6","system_id":"levelo_inurba_marseille","lat":43.3065,"lon":5.40099,"is_reserved":false,"is_disabled":false,"rental_uris":{"android":"levelo://app?vid=762e6e92-d327-4aaf-b9c8-d552bb274fb6","ios":"levelo://app?vid=762e6e92-d327-4aaf-b9c8-d552bb274fb6"},"vehicle_type_id":"4","last_reported":1745593837,"current_range_meters":10800,"station_id":"ce4bh112rcd13ifvqda0","pricing_plan_id":"cebpf4jnsgd1na2vs0mg"},{"bike_id":"7d565cd8-c151-40ff-b69a-131af1fd7103","system_id":"levelo_inurba_marseille","lat":43.30144,"lon":5.38789,"is_reserved":false,"is_disabled":false,"rental_uris":{"android":"levelo://app?vid=7d565cd8-c151-40ff-b69a-131af1fd7103","ios":"levelo://app?vid=7d565cd8-c151-40ff-b69a-131af1fd7103"},"vehicle_type_id":"4","last_reported":1745593837,"current_range_meters":10800,"station_id":"ce4bghh2rcd13ifvqb60","pricing_plan_id":"cebpf4jnsgd1na2vs0mg"},{"bike_id":"e2529024-d8ea-40aa-8155-7a22a948709a","system_id":"levelo_inurba_marseille","lat":43.225041,"lon":5.347778,"is_reserved":false,"is_disabled":false,"rental_uris":{"android":"levelo://app?vid=e2529024-d8ea-40aa-8155-7a22a948709a","ios":"levelo://app?vid=e2529024-d8ea-40aa-8155-7a22a948709a"},"vehicle_type_id":"4","last_reported":1745593837,"current_range_meters":10800,"station_id":"","pricing_plan_id":"cebpf4jnsgd1na2vs0mg"},{"bike_id":"a9193099-440e-4ca9-b0ab-6bcfbd5c3301","system_id":"levelo_inurba_marseille","lat":43.28452,"lon":5.34955,"is_reserved":false,"is_disabled":false,"rental_uris":{"android":"levelo://app?vid=a9193099-440e-4ca9-b0ab-6bcfbd5c3301","ios":"levelo://app?vid=a9193099-440e-4ca9-b0ab-6bcfbd5c3301"},"vehicle_type_id":"4","last_reported":1745593837,"current_range_meters":10800,"station_id":"ce4bhbh2rcd13ifvqepg","pricing_plan_id":"cebpf4jnsgd1na2vs0mg"},{"bike_id":"5c8dde23-03af-4ec7-8c64-b6a7b95cfa5a","system_id":"levelo_inurba_marseille","lat":43.33716,"lon":5.39182,"is_reserved":false,"is_disabled":false,"rental_uris":{"android":"levelo://app?vid=5c8dde23-03af-4ec7-8c64-b6a7b95cfa5a","ios":"levelo://app?vid=5c8dde23-03af-4ec7-8c64-b6a7b95cfa5a"},"vehicle_type_id":"4","last_reported":1745593837,"current_range_meters":10800,"station_id":"ce4bhr92rcd13ifvqhsg","pricing_plan_id":"cebpf4jnsgd1na2vs0mg"},{"bike_id":"bd95f0bb-c5b1-4d5c-837c-b505e5069d47","system_id":"levelo_inurba_marseille","lat":43.3321,"lon":5.39812,"is_reserved":false,"is_disabled":false,"rental_uris":{"android":"levelo://app?vid=bd95f0bb-c5b1-4d5c-837c-b505e5069d47","ios":"levelo://app?vid=bd95f0bb-c5b1-4d5c-837c-b505e5069d47"},"vehicle_type_id":"4","last_reported":1745593837,"current_range_meters":10800,"station_id":"","pricing_plan_id":"cebpf4jnsgd1na2vs0mg"},{"bike_id":"ee841b13-ecc6-4fcb-b703-13664f3e4fa5","system_id":"levelo_inurba_marseille","lat":43.27427,"lon":5.39426,"is_reserved":false,"is_disabled":false,"rental_uris":{"android":"levelo://app?vid=ee841b13-ecc6-4fcb-b703-13664f3e4fa5","ios":"levelo://app?vid=ee841b13-ecc6-4fcb-b703-13664f3e4fa5"},"vehicle_type_id":"4","last_reported":1745593837,"current_range_meters":10800,"station_id":"ce4bhdp2rcd13ifvqf20","pricing_plan_id":"cebpf4jnsgd1na2vs0mg"},{"bike_id":"c7354566-144a-4680-a617-a303f4e6a77c","system_id":"levelo_inurba_marseille","lat":43.292299,"lon":5.3625,"is_reserved":false,"is_disabled":false,"rental_uris":{"android":"levelo://app?vid=c7354566-144a-4680-a617-a303f4e6a77c","ios":"levelo://app?vid=c7354566-144a-4680-a617-a303f4e6a77c"},"vehicle_type_id":"4","last_reported":1745593837,"current_range_meters":10000,"station_id":"ce4bh012rcd13ifvqd10","pricing_plan_id":"cebpf4jnsgd1na2vs0mg"},{"bike_id":"db7d7242-8c7e-4f94-b69e-661206cd7af4","system_id":"levelo_inurba_marseille","lat":43.28421,"lon":5.34972,"is_reserved":false,"is_disabled":false,"rental_uris":{"android":"levelo://app?vid=db7d7242-8c7e-4f94-b69e-661206cd7af4","ios":"levelo://app?vid=db7d7242-8c7e-4f94-b69e-661206cd7af4"},"vehicle_type_id":"4","last_reported":1745593837,"current_range_meters":10800,"station_id":"","pricing_plan_id":"cebpf4jnsgd1na2vs0mg"},{"bike_id":"5ca20747-bc6d-4583-919d-f95c4a98f799","system_id":"levelo_inurba_marseille","lat":43.27377,"lon":5.36256,"is_reserved":false,"is_disabled":false,"rental_uris":{"android":"levelo://app?vid=5ca20747-bc6d-4583-919d-f95c4a98f799","ios":"levelo://app?vid=5ca20747-bc6d-4583-919d-f95c4a98f799"},"vehicle_type_id":"4","last_reported":1745593837,"current_range_meters":10800,"station_id":"ce4bhbh2rcd13ifvqeo0","pricing_plan_id":"cebpf4jnsgd1na2vs0mg"},{"bike_id":"928fc053-f17a-4e40-bd84-abfb6ab94bf3","system_id":"levelo_inurba_marseille","lat":43.27378,"lon":5.36239,"is_reserved":false,"is_disabled":false,"rental_uris":{"android":"levelo://app?vid=928fc053-f17a-4e40-bd84-abfb6ab94bf3","ios":"levelo://app?vid=928fc053-f17a-4e40-bd84-abfb6ab94bf3"},"vehicle_type_id":"4","last_reported":1745593837,"current_range_meters":11200,"station_id":"ce4bhbh2rcd13ifvqeo0","pricing_plan_id":"cebpf4jnsgd1na2vs0mg"},{"bike_id":"d4ecfb85-6cd4-4441-9109-6799ce7afd08","system_id":"levelo_inurba_marseille","lat":43.26568,"lon":5.39005,"is_reserved":false,"is_disabled":false,"rental_uris":{"android":"levelo://app?vid=d4ecfb85-6cd4-4441-9109-6799ce7afd08","ios":"levelo://app?vid=d4ecfb85-6cd4-4441-9109-6799ce7afd08"},"vehicle_type_id":"4","last_reported":1745593837,"current_range_meters":11200,"station_id":"ce4bhe12rcd13ifvqf30","pricing_plan_id":"cebpf4jnsgd1na2vs0mg"},{"bike_id":"f1712a7d-5871-41e3-9b46-1f2f2ece89a0","system_id":"levelo_inurba_marseille","lat":43.23208,"lon":5.39905,"is_reserved":false,"is_disabled":false,"rental_uris":{"android":"levelo://app?vid=f1712a7d-5871-41e3-9b46-1f2f2ece89a0","ios":"levelo://app?vid=f1712a7d-5871-41e3-9b46-1f2f2ece89a0"},"vehicle_type_id":"4","last_reported":1745593837,"current_range_meters":11200,"station_id":"","pricing_plan_id":"cebpf4jnsgd1na2vs0mg"},{"bike_id":"0c4077b4-cbda-4729-a3cf-4be66247bebe","system_id":"levelo_inurba_marseille","lat":43.28461,"lon":5.35903,"is_reserved":false,"is_disabled":false,"rental_uris":{"android":"levelo://app?vid=0c4077b4-cbda-4729-a3cf-4be66247bebe","ios":"levelo://app?vid=0c4077b4-cbda-4729-a3cf-4be66247bebe"},"vehicle_type_id":"4","last_reported":1745593837,"current_range_meters":11200,"station_id":"ce4bhah2rcd13ifvqei0","pricing_plan_id":"cebpf4jnsgd1na2vs0mg"},{"bike_id":"3eeca3b7-f17a-4793-9c2b-05ce6aa8a2ce","system_id":"levelo_inurba_marseille","lat":43.28271,"lon":5.3506,"is_reserved":false,"is_disabled":false,"rental_uris":{"android":"levelo://app?vid=3eeca3b7-f17a-4793-9c2b-05ce6aa8a2ce","ios":"levelo://app?vid=3eeca3b7-f17a-4793-9c2b-05ce6aa8a2ce"},"vehicle_type_id":"4","last_reported":1745593837,"current_range_meters":11200,"station_id":"ce4bhbp2rcd13ifvqerg","pricing_plan_id":"cebpf4jnsgd1na2vs0mg"},{"bike_id":"e9b40b8c-aa8b-493b-9704-ac204b4fdb74","system_id":"levelo_inurba_marseille","lat":43.22506,"lon":5.34786,"is_reserved":false,"is_disabled":false,"rental_uris":{"android":"levelo://app?vid=e9b40b8c-aa8b-493b-9704-ac204b4fdb74","ios":"levelo://app?vid=e9b40b8c-aa8b-493b-9704-ac204b4fdb74"},"vehicle_type_id":"4","last_reported":1745593837,"current_range_meters":11600,"station_id":"st_cvj5dfep6f1abm77gieg","pricing_plan_id":"cebpf4jnsgd1na2vs0mg"},{"bike_id":"957bae1c-3093-4115-af4f-3012f0b6b63b","system_id":"levelo_inurba_marseille","lat":43.29576,"lon":5.39982,"is_reserved":false,"is_disabled":false,"rental_uris":{"android":"levelo://app?vid=957bae1c-3093-4115-af4f-3012f0b6b63b","ios":"levelo://app?vid=957bae1c-3093-4115-af4f-3012f0b6b63b"},"vehicle_type_id":"4","last_reported":1745593837,"current_range_meters":11600,"station_id":"ce4bh312rcd13ifvqdj0","pricing_plan_id":"cebpf4jnsgd1na2vs0mg"},{"bike_id":"3e5a5c69-a221-46e0-9fea-faf7b4757fae","system_id":"levelo_inurba_marseille","lat":43.2466,"lon":5.38174,"is_reserved":false,"is_disabled":false,"rental_uris":{"android":"levelo://app?vid=3e5a5c69-a221-46e0-9fea-faf7b4757fae","ios":"levelo://app?vid=3e5a5c69-a221-46e0-9fea-faf7b4757fae"},"vehicle_type_id":"4","last_reported":1745593837,"current_range_meters":9200,"station_id":"ce4bhih2rcd13ifvqfr0","pricing_plan_id":"cebpf4jnsgd1na2vs0mg"},{"bike_id":"05478e01-3d9a-48a1-ba7c-fcc8b81dfe26","system_id":"levelo_inurba_marseille","lat":43.295535,"lon":5.42281,"is_reserved":false,"is_disabled":false,"rental_uris":{"android":"levelo://app?vid=05478e01-3d9a-48a1-ba7c-fcc8b81dfe26","ios":"levelo://app?vid=05478e01-3d9a-48a1-ba7c-fcc8b81dfe26"},"vehicle_type_id":"4","last_reported":1745593837,"current_range_meters":11600,"station_id":"","pricing_plan_id":"cebpf4jnsgd1na2vs0mg"},{"bike_id":"9ffb5d81-f9b0-43fd-868c-eabad2edb8b3","system_id":"levelo_inurba_marseille","lat":43.27176,"lon":5.40987,"is_reserved":false,"is_disabled":false,"rental_uris":{"android":"levelo://app?vid=9ffb5d81-f9b0-43fd-868c-eabad2edb8b3","ios":"levelo://app?vid=9ffb5d81-f9b0-43fd-868c-eabad2edb8b3"},"vehicle_type_id":"4","last_reported":1745593837,"current_range_meters":11200,"station_id":"ce4bhl12rcd13ifvqgf0","pricing_plan_id":"cebpf4jnsgd1na2vs0mg"},{"bike_id":"6ba30cc1-bc56-4c52-9fd3-0120cc5829be","system_id":"levelo_inurba_marseille","lat":43.26025,"lon":5.37549,"is_reserved":false,"is_disabled":false,"rental_uris":{"android":"levelo://app?vid=6ba30cc1-bc56-4c52-9fd3-0120cc5829be","ios":"levelo://app?vid=6ba30cc1-bc56-4c52-9fd3-0120cc5829be"},"vehicle_type_id":"4","last_reported":1745593837,"current_range_meters":11600,"station_id":"ce4bhgh2rcd13ifvqfa0","pricing_plan_id":"cebpf4jnsgd1na2vs0mg"},{"bike_id":"9b0bd962-106f-4560-b108-196c38db3298","system_id":"levelo_inurba_marseille","lat":43.28283,"lon":5.35087,"is_reserved":false,"is_disabled":false,"rental_uris":{"android":"levelo://app?vid=9b0bd962-106f-4560-b108-196c38db3298","ios":"levelo://app?vid=9b0bd962-106f-4560-b108-196c38db3298"},"vehicle_type_id":"4","last_reported":1745593837,"current_range_meters":11600,"station_id":"ce4bhbp2rcd13ifvqerg","pricing_plan_id":"cebpf4jnsgd1na2vs0mg"},{"bike_id":"db09287a-0ef4-4f88-8d76-6d7a6ddf5bf8","system_id":"levelo_inurba_marseille","lat":43.29383,"lon":5.37865,"is_reserved":false,"is_disabled":true,"rental_uris":{"android":"levelo://app?vid=db09287a-0ef4-4f88-8d76-6d7a6ddf5bf8","ios":"levelo://app?vid=db09287a-0ef4-4f88-8d76-6d7a6ddf5bf8"},"vehicle_type_id":"4","last_reported":1745593837,"current_range_meters":11600,"station_id":"ce4bgjh2rcd13ifvqbf0","pricing_plan_id":"cebpf4jnsgd1na2vs0mg"},{"bike_id":"469aeb1d-74fa-4b92-a060-123e28f1e1a9","system_id":"levelo_inurba_marseille","lat":43.28136,"lon":5.35162,"is_reserved":false,"is_disabled":false,"rental_uris":{"android":"levelo://app?vid=469aeb1d-74fa-4b92-a060-123e28f1e1a9","ios":"levelo://app?vid=469aeb1d-74fa-4b92-a060-123e28f1e1a9"},"vehicle_type_id":"4","last_reported":1745593837,"current_range_meters":12000,"station_id":"","pricing_plan_id":"cebpf4jnsgd1na2vs0mg"},{"bike_id":"dc01f0b5-b1ff-492a-9187-c2aa24895f43","system_id":"levelo_inurba_marseille","lat":43.2319,"lon":5.39978,"is_reserved":false,"is_disabled":false,"rental_uris":{"android":"levelo://app?vid=dc01f0b5-b1ff-492a-9187-c2aa24895f43","ios":"levelo://app?vid=dc01f0b5-b1ff-492a-9187-c2aa24895f43"},"vehicle_type_id":"4","last_reported":1745593837,"current_range_meters":11600,"station_id":"ce4bhn12rcd13ifvqgqg","pricing_plan_id":"cebpf4jnsgd1na2vs0mg"},{"bike_id":"97d5f293-b6e1-4a42-81fb-53e18510659e","system_id":"levelo_inurba_marseille","lat":43.27424,"lon":5.39413,"is_reserved":false,"is_disabled":false,"rental_uris":{"android":"levelo://app?vid=97d5f293-b6e1-4a42-81fb-53e18510659e","ios":"levelo://app?vid=97d5f293-b6e1-4a42-81fb-53e18510659e"},"vehicle_type_id":"4","last_reported":1745593837,"current_range_meters":11600,"station_id":"ce4bhdp2rcd13ifvqf20","pricing_plan_id":"cebpf4jnsgd1na2vs0mg"},{"bike_id":"b1677055-db4d-476e-8281-f42cbd04eb2e","system_id":"levelo_inurba_marseille","lat":43.32,"lon":5.38131,"is_reserved":false,"is_disabled":false,"rental_uris":{"android":"levelo://app?vid=b1677055-db4d-476e-8281-f42cbd04eb2e","ios":"levelo://app?vid=b1677055-db4d-476e-8281-f42cbd04eb2e"},"vehicle_type_id":"4","last_reported":1745593837,"current_range_meters":12000,"station_id":"ce4bhr12rcd13ifvqhpg","pricing_plan_id":"cebpf4jnsgd1na2vs0mg"},{"bike_id":"5acc9e68-9019-47de-a3b0-b16e90a01968","system_id":"levelo_inurba_marseille","lat":43.30359,"lon":5.41878,"is_reserved":false,"is_disabled":false,"rental_uris":{"android":"levelo://app?vid=5acc9e68-9019-47de-a3b0-b16e90a01968","ios":"levelo://app?vid=5acc9e68-9019-47de-a3b0-b16e90a01968"},"vehicle_type_id":"4","last_reported":1745593837,"current_range_meters":12000,"station_id":"ce4bhop2rcd13ifvqh7g","pricing_plan_id":"cebpf4jnsgd1na2vs0mg"},{"bike_id":"51da85fc-c691-4424-a36f-600ea4532cf6","system_id":"levelo_inurba_marseille","lat":43.28619,"lon":5.35096,"is_reserved":false,"is_disabled":false,"rental_uris":{"android":"levelo://app?vid=51da85fc-c691-4424-a36f-600ea4532cf6","ios":"levelo://app?vid=51da85fc-c691-4424-a36f-600ea4532cf6"},"vehicle_type_id":"4","last_reported":1745593837,"current_range_meters":12000,"station_id":"ce4bhch2rcd13ifvqeug","pricing_plan_id":"cebpf4jnsgd1na2vs0mg"},{"bike_id":"f07b3c5b-fd4b-4f93-8a6b-c152845e8f8c","system_id":"levelo_inurba_marseille","lat":43.31992,"lon":5.38149,"is_reserved":false,"is_disabled":false,"rental_uris":{"android":"levelo://app?vid=f07b3c5b-fd4b-4f93-8a6b-c152845e8f8c","ios":"levelo://app?vid=f07b3c5b-fd4b-4f93-8a6b-c152845e8f8c"},"vehicle_type_id":"4","last_reported":1745593837,"current_range_meters":12000,"station_id":"ce4bhr12rcd13ifvqhpg","pricing_plan_id":"cebpf4jnsgd1na2vs0mg"},{"bike_id":"a1239a8f-43d4-4093-be84-1546659c01f4","system_id":"levelo_inurba_marseille","lat":43.21742,"lon":5.34618,"is_reserved":false,"is_disabled":false,"rental_uris":{"android":"levelo://app?vid=a1239a8f-43d4-4093-be84-1546659c01f4","ios":"levelo://app?vid=a1239a8f-43d4-4093-be84-1546659c01f4"},"vehicle_type_id":"4","last_reported":1745593837,"current_range_meters":12000,"station_id":"st_cvj6r9ubvosntc0bgbag","pricing_plan_id":"cebpf4jnsgd1na2vs0mg"},{"bike_id":"00dd4008-b8cd-459b-8f24-a4218f6e8179","system_id":"levelo_inurba_marseille","lat":43.23195,"lon":5.35554,"is_reserved":false,"is_disabled":false,"rental_uris":{"android":"levelo://app?vid=00dd4008-b8cd-459b-8f24-a4218f6e8179","ios":"levelo://app?vid=00dd4008-b8cd-459b-8f24-a4218f6e8179"},"vehicle_type_id":"4","last_reported":1745593837,"current_range_meters":12400,"station_id":"ce4bhu92rcd13ifvqi70","pricing_plan_id":"cebpf4jnsgd1na2vs0mg"},{"bike_id":"c8fd1ab8-207d-4bbf-a739-7cd9b03bed9a","system_id":"levelo_inurba_marseille","lat":43.21753,"lon":5.34601,"is_reserved":false,"is_disabled":false,"rental_uris":{"android":"levelo://app?vid=c8fd1ab8-207d-4bbf-a739-7cd9b03bed9a","ios":"levelo://app?vid=c8fd1ab8-207d-4bbf-a739-7cd9b03bed9a"},"vehicle_type_id":"4","last_reported":1745593837,"current_range_meters":12400,"station_id":"st_cvj6r9ubvosntc0bgbag","pricing_plan_id":"cebpf4jnsgd1na2vs0mg"},{"bike_id":"8afce910-b991-4e1f-ac38-f8b9e3919e08","system_id":"levelo_inurba_marseille","lat":43.28264,"lon":5.35064,"is_reserved":false,"is_disabled":false,"rental_uris":{"android":"levelo://app?vid=8afce910-b991-4e1f-ac38-f8b9e3919e08","ios":"levelo://app?vid=8afce910-b991-4e1f-ac38-f8b9e3919e08"},"vehicle_type_id":"4","last_reported":1745593837,"current_range_meters":12400,"station_id":"ce4bhbp2rcd13ifvqerg","pricing_plan_id":"cebpf4jnsgd1na2vs0mg"},{"bike_id":"26e6efc1-07c5-4b2b-b4c3-743d789c13ef","system_id":"levelo_inurba_marseille","lat":43.25093,"lon":5.3952,"is_reserved":false,"is_disabled":false,"rental_uris":{"android":"levelo://app?vid=26e6efc1-07c5-4b2b-b4c3-743d789c13ef","ios":"levelo://app?vid=26e6efc1-07c5-4b2b-b4c3-743d789c13ef"},"vehicle_type_id":"4","last_reported":1745593837,"current_range_meters":12400,"station_id":"ce4bhm12rcd13ifvqgkg","pricing_plan_id":"cebpf4jnsgd1na2vs0mg"},{"bike_id":"422b5989-c8b6-43aa-b2b9-3bfeb2e1ddc0","system_id":"levelo_inurba_marseille","lat":43.27227,"lon":5.3919,"is_reserved":false,"is_disabled":false,"rental_uris":{"android":"levelo://app?vid=422b5989-c8b6-43aa-b2b9-3bfeb2e1ddc0","ios":"levelo://app?vid=422b5989-c8b6-43aa-b2b9-3bfeb2e1ddc0"},"vehicle_type_id":"4","last_reported":1745593837,"current_range_meters":12800,"station_id":"ce4bhhp2rcd13ifvqfm0","pricing_plan_id":"cebpf4jnsgd1na2vs0mg"},{"bike_id":"03ec5728-5a8d-475c-be69-d63e54c8d683","system_id":"levelo_inurba_marseille","lat":43.32468,"lon":5.36734,"is_reserved":false,"is_disabled":false,"rental_uris":{"android":"levelo://app?vid=03ec5728-5a8d-475c-be69-d63e54c8d683","ios":"levelo://app?vid=03ec5728-5a8d-475c-be69-d63e54c8d683"},"vehicle_type_id":"4","last_reported":1745593837,"current_range_meters":12800,"station_id":"","pricing_plan_id":"cebpf4jnsgd1na2vs0mg"},{"bike_id":"fdc829f4-457c-40cc-957b-b30d42201a8d","system_id":"levelo_inurba_marseille","lat":43.28041,"lon":5.3694,"is_reserved":false,"is_disabled":false,"rental_uris":{"android":"levelo://app?vid=fdc829f4-457c-40cc-957b-b30d42201a8d","ios":"levelo://app?vid=fdc829f4-457c-40cc-957b-b30d42201a8d"},"vehicle_type_id":"4","last_reported":1745593837,"current_range_meters":12800,"station_id":"ce4bha12rcd13ifvqef0","pricing_plan_id":"cebpf4jnsgd1na2vs0mg"},{"bike_id":"3e5a5bec-d3d4-45ee-9c95-7c9b8e7a4c49","system_id":"levelo_inurba_marseille","lat":43.32349,"lon":5.36741,"is_reserved":false,"is_disabled":false,"rental_uris":{"android":"levelo://app?vid=3e5a5bec-d3d4-45ee-9c95-7c9b8e7a4c49","ios":"levelo://app?vid=3e5a5bec-d3d4-45ee-9c95-7c9b8e7a4c49"},"vehicle_type_id":"4","last_reported":1745593837,"current_range_meters":12800,"station_id":"ce4bhsh2rcd13ifvqi2g","pricing_plan_id":"cebpf4jnsgd1na2vs0mg"},{"bike_id":"d22d048c-3a4a-404f-b3d3-f1185c0bda52","system_id":"levelo_inurba_marseille","lat":43.27374,"lon":5.36255,"is_reserved":false,"is_disabled":false,"rental_uris":{"android":"levelo://app?vid=d22d048c-3a4a-404f-b3d3-f1185c0bda52","ios":"levelo://app?vid=d22d048c-3a4a-404f-b3d3-f1185c0bda52"},"vehicle_type_id":"4","last_reported":1745593837,"current_range_meters":13600,"station_id":"ce4bhbh2rcd13ifvqeo0","pricing_plan_id":"cebpf4jnsgd1na2vs0mg"},{"bike_id":"3c993aee-34fa-40d6-9714-66e48db154dc","system_id":"levelo_inurba_marseille","lat":43.28722,"lon":5.36092,"is_reserved":false,"is_disabled":false,"rental_uris":{"android":"levelo://app?vid=3c993aee-34fa-40d6-9714-66e48db154dc","ios":"levelo://app?vid=3c993aee-34fa-40d6-9714-66e48db154dc"},"vehicle_type_id":"4","last_reported":1745593837,"current_range_meters":13600,"station_id":"cki0cbj6b192h4jlfktg","pricing_plan_id":"cebpf4jnsgd1na2vs0mg"},{"bike_id":"e2dcabcf-64d8-4394-bb9a-ff877bee611a","system_id":"levelo_inurba_marseille","lat":43.3204,"lon":5.41484,"is_reserved":false,"is_disabled":false,"rental_uris":{"android":"levelo://app?vid=e2dcabcf-64d8-4394-bb9a-ff877bee611a","ios":"levelo://app?vid=e2dcabcf-64d8-4394-bb9a-ff877bee611a"},"vehicle_type_id":"4","last_reported":1745593837,"current_range_meters":13600,"station_id":"","pricing_plan_id":"cebpf4jnsgd1na2vs0mg"},{"bike_id":"4c11ff0f-a579-4f78-9960-a443174b0bdd","system_id":"levelo_inurba_marseille","lat":43.21192,"lon":5.35077,"is_reserved":false,"is_disabled":false,"rental_uris":{"android":"levelo://app?vid=4c11ff0f-a579-4f78-9960-a443174b0bdd","ios":"levelo://app?vid=4c11ff0f-a579-4f78-9960-a443174b0bdd"},"vehicle_type_id":"4","last_reported":1745593837,"current_range_meters":13600,"station_id":"st_cvj6sg6p6f1abm77japg","pricing_plan_id":"cebpf4jnsgd1na2vs0mg"},{"bike_id":"7fc5ed43-b2c3-4cf7-b081-488a7cbcc12f","system_id":"levelo_inurba_marseille","lat":43.330217,"lon":5.390282,"is_reserved":false,"is_disabled":false,"rental_uris":{"android":"levelo://app?vid=7fc5ed43-b2c3-4cf7-b081-488a7cbcc12f","ios":"levelo://app?vid=7fc5ed43-b2c3-4cf7-b081-488a7cbcc12f"},"vehicle_type_id":"4","last_reported":1745593837,"current_range_meters":13600,"station_id":"ce4bhr92rcd13ifvqhrg","pricing_plan_id":"cebpf4jnsgd1na2vs0mg"},{"bike_id":"41588ddd-de3f-43ba-8b39-79cebfd357c3","system_id":"levelo_inurba_marseille","lat":43.26033,"lon":5.37549,"is_reserved":false,"is_disabled":false,"rental_uris":{"android":"levelo://app?vid=41588ddd-de3f-43ba-8b39-79cebfd357c3","ios":"levelo://app?vid=41588ddd-de3f-43ba-8b39-79cebfd357c3"},"vehicle_type_id":"4","last_reported":1745593837,"current_range_meters":13600,"station_id":"ce4bhgh2rcd13ifvqfa0","pricing_plan_id":"cebpf4jnsgd1na2vs0mg"},{"bike_id":"0bfff189-ec6a-4439-b345-e9dd168ab867","system_id":"levelo_inurba_marseille","lat":43.3375,"lon":5.39206,"is_reserved":false,"is_disabled":false,"rental_uris":{"android":"levelo://app?vid=0bfff189-ec6a-4439-b345-e9dd168ab867","ios":"levelo://app?vid=0bfff189-ec6a-4439-b345-e9dd168ab867"},"vehicle_type_id":"4","last_reported":1745593837,"current_range_meters":13600,"station_id":"ce4bhr92rcd13ifvqhsg","pricing_plan_id":"cebpf4jnsgd1na2vs0mg"},{"bike_id":"c65adb3e-50be-42af-92da-68dd7e4eacc9","system_id":"levelo_inurba_marseille","lat":43.301493,"lon":5.380998,"is_reserved":false,"is_disabled":true,"rental_uris":{"android":"levelo://app?vid=c65adb3e-50be-42af-92da-68dd7e4eacc9","ios":"levelo://app?vid=c65adb3e-50be-42af-92da-68dd7e4eacc9"},"vehicle_type_id":"4","last_reported":1745593837,"current_range_meters":14000,"station_id":"ce4bgjp2rcd13ifvqbh0","pricing_plan_id":"cebpf4jnsgd1na2vs0mg"},{"bike_id":"855e60ab-f6aa-464e-a929-6af23eac9d94","system_id":"levelo_inurba_marseille","lat":43.29304,"lon":5.37132,"is_reserved":false,"is_disabled":false,"rental_uris":{"android":"levelo://app?vid=855e60ab-f6aa-464e-a929-6af23eac9d94","ios":"levelo://app?vid=855e60ab-f6aa-464e-a929-6af23eac9d94"},"vehicle_type_id":"4","last_reported":1745593837,"current_range_meters":14000,"station_id":"ce4bgh92rcd13ifvqb40","pricing_plan_id":"cebpf4jnsgd1na2vs0mg"},{"bike_id":"abca1288-ae9a-4a2e-a1f9-c37cd8c1116e","system_id":"levelo_inurba_marseille","lat":43.2319,"lon":5.3998,"is_reserved":false,"is_disabled":false,"rental_uris":{"android":"levelo://app?vid=abca1288-ae9a-4a2e-a1f9-c37cd8c1116e","ios":"levelo://app?vid=abca1288-ae9a-4a2e-a1f9-c37cd8c1116e"},"vehicle_type_id":"4","last_reported":1745593837,"current_range_meters":14400,"station_id":"ce4bhn12rcd13ifvqgqg","pricing_plan_id":"cebpf4jnsgd1na2vs0mg"},{"bike_id":"cf321fcd-510e-4cab-abc0-429185b210f0","system_id":"levelo_inurba_marseille","lat":43.2306,"lon":5.35503,"is_reserved":false,"is_disabled":false,"rental_uris":{"android":"levelo://app?vid=cf321fcd-510e-4cab-abc0-429185b210f0","ios":"levelo://app?vid=cf321fcd-510e-4cab-abc0-429185b210f0"},"vehicle_type_id":"4","last_reported":1745593837,"current_range_meters":14400,"station_id":"cpo3342slgdg3j2ifvpg","pricing_plan_id":"cebpf4jnsgd1na2vs0mg"},{"bike_id":"c85d1131-1b3e-48cc-852e-8cf681275246","system_id":"levelo_inurba_marseille","lat":43.27992,"lon":5.41662,"is_reserved":false,"is_disabled":false,"rental_uris":{"android":"levelo://app?vid=c85d1131-1b3e-48cc-852e-8cf681275246","ios":"levelo://app?vid=c85d1131-1b3e-48cc-852e-8cf681275246"},"vehicle_type_id":"4","last_reported":1745593837,"current_range_meters":14800,"station_id":"ce4bho12rcd13ifvqh1g","pricing_plan_id":"cebpf4jnsgd1na2vs0mg"},{"bike_id":"d69b28f3-aec1-4fbd-84ec-a5c58be18b3c","system_id":"levelo_inurba_marseille","lat":43.28269,"lon":5.35067,"is_reserved":false,"is_disabled":false,"rental_uris":{"android":"levelo://app?vid=d69b28f3-aec1-4fbd-84ec-a5c58be18b3c","ios":"levelo://app?vid=d69b28f3-aec1-4fbd-84ec-a5c58be18b3c"},"vehicle_type_id":"4","last_reported":1745593837,"current_range_meters":14800,"station_id":"ce4bhbp2rcd13ifvqerg","pricing_plan_id":"cebpf4jnsgd1na2vs0mg"},{"bike_id":"b99c3ed2-37c4-489b-a2c4-d846fb8fe83a","system_id":"levelo_inurba_marseille","lat":43.27395,"lon":5.36287,"is_reserved":false,"is_disabled":false,"rental_uris":{"android":"levelo://app?vid=b99c3ed2-37c4-489b-a2c4-d846fb8fe83a","ios":"levelo://app?vid=b99c3ed2-37c4-489b-a2c4-d846fb8fe83a"},"vehicle_type_id":"4","last_reported":1745593837,"current_range_meters":15200,"station_id":"ce4bhbh2rcd13ifvqeo0","pricing_plan_id":"cebpf4jnsgd1na2vs0mg"},{"bike_id":"071c1165-d0c3-4152-8608-afc3b64c18ee","system_id":"levelo_inurba_marseille","lat":43.21206,"lon":5.3506,"is_reserved":false,"is_disabled":false,"rental_uris":{"android":"levelo://app?vid=071c1165-d0c3-4152-8608-afc3b64c18ee","ios":"levelo://app?vid=071c1165-d0c3-4152-8608-afc3b64c18ee"},"vehicle_type_id":"4","last_reported":1745593837,"current_range_meters":15200,"station_id":"st_cvj6sg6p6f1abm77japg","pricing_plan_id":"cebpf4jnsgd1na2vs0mg"},{"bike_id":"524afa0c-c9c2-4bbb-a98a-f9bef9f4ca68","system_id":"levelo_inurba_marseille","lat":43.28483,"lon":5.35886,"is_reserved":false,"is_disabled":false,"rental_uris":{"android":"levelo://app?vid=524afa0c-c9c2-4bbb-a98a-f9bef9f4ca68","ios":"levelo://app?vid=524afa0c-c9c2-4bbb-a98a-f9bef9f4ca68"},"vehicle_type_id":"4","last_reported":1745593837,"current_range_meters":16000,"station_id":"ce4bhah2rcd13ifvqei0","pricing_plan_id":"cebpf4jnsgd1na2vs0mg"},{"bike_id":"f3c8b33a-71a0-45f4-b464-305bb1a32ec7","system_id":"levelo_inurba_marseille","lat":43.31334,"lon":5.39724,"is_reserved":false,"is_disabled":false,"rental_uris":{"android":"levelo://app?vid=f3c8b33a-71a0-45f4-b464-305bb1a32ec7","ios":"levelo://app?vid=f3c8b33a-71a0-45f4-b464-305bb1a32ec7"},"vehicle_type_id":"4","last_reported":1745593837,"current_range_meters":16000,"station_id":"ce4bgvp2rcd13ifvqcu0","pricing_plan_id":"cebpf4jnsgd1na2vs0mg"},{"bike_id":"568053e1-9183-4cee-acca-959027493876","system_id":"levelo_inurba_marseille","lat":43.30915,"lon":5.36856,"is_reserved":false,"is_disabled":true,"rental_uris":{"android":"levelo://app?vid=568053e1-9183-4cee-acca-959027493876","ios":"levelo://app?vid=568053e1-9183-4cee-acca-959027493876"},"vehicle_type_id":"4","last_reported":1745593837,"current_range_meters":16000,"station_id":"ce4bgn92rcd13ifvqbvg","pricing_plan_id":"cebpf4jnsgd1na2vs0mg"},{"bike_id":"af6af1ea-83a0-4448-a6b9-d143557f7290","system_id":"levelo_inurba_marseille","lat":43.27031,"lon":5.40222,"is_reserved":false,"is_disabled":false,"rental_uris":{"android":"levelo://app?vid=af6af1ea-83a0-4448-a6b9-d143557f7290","ios":"levelo://app?vid=af6af1ea-83a0-4448-a6b9-d143557f7290"},"vehicle_type_id":"4","last_reported":1745593837,"current_range_meters":16000,"station_id":"ce4bhk92rcd13ifvqgc0","pricing_plan_id":"cebpf4jnsgd1na2vs0mg"},{"bike_id":"b370ec72-25aa-4e18-90be-0a23445d821b","system_id":"levelo_inurba_marseille","lat":43.21755,"lon":5.34616,"is_reserved":false,"is_disabled":false,"rental_uris":{"android":"levelo://app?vid=b370ec72-25aa-4e18-90be-0a23445d821b","ios":"levelo://app?vid=b370ec72-25aa-4e18-90be-0a23445d821b"},"vehicle_type_id":"4","last_reported":1745593837,"current_range_meters":16000,"station_id":"","pricing_plan_id":"cebpf4jnsgd1na2vs0mg"},{"bike_id":"5267f34e-fce0-44b4-ad50-2f11d4f8abac","system_id":"levelo_inurba_marseille","lat":43.28275,"lon":5.35091,"is_reserved":false,"is_disabled":false,"rental_uris":{"android":"levelo://app?vid=5267f34e-fce0-44b4-ad50-2f11d4f8abac","ios":"levelo://app?vid=5267f34e-fce0-44b4-ad50-2f11d4f8abac"},"vehicle_type_id":"4","last_reported":1745593837,"current_range_meters":16000,"station_id":"ce4bhbp2rcd13ifvqerg","pricing_plan_id":"cebpf4jnsgd1na2vs0mg"},{"bike_id":"f047045f-e71d-4a63-a6af-bddd66445f94","system_id":"levelo_inurba_marseille","lat":43.28157,"lon":5.42641,"is_reserved":false,"is_disabled":false,"rental_uris":{"android":"levelo://app?vid=f047045f-e71d-4a63-a6af-bddd66445f94","ios":"levelo://app?vid=f047045f-e71d-4a63-a6af-bddd66445f94"},"vehicle_type_id":"4","last_reported":1745593837,"current_range_meters":16400,"station_id":"ce4bhnh2rcd13ifvqgug","pricing_plan_id":"cebpf4jnsgd1na2vs0mg"},{"bike_id":"1bd28368-da6e-4567-a232-bfbd04e388f9","system_id":"levelo_inurba_marseille","lat":43.28462,"lon":5.35888,"is_reserved":false,"is_disabled":false,"rental_uris":{"android":"levelo://app?vid=1bd28368-da6e-4567-a232-bfbd04e388f9","ios":"levelo://app?vid=1bd28368-da6e-4567-a232-bfbd04e388f9"},"vehicle_type_id":"4","last_reported":1745593837,"current_range_meters":16400,"station_id":"ce4bhah2rcd13ifvqei0","pricing_plan_id":"cebpf4jnsgd1na2vs0mg"},{"bike_id":"5d9c1574-7299-43ae-a032-cbfe0be61242","system_id":"levelo_inurba_marseille","lat":43.23057,"lon":5.35487,"is_reserved":false,"is_disabled":false,"rental_uris":{"android":"levelo://app?vid=5d9c1574-7299-43ae-a032-cbfe0be61242","ios":"levelo://app?vid=5d9c1574-7299-43ae-a032-cbfe0be61242"},"vehicle_type_id":"4","last_reported":1745593837,"current_range_meters":16400,"station_id":"cpo3342slgdg3j2ifvpg","pricing_plan_id":"cebpf4jnsgd1na2vs0mg"},{"bike_id":"1ebb1eb1-592d-42f5-a5c8-14d38c1e10b4","system_id":"levelo_inurba_marseille","lat":43.28423,"lon":5.34988,"is_reserved":false,"is_disabled":false,"rental_uris":{"android":"levelo://app?vid=1ebb1eb1-592d-42f5-a5c8-14d38c1e10b4","ios":"levelo://app?vid=1ebb1eb1-592d-42f5-a5c8-14d38c1e10b4"},"vehicle_type_id":"4","last_reported":1745593837,"current_range_meters":16400,"station_id":"ce4bhbh2rcd13ifvqepg","pricing_plan_id":"cebpf4jnsgd1na2vs0mg"},{"bike_id":"2debcc6a-291c-45a9-8cb5-a9874d1dc063","system_id":"levelo_inurba_marseille","lat":43.24177,"lon":5.36379,"is_reserved":false,"is_disabled":false,"rental_uris":{"android":"levelo://app?vid=2debcc6a-291c-45a9-8cb5-a9874d1dc063","ios":"levelo://app?vid=2debcc6a-291c-45a9-8cb5-a9874d1dc063"},"vehicle_type_id":"4","last_reported":1745593837,"current_range_meters":16400,"station_id":"cpo36qri1sfpv3e86is0","pricing_plan_id":"cebpf4jnsgd1na2vs0mg"},{"bike_id":"1f5019c5-d61b-4c9e-b9c2-198cb7272b56","system_id":"levelo_inurba_marseille","lat":43.27375,"lon":5.36257,"is_reserved":false,"is_disabled":false,"rental_uris":{"android":"levelo://app?vid=1f5019c5-d61b-4c9e-b9c2-198cb7272b56","ios":"levelo://app?vid=1f5019c5-d61b-4c9e-b9c2-198cb7272b56"},"vehicle_type_id":"4","last_reported":1745593837,"current_range_meters":16400,"station_id":"ce4bhbh2rcd13ifvqeo0","pricing_plan_id":"cebpf4jnsgd1na2vs0mg"},{"bike_id":"5d90e8c4-88f9-42f1-bfd8-e31a43c95b58","system_id":"levelo_inurba_marseille","lat":43.32495,"lon":5.36554,"is_reserved":false,"is_disabled":false,"rental_uris":{"android":"levelo://app?vid=5d90e8c4-88f9-42f1-bfd8-e31a43c95b58","ios":"levelo://app?vid=5d90e8c4-88f9-42f1-bfd8-e31a43c95b58"},"vehicle_type_id":"4","last_reported":1745593837,"current_range_meters":16400,"station_id":"ce4bhs12rcd13ifvqhvg","pricing_plan_id":"cebpf4jnsgd1na2vs0mg"},{"bike_id":"b211e9da-7a6f-427b-a783-0d9999e7712e","system_id":"levelo_inurba_marseille","lat":43.28946,"lon":5.36637,"is_reserved":false,"is_disabled":false,"rental_uris":{"android":"levelo://app?vid=b211e9da-7a6f-427b-a783-0d9999e7712e","ios":"levelo://app?vid=b211e9da-7a6f-427b-a783-0d9999e7712e"},"vehicle_type_id":"4","last_reported":1745593837,"current_range_meters":16800,"station_id":"ce4bhap2rcd13ifvqek0","pricing_plan_id":"cebpf4jnsgd1na2vs0mg"},{"bike_id":"08ba14c4-5e90-4e60-968a-650c59a213a8","system_id":"levelo_inurba_marseille","lat":43.25823,"lon":5.39431,"is_reserved":false,"is_disabled":false,"rental_uris":{"android":"levelo://app?vid=08ba14c4-5e90-4e60-968a-650c59a213a8","ios":"levelo://app?vid=08ba14c4-5e90-4e60-968a-650c59a213a8"},"vehicle_type_id":"4","last_reported":1745593837,"current_range_meters":16000,"station_id":"ce4bhip2rcd13ifvqft0","pricing_plan_id":"cebpf4jnsgd1na2vs0mg"},{"bike_id":"806dbc45-87dc-416e-a487-26e4f7f67870","system_id":"levelo_inurba_marseille","lat":43.30797,"lon":5.38169,"is_reserved":false,"is_disabled":false,"rental_uris":{"android":"levelo://app?vid=806dbc45-87dc-416e-a487-26e4f7f67870","ios":"levelo://app?vid=806dbc45-87dc-416e-a487-26e4f7f67870"},"vehicle_type_id":"4","last_reported":1745593837,"current_range_meters":16800,"station_id":"ce4bgt12rcd13ifvqce0","pricing_plan_id":"cebpf4jnsgd1na2vs0mg"},{"bike_id":"ee61fe24-3052-476a-a28c-913cc78e6bf5","system_id":"levelo_inurba_marseille","lat":43.28261,"lon":5.35055,"is_reserved":false,"is_disabled":false,"rental_uris":{"android":"levelo://app?vid=ee61fe24-3052-476a-a28c-913cc78e6bf5","ios":"levelo://app?vid=ee61fe24-3052-476a-a28c-913cc78e6bf5"},"vehicle_type_id":"4","last_reported":1745593837,"current_range_meters":16800,"station_id":"ce4bhbp2rcd13ifvqerg","pricing_plan_id":"cebpf4jnsgd1na2vs0mg"},{"bike_id":"4534d7e3-24a6-4022-8d6e-c87dbbcde225","system_id":"levelo_inurba_marseille","lat":43.22507,"lon":5.34774,"is_reserved":false,"is_disabled":false,"rental_uris":{"android":"levelo://app?vid=4534d7e3-24a6-4022-8d6e-c87dbbcde225","ios":"levelo://app?vid=4534d7e3-24a6-4022-8d6e-c87dbbcde225"},"vehicle_type_id":"4","last_reported":1745593837,"current_range_meters":16800,"station_id":"st_cvj5dfep6f1abm77gieg","pricing_plan_id":"cebpf4jnsgd1na2vs0mg"},{"bike_id":"808dd04f-45a7-4e5e-a30a-c7ef09b55bb5","system_id":"levelo_inurba_marseille","lat":43.22505,"lon":5.34783,"is_reserved":false,"is_disabled":false,"rental_uris":{"android":"levelo://app?vid=808dd04f-45a7-4e5e-a30a-c7ef09b55bb5","ios":"levelo://app?vid=808dd04f-45a7-4e5e-a30a-c7ef09b55bb5"},"vehicle_type_id":"4","last_reported":1745593837,"current_range_meters":16800,"station_id":"st_cvj5dfep6f1abm77gieg","pricing_plan_id":"cebpf4jnsgd1na2vs0mg"},{"bike_id":"987d7900-bb2a-45cb-bed7-6d69f6fd4fa3","system_id":"levelo_inurba_marseille","lat":43.28516,"lon":5.38478,"is_reserved":false,"is_disabled":false,"rental_uris":{"android":"levelo://app?vid=987d7900-bb2a-45cb-bed7-6d69f6fd4fa3","ios":"levelo://app?vid=987d7900-bb2a-45cb-bed7-6d69f6fd4fa3"},"vehicle_type_id":"4","last_reported":1745593837,"current_range_meters":16800,"station_id":"","pricing_plan_id":"cebpf4jnsgd1na2vs0mg"},{"bike_id":"4cab42b7-7280-4725-9a4f-fa1aa89ae492","system_id":"levelo_inurba_marseille","lat":43.309052,"lon":5.396685,"is_reserved":false,"is_disabled":false,"rental_uris":{"android":"levelo://app?vid=4cab42b7-7280-4725-9a4f-fa1aa89ae492","ios":"levelo://app?vid=4cab42b7-7280-4725-9a4f-fa1aa89ae492"},"vehicle_type_id":"4","last_reported":1745593837,"current_range_meters":17200,"station_id":"ce4bh092rcd13ifvqd20","pricing_plan_id":"cebpf4jnsgd1na2vs0mg"},{"bike_id":"78fcd603-1883-4640-82e9-f6d4175ff80d","system_id":"levelo_inurba_marseille","lat":43.28002,"lon":5.41662,"is_reserved":false,"is_disabled":false,"rental_uris":{"android":"levelo://app?vid=78fcd603-1883-4640-82e9-f6d4175ff80d","ios":"levelo://app?vid=78fcd603-1883-4640-82e9-f6d4175ff80d"},"vehicle_type_id":"4","last_reported":1745593837,"current_range_meters":16800,"station_id":"ce4bho12rcd13ifvqh1g","pricing_plan_id":"cebpf4jnsgd1na2vs0mg"},{"bike_id":"34172cb6-b4ad-4838-ab0f-4c4a5aa33abd","system_id":"levelo_inurba_marseille","lat":43.33724,"lon":5.39181,"is_reserved":false,"is_disabled":false,"rental_uris":{"android":"levelo://app?vid=34172cb6-b4ad-4838-ab0f-4c4a5aa33abd","ios":"levelo://app?vid=34172cb6-b4ad-4838-ab0f-4c4a5aa33abd"},"vehicle_type_id":"4","last_reported":1745593837,"current_range_meters":17200,"station_id":"ce4bhr92rcd13ifvqhsg","pricing_plan_id":"cebpf4jnsgd1na2vs0mg"},{"bike_id":"5671b54a-15e1-4f77-a133-d3cef74ca0e6","system_id":"levelo_inurba_marseille","lat":43.28005,"lon":5.4001,"is_reserved":false,"is_disabled":false,"rental_uris":{"android":"levelo://app?vid=5671b54a-15e1-4f77-a133-d3cef74ca0e6","ios":"levelo://app?vid=5671b54a-15e1-4f77-a133-d3cef74ca0e6"},"vehicle_type_id":"4","last_reported":1745593837,"current_range_meters":17600,"station_id":"ce4bho92rcd13ifvqh4g","pricing_plan_id":"cebpf4jnsgd1na2vs0mg"},{"bike_id":"ca2fa9c3-e8b8-4c69-a156-62a6239bc208","system_id":"levelo_inurba_marseille","lat":43.31726,"lon":5.42394,"is_reserved":false,"is_disabled":false,"rental_uris":{"android":"levelo://app?vid=ca2fa9c3-e8b8-4c69-a156-62a6239bc208","ios":"levelo://app?vid=ca2fa9c3-e8b8-4c69-a156-62a6239bc208"},"vehicle_type_id":"4","last_reported":1745593837,"current_range_meters":17600,"station_id":"ce4bhp92rcd13ifvqhbg","pricing_plan_id":"cebpf4jnsgd1na2vs0mg"},{"bike_id":"4b30a3bc-9326-42c5-bfda-0eeb17e9b1f2","system_id":"levelo_inurba_marseille","lat":43.28159,"lon":5.42649,"is_reserved":false,"is_disabled":false,"rental_uris":{"android":"levelo://app?vid=4b30a3bc-9326-42c5-bfda-0eeb17e9b1f2","ios":"levelo://app?vid=4b30a3bc-9326-42c5-bfda-0eeb17e9b1f2"},"vehicle_type_id":"4","last_reported":1745593837,"current_range_meters":17600,"station_id":"ce4bhnh2rcd13ifvqgug","pricing_plan_id":"cebpf4jnsgd1na2vs0mg"},{"bike_id":"51a4b1f4-4cfb-4b9e-b7e6-50254ee4c796","system_id":"levelo_inurba_marseille","lat":43.2861,"lon":5.3706,"is_reserved":false,"is_disabled":true,"rental_uris":{"android":"levelo://app?vid=51a4b1f4-4cfb-4b9e-b7e6-50254ee4c796","ios":"levelo://app?vid=51a4b1f4-4cfb-4b9e-b7e6-50254ee4c796"},"vehicle_type_id":"4","last_reported":1745593837,"current_range_meters":17600,"station_id":"ce4bht12rcd13ifvqi60","pricing_plan_id":"cebpf4jnsgd1na2vs0mg"},{"bike_id":"5b137603-d771-4416-91a8-4d5b9b090982","system_id":"levelo_inurba_marseille","lat":43.28267,"lon":5.3506,"is_reserved":false,"is_disabled":false,"rental_uris":{"android":"levelo://app?vid=5b137603-d771-4416-91a8-4d5b9b090982","ios":"levelo://app?vid=5b137603-d771-4416-91a8-4d5b9b090982"},"vehicle_type_id":"4","last_reported":1745593837,"current_range_meters":18000,"station_id":"ce4bhbp2rcd13ifvqerg","pricing_plan_id":"cebpf4jnsgd1na2vs0mg"},{"bike_id":"04e77e6c-ffcd-4990-bfc5-4b13763906cc","system_id":"levelo_inurba_marseille","lat":43.21195,"lon":5.35067,"is_reserved":false,"is_disabled":false,"rental_uris":{"android":"levelo://app?vid=04e77e6c-ffcd-4990-bfc5-4b13763906cc","ios":"levelo://app?vid=04e77e6c-ffcd-4990-bfc5-4b13763906cc"},"vehicle_type_id":"4","last_reported":1745593837,"current_range_meters":18000,"station_id":"st_cvj6sg6p6f1abm77japg","pricing_plan_id":"cebpf4jnsgd1na2vs0mg"},{"bike_id":"f8918494-09aa-4f0f-b89c-be49ec40c84a","system_id":"levelo_inurba_marseille","lat":43.28614,"lon":5.35101,"is_reserved":false,"is_disabled":false,"rental_uris":{"android":"levelo://app?vid=f8918494-09aa-4f0f-b89c-be49ec40c84a","ios":"levelo://app?vid=f8918494-09aa-4f0f-b89c-be49ec40c84a"},"vehicle_type_id":"4","last_reported":1745593837,"current_range_meters":18000,"station_id":"ce4bhch2rcd13ifvqeug","pricing_plan_id":"cebpf4jnsgd1na2vs0mg"},{"bike_id":"13731016-9cf7-4d91-a42f-f54be16a7958","system_id":"levelo_inurba_marseille","lat":43.2118,"lon":5.35089,"is_reserved":false,"is_disabled":false,"rental_uris":{"android":"levelo://app?vid=13731016-9cf7-4d91-a42f-f54be16a7958","ios":"levelo://app?vid=13731016-9cf7-4d91-a42f-f54be16a7958"},"vehicle_type_id":"4","last_reported":1745593837,"current_range_meters":18000,"station_id":"st_cvj6sg6p6f1abm77japg","pricing_plan_id":"cebpf4jnsgd1na2vs0mg"},{"bike_id":"e46a7047-3aab-4909-b2b0-991fb2bdf0c5","system_id":"levelo_inurba_marseille","lat":43.28278,"lon":5.35054,"is_reserved":false,"is_disabled":false,"rental_uris":{"android":"levelo://app?vid=e46a7047-3aab-4909-b2b0-991fb2bdf0c5","ios":"levelo://app?vid=e46a7047-3aab-4909-b2b0-991fb2bdf0c5"},"vehicle_type_id":"4","last_reported":1745593837,"current_range_meters":18800,"station_id":"ce4bhbp2rcd13ifvqerg","pricing_plan_id":"cebpf4jnsgd1na2vs0mg"},{"bike_id":"4046a82f-66e8-4b55-bd0a-356edea772d8","system_id":"levelo_inurba_marseille","lat":43.30631,"lon":5.37234,"is_reserved":false,"is_disabled":false,"rental_uris":{"android":"levelo://app?vid=4046a82f-66e8-4b55-bd0a-356edea772d8","ios":"levelo://app?vid=4046a82f-66e8-4b55-bd0a-356edea772d8"},"vehicle_type_id":"4","last_reported":1745593837,"current_range_meters":18800,"station_id":"ce4bgqh2rcd13ifvqc4g","pricing_plan_id":"cebpf4jnsgd1na2vs0mg"},{"bike_id":"d28bf9af-5868-40cf-bc78-dd7cb5c022b5","system_id":"levelo_inurba_marseille","lat":43.29979,"lon":5.38491,"is_reserved":false,"is_disabled":true,"rental_uris":{"android":"levelo://app?vid=d28bf9af-5868-40cf-bc78-dd7cb5c022b5","ios":"levelo://app?vid=d28bf9af-5868-40cf-bc78-dd7cb5c022b5"},"vehicle_type_id":"4","last_reported":1745593837,"current_range_meters":18800,"station_id":"ce4bgj92rcd13ifvqbd0","pricing_plan_id":"cebpf4jnsgd1na2vs0mg"},{"bike_id":"94b7da04-5082-421d-aeef-f6f9b0ab2015","system_id":"levelo_inurba_marseille","lat":43.2657,"lon":5.37297,"is_reserved":false,"is_disabled":false,"rental_uris":{"android":"levelo://app?vid=94b7da04-5082-421d-aeef-f6f9b0ab2015","ios":"levelo://app?vid=94b7da04-5082-421d-aeef-f6f9b0ab2015"},"vehicle_type_id":"4","last_reported":1745593837,"current_range_meters":18800,"station_id":"ce4bhg12rcd13ifvqf70","pricing_plan_id":"cebpf4jnsgd1na2vs0mg"},{"bike_id":"79ffd577-c06f-4898-b813-2dd8142120d9","system_id":"levelo_inurba_marseille","lat":43.28647,"lon":5.35118,"is_reserved":false,"is_disabled":false,"rental_uris":{"android":"levelo://app?vid=79ffd577-c06f-4898-b813-2dd8142120d9","ios":"levelo://app?vid=79ffd577-c06f-4898-b813-2dd8142120d9"},"vehicle_type_id":"4","last_reported":1745593837,"current_range_meters":18800,"station_id":"ce4bhch2rcd13ifvqeug","pricing_plan_id":"cebpf4jnsgd1na2vs0mg"},{"bike_id":"4d967fd0-75d1-438b-b381-56818b3ac1e3","system_id":"levelo_inurba_marseille","lat":43.28272,"lon":5.35057,"is_reserved":false,"is_disabled":false,"rental_uris":{"android":"levelo://app?vid=4d967fd0-75d1-438b-b381-56818b3ac1e3","ios":"levelo://app?vid=4d967fd0-75d1-438b-b381-56818b3ac1e3"},"vehicle_type_id":"4","last_reported":1745593837,"current_range_meters":18800,"station_id":"ce4bhbp2rcd13ifvqerg","pricing_plan_id":"cebpf4jnsgd1na2vs0mg"},{"bike_id":"20f43bed-cd6c-4e3e-b47b-055df6184bb1","system_id":"levelo_inurba_marseille","lat":43.28256,"lon":5.35096,"is_reserved":false,"is_disabled":false,"rental_uris":{"android":"levelo://app?vid=20f43bed-cd6c-4e3e-b47b-055df6184bb1","ios":"levelo://app?vid=20f43bed-cd6c-4e3e-b47b-055df6184bb1"},"vehicle_type_id":"4","last_reported":1745593837,"current_range_meters":18800,"station_id":"ce4bhbp2rcd13ifvqerg","pricing_plan_id":"cebpf4jnsgd1na2vs0mg"},{"bike_id":"f0f1bb50-44b5-4f45-9eb5-a6badf22d690","system_id":"levelo_inurba_marseille","lat":43.3304,"lon":5.39049,"is_reserved":false,"is_disabled":false,"rental_uris":{"android":"levelo://app?vid=f0f1bb50-44b5-4f45-9eb5-a6badf22d690","ios":"levelo://app?vid=f0f1bb50-44b5-4f45-9eb5-a6badf22d690"},"vehicle_type_id":"4","last_reported":1745593837,"current_range_meters":18800,"station_id":"ce4bhr92rcd13ifvqhrg","pricing_plan_id":"cebpf4jnsgd1na2vs0mg"},{"bike_id":"9fac8949-580c-4814-ac69-31148581f4a2","system_id":"levelo_inurba_marseille","lat":43.33021,"lon":5.39124,"is_reserved":false,"is_disabled":false,"rental_uris":{"android":"levelo://app?vid=9fac8949-580c-4814-ac69-31148581f4a2","ios":"levelo://app?vid=9fac8949-580c-4814-ac69-31148581f4a2"},"vehicle_type_id":"4","last_reported":1745593837,"current_range_meters":18800,"station_id":"","pricing_plan_id":"cebpf4jnsgd1na2vs0mg"},{"bike_id":"74814aed-c7b6-4782-8b0e-38c6aeb88ba0","system_id":"levelo_inurba_marseille","lat":43.27916,"lon":5.39575,"is_reserved":false,"is_disabled":false,"rental_uris":{"android":"levelo://app?vid=74814aed-c7b6-4782-8b0e-38c6aeb88ba0","ios":"levelo://app?vid=74814aed-c7b6-4782-8b0e-38c6aeb88ba0"},"vehicle_type_id":"4","last_reported":1745593837,"current_range_meters":18800,"station_id":"ce4bhf92rcd13ifvqf40","pricing_plan_id":"cebpf4jnsgd1na2vs0mg"},{"bike_id":"4748f9b3-f40a-45c7-813d-5106f4af23bf","system_id":"levelo_inurba_marseille","lat":43.2867,"lon":5.38664,"is_reserved":false,"is_disabled":false,"rental_uris":{"android":"levelo://app?vid=4748f9b3-f40a-45c7-813d-5106f4af23bf","ios":"levelo://app?vid=4748f9b3-f40a-45c7-813d-5106f4af23bf"},"vehicle_type_id":"4","last_reported":1745593837,"current_range_meters":18800,"station_id":"ce4bh492rcd13ifvqdug","pricing_plan_id":"cebpf4jnsgd1na2vs0mg"},{"bike_id":"93c94bf0-0989-42b8-9fdf-a02ea4794c81","system_id":"levelo_inurba_marseille","lat":43.2862,"lon":5.35102,"is_reserved":false,"is_disabled":false,"rental_uris":{"android":"levelo://app?vid=93c94bf0-0989-42b8-9fdf-a02ea4794c81","ios":"levelo://app?vid=93c94bf0-0989-42b8-9fdf-a02ea4794c81"},"vehicle_type_id":"4","last_reported":1745593837,"current_range_meters":19200,"station_id":"ce4bhch2rcd13ifvqeug","pricing_plan_id":"cebpf4jnsgd1na2vs0mg"},{"bike_id":"15c904f0-859d-47e7-ab6c-f39a98e1412a","system_id":"levelo_inurba_marseille","lat":43.25874,"lon":5.39896,"is_reserved":false,"is_disabled":false,"rental_uris":{"android":"levelo://app?vid=15c904f0-859d-47e7-ab6c-f39a98e1412a","ios":"levelo://app?vid=15c904f0-859d-47e7-ab6c-f39a98e1412a"},"vehicle_type_id":"4","last_reported":1745593837,"current_range_meters":19200,"station_id":"ce4bhl92rcd13ifvqghg","pricing_plan_id":"cebpf4jnsgd1na2vs0mg"},{"bike_id":"2c3bdcb8-a79c-4de1-b2f3-892c544ade77","system_id":"levelo_inurba_marseille","lat":43.28438,"lon":5.3502,"is_reserved":false,"is_disabled":false,"rental_uris":{"android":"levelo://app?vid=2c3bdcb8-a79c-4de1-b2f3-892c544ade77","ios":"levelo://app?vid=2c3bdcb8-a79c-4de1-b2f3-892c544ade77"},"vehicle_type_id":"4","last_reported":1745593837,"current_range_meters":19200,"station_id":"ce4bhbh2rcd13ifvqepg","pricing_plan_id":"cebpf4jnsgd1na2vs0mg"},{"bike_id":"a7842a46-486e-4bfd-8e92-b6d5583e761f","system_id":"levelo_inurba_marseille","lat":43.29627,"lon":5.406,"is_reserved":false,"is_disabled":false,"rental_uris":{"android":"levelo://app?vid=a7842a46-486e-4bfd-8e92-b6d5583e761f","ios":"levelo://app?vid=a7842a46-486e-4bfd-8e92-b6d5583e761f"},"vehicle_type_id":"4","last_reported":1745593837,"current_range_meters":19200,"station_id":"ce4bh0h2rcd13ifvqd60","pricing_plan_id":"cebpf4jnsgd1na2vs0mg"},{"bike_id":"e92565b1-0dda-4426-8c0d-cf38ecdda8a2","system_id":"levelo_inurba_marseille","lat":43.21738,"lon":5.34615,"is_reserved":false,"is_disabled":false,"rental_uris":{"android":"levelo://app?vid=e92565b1-0dda-4426-8c0d-cf38ecdda8a2","ios":"levelo://app?vid=e92565b1-0dda-4426-8c0d-cf38ecdda8a2"},"vehicle_type_id":"4","last_reported":1745593837,"current_range_meters":19200,"station_id":"st_cvj6r9ubvosntc0bgbag","pricing_plan_id":"cebpf4jnsgd1na2vs0mg"},{"bike_id":"a4745c6b-e2ae-4dd3-906d-d6fd51ddf467","system_id":"levelo_inurba_marseille","lat":43.289337,"lon":5.366389,"is_reserved":false,"is_disabled":false,"rental_uris":{"android":"levelo://app?vid=a4745c6b-e2ae-4dd3-906d-d6fd51ddf467","ios":"levelo://app?vid=a4745c6b-e2ae-4dd3-906d-d6fd51ddf467"},"vehicle_type_id":"4","last_reported":1745593837,"current_range_meters":19600,"station_id":"ce4bhap2rcd13ifvqek0","pricing_plan_id":"cebpf4jnsgd1na2vs0mg"},{"bike_id":"b57f0b2b-13f5-4a53-835a-40ec0d56f9ae","system_id":"levelo_inurba_marseille","lat":43.28439,"lon":5.35036,"is_reserved":false,"is_disabled":false,"rental_uris":{"android":"levelo://app?vid=b57f0b2b-13f5-4a53-835a-40ec0d56f9ae","ios":"levelo://app?vid=b57f0b2b-13f5-4a53-835a-40ec0d56f9ae"},"vehicle_type_id":"4","last_reported":1745593837,"current_range_meters":19600,"station_id":"","pricing_plan_id":"cebpf4jnsgd1na2vs0mg"},{"bike_id":"67d4a75f-9465-49eb-989f-0c28e7289f08","system_id":"levelo_inurba_marseille","lat":43.25584,"lon":5.38222,"is_reserved":false,"is_disabled":false,"rental_uris":{"android":"levelo://app?vid=67d4a75f-9465-49eb-989f-0c28e7289f08","ios":"levelo://app?vid=67d4a75f-9465-49eb-989f-0c28e7289f08"},"vehicle_type_id":"4","last_reported":1745593837,"current_range_meters":19600,"station_id":"ce4bhih2rcd13ifvqfs0","pricing_plan_id":"cebpf4jnsgd1na2vs0mg"},{"bike_id":"0df93a99-e84c-4bd8-b48e-55243ae941d7","system_id":"levelo_inurba_marseille","lat":43.337245,"lon":5.391875,"is_reserved":false,"is_disabled":false,"rental_uris":{"android":"levelo://app?vid=0df93a99-e84c-4bd8-b48e-55243ae941d7","ios":"levelo://app?vid=0df93a99-e84c-4bd8-b48e-55243ae941d7"},"vehicle_type_id":"4","last_reported":1745593837,"current_range_meters":19600,"station_id":"ce4bhr92rcd13ifvqhsg","pricing_plan_id":"cebpf4jnsgd1na2vs0mg"},{"bike_id":"9a81c55a-86bd-4005-89d4-14a5d6e775ad","system_id":"levelo_inurba_marseille","lat":43.2901,"lon":5.35608,"is_reserved":false,"is_disabled":false,"rental_uris":{"android":"levelo://app?vid=9a81c55a-86bd-4005-89d4-14a5d6e775ad","ios":"levelo://app?vid=9a81c55a-86bd-4005-89d4-14a5d6e775ad"},"vehicle_type_id":"4","last_reported":1745593837,"current_range_meters":19600,"station_id":"ce4bhb92rcd13ifvqen0","pricing_plan_id":"cebpf4jnsgd1na2vs0mg"},{"bike_id":"640ad59c-493a-47df-9706-98acd28509bd","system_id":"levelo_inurba_marseille","lat":43.281571,"lon":5.426439,"is_reserved":false,"is_disabled":false,"rental_uris":{"android":"levelo://app?vid=640ad59c-493a-47df-9706-98acd28509bd","ios":"levelo://app?vid=640ad59c-493a-47df-9706-98acd28509bd"},"vehicle_type_id":"4","last_reported":1745593837,"current_range_meters":19600,"station_id":"ce4bhnh2rcd13ifvqgug","pricing_plan_id":"cebpf4jnsgd1na2vs0mg"},{"bike_id":"715aea6f-e33b-40a4-9932-9f645bb6d304","system_id":"levelo_inurba_marseille","lat":43.27377,"lon":5.36253,"is_reserved":false,"is_disabled":false,"rental_uris":{"android":"levelo://app?vid=715aea6f-e33b-40a4-9932-9f645bb6d304","ios":"levelo://app?vid=715aea6f-e33b-40a4-9932-9f645bb6d304"},"vehicle_type_id":"4","last_reported":1745593837,"current_range_meters":19600,"station_id":"ce4bhbh2rcd13ifvqeo0","pricing_plan_id":"cebpf4jnsgd1na2vs0mg"},{"bike_id":"ce635803-bedf-40bc-9360-b1dbbf17902e","system_id":"levelo_inurba_marseille","lat":43.28632,"lon":5.35118,"is_reserved":false,"is_disabled":false,"rental_uris":{"android":"levelo://app?vid=ce635803-bedf-40bc-9360-b1dbbf17902e","ios":"levelo://app?vid=ce635803-bedf-40bc-9360-b1dbbf17902e"},"vehicle_type_id":"4","last_reported":1745593837,"current_range_meters":19600,"station_id":"ce4bhch2rcd13ifvqeug","pricing_plan_id":"cebpf4jnsgd1na2vs0mg"},{"bike_id":"2a2bd3c8-7af4-49c2-80aa-c321e938cb50","system_id":"levelo_inurba_marseille","lat":43.28273,"lon":5.35066,"is_reserved":false,"is_disabled":false,"rental_uris":{"android":"levelo://app?vid=2a2bd3c8-7af4-49c2-80aa-c321e938cb50","ios":"levelo://app?vid=2a2bd3c8-7af4-49c2-80aa-c321e938cb50"},"vehicle_type_id":"4","last_reported":1745593837,"current_range_meters":20000,"station_id":"ce4bhbp2rcd13ifvqerg","pricing_plan_id":"cebpf4jnsgd1na2vs0mg"},{"bike_id":"efbf50d7-f155-4a95-9e2b-216cf52d0be1","system_id":"levelo_inurba_marseille","lat":43.28599,"lon":5.35112,"is_reserved":false,"is_disabled":false,"rental_uris":{"android":"levelo://app?vid=efbf50d7-f155-4a95-9e2b-216cf52d0be1","ios":"levelo://app?vid=efbf50d7-f155-4a95-9e2b-216cf52d0be1"},"vehicle_type_id":"4","last_reported":1745593837,"current_range_meters":20000,"station_id":"ce4bhch2rcd13ifvqeug","pricing_plan_id":"cebpf4jnsgd1na2vs0mg"},{"bike_id":"9dcfbf28-c898-4598-b20c-dcf03879d46f","system_id":"levelo_inurba_marseille","lat":43.305451,"lon":5.367372,"is_reserved":false,"is_disabled":false,"rental_uris":{"android":"levelo://app?vid=9dcfbf28-c898-4598-b20c-dcf03879d46f","ios":"levelo://app?vid=9dcfbf28-c898-4598-b20c-dcf03879d46f"},"vehicle_type_id":"4","last_reported":1745593837,"current_range_meters":19600,"station_id":"ce4bgrp2rcd13ifvqc9g","pricing_plan_id":"cebpf4jnsgd1na2vs0mg"},{"bike_id":"7526224c-f6d7-4c0e-9add-72d56150fa01","system_id":"levelo_inurba_marseille","lat":43.27917,"lon":5.38001,"is_reserved":false,"is_disabled":false,"rental_uris":{"android":"levelo://app?vid=7526224c-f6d7-4c0e-9add-72d56150fa01","ios":"levelo://app?vid=7526224c-f6d7-4c0e-9add-72d56150fa01"},"vehicle_type_id":"4","last_reported":1745593837,"current_range_meters":19600,"station_id":"ce4bhf92rcd13ifvqf50","pricing_plan_id":"cebpf4jnsgd1na2vs0mg"},{"bike_id":"51e93dd6-45e6-4fd0-a9cf-2fd16dc2b201","system_id":"levelo_inurba_marseille","lat":43.26934,"lon":5.3893,"is_reserved":false,"is_disabled":false,"rental_uris":{"android":"levelo://app?vid=51e93dd6-45e6-4fd0-a9cf-2fd16dc2b201","ios":"levelo://app?vid=51e93dd6-45e6-4fd0-a9cf-2fd16dc2b201"},"vehicle_type_id":"4","last_reported":1745593837,"current_range_meters":19600,"station_id":"ce4bhhh2rcd13ifvqfl0","pricing_plan_id":"cebpf4jnsgd1na2vs0mg"},{"bike_id":"617fbf20-bb15-4117-b0a0-f63054ce20f7","system_id":"levelo_inurba_marseille","lat":43.21187,"lon":5.35075,"is_reserved":false,"is_disabled":false,"rental_uris":{"android":"levelo://app?vid=617fbf20-bb15-4117-b0a0-f63054ce20f7","ios":"levelo://app?vid=617fbf20-bb15-4117-b0a0-f63054ce20f7"},"vehicle_type_id":"4","last_reported":1745593837,"current_range_meters":20000,"station_id":"st_cvj6sg6p6f1abm77japg","pricing_plan_id":"cebpf4jnsgd1na2vs0mg"},{"bike_id":"9e494dcd-738c-4811-8f1c-af9096119303","system_id":"levelo_inurba_marseille","lat":43.28632,"lon":5.35078,"is_reserved":false,"is_disabled":false,"rental_uris":{"android":"levelo://app?vid=9e494dcd-738c-4811-8f1c-af9096119303","ios":"levelo://app?vid=9e494dcd-738c-4811-8f1c-af9096119303"},"vehicle_type_id":"4","last_reported":1745593837,"current_range_meters":20000,"station_id":"ce4bhch2rcd13ifvqeug","pricing_plan_id":"cebpf4jnsgd1na2vs0mg"},{"bike_id":"e2d221e2-b5c1-461c-868a-058c7d4dcbac","system_id":"levelo_inurba_marseille","lat":43.29583,"lon":5.37877,"is_reserved":false,"is_disabled":false,"rental_uris":{"android":"levelo://app?vid=e2d221e2-b5c1-461c-868a-058c7d4dcbac","ios":"levelo://app?vid=e2d221e2-b5c1-461c-868a-058c7d4dcbac"},"vehicle_type_id":"4","last_reported":1745593837,"current_range_meters":20400,"station_id":"","pricing_plan_id":"cebpf4jnsgd1na2vs0mg"},{"bike_id":"e6f0b5a2-c895-4d4d-b478-a988bec1679c","system_id":"levelo_inurba_marseille","lat":43.2119,"lon":5.35067,"is_reserved":false,"is_disabled":false,"rental_uris":{"android":"levelo://app?vid=e6f0b5a2-c895-4d4d-b478-a988bec1679c","ios":"levelo://app?vid=e6f0b5a2-c895-4d4d-b478-a988bec1679c"},"vehicle_type_id":"4","last_reported":1745593837,"current_range_meters":20400,"station_id":"st_cvj6sg6p6f1abm77japg","pricing_plan_id":"cebpf4jnsgd1na2vs0mg"},{"bike_id":"ff7edc6b-64de-4307-a997-d8c714a0ffa5","system_id":"levelo_inurba_marseille","lat":43.30948,"lon":5.37502,"is_reserved":false,"is_disabled":false,"rental_uris":{"android":"levelo://app?vid=ff7edc6b-64de-4307-a997-d8c714a0ffa5","ios":"levelo://app?vid=ff7edc6b-64de-4307-a997-d8c714a0ffa5"},"vehicle_type_id":"4","last_reported":1745593837,"current_range_meters":20400,"station_id":"","pricing_plan_id":"cebpf4jnsgd1na2vs0mg"},{"bike_id":"fbaca04b-a848-4c38-a18c-01e51f670e79","system_id":"levelo_inurba_marseille","lat":43.292,"lon":5.35798,"is_reserved":false,"is_disabled":true,"rental_uris":{"android":"levelo://app?vid=fbaca04b-a848-4c38-a18c-01e51f670e79","ios":"levelo://app?vid=fbaca04b-a848-4c38-a18c-01e51f670e79"},"vehicle_type_id":"4","last_reported":1745593837,"current_range_meters":20400,"station_id":"ce4bhb12rcd13ifvqel0","pricing_plan_id":"cebpf4jnsgd1na2vs0mg"},{"bike_id":"3d3dd6dc-4d3f-46b1-811a-bd1fda2771bd","system_id":"levelo_inurba_marseille","lat":43.22508,"lon":5.34782,"is_reserved":false,"is_disabled":false,"rental_uris":{"android":"levelo://app?vid=3d3dd6dc-4d3f-46b1-811a-bd1fda2771bd","ios":"levelo://app?vid=3d3dd6dc-4d3f-46b1-811a-bd1fda2771bd"},"vehicle_type_id":"4","last_reported":1745593837,"current_range_meters":20400,"station_id":"","pricing_plan_id":"cebpf4jnsgd1na2vs0mg"},{"bike_id":"5b3471c6-19f9-47f7-8083-863c5b3ceb3b","system_id":"levelo_inurba_marseille","lat":43.28089,"lon":5.35229,"is_reserved":false,"is_disabled":false,"rental_uris":{"android":"levelo://app?vid=5b3471c6-19f9-47f7-8083-863c5b3ceb3b","ios":"levelo://app?vid=5b3471c6-19f9-47f7-8083-863c5b3ceb3b"},"vehicle_type_id":"4","last_reported":1745593837,"current_range_meters":20800,"station_id":"","pricing_plan_id":"cebpf4jnsgd1na2vs0mg"},{"bike_id":"4d4d336b-6e25-464c-a884-df47a35cfed0","system_id":"levelo_inurba_marseille","lat":43.28668,"lon":5.36353,"is_reserved":false,"is_disabled":false,"rental_uris":{"android":"levelo://app?vid=4d4d336b-6e25-464c-a884-df47a35cfed0","ios":"levelo://app?vid=4d4d336b-6e25-464c-a884-df47a35cfed0"},"vehicle_type_id":"4","last_reported":1745593837,"current_range_meters":20800,"station_id":"ce4bhah2rcd13ifvqej0","pricing_plan_id":"cebpf4jnsgd1na2vs0mg"},{"bike_id":"3ea242bb-dc31-44a9-8d1d-ecdbc103752c","system_id":"levelo_inurba_marseille","lat":43.28445,"lon":5.35027,"is_reserved":false,"is_disabled":false,"rental_uris":{"android":"levelo://app?vid=3ea242bb-dc31-44a9-8d1d-ecdbc103752c","ios":"levelo://app?vid=3ea242bb-dc31-44a9-8d1d-ecdbc103752c"},