{"last_updated":1683752830,"ttl":30,"version":"2.2","data":{"bikes":[{"bike_id":"84d3018a-6b30-4aa8-9c19-652f5151c740","system_id":"levelo_inurba_marseille","lat":43.312239,"lon":5.368562,"is_reserved":false,"is_disabled":false,"rental_uris":{"android":"levelo://app?vid=84d3018a-6b30-4aa8-9c19-652f5151c740","ios":"levelo://app?vid=84d3018a-6b30-4aa8-9c19-652f5151c740"},"vehicle_type_id":"4","last_reported":1683752830,"current_range_meters":14000,"station_id":"ce4bgl92rcd13ifvqbq0","pricing_plan_id":"free"},{"bike_id":"aef49c0b-2f09-4c6e-9393-3764ce6f1cbe","system_id":"levelo_inurba_marseille","lat":43.312239,"lon":5.368562,"is_reserved":false,"is_disabled":false,"rental_uris":{"android":"levelo://app?vid=aef49c0b-2f09-4c6e-9393-3764ce6f1cbe","ios":"levelo://app?vid=aef49c0b-2f09-4c6e-9393-3764ce6f1cbe"},"vehicle_type_id":"4","last_reported":1683752830,"current_range_meters":21600,"station_id":"ce4bgl92rcd13ifvqbq0","pricing_plan_id":"free"},{"bike_id":"7b3006ff-850f-48e0-b027-c023a456b75e","system_id":"levelo_inurba_marseille","lat":43.312239,"lon":5.368562,"is_reserved":false,"is_disabled":false,"rental_uris":{"android":"levelo://app?vid=7b3006ff-850f-48e0-b027-c023a456b75e","ios":"levelo://app?vid=7b3006ff-850f-48e0-b027-c023a456b75e"},"vehicle_type_id":"4","last_reported":1683752830,"current_range_meters":13200,"station_id":"ce4bgl92rcd13ifvqbq0","pricing_plan_id":"free"},{"bike_id":"669ca68c-7c76-41e7-aba2-d064f8c7822f","system_id":"levelo_inurba_marseille","lat":43.309076,"lon":5.368465,"is_reserved":false,"is_disabled":false,"rental_uris":{"android":"levelo://app?vid=669ca68c-7c76-41e7-aba2-d064f8c7822f","ios":"levelo://app?vid=669ca68c-7c76-41e7-aba2-d064f8c7822f"},"vehicle_type_id":"4","last_reported":1683752830,"current_range_meters":30800,"station_id":"ce4bgn92rcd13ifvqbvg","pricing_plan_id":"free"},{"bike_id":"de8dc251-a2f4-4dec-9bbf-687d97f2a7e5","system_id":"levelo_inurba_marseille","lat":43.309076,"lon":5.368465,"is_reserved":false,"is_disabled":false,"rental_uris":{"android":"levelo://app?vid=de8dc251-a2f4-4dec-9bbf-687d97f2a7e5","ios":"levelo://app?vid=de8dc251-a2f4-4dec-9bbf-687d97f2a7e5"},"vehicle_type_id":"4","last_reported":1683752830,"current_range_meters":31200,"station_id":"ce4bgn92rcd13ifvqbvg","pricing_plan_id":"free"},{"bike_id":"525702b3-cafd-4542-b38a-3599d04c630d","system_id":"levelo_inurba_marseille","lat":43.309076,"lon":5.368465,"is_reserved":false,"is_disabled":false,"rental_uris":{"android":"levelo://app?vid=525702b3-cafd-4542-b38a-3599d04c630d","ios":"levelo://app?vid=525702b3-cafd-4542-b38a-3599d04c630d"},"vehicle_type_id":"4","last_reported":1683752830,"current_range_meters":30800,"station_id":"ce4bgn92rcd13ifvqbvg","pricing_plan_id":"free"},{"bike_id":"ee224537-a488-4a01-82d9-9d667905dca0","system_id":"levelo_inurba_marseille","lat":43.309076,"lon":5.368465,"is_reserved":false,"is_disabled":false,"rental_uris":{"android":"levelo://app?vid=ee224537-a488-4a01-82d9-9d667905dca0","ios":"levelo://app?vid=ee224537-a488-4a01-82d9-9d667905dca0"},"vehicle_type_id":"4","last_reported":1683752830,"current_range_meters":29600,"station_id":"ce4bgn92rcd13ifvqbvg","pricing_plan_id":"free"},{"bike_id":"30bcb19c-6e7d-4eed-a071-dcf12480f1e8","system_id":"levelo_inurba_marseille","lat":43.314811,"lon":5.373103,"is_reserved":false,"is_disabled":false,"rental_uris":{"android":"levelo://app?vid=30bcb19c-6e7d-4eed-a071-dcf12480f1e8","ios":"levelo://app?vid=30bcb19c-6e7d-4eed-a071-dcf12480f1e8"},"vehicle_type_id":"4","last_reported":1683752830,"current_range_meters":21600,"station_id":"ce4bgt12rcd13ifvqcd0","pricing_plan_id":"free"},{"bike_id":"a919fb1c-678f-490f-8a8c-26ba059e3107","system_id":"levelo_inurba_marseille","lat":43.314811,"lon":5.373103,"is_reserved":false,"is_disabled":false,"rental_uris":{"android":"levelo://app?vid=a919fb1c-678f-490f-8a8c-26ba059e3107","ios":"levelo://app?vid=a919fb1c-678f-490f-8a8c-26ba059e3107"},"vehicle_type_id":"4","last_reported":1683752830,"current_range_meters":21200,"station_id":"ce4bgt12rcd13ifvqcd0","pricing_plan_id":"free"},{"bike_id":"0fac61b3-ff59-4bf1-8837-0ca13d5f2625","system_id":"levelo_inurba_marseille","lat":43.314811,"lon":5.373103,"is_reserved":false,"is_disabled":false,"rental_uris":{"android":"levelo://app?vid=0fac61b3-ff59-4bf1-8837-0ca13d5f2625","ios":"levelo://app?vid=0fac61b3-ff59-4bf1-8837-0ca13d5f2625"},"vehicle_type_id":"4","last_reported":1683752830,"current_range_meters":31200,"station_id":"ce4bgt12rcd13ifvqcd0","pricing_plan_id":"free"},{"bike_id":"9802e7f2-ef72-45e6-92d8-78c3fab9dd6d","system_id":"levelo_inurba_marseille","lat":43.314811,"lon":5.373103,"is_reserved":false,"is_disabled":false,"rental_uris":{"android":"levelo://app?vid=9802e7f2-ef72-45e6-92d8-78c3fab9dd6d","ios":"levelo://app?vid=9802e7f2-ef72-45e6-92d8-78c3fab9dd6d"},"vehicle_type_id":"4","last_reported":1683752830,"current_range_meters":31200,"station_id":"ce4bgt12rcd13ifvqcd0","pricing_plan_id":"free"},{"bike_id":"9f63682b-db23-4ad4-8805-034639d7582a","system_id":"levelo_inurba_marseille","lat":43.314811,"lon":5.373103,"is_reserved":false,"is_disabled":false,"rental_uris":{"android":"levelo://app?vid=9f63682b-db23-4ad4-8805-034639d7582a","ios":"levelo://app?vid=9f63682b-db23-4ad4-8805-034639d7582a"},"vehicle_type_id":"4","last_reported":1683752830,"current_range_meters":23600,"station_id":"ce4bgt12rcd13ifvqcd0","pricing_plan_id":"free"},{"bike_id":"03b63664-2eee-47af-a5f8-cd0e02b487a0","system_id":"levelo_inurba_marseille","lat":43.308614,"lon":5.372098,"is_reserved":false,"is_disabled":false,"rental_uris":{"android":"levelo://app?vid=03b63664-2eee-47af-a5f8-cd0e02b487a0","ios":"levelo://app?vid=03b63664-2eee-47af-a5f8-cd0e02b487a0"},"vehicle_type_id":"4","last_reported":1683752830,"current_range_meters":2400,"station_id":"ce4bguh2rcd13ifvqckg","pricing_plan_id":"free"},{"bike_id":"a6b35a00-3ccd-4f5d-bc38-39ef4aab9bcf","system_id":"levelo_inurba_marseille","lat":43.308614,"lon":5.372098,"is_reserved":false,"is_disabled":false,"rental_uris":{"android":"levelo://app?vid=a6b35a00-3ccd-4f5d-bc38-39ef4aab9bcf","ios":"levelo://app?vid=a6b35a00-3ccd-4f5d-bc38-39ef4aab9bcf"},"vehicle_type_id":"4","last_reported":1683752830,"current_range_meters":400,"station_id":"ce4bguh2rcd13ifvqckg","pricing_plan_id":"free"},{"bike_id":"3fe5e8c0-b0dd-43d5-804b-316a6f727b76","system_id":"levelo_inurba_marseille","lat":43.308614,"lon":5.372098,"is_reserved":false,"is_disabled":false,"rental_uris":{"android":"levelo://app?vid=3fe5e8c0-b0dd-43d5-804b-316a6f727b76","ios":"levelo://app?vid=3fe5e8c0-b0dd-43d5-804b-316a6f727b76"},"vehicle_type_id":"4","last_reported":1683752830,"current_range_meters":12400,"station_id":"ce4bguh2rcd13ifvqckg","pricing_plan_id":"free"},{"bike_id":"c0d012d6-1ee5-4f79-8e93-99709aa21c65","system_id":"levelo_inurba_marseille","lat":43.308614,"lon":5.372098,"is_reserved":false,"is_disabled":false,"rental_uris":{"android":"levelo://app?vid=c0d012d6-1ee5-4f79-8e93-99709aa21c65","ios":"levelo://app?vid=c0d012d6-1ee5-4f79-8e93-99709aa21c65"},"vehicle_type_id":"4","last_reported":1683752830,"current_range_meters":24000,"station_id":"ce4bguh2rcd13ifvqckg","pricing_plan_id":"free"},{"bike_id":"e5055e62-b460-43ad-b3fc-0fd7bf145013","system_id":"levelo_inurba_marseille","lat":43.30888,"lon":5.37212,"is_reserved":false,"is_disabled":false,"rental_uris":{"android":"levelo://app?vid=e5055e62-b460-43ad-b3fc-0fd7bf145013","ios":"levelo://app?vid=e5055e62-b460-43ad-b3fc-0fd7bf145013"},"vehicle_type_id":"4","last_reported":1683752830,"current_range_meters":29600,"station_id":"ce4bguh2rcd13ifvqckg","pricing_plan_id":"free"},{"bike_id":"2cd97288-6a6e-4345-bfc1-4f7de14cdd82","system_id":"levelo_inurba_marseille","lat":43.31449,"lon":5.37573,"is_reserved":false,"is_disabled":false,"rental_uris":{"android":"levelo://app?vid=2cd97288-6a6e-4345-bfc1-4f7de14cdd82","ios":"levelo://app?vid=2cd97288-6a6e-4345-bfc1-4f7de14cdd82"},"vehicle_type_id":"4","last_reported":1683752830,"current_range_meters":5600,"station_id":"","pricing_plan_id":"free"},{"bike_id":"404a3367-b2c0-4558-9671-a7094816bf9a","system_id":"levelo_inurba_marseille","lat":43.305368,"lon":5.367343,"is_reserved":false,"is_disabled":false,"rental_uris":{"android":"levelo://app?vid=404a3367-b2c0-4558-9671-a7094816bf9a","ios":"levelo://app?vid=404a3367-b2c0-4558-9671-a7094816bf9a"},"vehicle_type_id":"4","last_reported":1683752830,"current_range_meters":31200,"station_id":"ce4bgrp2rcd13ifvqc9g","pricing_plan_id":"free"},{"bike_id":"2f9af1da-7e57-440a-92ee-5f445f1c2558","system_id":"levelo_inurba_marseille","lat":43.30537,"lon":5.367345,"is_reserved":false,"is_disabled":false,"rental_uris":{"android":"levelo://app?vid=2f9af1da-7e57-440a-92ee-5f445f1c2558","ios":"levelo://app?vid=2f9af1da-7e57-440a-92ee-5f445f1c2558"},"vehicle_type_id":"4","last_reported":1683752830,"current_range_meters":21600,"station_id":"ce4bgrp2rcd13ifvqc9g","pricing_plan_id":"free"},{"bike_id":"d67ff04b-df02-466f-ab97-09b3bf670b70","system_id":"levelo_inurba_marseille","lat":43.305368,"lon":5.367343,"is_reserved":false,"is_disabled":false,"rental_uris":{"android":"levelo://app?vid=d67ff04b-df02-466f-ab97-09b3bf670b70","ios":"levelo://app?vid=d67ff04b-df02-466f-ab97-09b3bf670b70"},"vehicle_type_id":"4","last_reported":1683752830,"current_range_meters":31200,"station_id":"ce4bgrp2rcd13ifvqc9g","pricing_plan_id":"free"},{"bike_id":"f40e5a32-8d42-4a37-82e6-36edb941fb66","system_id":"levelo_inurba_marseille","lat":43.30537,"lon":5.367345,"is_reserved":false,"is_disabled":false,"rental_uris":{"android":"levelo://app?vid=f40e5a32-8d42-4a37-82e6-36edb941fb66","ios":"levelo://app?vid=f40e5a32-8d42-4a37-82e6-36edb941fb66"},"vehicle_type_id":"4","last_reported":1683752830,"current_range_meters":29200,"station_id":"ce4bgrp2rcd13ifvqc9g","pricing_plan_id":"free"},{"bike_id":"37847adc-2e50-487f-91f1-4fe3f02e1e84","system_id":"levelo_inurba_marseille","lat":43.30537,"lon":5.367345,"is_reserved":false,"is_disabled":false,"rental_uris":{"android":"levelo://app?vid=37847adc-2e50-487f-91f1-4fe3f02e1e84","ios":"levelo://app?vid=37847adc-2e50-487f-91f1-4fe3f02e1e84"},"vehicle_type_id":"4","last_reported":1683752830,"current_range_meters":31200,"station_id":"ce4bgrp2rcd13ifvqc9g","pricing_plan_id":"free"},{"bike_id":"4da8fa16-b83c-4478-bfc7-02ff59bc2238","system_id":"levelo_inurba_marseille","lat":43.30537,"lon":5.367345,"is_reserved":false,"is_disabled":false,"rental_uris":{"android":"levelo://app?vid=4da8fa16-b83c-4478-bfc7-02ff59bc2238","ios":"levelo://app?vid=4da8fa16-b83c-4478-bfc7-02ff59bc2238"},"vehicle_type_id":"4","last_reported":1683752830,"current_range_meters":24000,"station_id":"ce4bgrp2rcd13ifvqc9g","pricing_plan_id":"free"},{"bike_id":"bdfd6ec5-bf13-4ccc-a7c9-d42bff352917","system_id":"levelo_inurba_marseille","lat":43.305368,"lon":5.367343,"is_reserved":false,"is_disabled":false,"rental_uris":{"android":"levelo://app?vid=bdfd6ec5-bf13-4ccc-a7c9-d42bff352917","ios":"levelo://app?vid=bdfd6ec5-bf13-4ccc-a7c9-d42bff352917"},"vehicle_type_id":"4","last_reported":1683752830,"current_range_meters":28800,"station_id":"ce4bgrp2rcd13ifvqc9g","pricing_plan_id":"free"},{"bike_id":"ebc958c3-fd68-4865-b43a-461dd0cead57","system_id":"levelo_inurba_marseille","lat":43.305706,"lon":5.365654,"is_reserved":false,"is_disabled":false,"rental_uris":{"android":"levelo://app?vid=ebc958c3-fd68-4865-b43a-461dd0cead57","ios":"levelo://app?vid=ebc958c3-fd68-4865-b43a-461dd0cead57"},"vehicle_type_id":"4","last_reported":1683752830,"current_range_meters":6800,"station_id":"ce4bgs12rcd13ifvqcag","pricing_plan_id":"free"},{"bike_id":"fea96fc0-a43c-415b-87bf-75a2a653cbc5","system_id":"levelo_inurba_marseille","lat":43.305706,"lon":5.365654,"is_reserved":false,"is_disabled":false,"rental_uris":{"android":"levelo://app?vid=fea96fc0-a43c-415b-87bf-75a2a653cbc5","ios":"levelo://app?vid=fea96fc0-a43c-415b-87bf-75a2a653cbc5"},"vehicle_type_id":"4","last_reported":1683752830,"current_range_meters":0,"station_id":"ce4bgs12rcd13ifvqcag","pricing_plan_id":"free"},{"bike_id":"8c1710fc-96c2-47da-b219-74ce18b9b788","system_id":"levelo_inurba_marseille","lat":43.305989,"lon":5.37225,"is_reserved":false,"is_disabled":false,"rental_uris":{"android":"levelo://app?vid=8c1710fc-96c2-47da-b219-74ce18b9b788","ios":"levelo://app?vid=8c1710fc-96c2-47da-b219-74ce18b9b788"},"vehicle_type_id":"4","last_reported":1683752830,"current_range_meters":25600,"station_id":"ce4bgqh2rcd13ifvqc4g","pricing_plan_id":"free"},{"bike_id":"34ecee27-9b4f-496d-90de-37f919616a50","system_id":"levelo_inurba_marseille","lat":43.305989,"lon":5.37225,"is_reserved":false,"is_disabled":false,"rental_uris":{"android":"levelo://app?vid=34ecee27-9b4f-496d-90de-37f919616a50","ios":"levelo://app?vid=34ecee27-9b4f-496d-90de-37f919616a50"},"vehicle_type_id":"4","last_reported":1683752830,"current_range_meters":23200,"station_id":"ce4bgqh2rcd13ifvqc4g","pricing_plan_id":"free"},{"bike_id":"0b32b822-08df-4ecf-9d67-32be5a0d05ec","system_id":"levelo_inurba_marseille","lat":43.305989,"lon":5.37225,"is_reserved":false,"is_disabled":false,"rental_uris":{"android":"levelo://app?vid=0b32b822-08df-4ecf-9d67-32be5a0d05ec","ios":"levelo://app?vid=0b32b822-08df-4ecf-9d67-32be5a0d05ec"},"vehicle_type_id":"4","last_reported":1683752830,"current_range_meters":12000,"station_id":"ce4bgqh2rcd13ifvqc4g","pricing_plan_id":"free"},{"bike_id":"29d4b555-5e4f-4c33-9027-55d7db79916d","system_id":"levelo_inurba_marseille","lat":43.305989,"lon":5.37225,"is_reserved":false,"is_disabled":false,"rental_uris":{"android":"levelo://app?vid=29d4b555-5e4f-4c33-9027-55d7db79916d","ios":"levelo://app?vid=29d4b555-5e4f-4c33-9027-55d7db79916d"},"vehicle_type_id":"4","last_reported":1683752830,"current_range_meters":29200,"station_id":"ce4bgqh2rcd13ifvqc4g","pricing_plan_id":"free"},{"bike_id":"15588041-d92f-44cf-b9d3-d1412a863de9","system_id":"levelo_inurba_marseille","lat":43.311131,"lon":5.377651,"is_reserved":false,"is_disabled":false,"rental_uris":{"android":"levelo://app?vid=15588041-d92f-44cf-b9d3-d1412a863de9","ios":"levelo://app?vid=15588041-d92f-44cf-b9d3-d1412a863de9"},"vehicle_type_id":"4","last_reported":1683752830,"current_range_meters":30000,"station_id":"ce4bgt92rcd13ifvqcg0","pricing_plan_id":"free"},{"bike_id":"9c5e9154-f0c9-48b9-906f-b029f8f34e68","system_id":"levelo_inurba_marseille","lat":43.311131,"lon":5.377651,"is_reserved":false,"is_disabled":false,"rental_uris":{"android":"levelo://app?vid=9c5e9154-f0c9-48b9-906f-b029f8f34e68","ios":"levelo://app?vid=9c5e9154-f0c9-48b9-906f-b029f8f34e68"},"vehicle_type_id":"4","last_reported":1683752830,"current_range_meters":13200,"station_id":"ce4bgt92rcd13ifvqcg0","pricing_plan_id":"free"},{"bike_id":"b7f713ee-9a1f-4731-8d37-a5e9f69638de","system_id":"levelo_inurba_marseille","lat":43.3111,"lon":5.37766,"is_reserved":false,"is_disabled":false,"rental_uris":{"android":"levelo://app?vid=b7f713ee-9a1f-4731-8d37-a5e9f69638de","ios":"levelo://app?vid=b7f713ee-9a1f-4731-8d37-a5e9f69638de"},"vehicle_type_id":"4","last_reported":1683752830,"current_range_meters":16800,"station_id":"ce4bgt92rcd13ifvqcg0","pricing_plan_id":"free"},{"bike_id":"3c91eeee-dd84-4b21-95c7-74102a53c243","system_id":"levelo_inurba_marseille","lat":43.31113,"lon":5.37767,"is_reserved":false,"is_disabled":false,"rental_uris":{"android":"levelo://app?vid=3c91eeee-dd84-4b21-95c7-74102a53c243","ios":"levelo://app?vid=3c91eeee-dd84-4b21-95c7-74102a53c243"},"vehicle_type_id":"4","last_reported":1683752830,"current_range_meters":3200,"station_id":"ce4bgt92rcd13ifvqcg0","pricing_plan_id":"free"},{"bike_id":"d449c27e-cf2c-4295-a33c-3d95d21101f4","system_id":"levelo_inurba_marseille","lat":43.311131,"lon":5.377651,"is_reserved":false,"is_disabled":false,"rental_uris":{"android":"levelo://app?vid=d449c27e-cf2c-4295-a33c-3d95d21101f4","ios":"levelo://app?vid=d449c27e-cf2c-4295-a33c-3d95d21101f4"},"vehicle_type_id":"4","last_reported":1683752830,"current_range_meters":21600,"station_id":"ce4bgt92rcd13ifvqcg0","pricing_plan_id":"free"},{"bike_id":"83f9f3fc-89cb-4107-9ec1-33bfb440159e","system_id":"levelo_inurba_marseille","lat":43.31109,"lon":5.37771,"is_reserved":false,"is_disabled":false,"rental_uris":{"android":"levelo://app?vid=83f9f3fc-89cb-4107-9ec1-33bfb440159e","ios":"levelo://app?vid=83f9f3fc-89cb-4107-9ec1-33bfb440159e"},"vehicle_type_id":"4","last_reported":1683752830,"current_range_meters":24000,"station_id":"ce4bgt92rcd13ifvqcg0","pricing_plan_id":"free"},{"bike_id":"c06576a3-027f-4434-9c52-eb668f84badc","system_id":"levelo_inurba_marseille","lat":43.311131,"lon":5.377651,"is_reserved":false,"is_disabled":false,"rental_uris":{"android":"levelo://app?vid=c06576a3-027f-4434-9c52-eb668f84badc","ios":"levelo://app?vid=c06576a3-027f-4434-9c52-eb668f84badc"},"vehicle_type_id":"4","last_reported":1683752830,"current_range_meters":30000,"station_id":"ce4bgt92rcd13ifvqcg0","pricing_plan_id":"free"},{"bike_id":"65a87c09-1772-47ed-8473-91a28f6a4e46","system_id":"levelo_inurba_marseille","lat":43.317075,"lon":5.377367,"is_reserved":false,"is_disabled":false,"rental_uris":{"android":"levelo://app?vid=65a87c09-1772-47ed-8473-91a28f6a4e46","ios":"levelo://app?vid=65a87c09-1772-47ed-8473-91a28f6a4e46"},"vehicle_type_id":"4","last_reported":1683752830,"current_range_meters":18000,"station_id":"ce4bgth2rcd13ifvqch0","pricing_plan_id":"free"},{"bike_id":"da6d5510-e744-4f94-91c9-e986456f6524","system_id":"levelo_inurba_marseille","lat":43.30304,"lon":5.368987,"is_reserved":false,"is_disabled":false,"rental_uris":{"android":"levelo://app?vid=da6d5510-e744-4f94-91c9-e986456f6524","ios":"levelo://app?vid=da6d5510-e744-4f94-91c9-e986456f6524"},"vehicle_type_id":"4","last_reported":1683752830,"current_range_meters":10800,"station_id":"ce4bgqh2rcd13ifvqc5g","pricing_plan_id":"free"},{"bike_id":"c8f2de8c-fa07-413f-a792-8906def9707e","system_id":"levelo_inurba_marseille","lat":43.303046,"lon":5.368981,"is_reserved":false,"is_disabled":false,"rental_uris":{"android":"levelo://app?vid=c8f2de8c-fa07-413f-a792-8906def9707e","ios":"levelo://app?vid=c8f2de8c-fa07-413f-a792-8906def9707e"},"vehicle_type_id":"4","last_reported":1683752830,"current_range_meters":400,"station_id":"ce4bgqh2rcd13ifvqc5g","pricing_plan_id":"free"},{"bike_id":"46029ec8-9ee9-4985-9efa-9991d135fa61","system_id":"levelo_inurba_marseille","lat":43.30304,"lon":5.368987,"is_reserved":false,"is_disabled":false,"rental_uris":{"android":"levelo://app?vid=46029ec8-9ee9-4985-9efa-9991d135fa61","ios":"levelo://app?vid=46029ec8-9ee9-4985-9efa-9991d135fa61"},"vehicle_type_id":"4","last_reported":1683752830,"current_range_meters":5600,"station_id":"ce4bgqh2rcd13ifvqc5g","pricing_plan_id":"free"},{"bike_id":"476663c1-2b3b-4a67-9fb2-f8cff09a2a03","system_id":"levelo_inurba_marseille","lat":43.315289,"lon":5.380349,"is_reserved":false,"is_disabled":false,"rental_uris":{"android":"levelo://app?vid=476663c1-2b3b-4a67-9fb2-f8cff09a2a03","ios":"levelo://app?vid=476663c1-2b3b-4a67-9fb2-f8cff09a2a03"},"vehicle_type_id":"4","last_reported":1683752830,"current_range_meters":29200,"station_id":"ce4bhsp2rcd13ifvqi50","pricing_plan_id":"free"},{"bike_id":"e89e4dfa-6b19-47d0-aeae-ab969451d218","system_id":"levelo_inurba_marseille","lat":43.315289,"lon":5.380349,"is_reserved":false,"is_disabled":false,"rental_uris":{"android":"levelo://app?vid=e89e4dfa-6b19-47d0-aeae-ab969451d218","ios":"levelo://app?vid=e89e4dfa-6b19-47d0-aeae-ab969451d218"},"vehicle_type_id":"4","last_reported":1683752830,"current_range_meters":30000,"station_id":"ce4bhsp2rcd13ifvqi50","pricing_plan_id":"free"},{"bike_id":"6e5f92b6-91a6-4312-bd58-eecd95161db1","system_id":"levelo_inurba_marseille","lat":43.315293,"lon":5.380349,"is_reserved":false,"is_disabled":false,"rental_uris":{"android":"levelo://app?vid=6e5f92b6-91a6-4312-bd58-eecd95161db1","ios":"levelo://app?vid=6e5f92b6-91a6-4312-bd58-eecd95161db1"},"vehicle_type_id":"4","last_reported":1683752830,"current_range_meters":27200,"station_id":"ce4bhsp2rcd13ifvqi50","pricing_plan_id":"free"},{"bike_id":"7211188e-5768-4852-9a89-6ef0cb362254","system_id":"levelo_inurba_marseille","lat":43.315293,"lon":5.380349,"is_reserved":false,"is_disabled":false,"rental_uris":{"android":"levelo://app?vid=7211188e-5768-4852-9a89-6ef0cb362254","ios":"levelo://app?vid=7211188e-5768-4852-9a89-6ef0cb362254"},"vehicle_type_id":"4","last_reported":1683752830,"current_range_meters":24800,"station_id":"ce4bhsp2rcd13ifvqi50","pricing_plan_id":"free"},{"bike_id":"025d463a-6fd5-4ee8-a632-ab8ae8022565","system_id":"levelo_inurba_marseille","lat":43.30826,"lon":5.38132,"is_reserved":false,"is_disabled":false,"rental_uris":{"android":"levelo://app?vid=025d463a-6fd5-4ee8-a632-ab8ae8022565","ios":"levelo://app?vid=025d463a-6fd5-4ee8-a632-ab8ae8022565"},"vehicle_type_id":"4","last_reported":1683752830,"current_range_meters":30800,"station_id":"ce4bgt12rcd13ifvqce0","pricing_plan_id":"free"},{"bike_id":"27acd434-475a-451b-8e09-88f9ac47d595","system_id":"levelo_inurba_marseille","lat":43.308012,"lon":5.381511,"is_reserved":false,"is_disabled":false,"rental_uris":{"android":"levelo://app?vid=27acd434-475a-451b-8e09-88f9ac47d595","ios":"levelo://app?vid=27acd434-475a-451b-8e09-88f9ac47d595"},"vehicle_type_id":"4","last_reported":1683752830,"current_range_meters":13600,"station_id":"ce4bgt12rcd13ifvqce0","pricing_plan_id":"free"},{"bike_id":"64c67392-78fc-4907-9084-3dde53c9fae0","system_id":"levelo_inurba_marseille","lat":43.308012,"lon":5.381511,"is_reserved":false,"is_disabled":false,"rental_uris":{"android":"levelo://app?vid=64c67392-78fc-4907-9084-3dde53c9fae0","ios":"levelo://app?vid=64c67392-78fc-4907-9084-3dde53c9fae0"},"vehicle_type_id":"4","last_reported":1683752830,"current_range_meters":13200,"station_id":"ce4bgt12rcd13ifvqce0","pricing_plan_id":"free"},{"bike_id":"56076882-cf72-4511-a8c7-21dacf352931","system_id":"levelo_inurba_marseille","lat":43.30894,"lon":5.38229,"is_reserved":false,"is_disabled":false,"rental_uris":{"android":"levelo://app?vid=56076882-cf72-4511-a8c7-21dacf352931","ios":"levelo://app?vid=56076882-cf72-4511-a8c7-21dacf352931"},"vehicle_type_id":"4","last_reported":1683752830,"current_range_meters":1600,"station_id":"","pricing_plan_id":"free"},{"bike_id":"12a20900-0afc-4364-85cc-e3ae7fa5e701","system_id":"levelo_inurba_marseille","lat":43.30461,"lon":5.37894,"is_reserved":false,"is_disabled":false,"rental_uris":{"android":"levelo://app?vid=12a20900-0afc-4364-85cc-e3ae7fa5e701","ios":"levelo://app?vid=12a20900-0afc-4364-85cc-e3ae7fa5e701"},"vehicle_type_id":"4","last_reported":1683752830,"current_range_meters":18400,"station_id":"ce4bgup2rcd13ifvqcn0","pricing_plan_id":"free"},{"bike_id":"a224ccf3-7fa3-4f94-88f4-4d9ea3dbd635","system_id":"levelo_inurba_marseille","lat":43.304606,"lon":5.379026,"is_reserved":false,"is_disabled":false,"rental_uris":{"android":"levelo://app?vid=a224ccf3-7fa3-4f94-88f4-4d9ea3dbd635","ios":"levelo://app?vid=a224ccf3-7fa3-4f94-88f4-4d9ea3dbd635"},"vehicle_type_id":"4","last_reported":1683752830,"current_range_meters":0,"station_id":"ce4bgup2rcd13ifvqcn0","pricing_plan_id":"free"},{"bike_id":"9a557b6a-8007-4584-a4b3-232fc1247772","system_id":"levelo_inurba_marseille","lat":43.30143,"lon":5.37413,"is_reserved":false,"is_disabled":false,"rental_uris":{"android":"levelo://app?vid=9a557b6a-8007-4584-a4b3-232fc1247772","ios":"levelo://app?vid=9a557b6a-8007-4584-a4b3-232fc1247772"},"vehicle_type_id":"4","last_reported":1683752830,"current_range_meters":0,"station_id":"ce4bgs92rcd13ifvqcc0","pricing_plan_id":"free"},{"bike_id":"478d1533-2261-4552-96a7-84e78d1969fc","system_id":"levelo_inurba_marseille","lat":43.30143,"lon":5.37413,"is_reserved":false,"is_disabled":false,"rental_uris":{"android":"levelo://app?vid=478d1533-2261-4552-96a7-84e78d1969fc","ios":"levelo://app?vid=478d1533-2261-4552-96a7-84e78d1969fc"},"vehicle_type_id":"4","last_reported":1683752830,"current_range_meters":0,"station_id":"ce4bgs92rcd13ifvqcc0","pricing_plan_id":"free"},{"bike_id":"01b9f307-5eab-4ff3-a9df-751200eb7517","system_id":"levelo_inurba_marseille","lat":43.30143,"lon":5.37413,"is_reserved":false,"is_disabled":false,"rental_uris":{"android":"levelo://app?vid=01b9f307-5eab-4ff3-a9df-751200eb7517","ios":"levelo://app?vid=01b9f307-5eab-4ff3-a9df-751200eb7517"},"vehicle_type_id":"4","last_reported":1683752830,"current_range_meters":20800,"station_id":"ce4bgs92rcd13ifvqcc0","pricing_plan_id":"free"},{"bike_id":"3fd03b09-886f-4d8d-8d8c-26ebdcf68448","system_id":"levelo_inurba_marseille","lat":43.313571,"lon":5.384829,"is_reserved":false,"is_disabled":false,"rental_uris":{"android":"levelo://app?vid=3fd03b09-886f-4d8d-8d8c-26ebdcf68448","ios":"levelo://app?vid=3fd03b09-886f-4d8d-8d8c-26ebdcf68448"},"vehicle_type_id":"4","last_reported":1683752830,"current_range_meters":28000,"station_id":"ce4bgt92rcd13ifvqcf0","pricing_plan_id":"free"},{"bike_id":"0055ad1e-5126-42c8-aa6a-58a4e2be295a","system_id":"levelo_inurba_marseille","lat":43.313571,"lon":5.384829,"is_reserved":false,"is_disabled":false,"rental_uris":{"android":"levelo://app?vid=0055ad1e-5126-42c8-aa6a-58a4e2be295a","ios":"levelo://app?vid=0055ad1e-5126-42c8-aa6a-58a4e2be295a"},"vehicle_type_id":"4","last_reported":1683752830,"current_range_meters":30400,"station_id":"ce4bgt92rcd13ifvqcf0","pricing_plan_id":"free"},{"bike_id":"5e17253f-7ea8-4ee2-9e5d-fb0def9b64c8","system_id":"levelo_inurba_marseille","lat":43.313571,"lon":5.384829,"is_reserved":false,"is_disabled":false,"rental_uris":{"android":"levelo://app?vid=5e17253f-7ea8-4ee2-9e5d-fb0def9b64c8","ios":"levelo://app?vid=5e17253f-7ea8-4ee2-9e5d-fb0def9b64c8"},"vehicle_type_id":"4","last_reported":1683752830,"current_range_meters":29200,"station_id":"ce4bgt92rcd13ifvqcf0","pricing_plan_id":"free"},{"bike_id":"503871a1-c628-4e5b-9e13-a971c6477ec8","system_id":"levelo_inurba_marseille","lat":43.29978,"lon":5.37061,"is_reserved":false,"is_disabled":false,"rental_uris":{"android":"levelo://app?vid=503871a1-c628-4e5b-9e13-a971c6477ec8","ios":"levelo://app?vid=503871a1-c628-4e5b-9e13-a971c6477ec8"},"vehicle_type_id":"4","last_reported":1683752830,"current_range_meters":12400,"station_id":"","pricing_plan_id":"free"},{"bike_id":"11355a26-ce04-4637-b186-e63c722271b4","system_id":"levelo_inurba_marseille","lat":43.31355,"lon":5.38522,"is_reserved":false,"is_disabled":false,"rental_uris":{"android":"levelo://app?vid=11355a26-ce04-4637-b186-e63c722271b4","ios":"levelo://app?vid=11355a26-ce04-4637-b186-e63c722271b4"},"vehicle_type_id":"4","last_reported":1683752830,"current_range_meters":17600,"station_id":"ce4bgt92rcd13ifvqcf0","pricing_plan_id":"free"},{"bike_id":"270d4ba6-a40e-4597-bdd7-92fade34ec18","system_id":"levelo_inurba_marseille","lat":43.31982,"lon":5.38269,"is_reserved":false,"is_disabled":false,"rental_uris":{"android":"levelo://app?vid=270d4ba6-a40e-4597-bdd7-92fade34ec18","ios":"levelo://app?vid=270d4ba6-a40e-4597-bdd7-92fade34ec18"},"vehicle_type_id":"4","last_reported":1683752830,"current_range_meters":14400,"station_id":"","pricing_plan_id":"free"},{"bike_id":"3c063cec-ec42-41f1-9b82-f0c4320880db","system_id":"levelo_inurba_marseille","lat":43.305364,"lon":5.384119,"is_reserved":false,"is_disabled":false,"rental_uris":{"android":"levelo://app?vid=3c063cec-ec42-41f1-9b82-f0c4320880db","ios":"levelo://app?vid=3c063cec-ec42-41f1-9b82-f0c4320880db"},"vehicle_type_id":"4","last_reported":1683752830,"current_range_meters":0,"station_id":"ce4bgg92rcd13ifvqb30","pricing_plan_id":"free"},{"bike_id":"470c10ff-a92b-46d5-9bd4-39907d912183","system_id":"levelo_inurba_marseille","lat":43.298433,"lon":5.362774,"is_reserved":false,"is_disabled":false,"rental_uris":{"android":"levelo://app?vid=470c10ff-a92b-46d5-9bd4-39907d912183","ios":"levelo://app?vid=470c10ff-a92b-46d5-9bd4-39907d912183"},"vehicle_type_id":"4","last_reported":1683752830,"current_range_meters":26400,"station_id":"ce4bgpp2rcd13ifvqc3g","pricing_plan_id":"free"},{"bike_id":"4f56c696-aa50-41a3-bd10-364fb9c442dd","system_id":"levelo_inurba_marseille","lat":43.305364,"lon":5.384119,"is_reserved":false,"is_disabled":false,"rental_uris":{"android":"levelo://app?vid=4f56c696-aa50-41a3-bd10-364fb9c442dd","ios":"levelo://app?vid=4f56c696-aa50-41a3-bd10-364fb9c442dd"},"vehicle_type_id":"4","last_reported":1683752830,"current_range_meters":4800,"station_id":"ce4bgg92rcd13ifvqb30","pricing_plan_id":"free"},{"bike_id":"0ef01696-72b1-4271-b2d3-4e0ec052e9c3","system_id":"levelo_inurba_marseille","lat":43.305364,"lon":5.384119,"is_reserved":false,"is_disabled":false,"rental_uris":{"android":"levelo://app?vid=0ef01696-72b1-4271-b2d3-4e0ec052e9c3","ios":"levelo://app?vid=0ef01696-72b1-4271-b2d3-4e0ec052e9c3"},"vehicle_type_id":"4","last_reported":1683752830,"current_range_meters":7200,"station_id":"ce4bgg92rcd13ifvqb30","pricing_plan_id":"free"},{"bike_id":"48792e6d-c5ef-44da-a26e-7701101a8ef6","system_id":"levelo_inurba_marseille","lat":43.299243,"lon":5.374807,"is_reserved":false,"is_disabled":false,"rental_uris":{"android":"levelo://app?vid=48792e6d-c5ef-44da-a26e-7701101a8ef6","ios":"levelo://app?vid=48792e6d-c5ef-44da-a26e-7701101a8ef6"},"vehicle_type_id":"4","last_reported":1683752830,"current_range_meters":9200,"station_id":"ce4bgjh2rcd13ifvqbg0","pricing_plan_id":"free"},{"bike_id":"f407d5f3-181f-4803-bf56-34f509b09267","system_id":"levelo_inurba_marseille","lat":43.311722,"lon":5.387247,"is_reserved":false,"is_disabled":false,"rental_uris":{"android":"levelo://app?vid=f407d5f3-181f-4803-bf56-34f509b09267","ios":"levelo://app?vid=f407d5f3-181f-4803-bf56-34f509b09267"},"vehicle_type_id":"4","last_reported":1683752830,"current_range_meters":31200,"station_id":"ce4bgv12rcd13ifvqcp0","pricing_plan_id":"free"},{"bike_id":"e56effee-cd76-45bf-ad81-bc81ed86dcd8","system_id":"levelo_inurba_marseille","lat":43.31176,"lon":5.38715,"is_reserved":false,"is_disabled":false,"rental_uris":{"android":"levelo://app?vid=e56effee-cd76-45bf-ad81-bc81ed86dcd8","ios":"levelo://app?vid=e56effee-cd76-45bf-ad81-bc81ed86dcd8"},"vehicle_type_id":"4","last_reported":1683752830,"current_range_meters":31200,"station_id":"ce4bgv12rcd13ifvqcp0","pricing_plan_id":"free"},{"bike_id":"731e20f6-8fe3-4c08-a1a0-1e73e9312537","system_id":"levelo_inurba_marseille","lat":43.311722,"lon":5.387247,"is_reserved":false,"is_disabled":false,"rental_uris":{"android":"levelo://app?vid=731e20f6-8fe3-4c08-a1a0-1e73e9312537","ios":"levelo://app?vid=731e20f6-8fe3-4c08-a1a0-1e73e9312537"},"vehicle_type_id":"4","last_reported":1683752830,"current_range_meters":10800,"station_id":"ce4bgv12rcd13ifvqcp0","pricing_plan_id":"free"},{"bike_id":"2f96f4b7-d3f1-4b87-b98f-caf50ba6d13d","system_id":"levelo_inurba_marseille","lat":43.32767,"lon":5.36704,"is_reserved":false,"is_disabled":false,"rental_uris":{"android":"levelo://app?vid=2f96f4b7-d3f1-4b87-b98f-caf50ba6d13d","ios":"levelo://app?vid=2f96f4b7-d3f1-4b87-b98f-caf50ba6d13d"},"vehicle_type_id":"4","last_reported":1683752830,"current_range_meters":22800,"station_id":"","pricing_plan_id":"free"},{"bike_id":"caa6a512-b708-4577-9542-1c54b414cf0e","system_id":"levelo_inurba_marseille","lat":43.297794,"lon":5.370888,"is_reserved":false,"is_disabled":false,"rental_uris":{"android":"levelo://app?vid=caa6a512-b708-4577-9542-1c54b414cf0e","ios":"levelo://app?vid=caa6a512-b708-4577-9542-1c54b414cf0e"},"vehicle_type_id":"4","last_reported":1683752830,"current_range_meters":4800,"station_id":"ce4bgop2rcd13ifvqc1g","pricing_plan_id":"free"},{"bike_id":"be2258e2-d503-4d7d-b3de-79144082667e","system_id":"levelo_inurba_marseille","lat":43.297794,"lon":5.370888,"is_reserved":false,"is_disabled":false,"rental_uris":{"android":"levelo://app?vid=be2258e2-d503-4d7d-b3de-79144082667e","ios":"levelo://app?vid=be2258e2-d503-4d7d-b3de-79144082667e"},"vehicle_type_id":"4","last_reported":1683752830,"current_range_meters":7600,"station_id":"ce4bgop2rcd13ifvqc1g","pricing_plan_id":"free"},{"bike_id":"3d95bb24-7926-4d47-933e-5f871c0909e7","system_id":"levelo_inurba_marseille","lat":43.328371,"lon":5.366909,"is_reserved":false,"is_disabled":false,"rental_uris":{"android":"levelo://app?vid=3d95bb24-7926-4d47-933e-5f871c0909e7","ios":"levelo://app?vid=3d95bb24-7926-4d47-933e-5f871c0909e7"},"vehicle_type_id":"4","last_reported":1683752830,"current_range_meters":18800,"station_id":"ce4bhs92rcd13ifvqi0g","pricing_plan_id":"free"},{"bike_id":"47dd94f6-6655-4b87-96ce-12d2fc5b0f02","system_id":"levelo_inurba_marseille","lat":43.29749,"lon":5.37209,"is_reserved":false,"is_disabled":false,"rental_uris":{"android":"levelo://app?vid=47dd94f6-6655-4b87-96ce-12d2fc5b0f02","ios":"levelo://app?vid=47dd94f6-6655-4b87-96ce-12d2fc5b0f02"},"vehicle_type_id":"4","last_reported":1683752830,"current_range_meters":0,"station_id":"","pricing_plan_id":"free"},{"bike_id":"ce997a5d-550a-43bc-84aa-e42265745e01","system_id":"levelo_inurba_marseille","lat":43.296131,"lon":5.370791,"is_reserved":false,"is_disabled":false,"rental_uris":{"android":"levelo://app?vid=ce997a5d-550a-43bc-84aa-e42265745e01","ios":"levelo://app?vid=ce997a5d-550a-43bc-84aa-e42265745e01"},"vehicle_type_id":"4","last_reported":1683752830,"current_range_meters":25600,"station_id":"ce4bgnh2rcd13ifvqc0g","pricing_plan_id":"free"},{"bike_id":"0dd90b36-404c-4eca-b5db-dfd282ccca89","system_id":"levelo_inurba_marseille","lat":43.296129,"lon":5.370777,"is_reserved":false,"is_disabled":false,"rental_uris":{"android":"levelo://app?vid=0dd90b36-404c-4eca-b5db-dfd282ccca89","ios":"levelo://app?vid=0dd90b36-404c-4eca-b5db-dfd282ccca89"},"vehicle_type_id":"4","last_reported":1683752830,"current_range_meters":26400,"station_id":"ce4bgnh2rcd13ifvqc0g","pricing_plan_id":"free"},{"bike_id":"8e8ad2c8-a761-4636-8582-9575fd660dde","system_id":"levelo_inurba_marseille","lat":43.29573,"lon":5.367355,"is_reserved":false,"is_disabled":false,"rental_uris":{"android":"levelo://app?vid=8e8ad2c8-a761-4636-8582-9575fd660dde","ios":"levelo://app?vid=8e8ad2c8-a761-4636-8582-9575fd660dde"},"vehicle_type_id":"4","last_reported":1683752830,"current_range_meters":18800,"station_id":"ce4bgph2rcd13ifvqc2g","pricing_plan_id":"free"},{"bike_id":"467d64ae-88f0-432d-93e6-f969a5026691","system_id":"levelo_inurba_marseille","lat":43.29573,"lon":5.367355,"is_reserved":false,"is_disabled":false,"rental_uris":{"android":"levelo://app?vid=467d64ae-88f0-432d-93e6-f969a5026691","ios":"levelo://app?vid=467d64ae-88f0-432d-93e6-f969a5026691"},"vehicle_type_id":"4","last_reported":1683752830,"current_range_meters":27600,"station_id":"ce4bgph2rcd13ifvqc2g","pricing_plan_id":"free"},{"bike_id":"1be738d4-1810-43df-8dbe-037759c72ab9","system_id":"levelo_inurba_marseille","lat":43.29915,"lon":5.3813,"is_reserved":false,"is_disabled":false,"rental_uris":{"android":"levelo://app?vid=1be738d4-1810-43df-8dbe-037759c72ab9","ios":"levelo://app?vid=1be738d4-1810-43df-8dbe-037759c72ab9"},"vehicle_type_id":"4","last_reported":1683752830,"current_range_meters":6800,"station_id":"","pricing_plan_id":"free"},{"bike_id":"90454f83-1bfb-4aec-bc80-09acbe5aaf53","system_id":"levelo_inurba_marseille","lat":43.317557,"lon":5.390173,"is_reserved":false,"is_disabled":false,"rental_uris":{"android":"levelo://app?vid=90454f83-1bfb-4aec-bc80-09acbe5aaf53","ios":"levelo://app?vid=90454f83-1bfb-4aec-bc80-09acbe5aaf53"},"vehicle_type_id":"4","last_reported":1683752830,"current_range_meters":0,"station_id":"ce4bhqp2rcd13ifvqhng","pricing_plan_id":"free"},{"bike_id":"5fcd8267-1684-4723-80bf-67fa2efc5ec6","system_id":"levelo_inurba_marseille","lat":43.317557,"lon":5.390173,"is_reserved":false,"is_disabled":false,"rental_uris":{"android":"levelo://app?vid=5fcd8267-1684-4723-80bf-67fa2efc5ec6","ios":"levelo://app?vid=5fcd8267-1684-4723-80bf-67fa2efc5ec6"},"vehicle_type_id":"4","last_reported":1683752830,"current_range_meters":5600,"station_id":"ce4bhqp2rcd13ifvqhng","pricing_plan_id":"free"},{"bike_id":"12327c09-2378-46e0-bea8-7c0473234a77","system_id":"levelo_inurba_marseille","lat":43.317557,"lon":5.390173,"is_reserved":false,"is_disabled":false,"rental_uris":{"android":"levelo://app?vid=12327c09-2378-46e0-bea8-7c0473234a77","ios":"levelo://app?vid=12327c09-2378-46e0-bea8-7c0473234a77"},"vehicle_type_id":"4","last_reported":1683752830,"current_range_meters":8000,"station_id":"ce4bhqp2rcd13ifvqhng","pricing_plan_id":"free"},{"bike_id":"c56754b6-7683-46ee-9503-10507e69dfe5","system_id":"levelo_inurba_marseille","lat":43.31761,"lon":5.39024,"is_reserved":false,"is_disabled":false,"rental_uris":{"android":"levelo://app?vid=c56754b6-7683-46ee-9503-10507e69dfe5","ios":"levelo://app?vid=c56754b6-7683-46ee-9503-10507e69dfe5"},"vehicle_type_id":"4","last_reported":1683752830,"current_range_meters":25600,"station_id":"ce4bhqp2rcd13ifvqhng","pricing_plan_id":"free"},{"bike_id":"e899830d-b8a9-4445-8fb4-68667a2473e4","system_id":"levelo_inurba_marseille","lat":43.298037,"lon":5.381066,"is_reserved":false,"is_disabled":false,"rental_uris":{"android":"levelo://app?vid=e899830d-b8a9-4445-8fb4-68667a2473e4","ios":"levelo://app?vid=e899830d-b8a9-4445-8fb4-68667a2473e4"},"vehicle_type_id":"4","last_reported":1683752830,"current_range_meters":22000,"station_id":"ce4bgip2rcd13ifvqbb0","pricing_plan_id":"free"},{"bike_id":"05f57cdb-e736-4cd3-bb97-94358635f1f7","system_id":"levelo_inurba_marseille","lat":43.298037,"lon":5.381066,"is_reserved":false,"is_disabled":false,"rental_uris":{"android":"levelo://app?vid=05f57cdb-e736-4cd3-bb97-94358635f1f7","ios":"levelo://app?vid=05f57cdb-e736-4cd3-bb97-94358635f1f7"},"vehicle_type_id":"4","last_reported":1683752830,"current_range_meters":400,"station_id":"ce4bgip2rcd13ifvqbb0","pricing_plan_id":"free"},{"bike_id":"96a0e5d5-a18d-4a6a-a464-6a11a942e521","system_id":"levelo_inurba_marseille","lat":43.304274,"lon":5.388873,"is_reserved":false,"is_disabled":false,"rental_uris":{"android":"levelo://app?vid=96a0e5d5-a18d-4a6a-a464-6a11a942e521","ios":"levelo://app?vid=96a0e5d5-a18d-4a6a-a464-6a11a942e521"},"vehicle_type_id":"4","last_reported":1683752830,"current_range_meters":28400,"station_id":"ce4bgk12rcd13ifvqbi0","pricing_plan_id":"free"},{"bike_id":"c2060bb6-bb57-4e05-8dd0-891ed65522c8","system_id":"levelo_inurba_marseille","lat":43.304278,"lon":5.388868,"is_reserved":false,"is_disabled":false,"rental_uris":{"android":"levelo://app?vid=c2060bb6-bb57-4e05-8dd0-891ed65522c8","ios":"levelo://app?vid=c2060bb6-bb57-4e05-8dd0-891ed65522c8"},"vehicle_type_id":"4","last_reported":1683752830,"current_range_meters":8000,"station_id":"ce4bgk12rcd13ifvqbi0","pricing_plan_id":"free"},{"bike_id":"60a1d9a8-5483-4ab0-8810-19c226664855","system_id":"levelo_inurba_marseille","lat":43.30451,"lon":5.38892,"is_reserved":false,"is_disabled":false,"rental_uris":{"android":"levelo://app?vid=60a1d9a8-5483-4ab0-8810-19c226664855","ios":"levelo://app?vid=60a1d9a8-5483-4ab0-8810-19c226664855"},"vehicle_type_id":"4","last_reported":1683752830,"current_range_meters":0,"station_id":"ce4bgk12rcd13ifvqbi0","pricing_plan_id":"free"},{"bike_id":"c4deedd8-5484-4643-956c-0b0648a4cdc7","system_id":"levelo_inurba_marseille","lat":43.304278,"lon":5.388868,"is_reserved":false,"is_disabled":false,"rental_uris":{"android":"levelo://app?vid=c4deedd8-5484-4643-956c-0b0648a4cdc7","ios":"levelo://app?vid=c4deedd8-5484-4643-956c-0b0648a4cdc7"},"vehicle_type_id":"4","last_reported":1683752830,"current_range_meters":10000,"station_id":"ce4bgk12rcd13ifvqbi0","pricing_plan_id":"free"},{"bike_id":"72b89bd2-7ee2-400c-9831-60b3faa90645","system_id":"levelo_inurba_marseille","lat":43.295748,"lon":5.37522,"is_reserved":false,"is_disabled":false,"rental_uris":{"android":"levelo://app?vid=72b89bd2-7ee2-400c-9831-60b3faa90645","ios":"levelo://app?vid=72b89bd2-7ee2-400c-9831-60b3faa90645"},"vehicle_type_id":"4","last_reported":1683752830,"current_range_meters":18000,"station_id":"ce4bgh92rcd13ifvqb50","pricing_plan_id":"free"},{"bike_id":"8157defd-9bac-41d2-a389-f5443233e01f","system_id":"levelo_inurba_marseille","lat":43.304274,"lon":5.388873,"is_reserved":false,"is_disabled":false,"rental_uris":{"android":"levelo://app?vid=8157defd-9bac-41d2-a389-f5443233e01f","ios":"levelo://app?vid=8157defd-9bac-41d2-a389-f5443233e01f"},"vehicle_type_id":"4","last_reported":1683752830,"current_range_meters":0,"station_id":"ce4bgk12rcd13ifvqbi0","pricing_plan_id":"free"},{"bike_id":"991102d6-32fe-4d9e-abdd-62d77903224e","system_id":"levelo_inurba_marseille","lat":43.295356,"lon":5.375011,"is_reserved":false,"is_disabled":false,"rental_uris":{"android":"levelo://app?vid=991102d6-32fe-4d9e-abdd-62d77903224e","ios":"levelo://app?vid=991102d6-32fe-4d9e-abdd-62d77903224e"},"vehicle_type_id":"4","last_reported":1683752830,"current_range_meters":22400,"station_id":"ce4bgkp2rcd13ifvqbmg","pricing_plan_id":"free"},{"bike_id":"b6d2417c-ec6a-48c9-9891-f2410d31509e","system_id":"levelo_inurba_marseille","lat":43.299707,"lon":5.384859,"is_reserved":false,"is_disabled":false,"rental_uris":{"android":"levelo://app?vid=b6d2417c-ec6a-48c9-9891-f2410d31509e","ios":"levelo://app?vid=b6d2417c-ec6a-48c9-9891-f2410d31509e"},"vehicle_type_id":"4","last_reported":1683752830,"current_range_meters":21600,"station_id":"ce4bgj92rcd13ifvqbd0","pricing_plan_id":"free"},{"bike_id":"eb2b427a-2a00-42d8-bb06-d8c990ea4d05","system_id":"levelo_inurba_marseille","lat":43.297648,"lon":5.381551,"is_reserved":false,"is_disabled":false,"rental_uris":{"android":"levelo://app?vid=eb2b427a-2a00-42d8-bb06-d8c990ea4d05","ios":"levelo://app?vid=eb2b427a-2a00-42d8-bb06-d8c990ea4d05"},"vehicle_type_id":"4","last_reported":1683752830,"current_range_meters":21600,"station_id":"ce4bhbp2rcd13ifvqerg","pricing_plan_id":"free"},{"bike_id":"f5192ce4-dd7a-4a63-9ef9-e03046beb93e","system_id":"levelo_inurba_marseille","lat":43.299717,"lon":5.384845,"is_reserved":false,"is_disabled":false,"rental_uris":{"android":"levelo://app?vid=f5192ce4-dd7a-4a63-9ef9-e03046beb93e","ios":"levelo://app?vid=f5192ce4-dd7a-4a63-9ef9-e03046beb93e"},"vehicle_type_id":"4","last_reported":1683752830,"current_range_meters":10800,"station_id":"ce4bgj92rcd13ifvqbd0","pricing_plan_id":"free"},{"bike_id":"87038ed9-e8c0-43ee-92b1-b2162af72a81","system_id":"levelo_inurba_marseille","lat":43.299717,"lon":5.384845,"is_reserved":false,"is_disabled":false,"rental_uris":{"android":"levelo://app?vid=87038ed9-e8c0-43ee-92b1-b2162af72a81","ios":"levelo://app?vid=87038ed9-e8c0-43ee-92b1-b2162af72a81"},"vehicle_type_id":"4","last_reported":1683752830,"current_range_meters":27200,"station_id":"ce4bgj92rcd13ifvqbd0","pricing_plan_id":"free"},{"bike_id":"2a9e26b2-3d86-440c-8589-afadf921af19","system_id":"levelo_inurba_marseille","lat":43.29963,"lon":5.38486,"is_reserved":false,"is_disabled":false,"rental_uris":{"android":"levelo://app?vid=2a9e26b2-3d86-440c-8589-afadf921af19","ios":"levelo://app?vid=2a9e26b2-3d86-440c-8589-afadf921af19"},"vehicle_type_id":"4","last_reported":1683752830,"current_range_meters":4400,"station_id":"ce4bgj92rcd13ifvqbd0","pricing_plan_id":"free"},{"bike_id":"b71aba61-7a01-4cce-bedc-f3122aa51a95","system_id":"levelo_inurba_marseille","lat":43.29958,"lon":5.38504,"is_reserved":false,"is_disabled":false,"rental_uris":{"android":"levelo://app?vid=b71aba61-7a01-4cce-bedc-f3122aa51a95","ios":"levelo://app?vid=b71aba61-7a01-4cce-bedc-f3122aa51a95"},"vehicle_type_id":"4","last_reported":1683752830,"current_range_meters":3600,"station_id":"ce4bgj92rcd13ifvqbd0","pricing_plan_id":"free"},{"bike_id":"90955989-c2a4-494d-b165-69cc6486f6fe","system_id":"levelo_inurba_marseille","lat":43.295279,"lon":5.375048,"is_reserved":false,"is_disabled":false,"rental_uris":{"android":"levelo://app?vid=90955989-c2a4-494d-b165-69cc6486f6fe","ios":"levelo://app?vid=90955989-c2a4-494d-b165-69cc6486f6fe"},"vehicle_type_id":"4","last_reported":1683752830,"current_range_meters":23600,"station_id":"ce4bgkp2rcd13ifvqbmg","pricing_plan_id":"free"},{"bike_id":"4f8c6322-10cc-40de-a089-41ca5cf19956","system_id":"levelo_inurba_marseille","lat":43.292749,"lon":5.368402,"is_reserved":false,"is_disabled":false,"rental_uris":{"android":"levelo://app?vid=4f8c6322-10cc-40de-a089-41ca5cf19956","ios":"levelo://app?vid=4f8c6322-10cc-40de-a089-41ca5cf19956"},"vehicle_type_id":"4","last_reported":1683752830,"current_range_meters":29200,"station_id":"ce4bhbp2rcd13ifvqesg","pricing_plan_id":"free"},{"bike_id":"8113fc51-f8e5-47ff-8e89-3757bec50eac","system_id":"levelo_inurba_marseille","lat":43.292749,"lon":5.368402,"is_reserved":false,"is_disabled":false,"rental_uris":{"android":"levelo://app?vid=8113fc51-f8e5-47ff-8e89-3757bec50eac","ios":"levelo://app?vid=8113fc51-f8e5-47ff-8e89-3757bec50eac"},"vehicle_type_id":"4","last_reported":1683752830,"current_range_meters":21200,"station_id":"ce4bhbp2rcd13ifvqesg","pricing_plan_id":"free"},{"bike_id":"863476f8-ce62-4558-9ed0-5fc1fbe20103","system_id":"levelo_inurba_marseille","lat":43.293009,"lon":5.374584,"is_reserved":false,"is_disabled":false,"rental_uris":{"android":"levelo://app?vid=863476f8-ce62-4558-9ed0-5fc1fbe20103","ios":"levelo://app?vid=863476f8-ce62-4558-9ed0-5fc1fbe20103"},"vehicle_type_id":"4","last_reported":1683752830,"current_range_meters":1200,"station_id":"ce4bgi12rcd13ifvqb70","pricing_plan_id":"free"},{"bike_id":"369bd94e-833b-4641-9260-85c1a00dd7d7","system_id":"levelo_inurba_marseille","lat":43.29236,"lon":5.36062,"is_reserved":false,"is_disabled":false,"rental_uris":{"android":"levelo://app?vid=369bd94e-833b-4641-9260-85c1a00dd7d7","ios":"levelo://app?vid=369bd94e-833b-4641-9260-85c1a00dd7d7"},"vehicle_type_id":"4","last_reported":1683752830,"current_range_meters":24400,"station_id":"ce4bhbh2rcd13ifvqeqg","pricing_plan_id":"free"},{"bike_id":"9e47c198-e5af-4b4b-b4c8-9fd5786aba9e","system_id":"levelo_inurba_marseille","lat":43.2936,"lon":5.37835,"is_reserved":false,"is_disabled":false,"rental_uris":{"android":"levelo://app?vid=9e47c198-e5af-4b4b-b4c8-9fd5786aba9e","ios":"levelo://app?vid=9e47c198-e5af-4b4b-b4c8-9fd5786aba9e"},"vehicle_type_id":"4","last_reported":1683752830,"current_range_meters":20800,"station_id":"ce4bgjh2rcd13ifvqbf0","pricing_plan_id":"free"},{"bike_id":"8b146639-41df-4ec2-9c95-6ccf80cd687e","system_id":"levelo_inurba_marseille","lat":43.29229,"lon":5.36073,"is_reserved":false,"is_disabled":false,"rental_uris":{"android":"levelo://app?vid=8b146639-41df-4ec2-9c95-6ccf80cd687e","ios":"levelo://app?vid=8b146639-41df-4ec2-9c95-6ccf80cd687e"},"vehicle_type_id":"4","last_reported":1683752830,"current_range_meters":25600,"station_id":"ce4bhbh2rcd13ifvqeqg","pricing_plan_id":"free"},{"bike_id":"d6d4517a-2f4b-4df2-9622-bcbdbdb78896","system_id":"levelo_inurba_marseille","lat":43.29227,"lon":5.36072,"is_reserved":false,"is_disabled":false,"rental_uris":{"android":"levelo://app?vid=d6d4517a-2f4b-4df2-9622-bcbdbdb78896","ios":"levelo://app?vid=d6d4517a-2f4b-4df2-9622-bcbdbdb78896"},"vehicle_type_id":"4","last_reported":1683752830,"current_range_meters":26000,"station_id":"ce4bhbh2rcd13ifvqeqg","pricing_plan_id":"free"},{"bike_id":"b2621c98-fd98-4c33-9fd8-2a363ceef646","system_id":"levelo_inurba_marseille","lat":43.300852,"lon":5.390859,"is_reserved":false,"is_disabled":false,"rental_uris":{"android":"levelo://app?vid=b2621c98-fd98-4c33-9fd8-2a363ceef646","ios":"levelo://app?vid=b2621c98-fd98-4c33-9fd8-2a363ceef646"},"vehicle_type_id":"4","last_reported":1683752830,"current_range_meters":24800,"station_id":"ce4bh192rcd13ifvqdb0","pricing_plan_id":"free"},{"bike_id":"38ef8649-85bf-4e51-b00b-71422fd920d3","system_id":"levelo_inurba_marseille","lat":43.291671,"lon":5.371575,"is_reserved":false,"is_disabled":false,"rental_uris":{"android":"levelo://app?vid=38ef8649-85bf-4e51-b00b-71422fd920d3","ios":"levelo://app?vid=38ef8649-85bf-4e51-b00b-71422fd920d3"},"vehicle_type_id":"4","last_reported":1683752830,"current_range_meters":19600,"station_id":"ce4bha92rcd13ifvqeh0","pricing_plan_id":"free"},{"bike_id":"e4e49bf4-8c2c-4f22-8d4b-5135df4b7178","system_id":"levelo_inurba_marseille","lat":43.291671,"lon":5.371575,"is_reserved":false,"is_disabled":false,"rental_uris":{"android":"levelo://app?vid=e4e49bf4-8c2c-4f22-8d4b-5135df4b7178","ios":"levelo://app?vid=e4e49bf4-8c2c-4f22-8d4b-5135df4b7178"},"vehicle_type_id":"4","last_reported":1683752830,"current_range_meters":20400,"station_id":"ce4bha92rcd13ifvqeh0","pricing_plan_id":"free"},{"bike_id":"3847b1f6-1315-4916-8b87-28c59b9fae91","system_id":"levelo_inurba_marseille","lat":43.298764,"lon":5.388973,"is_reserved":false,"is_disabled":false,"rental_uris":{"android":"levelo://app?vid=3847b1f6-1315-4916-8b87-28c59b9fae91","ios":"levelo://app?vid=3847b1f6-1315-4916-8b87-28c59b9fae91"},"vehicle_type_id":"4","last_reported":1683752830,"current_range_meters":14800,"station_id":"ce4bh392rcd13ifvqdl0","pricing_plan_id":"free"},{"bike_id":"a11f6731-c604-4e18-a03a-ca85e15b548c","system_id":"levelo_inurba_marseille","lat":43.292663,"lon":5.376389,"is_reserved":false,"is_disabled":false,"rental_uris":{"android":"levelo://app?vid=a11f6731-c604-4e18-a03a-ca85e15b548c","ios":"levelo://app?vid=a11f6731-c604-4e18-a03a-ca85e15b548c"},"vehicle_type_id":"4","last_reported":1683752830,"current_range_meters":30400,"station_id":"ce4bgi12rcd13ifvqb80","pricing_plan_id":"free"},{"bike_id":"9c898adb-9535-4e2d-af80-2cb4288d72a4","system_id":"levelo_inurba_marseille","lat":43.298764,"lon":5.388973,"is_reserved":false,"is_disabled":false,"rental_uris":{"android":"levelo://app?vid=9c898adb-9535-4e2d-af80-2cb4288d72a4","ios":"levelo://app?vid=9c898adb-9535-4e2d-af80-2cb4288d72a4"},"vehicle_type_id":"4","last_reported":1683752830,"current_range_meters":10000,"station_id":"ce4bh392rcd13ifvqdl0","pricing_plan_id":"free"},{"bike_id":"6b10b6fb-6303-47a4-8cff-c5443b074949","system_id":"levelo_inurba_marseille","lat":43.298764,"lon":5.388973,"is_reserved":false,"is_disabled":false,"rental_uris":{"android":"levelo://app?vid=6b10b6fb-6303-47a4-8cff-c5443b074949","ios":"levelo://app?vid=6b10b6fb-6303-47a4-8cff-c5443b074949"},"vehicle_type_id":"4","last_reported":1683752830,"current_range_meters":3200,"station_id":"ce4bh392rcd13ifvqdl0","pricing_plan_id":"free"},{"bike_id":"43fe5090-ae5e-4af6-82c0-8876062a313b","system_id":"levelo_inurba_marseille","lat":43.291675,"lon":5.371583,"is_reserved":false,"is_disabled":false,"rental_uris":{"android":"levelo://app?vid=43fe5090-ae5e-4af6-82c0-8876062a313b","ios":"levelo://app?vid=43fe5090-ae5e-4af6-82c0-8876062a313b"},"vehicle_type_id":"4","last_reported":1683752830,"current_range_meters":4000,"station_id":"ce4bha92rcd13ifvqeh0","pricing_plan_id":"free"},{"bike_id":"e0ad5d0f-62d9-4884-b981-2e07502569dd","system_id":"levelo_inurba_marseille","lat":43.298764,"lon":5.388973,"is_reserved":false,"is_disabled":false,"rental_uris":{"android":"levelo://app?vid=e0ad5d0f-62d9-4884-b981-2e07502569dd","ios":"levelo://app?vid=e0ad5d0f-62d9-4884-b981-2e07502569dd"},"vehicle_type_id":"4","last_reported":1683752830,"current_range_meters":18800,"station_id":"ce4bh392rcd13ifvqdl0","pricing_plan_id":"free"},{"bike_id":"d8ddc38a-6357-416e-ac67-b3002d069db4","system_id":"levelo_inurba_marseille","lat":43.291675,"lon":5.371583,"is_reserved":false,"is_disabled":false,"rental_uris":{"android":"levelo://app?vid=d8ddc38a-6357-416e-ac67-b3002d069db4","ios":"levelo://app?vid=d8ddc38a-6357-416e-ac67-b3002d069db4"},"vehicle_type_id":"4","last_reported":1683752830,"current_range_meters":0,"station_id":"ce4bha92rcd13ifvqeh0","pricing_plan_id":"free"},{"bike_id":"dc05080e-a637-49e5-9440-ec39e073798b","system_id":"levelo_inurba_marseille","lat":43.31371,"lon":5.39655,"is_reserved":false,"is_disabled":false,"rental_uris":{"android":"levelo://app?vid=dc05080e-a637-49e5-9440-ec39e073798b","ios":"levelo://app?vid=dc05080e-a637-49e5-9440-ec39e073798b"},"vehicle_type_id":"4","last_reported":1683752830,"current_range_meters":13200,"station_id":"","pricing_plan_id":"free"},{"bike_id":"efbc43ad-2ee7-4b3c-94b6-89c0e3763184","system_id":"levelo_inurba_marseille","lat":43.309038,"lon":5.396546,"is_reserved":false,"is_disabled":false,"rental_uris":{"android":"levelo://app?vid=efbc43ad-2ee7-4b3c-94b6-89c0e3763184","ios":"levelo://app?vid=efbc43ad-2ee7-4b3c-94b6-89c0e3763184"},"vehicle_type_id":"4","last_reported":1683752830,"current_range_meters":27600,"station_id":"ce4bh012rcd13ifvqcv0","pricing_plan_id":"free"},{"bike_id":"005cac2e-7ec4-43bd-917e-6012872c079f","system_id":"levelo_inurba_marseille","lat":43.309038,"lon":5.396546,"is_reserved":false,"is_disabled":false,"rental_uris":{"android":"levelo://app?vid=005cac2e-7ec4-43bd-917e-6012872c079f","ios":"levelo://app?vid=005cac2e-7ec4-43bd-917e-6012872c079f"},"vehicle_type_id":"4","last_reported":1683752830,"current_range_meters":8800,"station_id":"ce4bh012rcd13ifvqcv0","pricing_plan_id":"free"},{"bike_id":"3244757d-2c12-4a6a-9152-ecf59cd934ff","system_id":"levelo_inurba_marseille","lat":43.309038,"lon":5.396546,"is_reserved":false,"is_disabled":false,"rental_uris":{"android":"levelo://app?vid=3244757d-2c12-4a6a-9152-ecf59cd934ff","ios":"levelo://app?vid=3244757d-2c12-4a6a-9152-ecf59cd934ff"},"vehicle_type_id":"4","last_reported":1683752830,"current_range_meters":6400,"station_id":"ce4bh012rcd13ifvqcv0","pricing_plan_id":"free"},{"bike_id":"790e0e84-63ca-477b-9ed2-6fcc8698f518","system_id":"levelo_inurba_marseille","lat":43.31322,"lon":5.39685,"is_reserved":false,"is_disabled":false,"rental_uris":{"android":"levelo://app?vid=790e0e84-63ca-477b-9ed2-6fcc8698f518","ios":"levelo://app?vid=790e0e84-63ca-477b-9ed2-6fcc8698f518"},"vehicle_type_id":"4","last_reported":1683752830,"current_range_meters":28000,"station_id":"ce4bgvp2rcd13ifvqcu0","pricing_plan_id":"free"},{"bike_id":"04ca2772-cf48-4227-b43f-b58cae49d6e9","system_id":"levelo_inurba_marseille","lat":43.313244,"lon":5.396865,"is_reserved":false,"is_disabled":false,"rental_uris":{"android":"levelo://app?vid=04ca2772-cf48-4227-b43f-b58cae49d6e9","ios":"levelo://app?vid=04ca2772-cf48-4227-b43f-b58cae49d6e9"},"vehicle_type_id":"4","last_reported":1683752830,"current_range_meters":1600,"station_id":"ce4bgvp2rcd13ifvqcu0","pricing_plan_id":"free"},{"bike_id":"038e9726-89c8-447e-ba1d-d7366b79d9b9","system_id":"levelo_inurba_marseille","lat":43.31327,"lon":5.39687,"is_reserved":false,"is_disabled":false,"rental_uris":{"android":"levelo://app?vid=038e9726-89c8-447e-ba1d-d7366b79d9b9","ios":"levelo://app?vid=038e9726-89c8-447e-ba1d-d7366b79d9b9"},"vehicle_type_id":"4","last_reported":1683752830,"current_range_meters":10400,"station_id":"ce4bgvp2rcd13ifvqcu0","pricing_plan_id":"free"},{"bike_id":"d7c1862c-186b-4daa-9fac-fcd7b804f731","system_id":"levelo_inurba_marseille","lat":43.31317,"lon":5.39689,"is_reserved":false,"is_disabled":false,"rental_uris":{"android":"levelo://app?vid=d7c1862c-186b-4daa-9fac-fcd7b804f731","ios":"levelo://app?vid=d7c1862c-186b-4daa-9fac-fcd7b804f731"},"vehicle_type_id":"4","last_reported":1683752830,"current_range_meters":10000,"station_id":"ce4bgvp2rcd13ifvqcu0","pricing_plan_id":"free"},{"bike_id":"0720801f-de3e-461e-9511-a6e3a7a6a7f4","system_id":"levelo_inurba_marseille","lat":43.31327,"lon":5.3969,"is_reserved":false,"is_disabled":false,"rental_uris":{"android":"levelo://app?vid=0720801f-de3e-461e-9511-a6e3a7a6a7f4","ios":"levelo://app?vid=0720801f-de3e-461e-9511-a6e3a7a6a7f4"},"vehicle_type_id":"4","last_reported":1683752830,"current_range_meters":0,"station_id":"ce4bgvp2rcd13ifvqcu0","pricing_plan_id":"free"},{"bike_id":"dbf4a088-442a-4ee1-931d-570978cfc6ae","system_id":"levelo_inurba_marseille","lat":43.31319,"lon":5.39691,"is_reserved":false,"is_disabled":false,"rental_uris":{"android":"levelo://app?vid=dbf4a088-442a-4ee1-931d-570978cfc6ae","ios":"levelo://app?vid=dbf4a088-442a-4ee1-931d-570978cfc6ae"},"vehicle_type_id":"4","last_reported":1683752830,"current_range_meters":2800,"station_id":"ce4bgvp2rcd13ifvqcu0","pricing_plan_id":"free"},{"bike_id":"71526c29-7b06-461e-ab77-97494fa14b25","system_id":"levelo_inurba_marseille","lat":43.31322,"lon":5.39693,"is_reserved":false,"is_disabled":false,"rental_uris":{"android":"levelo://app?vid=71526c29-7b06-461e-ab77-97494fa14b25","ios":"levelo://app?vid=71526c29-7b06-461e-ab77-97494fa14b25"},"vehicle_type_id":"4","last_reported":1683752830,"current_range_meters":19600,"station_id":"ce4bgvp2rcd13ifvqcu0","pricing_plan_id":"free"},{"bike_id":"d78cdf64-fe69-4a53-9ae6-2898aac95d4f","system_id":"levelo_inurba_marseille","lat":43.3132,"lon":5.39694,"is_reserved":false,"is_disabled":false,"rental_uris":{"android":"levelo://app?vid=d78cdf64-fe69-4a53-9ae6-2898aac95d4f","ios":"levelo://app?vid=d78cdf64-fe69-4a53-9ae6-2898aac95d4f"},"vehicle_type_id":"4","last_reported":1683752830,"current_range_meters":6000,"station_id":"ce4bgvp2rcd13ifvqcu0","pricing_plan_id":"free"},{"bike_id":"559f4aa5-91b6-49fd-946b-3427fc78b5fd","system_id":"levelo_inurba_marseille","lat":43.309038,"lon":5.396546,"is_reserved":false,"is_disabled":false,"rental_uris":{"android":"levelo://app?vid=559f4aa5-91b6-49fd-946b-3427fc78b5fd","ios":"levelo://app?vid=559f4aa5-91b6-49fd-946b-3427fc78b5fd"},"vehicle_type_id":"4","last_reported":1683752830,"current_range_meters":0,"station_id":"ce4bh012rcd13ifvqcv0","pricing_plan_id":"free"},{"bike_id":"dfd29a9b-7bb4-40ac-8c15-d6af7aaad8d0","system_id":"levelo_inurba_marseille","lat":43.309038,"lon":5.396546,"is_reserved":false,"is_disabled":false,"rental_uris":{"android":"levelo://app?vid=dfd29a9b-7bb4-40ac-8c15-d6af7aaad8d0","ios":"levelo://app?vid=dfd29a9b-7bb4-40ac-8c15-d6af7aaad8d0"},"vehicle_type_id":"4","last_reported":1683752830,"current_range_meters":400,"station_id":"ce4bh012rcd13ifvqcv0","pricing_plan_id":"free"},{"bike_id":"0d8929c1-e815-414f-b809-f597251622bc","system_id":"levelo_inurba_marseille","lat":43.31329,"lon":5.39696,"is_reserved":false,"is_disabled":false,"rental_uris":{"android":"levelo://app?vid=0d8929c1-e815-414f-b809-f597251622bc","ios":"levelo://app?vid=0d8929c1-e815-414f-b809-f597251622bc"},"vehicle_type_id":"4","last_reported":1683752830,"current_range_meters":21600,"station_id":"ce4bgvp2rcd13ifvqcu0","pricing_plan_id":"free"},{"bike_id":"99f70806-aa41-4ce3-ae3a-7b4d25fc014d","system_id":"levelo_inurba_marseille","lat":43.3133,"lon":5.39696,"is_reserved":false,"is_disabled":false,"rental_uris":{"android":"levelo://app?vid=99f70806-aa41-4ce3-ae3a-7b4d25fc014d","ios":"levelo://app?vid=99f70806-aa41-4ce3-ae3a-7b4d25fc014d"},"vehicle_type_id":"4","last_reported":1683752830,"current_range_meters":10400,"station_id":"ce4bgvp2rcd13ifvqcu0","pricing_plan_id":"free"},{"bike_id":"bac674cc-589a-4653-942d-dca2e751dac6","system_id":"levelo_inurba_marseille","lat":43.31323,"lon":5.39697,"is_reserved":false,"is_disabled":false,"rental_uris":{"android":"levelo://app?vid=bac674cc-589a-4653-942d-dca2e751dac6","ios":"levelo://app?vid=bac674cc-589a-4653-942d-dca2e751dac6"},"vehicle_type_id":"4","last_reported":1683752830,"current_range_meters":16400,"station_id":"ce4bgvp2rcd13ifvqcu0","pricing_plan_id":"free"},{"bike_id":"0938a0ed-e4b8-4436-b238-33f1f1136bd9","system_id":"levelo_inurba_marseille","lat":43.313291,"lon":5.396838,"is_reserved":false,"is_disabled":false,"rental_uris":{"android":"levelo://app?vid=0938a0ed-e4b8-4436-b238-33f1f1136bd9","ios":"levelo://app?vid=0938a0ed-e4b8-4436-b238-33f1f1136bd9"},"vehicle_type_id":"4","last_reported":1683752830,"current_range_meters":2000,"station_id":"ce4bgvp2rcd13ifvqcu0","pricing_plan_id":"free"},{"bike_id":"4d3f145c-3670-42cb-9b21-6c5a184360ca","system_id":"levelo_inurba_marseille","lat":43.313291,"lon":5.396838,"is_reserved":false,"is_disabled":false,"rental_uris":{"android":"levelo://app?vid=4d3f145c-3670-42cb-9b21-6c5a184360ca","ios":"levelo://app?vid=4d3f145c-3670-42cb-9b21-6c5a184360ca"},"vehicle_type_id":"4","last_reported":1683752830,"current_range_meters":22800,"station_id":"ce4bgvp2rcd13ifvqcu0","pricing_plan_id":"free"},{"bike_id":"d5066ea6-2447-4fcf-929d-fa8c800e01e3","system_id":"levelo_inurba_marseille","lat":43.309038,"lon":5.396546,"is_reserved":false,"is_disabled":false,"rental_uris":{"android":"levelo://app?vid=d5066ea6-2447-4fcf-929d-fa8c800e01e3","ios":"levelo://app?vid=d5066ea6-2447-4fcf-929d-fa8c800e01e3"},"vehicle_type_id":"4","last_reported":1683752830,"current_range_meters":400,"station_id":"ce4bh012rcd13ifvqcv0","pricing_plan_id":"free"},{"bike_id":"8e7cbb69-5605-432b-9a73-ad5cc21d944d","system_id":"levelo_inurba_marseille","lat":43.309038,"lon":5.396546,"is_reserved":false,"is_disabled":false,"rental_uris":{"android":"levelo://app?vid=8e7cbb69-5605-432b-9a73-ad5cc21d944d","ios":"levelo://app?vid=8e7cbb69-5605-432b-9a73-ad5cc21d944d"},"vehicle_type_id":"4","last_reported":1683752830,"current_range_meters":5200,"station_id":"ce4bh012rcd13ifvqcv0","pricing_plan_id":"free"},{"bike_id":"ca42b180-530a-439c-a619-5acdf007b2b0","system_id":"levelo_inurba_marseille","lat":43.313291,"lon":5.396838,"is_reserved":false,"is_disabled":false,"rental_uris":{"android":"levelo://app?vid=ca42b180-530a-439c-a619-5acdf007b2b0","ios":"levelo://app?vid=ca42b180-530a-439c-a619-5acdf007b2b0"},"vehicle_type_id":"4","last_reported":1683752830,"current_range_meters":18000,"station_id":"ce4bgvp2rcd13ifvqcu0","pricing_plan_id":"free"},{"bike_id":"eb48f43c-eb00-4a5e-a67b-a4e9c087471d","system_id":"levelo_inurba_marseille","lat":43.313291,"lon":5.396838,"is_reserved":false,"is_disabled":false,"rental_uris":{"android":"levelo://app?vid=eb48f43c-eb00-4a5e-a67b-a4e9c087471d","ios":"levelo://app?vid=eb48f43c-eb00-4a5e-a67b-a4e9c087471d"},"vehicle_type_id":"4","last_reported":1683752830,"current_range_meters":29200,"station_id":"ce4bgvp2rcd13ifvqcu0","pricing_plan_id":"free"},{"bike_id":"c262f6b3-6830-4bb7-bfe8-6f4754d3b868","system_id":"levelo_inurba_marseille","lat":43.309038,"lon":5.396546,"is_reserved":false,"is_disabled":false,"rental_uris":{"android":"levelo://app?vid=c262f6b3-6830-4bb7-bfe8-6f4754d3b868","ios":"levelo://app?vid=c262f6b3-6830-4bb7-bfe8-6f4754d3b868"},"vehicle_type_id":"4","last_reported":1683752830,"current_range_meters":24400,"station_id":"ce4bh012rcd13ifvqcv0","pricing_plan_id":"free"},{"bike_id":"4aa1eebd-ce98-4239-a8c8-3a99cc35ad98","system_id":"levelo_inurba_marseille","lat":43.302008,"lon":5.394694,"is_reserved":false,"is_disabled":false,"rental_uris":{"android":"levelo://app?vid=4aa1eebd-ce98-4239-a8c8-3a99cc35ad98","ios":"levelo://app?vid=4aa1eebd-ce98-4239-a8c8-3a99cc35ad98"},"vehicle_type_id":"4","last_reported":1683752830,"current_range_meters":17200,"station_id":"ce4bh0p2rcd13ifvqd70","pricing_plan_id":"free"},{"bike_id":"22111503-b559-4ca6-872d-f356959f4a29","system_id":"levelo_inurba_marseille","lat":43.290493,"lon":5.359166,"is_reserved":false,"is_disabled":false,"rental_uris":{"android":"levelo://app?vid=22111503-b559-4ca6-872d-f356959f4a29","ios":"levelo://app?vid=22111503-b559-4ca6-872d-f356959f4a29"},"vehicle_type_id":"4","last_reported":1683752830,"current_range_meters":0,"station_id":"","pricing_plan_id":"free"},{"bike_id":"c0d101d0-3eaf-4673-9881-1c82243c2fef","system_id":"levelo_inurba_marseille","lat":43.290631,"lon":5.359244,"is_reserved":false,"is_disabled":false,"rental_uris":{"android":"levelo://app?vid=c0d101d0-3eaf-4673-9881-1c82243c2fef","ios":"levelo://app?vid=c0d101d0-3eaf-4673-9881-1c82243c2fef"},"vehicle_type_id":"4","last_reported":1683752830,"current_range_meters":13200,"station_id":"ce4bha92rcd13ifvqeg0","pricing_plan_id":"free"},{"bike_id":"d6ca673c-7e96-439e-bb89-8b03963c0ffb","system_id":"levelo_inurba_marseille","lat":43.29034,"lon":5.35916,"is_reserved":false,"is_disabled":false,"rental_uris":{"android":"levelo://app?vid=d6ca673c-7e96-439e-bb89-8b03963c0ffb","ios":"levelo://app?vid=d6ca673c-7e96-439e-bb89-8b03963c0ffb"},"vehicle_type_id":"4","last_reported":1683752830,"current_range_meters":17600,"station_id":"","pricing_plan_id":"free"},{"bike_id":"093b1feb-bb90-41b1-9292-91aeeb454afd","system_id":"levelo_inurba_marseille","lat":43.290631,"lon":5.359244,"is_reserved":false,"is_disabled":false,"rental_uris":{"android":"levelo://app?vid=093b1feb-bb90-41b1-9292-91aeeb454afd","ios":"levelo://app?vid=093b1feb-bb90-41b1-9292-91aeeb454afd"},"vehicle_type_id":"4","last_reported":1683752830,"current_range_meters":2800,"station_id":"ce4bha92rcd13ifvqeg0","pricing_plan_id":"free"},{"bike_id":"aed2e15d-c322-4e3f-8eb5-4afc1a06a111","system_id":"levelo_inurba_marseille","lat":43.29031,"lon":5.35916,"is_reserved":false,"is_disabled":false,"rental_uris":{"android":"levelo://app?vid=aed2e15d-c322-4e3f-8eb5-4afc1a06a111","ios":"levelo://app?vid=aed2e15d-c322-4e3f-8eb5-4afc1a06a111"},"vehicle_type_id":"4","last_reported":1683752830,"current_range_meters":25200,"station_id":"","pricing_plan_id":"free"},{"bike_id":"96e234da-cab6-43e8-b743-2fa7985a4a0a","system_id":"levelo_inurba_marseille","lat":43.2903,"lon":5.35914,"is_reserved":false,"is_disabled":false,"rental_uris":{"android":"levelo://app?vid=96e234da-cab6-43e8-b743-2fa7985a4a0a","ios":"levelo://app?vid=96e234da-cab6-43e8-b743-2fa7985a4a0a"},"vehicle_type_id":"4","last_reported":1683752830,"current_range_meters":0,"station_id":"","pricing_plan_id":"free"},{"bike_id":"1cb0a1ba-2256-40c9-9356-e331f7f07d04","system_id":"levelo_inurba_marseille","lat":43.290319,"lon":5.375732,"is_reserved":false,"is_disabled":false,"rental_uris":{"android":"levelo://app?vid=1cb0a1ba-2256-40c9-9356-e331f7f07d04","ios":"levelo://app?vid=1cb0a1ba-2256-40c9-9356-e331f7f07d04"},"vehicle_type_id":"4","last_reported":1683752830,"current_range_meters":1600,"station_id":"ce4bh692rcd13ifvqe90","pricing_plan_id":"free"},{"bike_id":"45f5ce74-d961-43c8-ba2c-99741d6d204a","system_id":"levelo_inurba_marseille","lat":43.289184,"lon":5.366408,"is_reserved":false,"is_disabled":false,"rental_uris":{"android":"levelo://app?vid=45f5ce74-d961-43c8-ba2c-99741d6d204a","ios":"levelo://app?vid=45f5ce74-d961-43c8-ba2c-99741d6d204a"},"vehicle_type_id":"4","last_reported":1683752830,"current_range_meters":30400,"station_id":"ce4bhap2rcd13ifvqek0","pricing_plan_id":"free"},{"bike_id":"f0c35888-ba8b-46d7-90f3-5add6511d1ab","system_id":"levelo_inurba_marseille","lat":43.289184,"lon":5.366408,"is_reserved":false,"is_disabled":false,"rental_uris":{"android":"levelo://app?vid=f0c35888-ba8b-46d7-90f3-5add6511d1ab","ios":"levelo://app?vid=f0c35888-ba8b-46d7-90f3-5add6511d1ab"},"vehicle_type_id":"4","last_reported":1683752830,"current_range_meters":16000,"station_id":"ce4bhap2rcd13ifvqek0","pricing_plan_id":"free"},{"bike_id":"d288d154-0aab-4e85-b1c9-0774bf4147de","system_id":"levelo_inurba_marseille","lat":43.29025,"lon":5.37554,"is_reserved":false,"is_disabled":false,"rental_uris":{"android":"levelo://app?vid=d288d154-0aab-4e85-b1c9-0774bf4147de","ios":"levelo://app?vid=d288d154-0aab-4e85-b1c9-0774bf4147de"},"vehicle_type_id":"4","last_reported":1683752830,"current_range_meters":9200,"station_id":"ce4bh692rcd13ifvqe90","pricing_plan_id":"free"},{"bike_id":"158653af-914b-411f-a355-cedce9d85e12","system_id":"levelo_inurba_marseille","lat":43.289468,"lon":5.363719,"is_reserved":false,"is_disabled":false,"rental_uris":{"android":"levelo://app?vid=158653af-914b-411f-a355-cedce9d85e12","ios":"levelo://app?vid=158653af-914b-411f-a355-cedce9d85e12"},"vehicle_type_id":"4","last_reported":1683752830,"current_range_meters":30800,"station_id":"ce4bhc92rcd13ifvqetg","pricing_plan_id":"free"},{"bike_id":"9f2b7f36-0f8e-48c1-a67f-a37d01afc322","system_id":"levelo_inurba_marseille","lat":43.289184,"lon":5.366408,"is_reserved":false,"is_disabled":false,"rental_uris":{"android":"levelo://app?vid=9f2b7f36-0f8e-48c1-a67f-a37d01afc322","ios":"levelo://app?vid=9f2b7f36-0f8e-48c1-a67f-a37d01afc322"},"vehicle_type_id":"4","last_reported":1683752830,"current_range_meters":23600,"station_id":"ce4bhap2rcd13ifvqek0","pricing_plan_id":"free"},{"bike_id":"8a986751-fb3e-474d-ba84-13b546b93834","system_id":"levelo_inurba_marseille","lat":43.289184,"lon":5.366408,"is_reserved":false,"is_disabled":false,"rental_uris":{"android":"levelo://app?vid=8a986751-fb3e-474d-ba84-13b546b93834","ios":"levelo://app?vid=8a986751-fb3e-474d-ba84-13b546b93834"},"vehicle_type_id":"4","last_reported":1683752830,"current_range_meters":21200,"station_id":"ce4bhap2rcd13ifvqek0","pricing_plan_id":"free"},{"bike_id":"b3d0e591-acda-4e74-93b8-b997b6c50477","system_id":"levelo_inurba_marseille","lat":43.289184,"lon":5.366408,"is_reserved":false,"is_disabled":false,"rental_uris":{"android":"levelo://app?vid=b3d0e591-acda-4e74-93b8-b997b6c50477","ios":"levelo://app?vid=b3d0e591-acda-4e74-93b8-b997b6c50477"},"vehicle_type_id":"4","last_reported":1683752830,"current_range_meters":12400,"station_id":"ce4bhap2rcd13ifvqek0","pricing_plan_id":"free"},{"bike_id":"d3e2cef8-a17e-4f0d-806d-6f2299ad9ba9","system_id":"levelo_inurba_marseille","lat":43.289468,"lon":5.363719,"is_reserved":false,"is_disabled":false,"rental_uris":{"android":"levelo://app?vid=d3e2cef8-a17e-4f0d-806d-6f2299ad9ba9","ios":"levelo://app?vid=d3e2cef8-a17e-4f0d-806d-6f2299ad9ba9"},"vehicle_type_id":"4","last_reported":1683752830,"current_range_meters":6800,"station_id":"ce4bhc92rcd13ifvqetg","pricing_plan_id":"free"},{"bike_id":"1ea65c2d-c527-41ec-a269-ff92ee051a4d","system_id":"levelo_inurba_marseille","lat":43.289184,"lon":5.366408,"is_reserved":false,"is_disabled":false,"rental_uris":{"android":"levelo://app?vid=1ea65c2d-c527-41ec-a269-ff92ee051a4d","ios":"levelo://app?vid=1ea65c2d-c527-41ec-a269-ff92ee051a4d"},"vehicle_type_id":"4","last_reported":1683752830,"current_range_meters":29200,"station_id":"ce4bhap2rcd13ifvqek0","pricing_plan_id":"free"},{"bike_id":"18015f61-0323-4f9d-b896-4c2f5f46f5a1","system_id":"levelo_inurba_marseille","lat":43.289184,"lon":5.366408,"is_reserved":false,"is_disabled":false,"rental_uris":{"android":"levelo://app?vid=18015f61-0323-4f9d-b896-4c2f5f46f5a1","ios":"levelo://app?vid=18015f61-0323-4f9d-b896-4c2f5f46f5a1"},"vehicle_type_id":"4","last_reported":1683752830,"current_range_meters":17600,"station_id":"ce4bhap2rcd13ifvqek0","pricing_plan_id":"free"},{"bike_id":"102ccca9-2be0-41f5-b3ed-ae7b7e4484f1","system_id":"levelo_inurba_marseille","lat":43.289468,"lon":5.363719,"is_reserved":false,"is_disabled":false,"rental_uris":{"android":"levelo://app?vid=102ccca9-2be0-41f5-b3ed-ae7b7e4484f1","ios":"levelo://app?vid=102ccca9-2be0-41f5-b3ed-ae7b7e4484f1"},"vehicle_type_id":"4","last_reported":1683752830,"current_range_meters":5600,"station_id":"ce4bhc92rcd13ifvqetg","pricing_plan_id":"free"},{"bike_id":"ee58dd20-71d8-4dce-9499-19459872b512","system_id":"levelo_inurba_marseille","lat":43.28935,"lon":5.36634,"is_reserved":false,"is_disabled":false,"rental_uris":{"android":"levelo://app?vid=ee58dd20-71d8-4dce-9499-19459872b512","ios":"levelo://app?vid=ee58dd20-71d8-4dce-9499-19459872b512"},"vehicle_type_id":"4","last_reported":1683752830,"current_range_meters":15200,"station_id":"ce4bhap2rcd13ifvqek0","pricing_plan_id":"free"},{"bike_id":"e3f8d5c1-bfcd-4aa3-9cec-7f132ffbdec1","system_id":"levelo_inurba_marseille","lat":43.289184,"lon":5.366408,"is_reserved":false,"is_disabled":false,"rental_uris":{"android":"levelo://app?vid=e3f8d5c1-bfcd-4aa3-9cec-7f132ffbdec1","ios":"levelo://app?vid=e3f8d5c1-bfcd-4aa3-9cec-7f132ffbdec1"},"vehicle_type_id":"4","last_reported":1683752830,"current_range_meters":23600,"station_id":"ce4bhap2rcd13ifvqek0","pricing_plan_id":"free"},{"bike_id":"71e589a5-6d11-4775-be63-5913e0636db4","system_id":"levelo_inurba_marseille","lat":43.289468,"lon":5.363719,"is_reserved":false,"is_disabled":false,"rental_uris":{"android":"levelo://app?vid=71e589a5-6d11-4775-be63-5913e0636db4","ios":"levelo://app?vid=71e589a5-6d11-4775-be63-5913e0636db4"},"vehicle_type_id":"4","last_reported":1683752830,"current_range_meters":12400,"station_id":"ce4bhc92rcd13ifvqetg","pricing_plan_id":"free"},{"bike_id":"8bfd8aca-f20f-4ece-bfc7-ab4bb4388446","system_id":"levelo_inurba_marseille","lat":43.289184,"lon":5.366408,"is_reserved":false,"is_disabled":false,"rental_uris":{"android":"levelo://app?vid=8bfd8aca-f20f-4ece-bfc7-ab4bb4388446","ios":"levelo://app?vid=8bfd8aca-f20f-4ece-bfc7-ab4bb4388446"},"vehicle_type_id":"4","last_reported":1683752830,"current_range_meters":31200,"station_id":"ce4bhap2rcd13ifvqek0","pricing_plan_id":"free"},{"bike_id":"3ba3e657-1486-42ce-8cfe-d2f03e3cbc91","system_id":"levelo_inurba_marseille","lat":43.289468,"lon":5.363719,"is_reserved":false,"is_disabled":false,"rental_uris":{"android":"levelo://app?vid=3ba3e657-1486-42ce-8cfe-d2f03e3cbc91","ios":"levelo://app?vid=3ba3e657-1486-42ce-8cfe-d2f03e3cbc91"},"vehicle_type_id":"4","last_reported":1683752830,"current_range_meters":4000,"station_id":"ce4bhc92rcd13ifvqetg","pricing_plan_id":"free"},{"bike_id":"522043bb-1d07-415e-8a29-c2fa52c2c49b","system_id":"levelo_inurba_marseille","lat":43.28931,"lon":5.36387,"is_reserved":false,"is_disabled":false,"rental_uris":{"android":"levelo://app?vid=522043bb-1d07-415e-8a29-c2fa52c2c49b","ios":"levelo://app?vid=522043bb-1d07-415e-8a29-c2fa52c2c49b"},"vehicle_type_id":"4","last_reported":1683752830,"current_range_meters":12400,"station_id":"","pricing_plan_id":"free"},{"bike_id":"19dc91df-3045-4a73-b957-dbaa5d3152e4","system_id":"levelo_inurba_marseille","lat":43.289468,"lon":5.363719,"is_reserved":false,"is_disabled":false,"rental_uris":{"android":"levelo://app?vid=19dc91df-3045-4a73-b957-dbaa5d3152e4","ios":"levelo://app?vid=19dc91df-3045-4a73-b957-dbaa5d3152e4"},"vehicle_type_id":"4","last_reported":1683752830,"current_range_meters":14800,"station_id":"ce4bhc92rcd13ifvqetg","pricing_plan_id":"free"},{"bike_id":"dd0e7300-a15d-420f-96eb-9504071d838e","system_id":"levelo_inurba_marseille","lat":43.289468,"lon":5.363719,"is_reserved":false,"is_disabled":false,"rental_uris":{"android":"levelo://app?vid=dd0e7300-a15d-420f-96eb-9504071d838e","ios":"levelo://app?vid=dd0e7300-a15d-420f-96eb-9504071d838e"},"vehicle_type_id":"4","last_reported":1683752830,"current_range_meters":27200,"station_id":"ce4bhc92rcd13ifvqetg","pricing_plan_id":"free"},{"bike_id":"d0f6a595-990b-4021-90ca-e835a99a8804","system_id":"levelo_inurba_marseille","lat":43.28924,"lon":5.36386,"is_reserved":false,"is_disabled":false,"rental_uris":{"android":"levelo://app?vid=d0f6a595-990b-4021-90ca-e835a99a8804","ios":"levelo://app?vid=d0f6a595-990b-4021-90ca-e835a99a8804"},"vehicle_type_id":"4","last_reported":1683752830,"current_range_meters":22000,"station_id":"","pricing_plan_id":"free"},{"bike_id":"0b4d3736-7930-416c-b7e6-c7caf7138852","system_id":"levelo_inurba_marseille","lat":43.289468,"lon":5.363719,"is_reserved":false,"is_disabled":false,"rental_uris":{"android":"levelo://app?vid=0b4d3736-7930-416c-b7e6-c7caf7138852","ios":"levelo://app?vid=0b4d3736-7930-416c-b7e6-c7caf7138852"},"vehicle_type_id":"4","last_reported":1683752830,"current_range_meters":7200,"station_id":"ce4bhc92rcd13ifvqetg","pricing_plan_id":"free"},{"bike_id":"2486cea1-65ca-4956-a117-0c6312dac2e3","system_id":"levelo_inurba_marseille","lat":43.292642,"lon":5.384254,"is_reserved":false,"is_disabled":false,"rental_uris":{"android":"levelo://app?vid=2486cea1-65ca-4956-a117-0c6312dac2e3","ios":"levelo://app?vid=2486cea1-65ca-4956-a117-0c6312dac2e3"},"vehicle_type_id":"4","last_reported":1683752830,"current_range_meters":400,"station_id":"ce4bh692rcd13ifvqea0","pricing_plan_id":"free"},{"bike_id":"ff79c64c-cf4a-4259-9b1d-2132f9e72daa","system_id":"levelo_inurba_marseille","lat":43.33036,"lon":5.38921,"is_reserved":false,"is_disabled":false,"rental_uris":{"android":"levelo://app?vid=ff79c64c-cf4a-4259-9b1d-2132f9e72daa","ios":"levelo://app?vid=ff79c64c-cf4a-4259-9b1d-2132f9e72daa"},"vehicle_type_id":"4","last_reported":1683752830,"current_range_meters":15600,"station_id":"ce4bhr92rcd13ifvqhrg","pricing_plan_id":"free"},{"bike_id":"56a6463e-5d58-45e6-bb9e-29a77d91ab52","system_id":"levelo_inurba_marseille","lat":43.29013,"lon":5.35607,"is_reserved":false,"is_disabled":false,"rental_uris":{"android":"levelo://app?vid=56a6463e-5d58-45e6-bb9e-29a77d91ab52","ios":"levelo://app?vid=56a6463e-5d58-45e6-bb9e-29a77d91ab52"},"vehicle_type_id":"4","last_reported":1683752830,"current_range_meters":21200,"station_id":"ce4bhb92rcd13ifvqen0","pricing_plan_id":"free"},{"bike_id":"53fca3f4-ec1a-4404-8b50-75211a973257","system_id":"levelo_inurba_marseille","lat":43.33043,"lon":5.38914,"is_reserved":false,"is_disabled":false,"rental_uris":{"android":"levelo://app?vid=53fca3f4-ec1a-4404-8b50-75211a973257","ios":"levelo://app?vid=53fca3f4-ec1a-4404-8b50-75211a973257"},"vehicle_type_id":"4","last_reported":1683752830,"current_range_meters":4800,"station_id":"ce4bhr92rcd13ifvqhrg","pricing_plan_id":"free"},{"bike_id":"083536f9-bc11-4058-ab4e-f81353ac3bd8","system_id":"levelo_inurba_marseille","lat":43.33045,"lon":5.38913,"is_reserved":false,"is_disabled":false,"rental_uris":{"android":"levelo://app?vid=083536f9-bc11-4058-ab4e-f81353ac3bd8","ios":"levelo://app?vid=083536f9-bc11-4058-ab4e-f81353ac3bd8"},"vehicle_type_id":"4","last_reported":1683752830,"current_range_meters":19200,"station_id":"ce4bhr92rcd13ifvqhrg","pricing_plan_id":"free"},{"bike_id":"bc5c1ae5-41de-4441-bd4e-9cf95c6e77d3","system_id":"levelo_inurba_marseille","lat":43.33041,"lon":5.3892,"is_reserved":false,"is_disabled":false,"rental_uris":{"android":"levelo://app?vid=bc5c1ae5-41de-4441-bd4e-9cf95c6e77d3","ios":"levelo://app?vid=bc5c1ae5-41de-4441-bd4e-9cf95c6e77d3"},"vehicle_type_id":"4","last_reported":1683752830,"current_range_meters":0,"station_id":"ce4bhr92rcd13ifvqhrg","pricing_plan_id":"free"},{"bike_id":"203b2f11-a3b5-475b-8f41-939e1d33a596","system_id":"levelo_inurba_marseille","lat":43.33045,"lon":5.38915,"is_reserved":false,"is_disabled":false,"rental_uris":{"android":"levelo://app?vid=203b2f11-a3b5-475b-8f41-939e1d33a596","ios":"levelo://app?vid=203b2f11-a3b5-475b-8f41-939e1d33a596"},"vehicle_type_id":"4","last_reported":1683752830,"current_range_meters":12400,"station_id":"ce4bhr92rcd13ifvqhrg","pricing_plan_id":"free"},{"bike_id":"a08ca31a-fef4-4149-8477-c04de38691a9","system_id":"levelo_inurba_marseille","lat":43.33042,"lon":5.3892,"is_reserved":false,"is_disabled":false,"rental_uris":{"android":"levelo://app?vid=a08ca31a-fef4-4149-8477-c04de38691a9","ios":"levelo://app?vid=a08ca31a-fef4-4149-8477-c04de38691a9"},"vehicle_type_id":"4","last_reported":1683752830,"current_range_meters":28000,"station_id":"ce4bhr92rcd13ifvqhrg","pricing_plan_id":"free"},{"bike_id":"705b789e-afc4-48e4-bbdc-ff4aeb948868","system_id":"levelo_inurba_marseille","lat":43.33046,"lon":5.38914,"is_reserved":false,"is_disabled":false,"rental_uris":{"android":"levelo://app?vid=705b789e-afc4-48e4-bbdc-ff4aeb948868","ios":"levelo://app?vid=705b789e-afc4-48e4-bbdc-ff4aeb948868"},"vehicle_type_id":"4","last_reported":1683752830,"current_range_meters":13600,"station_id":"ce4bhr92rcd13ifvqhrg","pricing_plan_id":"free"},{"bike_id":"291e92dd-c2ab-4c58-b1dd-0973f1c413d5","system_id":"levelo_inurba_marseille","lat":43.33049,"lon":5.3891,"is_reserved":false,"is_disabled":false,"rental_uris":{"android":"levelo://app?vid=291e92dd-c2ab-4c58-b1dd-0973f1c413d5","ios":"levelo://app?vid=291e92dd-c2ab-4c58-b1dd-0973f1c413d5"},"vehicle_type_id":"4","last_reported":1683752830,"current_range_meters":6400,"station_id":"ce4bhr92rcd13ifvqhrg","pricing_plan_id":"free"},{"bike_id":"c4c7589f-b308-41ee-bd7e-ea3a683e9ae5","system_id":"levelo_inurba_marseille","lat":43.33051,"lon":5.38908,"is_reserved":false,"is_disabled":false,"rental_uris":{"android":"levelo://app?vid=c4c7589f-b308-41ee-bd7e-ea3a683e9ae5","ios":"levelo://app?vid=c4c7589f-b308-41ee-bd7e-ea3a683e9ae5"},"vehicle_type_id":"4","last_reported":1683752830,"current_range_meters":23200,"station_id":"ce4bhr92rcd13ifvqhrg","pricing_plan_id":"free"},{"bike_id":"76efe44c-d490-4e7b-8c9e-ed41e8d18909","system_id":"levelo_inurba_marseille","lat":43.33048,"lon":5.38914,"is_reserved":false,"is_disabled":false,"rental_uris":{"android":"levelo://app?vid=76efe44c-d490-4e7b-8c9e-ed41e8d18909","ios":"levelo://app?vid=76efe44c-d490-4e7b-8c9e-ed41e8d18909"},"vehicle_type_id":"4","last_reported":1683752830,"current_range_meters":9200,"station_id":"ce4bhr92rcd13ifvqhrg","pricing_plan_id":"free"},{"bike_id":"2694c67b-3f3c-4630-9f9c-df01de1d6a0b","system_id":"levelo_inurba_marseille","lat":43.33046,"lon":5.3892,"is_reserved":false,"is_disabled":false,"rental_uris":{"android":"levelo://app?vid=2694c67b-3f3c-4630-9f9c-df01de1d6a0b","ios":"levelo://app?vid=2694c67b-3f3c-4630-9f9c-df01de1d6a0b"},"vehicle_type_id":"4","last_reported":1683752830,"current_range_meters":22000,"station_id":"ce4bhr92rcd13ifvqhrg","pricing_plan_id":"free"},{"bike_id":"808b0fb5-4dc5-46a9-b132-4d472082a4e8","system_id":"levelo_inurba_marseille","lat":43.33048,"lon":5.38917,"is_reserved":false,"is_disabled":false,"rental_uris":{"android":"levelo://app?vid=808b0fb5-4dc5-46a9-b132-4d472082a4e8","ios":"levelo://app?vid=808b0fb5-4dc5-46a9-b132-4d472082a4e8"},"vehicle_type_id":"4","last_reported":1683752830,"current_range_meters":14800,"station_id":"ce4bhr92rcd13ifvqhrg","pricing_plan_id":"free"},{"bike_id":"211b7316-10de-4bc7-a044-db2211126bbf","system_id":"levelo_inurba_marseille","lat":43.33045,"lon":5.38922,"is_reserved":false,"is_disabled":false,"rental_uris":{"android":"levelo://app?vid=211b7316-10de-4bc7-a044-db2211126bbf","ios":"levelo://app?vid=211b7316-10de-4bc7-a044-db2211126bbf"},"vehicle_type_id":"4","last_reported":1683752830,"current_range_meters":21200,"station_id":"ce4bhr92rcd13ifvqhrg","pricing_plan_id":"free"},{"bike_id":"edb5b798-7253-4bd2-a327-d25d5e550ef1","system_id":"levelo_inurba_marseille","lat":43.33044,"lon":5.38924,"is_reserved":false,"is_disabled":false,"rental_uris":{"android":"levelo://app?vid=edb5b798-7253-4bd2-a327-d25d5e550ef1","ios":"levelo://app?vid=edb5b798-7253-4bd2-a327-d25d5e550ef1"},"vehicle_type_id":"4","last_reported":1683752830,"current_range_meters":28400,"station_id":"ce4bhr92rcd13ifvqhrg","pricing_plan_id":"free"},{"bike_id":"f55f9613-885a-4d9f-b9d0-876dd874452b","system_id":"levelo_inurba_marseille","lat":43.33048,"lon":5.38918,"is_reserved":false,"is_disabled":false,"rental_uris":{"android":"levelo://app?vid=f55f9613-885a-4d9f-b9d0-876dd874452b","ios":"levelo://app?vid=f55f9613-885a-4d9f-b9d0-876dd874452b"},"vehicle_type_id":"4","last_reported":1683752830,"current_range_meters":26400,"station_id":"ce4bhr92rcd13ifvqhrg","pricing_plan_id":"free"},{"bike_id":"7f1adfe6-dd3e-4e2e-8f92-1b2d49b6bafa","system_id":"levelo_inurba_marseille","lat":43.33045,"lon":5.38924,"is_reserved":false,"is_disabled":false,"rental_uris":{"android":"levelo://app?vid=7f1adfe6-dd3e-4e2e-8f92-1b2d49b6bafa","ios":"levelo://app?vid=7f1adfe6-dd3e-4e2e-8f92-1b2d49b6bafa"},"vehicle_type_id":"4","last_reported":1683752830,"current_range_meters":26400,"station_id":"ce4bhr92rcd13ifvqhrg","pricing_plan_id":"free"},{"bike_id":"18bbe2fb-65c7-43bc-9ac2-650e9c59ac66","system_id":"levelo_inurba_marseille","lat":43.290104,"lon":5.356111,"is_reserved":false,"is_disabled":false,"rental_uris":{"android":"levelo://app?vid=18bbe2fb-65c7-43bc-9ac2-650e9c59ac66","ios":"levelo://app?vid=18bbe2fb-65c7-43bc-9ac2-650e9c59ac66"},"vehicle_type_id":"4","last_reported":1683752830,"current_range_meters":9200,"station_id":"ce4bhb92rcd13ifvqen0","pricing_plan_id":"free"},{"bike_id":"1c784880-042b-45c5-8204-7fdb8b62a885","system_id":"levelo_inurba_marseille","lat":43.33046,"lon":5.38923,"is_reserved":false,"is_disabled":false,"rental_uris":{"android":"levelo://app?vid=1c784880-042b-45c5-8204-7fdb8b62a885","ios":"levelo://app?vid=1c784880-042b-45c5-8204-7fdb8b62a885"},"vehicle_type_id":"4","last_reported":1683752830,"current_range_meters":23200,"station_id":"ce4bhr92rcd13ifvqhrg","pricing_plan_id":"free"},{"bike_id":"4d5d4da3-9ad4-42e5-a993-c85515ce9ca0","system_id":"levelo_inurba_marseille","lat":43.33051,"lon":5.38917,"is_reserved":false,"is_disabled":false,"rental_uris":{"android":"levelo://app?vid=4d5d4da3-9ad4-42e5-a993-c85515ce9ca0","ios":"levelo://app?vid=4d5d4da3-9ad4-42e5-a993-c85515ce9ca0"},"vehicle_type_id":"4","last_reported":1683752830,"current_range_meters":25600,"station_id":"ce4bhr92rcd13ifvqhrg","pricing_plan_id":"free"},{"bike_id":"062eeed5-90ea-4681-bdf7-dd57a33301fc","system_id":"levelo_inurba_marseille","lat":43.290104,"lon":5.356111,"is_reserved":false,"is_disabled":false,"rental_uris":{"android":"levelo://app?vid=062eeed5-90ea-4681-bdf7-dd57a33301fc","ios":"levelo://app?vid=062eeed5-90ea-4681-bdf7-dd57a33301fc"},"vehicle_type_id":"4","last_reported":1683752830,"current_range_meters":31200,"station_id":"ce4bhb92rcd13ifvqen0","pricing_plan_id":"free"},{"bike_id":"8ad703d9-997d-481e-945a-3f90bbb0b1a2","system_id":"levelo_inurba_marseille","lat":43.290104,"lon":5.356111,"is_reserved":false,"is_disabled":false,"rental_uris":{"android":"levelo://app?vid=8ad703d9-997d-481e-945a-3f90bbb0b1a2","ios":"levelo://app?vid=8ad703d9-997d-481e-945a-3f90bbb0b1a2"},"vehicle_type_id":"4","last_reported":1683752830,"current_range_meters":22000,"station_id":"ce4bhb92rcd13ifvqen0","pricing_plan_id":"free"},{"bike_id":"94f7f6e0-6812-4bb8-bfbd-23abae7854e7","system_id":"levelo_inurba_marseille","lat":43.28996,"lon":5.35608,"is_reserved":false,"is_disabled":false,"rental_uris":{"android":"levelo://app?vid=94f7f6e0-6812-4bb8-bfbd-23abae7854e7","ios":"levelo://app?vid=94f7f6e0-6812-4bb8-bfbd-23abae7854e7"},"vehicle_type_id":"4","last_reported":1683752830,"current_range_meters":19600,"station_id":"","pricing_plan_id":"free"},{"bike_id":"6cbc3c02-9458-4483-8a56-1027732cec68","system_id":"levelo_inurba_marseille","lat":43.290995,"lon":5.381361,"is_reserved":false,"is_disabled":false,"rental_uris":{"android":"levelo://app?vid=6cbc3c02-9458-4483-8a56-1027732cec68","ios":"levelo://app?vid=6cbc3c02-9458-4483-8a56-1027732cec68"},"vehicle_type_id":"4","last_reported":1683752830,"current_range_meters":15600,"station_id":"ce4bh512rcd13ifvqe2g","pricing_plan_id":"free"},{"bike_id":"73de049c-bf2a-4e2f-98e5-63e5fcd98b7f","system_id":"levelo_inurba_marseille","lat":43.290995,"lon":5.381361,"is_reserved":false,"is_disabled":false,"rental_uris":{"android":"levelo://app?vid=73de049c-bf2a-4e2f-98e5-63e5fcd98b7f","ios":"levelo://app?vid=73de049c-bf2a-4e2f-98e5-63e5fcd98b7f"},"vehicle_type_id":"4","last_reported":1683752830,"current_range_meters":3200,"station_id":"ce4bh512rcd13ifvqe2g","pricing_plan_id":"free"},{"bike_id":"75c8486f-1d11-4144-a8c1-cb6f815c3cef","system_id":"levelo_inurba_marseille","lat":43.290995,"lon":5.381361,"is_reserved":false,"is_disabled":false,"rental_uris":{"android":"levelo://app?vid=75c8486f-1d11-4144-a8c1-cb6f815c3cef","ios":"levelo://app?vid=75c8486f-1d11-4144-a8c1-cb6f815c3cef"},"vehicle_type_id":"4","last_reported":1683752830,"current_range_meters":20000,"station_id":"ce4bh512rcd13ifvqe2g","pricing_plan_id":"free"},{"bike_id":"58818137-ded2-4aa2-9d88-16e839a36608","system_id":"levelo_inurba_marseille","lat":43.290995,"lon":5.381361,"is_reserved":false,"is_disabled":false,"rental_uris":{"android":"levelo://app?vid=58818137-ded2-4aa2-9d88-16e839a36608","ios":"levelo://app?vid=58818137-ded2-4aa2-9d88-16e839a36608"},"vehicle_type_id":"4","last_reported":1683752830,"current_range_meters":8000,"station_id":"ce4bh512rcd13ifvqe2g","pricing_plan_id":"free"},{"bike_id":"bbf311ac-ad13-418f-9880-accab55a3481","system_id":"levelo_inurba_marseille","lat":43.290995,"lon":5.381361,"is_reserved":false,"is_disabled":false,"rental_uris":{"android":"levelo://app?vid=bbf311ac-ad13-418f-9880-accab55a3481","ios":"levelo://app?vid=bbf311ac-ad13-418f-9880-accab55a3481"},"vehicle_type_id":"4","last_reported":1683752830,"current_range_meters":5200,"station_id":"ce4bh512rcd13ifvqe2g","pricing_plan_id":"free"},{"bike_id":"819bf446-3a11-4260-9701-0828f3311d19","system_id":"levelo_inurba_marseille","lat":43.289741,"lon":5.378306,"is_reserved":false,"is_disabled":false,"rental_uris":{"android":"levelo://app?vid=819bf446-3a11-4260-9701-0828f3311d19","ios":"levelo://app?vid=819bf446-3a11-4260-9701-0828f3311d19"},"vehicle_type_id":"4","last_reported":1683752830,"current_range_meters":26800,"station_id":"ce4bh9p2rcd13ifvqed0","pricing_plan_id":"free"},{"bike_id":"bb7fa001-a6c0-4741-a6b2-903bf2d66eb8","system_id":"levelo_inurba_marseille","lat":43.290094,"lon":5.381264,"is_reserved":false,"is_disabled":false,"rental_uris":{"android":"levelo://app?vid=bb7fa001-a6c0-4741-a6b2-903bf2d66eb8","ios":"levelo://app?vid=bb7fa001-a6c0-4741-a6b2-903bf2d66eb8"},"vehicle_type_id":"4","last_reported":1683752830,"current_range_meters":15600,"station_id":"ce4bh4p2rcd13ifvqe1g","pricing_plan_id":"free"},{"bike_id":"02bf9006-49d4-489f-be7b-a7e666808c06","system_id":"levelo_inurba_marseille","lat":43.290094,"lon":5.381264,"is_reserved":false,"is_disabled":false,"rental_uris":{"android":"levelo://app?vid=02bf9006-49d4-489f-be7b-a7e666808c06","ios":"levelo://app?vid=02bf9006-49d4-489f-be7b-a7e666808c06"},"vehicle_type_id":"4","last_reported":1683752830,"current_range_meters":9200,"station_id":"ce4bh4p2rcd13ifvqe1g","pricing_plan_id":"free"},{"bike_id":"803672a2-c7b9-44d1-a036-105bab575710","system_id":"levelo_inurba_marseille","lat":43.290094,"lon":5.381264,"is_reserved":false,"is_disabled":false,"rental_uris":{"android":"levelo://app?vid=803672a2-c7b9-44d1-a036-105bab575710","ios":"levelo://app?vid=803672a2-c7b9-44d1-a036-105bab575710"},"vehicle_type_id":"4","last_reported":1683752830,"current_range_meters":17600,"station_id":"ce4bh4p2rcd13ifvqe1g","pricing_plan_id":"free"},{"bike_id":"93a880d8-09df-464e-9bc3-42979518015e","system_id":"levelo_inurba_marseille","lat":43.29019,"lon":5.3815,"is_reserved":false,"is_disabled":false,"rental_uris":{"android":"levelo://app?vid=93a880d8-09df-464e-9bc3-42979518015e","ios":"levelo://app?vid=93a880d8-09df-464e-9bc3-42979518015e"},"vehicle_type_id":"4","last_reported":1683752830,"current_range_meters":400,"station_id":"ce4bh4p2rcd13ifvqe1g","pricing_plan_id":"free"},{"bike_id":"facaa708-596f-4418-bda4-1911d10a6305","system_id":"levelo_inurba_marseille","lat":43.28856,"lon":5.358371,"is_reserved":false,"is_disabled":false,"rental_uris":{"android":"levelo://app?vid=facaa708-596f-4418-bda4-1911d10a6305","ios":"levelo://app?vid=facaa708-596f-4418-bda4-1911d10a6305"},"vehicle_type_id":"4","last_reported":1683752830,"current_range_meters":23600,"station_id":"ce4bhb12rcd13ifvqem0","pricing_plan_id":"free"},{"bike_id":"c434342e-f66e-478f-b95e-93862fa08370","system_id":"levelo_inurba_marseille","lat":43.28856,"lon":5.358371,"is_reserved":false,"is_disabled":false,"rental_uris":{"android":"levelo://app?vid=c434342e-f66e-478f-b95e-93862fa08370","ios":"levelo://app?vid=c434342e-f66e-478f-b95e-93862fa08370"},"vehicle_type_id":"4","last_reported":1683752830,"current_range_meters":4800,"station_id":"ce4bhb12rcd13ifvqem0","pricing_plan_id":"free"},{"bike_id":"b0bcc87f-8089-4cea-9e19-62d187d0f936","system_id":"levelo_inurba_marseille","lat":43.290094,"lon":5.381264,"is_reserved":false,"is_disabled":false,"rental_uris":{"android":"levelo://app?vid=b0bcc87f-8089-4cea-9e19-62d187d0f936","ios":"levelo://app?vid=b0bcc87f-8089-4cea-9e19-62d187d0f936"},"vehicle_type_id":"4","last_reported":1683752830,"current_range_meters":23200,"station_id":"ce4bh4p2rcd13ifvqe1g","pricing_plan_id":"free"},{"bike_id":"c4021901-a9c3-4d42-b783-ce6991355322","system_id":"levelo_inurba_marseille","lat":43.3308,"lon":5.39084,"is_reserved":false,"is_disabled":false,"rental_uris":{"android":"levelo://app?vid=c4021901-a9c3-4d42-b783-ce6991355322","ios":"levelo://app?vid=c4021901-a9c3-4d42-b783-ce6991355322"},"vehicle_type_id":"4","last_reported":1683752830,"current_range_meters":4400,"station_id":"","pricing_plan_id":"free"},{"bike_id":"b580e0e2-2f8d-4df7-94bc-e067ad6ab0cb","system_id":"levelo_inurba_marseille","lat":43.32673,"lon":5.39569,"is_reserved":false,"is_disabled":false,"rental_uris":{"android":"levelo://app?vid=b580e0e2-2f8d-4df7-94bc-e067ad6ab0cb","ios":"levelo://app?vid=b580e0e2-2f8d-4df7-94bc-e067ad6ab0cb"},"vehicle_type_id":"4","last_reported":1683752830,"current_range_meters":18800,"station_id":"","pricing_plan_id":"free"},{"bike_id":"262d3699-a088-432b-bd9d-d01aaccd431f","system_id":"levelo_inurba_marseille","lat":43.337489,"lon":5.374632,"is_reserved":false,"is_disabled":false,"rental_uris":{"android":"levelo://app?vid=262d3699-a088-432b-bd9d-d01aaccd431f","ios":"levelo://app?vid=262d3699-a088-432b-bd9d-d01aaccd431f"},"vehicle_type_id":"4","last_reported":1683752830,"current_range_meters":24400,"station_id":"","pricing_plan_id":"free"},{"bike_id":"d9da4d5b-4c19-4a9a-88bd-f6cd4044c42c","system_id":"levelo_inurba_marseille","lat":43.30642,"lon":5.401031,"is_reserved":false,"is_disabled":false,"rental_uris":{"android":"levelo://app?vid=d9da4d5b-4c19-4a9a-88bd-f6cd4044c42c","ios":"levelo://app?vid=d9da4d5b-4c19-4a9a-88bd-f6cd4044c42c"},"vehicle_type_id":"4","last_reported":1683752830,"current_range_meters":29200,"station_id":"ce4bh112rcd13ifvqda0","pricing_plan_id":"free"},{"bike_id":"74e4edad-791b-402d-b641-bdd8c2d7a929","system_id":"levelo_inurba_marseille","lat":43.33756,"lon":5.37445,"is_reserved":false,"is_disabled":false,"rental_uris":{"android":"levelo://app?vid=74e4edad-791b-402d-b641-bdd8c2d7a929","ios":"levelo://app?vid=74e4edad-791b-402d-b641-bdd8c2d7a929"},"vehicle_type_id":"4","last_reported":1683752830,"current_range_meters":21200,"station_id":"","pricing_plan_id":"free"},{"bike_id":"ddd6fec5-45a7-4538-b3d2-2ed9b37d8d84","system_id":"levelo_inurba_marseille","lat":43.30642,"lon":5.401031,"is_reserved":false,"is_disabled":false,"rental_uris":{"android":"levelo://app?vid=ddd6fec5-45a7-4538-b3d2-2ed9b37d8d84","ios":"levelo://app?vid=ddd6fec5-45a7-4538-b3d2-2ed9b37d8d84"},"vehicle_type_id":"4","last_reported":1683752830,"current_range_meters":8800,"station_id":"ce4bh112rcd13ifvqda0","pricing_plan_id":"free"},{"bike_id":"24f2fbcc-9409-4f98-82fb-b573035e46b6","system_id":"levelo_inurba_marseille","lat":43.30642,"lon":5.401031,"is_reserved":false,"is_disabled":false,"rental_uris":{"android":"levelo://app?vid=24f2fbcc-9409-4f98-82fb-b573035e46b6","ios":"levelo://app?vid=24f2fbcc-9409-4f98-82fb-b573035e46b6"},"vehicle_type_id":"4","last_reported":1683752830,"current_range_meters":800,"station_id":"ce4bh112rcd13ifvqda0","pricing_plan_id":"free"},{"bike_id":"eba09d36-c97e-4d90-84b4-0c1992aba7e8","system_id":"levelo_inurba_marseille","lat":43.30642,"lon":5.401031,"is_reserved":false,"is_disabled":false,"rental_uris":{"android":"levelo://app?vid=eba09d36-c97e-4d90-84b4-0c1992aba7e8","ios":"levelo://app?vid=eba09d36-c97e-4d90-84b4-0c1992aba7e8"},"vehicle_type_id":"4","last_reported":1683752830,"current_range_meters":14800,"station_id":"ce4bh112rcd13ifvqda0","pricing_plan_id":"free"},{"bike_id":"f3c7bf7c-70d5-43b3-806a-d00f34df60c1","system_id":"levelo_inurba_marseille","lat":43.30642,"lon":5.401031,"is_reserved":false,"is_disabled":false,"rental_uris":{"android":"levelo://app?vid=f3c7bf7c-70d5-43b3-806a-d00f34df60c1","ios":"levelo://app?vid=f3c7bf7c-70d5-43b3-806a-d00f34df60c1"},"vehicle_type_id":"4","last_reported":1683752830,"current_range_meters":26800,"station_id":"ce4bh112rcd13ifvqda0","pricing_plan_id":"free"},{"bike_id":"8aeeb9d9-1925-41a8-8678-411e94ac6f12","system_id":"levelo_inurba_marseille","lat":43.30642,"lon":5.401031,"is_reserved":false,"is_disabled":false,"rental_uris":{"android":"levelo://app?vid=8aeeb9d9-1925-41a8-8678-411e94ac6f12","ios":"levelo://app?vid=8aeeb9d9-1925-41a8-8678-411e94ac6f12"},"vehicle_type_id":"4","last_reported":1683752830,"current_range_meters":0,"station_id":"ce4bh112rcd13ifvqda0","pricing_plan_id":"free"},{"bike_id":"fb044346-ff7f-4e8c-ad60-5f6dde067cdd","system_id":"levelo_inurba_marseille","lat":43.30642,"lon":5.401031,"is_reserved":false,"is_disabled":false,"rental_uris":{"android":"levelo://app?vid=fb044346-ff7f-4e8c-ad60-5f6dde067cdd","ios":"levelo://app?vid=fb044346-ff7f-4e8c-ad60-5f6dde067cdd"},"vehicle_type_id":"4","last_reported":1683752830,"current_range_meters":16800,"station_id":"ce4bh112rcd13ifvqda0","pricing_plan_id":"free"},{"bike_id":"5c23f069-390b-4c41-9ea8-23c19ae8fca8","system_id":"levelo_inurba_marseille","lat":43.30642,"lon":5.401031,"is_reserved":false,"is_disabled":false,"rental_uris":{"android":"levelo://app?vid=5c23f069-390b-4c41-9ea8-23c19ae8fca8","ios":"levelo://app?vid=5c23f069-390b-4c41-9ea8-23c19ae8fca8"},"vehicle_type_id":"4","last_reported":1683752830,"current_range_meters":24800,"station_id":"ce4bh112rcd13ifvqda0","pricing_plan_id":"free"},{"bike_id":"954c23ed-0ea4-4050-bb19-534cb04fafd7","system_id":"levelo_inurba_marseille","lat":43.30642,"lon":5.401031,"is_reserved":false,"is_disabled":false,"rental_uris":{"android":"levelo://app?vid=954c23ed-0ea4-4050-bb19-534cb04fafd7","ios":"levelo://app?vid=954c23ed-0ea4-4050-bb19-534cb04fafd7"},"vehicle_type_id":"4","last_reported":1683752830,"current_range_meters":18400,"station_id":"ce4bh112rcd13ifvqda0","pricing_plan_id":"free"},{"bike_id":"1b47cc40-3fb0-46e9-8735-884c34e839a1","system_id":"levelo_inurba_marseille","lat":43.30128,"lon":5.39843,"is_reserved":false,"is_disabled":false,"rental_uris":{"android":"levelo://app?vid=1b47cc40-3fb0-46e9-8735-884c34e839a1","ios":"levelo://app?vid=1b47cc40-3fb0-46e9-8735-884c34e839a1"},"vehicle_type_id":"4","last_reported":1683752830,"current_range_meters":19600,"station_id":"","pricing_plan_id":"free"},{"bike_id":"8f25db7a-a251-48f9-b026-3446c7c96460","system_id":"levelo_inurba_marseille","lat":43.301117,"lon":5.398795,"is_reserved":false,"is_disabled":false,"rental_uris":{"android":"levelo://app?vid=8f25db7a-a251-48f9-b026-3446c7c96460","ios":"levelo://app?vid=8f25db7a-a251-48f9-b026-3446c7c96460"},"vehicle_type_id":"4","last_reported":1683752830,"current_range_meters":13200,"station_id":"ce4bh0h2rcd13ifvqd40","pricing_plan_id":"free"},{"bike_id":"98452ebe-8b97-473f-8781-98f6911c4571","system_id":"levelo_inurba_marseille","lat":43.301117,"lon":5.398795,"is_reserved":false,"is_disabled":false,"rental_uris":{"android":"levelo://app?vid=98452ebe-8b97-473f-8781-98f6911c4571","ios":"levelo://app?vid=98452ebe-8b97-473f-8781-98f6911c4571"},"vehicle_type_id":"4","last_reported":1683752830,"current_range_meters":9200,"station_id":"ce4bh0h2rcd13ifvqd40","pricing_plan_id":"free"},{"bike_id":"0a73989c-8cee-4141-b448-8bbadeb11203","system_id":"levelo_inurba_marseille","lat":43.301117,"lon":5.398795,"is_reserved":false,"is_disabled":false,"rental_uris":{"android":"levelo://app?vid=0a73989c-8cee-4141-b448-8bbadeb11203","ios":"levelo://app?vid=0a73989c-8cee-4141-b448-8bbadeb11203"},"vehicle_type_id":"4","last_reported":1683752830,"current_range_meters":8000,"station_id":"ce4bh0h2rcd13ifvqd40","pricing_plan_id":"free"},{"bike_id":"84662de6-b91c-441a-86bf-b291a62232f7","system_id":"levelo_inurba_marseille","lat":43.301117,"lon":5.398795,"is_reserved":false,"is_disabled":false,"rental_uris":{"android":"levelo://app?vid=84662de6-b91c-441a-86bf-b291a62232f7","ios":"levelo://app?vid=84662de6-b91c-441a-86bf-b291a62232f7"},"vehicle_type_id":"4","last_reported":1683752830,"current_range_meters":400,"station_id":"ce4bh0h2rcd13ifvqd40","pricing_plan_id":"free"},{"bike_id":"6fb14cf7-a110-4567-befa-9bd3d9f4594a","system_id":"levelo_inurba_marseille","lat":43.286591,"lon":5.363346,"is_reserved":false,"is_disabled":false,"rental_uris":{"android":"levelo://app?vid=6fb14cf7-a110-4567-befa-9bd3d9f4594a","ios":"levelo://app?vid=6fb14cf7-a110-4567-befa-9bd3d9f4594a"},"vehicle_type_id":"4","last_reported":1683752830,"current_range_meters":6800,"station_id":"ce4bhah2rcd13ifvqej0","pricing_plan_id":"free"},{"bike_id":"08b18e78-b648-4c92-8fb6-467b57dc617a","system_id":"levelo_inurba_marseille","lat":43.286591,"lon":5.363346,"is_reserved":false,"is_disabled":false,"rental_uris":{"android":"levelo://app?vid=08b18e78-b648-4c92-8fb6-467b57dc617a","ios":"levelo://app?vid=08b18e78-b648-4c92-8fb6-467b57dc617a"},"vehicle_type_id":"4","last_reported":1683752830,"current_range_meters":3200,"station_id":"ce4bhah2rcd13ifvqej0","pricing_plan_id":"free"},{"bike_id":"9ca843bc-aea1-4584-98ae-3e29bdc2abce","system_id":"levelo_inurba_marseille","lat":43.286591,"lon":5.363346,"is_reserved":false,"is_disabled":false,"rental_uris":{"android":"levelo://app?vid=9ca843bc-aea1-4584-98ae-3e29bdc2abce","ios":"levelo://app?vid=9ca843bc-aea1-4584-98ae-3e29bdc2abce"},"vehicle_type_id":"4","last_reported":1683752830,"current_range_meters":22000,"station_id":"ce4bhah2rcd13ifvqej0","pricing_plan_id":"free"},