{"last_updated":1732674055,"ttl":60,"version":"2.2","data":{"bikes":[{"bike_id":"867de474-7d21-4a45-b160-f59fdff81394","system_id":"levelo_inurba_marseille","lat":43.31333,"lon":5.39722,"is_reserved":false,"is_disabled":false,"rental_uris":{"android":"levelo://app?vid=867de474-7d21-4a45-b160-f59fdff81394","ios":"levelo://app?vid=867de474-7d21-4a45-b160-f59fdff81394"},"vehicle_type_id":"4","last_reported":1732674055,"current_range_meters":38800,"station_id":"ce4bgvp2rcd13ifvqcu0","pricing_plan_id":"cebpf4jnsgd1na2vs0mg"},{"bike_id":"d9c28aa4-81a4-4d13-8fc9-100bb4e3d7e2","system_id":"levelo_inurba_marseille","lat":43.27387,"lon":5.38992,"is_reserved":false,"is_disabled":true,"rental_uris":{"android":"levelo://app?vid=d9c28aa4-81a4-4d13-8fc9-100bb4e3d7e2","ios":"levelo://app?vid=d9c28aa4-81a4-4d13-8fc9-100bb4e3d7e2"},"vehicle_type_id":"4","last_reported":1732674055,"current_range_meters":0,"station_id":"","pricing_plan_id":"cebpf4jnsgd1na2vs0mg"},{"bike_id":"a33a40f2-a99d-4474-9adc-0da0cd98f9a9","system_id":"levelo_inurba_marseille","lat":43.273716,"lon":5.362556,"is_reserved":false,"is_disabled":false,"rental_uris":{"android":"levelo://app?vid=a33a40f2-a99d-4474-9adc-0da0cd98f9a9","ios":"levelo://app?vid=a33a40f2-a99d-4474-9adc-0da0cd98f9a9"},"vehicle_type_id":"4","last_reported":1732674055,"current_range_meters":38400,"station_id":"ce4bhbh2rcd13ifvqeo0","pricing_plan_id":"cebpf4jnsgd1na2vs0mg"},{"bike_id":"b856c8b4-412d-4c25-bdd4-e6b29aed04cb","system_id":"levelo_inurba_marseille","lat":43.22938,"lon":5.35378,"is_reserved":false,"is_disabled":false,"rental_uris":{"android":"levelo://app?vid=b856c8b4-412d-4c25-bdd4-e6b29aed04cb","ios":"levelo://app?vid=b856c8b4-412d-4c25-bdd4-e6b29aed04cb"},"vehicle_type_id":"4","last_reported":1732674055,"current_range_meters":39200,"station_id":"cpo3532slgdg3j2ikp40","pricing_plan_id":"cebpf4jnsgd1na2vs0mg"},{"bike_id":"4eebdf16-4fbb-423f-bcd8-8055ad21b28f","system_id":"levelo_inurba_marseille","lat":43.311,"lon":5.38361,"is_reserved":false,"is_disabled":false,"rental_uris":{"android":"levelo://app?vid=4eebdf16-4fbb-423f-bcd8-8055ad21b28f","ios":"levelo://app?vid=4eebdf16-4fbb-423f-bcd8-8055ad21b28f"},"vehicle_type_id":"4","last_reported":1732674055,"current_range_meters":26800,"station_id":"ce4bgv92rcd13ifvqcr0","pricing_plan_id":"cebpf4jnsgd1na2vs0mg"},{"bike_id":"b51d31e3-b561-4c0d-b4c9-74c74d6a4aa9","system_id":"levelo_inurba_marseille","lat":43.33014,"lon":5.39064,"is_reserved":false,"is_disabled":false,"rental_uris":{"android":"levelo://app?vid=b51d31e3-b561-4c0d-b4c9-74c74d6a4aa9","ios":"levelo://app?vid=b51d31e3-b561-4c0d-b4c9-74c74d6a4aa9"},"vehicle_type_id":"4","last_reported":1732674055,"current_range_meters":38400,"station_id":"ce4bhr92rcd13ifvqhrg","pricing_plan_id":"cebpf4jnsgd1na2vs0mg"},{"bike_id":"d69e2163-7b36-4552-b784-37cc2a937a83","system_id":"levelo_inurba_marseille","lat":43.31168,"lon":5.38721,"is_reserved":false,"is_disabled":false,"rental_uris":{"android":"levelo://app?vid=d69e2163-7b36-4552-b784-37cc2a937a83","ios":"levelo://app?vid=d69e2163-7b36-4552-b784-37cc2a937a83"},"vehicle_type_id":"4","last_reported":1732674055,"current_range_meters":18000,"station_id":"ce4bgv12rcd13ifvqcp0","pricing_plan_id":"cebpf4jnsgd1na2vs0mg"},{"bike_id":"f0347ef3-0bf2-4904-8134-c34ce91c6bae","system_id":"levelo_inurba_marseille","lat":43.30532,"lon":5.36711,"is_reserved":false,"is_disabled":true,"rental_uris":{"android":"levelo://app?vid=f0347ef3-0bf2-4904-8134-c34ce91c6bae","ios":"levelo://app?vid=f0347ef3-0bf2-4904-8134-c34ce91c6bae"},"vehicle_type_id":"4","last_reported":1732674055,"current_range_meters":13600,"station_id":"ce4bgrp2rcd13ifvqc9g","pricing_plan_id":"cebpf4jnsgd1na2vs0mg"},{"bike_id":"938efd6e-163f-4dea-98cc-4cf7852276fc","system_id":"levelo_inurba_marseille","lat":43.30567,"lon":5.40147,"is_reserved":false,"is_disabled":false,"rental_uris":{"android":"levelo://app?vid=938efd6e-163f-4dea-98cc-4cf7852276fc","ios":"levelo://app?vid=938efd6e-163f-4dea-98cc-4cf7852276fc"},"vehicle_type_id":"4","last_reported":1732674055,"current_range_meters":28400,"station_id":"","pricing_plan_id":"cebpf4jnsgd1na2vs0mg"},{"bike_id":"a481b9a0-9c57-4f11-a4b3-9fcac54c7392","system_id":"levelo_inurba_marseille","lat":43.24074,"lon":5.37748,"is_reserved":false,"is_disabled":false,"rental_uris":{"android":"levelo://app?vid=a481b9a0-9c57-4f11-a4b3-9fcac54c7392","ios":"levelo://app?vid=a481b9a0-9c57-4f11-a4b3-9fcac54c7392"},"vehicle_type_id":"4","last_reported":1732674055,"current_range_meters":38800,"station_id":"ce4bhnp2rcd13ifvqgvg","pricing_plan_id":"cebpf4jnsgd1na2vs0mg"},{"bike_id":"cc53cd1b-3948-4296-9254-4f4de661880c","system_id":"levelo_inurba_marseille","lat":43.31336,"lon":5.3969,"is_reserved":false,"is_disabled":false,"rental_uris":{"android":"levelo://app?vid=cc53cd1b-3948-4296-9254-4f4de661880c","ios":"levelo://app?vid=cc53cd1b-3948-4296-9254-4f4de661880c"},"vehicle_type_id":"4","last_reported":1732674055,"current_range_meters":32400,"station_id":"ce4bgvp2rcd13ifvqcu0","pricing_plan_id":"cebpf4jnsgd1na2vs0mg"},{"bike_id":"8d79141f-b811-4a05-965b-319f30ef22a4","system_id":"levelo_inurba_marseille","lat":43.27977,"lon":5.38754,"is_reserved":false,"is_disabled":false,"rental_uris":{"android":"levelo://app?vid=8d79141f-b811-4a05-965b-319f30ef22a4","ios":"levelo://app?vid=8d79141f-b811-4a05-965b-319f30ef22a4"},"vehicle_type_id":"4","last_reported":1732674055,"current_range_meters":15200,"station_id":"ce4bhg12rcd13ifvqf80","pricing_plan_id":"cebpf4jnsgd1na2vs0mg"},{"bike_id":"a0609e4b-fca2-4f06-8a2b-54046bfadb87","system_id":"levelo_inurba_marseille","lat":43.25863,"lon":5.39901,"is_reserved":false,"is_disabled":false,"rental_uris":{"android":"levelo://app?vid=a0609e4b-fca2-4f06-8a2b-54046bfadb87","ios":"levelo://app?vid=a0609e4b-fca2-4f06-8a2b-54046bfadb87"},"vehicle_type_id":"4","last_reported":1732674055,"current_range_meters":28800,"station_id":"ce4bhl92rcd13ifvqghg","pricing_plan_id":"cebpf4jnsgd1na2vs0mg"},{"bike_id":"4a6f40e9-24aa-48ac-9ef2-a1bddf93539a","system_id":"levelo_inurba_marseille","lat":43.24068,"lon":5.3775,"is_reserved":false,"is_disabled":false,"rental_uris":{"android":"levelo://app?vid=4a6f40e9-24aa-48ac-9ef2-a1bddf93539a","ios":"levelo://app?vid=4a6f40e9-24aa-48ac-9ef2-a1bddf93539a"},"vehicle_type_id":"4","last_reported":1732674055,"current_range_meters":36400,"station_id":"ce4bhnp2rcd13ifvqgvg","pricing_plan_id":"cebpf4jnsgd1na2vs0mg"},{"bike_id":"37ee09df-8673-47a3-96b4-c2ef618884e5","system_id":"levelo_inurba_marseille","lat":43.337444,"lon":5.374475,"is_reserved":false,"is_disabled":false,"rental_uris":{"android":"levelo://app?vid=37ee09df-8673-47a3-96b4-c2ef618884e5","ios":"levelo://app?vid=37ee09df-8673-47a3-96b4-c2ef618884e5"},"vehicle_type_id":"4","last_reported":1732674055,"current_range_meters":33200,"station_id":"","pricing_plan_id":"cebpf4jnsgd1na2vs0mg"},{"bike_id":"df5a51f9-62a6-4145-a8df-400c84d19dd4","system_id":"levelo_inurba_marseille","lat":43.2809,"lon":5.39655,"is_reserved":false,"is_disabled":false,"rental_uris":{"android":"levelo://app?vid=df5a51f9-62a6-4145-a8df-400c84d19dd4","ios":"levelo://app?vid=df5a51f9-62a6-4145-a8df-400c84d19dd4"},"vehicle_type_id":"4","last_reported":1732674055,"current_range_meters":33200,"station_id":"ce4bho12rcd13ifvqh2g","pricing_plan_id":"cebpf4jnsgd1na2vs0mg"},{"bike_id":"2830472c-5a6d-42c6-b3e0-3d5fa9e78717","system_id":"levelo_inurba_marseille","lat":43.29273,"lon":5.40154,"is_reserved":false,"is_disabled":false,"rental_uris":{"android":"levelo://app?vid=2830472c-5a6d-42c6-b3e0-3d5fa9e78717","ios":"levelo://app?vid=2830472c-5a6d-42c6-b3e0-3d5fa9e78717"},"vehicle_type_id":"4","last_reported":1732674055,"current_range_meters":39200,"station_id":"ce4bh312rcd13ifvqdk0","pricing_plan_id":"cebpf4jnsgd1na2vs0mg"},{"bike_id":"c523214a-88b9-4353-bb8b-55d45b020426","system_id":"levelo_inurba_marseille","lat":43.27817,"lon":5.4072,"is_reserved":false,"is_disabled":true,"rental_uris":{"android":"levelo://app?vid=c523214a-88b9-4353-bb8b-55d45b020426","ios":"levelo://app?vid=c523214a-88b9-4353-bb8b-55d45b020426"},"vehicle_type_id":"4","last_reported":1732674055,"current_range_meters":27200,"station_id":"ce4bhnh2rcd13ifvqgtg","pricing_plan_id":"cebpf4jnsgd1na2vs0mg"},{"bike_id":"208770de-9b49-4ea6-b6b3-1c83bb03a84e","system_id":"levelo_inurba_marseille","lat":43.296,"lon":5.38106,"is_reserved":false,"is_disabled":true,"rental_uris":{"android":"levelo://app?vid=208770de-9b49-4ea6-b6b3-1c83bb03a84e","ios":"levelo://app?vid=208770de-9b49-4ea6-b6b3-1c83bb03a84e"},"vehicle_type_id":"4","last_reported":1732674055,"current_range_meters":36800,"station_id":"ce4bgl12rcd13ifvqbo0","pricing_plan_id":"cebpf4jnsgd1na2vs0mg"},{"bike_id":"e7d61961-f2fb-44c4-9ee3-a227626b507f","system_id":"levelo_inurba_marseille","lat":43.23072,"lon":5.35498,"is_reserved":false,"is_disabled":false,"rental_uris":{"android":"levelo://app?vid=e7d61961-f2fb-44c4-9ee3-a227626b507f","ios":"levelo://app?vid=e7d61961-f2fb-44c4-9ee3-a227626b507f"},"vehicle_type_id":"4","last_reported":1732674055,"current_range_meters":38800,"station_id":"cpo3342slgdg3j2ifvpg","pricing_plan_id":"cebpf4jnsgd1na2vs0mg"},{"bike_id":"f7165f07-e923-4579-b202-89b3912a60e2","system_id":"levelo_inurba_marseille","lat":43.25871,"lon":5.39903,"is_reserved":false,"is_disabled":false,"rental_uris":{"android":"levelo://app?vid=f7165f07-e923-4579-b202-89b3912a60e2","ios":"levelo://app?vid=f7165f07-e923-4579-b202-89b3912a60e2"},"vehicle_type_id":"4","last_reported":1732674055,"current_range_meters":36000,"station_id":"ce4bhl92rcd13ifvqghg","pricing_plan_id":"cebpf4jnsgd1na2vs0mg"},{"bike_id":"a6e22c89-3dcb-4b2e-a4cc-b4c11dbf537a","system_id":"levelo_inurba_marseille","lat":43.23199,"lon":5.39984,"is_reserved":false,"is_disabled":false,"rental_uris":{"android":"levelo://app?vid=a6e22c89-3dcb-4b2e-a4cc-b4c11dbf537a","ios":"levelo://app?vid=a6e22c89-3dcb-4b2e-a4cc-b4c11dbf537a"},"vehicle_type_id":"4","last_reported":1732674055,"current_range_meters":8800,"station_id":"ce4bhn12rcd13ifvqgqg","pricing_plan_id":"cebpf4jnsgd1na2vs0mg"},{"bike_id":"3252dc82-2394-4eb8-90e9-0af3fa88f0da","system_id":"levelo_inurba_marseille","lat":43.28378,"lon":5.38646,"is_reserved":false,"is_disabled":false,"rental_uris":{"android":"levelo://app?vid=3252dc82-2394-4eb8-90e9-0af3fa88f0da","ios":"levelo://app?vid=3252dc82-2394-4eb8-90e9-0af3fa88f0da"},"vehicle_type_id":"4","last_reported":1732674055,"current_range_meters":4000,"station_id":"ce4bh492rcd13ifvqdvg","pricing_plan_id":"cebpf4jnsgd1na2vs0mg"},{"bike_id":"3e08674a-4d13-4c1c-9a3c-8470b601da63","system_id":"levelo_inurba_marseille","lat":43.29782,"lon":5.39343,"is_reserved":false,"is_disabled":false,"rental_uris":{"android":"levelo://app?vid=3e08674a-4d13-4c1c-9a3c-8470b601da63","ios":"levelo://app?vid=3e08674a-4d13-4c1c-9a3c-8470b601da63"},"vehicle_type_id":"4","last_reported":1732674055,"current_range_meters":15200,"station_id":"chh1huq6cuj3fo74tm60","pricing_plan_id":"cebpf4jnsgd1na2vs0mg"},{"bike_id":"232d3dc5-0179-4abc-b358-d4d004e73122","system_id":"levelo_inurba_marseille","lat":43.29816,"lon":5.40402,"is_reserved":false,"is_disabled":false,"rental_uris":{"android":"levelo://app?vid=232d3dc5-0179-4abc-b358-d4d004e73122","ios":"levelo://app?vid=232d3dc5-0179-4abc-b358-d4d004e73122"},"vehicle_type_id":"4","last_reported":1732674055,"current_range_meters":38800,"station_id":"ce4bh112rcd13ifvqd90","pricing_plan_id":"cebpf4jnsgd1na2vs0mg"},{"bike_id":"f98cf346-2f95-41c1-a190-288b7ed6e557","system_id":"levelo_inurba_marseille","lat":43.24069,"lon":5.37685,"is_reserved":false,"is_disabled":false,"rental_uris":{"android":"levelo://app?vid=f98cf346-2f95-41c1-a190-288b7ed6e557","ios":"levelo://app?vid=f98cf346-2f95-41c1-a190-288b7ed6e557"},"vehicle_type_id":"4","last_reported":1732674055,"current_range_meters":38800,"station_id":"ce4bhnp2rcd13ifvqgvg","pricing_plan_id":"cebpf4jnsgd1na2vs0mg"},{"bike_id":"3e74510c-d86b-4186-a956-0b286b8b0c60","system_id":"levelo_inurba_marseille","lat":43.24666,"lon":5.38182,"is_reserved":false,"is_disabled":false,"rental_uris":{"android":"levelo://app?vid=3e74510c-d86b-4186-a956-0b286b8b0c60","ios":"levelo://app?vid=3e74510c-d86b-4186-a956-0b286b8b0c60"},"vehicle_type_id":"4","last_reported":1732674055,"current_range_meters":38800,"station_id":"ce4bhih2rcd13ifvqfr0","pricing_plan_id":"cebpf4jnsgd1na2vs0mg"},{"bike_id":"d64ffcd3-a58b-4e95-9879-e36e5743e12b","system_id":"levelo_inurba_marseille","lat":43.28703,"lon":5.39987,"is_reserved":false,"is_disabled":false,"rental_uris":{"android":"levelo://app?vid=d64ffcd3-a58b-4e95-9879-e36e5743e12b","ios":"levelo://app?vid=d64ffcd3-a58b-4e95-9879-e36e5743e12b"},"vehicle_type_id":"4","last_reported":1732674055,"current_range_meters":38400,"station_id":"ce4bho92rcd13ifvqh3g","pricing_plan_id":"cebpf4jnsgd1na2vs0mg"},{"bike_id":"50faf925-6d92-4351-8818-2837752c5e27","system_id":"levelo_inurba_marseille","lat":43.28501,"lon":5.38568,"is_reserved":false,"is_disabled":false,"rental_uris":{"android":"levelo://app?vid=50faf925-6d92-4351-8818-2837752c5e27","ios":"levelo://app?vid=50faf925-6d92-4351-8818-2837752c5e27"},"vehicle_type_id":"4","last_reported":1732674055,"current_range_meters":30800,"station_id":"ce4bh8p2rcd13ifvqeb0","pricing_plan_id":"cebpf4jnsgd1na2vs0mg"},{"bike_id":"90043bce-0b1c-42ea-b1ed-50fef492ce46","system_id":"levelo_inurba_marseille","lat":43.30554,"lon":5.38408,"is_reserved":false,"is_disabled":false,"rental_uris":{"android":"levelo://app?vid=90043bce-0b1c-42ea-b1ed-50fef492ce46","ios":"levelo://app?vid=90043bce-0b1c-42ea-b1ed-50fef492ce46"},"vehicle_type_id":"4","last_reported":1732674055,"current_range_meters":34800,"station_id":"ce4bgg92rcd13ifvqb30","pricing_plan_id":"cebpf4jnsgd1na2vs0mg"},{"bike_id":"b891d583-603a-49e6-afab-c922f2af192e","system_id":"levelo_inurba_marseille","lat":43.28092,"lon":5.3964,"is_reserved":false,"is_disabled":false,"rental_uris":{"android":"levelo://app?vid=b891d583-603a-49e6-afab-c922f2af192e","ios":"levelo://app?vid=b891d583-603a-49e6-afab-c922f2af192e"},"vehicle_type_id":"4","last_reported":1732674055,"current_range_meters":39200,"station_id":"ce4bho12rcd13ifvqh2g","pricing_plan_id":"cebpf4jnsgd1na2vs0mg"},{"bike_id":"05aa3fb3-ce2d-43ba-9106-8e5fd56b7e9e","system_id":"levelo_inurba_marseille","lat":43.28459,"lon":5.35882,"is_reserved":false,"is_disabled":false,"rental_uris":{"android":"levelo://app?vid=05aa3fb3-ce2d-43ba-9106-8e5fd56b7e9e","ios":"levelo://app?vid=05aa3fb3-ce2d-43ba-9106-8e5fd56b7e9e"},"vehicle_type_id":"4","last_reported":1732674055,"current_range_meters":16800,"station_id":"ce4bhah2rcd13ifvqei0","pricing_plan_id":"cebpf4jnsgd1na2vs0mg"},{"bike_id":"38814ff2-ffa8-4a66-be40-cf35d7ad2ae5","system_id":"levelo_inurba_marseille","lat":43.28727,"lon":5.36077,"is_reserved":false,"is_disabled":false,"rental_uris":{"android":"levelo://app?vid=38814ff2-ffa8-4a66-be40-cf35d7ad2ae5","ios":"levelo://app?vid=38814ff2-ffa8-4a66-be40-cf35d7ad2ae5"},"vehicle_type_id":"4","last_reported":1732674055,"current_range_meters":20400,"station_id":"cki0cbj6b192h4jlfktg","pricing_plan_id":"cebpf4jnsgd1na2vs0mg"},{"bike_id":"c7f0c2ae-332e-48f3-b3ba-a947d25b82d6","system_id":"levelo_inurba_marseille","lat":43.31055,"lon":5.38352,"is_reserved":false,"is_disabled":false,"rental_uris":{"android":"levelo://app?vid=c7f0c2ae-332e-48f3-b3ba-a947d25b82d6","ios":"levelo://app?vid=c7f0c2ae-332e-48f3-b3ba-a947d25b82d6"},"vehicle_type_id":"4","last_reported":1732674055,"current_range_meters":38800,"station_id":"ce4bgv92rcd13ifvqcr0","pricing_plan_id":"cebpf4jnsgd1na2vs0mg"},{"bike_id":"38fc8bf0-78a6-4380-a16d-e35db9a0e0af","system_id":"levelo_inurba_marseille","lat":43.30246,"lon":5.40071,"is_reserved":false,"is_disabled":false,"rental_uris":{"android":"levelo://app?vid=38fc8bf0-78a6-4380-a16d-e35db9a0e0af","ios":"levelo://app?vid=38fc8bf0-78a6-4380-a16d-e35db9a0e0af"},"vehicle_type_id":"4","last_reported":1732674055,"current_range_meters":9600,"station_id":"ce4bgvh2rcd13ifvqcs0","pricing_plan_id":"cebpf4jnsgd1na2vs0mg"},{"bike_id":"9f0d99d0-4576-4f22-ab76-950a0271ec39","system_id":"levelo_inurba_marseille","lat":43.28331,"lon":5.38128,"is_reserved":false,"is_disabled":true,"rental_uris":{"android":"levelo://app?vid=9f0d99d0-4576-4f22-ab76-950a0271ec39","ios":"levelo://app?vid=9f0d99d0-4576-4f22-ab76-950a0271ec39"},"vehicle_type_id":"4","last_reported":1732674055,"current_range_meters":38000,"station_id":"ce4bh412rcd13ifvqdr0","pricing_plan_id":"cebpf4jnsgd1na2vs0mg"},{"bike_id":"05ad44e5-d7ad-40e4-b78e-31a67af522c0","system_id":"levelo_inurba_marseille","lat":43.25726,"lon":5.41096,"is_reserved":false,"is_disabled":false,"rental_uris":{"android":"levelo://app?vid=05ad44e5-d7ad-40e4-b78e-31a67af522c0","ios":"levelo://app?vid=05ad44e5-d7ad-40e4-b78e-31a67af522c0"},"vehicle_type_id":"4","last_reported":1732674055,"current_range_meters":37600,"station_id":"ce4bhkp2rcd13ifvqgd0","pricing_plan_id":"cebpf4jnsgd1na2vs0mg"},{"bike_id":"947b4ae5-6d27-48cd-83df-1d5aa4a4dc55","system_id":"levelo_inurba_marseille","lat":43.24658,"lon":5.38183,"is_reserved":false,"is_disabled":false,"rental_uris":{"android":"levelo://app?vid=947b4ae5-6d27-48cd-83df-1d5aa4a4dc55","ios":"levelo://app?vid=947b4ae5-6d27-48cd-83df-1d5aa4a4dc55"},"vehicle_type_id":"4","last_reported":1732674055,"current_range_meters":31200,"station_id":"ce4bhih2rcd13ifvqfr0","pricing_plan_id":"cebpf4jnsgd1na2vs0mg"},{"bike_id":"ab7996a7-3e98-469a-8c3d-e7e311995a38","system_id":"levelo_inurba_marseille","lat":43.25726,"lon":5.41123,"is_reserved":false,"is_disabled":false,"rental_uris":{"android":"levelo://app?vid=ab7996a7-3e98-469a-8c3d-e7e311995a38","ios":"levelo://app?vid=ab7996a7-3e98-469a-8c3d-e7e311995a38"},"vehicle_type_id":"4","last_reported":1732674055,"current_range_meters":39200,"station_id":"ce4bhkp2rcd13ifvqgd0","pricing_plan_id":"cebpf4jnsgd1na2vs0mg"},{"bike_id":"10de435a-aad1-43a3-8ec0-4c3b2ed8ba07","system_id":"levelo_inurba_marseille","lat":43.3117,"lon":5.38708,"is_reserved":false,"is_disabled":false,"rental_uris":{"android":"levelo://app?vid=10de435a-aad1-43a3-8ec0-4c3b2ed8ba07","ios":"levelo://app?vid=10de435a-aad1-43a3-8ec0-4c3b2ed8ba07"},"vehicle_type_id":"4","last_reported":1732674055,"current_range_meters":36800,"station_id":"ce4bgv12rcd13ifvqcp0","pricing_plan_id":"cebpf4jnsgd1na2vs0mg"},{"bike_id":"0c86fb33-d7cf-435d-b7bd-9910df7b3782","system_id":"levelo_inurba_marseille","lat":43.29193,"lon":5.35813,"is_reserved":false,"is_disabled":false,"rental_uris":{"android":"levelo://app?vid=0c86fb33-d7cf-435d-b7bd-9910df7b3782","ios":"levelo://app?vid=0c86fb33-d7cf-435d-b7bd-9910df7b3782"},"vehicle_type_id":"4","last_reported":1732674055,"current_range_meters":37600,"station_id":"ce4bhb12rcd13ifvqel0","pricing_plan_id":"cebpf4jnsgd1na2vs0mg"},{"bike_id":"d7b4e41b-5ea8-4d2c-9fe2-df65bc6478d3","system_id":"levelo_inurba_marseille","lat":43.2481,"lon":5.37457,"is_reserved":false,"is_disabled":false,"rental_uris":{"android":"levelo://app?vid=d7b4e41b-5ea8-4d2c-9fe2-df65bc6478d3","ios":"levelo://app?vid=d7b4e41b-5ea8-4d2c-9fe2-df65bc6478d3"},"vehicle_type_id":"4","last_reported":1732674055,"current_range_meters":17600,"station_id":"ce4bhgh2rcd13ifvqfb0","pricing_plan_id":"cebpf4jnsgd1na2vs0mg"},{"bike_id":"ea05d9d6-8979-46e2-85b0-19a92c6440c3","system_id":"levelo_inurba_marseille","lat":43.28446,"lon":5.35884,"is_reserved":false,"is_disabled":false,"rental_uris":{"android":"levelo://app?vid=ea05d9d6-8979-46e2-85b0-19a92c6440c3","ios":"levelo://app?vid=ea05d9d6-8979-46e2-85b0-19a92c6440c3"},"vehicle_type_id":"4","last_reported":1732674055,"current_range_meters":26800,"station_id":"ce4bhah2rcd13ifvqei0","pricing_plan_id":"cebpf4jnsgd1na2vs0mg"},{"bike_id":"835a170b-9333-4a62-9af0-a89a87c1a309","system_id":"levelo_inurba_marseille","lat":43.24655,"lon":5.38155,"is_reserved":false,"is_disabled":false,"rental_uris":{"android":"levelo://app?vid=835a170b-9333-4a62-9af0-a89a87c1a309","ios":"levelo://app?vid=835a170b-9333-4a62-9af0-a89a87c1a309"},"vehicle_type_id":"4","last_reported":1732674055,"current_range_meters":10000,"station_id":"ce4bhih2rcd13ifvqfr0","pricing_plan_id":"cebpf4jnsgd1na2vs0mg"},{"bike_id":"830d6b87-87f9-4255-8695-a991d2800c7b","system_id":"levelo_inurba_marseille","lat":43.25578,"lon":5.38256,"is_reserved":false,"is_disabled":false,"rental_uris":{"android":"levelo://app?vid=830d6b87-87f9-4255-8695-a991d2800c7b","ios":"levelo://app?vid=830d6b87-87f9-4255-8695-a991d2800c7b"},"vehicle_type_id":"4","last_reported":1732674055,"current_range_meters":39200,"station_id":"ce4bhih2rcd13ifvqfs0","pricing_plan_id":"cebpf4jnsgd1na2vs0mg"},{"bike_id":"a96be017-c1b4-47a1-8837-0a89e8c43906","system_id":"levelo_inurba_marseille","lat":43.27818,"lon":5.40726,"is_reserved":false,"is_disabled":false,"rental_uris":{"android":"levelo://app?vid=a96be017-c1b4-47a1-8837-0a89e8c43906","ios":"levelo://app?vid=a96be017-c1b4-47a1-8837-0a89e8c43906"},"vehicle_type_id":"4","last_reported":1732674055,"current_range_meters":38800,"station_id":"ce4bhnh2rcd13ifvqgtg","pricing_plan_id":"cebpf4jnsgd1na2vs0mg"},{"bike_id":"dcdd3219-3a91-4c2a-ac8b-1c3e94c5cca6","system_id":"levelo_inurba_marseille","lat":43.308733,"lon":5.396423,"is_reserved":false,"is_disabled":false,"rental_uris":{"android":"levelo://app?vid=dcdd3219-3a91-4c2a-ac8b-1c3e94c5cca6","ios":"levelo://app?vid=dcdd3219-3a91-4c2a-ac8b-1c3e94c5cca6"},"vehicle_type_id":"4","last_reported":1732674055,"current_range_meters":39200,"station_id":"ce4bh012rcd13ifvqcv0","pricing_plan_id":"cebpf4jnsgd1na2vs0mg"},{"bike_id":"63275fb3-4dd2-41f4-a63d-1d6b25faf4dc","system_id":"levelo_inurba_marseille","lat":43.29045,"lon":5.35891,"is_reserved":false,"is_disabled":false,"rental_uris":{"android":"levelo://app?vid=63275fb3-4dd2-41f4-a63d-1d6b25faf4dc","ios":"levelo://app?vid=63275fb3-4dd2-41f4-a63d-1d6b25faf4dc"},"vehicle_type_id":"4","last_reported":1732674055,"current_range_meters":38000,"station_id":"ce4bha92rcd13ifvqeg0","pricing_plan_id":"cebpf4jnsgd1na2vs0mg"},{"bike_id":"519c024c-492e-476b-b78a-c6051e15e25a","system_id":"levelo_inurba_marseille","lat":43.31761,"lon":5.39032,"is_reserved":false,"is_disabled":false,"rental_uris":{"android":"levelo://app?vid=519c024c-492e-476b-b78a-c6051e15e25a","ios":"levelo://app?vid=519c024c-492e-476b-b78a-c6051e15e25a"},"vehicle_type_id":"4","last_reported":1732674055,"current_range_meters":39200,"station_id":"ce4bhqp2rcd13ifvqhng","pricing_plan_id":"cebpf4jnsgd1na2vs0mg"},{"bike_id":"ecdb3743-a3d9-4afc-bb51-ff07b746abac","system_id":"levelo_inurba_marseille","lat":43.29031,"lon":5.39993,"is_reserved":false,"is_disabled":true,"rental_uris":{"android":"levelo://app?vid=ecdb3743-a3d9-4afc-bb51-ff07b746abac","ios":"levelo://app?vid=ecdb3743-a3d9-4afc-bb51-ff07b746abac"},"vehicle_type_id":"4","last_reported":1732674055,"current_range_meters":38400,"station_id":"ce4bh392rcd13ifvqdm0","pricing_plan_id":"cebpf4jnsgd1na2vs0mg"},{"bike_id":"0a2d70bc-b761-4725-9e3d-6717bfcaa6cc","system_id":"levelo_inurba_marseille","lat":43.337444,"lon":5.374475,"is_reserved":false,"is_disabled":false,"rental_uris":{"android":"levelo://app?vid=0a2d70bc-b761-4725-9e3d-6717bfcaa6cc","ios":"levelo://app?vid=0a2d70bc-b761-4725-9e3d-6717bfcaa6cc"},"vehicle_type_id":"4","last_reported":1732674055,"current_range_meters":35600,"station_id":"","pricing_plan_id":"cebpf4jnsgd1na2vs0mg"},{"bike_id":"b3479e59-acbd-4cc9-9c90-f77a72c4b110","system_id":"levelo_inurba_marseille","lat":43.31744,"lon":5.39009,"is_reserved":false,"is_disabled":false,"rental_uris":{"android":"levelo://app?vid=b3479e59-acbd-4cc9-9c90-f77a72c4b110","ios":"levelo://app?vid=b3479e59-acbd-4cc9-9c90-f77a72c4b110"},"vehicle_type_id":"4","last_reported":1732674055,"current_range_meters":8400,"station_id":"ce4bhqp2rcd13ifvqhng","pricing_plan_id":"cebpf4jnsgd1na2vs0mg"},{"bike_id":"8e46b2c9-0288-44ad-a5dd-399cf4cb50ae","system_id":"levelo_inurba_marseille","lat":43.33615,"lon":5.41038,"is_reserved":false,"is_disabled":false,"rental_uris":{"android":"levelo://app?vid=8e46b2c9-0288-44ad-a5dd-399cf4cb50ae","ios":"levelo://app?vid=8e46b2c9-0288-44ad-a5dd-399cf4cb50ae"},"vehicle_type_id":"4","last_reported":1732674055,"current_range_meters":9200,"station_id":"ce4bhqh2rcd13ifvqhmg","pricing_plan_id":"cebpf4jnsgd1na2vs0mg"},{"bike_id":"820f12a0-cf28-488c-8a74-3f1b9d2e4db5","system_id":"levelo_inurba_marseille","lat":43.23068,"lon":5.35484,"is_reserved":false,"is_disabled":false,"rental_uris":{"android":"levelo://app?vid=820f12a0-cf28-488c-8a74-3f1b9d2e4db5","ios":"levelo://app?vid=820f12a0-cf28-488c-8a74-3f1b9d2e4db5"},"vehicle_type_id":"4","last_reported":1732674055,"current_range_meters":20800,"station_id":"cpo3342slgdg3j2ifvpg","pricing_plan_id":"cebpf4jnsgd1na2vs0mg"},{"bike_id":"563f55ce-6804-43ad-8afb-e9baaddbdbd0","system_id":"levelo_inurba_marseille","lat":43.25126,"lon":5.40313,"is_reserved":false,"is_disabled":false,"rental_uris":{"android":"levelo://app?vid=563f55ce-6804-43ad-8afb-e9baaddbdbd0","ios":"levelo://app?vid=563f55ce-6804-43ad-8afb-e9baaddbdbd0"},"vehicle_type_id":"4","last_reported":1732674055,"current_range_meters":39200,"station_id":"ce4bhlh2rcd13ifvqgig","pricing_plan_id":"cebpf4jnsgd1na2vs0mg"},{"bike_id":"043a72e8-0f32-43d1-b019-65c0557aa07e","system_id":"levelo_inurba_marseille","lat":43.2583,"lon":5.39422,"is_reserved":false,"is_disabled":false,"rental_uris":{"android":"levelo://app?vid=043a72e8-0f32-43d1-b019-65c0557aa07e","ios":"levelo://app?vid=043a72e8-0f32-43d1-b019-65c0557aa07e"},"vehicle_type_id":"4","last_reported":1732674055,"current_range_meters":38000,"station_id":"ce4bhip2rcd13ifvqft0","pricing_plan_id":"cebpf4jnsgd1na2vs0mg"},{"bike_id":"15c47ae6-5fda-4e52-aa1e-cdaf765e816b","system_id":"levelo_inurba_marseille","lat":43.28438,"lon":5.39177,"is_reserved":false,"is_disabled":false,"rental_uris":{"android":"levelo://app?vid=15c47ae6-5fda-4e52-aa1e-cdaf765e816b","ios":"levelo://app?vid=15c47ae6-5fda-4e52-aa1e-cdaf765e816b"},"vehicle_type_id":"4","last_reported":1732674055,"current_range_meters":34000,"station_id":"ce4bhoh2rcd13ifvqh5g","pricing_plan_id":"cebpf4jnsgd1na2vs0mg"},{"bike_id":"42098c83-9126-4d89-a011-0835a54e364c","system_id":"levelo_inurba_marseille","lat":43.32287,"lon":5.38289,"is_reserved":false,"is_disabled":false,"rental_uris":{"android":"levelo://app?vid=42098c83-9126-4d89-a011-0835a54e364c","ios":"levelo://app?vid=42098c83-9126-4d89-a011-0835a54e364c"},"vehicle_type_id":"4","last_reported":1732674055,"current_range_meters":9200,"station_id":"ce4bhr12rcd13ifvqhqg","pricing_plan_id":"cebpf4jnsgd1na2vs0mg"},{"bike_id":"0a3a07ba-6c70-4fc7-a686-936c4d76c056","system_id":"levelo_inurba_marseille","lat":43.28556,"lon":5.39504,"is_reserved":false,"is_disabled":false,"rental_uris":{"android":"levelo://app?vid=0a3a07ba-6c70-4fc7-a686-936c4d76c056","ios":"levelo://app?vid=0a3a07ba-6c70-4fc7-a686-936c4d76c056"},"vehicle_type_id":"4","last_reported":1732674055,"current_range_meters":38000,"station_id":"ce4bh292rcd13ifvqdg0","pricing_plan_id":"cebpf4jnsgd1na2vs0mg"},{"bike_id":"3451b272-9230-4dff-84d2-783314fd3bbb","system_id":"levelo_inurba_marseille","lat":43.25123,"lon":5.40338,"is_reserved":false,"is_disabled":true,"rental_uris":{"android":"levelo://app?vid=3451b272-9230-4dff-84d2-783314fd3bbb","ios":"levelo://app?vid=3451b272-9230-4dff-84d2-783314fd3bbb"},"vehicle_type_id":"4","last_reported":1732674055,"current_range_meters":0,"station_id":"ce4bhlh2rcd13ifvqgig","pricing_plan_id":"cebpf4jnsgd1na2vs0mg"},{"bike_id":"e4b0cdcb-67be-4389-b5ba-4fc73a6f16d7","system_id":"levelo_inurba_marseille","lat":43.28348,"lon":5.38113,"is_reserved":false,"is_disabled":false,"rental_uris":{"android":"levelo://app?vid=e4b0cdcb-67be-4389-b5ba-4fc73a6f16d7","ios":"levelo://app?vid=e4b0cdcb-67be-4389-b5ba-4fc73a6f16d7"},"vehicle_type_id":"4","last_reported":1732674055,"current_range_meters":38800,"station_id":"ce4bh412rcd13ifvqdr0","pricing_plan_id":"cebpf4jnsgd1na2vs0mg"},{"bike_id":"2f9b9b42-f665-4c1c-86a1-5a0ce40d3de2","system_id":"levelo_inurba_marseille","lat":43.32493,"lon":5.36576,"is_reserved":false,"is_disabled":true,"rental_uris":{"android":"levelo://app?vid=2f9b9b42-f665-4c1c-86a1-5a0ce40d3de2","ios":"levelo://app?vid=2f9b9b42-f665-4c1c-86a1-5a0ce40d3de2"},"vehicle_type_id":"4","last_reported":1732674055,"current_range_meters":27200,"station_id":"ce4bhs12rcd13ifvqhvg","pricing_plan_id":"cebpf4jnsgd1na2vs0mg"},{"bike_id":"33b8045d-fd1a-444f-8a40-a4ebaad2413b","system_id":"levelo_inurba_marseille","lat":43.25122,"lon":5.40322,"is_reserved":false,"is_disabled":false,"rental_uris":{"android":"levelo://app?vid=33b8045d-fd1a-444f-8a40-a4ebaad2413b","ios":"levelo://app?vid=33b8045d-fd1a-444f-8a40-a4ebaad2413b"},"vehicle_type_id":"4","last_reported":1732674055,"current_range_meters":37600,"station_id":"ce4bhlh2rcd13ifvqgig","pricing_plan_id":"cebpf4jnsgd1na2vs0mg"},{"bike_id":"103d6123-171f-44af-8025-a1d7c6f0de05","system_id":"levelo_inurba_marseille","lat":43.2996,"lon":5.41324,"is_reserved":false,"is_disabled":false,"rental_uris":{"android":"levelo://app?vid=103d6123-171f-44af-8025-a1d7c6f0de05","ios":"levelo://app?vid=103d6123-171f-44af-8025-a1d7c6f0de05"},"vehicle_type_id":"4","last_reported":1732674055,"current_range_meters":38400,"station_id":"ce4bhp12rcd13ifvqh9g","pricing_plan_id":"cebpf4jnsgd1na2vs0mg"},{"bike_id":"eab81c10-82ad-41ae-910c-927bcf79fc1f","system_id":"levelo_inurba_marseille","lat":43.30801,"lon":5.38162,"is_reserved":false,"is_disabled":false,"rental_uris":{"android":"levelo://app?vid=eab81c10-82ad-41ae-910c-927bcf79fc1f","ios":"levelo://app?vid=eab81c10-82ad-41ae-910c-927bcf79fc1f"},"vehicle_type_id":"4","last_reported":1732674055,"current_range_meters":39200,"station_id":"ce4bgt12rcd13ifvqce0","pricing_plan_id":"cebpf4jnsgd1na2vs0mg"},{"bike_id":"7a009fbe-d7fe-493a-927f-02ea89815712","system_id":"levelo_inurba_marseille","lat":43.30242,"lon":5.39466,"is_reserved":false,"is_disabled":false,"rental_uris":{"android":"levelo://app?vid=7a009fbe-d7fe-493a-927f-02ea89815712","ios":"levelo://app?vid=7a009fbe-d7fe-493a-927f-02ea89815712"},"vehicle_type_id":"4","last_reported":1732674055,"current_range_meters":36800,"station_id":"ce4bh0p2rcd13ifvqd70","pricing_plan_id":"cebpf4jnsgd1na2vs0mg"},{"bike_id":"7dddc6b3-bc71-4707-b97c-f58db65819c0","system_id":"levelo_inurba_marseille","lat":43.30133,"lon":5.37411,"is_reserved":false,"is_disabled":false,"rental_uris":{"android":"levelo://app?vid=7dddc6b3-bc71-4707-b97c-f58db65819c0","ios":"levelo://app?vid=7dddc6b3-bc71-4707-b97c-f58db65819c0"},"vehicle_type_id":"4","last_reported":1732674055,"current_range_meters":27200,"station_id":"ce4bgs92rcd13ifvqcc0","pricing_plan_id":"cebpf4jnsgd1na2vs0mg"},{"bike_id":"ef6a39b7-e6a6-4a91-aee1-cbf11610eb03","system_id":"levelo_inurba_marseille","lat":43.32378,"lon":5.38882,"is_reserved":false,"is_disabled":false,"rental_uris":{"android":"levelo://app?vid=ef6a39b7-e6a6-4a91-aee1-cbf11610eb03","ios":"levelo://app?vid=ef6a39b7-e6a6-4a91-aee1-cbf11610eb03"},"vehicle_type_id":"4","last_reported":1732674055,"current_range_meters":27600,"station_id":"ce4bhqp2rcd13ifvqhog","pricing_plan_id":"cebpf4jnsgd1na2vs0mg"},{"bike_id":"8cbb0878-6a10-472f-8cfe-82e6d1269102","system_id":"levelo_inurba_marseille","lat":43.28147,"lon":5.42654,"is_reserved":false,"is_disabled":false,"rental_uris":{"android":"levelo://app?vid=8cbb0878-6a10-472f-8cfe-82e6d1269102","ios":"levelo://app?vid=8cbb0878-6a10-472f-8cfe-82e6d1269102"},"vehicle_type_id":"4","last_reported":1732674055,"current_range_meters":32800,"station_id":"ce4bhnh2rcd13ifvqgug","pricing_plan_id":"cebpf4jnsgd1na2vs0mg"},{"bike_id":"287fa067-0159-4a80-8436-f002b330f07a","system_id":"levelo_inurba_marseille","lat":43.2707,"lon":5.42285,"is_reserved":false,"is_disabled":false,"rental_uris":{"android":"levelo://app?vid=287fa067-0159-4a80-8436-f002b330f07a","ios":"levelo://app?vid=287fa067-0159-4a80-8436-f002b330f07a"},"vehicle_type_id":"4","last_reported":1732674055,"current_range_meters":38800,"station_id":"ce4bhk92rcd13ifvqgb0","pricing_plan_id":"cebpf4jnsgd1na2vs0mg"},{"bike_id":"419a1e29-a409-4bdc-b732-67406caf7233","system_id":"levelo_inurba_marseille","lat":43.30433,"lon":5.38879,"is_reserved":false,"is_disabled":false,"rental_uris":{"android":"levelo://app?vid=419a1e29-a409-4bdc-b732-67406caf7233","ios":"levelo://app?vid=419a1e29-a409-4bdc-b732-67406caf7233"},"vehicle_type_id":"4","last_reported":1732674055,"current_range_meters":24400,"station_id":"ce4bgk12rcd13ifvqbi0","pricing_plan_id":"cebpf4jnsgd1na2vs0mg"},{"bike_id":"4d4c884f-6933-49c0-8899-f9856d90f44d","system_id":"levelo_inurba_marseille","lat":43.29728,"lon":5.38013,"is_reserved":false,"is_disabled":true,"rental_uris":{"android":"levelo://app?vid=4d4c884f-6933-49c0-8899-f9856d90f44d","ios":"levelo://app?vid=4d4c884f-6933-49c0-8899-f9856d90f44d"},"vehicle_type_id":"4","last_reported":1732674055,"current_range_meters":0,"station_id":"","pricing_plan_id":"cebpf4jnsgd1na2vs0mg"},{"bike_id":"8551af95-ea1e-4b17-a455-50ac7c8bdd55","system_id":"levelo_inurba_marseille","lat":43.30965,"lon":5.39058,"is_reserved":false,"is_disabled":false,"rental_uris":{"android":"levelo://app?vid=8551af95-ea1e-4b17-a455-50ac7c8bdd55","ios":"levelo://app?vid=8551af95-ea1e-4b17-a455-50ac7c8bdd55"},"vehicle_type_id":"4","last_reported":1732674055,"current_range_meters":36800,"station_id":"ce4bgup2rcd13ifvqco0","pricing_plan_id":"cebpf4jnsgd1na2vs0mg"},{"bike_id":"55339742-29d1-4563-81c8-46551a560258","system_id":"levelo_inurba_marseille","lat":43.28094,"lon":5.3785,"is_reserved":false,"is_disabled":false,"rental_uris":{"android":"levelo://app?vid=55339742-29d1-4563-81c8-46551a560258","ios":"levelo://app?vid=55339742-29d1-4563-81c8-46551a560258"},"vehicle_type_id":"4","last_reported":1732674055,"current_range_meters":33200,"station_id":"ce4bha12rcd13ifvqee0","pricing_plan_id":"cebpf4jnsgd1na2vs0mg"},{"bike_id":"85ad58f6-1962-47c9-867e-4d960b52d89c","system_id":"levelo_inurba_marseille","lat":43.29945,"lon":5.39772,"is_reserved":false,"is_disabled":false,"rental_uris":{"android":"levelo://app?vid=85ad58f6-1962-47c9-867e-4d960b52d89c","ios":"levelo://app?vid=85ad58f6-1962-47c9-867e-4d960b52d89c"},"vehicle_type_id":"4","last_reported":1732674055,"current_range_meters":38800,"station_id":"ce4bh0h2rcd13ifvqd50","pricing_plan_id":"cebpf4jnsgd1na2vs0mg"},{"bike_id":"f3ffd556-9cd2-4b11-88d2-d1e698fceed7","system_id":"levelo_inurba_marseille","lat":43.28086,"lon":5.39622,"is_reserved":false,"is_disabled":false,"rental_uris":{"android":"levelo://app?vid=f3ffd556-9cd2-4b11-88d2-d1e698fceed7","ios":"levelo://app?vid=f3ffd556-9cd2-4b11-88d2-d1e698fceed7"},"vehicle_type_id":"4","last_reported":1732674055,"current_range_meters":38800,"station_id":"ce4bho12rcd13ifvqh2g","pricing_plan_id":"cebpf4jnsgd1na2vs0mg"},{"bike_id":"0b59e005-4e42-47c9-a772-4603f8162a9b","system_id":"levelo_inurba_marseille","lat":43.27807,"lon":5.40698,"is_reserved":false,"is_disabled":false,"rental_uris":{"android":"levelo://app?vid=0b59e005-4e42-47c9-a772-4603f8162a9b","ios":"levelo://app?vid=0b59e005-4e42-47c9-a772-4603f8162a9b"},"vehicle_type_id":"4","last_reported":1732674055,"current_range_meters":38800,"station_id":"ce4bhnh2rcd13ifvqgtg","pricing_plan_id":"cebpf4jnsgd1na2vs0mg"},{"bike_id":"5001bb71-3eee-4da5-b32a-e07ff7493211","system_id":"levelo_inurba_marseille","lat":43.31324,"lon":5.39704,"is_reserved":false,"is_disabled":false,"rental_uris":{"android":"levelo://app?vid=5001bb71-3eee-4da5-b32a-e07ff7493211","ios":"levelo://app?vid=5001bb71-3eee-4da5-b32a-e07ff7493211"},"vehicle_type_id":"4","last_reported":1732674055,"current_range_meters":38800,"station_id":"ce4bgvp2rcd13ifvqcu0","pricing_plan_id":"cebpf4jnsgd1na2vs0mg"},{"bike_id":"20b3d934-42a7-42b9-bb49-0833cf2f0412","system_id":"levelo_inurba_marseille","lat":43.29305,"lon":5.37185,"is_reserved":false,"is_disabled":true,"rental_uris":{"android":"levelo://app?vid=20b3d934-42a7-42b9-bb49-0833cf2f0412","ios":"levelo://app?vid=20b3d934-42a7-42b9-bb49-0833cf2f0412"},"vehicle_type_id":"4","last_reported":1732674055,"current_range_meters":38800,"station_id":"ce4bgh92rcd13ifvqb40","pricing_plan_id":"cebpf4jnsgd1na2vs0mg"},{"bike_id":"83180126-4cf0-4abb-ad76-e641c55a3a11","system_id":"levelo_inurba_marseille","lat":43.2866,"lon":5.36369,"is_reserved":false,"is_disabled":false,"rental_uris":{"android":"levelo://app?vid=83180126-4cf0-4abb-ad76-e641c55a3a11","ios":"levelo://app?vid=83180126-4cf0-4abb-ad76-e641c55a3a11"},"vehicle_type_id":"4","last_reported":1732674055,"current_range_meters":27200,"station_id":"ce4bhah2rcd13ifvqej0","pricing_plan_id":"cebpf4jnsgd1na2vs0mg"},{"bike_id":"95267e9b-c4ab-4b9b-ab33-4dbc2dffbe3f","system_id":"levelo_inurba_marseille","lat":43.28515,"lon":5.38582,"is_reserved":false,"is_disabled":false,"rental_uris":{"android":"levelo://app?vid=95267e9b-c4ab-4b9b-ab33-4dbc2dffbe3f","ios":"levelo://app?vid=95267e9b-c4ab-4b9b-ab33-4dbc2dffbe3f"},"vehicle_type_id":"4","last_reported":1732674055,"current_range_meters":38000,"station_id":"ce4bh8p2rcd13ifvqeb0","pricing_plan_id":"cebpf4jnsgd1na2vs0mg"},{"bike_id":"e023ff32-6c4f-4673-a7aa-5fcdbec26d0f","system_id":"levelo_inurba_marseille","lat":43.28857,"lon":5.35844,"is_reserved":false,"is_disabled":true,"rental_uris":{"android":"levelo://app?vid=e023ff32-6c4f-4673-a7aa-5fcdbec26d0f","ios":"levelo://app?vid=e023ff32-6c4f-4673-a7aa-5fcdbec26d0f"},"vehicle_type_id":"4","last_reported":1732674055,"current_range_meters":26800,"station_id":"ce4bhb12rcd13ifvqem0","pricing_plan_id":"cebpf4jnsgd1na2vs0mg"},{"bike_id":"22c0168c-678d-471b-9881-7150f7db9bb9","system_id":"levelo_inurba_marseille","lat":43.31746,"lon":5.39024,"is_reserved":false,"is_disabled":false,"rental_uris":{"android":"levelo://app?vid=22c0168c-678d-471b-9881-7150f7db9bb9","ios":"levelo://app?vid=22c0168c-678d-471b-9881-7150f7db9bb9"},"vehicle_type_id":"4","last_reported":1732674055,"current_range_meters":21600,"station_id":"ce4bhqp2rcd13ifvqhng","pricing_plan_id":"cebpf4jnsgd1na2vs0mg"},{"bike_id":"f9ca3389-f0b0-42e9-b890-7ec20aa8d35e","system_id":"levelo_inurba_marseille","lat":43.29277,"lon":5.36837,"is_reserved":false,"is_disabled":true,"rental_uris":{"android":"levelo://app?vid=f9ca3389-f0b0-42e9-b890-7ec20aa8d35e","ios":"levelo://app?vid=f9ca3389-f0b0-42e9-b890-7ec20aa8d35e"},"vehicle_type_id":"4","last_reported":1732674055,"current_range_meters":14000,"station_id":"ce4bhbp2rcd13ifvqesg","pricing_plan_id":"cebpf4jnsgd1na2vs0mg"},{"bike_id":"4d809776-4d2b-4bf5-8aa6-666b5b1fd18f","system_id":"levelo_inurba_marseille","lat":43.33731,"lon":5.39188,"is_reserved":false,"is_disabled":false,"rental_uris":{"android":"levelo://app?vid=4d809776-4d2b-4bf5-8aa6-666b5b1fd18f","ios":"levelo://app?vid=4d809776-4d2b-4bf5-8aa6-666b5b1fd18f"},"vehicle_type_id":"4","last_reported":1732674055,"current_range_meters":38800,"station_id":"ce4bhr92rcd13ifvqhsg","pricing_plan_id":"cebpf4jnsgd1na2vs0mg"},{"bike_id":"b80db3ef-68b8-40cd-be1c-ce27d7b819cb","system_id":"levelo_inurba_marseille","lat":43.30895,"lon":5.37204,"is_reserved":false,"is_disabled":false,"rental_uris":{"android":"levelo://app?vid=b80db3ef-68b8-40cd-be1c-ce27d7b819cb","ios":"levelo://app?vid=b80db3ef-68b8-40cd-be1c-ce27d7b819cb"},"vehicle_type_id":"4","last_reported":1732674055,"current_range_meters":38800,"station_id":"ce4bguh2rcd13ifvqckg","pricing_plan_id":"cebpf4jnsgd1na2vs0mg"},{"bike_id":"643b748a-7653-4b03-af68-5fed57b7faeb","system_id":"levelo_inurba_marseille","lat":43.29695,"lon":5.36602,"is_reserved":false,"is_disabled":false,"rental_uris":{"android":"levelo://app?vid=643b748a-7653-4b03-af68-5fed57b7faeb","ios":"levelo://app?vid=643b748a-7653-4b03-af68-5fed57b7faeb"},"vehicle_type_id":"4","last_reported":1732674055,"current_range_meters":38000,"station_id":"ce4bgn12rcd13ifvqbt0","pricing_plan_id":"cebpf4jnsgd1na2vs0mg"},{"bike_id":"5817161f-5d63-41b2-92c0-c94f8059d60c","system_id":"levelo_inurba_marseille","lat":43.33811,"lon":5.37425,"is_reserved":false,"is_disabled":false,"rental_uris":{"android":"levelo://app?vid=5817161f-5d63-41b2-92c0-c94f8059d60c","ios":"levelo://app?vid=5817161f-5d63-41b2-92c0-c94f8059d60c"},"vehicle_type_id":"4","last_reported":1732674055,"current_range_meters":38400,"station_id":"","pricing_plan_id":"cebpf4jnsgd1na2vs0mg"},{"bike_id":"546136ed-c1c3-4d73-b4c6-2ffa4b1b222b","system_id":"levelo_inurba_marseille","lat":43.31709,"lon":5.42437,"is_reserved":false,"is_disabled":false,"rental_uris":{"android":"levelo://app?vid=546136ed-c1c3-4d73-b4c6-2ffa4b1b222b","ios":"levelo://app?vid=546136ed-c1c3-4d73-b4c6-2ffa4b1b222b"},"vehicle_type_id":"4","last_reported":1732674055,"current_range_meters":38800,"station_id":"ce4bhp92rcd13ifvqhbg","pricing_plan_id":"cebpf4jnsgd1na2vs0mg"},{"bike_id":"a39548b4-21b3-49f1-b19a-4edf06e549d9","system_id":"levelo_inurba_marseille","lat":43.24669,"lon":5.38169,"is_reserved":false,"is_disabled":false,"rental_uris":{"android":"levelo://app?vid=a39548b4-21b3-49f1-b19a-4edf06e549d9","ios":"levelo://app?vid=a39548b4-21b3-49f1-b19a-4edf06e549d9"},"vehicle_type_id":"4","last_reported":1732674055,"current_range_meters":38400,"station_id":"ce4bhih2rcd13ifvqfr0","pricing_plan_id":"cebpf4jnsgd1na2vs0mg"},{"bike_id":"89d3adbc-8c70-413f-8488-75b105f8d0ff","system_id":"levelo_inurba_marseille","lat":43.28448,"lon":5.39182,"is_reserved":false,"is_disabled":false,"rental_uris":{"android":"levelo://app?vid=89d3adbc-8c70-413f-8488-75b105f8d0ff","ios":"levelo://app?vid=89d3adbc-8c70-413f-8488-75b105f8d0ff"},"vehicle_type_id":"4","last_reported":1732674055,"current_range_meters":34800,"station_id":"ce4bhoh2rcd13ifvqh5g","pricing_plan_id":"cebpf4jnsgd1na2vs0mg"},{"bike_id":"5d636e26-9bd0-4f95-ae1d-b185cca1e971","system_id":"levelo_inurba_marseille","lat":43.32479,"lon":5.36603,"is_reserved":false,"is_disabled":false,"rental_uris":{"android":"levelo://app?vid=5d636e26-9bd0-4f95-ae1d-b185cca1e971","ios":"levelo://app?vid=5d636e26-9bd0-4f95-ae1d-b185cca1e971"},"vehicle_type_id":"4","last_reported":1732674055,"current_range_meters":36400,"station_id":"ce4bhs12rcd13ifvqhvg","pricing_plan_id":"cebpf4jnsgd1na2vs0mg"},{"bike_id":"907a7adc-30d0-44e2-b867-428fe5831861","system_id":"levelo_inurba_marseille","lat":43.23963,"lon":5.36629,"is_reserved":false,"is_disabled":false,"rental_uris":{"android":"levelo://app?vid=907a7adc-30d0-44e2-b867-428fe5831861","ios":"levelo://app?vid=907a7adc-30d0-44e2-b867-428fe5831861"},"vehicle_type_id":"4","last_reported":1732674055,"current_range_meters":39200,"station_id":"ce4bhi12rcd13ifvqfp0","pricing_plan_id":"cebpf4jnsgd1na2vs0mg"},{"bike_id":"9f3336f6-205c-487c-b4db-85f8db3f7ce0","system_id":"levelo_inurba_marseille","lat":43.24693,"lon":5.382,"is_reserved":false,"is_disabled":false,"rental_uris":{"android":"levelo://app?vid=9f3336f6-205c-487c-b4db-85f8db3f7ce0","ios":"levelo://app?vid=9f3336f6-205c-487c-b4db-85f8db3f7ce0"},"vehicle_type_id":"4","last_reported":1732674055,"current_range_meters":38800,"station_id":"ce4bhih2rcd13ifvqfr0","pricing_plan_id":"cebpf4jnsgd1na2vs0mg"},{"bike_id":"2e638509-d4c2-4e15-a097-0bd7b43115a9","system_id":"levelo_inurba_marseille","lat":43.31283,"lon":5.40182,"is_reserved":false,"is_disabled":false,"rental_uris":{"android":"levelo://app?vid=2e638509-d4c2-4e15-a097-0bd7b43115a9","ios":"levelo://app?vid=2e638509-d4c2-4e15-a097-0bd7b43115a9"},"vehicle_type_id":"4","last_reported":1732674055,"current_range_meters":38400,"station_id":"ce4bh092rcd13ifvqd30","pricing_plan_id":"cebpf4jnsgd1na2vs0mg"},{"bike_id":"bb61ac50-22fe-46f6-a901-b29181bd2c76","system_id":"levelo_inurba_marseille","lat":43.31364,"lon":5.38503,"is_reserved":false,"is_disabled":false,"rental_uris":{"android":"levelo://app?vid=bb61ac50-22fe-46f6-a901-b29181bd2c76","ios":"levelo://app?vid=bb61ac50-22fe-46f6-a901-b29181bd2c76"},"vehicle_type_id":"4","last_reported":1732674055,"current_range_meters":17200,"station_id":"ce4bgt92rcd13ifvqcf0","pricing_plan_id":"cebpf4jnsgd1na2vs0mg"},{"bike_id":"7201e0cf-a992-4041-bacd-04ce15cb4f7c","system_id":"levelo_inurba_marseille","lat":43.26216,"lon":5.37452,"is_reserved":false,"is_disabled":false,"rental_uris":{"android":"levelo://app?vid=7201e0cf-a992-4041-bacd-04ce15cb4f7c","ios":"levelo://app?vid=7201e0cf-a992-4041-bacd-04ce15cb4f7c"},"vehicle_type_id":"4","last_reported":1732674055,"current_range_meters":38800,"station_id":"ce4bhgp2rcd13ifvqfc0","pricing_plan_id":"cebpf4jnsgd1na2vs0mg"},{"bike_id":"5f60bd09-ca4b-4eaa-a808-cc895fde7bba","system_id":"levelo_inurba_marseille","lat":43.28412,"lon":5.37499,"is_reserved":false,"is_disabled":false,"rental_uris":{"android":"levelo://app?vid=5f60bd09-ca4b-4eaa-a808-cc895fde7bba","ios":"levelo://app?vid=5f60bd09-ca4b-4eaa-a808-cc895fde7bba"},"vehicle_type_id":"4","last_reported":1732674055,"current_range_meters":19600,"station_id":"ce4bh412rcd13ifvqds0","pricing_plan_id":"cebpf4jnsgd1na2vs0mg"},{"bike_id":"674df4ab-5b72-443e-a3da-efdec3ddef4f","system_id":"levelo_inurba_marseille","lat":43.31493,"lon":5.373,"is_reserved":false,"is_disabled":false,"rental_uris":{"android":"levelo://app?vid=674df4ab-5b72-443e-a3da-efdec3ddef4f","ios":"levelo://app?vid=674df4ab-5b72-443e-a3da-efdec3ddef4f"},"vehicle_type_id":"4","last_reported":1732674055,"current_range_meters":6800,"station_id":"ce4bgt12rcd13ifvqcd0","pricing_plan_id":"cebpf4jnsgd1na2vs0mg"},{"bike_id":"ebba3546-4cc2-46cf-89c2-e1c5c89f5432","system_id":"levelo_inurba_marseille","lat":43.2586,"lon":5.3991,"is_reserved":false,"is_disabled":false,"rental_uris":{"android":"levelo://app?vid=ebba3546-4cc2-46cf-89c2-e1c5c89f5432","ios":"levelo://app?vid=ebba3546-4cc2-46cf-89c2-e1c5c89f5432"},"vehicle_type_id":"4","last_reported":1732674055,"current_range_meters":38800,"station_id":"ce4bhl92rcd13ifvqghg","pricing_plan_id":"cebpf4jnsgd1na2vs0mg"},{"bike_id":"dc473ea1-cb7e-4df1-8bc2-7f7c75206904","system_id":"levelo_inurba_marseille","lat":43.2465,"lon":5.38892,"is_reserved":false,"is_disabled":false,"rental_uris":{"android":"levelo://app?vid=dc473ea1-cb7e-4df1-8bc2-7f7c75206904","ios":"levelo://app?vid=dc473ea1-cb7e-4df1-8bc2-7f7c75206904"},"vehicle_type_id":"4","last_reported":1732674055,"current_range_meters":30400,"station_id":"ce4bhg12rcd13ifvqf60","pricing_plan_id":"cebpf4jnsgd1na2vs0mg"},{"bike_id":"0cd7fb1f-f090-4e80-a2fb-03510d2b2219","system_id":"levelo_inurba_marseille","lat":43.29576,"lon":5.37489,"is_reserved":false,"is_disabled":true,"rental_uris":{"android":"levelo://app?vid=0cd7fb1f-f090-4e80-a2fb-03510d2b2219","ios":"levelo://app?vid=0cd7fb1f-f090-4e80-a2fb-03510d2b2219"},"vehicle_type_id":"4","last_reported":1732674055,"current_range_meters":28400,"station_id":"ce4bgh92rcd13ifvqb50","pricing_plan_id":"cebpf4jnsgd1na2vs0mg"},{"bike_id":"8b8b52b9-1d01-45b3-a51d-9242a1a257c1","system_id":"levelo_inurba_marseille","lat":43.29035,"lon":5.3591,"is_reserved":false,"is_disabled":false,"rental_uris":{"android":"levelo://app?vid=8b8b52b9-1d01-45b3-a51d-9242a1a257c1","ios":"levelo://app?vid=8b8b52b9-1d01-45b3-a51d-9242a1a257c1"},"vehicle_type_id":"4","last_reported":1732674055,"current_range_meters":36400,"station_id":"ce4bha92rcd13ifvqeg0","pricing_plan_id":"cebpf4jnsgd1na2vs0mg"},{"bike_id":"f8cecc01-c100-4297-b07c-016f62c77456","system_id":"levelo_inurba_marseille","lat":43.27888,"lon":5.38012,"is_reserved":false,"is_disabled":false,"rental_uris":{"android":"levelo://app?vid=f8cecc01-c100-4297-b07c-016f62c77456","ios":"levelo://app?vid=f8cecc01-c100-4297-b07c-016f62c77456"},"vehicle_type_id":"4","last_reported":1732674055,"current_range_meters":39200,"station_id":"ce4bhf92rcd13ifvqf50","pricing_plan_id":"cebpf4jnsgd1na2vs0mg"},{"bike_id":"b77fabb2-bd54-449c-af02-b0fd68ac1c04","system_id":"levelo_inurba_marseille","lat":43.27818,"lon":5.4071,"is_reserved":false,"is_disabled":true,"rental_uris":{"android":"levelo://app?vid=b77fabb2-bd54-449c-af02-b0fd68ac1c04","ios":"levelo://app?vid=b77fabb2-bd54-449c-af02-b0fd68ac1c04"},"vehicle_type_id":"4","last_reported":1732674055,"current_range_meters":2000,"station_id":"ce4bhnh2rcd13ifvqgtg","pricing_plan_id":"cebpf4jnsgd1na2vs0mg"},{"bike_id":"afec7923-bb94-4d10-aee5-c8a044b181fe","system_id":"levelo_inurba_marseille","lat":43.336057,"lon":5.410357,"is_reserved":false,"is_disabled":false,"rental_uris":{"android":"levelo://app?vid=afec7923-bb94-4d10-aee5-c8a044b181fe","ios":"levelo://app?vid=afec7923-bb94-4d10-aee5-c8a044b181fe"},"vehicle_type_id":"4","last_reported":1732674055,"current_range_meters":36000,"station_id":"","pricing_plan_id":"cebpf4jnsgd1na2vs0mg"},{"bike_id":"b96b93ca-a597-434c-a94f-c8450f9327b3","system_id":"levelo_inurba_marseille","lat":43.25865,"lon":5.39897,"is_reserved":false,"is_disabled":false,"rental_uris":{"android":"levelo://app?vid=b96b93ca-a597-434c-a94f-c8450f9327b3","ios":"levelo://app?vid=b96b93ca-a597-434c-a94f-c8450f9327b3"},"vehicle_type_id":"4","last_reported":1732674055,"current_range_meters":39200,"station_id":"ce4bhl92rcd13ifvqghg","pricing_plan_id":"cebpf4jnsgd1na2vs0mg"},{"bike_id":"182d83f8-e1ac-4212-b9e0-e3deabd469da","system_id":"levelo_inurba_marseille","lat":43.23194,"lon":5.39981,"is_reserved":false,"is_disabled":false,"rental_uris":{"android":"levelo://app?vid=182d83f8-e1ac-4212-b9e0-e3deabd469da","ios":"levelo://app?vid=182d83f8-e1ac-4212-b9e0-e3deabd469da"},"vehicle_type_id":"4","last_reported":1732674055,"current_range_meters":11200,"station_id":"ce4bhn12rcd13ifvqgqg","pricing_plan_id":"cebpf4jnsgd1na2vs0mg"},{"bike_id":"6a243988-d267-4e1e-bafc-c091870de6a8","system_id":"levelo_inurba_marseille","lat":43.24171,"lon":5.36409,"is_reserved":false,"is_disabled":false,"rental_uris":{"android":"levelo://app?vid=6a243988-d267-4e1e-bafc-c091870de6a8","ios":"levelo://app?vid=6a243988-d267-4e1e-bafc-c091870de6a8"},"vehicle_type_id":"4","last_reported":1732674055,"current_range_meters":36800,"station_id":"cpo36qri1sfpv3e86is0","pricing_plan_id":"cebpf4jnsgd1na2vs0mg"},{"bike_id":"2c815dcc-9d68-4c42-a3f8-be9c60feec54","system_id":"levelo_inurba_marseille","lat":43.26934,"lon":5.40261,"is_reserved":false,"is_disabled":false,"rental_uris":{"android":"levelo://app?vid=2c815dcc-9d68-4c42-a3f8-be9c60feec54","ios":"levelo://app?vid=2c815dcc-9d68-4c42-a3f8-be9c60feec54"},"vehicle_type_id":"4","last_reported":1732674055,"current_range_meters":38800,"station_id":"cjm6bp8fraef2m0cb0m0","pricing_plan_id":"cebpf4jnsgd1na2vs0mg"},{"bike_id":"32cbe6aa-217f-475e-8d89-7b3ea1a39381","system_id":"levelo_inurba_marseille","lat":43.32937,"lon":5.39157,"is_reserved":false,"is_disabled":false,"rental_uris":{"android":"levelo://app?vid=32cbe6aa-217f-475e-8d89-7b3ea1a39381","ios":"levelo://app?vid=32cbe6aa-217f-475e-8d89-7b3ea1a39381"},"vehicle_type_id":"4","last_reported":1732674055,"current_range_meters":10800,"station_id":"ce4bhr92rcd13ifvqhrg","pricing_plan_id":"cebpf4jnsgd1na2vs0mg"},{"bike_id":"8d7fb948-8394-45df-85f4-38659c7c1984","system_id":"levelo_inurba_marseille","lat":43.24649,"lon":5.38898,"is_reserved":false,"is_disabled":false,"rental_uris":{"android":"levelo://app?vid=8d7fb948-8394-45df-85f4-38659c7c1984","ios":"levelo://app?vid=8d7fb948-8394-45df-85f4-38659c7c1984"},"vehicle_type_id":"4","last_reported":1732674055,"current_range_meters":14400,"station_id":"ce4bhg12rcd13ifvqf60","pricing_plan_id":"cebpf4jnsgd1na2vs0mg"},{"bike_id":"82d9c03a-6f43-4338-8c7b-2b9ac3a50f16","system_id":"levelo_inurba_marseille","lat":43.28929,"lon":5.3666,"is_reserved":false,"is_disabled":true,"rental_uris":{"android":"levelo://app?vid=82d9c03a-6f43-4338-8c7b-2b9ac3a50f16","ios":"levelo://app?vid=82d9c03a-6f43-4338-8c7b-2b9ac3a50f16"},"vehicle_type_id":"4","last_reported":1732674055,"current_range_meters":24400,"station_id":"ce4bhap2rcd13ifvqek0","pricing_plan_id":"cebpf4jnsgd1na2vs0mg"},{"bike_id":"39b04c21-6a6a-40a7-a489-741c2b67c9bd","system_id":"levelo_inurba_marseille","lat":43.33738,"lon":5.39182,"is_reserved":false,"is_disabled":false,"rental_uris":{"android":"levelo://app?vid=39b04c21-6a6a-40a7-a489-741c2b67c9bd","ios":"levelo://app?vid=39b04c21-6a6a-40a7-a489-741c2b67c9bd"},"vehicle_type_id":"4","last_reported":1732674055,"current_range_meters":12400,"station_id":"ce4bhr92rcd13ifvqhsg","pricing_plan_id":"cebpf4jnsgd1na2vs0mg"},{"bike_id":"da499228-a122-4ef7-8dcf-c3a40f3557ba","system_id":"levelo_inurba_marseille","lat":43.28867,"lon":5.35877,"is_reserved":false,"is_disabled":false,"rental_uris":{"android":"levelo://app?vid=da499228-a122-4ef7-8dcf-c3a40f3557ba","ios":"levelo://app?vid=da499228-a122-4ef7-8dcf-c3a40f3557ba"},"vehicle_type_id":"4","last_reported":1732674055,"current_range_meters":27200,"station_id":"ce4bhb12rcd13ifvqem0","pricing_plan_id":"cebpf4jnsgd1na2vs0mg"},{"bike_id":"1fa2d81f-1883-4991-a02b-1a8e3a64fecf","system_id":"levelo_inurba_marseille","lat":43.28827,"lon":5.35872,"is_reserved":false,"is_disabled":false,"rental_uris":{"android":"levelo://app?vid=1fa2d81f-1883-4991-a02b-1a8e3a64fecf","ios":"levelo://app?vid=1fa2d81f-1883-4991-a02b-1a8e3a64fecf"},"vehicle_type_id":"4","last_reported":1732674055,"current_range_meters":32400,"station_id":"ce4bhb12rcd13ifvqem0","pricing_plan_id":"cebpf4jnsgd1na2vs0mg"},{"bike_id":"3661ba76-5df4-4da2-a023-30b8178c9761","system_id":"levelo_inurba_marseille","lat":43.29549,"lon":5.42266,"is_reserved":false,"is_disabled":false,"rental_uris":{"android":"levelo://app?vid=3661ba76-5df4-4da2-a023-30b8178c9761","ios":"levelo://app?vid=3661ba76-5df4-4da2-a023-30b8178c9761"},"vehicle_type_id":"4","last_reported":1732674055,"current_range_meters":37600,"station_id":"ce4bhph2rcd13ifvqhdg","pricing_plan_id":"cebpf4jnsgd1na2vs0mg"},{"bike_id":"aaabd233-f07a-4d18-bea7-b9a035fdaedc","system_id":"levelo_inurba_marseille","lat":43.30809,"lon":5.43529,"is_reserved":false,"is_disabled":false,"rental_uris":{"android":"levelo://app?vid=aaabd233-f07a-4d18-bea7-b9a035fdaedc","ios":"levelo://app?vid=aaabd233-f07a-4d18-bea7-b9a035fdaedc"},"vehicle_type_id":"4","last_reported":1732674055,"current_range_meters":16400,"station_id":"ce4bhph2rcd13ifvqheg","pricing_plan_id":"cebpf4jnsgd1na2vs0mg"},{"bike_id":"e26d0981-24f1-43fe-b7af-bb6dae750240","system_id":"levelo_inurba_marseille","lat":43.31265,"lon":5.40169,"is_reserved":false,"is_disabled":false,"rental_uris":{"android":"levelo://app?vid=e26d0981-24f1-43fe-b7af-bb6dae750240","ios":"levelo://app?vid=e26d0981-24f1-43fe-b7af-bb6dae750240"},"vehicle_type_id":"4","last_reported":1732674055,"current_range_meters":39200,"station_id":"ce4bh092rcd13ifvqd30","pricing_plan_id":"cebpf4jnsgd1na2vs0mg"},{"bike_id":"7d51e624-0ea6-4353-a684-c3afe6c0bb90","system_id":"levelo_inurba_marseille","lat":43.2559,"lon":5.38249,"is_reserved":false,"is_disabled":false,"rental_uris":{"android":"levelo://app?vid=7d51e624-0ea6-4353-a684-c3afe6c0bb90","ios":"levelo://app?vid=7d51e624-0ea6-4353-a684-c3afe6c0bb90"},"vehicle_type_id":"4","last_reported":1732674055,"current_range_meters":38800,"station_id":"ce4bhih2rcd13ifvqfs0","pricing_plan_id":"cebpf4jnsgd1na2vs0mg"},{"bike_id":"8edeeb24-d361-4ae0-81a4-17af8692ba49","system_id":"levelo_inurba_marseille","lat":43.28699,"lon":5.39991,"is_reserved":false,"is_disabled":false,"rental_uris":{"android":"levelo://app?vid=8edeeb24-d361-4ae0-81a4-17af8692ba49","ios":"levelo://app?vid=8edeeb24-d361-4ae0-81a4-17af8692ba49"},"vehicle_type_id":"4","last_reported":1732674055,"current_range_meters":39200,"station_id":"ce4bho92rcd13ifvqh3g","pricing_plan_id":"cebpf4jnsgd1na2vs0mg"},{"bike_id":"704ddb11-043f-474f-a260-926d75682a49","system_id":"levelo_inurba_marseille","lat":43.29807,"lon":5.40453,"is_reserved":false,"is_disabled":false,"rental_uris":{"android":"levelo://app?vid=704ddb11-043f-474f-a260-926d75682a49","ios":"levelo://app?vid=704ddb11-043f-474f-a260-926d75682a49"},"vehicle_type_id":"4","last_reported":1732674055,"current_range_meters":39200,"station_id":"ce4bh112rcd13ifvqd90","pricing_plan_id":"cebpf4jnsgd1na2vs0mg"},{"bike_id":"ec67f2e6-2c78-4be6-a42b-19eafc1c3ce3","system_id":"levelo_inurba_marseille","lat":43.29256,"lon":5.40901,"is_reserved":false,"is_disabled":false,"rental_uris":{"android":"levelo://app?vid=ec67f2e6-2c78-4be6-a42b-19eafc1c3ce3","ios":"levelo://app?vid=ec67f2e6-2c78-4be6-a42b-19eafc1c3ce3"},"vehicle_type_id":"4","last_reported":1732674055,"current_range_meters":9600,"station_id":"ce4bh192rcd13ifvqdc0","pricing_plan_id":"cebpf4jnsgd1na2vs0mg"},{"bike_id":"e6b6ed62-a985-43be-a221-3aaa72f8a1db","system_id":"levelo_inurba_marseille","lat":43.27971,"lon":5.38737,"is_reserved":false,"is_disabled":false,"rental_uris":{"android":"levelo://app?vid=e6b6ed62-a985-43be-a221-3aaa72f8a1db","ios":"levelo://app?vid=e6b6ed62-a985-43be-a221-3aaa72f8a1db"},"vehicle_type_id":"4","last_reported":1732674055,"current_range_meters":38800,"station_id":"ce4bhg12rcd13ifvqf80","pricing_plan_id":"cebpf4jnsgd1na2vs0mg"},{"bike_id":"6eb165ac-2a63-464b-982d-3fb7f9449104","system_id":"levelo_inurba_marseille","lat":43.30934,"lon":5.40147,"is_reserved":false,"is_disabled":false,"rental_uris":{"android":"levelo://app?vid=6eb165ac-2a63-464b-982d-3fb7f9449104","ios":"levelo://app?vid=6eb165ac-2a63-464b-982d-3fb7f9449104"},"vehicle_type_id":"4","last_reported":1732674055,"current_range_meters":32000,"station_id":"ce4bgvp2rcd13ifvqct0","pricing_plan_id":"cebpf4jnsgd1na2vs0mg"},{"bike_id":"3b2ddd61-7276-4381-b067-2a88d42fe9ff","system_id":"levelo_inurba_marseille","lat":43.28254,"lon":5.35082,"is_reserved":false,"is_disabled":false,"rental_uris":{"android":"levelo://app?vid=3b2ddd61-7276-4381-b067-2a88d42fe9ff","ios":"levelo://app?vid=3b2ddd61-7276-4381-b067-2a88d42fe9ff"},"vehicle_type_id":"4","last_reported":1732674055,"current_range_meters":16800,"station_id":"ce4bhbp2rcd13ifvqerg","pricing_plan_id":"cebpf4jnsgd1na2vs0mg"},{"bike_id":"3faca838-929a-408e-bcba-41512aacc531","system_id":"levelo_inurba_marseille","lat":43.280778,"lon":5.39661,"is_reserved":false,"is_disabled":false,"rental_uris":{"android":"levelo://app?vid=3faca838-929a-408e-bcba-41512aacc531","ios":"levelo://app?vid=3faca838-929a-408e-bcba-41512aacc531"},"vehicle_type_id":"4","last_reported":1732674055,"current_range_meters":8000,"station_id":"ce4bho12rcd13ifvqh2g","pricing_plan_id":"cebpf4jnsgd1na2vs0mg"},{"bike_id":"36296f5c-0176-4be0-97c8-7930cda9c369","system_id":"levelo_inurba_marseille","lat":43.32108,"lon":5.36791,"is_reserved":false,"is_disabled":false,"rental_uris":{"android":"levelo://app?vid=36296f5c-0176-4be0-97c8-7930cda9c369","ios":"levelo://app?vid=36296f5c-0176-4be0-97c8-7930cda9c369"},"vehicle_type_id":"4","last_reported":1732674055,"current_range_meters":18000,"station_id":"ce4bhrh2rcd13ifvqhug","pricing_plan_id":"cebpf4jnsgd1na2vs0mg"},{"bike_id":"87a67757-30e9-48f9-acc0-db5ea929da65","system_id":"levelo_inurba_marseille","lat":43.28432,"lon":5.37493,"is_reserved":false,"is_disabled":false,"rental_uris":{"android":"levelo://app?vid=87a67757-30e9-48f9-acc0-db5ea929da65","ios":"levelo://app?vid=87a67757-30e9-48f9-acc0-db5ea929da65"},"vehicle_type_id":"4","last_reported":1732674055,"current_range_meters":32000,"station_id":"ce4bh412rcd13ifvqds0","pricing_plan_id":"cebpf4jnsgd1na2vs0mg"},{"bike_id":"ae98c5ce-6a84-4f2d-b974-736637de16e0","system_id":"levelo_inurba_marseille","lat":43.31186,"lon":5.38704,"is_reserved":false,"is_disabled":false,"rental_uris":{"android":"levelo://app?vid=ae98c5ce-6a84-4f2d-b974-736637de16e0","ios":"levelo://app?vid=ae98c5ce-6a84-4f2d-b974-736637de16e0"},"vehicle_type_id":"4","last_reported":1732674055,"current_range_meters":29600,"station_id":"ce4bgv12rcd13ifvqcp0","pricing_plan_id":"cebpf4jnsgd1na2vs0mg"},{"bike_id":"152a00dc-effe-46e0-a4c0-060ff5f1997e","system_id":"levelo_inurba_marseille","lat":43.30797,"lon":5.3817,"is_reserved":false,"is_disabled":false,"rental_uris":{"android":"levelo://app?vid=152a00dc-effe-46e0-a4c0-060ff5f1997e","ios":"levelo://app?vid=152a00dc-effe-46e0-a4c0-060ff5f1997e"},"vehicle_type_id":"4","last_reported":1732674055,"current_range_meters":37600,"station_id":"ce4bgt12rcd13ifvqce0","pricing_plan_id":"cebpf4jnsgd1na2vs0mg"},{"bike_id":"5a64147f-da9a-40cb-a940-153001e1f291","system_id":"levelo_inurba_marseille","lat":43.29799,"lon":5.38205,"is_reserved":false,"is_disabled":true,"rental_uris":{"android":"levelo://app?vid=5a64147f-da9a-40cb-a940-153001e1f291","ios":"levelo://app?vid=5a64147f-da9a-40cb-a940-153001e1f291"},"vehicle_type_id":"4","last_reported":1732674055,"current_range_meters":28800,"station_id":"","pricing_plan_id":"cebpf4jnsgd1na2vs0mg"},{"bike_id":"ab3b8567-5f88-4ba9-90c9-57cd7ca29a33","system_id":"levelo_inurba_marseille","lat":43.26935,"lon":5.40253,"is_reserved":false,"is_disabled":false,"rental_uris":{"android":"levelo://app?vid=ab3b8567-5f88-4ba9-90c9-57cd7ca29a33","ios":"levelo://app?vid=ab3b8567-5f88-4ba9-90c9-57cd7ca29a33"},"vehicle_type_id":"4","last_reported":1732674055,"current_range_meters":39200,"station_id":"cjm6bp8fraef2m0cb0m0","pricing_plan_id":"cebpf4jnsgd1na2vs0mg"},{"bike_id":"5e94e11f-881f-4f15-b59c-c93c4e3ef240","system_id":"levelo_inurba_marseille","lat":43.25111,"lon":5.40326,"is_reserved":false,"is_disabled":false,"rental_uris":{"android":"levelo://app?vid=5e94e11f-881f-4f15-b59c-c93c4e3ef240","ios":"levelo://app?vid=5e94e11f-881f-4f15-b59c-c93c4e3ef240"},"vehicle_type_id":"4","last_reported":1732674055,"current_range_meters":10800,"station_id":"ce4bhlh2rcd13ifvqgig","pricing_plan_id":"cebpf4jnsgd1na2vs0mg"},{"bike_id":"97adae75-a06f-4564-b166-8e595130edc0","system_id":"levelo_inurba_marseille","lat":43.3093,"lon":5.40158,"is_reserved":false,"is_disabled":false,"rental_uris":{"android":"levelo://app?vid=97adae75-a06f-4564-b166-8e595130edc0","ios":"levelo://app?vid=97adae75-a06f-4564-b166-8e595130edc0"},"vehicle_type_id":"4","last_reported":1732674055,"current_range_meters":38400,"station_id":"ce4bgvp2rcd13ifvqct0","pricing_plan_id":"cebpf4jnsgd1na2vs0mg"},{"bike_id":"d08c361c-1912-4825-949a-6ab73f0b4c31","system_id":"levelo_inurba_marseille","lat":43.28093,"lon":5.3966,"is_reserved":false,"is_disabled":false,"rental_uris":{"android":"levelo://app?vid=d08c361c-1912-4825-949a-6ab73f0b4c31","ios":"levelo://app?vid=d08c361c-1912-4825-949a-6ab73f0b4c31"},"vehicle_type_id":"4","last_reported":1732674055,"current_range_meters":38800,"station_id":"ce4bho12rcd13ifvqh2g","pricing_plan_id":"cebpf4jnsgd1na2vs0mg"},{"bike_id":"73e59ae6-2ee9-4cfa-a524-30488db1567f","system_id":"levelo_inurba_marseille","lat":43.30609,"lon":5.40086,"is_reserved":false,"is_disabled":false,"rental_uris":{"android":"levelo://app?vid=73e59ae6-2ee9-4cfa-a524-30488db1567f","ios":"levelo://app?vid=73e59ae6-2ee9-4cfa-a524-30488db1567f"},"vehicle_type_id":"4","last_reported":1732674055,"current_range_meters":16000,"station_id":"ce4bh112rcd13ifvqda0","pricing_plan_id":"cebpf4jnsgd1na2vs0mg"},{"bike_id":"e71bb9fc-5943-45c1-9e25-117d0a204ee4","system_id":"levelo_inurba_marseille","lat":43.31371,"lon":5.38511,"is_reserved":false,"is_disabled":false,"rental_uris":{"android":"levelo://app?vid=e71bb9fc-5943-45c1-9e25-117d0a204ee4","ios":"levelo://app?vid=e71bb9fc-5943-45c1-9e25-117d0a204ee4"},"vehicle_type_id":"4","last_reported":1732674055,"current_range_meters":36000,"station_id":"ce4bgt92rcd13ifvqcf0","pricing_plan_id":"cebpf4jnsgd1na2vs0mg"},{"bike_id":"af37692a-afc7-4ddb-93b0-b4c766c6cca7","system_id":"levelo_inurba_marseille","lat":43.30145,"lon":5.37413,"is_reserved":false,"is_disabled":false,"rental_uris":{"android":"levelo://app?vid=af37692a-afc7-4ddb-93b0-b4c766c6cca7","ios":"levelo://app?vid=af37692a-afc7-4ddb-93b0-b4c766c6cca7"},"vehicle_type_id":"4","last_reported":1732674055,"current_range_meters":38400,"station_id":"ce4bgs92rcd13ifvqcc0","pricing_plan_id":"cebpf4jnsgd1na2vs0mg"},{"bike_id":"15d6e6ce-1b35-4e4f-b3ab-afe6a1ad49f4","system_id":"levelo_inurba_marseille","lat":43.30659,"lon":5.40057,"is_reserved":false,"is_disabled":false,"rental_uris":{"android":"levelo://app?vid=15d6e6ce-1b35-4e4f-b3ab-afe6a1ad49f4","ios":"levelo://app?vid=15d6e6ce-1b35-4e4f-b3ab-afe6a1ad49f4"},"vehicle_type_id":"4","last_reported":1732674055,"current_range_meters":38800,"station_id":"ce4bh112rcd13ifvqda0","pricing_plan_id":"cebpf4jnsgd1na2vs0mg"},{"bike_id":"7087eacf-6790-4ce8-8680-8e435b348b59","system_id":"levelo_inurba_marseille","lat":43.29516,"lon":5.39402,"is_reserved":false,"is_disabled":false,"rental_uris":{"android":"levelo://app?vid=7087eacf-6790-4ce8-8680-8e435b348b59","ios":"levelo://app?vid=7087eacf-6790-4ce8-8680-8e435b348b59"},"vehicle_type_id":"4","last_reported":1732674055,"current_range_meters":22400,"station_id":"ce4bh292rcd13ifvqdf0","pricing_plan_id":"cebpf4jnsgd1na2vs0mg"},{"bike_id":"51b398f2-b539-440c-917f-0128fd59b7e4","system_id":"levelo_inurba_marseille","lat":43.28479,"lon":5.35868,"is_reserved":false,"is_disabled":false,"rental_uris":{"android":"levelo://app?vid=51b398f2-b539-440c-917f-0128fd59b7e4","ios":"levelo://app?vid=51b398f2-b539-440c-917f-0128fd59b7e4"},"vehicle_type_id":"4","last_reported":1732674055,"current_range_meters":38800,"station_id":"ce4bhah2rcd13ifvqei0","pricing_plan_id":"cebpf4jnsgd1na2vs0mg"},{"bike_id":"1cd78e3c-eca2-430e-a00b-3450b52eb373","system_id":"levelo_inurba_marseille","lat":43.22926,"lon":5.35381,"is_reserved":false,"is_disabled":false,"rental_uris":{"android":"levelo://app?vid=1cd78e3c-eca2-430e-a00b-3450b52eb373","ios":"levelo://app?vid=1cd78e3c-eca2-430e-a00b-3450b52eb373"},"vehicle_type_id":"4","last_reported":1732674055,"current_range_meters":38800,"station_id":"cpo3532slgdg3j2ikp40","pricing_plan_id":"cebpf4jnsgd1na2vs0mg"},{"bike_id":"2ccbab4c-72b8-4d2e-a7d8-b3b981518916","system_id":"levelo_inurba_marseille","lat":43.31766,"lon":5.39012,"is_reserved":false,"is_disabled":false,"rental_uris":{"android":"levelo://app?vid=2ccbab4c-72b8-4d2e-a7d8-b3b981518916","ios":"levelo://app?vid=2ccbab4c-72b8-4d2e-a7d8-b3b981518916"},"vehicle_type_id":"4","last_reported":1732674055,"current_range_meters":39200,"station_id":"ce4bhqp2rcd13ifvqhng","pricing_plan_id":"cebpf4jnsgd1na2vs0mg"},{"bike_id":"391001e2-7361-4b92-b20f-4fb1d1376b6e","system_id":"levelo_inurba_marseille","lat":43.23185,"lon":5.39982,"is_reserved":false,"is_disabled":false,"rental_uris":{"android":"levelo://app?vid=391001e2-7361-4b92-b20f-4fb1d1376b6e","ios":"levelo://app?vid=391001e2-7361-4b92-b20f-4fb1d1376b6e"},"vehicle_type_id":"4","last_reported":1732674055,"current_range_meters":38400,"station_id":"ce4bhn12rcd13ifvqgqg","pricing_plan_id":"cebpf4jnsgd1na2vs0mg"},{"bike_id":"f74a3789-cb95-4d4e-b372-c223603b6dfc","system_id":"levelo_inurba_marseille","lat":43.28102,"lon":5.37835,"is_reserved":false,"is_disabled":false,"rental_uris":{"android":"levelo://app?vid=f74a3789-cb95-4d4e-b372-c223603b6dfc","ios":"levelo://app?vid=f74a3789-cb95-4d4e-b372-c223603b6dfc"},"vehicle_type_id":"4","last_reported":1732674055,"current_range_meters":31200,"station_id":"ce4bha12rcd13ifvqee0","pricing_plan_id":"cebpf4jnsgd1na2vs0mg"},{"bike_id":"4a5edfa9-8dfd-4c0c-9f8c-7043babfbe18","system_id":"levelo_inurba_marseille","lat":43.32335,"lon":5.40622,"is_reserved":false,"is_disabled":false,"rental_uris":{"android":"levelo://app?vid=4a5edfa9-8dfd-4c0c-9f8c-7043babfbe18","ios":"levelo://app?vid=4a5edfa9-8dfd-4c0c-9f8c-7043babfbe18"},"vehicle_type_id":"4","last_reported":1732674055,"current_range_meters":10000,"station_id":"ce4bhq92rcd13ifvqhjg","pricing_plan_id":"cebpf4jnsgd1na2vs0mg"},{"bike_id":"139e07cb-4864-4586-813b-7d6db5e691bf","system_id":"levelo_inurba_marseille","lat":43.3266,"lon":5.41006,"is_reserved":false,"is_disabled":false,"rental_uris":{"android":"levelo://app?vid=139e07cb-4864-4586-813b-7d6db5e691bf","ios":"levelo://app?vid=139e07cb-4864-4586-813b-7d6db5e691bf"},"vehicle_type_id":"4","last_reported":1732674055,"current_range_meters":38000,"station_id":"ce4bhpp2rcd13ifvqhgg","pricing_plan_id":"cebpf4jnsgd1na2vs0mg"},{"bike_id":"204c7d25-87f3-484c-8756-83bed76e1050","system_id":"levelo_inurba_marseille","lat":43.30955,"lon":5.39047,"is_reserved":false,"is_disabled":false,"rental_uris":{"android":"levelo://app?vid=204c7d25-87f3-484c-8756-83bed76e1050","ios":"levelo://app?vid=204c7d25-87f3-484c-8756-83bed76e1050"},"vehicle_type_id":"4","last_reported":1732674055,"current_range_meters":38000,"station_id":"ce4bgup2rcd13ifvqco0","pricing_plan_id":"cebpf4jnsgd1na2vs0mg"},{"bike_id":"16eb9178-58c8-4889-b0ba-9fe7f0b286d2","system_id":"levelo_inurba_marseille","lat":43.26229,"lon":5.37478,"is_reserved":false,"is_disabled":false,"rental_uris":{"android":"levelo://app?vid=16eb9178-58c8-4889-b0ba-9fe7f0b286d2","ios":"levelo://app?vid=16eb9178-58c8-4889-b0ba-9fe7f0b286d2"},"vehicle_type_id":"4","last_reported":1732674055,"current_range_meters":30400,"station_id":"","pricing_plan_id":"cebpf4jnsgd1na2vs0mg"},{"bike_id":"e72d41bb-8bbd-4274-987d-4e5a925e8fe7","system_id":"levelo_inurba_marseille","lat":43.29627,"lon":5.40606,"is_reserved":false,"is_disabled":false,"rental_uris":{"android":"levelo://app?vid=e72d41bb-8bbd-4274-987d-4e5a925e8fe7","ios":"levelo://app?vid=e72d41bb-8bbd-4274-987d-4e5a925e8fe7"},"vehicle_type_id":"4","last_reported":1732674055,"current_range_meters":38000,"station_id":"ce4bh0h2rcd13ifvqd60","pricing_plan_id":"cebpf4jnsgd1na2vs0mg"},{"bike_id":"28709731-d14f-4e98-afa7-e678c8db1a10","system_id":"levelo_inurba_marseille","lat":43.32386,"lon":5.38881,"is_reserved":false,"is_disabled":false,"rental_uris":{"android":"levelo://app?vid=28709731-d14f-4e98-afa7-e678c8db1a10","ios":"levelo://app?vid=28709731-d14f-4e98-afa7-e678c8db1a10"},"vehicle_type_id":"4","last_reported":1732674055,"current_range_meters":26800,"station_id":"ce4bhqp2rcd13ifvqhog","pricing_plan_id":"cebpf4jnsgd1na2vs0mg"},{"bike_id":"ad147b94-4180-4578-a0fa-c4d1998acb2d","system_id":"levelo_inurba_marseille","lat":43.29038,"lon":5.35921,"is_reserved":false,"is_disabled":true,"rental_uris":{"android":"levelo://app?vid=ad147b94-4180-4578-a0fa-c4d1998acb2d","ios":"levelo://app?vid=ad147b94-4180-4578-a0fa-c4d1998acb2d"},"vehicle_type_id":"4","last_reported":1732674055,"current_range_meters":37600,"station_id":"ce4bha92rcd13ifvqeg0","pricing_plan_id":"cebpf4jnsgd1na2vs0mg"},{"bike_id":"8d88d784-a412-435e-bbdb-816b3095509e","system_id":"levelo_inurba_marseille","lat":43.31161,"lon":5.38715,"is_reserved":false,"is_disabled":false,"rental_uris":{"android":"levelo://app?vid=8d88d784-a412-435e-bbdb-816b3095509e","ios":"levelo://app?vid=8d88d784-a412-435e-bbdb-816b3095509e"},"vehicle_type_id":"4","last_reported":1732674055,"current_range_meters":38800,"station_id":"ce4bgv12rcd13ifvqcp0","pricing_plan_id":"cebpf4jnsgd1na2vs0mg"},{"bike_id":"4f9eddaf-5d26-42f4-98f6-12cd4c5250b2","system_id":"levelo_inurba_marseille","lat":43.28442,"lon":5.3918,"is_reserved":false,"is_disabled":false,"rental_uris":{"android":"levelo://app?vid=4f9eddaf-5d26-42f4-98f6-12cd4c5250b2","ios":"levelo://app?vid=4f9eddaf-5d26-42f4-98f6-12cd4c5250b2"},"vehicle_type_id":"4","last_reported":1732674055,"current_range_meters":30800,"station_id":"ce4bhoh2rcd13ifvqh5g","pricing_plan_id":"cebpf4jnsgd1na2vs0mg"},{"bike_id":"2e95a691-d7d8-426b-8dba-47b6b56c6a41","system_id":"levelo_inurba_marseille","lat":43.28153,"lon":5.42643,"is_reserved":false,"is_disabled":true,"rental_uris":{"android":"levelo://app?vid=2e95a691-d7d8-426b-8dba-47b6b56c6a41","ios":"levelo://app?vid=2e95a691-d7d8-426b-8dba-47b6b56c6a41"},"vehicle_type_id":"4","last_reported":1732674055,"current_range_meters":3600,"station_id":"ce4bhnh2rcd13ifvqgug","pricing_plan_id":"cebpf4jnsgd1na2vs0mg"},{"bike_id":"e1023cd0-0598-4752-bca2-87e3d8646e5a","system_id":"levelo_inurba_marseille","lat":43.27374,"lon":5.36257,"is_reserved":false,"is_disabled":false,"rental_uris":{"android":"levelo://app?vid=e1023cd0-0598-4752-bca2-87e3d8646e5a","ios":"levelo://app?vid=e1023cd0-0598-4752-bca2-87e3d8646e5a"},"vehicle_type_id":"4","last_reported":1732674055,"current_range_meters":38800,"station_id":"ce4bhbh2rcd13ifvqeo0","pricing_plan_id":"cebpf4jnsgd1na2vs0mg"},{"bike_id":"3e37db55-c4a9-4419-a174-bfd57be8a027","system_id":"levelo_inurba_marseille","lat":43.24393,"lon":5.37048,"is_reserved":false,"is_disabled":false,"rental_uris":{"android":"levelo://app?vid=3e37db55-c4a9-4419-a174-bfd57be8a027","ios":"levelo://app?vid=3e37db55-c4a9-4419-a174-bfd57be8a027"},"vehicle_type_id":"4","last_reported":1732674055,"current_range_meters":35200,"station_id":"ce4bhhh2rcd13ifvqfk0","pricing_plan_id":"cebpf4jnsgd1na2vs0mg"},{"bike_id":"fba1ceb6-3cef-4b3a-8f1d-cb2909f800c4","system_id":"levelo_inurba_marseille","lat":43.31388,"lon":5.36672,"is_reserved":false,"is_disabled":false,"rental_uris":{"android":"levelo://app?vid=fba1ceb6-3cef-4b3a-8f1d-cb2909f800c4","ios":"levelo://app?vid=fba1ceb6-3cef-4b3a-8f1d-cb2909f800c4"},"vehicle_type_id":"4","last_reported":1732674055,"current_range_meters":38000,"station_id":"ce4bgr92rcd13ifvqc6g","pricing_plan_id":"cebpf4jnsgd1na2vs0mg"},{"bike_id":"296383cf-b9f1-4ece-98e9-977ef8cbd17a","system_id":"levelo_inurba_marseille","lat":43.23185,"lon":5.39992,"is_reserved":false,"is_disabled":false,"rental_uris":{"android":"levelo://app?vid=296383cf-b9f1-4ece-98e9-977ef8cbd17a","ios":"levelo://app?vid=296383cf-b9f1-4ece-98e9-977ef8cbd17a"},"vehicle_type_id":"4","last_reported":1732674055,"current_range_meters":20400,"station_id":"ce4bhn12rcd13ifvqgqg","pricing_plan_id":"cebpf4jnsgd1na2vs0mg"},{"bike_id":"c2a4f2c4-31ea-43f5-bfb7-329a41ddaa42","system_id":"levelo_inurba_marseille","lat":43.29262,"lon":5.40921,"is_reserved":false,"is_disabled":false,"rental_uris":{"android":"levelo://app?vid=c2a4f2c4-31ea-43f5-bfb7-329a41ddaa42","ios":"levelo://app?vid=c2a4f2c4-31ea-43f5-bfb7-329a41ddaa42"},"vehicle_type_id":"4","last_reported":1732674055,"current_range_meters":10000,"station_id":"ce4bh192rcd13ifvqdc0","pricing_plan_id":"cebpf4jnsgd1na2vs0mg"},{"bike_id":"e3feea02-0b25-40ef-861f-9cb3d632e192","system_id":"levelo_inurba_marseille","lat":43.27899,"lon":5.38004,"is_reserved":false,"is_disabled":false,"rental_uris":{"android":"levelo://app?vid=e3feea02-0b25-40ef-861f-9cb3d632e192","ios":"levelo://app?vid=e3feea02-0b25-40ef-861f-9cb3d632e192"},"vehicle_type_id":"4","last_reported":1732674055,"current_range_meters":20000,"station_id":"ce4bhf92rcd13ifvqf50","pricing_plan_id":"cebpf4jnsgd1na2vs0mg"},{"bike_id":"1606c510-b735-4fc8-8ac9-1879292672fd","system_id":"levelo_inurba_marseille","lat":43.25866,"lon":5.39894,"is_reserved":false,"is_disabled":false,"rental_uris":{"android":"levelo://app?vid=1606c510-b735-4fc8-8ac9-1879292672fd","ios":"levelo://app?vid=1606c510-b735-4fc8-8ac9-1879292672fd"},"vehicle_type_id":"4","last_reported":1732674055,"current_range_meters":8400,"station_id":"ce4bhl92rcd13ifvqghg","pricing_plan_id":"cebpf4jnsgd1na2vs0mg"},{"bike_id":"858b65e1-94fc-4151-a71e-8b168cb19dcb","system_id":"levelo_inurba_marseille","lat":43.32249,"lon":5.39241,"is_reserved":false,"is_disabled":true,"rental_uris":{"android":"levelo://app?vid=858b65e1-94fc-4151-a71e-8b168cb19dcb","ios":"levelo://app?vid=858b65e1-94fc-4151-a71e-8b168cb19dcb"},"vehicle_type_id":"4","last_reported":1732674055,"current_range_meters":0,"station_id":"","pricing_plan_id":"cebpf4jnsgd1na2vs0mg"},{"bike_id":"ea8c70eb-fb96-44a1-a20d-11ed438fce10","system_id":"levelo_inurba_marseille","lat":43.31081,"lon":5.42434,"is_reserved":false,"is_disabled":false,"rental_uris":{"android":"levelo://app?vid=ea8c70eb-fb96-44a1-a20d-11ed438fce10","ios":"levelo://app?vid=ea8c70eb-fb96-44a1-a20d-11ed438fce10"},"vehicle_type_id":"4","last_reported":1732674055,"current_range_meters":28000,"station_id":"ce4bhp92rcd13ifvqhag","pricing_plan_id":"cebpf4jnsgd1na2vs0mg"},{"bike_id":"e51b2acb-d883-446b-9ce9-347608453ece","system_id":"levelo_inurba_marseille","lat":43.22935,"lon":5.35377,"is_reserved":false,"is_disabled":false,"rental_uris":{"android":"levelo://app?vid=e51b2acb-d883-446b-9ce9-347608453ece","ios":"levelo://app?vid=e51b2acb-d883-446b-9ce9-347608453ece"},"vehicle_type_id":"4","last_reported":1732674055,"current_range_meters":38400,"station_id":"cpo3532slgdg3j2ikp40","pricing_plan_id":"cebpf4jnsgd1na2vs0mg"},{"bike_id":"d4631ba8-55fd-4d7a-8e8b-d75420895cf3","system_id":"levelo_inurba_marseille","lat":43.29196,"lon":5.3931,"is_reserved":false,"is_disabled":false,"rental_uris":{"android":"levelo://app?vid=d4631ba8-55fd-4d7a-8e8b-d75420895cf3","ios":"levelo://app?vid=d4631ba8-55fd-4d7a-8e8b-d75420895cf3"},"vehicle_type_id":"4","last_reported":1732674055,"current_range_meters":38800,"station_id":"ce4bh192rcd13ifvqdd0","pricing_plan_id":"cebpf4jnsgd1na2vs0mg"},{"bike_id":"2719c68b-aa87-4e27-91b7-d22fe9e18130","system_id":"levelo_inurba_marseille","lat":43.28267,"lon":5.35074,"is_reserved":false,"is_disabled":false,"rental_uris":{"android":"levelo://app?vid=2719c68b-aa87-4e27-91b7-d22fe9e18130","ios":"levelo://app?vid=2719c68b-aa87-4e27-91b7-d22fe9e18130"},"vehicle_type_id":"4","last_reported":1732674055,"current_range_meters":12000,"station_id":"ce4bhbp2rcd13ifvqerg","pricing_plan_id":"cebpf4jnsgd1na2vs0mg"},{"bike_id":"bc261adb-95a1-459a-92ba-5de718564b25","system_id":"levelo_inurba_marseille","lat":43.31334,"lon":5.39705,"is_reserved":false,"is_disabled":false,"rental_uris":{"android":"levelo://app?vid=bc261adb-95a1-459a-92ba-5de718564b25","ios":"levelo://app?vid=bc261adb-95a1-459a-92ba-5de718564b25"},"vehicle_type_id":"4","last_reported":1732674055,"current_range_meters":4800,"station_id":"ce4bgvp2rcd13ifvqcu0","pricing_plan_id":"cebpf4jnsgd1na2vs0mg"},{"bike_id":"0ce9ec12-7f38-48bb-aa8a-38c9fc0bd1f4","system_id":"levelo_inurba_marseille","lat":43.2719,"lon":5.4099,"is_reserved":false,"is_disabled":false,"rental_uris":{"android":"levelo://app?vid=0ce9ec12-7f38-48bb-aa8a-38c9fc0bd1f4","ios":"levelo://app?vid=0ce9ec12-7f38-48bb-aa8a-38c9fc0bd1f4"},"vehicle_type_id":"4","last_reported":1732674055,"current_range_meters":21600,"station_id":"ce4bhl12rcd13ifvqgf0","pricing_plan_id":"cebpf4jnsgd1na2vs0mg"},{"bike_id":"d5da5333-8509-4b0a-b744-e59e463e7865","system_id":"levelo_inurba_marseille","lat":43.27924,"lon":5.38302,"is_reserved":false,"is_disabled":true,"rental_uris":{"android":"levelo://app?vid=d5da5333-8509-4b0a-b744-e59e463e7865","ios":"levelo://app?vid=d5da5333-8509-4b0a-b744-e59e463e7865"},"vehicle_type_id":"4","last_reported":1732674055,"current_range_meters":21600,"station_id":"","pricing_plan_id":"cebpf4jnsgd1na2vs0mg"},{"bike_id":"859fbee0-02c1-4795-bf59-3633c6d02e96","system_id":"levelo_inurba_marseille","lat":43.30941,"lon":5.40172,"is_reserved":false,"is_disabled":false,"rental_uris":{"android":"levelo://app?vid=859fbee0-02c1-4795-bf59-3633c6d02e96","ios":"levelo://app?vid=859fbee0-02c1-4795-bf59-3633c6d02e96"},"vehicle_type_id":"4","last_reported":1732674055,"current_range_meters":17600,"station_id":"ce4bgvp2rcd13ifvqct0","pricing_plan_id":"cebpf4jnsgd1na2vs0mg"},{"bike_id":"89955dd6-7fc3-40d0-bb53-c7cb8e720b0a","system_id":"levelo_inurba_marseille","lat":43.30885,"lon":5.39655,"is_reserved":false,"is_disabled":false,"rental_uris":{"android":"levelo://app?vid=89955dd6-7fc3-40d0-bb53-c7cb8e720b0a","ios":"levelo://app?vid=89955dd6-7fc3-40d0-bb53-c7cb8e720b0a"},"vehicle_type_id":"4","last_reported":1732674055,"current_range_meters":30400,"station_id":"ce4bh012rcd13ifvqcv0","pricing_plan_id":"cebpf4jnsgd1na2vs0mg"},{"bike_id":"df8b6335-1fd6-4826-94dd-ea51fbe98817","system_id":"levelo_inurba_marseille","lat":43.28733,"lon":5.361,"is_reserved":false,"is_disabled":false,"rental_uris":{"android":"levelo://app?vid=df8b6335-1fd6-4826-94dd-ea51fbe98817","ios":"levelo://app?vid=df8b6335-1fd6-4826-94dd-ea51fbe98817"},"vehicle_type_id":"4","last_reported":1732674055,"current_range_meters":39200,"station_id":"cki0cbj6b192h4jlfktg","pricing_plan_id":"cebpf4jnsgd1na2vs0mg"},{"bike_id":"f7f3756c-1ec7-4782-9c87-6273f87b6774","system_id":"levelo_inurba_marseille","lat":43.337444,"lon":5.374475,"is_reserved":false,"is_disabled":true,"rental_uris":{"android":"levelo://app?vid=f7f3756c-1ec7-4782-9c87-6273f87b6774","ios":"levelo://app?vid=f7f3756c-1ec7-4782-9c87-6273f87b6774"},"vehicle_type_id":"4","last_reported":1732674055,"current_range_meters":16800,"station_id":"","pricing_plan_id":"cebpf4jnsgd1na2vs0mg"},{"bike_id":"9a7fc65c-a473-4df1-8da8-b97e38cbdb89","system_id":"levelo_inurba_marseille","lat":43.23151,"lon":5.4372,"is_reserved":false,"is_disabled":false,"rental_uris":{"android":"levelo://app?vid=9a7fc65c-a473-4df1-8da8-b97e38cbdb89","ios":"levelo://app?vid=9a7fc65c-a473-4df1-8da8-b97e38cbdb89"},"vehicle_type_id":"4","last_reported":1732674055,"current_range_meters":8800,"station_id":"ce4bhmp2rcd13ifvqgog","pricing_plan_id":"cebpf4jnsgd1na2vs0mg"},{"bike_id":"5ac84619-8500-415b-9629-5dc640523aaa","system_id":"levelo_inurba_marseille","lat":43.29521,"lon":5.37519,"is_reserved":false,"is_disabled":true,"rental_uris":{"android":"levelo://app?vid=5ac84619-8500-415b-9629-5dc640523aaa","ios":"levelo://app?vid=5ac84619-8500-415b-9629-5dc640523aaa"},"vehicle_type_id":"4","last_reported":1732674055,"current_range_meters":14000,"station_id":"ce4bgkp2rcd13ifvqbmg","pricing_plan_id":"cebpf4jnsgd1na2vs0mg"},{"bike_id":"ca3c5af7-6212-4473-8827-9c89992897f3","system_id":"levelo_inurba_marseille","lat":43.28455,"lon":5.39167,"is_reserved":false,"is_disabled":false,"rental_uris":{"android":"levelo://app?vid=ca3c5af7-6212-4473-8827-9c89992897f3","ios":"levelo://app?vid=ca3c5af7-6212-4473-8827-9c89992897f3"},"vehicle_type_id":"4","last_reported":1732674055,"current_range_meters":33200,"station_id":"ce4bhoh2rcd13ifvqh5g","pricing_plan_id":"cebpf4jnsgd1na2vs0mg"},{"bike_id":"3b633dca-eb70-4ea8-b301-a2515bdd370f","system_id":"levelo_inurba_marseille","lat":43.28438,"lon":5.37524,"is_reserved":false,"is_disabled":false,"rental_uris":{"android":"levelo://app?vid=3b633dca-eb70-4ea8-b301-a2515bdd370f","ios":"levelo://app?vid=3b633dca-eb70-4ea8-b301-a2515bdd370f"},"vehicle_type_id":"4","last_reported":1732674055,"current_range_meters":16000,"station_id":"ce4bh412rcd13ifvqds0","pricing_plan_id":"cebpf4jnsgd1na2vs0mg"},{"bike_id":"e74072b3-a02b-4151-87ff-4a55be046050","system_id":"levelo_inurba_marseille","lat":43.25086,"lon":5.39516,"is_reserved":false,"is_disabled":false,"rental_uris":{"android":"levelo://app?vid=e74072b3-a02b-4151-87ff-4a55be046050","ios":"levelo://app?vid=e74072b3-a02b-4151-87ff-4a55be046050"},"vehicle_type_id":"4","last_reported":1732674055,"current_range_meters":37600,"station_id":"ce4bhm12rcd13ifvqgkg","pricing_plan_id":"cebpf4jnsgd1na2vs0mg"},{"bike_id":"be75626b-aa28-4d29-a136-b3bd4a0311ca","system_id":"levelo_inurba_marseille","lat":43.30552,"lon":5.3653,"is_reserved":false,"is_disabled":true,"rental_uris":{"android":"levelo://app?vid=be75626b-aa28-4d29-a136-b3bd4a0311ca","ios":"levelo://app?vid=be75626b-aa28-4d29-a136-b3bd4a0311ca"},"vehicle_type_id":"4","last_reported":1732674055,"current_range_meters":37600,"station_id":"ce4bgs12rcd13ifvqcag","pricing_plan_id":"cebpf4jnsgd1na2vs0mg"},{"bike_id":"da9766fc-7c3a-4df3-adb6-43d914fc777e","system_id":"levelo_inurba_marseille","lat":43.2988,"lon":5.39775,"is_reserved":false,"is_disabled":false,"rental_uris":{"android":"levelo://app?vid=da9766fc-7c3a-4df3-adb6-43d914fc777e","ios":"levelo://app?vid=da9766fc-7c3a-4df3-adb6-43d914fc777e"},"vehicle_type_id":"4","last_reported":1732674055,"current_range_meters":37600,"station_id":"ce4bh0h2rcd13ifvqd50","pricing_plan_id":"cebpf4jnsgd1na2vs0mg"},{"bike_id":"5beeafd9-fc35-4444-8f38-3d5aae2d23a8","system_id":"levelo_inurba_marseille","lat":43.32492,"lon":5.36581,"is_reserved":false,"is_disabled":false,"rental_uris":{"android":"levelo://app?vid=5beeafd9-fc35-4444-8f38-3d5aae2d23a8","ios":"levelo://app?vid=5beeafd9-fc35-4444-8f38-3d5aae2d23a8"},"vehicle_type_id":"4","last_reported":1732674055,"current_range_meters":16800,"station_id":"ce4bhs12rcd13ifvqhvg","pricing_plan_id":"cebpf4jnsgd1na2vs0mg"},{"bike_id":"ee39fb7d-6338-4ece-8656-cb0f293fe4e8","system_id":"levelo_inurba_marseille","lat":43.31163,"lon":5.38725,"is_reserved":false,"is_disabled":false,"rental_uris":{"android":"levelo://app?vid=ee39fb7d-6338-4ece-8656-cb0f293fe4e8","ios":"levelo://app?vid=ee39fb7d-6338-4ece-8656-cb0f293fe4e8"},"vehicle_type_id":"4","last_reported":1732674055,"current_range_meters":11200,"station_id":"ce4bgv12rcd13ifvqcp0","pricing_plan_id":"cebpf4jnsgd1na2vs0mg"},{"bike_id":"1bdf9afd-1539-40b5-b519-81e00474358c","system_id":"levelo_inurba_marseille","lat":43.28853,"lon":5.35848,"is_reserved":false,"is_disabled":false,"rental_uris":{"android":"levelo://app?vid=1bdf9afd-1539-40b5-b519-81e00474358c","ios":"levelo://app?vid=1bdf9afd-1539-40b5-b519-81e00474358c"},"vehicle_type_id":"4","last_reported":1732674055,"current_range_meters":27600,"station_id":"ce4bhb12rcd13ifvqem0","pricing_plan_id":"cebpf4jnsgd1na2vs0mg"},{"bike_id":"ceef91ef-278d-48da-8af0-4d75c1ac4622","system_id":"levelo_inurba_marseille","lat":43.2656,"lon":5.37283,"is_reserved":false,"is_disabled":false,"rental_uris":{"android":"levelo://app?vid=ceef91ef-278d-48da-8af0-4d75c1ac4622","ios":"levelo://app?vid=ceef91ef-278d-48da-8af0-4d75c1ac4622"},"vehicle_type_id":"4","last_reported":1732674055,"current_range_meters":28000,"station_id":"ce4bhg12rcd13ifvqf70","pricing_plan_id":"cebpf4jnsgd1na2vs0mg"},{"bike_id":"b94865bd-271b-4f4b-bfb5-073ca9cd54df","system_id":"levelo_inurba_marseille","lat":43.30299,"lon":5.39209,"is_reserved":false,"is_disabled":true,"rental_uris":{"android":"levelo://app?vid=b94865bd-271b-4f4b-bfb5-073ca9cd54df","ios":"levelo://app?vid=b94865bd-271b-4f4b-bfb5-073ca9cd54df"},"vehicle_type_id":"4","last_reported":1732674055,"current_range_meters":30800,"station_id":"ce4bgkh2rcd13ifvqbk0","pricing_plan_id":"cebpf4jnsgd1na2vs0mg"},{"bike_id":"87d56768-250e-4244-bc87-a518d46164f1","system_id":"levelo_inurba_marseille","lat":43.28877,"lon":5.38872,"is_reserved":false,"is_disabled":false,"rental_uris":{"android":"levelo://app?vid=87d56768-250e-4244-bc87-a518d46164f1","ios":"levelo://app?vid=87d56768-250e-4244-bc87-a518d46164f1"},"vehicle_type_id":"4","last_reported":1732674055,"current_range_meters":35200,"station_id":"","pricing_plan_id":"cebpf4jnsgd1na2vs0mg"},{"bike_id":"a1e4c6c6-2f64-4874-8633-ea7f2cf7d72d","system_id":"levelo_inurba_marseille","lat":43.31062,"lon":5.38361,"is_reserved":false,"is_disabled":false,"rental_uris":{"android":"levelo://app?vid=a1e4c6c6-2f64-4874-8633-ea7f2cf7d72d","ios":"levelo://app?vid=a1e4c6c6-2f64-4874-8633-ea7f2cf7d72d"},"vehicle_type_id":"4","last_reported":1732674055,"current_range_meters":38400,"station_id":"ce4bgv92rcd13ifvqcr0","pricing_plan_id":"cebpf4jnsgd1na2vs0mg"},{"bike_id":"a5909545-3e09-4859-9fda-9ffe4e6e4883","system_id":"levelo_inurba_marseille","lat":43.23071,"lon":5.3549,"is_reserved":false,"is_disabled":false,"rental_uris":{"android":"levelo://app?vid=a5909545-3e09-4859-9fda-9ffe4e6e4883","ios":"levelo://app?vid=a5909545-3e09-4859-9fda-9ffe4e6e4883"},"vehicle_type_id":"4","last_reported":1732674055,"current_range_meters":28400,"station_id":"cpo3342slgdg3j2ifvpg","pricing_plan_id":"cebpf4jnsgd1na2vs0mg"},{"bike_id":"9f12d915-5eff-4689-a96d-7d2d1d3f25d8","system_id":"levelo_inurba_marseille","lat":43.29828,"lon":5.40412,"is_reserved":false,"is_disabled":false,"rental_uris":{"android":"levelo://app?vid=9f12d915-5eff-4689-a96d-7d2d1d3f25d8","ios":"levelo://app?vid=9f12d915-5eff-4689-a96d-7d2d1d3f25d8"},"vehicle_type_id":"4","last_reported":1732674055,"current_range_meters":36000,"station_id":"ce4bh112rcd13ifvqd90","pricing_plan_id":"cebpf4jnsgd1na2vs0mg"},{"bike_id":"e2ce9644-d3a8-45c7-bcf9-77c4fa8e6779","system_id":"levelo_inurba_marseille","lat":43.27808,"lon":5.40691,"is_reserved":false,"is_disabled":false,"rental_uris":{"android":"levelo://app?vid=e2ce9644-d3a8-45c7-bcf9-77c4fa8e6779","ios":"levelo://app?vid=e2ce9644-d3a8-45c7-bcf9-77c4fa8e6779"},"vehicle_type_id":"4","last_reported":1732674055,"current_range_meters":39200,"station_id":"ce4bhnh2rcd13ifvqgtg","pricing_plan_id":"cebpf4jnsgd1na2vs0mg"},{"bike_id":"71653c12-5f0e-4266-b463-df436a385bc4","system_id":"levelo_inurba_marseille","lat":43.32367,"lon":5.3888,"is_reserved":false,"is_disabled":false,"rental_uris":{"android":"levelo://app?vid=71653c12-5f0e-4266-b463-df436a385bc4","ios":"levelo://app?vid=71653c12-5f0e-4266-b463-df436a385bc4"},"vehicle_type_id":"4","last_reported":1732674055,"current_range_meters":10000,"station_id":"ce4bhqp2rcd13ifvqhog","pricing_plan_id":"cebpf4jnsgd1na2vs0mg"},{"bike_id":"00c1b85e-f618-4a9f-97fe-87be3eac83ec","system_id":"levelo_inurba_marseille","lat":43.25882,"lon":5.39901,"is_reserved":false,"is_disabled":false,"rental_uris":{"android":"levelo://app?vid=00c1b85e-f618-4a9f-97fe-87be3eac83ec","ios":"levelo://app?vid=00c1b85e-f618-4a9f-97fe-87be3eac83ec"},"vehicle_type_id":"4","last_reported":1732674055,"current_range_meters":39200,"station_id":"ce4bhl92rcd13ifvqghg","pricing_plan_id":"cebpf4jnsgd1na2vs0mg"},{"bike_id":"8f909575-15ed-40f5-ae18-0c95329b2480","system_id":"levelo_inurba_marseille","lat":43.28049,"lon":5.36936,"is_reserved":false,"is_disabled":false,"rental_uris":{"android":"levelo://app?vid=8f909575-15ed-40f5-ae18-0c95329b2480","ios":"levelo://app?vid=8f909575-15ed-40f5-ae18-0c95329b2480"},"vehicle_type_id":"4","last_reported":1732674055,"current_range_meters":28000,"station_id":"ce4bha12rcd13ifvqef0","pricing_plan_id":"cebpf4jnsgd1na2vs0mg"},{"bike_id":"62c49c9f-db49-42d3-9bfc-6586cdffe13d","system_id":"levelo_inurba_marseille","lat":43.3151,"lon":5.37321,"is_reserved":false,"is_disabled":false,"rental_uris":{"android":"levelo://app?vid=62c49c9f-db49-42d3-9bfc-6586cdffe13d","ios":"levelo://app?vid=62c49c9f-db49-42d3-9bfc-6586cdffe13d"},"vehicle_type_id":"4","last_reported":1732674055,"current_range_meters":38800,"station_id":"ce4bgt12rcd13ifvqcd0","pricing_plan_id":"cebpf4jnsgd1na2vs0mg"},{"bike_id":"e5951ee3-4a5a-4ebb-b469-096c5188dfa3","system_id":"levelo_inurba_marseille","lat":43.23194,"lon":5.35544,"is_reserved":false,"is_disabled":false,"rental_uris":{"android":"levelo://app?vid=e5951ee3-4a5a-4ebb-b469-096c5188dfa3","ios":"levelo://app?vid=e5951ee3-4a5a-4ebb-b469-096c5188dfa3"},"vehicle_type_id":"4","last_reported":1732674055,"current_range_meters":34000,"station_id":"ce4bhu92rcd13ifvqi70","pricing_plan_id":"cebpf4jnsgd1na2vs0mg"},{"bike_id":"a8849e45-a02d-4da0-9306-d787ba72acfc","system_id":"levelo_inurba_marseille","lat":43.29509,"lon":5.39393,"is_reserved":false,"is_disabled":false,"rental_uris":{"android":"levelo://app?vid=a8849e45-a02d-4da0-9306-d787ba72acfc","ios":"levelo://app?vid=a8849e45-a02d-4da0-9306-d787ba72acfc"},"vehicle_type_id":"4","last_reported":1732674055,"current_range_meters":14000,"station_id":"ce4bh292rcd13ifvqdf0","pricing_plan_id":"cebpf4jnsgd1na2vs0mg"},{"bike_id":"c4ff3c2c-87d7-4575-9335-5f53ac047a46","system_id":"levelo_inurba_marseille","lat":43.27073,"lon":5.42279,"is_reserved":false,"is_disabled":false,"rental_uris":{"android":"levelo://app?vid=c4ff3c2c-87d7-4575-9335-5f53ac047a46","ios":"levelo://app?vid=c4ff3c2c-87d7-4575-9335-5f53ac047a46"},"vehicle_type_id":"4","last_reported":1732674055,"current_range_meters":38800,"station_id":"ce4bhk92rcd13ifvqgb0","pricing_plan_id":"cebpf4jnsgd1na2vs0mg"},{"bike_id":"8b90e280-1859-48e5-8cc1-f1521436ad0b","system_id":"levelo_inurba_marseille","lat":43.25584,"lon":5.38257,"is_reserved":false,"is_disabled":false,"rental_uris":{"android":"levelo://app?vid=8b90e280-1859-48e5-8cc1-f1521436ad0b","ios":"levelo://app?vid=8b90e280-1859-48e5-8cc1-f1521436ad0b"},"vehicle_type_id":"4","last_reported":1732674055,"current_range_meters":17600,"station_id":"ce4bhih2rcd13ifvqfs0","pricing_plan_id":"cebpf4jnsgd1na2vs0mg"},{"bike_id":"3379f44f-c07d-4ec3-b622-4c7ff9c0b74e","system_id":"levelo_inurba_marseille","lat":43.23192,"lon":5.35539,"is_reserved":false,"is_disabled":false,"rental_uris":{"android":"levelo://app?vid=3379f44f-c07d-4ec3-b622-4c7ff9c0b74e","ios":"levelo://app?vid=3379f44f-c07d-4ec3-b622-4c7ff9c0b74e"},"vehicle_type_id":"4","last_reported":1732674055,"current_range_meters":7200,"station_id":"ce4bhu92rcd13ifvqi70","pricing_plan_id":"cebpf4jnsgd1na2vs0mg"},{"bike_id":"6c948e9c-d5b3-4fe5-a918-1bd2f7c83b02","system_id":"levelo_inurba_marseille","lat":43.32123,"lon":5.36807,"is_reserved":false,"is_disabled":false,"rental_uris":{"android":"levelo://app?vid=6c948e9c-d5b3-4fe5-a918-1bd2f7c83b02","ios":"levelo://app?vid=6c948e9c-d5b3-4fe5-a918-1bd2f7c83b02"},"vehicle_type_id":"4","last_reported":1732674055,"current_range_meters":15200,"station_id":"ce4bhrh2rcd13ifvqhug","pricing_plan_id":"cebpf4jnsgd1na2vs0mg"},{"bike_id":"9e620abf-d324-4f99-84fc-d67e71109f2a","system_id":"levelo_inurba_marseille","lat":43.31077,"lon":5.42435,"is_reserved":false,"is_disabled":true,"rental_uris":{"android":"levelo://app?vid=9e620abf-d324-4f99-84fc-d67e71109f2a","ios":"levelo://app?vid=9e620abf-d324-4f99-84fc-d67e71109f2a"},"vehicle_type_id":"4","last_reported":1732674055,"current_range_meters":0,"station_id":"ce4bhp92rcd13ifvqhag","pricing_plan_id":"cebpf4jnsgd1na2vs0mg"},{"bike_id":"311c22a9-d002-4f76-a390-2ec196f39862","system_id":"levelo_inurba_marseille","lat":43.31025,"lon":5.38342,"is_reserved":false,"is_disabled":true,"rental_uris":{"android":"levelo://app?vid=311c22a9-d002-4f76-a390-2ec196f39862","ios":"levelo://app?vid=311c22a9-d002-4f76-a390-2ec196f39862"},"vehicle_type_id":"4","last_reported":1732674055,"current_range_meters":0,"station_id":"","pricing_plan_id":"cebpf4jnsgd1na2vs0mg"},{"bike_id":"047f1f9d-58af-4872-9794-3b5fe9f3ce18","system_id":"levelo_inurba_marseille","lat":43.31331,"lon":5.39706,"is_reserved":false,"is_disabled":false,"rental_uris":{"android":"levelo://app?vid=047f1f9d-58af-4872-9794-3b5fe9f3ce18","ios":"levelo://app?vid=047f1f9d-58af-4872-9794-3b5fe9f3ce18"},"vehicle_type_id":"4","last_reported":1732674055,"current_range_meters":36000,"station_id":"ce4bgvp2rcd13ifvqcu0","pricing_plan_id":"cebpf4jnsgd1na2vs0mg"},{"bike_id":"61248f67-1f70-427f-8a70-08cdafab4410","system_id":"levelo_inurba_marseille","lat":43.29643,"lon":5.40593,"is_reserved":false,"is_disabled":false,"rental_uris":{"android":"levelo://app?vid=61248f67-1f70-427f-8a70-08cdafab4410","ios":"levelo://app?vid=61248f67-1f70-427f-8a70-08cdafab4410"},"vehicle_type_id":"4","last_reported":1732674055,"current_range_meters":26000,"station_id":"ce4bh0h2rcd13ifvqd60","pricing_plan_id":"cebpf4jnsgd1na2vs0mg"},{"bike_id":"8c79e570-47a5-4e10-96a4-2fc604c2da79","system_id":"levelo_inurba_marseille","lat":43.28102,"lon":5.37838,"is_reserved":false,"is_disabled":false,"rental_uris":{"android":"levelo://app?vid=8c79e570-47a5-4e10-96a4-2fc604c2da79","ios":"levelo://app?vid=8c79e570-47a5-4e10-96a4-2fc604c2da79"},"vehicle_type_id":"4","last_reported":1732674055,"current_range_meters":18800,"station_id":"ce4bha12rcd13ifvqee0","pricing_plan_id":"cebpf4jnsgd1na2vs0mg"},{"bike_id":"319db8f6-ad1c-4b46-ad57-5033d5ed25eb","system_id":"levelo_inurba_marseille","lat":43.25724,"lon":5.41104,"is_reserved":false,"is_disabled":false,"rental_uris":{"android":"levelo://app?vid=319db8f6-ad1c-4b46-ad57-5033d5ed25eb","ios":"levelo://app?vid=319db8f6-ad1c-4b46-ad57-5033d5ed25eb"},"vehicle_type_id":"4","last_reported":1732674055,"current_range_meters":20400,"station_id":"ce4bhkp2rcd13ifvqgd0","pricing_plan_id":"cebpf4jnsgd1na2vs0mg"},{"bike_id":"5c53cfbd-2547-413a-b79a-f8cc3b1ca992","system_id":"levelo_inurba_marseille","lat":43.32107,"lon":5.36809,"is_reserved":false,"is_disabled":false,"rental_uris":{"android":"levelo://app?vid=5c53cfbd-2547-413a-b79a-f8cc3b1ca992","ios":"levelo://app?vid=5c53cfbd-2547-413a-b79a-f8cc3b1ca992"},"vehicle_type_id":"4","last_reported":1732674055,"current_range_meters":28800,"station_id":"ce4bhrh2rcd13ifvqhug","pricing_plan_id":"cebpf4jnsgd1na2vs0mg"},{"bike_id":"18045cdd-2260-48a4-ab4b-06afcf0afb50","system_id":"levelo_inurba_marseille","lat":43.28271,"lon":5.35074,"is_reserved":false,"is_disabled":false,"rental_uris":{"android":"levelo://app?vid=18045cdd-2260-48a4-ab4b-06afcf0afb50","ios":"levelo://app?vid=18045cdd-2260-48a4-ab4b-06afcf0afb50"},"vehicle_type_id":"4","last_reported":1732674055,"current_range_meters":34000,"station_id":"ce4bhbp2rcd13ifvqerg","pricing_plan_id":"cebpf4jnsgd1na2vs0mg"},{"bike_id":"c7fe4fc5-fac4-4f1b-972c-78550c203873","system_id":"levelo_inurba_marseille","lat":43.29205,"lon":5.39319,"is_reserved":false,"is_disabled":false,"rental_uris":{"android":"levelo://app?vid=c7fe4fc5-fac4-4f1b-972c-78550c203873","ios":"levelo://app?vid=c7fe4fc5-fac4-4f1b-972c-78550c203873"},"vehicle_type_id":"4","last_reported":1732674055,"current_range_meters":37600,"station_id":"ce4bh192rcd13ifvqdd0","pricing_plan_id":"cebpf4jnsgd1na2vs0mg"},{"bike_id":"e3910269-0960-41ab-9a5c-2f153c15e14c","system_id":"levelo_inurba_marseille","lat":43.25579,"lon":5.38213,"is_reserved":false,"is_disabled":false,"rental_uris":{"android":"levelo://app?vid=e3910269-0960-41ab-9a5c-2f153c15e14c","ios":"levelo://app?vid=e3910269-0960-41ab-9a5c-2f153c15e14c"},"vehicle_type_id":"4","last_reported":1732674055,"current_range_meters":38400,"station_id":"ce4bhih2rcd13ifvqfs0","pricing_plan_id":"cebpf4jnsgd1na2vs0mg"},{"bike_id":"49653a55-5a6c-41f9-820b-80b194fa8c56","system_id":"levelo_inurba_marseille","lat":43.28094,"lon":5.37849,"is_reserved":false,"is_disabled":false,"rental_uris":{"android":"levelo://app?vid=49653a55-5a6c-41f9-820b-80b194fa8c56","ios":"levelo://app?vid=49653a55-5a6c-41f9-820b-80b194fa8c56"},"vehicle_type_id":"4","last_reported":1732674055,"current_range_meters":38400,"station_id":"ce4bha12rcd13ifvqee0","pricing_plan_id":"cebpf4jnsgd1na2vs0mg"},{"bike_id":"c628ef58-b5e1-4b4c-85be-1407b9351f2c","system_id":"levelo_inurba_marseille","lat":43.23951,"lon":5.36649,"is_reserved":false,"is_disabled":false,"rental_uris":{"android":"levelo://app?vid=c628ef58-b5e1-4b4c-85be-1407b9351f2c","ios":"levelo://app?vid=c628ef58-b5e1-4b4c-85be-1407b9351f2c"},"vehicle_type_id":"4","last_reported":1732674055,"current_range_meters":10000,"station_id":"ce4bhi12rcd13ifvqfp0","pricing_plan_id":"cebpf4jnsgd1na2vs0mg"},{"bike_id":"6d82135d-90dd-4cd1-bb9c-95513e49f2a1","system_id":"levelo_inurba_marseille","lat":43.28008,"lon":5.4004,"is_reserved":false,"is_disabled":false,"rental_uris":{"android":"levelo://app?vid=6d82135d-90dd-4cd1-bb9c-95513e49f2a1","ios":"levelo://app?vid=6d82135d-90dd-4cd1-bb9c-95513e49f2a1"},"vehicle_type_id":"4","last_reported":1732674055,"current_range_meters":29600,"station_id":"ce4bho92rcd13ifvqh4g","pricing_plan_id":"cebpf4jnsgd1na2vs0mg"},{"bike_id":"2ca9605c-5ec3-4ba9-84c5-d21f7f922f37","system_id":"levelo_inurba_marseille","lat":43.2844,"lon":5.39192,"is_reserved":false,"is_disabled":false,"rental_uris":{"android":"levelo://app?vid=2ca9605c-5ec3-4ba9-84c5-d21f7f922f37","ios":"levelo://app?vid=2ca9605c-5ec3-4ba9-84c5-d21f7f922f37"},"vehicle_type_id":"4","last_reported":1732674055,"current_range_meters":36800,"station_id":"ce4bhoh2rcd13ifvqh5g","pricing_plan_id":"cebpf4jnsgd1na2vs0mg"},{"bike_id":"276c8eac-f26f-4d52-8494-1e5f39f12889","system_id":"levelo_inurba_marseille","lat":43.25581,"lon":5.3824,"is_reserved":false,"is_disabled":false,"rental_uris":{"android":"levelo://app?vid=276c8eac-f26f-4d52-8494-1e5f39f12889","ios":"levelo://app?vid=276c8eac-f26f-4d52-8494-1e5f39f12889"},"vehicle_type_id":"4","last_reported":1732674055,"current_range_meters":38800,"station_id":"ce4bhih2rcd13ifvqfs0","pricing_plan_id":"cebpf4jnsgd1na2vs0mg"},{"bike_id":"40373390-4a6b-49c7-9be2-78b71cf451bd","system_id":"levelo_inurba_marseille","lat":43.29257,"lon":5.40921,"is_reserved":false,"is_disabled":false,"rental_uris":{"android":"levelo://app?vid=40373390-4a6b-49c7-9be2-78b71cf451bd","ios":"levelo://app?vid=40373390-4a6b-49c7-9be2-78b71cf451bd"},"vehicle_type_id":"4","last_reported":1732674055,"current_range_meters":39200,"station_id":"ce4bh192rcd13ifvqdc0","pricing_plan_id":"cebpf4jnsgd1na2vs0mg"},{"bike_id":"32d3feff-25ce-4c69-94cf-f83de9897a97","system_id":"levelo_inurba_marseille","lat":43.28412,"lon":5.37492,"is_reserved":false,"is_disabled":false,"rental_uris":{"android":"levelo://app?vid=32d3feff-25ce-4c69-94cf-f83de9897a97","ios":"levelo://app?vid=32d3feff-25ce-4c69-94cf-f83de9897a97"},"vehicle_type_id":"4","last_reported":1732674055,"current_range_meters":32800,"station_id":"ce4bh412rcd13ifvqds0","pricing_plan_id":"cebpf4jnsgd1na2vs0mg"},