{"last_updated":1679252752,"ttl":30,"version":"2.2","data":{"bikes":[{"bike_id":"8fbbd6ac-ced2-4159-acef-8c122d1700fe","system_id":"levelo_inurba_marseille","lat":43.312239,"lon":5.368562,"is_reserved":false,"is_disabled":false,"rental_uris":{"android":"levelo://app?vid=8fbbd6ac-ced2-4159-acef-8c122d1700fe","ios":"levelo://app?vid=8fbbd6ac-ced2-4159-acef-8c122d1700fe"},"vehicle_type_id":"4","last_reported":1679252752,"current_range_meters":400,"station_id":"ce4bgl92rcd13ifvqbq0","pricing_plan_id":"free"},{"bike_id":"6bfa1c2f-545d-4448-bb0e-a841b1cd3b5b","system_id":"levelo_inurba_marseille","lat":43.31227,"lon":5.3686,"is_reserved":false,"is_disabled":false,"rental_uris":{"android":"levelo://app?vid=6bfa1c2f-545d-4448-bb0e-a841b1cd3b5b","ios":"levelo://app?vid=6bfa1c2f-545d-4448-bb0e-a841b1cd3b5b"},"vehicle_type_id":"4","last_reported":1679252752,"current_range_meters":28000,"station_id":"ce4bgl92rcd13ifvqbq0","pricing_plan_id":"free"},{"bike_id":"9871494e-b4f1-499f-9c14-087cc5683baa","system_id":"levelo_inurba_marseille","lat":43.309076,"lon":5.368465,"is_reserved":false,"is_disabled":false,"rental_uris":{"android":"levelo://app?vid=9871494e-b4f1-499f-9c14-087cc5683baa","ios":"levelo://app?vid=9871494e-b4f1-499f-9c14-087cc5683baa"},"vehicle_type_id":"4","last_reported":1679252752,"current_range_meters":0,"station_id":"ce4bgn92rcd13ifvqbvg","pricing_plan_id":"free"},{"bike_id":"acd3e3ae-5719-4ab7-bf30-b5cc8cc0e65d","system_id":"levelo_inurba_marseille","lat":43.31792,"lon":5.37795,"is_reserved":false,"is_disabled":false,"rental_uris":{"android":"levelo://app?vid=acd3e3ae-5719-4ab7-bf30-b5cc8cc0e65d","ios":"levelo://app?vid=acd3e3ae-5719-4ab7-bf30-b5cc8cc0e65d"},"vehicle_type_id":"4","last_reported":1679252752,"current_range_meters":0,"station_id":"","pricing_plan_id":"free"},{"bike_id":"6e2c3c37-3294-40f8-979c-eddfa95b6fbf","system_id":"levelo_inurba_marseille","lat":43.304606,"lon":5.379026,"is_reserved":false,"is_disabled":false,"rental_uris":{"android":"levelo://app?vid=6e2c3c37-3294-40f8-979c-eddfa95b6fbf","ios":"levelo://app?vid=6e2c3c37-3294-40f8-979c-eddfa95b6fbf"},"vehicle_type_id":"4","last_reported":1679252752,"current_range_meters":10400,"station_id":"ce4bgup2rcd13ifvqcn0","pricing_plan_id":"free"},{"bike_id":"fc29ebda-dcc7-4210-b56e-bfbbc216868d","system_id":"levelo_inurba_marseille","lat":43.313571,"lon":5.384829,"is_reserved":false,"is_disabled":false,"rental_uris":{"android":"levelo://app?vid=fc29ebda-dcc7-4210-b56e-bfbbc216868d","ios":"levelo://app?vid=fc29ebda-dcc7-4210-b56e-bfbbc216868d"},"vehicle_type_id":"4","last_reported":1679252752,"current_range_meters":0,"station_id":"ce4bgt92rcd13ifvqcf0","pricing_plan_id":"free"},{"bike_id":"86cedb37-3703-402f-89dd-e6618775cc28","system_id":"levelo_inurba_marseille","lat":43.300871,"lon":5.374813,"is_reserved":false,"is_disabled":false,"rental_uris":{"android":"levelo://app?vid=86cedb37-3703-402f-89dd-e6618775cc28","ios":"levelo://app?vid=86cedb37-3703-402f-89dd-e6618775cc28"},"vehicle_type_id":"4","last_reported":1679252752,"current_range_meters":0,"station_id":"","pricing_plan_id":"free"},{"bike_id":"8c603966-58ce-440d-acb4-5834f9b912c8","system_id":"levelo_inurba_marseille","lat":43.311722,"lon":5.387247,"is_reserved":false,"is_disabled":false,"rental_uris":{"android":"levelo://app?vid=8c603966-58ce-440d-acb4-5834f9b912c8","ios":"levelo://app?vid=8c603966-58ce-440d-acb4-5834f9b912c8"},"vehicle_type_id":"4","last_reported":1679252752,"current_range_meters":6800,"station_id":"ce4bgv12rcd13ifvqcp0","pricing_plan_id":"free"},{"bike_id":"d6aabfc5-3d5f-42bb-883c-87c2ae6c5b80","system_id":"levelo_inurba_marseille","lat":43.299243,"lon":5.374807,"is_reserved":false,"is_disabled":false,"rental_uris":{"android":"levelo://app?vid=d6aabfc5-3d5f-42bb-883c-87c2ae6c5b80","ios":"levelo://app?vid=d6aabfc5-3d5f-42bb-883c-87c2ae6c5b80"},"vehicle_type_id":"4","last_reported":1679252752,"current_range_meters":0,"station_id":"ce4bgjh2rcd13ifvqbg0","pricing_plan_id":"free"},{"bike_id":"04828532-ba93-4038-a742-9ab68a2bcc6b","system_id":"levelo_inurba_marseille","lat":43.311722,"lon":5.387247,"is_reserved":false,"is_disabled":false,"rental_uris":{"android":"levelo://app?vid=04828532-ba93-4038-a742-9ab68a2bcc6b","ios":"levelo://app?vid=04828532-ba93-4038-a742-9ab68a2bcc6b"},"vehicle_type_id":"4","last_reported":1679252752,"current_range_meters":400,"station_id":"ce4bgv12rcd13ifvqcp0","pricing_plan_id":"free"},{"bike_id":"6b7edcdf-1b67-429f-ac00-af78db039c33","system_id":"levelo_inurba_marseille","lat":43.29785,"lon":5.37096,"is_reserved":false,"is_disabled":false,"rental_uris":{"android":"levelo://app?vid=6b7edcdf-1b67-429f-ac00-af78db039c33","ios":"levelo://app?vid=6b7edcdf-1b67-429f-ac00-af78db039c33"},"vehicle_type_id":"4","last_reported":1679252752,"current_range_meters":0,"station_id":"","pricing_plan_id":"free"},{"bike_id":"7b38ce2a-d95e-4fe6-82ed-235640470951","system_id":"levelo_inurba_marseille","lat":43.328371,"lon":5.366909,"is_reserved":false,"is_disabled":false,"rental_uris":{"android":"levelo://app?vid=7b38ce2a-d95e-4fe6-82ed-235640470951","ios":"levelo://app?vid=7b38ce2a-d95e-4fe6-82ed-235640470951"},"vehicle_type_id":"4","last_reported":1679252752,"current_range_meters":10400,"station_id":"ce4bhs92rcd13ifvqi0g","pricing_plan_id":"free"},{"bike_id":"ca8ecb2f-52dc-4d6d-aaf5-661a8c09eb84","system_id":"levelo_inurba_marseille","lat":43.29676,"lon":5.37289,"is_reserved":false,"is_disabled":false,"rental_uris":{"android":"levelo://app?vid=ca8ecb2f-52dc-4d6d-aaf5-661a8c09eb84","ios":"levelo://app?vid=ca8ecb2f-52dc-4d6d-aaf5-661a8c09eb84"},"vehicle_type_id":"4","last_reported":1679252752,"current_range_meters":3200,"station_id":"","pricing_plan_id":"free"},{"bike_id":"34a80aad-caac-463e-9662-d5fdb0886466","system_id":"levelo_inurba_marseille","lat":43.309589,"lon":5.390258,"is_reserved":false,"is_disabled":false,"rental_uris":{"android":"levelo://app?vid=34a80aad-caac-463e-9662-d5fdb0886466","ios":"levelo://app?vid=34a80aad-caac-463e-9662-d5fdb0886466"},"vehicle_type_id":"4","last_reported":1679252752,"current_range_meters":4400,"station_id":"ce4bgup2rcd13ifvqco0","pricing_plan_id":"free"},{"bike_id":"d2806991-aca0-4e2f-823e-8c134a702787","system_id":"levelo_inurba_marseille","lat":43.31758,"lon":5.3901,"is_reserved":false,"is_disabled":false,"rental_uris":{"android":"levelo://app?vid=d2806991-aca0-4e2f-823e-8c134a702787","ios":"levelo://app?vid=d2806991-aca0-4e2f-823e-8c134a702787"},"vehicle_type_id":"4","last_reported":1679252752,"current_range_meters":13200,"station_id":"ce4bhqp2rcd13ifvqhng","pricing_plan_id":"free"},{"bike_id":"9ae4ac68-6977-4feb-b8e8-b76d632ab699","system_id":"levelo_inurba_marseille","lat":43.317557,"lon":5.390173,"is_reserved":false,"is_disabled":false,"rental_uris":{"android":"levelo://app?vid=9ae4ac68-6977-4feb-b8e8-b76d632ab699","ios":"levelo://app?vid=9ae4ac68-6977-4feb-b8e8-b76d632ab699"},"vehicle_type_id":"4","last_reported":1679252752,"current_range_meters":20000,"station_id":"ce4bhqp2rcd13ifvqhng","pricing_plan_id":"free"},{"bike_id":"8f0253d3-dd17-42cf-841b-2d4082d06618","system_id":"levelo_inurba_marseille","lat":43.298043,"lon":5.380925,"is_reserved":false,"is_disabled":false,"rental_uris":{"android":"levelo://app?vid=8f0253d3-dd17-42cf-841b-2d4082d06618","ios":"levelo://app?vid=8f0253d3-dd17-42cf-841b-2d4082d06618"},"vehicle_type_id":"4","last_reported":1679252752,"current_range_meters":0,"station_id":"ce4bgip2rcd13ifvqbb0","pricing_plan_id":"free"},{"bike_id":"83feaabc-20fa-492c-96a4-fcba390c38b6","system_id":"levelo_inurba_marseille","lat":43.297979,"lon":5.381003,"is_reserved":false,"is_disabled":false,"rental_uris":{"android":"levelo://app?vid=83feaabc-20fa-492c-96a4-fcba390c38b6","ios":"levelo://app?vid=83feaabc-20fa-492c-96a4-fcba390c38b6"},"vehicle_type_id":"4","last_reported":1679252752,"current_range_meters":26000,"station_id":"ce4bgip2rcd13ifvqbb0","pricing_plan_id":"free"},{"bike_id":"3952cc7e-abb6-4939-9b8f-473bafc6e6d4","system_id":"levelo_inurba_marseille","lat":43.30417,"lon":5.38884,"is_reserved":false,"is_disabled":false,"rental_uris":{"android":"levelo://app?vid=3952cc7e-abb6-4939-9b8f-473bafc6e6d4","ios":"levelo://app?vid=3952cc7e-abb6-4939-9b8f-473bafc6e6d4"},"vehicle_type_id":"4","last_reported":1679252752,"current_range_meters":0,"station_id":"ce4bgk12rcd13ifvqbi0","pricing_plan_id":"free"},{"bike_id":"9e189fb1-1bd8-47a8-8bc6-53367deb8ea9","system_id":"levelo_inurba_marseille","lat":43.296277,"lon":5.377108,"is_reserved":false,"is_disabled":false,"rental_uris":{"android":"levelo://app?vid=9e189fb1-1bd8-47a8-8bc6-53367deb8ea9","ios":"levelo://app?vid=9e189fb1-1bd8-47a8-8bc6-53367deb8ea9"},"vehicle_type_id":"4","last_reported":1679252752,"current_range_meters":8000,"station_id":"ce4bgi92rcd13ifvqb90","pricing_plan_id":"free"},{"bike_id":"fa39a3c1-92d2-47f6-a16c-ae6f9ca4963c","system_id":"levelo_inurba_marseille","lat":43.32367,"lon":5.388836,"is_reserved":false,"is_disabled":false,"rental_uris":{"android":"levelo://app?vid=fa39a3c1-92d2-47f6-a16c-ae6f9ca4963c","ios":"levelo://app?vid=fa39a3c1-92d2-47f6-a16c-ae6f9ca4963c"},"vehicle_type_id":"4","last_reported":1679252752,"current_range_meters":11200,"station_id":"ce4bhqp2rcd13ifvqhog","pricing_plan_id":"free"},{"bike_id":"25a690a1-8ce6-46a3-bda6-cea29969af9d","system_id":"levelo_inurba_marseille","lat":43.32367,"lon":5.388836,"is_reserved":false,"is_disabled":false,"rental_uris":{"android":"levelo://app?vid=25a690a1-8ce6-46a3-bda6-cea29969af9d","ios":"levelo://app?vid=25a690a1-8ce6-46a3-bda6-cea29969af9d"},"vehicle_type_id":"4","last_reported":1679252752,"current_range_meters":3200,"station_id":"ce4bhqp2rcd13ifvqhog","pricing_plan_id":"free"},{"bike_id":"64e2b4c9-fdab-446a-86ff-26d2be84d5f1","system_id":"levelo_inurba_marseille","lat":43.32367,"lon":5.388836,"is_reserved":false,"is_disabled":false,"rental_uris":{"android":"levelo://app?vid=64e2b4c9-fdab-446a-86ff-26d2be84d5f1","ios":"levelo://app?vid=64e2b4c9-fdab-446a-86ff-26d2be84d5f1"},"vehicle_type_id":"4","last_reported":1679252752,"current_range_meters":9200,"station_id":"ce4bhqp2rcd13ifvqhog","pricing_plan_id":"free"},{"bike_id":"7442688b-028b-4489-9965-4123df155baa","system_id":"levelo_inurba_marseille","lat":43.32367,"lon":5.388836,"is_reserved":false,"is_disabled":false,"rental_uris":{"android":"levelo://app?vid=7442688b-028b-4489-9965-4123df155baa","ios":"levelo://app?vid=7442688b-028b-4489-9965-4123df155baa"},"vehicle_type_id":"4","last_reported":1679252752,"current_range_meters":11600,"station_id":"ce4bhqp2rcd13ifvqhog","pricing_plan_id":"free"},{"bike_id":"dc2a66cb-9f68-41ff-afd4-106736553a96","system_id":"levelo_inurba_marseille","lat":43.32367,"lon":5.388836,"is_reserved":false,"is_disabled":false,"rental_uris":{"android":"levelo://app?vid=dc2a66cb-9f68-41ff-afd4-106736553a96","ios":"levelo://app?vid=dc2a66cb-9f68-41ff-afd4-106736553a96"},"vehicle_type_id":"4","last_reported":1679252752,"current_range_meters":4800,"station_id":"ce4bhqp2rcd13ifvqhog","pricing_plan_id":"free"},{"bike_id":"ee186a90-cd7d-42d2-9155-6aaf2657b040","system_id":"levelo_inurba_marseille","lat":43.32367,"lon":5.388836,"is_reserved":false,"is_disabled":false,"rental_uris":{"android":"levelo://app?vid=ee186a90-cd7d-42d2-9155-6aaf2657b040","ios":"levelo://app?vid=ee186a90-cd7d-42d2-9155-6aaf2657b040"},"vehicle_type_id":"4","last_reported":1679252752,"current_range_meters":13600,"station_id":"ce4bhqp2rcd13ifvqhog","pricing_plan_id":"free"},{"bike_id":"71eec9cb-fdbc-42cc-af5a-4adf6b16d378","system_id":"levelo_inurba_marseille","lat":43.32367,"lon":5.388836,"is_reserved":false,"is_disabled":false,"rental_uris":{"android":"levelo://app?vid=71eec9cb-fdbc-42cc-af5a-4adf6b16d378","ios":"levelo://app?vid=71eec9cb-fdbc-42cc-af5a-4adf6b16d378"},"vehicle_type_id":"4","last_reported":1679252752,"current_range_meters":4400,"station_id":"ce4bhqp2rcd13ifvqhog","pricing_plan_id":"free"},{"bike_id":"798fffe4-0539-472c-8242-2057632461ad","system_id":"levelo_inurba_marseille","lat":43.293009,"lon":5.374584,"is_reserved":false,"is_disabled":false,"rental_uris":{"android":"levelo://app?vid=798fffe4-0539-472c-8242-2057632461ad","ios":"levelo://app?vid=798fffe4-0539-472c-8242-2057632461ad"},"vehicle_type_id":"4","last_reported":1679252752,"current_range_meters":0,"station_id":"ce4bgi12rcd13ifvqb70","pricing_plan_id":"free"},{"bike_id":"cea5268b-f85a-425b-a5ea-b16599d442af","system_id":"levelo_inurba_marseille","lat":43.298764,"lon":5.388973,"is_reserved":false,"is_disabled":false,"rental_uris":{"android":"levelo://app?vid=cea5268b-f85a-425b-a5ea-b16599d442af","ios":"levelo://app?vid=cea5268b-f85a-425b-a5ea-b16599d442af"},"vehicle_type_id":"4","last_reported":1679252752,"current_range_meters":19600,"station_id":"ce4bh392rcd13ifvqdl0","pricing_plan_id":"free"},{"bike_id":"cc15f654-eaab-4249-965a-036ae107dc1a","system_id":"levelo_inurba_marseille","lat":43.313291,"lon":5.396838,"is_reserved":false,"is_disabled":false,"rental_uris":{"android":"levelo://app?vid=cc15f654-eaab-4249-965a-036ae107dc1a","ios":"levelo://app?vid=cc15f654-eaab-4249-965a-036ae107dc1a"},"vehicle_type_id":"4","last_reported":1679252752,"current_range_meters":14400,"station_id":"ce4bgvp2rcd13ifvqcu0","pricing_plan_id":"free"},{"bike_id":"32d1cfe6-3934-46da-bc1a-4331a67593d4","system_id":"levelo_inurba_marseille","lat":43.29529,"lon":5.385581,"is_reserved":false,"is_disabled":false,"rental_uris":{"android":"levelo://app?vid=32d1cfe6-3934-46da-bc1a-4331a67593d4","ios":"levelo://app?vid=32d1cfe6-3934-46da-bc1a-4331a67593d4"},"vehicle_type_id":"4","last_reported":1679252752,"current_range_meters":400,"station_id":"ce4bgih2rcd13ifvqba0","pricing_plan_id":"free"},{"bike_id":"29196cf8-4c84-4e1a-aa4e-79b2648e1b48","system_id":"levelo_inurba_marseille","lat":43.290624,"lon":5.359245,"is_reserved":false,"is_disabled":false,"rental_uris":{"android":"levelo://app?vid=29196cf8-4c84-4e1a-aa4e-79b2648e1b48","ios":"levelo://app?vid=29196cf8-4c84-4e1a-aa4e-79b2648e1b48"},"vehicle_type_id":"4","last_reported":1679252752,"current_range_meters":5600,"station_id":"ce4bha92rcd13ifvqeg0","pricing_plan_id":"free"},{"bike_id":"43a99a18-a314-453c-8c00-d786cc9f455a","system_id":"levelo_inurba_marseille","lat":43.290319,"lon":5.375732,"is_reserved":false,"is_disabled":false,"rental_uris":{"android":"levelo://app?vid=43a99a18-a314-453c-8c00-d786cc9f455a","ios":"levelo://app?vid=43a99a18-a314-453c-8c00-d786cc9f455a"},"vehicle_type_id":"4","last_reported":1679252752,"current_range_meters":4000,"station_id":"ce4bh692rcd13ifvqe90","pricing_plan_id":"free"},{"bike_id":"7cbbd251-c9b0-4f84-a1f1-02093526777c","system_id":"levelo_inurba_marseille","lat":43.290104,"lon":5.356111,"is_reserved":false,"is_disabled":false,"rental_uris":{"android":"levelo://app?vid=7cbbd251-c9b0-4f84-a1f1-02093526777c","ios":"levelo://app?vid=7cbbd251-c9b0-4f84-a1f1-02093526777c"},"vehicle_type_id":"4","last_reported":1679252752,"current_range_meters":0,"station_id":"ce4bhb92rcd13ifvqen0","pricing_plan_id":"free"},{"bike_id":"5a2301e3-a2de-426b-bcfb-3a61d8a03c53","system_id":"levelo_inurba_marseille","lat":43.33037,"lon":5.38921,"is_reserved":false,"is_disabled":false,"rental_uris":{"android":"levelo://app?vid=5a2301e3-a2de-426b-bcfb-3a61d8a03c53","ios":"levelo://app?vid=5a2301e3-a2de-426b-bcfb-3a61d8a03c53"},"vehicle_type_id":"4","last_reported":1679252752,"current_range_meters":0,"station_id":"","pricing_plan_id":"free"},{"bike_id":"64600df4-54d8-4aa3-a728-13ab03e4370b","system_id":"levelo_inurba_marseille","lat":43.330442,"lon":5.389148,"is_reserved":false,"is_disabled":false,"rental_uris":{"android":"levelo://app?vid=64600df4-54d8-4aa3-a728-13ab03e4370b","ios":"levelo://app?vid=64600df4-54d8-4aa3-a728-13ab03e4370b"},"vehicle_type_id":"4","last_reported":1679252752,"current_range_meters":7200,"station_id":"ce4bhr92rcd13ifvqhrg","pricing_plan_id":"free"},{"bike_id":"8e084861-9ee5-4ec1-86a1-56c110f69f05","system_id":"levelo_inurba_marseille","lat":43.290104,"lon":5.356111,"is_reserved":false,"is_disabled":false,"rental_uris":{"android":"levelo://app?vid=8e084861-9ee5-4ec1-86a1-56c110f69f05","ios":"levelo://app?vid=8e084861-9ee5-4ec1-86a1-56c110f69f05"},"vehicle_type_id":"4","last_reported":1679252752,"current_range_meters":16000,"station_id":"ce4bhb92rcd13ifvqen0","pricing_plan_id":"free"},{"bike_id":"86596098-7bbd-49eb-ab5d-afb8e8dd3223","system_id":"levelo_inurba_marseille","lat":43.290104,"lon":5.356111,"is_reserved":false,"is_disabled":false,"rental_uris":{"android":"levelo://app?vid=86596098-7bbd-49eb-ab5d-afb8e8dd3223","ios":"levelo://app?vid=86596098-7bbd-49eb-ab5d-afb8e8dd3223"},"vehicle_type_id":"4","last_reported":1679252752,"current_range_meters":8000,"station_id":"ce4bhb92rcd13ifvqen0","pricing_plan_id":"free"},{"bike_id":"8371e466-d8d1-483c-86fd-cd7126981c8b","system_id":"levelo_inurba_marseille","lat":43.290104,"lon":5.356111,"is_reserved":false,"is_disabled":false,"rental_uris":{"android":"levelo://app?vid=8371e466-d8d1-483c-86fd-cd7126981c8b","ios":"levelo://app?vid=8371e466-d8d1-483c-86fd-cd7126981c8b"},"vehicle_type_id":"4","last_reported":1679252752,"current_range_meters":6000,"station_id":"ce4bhb92rcd13ifvqen0","pricing_plan_id":"free"},{"bike_id":"3b0dc526-890a-4c46-91ac-cd25841e56b9","system_id":"levelo_inurba_marseille","lat":43.289759,"lon":5.378371,"is_reserved":false,"is_disabled":false,"rental_uris":{"android":"levelo://app?vid=3b0dc526-890a-4c46-91ac-cd25841e56b9","ios":"levelo://app?vid=3b0dc526-890a-4c46-91ac-cd25841e56b9"},"vehicle_type_id":"4","last_reported":1679252752,"current_range_meters":0,"station_id":"","pricing_plan_id":"free"},{"bike_id":"6ecfeebf-79c3-4f25-9cef-c8dd2a85f0b1","system_id":"levelo_inurba_marseille","lat":43.28856,"lon":5.358371,"is_reserved":false,"is_disabled":false,"rental_uris":{"android":"levelo://app?vid=6ecfeebf-79c3-4f25-9cef-c8dd2a85f0b1","ios":"levelo://app?vid=6ecfeebf-79c3-4f25-9cef-c8dd2a85f0b1"},"vehicle_type_id":"4","last_reported":1679252752,"current_range_meters":800,"station_id":"ce4bhb12rcd13ifvqem0","pricing_plan_id":"free"},{"bike_id":"a5481e19-0afb-42d6-abad-20cba227abfd","system_id":"levelo_inurba_marseille","lat":43.28856,"lon":5.358371,"is_reserved":false,"is_disabled":false,"rental_uris":{"android":"levelo://app?vid=a5481e19-0afb-42d6-abad-20cba227abfd","ios":"levelo://app?vid=a5481e19-0afb-42d6-abad-20cba227abfd"},"vehicle_type_id":"4","last_reported":1679252752,"current_range_meters":6000,"station_id":"ce4bhb12rcd13ifvqem0","pricing_plan_id":"free"},{"bike_id":"8d3ca5c6-c3be-4616-aca7-dd23811b1c7a","system_id":"levelo_inurba_marseille","lat":43.290136,"lon":5.382006,"is_reserved":false,"is_disabled":false,"rental_uris":{"android":"levelo://app?vid=8d3ca5c6-c3be-4616-aca7-dd23811b1c7a","ios":"levelo://app?vid=8d3ca5c6-c3be-4616-aca7-dd23811b1c7a"},"vehicle_type_id":"4","last_reported":1679252752,"current_range_meters":0,"station_id":"","pricing_plan_id":"free"},{"bike_id":"d0d7df32-c37a-428a-9862-70b0480dd19b","system_id":"levelo_inurba_marseille","lat":43.337455,"lon":5.374605,"is_reserved":false,"is_disabled":false,"rental_uris":{"android":"levelo://app?vid=d0d7df32-c37a-428a-9862-70b0480dd19b","ios":"levelo://app?vid=d0d7df32-c37a-428a-9862-70b0480dd19b"},"vehicle_type_id":"4","last_reported":1679252752,"current_range_meters":4400,"station_id":"","pricing_plan_id":"free"},{"bike_id":"3691d997-1cad-46ed-b7e6-586680d35f2f","system_id":"levelo_inurba_marseille","lat":43.337472,"lon":5.374579,"is_reserved":false,"is_disabled":false,"rental_uris":{"android":"levelo://app?vid=3691d997-1cad-46ed-b7e6-586680d35f2f","ios":"levelo://app?vid=3691d997-1cad-46ed-b7e6-586680d35f2f"},"vehicle_type_id":"4","last_reported":1679252752,"current_range_meters":16800,"station_id":"","pricing_plan_id":"free"},{"bike_id":"f3e60a9c-2b74-43cb-ac11-5dfafdbb73c0","system_id":"levelo_inurba_marseille","lat":43.337598,"lon":5.374671,"is_reserved":false,"is_disabled":false,"rental_uris":{"android":"levelo://app?vid=f3e60a9c-2b74-43cb-ac11-5dfafdbb73c0","ios":"levelo://app?vid=f3e60a9c-2b74-43cb-ac11-5dfafdbb73c0"},"vehicle_type_id":"4","last_reported":1679252752,"current_range_meters":20800,"station_id":"","pricing_plan_id":"free"},{"bike_id":"1de4bfd1-baec-4079-8f69-81964f6d6731","system_id":"levelo_inurba_marseille","lat":43.30642,"lon":5.401031,"is_reserved":false,"is_disabled":false,"rental_uris":{"android":"levelo://app?vid=1de4bfd1-baec-4079-8f69-81964f6d6731","ios":"levelo://app?vid=1de4bfd1-baec-4079-8f69-81964f6d6731"},"vehicle_type_id":"4","last_reported":1679252752,"current_range_meters":25600,"station_id":"ce4bh112rcd13ifvqda0","pricing_plan_id":"free"},{"bike_id":"2ebbf01e-9744-490b-a3a5-5f2688cc0ceb","system_id":"levelo_inurba_marseille","lat":43.30624,"lon":5.40092,"is_reserved":false,"is_disabled":false,"rental_uris":{"android":"levelo://app?vid=2ebbf01e-9744-490b-a3a5-5f2688cc0ceb","ios":"levelo://app?vid=2ebbf01e-9744-490b-a3a5-5f2688cc0ceb"},"vehicle_type_id":"4","last_reported":1679252752,"current_range_meters":12800,"station_id":"","pricing_plan_id":"free"},{"bike_id":"03f52012-a1ef-4429-ac08-96a205c429d5","system_id":"levelo_inurba_marseille","lat":43.30639,"lon":5.401,"is_reserved":false,"is_disabled":false,"rental_uris":{"android":"levelo://app?vid=03f52012-a1ef-4429-ac08-96a205c429d5","ios":"levelo://app?vid=03f52012-a1ef-4429-ac08-96a205c429d5"},"vehicle_type_id":"4","last_reported":1679252752,"current_range_meters":14800,"station_id":"","pricing_plan_id":"free"},{"bike_id":"4416d9db-24ac-4ef1-9603-8e57b38af930","system_id":"levelo_inurba_marseille","lat":43.301117,"lon":5.398795,"is_reserved":false,"is_disabled":false,"rental_uris":{"android":"levelo://app?vid=4416d9db-24ac-4ef1-9603-8e57b38af930","ios":"levelo://app?vid=4416d9db-24ac-4ef1-9603-8e57b38af930"},"vehicle_type_id":"4","last_reported":1679252752,"current_range_meters":3200,"station_id":"ce4bh0h2rcd13ifvqd40","pricing_plan_id":"free"},{"bike_id":"8caa3349-6735-4371-86d6-d6e90f2b5f31","system_id":"levelo_inurba_marseille","lat":43.286593,"lon":5.363346,"is_reserved":false,"is_disabled":false,"rental_uris":{"android":"levelo://app?vid=8caa3349-6735-4371-86d6-d6e90f2b5f31","ios":"levelo://app?vid=8caa3349-6735-4371-86d6-d6e90f2b5f31"},"vehicle_type_id":"4","last_reported":1679252752,"current_range_meters":0,"station_id":"ce4bhah2rcd13ifvqej0","pricing_plan_id":"free"},{"bike_id":"a94248f1-3c0d-42e2-8cb1-cf4fa92ab279","system_id":"levelo_inurba_marseille","lat":43.286593,"lon":5.363346,"is_reserved":false,"is_disabled":false,"rental_uris":{"android":"levelo://app?vid=a94248f1-3c0d-42e2-8cb1-cf4fa92ab279","ios":"levelo://app?vid=a94248f1-3c0d-42e2-8cb1-cf4fa92ab279"},"vehicle_type_id":"4","last_reported":1679252752,"current_range_meters":0,"station_id":"ce4bhah2rcd13ifvqej0","pricing_plan_id":"free"},{"bike_id":"19d7b125-a628-4d7b-9b31-e0a90f53d152","system_id":"levelo_inurba_marseille","lat":43.29513,"lon":5.394,"is_reserved":false,"is_disabled":false,"rental_uris":{"android":"levelo://app?vid=19d7b125-a628-4d7b-9b31-e0a90f53d152","ios":"levelo://app?vid=19d7b125-a628-4d7b-9b31-e0a90f53d152"},"vehicle_type_id":"4","last_reported":1679252752,"current_range_meters":2400,"station_id":"ce4bh212rcd13ifvqde0","pricing_plan_id":"free"},{"bike_id":"b3ef11c0-4a95-445d-87a2-62843d16b93c","system_id":"levelo_inurba_marseille","lat":43.300867,"lon":5.399576,"is_reserved":false,"is_disabled":false,"rental_uris":{"android":"levelo://app?vid=b3ef11c0-4a95-445d-87a2-62843d16b93c","ios":"levelo://app?vid=b3ef11c0-4a95-445d-87a2-62843d16b93c"},"vehicle_type_id":"4","last_reported":1679252752,"current_range_meters":0,"station_id":"","pricing_plan_id":"free"},{"bike_id":"9553a2dd-4f01-4c71-9ac5-03c16246ecac","system_id":"levelo_inurba_marseille","lat":43.302508,"lon":5.40076,"is_reserved":false,"is_disabled":false,"rental_uris":{"android":"levelo://app?vid=9553a2dd-4f01-4c71-9ac5-03c16246ecac","ios":"levelo://app?vid=9553a2dd-4f01-4c71-9ac5-03c16246ecac"},"vehicle_type_id":"4","last_reported":1679252752,"current_range_meters":0,"station_id":"","pricing_plan_id":"free"},{"bike_id":"d0c41ca2-baf5-4adb-afac-55a16acbbdcc","system_id":"levelo_inurba_marseille","lat":43.302759,"lon":5.400793,"is_reserved":false,"is_disabled":false,"rental_uris":{"android":"levelo://app?vid=d0c41ca2-baf5-4adb-afac-55a16acbbdcc","ios":"levelo://app?vid=d0c41ca2-baf5-4adb-afac-55a16acbbdcc"},"vehicle_type_id":"4","last_reported":1679252752,"current_range_meters":4400,"station_id":"ce4bgvh2rcd13ifvqcs0","pricing_plan_id":"free"},{"bike_id":"e2b2ad56-15f4-420b-bb62-a6c3c16613a2","system_id":"levelo_inurba_marseille","lat":43.28719,"lon":5.37933,"is_reserved":false,"is_disabled":false,"rental_uris":{"android":"levelo://app?vid=e2b2ad56-15f4-420b-bb62-a6c3c16613a2","ios":"levelo://app?vid=e2b2ad56-15f4-420b-bb62-a6c3c16613a2"},"vehicle_type_id":"4","last_reported":1679252752,"current_range_meters":1600,"station_id":"","pricing_plan_id":"free"},{"bike_id":"bb0be8ae-3262-4694-87eb-395f07377d3e","system_id":"levelo_inurba_marseille","lat":43.316517,"lon":5.404375,"is_reserved":false,"is_disabled":false,"rental_uris":{"android":"levelo://app?vid=bb0be8ae-3262-4694-87eb-395f07377d3e","ios":"levelo://app?vid=bb0be8ae-3262-4694-87eb-395f07377d3e"},"vehicle_type_id":"4","last_reported":1679252752,"current_range_meters":3600,"station_id":"ce4bh012rcd13ifvqd00","pricing_plan_id":"free"},{"bike_id":"442633d5-6b8a-4419-80c0-1c2f205272da","system_id":"levelo_inurba_marseille","lat":43.284625,"lon":5.358907,"is_reserved":false,"is_disabled":false,"rental_uris":{"android":"levelo://app?vid=442633d5-6b8a-4419-80c0-1c2f205272da","ios":"levelo://app?vid=442633d5-6b8a-4419-80c0-1c2f205272da"},"vehicle_type_id":"4","last_reported":1679252752,"current_range_meters":14800,"station_id":"","pricing_plan_id":"free"},{"bike_id":"4149eea1-ed87-43e2-b196-678a2fb8f0c4","system_id":"levelo_inurba_marseille","lat":43.32332,"lon":5.40623,"is_reserved":false,"is_disabled":false,"rental_uris":{"android":"levelo://app?vid=4149eea1-ed87-43e2-b196-678a2fb8f0c4","ios":"levelo://app?vid=4149eea1-ed87-43e2-b196-678a2fb8f0c4"},"vehicle_type_id":"4","last_reported":1679252752,"current_range_meters":14800,"station_id":"","pricing_plan_id":"free"},{"bike_id":"8be46744-a1c6-4de4-9319-25d88b27261d","system_id":"levelo_inurba_marseille","lat":43.284793,"lon":5.384113,"is_reserved":false,"is_disabled":false,"rental_uris":{"android":"levelo://app?vid=8be46744-a1c6-4de4-9319-25d88b27261d","ios":"levelo://app?vid=8be46744-a1c6-4de4-9319-25d88b27261d"},"vehicle_type_id":"4","last_reported":1679252752,"current_range_meters":18000,"station_id":"ce4bh512rcd13ifvqe3g","pricing_plan_id":"free"},{"bike_id":"48a465e3-f09d-4628-8f8f-823fe007da91","system_id":"levelo_inurba_marseille","lat":43.284787,"lon":5.384116,"is_reserved":false,"is_disabled":false,"rental_uris":{"android":"levelo://app?vid=48a465e3-f09d-4628-8f8f-823fe007da91","ios":"levelo://app?vid=48a465e3-f09d-4628-8f8f-823fe007da91"},"vehicle_type_id":"4","last_reported":1679252752,"current_range_meters":0,"station_id":"ce4bh512rcd13ifvqe3g","pricing_plan_id":"free"},{"bike_id":"8ba5296b-3f1e-4bbb-85f0-1108ffdb37ba","system_id":"levelo_inurba_marseille","lat":43.292724,"lon":5.401131,"is_reserved":false,"is_disabled":false,"rental_uris":{"android":"levelo://app?vid=8ba5296b-3f1e-4bbb-85f0-1108ffdb37ba","ios":"levelo://app?vid=8ba5296b-3f1e-4bbb-85f0-1108ffdb37ba"},"vehicle_type_id":"4","last_reported":1679252752,"current_range_meters":1200,"station_id":"ce4bh312rcd13ifvqdk0","pricing_plan_id":"free"},{"bike_id":"d361e6ed-7a24-4f7a-80fa-1fea8242feab","system_id":"levelo_inurba_marseille","lat":43.283502,"lon":5.386471,"is_reserved":false,"is_disabled":false,"rental_uris":{"android":"levelo://app?vid=d361e6ed-7a24-4f7a-80fa-1fea8242feab","ios":"levelo://app?vid=d361e6ed-7a24-4f7a-80fa-1fea8242feab"},"vehicle_type_id":"4","last_reported":1679252752,"current_range_meters":3600,"station_id":"ce4bh492rcd13ifvqdvg","pricing_plan_id":"free"},{"bike_id":"016d8f84-36c9-4ef8-97bf-884b30dbd2a8","system_id":"levelo_inurba_marseille","lat":43.281044,"lon":5.378308,"is_reserved":false,"is_disabled":false,"rental_uris":{"android":"levelo://app?vid=016d8f84-36c9-4ef8-97bf-884b30dbd2a8","ios":"levelo://app?vid=016d8f84-36c9-4ef8-97bf-884b30dbd2a8"},"vehicle_type_id":"4","last_reported":1679252752,"current_range_meters":11600,"station_id":"ce4bha12rcd13ifvqee0","pricing_plan_id":"free"},{"bike_id":"0c8d1f88-f123-4a55-b23c-8239751104cf","system_id":"levelo_inurba_marseille","lat":43.281044,"lon":5.378308,"is_reserved":false,"is_disabled":false,"rental_uris":{"android":"levelo://app?vid=0c8d1f88-f123-4a55-b23c-8239751104cf","ios":"levelo://app?vid=0c8d1f88-f123-4a55-b23c-8239751104cf"},"vehicle_type_id":"4","last_reported":1679252752,"current_range_meters":7200,"station_id":"ce4bha12rcd13ifvqee0","pricing_plan_id":"free"},{"bike_id":"30097b88-cb44-4a8a-8484-4267b403112e","system_id":"levelo_inurba_marseille","lat":43.284462,"lon":5.392121,"is_reserved":false,"is_disabled":false,"rental_uris":{"android":"levelo://app?vid=30097b88-cb44-4a8a-8484-4267b403112e","ios":"levelo://app?vid=30097b88-cb44-4a8a-8484-4267b403112e"},"vehicle_type_id":"4","last_reported":1679252752,"current_range_meters":0,"station_id":"ce4bhoh2rcd13ifvqh5g","pricing_plan_id":"free"},{"bike_id":"ac5e5f56-fb51-4e39-83f9-f7368de9a02f","system_id":"levelo_inurba_marseille","lat":43.304188,"lon":5.412904,"is_reserved":false,"is_disabled":false,"rental_uris":{"android":"levelo://app?vid=ac5e5f56-fb51-4e39-83f9-f7368de9a02f","ios":"levelo://app?vid=ac5e5f56-fb51-4e39-83f9-f7368de9a02f"},"vehicle_type_id":"4","last_reported":1679252752,"current_range_meters":12000,"station_id":"ce4bhop2rcd13ifvqh8g","pricing_plan_id":"free"},{"bike_id":"d42ab572-7d8e-42fd-b7b6-f1ed7effaf35","system_id":"levelo_inurba_marseille","lat":43.304188,"lon":5.412904,"is_reserved":false,"is_disabled":false,"rental_uris":{"android":"levelo://app?vid=d42ab572-7d8e-42fd-b7b6-f1ed7effaf35","ios":"levelo://app?vid=d42ab572-7d8e-42fd-b7b6-f1ed7effaf35"},"vehicle_type_id":"4","last_reported":1679252752,"current_range_meters":5600,"station_id":"ce4bhop2rcd13ifvqh8g","pricing_plan_id":"free"},{"bike_id":"55f2c8c4-a1b3-4e25-85e3-0dc931df826e","system_id":"levelo_inurba_marseille","lat":43.304188,"lon":5.412904,"is_reserved":false,"is_disabled":false,"rental_uris":{"android":"levelo://app?vid=55f2c8c4-a1b3-4e25-85e3-0dc931df826e","ios":"levelo://app?vid=55f2c8c4-a1b3-4e25-85e3-0dc931df826e"},"vehicle_type_id":"4","last_reported":1679252752,"current_range_meters":20400,"station_id":"ce4bhop2rcd13ifvqh8g","pricing_plan_id":"free"},{"bike_id":"29671d63-0cc7-4cdf-8065-727b82ee79aa","system_id":"levelo_inurba_marseille","lat":43.304188,"lon":5.412904,"is_reserved":false,"is_disabled":false,"rental_uris":{"android":"levelo://app?vid=29671d63-0cc7-4cdf-8065-727b82ee79aa","ios":"levelo://app?vid=29671d63-0cc7-4cdf-8065-727b82ee79aa"},"vehicle_type_id":"4","last_reported":1679252752,"current_range_meters":31600,"station_id":"ce4bhop2rcd13ifvqh8g","pricing_plan_id":"free"},{"bike_id":"e9d41ed9-6722-49f9-9845-ae38f2ce7d48","system_id":"levelo_inurba_marseille","lat":43.29962,"lon":5.41323,"is_reserved":false,"is_disabled":false,"rental_uris":{"android":"levelo://app?vid=e9d41ed9-6722-49f9-9845-ae38f2ce7d48","ios":"levelo://app?vid=e9d41ed9-6722-49f9-9845-ae38f2ce7d48"},"vehicle_type_id":"4","last_reported":1679252752,"current_range_meters":4000,"station_id":"","pricing_plan_id":"free"},{"bike_id":"1d9cd785-35c2-4153-afee-e820fc6587d5","system_id":"levelo_inurba_marseille","lat":43.299577,"lon":5.413277,"is_reserved":false,"is_disabled":false,"rental_uris":{"android":"levelo://app?vid=1d9cd785-35c2-4153-afee-e820fc6587d5","ios":"levelo://app?vid=1d9cd785-35c2-4153-afee-e820fc6587d5"},"vehicle_type_id":"4","last_reported":1679252752,"current_range_meters":10400,"station_id":"ce4bhp12rcd13ifvqh9g","pricing_plan_id":"free"},{"bike_id":"417b2eb9-4b82-4c9a-9d72-76057ab4bb98","system_id":"levelo_inurba_marseille","lat":43.320045,"lon":5.415048,"is_reserved":false,"is_disabled":false,"rental_uris":{"android":"levelo://app?vid=417b2eb9-4b82-4c9a-9d72-76057ab4bb98","ios":"levelo://app?vid=417b2eb9-4b82-4c9a-9d72-76057ab4bb98"},"vehicle_type_id":"4","last_reported":1679252752,"current_range_meters":1200,"station_id":"ce4bhq92rcd13ifvqhkg","pricing_plan_id":"free"},{"bike_id":"b950997e-06ea-446c-b341-3c916be53914","system_id":"levelo_inurba_marseille","lat":43.324736,"lon":5.414299,"is_reserved":false,"is_disabled":false,"rental_uris":{"android":"levelo://app?vid=b950997e-06ea-446c-b341-3c916be53914","ios":"levelo://app?vid=b950997e-06ea-446c-b341-3c916be53914"},"vehicle_type_id":"4","last_reported":1679252752,"current_range_meters":4400,"station_id":"","pricing_plan_id":"free"},{"bike_id":"e653bbca-3bef-48e1-a043-60ce594de97d","system_id":"levelo_inurba_marseille","lat":43.292569,"lon":5.409107,"is_reserved":false,"is_disabled":false,"rental_uris":{"android":"levelo://app?vid=e653bbca-3bef-48e1-a043-60ce594de97d","ios":"levelo://app?vid=e653bbca-3bef-48e1-a043-60ce594de97d"},"vehicle_type_id":"4","last_reported":1679252752,"current_range_meters":0,"station_id":"ce4bh192rcd13ifvqdc0","pricing_plan_id":"free"},{"bike_id":"037af027-17ed-496c-9931-d3ed044af579","system_id":"levelo_inurba_marseille","lat":43.292571,"lon":5.409107,"is_reserved":false,"is_disabled":false,"rental_uris":{"android":"levelo://app?vid=037af027-17ed-496c-9931-d3ed044af579","ios":"levelo://app?vid=037af027-17ed-496c-9931-d3ed044af579"},"vehicle_type_id":"4","last_reported":1679252752,"current_range_meters":12400,"station_id":"ce4bh192rcd13ifvqdc0","pricing_plan_id":"free"},{"bike_id":"790128f9-749a-48aa-be91-897deb13732f","system_id":"levelo_inurba_marseille","lat":43.325243,"lon":5.414326,"is_reserved":false,"is_disabled":false,"rental_uris":{"android":"levelo://app?vid=790128f9-749a-48aa-be91-897deb13732f","ios":"levelo://app?vid=790128f9-749a-48aa-be91-897deb13732f"},"vehicle_type_id":"4","last_reported":1679252752,"current_range_meters":8400,"station_id":"ce4bhq12rcd13ifvqhhg","pricing_plan_id":"free"},{"bike_id":"5f4b27df-7370-4663-9882-3043aab0ae75","system_id":"levelo_inurba_marseille","lat":43.281895,"lon":5.39719,"is_reserved":false,"is_disabled":false,"rental_uris":{"android":"levelo://app?vid=5f4b27df-7370-4663-9882-3043aab0ae75","ios":"levelo://app?vid=5f4b27df-7370-4663-9882-3043aab0ae75"},"vehicle_type_id":"4","last_reported":1679252752,"current_range_meters":20000,"station_id":"","pricing_plan_id":"free"},{"bike_id":"8a556b3e-f72c-4feb-8883-c41ce4654201","system_id":"levelo_inurba_marseille","lat":43.273613,"lon":5.362705,"is_reserved":false,"is_disabled":false,"rental_uris":{"android":"levelo://app?vid=8a556b3e-f72c-4feb-8883-c41ce4654201","ios":"levelo://app?vid=8a556b3e-f72c-4feb-8883-c41ce4654201"},"vehicle_type_id":"4","last_reported":1679252752,"current_range_meters":8400,"station_id":"ce4bhbh2rcd13ifvqeo0","pricing_plan_id":"free"},{"bike_id":"1bbe12ac-4818-4bc8-9363-f7e5cbb64b16","system_id":"levelo_inurba_marseille","lat":43.336134,"lon":5.410341,"is_reserved":false,"is_disabled":false,"rental_uris":{"android":"levelo://app?vid=1bbe12ac-4818-4bc8-9363-f7e5cbb64b16","ios":"levelo://app?vid=1bbe12ac-4818-4bc8-9363-f7e5cbb64b16"},"vehicle_type_id":"4","last_reported":1679252752,"current_range_meters":13600,"station_id":"ce4bhqh2rcd13ifvqhmg","pricing_plan_id":"free"},{"bike_id":"06c2a2b5-0a03-480c-85d3-eeaeb4322949","system_id":"levelo_inurba_marseille","lat":43.276769,"lon":5.388787,"is_reserved":false,"is_disabled":false,"rental_uris":{"android":"levelo://app?vid=06c2a2b5-0a03-480c-85d3-eeaeb4322949","ios":"levelo://app?vid=06c2a2b5-0a03-480c-85d3-eeaeb4322949"},"vehicle_type_id":"4","last_reported":1679252752,"current_range_meters":0,"station_id":"ce4bhi12rcd13ifvqfo0","pricing_plan_id":"free"},{"bike_id":"f2a4cbaf-10a9-4d58-977b-5eebc8eba43c","system_id":"levelo_inurba_marseille","lat":43.310785,"lon":5.424305,"is_reserved":false,"is_disabled":false,"rental_uris":{"android":"levelo://app?vid=f2a4cbaf-10a9-4d58-977b-5eebc8eba43c","ios":"levelo://app?vid=f2a4cbaf-10a9-4d58-977b-5eebc8eba43c"},"vehicle_type_id":"4","last_reported":1679252752,"current_range_meters":13200,"station_id":"ce4bhp92rcd13ifvqhag","pricing_plan_id":"free"},{"bike_id":"4f958feb-9223-4a85-ae9d-6bbeb24b0ace","system_id":"levelo_inurba_marseille","lat":43.30413,"lon":5.42542,"is_reserved":false,"is_disabled":false,"rental_uris":{"android":"levelo://app?vid=4f958feb-9223-4a85-ae9d-6bbeb24b0ace","ios":"levelo://app?vid=4f958feb-9223-4a85-ae9d-6bbeb24b0ace"},"vehicle_type_id":"4","last_reported":1679252752,"current_range_meters":4000,"station_id":"","pricing_plan_id":"free"},{"bike_id":"efa38077-8d8b-4846-9329-4529a5e3ae41","system_id":"levelo_inurba_marseille","lat":43.28056,"lon":5.40749,"is_reserved":false,"is_disabled":false,"rental_uris":{"android":"levelo://app?vid=efa38077-8d8b-4846-9329-4529a5e3ae41","ios":"levelo://app?vid=efa38077-8d8b-4846-9329-4529a5e3ae41"},"vehicle_type_id":"4","last_reported":1679252752,"current_range_meters":22000,"station_id":"","pricing_plan_id":"free"},{"bike_id":"ea9cbed5-dd56-4e3d-8519-5b6f412a10ce","system_id":"levelo_inurba_marseille","lat":43.27231,"lon":5.39098,"is_reserved":false,"is_disabled":false,"rental_uris":{"android":"levelo://app?vid=ea9cbed5-dd56-4e3d-8519-5b6f412a10ce","ios":"levelo://app?vid=ea9cbed5-dd56-4e3d-8519-5b6f412a10ce"},"vehicle_type_id":"4","last_reported":1679252752,"current_range_meters":0,"station_id":"","pricing_plan_id":"free"},{"bike_id":"294524a0-48d8-47f8-a638-1a025f7bfc14","system_id":"levelo_inurba_marseille","lat":43.295523,"lon":5.422926,"is_reserved":false,"is_disabled":false,"rental_uris":{"android":"levelo://app?vid=294524a0-48d8-47f8-a638-1a025f7bfc14","ios":"levelo://app?vid=294524a0-48d8-47f8-a638-1a025f7bfc14"},"vehicle_type_id":"4","last_reported":1679252752,"current_range_meters":10400,"station_id":"ce4bhph2rcd13ifvqhdg","pricing_plan_id":"free"},{"bike_id":"bc064ba5-50f6-4ce3-8d9b-1239bb2d9bd3","system_id":"levelo_inurba_marseille","lat":43.29558,"lon":5.42293,"is_reserved":false,"is_disabled":false,"rental_uris":{"android":"levelo://app?vid=bc064ba5-50f6-4ce3-8d9b-1239bb2d9bd3","ios":"levelo://app?vid=bc064ba5-50f6-4ce3-8d9b-1239bb2d9bd3"},"vehicle_type_id":"4","last_reported":1679252752,"current_range_meters":800,"station_id":"ce4bhph2rcd13ifvqhdg","pricing_plan_id":"free"},{"bike_id":"87f0a20b-30d2-431b-9d8c-bbe200acabae","system_id":"levelo_inurba_marseille","lat":43.29547,"lon":5.42287,"is_reserved":false,"is_disabled":false,"rental_uris":{"android":"levelo://app?vid=87f0a20b-30d2-431b-9d8c-bbe200acabae","ios":"levelo://app?vid=87f0a20b-30d2-431b-9d8c-bbe200acabae"},"vehicle_type_id":"4","last_reported":1679252752,"current_range_meters":22000,"station_id":"ce4bhph2rcd13ifvqhdg","pricing_plan_id":"free"},{"bike_id":"7c25627b-52d2-4e1f-a2c5-ff281379658a","system_id":"levelo_inurba_marseille","lat":43.29554,"lon":5.42296,"is_reserved":false,"is_disabled":false,"rental_uris":{"android":"levelo://app?vid=7c25627b-52d2-4e1f-a2c5-ff281379658a","ios":"levelo://app?vid=7c25627b-52d2-4e1f-a2c5-ff281379658a"},"vehicle_type_id":"4","last_reported":1679252752,"current_range_meters":19200,"station_id":"ce4bhph2rcd13ifvqhdg","pricing_plan_id":"free"},{"bike_id":"15357db7-2348-4275-97d7-f561e492026c","system_id":"levelo_inurba_marseille","lat":43.29551,"lon":5.42297,"is_reserved":false,"is_disabled":false,"rental_uris":{"android":"levelo://app?vid=15357db7-2348-4275-97d7-f561e492026c","ios":"levelo://app?vid=15357db7-2348-4275-97d7-f561e492026c"},"vehicle_type_id":"4","last_reported":1679252752,"current_range_meters":0,"station_id":"ce4bhph2rcd13ifvqhdg","pricing_plan_id":"free"},{"bike_id":"c9bfe74f-f576-4871-a5bd-d64f7c264a40","system_id":"levelo_inurba_marseille","lat":43.278128,"lon":5.407195,"is_reserved":false,"is_disabled":false,"rental_uris":{"android":"levelo://app?vid=c9bfe74f-f576-4871-a5bd-d64f7c264a40","ios":"levelo://app?vid=c9bfe74f-f576-4871-a5bd-d64f7c264a40"},"vehicle_type_id":"4","last_reported":1679252752,"current_range_meters":4800,"station_id":"ce4bhnh2rcd13ifvqgtg","pricing_plan_id":"free"},{"bike_id":"4034f9c3-0ccb-46b6-8961-50741cfd0c27","system_id":"levelo_inurba_marseille","lat":43.278128,"lon":5.407195,"is_reserved":false,"is_disabled":false,"rental_uris":{"android":"levelo://app?vid=4034f9c3-0ccb-46b6-8961-50741cfd0c27","ios":"levelo://app?vid=4034f9c3-0ccb-46b6-8961-50741cfd0c27"},"vehicle_type_id":"4","last_reported":1679252752,"current_range_meters":29600,"station_id":"ce4bhnh2rcd13ifvqgtg","pricing_plan_id":"free"},{"bike_id":"d59ee36a-713d-4fca-83a1-3ecfd096b63d","system_id":"levelo_inurba_marseille","lat":43.269467,"lon":5.386439,"is_reserved":false,"is_disabled":false,"rental_uris":{"android":"levelo://app?vid=d59ee36a-713d-4fca-83a1-3ecfd096b63d","ios":"levelo://app?vid=d59ee36a-713d-4fca-83a1-3ecfd096b63d"},"vehicle_type_id":"4","last_reported":1679252752,"current_range_meters":6000,"station_id":"ce4bhh92rcd13ifvqfh0","pricing_plan_id":"free"},{"bike_id":"75b77f78-1079-4e55-8e64-fa9672474b0b","system_id":"levelo_inurba_marseille","lat":43.269319,"lon":5.389397,"is_reserved":false,"is_disabled":false,"rental_uris":{"android":"levelo://app?vid=75b77f78-1079-4e55-8e64-fa9672474b0b","ios":"levelo://app?vid=75b77f78-1079-4e55-8e64-fa9672474b0b"},"vehicle_type_id":"4","last_reported":1679252752,"current_range_meters":4800,"station_id":"ce4bhhh2rcd13ifvqfl0","pricing_plan_id":"free"},{"bike_id":"6f76e659-0d63-437b-aa9b-b1d2a0f4217c","system_id":"levelo_inurba_marseille","lat":43.27996,"lon":5.416624,"is_reserved":false,"is_disabled":false,"rental_uris":{"android":"levelo://app?vid=6f76e659-0d63-437b-aa9b-b1d2a0f4217c","ios":"levelo://app?vid=6f76e659-0d63-437b-aa9b-b1d2a0f4217c"},"vehicle_type_id":"4","last_reported":1679252752,"current_range_meters":1600,"station_id":"ce4bho12rcd13ifvqh1g","pricing_plan_id":"free"},{"bike_id":"33d0f38b-6f6e-4ecb-a958-f1e2ce158cc5","system_id":"levelo_inurba_marseille","lat":43.265571,"lon":5.390032,"is_reserved":false,"is_disabled":false,"rental_uris":{"android":"levelo://app?vid=33d0f38b-6f6e-4ecb-a958-f1e2ce158cc5","ios":"levelo://app?vid=33d0f38b-6f6e-4ecb-a958-f1e2ce158cc5"},"vehicle_type_id":"4","last_reported":1679252752,"current_range_meters":8000,"station_id":"ce4bhe12rcd13ifvqf30","pricing_plan_id":"free"},{"bike_id":"33045929-265b-4fb9-873c-434d82a23d43","system_id":"levelo_inurba_marseille","lat":43.26561,"lon":5.39008,"is_reserved":false,"is_disabled":false,"rental_uris":{"android":"levelo://app?vid=33045929-265b-4fb9-873c-434d82a23d43","ios":"levelo://app?vid=33045929-265b-4fb9-873c-434d82a23d43"},"vehicle_type_id":"4","last_reported":1679252752,"current_range_meters":0,"station_id":"ce4bhe12rcd13ifvqf30","pricing_plan_id":"free"},{"bike_id":"d09ebda7-f993-4f40-82d4-59806f44c135","system_id":"levelo_inurba_marseille","lat":43.262012,"lon":5.379307,"is_reserved":false,"is_disabled":false,"rental_uris":{"android":"levelo://app?vid=d09ebda7-f993-4f40-82d4-59806f44c135","ios":"levelo://app?vid=d09ebda7-f993-4f40-82d4-59806f44c135"},"vehicle_type_id":"4","last_reported":1679252752,"current_range_meters":400,"station_id":"ce4bhjp2rcd13ifvqg90","pricing_plan_id":"free"},{"bike_id":"ef45c73b-7d70-41d3-8856-89331a8d84e5","system_id":"levelo_inurba_marseille","lat":43.267959,"lon":5.402687,"is_reserved":false,"is_disabled":false,"rental_uris":{"android":"levelo://app?vid=ef45c73b-7d70-41d3-8856-89331a8d84e5","ios":"levelo://app?vid=ef45c73b-7d70-41d3-8856-89331a8d84e5"},"vehicle_type_id":"4","last_reported":1679252752,"current_range_meters":22800,"station_id":"ce501612rcd8frsf0b60","pricing_plan_id":"free"},{"bike_id":"5777a631-ff35-47e0-b37b-7a2900340e9c","system_id":"levelo_inurba_marseille","lat":43.267959,"lon":5.402687,"is_reserved":false,"is_disabled":false,"rental_uris":{"android":"levelo://app?vid=5777a631-ff35-47e0-b37b-7a2900340e9c","ios":"levelo://app?vid=5777a631-ff35-47e0-b37b-7a2900340e9c"},"vehicle_type_id":"4","last_reported":1679252752,"current_range_meters":3200,"station_id":"ce501612rcd8frsf0b60","pricing_plan_id":"free"},{"bike_id":"c88a56e0-5628-4e75-9282-d22be9e243ea","system_id":"levelo_inurba_marseille","lat":43.267959,"lon":5.402687,"is_reserved":false,"is_disabled":false,"rental_uris":{"android":"levelo://app?vid=c88a56e0-5628-4e75-9282-d22be9e243ea","ios":"levelo://app?vid=c88a56e0-5628-4e75-9282-d22be9e243ea"},"vehicle_type_id":"4","last_reported":1679252752,"current_range_meters":25200,"station_id":"ce501612rcd8frsf0b60","pricing_plan_id":"free"},{"bike_id":"51d5045e-e48d-4be2-87ba-6956e4e6183c","system_id":"levelo_inurba_marseille","lat":43.267959,"lon":5.402687,"is_reserved":false,"is_disabled":false,"rental_uris":{"android":"levelo://app?vid=51d5045e-e48d-4be2-87ba-6956e4e6183c","ios":"levelo://app?vid=51d5045e-e48d-4be2-87ba-6956e4e6183c"},"vehicle_type_id":"4","last_reported":1679252752,"current_range_meters":19200,"station_id":"ce501612rcd8frsf0b60","pricing_plan_id":"free"},{"bike_id":"e72e7f2b-3be0-42a8-b7f3-746c959d82c1","system_id":"levelo_inurba_marseille","lat":43.267959,"lon":5.402687,"is_reserved":false,"is_disabled":false,"rental_uris":{"android":"levelo://app?vid=e72e7f2b-3be0-42a8-b7f3-746c959d82c1","ios":"levelo://app?vid=e72e7f2b-3be0-42a8-b7f3-746c959d82c1"},"vehicle_type_id":"4","last_reported":1679252752,"current_range_meters":2800,"station_id":"ce501612rcd8frsf0b60","pricing_plan_id":"free"},{"bike_id":"b209119c-c683-4967-b428-16e9e3ea9bc0","system_id":"levelo_inurba_marseille","lat":43.25879,"lon":5.38229,"is_reserved":false,"is_disabled":false,"rental_uris":{"android":"levelo://app?vid=b209119c-c683-4967-b428-16e9e3ea9bc0","ios":"levelo://app?vid=b209119c-c683-4967-b428-16e9e3ea9bc0"},"vehicle_type_id":"4","last_reported":1679252752,"current_range_meters":0,"station_id":"","pricing_plan_id":"free"},{"bike_id":"b5fd0508-197a-4071-8a3a-2378b72b0be9","system_id":"levelo_inurba_marseille","lat":43.260648,"lon":5.39392,"is_reserved":false,"is_disabled":false,"rental_uris":{"android":"levelo://app?vid=b5fd0508-197a-4071-8a3a-2378b72b0be9","ios":"levelo://app?vid=b5fd0508-197a-4071-8a3a-2378b72b0be9"},"vehicle_type_id":"4","last_reported":1679252752,"current_range_meters":31600,"station_id":"","pricing_plan_id":"free"},{"bike_id":"39ae7553-5b15-41ed-be49-d087d1ff66f8","system_id":"levelo_inurba_marseille","lat":43.26063,"lon":5.39399,"is_reserved":false,"is_disabled":false,"rental_uris":{"android":"levelo://app?vid=39ae7553-5b15-41ed-be49-d087d1ff66f8","ios":"levelo://app?vid=39ae7553-5b15-41ed-be49-d087d1ff66f8"},"vehicle_type_id":"4","last_reported":1679252752,"current_range_meters":800,"station_id":"ce4bhh92rcd13ifvqfj0","pricing_plan_id":"free"},{"bike_id":"0312c11b-f530-4c74-8298-1f0b15885c6d","system_id":"levelo_inurba_marseille","lat":43.2607,"lon":5.393983,"is_reserved":false,"is_disabled":false,"rental_uris":{"android":"levelo://app?vid=0312c11b-f530-4c74-8298-1f0b15885c6d","ios":"levelo://app?vid=0312c11b-f530-4c74-8298-1f0b15885c6d"},"vehicle_type_id":"4","last_reported":1679252752,"current_range_meters":1200,"station_id":"ce4bhh92rcd13ifvqfj0","pricing_plan_id":"free"},{"bike_id":"1a63aefc-55b8-4a36-beca-b36a0135ea2b","system_id":"levelo_inurba_marseille","lat":43.2607,"lon":5.393983,"is_reserved":false,"is_disabled":false,"rental_uris":{"android":"levelo://app?vid=1a63aefc-55b8-4a36-beca-b36a0135ea2b","ios":"levelo://app?vid=1a63aefc-55b8-4a36-beca-b36a0135ea2b"},"vehicle_type_id":"4","last_reported":1679252752,"current_range_meters":19600,"station_id":"ce4bhh92rcd13ifvqfj0","pricing_plan_id":"free"},{"bike_id":"106ba0d7-eee6-4035-a2fc-25d6d4db5d3a","system_id":"levelo_inurba_marseille","lat":43.2607,"lon":5.393983,"is_reserved":false,"is_disabled":false,"rental_uris":{"android":"levelo://app?vid=106ba0d7-eee6-4035-a2fc-25d6d4db5d3a","ios":"levelo://app?vid=106ba0d7-eee6-4035-a2fc-25d6d4db5d3a"},"vehicle_type_id":"4","last_reported":1679252752,"current_range_meters":1600,"station_id":"ce4bhh92rcd13ifvqfj0","pricing_plan_id":"free"},{"bike_id":"5bcc2b03-2661-45ba-b3e5-5e662bec71f1","system_id":"levelo_inurba_marseille","lat":43.260909,"lon":5.397624,"is_reserved":false,"is_disabled":false,"rental_uris":{"android":"levelo://app?vid=5bcc2b03-2661-45ba-b3e5-5e662bec71f1","ios":"levelo://app?vid=5bcc2b03-2661-45ba-b3e5-5e662bec71f1"},"vehicle_type_id":"4","last_reported":1679252752,"current_range_meters":19600,"station_id":"","pricing_plan_id":"free"},{"bike_id":"217a32fe-0161-43b0-bec3-ad3345425f35","system_id":"levelo_inurba_marseille","lat":43.29255,"lon":5.44146,"is_reserved":false,"is_disabled":false,"rental_uris":{"android":"levelo://app?vid=217a32fe-0161-43b0-bec3-ad3345425f35","ios":"levelo://app?vid=217a32fe-0161-43b0-bec3-ad3345425f35"},"vehicle_type_id":"4","last_reported":1679252752,"current_range_meters":18400,"station_id":"","pricing_plan_id":"free"},{"bike_id":"fdada09d-949b-4b46-ba8e-04035bf5fe8a","system_id":"levelo_inurba_marseille","lat":43.25584,"lon":5.38228,"is_reserved":false,"is_disabled":false,"rental_uris":{"android":"levelo://app?vid=fdada09d-949b-4b46-ba8e-04035bf5fe8a","ios":"levelo://app?vid=fdada09d-949b-4b46-ba8e-04035bf5fe8a"},"vehicle_type_id":"4","last_reported":1679252752,"current_range_meters":5600,"station_id":"ce4bhih2rcd13ifvqfs0","pricing_plan_id":"free"},{"bike_id":"385f2c61-d65a-4e2e-99bf-3ca555811c81","system_id":"levelo_inurba_marseille","lat":43.254947,"lon":5.376454,"is_reserved":false,"is_disabled":false,"rental_uris":{"android":"levelo://app?vid=385f2c61-d65a-4e2e-99bf-3ca555811c81","ios":"levelo://app?vid=385f2c61-d65a-4e2e-99bf-3ca555811c81"},"vehicle_type_id":"4","last_reported":1679252752,"current_range_meters":4400,"station_id":"ce4bhh12rcd13ifvqff0","pricing_plan_id":"free"},{"bike_id":"3647aa3d-2a3f-41e2-8431-ae491d547389","system_id":"levelo_inurba_marseille","lat":43.250023,"lon":5.38919,"is_reserved":false,"is_disabled":false,"rental_uris":{"android":"levelo://app?vid=3647aa3d-2a3f-41e2-8431-ae491d547389","ios":"levelo://app?vid=3647aa3d-2a3f-41e2-8431-ae491d547389"},"vehicle_type_id":"4","last_reported":1679252752,"current_range_meters":0,"station_id":"ce4bhgp2rcd13ifvqfd0","pricing_plan_id":"free"},{"bike_id":"6b0d3edd-1eff-4b01-8433-ca67158991b2","system_id":"levelo_inurba_marseille","lat":43.250023,"lon":5.38919,"is_reserved":false,"is_disabled":false,"rental_uris":{"android":"levelo://app?vid=6b0d3edd-1eff-4b01-8433-ca67158991b2","ios":"levelo://app?vid=6b0d3edd-1eff-4b01-8433-ca67158991b2"},"vehicle_type_id":"4","last_reported":1679252752,"current_range_meters":6800,"station_id":"ce4bhgp2rcd13ifvqfd0","pricing_plan_id":"free"},{"bike_id":"fe354259-c1d8-4b2f-acee-6d27e09c8dd0","system_id":"levelo_inurba_marseille","lat":43.250966,"lon":5.395186,"is_reserved":false,"is_disabled":false,"rental_uris":{"android":"levelo://app?vid=fe354259-c1d8-4b2f-acee-6d27e09c8dd0","ios":"levelo://app?vid=fe354259-c1d8-4b2f-acee-6d27e09c8dd0"},"vehicle_type_id":"4","last_reported":1679252752,"current_range_meters":3600,"station_id":"ce4bhm12rcd13ifvqgkg","pricing_plan_id":"free"},{"bike_id":"ca97ab45-0cf2-48cb-b71c-19ef4310206b","system_id":"levelo_inurba_marseille","lat":43.24693,"lon":5.382096,"is_reserved":false,"is_disabled":false,"rental_uris":{"android":"levelo://app?vid=ca97ab45-0cf2-48cb-b71c-19ef4310206b","ios":"levelo://app?vid=ca97ab45-0cf2-48cb-b71c-19ef4310206b"},"vehicle_type_id":"4","last_reported":1679252752,"current_range_meters":0,"station_id":"ce4bhih2rcd13ifvqfr0","pricing_plan_id":"free"},{"bike_id":"f76a6b3b-2c75-4cf3-9ef6-d9dd57ae1f2a","system_id":"levelo_inurba_marseille","lat":43.25102,"lon":5.403214,"is_reserved":false,"is_disabled":false,"rental_uris":{"android":"levelo://app?vid=f76a6b3b-2c75-4cf3-9ef6-d9dd57ae1f2a","ios":"levelo://app?vid=f76a6b3b-2c75-4cf3-9ef6-d9dd57ae1f2a"},"vehicle_type_id":"4","last_reported":1679252752,"current_range_meters":14000,"station_id":"ce4bhlh2rcd13ifvqgig","pricing_plan_id":"free"},{"bike_id":"5b43c7b9-528d-4057-bf0b-f0b4487771cb","system_id":"levelo_inurba_marseille","lat":43.243884,"lon":5.370736,"is_reserved":false,"is_disabled":false,"rental_uris":{"android":"levelo://app?vid=5b43c7b9-528d-4057-bf0b-f0b4487771cb","ios":"levelo://app?vid=5b43c7b9-528d-4057-bf0b-f0b4487771cb"},"vehicle_type_id":"4","last_reported":1679252752,"current_range_meters":2800,"station_id":"ce4bhhh2rcd13ifvqfk0","pricing_plan_id":"free"},{"bike_id":"936ecc25-fffa-4bca-810c-08d9cae0872b","system_id":"levelo_inurba_marseille","lat":43.245581,"lon":5.395069,"is_reserved":false,"is_disabled":false,"rental_uris":{"android":"levelo://app?vid=936ecc25-fffa-4bca-810c-08d9cae0872b","ios":"levelo://app?vid=936ecc25-fffa-4bca-810c-08d9cae0872b"},"vehicle_type_id":"4","last_reported":1679252752,"current_range_meters":10000,"station_id":"ce4bhlp2rcd13ifvqgjg","pricing_plan_id":"free"},{"bike_id":"6517cd95-8881-4095-a72f-d78547f4b481","system_id":"levelo_inurba_marseille","lat":43.240623,"lon":5.377642,"is_reserved":false,"is_disabled":false,"rental_uris":{"android":"levelo://app?vid=6517cd95-8881-4095-a72f-d78547f4b481","ios":"levelo://app?vid=6517cd95-8881-4095-a72f-d78547f4b481"},"vehicle_type_id":"4","last_reported":1679252752,"current_range_meters":10800,"station_id":"ce4bhnp2rcd13ifvqgvg","pricing_plan_id":"free"},{"bike_id":"4c5dc581-267d-4799-a66e-1086f4b63014","system_id":"levelo_inurba_marseille","lat":43.239588,"lon":5.366238,"is_reserved":false,"is_disabled":false,"rental_uris":{"android":"levelo://app?vid=4c5dc581-267d-4799-a66e-1086f4b63014","ios":"levelo://app?vid=4c5dc581-267d-4799-a66e-1086f4b63014"},"vehicle_type_id":"4","last_reported":1679252752,"current_range_meters":6000,"station_id":"ce4bhi12rcd13ifvqfp0","pricing_plan_id":"free"},{"bike_id":"eb982e6f-872d-4cea-b0c2-84d869b0cc85","system_id":"levelo_inurba_marseille","lat":43.23959,"lon":5.366375,"is_reserved":false,"is_disabled":false,"rental_uris":{"android":"levelo://app?vid=eb982e6f-872d-4cea-b0c2-84d869b0cc85","ios":"levelo://app?vid=eb982e6f-872d-4cea-b0c2-84d869b0cc85"},"vehicle_type_id":"4","last_reported":1679252752,"current_range_meters":0,"station_id":"ce4bhi12rcd13ifvqfp0","pricing_plan_id":"free"},{"bike_id":"14cb8f56-03cc-4c90-b468-69a917645b30","system_id":"levelo_inurba_marseille","lat":43.239588,"lon":5.366238,"is_reserved":false,"is_disabled":false,"rental_uris":{"android":"levelo://app?vid=14cb8f56-03cc-4c90-b468-69a917645b30","ios":"levelo://app?vid=14cb8f56-03cc-4c90-b468-69a917645b30"},"vehicle_type_id":"4","last_reported":1679252752,"current_range_meters":0,"station_id":"ce4bhi12rcd13ifvqfp0","pricing_plan_id":"free"}]}}