{"last_updated":1753477839,"ttl":60,"version":"2.2","data":{"bikes":[{"bike_id":"a03fafa8-5779-4c8b-bda9-6b8b46886dfa","system_id":"levelo_inurba_marseille","lat":43.26213,"lon":5.40462,"is_reserved":false,"is_disabled":false,"rental_uris":{"android":"levelo://app?vid=a03fafa8-5779-4c8b-bda9-6b8b46886dfa","ios":"levelo://app?vid=a03fafa8-5779-4c8b-bda9-6b8b46886dfa"},"vehicle_type_id":"4","last_reported":1753477839,"current_range_meters":2800,"station_id":"ce4bhmh2rcd13ifvqgmg","pricing_plan_id":"cebpf4jnsgd1na2vs0mg"},{"bike_id":"ccaba84c-65d8-4b8e-83c8-18efe32c87ed","system_id":"levelo_inurba_marseille","lat":43.29648,"lon":5.3611,"is_reserved":false,"is_disabled":true,"rental_uris":{"android":"levelo://app?vid=ccaba84c-65d8-4b8e-83c8-18efe32c87ed","ios":"levelo://app?vid=ccaba84c-65d8-4b8e-83c8-18efe32c87ed"},"vehicle_type_id":"4","last_reported":1753477839,"current_range_meters":2800,"station_id":"","pricing_plan_id":"cebpf4jnsgd1na2vs0mg"},{"bike_id":"fe65d7d6-638d-40a5-bccf-533e7cf482a6","system_id":"levelo_inurba_marseille","lat":43.28333,"lon":5.43262,"is_reserved":false,"is_disabled":false,"rental_uris":{"android":"levelo://app?vid=fe65d7d6-638d-40a5-bccf-533e7cf482a6","ios":"levelo://app?vid=fe65d7d6-638d-40a5-bccf-533e7cf482a6"},"vehicle_type_id":"4","last_reported":1753477839,"current_range_meters":3200,"station_id":"","pricing_plan_id":"cebpf4jnsgd1na2vs0mg"},{"bike_id":"e33a9a7c-a04e-4f23-8a23-c32f213ba7fc","system_id":"levelo_inurba_marseille","lat":43.29258,"lon":5.38459,"is_reserved":false,"is_disabled":false,"rental_uris":{"android":"levelo://app?vid=e33a9a7c-a04e-4f23-8a23-c32f213ba7fc","ios":"levelo://app?vid=e33a9a7c-a04e-4f23-8a23-c32f213ba7fc"},"vehicle_type_id":"4","last_reported":1753477839,"current_range_meters":3200,"station_id":"ce4bh692rcd13ifvqea0","pricing_plan_id":"cebpf4jnsgd1na2vs0mg"},{"bike_id":"3c4b0789-c722-4db0-8d7f-d55ea83643ed","system_id":"levelo_inurba_marseille","lat":43.24806,"lon":5.37458,"is_reserved":false,"is_disabled":false,"rental_uris":{"android":"levelo://app?vid=3c4b0789-c722-4db0-8d7f-d55ea83643ed","ios":"levelo://app?vid=3c4b0789-c722-4db0-8d7f-d55ea83643ed"},"vehicle_type_id":"4","last_reported":1753477839,"current_range_meters":3600,"station_id":"ce4bhgh2rcd13ifvqfb0","pricing_plan_id":"cebpf4jnsgd1na2vs0mg"},{"bike_id":"be055bcc-8d6e-4d90-9d72-36d8a2547030","system_id":"levelo_inurba_marseille","lat":43.29246,"lon":5.38443,"is_reserved":false,"is_disabled":false,"rental_uris":{"android":"levelo://app?vid=be055bcc-8d6e-4d90-9d72-36d8a2547030","ios":"levelo://app?vid=be055bcc-8d6e-4d90-9d72-36d8a2547030"},"vehicle_type_id":"4","last_reported":1753477839,"current_range_meters":3600,"station_id":"ce4bh692rcd13ifvqea0","pricing_plan_id":"cebpf4jnsgd1na2vs0mg"},{"bike_id":"78f1757c-6749-4dda-aae2-ca4bec2deac8","system_id":"levelo_inurba_marseille","lat":43.3169,"lon":5.40476,"is_reserved":false,"is_disabled":false,"rental_uris":{"android":"levelo://app?vid=78f1757c-6749-4dda-aae2-ca4bec2deac8","ios":"levelo://app?vid=78f1757c-6749-4dda-aae2-ca4bec2deac8"},"vehicle_type_id":"4","last_reported":1753477839,"current_range_meters":3600,"station_id":"ce4bh012rcd13ifvqd00","pricing_plan_id":"cebpf4jnsgd1na2vs0mg"},{"bike_id":"879988ad-2636-4359-88eb-681204a64985","system_id":"levelo_inurba_marseille","lat":43.30609,"lon":5.3724,"is_reserved":false,"is_disabled":false,"rental_uris":{"android":"levelo://app?vid=879988ad-2636-4359-88eb-681204a64985","ios":"levelo://app?vid=879988ad-2636-4359-88eb-681204a64985"},"vehicle_type_id":"4","last_reported":1753477839,"current_range_meters":3600,"station_id":"ce4bgqh2rcd13ifvqc4g","pricing_plan_id":"cebpf4jnsgd1na2vs0mg"},{"bike_id":"734beb0a-2b5b-4f92-a0b4-f138fc3076ee","system_id":"levelo_inurba_marseille","lat":43.22502,"lon":5.34802,"is_reserved":false,"is_disabled":false,"rental_uris":{"android":"levelo://app?vid=734beb0a-2b5b-4f92-a0b4-f138fc3076ee","ios":"levelo://app?vid=734beb0a-2b5b-4f92-a0b4-f138fc3076ee"},"vehicle_type_id":"4","last_reported":1753477839,"current_range_meters":4000,"station_id":"st_cvj5dfep6f1abm77gieg","pricing_plan_id":"cebpf4jnsgd1na2vs0mg"},{"bike_id":"8a4da8d6-5a15-4539-b802-171c06cca789","system_id":"levelo_inurba_marseille","lat":43.29809,"lon":5.39339,"is_reserved":false,"is_disabled":false,"rental_uris":{"android":"levelo://app?vid=8a4da8d6-5a15-4539-b802-171c06cca789","ios":"levelo://app?vid=8a4da8d6-5a15-4539-b802-171c06cca789"},"vehicle_type_id":"4","last_reported":1753477839,"current_range_meters":4000,"station_id":"chh1huq6cuj3fo74tm60","pricing_plan_id":"cebpf4jnsgd1na2vs0mg"},{"bike_id":"38535fbc-babd-4274-8fe4-fce124898425","system_id":"levelo_inurba_marseille","lat":43.2511,"lon":5.40324,"is_reserved":false,"is_disabled":false,"rental_uris":{"android":"levelo://app?vid=38535fbc-babd-4274-8fe4-fce124898425","ios":"levelo://app?vid=38535fbc-babd-4274-8fe4-fce124898425"},"vehicle_type_id":"4","last_reported":1753477839,"current_range_meters":4000,"station_id":"ce4bhlh2rcd13ifvqgig","pricing_plan_id":"cebpf4jnsgd1na2vs0mg"},{"bike_id":"d5efc5bb-aea0-4498-9384-f4691344219a","system_id":"levelo_inurba_marseille","lat":43.31996,"lon":5.38163,"is_reserved":false,"is_disabled":false,"rental_uris":{"android":"levelo://app?vid=d5efc5bb-aea0-4498-9384-f4691344219a","ios":"levelo://app?vid=d5efc5bb-aea0-4498-9384-f4691344219a"},"vehicle_type_id":"4","last_reported":1753477839,"current_range_meters":4400,"station_id":"ce4bhr12rcd13ifvqhpg","pricing_plan_id":"cebpf4jnsgd1na2vs0mg"},{"bike_id":"e34378c1-12ea-4300-b803-d65ef5d746bf","system_id":"levelo_inurba_marseille","lat":43.26209,"lon":5.37442,"is_reserved":false,"is_disabled":false,"rental_uris":{"android":"levelo://app?vid=e34378c1-12ea-4300-b803-d65ef5d746bf","ios":"levelo://app?vid=e34378c1-12ea-4300-b803-d65ef5d746bf"},"vehicle_type_id":"4","last_reported":1753477839,"current_range_meters":4800,"station_id":"ce4bhgp2rcd13ifvqfc0","pricing_plan_id":"cebpf4jnsgd1na2vs0mg"},{"bike_id":"db69db10-9668-4a0f-b359-975b90afc314","system_id":"levelo_inurba_marseille","lat":43.25935,"lon":5.40838,"is_reserved":false,"is_disabled":false,"rental_uris":{"android":"levelo://app?vid=db69db10-9668-4a0f-b359-975b90afc314","ios":"levelo://app?vid=db69db10-9668-4a0f-b359-975b90afc314"},"vehicle_type_id":"4","last_reported":1753477839,"current_range_meters":4800,"station_id":"ce4bhm92rcd13ifvqglg","pricing_plan_id":"cebpf4jnsgd1na2vs0mg"},{"bike_id":"536ad47b-126d-45fc-b47b-334252a60e67","system_id":"levelo_inurba_marseille","lat":43.296133,"lon":5.406055,"is_reserved":false,"is_disabled":false,"rental_uris":{"android":"levelo://app?vid=536ad47b-126d-45fc-b47b-334252a60e67","ios":"levelo://app?vid=536ad47b-126d-45fc-b47b-334252a60e67"},"vehicle_type_id":"4","last_reported":1753477839,"current_range_meters":4800,"station_id":"ce4bh0h2rcd13ifvqd60","pricing_plan_id":"cebpf4jnsgd1na2vs0mg"},{"bike_id":"d87b56f9-aec8-4c18-8340-d7aba9319bde","system_id":"levelo_inurba_marseille","lat":43.2751,"lon":5.39643,"is_reserved":false,"is_disabled":false,"rental_uris":{"android":"levelo://app?vid=d87b56f9-aec8-4c18-8340-d7aba9319bde","ios":"levelo://app?vid=d87b56f9-aec8-4c18-8340-d7aba9319bde"},"vehicle_type_id":"4","last_reported":1753477839,"current_range_meters":5600,"station_id":"","pricing_plan_id":"cebpf4jnsgd1na2vs0mg"},{"bike_id":"88713064-73b6-47c5-8baf-21f8c90f1d38","system_id":"levelo_inurba_marseille","lat":43.30686,"lon":5.38198,"is_reserved":false,"is_disabled":false,"rental_uris":{"android":"levelo://app?vid=88713064-73b6-47c5-8baf-21f8c90f1d38","ios":"levelo://app?vid=88713064-73b6-47c5-8baf-21f8c90f1d38"},"vehicle_type_id":"4","last_reported":1753477839,"current_range_meters":5600,"station_id":"","pricing_plan_id":"cebpf4jnsgd1na2vs0mg"},{"bike_id":"85244870-de2e-4268-95b7-c2ed15b3c6be","system_id":"levelo_inurba_marseille","lat":43.29848,"lon":5.36821,"is_reserved":false,"is_disabled":false,"rental_uris":{"android":"levelo://app?vid=85244870-de2e-4268-95b7-c2ed15b3c6be","ios":"levelo://app?vid=85244870-de2e-4268-95b7-c2ed15b3c6be"},"vehicle_type_id":"4","last_reported":1753477839,"current_range_meters":6000,"station_id":"ce4bgr92rcd13ifvqc7g","pricing_plan_id":"cebpf4jnsgd1na2vs0mg"},{"bike_id":"7b318c27-1f79-431a-b7f7-547f7ea99f71","system_id":"levelo_inurba_marseille","lat":43.3248,"lon":5.36561,"is_reserved":false,"is_disabled":false,"rental_uris":{"android":"levelo://app?vid=7b318c27-1f79-431a-b7f7-547f7ea99f71","ios":"levelo://app?vid=7b318c27-1f79-431a-b7f7-547f7ea99f71"},"vehicle_type_id":"4","last_reported":1753477839,"current_range_meters":5600,"station_id":"ce4bhs12rcd13ifvqhvg","pricing_plan_id":"cebpf4jnsgd1na2vs0mg"},{"bike_id":"d6e67ec9-36a2-4615-bfd1-7c7dad1d0674","system_id":"levelo_inurba_marseille","lat":43.22503,"lon":5.34783,"is_reserved":false,"is_disabled":false,"rental_uris":{"android":"levelo://app?vid=d6e67ec9-36a2-4615-bfd1-7c7dad1d0674","ios":"levelo://app?vid=d6e67ec9-36a2-4615-bfd1-7c7dad1d0674"},"vehicle_type_id":"4","last_reported":1753477839,"current_range_meters":6000,"station_id":"st_cvj5dfep6f1abm77gieg","pricing_plan_id":"cebpf4jnsgd1na2vs0mg"},{"bike_id":"3843a00f-81d8-45fd-a52a-64868b9c8532","system_id":"levelo_inurba_marseille","lat":43.297516,"lon":5.377159,"is_reserved":false,"is_disabled":false,"rental_uris":{"android":"levelo://app?vid=3843a00f-81d8-45fd-a52a-64868b9c8532","ios":"levelo://app?vid=3843a00f-81d8-45fd-a52a-64868b9c8532"},"vehicle_type_id":"4","last_reported":1753477839,"current_range_meters":6000,"station_id":"","pricing_plan_id":"cebpf4jnsgd1na2vs0mg"},{"bike_id":"5c20c657-1823-4612-b314-fc9c236c0b6d","system_id":"levelo_inurba_marseille","lat":43.29787,"lon":5.38107,"is_reserved":false,"is_disabled":false,"rental_uris":{"android":"levelo://app?vid=5c20c657-1823-4612-b314-fc9c236c0b6d","ios":"levelo://app?vid=5c20c657-1823-4612-b314-fc9c236c0b6d"},"vehicle_type_id":"4","last_reported":1753477839,"current_range_meters":6000,"station_id":"","pricing_plan_id":"cebpf4jnsgd1na2vs0mg"},{"bike_id":"d26a0748-108f-4358-9684-913cdd65a543","system_id":"levelo_inurba_marseille","lat":43.32336,"lon":5.40632,"is_reserved":false,"is_disabled":false,"rental_uris":{"android":"levelo://app?vid=d26a0748-108f-4358-9684-913cdd65a543","ios":"levelo://app?vid=d26a0748-108f-4358-9684-913cdd65a543"},"vehicle_type_id":"4","last_reported":1753477839,"current_range_meters":6400,"station_id":"ce4bhq92rcd13ifvqhjg","pricing_plan_id":"cebpf4jnsgd1na2vs0mg"},{"bike_id":"a429bf01-7ad7-4cb2-b62e-d8f13bdcf7b8","system_id":"levelo_inurba_marseille","lat":43.2621,"lon":5.37441,"is_reserved":false,"is_disabled":false,"rental_uris":{"android":"levelo://app?vid=a429bf01-7ad7-4cb2-b62e-d8f13bdcf7b8","ios":"levelo://app?vid=a429bf01-7ad7-4cb2-b62e-d8f13bdcf7b8"},"vehicle_type_id":"4","last_reported":1753477839,"current_range_meters":6000,"station_id":"ce4bhgp2rcd13ifvqfc0","pricing_plan_id":"cebpf4jnsgd1na2vs0mg"},{"bike_id":"7fed07ab-3fc6-4c09-b77a-23f6f0eec9ec","system_id":"levelo_inurba_marseille","lat":43.29034,"lon":5.37565,"is_reserved":false,"is_disabled":false,"rental_uris":{"android":"levelo://app?vid=7fed07ab-3fc6-4c09-b77a-23f6f0eec9ec","ios":"levelo://app?vid=7fed07ab-3fc6-4c09-b77a-23f6f0eec9ec"},"vehicle_type_id":"4","last_reported":1753477839,"current_range_meters":6400,"station_id":"ce4bh692rcd13ifvqe90","pricing_plan_id":"cebpf4jnsgd1na2vs0mg"},{"bike_id":"e19cd9bd-8f1f-4909-a624-5af678243303","system_id":"levelo_inurba_marseille","lat":43.29045,"lon":5.39937,"is_reserved":false,"is_disabled":false,"rental_uris":{"android":"levelo://app?vid=e19cd9bd-8f1f-4909-a624-5af678243303","ios":"levelo://app?vid=e19cd9bd-8f1f-4909-a624-5af678243303"},"vehicle_type_id":"4","last_reported":1753477839,"current_range_meters":6400,"station_id":"ce4bh392rcd13ifvqdm0","pricing_plan_id":"cebpf4jnsgd1na2vs0mg"},{"bike_id":"fa7ff071-de7f-454d-b111-26b9d91e2c20","system_id":"levelo_inurba_marseille","lat":43.295296,"lon":5.385337,"is_reserved":false,"is_disabled":false,"rental_uris":{"android":"levelo://app?vid=fa7ff071-de7f-454d-b111-26b9d91e2c20","ios":"levelo://app?vid=fa7ff071-de7f-454d-b111-26b9d91e2c20"},"vehicle_type_id":"4","last_reported":1753477839,"current_range_meters":6400,"station_id":"ce4bgih2rcd13ifvqba0","pricing_plan_id":"cebpf4jnsgd1na2vs0mg"},{"bike_id":"bd568c91-d144-4ed5-9ad9-cdd1d32ad6a4","system_id":"levelo_inurba_marseille","lat":43.31065,"lon":5.4244,"is_reserved":false,"is_disabled":false,"rental_uris":{"android":"levelo://app?vid=bd568c91-d144-4ed5-9ad9-cdd1d32ad6a4","ios":"levelo://app?vid=bd568c91-d144-4ed5-9ad9-cdd1d32ad6a4"},"vehicle_type_id":"4","last_reported":1753477839,"current_range_meters":6400,"station_id":"ce4bhp92rcd13ifvqhag","pricing_plan_id":"cebpf4jnsgd1na2vs0mg"},{"bike_id":"49a25020-c17f-426d-a295-c677da1110b3","system_id":"levelo_inurba_marseille","lat":43.26225,"lon":5.37455,"is_reserved":false,"is_disabled":true,"rental_uris":{"android":"levelo://app?vid=49a25020-c17f-426d-a295-c677da1110b3","ios":"levelo://app?vid=49a25020-c17f-426d-a295-c677da1110b3"},"vehicle_type_id":"4","last_reported":1753477839,"current_range_meters":6400,"station_id":"ce4bhgp2rcd13ifvqfc0","pricing_plan_id":"cebpf4jnsgd1na2vs0mg"},{"bike_id":"fd4ba70a-7bfa-434e-8564-04bf25cc9f63","system_id":"levelo_inurba_marseille","lat":43.28099,"lon":5.44142,"is_reserved":false,"is_disabled":false,"rental_uris":{"android":"levelo://app?vid=fd4ba70a-7bfa-434e-8564-04bf25cc9f63","ios":"levelo://app?vid=fd4ba70a-7bfa-434e-8564-04bf25cc9f63"},"vehicle_type_id":"4","last_reported":1753477839,"current_range_meters":8400,"station_id":"","pricing_plan_id":"cebpf4jnsgd1na2vs0mg"},{"bike_id":"fcf5fc25-d4da-4309-9431-9a34b3a81ae7","system_id":"levelo_inurba_marseille","lat":43.292686,"lon":5.384434,"is_reserved":false,"is_disabled":false,"rental_uris":{"android":"levelo://app?vid=fcf5fc25-d4da-4309-9431-9a34b3a81ae7","ios":"levelo://app?vid=fcf5fc25-d4da-4309-9431-9a34b3a81ae7"},"vehicle_type_id":"4","last_reported":1753477839,"current_range_meters":6800,"station_id":"ce4bhb92rcd13ifvqen0","pricing_plan_id":"cebpf4jnsgd1na2vs0mg"},{"bike_id":"7b8f0b84-b522-44ab-860c-924f0c398730","system_id":"levelo_inurba_marseille","lat":43.28159,"lon":5.4267,"is_reserved":false,"is_disabled":true,"rental_uris":{"android":"levelo://app?vid=7b8f0b84-b522-44ab-860c-924f0c398730","ios":"levelo://app?vid=7b8f0b84-b522-44ab-860c-924f0c398730"},"vehicle_type_id":"4","last_reported":1753477839,"current_range_meters":7200,"station_id":"ce4bhnh2rcd13ifvqgug","pricing_plan_id":"cebpf4jnsgd1na2vs0mg"},{"bike_id":"b93c0803-f824-4cb7-a4ed-57da1403b68e","system_id":"levelo_inurba_marseille","lat":43.325583,"lon":5.379059,"is_reserved":false,"is_disabled":true,"rental_uris":{"android":"levelo://app?vid=b93c0803-f824-4cb7-a4ed-57da1403b68e","ios":"levelo://app?vid=b93c0803-f824-4cb7-a4ed-57da1403b68e"},"vehicle_type_id":"4","last_reported":1753477839,"current_range_meters":6800,"station_id":"","pricing_plan_id":"cebpf4jnsgd1na2vs0mg"},{"bike_id":"681045c0-a1ae-425a-a634-d8021f4323f5","system_id":"levelo_inurba_marseille","lat":43.28707,"lon":5.39989,"is_reserved":false,"is_disabled":false,"rental_uris":{"android":"levelo://app?vid=681045c0-a1ae-425a-a634-d8021f4323f5","ios":"levelo://app?vid=681045c0-a1ae-425a-a634-d8021f4323f5"},"vehicle_type_id":"4","last_reported":1753477839,"current_range_meters":6800,"station_id":"ce4bho92rcd13ifvqh3g","pricing_plan_id":"cebpf4jnsgd1na2vs0mg"},{"bike_id":"fbb24fab-c088-45f7-85df-82e641af24da","system_id":"levelo_inurba_marseille","lat":43.28683,"lon":5.38667,"is_reserved":false,"is_disabled":false,"rental_uris":{"android":"levelo://app?vid=fbb24fab-c088-45f7-85df-82e641af24da","ios":"levelo://app?vid=fbb24fab-c088-45f7-85df-82e641af24da"},"vehicle_type_id":"4","last_reported":1753477839,"current_range_meters":6800,"station_id":"ce4bh492rcd13ifvqdug","pricing_plan_id":"cebpf4jnsgd1na2vs0mg"},{"bike_id":"13d36f6b-0d54-4214-8fce-8cacd95c5ec9","system_id":"levelo_inurba_marseille","lat":43.27915,"lon":5.3958,"is_reserved":false,"is_disabled":false,"rental_uris":{"android":"levelo://app?vid=13d36f6b-0d54-4214-8fce-8cacd95c5ec9","ios":"levelo://app?vid=13d36f6b-0d54-4214-8fce-8cacd95c5ec9"},"vehicle_type_id":"4","last_reported":1753477839,"current_range_meters":7200,"station_id":"ce4bhf92rcd13ifvqf40","pricing_plan_id":"cebpf4jnsgd1na2vs0mg"},{"bike_id":"b2d9b512-461e-4c22-8160-83c7cfb0cdf8","system_id":"levelo_inurba_marseille","lat":43.279501,"lon":5.410489,"is_reserved":false,"is_disabled":true,"rental_uris":{"android":"levelo://app?vid=b2d9b512-461e-4c22-8160-83c7cfb0cdf8","ios":"levelo://app?vid=b2d9b512-461e-4c22-8160-83c7cfb0cdf8"},"vehicle_type_id":"4","last_reported":1753477839,"current_range_meters":7200,"station_id":"ce4bhnp2rcd13ifvqh0g","pricing_plan_id":"cebpf4jnsgd1na2vs0mg"},{"bike_id":"927312d2-2e11-4446-9b99-46cb01b2d4e8","system_id":"levelo_inurba_marseille","lat":43.26802,"lon":5.40267,"is_reserved":false,"is_disabled":false,"rental_uris":{"android":"levelo://app?vid=927312d2-2e11-4446-9b99-46cb01b2d4e8","ios":"levelo://app?vid=927312d2-2e11-4446-9b99-46cb01b2d4e8"},"vehicle_type_id":"4","last_reported":1753477839,"current_range_meters":7200,"station_id":"ce501612rcd8frsf0b60","pricing_plan_id":"cebpf4jnsgd1na2vs0mg"},{"bike_id":"a0a7e0e5-3913-4a60-8af8-da6b2fcf258a","system_id":"levelo_inurba_marseille","lat":43.32485,"lon":5.36563,"is_reserved":false,"is_disabled":false,"rental_uris":{"android":"levelo://app?vid=a0a7e0e5-3913-4a60-8af8-da6b2fcf258a","ios":"levelo://app?vid=a0a7e0e5-3913-4a60-8af8-da6b2fcf258a"},"vehicle_type_id":"4","last_reported":1753477839,"current_range_meters":7200,"station_id":"ce4bhs12rcd13ifvqhvg","pricing_plan_id":"cebpf4jnsgd1na2vs0mg"},{"bike_id":"51979a68-a8cc-400e-b7b9-cd8004031e65","system_id":"levelo_inurba_marseille","lat":43.22523,"lon":5.34797,"is_reserved":false,"is_disabled":false,"rental_uris":{"android":"levelo://app?vid=51979a68-a8cc-400e-b7b9-cd8004031e65","ios":"levelo://app?vid=51979a68-a8cc-400e-b7b9-cd8004031e65"},"vehicle_type_id":"4","last_reported":1753477839,"current_range_meters":7200,"station_id":"st_cvj5dfep6f1abm77gieg","pricing_plan_id":"cebpf4jnsgd1na2vs0mg"},{"bike_id":"22a390ae-8984-4017-8fa8-3175df5e7f16","system_id":"levelo_inurba_marseille","lat":43.30261,"lon":5.4008,"is_reserved":false,"is_disabled":false,"rental_uris":{"android":"levelo://app?vid=22a390ae-8984-4017-8fa8-3175df5e7f16","ios":"levelo://app?vid=22a390ae-8984-4017-8fa8-3175df5e7f16"},"vehicle_type_id":"4","last_reported":1753477839,"current_range_meters":7200,"station_id":"ce4bgvh2rcd13ifvqcs0","pricing_plan_id":"cebpf4jnsgd1na2vs0mg"},{"bike_id":"599f6f01-99db-4690-aa5a-7506021990d7","system_id":"levelo_inurba_marseille","lat":43.28938,"lon":5.36631,"is_reserved":false,"is_disabled":false,"rental_uris":{"android":"levelo://app?vid=599f6f01-99db-4690-aa5a-7506021990d7","ios":"levelo://app?vid=599f6f01-99db-4690-aa5a-7506021990d7"},"vehicle_type_id":"4","last_reported":1753477839,"current_range_meters":8000,"station_id":"ce4bhap2rcd13ifvqek0","pricing_plan_id":"cebpf4jnsgd1na2vs0mg"},{"bike_id":"65fabc23-cf2a-4ca8-a868-9941476ce202","system_id":"levelo_inurba_marseille","lat":43.23622,"lon":5.36224,"is_reserved":false,"is_disabled":false,"rental_uris":{"android":"levelo://app?vid=65fabc23-cf2a-4ca8-a868-9941476ce202","ios":"levelo://app?vid=65fabc23-cf2a-4ca8-a868-9941476ce202"},"vehicle_type_id":"4","last_reported":1753477839,"current_range_meters":8000,"station_id":"","pricing_plan_id":"cebpf4jnsgd1na2vs0mg"},{"bike_id":"46303d30-b49b-420d-92f6-2660f5faa7ab","system_id":"levelo_inurba_marseille","lat":43.32112,"lon":5.36773,"is_reserved":false,"is_disabled":false,"rental_uris":{"android":"levelo://app?vid=46303d30-b49b-420d-92f6-2660f5faa7ab","ios":"levelo://app?vid=46303d30-b49b-420d-92f6-2660f5faa7ab"},"vehicle_type_id":"4","last_reported":1753477839,"current_range_meters":8000,"station_id":"ce4bhrh2rcd13ifvqhug","pricing_plan_id":"cebpf4jnsgd1na2vs0mg"},{"bike_id":"acc63e75-97b6-4e8b-8daa-b5b23ae9ff32","system_id":"levelo_inurba_marseille","lat":43.28704,"lon":5.39992,"is_reserved":false,"is_disabled":false,"rental_uris":{"android":"levelo://app?vid=acc63e75-97b6-4e8b-8daa-b5b23ae9ff32","ios":"levelo://app?vid=acc63e75-97b6-4e8b-8daa-b5b23ae9ff32"},"vehicle_type_id":"4","last_reported":1753477839,"current_range_meters":8000,"station_id":"ce4bho92rcd13ifvqh3g","pricing_plan_id":"cebpf4jnsgd1na2vs0mg"},{"bike_id":"f28d2bb9-4217-4196-a573-ba6f4c172497","system_id":"levelo_inurba_marseille","lat":43.2816,"lon":5.36119,"is_reserved":false,"is_disabled":false,"rental_uris":{"android":"levelo://app?vid=f28d2bb9-4217-4196-a573-ba6f4c172497","ios":"levelo://app?vid=f28d2bb9-4217-4196-a573-ba6f4c172497"},"vehicle_type_id":"4","last_reported":1753477839,"current_range_meters":8000,"station_id":"","pricing_plan_id":"cebpf4jnsgd1na2vs0mg"},{"bike_id":"bcb5973c-f0f8-4ac1-8693-b0ca2c9b7944","system_id":"levelo_inurba_marseille","lat":43.28473,"lon":5.38414,"is_reserved":false,"is_disabled":false,"rental_uris":{"android":"levelo://app?vid=bcb5973c-f0f8-4ac1-8693-b0ca2c9b7944","ios":"levelo://app?vid=bcb5973c-f0f8-4ac1-8693-b0ca2c9b7944"},"vehicle_type_id":"4","last_reported":1753477839,"current_range_meters":8000,"station_id":"ce4bh512rcd13ifvqe3g","pricing_plan_id":"cebpf4jnsgd1na2vs0mg"},{"bike_id":"2982f92d-87cc-4cb9-8c02-e871843fba1c","system_id":"levelo_inurba_marseille","lat":43.35007,"lon":5.35017,"is_reserved":false,"is_disabled":false,"rental_uris":{"android":"levelo://app?vid=2982f92d-87cc-4cb9-8c02-e871843fba1c","ios":"levelo://app?vid=2982f92d-87cc-4cb9-8c02-e871843fba1c"},"vehicle_type_id":"4","last_reported":1753477839,"current_range_meters":8000,"station_id":"","pricing_plan_id":"cebpf4jnsgd1na2vs0mg"},{"bike_id":"0faff5a6-7845-401b-9705-302799bd0ce4","system_id":"levelo_inurba_marseille","lat":43.29741,"lon":5.37931,"is_reserved":false,"is_disabled":false,"rental_uris":{"android":"levelo://app?vid=0faff5a6-7845-401b-9705-302799bd0ce4","ios":"levelo://app?vid=0faff5a6-7845-401b-9705-302799bd0ce4"},"vehicle_type_id":"4","last_reported":1753477839,"current_range_meters":8400,"station_id":"","pricing_plan_id":"cebpf4jnsgd1na2vs0mg"},{"bike_id":"2140f963-c821-4f97-8f1d-0c232f523c3e","system_id":"levelo_inurba_marseille","lat":43.2925,"lon":5.38443,"is_reserved":false,"is_disabled":false,"rental_uris":{"android":"levelo://app?vid=2140f963-c821-4f97-8f1d-0c232f523c3e","ios":"levelo://app?vid=2140f963-c821-4f97-8f1d-0c232f523c3e"},"vehicle_type_id":"4","last_reported":1753477839,"current_range_meters":8400,"station_id":"ce4bh692rcd13ifvqea0","pricing_plan_id":"cebpf4jnsgd1na2vs0mg"},{"bike_id":"68801fee-efc8-485b-a110-a36431796a83","system_id":"levelo_inurba_marseille","lat":43.29568,"lon":5.37526,"is_reserved":false,"is_disabled":true,"rental_uris":{"android":"levelo://app?vid=68801fee-efc8-485b-a110-a36431796a83","ios":"levelo://app?vid=68801fee-efc8-485b-a110-a36431796a83"},"vehicle_type_id":"4","last_reported":1753477839,"current_range_meters":8800,"station_id":"ce4bgh92rcd13ifvqb50","pricing_plan_id":"cebpf4jnsgd1na2vs0mg"},{"bike_id":"6db9c63d-851a-4a31-b505-3a9297ae8a53","system_id":"levelo_inurba_marseille","lat":43.29427,"lon":5.38574,"is_reserved":false,"is_disabled":false,"rental_uris":{"android":"levelo://app?vid=6db9c63d-851a-4a31-b505-3a9297ae8a53","ios":"levelo://app?vid=6db9c63d-851a-4a31-b505-3a9297ae8a53"},"vehicle_type_id":"4","last_reported":1753477839,"current_range_meters":8800,"station_id":"","pricing_plan_id":"cebpf4jnsgd1na2vs0mg"},{"bike_id":"f48412fc-35e7-4ffd-92d0-091b077aef46","system_id":"levelo_inurba_marseille","lat":43.290166,"lon":5.381267,"is_reserved":false,"is_disabled":false,"rental_uris":{"android":"levelo://app?vid=f48412fc-35e7-4ffd-92d0-091b077aef46","ios":"levelo://app?vid=f48412fc-35e7-4ffd-92d0-091b077aef46"},"vehicle_type_id":"4","last_reported":1753477839,"current_range_meters":8800,"station_id":"ce4bh4p2rcd13ifvqe1g","pricing_plan_id":"cebpf4jnsgd1na2vs0mg"},{"bike_id":"aca58ba3-3ca4-47e2-9e15-ab279ce0dd5f","system_id":"levelo_inurba_marseille","lat":43.29261,"lon":5.38447,"is_reserved":false,"is_disabled":false,"rental_uris":{"android":"levelo://app?vid=aca58ba3-3ca4-47e2-9e15-ab279ce0dd5f","ios":"levelo://app?vid=aca58ba3-3ca4-47e2-9e15-ab279ce0dd5f"},"vehicle_type_id":"4","last_reported":1753477839,"current_range_meters":8800,"station_id":"ce4bh692rcd13ifvqea0","pricing_plan_id":"cebpf4jnsgd1na2vs0mg"},{"bike_id":"c8dc9712-a045-4d70-989b-83ececa57361","system_id":"levelo_inurba_marseille","lat":43.28466,"lon":5.38418,"is_reserved":false,"is_disabled":false,"rental_uris":{"android":"levelo://app?vid=c8dc9712-a045-4d70-989b-83ececa57361","ios":"levelo://app?vid=c8dc9712-a045-4d70-989b-83ececa57361"},"vehicle_type_id":"4","last_reported":1753477839,"current_range_meters":9200,"station_id":"ce4bh512rcd13ifvqe3g","pricing_plan_id":"cebpf4jnsgd1na2vs0mg"},{"bike_id":"b3d0b638-0097-4597-a4b4-a34d2df8b9d9","system_id":"levelo_inurba_marseille","lat":43.29256,"lon":5.3844,"is_reserved":false,"is_disabled":false,"rental_uris":{"android":"levelo://app?vid=b3d0b638-0097-4597-a4b4-a34d2df8b9d9","ios":"levelo://app?vid=b3d0b638-0097-4597-a4b4-a34d2df8b9d9"},"vehicle_type_id":"4","last_reported":1753477839,"current_range_meters":9200,"station_id":"ce4bh692rcd13ifvqea0","pricing_plan_id":"cebpf4jnsgd1na2vs0mg"},{"bike_id":"ab18ad8f-5eb3-4500-abe1-f62e948a9104","system_id":"levelo_inurba_marseille","lat":43.22492,"lon":5.34789,"is_reserved":false,"is_disabled":false,"rental_uris":{"android":"levelo://app?vid=ab18ad8f-5eb3-4500-abe1-f62e948a9104","ios":"levelo://app?vid=ab18ad8f-5eb3-4500-abe1-f62e948a9104"},"vehicle_type_id":"4","last_reported":1753477839,"current_range_meters":9200,"station_id":"st_cvj5dfep6f1abm77gieg","pricing_plan_id":"cebpf4jnsgd1na2vs0mg"},{"bike_id":"5b94eff9-2e0f-4c0e-b3f6-ab7ca2eca31a","system_id":"levelo_inurba_marseille","lat":43.27384,"lon":5.362538,"is_reserved":false,"is_disabled":true,"rental_uris":{"android":"levelo://app?vid=5b94eff9-2e0f-4c0e-b3f6-ab7ca2eca31a","ios":"levelo://app?vid=5b94eff9-2e0f-4c0e-b3f6-ab7ca2eca31a"},"vehicle_type_id":"4","last_reported":1753477839,"current_range_meters":9200,"station_id":"ce4bhbh2rcd13ifvqeo0","pricing_plan_id":"cebpf4jnsgd1na2vs0mg"},{"bike_id":"c33ca5fe-1b5e-4a19-9aa5-840ad46394e0","system_id":"levelo_inurba_marseille","lat":43.29733,"lon":5.37699,"is_reserved":false,"is_disabled":true,"rental_uris":{"android":"levelo://app?vid=c33ca5fe-1b5e-4a19-9aa5-840ad46394e0","ios":"levelo://app?vid=c33ca5fe-1b5e-4a19-9aa5-840ad46394e0"},"vehicle_type_id":"4","last_reported":1753477839,"current_range_meters":9200,"station_id":"ce4bgkh2rcd13ifvqbl0","pricing_plan_id":"cebpf4jnsgd1na2vs0mg"},{"bike_id":"2e8e7fa4-47bc-4567-b903-96abfb4fdf66","system_id":"levelo_inurba_marseille","lat":43.29259,"lon":5.44601,"is_reserved":false,"is_disabled":false,"rental_uris":{"android":"levelo://app?vid=2e8e7fa4-47bc-4567-b903-96abfb4fdf66","ios":"levelo://app?vid=2e8e7fa4-47bc-4567-b903-96abfb4fdf66"},"vehicle_type_id":"4","last_reported":1753477839,"current_range_meters":9200,"station_id":"","pricing_plan_id":"cebpf4jnsgd1na2vs0mg"},{"bike_id":"ec10854a-1b12-483b-b7dd-8420c109aaca","system_id":"levelo_inurba_marseille","lat":43.28088,"lon":5.39622,"is_reserved":false,"is_disabled":false,"rental_uris":{"android":"levelo://app?vid=ec10854a-1b12-483b-b7dd-8420c109aaca","ios":"levelo://app?vid=ec10854a-1b12-483b-b7dd-8420c109aaca"},"vehicle_type_id":"4","last_reported":1753477839,"current_range_meters":9200,"station_id":"ce4bho12rcd13ifvqh2g","pricing_plan_id":"cebpf4jnsgd1na2vs0mg"},{"bike_id":"c81221b6-50db-4c4e-b052-1f8cfb4a4125","system_id":"levelo_inurba_marseille","lat":43.32663,"lon":5.40988,"is_reserved":false,"is_disabled":false,"rental_uris":{"android":"levelo://app?vid=c81221b6-50db-4c4e-b052-1f8cfb4a4125","ios":"levelo://app?vid=c81221b6-50db-4c4e-b052-1f8cfb4a4125"},"vehicle_type_id":"4","last_reported":1753477839,"current_range_meters":9200,"station_id":"ce4bhpp2rcd13ifvqhgg","pricing_plan_id":"cebpf4jnsgd1na2vs0mg"},{"bike_id":"a1676a90-aeae-4e28-8472-3e88e730a66f","system_id":"levelo_inurba_marseille","lat":43.29044,"lon":5.439678,"is_reserved":false,"is_disabled":false,"rental_uris":{"android":"levelo://app?vid=a1676a90-aeae-4e28-8472-3e88e730a66f","ios":"levelo://app?vid=a1676a90-aeae-4e28-8472-3e88e730a66f"},"vehicle_type_id":"4","last_reported":1753477839,"current_range_meters":9600,"station_id":"","pricing_plan_id":"cebpf4jnsgd1na2vs0mg"},{"bike_id":"de2cce03-1218-4ed6-b192-208ca79e4514","system_id":"levelo_inurba_marseille","lat":43.29529,"lon":5.38538,"is_reserved":false,"is_disabled":false,"rental_uris":{"android":"levelo://app?vid=de2cce03-1218-4ed6-b192-208ca79e4514","ios":"levelo://app?vid=de2cce03-1218-4ed6-b192-208ca79e4514"},"vehicle_type_id":"4","last_reported":1753477839,"current_range_meters":9600,"station_id":"ce4bgih2rcd13ifvqba0","pricing_plan_id":"cebpf4jnsgd1na2vs0mg"},{"bike_id":"f7623b57-5f88-4ef7-8535-1d8b44f90d27","system_id":"levelo_inurba_marseille","lat":43.22514,"lon":5.34798,"is_reserved":false,"is_disabled":false,"rental_uris":{"android":"levelo://app?vid=f7623b57-5f88-4ef7-8535-1d8b44f90d27","ios":"levelo://app?vid=f7623b57-5f88-4ef7-8535-1d8b44f90d27"},"vehicle_type_id":"4","last_reported":1753477839,"current_range_meters":9600,"station_id":"","pricing_plan_id":"cebpf4jnsgd1na2vs0mg"},{"bike_id":"ff30a5ee-0e9d-4bfa-a593-c7beaf9df463","system_id":"levelo_inurba_marseille","lat":43.3353,"lon":5.3621,"is_reserved":false,"is_disabled":false,"rental_uris":{"android":"levelo://app?vid=ff30a5ee-0e9d-4bfa-a593-c7beaf9df463","ios":"levelo://app?vid=ff30a5ee-0e9d-4bfa-a593-c7beaf9df463"},"vehicle_type_id":"4","last_reported":1753477839,"current_range_meters":9600,"station_id":"","pricing_plan_id":"cebpf4jnsgd1na2vs0mg"},{"bike_id":"ac7f3c2f-452c-4620-beb4-96f9c8da3434","system_id":"levelo_inurba_marseille","lat":43.30591,"lon":5.38567,"is_reserved":false,"is_disabled":false,"rental_uris":{"android":"levelo://app?vid=ac7f3c2f-452c-4620-beb4-96f9c8da3434","ios":"levelo://app?vid=ac7f3c2f-452c-4620-beb4-96f9c8da3434"},"vehicle_type_id":"4","last_reported":1753477839,"current_range_meters":9600,"station_id":"","pricing_plan_id":"cebpf4jnsgd1na2vs0mg"},{"bike_id":"24153b7a-16b3-4d17-a527-d8bd6d8fc02e","system_id":"levelo_inurba_marseille","lat":43.31373,"lon":5.38519,"is_reserved":false,"is_disabled":false,"rental_uris":{"android":"levelo://app?vid=24153b7a-16b3-4d17-a527-d8bd6d8fc02e","ios":"levelo://app?vid=24153b7a-16b3-4d17-a527-d8bd6d8fc02e"},"vehicle_type_id":"4","last_reported":1753477839,"current_range_meters":9600,"station_id":"ce4bgt92rcd13ifvqcf0","pricing_plan_id":"cebpf4jnsgd1na2vs0mg"},{"bike_id":"465cf7cf-a03a-47ab-abe6-8f43755a449b","system_id":"levelo_inurba_marseille","lat":43.28846,"lon":5.39335,"is_reserved":false,"is_disabled":false,"rental_uris":{"android":"levelo://app?vid=465cf7cf-a03a-47ab-abe6-8f43755a449b","ios":"levelo://app?vid=465cf7cf-a03a-47ab-abe6-8f43755a449b"},"vehicle_type_id":"4","last_reported":1753477839,"current_range_meters":9600,"station_id":"ce4bh2p2rcd13ifvqdi0","pricing_plan_id":"cebpf4jnsgd1na2vs0mg"},{"bike_id":"15cb4908-c61c-4371-98e9-04c839318d0d","system_id":"levelo_inurba_marseille","lat":43.30592,"lon":5.39362,"is_reserved":false,"is_disabled":false,"rental_uris":{"android":"levelo://app?vid=15cb4908-c61c-4371-98e9-04c839318d0d","ios":"levelo://app?vid=15cb4908-c61c-4371-98e9-04c839318d0d"},"vehicle_type_id":"4","last_reported":1753477839,"current_range_meters":7200,"station_id":"ce4bh0p2rcd13ifvqd80","pricing_plan_id":"cebpf4jnsgd1na2vs0mg"},{"bike_id":"edf2aad9-0e06-42b7-8ba0-5757f7e4b09f","system_id":"levelo_inurba_marseille","lat":43.29263,"lon":5.38447,"is_reserved":false,"is_disabled":false,"rental_uris":{"android":"levelo://app?vid=edf2aad9-0e06-42b7-8ba0-5757f7e4b09f","ios":"levelo://app?vid=edf2aad9-0e06-42b7-8ba0-5757f7e4b09f"},"vehicle_type_id":"4","last_reported":1753477839,"current_range_meters":10000,"station_id":"ce4bh692rcd13ifvqea0","pricing_plan_id":"cebpf4jnsgd1na2vs0mg"},{"bike_id":"1c31f24b-2b9e-48c3-b103-bffd32b92420","system_id":"levelo_inurba_marseille","lat":43.33508,"lon":5.40864,"is_reserved":false,"is_disabled":false,"rental_uris":{"android":"levelo://app?vid=1c31f24b-2b9e-48c3-b103-bffd32b92420","ios":"levelo://app?vid=1c31f24b-2b9e-48c3-b103-bffd32b92420"},"vehicle_type_id":"4","last_reported":1753477839,"current_range_meters":10000,"station_id":"","pricing_plan_id":"cebpf4jnsgd1na2vs0mg"},{"bike_id":"0939eecf-ab8e-4e0f-8dde-ab5f40cfd3cc","system_id":"levelo_inurba_marseille","lat":43.28412,"lon":5.34999,"is_reserved":false,"is_disabled":true,"rental_uris":{"android":"levelo://app?vid=0939eecf-ab8e-4e0f-8dde-ab5f40cfd3cc","ios":"levelo://app?vid=0939eecf-ab8e-4e0f-8dde-ab5f40cfd3cc"},"vehicle_type_id":"4","last_reported":1753477839,"current_range_meters":10000,"station_id":"ce4bhbh2rcd13ifvqepg","pricing_plan_id":"cebpf4jnsgd1na2vs0mg"},{"bike_id":"a2ccbf76-8c1a-4aef-814f-db130f867270","system_id":"levelo_inurba_marseille","lat":43.3097,"lon":5.37429,"is_reserved":false,"is_disabled":false,"rental_uris":{"android":"levelo://app?vid=a2ccbf76-8c1a-4aef-814f-db130f867270","ios":"levelo://app?vid=a2ccbf76-8c1a-4aef-814f-db130f867270"},"vehicle_type_id":"4","last_reported":1753477839,"current_range_meters":10000,"station_id":"","pricing_plan_id":"cebpf4jnsgd1na2vs0mg"},{"bike_id":"cad22c91-f85e-4453-acca-9535f6e30928","system_id":"levelo_inurba_marseille","lat":43.31758,"lon":5.39012,"is_reserved":false,"is_disabled":false,"rental_uris":{"android":"levelo://app?vid=cad22c91-f85e-4453-acca-9535f6e30928","ios":"levelo://app?vid=cad22c91-f85e-4453-acca-9535f6e30928"},"vehicle_type_id":"4","last_reported":1753477839,"current_range_meters":9600,"station_id":"ce4bhqp2rcd13ifvqhng","pricing_plan_id":"cebpf4jnsgd1na2vs0mg"},{"bike_id":"a6cef791-c2a9-4a3c-ac86-05c59662ea83","system_id":"levelo_inurba_marseille","lat":43.29784,"lon":5.3809,"is_reserved":false,"is_disabled":false,"rental_uris":{"android":"levelo://app?vid=a6cef791-c2a9-4a3c-ac86-05c59662ea83","ios":"levelo://app?vid=a6cef791-c2a9-4a3c-ac86-05c59662ea83"},"vehicle_type_id":"4","last_reported":1753477839,"current_range_meters":10000,"station_id":"ce4bgip2rcd13ifvqbb0","pricing_plan_id":"cebpf4jnsgd1na2vs0mg"},{"bike_id":"734ff9c0-7b95-4f4c-b839-39f20818bcf6","system_id":"levelo_inurba_marseille","lat":43.29678,"lon":5.3729,"is_reserved":false,"is_disabled":false,"rental_uris":{"android":"levelo://app?vid=734ff9c0-7b95-4f4c-b839-39f20818bcf6","ios":"levelo://app?vid=734ff9c0-7b95-4f4c-b839-39f20818bcf6"},"vehicle_type_id":"4","last_reported":1753477839,"current_range_meters":10000,"station_id":"ce4bgk12rcd13ifvqbj0","pricing_plan_id":"cebpf4jnsgd1na2vs0mg"},{"bike_id":"422f5c1e-03e1-4c03-b93d-6458da82b7dc","system_id":"levelo_inurba_marseille","lat":43.2987,"lon":5.39728,"is_reserved":false,"is_disabled":false,"rental_uris":{"android":"levelo://app?vid=422f5c1e-03e1-4c03-b93d-6458da82b7dc","ios":"levelo://app?vid=422f5c1e-03e1-4c03-b93d-6458da82b7dc"},"vehicle_type_id":"4","last_reported":1753477839,"current_range_meters":10000,"station_id":"ce4bh0h2rcd13ifvqd50","pricing_plan_id":"cebpf4jnsgd1na2vs0mg"},{"bike_id":"daef4ce9-7074-4fdc-8565-d033c41f786d","system_id":"levelo_inurba_marseille","lat":43.29574,"lon":5.37514,"is_reserved":false,"is_disabled":false,"rental_uris":{"android":"levelo://app?vid=daef4ce9-7074-4fdc-8565-d033c41f786d","ios":"levelo://app?vid=daef4ce9-7074-4fdc-8565-d033c41f786d"},"vehicle_type_id":"4","last_reported":1753477839,"current_range_meters":10000,"station_id":"ce4bgh92rcd13ifvqb50","pricing_plan_id":"cebpf4jnsgd1na2vs0mg"},{"bike_id":"35ee41ab-1155-4c5d-a3ff-d1e05b86be8c","system_id":"levelo_inurba_marseille","lat":43.31299,"lon":5.43088,"is_reserved":false,"is_disabled":false,"rental_uris":{"android":"levelo://app?vid=35ee41ab-1155-4c5d-a3ff-d1e05b86be8c","ios":"levelo://app?vid=35ee41ab-1155-4c5d-a3ff-d1e05b86be8c"},"vehicle_type_id":"4","last_reported":1753477839,"current_range_meters":10000,"station_id":"","pricing_plan_id":"cebpf4jnsgd1na2vs0mg"},{"bike_id":"f1799584-477f-46c1-a98d-0c6c66c2bfbd","system_id":"levelo_inurba_marseille","lat":43.30212,"lon":5.39468,"is_reserved":false,"is_disabled":false,"rental_uris":{"android":"levelo://app?vid=f1799584-477f-46c1-a98d-0c6c66c2bfbd","ios":"levelo://app?vid=f1799584-477f-46c1-a98d-0c6c66c2bfbd"},"vehicle_type_id":"4","last_reported":1753477839,"current_range_meters":10000,"station_id":"ce4bh0p2rcd13ifvqd70","pricing_plan_id":"cebpf4jnsgd1na2vs0mg"},{"bike_id":"903350dd-ee3e-4369-8601-96805ce0d468","system_id":"levelo_inurba_marseille","lat":43.30951,"lon":5.39033,"is_reserved":false,"is_disabled":true,"rental_uris":{"android":"levelo://app?vid=903350dd-ee3e-4369-8601-96805ce0d468","ios":"levelo://app?vid=903350dd-ee3e-4369-8601-96805ce0d468"},"vehicle_type_id":"4","last_reported":1753477839,"current_range_meters":10800,"station_id":"ce4bgup2rcd13ifvqco0","pricing_plan_id":"cebpf4jnsgd1na2vs0mg"},{"bike_id":"43cf4049-15dd-4e8c-88a8-61cd8dc10bf5","system_id":"levelo_inurba_marseille","lat":43.332532,"lon":5.379105,"is_reserved":false,"is_disabled":false,"rental_uris":{"android":"levelo://app?vid=43cf4049-15dd-4e8c-88a8-61cd8dc10bf5","ios":"levelo://app?vid=43cf4049-15dd-4e8c-88a8-61cd8dc10bf5"},"vehicle_type_id":"4","last_reported":1753477839,"current_range_meters":10800,"station_id":"","pricing_plan_id":"cebpf4jnsgd1na2vs0mg"},{"bike_id":"572b881e-4bb7-4b90-be7e-1305540f2c72","system_id":"levelo_inurba_marseille","lat":43.28836,"lon":5.39277,"is_reserved":false,"is_disabled":false,"rental_uris":{"android":"levelo://app?vid=572b881e-4bb7-4b90-be7e-1305540f2c72","ios":"levelo://app?vid=572b881e-4bb7-4b90-be7e-1305540f2c72"},"vehicle_type_id":"4","last_reported":1753477839,"current_range_meters":10800,"station_id":"ce4bh2p2rcd13ifvqdi0","pricing_plan_id":"cebpf4jnsgd1na2vs0mg"},{"bike_id":"99efeb1f-be9f-42b0-b3d4-8dda4ec44b79","system_id":"levelo_inurba_marseille","lat":43.29718,"lon":5.37281,"is_reserved":false,"is_disabled":false,"rental_uris":{"android":"levelo://app?vid=99efeb1f-be9f-42b0-b3d4-8dda4ec44b79","ios":"levelo://app?vid=99efeb1f-be9f-42b0-b3d4-8dda4ec44b79"},"vehicle_type_id":"4","last_reported":1753477839,"current_range_meters":10800,"station_id":"ce4bgk12rcd13ifvqbj0","pricing_plan_id":"cebpf4jnsgd1na2vs0mg"},{"bike_id":"79079a9a-8322-4f6c-a9e6-9aba90ee17ba","system_id":"levelo_inurba_marseille","lat":43.33728,"lon":5.37454,"is_reserved":false,"is_disabled":false,"rental_uris":{"android":"levelo://app?vid=79079a9a-8322-4f6c-a9e6-9aba90ee17ba","ios":"levelo://app?vid=79079a9a-8322-4f6c-a9e6-9aba90ee17ba"},"vehicle_type_id":"4","last_reported":1753477839,"current_range_meters":10800,"station_id":"","pricing_plan_id":"cebpf4jnsgd1na2vs0mg"},{"bike_id":"f844a339-7d37-4629-b9b3-2ab886c95711","system_id":"levelo_inurba_marseille","lat":43.25857,"lon":5.399,"is_reserved":false,"is_disabled":true,"rental_uris":{"android":"levelo://app?vid=f844a339-7d37-4629-b9b3-2ab886c95711","ios":"levelo://app?vid=f844a339-7d37-4629-b9b3-2ab886c95711"},"vehicle_type_id":"4","last_reported":1753477839,"current_range_meters":11200,"station_id":"ce4bhl92rcd13ifvqghg","pricing_plan_id":"cebpf4jnsgd1na2vs0mg"},{"bike_id":"c07e20cc-6724-4af5-a3ac-826edc27d1dd","system_id":"levelo_inurba_marseille","lat":43.2622,"lon":5.40476,"is_reserved":false,"is_disabled":false,"rental_uris":{"android":"levelo://app?vid=c07e20cc-6724-4af5-a3ac-826edc27d1dd","ios":"levelo://app?vid=c07e20cc-6724-4af5-a3ac-826edc27d1dd"},"vehicle_type_id":"4","last_reported":1753477839,"current_range_meters":11200,"station_id":"ce4bhmh2rcd13ifvqgmg","pricing_plan_id":"cebpf4jnsgd1na2vs0mg"},{"bike_id":"0c82221a-d8c5-4c0a-ad44-7f96364af621","system_id":"levelo_inurba_marseille","lat":43.2808,"lon":5.39661,"is_reserved":false,"is_disabled":false,"rental_uris":{"android":"levelo://app?vid=0c82221a-d8c5-4c0a-ad44-7f96364af621","ios":"levelo://app?vid=0c82221a-d8c5-4c0a-ad44-7f96364af621"},"vehicle_type_id":"4","last_reported":1753477839,"current_range_meters":10800,"station_id":"ce4bho12rcd13ifvqh2g","pricing_plan_id":"cebpf4jnsgd1na2vs0mg"},{"bike_id":"29adf964-cd0d-481a-b956-e2db1648d79a","system_id":"levelo_inurba_marseille","lat":43.29379,"lon":5.37846,"is_reserved":false,"is_disabled":false,"rental_uris":{"android":"levelo://app?vid=29adf964-cd0d-481a-b956-e2db1648d79a","ios":"levelo://app?vid=29adf964-cd0d-481a-b956-e2db1648d79a"},"vehicle_type_id":"4","last_reported":1753477839,"current_range_meters":11200,"station_id":"ce4bgjh2rcd13ifvqbf0","pricing_plan_id":"cebpf4jnsgd1na2vs0mg"},{"bike_id":"490fd0a3-3ae2-4135-acff-5c94025f5f04","system_id":"levelo_inurba_marseille","lat":43.27938,"lon":5.39563,"is_reserved":false,"is_disabled":true,"rental_uris":{"android":"levelo://app?vid=490fd0a3-3ae2-4135-acff-5c94025f5f04","ios":"levelo://app?vid=490fd0a3-3ae2-4135-acff-5c94025f5f04"},"vehicle_type_id":"4","last_reported":1753477839,"current_range_meters":11200,"station_id":"ce4bhf92rcd13ifvqf40","pricing_plan_id":"cebpf4jnsgd1na2vs0mg"},{"bike_id":"8cbb8f7f-9095-4ea2-b7c0-3cb05502a868","system_id":"levelo_inurba_marseille","lat":43.28881,"lon":5.37136,"is_reserved":false,"is_disabled":false,"rental_uris":{"android":"levelo://app?vid=8cbb8f7f-9095-4ea2-b7c0-3cb05502a868","ios":"levelo://app?vid=8cbb8f7f-9095-4ea2-b7c0-3cb05502a868"},"vehicle_type_id":"4","last_reported":1753477839,"current_range_meters":11200,"station_id":"","pricing_plan_id":"cebpf4jnsgd1na2vs0mg"},{"bike_id":"9394fe28-8274-495c-9443-aced87a82ab8","system_id":"levelo_inurba_marseille","lat":43.29531,"lon":5.38536,"is_reserved":false,"is_disabled":false,"rental_uris":{"android":"levelo://app?vid=9394fe28-8274-495c-9443-aced87a82ab8","ios":"levelo://app?vid=9394fe28-8274-495c-9443-aced87a82ab8"},"vehicle_type_id":"4","last_reported":1753477839,"current_range_meters":11600,"station_id":"ce4bgih2rcd13ifvqba0","pricing_plan_id":"cebpf4jnsgd1na2vs0mg"},{"bike_id":"5a5301d6-8a60-4c97-892d-9920ba0a334f","system_id":"levelo_inurba_marseille","lat":43.29266,"lon":5.38441,"is_reserved":false,"is_disabled":false,"rental_uris":{"android":"levelo://app?vid=5a5301d6-8a60-4c97-892d-9920ba0a334f","ios":"levelo://app?vid=5a5301d6-8a60-4c97-892d-9920ba0a334f"},"vehicle_type_id":"4","last_reported":1753477839,"current_range_meters":11600,"station_id":"ce4bh692rcd13ifvqea0","pricing_plan_id":"cebpf4jnsgd1na2vs0mg"},{"bike_id":"941accb0-9603-41dc-aba5-3b66b7dbb77a","system_id":"levelo_inurba_marseille","lat":43.251076,"lon":5.40319,"is_reserved":false,"is_disabled":false,"rental_uris":{"android":"levelo://app?vid=941accb0-9603-41dc-aba5-3b66b7dbb77a","ios":"levelo://app?vid=941accb0-9603-41dc-aba5-3b66b7dbb77a"},"vehicle_type_id":"4","last_reported":1753477839,"current_range_meters":11600,"station_id":"ce4bhlh2rcd13ifvqgig","pricing_plan_id":"cebpf4jnsgd1na2vs0mg"},{"bike_id":"6fe53aa1-4043-45a9-ac87-07b0bc9200b0","system_id":"levelo_inurba_marseille","lat":43.29259,"lon":5.38456,"is_reserved":false,"is_disabled":false,"rental_uris":{"android":"levelo://app?vid=6fe53aa1-4043-45a9-ac87-07b0bc9200b0","ios":"levelo://app?vid=6fe53aa1-4043-45a9-ac87-07b0bc9200b0"},"vehicle_type_id":"4","last_reported":1753477839,"current_range_meters":11600,"station_id":"ce4bh692rcd13ifvqea0","pricing_plan_id":"cebpf4jnsgd1na2vs0mg"},{"bike_id":"c017b4de-074c-46ed-bc0a-5b7912813135","system_id":"levelo_inurba_marseille","lat":43.26121,"lon":5.37331,"is_reserved":false,"is_disabled":false,"rental_uris":{"android":"levelo://app?vid=c017b4de-074c-46ed-bc0a-5b7912813135","ios":"levelo://app?vid=c017b4de-074c-46ed-bc0a-5b7912813135"},"vehicle_type_id":"4","last_reported":1753477839,"current_range_meters":11600,"station_id":"","pricing_plan_id":"cebpf4jnsgd1na2vs0mg"},{"bike_id":"e46c2953-a707-486b-9b85-922de02b16d6","system_id":"levelo_inurba_marseille","lat":43.295264,"lon":5.385377,"is_reserved":false,"is_disabled":false,"rental_uris":{"android":"levelo://app?vid=e46c2953-a707-486b-9b85-922de02b16d6","ios":"levelo://app?vid=e46c2953-a707-486b-9b85-922de02b16d6"},"vehicle_type_id":"4","last_reported":1753477839,"current_range_meters":11600,"station_id":"ce4bgih2rcd13ifvqba0","pricing_plan_id":"cebpf4jnsgd1na2vs0mg"},{"bike_id":"6755382c-76dd-4587-baf5-a4b43a86610a","system_id":"levelo_inurba_marseille","lat":43.2407,"lon":5.37783,"is_reserved":false,"is_disabled":false,"rental_uris":{"android":"levelo://app?vid=6755382c-76dd-4587-baf5-a4b43a86610a","ios":"levelo://app?vid=6755382c-76dd-4587-baf5-a4b43a86610a"},"vehicle_type_id":"4","last_reported":1753477839,"current_range_meters":11600,"station_id":"ce4bhnp2rcd13ifvqgvg","pricing_plan_id":"cebpf4jnsgd1na2vs0mg"},{"bike_id":"89d21b93-5afe-4818-852e-cd14800119f8","system_id":"levelo_inurba_marseille","lat":43.31704,"lon":5.37732,"is_reserved":false,"is_disabled":false,"rental_uris":{"android":"levelo://app?vid=89d21b93-5afe-4818-852e-cd14800119f8","ios":"levelo://app?vid=89d21b93-5afe-4818-852e-cd14800119f8"},"vehicle_type_id":"4","last_reported":1753477839,"current_range_meters":11600,"station_id":"ce4bgth2rcd13ifvqch0","pricing_plan_id":"cebpf4jnsgd1na2vs0mg"},{"bike_id":"44dd49d0-ee46-43b9-9770-ee74a62ddcb7","system_id":"levelo_inurba_marseille","lat":43.31072,"lon":5.38353,"is_reserved":false,"is_disabled":false,"rental_uris":{"android":"levelo://app?vid=44dd49d0-ee46-43b9-9770-ee74a62ddcb7","ios":"levelo://app?vid=44dd49d0-ee46-43b9-9770-ee74a62ddcb7"},"vehicle_type_id":"4","last_reported":1753477839,"current_range_meters":12000,"station_id":"ce4bgv92rcd13ifvqcr0","pricing_plan_id":"cebpf4jnsgd1na2vs0mg"},{"bike_id":"5d5b69a8-17bb-4fee-9677-428b5d4bb03a","system_id":"levelo_inurba_marseille","lat":43.29451,"lon":5.39737,"is_reserved":false,"is_disabled":false,"rental_uris":{"android":"levelo://app?vid=5d5b69a8-17bb-4fee-9677-428b5d4bb03a","ios":"levelo://app?vid=5d5b69a8-17bb-4fee-9677-428b5d4bb03a"},"vehicle_type_id":"4","last_reported":1753477839,"current_range_meters":12000,"station_id":"ce4bh3h2rcd13ifvqdo0","pricing_plan_id":"cebpf4jnsgd1na2vs0mg"},{"bike_id":"eb40c104-937f-466b-add2-8db1157cfdd7","system_id":"levelo_inurba_marseille","lat":43.286848,"lon":5.386668,"is_reserved":false,"is_disabled":false,"rental_uris":{"android":"levelo://app?vid=eb40c104-937f-466b-add2-8db1157cfdd7","ios":"levelo://app?vid=eb40c104-937f-466b-add2-8db1157cfdd7"},"vehicle_type_id":"4","last_reported":1753477839,"current_range_meters":12000,"station_id":"ce4bh492rcd13ifvqdug","pricing_plan_id":"cebpf4jnsgd1na2vs0mg"},{"bike_id":"5440a182-b760-4205-92c8-d9ab0a9c67c8","system_id":"levelo_inurba_marseille","lat":43.28424,"lon":5.34996,"is_reserved":false,"is_disabled":true,"rental_uris":{"android":"levelo://app?vid=5440a182-b760-4205-92c8-d9ab0a9c67c8","ios":"levelo://app?vid=5440a182-b760-4205-92c8-d9ab0a9c67c8"},"vehicle_type_id":"4","last_reported":1753477839,"current_range_meters":12000,"station_id":"ce4bhbh2rcd13ifvqepg","pricing_plan_id":"cebpf4jnsgd1na2vs0mg"},{"bike_id":"078febbd-6d49-4abf-8b46-d33f87f8da46","system_id":"levelo_inurba_marseille","lat":43.25452,"lon":5.38007,"is_reserved":false,"is_disabled":false,"rental_uris":{"android":"levelo://app?vid=078febbd-6d49-4abf-8b46-d33f87f8da46","ios":"levelo://app?vid=078febbd-6d49-4abf-8b46-d33f87f8da46"},"vehicle_type_id":"4","last_reported":1753477839,"current_range_meters":12000,"station_id":"","pricing_plan_id":"cebpf4jnsgd1na2vs0mg"},{"bike_id":"d3edac6b-24da-4574-b29c-477ae637f182","system_id":"levelo_inurba_marseille","lat":43.299683,"lon":5.385107,"is_reserved":false,"is_disabled":false,"rental_uris":{"android":"levelo://app?vid=d3edac6b-24da-4574-b29c-477ae637f182","ios":"levelo://app?vid=d3edac6b-24da-4574-b29c-477ae637f182"},"vehicle_type_id":"4","last_reported":1753477839,"current_range_meters":12000,"station_id":"ce4bgj92rcd13ifvqbd0","pricing_plan_id":"cebpf4jnsgd1na2vs0mg"},{"bike_id":"591fb768-7e78-4b54-88b5-e73a5af76b19","system_id":"levelo_inurba_marseille","lat":43.22928,"lon":5.35373,"is_reserved":false,"is_disabled":false,"rental_uris":{"android":"levelo://app?vid=591fb768-7e78-4b54-88b5-e73a5af76b19","ios":"levelo://app?vid=591fb768-7e78-4b54-88b5-e73a5af76b19"},"vehicle_type_id":"4","last_reported":1753477839,"current_range_meters":12000,"station_id":"cpo3532slgdg3j2ikp40","pricing_plan_id":"cebpf4jnsgd1na2vs0mg"},{"bike_id":"d2cb877d-d63e-4c06-8493-287c3c68a37f","system_id":"levelo_inurba_marseille","lat":43.26218,"lon":5.3745,"is_reserved":false,"is_disabled":false,"rental_uris":{"android":"levelo://app?vid=d2cb877d-d63e-4c06-8493-287c3c68a37f","ios":"levelo://app?vid=d2cb877d-d63e-4c06-8493-287c3c68a37f"},"vehicle_type_id":"4","last_reported":1753477839,"current_range_meters":12000,"station_id":"ce4bhgp2rcd13ifvqfc0","pricing_plan_id":"cebpf4jnsgd1na2vs0mg"},{"bike_id":"4e7ba0cd-ae6d-4c87-9a1e-adc89d1866eb","system_id":"levelo_inurba_marseille","lat":43.295331,"lon":5.385347,"is_reserved":false,"is_disabled":false,"rental_uris":{"android":"levelo://app?vid=4e7ba0cd-ae6d-4c87-9a1e-adc89d1866eb","ios":"levelo://app?vid=4e7ba0cd-ae6d-4c87-9a1e-adc89d1866eb"},"vehicle_type_id":"4","last_reported":1753477839,"current_range_meters":12000,"station_id":"ce4bgih2rcd13ifvqba0","pricing_plan_id":"cebpf4jnsgd1na2vs0mg"},{"bike_id":"c58099c8-7cc0-4289-89bc-b0f44b686697","system_id":"levelo_inurba_marseille","lat":43.28082,"lon":5.39655,"is_reserved":false,"is_disabled":false,"rental_uris":{"android":"levelo://app?vid=c58099c8-7cc0-4289-89bc-b0f44b686697","ios":"levelo://app?vid=c58099c8-7cc0-4289-89bc-b0f44b686697"},"vehicle_type_id":"4","last_reported":1753477839,"current_range_meters":12000,"station_id":"ce4bho12rcd13ifvqh2g","pricing_plan_id":"cebpf4jnsgd1na2vs0mg"},{"bike_id":"436fe95d-b330-48c3-93df-d3c7001c90c1","system_id":"levelo_inurba_marseille","lat":43.29869,"lon":5.39739,"is_reserved":false,"is_disabled":false,"rental_uris":{"android":"levelo://app?vid=436fe95d-b330-48c3-93df-d3c7001c90c1","ios":"levelo://app?vid=436fe95d-b330-48c3-93df-d3c7001c90c1"},"vehicle_type_id":"4","last_reported":1753477839,"current_range_meters":12000,"station_id":"ce4bh0h2rcd13ifvqd50","pricing_plan_id":"cebpf4jnsgd1na2vs0mg"},{"bike_id":"4e6e6044-20e5-44fc-87b5-2b41e2616d90","system_id":"levelo_inurba_marseille","lat":43.301332,"lon":5.398701,"is_reserved":false,"is_disabled":true,"rental_uris":{"android":"levelo://app?vid=4e6e6044-20e5-44fc-87b5-2b41e2616d90","ios":"levelo://app?vid=4e6e6044-20e5-44fc-87b5-2b41e2616d90"},"vehicle_type_id":"4","last_reported":1753477839,"current_range_meters":12000,"station_id":"ce4bh0h2rcd13ifvqd40","pricing_plan_id":"cebpf4jnsgd1na2vs0mg"},{"bike_id":"ebb93afd-33d1-41ff-aeb0-236b556714ba","system_id":"levelo_inurba_marseille","lat":43.29724,"lon":5.36628,"is_reserved":false,"is_disabled":false,"rental_uris":{"android":"levelo://app?vid=ebb93afd-33d1-41ff-aeb0-236b556714ba","ios":"levelo://app?vid=ebb93afd-33d1-41ff-aeb0-236b556714ba"},"vehicle_type_id":"4","last_reported":1753477839,"current_range_meters":12400,"station_id":"ce4bgn12rcd13ifvqbt0","pricing_plan_id":"cebpf4jnsgd1na2vs0mg"},{"bike_id":"351d2ef9-263f-4c32-b1a0-62f041aaa572","system_id":"levelo_inurba_marseille","lat":43.29802,"lon":5.3809,"is_reserved":false,"is_disabled":false,"rental_uris":{"android":"levelo://app?vid=351d2ef9-263f-4c32-b1a0-62f041aaa572","ios":"levelo://app?vid=351d2ef9-263f-4c32-b1a0-62f041aaa572"},"vehicle_type_id":"4","last_reported":1753477839,"current_range_meters":12400,"station_id":"ce4bgip2rcd13ifvqbb0","pricing_plan_id":"cebpf4jnsgd1na2vs0mg"},{"bike_id":"ac045298-0a09-491a-8ecb-792668f47e8f","system_id":"levelo_inurba_marseille","lat":43.31355,"lon":5.38494,"is_reserved":false,"is_disabled":false,"rental_uris":{"android":"levelo://app?vid=ac045298-0a09-491a-8ecb-792668f47e8f","ios":"levelo://app?vid=ac045298-0a09-491a-8ecb-792668f47e8f"},"vehicle_type_id":"4","last_reported":1753477839,"current_range_meters":12400,"station_id":"ce4bgt92rcd13ifvqcf0","pricing_plan_id":"cebpf4jnsgd1na2vs0mg"},{"bike_id":"ccca3042-9358-40fc-ac03-e327e01c225f","system_id":"levelo_inurba_marseille","lat":43.23303,"lon":5.36126,"is_reserved":false,"is_disabled":false,"rental_uris":{"android":"levelo://app?vid=ccca3042-9358-40fc-ac03-e327e01c225f","ios":"levelo://app?vid=ccca3042-9358-40fc-ac03-e327e01c225f"},"vehicle_type_id":"4","last_reported":1753477839,"current_range_meters":12400,"station_id":"","pricing_plan_id":"cebpf4jnsgd1na2vs0mg"},{"bike_id":"c97ae63e-b286-423b-bb14-495c05513d3c","system_id":"levelo_inurba_marseille","lat":43.26569,"lon":5.39004,"is_reserved":false,"is_disabled":false,"rental_uris":{"android":"levelo://app?vid=c97ae63e-b286-423b-bb14-495c05513d3c","ios":"levelo://app?vid=c97ae63e-b286-423b-bb14-495c05513d3c"},"vehicle_type_id":"4","last_reported":1753477839,"current_range_meters":12400,"station_id":"ce4bhe12rcd13ifvqf30","pricing_plan_id":"cebpf4jnsgd1na2vs0mg"},{"bike_id":"df6708f7-85d7-4f1e-af0b-9cd0988faaa6","system_id":"levelo_inurba_marseille","lat":43.27843,"lon":5.39214,"is_reserved":false,"is_disabled":false,"rental_uris":{"android":"levelo://app?vid=df6708f7-85d7-4f1e-af0b-9cd0988faaa6","ios":"levelo://app?vid=df6708f7-85d7-4f1e-af0b-9cd0988faaa6"},"vehicle_type_id":"4","last_reported":1753477839,"current_range_meters":12400,"station_id":"ce4bhjp2rcd13ifvqga0","pricing_plan_id":"cebpf4jnsgd1na2vs0mg"},{"bike_id":"a3fe9995-2e3e-423b-9540-429a92fa997e","system_id":"levelo_inurba_marseille","lat":43.3019,"lon":5.372263,"is_reserved":false,"is_disabled":false,"rental_uris":{"android":"levelo://app?vid=a3fe9995-2e3e-423b-9540-429a92fa997e","ios":"levelo://app?vid=a3fe9995-2e3e-423b-9540-429a92fa997e"},"vehicle_type_id":"4","last_reported":1753477839,"current_range_meters":12400,"station_id":"","pricing_plan_id":"cebpf4jnsgd1na2vs0mg"},{"bike_id":"14290dc3-0ecb-4c09-bf2e-6db4a8e35188","system_id":"levelo_inurba_marseille","lat":43.24394,"lon":5.37079,"is_reserved":false,"is_disabled":false,"rental_uris":{"android":"levelo://app?vid=14290dc3-0ecb-4c09-bf2e-6db4a8e35188","ios":"levelo://app?vid=14290dc3-0ecb-4c09-bf2e-6db4a8e35188"},"vehicle_type_id":"4","last_reported":1753477839,"current_range_meters":12400,"station_id":"ce4bhhh2rcd13ifvqfk0","pricing_plan_id":"cebpf4jnsgd1na2vs0mg"},{"bike_id":"e08b99c5-7811-49ac-a8cb-1a96fe45211d","system_id":"levelo_inurba_marseille","lat":43.25719,"lon":5.41109,"is_reserved":false,"is_disabled":false,"rental_uris":{"android":"levelo://app?vid=e08b99c5-7811-49ac-a8cb-1a96fe45211d","ios":"levelo://app?vid=e08b99c5-7811-49ac-a8cb-1a96fe45211d"},"vehicle_type_id":"4","last_reported":1753477839,"current_range_meters":12400,"station_id":"ce4bhkp2rcd13ifvqgd0","pricing_plan_id":"cebpf4jnsgd1na2vs0mg"},{"bike_id":"076e19b6-4594-4df6-abbe-889e5a9ba96c","system_id":"levelo_inurba_marseille","lat":43.29529,"lon":5.39035,"is_reserved":false,"is_disabled":false,"rental_uris":{"android":"levelo://app?vid=076e19b6-4594-4df6-abbe-889e5a9ba96c","ios":"levelo://app?vid=076e19b6-4594-4df6-abbe-889e5a9ba96c"},"vehicle_type_id":"4","last_reported":1753477839,"current_range_meters":12400,"station_id":"ce4bh3p2rcd13ifvqdp0","pricing_plan_id":"cebpf4jnsgd1na2vs0mg"},{"bike_id":"1e585017-21d3-4d67-83d1-93b6972f5e47","system_id":"levelo_inurba_marseille","lat":43.26032,"lon":5.37571,"is_reserved":false,"is_disabled":false,"rental_uris":{"android":"levelo://app?vid=1e585017-21d3-4d67-83d1-93b6972f5e47","ios":"levelo://app?vid=1e585017-21d3-4d67-83d1-93b6972f5e47"},"vehicle_type_id":"4","last_reported":1753477839,"current_range_meters":12800,"station_id":"ce4bhgh2rcd13ifvqfa0","pricing_plan_id":"cebpf4jnsgd1na2vs0mg"},{"bike_id":"50462998-a446-4840-bf0b-3c6ff6bc4e6c","system_id":"levelo_inurba_marseille","lat":43.2953,"lon":5.38534,"is_reserved":false,"is_disabled":false,"rental_uris":{"android":"levelo://app?vid=50462998-a446-4840-bf0b-3c6ff6bc4e6c","ios":"levelo://app?vid=50462998-a446-4840-bf0b-3c6ff6bc4e6c"},"vehicle_type_id":"4","last_reported":1753477839,"current_range_meters":12800,"station_id":"ce4bgih2rcd13ifvqba0","pricing_plan_id":"cebpf4jnsgd1na2vs0mg"},{"bike_id":"1051cbe3-1cf4-4f99-9fb6-b8b99c3aa259","system_id":"levelo_inurba_marseille","lat":43.29843,"lon":5.36275,"is_reserved":false,"is_disabled":false,"rental_uris":{"android":"levelo://app?vid=1051cbe3-1cf4-4f99-9fb6-b8b99c3aa259","ios":"levelo://app?vid=1051cbe3-1cf4-4f99-9fb6-b8b99c3aa259"},"vehicle_type_id":"4","last_reported":1753477839,"current_range_meters":12400,"station_id":"ce4bgpp2rcd13ifvqc3g","pricing_plan_id":"cebpf4jnsgd1na2vs0mg"},{"bike_id":"0f13069d-87ce-4a1d-8cde-43ec4bb6f13f","system_id":"levelo_inurba_marseille","lat":43.29842,"lon":5.36288,"is_reserved":false,"is_disabled":false,"rental_uris":{"android":"levelo://app?vid=0f13069d-87ce-4a1d-8cde-43ec4bb6f13f","ios":"levelo://app?vid=0f13069d-87ce-4a1d-8cde-43ec4bb6f13f"},"vehicle_type_id":"4","last_reported":1753477839,"current_range_meters":10000,"station_id":"ce4bgpp2rcd13ifvqc3g","pricing_plan_id":"cebpf4jnsgd1na2vs0mg"},{"bike_id":"421db1c8-c66c-4175-82a7-0ee065df7ba2","system_id":"levelo_inurba_marseille","lat":43.27058,"lon":5.40257,"is_reserved":false,"is_disabled":false,"rental_uris":{"android":"levelo://app?vid=421db1c8-c66c-4175-82a7-0ee065df7ba2","ios":"levelo://app?vid=421db1c8-c66c-4175-82a7-0ee065df7ba2"},"vehicle_type_id":"4","last_reported":1753477839,"current_range_meters":12800,"station_id":"ce4bhk92rcd13ifvqgc0","pricing_plan_id":"cebpf4jnsgd1na2vs0mg"},{"bike_id":"773b48d4-858e-46f9-8819-6029f415d049","system_id":"levelo_inurba_marseille","lat":43.31205,"lon":5.36871,"is_reserved":false,"is_disabled":true,"rental_uris":{"android":"levelo://app?vid=773b48d4-858e-46f9-8819-6029f415d049","ios":"levelo://app?vid=773b48d4-858e-46f9-8819-6029f415d049"},"vehicle_type_id":"4","last_reported":1753477839,"current_range_meters":12800,"station_id":"ce4bgl92rcd13ifvqbq0","pricing_plan_id":"cebpf4jnsgd1na2vs0mg"},{"bike_id":"378521b9-2f88-49b6-9620-86cb628eab29","system_id":"levelo_inurba_marseille","lat":43.27161,"lon":5.41002,"is_reserved":false,"is_disabled":false,"rental_uris":{"android":"levelo://app?vid=378521b9-2f88-49b6-9620-86cb628eab29","ios":"levelo://app?vid=378521b9-2f88-49b6-9620-86cb628eab29"},"vehicle_type_id":"4","last_reported":1753477839,"current_range_meters":12800,"station_id":"ce4bhl12rcd13ifvqgf0","pricing_plan_id":"cebpf4jnsgd1na2vs0mg"},{"bike_id":"aa06ceb0-683c-4b52-b12a-9433141cd72e","system_id":"levelo_inurba_marseille","lat":43.3117,"lon":5.38732,"is_reserved":false,"is_disabled":false,"rental_uris":{"android":"levelo://app?vid=aa06ceb0-683c-4b52-b12a-9433141cd72e","ios":"levelo://app?vid=aa06ceb0-683c-4b52-b12a-9433141cd72e"},"vehicle_type_id":"4","last_reported":1753477839,"current_range_meters":12800,"station_id":"ce4bgv12rcd13ifvqcp0","pricing_plan_id":"cebpf4jnsgd1na2vs0mg"},{"bike_id":"f668e9a7-9ade-494b-9b44-3f4382ea389e","system_id":"levelo_inurba_marseille","lat":43.29224,"lon":5.36227,"is_reserved":false,"is_disabled":false,"rental_uris":{"android":"levelo://app?vid=f668e9a7-9ade-494b-9b44-3f4382ea389e","ios":"levelo://app?vid=f668e9a7-9ade-494b-9b44-3f4382ea389e"},"vehicle_type_id":"4","last_reported":1753477839,"current_range_meters":12800,"station_id":"ce4bhbh2rcd13ifvqeqg","pricing_plan_id":"cebpf4jnsgd1na2vs0mg"},{"bike_id":"ebc7a43e-85fe-4b4c-8ca0-84469f9fd8c4","system_id":"levelo_inurba_marseille","lat":43.26209,"lon":5.37453,"is_reserved":false,"is_disabled":false,"rental_uris":{"android":"levelo://app?vid=ebc7a43e-85fe-4b4c-8ca0-84469f9fd8c4","ios":"levelo://app?vid=ebc7a43e-85fe-4b4c-8ca0-84469f9fd8c4"},"vehicle_type_id":"4","last_reported":1753477839,"current_range_meters":12800,"station_id":"ce4bhgp2rcd13ifvqfc0","pricing_plan_id":"cebpf4jnsgd1na2vs0mg"},{"bike_id":"87eaf3fb-7253-4648-b77d-d341cf19b58e","system_id":"levelo_inurba_marseille","lat":43.29535,"lon":5.38547,"is_reserved":false,"is_disabled":false,"rental_uris":{"android":"levelo://app?vid=87eaf3fb-7253-4648-b77d-d341cf19b58e","ios":"levelo://app?vid=87eaf3fb-7253-4648-b77d-d341cf19b58e"},"vehicle_type_id":"4","last_reported":1753477839,"current_range_meters":13600,"station_id":"ce4bgih2rcd13ifvqba0","pricing_plan_id":"cebpf4jnsgd1na2vs0mg"},{"bike_id":"96cbc9b7-fbb9-43ea-b2e2-4390c7e33c1d","system_id":"levelo_inurba_marseille","lat":43.296449,"lon":5.372813,"is_reserved":false,"is_disabled":true,"rental_uris":{"android":"levelo://app?vid=96cbc9b7-fbb9-43ea-b2e2-4390c7e33c1d","ios":"levelo://app?vid=96cbc9b7-fbb9-43ea-b2e2-4390c7e33c1d"},"vehicle_type_id":"4","last_reported":1753477839,"current_range_meters":13600,"station_id":"","pricing_plan_id":"cebpf4jnsgd1na2vs0mg"},{"bike_id":"bf5dc847-8618-43ac-89c5-509d432811df","system_id":"levelo_inurba_marseille","lat":43.28682,"lon":5.37402,"is_reserved":false,"is_disabled":false,"rental_uris":{"android":"levelo://app?vid=bf5dc847-8618-43ac-89c5-509d432811df","ios":"levelo://app?vid=bf5dc847-8618-43ac-89c5-509d432811df"},"vehicle_type_id":"4","last_reported":1753477839,"current_range_meters":13600,"station_id":"ce4bh3p2rcd13ifvqdq0","pricing_plan_id":"cebpf4jnsgd1na2vs0mg"},{"bike_id":"da3cc9fc-2d29-4abe-9eab-a26279c48591","system_id":"levelo_inurba_marseille","lat":43.2951,"lon":5.3749,"is_reserved":false,"is_disabled":false,"rental_uris":{"android":"levelo://app?vid=da3cc9fc-2d29-4abe-9eab-a26279c48591","ios":"levelo://app?vid=da3cc9fc-2d29-4abe-9eab-a26279c48591"},"vehicle_type_id":"4","last_reported":1753477839,"current_range_meters":13600,"station_id":"ce4bgkp2rcd13ifvqbmg","pricing_plan_id":"cebpf4jnsgd1na2vs0mg"},{"bike_id":"99ef8e95-49ab-445b-91b8-d8e442a9f4df","system_id":"levelo_inurba_marseille","lat":43.2549,"lon":5.37665,"is_reserved":false,"is_disabled":false,"rental_uris":{"android":"levelo://app?vid=99ef8e95-49ab-445b-91b8-d8e442a9f4df","ios":"levelo://app?vid=99ef8e95-49ab-445b-91b8-d8e442a9f4df"},"vehicle_type_id":"4","last_reported":1753477839,"current_range_meters":14000,"station_id":"ce4bhh12rcd13ifvqff0","pricing_plan_id":"cebpf4jnsgd1na2vs0mg"},{"bike_id":"127b6b72-bfb2-485f-b579-b67c1ffbea0b","system_id":"levelo_inurba_marseille","lat":43.290311,"lon":5.399895,"is_reserved":false,"is_disabled":true,"rental_uris":{"android":"levelo://app?vid=127b6b72-bfb2-485f-b579-b67c1ffbea0b","ios":"levelo://app?vid=127b6b72-bfb2-485f-b579-b67c1ffbea0b"},"vehicle_type_id":"4","last_reported":1753477839,"current_range_meters":14000,"station_id":"ce4bh392rcd13ifvqdm0","pricing_plan_id":"cebpf4jnsgd1na2vs0mg"},{"bike_id":"c544c5bb-5c18-4158-a6cc-000ea7c807ef","system_id":"levelo_inurba_marseille","lat":43.29534,"lon":5.38541,"is_reserved":false,"is_disabled":false,"rental_uris":{"android":"levelo://app?vid=c544c5bb-5c18-4158-a6cc-000ea7c807ef","ios":"levelo://app?vid=c544c5bb-5c18-4158-a6cc-000ea7c807ef"},"vehicle_type_id":"4","last_reported":1753477839,"current_range_meters":14000,"station_id":"ce4bgih2rcd13ifvqba0","pricing_plan_id":"cebpf4jnsgd1na2vs0mg"},{"bike_id":"eeeb9218-8042-4cbd-95a4-0834de564d28","system_id":"levelo_inurba_marseille","lat":43.21754,"lon":5.34628,"is_reserved":false,"is_disabled":true,"rental_uris":{"android":"levelo://app?vid=eeeb9218-8042-4cbd-95a4-0834de564d28","ios":"levelo://app?vid=eeeb9218-8042-4cbd-95a4-0834de564d28"},"vehicle_type_id":"4","last_reported":1753477839,"current_range_meters":14000,"station_id":"st_cvj6r9ubvosntc0bgbag","pricing_plan_id":"cebpf4jnsgd1na2vs0mg"},{"bike_id":"cdd229ea-c762-465a-a1a8-dc511ddf636c","system_id":"levelo_inurba_marseille","lat":43.298724,"lon":5.397307,"is_reserved":false,"is_disabled":false,"rental_uris":{"android":"levelo://app?vid=cdd229ea-c762-465a-a1a8-dc511ddf636c","ios":"levelo://app?vid=cdd229ea-c762-465a-a1a8-dc511ddf636c"},"vehicle_type_id":"4","last_reported":1753477839,"current_range_meters":14000,"station_id":"ce4bh0h2rcd13ifvqd50","pricing_plan_id":"cebpf4jnsgd1na2vs0mg"},{"bike_id":"f89b49d5-3b41-4f28-806a-9dae2d517758","system_id":"levelo_inurba_marseille","lat":43.2953,"lon":5.3854,"is_reserved":false,"is_disabled":false,"rental_uris":{"android":"levelo://app?vid=f89b49d5-3b41-4f28-806a-9dae2d517758","ios":"levelo://app?vid=f89b49d5-3b41-4f28-806a-9dae2d517758"},"vehicle_type_id":"4","last_reported":1753477839,"current_range_meters":14000,"station_id":"ce4bgih2rcd13ifvqba0","pricing_plan_id":"cebpf4jnsgd1na2vs0mg"},{"bike_id":"3e0533c4-cc37-4320-9107-045c642835f3","system_id":"levelo_inurba_marseille","lat":43.28929,"lon":5.38387,"is_reserved":false,"is_disabled":false,"rental_uris":{"android":"levelo://app?vid=3e0533c4-cc37-4320-9107-045c642835f3","ios":"levelo://app?vid=3e0533c4-cc37-4320-9107-045c642835f3"},"vehicle_type_id":"4","last_reported":1753477839,"current_range_meters":14400,"station_id":"ce4bh612rcd13ifvqe6g","pricing_plan_id":"cebpf4jnsgd1na2vs0mg"},{"bike_id":"22dca147-1260-44d8-822d-d9d1d50cce31","system_id":"levelo_inurba_marseille","lat":43.27467,"lon":5.39596,"is_reserved":false,"is_disabled":false,"rental_uris":{"android":"levelo://app?vid=22dca147-1260-44d8-822d-d9d1d50cce31","ios":"levelo://app?vid=22dca147-1260-44d8-822d-d9d1d50cce31"},"vehicle_type_id":"4","last_reported":1753477839,"current_range_meters":14400,"station_id":"","pricing_plan_id":"cebpf4jnsgd1na2vs0mg"},{"bike_id":"d79b409f-ca1b-43df-9348-1c6665f1fc25","system_id":"levelo_inurba_marseille","lat":43.22502,"lon":5.34772,"is_reserved":false,"is_disabled":false,"rental_uris":{"android":"levelo://app?vid=d79b409f-ca1b-43df-9348-1c6665f1fc25","ios":"levelo://app?vid=d79b409f-ca1b-43df-9348-1c6665f1fc25"},"vehicle_type_id":"4","last_reported":1753477839,"current_range_meters":14400,"station_id":"st_cvj5dfep6f1abm77gieg","pricing_plan_id":"cebpf4jnsgd1na2vs0mg"},{"bike_id":"1880938e-90e7-4c00-8734-cde8f5d94ba6","system_id":"levelo_inurba_marseille","lat":43.30957,"lon":5.39034,"is_reserved":false,"is_disabled":false,"rental_uris":{"android":"levelo://app?vid=1880938e-90e7-4c00-8734-cde8f5d94ba6","ios":"levelo://app?vid=1880938e-90e7-4c00-8734-cde8f5d94ba6"},"vehicle_type_id":"4","last_reported":1753477839,"current_range_meters":14400,"station_id":"ce4bgup2rcd13ifvqco0","pricing_plan_id":"cebpf4jnsgd1na2vs0mg"},{"bike_id":"21a22bc7-65fe-4b97-a005-517b211a0b98","system_id":"levelo_inurba_marseille","lat":43.230485,"lon":5.354909,"is_reserved":false,"is_disabled":false,"rental_uris":{"android":"levelo://app?vid=21a22bc7-65fe-4b97-a005-517b211a0b98","ios":"levelo://app?vid=21a22bc7-65fe-4b97-a005-517b211a0b98"},"vehicle_type_id":"4","last_reported":1753477839,"current_range_meters":14400,"station_id":"cpo3342slgdg3j2ifvpg","pricing_plan_id":"cebpf4jnsgd1na2vs0mg"},{"bike_id":"92eb2a64-9acb-453f-8a87-57e8fd28bc10","system_id":"levelo_inurba_marseille","lat":43.29526,"lon":5.38541,"is_reserved":false,"is_disabled":false,"rental_uris":{"android":"levelo://app?vid=92eb2a64-9acb-453f-8a87-57e8fd28bc10","ios":"levelo://app?vid=92eb2a64-9acb-453f-8a87-57e8fd28bc10"},"vehicle_type_id":"4","last_reported":1753477839,"current_range_meters":14400,"station_id":"ce4bgih2rcd13ifvqba0","pricing_plan_id":"cebpf4jnsgd1na2vs0mg"},{"bike_id":"aa6461d2-8c13-4d6a-b2fa-917cc71906ec","system_id":"levelo_inurba_marseille","lat":43.30241,"lon":5.40051,"is_reserved":false,"is_disabled":false,"rental_uris":{"android":"levelo://app?vid=aa6461d2-8c13-4d6a-b2fa-917cc71906ec","ios":"levelo://app?vid=aa6461d2-8c13-4d6a-b2fa-917cc71906ec"},"vehicle_type_id":"4","last_reported":1753477839,"current_range_meters":14400,"station_id":"ce4bgvh2rcd13ifvqcs0","pricing_plan_id":"cebpf4jnsgd1na2vs0mg"},{"bike_id":"36f324cb-a9ad-46b7-afb0-26f814934e1f","system_id":"levelo_inurba_marseille","lat":43.26213,"lon":5.37446,"is_reserved":false,"is_disabled":false,"rental_uris":{"android":"levelo://app?vid=36f324cb-a9ad-46b7-afb0-26f814934e1f","ios":"levelo://app?vid=36f324cb-a9ad-46b7-afb0-26f814934e1f"},"vehicle_type_id":"4","last_reported":1753477839,"current_range_meters":14400,"station_id":"ce4bhgp2rcd13ifvqfc0","pricing_plan_id":"cebpf4jnsgd1na2vs0mg"},{"bike_id":"812d5501-ea65-4715-aa4b-8239dd8992be","system_id":"levelo_inurba_marseille","lat":43.26173,"lon":5.37446,"is_reserved":false,"is_disabled":true,"rental_uris":{"android":"levelo://app?vid=812d5501-ea65-4715-aa4b-8239dd8992be","ios":"levelo://app?vid=812d5501-ea65-4715-aa4b-8239dd8992be"},"vehicle_type_id":"4","last_reported":1753477839,"current_range_meters":14400,"station_id":"ce4bhgp2rcd13ifvqfc0","pricing_plan_id":"cebpf4jnsgd1na2vs0mg"},{"bike_id":"06efbd2a-fcca-4784-aa74-70f8fdbdc82d","system_id":"levelo_inurba_marseille","lat":43.29271,"lon":5.36847,"is_reserved":false,"is_disabled":true,"rental_uris":{"android":"levelo://app?vid=06efbd2a-fcca-4784-aa74-70f8fdbdc82d","ios":"levelo://app?vid=06efbd2a-fcca-4784-aa74-70f8fdbdc82d"},"vehicle_type_id":"4","last_reported":1753477839,"current_range_meters":14400,"station_id":"ce4bhbp2rcd13ifvqesg","pricing_plan_id":"cebpf4jnsgd1na2vs0mg"},{"bike_id":"02d1251a-355f-48b3-a03d-fb90b7ca113d","system_id":"levelo_inurba_marseille","lat":43.2903,"lon":5.38638,"is_reserved":false,"is_disabled":false,"rental_uris":{"android":"levelo://app?vid=02d1251a-355f-48b3-a03d-fb90b7ca113d","ios":"levelo://app?vid=02d1251a-355f-48b3-a03d-fb90b7ca113d"},"vehicle_type_id":"4","last_reported":1753477839,"current_range_meters":14400,"station_id":"ce4bh4p2rcd13ifvqe0g","pricing_plan_id":"cebpf4jnsgd1na2vs0mg"},{"bike_id":"33976e3d-53c0-4185-846b-4b84207e0d06","system_id":"levelo_inurba_marseille","lat":43.32277,"lon":5.38275,"is_reserved":false,"is_disabled":false,"rental_uris":{"android":"levelo://app?vid=33976e3d-53c0-4185-846b-4b84207e0d06","ios":"levelo://app?vid=33976e3d-53c0-4185-846b-4b84207e0d06"},"vehicle_type_id":"4","last_reported":1753477839,"current_range_meters":14400,"station_id":"ce4bhr12rcd13ifvqhqg","pricing_plan_id":"cebpf4jnsgd1na2vs0mg"},{"bike_id":"468b1092-27f3-4041-9182-6faf58bac8da","system_id":"levelo_inurba_marseille","lat":43.25495,"lon":5.37652,"is_reserved":false,"is_disabled":false,"rental_uris":{"android":"levelo://app?vid=468b1092-27f3-4041-9182-6faf58bac8da","ios":"levelo://app?vid=468b1092-27f3-4041-9182-6faf58bac8da"},"vehicle_type_id":"4","last_reported":1753477839,"current_range_meters":14800,"station_id":"ce4bhh12rcd13ifvqff0","pricing_plan_id":"cebpf4jnsgd1na2vs0mg"},{"bike_id":"970ce0d9-2c80-445a-b6ab-c8eb3acdf2c4","system_id":"levelo_inurba_marseille","lat":43.26232,"lon":5.40486,"is_reserved":false,"is_disabled":false,"rental_uris":{"android":"levelo://app?vid=970ce0d9-2c80-445a-b6ab-c8eb3acdf2c4","ios":"levelo://app?vid=970ce0d9-2c80-445a-b6ab-c8eb3acdf2c4"},"vehicle_type_id":"4","last_reported":1753477839,"current_range_meters":14800,"station_id":"ce4bhmh2rcd13ifvqgmg","pricing_plan_id":"cebpf4jnsgd1na2vs0mg"},{"bike_id":"96a0fffb-4817-4872-a26a-5409e6b22ef9","system_id":"levelo_inurba_marseille","lat":43.29696,"lon":5.37289,"is_reserved":false,"is_disabled":false,"rental_uris":{"android":"levelo://app?vid=96a0fffb-4817-4872-a26a-5409e6b22ef9","ios":"levelo://app?vid=96a0fffb-4817-4872-a26a-5409e6b22ef9"},"vehicle_type_id":"4","last_reported":1753477839,"current_range_meters":14800,"station_id":"ce4bgk12rcd13ifvqbj0","pricing_plan_id":"cebpf4jnsgd1na2vs0mg"},{"bike_id":"34502126-e9cb-43e6-9980-491fd0a94937","system_id":"levelo_inurba_marseille","lat":43.28337,"lon":5.38103,"is_reserved":false,"is_disabled":false,"rental_uris":{"android":"levelo://app?vid=34502126-e9cb-43e6-9980-491fd0a94937","ios":"levelo://app?vid=34502126-e9cb-43e6-9980-491fd0a94937"},"vehicle_type_id":"4","last_reported":1753477839,"current_range_meters":14800,"station_id":"ce4bh412rcd13ifvqdr0","pricing_plan_id":"cebpf4jnsgd1na2vs0mg"},{"bike_id":"6f0d314a-d21a-4359-913c-09b9f413fab6","system_id":"levelo_inurba_marseille","lat":43.29552,"lon":5.42289,"is_reserved":false,"is_disabled":false,"rental_uris":{"android":"levelo://app?vid=6f0d314a-d21a-4359-913c-09b9f413fab6","ios":"levelo://app?vid=6f0d314a-d21a-4359-913c-09b9f413fab6"},"vehicle_type_id":"4","last_reported":1753477839,"current_range_meters":14800,"station_id":"ce4bhph2rcd13ifvqhdg","pricing_plan_id":"cebpf4jnsgd1na2vs0mg"},{"bike_id":"8fb0949d-de61-4ab2-bcc5-06418ce5fff7","system_id":"levelo_inurba_marseille","lat":43.30793,"lon":5.43525,"is_reserved":false,"is_disabled":false,"rental_uris":{"android":"levelo://app?vid=8fb0949d-de61-4ab2-bcc5-06418ce5fff7","ios":"levelo://app?vid=8fb0949d-de61-4ab2-bcc5-06418ce5fff7"},"vehicle_type_id":"4","last_reported":1753477839,"current_range_meters":14400,"station_id":"ce4bhph2rcd13ifvqheg","pricing_plan_id":"cebpf4jnsgd1na2vs0mg"},{"bike_id":"de99b14c-9afd-4bdd-bc56-50354c110c3d","system_id":"levelo_inurba_marseille","lat":43.25467,"lon":5.37687,"is_reserved":false,"is_disabled":false,"rental_uris":{"android":"levelo://app?vid=de99b14c-9afd-4bdd-bc56-50354c110c3d","ios":"levelo://app?vid=de99b14c-9afd-4bdd-bc56-50354c110c3d"},"vehicle_type_id":"4","last_reported":1753477839,"current_range_meters":15200,"station_id":"","pricing_plan_id":"cebpf4jnsgd1na2vs0mg"},{"bike_id":"60fe70e1-20f4-4672-a9a8-f36d38b9d360","system_id":"levelo_inurba_marseille","lat":43.28999,"lon":5.3562,"is_reserved":false,"is_disabled":false,"rental_uris":{"android":"levelo://app?vid=60fe70e1-20f4-4672-a9a8-f36d38b9d360","ios":"levelo://app?vid=60fe70e1-20f4-4672-a9a8-f36d38b9d360"},"vehicle_type_id":"4","last_reported":1753477839,"current_range_meters":15200,"station_id":"ce4bhb92rcd13ifvqen0","pricing_plan_id":"cebpf4jnsgd1na2vs0mg"},{"bike_id":"0ff24371-dfc5-460b-8722-f470465f75ce","system_id":"levelo_inurba_marseille","lat":43.26574,"lon":5.39005,"is_reserved":false,"is_disabled":false,"rental_uris":{"android":"levelo://app?vid=0ff24371-dfc5-460b-8722-f470465f75ce","ios":"levelo://app?vid=0ff24371-dfc5-460b-8722-f470465f75ce"},"vehicle_type_id":"4","last_reported":1753477839,"current_range_meters":15200,"station_id":"ce4bhe12rcd13ifvqf30","pricing_plan_id":"cebpf4jnsgd1na2vs0mg"},{"bike_id":"c26f1b4d-11e7-4aaa-8fd1-0c8a6e22bd7c","system_id":"levelo_inurba_marseille","lat":43.30128,"lon":5.388,"is_reserved":false,"is_disabled":true,"rental_uris":{"android":"levelo://app?vid=c26f1b4d-11e7-4aaa-8fd1-0c8a6e22bd7c","ios":"levelo://app?vid=c26f1b4d-11e7-4aaa-8fd1-0c8a6e22bd7c"},"vehicle_type_id":"4","last_reported":1753477839,"current_range_meters":15200,"station_id":"ce4bghh2rcd13ifvqb60","pricing_plan_id":"cebpf4jnsgd1na2vs0mg"},{"bike_id":"7fa33096-7cb8-4818-8ec0-f73faa7fc10b","system_id":"levelo_inurba_marseille","lat":43.2944,"lon":5.38531,"is_reserved":false,"is_disabled":false,"rental_uris":{"android":"levelo://app?vid=7fa33096-7cb8-4818-8ec0-f73faa7fc10b","ios":"levelo://app?vid=7fa33096-7cb8-4818-8ec0-f73faa7fc10b"},"vehicle_type_id":"4","last_reported":1753477839,"current_range_meters":15200,"station_id":"","pricing_plan_id":"cebpf4jnsgd1na2vs0mg"},{"bike_id":"4c1fa95d-db1f-403e-8328-7745a894d554","system_id":"levelo_inurba_marseille","lat":43.26778,"lon":5.39418,"is_reserved":false,"is_disabled":false,"rental_uris":{"android":"levelo://app?vid=4c1fa95d-db1f-403e-8328-7745a894d554","ios":"levelo://app?vid=4c1fa95d-db1f-403e-8328-7745a894d554"},"vehicle_type_id":"4","last_reported":1753477839,"current_range_meters":15200,"station_id":"ce4bhh12rcd13ifvqfg0","pricing_plan_id":"cebpf4jnsgd1na2vs0mg"},{"bike_id":"37e31501-85b6-44ce-be2d-1195a3c3764f","system_id":"levelo_inurba_marseille","lat":43.29964,"lon":5.38501,"is_reserved":false,"is_disabled":false,"rental_uris":{"android":"levelo://app?vid=37e31501-85b6-44ce-be2d-1195a3c3764f","ios":"levelo://app?vid=37e31501-85b6-44ce-be2d-1195a3c3764f"},"vehicle_type_id":"4","last_reported":1753477839,"current_range_meters":15200,"station_id":"ce4bgj92rcd13ifvqbd0","pricing_plan_id":"cebpf4jnsgd1na2vs0mg"},{"bike_id":"57755280-973c-4ff3-9c25-8f15e2c5b510","system_id":"levelo_inurba_marseille","lat":43.31872,"lon":5.37373,"is_reserved":false,"is_disabled":false,"rental_uris":{"android":"levelo://app?vid=57755280-973c-4ff3-9c25-8f15e2c5b510","ios":"levelo://app?vid=57755280-973c-4ff3-9c25-8f15e2c5b510"},"vehicle_type_id":"4","last_reported":1753477839,"current_range_meters":15200,"station_id":"","pricing_plan_id":"cebpf4jnsgd1na2vs0mg"},{"bike_id":"09b7f600-cb1e-4ea0-adc2-9c3dcb778794","system_id":"levelo_inurba_marseille","lat":43.22495,"lon":5.34802,"is_reserved":false,"is_disabled":false,"rental_uris":{"android":"levelo://app?vid=09b7f600-cb1e-4ea0-adc2-9c3dcb778794","ios":"levelo://app?vid=09b7f600-cb1e-4ea0-adc2-9c3dcb778794"},"vehicle_type_id":"4","last_reported":1753477839,"current_range_meters":16000,"station_id":"st_cvj5dfep6f1abm77gieg","pricing_plan_id":"cebpf4jnsgd1na2vs0mg"},{"bike_id":"7f7a4770-cb44-4cbe-afee-f7531a238fa9","system_id":"levelo_inurba_marseille","lat":43.225059,"lon":5.347842,"is_reserved":false,"is_disabled":false,"rental_uris":{"android":"levelo://app?vid=7f7a4770-cb44-4cbe-afee-f7531a238fa9","ios":"levelo://app?vid=7f7a4770-cb44-4cbe-afee-f7531a238fa9"},"vehicle_type_id":"4","last_reported":1753477839,"current_range_meters":16000,"station_id":"st_cvj5dfep6f1abm77gieg","pricing_plan_id":"cebpf4jnsgd1na2vs0mg"},{"bike_id":"86b43738-b875-4706-9117-42c4d1eccc7f","system_id":"levelo_inurba_marseille","lat":43.30342,"lon":5.40452,"is_reserved":false,"is_disabled":false,"rental_uris":{"android":"levelo://app?vid=86b43738-b875-4706-9117-42c4d1eccc7f","ios":"levelo://app?vid=86b43738-b875-4706-9117-42c4d1eccc7f"},"vehicle_type_id":"4","last_reported":1753477839,"current_range_meters":16000,"station_id":"ce4bh012rcd13ifvqd10","pricing_plan_id":"cebpf4jnsgd1na2vs0mg"},{"bike_id":"847b44c9-efab-4746-8937-dcebf1206fff","system_id":"levelo_inurba_marseille","lat":43.26204,"lon":5.37438,"is_reserved":false,"is_disabled":true,"rental_uris":{"android":"levelo://app?vid=847b44c9-efab-4746-8937-dcebf1206fff","ios":"levelo://app?vid=847b44c9-efab-4746-8937-dcebf1206fff"},"vehicle_type_id":"4","last_reported":1753477839,"current_range_meters":16000,"station_id":"ce4bhgp2rcd13ifvqfc0","pricing_plan_id":"cebpf4jnsgd1na2vs0mg"},{"bike_id":"7528e0ee-3254-4380-8007-ffef61e356ca","system_id":"levelo_inurba_marseille","lat":43.26555,"lon":5.37291,"is_reserved":false,"is_disabled":false,"rental_uris":{"android":"levelo://app?vid=7528e0ee-3254-4380-8007-ffef61e356ca","ios":"levelo://app?vid=7528e0ee-3254-4380-8007-ffef61e356ca"},"vehicle_type_id":"4","last_reported":1753477839,"current_range_meters":16000,"station_id":"ce4bhg12rcd13ifvqf70","pricing_plan_id":"cebpf4jnsgd1na2vs0mg"},{"bike_id":"768da94c-2358-4a90-8602-8b4e496d4672","system_id":"levelo_inurba_marseille","lat":43.29848,"lon":5.36285,"is_reserved":false,"is_disabled":false,"rental_uris":{"android":"levelo://app?vid=768da94c-2358-4a90-8602-8b4e496d4672","ios":"levelo://app?vid=768da94c-2358-4a90-8602-8b4e496d4672"},"vehicle_type_id":"4","last_reported":1753477839,"current_range_meters":10800,"station_id":"ce4bgpp2rcd13ifvqc3g","pricing_plan_id":"cebpf4jnsgd1na2vs0mg"},{"bike_id":"01c28128-1d58-48a7-8c4a-235082c0ff13","system_id":"levelo_inurba_marseille","lat":43.28253,"lon":5.35084,"is_reserved":false,"is_disabled":false,"rental_uris":{"android":"levelo://app?vid=01c28128-1d58-48a7-8c4a-235082c0ff13","ios":"levelo://app?vid=01c28128-1d58-48a7-8c4a-235082c0ff13"},"vehicle_type_id":"4","last_reported":1753477839,"current_range_meters":16000,"station_id":"","pricing_plan_id":"cebpf4jnsgd1na2vs0mg"},{"bike_id":"bf622df1-da97-49ac-b9cd-f7fe3e87393d","system_id":"levelo_inurba_marseille","lat":43.31165,"lon":5.38711,"is_reserved":false,"is_disabled":false,"rental_uris":{"android":"levelo://app?vid=bf622df1-da97-49ac-b9cd-f7fe3e87393d","ios":"levelo://app?vid=bf622df1-da97-49ac-b9cd-f7fe3e87393d"},"vehicle_type_id":"4","last_reported":1753477839,"current_range_meters":16000,"station_id":"ce4bgv12rcd13ifvqcp0","pricing_plan_id":"cebpf4jnsgd1na2vs0mg"},{"bike_id":"69685bef-b32b-4bd4-8b09-b81b53b10913","system_id":"levelo_inurba_marseille","lat":43.3088,"lon":5.39643,"is_reserved":false,"is_disabled":false,"rental_uris":{"android":"levelo://app?vid=69685bef-b32b-4bd4-8b09-b81b53b10913","ios":"levelo://app?vid=69685bef-b32b-4bd4-8b09-b81b53b10913"},"vehicle_type_id":"4","last_reported":1753477839,"current_range_meters":16000,"station_id":"ce4bh012rcd13ifvqcv0","pricing_plan_id":"cebpf4jnsgd1na2vs0mg"},{"bike_id":"45ec1091-e6ba-41f1-9533-82769723cafd","system_id":"levelo_inurba_marseille","lat":43.32364,"lon":5.38913,"is_reserved":false,"is_disabled":false,"rental_uris":{"android":"levelo://app?vid=45ec1091-e6ba-41f1-9533-82769723cafd","ios":"levelo://app?vid=45ec1091-e6ba-41f1-9533-82769723cafd"},"vehicle_type_id":"4","last_reported":1753477839,"current_range_meters":16000,"station_id":"ce4bhqp2rcd13ifvqhog","pricing_plan_id":"cebpf4jnsgd1na2vs0mg"},{"bike_id":"dd4669b8-7a1e-455c-921c-cef6ea4213f0","system_id":"levelo_inurba_marseille","lat":43.29731,"lon":5.37688,"is_reserved":false,"is_disabled":false,"rental_uris":{"android":"levelo://app?vid=dd4669b8-7a1e-455c-921c-cef6ea4213f0","ios":"levelo://app?vid=dd4669b8-7a1e-455c-921c-cef6ea4213f0"},"vehicle_type_id":"4","last_reported":1753477839,"current_range_meters":16000,"station_id":"ce4bgkh2rcd13ifvqbl0","pricing_plan_id":"cebpf4jnsgd1na2vs0mg"},{"bike_id":"1f60027f-5ca6-4a98-af30-65946b6c5b20","system_id":"levelo_inurba_marseille","lat":43.297197,"lon":5.365999,"is_reserved":false,"is_disabled":false,"rental_uris":{"android":"levelo://app?vid=1f60027f-5ca6-4a98-af30-65946b6c5b20","ios":"levelo://app?vid=1f60027f-5ca6-4a98-af30-65946b6c5b20"},"vehicle_type_id":"4","last_reported":1753477839,"current_range_meters":16400,"station_id":"ce4bgn12rcd13ifvqbt0","pricing_plan_id":"cebpf4jnsgd1na2vs0mg"},{"bike_id":"c4223149-eeb8-4da8-830b-af67942691a3","system_id":"levelo_inurba_marseille","lat":43.29449,"lon":5.3862,"is_reserved":false,"is_disabled":false,"rental_uris":{"android":"levelo://app?vid=c4223149-eeb8-4da8-830b-af67942691a3","ios":"levelo://app?vid=c4223149-eeb8-4da8-830b-af67942691a3"},"vehicle_type_id":"4","last_reported":1753477839,"current_range_meters":16400,"station_id":"","pricing_plan_id":"cebpf4jnsgd1na2vs0mg"},{"bike_id":"f3ea7241-aeea-4bff-81c0-1f8a135a5a0f","system_id":"levelo_inurba_marseille","lat":43.26938,"lon":5.40263,"is_reserved":false,"is_disabled":false,"rental_uris":{"android":"levelo://app?vid=f3ea7241-aeea-4bff-81c0-1f8a135a5a0f","ios":"levelo://app?vid=f3ea7241-aeea-4bff-81c0-1f8a135a5a0f"},"vehicle_type_id":"4","last_reported":1753477839,"current_range_meters":16400,"station_id":"cjm6bp8fraef2m0cb0m0","pricing_plan_id":"cebpf4jnsgd1na2vs0mg"},{"bike_id":"ec74f06a-40dc-4c39-a0cb-57d6f568a4e5","system_id":"levelo_inurba_marseille","lat":43.22948,"lon":5.35388,"is_reserved":false,"is_disabled":false,"rental_uris":{"android":"levelo://app?vid=ec74f06a-40dc-4c39-a0cb-57d6f568a4e5","ios":"levelo://app?vid=ec74f06a-40dc-4c39-a0cb-57d6f568a4e5"},"vehicle_type_id":"4","last_reported":1753477839,"current_range_meters":16400,"station_id":"cpo3532slgdg3j2ikp40","pricing_plan_id":"cebpf4jnsgd1na2vs0mg"},{"bike_id":"e1f4c2b3-a6d4-4a1e-a3d2-e76bef8c3be4","system_id":"levelo_inurba_marseille","lat":43.25491,"lon":5.37657,"is_reserved":false,"is_disabled":false,"rental_uris":{"android":"levelo://app?vid=e1f4c2b3-a6d4-4a1e-a3d2-e76bef8c3be4","ios":"levelo://app?vid=e1f4c2b3-a6d4-4a1e-a3d2-e76bef8c3be4"},"vehicle_type_id":"4","last_reported":1753477839,"current_range_meters":16400,"station_id":"ce4bhh12rcd13ifvqff0","pricing_plan_id":"cebpf4jnsgd1na2vs0mg"},{"bike_id":"33a04df2-76d7-4dd1-984d-0cf292e2481e","system_id":"levelo_inurba_marseille","lat":43.29527,"lon":5.38546,"is_reserved":false,"is_disabled":false,"rental_uris":{"android":"levelo://app?vid=33a04df2-76d7-4dd1-984d-0cf292e2481e","ios":"levelo://app?vid=33a04df2-76d7-4dd1-984d-0cf292e2481e"},"vehicle_type_id":"4","last_reported":1753477839,"current_range_meters":16400,"station_id":"ce4bgih2rcd13ifvqba0","pricing_plan_id":"cebpf4jnsgd1na2vs0mg"},{"bike_id":"c6ec0ed5-d302-4ea4-996e-d3a10d8a7abc","system_id":"levelo_inurba_marseille","lat":43.2928,"lon":5.40123,"is_reserved":false,"is_disabled":false,"rental_uris":{"android":"levelo://app?vid=c6ec0ed5-d302-4ea4-996e-d3a10d8a7abc","ios":"levelo://app?vid=c6ec0ed5-d302-4ea4-996e-d3a10d8a7abc"},"vehicle_type_id":"4","last_reported":1753477839,"current_range_meters":16400,"station_id":"ce4bh312rcd13ifvqdk0","pricing_plan_id":"cebpf4jnsgd1na2vs0mg"},{"bike_id":"2a392772-f078-4732-90b6-98a415e14a94","system_id":"levelo_inurba_marseille","lat":43.29866,"lon":5.39729,"is_reserved":false,"is_disabled":false,"rental_uris":{"android":"levelo://app?vid=2a392772-f078-4732-90b6-98a415e14a94","ios":"levelo://app?vid=2a392772-f078-4732-90b6-98a415e14a94"},"vehicle_type_id":"4","last_reported":1753477839,"current_range_meters":16400,"station_id":"ce4bh0h2rcd13ifvqd50","pricing_plan_id":"cebpf4jnsgd1na2vs0mg"},{"bike_id":"329c8f00-9fb0-47d7-84ef-1bc64e291f9c","system_id":"levelo_inurba_marseille","lat":43.292789,"lon":5.36837,"is_reserved":false,"is_disabled":false,"rental_uris":{"android":"levelo://app?vid=329c8f00-9fb0-47d7-84ef-1bc64e291f9c","ios":"levelo://app?vid=329c8f00-9fb0-47d7-84ef-1bc64e291f9c"},"vehicle_type_id":"4","last_reported":1753477839,"current_range_meters":16400,"station_id":"","pricing_plan_id":"cebpf4jnsgd1na2vs0mg"},{"bike_id":"6ab0b13c-2ff1-417a-acfd-489d6800d4c9","system_id":"levelo_inurba_marseille","lat":43.27372,"lon":5.36224,"is_reserved":false,"is_disabled":true,"rental_uris":{"android":"levelo://app?vid=6ab0b13c-2ff1-417a-acfd-489d6800d4c9","ios":"levelo://app?vid=6ab0b13c-2ff1-417a-acfd-489d6800d4c9"},"vehicle_type_id":"4","last_reported":1753477839,"current_range_meters":16400,"station_id":"ce4bhbh2rcd13ifvqeo0","pricing_plan_id":"cebpf4jnsgd1na2vs0mg"},{"bike_id":"eac3b2c5-5177-411f-8a63-d66d8319c6d3","system_id":"levelo_inurba_marseille","lat":43.257968,"lon":5.410208,"is_reserved":false,"is_disabled":false,"rental_uris":{"android":"levelo://app?vid=eac3b2c5-5177-411f-8a63-d66d8319c6d3","ios":"levelo://app?vid=eac3b2c5-5177-411f-8a63-d66d8319c6d3"},"vehicle_type_id":"4","last_reported":1753477839,"current_range_meters":16800,"station_id":"ce4bhkp2rcd13ifvqgd0","pricing_plan_id":"cebpf4jnsgd1na2vs0mg"},{"bike_id":"f9775a79-36b4-4a7c-ad26-7704cf9176a3","system_id":"levelo_inurba_marseille","lat":43.24164,"lon":5.36393,"is_reserved":false,"is_disabled":false,"rental_uris":{"android":"levelo://app?vid=f9775a79-36b4-4a7c-ad26-7704cf9176a3","ios":"levelo://app?vid=f9775a79-36b4-4a7c-ad26-7704cf9176a3"},"vehicle_type_id":"4","last_reported":1753477839,"current_range_meters":16800,"station_id":"cpo36qri1sfpv3e86is0","pricing_plan_id":"cebpf4jnsgd1na2vs0mg"},{"bike_id":"152247a2-6f09-485f-acf9-4f6bd27a046c","system_id":"levelo_inurba_marseille","lat":43.28152,"lon":5.4265,"is_reserved":false,"is_disabled":false,"rental_uris":{"android":"levelo://app?vid=152247a2-6f09-485f-acf9-4f6bd27a046c","ios":"levelo://app?vid=152247a2-6f09-485f-acf9-4f6bd27a046c"},"vehicle_type_id":"4","last_reported":1753477839,"current_range_meters":16800,"station_id":"ce4bhnh2rcd13ifvqgug","pricing_plan_id":"cebpf4jnsgd1na2vs0mg"},{"bike_id":"bb09daa9-e727-4f8b-af89-c50be6b0c5de","system_id":"levelo_inurba_marseille","lat":43.30592,"lon":5.39354,"is_reserved":false,"is_disabled":false,"rental_uris":{"android":"levelo://app?vid=bb09daa9-e727-4f8b-af89-c50be6b0c5de","ios":"levelo://app?vid=bb09daa9-e727-4f8b-af89-c50be6b0c5de"},"vehicle_type_id":"4","last_reported":1753477839,"current_range_meters":16800,"station_id":"ce4bh0p2rcd13ifvqd80","pricing_plan_id":"cebpf4jnsgd1na2vs0mg"},{"bike_id":"d55a2a2f-22e5-4c02-8063-187773b91fbd","system_id":"levelo_inurba_marseille","lat":43.23178,"lon":5.3999,"is_reserved":false,"is_disabled":false,"rental_uris":{"android":"levelo://app?vid=d55a2a2f-22e5-4c02-8063-187773b91fbd","ios":"levelo://app?vid=d55a2a2f-22e5-4c02-8063-187773b91fbd"},"vehicle_type_id":"4","last_reported":1753477839,"current_range_meters":16800,"station_id":"ce4bhn12rcd13ifvqgqg","pricing_plan_id":"cebpf4jnsgd1na2vs0mg"},{"bike_id":"1b01c723-0d8e-462d-b500-95d9717293a1","system_id":"levelo_inurba_marseille","lat":43.30641,"lon":5.401,"is_reserved":false,"is_disabled":false,"rental_uris":{"android":"levelo://app?vid=1b01c723-0d8e-462d-b500-95d9717293a1","ios":"levelo://app?vid=1b01c723-0d8e-462d-b500-95d9717293a1"},"vehicle_type_id":"4","last_reported":1753477839,"current_range_meters":16800,"station_id":"ce4bh112rcd13ifvqda0","pricing_plan_id":"cebpf4jnsgd1na2vs0mg"},{"bike_id":"96f2afce-436f-4927-9733-dddabc8a0f62","system_id":"levelo_inurba_marseille","lat":43.29536,"lon":5.38539,"is_reserved":false,"is_disabled":false,"rental_uris":{"android":"levelo://app?vid=96f2afce-436f-4927-9733-dddabc8a0f62","ios":"levelo://app?vid=96f2afce-436f-4927-9733-dddabc8a0f62"},"vehicle_type_id":"4","last_reported":1753477839,"current_range_meters":16800,"station_id":"ce4bgih2rcd13ifvqba0","pricing_plan_id":"cebpf4jnsgd1na2vs0mg"},{"bike_id":"7529fa34-0bd1-467f-a284-4a1268f2182d","system_id":"levelo_inurba_marseille","lat":43.28676,"lon":5.38666,"is_reserved":false,"is_disabled":false,"rental_uris":{"android":"levelo://app?vid=7529fa34-0bd1-467f-a284-4a1268f2182d","ios":"levelo://app?vid=7529fa34-0bd1-467f-a284-4a1268f2182d"},"vehicle_type_id":"4","last_reported":1753477839,"current_range_meters":16400,"station_id":"ce4bh492rcd13ifvqdug","pricing_plan_id":"cebpf4jnsgd1na2vs0mg"},{"bike_id":"6b0334f3-82c8-42ff-9c63-4f263704c07a","system_id":"levelo_inurba_marseille","lat":43.31065,"lon":5.38349,"is_reserved":false,"is_disabled":false,"rental_uris":{"android":"levelo://app?vid=6b0334f3-82c8-42ff-9c63-4f263704c07a","ios":"levelo://app?vid=6b0334f3-82c8-42ff-9c63-4f263704c07a"},"vehicle_type_id":"4","last_reported":1753477839,"current_range_meters":16800,"station_id":"ce4bgv92rcd13ifvqcr0","pricing_plan_id":"cebpf4jnsgd1na2vs0mg"},{"bike_id":"5f7e0b74-69e9-46e3-9c7b-9192a5259d9b","system_id":"levelo_inurba_marseille","lat":43.29252,"lon":5.38462,"is_reserved":false,"is_disabled":false,"rental_uris":{"android":"levelo://app?vid=5f7e0b74-69e9-46e3-9c7b-9192a5259d9b","ios":"levelo://app?vid=5f7e0b74-69e9-46e3-9c7b-9192a5259d9b"},"vehicle_type_id":"4","last_reported":1753477839,"current_range_meters":16800,"station_id":"ce4bh692rcd13ifvqea0","pricing_plan_id":"cebpf4jnsgd1na2vs0mg"},{"bike_id":"091d24a4-3b0a-4a45-a7c3-53e45cd24d88","system_id":"levelo_inurba_marseille","lat":43.287,"lon":5.37387,"is_reserved":false,"is_disabled":false,"rental_uris":{"android":"levelo://app?vid=091d24a4-3b0a-4a45-a7c3-53e45cd24d88","ios":"levelo://app?vid=091d24a4-3b0a-4a45-a7c3-53e45cd24d88"},"vehicle_type_id":"4","last_reported":1753477839,"current_range_meters":16800,"station_id":"ce4bh3p2rcd13ifvqdq0","pricing_plan_id":"cebpf4jnsgd1na2vs0mg"},{"bike_id":"a94045bd-b90a-43b7-a31c-744a647a9299","system_id":"levelo_inurba_marseille","lat":43.30945,"lon":5.39046,"is_reserved":false,"is_disabled":false,"rental_uris":{"android":"levelo://app?vid=a94045bd-b90a-43b7-a31c-744a647a9299","ios":"levelo://app?vid=a94045bd-b90a-43b7-a31c-744a647a9299"},"vehicle_type_id":"4","last_reported":1753477839,"current_range_meters":16800,"station_id":"ce4bgup2rcd13ifvqco0","pricing_plan_id":"cebpf4jnsgd1na2vs0mg"},{"bike_id":"d93afedf-4a28-4260-b194-515c47653b85","system_id":"levelo_inurba_marseille","lat":43.3096,"lon":5.39037,"is_reserved":false,"is_disabled":false,"rental_uris":{"android":"levelo://app?vid=d93afedf-4a28-4260-b194-515c47653b85","ios":"levelo://app?vid=d93afedf-4a28-4260-b194-515c47653b85"},"vehicle_type_id":"4","last_reported":1753477839,"current_range_meters":16800,"station_id":"ce4bgup2rcd13ifvqco0","pricing_plan_id":"cebpf4jnsgd1na2vs0mg"},{"bike_id":"b430baaf-701f-4ff4-8a88-a2a1bf320d0f","system_id":"levelo_inurba_marseille","lat":43.27807,"lon":5.40714,"is_reserved":false,"is_disabled":false,"rental_uris":{"android":"levelo://app?vid=b430baaf-701f-4ff4-8a88-a2a1bf320d0f","ios":"levelo://app?vid=b430baaf-701f-4ff4-8a88-a2a1bf320d0f"},"vehicle_type_id":"4","last_reported":1753477839,"current_range_meters":17200,"station_id":"ce4bhnh2rcd13ifvqgtg","pricing_plan_id":"cebpf4jnsgd1na2vs0mg"},{"bike_id":"c3c2652b-f2d7-4ed4-89ec-9559feb01451","system_id":"levelo_inurba_marseille","lat":43.29226,"lon":5.360481,"is_reserved":false,"is_disabled":true,"rental_uris":{"android":"levelo://app?vid=c3c2652b-f2d7-4ed4-89ec-9559feb01451","ios":"levelo://app?vid=c3c2652b-f2d7-4ed4-89ec-9559feb01451"},"vehicle_type_id":"4","last_reported":1753477839,"current_range_meters":17200,"station_id":"ce4bhbh2rcd13ifvqeqg","pricing_plan_id":"cebpf4jnsgd1na2vs0mg"},{"bike_id":"27e8f606-5cf5-4b7d-8d19-86ff29939c7a","system_id":"levelo_inurba_marseille","lat":43.32288,"lon":5.38288,"is_reserved":false,"is_disabled":false,"rental_uris":{"android":"levelo://app?vid=27e8f606-5cf5-4b7d-8d19-86ff29939c7a","ios":"levelo://app?vid=27e8f606-5cf5-4b7d-8d19-86ff29939c7a"},"vehicle_type_id":"4","last_reported":1753477839,"current_range_meters":17200,"station_id":"ce4bhr12rcd13ifvqhqg","pricing_plan_id":"cebpf4jnsgd1na2vs0mg"},{"bike_id":"05ba63a7-59f1-4b2c-9a11-4da71e792b1d","system_id":"levelo_inurba_marseille","lat":43.30638,"lon":5.40095,"is_reserved":false,"is_disabled":false,"rental_uris":{"android":"levelo://app?vid=05ba63a7-59f1-4b2c-9a11-4da71e792b1d","ios":"levelo://app?vid=05ba63a7-59f1-4b2c-9a11-4da71e792b1d"},"vehicle_type_id":"4","last_reported":1753477839,"current_range_meters":16800,"station_id":"ce4bh112rcd13ifvqda0","pricing_plan_id":"cebpf4jnsgd1na2vs0mg"},{"bike_id":"1855cbe1-5a05-480e-9057-6e9b3976dbbe","system_id":"levelo_inurba_marseille","lat":43.33718,"lon":5.39191,"is_reserved":false,"is_disabled":false,"rental_uris":{"android":"levelo://app?vid=1855cbe1-5a05-480e-9057-6e9b3976dbbe","ios":"levelo://app?vid=1855cbe1-5a05-480e-9057-6e9b3976dbbe"},"vehicle_type_id":"4","last_reported":1753477839,"current_range_meters":17200,"station_id":"ce4bhr92rcd13ifvqhsg","pricing_plan_id":"cebpf4jnsgd1na2vs0mg"},{"bike_id":"99938384-2779-4389-9a1c-4b06450d69be","system_id":"levelo_inurba_marseille","lat":43.27206,"lon":5.39188,"is_reserved":false,"is_disabled":true,"rental_uris":{"android":"levelo://app?vid=99938384-2779-4389-9a1c-4b06450d69be","ios":"levelo://app?vid=99938384-2779-4389-9a1c-4b06450d69be"},"vehicle_type_id":"4","last_reported":1753477839,"current_range_meters":17200,"station_id":"ce4bhhp2rcd13ifvqfm0","pricing_plan_id":"cebpf4jnsgd1na2vs0mg"},{"bike_id":"b44e0ef0-448d-42e7-b8ce-9c7edd8e1cfe","system_id":"levelo_inurba_marseille","lat":43.28141,"lon":5.42647,"is_reserved":false,"is_disabled":false,"rental_uris":{"android":"levelo://app?vid=b44e0ef0-448d-42e7-b8ce-9c7edd8e1cfe","ios":"levelo://app?vid=b44e0ef0-448d-42e7-b8ce-9c7edd8e1cfe"},"vehicle_type_id":"4","last_reported":1753477839,"current_range_meters":17200,"station_id":"ce4bhnh2rcd13ifvqgug","pricing_plan_id":"cebpf4jnsgd1na2vs0mg"},{"bike_id":"9a67752c-7e84-4313-b000-cc264836029a","system_id":"levelo_inurba_marseille","lat":43.26213,"lon":5.37449,"is_reserved":false,"is_disabled":false,"rental_uris":{"android":"levelo://app?vid=9a67752c-7e84-4313-b000-cc264836029a","ios":"levelo://app?vid=9a67752c-7e84-4313-b000-cc264836029a"},"vehicle_type_id":"4","last_reported":1753477839,"current_range_meters":17200,"station_id":"ce4bhgp2rcd13ifvqfc0","pricing_plan_id":"cebpf4jnsgd1na2vs0mg"},{"bike_id":"d4a4ff82-40eb-4c79-a12e-ba898c990900","system_id":"levelo_inurba_marseille","lat":43.27631,"lon":5.36103,"is_reserved":false,"is_disabled":false,"rental_uris":{"android":"levelo://app?vid=d4a4ff82-40eb-4c79-a12e-ba898c990900","ios":"levelo://app?vid=d4a4ff82-40eb-4c79-a12e-ba898c990900"},"vehicle_type_id":"4","last_reported":1753477839,"current_range_meters":17200,"station_id":"ce4bgj92rcd13ifvqbe0","pricing_plan_id":"cebpf4jnsgd1na2vs0mg"},{"bike_id":"5e2fe5ca-2f26-4b3f-b274-f494f83ba309","system_id":"levelo_inurba_marseille","lat":43.28687,"lon":5.37411,"is_reserved":false,"is_disabled":false,"rental_uris":{"android":"levelo://app?vid=5e2fe5ca-2f26-4b3f-b274-f494f83ba309","ios":"levelo://app?vid=5e2fe5ca-2f26-4b3f-b274-f494f83ba309"},"vehicle_type_id":"4","last_reported":1753477839,"current_range_meters":17200,"station_id":"ce4bh3p2rcd13ifvqdq0","pricing_plan_id":"cebpf4jnsgd1na2vs0mg"},{"bike_id":"8f4ca69e-9621-4ffd-91af-41f939f5f71e","system_id":"levelo_inurba_marseille","lat":43.239651,"lon":5.366296,"is_reserved":false,"is_disabled":false,"rental_uris":{"android":"levelo://app?vid=8f4ca69e-9621-4ffd-91af-41f939f5f71e","ios":"levelo://app?vid=8f4ca69e-9621-4ffd-91af-41f939f5f71e"},"vehicle_type_id":"4","last_reported":1753477839,"current_range_meters":17600,"station_id":"ce4bhi12rcd13ifvqfp0","pricing_plan_id":"cebpf4jnsgd1na2vs0mg"},{"bike_id":"49a40a57-d050-4534-913b-f34407e000bb","system_id":"levelo_inurba_marseille","lat":43.29916,"lon":5.3654,"is_reserved":false,"is_disabled":false,"rental_uris":{"android":"levelo://app?vid=49a40a57-d050-4534-913b-f34407e000bb","ios":"levelo://app?vid=49a40a57-d050-4534-913b-f34407e000bb"},"vehicle_type_id":"4","last_reported":1753477839,"current_range_meters":17600,"station_id":"ce4bgm92rcd13ifvqbr0","pricing_plan_id":"cebpf4jnsgd1na2vs0mg"},{"bike_id":"db6eb0bf-f5c6-482b-b46f-bf4ca73b5be1","system_id":"levelo_inurba_marseille","lat":43.29931,"lon":5.36569,"is_reserved":false,"is_disabled":false,"rental_uris":{"android":"levelo://app?vid=db6eb0bf-f5c6-482b-b46f-bf4ca73b5be1","ios":"levelo://app?vid=db6eb0bf-f5c6-482b-b46f-bf4ca73b5be1"},"vehicle_type_id":"4","last_reported":1753477839,"current_range_meters":17600,"station_id":"ce4bgm92rcd13ifvqbr0","pricing_plan_id":"cebpf4jnsgd1na2vs0mg"},{"bike_id":"65cc4175-2a48-4c08-8df6-4700b749e337","system_id":"levelo_inurba_marseille","lat":43.27622,"lon":5.36093,"is_reserved":false,"is_disabled":false,"rental_uris":{"android":"levelo://app?vid=65cc4175-2a48-4c08-8df6-4700b749e337","ios":"levelo://app?vid=65cc4175-2a48-4c08-8df6-4700b749e337"},"vehicle_type_id":"4","last_reported":1753477839,"current_range_meters":17600,"station_id":"ce4bgj92rcd13ifvqbe0","pricing_plan_id":"cebpf4jnsgd1na2vs0mg"},{"bike_id":"20424831-2201-4d3c-8027-3c541a36d8b1","system_id":"levelo_inurba_marseille","lat":43.28884,"lon":5.3712,"is_reserved":false,"is_disabled":false,"rental_uris":{"android":"levelo://app?vid=20424831-2201-4d3c-8027-3c541a36d8b1","ios":"levelo://app?vid=20424831-2201-4d3c-8027-3c541a36d8b1"},"vehicle_type_id":"4","last_reported":1753477839,"current_range_meters":17600,"station_id":"","pricing_plan_id":"cebpf4jnsgd1na2vs0mg"},{"bike_id":"a1d5115b-997f-44a5-8b4b-21cb29757407","system_id":"levelo_inurba_marseille","lat":43.31224,"lon":5.37342,"is_reserved":false,"is_disabled":false,"rental_uris":{"android":"levelo://app?vid=a1d5115b-997f-44a5-8b4b-21cb29757407","ios":"levelo://app?vid=a1d5115b-997f-44a5-8b4b-21cb29757407"},"vehicle_type_id":"4","last_reported":1753477839,"current_range_meters":17600,"station_id":"","pricing_plan_id":"cebpf4jnsgd1na2vs0mg"},{"bike_id":"9bde3410-34b4-444a-bb6e-2ca8b40c8ae7","system_id":"levelo_inurba_marseille","lat":43.29531,"lon":5.3854,"is_reserved":false,"is_disabled":false,"rental_uris":{"android":"levelo://app?vid=9bde3410-34b4-444a-bb6e-2ca8b40c8ae7","ios":"levelo://app?vid=9bde3410-34b4-444a-bb6e-2ca8b40c8ae7"},"vehicle_type_id":"4","last_reported":1753477839,"current_range_meters":17600,"station_id":"ce4bgih2rcd13ifvqba0","pricing_plan_id":"cebpf4jnsgd1na2vs0mg"},{"bike_id":"c3b53303-9018-4d5a-91fe-ce0c3b3be56d","system_id":"levelo_inurba_marseille","lat":43.28593,"lon":5.37061,"is_reserved":false,"is_disabled":false,"rental_uris":{"android":"levelo://app?vid=c3b53303-9018-4d5a-91fe-ce0c3b3be56d","ios":"levelo://app?vid=c3b53303-9018-4d5a-91fe-ce0c3b3be56d"},"vehicle_type_id":"4","last_reported":1753477839,"current_range_meters":17600,"station_id":"ce4bht12rcd13ifvqi60","pricing_plan_id":"cebpf4jnsgd1na2vs0mg"},