{"last_updated":1732709926,"ttl":60,"version":"2.2","data":{"bikes":[{"bike_id":"c6a7d785-3704-497f-a4a1-3b79a59f06ec","system_id":"levelo_inurba_marseille","lat":43.25724,"lon":5.41114,"is_reserved":false,"is_disabled":false,"rental_uris":{"android":"levelo://app?vid=c6a7d785-3704-497f-a4a1-3b79a59f06ec","ios":"levelo://app?vid=c6a7d785-3704-497f-a4a1-3b79a59f06ec"},"vehicle_type_id":"4","last_reported":1732709926,"current_range_meters":36000,"station_id":"ce4bhkp2rcd13ifvqgd0","pricing_plan_id":"cebpf4jnsgd1na2vs0mg"},{"bike_id":"bf2cd157-98d0-4e6e-818c-0734b30a6a82","system_id":"levelo_inurba_marseille","lat":43.27812,"lon":5.40717,"is_reserved":false,"is_disabled":false,"rental_uris":{"android":"levelo://app?vid=bf2cd157-98d0-4e6e-818c-0734b30a6a82","ios":"levelo://app?vid=bf2cd157-98d0-4e6e-818c-0734b30a6a82"},"vehicle_type_id":"4","last_reported":1732709926,"current_range_meters":38800,"station_id":"ce4bhnh2rcd13ifvqgtg","pricing_plan_id":"cebpf4jnsgd1na2vs0mg"},{"bike_id":"af3c11de-2924-40fc-9774-709ab5a62ded","system_id":"levelo_inurba_marseille","lat":43.25116,"lon":5.40319,"is_reserved":false,"is_disabled":false,"rental_uris":{"android":"levelo://app?vid=af3c11de-2924-40fc-9774-709ab5a62ded","ios":"levelo://app?vid=af3c11de-2924-40fc-9774-709ab5a62ded"},"vehicle_type_id":"4","last_reported":1732709926,"current_range_meters":12400,"station_id":"ce4bhlh2rcd13ifvqgig","pricing_plan_id":"cebpf4jnsgd1na2vs0mg"},{"bike_id":"b856c8b4-412d-4c25-bdd4-e6b29aed04cb","system_id":"levelo_inurba_marseille","lat":43.22939,"lon":5.35375,"is_reserved":false,"is_disabled":false,"rental_uris":{"android":"levelo://app?vid=b856c8b4-412d-4c25-bdd4-e6b29aed04cb","ios":"levelo://app?vid=b856c8b4-412d-4c25-bdd4-e6b29aed04cb"},"vehicle_type_id":"4","last_reported":1732709926,"current_range_meters":38800,"station_id":"cpo3532slgdg3j2ikp40","pricing_plan_id":"cebpf4jnsgd1na2vs0mg"},{"bike_id":"d19060f2-5727-4f42-a768-018e4f5bdd8f","system_id":"levelo_inurba_marseille","lat":43.32481,"lon":5.36557,"is_reserved":false,"is_disabled":false,"rental_uris":{"android":"levelo://app?vid=d19060f2-5727-4f42-a768-018e4f5bdd8f","ios":"levelo://app?vid=d19060f2-5727-4f42-a768-018e4f5bdd8f"},"vehicle_type_id":"4","last_reported":1732709926,"current_range_meters":8400,"station_id":"ce4bhs12rcd13ifvqhvg","pricing_plan_id":"cebpf4jnsgd1na2vs0mg"},{"bike_id":"b51d31e3-b561-4c0d-b4c9-74c74d6a4aa9","system_id":"levelo_inurba_marseille","lat":43.33026,"lon":5.39042,"is_reserved":false,"is_disabled":false,"rental_uris":{"android":"levelo://app?vid=b51d31e3-b561-4c0d-b4c9-74c74d6a4aa9","ios":"levelo://app?vid=b51d31e3-b561-4c0d-b4c9-74c74d6a4aa9"},"vehicle_type_id":"4","last_reported":1732709926,"current_range_meters":37600,"station_id":"ce4bhr92rcd13ifvqhrg","pricing_plan_id":"cebpf4jnsgd1na2vs0mg"},{"bike_id":"13b69a4c-c9d5-4b43-b76b-633ca739dbed","system_id":"levelo_inurba_marseille","lat":43.31334,"lon":5.36723,"is_reserved":false,"is_disabled":false,"rental_uris":{"android":"levelo://app?vid=13b69a4c-c9d5-4b43-b76b-633ca739dbed","ios":"levelo://app?vid=13b69a4c-c9d5-4b43-b76b-633ca739dbed"},"vehicle_type_id":"4","last_reported":1732709926,"current_range_meters":10800,"station_id":"ce4bgr92rcd13ifvqc6g","pricing_plan_id":"cebpf4jnsgd1na2vs0mg"},{"bike_id":"d2cf7a78-7eb1-4d32-aa77-ae8ed51e3e3f","system_id":"levelo_inurba_marseille","lat":43.33769,"lon":5.37433,"is_reserved":false,"is_disabled":false,"rental_uris":{"android":"levelo://app?vid=d2cf7a78-7eb1-4d32-aa77-ae8ed51e3e3f","ios":"levelo://app?vid=d2cf7a78-7eb1-4d32-aa77-ae8ed51e3e3f"},"vehicle_type_id":"4","last_reported":1732709926,"current_range_meters":18000,"station_id":"","pricing_plan_id":"cebpf4jnsgd1na2vs0mg"},{"bike_id":"6c5b3a32-97af-4baf-ba4b-895d1e1f1600","system_id":"levelo_inurba_marseille","lat":43.23165,"lon":5.39996,"is_reserved":false,"is_disabled":false,"rental_uris":{"android":"levelo://app?vid=6c5b3a32-97af-4baf-ba4b-895d1e1f1600","ios":"levelo://app?vid=6c5b3a32-97af-4baf-ba4b-895d1e1f1600"},"vehicle_type_id":"4","last_reported":1732709926,"current_range_meters":28000,"station_id":"ce4bhn12rcd13ifvqgqg","pricing_plan_id":"cebpf4jnsgd1na2vs0mg"},{"bike_id":"8a61fb53-d974-4969-b869-27e882d0ee77","system_id":"levelo_inurba_marseille","lat":43.29528,"lon":5.3902,"is_reserved":false,"is_disabled":false,"rental_uris":{"android":"levelo://app?vid=8a61fb53-d974-4969-b869-27e882d0ee77","ios":"levelo://app?vid=8a61fb53-d974-4969-b869-27e882d0ee77"},"vehicle_type_id":"4","last_reported":1732709926,"current_range_meters":18000,"station_id":"ce4bh3p2rcd13ifvqdp0","pricing_plan_id":"cebpf4jnsgd1na2vs0mg"},{"bike_id":"0fa82e23-4a3f-460a-a0a9-6383841fe087","system_id":"levelo_inurba_marseille","lat":43.27996,"lon":5.40024,"is_reserved":false,"is_disabled":false,"rental_uris":{"android":"levelo://app?vid=0fa82e23-4a3f-460a-a0a9-6383841fe087","ios":"levelo://app?vid=0fa82e23-4a3f-460a-a0a9-6383841fe087"},"vehicle_type_id":"4","last_reported":1732709926,"current_range_meters":38800,"station_id":"ce4bho92rcd13ifvqh4g","pricing_plan_id":"cebpf4jnsgd1na2vs0mg"},{"bike_id":"3e2bac9a-3425-474b-be21-b2701d901118","system_id":"levelo_inurba_marseille","lat":43.26493,"lon":5.39541,"is_reserved":false,"is_disabled":false,"rental_uris":{"android":"levelo://app?vid=3e2bac9a-3425-474b-be21-b2701d901118","ios":"levelo://app?vid=3e2bac9a-3425-474b-be21-b2701d901118"},"vehicle_type_id":"4","last_reported":1732709926,"current_range_meters":35200,"station_id":"ce4bhi12rcd13ifvqfq0","pricing_plan_id":"cebpf4jnsgd1na2vs0mg"},{"bike_id":"d7dd9d5a-c092-48e8-b335-5b677eaa682f","system_id":"levelo_inurba_marseille","lat":43.27549,"lon":5.38437,"is_reserved":false,"is_disabled":false,"rental_uris":{"android":"levelo://app?vid=d7dd9d5a-c092-48e8-b335-5b677eaa682f","ios":"levelo://app?vid=d7dd9d5a-c092-48e8-b335-5b677eaa682f"},"vehicle_type_id":"4","last_reported":1732709926,"current_range_meters":24000,"station_id":"ce4bhh92rcd13ifvqfi0","pricing_plan_id":"cebpf4jnsgd1na2vs0mg"},{"bike_id":"e7d61961-f2fb-44c4-9ee3-a227626b507f","system_id":"levelo_inurba_marseille","lat":43.23068,"lon":5.35493,"is_reserved":false,"is_disabled":false,"rental_uris":{"android":"levelo://app?vid=e7d61961-f2fb-44c4-9ee3-a227626b507f","ios":"levelo://app?vid=e7d61961-f2fb-44c4-9ee3-a227626b507f"},"vehicle_type_id":"4","last_reported":1732709926,"current_range_meters":38000,"station_id":"cpo3342slgdg3j2ifvpg","pricing_plan_id":"cebpf4jnsgd1na2vs0mg"},{"bike_id":"ce15a521-8a1d-47b7-92c8-091ca367d00e","system_id":"levelo_inurba_marseille","lat":43.337444,"lon":5.374475,"is_reserved":false,"is_disabled":false,"rental_uris":{"android":"levelo://app?vid=ce15a521-8a1d-47b7-92c8-091ca367d00e","ios":"levelo://app?vid=ce15a521-8a1d-47b7-92c8-091ca367d00e"},"vehicle_type_id":"4","last_reported":1732709926,"current_range_meters":38800,"station_id":"","pricing_plan_id":"cebpf4jnsgd1na2vs0mg"},{"bike_id":"2322a9e8-ee76-4fc9-bb0a-c045a047e34d","system_id":"levelo_inurba_marseille","lat":43.26028,"lon":5.3755,"is_reserved":false,"is_disabled":false,"rental_uris":{"android":"levelo://app?vid=2322a9e8-ee76-4fc9-bb0a-c045a047e34d","ios":"levelo://app?vid=2322a9e8-ee76-4fc9-bb0a-c045a047e34d"},"vehicle_type_id":"4","last_reported":1732709926,"current_range_meters":18800,"station_id":"ce4bhgh2rcd13ifvqfa0","pricing_plan_id":"cebpf4jnsgd1na2vs0mg"},{"bike_id":"6a32e75c-d904-40d5-ab70-fbfec6736dae","system_id":"levelo_inurba_marseille","lat":43.2842,"lon":5.37507,"is_reserved":false,"is_disabled":false,"rental_uris":{"android":"levelo://app?vid=6a32e75c-d904-40d5-ab70-fbfec6736dae","ios":"levelo://app?vid=6a32e75c-d904-40d5-ab70-fbfec6736dae"},"vehicle_type_id":"4","last_reported":1732709926,"current_range_meters":34800,"station_id":"ce4bh412rcd13ifvqds0","pricing_plan_id":"cebpf4jnsgd1na2vs0mg"},{"bike_id":"8d6e2993-ba24-4e0d-96ab-529bb8fa7633","system_id":"levelo_inurba_marseille","lat":43.2509,"lon":5.39529,"is_reserved":false,"is_disabled":false,"rental_uris":{"android":"levelo://app?vid=8d6e2993-ba24-4e0d-96ab-529bb8fa7633","ios":"levelo://app?vid=8d6e2993-ba24-4e0d-96ab-529bb8fa7633"},"vehicle_type_id":"4","last_reported":1732709926,"current_range_meters":27600,"station_id":"ce4bhm12rcd13ifvqgkg","pricing_plan_id":"cebpf4jnsgd1na2vs0mg"},{"bike_id":"1a29b0d7-d35e-4186-9c6a-528f56e25fa6","system_id":"levelo_inurba_marseille","lat":43.25816,"lon":5.39435,"is_reserved":false,"is_disabled":false,"rental_uris":{"android":"levelo://app?vid=1a29b0d7-d35e-4186-9c6a-528f56e25fa6","ios":"levelo://app?vid=1a29b0d7-d35e-4186-9c6a-528f56e25fa6"},"vehicle_type_id":"4","last_reported":1732709926,"current_range_meters":40000,"station_id":"ce4bhip2rcd13ifvqft0","pricing_plan_id":"cebpf4jnsgd1na2vs0mg"},{"bike_id":"b5533476-8cbe-405c-a4fd-2be9c55df1ae","system_id":"levelo_inurba_marseille","lat":43.27435,"lon":5.39406,"is_reserved":false,"is_disabled":false,"rental_uris":{"android":"levelo://app?vid=b5533476-8cbe-405c-a4fd-2be9c55df1ae","ios":"levelo://app?vid=b5533476-8cbe-405c-a4fd-2be9c55df1ae"},"vehicle_type_id":"4","last_reported":1732709926,"current_range_meters":39200,"station_id":"ce4bhdp2rcd13ifvqf20","pricing_plan_id":"cebpf4jnsgd1na2vs0mg"},{"bike_id":"06a5f958-bb59-43f5-ba72-490eb65aa2eb","system_id":"levelo_inurba_marseille","lat":43.25086,"lon":5.39518,"is_reserved":false,"is_disabled":false,"rental_uris":{"android":"levelo://app?vid=06a5f958-bb59-43f5-ba72-490eb65aa2eb","ios":"levelo://app?vid=06a5f958-bb59-43f5-ba72-490eb65aa2eb"},"vehicle_type_id":"4","last_reported":1732709926,"current_range_meters":26000,"station_id":"ce4bhm12rcd13ifvqgkg","pricing_plan_id":"cebpf4jnsgd1na2vs0mg"},{"bike_id":"6f7949e1-de87-4a49-8620-fec27e04447f","system_id":"levelo_inurba_marseille","lat":43.3372,"lon":5.39211,"is_reserved":false,"is_disabled":false,"rental_uris":{"android":"levelo://app?vid=6f7949e1-de87-4a49-8620-fec27e04447f","ios":"levelo://app?vid=6f7949e1-de87-4a49-8620-fec27e04447f"},"vehicle_type_id":"4","last_reported":1732709926,"current_range_meters":38800,"station_id":"ce4bhr92rcd13ifvqhsg","pricing_plan_id":"cebpf4jnsgd1na2vs0mg"},{"bike_id":"e233f95a-ba7b-4665-947f-7d3699185aa4","system_id":"levelo_inurba_marseille","lat":43.29005,"lon":5.35608,"is_reserved":false,"is_disabled":false,"rental_uris":{"android":"levelo://app?vid=e233f95a-ba7b-4665-947f-7d3699185aa4","ios":"levelo://app?vid=e233f95a-ba7b-4665-947f-7d3699185aa4"},"vehicle_type_id":"4","last_reported":1732709926,"current_range_meters":18000,"station_id":"ce4bhb92rcd13ifvqen0","pricing_plan_id":"cebpf4jnsgd1na2vs0mg"},{"bike_id":"e217d5e7-1236-4a81-b77e-8ced163fc58c","system_id":"levelo_inurba_marseille","lat":43.30535,"lon":5.36528,"is_reserved":false,"is_disabled":false,"rental_uris":{"android":"levelo://app?vid=e217d5e7-1236-4a81-b77e-8ced163fc58c","ios":"levelo://app?vid=e217d5e7-1236-4a81-b77e-8ced163fc58c"},"vehicle_type_id":"4","last_reported":1732709926,"current_range_meters":24400,"station_id":"ce4bgs12rcd13ifvqcag","pricing_plan_id":"cebpf4jnsgd1na2vs0mg"},{"bike_id":"8bb663af-e262-4b02-9c40-375cc1bfbaa0","system_id":"levelo_inurba_marseille","lat":43.25011,"lon":5.38932,"is_reserved":false,"is_disabled":false,"rental_uris":{"android":"levelo://app?vid=8bb663af-e262-4b02-9c40-375cc1bfbaa0","ios":"levelo://app?vid=8bb663af-e262-4b02-9c40-375cc1bfbaa0"},"vehicle_type_id":"4","last_reported":1732709926,"current_range_meters":38800,"station_id":"ce4bhgp2rcd13ifvqfd0","pricing_plan_id":"cebpf4jnsgd1na2vs0mg"},{"bike_id":"88c0a23c-decf-469d-95fc-e70f9cd8eb3b","system_id":"levelo_inurba_marseille","lat":43.33749,"lon":5.37445,"is_reserved":false,"is_disabled":false,"rental_uris":{"android":"levelo://app?vid=88c0a23c-decf-469d-95fc-e70f9cd8eb3b","ios":"levelo://app?vid=88c0a23c-decf-469d-95fc-e70f9cd8eb3b"},"vehicle_type_id":"4","last_reported":1732709926,"current_range_meters":36000,"station_id":"","pricing_plan_id":"cebpf4jnsgd1na2vs0mg"},{"bike_id":"05ad44e5-d7ad-40e4-b78e-31a67af522c0","system_id":"levelo_inurba_marseille","lat":43.25721,"lon":5.41122,"is_reserved":false,"is_disabled":false,"rental_uris":{"android":"levelo://app?vid=05ad44e5-d7ad-40e4-b78e-31a67af522c0","ios":"levelo://app?vid=05ad44e5-d7ad-40e4-b78e-31a67af522c0"},"vehicle_type_id":"4","last_reported":1732709926,"current_range_meters":36400,"station_id":"ce4bhkp2rcd13ifvqgd0","pricing_plan_id":"cebpf4jnsgd1na2vs0mg"},{"bike_id":"2e941e5f-cfe3-4e06-b753-da2a731b2102","system_id":"levelo_inurba_marseille","lat":43.24665,"lon":5.38166,"is_reserved":false,"is_disabled":false,"rental_uris":{"android":"levelo://app?vid=2e941e5f-cfe3-4e06-b753-da2a731b2102","ios":"levelo://app?vid=2e941e5f-cfe3-4e06-b753-da2a731b2102"},"vehicle_type_id":"4","last_reported":1732709926,"current_range_meters":30800,"station_id":"ce4bhih2rcd13ifvqfr0","pricing_plan_id":"cebpf4jnsgd1na2vs0mg"},{"bike_id":"3b8bb82b-4298-425b-92eb-29840e2e4317","system_id":"levelo_inurba_marseille","lat":43.29524,"lon":5.39038,"is_reserved":false,"is_disabled":false,"rental_uris":{"android":"levelo://app?vid=3b8bb82b-4298-425b-92eb-29840e2e4317","ios":"levelo://app?vid=3b8bb82b-4298-425b-92eb-29840e2e4317"},"vehicle_type_id":"4","last_reported":1732709926,"current_range_meters":28000,"station_id":"ce4bh3p2rcd13ifvqdp0","pricing_plan_id":"cebpf4jnsgd1na2vs0mg"},{"bike_id":"6b7ccf7e-484a-4f22-baf0-4737914f5815","system_id":"levelo_inurba_marseille","lat":43.29843,"lon":5.36283,"is_reserved":false,"is_disabled":false,"rental_uris":{"android":"levelo://app?vid=6b7ccf7e-484a-4f22-baf0-4737914f5815","ios":"levelo://app?vid=6b7ccf7e-484a-4f22-baf0-4737914f5815"},"vehicle_type_id":"4","last_reported":1732709926,"current_range_meters":30800,"station_id":"ce4bgpp2rcd13ifvqc3g","pricing_plan_id":"cebpf4jnsgd1na2vs0mg"},{"bike_id":"3f0cc90d-700f-4355-afc8-0e35322c52a0","system_id":"levelo_inurba_marseille","lat":43.26794,"lon":5.39412,"is_reserved":false,"is_disabled":false,"rental_uris":{"android":"levelo://app?vid=3f0cc90d-700f-4355-afc8-0e35322c52a0","ios":"levelo://app?vid=3f0cc90d-700f-4355-afc8-0e35322c52a0"},"vehicle_type_id":"4","last_reported":1732709926,"current_range_meters":18000,"station_id":"ce4bhh12rcd13ifvqfg0","pricing_plan_id":"cebpf4jnsgd1na2vs0mg"},{"bike_id":"59798445-8d70-4aa0-82ea-c70c3f2d0df4","system_id":"levelo_inurba_marseille","lat":43.24646,"lon":5.38894,"is_reserved":false,"is_disabled":false,"rental_uris":{"android":"levelo://app?vid=59798445-8d70-4aa0-82ea-c70c3f2d0df4","ios":"levelo://app?vid=59798445-8d70-4aa0-82ea-c70c3f2d0df4"},"vehicle_type_id":"4","last_reported":1732709926,"current_range_meters":29600,"station_id":"ce4bhg12rcd13ifvqf60","pricing_plan_id":"cebpf4jnsgd1na2vs0mg"},{"bike_id":"6d8409e6-2d79-48fa-95f8-9517b698bbab","system_id":"levelo_inurba_marseille","lat":43.31274,"lon":5.40175,"is_reserved":false,"is_disabled":false,"rental_uris":{"android":"levelo://app?vid=6d8409e6-2d79-48fa-95f8-9517b698bbab","ios":"levelo://app?vid=6d8409e6-2d79-48fa-95f8-9517b698bbab"},"vehicle_type_id":"4","last_reported":1732709926,"current_range_meters":30400,"station_id":"ce4bh092rcd13ifvqd30","pricing_plan_id":"cebpf4jnsgd1na2vs0mg"},{"bike_id":"838a2f12-a0a4-4349-af97-1c397d092587","system_id":"levelo_inurba_marseille","lat":43.26789,"lon":5.39414,"is_reserved":false,"is_disabled":false,"rental_uris":{"android":"levelo://app?vid=838a2f12-a0a4-4349-af97-1c397d092587","ios":"levelo://app?vid=838a2f12-a0a4-4349-af97-1c397d092587"},"vehicle_type_id":"4","last_reported":1732709926,"current_range_meters":8800,"station_id":"ce4bhh12rcd13ifvqfg0","pricing_plan_id":"cebpf4jnsgd1na2vs0mg"},{"bike_id":"1fa422c8-a333-4e58-90cc-0262042bc6ce","system_id":"levelo_inurba_marseille","lat":43.29792,"lon":5.40414,"is_reserved":false,"is_disabled":false,"rental_uris":{"android":"levelo://app?vid=1fa422c8-a333-4e58-90cc-0262042bc6ce","ios":"levelo://app?vid=1fa422c8-a333-4e58-90cc-0262042bc6ce"},"vehicle_type_id":"4","last_reported":1732709926,"current_range_meters":10800,"station_id":"ce4bh112rcd13ifvqd90","pricing_plan_id":"cebpf4jnsgd1na2vs0mg"},{"bike_id":"431a9303-7497-49dd-b405-4514c20423bf","system_id":"levelo_inurba_marseille","lat":43.2985,"lon":5.36287,"is_reserved":false,"is_disabled":false,"rental_uris":{"android":"levelo://app?vid=431a9303-7497-49dd-b405-4514c20423bf","ios":"levelo://app?vid=431a9303-7497-49dd-b405-4514c20423bf"},"vehicle_type_id":"4","last_reported":1732709926,"current_range_meters":38800,"station_id":"ce4bgpp2rcd13ifvqc3g","pricing_plan_id":"cebpf4jnsgd1na2vs0mg"},{"bike_id":"71b78d7b-dda5-4267-b684-532542b7b394","system_id":"levelo_inurba_marseille","lat":43.28414,"lon":5.3499,"is_reserved":false,"is_disabled":false,"rental_uris":{"android":"levelo://app?vid=71b78d7b-dda5-4267-b684-532542b7b394","ios":"levelo://app?vid=71b78d7b-dda5-4267-b684-532542b7b394"},"vehicle_type_id":"4","last_reported":1732709926,"current_range_meters":24800,"station_id":"ce4bhbh2rcd13ifvqepg","pricing_plan_id":"cebpf4jnsgd1na2vs0mg"},{"bike_id":"9f495fb6-a313-4fc5-81d8-0a7894225cfe","system_id":"levelo_inurba_marseille","lat":43.29577,"lon":5.3997,"is_reserved":false,"is_disabled":true,"rental_uris":{"android":"levelo://app?vid=9f495fb6-a313-4fc5-81d8-0a7894225cfe","ios":"levelo://app?vid=9f495fb6-a313-4fc5-81d8-0a7894225cfe"},"vehicle_type_id":"4","last_reported":1732709926,"current_range_meters":29600,"station_id":"ce4bh312rcd13ifvqdj0","pricing_plan_id":"cebpf4jnsgd1na2vs0mg"},{"bike_id":"72e7cd31-6601-4a0d-9fb0-c7493c1c37b3","system_id":"levelo_inurba_marseille","lat":43.28616,"lon":5.35108,"is_reserved":false,"is_disabled":true,"rental_uris":{"android":"levelo://app?vid=72e7cd31-6601-4a0d-9fb0-c7493c1c37b3","ios":"levelo://app?vid=72e7cd31-6601-4a0d-9fb0-c7493c1c37b3"},"vehicle_type_id":"4","last_reported":1732709926,"current_range_meters":0,"station_id":"ce4bhch2rcd13ifvqeug","pricing_plan_id":"cebpf4jnsgd1na2vs0mg"},{"bike_id":"8bcaa66d-5383-49af-baf8-422cafa85d09","system_id":"levelo_inurba_marseille","lat":43.33603,"lon":5.41035,"is_reserved":false,"is_disabled":false,"rental_uris":{"android":"levelo://app?vid=8bcaa66d-5383-49af-baf8-422cafa85d09","ios":"levelo://app?vid=8bcaa66d-5383-49af-baf8-422cafa85d09"},"vehicle_type_id":"4","last_reported":1732709926,"current_range_meters":6400,"station_id":"ce4bhqh2rcd13ifvqhmg","pricing_plan_id":"cebpf4jnsgd1na2vs0mg"},{"bike_id":"ab8f411f-1c02-40e9-87a7-8a78d0ad5ef9","system_id":"levelo_inurba_marseille","lat":43.28266,"lon":5.35068,"is_reserved":false,"is_disabled":false,"rental_uris":{"android":"levelo://app?vid=ab8f411f-1c02-40e9-87a7-8a78d0ad5ef9","ios":"levelo://app?vid=ab8f411f-1c02-40e9-87a7-8a78d0ad5ef9"},"vehicle_type_id":"4","last_reported":1732709926,"current_range_meters":12000,"station_id":"ce4bhbp2rcd13ifvqerg","pricing_plan_id":"cebpf4jnsgd1na2vs0mg"},{"bike_id":"0bba2c7f-252a-4296-9e0b-c0cf8a0a4a5e","system_id":"levelo_inurba_marseille","lat":43.26787,"lon":5.39416,"is_reserved":false,"is_disabled":false,"rental_uris":{"android":"levelo://app?vid=0bba2c7f-252a-4296-9e0b-c0cf8a0a4a5e","ios":"levelo://app?vid=0bba2c7f-252a-4296-9e0b-c0cf8a0a4a5e"},"vehicle_type_id":"4","last_reported":1732709926,"current_range_meters":32000,"station_id":"ce4bhh12rcd13ifvqfg0","pricing_plan_id":"cebpf4jnsgd1na2vs0mg"},{"bike_id":"a4f5ec09-594b-4d89-bf3e-08aaf07da9b6","system_id":"levelo_inurba_marseille","lat":43.30149,"lon":5.38092,"is_reserved":false,"is_disabled":false,"rental_uris":{"android":"levelo://app?vid=a4f5ec09-594b-4d89-bf3e-08aaf07da9b6","ios":"levelo://app?vid=a4f5ec09-594b-4d89-bf3e-08aaf07da9b6"},"vehicle_type_id":"4","last_reported":1732709926,"current_range_meters":36800,"station_id":"ce4bgjp2rcd13ifvqbh0","pricing_plan_id":"cebpf4jnsgd1na2vs0mg"},{"bike_id":"cca112d1-0299-4d86-a1c8-3dc0bdcda71c","system_id":"levelo_inurba_marseille","lat":43.2315,"lon":5.43724,"is_reserved":false,"is_disabled":false,"rental_uris":{"android":"levelo://app?vid=cca112d1-0299-4d86-a1c8-3dc0bdcda71c","ios":"levelo://app?vid=cca112d1-0299-4d86-a1c8-3dc0bdcda71c"},"vehicle_type_id":"4","last_reported":1732709926,"current_range_meters":11600,"station_id":"ce4bhmp2rcd13ifvqgog","pricing_plan_id":"cebpf4jnsgd1na2vs0mg"},{"bike_id":"e6df6b58-37a1-49c4-9a74-5b5e425cba0d","system_id":"levelo_inurba_marseille","lat":43.27424,"lon":5.39412,"is_reserved":false,"is_disabled":false,"rental_uris":{"android":"levelo://app?vid=e6df6b58-37a1-49c4-9a74-5b5e425cba0d","ios":"levelo://app?vid=e6df6b58-37a1-49c4-9a74-5b5e425cba0d"},"vehicle_type_id":"4","last_reported":1732709926,"current_range_meters":8400,"station_id":"ce4bhdp2rcd13ifvqf20","pricing_plan_id":"cebpf4jnsgd1na2vs0mg"},{"bike_id":"c6323cc4-3a8d-4794-8c5c-c47ccfb2ec44","system_id":"levelo_inurba_marseille","lat":43.30543,"lon":5.36702,"is_reserved":false,"is_disabled":false,"rental_uris":{"android":"levelo://app?vid=c6323cc4-3a8d-4794-8c5c-c47ccfb2ec44","ios":"levelo://app?vid=c6323cc4-3a8d-4794-8c5c-c47ccfb2ec44"},"vehicle_type_id":"4","last_reported":1732709926,"current_range_meters":33200,"station_id":"ce4bgrp2rcd13ifvqc9g","pricing_plan_id":"cebpf4jnsgd1na2vs0mg"},{"bike_id":"05966a38-748a-4db4-bf43-58adf47ef657","system_id":"levelo_inurba_marseille","lat":43.311138,"lon":5.377679,"is_reserved":false,"is_disabled":true,"rental_uris":{"android":"levelo://app?vid=05966a38-748a-4db4-bf43-58adf47ef657","ios":"levelo://app?vid=05966a38-748a-4db4-bf43-58adf47ef657"},"vehicle_type_id":"4","last_reported":1732709926,"current_range_meters":0,"station_id":"ce4bgt92rcd13ifvqcg0","pricing_plan_id":"cebpf4jnsgd1na2vs0mg"},{"bike_id":"90132e08-b504-464b-ae2f-07d98edee517","system_id":"levelo_inurba_marseille","lat":43.3302,"lon":5.39041,"is_reserved":false,"is_disabled":false,"rental_uris":{"android":"levelo://app?vid=90132e08-b504-464b-ae2f-07d98edee517","ios":"levelo://app?vid=90132e08-b504-464b-ae2f-07d98edee517"},"vehicle_type_id":"4","last_reported":1732709926,"current_range_meters":4400,"station_id":"ce4bhr92rcd13ifvqhrg","pricing_plan_id":"cebpf4jnsgd1na2vs0mg"},{"bike_id":"625d9584-c6b2-4156-9736-0a3e6e43266e","system_id":"levelo_inurba_marseille","lat":43.29558,"lon":5.4229,"is_reserved":false,"is_disabled":false,"rental_uris":{"android":"levelo://app?vid=625d9584-c6b2-4156-9736-0a3e6e43266e","ios":"levelo://app?vid=625d9584-c6b2-4156-9736-0a3e6e43266e"},"vehicle_type_id":"4","last_reported":1732709926,"current_range_meters":38800,"station_id":"ce4bhph2rcd13ifvqhdg","pricing_plan_id":"cebpf4jnsgd1na2vs0mg"},{"bike_id":"4d4c884f-6933-49c0-8899-f9856d90f44d","system_id":"levelo_inurba_marseille","lat":43.29743,"lon":5.3796,"is_reserved":false,"is_disabled":true,"rental_uris":{"android":"levelo://app?vid=4d4c884f-6933-49c0-8899-f9856d90f44d","ios":"levelo://app?vid=4d4c884f-6933-49c0-8899-f9856d90f44d"},"vehicle_type_id":"4","last_reported":1732709926,"current_range_meters":0,"station_id":"","pricing_plan_id":"cebpf4jnsgd1na2vs0mg"},{"bike_id":"2ac61c25-49e6-4f37-ac8c-8b2e88ab0b5e","system_id":"levelo_inurba_marseille","lat":43.29214,"lon":5.36057,"is_reserved":false,"is_disabled":true,"rental_uris":{"android":"levelo://app?vid=2ac61c25-49e6-4f37-ac8c-8b2e88ab0b5e","ios":"levelo://app?vid=2ac61c25-49e6-4f37-ac8c-8b2e88ab0b5e"},"vehicle_type_id":"4","last_reported":1732709926,"current_range_meters":30000,"station_id":"ce4bhbh2rcd13ifvqeqg","pricing_plan_id":"cebpf4jnsgd1na2vs0mg"},{"bike_id":"bb90541a-6ebc-4cf8-b008-fc97e9421f62","system_id":"levelo_inurba_marseille","lat":43.24549,"lon":5.37328,"is_reserved":false,"is_disabled":false,"rental_uris":{"android":"levelo://app?vid=bb90541a-6ebc-4cf8-b008-fc97e9421f62","ios":"levelo://app?vid=bb90541a-6ebc-4cf8-b008-fc97e9421f62"},"vehicle_type_id":"4","last_reported":1732709926,"current_range_meters":6400,"station_id":"","pricing_plan_id":"cebpf4jnsgd1na2vs0mg"},{"bike_id":"d6f9593e-5df7-46c3-9ff2-023bfd929583","system_id":"levelo_inurba_marseille","lat":43.27914,"lon":5.39582,"is_reserved":false,"is_disabled":true,"rental_uris":{"android":"levelo://app?vid=d6f9593e-5df7-46c3-9ff2-023bfd929583","ios":"levelo://app?vid=d6f9593e-5df7-46c3-9ff2-023bfd929583"},"vehicle_type_id":"4","last_reported":1732709926,"current_range_meters":0,"station_id":"ce4bhf92rcd13ifvqf40","pricing_plan_id":"cebpf4jnsgd1na2vs0mg"},{"bike_id":"9b6997d0-a97e-44f2-8c44-8034e5a6e7cc","system_id":"levelo_inurba_marseille","lat":43.2315,"lon":5.43714,"is_reserved":false,"is_disabled":false,"rental_uris":{"android":"levelo://app?vid=9b6997d0-a97e-44f2-8c44-8034e5a6e7cc","ios":"levelo://app?vid=9b6997d0-a97e-44f2-8c44-8034e5a6e7cc"},"vehicle_type_id":"4","last_reported":1732709926,"current_range_meters":22000,"station_id":"ce4bhmp2rcd13ifvqgog","pricing_plan_id":"cebpf4jnsgd1na2vs0mg"},{"bike_id":"94e3b49b-eab5-42dd-9732-3c401ed0244a","system_id":"levelo_inurba_marseille","lat":43.28848,"lon":5.35846,"is_reserved":false,"is_disabled":false,"rental_uris":{"android":"levelo://app?vid=94e3b49b-eab5-42dd-9732-3c401ed0244a","ios":"levelo://app?vid=94e3b49b-eab5-42dd-9732-3c401ed0244a"},"vehicle_type_id":"4","last_reported":1732709926,"current_range_meters":38400,"station_id":"ce4bhb12rcd13ifvqem0","pricing_plan_id":"cebpf4jnsgd1na2vs0mg"},{"bike_id":"684c73ab-dedc-4f3a-81ab-ff550bdffd53","system_id":"levelo_inurba_marseille","lat":43.28704,"lon":5.37393,"is_reserved":false,"is_disabled":false,"rental_uris":{"android":"levelo://app?vid=684c73ab-dedc-4f3a-81ab-ff550bdffd53","ios":"levelo://app?vid=684c73ab-dedc-4f3a-81ab-ff550bdffd53"},"vehicle_type_id":"4","last_reported":1732709926,"current_range_meters":36800,"station_id":"ce4bh3p2rcd13ifvqdq0","pricing_plan_id":"cebpf4jnsgd1na2vs0mg"},{"bike_id":"88e20be9-6029-4caa-ae75-dd582668bdd6","system_id":"levelo_inurba_marseille","lat":43.29589,"lon":5.37516,"is_reserved":false,"is_disabled":true,"rental_uris":{"android":"levelo://app?vid=88e20be9-6029-4caa-ae75-dd582668bdd6","ios":"levelo://app?vid=88e20be9-6029-4caa-ae75-dd582668bdd6"},"vehicle_type_id":"4","last_reported":1732709926,"current_range_meters":5600,"station_id":"ce4bgh92rcd13ifvqb50","pricing_plan_id":"cebpf4jnsgd1na2vs0mg"},{"bike_id":"299f58fd-6e29-4e06-a65a-1ba6949f2bdc","system_id":"levelo_inurba_marseille","lat":43.33786,"lon":5.37392,"is_reserved":false,"is_disabled":false,"rental_uris":{"android":"levelo://app?vid=299f58fd-6e29-4e06-a65a-1ba6949f2bdc","ios":"levelo://app?vid=299f58fd-6e29-4e06-a65a-1ba6949f2bdc"},"vehicle_type_id":"4","last_reported":1732709926,"current_range_meters":36400,"station_id":"","pricing_plan_id":"cebpf4jnsgd1na2vs0mg"},{"bike_id":"4d809776-4d2b-4bf5-8aa6-666b5b1fd18f","system_id":"levelo_inurba_marseille","lat":43.3371,"lon":5.39189,"is_reserved":false,"is_disabled":false,"rental_uris":{"android":"levelo://app?vid=4d809776-4d2b-4bf5-8aa6-666b5b1fd18f","ios":"levelo://app?vid=4d809776-4d2b-4bf5-8aa6-666b5b1fd18f"},"vehicle_type_id":"4","last_reported":1732709926,"current_range_meters":38000,"station_id":"ce4bhr92rcd13ifvqhsg","pricing_plan_id":"cebpf4jnsgd1na2vs0mg"},{"bike_id":"a9ad042a-7d8f-4c70-8365-0b3fbaf9e3ff","system_id":"levelo_inurba_marseille","lat":43.28863,"lon":5.35875,"is_reserved":false,"is_disabled":false,"rental_uris":{"android":"levelo://app?vid=a9ad042a-7d8f-4c70-8365-0b3fbaf9e3ff","ios":"levelo://app?vid=a9ad042a-7d8f-4c70-8365-0b3fbaf9e3ff"},"vehicle_type_id":"4","last_reported":1732709926,"current_range_meters":29600,"station_id":"ce4bhb12rcd13ifvqem0","pricing_plan_id":"cebpf4jnsgd1na2vs0mg"},{"bike_id":"08571444-34a6-4f0a-96dc-983ecce96969","system_id":"levelo_inurba_marseille","lat":43.2808,"lon":5.39656,"is_reserved":false,"is_disabled":false,"rental_uris":{"android":"levelo://app?vid=08571444-34a6-4f0a-96dc-983ecce96969","ios":"levelo://app?vid=08571444-34a6-4f0a-96dc-983ecce96969"},"vehicle_type_id":"4","last_reported":1732709926,"current_range_meters":27600,"station_id":"ce4bho12rcd13ifvqh2g","pricing_plan_id":"cebpf4jnsgd1na2vs0mg"},{"bike_id":"0a15e951-cad7-4da3-a5d2-03c7c46f289e","system_id":"levelo_inurba_marseille","lat":43.29682,"lon":5.3728,"is_reserved":false,"is_disabled":false,"rental_uris":{"android":"levelo://app?vid=0a15e951-cad7-4da3-a5d2-03c7c46f289e","ios":"levelo://app?vid=0a15e951-cad7-4da3-a5d2-03c7c46f289e"},"vehicle_type_id":"4","last_reported":1732709926,"current_range_meters":25600,"station_id":"ce4bgk12rcd13ifvqbj0","pricing_plan_id":"cebpf4jnsgd1na2vs0mg"},{"bike_id":"7dccca16-9c81-46ba-8ec7-8ac114550316","system_id":"levelo_inurba_marseille","lat":43.337444,"lon":5.374475,"is_reserved":false,"is_disabled":false,"rental_uris":{"android":"levelo://app?vid=7dccca16-9c81-46ba-8ec7-8ac114550316","ios":"levelo://app?vid=7dccca16-9c81-46ba-8ec7-8ac114550316"},"vehicle_type_id":"4","last_reported":1732709926,"current_range_meters":38000,"station_id":"","pricing_plan_id":"cebpf4jnsgd1na2vs0mg"},{"bike_id":"339850c3-d6a6-49d9-9bea-bb2f74b15c16","system_id":"levelo_inurba_marseille","lat":43.29534,"lon":5.38546,"is_reserved":false,"is_disabled":true,"rental_uris":{"android":"levelo://app?vid=339850c3-d6a6-49d9-9bea-bb2f74b15c16","ios":"levelo://app?vid=339850c3-d6a6-49d9-9bea-bb2f74b15c16"},"vehicle_type_id":"4","last_reported":1732709926,"current_range_meters":33200,"station_id":"ce4bgih2rcd13ifvqba0","pricing_plan_id":"cebpf4jnsgd1na2vs0mg"},{"bike_id":"1fbd37d6-2ec3-4037-a86d-a0fef864327f","system_id":"levelo_inurba_marseille","lat":43.29224,"lon":5.36064,"is_reserved":false,"is_disabled":false,"rental_uris":{"android":"levelo://app?vid=1fbd37d6-2ec3-4037-a86d-a0fef864327f","ios":"levelo://app?vid=1fbd37d6-2ec3-4037-a86d-a0fef864327f"},"vehicle_type_id":"4","last_reported":1732709926,"current_range_meters":30000,"station_id":"ce4bhbh2rcd13ifvqeqg","pricing_plan_id":"cebpf4jnsgd1na2vs0mg"},{"bike_id":"094eaa82-3b8c-4de6-a34a-b6b8772829db","system_id":"levelo_inurba_marseille","lat":43.3055,"lon":5.36536,"is_reserved":false,"is_disabled":false,"rental_uris":{"android":"levelo://app?vid=094eaa82-3b8c-4de6-a34a-b6b8772829db","ios":"levelo://app?vid=094eaa82-3b8c-4de6-a34a-b6b8772829db"},"vehicle_type_id":"4","last_reported":1732709926,"current_range_meters":36000,"station_id":"ce4bgs12rcd13ifvqcag","pricing_plan_id":"cebpf4jnsgd1na2vs0mg"},{"bike_id":"7daba201-b87c-40ad-b19c-95e23e6fbef3","system_id":"levelo_inurba_marseille","lat":43.29071,"lon":5.37169,"is_reserved":false,"is_disabled":false,"rental_uris":{"android":"levelo://app?vid=7daba201-b87c-40ad-b19c-95e23e6fbef3","ios":"levelo://app?vid=7daba201-b87c-40ad-b19c-95e23e6fbef3"},"vehicle_type_id":"4","last_reported":1732709926,"current_range_meters":27600,"station_id":"ce4bh5p2rcd13ifvqe4g","pricing_plan_id":"cebpf4jnsgd1na2vs0mg"},{"bike_id":"834fa57d-9857-4cdc-bc18-1867eaf6f20a","system_id":"levelo_inurba_marseille","lat":43.30551,"lon":5.36534,"is_reserved":false,"is_disabled":false,"rental_uris":{"android":"levelo://app?vid=834fa57d-9857-4cdc-bc18-1867eaf6f20a","ios":"levelo://app?vid=834fa57d-9857-4cdc-bc18-1867eaf6f20a"},"vehicle_type_id":"4","last_reported":1732709926,"current_range_meters":14000,"station_id":"ce4bgs12rcd13ifvqcag","pricing_plan_id":"cebpf4jnsgd1na2vs0mg"},{"bike_id":"8b466bc1-35bc-402b-942a-25464cceb927","system_id":"levelo_inurba_marseille","lat":43.23181,"lon":5.39991,"is_reserved":false,"is_disabled":false,"rental_uris":{"android":"levelo://app?vid=8b466bc1-35bc-402b-942a-25464cceb927","ios":"levelo://app?vid=8b466bc1-35bc-402b-942a-25464cceb927"},"vehicle_type_id":"4","last_reported":1732709926,"current_range_meters":25600,"station_id":"ce4bhn12rcd13ifvqgqg","pricing_plan_id":"cebpf4jnsgd1na2vs0mg"},{"bike_id":"b90b8023-1553-46d9-8ed7-093767ff1d33","system_id":"levelo_inurba_marseille","lat":43.27916,"lon":5.3958,"is_reserved":false,"is_disabled":true,"rental_uris":{"android":"levelo://app?vid=b90b8023-1553-46d9-8ed7-093767ff1d33","ios":"levelo://app?vid=b90b8023-1553-46d9-8ed7-093767ff1d33"},"vehicle_type_id":"4","last_reported":1732709926,"current_range_meters":0,"station_id":"ce4bhf92rcd13ifvqf40","pricing_plan_id":"cebpf4jnsgd1na2vs0mg"},{"bike_id":"9b6e5772-c83c-4dcd-bff1-c5985b118375","system_id":"levelo_inurba_marseille","lat":43.33024,"lon":5.39034,"is_reserved":false,"is_disabled":false,"rental_uris":{"android":"levelo://app?vid=9b6e5772-c83c-4dcd-bff1-c5985b118375","ios":"levelo://app?vid=9b6e5772-c83c-4dcd-bff1-c5985b118375"},"vehicle_type_id":"4","last_reported":1732709926,"current_range_meters":38800,"station_id":"ce4bhr92rcd13ifvqhrg","pricing_plan_id":"cebpf4jnsgd1na2vs0mg"},{"bike_id":"1c8807d0-9279-453e-9f75-5ab4de304fcc","system_id":"levelo_inurba_marseille","lat":43.27896,"lon":5.38223,"is_reserved":false,"is_disabled":false,"rental_uris":{"android":"levelo://app?vid=1c8807d0-9279-453e-9f75-5ab4de304fcc","ios":"levelo://app?vid=1c8807d0-9279-453e-9f75-5ab4de304fcc"},"vehicle_type_id":"4","last_reported":1732709926,"current_range_meters":20000,"station_id":"ce4bhf92rcd13ifvqf50","pricing_plan_id":"cebpf4jnsgd1na2vs0mg"},{"bike_id":"f9f94ebe-9769-4e6b-9e53-54408c4164fa","system_id":"levelo_inurba_marseille","lat":43.29864,"lon":5.39749,"is_reserved":false,"is_disabled":true,"rental_uris":{"android":"levelo://app?vid=f9f94ebe-9769-4e6b-9e53-54408c4164fa","ios":"levelo://app?vid=f9f94ebe-9769-4e6b-9e53-54408c4164fa"},"vehicle_type_id":"4","last_reported":1732709926,"current_range_meters":0,"station_id":"ce4bh0h2rcd13ifvqd50","pricing_plan_id":"cebpf4jnsgd1na2vs0mg"},{"bike_id":"c1d4c091-46b7-4f2e-aeb5-6518b8354ca5","system_id":"levelo_inurba_marseille","lat":43.27172,"lon":5.40991,"is_reserved":false,"is_disabled":false,"rental_uris":{"android":"levelo://app?vid=c1d4c091-46b7-4f2e-aeb5-6518b8354ca5","ios":"levelo://app?vid=c1d4c091-46b7-4f2e-aeb5-6518b8354ca5"},"vehicle_type_id":"4","last_reported":1732709926,"current_range_meters":34800,"station_id":"ce4bhl12rcd13ifvqgf0","pricing_plan_id":"cebpf4jnsgd1na2vs0mg"},{"bike_id":"29263780-180d-4ef0-a327-3fa00f23c498","system_id":"levelo_inurba_marseille","lat":43.29519,"lon":5.39406,"is_reserved":false,"is_disabled":false,"rental_uris":{"android":"levelo://app?vid=29263780-180d-4ef0-a327-3fa00f23c498","ios":"levelo://app?vid=29263780-180d-4ef0-a327-3fa00f23c498"},"vehicle_type_id":"4","last_reported":1732709926,"current_range_meters":26000,"station_id":"ce4bh292rcd13ifvqdf0","pricing_plan_id":"cebpf4jnsgd1na2vs0mg"},{"bike_id":"6a243988-d267-4e1e-bafc-c091870de6a8","system_id":"levelo_inurba_marseille","lat":43.24159,"lon":5.36409,"is_reserved":false,"is_disabled":false,"rental_uris":{"android":"levelo://app?vid=6a243988-d267-4e1e-bafc-c091870de6a8","ios":"levelo://app?vid=6a243988-d267-4e1e-bafc-c091870de6a8"},"vehicle_type_id":"4","last_reported":1732709926,"current_range_meters":35200,"station_id":"cpo36qri1sfpv3e86is0","pricing_plan_id":"cebpf4jnsgd1na2vs0mg"},{"bike_id":"9f829615-a360-47bc-872a-f61471d53cab","system_id":"levelo_inurba_marseille","lat":43.24998,"lon":5.38921,"is_reserved":false,"is_disabled":false,"rental_uris":{"android":"levelo://app?vid=9f829615-a360-47bc-872a-f61471d53cab","ios":"levelo://app?vid=9f829615-a360-47bc-872a-f61471d53cab"},"vehicle_type_id":"4","last_reported":1732709926,"current_range_meters":31200,"station_id":"ce4bhgp2rcd13ifvqfd0","pricing_plan_id":"cebpf4jnsgd1na2vs0mg"},{"bike_id":"6c6a93bf-e171-448f-8ea9-1241abd089a1","system_id":"levelo_inurba_marseille","lat":43.2781,"lon":5.40719,"is_reserved":false,"is_disabled":true,"rental_uris":{"android":"levelo://app?vid=6c6a93bf-e171-448f-8ea9-1241abd089a1","ios":"levelo://app?vid=6c6a93bf-e171-448f-8ea9-1241abd089a1"},"vehicle_type_id":"4","last_reported":1732709926,"current_range_meters":0,"station_id":"ce4bhnh2rcd13ifvqgtg","pricing_plan_id":"cebpf4jnsgd1na2vs0mg"},{"bike_id":"39b04c21-6a6a-40a7-a489-741c2b67c9bd","system_id":"levelo_inurba_marseille","lat":43.33717,"lon":5.3919,"is_reserved":false,"is_disabled":false,"rental_uris":{"android":"levelo://app?vid=39b04c21-6a6a-40a7-a489-741c2b67c9bd","ios":"levelo://app?vid=39b04c21-6a6a-40a7-a489-741c2b67c9bd"},"vehicle_type_id":"4","last_reported":1732709926,"current_range_meters":10000,"station_id":"ce4bhr92rcd13ifvqhsg","pricing_plan_id":"cebpf4jnsgd1na2vs0mg"},{"bike_id":"e465c5d0-0923-4e47-9eed-14fbda58d8e8","system_id":"levelo_inurba_marseille","lat":43.26209,"lon":5.37928,"is_reserved":false,"is_disabled":false,"rental_uris":{"android":"levelo://app?vid=e465c5d0-0923-4e47-9eed-14fbda58d8e8","ios":"levelo://app?vid=e465c5d0-0923-4e47-9eed-14fbda58d8e8"},"vehicle_type_id":"4","last_reported":1732709926,"current_range_meters":39200,"station_id":"ce4bhjp2rcd13ifvqg90","pricing_plan_id":"cebpf4jnsgd1na2vs0mg"},{"bike_id":"91b68e3f-9cdc-4c19-bf3a-71f5f6195c3e","system_id":"levelo_inurba_marseille","lat":43.31354,"lon":5.36719,"is_reserved":false,"is_disabled":false,"rental_uris":{"android":"levelo://app?vid=91b68e3f-9cdc-4c19-bf3a-71f5f6195c3e","ios":"levelo://app?vid=91b68e3f-9cdc-4c19-bf3a-71f5f6195c3e"},"vehicle_type_id":"4","last_reported":1732709926,"current_range_meters":17600,"station_id":"ce4bgr92rcd13ifvqc6g","pricing_plan_id":"cebpf4jnsgd1na2vs0mg"},{"bike_id":"bf7d3842-4073-411e-b821-7a40c9d5e7ad","system_id":"levelo_inurba_marseille","lat":43.30182,"lon":5.36625,"is_reserved":false,"is_disabled":false,"rental_uris":{"android":"levelo://app?vid=bf7d3842-4073-411e-b821-7a40c9d5e7ad","ios":"levelo://app?vid=bf7d3842-4073-411e-b821-7a40c9d5e7ad"},"vehicle_type_id":"4","last_reported":1732709926,"current_range_meters":14800,"station_id":"ce4bgrh2rcd13ifvqc8g","pricing_plan_id":"cebpf4jnsgd1na2vs0mg"},{"bike_id":"b819dfbc-0df6-4332-ae8d-6fef148880b6","system_id":"levelo_inurba_marseille","lat":43.30435,"lon":5.39742,"is_reserved":false,"is_disabled":false,"rental_uris":{"android":"levelo://app?vid=b819dfbc-0df6-4332-ae8d-6fef148880b6","ios":"levelo://app?vid=b819dfbc-0df6-4332-ae8d-6fef148880b6"},"vehicle_type_id":"4","last_reported":1732709926,"current_range_meters":28000,"station_id":"ce4bh092rcd13ifvqd20","pricing_plan_id":"cebpf4jnsgd1na2vs0mg"},{"bike_id":"cb4d27f8-c5ce-413d-b1c7-a9736fd3b129","system_id":"levelo_inurba_marseille","lat":43.25492,"lon":5.37647,"is_reserved":false,"is_disabled":false,"rental_uris":{"android":"levelo://app?vid=cb4d27f8-c5ce-413d-b1c7-a9736fd3b129","ios":"levelo://app?vid=cb4d27f8-c5ce-413d-b1c7-a9736fd3b129"},"vehicle_type_id":"4","last_reported":1732709926,"current_range_meters":38800,"station_id":"ce4bhh12rcd13ifvqff0","pricing_plan_id":"cebpf4jnsgd1na2vs0mg"},{"bike_id":"5cb6e33f-fa1e-4d08-ac4e-646794b0f617","system_id":"levelo_inurba_marseille","lat":43.29224,"lon":5.36058,"is_reserved":false,"is_disabled":true,"rental_uris":{"android":"levelo://app?vid=5cb6e33f-fa1e-4d08-ac4e-646794b0f617","ios":"levelo://app?vid=5cb6e33f-fa1e-4d08-ac4e-646794b0f617"},"vehicle_type_id":"4","last_reported":1732709926,"current_range_meters":0,"station_id":"ce4bhbh2rcd13ifvqeqg","pricing_plan_id":"cebpf4jnsgd1na2vs0mg"},{"bike_id":"34cbec49-eeaf-411d-80f2-b68e724f1d2f","system_id":"levelo_inurba_marseille","lat":43.29,"lon":5.35615,"is_reserved":false,"is_disabled":true,"rental_uris":{"android":"levelo://app?vid=34cbec49-eeaf-411d-80f2-b68e724f1d2f","ios":"levelo://app?vid=34cbec49-eeaf-411d-80f2-b68e724f1d2f"},"vehicle_type_id":"4","last_reported":1732709926,"current_range_meters":33600,"station_id":"ce4bhb92rcd13ifvqen0","pricing_plan_id":"cebpf4jnsgd1na2vs0mg"},{"bike_id":"ce8b69aa-646d-403b-bb63-faa242fb22a8","system_id":"levelo_inurba_marseille","lat":43.29555,"lon":5.42284,"is_reserved":false,"is_disabled":false,"rental_uris":{"android":"levelo://app?vid=ce8b69aa-646d-403b-bb63-faa242fb22a8","ios":"levelo://app?vid=ce8b69aa-646d-403b-bb63-faa242fb22a8"},"vehicle_type_id":"4","last_reported":1732709926,"current_range_meters":2000,"station_id":"ce4bhph2rcd13ifvqhdg","pricing_plan_id":"cebpf4jnsgd1na2vs0mg"},{"bike_id":"f3b2cf9b-41cc-4bae-8991-d9221e0e0cfc","system_id":"levelo_inurba_marseille","lat":43.28268,"lon":5.35063,"is_reserved":false,"is_disabled":false,"rental_uris":{"android":"levelo://app?vid=f3b2cf9b-41cc-4bae-8991-d9221e0e0cfc","ios":"levelo://app?vid=f3b2cf9b-41cc-4bae-8991-d9221e0e0cfc"},"vehicle_type_id":"4","last_reported":1732709926,"current_range_meters":38800,"station_id":"ce4bhbp2rcd13ifvqerg","pricing_plan_id":"cebpf4jnsgd1na2vs0mg"},{"bike_id":"36296f5c-0176-4be0-97c8-7930cda9c369","system_id":"levelo_inurba_marseille","lat":43.32105,"lon":5.3678,"is_reserved":false,"is_disabled":false,"rental_uris":{"android":"levelo://app?vid=36296f5c-0176-4be0-97c8-7930cda9c369","ios":"levelo://app?vid=36296f5c-0176-4be0-97c8-7930cda9c369"},"vehicle_type_id":"4","last_reported":1732709926,"current_range_meters":16800,"station_id":"ce4bhrh2rcd13ifvqhug","pricing_plan_id":"cebpf4jnsgd1na2vs0mg"},{"bike_id":"2015b399-7b63-48fc-9f8f-3dc77f0f11c3","system_id":"levelo_inurba_marseille","lat":43.23957,"lon":5.36644,"is_reserved":false,"is_disabled":false,"rental_uris":{"android":"levelo://app?vid=2015b399-7b63-48fc-9f8f-3dc77f0f11c3","ios":"levelo://app?vid=2015b399-7b63-48fc-9f8f-3dc77f0f11c3"},"vehicle_type_id":"4","last_reported":1732709926,"current_range_meters":39200,"station_id":"ce4bhi12rcd13ifvqfp0","pricing_plan_id":"cebpf4jnsgd1na2vs0mg"},{"bike_id":"5b7b54c6-deaa-4161-ba26-a9e3cb5fddb0","system_id":"levelo_inurba_marseille","lat":43.31754,"lon":5.3902,"is_reserved":false,"is_disabled":false,"rental_uris":{"android":"levelo://app?vid=5b7b54c6-deaa-4161-ba26-a9e3cb5fddb0","ios":"levelo://app?vid=5b7b54c6-deaa-4161-ba26-a9e3cb5fddb0"},"vehicle_type_id":"4","last_reported":1732709926,"current_range_meters":36000,"station_id":"ce4bhqp2rcd13ifvqhng","pricing_plan_id":"cebpf4jnsgd1na2vs0mg"},{"bike_id":"b52ea04b-90f8-4d34-a1a0-7e7858c5a858","system_id":"levelo_inurba_marseille","lat":43.2953,"lon":5.38546,"is_reserved":false,"is_disabled":false,"rental_uris":{"android":"levelo://app?vid=b52ea04b-90f8-4d34-a1a0-7e7858c5a858","ios":"levelo://app?vid=b52ea04b-90f8-4d34-a1a0-7e7858c5a858"},"vehicle_type_id":"4","last_reported":1732709926,"current_range_meters":24800,"station_id":"ce4bgih2rcd13ifvqba0","pricing_plan_id":"cebpf4jnsgd1na2vs0mg"},{"bike_id":"a706a77c-7ff9-4a07-a6b4-b19a5341fc26","system_id":"levelo_inurba_marseille","lat":43.31223,"lon":5.36844,"is_reserved":false,"is_disabled":false,"rental_uris":{"android":"levelo://app?vid=a706a77c-7ff9-4a07-a6b4-b19a5341fc26","ios":"levelo://app?vid=a706a77c-7ff9-4a07-a6b4-b19a5341fc26"},"vehicle_type_id":"4","last_reported":1732709926,"current_range_meters":25200,"station_id":"ce4bgl92rcd13ifvqbq0","pricing_plan_id":"cebpf4jnsgd1na2vs0mg"},{"bike_id":"374e6c41-7d95-43f7-adc6-08ffe5731c13","system_id":"levelo_inurba_marseille","lat":43.2572,"lon":5.41117,"is_reserved":false,"is_disabled":false,"rental_uris":{"android":"levelo://app?vid=374e6c41-7d95-43f7-adc6-08ffe5731c13","ios":"levelo://app?vid=374e6c41-7d95-43f7-adc6-08ffe5731c13"},"vehicle_type_id":"4","last_reported":1732709926,"current_range_meters":19200,"station_id":"ce4bhkp2rcd13ifvqgd0","pricing_plan_id":"cebpf4jnsgd1na2vs0mg"},{"bike_id":"36142b05-7ba5-4a58-a204-73a6ca0624b7","system_id":"levelo_inurba_marseille","lat":43.3361,"lon":5.41029,"is_reserved":false,"is_disabled":false,"rental_uris":{"android":"levelo://app?vid=36142b05-7ba5-4a58-a204-73a6ca0624b7","ios":"levelo://app?vid=36142b05-7ba5-4a58-a204-73a6ca0624b7"},"vehicle_type_id":"4","last_reported":1732709926,"current_range_meters":34000,"station_id":"ce4bhqh2rcd13ifvqhmg","pricing_plan_id":"cebpf4jnsgd1na2vs0mg"},{"bike_id":"18830488-d9e3-436c-91df-d574eaa7bdd7","system_id":"levelo_inurba_marseille","lat":43.29506,"lon":5.39037,"is_reserved":false,"is_disabled":true,"rental_uris":{"android":"levelo://app?vid=18830488-d9e3-436c-91df-d574eaa7bdd7","ios":"levelo://app?vid=18830488-d9e3-436c-91df-d574eaa7bdd7"},"vehicle_type_id":"4","last_reported":1732709926,"current_range_meters":38400,"station_id":"ce4bh3p2rcd13ifvqdp0","pricing_plan_id":"cebpf4jnsgd1na2vs0mg"},{"bike_id":"699a92ef-9bdf-44a5-b698-21e6b9fa89fb","system_id":"levelo_inurba_marseille","lat":43.29904,"lon":5.38127,"is_reserved":false,"is_disabled":true,"rental_uris":{"android":"levelo://app?vid=699a92ef-9bdf-44a5-b698-21e6b9fa89fb","ios":"levelo://app?vid=699a92ef-9bdf-44a5-b698-21e6b9fa89fb"},"vehicle_type_id":"4","last_reported":1732709926,"current_range_meters":38000,"station_id":"ce4bgj12rcd13ifvqbc0","pricing_plan_id":"cebpf4jnsgd1na2vs0mg"},{"bike_id":"604dd96f-5e5b-41a0-9904-5b7d85d376d6","system_id":"levelo_inurba_marseille","lat":43.29572,"lon":5.37514,"is_reserved":false,"is_disabled":true,"rental_uris":{"android":"levelo://app?vid=604dd96f-5e5b-41a0-9904-5b7d85d376d6","ios":"levelo://app?vid=604dd96f-5e5b-41a0-9904-5b7d85d376d6"},"vehicle_type_id":"4","last_reported":1732709926,"current_range_meters":8800,"station_id":"ce4bgh92rcd13ifvqb50","pricing_plan_id":"cebpf4jnsgd1na2vs0mg"},{"bike_id":"2b9b7e28-aa75-4588-8a04-9888b7dddb25","system_id":"levelo_inurba_marseille","lat":43.25083,"lon":5.39496,"is_reserved":false,"is_disabled":false,"rental_uris":{"android":"levelo://app?vid=2b9b7e28-aa75-4588-8a04-9888b7dddb25","ios":"levelo://app?vid=2b9b7e28-aa75-4588-8a04-9888b7dddb25"},"vehicle_type_id":"4","last_reported":1732709926,"current_range_meters":27600,"station_id":"ce4bhm12rcd13ifvqgkg","pricing_plan_id":"cebpf4jnsgd1na2vs0mg"},{"bike_id":"1cd78e3c-eca2-430e-a00b-3450b52eb373","system_id":"levelo_inurba_marseille","lat":43.22928,"lon":5.3538,"is_reserved":false,"is_disabled":false,"rental_uris":{"android":"levelo://app?vid=1cd78e3c-eca2-430e-a00b-3450b52eb373","ios":"levelo://app?vid=1cd78e3c-eca2-430e-a00b-3450b52eb373"},"vehicle_type_id":"4","last_reported":1732709926,"current_range_meters":37600,"station_id":"cpo3532slgdg3j2ikp40","pricing_plan_id":"cebpf4jnsgd1na2vs0mg"},{"bike_id":"058a7e05-8201-491b-a8c9-dca24482a810","system_id":"levelo_inurba_marseille","lat":43.27621,"lon":5.3611,"is_reserved":false,"is_disabled":false,"rental_uris":{"android":"levelo://app?vid=058a7e05-8201-491b-a8c9-dca24482a810","ios":"levelo://app?vid=058a7e05-8201-491b-a8c9-dca24482a810"},"vehicle_type_id":"4","last_reported":1732709926,"current_range_meters":19200,"station_id":"ce4bgj92rcd13ifvqbe0","pricing_plan_id":"cebpf4jnsgd1na2vs0mg"},{"bike_id":"28915062-1464-41e4-bc41-88c2d611d1e3","system_id":"levelo_inurba_marseille","lat":43.27987,"lon":5.40031,"is_reserved":false,"is_disabled":false,"rental_uris":{"android":"levelo://app?vid=28915062-1464-41e4-bc41-88c2d611d1e3","ios":"levelo://app?vid=28915062-1464-41e4-bc41-88c2d611d1e3"},"vehicle_type_id":"4","last_reported":1732709926,"current_range_meters":37600,"station_id":"ce4bho92rcd13ifvqh4g","pricing_plan_id":"cebpf4jnsgd1na2vs0mg"},{"bike_id":"b56b1539-7db7-4fcc-b08d-253af0756063","system_id":"levelo_inurba_marseille","lat":43.28073,"lon":5.39654,"is_reserved":false,"is_disabled":false,"rental_uris":{"android":"levelo://app?vid=b56b1539-7db7-4fcc-b08d-253af0756063","ios":"levelo://app?vid=b56b1539-7db7-4fcc-b08d-253af0756063"},"vehicle_type_id":"4","last_reported":1732709926,"current_range_meters":17200,"station_id":"ce4bho12rcd13ifvqh2g","pricing_plan_id":"cebpf4jnsgd1na2vs0mg"},{"bike_id":"f715cead-bf0f-4fbc-a0c5-98c215fdc869","system_id":"levelo_inurba_marseille","lat":43.28616,"lon":5.35099,"is_reserved":false,"is_disabled":false,"rental_uris":{"android":"levelo://app?vid=f715cead-bf0f-4fbc-a0c5-98c215fdc869","ios":"levelo://app?vid=f715cead-bf0f-4fbc-a0c5-98c215fdc869"},"vehicle_type_id":"4","last_reported":1732709926,"current_range_meters":24000,"station_id":"ce4bhch2rcd13ifvqeug","pricing_plan_id":"cebpf4jnsgd1na2vs0mg"},{"bike_id":"9f36bab7-6ca0-4a67-9b69-e820dd2dd980","system_id":"levelo_inurba_marseille","lat":43.29263,"lon":5.3685,"is_reserved":false,"is_disabled":true,"rental_uris":{"android":"levelo://app?vid=9f36bab7-6ca0-4a67-9b69-e820dd2dd980","ios":"levelo://app?vid=9f36bab7-6ca0-4a67-9b69-e820dd2dd980"},"vehicle_type_id":"4","last_reported":1732709926,"current_range_meters":35200,"station_id":"ce4bhbp2rcd13ifvqesg","pricing_plan_id":"cebpf4jnsgd1na2vs0mg"},{"bike_id":"c7cb99f8-e0d2-460a-bb31-4373c3cfafd8","system_id":"levelo_inurba_marseille","lat":43.27686,"lon":5.38884,"is_reserved":false,"is_disabled":false,"rental_uris":{"android":"levelo://app?vid=c7cb99f8-e0d2-460a-bb31-4373c3cfafd8","ios":"levelo://app?vid=c7cb99f8-e0d2-460a-bb31-4373c3cfafd8"},"vehicle_type_id":"4","last_reported":1732709926,"current_range_meters":14400,"station_id":"ce4bhi12rcd13ifvqfo0","pricing_plan_id":"cebpf4jnsgd1na2vs0mg"},{"bike_id":"0844fb63-6dda-4c84-ab6a-45dce69d1116","system_id":"levelo_inurba_marseille","lat":43.26193,"lon":5.37933,"is_reserved":false,"is_disabled":true,"rental_uris":{"android":"levelo://app?vid=0844fb63-6dda-4c84-ab6a-45dce69d1116","ios":"levelo://app?vid=0844fb63-6dda-4c84-ab6a-45dce69d1116"},"vehicle_type_id":"4","last_reported":1732709926,"current_range_meters":1200,"station_id":"ce4bhjp2rcd13ifvqg90","pricing_plan_id":"cebpf4jnsgd1na2vs0mg"},{"bike_id":"b709cc44-fbc8-4322-ba7c-ca2e8fd022eb","system_id":"levelo_inurba_marseille","lat":43.30592,"lon":5.39358,"is_reserved":false,"is_disabled":false,"rental_uris":{"android":"levelo://app?vid=b709cc44-fbc8-4322-ba7c-ca2e8fd022eb","ios":"levelo://app?vid=b709cc44-fbc8-4322-ba7c-ca2e8fd022eb"},"vehicle_type_id":"4","last_reported":1732709926,"current_range_meters":30400,"station_id":"ce4bh0p2rcd13ifvqd80","pricing_plan_id":"cebpf4jnsgd1na2vs0mg"},{"bike_id":"7661e34e-ac55-4dca-b4c7-31a506d67932","system_id":"levelo_inurba_marseille","lat":43.2594,"lon":5.40903,"is_reserved":false,"is_disabled":false,"rental_uris":{"android":"levelo://app?vid=7661e34e-ac55-4dca-b4c7-31a506d67932","ios":"levelo://app?vid=7661e34e-ac55-4dca-b4c7-31a506d67932"},"vehicle_type_id":"4","last_reported":1732709926,"current_range_meters":10800,"station_id":"ce4bhm92rcd13ifvqglg","pricing_plan_id":"cebpf4jnsgd1na2vs0mg"},{"bike_id":"e07af2c5-3c4d-41fa-b4a9-8376136eeeb0","system_id":"levelo_inurba_marseille","lat":43.3054,"lon":5.36529,"is_reserved":false,"is_disabled":false,"rental_uris":{"android":"levelo://app?vid=e07af2c5-3c4d-41fa-b4a9-8376136eeeb0","ios":"levelo://app?vid=e07af2c5-3c4d-41fa-b4a9-8376136eeeb0"},"vehicle_type_id":"4","last_reported":1732709926,"current_range_meters":30000,"station_id":"ce4bgs12rcd13ifvqcag","pricing_plan_id":"cebpf4jnsgd1na2vs0mg"},{"bike_id":"807b8862-9f18-47f9-9985-19f11559badb","system_id":"levelo_inurba_marseille","lat":43.33613,"lon":5.41034,"is_reserved":false,"is_disabled":false,"rental_uris":{"android":"levelo://app?vid=807b8862-9f18-47f9-9985-19f11559badb","ios":"levelo://app?vid=807b8862-9f18-47f9-9985-19f11559badb"},"vehicle_type_id":"4","last_reported":1732709926,"current_range_meters":35600,"station_id":"ce4bhqh2rcd13ifvqhmg","pricing_plan_id":"cebpf4jnsgd1na2vs0mg"},{"bike_id":"23ec46d2-63f9-4f62-bae8-093d6665931e","system_id":"levelo_inurba_marseille","lat":43.3055,"lon":5.36534,"is_reserved":false,"is_disabled":false,"rental_uris":{"android":"levelo://app?vid=23ec46d2-63f9-4f62-bae8-093d6665931e","ios":"levelo://app?vid=23ec46d2-63f9-4f62-bae8-093d6665931e"},"vehicle_type_id":"4","last_reported":1732709926,"current_range_meters":12800,"station_id":"ce4bgs12rcd13ifvqcag","pricing_plan_id":"cebpf4jnsgd1na2vs0mg"},{"bike_id":"c257069b-c037-44a3-819c-73c7d1f31e59","system_id":"levelo_inurba_marseille","lat":43.30441,"lon":5.37906,"is_reserved":false,"is_disabled":false,"rental_uris":{"android":"levelo://app?vid=c257069b-c037-44a3-819c-73c7d1f31e59","ios":"levelo://app?vid=c257069b-c037-44a3-819c-73c7d1f31e59"},"vehicle_type_id":"4","last_reported":1732709926,"current_range_meters":6400,"station_id":"ce4bgup2rcd13ifvqcn0","pricing_plan_id":"cebpf4jnsgd1na2vs0mg"},{"bike_id":"2e95a691-d7d8-426b-8dba-47b6b56c6a41","system_id":"levelo_inurba_marseille","lat":43.28154,"lon":5.42639,"is_reserved":false,"is_disabled":true,"rental_uris":{"android":"levelo://app?vid=2e95a691-d7d8-426b-8dba-47b6b56c6a41","ios":"levelo://app?vid=2e95a691-d7d8-426b-8dba-47b6b56c6a41"},"vehicle_type_id":"4","last_reported":1732709926,"current_range_meters":1600,"station_id":"ce4bhnh2rcd13ifvqgug","pricing_plan_id":"cebpf4jnsgd1na2vs0mg"},{"bike_id":"d9aac17f-5c86-4428-b3e4-bc62eba8b8f3","system_id":"levelo_inurba_marseille","lat":43.32366,"lon":5.38885,"is_reserved":false,"is_disabled":false,"rental_uris":{"android":"levelo://app?vid=d9aac17f-5c86-4428-b3e4-bc62eba8b8f3","ios":"levelo://app?vid=d9aac17f-5c86-4428-b3e4-bc62eba8b8f3"},"vehicle_type_id":"4","last_reported":1732709926,"current_range_meters":14000,"station_id":"ce4bhqp2rcd13ifvqhog","pricing_plan_id":"cebpf4jnsgd1na2vs0mg"},{"bike_id":"4fa5df4d-f069-44b7-9c8b-52a3a395e716","system_id":"levelo_inurba_marseille","lat":43.29972,"lon":5.38485,"is_reserved":false,"is_disabled":false,"rental_uris":{"android":"levelo://app?vid=4fa5df4d-f069-44b7-9c8b-52a3a395e716","ios":"levelo://app?vid=4fa5df4d-f069-44b7-9c8b-52a3a395e716"},"vehicle_type_id":"4","last_reported":1732709926,"current_range_meters":12800,"station_id":"ce4bgj92rcd13ifvqbd0","pricing_plan_id":"cebpf4jnsgd1na2vs0mg"},{"bike_id":"fba1ceb6-3cef-4b3a-8f1d-cb2909f800c4","system_id":"levelo_inurba_marseille","lat":43.3133,"lon":5.36724,"is_reserved":false,"is_disabled":false,"rental_uris":{"android":"levelo://app?vid=fba1ceb6-3cef-4b3a-8f1d-cb2909f800c4","ios":"levelo://app?vid=fba1ceb6-3cef-4b3a-8f1d-cb2909f800c4"},"vehicle_type_id":"4","last_reported":1732709926,"current_range_meters":38000,"station_id":"ce4bgr92rcd13ifvqc6g","pricing_plan_id":"cebpf4jnsgd1na2vs0mg"},{"bike_id":"a5848fc1-9c38-4c0f-8cd3-7a1f74903e08","system_id":"levelo_inurba_marseille","lat":43.2318,"lon":5.39984,"is_reserved":false,"is_disabled":false,"rental_uris":{"android":"levelo://app?vid=a5848fc1-9c38-4c0f-8cd3-7a1f74903e08","ios":"levelo://app?vid=a5848fc1-9c38-4c0f-8cd3-7a1f74903e08"},"vehicle_type_id":"4","last_reported":1732709926,"current_range_meters":39200,"station_id":"ce4bhn12rcd13ifvqgqg","pricing_plan_id":"cebpf4jnsgd1na2vs0mg"},{"bike_id":"bf85c0ae-48e0-4e50-a503-48187d5c9650","system_id":"levelo_inurba_marseille","lat":43.30137,"lon":5.37418,"is_reserved":false,"is_disabled":false,"rental_uris":{"android":"levelo://app?vid=bf85c0ae-48e0-4e50-a503-48187d5c9650","ios":"levelo://app?vid=bf85c0ae-48e0-4e50-a503-48187d5c9650"},"vehicle_type_id":"4","last_reported":1732709926,"current_range_meters":38800,"station_id":"ce4bgs92rcd13ifvqcc0","pricing_plan_id":"cebpf4jnsgd1na2vs0mg"},{"bike_id":"16ad57bb-ba2e-4d25-96f6-bb956c61e82c","system_id":"levelo_inurba_marseille","lat":43.23153,"lon":5.43704,"is_reserved":false,"is_disabled":false,"rental_uris":{"android":"levelo://app?vid=16ad57bb-ba2e-4d25-96f6-bb956c61e82c","ios":"levelo://app?vid=16ad57bb-ba2e-4d25-96f6-bb956c61e82c"},"vehicle_type_id":"4","last_reported":1732709926,"current_range_meters":30400,"station_id":"ce4bhmp2rcd13ifvqgog","pricing_plan_id":"cebpf4jnsgd1na2vs0mg"},{"bike_id":"1606c510-b735-4fc8-8ac9-1879292672fd","system_id":"levelo_inurba_marseille","lat":43.25868,"lon":5.39899,"is_reserved":false,"is_disabled":false,"rental_uris":{"android":"levelo://app?vid=1606c510-b735-4fc8-8ac9-1879292672fd","ios":"levelo://app?vid=1606c510-b735-4fc8-8ac9-1879292672fd"},"vehicle_type_id":"4","last_reported":1732709926,"current_range_meters":7200,"station_id":"ce4bhl92rcd13ifvqghg","pricing_plan_id":"cebpf4jnsgd1na2vs0mg"},{"bike_id":"858b65e1-94fc-4151-a71e-8b168cb19dcb","system_id":"levelo_inurba_marseille","lat":43.32249,"lon":5.39241,"is_reserved":false,"is_disabled":true,"rental_uris":{"android":"levelo://app?vid=858b65e1-94fc-4151-a71e-8b168cb19dcb","ios":"levelo://app?vid=858b65e1-94fc-4151-a71e-8b168cb19dcb"},"vehicle_type_id":"4","last_reported":1732709926,"current_range_meters":0,"station_id":"","pricing_plan_id":"cebpf4jnsgd1na2vs0mg"},{"bike_id":"02c559f3-423a-4496-aa44-51d2fc858b99","system_id":"levelo_inurba_marseille","lat":43.2841,"lon":5.37516,"is_reserved":false,"is_disabled":false,"rental_uris":{"android":"levelo://app?vid=02c559f3-423a-4496-aa44-51d2fc858b99","ios":"levelo://app?vid=02c559f3-423a-4496-aa44-51d2fc858b99"},"vehicle_type_id":"4","last_reported":1732709926,"current_range_meters":17200,"station_id":"ce4bh412rcd13ifvqds0","pricing_plan_id":"cebpf4jnsgd1na2vs0mg"},{"bike_id":"e51b2acb-d883-446b-9ce9-347608453ece","system_id":"levelo_inurba_marseille","lat":43.2293,"lon":5.35372,"is_reserved":false,"is_disabled":false,"rental_uris":{"android":"levelo://app?vid=e51b2acb-d883-446b-9ce9-347608453ece","ios":"levelo://app?vid=e51b2acb-d883-446b-9ce9-347608453ece"},"vehicle_type_id":"4","last_reported":1732709926,"current_range_meters":36800,"station_id":"cpo3532slgdg3j2ikp40","pricing_plan_id":"cebpf4jnsgd1na2vs0mg"},{"bike_id":"94f6a5ef-00a9-4a70-8b9f-bfe3c813ca39","system_id":"levelo_inurba_marseille","lat":43.30439,"lon":5.38887,"is_reserved":false,"is_disabled":false,"rental_uris":{"android":"levelo://app?vid=94f6a5ef-00a9-4a70-8b9f-bfe3c813ca39","ios":"levelo://app?vid=94f6a5ef-00a9-4a70-8b9f-bfe3c813ca39"},"vehicle_type_id":"4","last_reported":1732709926,"current_range_meters":5600,"station_id":"ce4bgk12rcd13ifvqbi0","pricing_plan_id":"cebpf4jnsgd1na2vs0mg"},{"bike_id":"56426cf3-51f3-4b04-a2da-b55bfcad1071","system_id":"levelo_inurba_marseille","lat":43.29704,"lon":5.36621,"is_reserved":false,"is_disabled":true,"rental_uris":{"android":"levelo://app?vid=56426cf3-51f3-4b04-a2da-b55bfcad1071","ios":"levelo://app?vid=56426cf3-51f3-4b04-a2da-b55bfcad1071"},"vehicle_type_id":"4","last_reported":1732709926,"current_range_meters":17200,"station_id":"ce4bgn12rcd13ifvqbt0","pricing_plan_id":"cebpf4jnsgd1na2vs0mg"},{"bike_id":"54bb3cdf-d18a-4eef-ba70-e40ad02ec072","system_id":"levelo_inurba_marseille","lat":43.28084,"lon":5.39648,"is_reserved":false,"is_disabled":false,"rental_uris":{"android":"levelo://app?vid=54bb3cdf-d18a-4eef-ba70-e40ad02ec072","ios":"levelo://app?vid=54bb3cdf-d18a-4eef-ba70-e40ad02ec072"},"vehicle_type_id":"4","last_reported":1732709926,"current_range_meters":16400,"station_id":"ce4bho12rcd13ifvqh2g","pricing_plan_id":"cebpf4jnsgd1na2vs0mg"},{"bike_id":"6a84fe5c-81fa-4ede-b74d-0690303fc0a8","system_id":"levelo_inurba_marseille","lat":43.30536,"lon":5.36528,"is_reserved":false,"is_disabled":false,"rental_uris":{"android":"levelo://app?vid=6a84fe5c-81fa-4ede-b74d-0690303fc0a8","ios":"levelo://app?vid=6a84fe5c-81fa-4ede-b74d-0690303fc0a8"},"vehicle_type_id":"4","last_reported":1732709926,"current_range_meters":39200,"station_id":"ce4bgs12rcd13ifvqcag","pricing_plan_id":"cebpf4jnsgd1na2vs0mg"},{"bike_id":"ee1ef14e-ff49-4b7c-a2e1-7e180ec32e1a","system_id":"levelo_inurba_marseille","lat":43.2318,"lon":5.39988,"is_reserved":false,"is_disabled":false,"rental_uris":{"android":"levelo://app?vid=ee1ef14e-ff49-4b7c-a2e1-7e180ec32e1a","ios":"levelo://app?vid=ee1ef14e-ff49-4b7c-a2e1-7e180ec32e1a"},"vehicle_type_id":"4","last_reported":1732709926,"current_range_meters":16000,"station_id":"ce4bhn12rcd13ifvqgqg","pricing_plan_id":"cebpf4jnsgd1na2vs0mg"},{"bike_id":"4a5edd1c-4bfe-4fd8-af74-a6a894c0c2cb","system_id":"levelo_inurba_marseille","lat":43.25861,"lon":5.39896,"is_reserved":false,"is_disabled":false,"rental_uris":{"android":"levelo://app?vid=4a5edd1c-4bfe-4fd8-af74-a6a894c0c2cb","ios":"levelo://app?vid=4a5edd1c-4bfe-4fd8-af74-a6a894c0c2cb"},"vehicle_type_id":"4","last_reported":1732709926,"current_range_meters":36400,"station_id":"ce4bhl92rcd13ifvqghg","pricing_plan_id":"cebpf4jnsgd1na2vs0mg"},{"bike_id":"f7f3756c-1ec7-4782-9c87-6273f87b6774","system_id":"levelo_inurba_marseille","lat":43.337444,"lon":5.374475,"is_reserved":false,"is_disabled":true,"rental_uris":{"android":"levelo://app?vid=f7f3756c-1ec7-4782-9c87-6273f87b6774","ios":"levelo://app?vid=f7f3756c-1ec7-4782-9c87-6273f87b6774"},"vehicle_type_id":"4","last_reported":1732709926,"current_range_meters":14800,"station_id":"","pricing_plan_id":"cebpf4jnsgd1na2vs0mg"},{"bike_id":"9a7fc65c-a473-4df1-8da8-b97e38cbdb89","system_id":"levelo_inurba_marseille","lat":43.23157,"lon":5.43687,"is_reserved":false,"is_disabled":false,"rental_uris":{"android":"levelo://app?vid=9a7fc65c-a473-4df1-8da8-b97e38cbdb89","ios":"levelo://app?vid=9a7fc65c-a473-4df1-8da8-b97e38cbdb89"},"vehicle_type_id":"4","last_reported":1732709926,"current_range_meters":38800,"station_id":"ce4bhmp2rcd13ifvqgog","pricing_plan_id":"cebpf4jnsgd1na2vs0mg"},{"bike_id":"5ad94f11-d0cb-4d81-815c-d14c511fb2a1","system_id":"levelo_inurba_marseille","lat":43.24175,"lon":5.39728,"is_reserved":false,"is_disabled":true,"rental_uris":{"android":"levelo://app?vid=5ad94f11-d0cb-4d81-815c-d14c511fb2a1","ios":"levelo://app?vid=5ad94f11-d0cb-4d81-815c-d14c511fb2a1"},"vehicle_type_id":"4","last_reported":1732709926,"current_range_meters":2800,"station_id":"ce4bhn12rcd13ifvqgpg","pricing_plan_id":"cebpf4jnsgd1na2vs0mg"},{"bike_id":"5ac84619-8500-415b-9629-5dc640523aaa","system_id":"levelo_inurba_marseille","lat":43.29531,"lon":5.3751,"is_reserved":false,"is_disabled":true,"rental_uris":{"android":"levelo://app?vid=5ac84619-8500-415b-9629-5dc640523aaa","ios":"levelo://app?vid=5ac84619-8500-415b-9629-5dc640523aaa"},"vehicle_type_id":"4","last_reported":1732709926,"current_range_meters":11200,"station_id":"ce4bgkp2rcd13ifvqbmg","pricing_plan_id":"cebpf4jnsgd1na2vs0mg"},{"bike_id":"79248b71-e381-4425-958e-44a988ca2b76","system_id":"levelo_inurba_marseille","lat":43.23151,"lon":5.43717,"is_reserved":false,"is_disabled":false,"rental_uris":{"android":"levelo://app?vid=79248b71-e381-4425-958e-44a988ca2b76","ios":"levelo://app?vid=79248b71-e381-4425-958e-44a988ca2b76"},"vehicle_type_id":"4","last_reported":1732709926,"current_range_meters":38800,"station_id":"ce4bhmp2rcd13ifvqgog","pricing_plan_id":"cebpf4jnsgd1na2vs0mg"},{"bike_id":"28d6967f-046a-461c-a6d1-c946ec18eef5","system_id":"levelo_inurba_marseille","lat":43.25866,"lon":5.39901,"is_reserved":false,"is_disabled":false,"rental_uris":{"android":"levelo://app?vid=28d6967f-046a-461c-a6d1-c946ec18eef5","ios":"levelo://app?vid=28d6967f-046a-461c-a6d1-c946ec18eef5"},"vehicle_type_id":"4","last_reported":1732709926,"current_range_meters":27200,"station_id":"ce4bhl92rcd13ifvqghg","pricing_plan_id":"cebpf4jnsgd1na2vs0mg"},{"bike_id":"aafa7b12-3750-47ea-ad34-1e9e60140baa","system_id":"levelo_inurba_marseille","lat":43.3054,"lon":5.3654,"is_reserved":false,"is_disabled":false,"rental_uris":{"android":"levelo://app?vid=aafa7b12-3750-47ea-ad34-1e9e60140baa","ios":"levelo://app?vid=aafa7b12-3750-47ea-ad34-1e9e60140baa"},"vehicle_type_id":"4","last_reported":1732709926,"current_range_meters":27200,"station_id":"ce4bgs12rcd13ifvqcag","pricing_plan_id":"cebpf4jnsgd1na2vs0mg"},{"bike_id":"5beeafd9-fc35-4444-8f38-3d5aae2d23a8","system_id":"levelo_inurba_marseille","lat":43.32473,"lon":5.36565,"is_reserved":false,"is_disabled":false,"rental_uris":{"android":"levelo://app?vid=5beeafd9-fc35-4444-8f38-3d5aae2d23a8","ios":"levelo://app?vid=5beeafd9-fc35-4444-8f38-3d5aae2d23a8"},"vehicle_type_id":"4","last_reported":1732709926,"current_range_meters":14000,"station_id":"ce4bhs12rcd13ifvqhvg","pricing_plan_id":"cebpf4jnsgd1na2vs0mg"},{"bike_id":"c290e3ee-edf5-4c4d-b953-958ea8287c5d","system_id":"levelo_inurba_marseille","lat":43.26211,"lon":5.37443,"is_reserved":false,"is_disabled":false,"rental_uris":{"android":"levelo://app?vid=c290e3ee-edf5-4c4d-b953-958ea8287c5d","ios":"levelo://app?vid=c290e3ee-edf5-4c4d-b953-958ea8287c5d"},"vehicle_type_id":"4","last_reported":1732709926,"current_range_meters":28800,"station_id":"ce4bhgp2rcd13ifvqfc0","pricing_plan_id":"cebpf4jnsgd1na2vs0mg"},{"bike_id":"3a029acb-f099-411b-b6a2-97719721ed6e","system_id":"levelo_inurba_marseille","lat":43.24991,"lon":5.38928,"is_reserved":false,"is_disabled":false,"rental_uris":{"android":"levelo://app?vid=3a029acb-f099-411b-b6a2-97719721ed6e","ios":"levelo://app?vid=3a029acb-f099-411b-b6a2-97719721ed6e"},"vehicle_type_id":"4","last_reported":1732709926,"current_range_meters":38800,"station_id":"ce4bhgp2rcd13ifvqfd0","pricing_plan_id":"cebpf4jnsgd1na2vs0mg"},{"bike_id":"3e36b179-8b9c-4fdb-924e-000fefe040c7","system_id":"levelo_inurba_marseille","lat":43.29529,"lon":5.39406,"is_reserved":false,"is_disabled":false,"rental_uris":{"android":"levelo://app?vid=3e36b179-8b9c-4fdb-924e-000fefe040c7","ios":"levelo://app?vid=3e36b179-8b9c-4fdb-924e-000fefe040c7"},"vehicle_type_id":"4","last_reported":1732709926,"current_range_meters":8000,"station_id":"ce4bh292rcd13ifvqdf0","pricing_plan_id":"cebpf4jnsgd1na2vs0mg"},{"bike_id":"5e7c43af-be7b-4083-8d76-732b367f70dc","system_id":"levelo_inurba_marseille","lat":43.29022,"lon":5.38645,"is_reserved":false,"is_disabled":false,"rental_uris":{"android":"levelo://app?vid=5e7c43af-be7b-4083-8d76-732b367f70dc","ios":"levelo://app?vid=5e7c43af-be7b-4083-8d76-732b367f70dc"},"vehicle_type_id":"4","last_reported":1732709926,"current_range_meters":16000,"station_id":"ce4bh4p2rcd13ifvqe0g","pricing_plan_id":"cebpf4jnsgd1na2vs0mg"},{"bike_id":"4da26fef-7a86-4287-b4dc-b4351e762df3","system_id":"levelo_inurba_marseille","lat":43.25863,"lon":5.399,"is_reserved":false,"is_disabled":false,"rental_uris":{"android":"levelo://app?vid=4da26fef-7a86-4287-b4dc-b4351e762df3","ios":"levelo://app?vid=4da26fef-7a86-4287-b4dc-b4351e762df3"},"vehicle_type_id":"4","last_reported":1732709926,"current_range_meters":8800,"station_id":"ce4bhl92rcd13ifvqghg","pricing_plan_id":"cebpf4jnsgd1na2vs0mg"},{"bike_id":"7fdde228-10df-4be8-8fb5-926479069c56","system_id":"levelo_inurba_marseille","lat":43.295368,"lon":5.390672,"is_reserved":false,"is_disabled":false,"rental_uris":{"android":"levelo://app?vid=7fdde228-10df-4be8-8fb5-926479069c56","ios":"levelo://app?vid=7fdde228-10df-4be8-8fb5-926479069c56"},"vehicle_type_id":"4","last_reported":1732709926,"current_range_meters":16400,"station_id":"ce4bh3p2rcd13ifvqdp0","pricing_plan_id":"cebpf4jnsgd1na2vs0mg"},{"bike_id":"a5909545-3e09-4859-9fda-9ffe4e6e4883","system_id":"levelo_inurba_marseille","lat":43.23065,"lon":5.35491,"is_reserved":false,"is_disabled":false,"rental_uris":{"android":"levelo://app?vid=a5909545-3e09-4859-9fda-9ffe4e6e4883","ios":"levelo://app?vid=a5909545-3e09-4859-9fda-9ffe4e6e4883"},"vehicle_type_id":"4","last_reported":1732709926,"current_range_meters":27600,"station_id":"cpo3342slgdg3j2ifvpg","pricing_plan_id":"cebpf4jnsgd1na2vs0mg"},{"bike_id":"94e74e68-fc80-4a5d-9d32-b0be55f7ac19","system_id":"levelo_inurba_marseille","lat":43.32539,"lon":5.41431,"is_reserved":false,"is_disabled":false,"rental_uris":{"android":"levelo://app?vid=94e74e68-fc80-4a5d-9d32-b0be55f7ac19","ios":"levelo://app?vid=94e74e68-fc80-4a5d-9d32-b0be55f7ac19"},"vehicle_type_id":"4","last_reported":1732709926,"current_range_meters":12800,"station_id":"ce4bhq12rcd13ifvqhhg","pricing_plan_id":"cebpf4jnsgd1na2vs0mg"},{"bike_id":"5be1675a-51c4-474f-8f58-627231db95d5","system_id":"levelo_inurba_marseille","lat":43.321,"lon":5.36777,"is_reserved":false,"is_disabled":false,"rental_uris":{"android":"levelo://app?vid=5be1675a-51c4-474f-8f58-627231db95d5","ios":"levelo://app?vid=5be1675a-51c4-474f-8f58-627231db95d5"},"vehicle_type_id":"4","last_reported":1732709926,"current_range_meters":25600,"station_id":"ce4bhrh2rcd13ifvqhug","pricing_plan_id":"cebpf4jnsgd1na2vs0mg"},{"bike_id":"945df11d-ba9a-4aab-a3f2-fbf39aa3c1d6","system_id":"levelo_inurba_marseille","lat":43.23179,"lon":5.39984,"is_reserved":false,"is_disabled":false,"rental_uris":{"android":"levelo://app?vid=945df11d-ba9a-4aab-a3f2-fbf39aa3c1d6","ios":"levelo://app?vid=945df11d-ba9a-4aab-a3f2-fbf39aa3c1d6"},"vehicle_type_id":"4","last_reported":1732709926,"current_range_meters":11600,"station_id":"ce4bhn12rcd13ifvqgqg","pricing_plan_id":"cebpf4jnsgd1na2vs0mg"},{"bike_id":"d462ebfb-be2d-4203-8c9f-8a884882db03","system_id":"levelo_inurba_marseille","lat":43.29934,"lon":5.36545,"is_reserved":false,"is_disabled":false,"rental_uris":{"android":"levelo://app?vid=d462ebfb-be2d-4203-8c9f-8a884882db03","ios":"levelo://app?vid=d462ebfb-be2d-4203-8c9f-8a884882db03"},"vehicle_type_id":"4","last_reported":1732709926,"current_range_meters":28000,"station_id":"ce4bgm92rcd13ifvqbr0","pricing_plan_id":"cebpf4jnsgd1na2vs0mg"},{"bike_id":"e5951ee3-4a5a-4ebb-b469-096c5188dfa3","system_id":"levelo_inurba_marseille","lat":43.23185,"lon":5.35563,"is_reserved":false,"is_disabled":false,"rental_uris":{"android":"levelo://app?vid=e5951ee3-4a5a-4ebb-b469-096c5188dfa3","ios":"levelo://app?vid=e5951ee3-4a5a-4ebb-b469-096c5188dfa3"},"vehicle_type_id":"4","last_reported":1732709926,"current_range_meters":32000,"station_id":"ce4bhu92rcd13ifvqi70","pricing_plan_id":"cebpf4jnsgd1na2vs0mg"},{"bike_id":"f5ced30d-226f-4346-bf62-37f37846f9d7","system_id":"levelo_inurba_marseille","lat":43.29793,"lon":5.38093,"is_reserved":false,"is_disabled":true,"rental_uris":{"android":"levelo://app?vid=f5ced30d-226f-4346-bf62-37f37846f9d7","ios":"levelo://app?vid=f5ced30d-226f-4346-bf62-37f37846f9d7"},"vehicle_type_id":"4","last_reported":1732709926,"current_range_meters":13600,"station_id":"ce4bgip2rcd13ifvqbb0","pricing_plan_id":"cebpf4jnsgd1na2vs0mg"},{"bike_id":"40b898c5-6229-4a33-9216-67f9bdb4e321","system_id":"levelo_inurba_marseille","lat":43.31282,"lon":5.38288,"is_reserved":false,"is_disabled":false,"rental_uris":{"android":"levelo://app?vid=40b898c5-6229-4a33-9216-67f9bdb4e321","ios":"levelo://app?vid=40b898c5-6229-4a33-9216-67f9bdb4e321"},"vehicle_type_id":"4","last_reported":1732709926,"current_range_meters":20400,"station_id":"","pricing_plan_id":"cebpf4jnsgd1na2vs0mg"},{"bike_id":"4408530d-80dd-4edf-96e8-e63a6d6d0e41","system_id":"levelo_inurba_marseille","lat":43.29799,"lon":5.40408,"is_reserved":false,"is_disabled":false,"rental_uris":{"android":"levelo://app?vid=4408530d-80dd-4edf-96e8-e63a6d6d0e41","ios":"levelo://app?vid=4408530d-80dd-4edf-96e8-e63a6d6d0e41"},"vehicle_type_id":"4","last_reported":1732709926,"current_range_meters":25600,"station_id":"ce4bh112rcd13ifvqd90","pricing_plan_id":"cebpf4jnsgd1na2vs0mg"},{"bike_id":"fc1423e1-064f-41a3-8bc1-92d7099a8189","system_id":"levelo_inurba_marseille","lat":43.29728,"lon":5.37691,"is_reserved":false,"is_disabled":false,"rental_uris":{"android":"levelo://app?vid=fc1423e1-064f-41a3-8bc1-92d7099a8189","ios":"levelo://app?vid=fc1423e1-064f-41a3-8bc1-92d7099a8189"},"vehicle_type_id":"4","last_reported":1732709926,"current_range_meters":7200,"station_id":"ce4bgkh2rcd13ifvqbl0","pricing_plan_id":"cebpf4jnsgd1na2vs0mg"},{"bike_id":"6c948e9c-d5b3-4fe5-a918-1bd2f7c83b02","system_id":"levelo_inurba_marseille","lat":43.32111,"lon":5.3677,"is_reserved":false,"is_disabled":false,"rental_uris":{"android":"levelo://app?vid=6c948e9c-d5b3-4fe5-a918-1bd2f7c83b02","ios":"levelo://app?vid=6c948e9c-d5b3-4fe5-a918-1bd2f7c83b02"},"vehicle_type_id":"4","last_reported":1732709926,"current_range_meters":12800,"station_id":"ce4bhrh2rcd13ifvqhug","pricing_plan_id":"cebpf4jnsgd1na2vs0mg"},{"bike_id":"4212ff09-0c92-4828-8add-9eb7bf7305ba","system_id":"levelo_inurba_marseille","lat":43.29765,"lon":5.38173,"is_reserved":false,"is_disabled":true,"rental_uris":{"android":"levelo://app?vid=4212ff09-0c92-4828-8add-9eb7bf7305ba","ios":"levelo://app?vid=4212ff09-0c92-4828-8add-9eb7bf7305ba"},"vehicle_type_id":"4","last_reported":1732709926,"current_range_meters":38800,"station_id":"ce4bgip2rcd13ifvqbb0","pricing_plan_id":"cebpf4jnsgd1na2vs0mg"},{"bike_id":"98956104-d8e2-4ab7-b1ac-50af97075609","system_id":"levelo_inurba_marseille","lat":43.25108,"lon":5.40326,"is_reserved":false,"is_disabled":false,"rental_uris":{"android":"levelo://app?vid=98956104-d8e2-4ab7-b1ac-50af97075609","ios":"levelo://app?vid=98956104-d8e2-4ab7-b1ac-50af97075609"},"vehicle_type_id":"4","last_reported":1732709926,"current_range_meters":34000,"station_id":"ce4bhlh2rcd13ifvqgig","pricing_plan_id":"cebpf4jnsgd1na2vs0mg"},{"bike_id":"319db8f6-ad1c-4b46-ad57-5033d5ed25eb","system_id":"levelo_inurba_marseille","lat":43.25664,"lon":5.41068,"is_reserved":false,"is_disabled":false,"rental_uris":{"android":"levelo://app?vid=319db8f6-ad1c-4b46-ad57-5033d5ed25eb","ios":"levelo://app?vid=319db8f6-ad1c-4b46-ad57-5033d5ed25eb"},"vehicle_type_id":"4","last_reported":1732709926,"current_range_meters":18800,"station_id":"","pricing_plan_id":"cebpf4jnsgd1na2vs0mg"},{"bike_id":"5c53cfbd-2547-413a-b79a-f8cc3b1ca992","system_id":"levelo_inurba_marseille","lat":43.3211,"lon":5.3678,"is_reserved":false,"is_disabled":false,"rental_uris":{"android":"levelo://app?vid=5c53cfbd-2547-413a-b79a-f8cc3b1ca992","ios":"levelo://app?vid=5c53cfbd-2547-413a-b79a-f8cc3b1ca992"},"vehicle_type_id":"4","last_reported":1732709926,"current_range_meters":28000,"station_id":"ce4bhrh2rcd13ifvqhug","pricing_plan_id":"cebpf4jnsgd1na2vs0mg"},{"bike_id":"1ab7eff9-ce5b-49dc-83e3-392ac2cf75fb","system_id":"levelo_inurba_marseille","lat":43.25862,"lon":5.39923,"is_reserved":false,"is_disabled":false,"rental_uris":{"android":"levelo://app?vid=1ab7eff9-ce5b-49dc-83e3-392ac2cf75fb","ios":"levelo://app?vid=1ab7eff9-ce5b-49dc-83e3-392ac2cf75fb"},"vehicle_type_id":"4","last_reported":1732709926,"current_range_meters":36400,"station_id":"ce4bhl92rcd13ifvqghg","pricing_plan_id":"cebpf4jnsgd1na2vs0mg"},{"bike_id":"fb270e8d-41be-4f6a-aa67-3213668ac662","system_id":"levelo_inurba_marseille","lat":43.26551,"lon":5.37283,"is_reserved":false,"is_disabled":false,"rental_uris":{"android":"levelo://app?vid=fb270e8d-41be-4f6a-aa67-3213668ac662","ios":"levelo://app?vid=fb270e8d-41be-4f6a-aa67-3213668ac662"},"vehicle_type_id":"4","last_reported":1732709926,"current_range_meters":36000,"station_id":"ce4bhg12rcd13ifvqf70","pricing_plan_id":"cebpf4jnsgd1na2vs0mg"},{"bike_id":"606f1b59-dfdf-4061-9b9b-42db383c3d38","system_id":"levelo_inurba_marseille","lat":43.30377,"lon":5.38674,"is_reserved":false,"is_disabled":false,"rental_uris":{"android":"levelo://app?vid=606f1b59-dfdf-4061-9b9b-42db383c3d38","ios":"levelo://app?vid=606f1b59-dfdf-4061-9b9b-42db383c3d38"},"vehicle_type_id":"4","last_reported":1732709926,"current_range_meters":26000,"station_id":"","pricing_plan_id":"cebpf4jnsgd1na2vs0mg"},{"bike_id":"bf39c46e-128c-40e0-a7c3-0a0e66714d8f","system_id":"levelo_inurba_marseille","lat":43.31327,"lon":5.39699,"is_reserved":false,"is_disabled":true,"rental_uris":{"android":"levelo://app?vid=bf39c46e-128c-40e0-a7c3-0a0e66714d8f","ios":"levelo://app?vid=bf39c46e-128c-40e0-a7c3-0a0e66714d8f"},"vehicle_type_id":"4","last_reported":1732709926,"current_range_meters":1200,"station_id":"ce4bgvp2rcd13ifvqcu0","pricing_plan_id":"cebpf4jnsgd1na2vs0mg"},{"bike_id":"d7d3efe9-1788-45c6-bd51-33c58ae43549","system_id":"levelo_inurba_marseille","lat":43.30538,"lon":5.36535,"is_reserved":false,"is_disabled":false,"rental_uris":{"android":"levelo://app?vid=d7d3efe9-1788-45c6-bd51-33c58ae43549","ios":"levelo://app?vid=d7d3efe9-1788-45c6-bd51-33c58ae43549"},"vehicle_type_id":"4","last_reported":1732709926,"current_range_meters":22800,"station_id":"ce4bgs12rcd13ifvqcag","pricing_plan_id":"cebpf4jnsgd1na2vs0mg"},{"bike_id":"b91329c5-4df8-4f40-9312-63b341d8a3c3","system_id":"levelo_inurba_marseille","lat":43.29403,"lon":5.41164,"is_reserved":false,"is_disabled":false,"rental_uris":{"android":"levelo://app?vid=b91329c5-4df8-4f40-9312-63b341d8a3c3","ios":"levelo://app?vid=b91329c5-4df8-4f40-9312-63b341d8a3c3"},"vehicle_type_id":"4","last_reported":1732709926,"current_range_meters":28800,"station_id":"ce4bhph2rcd13ifvqhdg","pricing_plan_id":"cebpf4jnsgd1na2vs0mg"},{"bike_id":"c32aafd8-8905-4559-a1d0-f74aa7efcf0e","system_id":"levelo_inurba_marseille","lat":43.338,"lon":5.37474,"is_reserved":false,"is_disabled":false,"rental_uris":{"android":"levelo://app?vid=c32aafd8-8905-4559-a1d0-f74aa7efcf0e","ios":"levelo://app?vid=c32aafd8-8905-4559-a1d0-f74aa7efcf0e"},"vehicle_type_id":"4","last_reported":1732709926,"current_range_meters":38000,"station_id":"","pricing_plan_id":"cebpf4jnsgd1na2vs0mg"},{"bike_id":"731439ac-1f9e-4230-a11d-053ca709af4f","system_id":"levelo_inurba_marseille","lat":43.30146,"lon":5.37423,"is_reserved":false,"is_disabled":false,"rental_uris":{"android":"levelo://app?vid=731439ac-1f9e-4230-a11d-053ca709af4f","ios":"levelo://app?vid=731439ac-1f9e-4230-a11d-053ca709af4f"},"vehicle_type_id":"4","last_reported":1732709926,"current_range_meters":39200,"station_id":"ce4bgs92rcd13ifvqcc0","pricing_plan_id":"cebpf4jnsgd1na2vs0mg"},{"bike_id":"fc17c41a-b334-4870-ae03-e7b919a2d987","system_id":"levelo_inurba_marseille","lat":43.3014,"lon":5.37428,"is_reserved":false,"is_disabled":false,"rental_uris":{"android":"levelo://app?vid=fc17c41a-b334-4870-ae03-e7b919a2d987","ios":"levelo://app?vid=fc17c41a-b334-4870-ae03-e7b919a2d987"},"vehicle_type_id":"4","last_reported":1732709926,"current_range_meters":33600,"station_id":"ce4bgs92rcd13ifvqcc0","pricing_plan_id":"cebpf4jnsgd1na2vs0mg"},{"bike_id":"3c04ddbe-8101-4125-b619-851a071c7550","system_id":"levelo_inurba_marseille","lat":43.28969,"lon":5.37844,"is_reserved":false,"is_disabled":false,"rental_uris":{"android":"levelo://app?vid=3c04ddbe-8101-4125-b619-851a071c7550","ios":"levelo://app?vid=3c04ddbe-8101-4125-b619-851a071c7550"},"vehicle_type_id":"4","last_reported":1732709926,"current_range_meters":18000,"station_id":"ce4bh9p2rcd13ifvqed0","pricing_plan_id":"cebpf4jnsgd1na2vs0mg"},{"bike_id":"0dbf4a25-0b81-4076-980f-2de46488ffa7","system_id":"levelo_inurba_marseille","lat":43.28614,"lon":5.35101,"is_reserved":false,"is_disabled":true,"rental_uris":{"android":"levelo://app?vid=0dbf4a25-0b81-4076-980f-2de46488ffa7","ios":"levelo://app?vid=0dbf4a25-0b81-4076-980f-2de46488ffa7"},"vehicle_type_id":"4","last_reported":1732709926,"current_range_meters":13600,"station_id":"ce4bhch2rcd13ifvqeug","pricing_plan_id":"cebpf4jnsgd1na2vs0mg"},{"bike_id":"b0532d77-a652-43de-8ae1-079cd29bfc13","system_id":"levelo_inurba_marseille","lat":43.32366,"lon":5.38886,"is_reserved":false,"is_disabled":false,"rental_uris":{"android":"levelo://app?vid=b0532d77-a652-43de-8ae1-079cd29bfc13","ios":"levelo://app?vid=b0532d77-a652-43de-8ae1-079cd29bfc13"},"vehicle_type_id":"4","last_reported":1732709926,"current_range_meters":20000,"station_id":"ce4bhqp2rcd13ifvqhog","pricing_plan_id":"cebpf4jnsgd1na2vs0mg"},{"bike_id":"43746d86-8a13-4845-9faf-ae69b548d714","system_id":"levelo_inurba_marseille","lat":43.29459,"lon":5.37917,"is_reserved":false,"is_disabled":true,"rental_uris":{"android":"levelo://app?vid=43746d86-8a13-4845-9faf-ae69b548d714","ios":"levelo://app?vid=43746d86-8a13-4845-9faf-ae69b548d714"},"vehicle_type_id":"4","last_reported":1732709926,"current_range_meters":0,"station_id":"","pricing_plan_id":"cebpf4jnsgd1na2vs0mg"},{"bike_id":"df76b7bf-b879-4e94-9796-439ee296ef0a","system_id":"levelo_inurba_marseille","lat":43.22925,"lon":5.35381,"is_reserved":false,"is_disabled":false,"rental_uris":{"android":"levelo://app?vid=df76b7bf-b879-4e94-9796-439ee296ef0a","ios":"levelo://app?vid=df76b7bf-b879-4e94-9796-439ee296ef0a"},"vehicle_type_id":"4","last_reported":1732709926,"current_range_meters":38000,"station_id":"cpo3532slgdg3j2ikp40","pricing_plan_id":"cebpf4jnsgd1na2vs0mg"},{"bike_id":"bb079e97-5287-4d2e-98e5-c2c44945d341","system_id":"levelo_inurba_marseille","lat":43.30558,"lon":5.36529,"is_reserved":false,"is_disabled":false,"rental_uris":{"android":"levelo://app?vid=bb079e97-5287-4d2e-98e5-c2c44945d341","ios":"levelo://app?vid=bb079e97-5287-4d2e-98e5-c2c44945d341"},"vehicle_type_id":"4","last_reported":1732709926,"current_range_meters":36400,"station_id":"ce4bgs12rcd13ifvqcag","pricing_plan_id":"cebpf4jnsgd1na2vs0mg"},{"bike_id":"37f04e0d-7fd2-40a9-9589-db4de90a2f1a","system_id":"levelo_inurba_marseille","lat":43.25865,"lon":5.39899,"is_reserved":false,"is_disabled":false,"rental_uris":{"android":"levelo://app?vid=37f04e0d-7fd2-40a9-9589-db4de90a2f1a","ios":"levelo://app?vid=37f04e0d-7fd2-40a9-9589-db4de90a2f1a"},"vehicle_type_id":"4","last_reported":1732709926,"current_range_meters":38800,"station_id":"ce4bhl92rcd13ifvqghg","pricing_plan_id":"cebpf4jnsgd1na2vs0mg"},{"bike_id":"e429a23d-08fa-43bc-a99f-41dd20232034","system_id":"levelo_inurba_marseille","lat":43.26302,"lon":5.39864,"is_reserved":false,"is_disabled":true,"rental_uris":{"android":"levelo://app?vid=e429a23d-08fa-43bc-a99f-41dd20232034","ios":"levelo://app?vid=e429a23d-08fa-43bc-a99f-41dd20232034"},"vehicle_type_id":"4","last_reported":1732709926,"current_range_meters":0,"station_id":"","pricing_plan_id":"cebpf4jnsgd1na2vs0mg"},{"bike_id":"433594dd-3143-4e7f-a22e-08a0d43cb146","system_id":"levelo_inurba_marseille","lat":43.26938,"lon":5.40254,"is_reserved":false,"is_disabled":false,"rental_uris":{"android":"levelo://app?vid=433594dd-3143-4e7f-a22e-08a0d43cb146","ios":"levelo://app?vid=433594dd-3143-4e7f-a22e-08a0d43cb146"},"vehicle_type_id":"4","last_reported":1732709926,"current_range_meters":38800,"station_id":"cjm6bp8fraef2m0cb0m0","pricing_plan_id":"cebpf4jnsgd1na2vs0mg"},{"bike_id":"3faf8b2f-845f-4fd3-8bc7-04d1158d9692","system_id":"levelo_inurba_marseille","lat":43.33023,"lon":5.39044,"is_reserved":false,"is_disabled":false,"rental_uris":{"android":"levelo://app?vid=3faf8b2f-845f-4fd3-8bc7-04d1158d9692","ios":"levelo://app?vid=3faf8b2f-845f-4fd3-8bc7-04d1158d9692"},"vehicle_type_id":"4","last_reported":1732709926,"current_range_meters":24000,"station_id":"ce4bhr92rcd13ifvqhrg","pricing_plan_id":"cebpf4jnsgd1na2vs0mg"},{"bike_id":"c38bafd9-d2ff-4d8a-8bf3-f36a7e655c1d","system_id":"levelo_inurba_marseille","lat":43.24644,"lon":5.38899,"is_reserved":false,"is_disabled":false,"rental_uris":{"android":"levelo://app?vid=c38bafd9-d2ff-4d8a-8bf3-f36a7e655c1d","ios":"levelo://app?vid=c38bafd9-d2ff-4d8a-8bf3-f36a7e655c1d"},"vehicle_type_id":"4","last_reported":1732709926,"current_range_meters":28000,"station_id":"ce4bhg12rcd13ifvqf60","pricing_plan_id":"cebpf4jnsgd1na2vs0mg"},{"bike_id":"925d9d68-1b01-45a4-af19-d1a58d7476b9","system_id":"levelo_inurba_marseille","lat":43.312042,"lon":5.367348,"is_reserved":false,"is_disabled":true,"rental_uris":{"android":"levelo://app?vid=925d9d68-1b01-45a4-af19-d1a58d7476b9","ios":"levelo://app?vid=925d9d68-1b01-45a4-af19-d1a58d7476b9"},"vehicle_type_id":"4","last_reported":1732709926,"current_range_meters":0,"station_id":"","pricing_plan_id":"cebpf4jnsgd1na2vs0mg"},{"bike_id":"d1de5bf7-815b-4956-8380-b0b8e55572de","system_id":"levelo_inurba_marseille","lat":43.29261,"lon":5.38436,"is_reserved":false,"is_disabled":false,"rental_uris":{"android":"levelo://app?vid=d1de5bf7-815b-4956-8380-b0b8e55572de","ios":"levelo://app?vid=d1de5bf7-815b-4956-8380-b0b8e55572de"},"vehicle_type_id":"4","last_reported":1732709926,"current_range_meters":12400,"station_id":"ce4bh692rcd13ifvqea0","pricing_plan_id":"cebpf4jnsgd1na2vs0mg"},{"bike_id":"cf298d8c-a0c9-4883-b341-ff4459ca7832","system_id":"levelo_inurba_marseille","lat":43.22932,"lon":5.35378,"is_reserved":false,"is_disabled":false,"rental_uris":{"android":"levelo://app?vid=cf298d8c-a0c9-4883-b341-ff4459ca7832","ios":"levelo://app?vid=cf298d8c-a0c9-4883-b341-ff4459ca7832"},"vehicle_type_id":"4","last_reported":1732709926,"current_range_meters":38000,"station_id":"cpo3532slgdg3j2ikp40","pricing_plan_id":"cebpf4jnsgd1na2vs0mg"},{"bike_id":"bce13c83-77f2-43e1-bca7-50afe3af9417","system_id":"levelo_inurba_marseille","lat":43.26487,"lon":5.39553,"is_reserved":false,"is_disabled":false,"rental_uris":{"android":"levelo://app?vid=bce13c83-77f2-43e1-bca7-50afe3af9417","ios":"levelo://app?vid=bce13c83-77f2-43e1-bca7-50afe3af9417"},"vehicle_type_id":"4","last_reported":1732709926,"current_range_meters":16800,"station_id":"ce4bhi12rcd13ifvqfq0","pricing_plan_id":"cebpf4jnsgd1na2vs0mg"},{"bike_id":"d9ef5ed5-65f4-4a4b-8dbb-274b0e908852","system_id":"levelo_inurba_marseille","lat":43.24171,"lon":5.36396,"is_reserved":false,"is_disabled":false,"rental_uris":{"android":"levelo://app?vid=d9ef5ed5-65f4-4a4b-8dbb-274b0e908852","ios":"levelo://app?vid=d9ef5ed5-65f4-4a4b-8dbb-274b0e908852"},"vehicle_type_id":"4","last_reported":1732709926,"current_range_meters":25200,"station_id":"cpo36qri1sfpv3e86is0","pricing_plan_id":"cebpf4jnsgd1na2vs0mg"},{"bike_id":"0823ac1a-7c46-468b-bf59-16f966e2e4b7","system_id":"levelo_inurba_marseille","lat":43.24175,"lon":5.39732,"is_reserved":false,"is_disabled":false,"rental_uris":{"android":"levelo://app?vid=0823ac1a-7c46-468b-bf59-16f966e2e4b7","ios":"levelo://app?vid=0823ac1a-7c46-468b-bf59-16f966e2e4b7"},"vehicle_type_id":"4","last_reported":1732709926,"current_range_meters":8000,"station_id":"ce4bhn12rcd13ifvqgpg","pricing_plan_id":"cebpf4jnsgd1na2vs0mg"},{"bike_id":"c57ab5bd-a4dd-4e8a-b92e-ece76a961851","system_id":"levelo_inurba_marseille","lat":43.305885,"lon":5.393619,"is_reserved":false,"is_disabled":false,"rental_uris":{"android":"levelo://app?vid=c57ab5bd-a4dd-4e8a-b92e-ece76a961851","ios":"levelo://app?vid=c57ab5bd-a4dd-4e8a-b92e-ece76a961851"},"vehicle_type_id":"4","last_reported":1732709926,"current_range_meters":8000,"station_id":"ce4bgv92rcd13ifvqcq0","pricing_plan_id":"cebpf4jnsgd1na2vs0mg"},{"bike_id":"1dc0fcdc-cd02-49f3-86c4-b4f7eafa4f6f","system_id":"levelo_inurba_marseille","lat":43.25515,"lon":5.40098,"is_reserved":false,"is_disabled":false,"rental_uris":{"android":"levelo://app?vid=1dc0fcdc-cd02-49f3-86c4-b4f7eafa4f6f","ios":"levelo://app?vid=1dc0fcdc-cd02-49f3-86c4-b4f7eafa4f6f"},"vehicle_type_id":"4","last_reported":1732709926,"current_range_meters":19200,"station_id":"ce4bhlh2rcd13ifvqgig","pricing_plan_id":"cebpf4jnsgd1na2vs0mg"},{"bike_id":"45cc0129-d320-4c4f-95cc-6b85bf99203c","system_id":"levelo_inurba_marseille","lat":43.32291,"lon":5.3828,"is_reserved":false,"is_disabled":false,"rental_uris":{"android":"levelo://app?vid=45cc0129-d320-4c4f-95cc-6b85bf99203c","ios":"levelo://app?vid=45cc0129-d320-4c4f-95cc-6b85bf99203c"},"vehicle_type_id":"4","last_reported":1732709926,"current_range_meters":25600,"station_id":"ce4bhr12rcd13ifvqhqg","pricing_plan_id":"cebpf4jnsgd1na2vs0mg"},{"bike_id":"1d491570-34a1-4266-9dd8-096aad79ce71","system_id":"levelo_inurba_marseille","lat":43.28429,"lon":5.34985,"is_reserved":false,"is_disabled":false,"rental_uris":{"android":"levelo://app?vid=1d491570-34a1-4266-9dd8-096aad79ce71","ios":"levelo://app?vid=1d491570-34a1-4266-9dd8-096aad79ce71"},"vehicle_type_id":"4","last_reported":1732709926,"current_range_meters":38000,"station_id":"ce4bhbh2rcd13ifvqepg","pricing_plan_id":"cebpf4jnsgd1na2vs0mg"},{"bike_id":"006b9058-6efe-481f-aea3-cd4a774043f3","system_id":"levelo_inurba_marseille","lat":43.27812,"lon":5.40701,"is_reserved":false,"is_disabled":false,"rental_uris":{"android":"levelo://app?vid=006b9058-6efe-481f-aea3-cd4a774043f3","ios":"levelo://app?vid=006b9058-6efe-481f-aea3-cd4a774043f3"},"vehicle_type_id":"4","last_reported":1732709926,"current_range_meters":38400,"station_id":"ce4bhnh2rcd13ifvqgtg","pricing_plan_id":"cebpf4jnsgd1na2vs0mg"},{"bike_id":"a53f9114-9795-4006-9fde-e66fbbe29373","system_id":"levelo_inurba_marseille","lat":43.27918,"lon":5.39586,"is_reserved":false,"is_disabled":false,"rental_uris":{"android":"levelo://app?vid=a53f9114-9795-4006-9fde-e66fbbe29373","ios":"levelo://app?vid=a53f9114-9795-4006-9fde-e66fbbe29373"},"vehicle_type_id":"4","last_reported":1732709926,"current_range_meters":28400,"station_id":"ce4bhf92rcd13ifvqf40","pricing_plan_id":"cebpf4jnsgd1na2vs0mg"},{"bike_id":"be91d1fe-f564-4b9d-8b7c-55bf938ff166","system_id":"levelo_inurba_marseille","lat":43.29011,"lon":5.35613,"is_reserved":false,"is_disabled":false,"rental_uris":{"android":"levelo://app?vid=be91d1fe-f564-4b9d-8b7c-55bf938ff166","ios":"levelo://app?vid=be91d1fe-f564-4b9d-8b7c-55bf938ff166"},"vehicle_type_id":"4","last_reported":1732709926,"current_range_meters":39200,"station_id":"ce4bhb92rcd13ifvqen0","pricing_plan_id":"cebpf4jnsgd1na2vs0mg"},{"bike_id":"1614e2a5-eff6-4651-9d69-3a3985cf0ea9","system_id":"levelo_inurba_marseille","lat":43.28227,"lon":5.39846,"is_reserved":false,"is_disabled":false,"rental_uris":{"android":"levelo://app?vid=1614e2a5-eff6-4651-9d69-3a3985cf0ea9","ios":"levelo://app?vid=1614e2a5-eff6-4651-9d69-3a3985cf0ea9"},"vehicle_type_id":"4","last_reported":1732709926,"current_range_meters":10800,"station_id":"","pricing_plan_id":"cebpf4jnsgd1na2vs0mg"},{"bike_id":"faebca36-4f23-4839-a4c8-b6cfca95b7bf","system_id":"levelo_inurba_marseille","lat":43.29031,"lon":5.38639,"is_reserved":false,"is_disabled":false,"rental_uris":{"android":"levelo://app?vid=faebca36-4f23-4839-a4c8-b6cfca95b7bf","ios":"levelo://app?vid=faebca36-4f23-4839-a4c8-b6cfca95b7bf"},"vehicle_type_id":"4","last_reported":1732709926,"current_range_meters":26000,"station_id":"ce4bh4p2rcd13ifvqe0g","pricing_plan_id":"cebpf4jnsgd1na2vs0mg"},{"bike_id":"07166161-57d3-4ee1-aa7a-80001a63ee93","system_id":"levelo_inurba_marseille","lat":43.23179,"lon":5.39981,"is_reserved":false,"is_disabled":false,"rental_uris":{"android":"levelo://app?vid=07166161-57d3-4ee1-aa7a-80001a63ee93","ios":"levelo://app?vid=07166161-57d3-4ee1-aa7a-80001a63ee93"},"vehicle_type_id":"4","last_reported":1732709926,"current_range_meters":39200,"station_id":"ce4bhn12rcd13ifvqgqg","pricing_plan_id":"cebpf4jnsgd1na2vs0mg"},{"bike_id":"9cff0f21-ab59-48fd-b4fc-1b94e8b79a41","system_id":"levelo_inurba_marseille","lat":43.2952,"lon":5.42313,"is_reserved":false,"is_disabled":false,"rental_uris":{"android":"levelo://app?vid=9cff0f21-ab59-48fd-b4fc-1b94e8b79a41","ios":"levelo://app?vid=9cff0f21-ab59-48fd-b4fc-1b94e8b79a41"},"vehicle_type_id":"4","last_reported":1732709926,"current_range_meters":38400,"station_id":"ce4bhph2rcd13ifvqhdg","pricing_plan_id":"cebpf4jnsgd1na2vs0mg"},{"bike_id":"89d8c829-8f1b-4feb-abb2-fcdd7c10c329","system_id":"levelo_inurba_marseille","lat":43.336,"lon":5.41033,"is_reserved":false,"is_disabled":false,"rental_uris":{"android":"levelo://app?vid=89d8c829-8f1b-4feb-abb2-fcdd7c10c329","ios":"levelo://app?vid=89d8c829-8f1b-4feb-abb2-fcdd7c10c329"},"vehicle_type_id":"4","last_reported":1732709926,"current_range_meters":20800,"station_id":"ce4bhqh2rcd13ifvqhmg","pricing_plan_id":"cebpf4jnsgd1na2vs0mg"},{"bike_id":"720fa7b9-7c7a-4f27-8ded-863890917803","system_id":"levelo_inurba_marseille","lat":43.30598,"lon":5.39363,"is_reserved":false,"is_disabled":false,"rental_uris":{"android":"levelo://app?vid=720fa7b9-7c7a-4f27-8ded-863890917803","ios":"levelo://app?vid=720fa7b9-7c7a-4f27-8ded-863890917803"},"vehicle_type_id":"4","last_reported":1732709926,"current_range_meters":3600,"station_id":"ce4bh0p2rcd13ifvqd80","pricing_plan_id":"cebpf4jnsgd1na2vs0mg"},{"bike_id":"4f3cefea-9471-4201-baeb-76c2d8477865","system_id":"levelo_inurba_marseille","lat":43.3375,"lon":5.37471,"is_reserved":false,"is_disabled":true,"rental_uris":{"android":"levelo://app?vid=4f3cefea-9471-4201-baeb-76c2d8477865","ios":"levelo://app?vid=4f3cefea-9471-4201-baeb-76c2d8477865"},"vehicle_type_id":"4","last_reported":1732709926,"current_range_meters":0,"station_id":"","pricing_plan_id":"cebpf4jnsgd1na2vs0mg"},{"bike_id":"e9c17faa-0a50-4311-9b95-9e8911926bd0","system_id":"levelo_inurba_marseille","lat":43.30527,"lon":5.36702,"is_reserved":false,"is_disabled":false,"rental_uris":{"android":"levelo://app?vid=e9c17faa-0a50-4311-9b95-9e8911926bd0","ios":"levelo://app?vid=e9c17faa-0a50-4311-9b95-9e8911926bd0"},"vehicle_type_id":"4","last_reported":1732709926,"current_range_meters":14800,"station_id":"ce4bgrp2rcd13ifvqc9g","pricing_plan_id":"cebpf4jnsgd1na2vs0mg"},{"bike_id":"640c291d-60f6-4daa-baa9-85d4b532f4cd","system_id":"levelo_inurba_marseille","lat":43.28855,"lon":5.35861,"is_reserved":false,"is_disabled":false,"rental_uris":{"android":"levelo://app?vid=640c291d-60f6-4daa-baa9-85d4b532f4cd","ios":"levelo://app?vid=640c291d-60f6-4daa-baa9-85d4b532f4cd"},"vehicle_type_id":"4","last_reported":1732709926,"current_range_meters":24000,"station_id":"ce4bhb12rcd13ifvqem0","pricing_plan_id":"cebpf4jnsgd1na2vs0mg"},{"bike_id":"d5505530-673c-4b26-ac64-f5b276bdb067","system_id":"levelo_inurba_marseille","lat":43.25579,"lon":5.38237,"is_reserved":false,"is_disabled":false,"rental_uris":{"android":"levelo://app?vid=d5505530-673c-4b26-ac64-f5b276bdb067","ios":"levelo://app?vid=d5505530-673c-4b26-ac64-f5b276bdb067"},"vehicle_type_id":"4","last_reported":1732709926,"current_range_meters":30000,"station_id":"ce4bhih2rcd13ifvqfs0","pricing_plan_id":"cebpf4jnsgd1na2vs0mg"},{"bike_id":"cea008c1-4d1e-4d8c-8106-08ec1eca9ab7","system_id":"levelo_inurba_marseille","lat":43.30462,"lon":5.37912,"is_reserved":false,"is_disabled":false,"rental_uris":{"android":"levelo://app?vid=cea008c1-4d1e-4d8c-8106-08ec1eca9ab7","ios":"levelo://app?vid=cea008c1-4d1e-4d8c-8106-08ec1eca9ab7"},"vehicle_type_id":"4","last_reported":1732709926,"current_range_meters":33600,"station_id":"ce4bgup2rcd13ifvqcn0","pricing_plan_id":"cebpf4jnsgd1na2vs0mg"},{"bike_id":"65c5b7a0-2741-4674-9e62-324f44553665","system_id":"levelo_inurba_marseille","lat":43.27971,"lon":5.38739,"is_reserved":false,"is_disabled":true,"rental_uris":{"android":"levelo://app?vid=65c5b7a0-2741-4674-9e62-324f44553665","ios":"levelo://app?vid=65c5b7a0-2741-4674-9e62-324f44553665"},"vehicle_type_id":"4","last_reported":1732709926,"current_range_meters":0,"station_id":"ce4bhg12rcd13ifvqf80","pricing_plan_id":"cebpf4jnsgd1na2vs0mg"},{"bike_id":"9cf75bf2-2262-4f89-94c0-550f2f8c8309","system_id":"levelo_inurba_marseille","lat":43.33615,"lon":5.41018,"is_reserved":false,"is_disabled":false,"rental_uris":{"android":"levelo://app?vid=9cf75bf2-2262-4f89-94c0-550f2f8c8309","ios":"levelo://app?vid=9cf75bf2-2262-4f89-94c0-550f2f8c8309"},"vehicle_type_id":"4","last_reported":1732709926,"current_range_meters":22400,"station_id":"ce4bhqh2rcd13ifvqhmg","pricing_plan_id":"cebpf4jnsgd1na2vs0mg"},{"bike_id":"562a76b4-6ab9-4ff0-9faf-2020d86f5e9a","system_id":"levelo_inurba_marseille","lat":43.241733,"lon":5.397276,"is_reserved":false,"is_disabled":true,"rental_uris":{"android":"levelo://app?vid=562a76b4-6ab9-4ff0-9faf-2020d86f5e9a","ios":"levelo://app?vid=562a76b4-6ab9-4ff0-9faf-2020d86f5e9a"},"vehicle_type_id":"4","last_reported":1732709926,"current_range_meters":0,"station_id":"ce4bhn12rcd13ifvqgpg","pricing_plan_id":"cebpf4jnsgd1na2vs0mg"},{"bike_id":"abcc3c82-6c01-4f46-ad93-c1d25b42613e","system_id":"levelo_inurba_marseille","lat":43.32475,"lon":5.36575,"is_reserved":false,"is_disabled":false,"rental_uris":{"android":"levelo://app?vid=abcc3c82-6c01-4f46-ad93-c1d25b42613e","ios":"levelo://app?vid=abcc3c82-6c01-4f46-ad93-c1d25b42613e"},"vehicle_type_id":"4","last_reported":1732709926,"current_range_meters":15200,"station_id":"ce4bhs12rcd13ifvqhvg","pricing_plan_id":"cebpf4jnsgd1na2vs0mg"},{"bike_id":"0b6fd622-0a97-4fbe-a987-f23968795d13","system_id":"levelo_inurba_marseille","lat":43.300941,"lon":5.370351,"is_reserved":false,"is_disabled":true,"rental_uris":{"android":"levelo://app?vid=0b6fd622-0a97-4fbe-a987-f23968795d13","ios":"levelo://app?vid=0b6fd622-0a97-4fbe-a987-f23968795d13"},"vehicle_type_id":"4","last_reported":1732709926,"current_range_meters":16400,"station_id":"","pricing_plan_id":"cebpf4jnsgd1na2vs0mg"},{"bike_id":"bdd51559-1c46-46e3-81da-d8886117bb3d","system_id":"levelo_inurba_marseille","lat":43.25936,"lon":5.40903,"is_reserved":false,"is_disabled":true,"rental_uris":{"android":"levelo://app?vid=bdd51559-1c46-46e3-81da-d8886117bb3d","ios":"levelo://app?vid=bdd51559-1c46-46e3-81da-d8886117bb3d"},"vehicle_type_id":"4","last_reported":1732709926,"current_range_meters":32000,"station_id":"ce4bhm92rcd13ifvqglg","pricing_plan_id":"cebpf4jnsgd1na2vs0mg"},{"bike_id":"e8c3745d-4b9e-400a-bc7a-0764243f0800","system_id":"levelo_inurba_marseille","lat":43.26557,"lon":5.37281,"is_reserved":false,"is_disabled":true,"rental_uris":{"android":"levelo://app?vid=e8c3745d-4b9e-400a-bc7a-0764243f0800","ios":"levelo://app?vid=e8c3745d-4b9e-400a-bc7a-0764243f0800"},"vehicle_type_id":"4","last_reported":1732709926,"current_range_meters":0,"station_id":"ce4bhg12rcd13ifvqf70","pricing_plan_id":"cebpf4jnsgd1na2vs0mg"},{"bike_id":"9e944db9-d48e-4848-b5fa-4af701aee80b","system_id":"levelo_inurba_marseille","lat":43.337444,"lon":5.374475,"is_reserved":false,"is_disabled":true,"rental_uris":{"android":"levelo://app?vid=9e944db9-d48e-4848-b5fa-4af701aee80b","ios":"levelo://app?vid=9e944db9-d48e-4848-b5fa-4af701aee80b"},"vehicle_type_id":"4","last_reported":1732709926,"current_range_meters":30800,"station_id":"","pricing_plan_id":"cebpf4jnsgd1na2vs0mg"},{"bike_id":"1c904766-d668-43ef-b46c-8a8c67c87660","system_id":"levelo_inurba_marseille","lat":43.23194,"lon":5.35556,"is_reserved":false,"is_disabled":false,"rental_uris":{"android":"levelo://app?vid=1c904766-d668-43ef-b46c-8a8c67c87660","ios":"levelo://app?vid=1c904766-d668-43ef-b46c-8a8c67c87660"},"vehicle_type_id":"4","last_reported":1732709926,"current_range_meters":38800,"station_id":"ce4bhu92rcd13ifvqi70","pricing_plan_id":"cebpf4jnsgd1na2vs0mg"},{"bike_id":"781d0210-7295-416b-a54d-6cd3f2a75ca2","system_id":"levelo_inurba_marseille","lat":43.29225,"lon":5.36063,"is_reserved":false,"is_disabled":false,"rental_uris":{"android":"levelo://app?vid=781d0210-7295-416b-a54d-6cd3f2a75ca2","ios":"levelo://app?vid=781d0210-7295-416b-a54d-6cd3f2a75ca2"},"vehicle_type_id":"4","last_reported":1732709926,"current_range_meters":36400,"station_id":"ce4bhbh2rcd13ifvqeqg","pricing_plan_id":"cebpf4jnsgd1na2vs0mg"},{"bike_id":"65f556a5-f748-4cb7-854e-d6aa943dbf1e","system_id":"levelo_inurba_marseille","lat":43.24171,"lon":5.39736,"is_reserved":false,"is_disabled":false,"rental_uris":{"android":"levelo://app?vid=65f556a5-f748-4cb7-854e-d6aa943dbf1e","ios":"levelo://app?vid=65f556a5-f748-4cb7-854e-d6aa943dbf1e"},"vehicle_type_id":"4","last_reported":1732709926,"current_range_meters":27200,"station_id":"ce4bhn12rcd13ifvqgpg","pricing_plan_id":"cebpf4jnsgd1na2vs0mg"},{"bike_id":"01c3041a-b944-4a6c-a946-1e6e3cd2fe5c","system_id":"levelo_inurba_marseille","lat":43.280338,"lon":5.369631,"is_reserved":false,"is_disabled":false,"rental_uris":{"android":"levelo://app?vid=01c3041a-b944-4a6c-a946-1e6e3cd2fe5c","ios":"levelo://app?vid=01c3041a-b944-4a6c-a946-1e6e3cd2fe5c"},"vehicle_type_id":"4","last_reported":1732709926,"current_range_meters":32800,"station_id":"ce4bha12rcd13ifvqef0","pricing_plan_id":"cebpf4jnsgd1na2vs0mg"},{"bike_id":"8adb64fd-678a-4fae-9151-e67de55498ee","system_id":"levelo_inurba_marseille","lat":43.30142,"lon":5.3808,"is_reserved":false,"is_disabled":false,"rental_uris":{"android":"levelo://app?vid=8adb64fd-678a-4fae-9151-e67de55498ee","ios":"levelo://app?vid=8adb64fd-678a-4fae-9151-e67de55498ee"},"vehicle_type_id":"4","last_reported":1732709926,"current_range_meters":26800,"station_id":"ce4bgjp2rcd13ifvqbh0","pricing_plan_id":"cebpf4jnsgd1na2vs0mg"},{"bike_id":"77c7afe9-64ef-4357-97d7-72769d8036af","system_id":"levelo_inurba_marseille","lat":43.26954,"lon":5.38712,"is_reserved":false,"is_disabled":false,"rental_uris":{"android":"levelo://app?vid=77c7afe9-64ef-4357-97d7-72769d8036af","ios":"levelo://app?vid=77c7afe9-64ef-4357-97d7-72769d8036af"},"vehicle_type_id":"4","last_reported":1732709926,"current_range_meters":33600,"station_id":"ce4bhgp2rcd13ifvqfe0","pricing_plan_id":"cebpf4jnsgd1na2vs0mg"},{"bike_id":"083eba0c-65c0-4a25-9977-b07804eac94f","system_id":"levelo_inurba_marseille","lat":43.30595,"lon":5.39361,"is_reserved":false,"is_disabled":false,"rental_uris":{"android":"levelo://app?vid=083eba0c-65c0-4a25-9977-b07804eac94f","ios":"levelo://app?vid=083eba0c-65c0-4a25-9977-b07804eac94f"},"vehicle_type_id":"4","last_reported":1732709926,"current_range_meters":9200,"station_id":"ce4bh0p2rcd13ifvqd80","pricing_plan_id":"cebpf4jnsgd1na2vs0mg"},{"bike_id":"85a5cfde-3b61-40b5-8fda-a1acde978b80","system_id":"levelo_inurba_marseille","lat":43.23055,"lon":5.35502,"is_reserved":false,"is_disabled":false,"rental_uris":{"android":"levelo://app?vid=85a5cfde-3b61-40b5-8fda-a1acde978b80","ios":"levelo://app?vid=85a5cfde-3b61-40b5-8fda-a1acde978b80"},"vehicle_type_id":"4","last_reported":1732709926,"current_range_meters":37600,"station_id":"cpo3342slgdg3j2ifvpg","pricing_plan_id":"cebpf4jnsgd1na2vs0mg"},{"bike_id":"e90518ef-5cf2-4e67-9525-b8f5e2b9c3a2","system_id":"levelo_inurba_marseille","lat":43.27375,"lon":5.36254,"is_reserved":false,"is_disabled":true,"rental_uris":{"android":"levelo://app?vid=e90518ef-5cf2-4e67-9525-b8f5e2b9c3a2","ios":"levelo://app?vid=e90518ef-5cf2-4e67-9525-b8f5e2b9c3a2"},