{"last_updated":1761560016,"ttl":60,"version":"2.2","data":{"bikes":[{"bike_id":"d035dc80-6691-4974-a431-41af60a303dd","system_id":"levelo_inurba_marseille","lat":43.33016,"lon":5.39039,"is_reserved":false,"is_disabled":false,"rental_uris":{"android":"levelo://app?vid=d035dc80-6691-4974-a431-41af60a303dd","ios":"levelo://app?vid=d035dc80-6691-4974-a431-41af60a303dd"},"vehicle_type_id":"4","last_reported":1761560016,"current_range_meters":3200,"station_id":"ce4bhr92rcd13ifvqhrg","pricing_plan_id":"cebpf4jnsgd1na2vs0mg"},{"bike_id":"dab36927-4328-48fa-bffb-145a737de07e","system_id":"levelo_inurba_marseille","lat":43.30803,"lon":5.43543,"is_reserved":false,"is_disabled":false,"rental_uris":{"android":"levelo://app?vid=dab36927-4328-48fa-bffb-145a737de07e","ios":"levelo://app?vid=dab36927-4328-48fa-bffb-145a737de07e"},"vehicle_type_id":"4","last_reported":1761560016,"current_range_meters":3600,"station_id":"ce4bhph2rcd13ifvqheg","pricing_plan_id":"cebpf4jnsgd1na2vs0mg"},{"bike_id":"f661f8f5-11ed-4312-8ecc-92753a99ad6b","system_id":"levelo_inurba_marseille","lat":43.27923,"lon":5.41033,"is_reserved":false,"is_disabled":false,"rental_uris":{"android":"levelo://app?vid=f661f8f5-11ed-4312-8ecc-92753a99ad6b","ios":"levelo://app?vid=f661f8f5-11ed-4312-8ecc-92753a99ad6b"},"vehicle_type_id":"4","last_reported":1761560016,"current_range_meters":3600,"station_id":"ce4bhnp2rcd13ifvqh0g","pricing_plan_id":"cebpf4jnsgd1na2vs0mg"},{"bike_id":"e0c0e289-abfa-46b0-8d40-9b8cda538472","system_id":"levelo_inurba_marseille","lat":43.32354,"lon":5.36756,"is_reserved":false,"is_disabled":false,"rental_uris":{"android":"levelo://app?vid=e0c0e289-abfa-46b0-8d40-9b8cda538472","ios":"levelo://app?vid=e0c0e289-abfa-46b0-8d40-9b8cda538472"},"vehicle_type_id":"4","last_reported":1761560016,"current_range_meters":4000,"station_id":"ce4bhsh2rcd13ifvqi2g","pricing_plan_id":"cebpf4jnsgd1na2vs0mg"},{"bike_id":"8be6a47c-9542-4fed-8109-f6d91a0f2b3f","system_id":"levelo_inurba_marseille","lat":43.29174,"lon":5.37161,"is_reserved":false,"is_disabled":false,"rental_uris":{"android":"levelo://app?vid=8be6a47c-9542-4fed-8109-f6d91a0f2b3f","ios":"levelo://app?vid=8be6a47c-9542-4fed-8109-f6d91a0f2b3f"},"vehicle_type_id":"4","last_reported":1761560016,"current_range_meters":4000,"station_id":"ce4bha92rcd13ifvqeh0","pricing_plan_id":"cebpf4jnsgd1na2vs0mg"},{"bike_id":"2d305dc6-e68d-4fc0-af3c-18b4adb6047b","system_id":"levelo_inurba_marseille","lat":43.225311,"lon":5.34837,"is_reserved":false,"is_disabled":false,"rental_uris":{"android":"levelo://app?vid=2d305dc6-e68d-4fc0-af3c-18b4adb6047b","ios":"levelo://app?vid=2d305dc6-e68d-4fc0-af3c-18b4adb6047b"},"vehicle_type_id":"4","last_reported":1761560016,"current_range_meters":4000,"station_id":"","pricing_plan_id":"cebpf4jnsgd1na2vs0mg"},{"bike_id":"f121e5dc-839f-46fd-9f76-0c47463ae3c1","system_id":"levelo_inurba_marseille","lat":43.2979,"lon":5.38104,"is_reserved":false,"is_disabled":false,"rental_uris":{"android":"levelo://app?vid=f121e5dc-839f-46fd-9f76-0c47463ae3c1","ios":"levelo://app?vid=f121e5dc-839f-46fd-9f76-0c47463ae3c1"},"vehicle_type_id":"4","last_reported":1761560016,"current_range_meters":4400,"station_id":"ce4bgip2rcd13ifvqbb0","pricing_plan_id":"cebpf4jnsgd1na2vs0mg"},{"bike_id":"43117888-69d1-4bc6-a73a-697554e4a08e","system_id":"levelo_inurba_marseille","lat":43.24657,"lon":5.38158,"is_reserved":false,"is_disabled":false,"rental_uris":{"android":"levelo://app?vid=43117888-69d1-4bc6-a73a-697554e4a08e","ios":"levelo://app?vid=43117888-69d1-4bc6-a73a-697554e4a08e"},"vehicle_type_id":"4","last_reported":1761560016,"current_range_meters":4800,"station_id":"ce4bhih2rcd13ifvqfr0","pricing_plan_id":"cebpf4jnsgd1na2vs0mg"},{"bike_id":"b021df2f-fd27-4beb-85b8-ce1742af0adf","system_id":"levelo_inurba_marseille","lat":43.23151,"lon":5.43708,"is_reserved":false,"is_disabled":false,"rental_uris":{"android":"levelo://app?vid=b021df2f-fd27-4beb-85b8-ce1742af0adf","ios":"levelo://app?vid=b021df2f-fd27-4beb-85b8-ce1742af0adf"},"vehicle_type_id":"4","last_reported":1761560016,"current_range_meters":4800,"station_id":"ce4bhmp2rcd13ifvqgog","pricing_plan_id":"cebpf4jnsgd1na2vs0mg"},{"bike_id":"45a8feb9-8f9f-45c5-9374-0e195d24493f","system_id":"levelo_inurba_marseille","lat":43.24816,"lon":5.3746,"is_reserved":false,"is_disabled":true,"rental_uris":{"android":"levelo://app?vid=45a8feb9-8f9f-45c5-9374-0e195d24493f","ios":"levelo://app?vid=45a8feb9-8f9f-45c5-9374-0e195d24493f"},"vehicle_type_id":"4","last_reported":1761560016,"current_range_meters":6000,"station_id":"ce4bhgh2rcd13ifvqfb0","pricing_plan_id":"cebpf4jnsgd1na2vs0mg"},{"bike_id":"69880247-38f2-48e7-ab49-326f3d5eca30","system_id":"levelo_inurba_marseille","lat":43.21188,"lon":5.35082,"is_reserved":false,"is_disabled":false,"rental_uris":{"android":"levelo://app?vid=69880247-38f2-48e7-ab49-326f3d5eca30","ios":"levelo://app?vid=69880247-38f2-48e7-ab49-326f3d5eca30"},"vehicle_type_id":"4","last_reported":1761560016,"current_range_meters":6000,"station_id":"","pricing_plan_id":"cebpf4jnsgd1na2vs0mg"},{"bike_id":"743cebaa-594d-4cf3-8a04-4e22a2cf9a08","system_id":"levelo_inurba_marseille","lat":43.25584,"lon":5.38224,"is_reserved":false,"is_disabled":false,"rental_uris":{"android":"levelo://app?vid=743cebaa-594d-4cf3-8a04-4e22a2cf9a08","ios":"levelo://app?vid=743cebaa-594d-4cf3-8a04-4e22a2cf9a08"},"vehicle_type_id":"4","last_reported":1761560016,"current_range_meters":6000,"station_id":"ce4bhih2rcd13ifvqfs0","pricing_plan_id":"cebpf4jnsgd1na2vs0mg"},{"bike_id":"6b94db58-9d77-47d1-b0a7-76408c22c9e2","system_id":"levelo_inurba_marseille","lat":43.24661,"lon":5.38159,"is_reserved":false,"is_disabled":false,"rental_uris":{"android":"levelo://app?vid=6b94db58-9d77-47d1-b0a7-76408c22c9e2","ios":"levelo://app?vid=6b94db58-9d77-47d1-b0a7-76408c22c9e2"},"vehicle_type_id":"4","last_reported":1761560016,"current_range_meters":6000,"station_id":"ce4bhih2rcd13ifvqfr0","pricing_plan_id":"cebpf4jnsgd1na2vs0mg"},{"bike_id":"8b978098-665e-4f78-991f-8c8ae767f8aa","system_id":"levelo_inurba_marseille","lat":43.30907,"lon":5.36856,"is_reserved":false,"is_disabled":false,"rental_uris":{"android":"levelo://app?vid=8b978098-665e-4f78-991f-8c8ae767f8aa","ios":"levelo://app?vid=8b978098-665e-4f78-991f-8c8ae767f8aa"},"vehicle_type_id":"4","last_reported":1761560016,"current_range_meters":6400,"station_id":"ce4bgn92rcd13ifvqbvg","pricing_plan_id":"cebpf4jnsgd1na2vs0mg"},{"bike_id":"11ed3229-da96-464f-bee1-15ff06dff35a","system_id":"levelo_inurba_marseille","lat":43.21185,"lon":5.3507,"is_reserved":false,"is_disabled":false,"rental_uris":{"android":"levelo://app?vid=11ed3229-da96-464f-bee1-15ff06dff35a","ios":"levelo://app?vid=11ed3229-da96-464f-bee1-15ff06dff35a"},"vehicle_type_id":"4","last_reported":1761560016,"current_range_meters":6400,"station_id":"st_cvj6sg6p6f1abm77japg","pricing_plan_id":"cebpf4jnsgd1na2vs0mg"},{"bike_id":"c7b4a0ae-e58f-48be-af7e-b853a7032852","system_id":"levelo_inurba_marseille","lat":43.299207,"lon":5.374791,"is_reserved":false,"is_disabled":false,"rental_uris":{"android":"levelo://app?vid=c7b4a0ae-e58f-48be-af7e-b853a7032852","ios":"levelo://app?vid=c7b4a0ae-e58f-48be-af7e-b853a7032852"},"vehicle_type_id":"4","last_reported":1761560016,"current_range_meters":6400,"station_id":"ce4bgjh2rcd13ifvqbg0","pricing_plan_id":"cebpf4jnsgd1na2vs0mg"},{"bike_id":"7fa4343c-2643-4bb7-a19f-0636e7c3b04b","system_id":"levelo_inurba_marseille","lat":43.30461,"lon":5.37906,"is_reserved":false,"is_disabled":false,"rental_uris":{"android":"levelo://app?vid=7fa4343c-2643-4bb7-a19f-0636e7c3b04b","ios":"levelo://app?vid=7fa4343c-2643-4bb7-a19f-0636e7c3b04b"},"vehicle_type_id":"4","last_reported":1761560016,"current_range_meters":6400,"station_id":"ce4bgup2rcd13ifvqcn0","pricing_plan_id":"cebpf4jnsgd1na2vs0mg"},{"bike_id":"e2a1ebed-bfbf-4bd3-8b50-9c03f3dff106","system_id":"levelo_inurba_marseille","lat":43.31988,"lon":5.3816,"is_reserved":false,"is_disabled":false,"rental_uris":{"android":"levelo://app?vid=e2a1ebed-bfbf-4bd3-8b50-9c03f3dff106","ios":"levelo://app?vid=e2a1ebed-bfbf-4bd3-8b50-9c03f3dff106"},"vehicle_type_id":"4","last_reported":1761560016,"current_range_meters":6800,"station_id":"ce4bhr12rcd13ifvqhpg","pricing_plan_id":"cebpf4jnsgd1na2vs0mg"},{"bike_id":"8eadc746-0edb-4cd3-85b4-79447db33630","system_id":"levelo_inurba_marseille","lat":43.25509,"lon":5.37655,"is_reserved":false,"is_disabled":false,"rental_uris":{"android":"levelo://app?vid=8eadc746-0edb-4cd3-85b4-79447db33630","ios":"levelo://app?vid=8eadc746-0edb-4cd3-85b4-79447db33630"},"vehicle_type_id":"4","last_reported":1761560016,"current_range_meters":6800,"station_id":"ce4bhh12rcd13ifvqff0","pricing_plan_id":"cebpf4jnsgd1na2vs0mg"},{"bike_id":"9d943b33-e12f-4684-b457-eab990b642ab","system_id":"levelo_inurba_marseille","lat":43.21187,"lon":5.35083,"is_reserved":false,"is_disabled":false,"rental_uris":{"android":"levelo://app?vid=9d943b33-e12f-4684-b457-eab990b642ab","ios":"levelo://app?vid=9d943b33-e12f-4684-b457-eab990b642ab"},"vehicle_type_id":"4","last_reported":1761560016,"current_range_meters":6800,"station_id":"st_cvj6sg6p6f1abm77japg","pricing_plan_id":"cebpf4jnsgd1na2vs0mg"},{"bike_id":"6372606c-145e-4f43-b440-ebbc93e9b343","system_id":"levelo_inurba_marseille","lat":43.32658,"lon":5.40995,"is_reserved":false,"is_disabled":false,"rental_uris":{"android":"levelo://app?vid=6372606c-145e-4f43-b440-ebbc93e9b343","ios":"levelo://app?vid=6372606c-145e-4f43-b440-ebbc93e9b343"},"vehicle_type_id":"4","last_reported":1761560016,"current_range_meters":6800,"station_id":"ce4bhpp2rcd13ifvqhgg","pricing_plan_id":"cebpf4jnsgd1na2vs0mg"},{"bike_id":"13f12d24-3fc3-4202-88f0-68cc1be473cc","system_id":"levelo_inurba_marseille","lat":43.285345,"lon":5.440997,"is_reserved":false,"is_disabled":false,"rental_uris":{"android":"levelo://app?vid=13f12d24-3fc3-4202-88f0-68cc1be473cc","ios":"levelo://app?vid=13f12d24-3fc3-4202-88f0-68cc1be473cc"},"vehicle_type_id":"4","last_reported":1761560016,"current_range_meters":7200,"station_id":"st_d3j3df2ikq2c7380ej80","pricing_plan_id":"cebpf4jnsgd1na2vs0mg"},{"bike_id":"1e06e241-207f-4985-8e4c-c5ffb3a0d105","system_id":"levelo_inurba_marseille","lat":43.26937,"lon":5.38908,"is_reserved":false,"is_disabled":false,"rental_uris":{"android":"levelo://app?vid=1e06e241-207f-4985-8e4c-c5ffb3a0d105","ios":"levelo://app?vid=1e06e241-207f-4985-8e4c-c5ffb3a0d105"},"vehicle_type_id":"4","last_reported":1761560016,"current_range_meters":7200,"station_id":"ce4bhhh2rcd13ifvqfl0","pricing_plan_id":"cebpf4jnsgd1na2vs0mg"},{"bike_id":"6ee611b3-bf13-495e-a0dc-dfd1a8718271","system_id":"levelo_inurba_marseille","lat":43.29826,"lon":5.4407,"is_reserved":false,"is_disabled":false,"rental_uris":{"android":"levelo://app?vid=6ee611b3-bf13-495e-a0dc-dfd1a8718271","ios":"levelo://app?vid=6ee611b3-bf13-495e-a0dc-dfd1a8718271"},"vehicle_type_id":"4","last_reported":1761560016,"current_range_meters":7200,"station_id":"st_d3jp68qikq2c7381ktn0","pricing_plan_id":"cebpf4jnsgd1na2vs0mg"},{"bike_id":"53619b52-f6a4-4a36-9715-aa47e9e64dbc","system_id":"levelo_inurba_marseille","lat":43.285207,"lon":5.359297,"is_reserved":false,"is_disabled":true,"rental_uris":{"android":"levelo://app?vid=53619b52-f6a4-4a36-9715-aa47e9e64dbc","ios":"levelo://app?vid=53619b52-f6a4-4a36-9715-aa47e9e64dbc"},"vehicle_type_id":"4","last_reported":1761560016,"current_range_meters":7200,"station_id":"","pricing_plan_id":"cebpf4jnsgd1na2vs0mg"},{"bike_id":"169d21d4-f093-4f50-940d-7012435908e5","system_id":"levelo_inurba_marseille","lat":43.28956,"lon":5.38167,"is_reserved":false,"is_disabled":false,"rental_uris":{"android":"levelo://app?vid=169d21d4-f093-4f50-940d-7012435908e5","ios":"levelo://app?vid=169d21d4-f093-4f50-940d-7012435908e5"},"vehicle_type_id":"4","last_reported":1761560016,"current_range_meters":7200,"station_id":"ce4bgjh2rcd13ifvqbf0","pricing_plan_id":"cebpf4jnsgd1na2vs0mg"},{"bike_id":"4ebfc9c9-75aa-4d2a-b7b8-7db1ded305e6","system_id":"levelo_inurba_marseille","lat":43.211885,"lon":5.350839,"is_reserved":false,"is_disabled":false,"rental_uris":{"android":"levelo://app?vid=4ebfc9c9-75aa-4d2a-b7b8-7db1ded305e6","ios":"levelo://app?vid=4ebfc9c9-75aa-4d2a-b7b8-7db1ded305e6"},"vehicle_type_id":"4","last_reported":1761560016,"current_range_meters":8000,"station_id":"st_cvj6sg6p6f1abm77japg","pricing_plan_id":"cebpf4jnsgd1na2vs0mg"},{"bike_id":"e1aa20f8-799a-4567-bfd0-31e71eee617f","system_id":"levelo_inurba_marseille","lat":43.31437,"lon":5.38885,"is_reserved":false,"is_disabled":false,"rental_uris":{"android":"levelo://app?vid=e1aa20f8-799a-4567-bfd0-31e71eee617f","ios":"levelo://app?vid=e1aa20f8-799a-4567-bfd0-31e71eee617f"},"vehicle_type_id":"4","last_reported":1761560016,"current_range_meters":8000,"station_id":"","pricing_plan_id":"cebpf4jnsgd1na2vs0mg"},{"bike_id":"435fe6ee-2777-4641-8e2e-a3e2c782b8b7","system_id":"levelo_inurba_marseille","lat":43.28518,"lon":5.35866,"is_reserved":false,"is_disabled":true,"rental_uris":{"android":"levelo://app?vid=435fe6ee-2777-4641-8e2e-a3e2c782b8b7","ios":"levelo://app?vid=435fe6ee-2777-4641-8e2e-a3e2c782b8b7"},"vehicle_type_id":"4","last_reported":1761560016,"current_range_meters":8000,"station_id":"","pricing_plan_id":"cebpf4jnsgd1na2vs0mg"},{"bike_id":"316e93b7-1283-4d7f-9bee-970cb6576160","system_id":"levelo_inurba_marseille","lat":43.241816,"lon":5.39718,"is_reserved":false,"is_disabled":true,"rental_uris":{"android":"levelo://app?vid=316e93b7-1283-4d7f-9bee-970cb6576160","ios":"levelo://app?vid=316e93b7-1283-4d7f-9bee-970cb6576160"},"vehicle_type_id":"4","last_reported":1761560016,"current_range_meters":8400,"station_id":"","pricing_plan_id":"cebpf4jnsgd1na2vs0mg"},{"bike_id":"5947034f-19ea-4d71-bc4b-92db934cd50e","system_id":"levelo_inurba_marseille","lat":43.21201,"lon":5.35069,"is_reserved":false,"is_disabled":true,"rental_uris":{"android":"levelo://app?vid=5947034f-19ea-4d71-bc4b-92db934cd50e","ios":"levelo://app?vid=5947034f-19ea-4d71-bc4b-92db934cd50e"},"vehicle_type_id":"4","last_reported":1761560016,"current_range_meters":8400,"station_id":"st_cvj6sg6p6f1abm77japg","pricing_plan_id":"cebpf4jnsgd1na2vs0mg"},{"bike_id":"69f39405-4e97-4fbc-a2a8-5ba6eceafe30","system_id":"levelo_inurba_marseille","lat":43.27937,"lon":5.41055,"is_reserved":false,"is_disabled":false,"rental_uris":{"android":"levelo://app?vid=69f39405-4e97-4fbc-a2a8-5ba6eceafe30","ios":"levelo://app?vid=69f39405-4e97-4fbc-a2a8-5ba6eceafe30"},"vehicle_type_id":"4","last_reported":1761560016,"current_range_meters":8400,"station_id":"ce4bhnp2rcd13ifvqh0g","pricing_plan_id":"cebpf4jnsgd1na2vs0mg"},{"bike_id":"7623cd31-fb82-4e03-952b-551082c0dc38","system_id":"levelo_inurba_marseille","lat":43.30961,"lon":5.39044,"is_reserved":false,"is_disabled":false,"rental_uris":{"android":"levelo://app?vid=7623cd31-fb82-4e03-952b-551082c0dc38","ios":"levelo://app?vid=7623cd31-fb82-4e03-952b-551082c0dc38"},"vehicle_type_id":"4","last_reported":1761560016,"current_range_meters":8800,"station_id":"ce4bgup2rcd13ifvqco0","pricing_plan_id":"cebpf4jnsgd1na2vs0mg"},{"bike_id":"902c01d5-f55a-4174-88da-7ed69444c347","system_id":"levelo_inurba_marseille","lat":43.2679,"lon":5.39408,"is_reserved":false,"is_disabled":false,"rental_uris":{"android":"levelo://app?vid=902c01d5-f55a-4174-88da-7ed69444c347","ios":"levelo://app?vid=902c01d5-f55a-4174-88da-7ed69444c347"},"vehicle_type_id":"4","last_reported":1761560016,"current_range_meters":8800,"station_id":"ce4bhh12rcd13ifvqfg0","pricing_plan_id":"cebpf4jnsgd1na2vs0mg"},{"bike_id":"2ff820dd-4701-4c44-978c-027d1723e1a8","system_id":"levelo_inurba_marseille","lat":43.2174,"lon":5.34639,"is_reserved":false,"is_disabled":false,"rental_uris":{"android":"levelo://app?vid=2ff820dd-4701-4c44-978c-027d1723e1a8","ios":"levelo://app?vid=2ff820dd-4701-4c44-978c-027d1723e1a8"},"vehicle_type_id":"4","last_reported":1761560016,"current_range_meters":8800,"station_id":"st_cvj6r9ubvosntc0bgbag","pricing_plan_id":"cebpf4jnsgd1na2vs0mg"},{"bike_id":"c0b81f28-bbba-4247-a74b-c55a34b31846","system_id":"levelo_inurba_marseille","lat":43.33258,"lon":5.41086,"is_reserved":false,"is_disabled":false,"rental_uris":{"android":"levelo://app?vid=c0b81f28-bbba-4247-a74b-c55a34b31846","ios":"levelo://app?vid=c0b81f28-bbba-4247-a74b-c55a34b31846"},"vehicle_type_id":"4","last_reported":1761560016,"current_range_meters":9200,"station_id":"","pricing_plan_id":"cebpf4jnsgd1na2vs0mg"},{"bike_id":"41d45b45-3a52-4b5a-b2b3-1e62d5490ada","system_id":"levelo_inurba_marseille","lat":43.2854,"lon":5.44089,"is_reserved":false,"is_disabled":false,"rental_uris":{"android":"levelo://app?vid=41d45b45-3a52-4b5a-b2b3-1e62d5490ada","ios":"levelo://app?vid=41d45b45-3a52-4b5a-b2b3-1e62d5490ada"},"vehicle_type_id":"4","last_reported":1761560016,"current_range_meters":9200,"station_id":"st_d3j3df2ikq2c7380ej80","pricing_plan_id":"cebpf4jnsgd1na2vs0mg"},{"bike_id":"61e35669-bebb-443d-8601-985c12c6d9ec","system_id":"levelo_inurba_marseille","lat":43.324596,"lon":5.365517,"is_reserved":false,"is_disabled":false,"rental_uris":{"android":"levelo://app?vid=61e35669-bebb-443d-8601-985c12c6d9ec","ios":"levelo://app?vid=61e35669-bebb-443d-8601-985c12c6d9ec"},"vehicle_type_id":"4","last_reported":1761560016,"current_range_meters":9200,"station_id":"ce4bhs12rcd13ifvqhvg","pricing_plan_id":"cebpf4jnsgd1na2vs0mg"},{"bike_id":"67f8857f-0853-46d2-b9ef-96c5ce2639bc","system_id":"levelo_inurba_marseille","lat":43.230518,"lon":5.354981,"is_reserved":false,"is_disabled":false,"rental_uris":{"android":"levelo://app?vid=67f8857f-0853-46d2-b9ef-96c5ce2639bc","ios":"levelo://app?vid=67f8857f-0853-46d2-b9ef-96c5ce2639bc"},"vehicle_type_id":"4","last_reported":1761560016,"current_range_meters":9200,"station_id":"cpo3342slgdg3j2ifvpg","pricing_plan_id":"cebpf4jnsgd1na2vs0mg"},{"bike_id":"af01d055-b0f4-4e21-ab26-45fb6440de15","system_id":"levelo_inurba_marseille","lat":43.29894,"lon":5.4367,"is_reserved":false,"is_disabled":false,"rental_uris":{"android":"levelo://app?vid=af01d055-b0f4-4e21-ab26-45fb6440de15","ios":"levelo://app?vid=af01d055-b0f4-4e21-ab26-45fb6440de15"},"vehicle_type_id":"4","last_reported":1761560016,"current_range_meters":9200,"station_id":"ce4bhpp2rcd13ifvqhfg","pricing_plan_id":"cebpf4jnsgd1na2vs0mg"},{"bike_id":"64b75b4a-3497-4861-8cc2-90dd62cd9f5e","system_id":"levelo_inurba_marseille","lat":43.293061,"lon":5.434447,"is_reserved":false,"is_disabled":false,"rental_uris":{"android":"levelo://app?vid=64b75b4a-3497-4861-8cc2-90dd62cd9f5e","ios":"levelo://app?vid=64b75b4a-3497-4861-8cc2-90dd62cd9f5e"},"vehicle_type_id":"4","last_reported":1761560016,"current_range_meters":9600,"station_id":"","pricing_plan_id":"cebpf4jnsgd1na2vs0mg"},{"bike_id":"e4ccce50-4824-4895-aa8c-033835526f23","system_id":"levelo_inurba_marseille","lat":43.318793,"lon":5.399935,"is_reserved":false,"is_disabled":false,"rental_uris":{"android":"levelo://app?vid=e4ccce50-4824-4895-aa8c-033835526f23","ios":"levelo://app?vid=e4ccce50-4824-4895-aa8c-033835526f23"},"vehicle_type_id":"4","last_reported":1761560016,"current_range_meters":9600,"station_id":"","pricing_plan_id":"cebpf4jnsgd1na2vs0mg"},{"bike_id":"de5cece4-6186-4ccb-b70e-a25e8bd3fc86","system_id":"levelo_inurba_marseille","lat":43.337444,"lon":5.374475,"is_reserved":false,"is_disabled":false,"rental_uris":{"android":"levelo://app?vid=de5cece4-6186-4ccb-b70e-a25e8bd3fc86","ios":"levelo://app?vid=de5cece4-6186-4ccb-b70e-a25e8bd3fc86"},"vehicle_type_id":"4","last_reported":1761560016,"current_range_meters":9600,"station_id":"","pricing_plan_id":"cebpf4jnsgd1na2vs0mg"},{"bike_id":"8847af5d-c1ad-4d8d-a5c1-273c3b41c105","system_id":"levelo_inurba_marseille","lat":43.322435,"lon":5.419617,"is_reserved":false,"is_disabled":false,"rental_uris":{"android":"levelo://app?vid=8847af5d-c1ad-4d8d-a5c1-273c3b41c105","ios":"levelo://app?vid=8847af5d-c1ad-4d8d-a5c1-273c3b41c105"},"vehicle_type_id":"4","last_reported":1761560016,"current_range_meters":10000,"station_id":"","pricing_plan_id":"cebpf4jnsgd1na2vs0mg"},{"bike_id":"317107fa-306d-4b8d-9380-a16cd06486ce","system_id":"levelo_inurba_marseille","lat":43.28464,"lon":5.35907,"is_reserved":false,"is_disabled":true,"rental_uris":{"android":"levelo://app?vid=317107fa-306d-4b8d-9380-a16cd06486ce","ios":"levelo://app?vid=317107fa-306d-4b8d-9380-a16cd06486ce"},"vehicle_type_id":"4","last_reported":1761560016,"current_range_meters":10000,"station_id":"ce4bhah2rcd13ifvqei0","pricing_plan_id":"cebpf4jnsgd1na2vs0mg"},{"bike_id":"42159da2-7c15-4d16-84b3-fba226689639","system_id":"levelo_inurba_marseille","lat":43.284766,"lon":5.384262,"is_reserved":false,"is_disabled":false,"rental_uris":{"android":"levelo://app?vid=42159da2-7c15-4d16-84b3-fba226689639","ios":"levelo://app?vid=42159da2-7c15-4d16-84b3-fba226689639"},"vehicle_type_id":"4","last_reported":1761560016,"current_range_meters":10000,"station_id":"ce4bh512rcd13ifvqe3g","pricing_plan_id":"cebpf4jnsgd1na2vs0mg"},{"bike_id":"6b72c8e1-fe87-4635-90aa-72f1e663fb65","system_id":"levelo_inurba_marseille","lat":43.27368,"lon":5.36246,"is_reserved":false,"is_disabled":false,"rental_uris":{"android":"levelo://app?vid=6b72c8e1-fe87-4635-90aa-72f1e663fb65","ios":"levelo://app?vid=6b72c8e1-fe87-4635-90aa-72f1e663fb65"},"vehicle_type_id":"4","last_reported":1761560016,"current_range_meters":10000,"station_id":"ce4bhbh2rcd13ifvqeo0","pricing_plan_id":"cebpf4jnsgd1na2vs0mg"},{"bike_id":"9cd19ba9-4f1a-4144-aa0c-44e9694ec0c6","system_id":"levelo_inurba_marseille","lat":43.27056,"lon":5.38304,"is_reserved":false,"is_disabled":false,"rental_uris":{"android":"levelo://app?vid=9cd19ba9-4f1a-4144-aa0c-44e9694ec0c6","ios":"levelo://app?vid=9cd19ba9-4f1a-4144-aa0c-44e9694ec0c6"},"vehicle_type_id":"4","last_reported":1761560016,"current_range_meters":10000,"station_id":"st_d3n2fo6cfp8s73cte1j0","pricing_plan_id":"cebpf4jnsgd1na2vs0mg"},{"bike_id":"de0ca7a8-116a-46c8-8c50-6b445a473423","system_id":"levelo_inurba_marseille","lat":43.288731,"lon":5.425136,"is_reserved":false,"is_disabled":false,"rental_uris":{"android":"levelo://app?vid=de0ca7a8-116a-46c8-8c50-6b445a473423","ios":"levelo://app?vid=de0ca7a8-116a-46c8-8c50-6b445a473423"},"vehicle_type_id":"4","last_reported":1761560016,"current_range_meters":10800,"station_id":"st_d3b462108ojc7389ooeg","pricing_plan_id":"cebpf4jnsgd1na2vs0mg"},{"bike_id":"794bb481-f4aa-4422-957f-261e787e6efa","system_id":"levelo_inurba_marseille","lat":43.251083,"lon":5.403258,"is_reserved":false,"is_disabled":false,"rental_uris":{"android":"levelo://app?vid=794bb481-f4aa-4422-957f-261e787e6efa","ios":"levelo://app?vid=794bb481-f4aa-4422-957f-261e787e6efa"},"vehicle_type_id":"4","last_reported":1761560016,"current_range_meters":10800,"station_id":"ce4bhlh2rcd13ifvqgig","pricing_plan_id":"cebpf4jnsgd1na2vs0mg"},{"bike_id":"2acad6aa-9d5b-4a01-bcd2-5f98afb67aca","system_id":"levelo_inurba_marseille","lat":43.30137,"lon":5.38772,"is_reserved":false,"is_disabled":false,"rental_uris":{"android":"levelo://app?vid=2acad6aa-9d5b-4a01-bcd2-5f98afb67aca","ios":"levelo://app?vid=2acad6aa-9d5b-4a01-bcd2-5f98afb67aca"},"vehicle_type_id":"4","last_reported":1761560016,"current_range_meters":10800,"station_id":"ce4bghh2rcd13ifvqb60","pricing_plan_id":"cebpf4jnsgd1na2vs0mg"},{"bike_id":"08b89487-7647-4a54-9c05-2a9b71119650","system_id":"levelo_inurba_marseille","lat":43.32474,"lon":5.36596,"is_reserved":false,"is_disabled":false,"rental_uris":{"android":"levelo://app?vid=08b89487-7647-4a54-9c05-2a9b71119650","ios":"levelo://app?vid=08b89487-7647-4a54-9c05-2a9b71119650"},"vehicle_type_id":"4","last_reported":1761560016,"current_range_meters":11200,"station_id":"ce4bhs12rcd13ifvqhvg","pricing_plan_id":"cebpf4jnsgd1na2vs0mg"},{"bike_id":"27767c00-e687-41c1-af3a-b5c0e840893f","system_id":"levelo_inurba_marseille","lat":43.3136,"lon":5.38495,"is_reserved":false,"is_disabled":false,"rental_uris":{"android":"levelo://app?vid=27767c00-e687-41c1-af3a-b5c0e840893f","ios":"levelo://app?vid=27767c00-e687-41c1-af3a-b5c0e840893f"},"vehicle_type_id":"4","last_reported":1761560016,"current_range_meters":11200,"station_id":"ce4bgt92rcd13ifvqcf0","pricing_plan_id":"cebpf4jnsgd1na2vs0mg"},{"bike_id":"db6f7061-18bc-4c94-990f-317fdc9db0bb","system_id":"levelo_inurba_marseille","lat":43.27966,"lon":5.38744,"is_reserved":false,"is_disabled":false,"rental_uris":{"android":"levelo://app?vid=db6f7061-18bc-4c94-990f-317fdc9db0bb","ios":"levelo://app?vid=db6f7061-18bc-4c94-990f-317fdc9db0bb"},"vehicle_type_id":"4","last_reported":1761560016,"current_range_meters":11200,"station_id":"ce4bhg12rcd13ifvqf80","pricing_plan_id":"cebpf4jnsgd1na2vs0mg"},{"bike_id":"d9bb607d-1ecc-49cc-9f82-e52383a3bc84","system_id":"levelo_inurba_marseille","lat":43.29322,"lon":5.41156,"is_reserved":false,"is_disabled":false,"rental_uris":{"android":"levelo://app?vid=d9bb607d-1ecc-49cc-9f82-e52383a3bc84","ios":"levelo://app?vid=d9bb607d-1ecc-49cc-9f82-e52383a3bc84"},"vehicle_type_id":"4","last_reported":1761560016,"current_range_meters":11200,"station_id":"","pricing_plan_id":"cebpf4jnsgd1na2vs0mg"},{"bike_id":"526cddf7-e629-4e01-a3fa-d060ef7dfdd4","system_id":"levelo_inurba_marseille","lat":43.246496,"lon":5.389017,"is_reserved":false,"is_disabled":false,"rental_uris":{"android":"levelo://app?vid=526cddf7-e629-4e01-a3fa-d060ef7dfdd4","ios":"levelo://app?vid=526cddf7-e629-4e01-a3fa-d060ef7dfdd4"},"vehicle_type_id":"4","last_reported":1761560016,"current_range_meters":11200,"station_id":"ce4bhg12rcd13ifvqf60","pricing_plan_id":"cebpf4jnsgd1na2vs0mg"},{"bike_id":"e1e52986-b4be-48cf-8d1b-469bd3ba3bac","system_id":"levelo_inurba_marseille","lat":43.26488,"lon":5.39533,"is_reserved":false,"is_disabled":false,"rental_uris":{"android":"levelo://app?vid=e1e52986-b4be-48cf-8d1b-469bd3ba3bac","ios":"levelo://app?vid=e1e52986-b4be-48cf-8d1b-469bd3ba3bac"},"vehicle_type_id":"4","last_reported":1761560016,"current_range_meters":11600,"station_id":"ce4bhi12rcd13ifvqfq0","pricing_plan_id":"cebpf4jnsgd1na2vs0mg"},{"bike_id":"8f51738f-422c-4996-a842-22ea0eb29b60","system_id":"levelo_inurba_marseille","lat":43.31161,"lon":5.38717,"is_reserved":false,"is_disabled":false,"rental_uris":{"android":"levelo://app?vid=8f51738f-422c-4996-a842-22ea0eb29b60","ios":"levelo://app?vid=8f51738f-422c-4996-a842-22ea0eb29b60"},"vehicle_type_id":"4","last_reported":1761560016,"current_range_meters":11600,"station_id":"ce4bgv12rcd13ifvqcp0","pricing_plan_id":"cebpf4jnsgd1na2vs0mg"},{"bike_id":"7348219f-62a2-4f61-9dc3-4c6ae6e126f0","system_id":"levelo_inurba_marseille","lat":43.33752,"lon":5.37465,"is_reserved":false,"is_disabled":false,"rental_uris":{"android":"levelo://app?vid=7348219f-62a2-4f61-9dc3-4c6ae6e126f0","ios":"levelo://app?vid=7348219f-62a2-4f61-9dc3-4c6ae6e126f0"},"vehicle_type_id":"4","last_reported":1761560016,"current_range_meters":12000,"station_id":"","pricing_plan_id":"cebpf4jnsgd1na2vs0mg"},{"bike_id":"666f0932-9c23-4a52-b974-d421a037b0e9","system_id":"levelo_inurba_marseille","lat":43.24391,"lon":5.37057,"is_reserved":false,"is_disabled":false,"rental_uris":{"android":"levelo://app?vid=666f0932-9c23-4a52-b974-d421a037b0e9","ios":"levelo://app?vid=666f0932-9c23-4a52-b974-d421a037b0e9"},"vehicle_type_id":"4","last_reported":1761560016,"current_range_meters":12000,"station_id":"ce4bhhh2rcd13ifvqfk0","pricing_plan_id":"cebpf4jnsgd1na2vs0mg"},{"bike_id":"ce15d64c-7bd4-4017-a01a-0dc353c2995b","system_id":"levelo_inurba_marseille","lat":43.2813,"lon":5.350241,"is_reserved":false,"is_disabled":false,"rental_uris":{"android":"levelo://app?vid=ce15d64c-7bd4-4017-a01a-0dc353c2995b","ios":"levelo://app?vid=ce15d64c-7bd4-4017-a01a-0dc353c2995b"},"vehicle_type_id":"4","last_reported":1761560016,"current_range_meters":12000,"station_id":"","pricing_plan_id":"cebpf4jnsgd1na2vs0mg"},{"bike_id":"9c3b3c9d-57bc-4103-8700-477b05e217a2","system_id":"levelo_inurba_marseille","lat":43.29867,"lon":5.39723,"is_reserved":false,"is_disabled":false,"rental_uris":{"android":"levelo://app?vid=9c3b3c9d-57bc-4103-8700-477b05e217a2","ios":"levelo://app?vid=9c3b3c9d-57bc-4103-8700-477b05e217a2"},"vehicle_type_id":"4","last_reported":1761560016,"current_range_meters":12400,"station_id":"ce4bh0h2rcd13ifvqd50","pricing_plan_id":"cebpf4jnsgd1na2vs0mg"},{"bike_id":"dfc32f03-dd9f-47df-b204-94698d3e763d","system_id":"levelo_inurba_marseille","lat":43.265679,"lon":5.403178,"is_reserved":false,"is_disabled":false,"rental_uris":{"android":"levelo://app?vid=dfc32f03-dd9f-47df-b204-94698d3e763d","ios":"levelo://app?vid=dfc32f03-dd9f-47df-b204-94698d3e763d"},"vehicle_type_id":"4","last_reported":1761560016,"current_range_meters":12800,"station_id":"ce4bhmp2rcd13ifvqgng","pricing_plan_id":"cebpf4jnsgd1na2vs0mg"},{"bike_id":"376f37db-9367-433a-9ac4-7f57991dd845","system_id":"levelo_inurba_marseille","lat":43.32108,"lon":5.3677,"is_reserved":false,"is_disabled":false,"rental_uris":{"android":"levelo://app?vid=376f37db-9367-433a-9ac4-7f57991dd845","ios":"levelo://app?vid=376f37db-9367-433a-9ac4-7f57991dd845"},"vehicle_type_id":"4","last_reported":1761560016,"current_range_meters":12800,"station_id":"ce4bhrh2rcd13ifvqhug","pricing_plan_id":"cebpf4jnsgd1na2vs0mg"},{"bike_id":"2d81c006-1fd2-4272-a05a-8c5795aa776d","system_id":"levelo_inurba_marseille","lat":43.28706,"lon":5.37402,"is_reserved":false,"is_disabled":false,"rental_uris":{"android":"levelo://app?vid=2d81c006-1fd2-4272-a05a-8c5795aa776d","ios":"levelo://app?vid=2d81c006-1fd2-4272-a05a-8c5795aa776d"},"vehicle_type_id":"4","last_reported":1761560016,"current_range_meters":12800,"station_id":"ce4bh3p2rcd13ifvqdq0","pricing_plan_id":"cebpf4jnsgd1na2vs0mg"},{"bike_id":"eba9fed6-6429-42a5-a761-24c63719d768","system_id":"levelo_inurba_marseille","lat":43.31325,"lon":5.39687,"is_reserved":false,"is_disabled":false,"rental_uris":{"android":"levelo://app?vid=eba9fed6-6429-42a5-a761-24c63719d768","ios":"levelo://app?vid=eba9fed6-6429-42a5-a761-24c63719d768"},"vehicle_type_id":"4","last_reported":1761560016,"current_range_meters":12800,"station_id":"ce4bgvp2rcd13ifvqcu0","pricing_plan_id":"cebpf4jnsgd1na2vs0mg"},{"bike_id":"c9006c79-0fd8-42fd-b14f-27c519b5c1c6","system_id":"levelo_inurba_marseille","lat":43.24069,"lon":5.37761,"is_reserved":false,"is_disabled":false,"rental_uris":{"android":"levelo://app?vid=c9006c79-0fd8-42fd-b14f-27c519b5c1c6","ios":"levelo://app?vid=c9006c79-0fd8-42fd-b14f-27c519b5c1c6"},"vehicle_type_id":"4","last_reported":1761560016,"current_range_meters":12800,"station_id":"ce4bhnp2rcd13ifvqgvg","pricing_plan_id":"cebpf4jnsgd1na2vs0mg"},{"bike_id":"8ce4acf9-3cce-4a2c-80a0-2e9ba0bb1c6c","system_id":"levelo_inurba_marseille","lat":43.241784,"lon":5.397206,"is_reserved":false,"is_disabled":false,"rental_uris":{"android":"levelo://app?vid=8ce4acf9-3cce-4a2c-80a0-2e9ba0bb1c6c","ios":"levelo://app?vid=8ce4acf9-3cce-4a2c-80a0-2e9ba0bb1c6c"},"vehicle_type_id":"4","last_reported":1761560016,"current_range_meters":13600,"station_id":"ce4bhn12rcd13ifvqgpg","pricing_plan_id":"cebpf4jnsgd1na2vs0mg"},{"bike_id":"f6f41915-49e3-4fb8-8c5c-96d42e084e15","system_id":"levelo_inurba_marseille","lat":43.32035,"lon":5.37112,"is_reserved":false,"is_disabled":false,"rental_uris":{"android":"levelo://app?vid=f6f41915-49e3-4fb8-8c5c-96d42e084e15","ios":"levelo://app?vid=f6f41915-49e3-4fb8-8c5c-96d42e084e15"},"vehicle_type_id":"4","last_reported":1761560016,"current_range_meters":13600,"station_id":"","pricing_plan_id":"cebpf4jnsgd1na2vs0mg"},{"bike_id":"9257d08c-8829-4b03-a26b-db35ab9def75","system_id":"levelo_inurba_marseille","lat":43.2499,"lon":5.38937,"is_reserved":false,"is_disabled":false,"rental_uris":{"android":"levelo://app?vid=9257d08c-8829-4b03-a26b-db35ab9def75","ios":"levelo://app?vid=9257d08c-8829-4b03-a26b-db35ab9def75"},"vehicle_type_id":"4","last_reported":1761560016,"current_range_meters":13600,"station_id":"ce4bhgp2rcd13ifvqfd0","pricing_plan_id":"cebpf4jnsgd1na2vs0mg"},{"bike_id":"4f1d1084-f98b-45dc-ab7a-d701a344effd","system_id":"levelo_inurba_marseille","lat":43.26214,"lon":5.37435,"is_reserved":false,"is_disabled":false,"rental_uris":{"android":"levelo://app?vid=4f1d1084-f98b-45dc-ab7a-d701a344effd","ios":"levelo://app?vid=4f1d1084-f98b-45dc-ab7a-d701a344effd"},"vehicle_type_id":"4","last_reported":1761560016,"current_range_meters":13600,"station_id":"ce4bhgp2rcd13ifvqfc0","pricing_plan_id":"cebpf4jnsgd1na2vs0mg"},{"bike_id":"7cd06c8e-20e0-4a7b-bdd0-d1a902d0086a","system_id":"levelo_inurba_marseille","lat":43.262253,"lon":5.404562,"is_reserved":false,"is_disabled":false,"rental_uris":{"android":"levelo://app?vid=7cd06c8e-20e0-4a7b-bdd0-d1a902d0086a","ios":"levelo://app?vid=7cd06c8e-20e0-4a7b-bdd0-d1a902d0086a"},"vehicle_type_id":"4","last_reported":1761560016,"current_range_meters":13600,"station_id":"ce4bhmh2rcd13ifvqgmg","pricing_plan_id":"cebpf4jnsgd1na2vs0mg"},{"bike_id":"d23bf304-8579-4071-b2a4-61dc68f83575","system_id":"levelo_inurba_marseille","lat":43.21197,"lon":5.35066,"is_reserved":false,"is_disabled":false,"rental_uris":{"android":"levelo://app?vid=d23bf304-8579-4071-b2a4-61dc68f83575","ios":"levelo://app?vid=d23bf304-8579-4071-b2a4-61dc68f83575"},"vehicle_type_id":"4","last_reported":1761560016,"current_range_meters":14000,"station_id":"st_cvj6sg6p6f1abm77japg","pricing_plan_id":"cebpf4jnsgd1na2vs0mg"},{"bike_id":"0d1cd028-2da3-4597-bd66-2e04c16f7267","system_id":"levelo_inurba_marseille","lat":43.29021,"lon":5.38139,"is_reserved":false,"is_disabled":false,"rental_uris":{"android":"levelo://app?vid=0d1cd028-2da3-4597-bd66-2e04c16f7267","ios":"levelo://app?vid=0d1cd028-2da3-4597-bd66-2e04c16f7267"},"vehicle_type_id":"4","last_reported":1761560016,"current_range_meters":14000,"station_id":"ce4bh4p2rcd13ifvqe1g","pricing_plan_id":"cebpf4jnsgd1na2vs0mg"},{"bike_id":"bffeb00f-b3a2-490c-bdf1-90b7d30a1af7","system_id":"levelo_inurba_marseille","lat":43.290978,"lon":5.381433,"is_reserved":false,"is_disabled":false,"rental_uris":{"android":"levelo://app?vid=bffeb00f-b3a2-490c-bdf1-90b7d30a1af7","ios":"levelo://app?vid=bffeb00f-b3a2-490c-bdf1-90b7d30a1af7"},"vehicle_type_id":"4","last_reported":1761560016,"current_range_meters":14000,"station_id":"ce4bh512rcd13ifvqe2g","pricing_plan_id":"cebpf4jnsgd1na2vs0mg"},{"bike_id":"78bfa175-71b2-4855-9faa-dc9c3f2f5d72","system_id":"levelo_inurba_marseille","lat":43.30936,"lon":5.40141,"is_reserved":false,"is_disabled":false,"rental_uris":{"android":"levelo://app?vid=78bfa175-71b2-4855-9faa-dc9c3f2f5d72","ios":"levelo://app?vid=78bfa175-71b2-4855-9faa-dc9c3f2f5d72"},"vehicle_type_id":"4","last_reported":1761560016,"current_range_meters":14400,"station_id":"ce4bgvp2rcd13ifvqct0","pricing_plan_id":"cebpf4jnsgd1na2vs0mg"},{"bike_id":"71fe0d6a-f99e-45a0-9c75-e294b78524b2","system_id":"levelo_inurba_marseille","lat":43.212,"lon":5.35063,"is_reserved":false,"is_disabled":false,"rental_uris":{"android":"levelo://app?vid=71fe0d6a-f99e-45a0-9c75-e294b78524b2","ios":"levelo://app?vid=71fe0d6a-f99e-45a0-9c75-e294b78524b2"},"vehicle_type_id":"4","last_reported":1761560016,"current_range_meters":14400,"station_id":"st_cvj6sg6p6f1abm77japg","pricing_plan_id":"cebpf4jnsgd1na2vs0mg"},{"bike_id":"83106217-f024-4381-9607-50194d3370ce","system_id":"levelo_inurba_marseille","lat":43.24171,"lon":5.36383,"is_reserved":false,"is_disabled":false,"rental_uris":{"android":"levelo://app?vid=83106217-f024-4381-9607-50194d3370ce","ios":"levelo://app?vid=83106217-f024-4381-9607-50194d3370ce"},"vehicle_type_id":"4","last_reported":1761560016,"current_range_meters":14400,"station_id":"cpo36qri1sfpv3e86is0","pricing_plan_id":"cebpf4jnsgd1na2vs0mg"},{"bike_id":"c326d822-2e69-4869-8a6c-4f8bda919b5d","system_id":"levelo_inurba_marseille","lat":43.299744,"lon":5.384882,"is_reserved":false,"is_disabled":false,"rental_uris":{"android":"levelo://app?vid=c326d822-2e69-4869-8a6c-4f8bda919b5d","ios":"levelo://app?vid=c326d822-2e69-4869-8a6c-4f8bda919b5d"},"vehicle_type_id":"4","last_reported":1761560016,"current_range_meters":14400,"station_id":"ce4bgj92rcd13ifvqbd0","pricing_plan_id":"cebpf4jnsgd1na2vs0mg"},{"bike_id":"99604b58-d182-4334-99ee-a0cd33dddfef","system_id":"levelo_inurba_marseille","lat":43.29462,"lon":5.38589,"is_reserved":false,"is_disabled":false,"rental_uris":{"android":"levelo://app?vid=99604b58-d182-4334-99ee-a0cd33dddfef","ios":"levelo://app?vid=99604b58-d182-4334-99ee-a0cd33dddfef"},"vehicle_type_id":"4","last_reported":1761560016,"current_range_meters":14400,"station_id":"","pricing_plan_id":"cebpf4jnsgd1na2vs0mg"},{"bike_id":"b83891d3-7971-45ae-9af3-651a6e6209e2","system_id":"levelo_inurba_marseille","lat":43.23189,"lon":5.35553,"is_reserved":false,"is_disabled":false,"rental_uris":{"android":"levelo://app?vid=b83891d3-7971-45ae-9af3-651a6e6209e2","ios":"levelo://app?vid=b83891d3-7971-45ae-9af3-651a6e6209e2"},"vehicle_type_id":"4","last_reported":1761560016,"current_range_meters":14800,"station_id":"ce4bhu92rcd13ifvqi70","pricing_plan_id":"cebpf4jnsgd1na2vs0mg"},{"bike_id":"bbbf3dbb-fbe2-4b7e-bfad-c027ca4e1c25","system_id":"levelo_inurba_marseille","lat":43.284834,"lon":5.483891,"is_reserved":false,"is_disabled":false,"rental_uris":{"android":"levelo://app?vid=bbbf3dbb-fbe2-4b7e-bfad-c027ca4e1c25","ios":"levelo://app?vid=bbbf3dbb-fbe2-4b7e-bfad-c027ca4e1c25"},"vehicle_type_id":"4","last_reported":1761560016,"current_range_meters":14800,"station_id":"st_d3svhcjqgbts73a3dn0g","pricing_plan_id":"cebpf4jnsgd1na2vs0mg"},{"bike_id":"36dae71f-ce97-4300-afd0-d3737980e549","system_id":"levelo_inurba_marseille","lat":43.3092,"lon":5.40154,"is_reserved":false,"is_disabled":false,"rental_uris":{"android":"levelo://app?vid=36dae71f-ce97-4300-afd0-d3737980e549","ios":"levelo://app?vid=36dae71f-ce97-4300-afd0-d3737980e549"},"vehicle_type_id":"4","last_reported":1761560016,"current_range_meters":14800,"station_id":"ce4bgvp2rcd13ifvqct0","pricing_plan_id":"cebpf4jnsgd1na2vs0mg"},{"bike_id":"e92a5181-3093-4535-adde-2230374de0aa","system_id":"levelo_inurba_marseille","lat":43.313349,"lon":5.376734,"is_reserved":false,"is_disabled":false,"rental_uris":{"android":"levelo://app?vid=e92a5181-3093-4535-adde-2230374de0aa","ios":"levelo://app?vid=e92a5181-3093-4535-adde-2230374de0aa"},"vehicle_type_id":"4","last_reported":1761560016,"current_range_meters":14800,"station_id":"","pricing_plan_id":"cebpf4jnsgd1na2vs0mg"},{"bike_id":"db6b0a70-a0e5-4561-8126-0a15ed7fd65d","system_id":"levelo_inurba_marseille","lat":43.294429,"lon":5.39745,"is_reserved":false,"is_disabled":false,"rental_uris":{"android":"levelo://app?vid=db6b0a70-a0e5-4561-8126-0a15ed7fd65d","ios":"levelo://app?vid=db6b0a70-a0e5-4561-8126-0a15ed7fd65d"},"vehicle_type_id":"4","last_reported":1761560016,"current_range_meters":14800,"station_id":"ce4bh3h2rcd13ifvqdo0","pricing_plan_id":"cebpf4jnsgd1na2vs0mg"},{"bike_id":"fe746239-3447-43ae-9d1c-80ab4dc07a78","system_id":"levelo_inurba_marseille","lat":43.273069,"lon":5.390786,"is_reserved":false,"is_disabled":false,"rental_uris":{"android":"levelo://app?vid=fe746239-3447-43ae-9d1c-80ab4dc07a78","ios":"levelo://app?vid=fe746239-3447-43ae-9d1c-80ab4dc07a78"},"vehicle_type_id":"4","last_reported":1761560016,"current_range_meters":14800,"station_id":"ce4bhgp2rcd13ifvqfe0","pricing_plan_id":"cebpf4jnsgd1na2vs0mg"},{"bike_id":"e32a1d2e-8cfe-45ad-bcd2-1241d7d971e9","system_id":"levelo_inurba_marseille","lat":43.28609,"lon":5.351,"is_reserved":false,"is_disabled":false,"rental_uris":{"android":"levelo://app?vid=e32a1d2e-8cfe-45ad-bcd2-1241d7d971e9","ios":"levelo://app?vid=e32a1d2e-8cfe-45ad-bcd2-1241d7d971e9"},"vehicle_type_id":"4","last_reported":1761560016,"current_range_meters":14800,"station_id":"ce4bhch2rcd13ifvqeug","pricing_plan_id":"cebpf4jnsgd1na2vs0mg"},{"bike_id":"f506af0b-8dfd-4fc6-bd42-980b6481ca67","system_id":"levelo_inurba_marseille","lat":43.298,"lon":5.37902,"is_reserved":false,"is_disabled":false,"rental_uris":{"android":"levelo://app?vid=f506af0b-8dfd-4fc6-bd42-980b6481ca67","ios":"levelo://app?vid=f506af0b-8dfd-4fc6-bd42-980b6481ca67"},"vehicle_type_id":"4","last_reported":1761560016,"current_range_meters":15200,"station_id":"","pricing_plan_id":"cebpf4jnsgd1na2vs0mg"},{"bike_id":"93ef566c-0909-48d1-8deb-d11c9c5aea5b","system_id":"levelo_inurba_marseille","lat":43.323643,"lon":5.367564,"is_reserved":false,"is_disabled":false,"rental_uris":{"android":"levelo://app?vid=93ef566c-0909-48d1-8deb-d11c9c5aea5b","ios":"levelo://app?vid=93ef566c-0909-48d1-8deb-d11c9c5aea5b"},"vehicle_type_id":"4","last_reported":1761560016,"current_range_meters":15200,"station_id":"ce4bhsh2rcd13ifvqi2g","pricing_plan_id":"cebpf4jnsgd1na2vs0mg"},{"bike_id":"049c1c35-f641-4473-ba9e-aa3782a034c4","system_id":"levelo_inurba_marseille","lat":43.243866,"lon":5.370612,"is_reserved":false,"is_disabled":false,"rental_uris":{"android":"levelo://app?vid=049c1c35-f641-4473-ba9e-aa3782a034c4","ios":"levelo://app?vid=049c1c35-f641-4473-ba9e-aa3782a034c4"},"vehicle_type_id":"4","last_reported":1761560016,"current_range_meters":15200,"station_id":"ce4bhhh2rcd13ifvqfk0","pricing_plan_id":"cebpf4jnsgd1na2vs0mg"},{"bike_id":"77f9185e-36fc-4761-b81d-3e18a340e29c","system_id":"levelo_inurba_marseille","lat":43.29439,"lon":5.39763,"is_reserved":false,"is_disabled":false,"rental_uris":{"android":"levelo://app?vid=77f9185e-36fc-4761-b81d-3e18a340e29c","ios":"levelo://app?vid=77f9185e-36fc-4761-b81d-3e18a340e29c"},"vehicle_type_id":"4","last_reported":1761560016,"current_range_meters":15200,"station_id":"ce4bh3h2rcd13ifvqdo0","pricing_plan_id":"cebpf4jnsgd1na2vs0mg"},{"bike_id":"27e624cb-064c-4d87-8b98-5d613fc327dd","system_id":"levelo_inurba_marseille","lat":43.31343,"lon":5.3672,"is_reserved":false,"is_disabled":false,"rental_uris":{"android":"levelo://app?vid=27e624cb-064c-4d87-8b98-5d613fc327dd","ios":"levelo://app?vid=27e624cb-064c-4d87-8b98-5d613fc327dd"},"vehicle_type_id":"4","last_reported":1761560016,"current_range_meters":15200,"station_id":"ce4bgr92rcd13ifvqc6g","pricing_plan_id":"cebpf4jnsgd1na2vs0mg"},{"bike_id":"1b7829fd-c993-41fc-94f6-0cddf3da8a25","system_id":"levelo_inurba_marseille","lat":43.24804,"lon":5.37464,"is_reserved":false,"is_disabled":false,"rental_uris":{"android":"levelo://app?vid=1b7829fd-c993-41fc-94f6-0cddf3da8a25","ios":"levelo://app?vid=1b7829fd-c993-41fc-94f6-0cddf3da8a25"},"vehicle_type_id":"4","last_reported":1761560016,"current_range_meters":15200,"station_id":"ce4bhgh2rcd13ifvqfb0","pricing_plan_id":"cebpf4jnsgd1na2vs0mg"},{"bike_id":"bda00ed7-c212-40d5-b194-9a52242d8457","system_id":"levelo_inurba_marseille","lat":43.217773,"lon":5.346126,"is_reserved":false,"is_disabled":false,"rental_uris":{"android":"levelo://app?vid=bda00ed7-c212-40d5-b194-9a52242d8457","ios":"levelo://app?vid=bda00ed7-c212-40d5-b194-9a52242d8457"},"vehicle_type_id":"4","last_reported":1761560016,"current_range_meters":15200,"station_id":"st_cvj6r9ubvosntc0bgbag","pricing_plan_id":"cebpf4jnsgd1na2vs0mg"},{"bike_id":"fdc43030-5704-454e-ad42-cd94061c06a1","system_id":"levelo_inurba_marseille","lat":43.32083,"lon":5.36805,"is_reserved":false,"is_disabled":false,"rental_uris":{"android":"levelo://app?vid=fdc43030-5704-454e-ad42-cd94061c06a1","ios":"levelo://app?vid=fdc43030-5704-454e-ad42-cd94061c06a1"},"vehicle_type_id":"4","last_reported":1761560016,"current_range_meters":15200,"station_id":"ce4bhrh2rcd13ifvqhug","pricing_plan_id":"cebpf4jnsgd1na2vs0mg"},{"bike_id":"1880ebb9-7edb-463e-976b-226e958b9ebe","system_id":"levelo_inurba_marseille","lat":43.31097,"lon":5.37487,"is_reserved":false,"is_disabled":false,"rental_uris":{"android":"levelo://app?vid=1880ebb9-7edb-463e-976b-226e958b9ebe","ios":"levelo://app?vid=1880ebb9-7edb-463e-976b-226e958b9ebe"},"vehicle_type_id":"4","last_reported":1761560016,"current_range_meters":16000,"station_id":"ce4bgt12rcd13ifvqce0","pricing_plan_id":"cebpf4jnsgd1na2vs0mg"},{"bike_id":"26a33dcf-50de-4561-a5e9-8254886f89ed","system_id":"levelo_inurba_marseille","lat":43.25155,"lon":5.39315,"is_reserved":false,"is_disabled":false,"rental_uris":{"android":"levelo://app?vid=26a33dcf-50de-4561-a5e9-8254886f89ed","ios":"levelo://app?vid=26a33dcf-50de-4561-a5e9-8254886f89ed"},"vehicle_type_id":"4","last_reported":1761560016,"current_range_meters":16000,"station_id":"","pricing_plan_id":"cebpf4jnsgd1na2vs0mg"},{"bike_id":"a41981bd-a928-4902-9568-a616a6fe5616","system_id":"levelo_inurba_marseille","lat":43.31472,"lon":5.37322,"is_reserved":false,"is_disabled":false,"rental_uris":{"android":"levelo://app?vid=a41981bd-a928-4902-9568-a616a6fe5616","ios":"levelo://app?vid=a41981bd-a928-4902-9568-a616a6fe5616"},"vehicle_type_id":"4","last_reported":1761560016,"current_range_meters":16000,"station_id":"ce4bgt12rcd13ifvqcd0","pricing_plan_id":"cebpf4jnsgd1na2vs0mg"},{"bike_id":"6865232e-a588-47ef-9fb8-8d4bfd9bf3f5","system_id":"levelo_inurba_marseille","lat":43.23151,"lon":5.43719,"is_reserved":false,"is_disabled":false,"rental_uris":{"android":"levelo://app?vid=6865232e-a588-47ef-9fb8-8d4bfd9bf3f5","ios":"levelo://app?vid=6865232e-a588-47ef-9fb8-8d4bfd9bf3f5"},"vehicle_type_id":"4","last_reported":1761560016,"current_range_meters":16000,"station_id":"ce4bhmp2rcd13ifvqgog","pricing_plan_id":"cebpf4jnsgd1na2vs0mg"},{"bike_id":"9d8ebc8c-f00c-42c5-a2de-7f9b8c36d074","system_id":"levelo_inurba_marseille","lat":43.26681,"lon":5.38268,"is_reserved":false,"is_disabled":false,"rental_uris":{"android":"levelo://app?vid=9d8ebc8c-f00c-42c5-a2de-7f9b8c36d074","ios":"levelo://app?vid=9d8ebc8c-f00c-42c5-a2de-7f9b8c36d074"},"vehicle_type_id":"4","last_reported":1761560016,"current_range_meters":16000,"station_id":"ce4bhg92rcd13ifvqf90","pricing_plan_id":"cebpf4jnsgd1na2vs0mg"},{"bike_id":"6a442949-62c5-40c8-82a2-92bd5b76148f","system_id":"levelo_inurba_marseille","lat":43.284842,"lon":5.385649,"is_reserved":false,"is_disabled":false,"rental_uris":{"android":"levelo://app?vid=6a442949-62c5-40c8-82a2-92bd5b76148f","ios":"levelo://app?vid=6a442949-62c5-40c8-82a2-92bd5b76148f"},"vehicle_type_id":"4","last_reported":1761560016,"current_range_meters":16000,"station_id":"ce4bh8p2rcd13ifvqeb0","pricing_plan_id":"cebpf4jnsgd1na2vs0mg"},{"bike_id":"b6e104ea-3cf4-4411-80b5-53cc04537ec7","system_id":"levelo_inurba_marseille","lat":43.23959,"lon":5.36633,"is_reserved":false,"is_disabled":false,"rental_uris":{"android":"levelo://app?vid=b6e104ea-3cf4-4411-80b5-53cc04537ec7","ios":"levelo://app?vid=b6e104ea-3cf4-4411-80b5-53cc04537ec7"},"vehicle_type_id":"4","last_reported":1761560016,"current_range_meters":16000,"station_id":"ce4bhi12rcd13ifvqfp0","pricing_plan_id":"cebpf4jnsgd1na2vs0mg"},{"bike_id":"02004202-a32b-4681-a4ee-8da955e484ae","system_id":"levelo_inurba_marseille","lat":43.309255,"lon":5.401424,"is_reserved":false,"is_disabled":false,"rental_uris":{"android":"levelo://app?vid=02004202-a32b-4681-a4ee-8da955e484ae","ios":"levelo://app?vid=02004202-a32b-4681-a4ee-8da955e484ae"},"vehicle_type_id":"4","last_reported":1761560016,"current_range_meters":16400,"station_id":"ce4bgvp2rcd13ifvqct0","pricing_plan_id":"cebpf4jnsgd1na2vs0mg"},{"bike_id":"a3742816-3b43-434e-9db0-9ab9379fa4b3","system_id":"levelo_inurba_marseille","lat":43.27373,"lon":5.36236,"is_reserved":false,"is_disabled":true,"rental_uris":{"android":"levelo://app?vid=a3742816-3b43-434e-9db0-9ab9379fa4b3","ios":"levelo://app?vid=a3742816-3b43-434e-9db0-9ab9379fa4b3"},"vehicle_type_id":"4","last_reported":1761560016,"current_range_meters":16400,"station_id":"ce4bhbh2rcd13ifvqeo0","pricing_plan_id":"cebpf4jnsgd1na2vs0mg"},{"bike_id":"a507e789-f440-40a8-85cf-09841d81676c","system_id":"levelo_inurba_marseille","lat":43.22559,"lon":5.34847,"is_reserved":false,"is_disabled":false,"rental_uris":{"android":"levelo://app?vid=a507e789-f440-40a8-85cf-09841d81676c","ios":"levelo://app?vid=a507e789-f440-40a8-85cf-09841d81676c"},"vehicle_type_id":"4","last_reported":1761560016,"current_range_meters":16400,"station_id":"","pricing_plan_id":"cebpf4jnsgd1na2vs0mg"},{"bike_id":"d6c00cd6-2699-4519-84cd-fd55f853cab1","system_id":"levelo_inurba_marseille","lat":43.25582,"lon":5.38237,"is_reserved":false,"is_disabled":false,"rental_uris":{"android":"levelo://app?vid=d6c00cd6-2699-4519-84cd-fd55f853cab1","ios":"levelo://app?vid=d6c00cd6-2699-4519-84cd-fd55f853cab1"},"vehicle_type_id":"4","last_reported":1761560016,"current_range_meters":16400,"station_id":"ce4bhih2rcd13ifvqfs0","pricing_plan_id":"cebpf4jnsgd1na2vs0mg"},{"bike_id":"59abc34f-985e-48f4-aa75-8ee88a72369b","system_id":"levelo_inurba_marseille","lat":43.30548,"lon":5.36689,"is_reserved":false,"is_disabled":false,"rental_uris":{"android":"levelo://app?vid=59abc34f-985e-48f4-aa75-8ee88a72369b","ios":"levelo://app?vid=59abc34f-985e-48f4-aa75-8ee88a72369b"},"vehicle_type_id":"4","last_reported":1761560016,"current_range_meters":16800,"station_id":"ce4bgrp2rcd13ifvqc9g","pricing_plan_id":"cebpf4jnsgd1na2vs0mg"},{"bike_id":"a4e72de0-3b31-4d93-8751-6e69b826bb85","system_id":"levelo_inurba_marseille","lat":43.29597,"lon":5.38098,"is_reserved":false,"is_disabled":false,"rental_uris":{"android":"levelo://app?vid=a4e72de0-3b31-4d93-8751-6e69b826bb85","ios":"levelo://app?vid=a4e72de0-3b31-4d93-8751-6e69b826bb85"},"vehicle_type_id":"4","last_reported":1761560016,"current_range_meters":16800,"station_id":"ce4bgl12rcd13ifvqbo0","pricing_plan_id":"cebpf4jnsgd1na2vs0mg"},{"bike_id":"596e07e5-ee28-4f19-90c1-99ddc246077a","system_id":"levelo_inurba_marseille","lat":43.297535,"lon":5.427803,"is_reserved":false,"is_disabled":false,"rental_uris":{"android":"levelo://app?vid=596e07e5-ee28-4f19-90c1-99ddc246077a","ios":"levelo://app?vid=596e07e5-ee28-4f19-90c1-99ddc246077a"},"vehicle_type_id":"4","last_reported":1761560016,"current_range_meters":16800,"station_id":"st_d3md5207bmas73dh9klg","pricing_plan_id":"cebpf4jnsgd1na2vs0mg"},{"bike_id":"eea3c3c3-734f-4fd3-8061-ed84cfe47b38","system_id":"levelo_inurba_marseille","lat":43.32569,"lon":5.39137,"is_reserved":false,"is_disabled":false,"rental_uris":{"android":"levelo://app?vid=eea3c3c3-734f-4fd3-8061-ed84cfe47b38","ios":"levelo://app?vid=eea3c3c3-734f-4fd3-8061-ed84cfe47b38"},"vehicle_type_id":"4","last_reported":1761560016,"current_range_meters":16800,"station_id":"","pricing_plan_id":"cebpf4jnsgd1na2vs0mg"},{"bike_id":"4deb5bd9-ae3e-4e9e-abaa-9610cfe6cd59","system_id":"levelo_inurba_marseille","lat":43.24065,"lon":5.37749,"is_reserved":false,"is_disabled":false,"rental_uris":{"android":"levelo://app?vid=4deb5bd9-ae3e-4e9e-abaa-9610cfe6cd59","ios":"levelo://app?vid=4deb5bd9-ae3e-4e9e-abaa-9610cfe6cd59"},"vehicle_type_id":"4","last_reported":1761560016,"current_range_meters":16800,"station_id":"ce4bhnp2rcd13ifvqgvg","pricing_plan_id":"cebpf4jnsgd1na2vs0mg"},{"bike_id":"a3100ff0-76ab-498b-bebf-b9c52f3d2538","system_id":"levelo_inurba_marseille","lat":43.28486,"lon":5.48401,"is_reserved":false,"is_disabled":false,"rental_uris":{"android":"levelo://app?vid=a3100ff0-76ab-498b-bebf-b9c52f3d2538","ios":"levelo://app?vid=a3100ff0-76ab-498b-bebf-b9c52f3d2538"},"vehicle_type_id":"4","last_reported":1761560016,"current_range_meters":16800,"station_id":"","pricing_plan_id":"cebpf4jnsgd1na2vs0mg"},{"bike_id":"04f05742-34e4-4285-9012-d64d097608c7","system_id":"levelo_inurba_marseille","lat":43.25874,"lon":5.39904,"is_reserved":false,"is_disabled":false,"rental_uris":{"android":"levelo://app?vid=04f05742-34e4-4285-9012-d64d097608c7","ios":"levelo://app?vid=04f05742-34e4-4285-9012-d64d097608c7"},"vehicle_type_id":"4","last_reported":1761560016,"current_range_meters":16800,"station_id":"ce4bhl92rcd13ifvqghg","pricing_plan_id":"cebpf4jnsgd1na2vs0mg"},{"bike_id":"f41a6845-02a5-45fd-8f67-03fd68d78092","system_id":"levelo_inurba_marseille","lat":43.29755,"lon":5.42777,"is_reserved":false,"is_disabled":false,"rental_uris":{"android":"levelo://app?vid=f41a6845-02a5-45fd-8f67-03fd68d78092","ios":"levelo://app?vid=f41a6845-02a5-45fd-8f67-03fd68d78092"},"vehicle_type_id":"4","last_reported":1761560016,"current_range_meters":16800,"station_id":"st_d3md5207bmas73dh9klg","pricing_plan_id":"cebpf4jnsgd1na2vs0mg"},{"bike_id":"21dbf7f2-eb19-4663-b1c0-879822879492","system_id":"levelo_inurba_marseille","lat":43.337656,"lon":5.374705,"is_reserved":false,"is_disabled":false,"rental_uris":{"android":"levelo://app?vid=21dbf7f2-eb19-4663-b1c0-879822879492","ios":"levelo://app?vid=21dbf7f2-eb19-4663-b1c0-879822879492"},"vehicle_type_id":"4","last_reported":1761560016,"current_range_meters":16800,"station_id":"","pricing_plan_id":"cebpf4jnsgd1na2vs0mg"},{"bike_id":"6a1d2475-9b76-4fee-b2c9-3a1f0ed26a05","system_id":"levelo_inurba_marseille","lat":43.24177,"lon":5.39719,"is_reserved":false,"is_disabled":false,"rental_uris":{"android":"levelo://app?vid=6a1d2475-9b76-4fee-b2c9-3a1f0ed26a05","ios":"levelo://app?vid=6a1d2475-9b76-4fee-b2c9-3a1f0ed26a05"},"vehicle_type_id":"4","last_reported":1761560016,"current_range_meters":17200,"station_id":"ce4bhn12rcd13ifvqgpg","pricing_plan_id":"cebpf4jnsgd1na2vs0mg"},{"bike_id":"bb3d6f43-fe8d-4027-a7f4-02cf8b0450bf","system_id":"levelo_inurba_marseille","lat":43.28845,"lon":5.35858,"is_reserved":false,"is_disabled":true,"rental_uris":{"android":"levelo://app?vid=bb3d6f43-fe8d-4027-a7f4-02cf8b0450bf","ios":"levelo://app?vid=bb3d6f43-fe8d-4027-a7f4-02cf8b0450bf"},"vehicle_type_id":"4","last_reported":1761560016,"current_range_meters":17200,"station_id":"ce4bhb12rcd13ifvqem0","pricing_plan_id":"cebpf4jnsgd1na2vs0mg"},{"bike_id":"bccca1df-8b4b-4f8b-aae6-bf77bc71fa18","system_id":"levelo_inurba_marseille","lat":43.295113,"lon":5.394052,"is_reserved":false,"is_disabled":false,"rental_uris":{"android":"levelo://app?vid=bccca1df-8b4b-4f8b-aae6-bf77bc71fa18","ios":"levelo://app?vid=bccca1df-8b4b-4f8b-aae6-bf77bc71fa18"},"vehicle_type_id":"4","last_reported":1761560016,"current_range_meters":17200,"station_id":"ce4bh292rcd13ifvqdf0","pricing_plan_id":"cebpf4jnsgd1na2vs0mg"},{"bike_id":"b5776598-3fe1-4bb8-9115-dc33c053afbd","system_id":"levelo_inurba_marseille","lat":43.291985,"lon":5.357969,"is_reserved":false,"is_disabled":true,"rental_uris":{"android":"levelo://app?vid=b5776598-3fe1-4bb8-9115-dc33c053afbd","ios":"levelo://app?vid=b5776598-3fe1-4bb8-9115-dc33c053afbd"},"vehicle_type_id":"4","last_reported":1761560016,"current_range_meters":17200,"station_id":"ce4bhb12rcd13ifvqel0","pricing_plan_id":"cebpf4jnsgd1na2vs0mg"},{"bike_id":"6707e9ca-92a2-4e95-8654-3b145595537a","system_id":"levelo_inurba_marseille","lat":43.2984,"lon":5.36268,"is_reserved":false,"is_disabled":false,"rental_uris":{"android":"levelo://app?vid=6707e9ca-92a2-4e95-8654-3b145595537a","ios":"levelo://app?vid=6707e9ca-92a2-4e95-8654-3b145595537a"},"vehicle_type_id":"4","last_reported":1761560016,"current_range_meters":17200,"station_id":"ce4bgpp2rcd13ifvqc3g","pricing_plan_id":"cebpf4jnsgd1na2vs0mg"},{"bike_id":"b689a5bf-875d-4ab1-9212-a71e85899faa","system_id":"levelo_inurba_marseille","lat":43.29785,"lon":5.42754,"is_reserved":false,"is_disabled":false,"rental_uris":{"android":"levelo://app?vid=b689a5bf-875d-4ab1-9212-a71e85899faa","ios":"levelo://app?vid=b689a5bf-875d-4ab1-9212-a71e85899faa"},"vehicle_type_id":"4","last_reported":1761560016,"current_range_meters":17600,"station_id":"st_d3md5207bmas73dh9klg","pricing_plan_id":"cebpf4jnsgd1na2vs0mg"},{"bike_id":"b2819236-bc49-4dce-961d-00d63c22fd25","system_id":"levelo_inurba_marseille","lat":43.29013,"lon":5.38125,"is_reserved":false,"is_disabled":false,"rental_uris":{"android":"levelo://app?vid=b2819236-bc49-4dce-961d-00d63c22fd25","ios":"levelo://app?vid=b2819236-bc49-4dce-961d-00d63c22fd25"},"vehicle_type_id":"4","last_reported":1761560016,"current_range_meters":17600,"station_id":"ce4bh4p2rcd13ifvqe1g","pricing_plan_id":"cebpf4jnsgd1na2vs0mg"},{"bike_id":"0bbc239a-da27-4714-a802-1c546dd89778","system_id":"levelo_inurba_marseille","lat":43.23149,"lon":5.43717,"is_reserved":false,"is_disabled":false,"rental_uris":{"android":"levelo://app?vid=0bbc239a-da27-4714-a802-1c546dd89778","ios":"levelo://app?vid=0bbc239a-da27-4714-a802-1c546dd89778"},"vehicle_type_id":"4","last_reported":1761560016,"current_range_meters":17600,"station_id":"ce4bhmp2rcd13ifvqgog","pricing_plan_id":"cebpf4jnsgd1na2vs0mg"},{"bike_id":"68685cfb-0a0a-4822-b6cc-910397a0de67","system_id":"levelo_inurba_marseille","lat":43.27368,"lon":5.36234,"is_reserved":false,"is_disabled":false,"rental_uris":{"android":"levelo://app?vid=68685cfb-0a0a-4822-b6cc-910397a0de67","ios":"levelo://app?vid=68685cfb-0a0a-4822-b6cc-910397a0de67"},"vehicle_type_id":"4","last_reported":1761560016,"current_range_meters":17600,"station_id":"ce4bhbh2rcd13ifvqeo0","pricing_plan_id":"cebpf4jnsgd1na2vs0mg"},{"bike_id":"0bc03145-6254-44ad-b440-d14151ed9122","system_id":"levelo_inurba_marseille","lat":43.28273,"lon":5.35045,"is_reserved":false,"is_disabled":true,"rental_uris":{"android":"levelo://app?vid=0bc03145-6254-44ad-b440-d14151ed9122","ios":"levelo://app?vid=0bc03145-6254-44ad-b440-d14151ed9122"},"vehicle_type_id":"4","last_reported":1761560016,"current_range_meters":17600,"station_id":"ce4bhbp2rcd13ifvqerg","pricing_plan_id":"cebpf4jnsgd1na2vs0mg"},{"bike_id":"e77f1956-d535-4a09-a24d-bcd7bdf095ea","system_id":"levelo_inurba_marseille","lat":43.31233,"lon":5.36845,"is_reserved":false,"is_disabled":false,"rental_uris":{"android":"levelo://app?vid=e77f1956-d535-4a09-a24d-bcd7bdf095ea","ios":"levelo://app?vid=e77f1956-d535-4a09-a24d-bcd7bdf095ea"},"vehicle_type_id":"4","last_reported":1761560016,"current_range_meters":18000,"station_id":"ce4bgl92rcd13ifvqbq0","pricing_plan_id":"cebpf4jnsgd1na2vs0mg"},{"bike_id":"0709da96-3569-4b3f-9bc8-3bb4680af42a","system_id":"levelo_inurba_marseille","lat":43.31524,"lon":5.37325,"is_reserved":false,"is_disabled":false,"rental_uris":{"android":"levelo://app?vid=0709da96-3569-4b3f-9bc8-3bb4680af42a","ios":"levelo://app?vid=0709da96-3569-4b3f-9bc8-3bb4680af42a"},"vehicle_type_id":"4","last_reported":1761560016,"current_range_meters":18000,"station_id":"ce4bgt12rcd13ifvqcd0","pricing_plan_id":"cebpf4jnsgd1na2vs0mg"},{"bike_id":"9f458b05-104e-485b-b4bf-4b796bed587f","system_id":"levelo_inurba_marseille","lat":43.30557,"lon":5.36537,"is_reserved":false,"is_disabled":false,"rental_uris":{"android":"levelo://app?vid=9f458b05-104e-485b-b4bf-4b796bed587f","ios":"levelo://app?vid=9f458b05-104e-485b-b4bf-4b796bed587f"},"vehicle_type_id":"4","last_reported":1761560016,"current_range_meters":18000,"station_id":"ce4bgs12rcd13ifvqcag","pricing_plan_id":"cebpf4jnsgd1na2vs0mg"},{"bike_id":"d5ca831f-8041-403e-ada8-7b4196c3d5be","system_id":"levelo_inurba_marseille","lat":43.293714,"lon":5.379385,"is_reserved":false,"is_disabled":false,"rental_uris":{"android":"levelo://app?vid=d5ca831f-8041-403e-ada8-7b4196c3d5be","ios":"levelo://app?vid=d5ca831f-8041-403e-ada8-7b4196c3d5be"},"vehicle_type_id":"4","last_reported":1761560016,"current_range_meters":18000,"station_id":"","pricing_plan_id":"cebpf4jnsgd1na2vs0mg"},{"bike_id":"584373b2-7857-4514-ba1b-a8cbf8f807e7","system_id":"levelo_inurba_marseille","lat":43.29869,"lon":5.36275,"is_reserved":false,"is_disabled":false,"rental_uris":{"android":"levelo://app?vid=584373b2-7857-4514-ba1b-a8cbf8f807e7","ios":"levelo://app?vid=584373b2-7857-4514-ba1b-a8cbf8f807e7"},"vehicle_type_id":"4","last_reported":1761560016,"current_range_meters":18800,"station_id":"","pricing_plan_id":"cebpf4jnsgd1na2vs0mg"},{"bike_id":"edf5f0fb-0959-44c0-b6b3-9db9d272d2c0","system_id":"levelo_inurba_marseille","lat":43.24165,"lon":5.3973,"is_reserved":false,"is_disabled":false,"rental_uris":{"android":"levelo://app?vid=edf5f0fb-0959-44c0-b6b3-9db9d272d2c0","ios":"levelo://app?vid=edf5f0fb-0959-44c0-b6b3-9db9d272d2c0"},"vehicle_type_id":"4","last_reported":1761560016,"current_range_meters":18800,"station_id":"ce4bhn12rcd13ifvqgpg","pricing_plan_id":"cebpf4jnsgd1na2vs0mg"},{"bike_id":"3d404fa0-b246-4bc4-a95a-ce70a8564f4b","system_id":"levelo_inurba_marseille","lat":43.26582,"lon":5.39016,"is_reserved":false,"is_disabled":false,"rental_uris":{"android":"levelo://app?vid=3d404fa0-b246-4bc4-a95a-ce70a8564f4b","ios":"levelo://app?vid=3d404fa0-b246-4bc4-a95a-ce70a8564f4b"},"vehicle_type_id":"4","last_reported":1761560016,"current_range_meters":18800,"station_id":"ce4bhe12rcd13ifvqf30","pricing_plan_id":"cebpf4jnsgd1na2vs0mg"},{"bike_id":"3d0b1c8b-3bab-49f1-984f-e5eca72d94b7","system_id":"levelo_inurba_marseille","lat":43.24158,"lon":5.39721,"is_reserved":false,"is_disabled":false,"rental_uris":{"android":"levelo://app?vid=3d0b1c8b-3bab-49f1-984f-e5eca72d94b7","ios":"levelo://app?vid=3d0b1c8b-3bab-49f1-984f-e5eca72d94b7"},"vehicle_type_id":"4","last_reported":1761560016,"current_range_meters":18800,"station_id":"ce4bhn12rcd13ifvqgpg","pricing_plan_id":"cebpf4jnsgd1na2vs0mg"},{"bike_id":"a630ed88-3f05-4926-bbab-8387ab6b6a28","system_id":"levelo_inurba_marseille","lat":43.231546,"lon":5.436999,"is_reserved":false,"is_disabled":true,"rental_uris":{"android":"levelo://app?vid=a630ed88-3f05-4926-bbab-8387ab6b6a28","ios":"levelo://app?vid=a630ed88-3f05-4926-bbab-8387ab6b6a28"},"vehicle_type_id":"4","last_reported":1761560016,"current_range_meters":18800,"station_id":"ce4bhmp2rcd13ifvqgog","pricing_plan_id":"cebpf4jnsgd1na2vs0mg"},{"bike_id":"6259f55b-2b03-426c-926a-c8a432bd1482","system_id":"levelo_inurba_marseille","lat":43.21752,"lon":5.34603,"is_reserved":false,"is_disabled":false,"rental_uris":{"android":"levelo://app?vid=6259f55b-2b03-426c-926a-c8a432bd1482","ios":"levelo://app?vid=6259f55b-2b03-426c-926a-c8a432bd1482"},"vehicle_type_id":"4","last_reported":1761560016,"current_range_meters":18800,"station_id":"","pricing_plan_id":"cebpf4jnsgd1na2vs0mg"},{"bike_id":"bcbad100-57f1-4ae2-871f-13c721e4e329","system_id":"levelo_inurba_marseille","lat":43.25967,"lon":5.40909,"is_reserved":false,"is_disabled":false,"rental_uris":{"android":"levelo://app?vid=bcbad100-57f1-4ae2-871f-13c721e4e329","ios":"levelo://app?vid=bcbad100-57f1-4ae2-871f-13c721e4e329"},"vehicle_type_id":"4","last_reported":1761560016,"current_range_meters":18800,"station_id":"ce4bhm92rcd13ifvqglg","pricing_plan_id":"cebpf4jnsgd1na2vs0mg"},{"bike_id":"f537fcde-cbf3-499e-aead-1fcf08107e88","system_id":"levelo_inurba_marseille","lat":43.30539,"lon":5.36549,"is_reserved":false,"is_disabled":false,"rental_uris":{"android":"levelo://app?vid=f537fcde-cbf3-499e-aead-1fcf08107e88","ios":"levelo://app?vid=f537fcde-cbf3-499e-aead-1fcf08107e88"},"vehicle_type_id":"4","last_reported":1761560016,"current_range_meters":19200,"station_id":"ce4bgs12rcd13ifvqcag","pricing_plan_id":"cebpf4jnsgd1na2vs0mg"},{"bike_id":"2484d73d-0ed9-4aeb-b08e-8d8cbd56d7f7","system_id":"levelo_inurba_marseille","lat":43.312379,"lon":5.368484,"is_reserved":false,"is_disabled":false,"rental_uris":{"android":"levelo://app?vid=2484d73d-0ed9-4aeb-b08e-8d8cbd56d7f7","ios":"levelo://app?vid=2484d73d-0ed9-4aeb-b08e-8d8cbd56d7f7"},"vehicle_type_id":"4","last_reported":1761560016,"current_range_meters":19200,"station_id":"ce4bgr92rcd13ifvqc6g","pricing_plan_id":"cebpf4jnsgd1na2vs0mg"},{"bike_id":"34c10aaa-7627-4124-af3d-822f6353dea1","system_id":"levelo_inurba_marseille","lat":43.30542,"lon":5.36701,"is_reserved":false,"is_disabled":false,"rental_uris":{"android":"levelo://app?vid=34c10aaa-7627-4124-af3d-822f6353dea1","ios":"levelo://app?vid=34c10aaa-7627-4124-af3d-822f6353dea1"},"vehicle_type_id":"4","last_reported":1761560016,"current_range_meters":19200,"station_id":"ce4bgrp2rcd13ifvqc9g","pricing_plan_id":"cebpf4jnsgd1na2vs0mg"},{"bike_id":"5bba5144-4f04-4062-a014-e0ff1f871b61","system_id":"levelo_inurba_marseille","lat":43.29712,"lon":5.37689,"is_reserved":false,"is_disabled":false,"rental_uris":{"android":"levelo://app?vid=5bba5144-4f04-4062-a014-e0ff1f871b61","ios":"levelo://app?vid=5bba5144-4f04-4062-a014-e0ff1f871b61"},"vehicle_type_id":"4","last_reported":1761560016,"current_range_meters":19200,"station_id":"ce4bgkh2rcd13ifvqbl0","pricing_plan_id":"cebpf4jnsgd1na2vs0mg"},{"bike_id":"df94896d-c58b-459d-81e3-39f98a9915b5","system_id":"levelo_inurba_marseille","lat":43.2827,"lon":5.35045,"is_reserved":false,"is_disabled":false,"rental_uris":{"android":"levelo://app?vid=df94896d-c58b-459d-81e3-39f98a9915b5","ios":"levelo://app?vid=df94896d-c58b-459d-81e3-39f98a9915b5"},"vehicle_type_id":"4","last_reported":1761560016,"current_range_meters":19200,"station_id":"ce4bhbp2rcd13ifvqerg","pricing_plan_id":"cebpf4jnsgd1na2vs0mg"},{"bike_id":"73831710-31eb-43ff-a323-f5b815a9af26","system_id":"levelo_inurba_marseille","lat":43.305834,"lon":5.365969,"is_reserved":false,"is_disabled":false,"rental_uris":{"android":"levelo://app?vid=73831710-31eb-43ff-a323-f5b815a9af26","ios":"levelo://app?vid=73831710-31eb-43ff-a323-f5b815a9af26"},"vehicle_type_id":"4","last_reported":1761560016,"current_range_meters":19600,"station_id":"ce4bgs12rcd13ifvqcag","pricing_plan_id":"cebpf4jnsgd1na2vs0mg"},{"bike_id":"310e927d-d5b8-4a6f-82be-2d623690659d","system_id":"levelo_inurba_marseille","lat":43.31284,"lon":5.3776,"is_reserved":false,"is_disabled":false,"rental_uris":{"android":"levelo://app?vid=310e927d-d5b8-4a6f-82be-2d623690659d","ios":"levelo://app?vid=310e927d-d5b8-4a6f-82be-2d623690659d"},"vehicle_type_id":"4","last_reported":1761560016,"current_range_meters":19600,"station_id":"","pricing_plan_id":"cebpf4jnsgd1na2vs0mg"},{"bike_id":"5bf1d53c-ec33-4c37-a9e8-ddc272de2081","system_id":"levelo_inurba_marseille","lat":43.28409,"lon":5.37512,"is_reserved":false,"is_disabled":true,"rental_uris":{"android":"levelo://app?vid=5bf1d53c-ec33-4c37-a9e8-ddc272de2081","ios":"levelo://app?vid=5bf1d53c-ec33-4c37-a9e8-ddc272de2081"},"vehicle_type_id":"4","last_reported":1761560016,"current_range_meters":19600,"station_id":"ce4bh412rcd13ifvqds0","pricing_plan_id":"cebpf4jnsgd1na2vs0mg"},{"bike_id":"67fb5315-b38f-48d5-8d03-0d1405ce3ef2","system_id":"levelo_inurba_marseille","lat":43.27302,"lon":5.39101,"is_reserved":false,"is_disabled":false,"rental_uris":{"android":"levelo://app?vid=67fb5315-b38f-48d5-8d03-0d1405ce3ef2","ios":"levelo://app?vid=67fb5315-b38f-48d5-8d03-0d1405ce3ef2"},"vehicle_type_id":"4","last_reported":1761560016,"current_range_meters":19600,"station_id":"ce4bhgp2rcd13ifvqfe0","pricing_plan_id":"cebpf4jnsgd1na2vs0mg"},{"bike_id":"b9d49312-625c-4b07-a4a0-2c975772a017","system_id":"levelo_inurba_marseille","lat":43.29254,"lon":5.38439,"is_reserved":false,"is_disabled":false,"rental_uris":{"android":"levelo://app?vid=b9d49312-625c-4b07-a4a0-2c975772a017","ios":"levelo://app?vid=b9d49312-625c-4b07-a4a0-2c975772a017"},"vehicle_type_id":"4","last_reported":1761560016,"current_range_meters":19600,"station_id":"ce4bh692rcd13ifvqea0","pricing_plan_id":"cebpf4jnsgd1na2vs0mg"},{"bike_id":"b522edda-4cb7-4928-9c82-428de1032ff9","system_id":"levelo_inurba_marseille","lat":43.29517,"lon":5.394066,"is_reserved":false,"is_disabled":false,"rental_uris":{"android":"levelo://app?vid=b522edda-4cb7-4928-9c82-428de1032ff9","ios":"levelo://app?vid=b522edda-4cb7-4928-9c82-428de1032ff9"},"vehicle_type_id":"4","last_reported":1761560016,"current_range_meters":19600,"station_id":"ce4bh292rcd13ifvqdf0","pricing_plan_id":"cebpf4jnsgd1na2vs0mg"},{"bike_id":"ba01e477-6856-4ac3-b349-b2e996fd7de9","system_id":"levelo_inurba_marseille","lat":43.30955,"lon":5.39043,"is_reserved":false,"is_disabled":false,"rental_uris":{"android":"levelo://app?vid=ba01e477-6856-4ac3-b349-b2e996fd7de9","ios":"levelo://app?vid=ba01e477-6856-4ac3-b349-b2e996fd7de9"},"vehicle_type_id":"4","last_reported":1761560016,"current_range_meters":19600,"station_id":"ce4bgup2rcd13ifvqco0","pricing_plan_id":"cebpf4jnsgd1na2vs0mg"},{"bike_id":"bbfce2cb-722a-4d88-a55f-a06b35a7b8f5","system_id":"levelo_inurba_marseille","lat":43.30309,"lon":5.36873,"is_reserved":false,"is_disabled":false,"rental_uris":{"android":"levelo://app?vid=bbfce2cb-722a-4d88-a55f-a06b35a7b8f5","ios":"levelo://app?vid=bbfce2cb-722a-4d88-a55f-a06b35a7b8f5"},"vehicle_type_id":"4","last_reported":1761560016,"current_range_meters":19600,"station_id":"ce4bgqh2rcd13ifvqc5g","pricing_plan_id":"cebpf4jnsgd1na2vs0mg"},{"bike_id":"dc19d151-0321-41c8-a2d3-009ced4586de","system_id":"levelo_inurba_marseille","lat":43.313269,"lon":5.396984,"is_reserved":false,"is_disabled":false,"rental_uris":{"android":"levelo://app?vid=dc19d151-0321-41c8-a2d3-009ced4586de","ios":"levelo://app?vid=dc19d151-0321-41c8-a2d3-009ced4586de"},"vehicle_type_id":"4","last_reported":1761560016,"current_range_meters":20000,"station_id":"ce4bgvp2rcd13ifvqcu0","pricing_plan_id":"cebpf4jnsgd1na2vs0mg"},{"bike_id":"5f0e1964-3a0b-4af8-86ab-c4b639f92120","system_id":"levelo_inurba_marseille","lat":43.31244,"lon":5.36854,"is_reserved":false,"is_disabled":false,"rental_uris":{"android":"levelo://app?vid=5f0e1964-3a0b-4af8-86ab-c4b639f92120","ios":"levelo://app?vid=5f0e1964-3a0b-4af8-86ab-c4b639f92120"},"vehicle_type_id":"4","last_reported":1761560016,"current_range_meters":20000,"station_id":"ce4bgl92rcd13ifvqbq0","pricing_plan_id":"cebpf4jnsgd1na2vs0mg"},{"bike_id":"2be3bf9b-39f4-4c37-8c01-9e9bcabe1c53","system_id":"levelo_inurba_marseille","lat":43.33741,"lon":5.37444,"is_reserved":false,"is_disabled":false,"rental_uris":{"android":"levelo://app?vid=2be3bf9b-39f4-4c37-8c01-9e9bcabe1c53","ios":"levelo://app?vid=2be3bf9b-39f4-4c37-8c01-9e9bcabe1c53"},"vehicle_type_id":"4","last_reported":1761560016,"current_range_meters":20000,"station_id":"","pricing_plan_id":"cebpf4jnsgd1na2vs0mg"},{"bike_id":"d80381c1-49ce-405e-9d9b-7afcebd0ca96","system_id":"levelo_inurba_marseille","lat":43.23146,"lon":5.4371,"is_reserved":false,"is_disabled":false,"rental_uris":{"android":"levelo://app?vid=d80381c1-49ce-405e-9d9b-7afcebd0ca96","ios":"levelo://app?vid=d80381c1-49ce-405e-9d9b-7afcebd0ca96"},"vehicle_type_id":"4","last_reported":1761560016,"current_range_meters":20000,"station_id":"ce4bhmp2rcd13ifvqgog","pricing_plan_id":"cebpf4jnsgd1na2vs0mg"},{"bike_id":"58c4dbde-6a7d-4645-959d-588177b9dc81","system_id":"levelo_inurba_marseille","lat":43.25934,"lon":5.40902,"is_reserved":false,"is_disabled":false,"rental_uris":{"android":"levelo://app?vid=58c4dbde-6a7d-4645-959d-588177b9dc81","ios":"levelo://app?vid=58c4dbde-6a7d-4645-959d-588177b9dc81"},"vehicle_type_id":"4","last_reported":1761560016,"current_range_meters":20400,"station_id":"ce4bhm92rcd13ifvqglg","pricing_plan_id":"cebpf4jnsgd1na2vs0mg"},{"bike_id":"60b6e005-9ba2-4cd5-baf7-c48eedd273e0","system_id":"levelo_inurba_marseille","lat":43.26564,"lon":5.37279,"is_reserved":false,"is_disabled":false,"rental_uris":{"android":"levelo://app?vid=60b6e005-9ba2-4cd5-baf7-c48eedd273e0","ios":"levelo://app?vid=60b6e005-9ba2-4cd5-baf7-c48eedd273e0"},"vehicle_type_id":"4","last_reported":1761560016,"current_range_meters":20400,"station_id":"ce4bhg12rcd13ifvqf70","pricing_plan_id":"cebpf4jnsgd1na2vs0mg"},{"bike_id":"dccef0b1-edb3-49b5-866c-43e10e5763cc","system_id":"levelo_inurba_marseille","lat":43.288054,"lon":5.438528,"is_reserved":false,"is_disabled":false,"rental_uris":{"android":"levelo://app?vid=dccef0b1-edb3-49b5-866c-43e10e5763cc","ios":"levelo://app?vid=dccef0b1-edb3-49b5-866c-43e10e5763cc"},"vehicle_type_id":"4","last_reported":1761560016,"current_range_meters":20400,"station_id":"","pricing_plan_id":"cebpf4jnsgd1na2vs0mg"},{"bike_id":"5b695131-e4d3-42de-92db-42fa233a5063","system_id":"levelo_inurba_marseille","lat":43.29353,"lon":5.37865,"is_reserved":false,"is_disabled":true,"rental_uris":{"android":"levelo://app?vid=5b695131-e4d3-42de-92db-42fa233a5063","ios":"levelo://app?vid=5b695131-e4d3-42de-92db-42fa233a5063"},"vehicle_type_id":"4","last_reported":1761560016,"current_range_meters":20400,"station_id":"ce4bgjh2rcd13ifvqbf0","pricing_plan_id":"cebpf4jnsgd1na2vs0mg"},{"bike_id":"2b350c11-c21f-4e1b-b63a-2f3a8a02cace","system_id":"levelo_inurba_marseille","lat":43.29521,"lon":5.394049,"is_reserved":false,"is_disabled":false,"rental_uris":{"android":"levelo://app?vid=2b350c11-c21f-4e1b-b63a-2f3a8a02cace","ios":"levelo://app?vid=2b350c11-c21f-4e1b-b63a-2f3a8a02cace"},"vehicle_type_id":"4","last_reported":1761560016,"current_range_meters":20400,"station_id":"ce4bh292rcd13ifvqdf0","pricing_plan_id":"cebpf4jnsgd1na2vs0mg"},{"bike_id":"f568391f-b71f-4807-9099-53eb6b0dc22d","system_id":"levelo_inurba_marseille","lat":43.29791,"lon":5.38119,"is_reserved":false,"is_disabled":false,"rental_uris":{"android":"levelo://app?vid=f568391f-b71f-4807-9099-53eb6b0dc22d","ios":"levelo://app?vid=f568391f-b71f-4807-9099-53eb6b0dc22d"},"vehicle_type_id":"4","last_reported":1761560016,"current_range_meters":20400,"station_id":"ce4bgip2rcd13ifvqbb0","pricing_plan_id":"cebpf4jnsgd1na2vs0mg"},{"bike_id":"9b000a9f-966d-4fda-818d-4ec03a0440c0","system_id":"levelo_inurba_marseille","lat":43.29441,"lon":5.397589,"is_reserved":false,"is_disabled":false,"rental_uris":{"android":"levelo://app?vid=9b000a9f-966d-4fda-818d-4ec03a0440c0","ios":"levelo://app?vid=9b000a9f-966d-4fda-818d-4ec03a0440c0"},"vehicle_type_id":"4","last_reported":1761560016,"current_range_meters":20400,"station_id":"ce4bh3h2rcd13ifvqdo0","pricing_plan_id":"cebpf4jnsgd1na2vs0mg"},{"bike_id":"a9d6f84c-7daf-4c59-adfe-f1faabb86893","system_id":"levelo_inurba_marseille","lat":43.32354,"lon":5.36756,"is_reserved":false,"is_disabled":false,"rental_uris":{"android":"levelo://app?vid=a9d6f84c-7daf-4c59-adfe-f1faabb86893","ios":"levelo://app?vid=a9d6f84c-7daf-4c59-adfe-f1faabb86893"},"vehicle_type_id":"4","last_reported":1761560016,"current_range_meters":20400,"station_id":"ce4bhsh2rcd13ifvqi2g","pricing_plan_id":"cebpf4jnsgd1na2vs0mg"},{"bike_id":"5e2de3da-bfdd-4667-9682-acc99568b892","system_id":"levelo_inurba_marseille","lat":43.24194,"lon":5.39712,"is_reserved":false,"is_disabled":false,"rental_uris":{"android":"levelo://app?vid=5e2de3da-bfdd-4667-9682-acc99568b892","ios":"levelo://app?vid=5e2de3da-bfdd-4667-9682-acc99568b892"},"vehicle_type_id":"4","last_reported":1761560016,"current_range_meters":20400,"station_id":"ce4bhn12rcd13ifvqgpg","pricing_plan_id":"cebpf4jnsgd1na2vs0mg"},{"bike_id":"ae8ebe94-fc0f-4409-8f77-39eb5c613a67","system_id":"levelo_inurba_marseille","lat":43.337444,"lon":5.374475,"is_reserved":false,"is_disabled":false,"rental_uris":{"android":"levelo://app?vid=ae8ebe94-fc0f-4409-8f77-39eb5c613a67","ios":"levelo://app?vid=ae8ebe94-fc0f-4409-8f77-39eb5c613a67"},"vehicle_type_id":"4","last_reported":1761560016,"current_range_meters":20800,"station_id":"","pricing_plan_id":"cebpf4jnsgd1na2vs0mg"},{"bike_id":"46292dbd-4a2f-46bb-964b-a4a3d10786f9","system_id":"levelo_inurba_marseille","lat":43.24813,"lon":5.37456,"is_reserved":false,"is_disabled":false,"rental_uris":{"android":"levelo://app?vid=46292dbd-4a2f-46bb-964b-a4a3d10786f9","ios":"levelo://app?vid=46292dbd-4a2f-46bb-964b-a4a3d10786f9"},"vehicle_type_id":"4","last_reported":1761560016,"current_range_meters":20800,"station_id":"ce4bhgh2rcd13ifvqfb0","pricing_plan_id":"cebpf4jnsgd1na2vs0mg"},{"bike_id":"1e2622c7-8474-4c73-8d52-0cfd8d6adde5","system_id":"levelo_inurba_marseille","lat":43.2418,"lon":5.39701,"is_reserved":false,"is_disabled":true,"rental_uris":{"android":"levelo://app?vid=1e2622c7-8474-4c73-8d52-0cfd8d6adde5","ios":"levelo://app?vid=1e2622c7-8474-4c73-8d52-0cfd8d6adde5"},"vehicle_type_id":"4","last_reported":1761560016,"current_range_meters":20800,"station_id":"ce4bhn12rcd13ifvqgpg","pricing_plan_id":"cebpf4jnsgd1na2vs0mg"},{"bike_id":"eb06ef63-86e5-4c0f-beaa-f2f3551e85f8","system_id":"levelo_inurba_marseille","lat":43.24971,"lon":5.4049,"is_reserved":false,"is_disabled":false,"rental_uris":{"android":"levelo://app?vid=eb06ef63-86e5-4c0f-beaa-f2f3551e85f8","ios":"levelo://app?vid=eb06ef63-86e5-4c0f-beaa-f2f3551e85f8"},"vehicle_type_id":"4","last_reported":1761560016,"current_range_meters":20800,"station_id":"st_d2ngiaodas8pm72gd1h0","pricing_plan_id":"cebpf4jnsgd1na2vs0mg"},{"bike_id":"498f6be2-fcd2-46f8-bebb-c3e53aa8f122","system_id":"levelo_inurba_marseille","lat":43.30549,"lon":5.36534,"is_reserved":false,"is_disabled":false,"rental_uris":{"android":"levelo://app?vid=498f6be2-fcd2-46f8-bebb-c3e53aa8f122","ios":"levelo://app?vid=498f6be2-fcd2-46f8-bebb-c3e53aa8f122"},"vehicle_type_id":"4","last_reported":1761560016,"current_range_meters":20800,"station_id":"ce4bgs12rcd13ifvqcag","pricing_plan_id":"cebpf4jnsgd1na2vs0mg"},{"bike_id":"ffc6de31-52e7-4d7b-8778-c713164d4891","system_id":"levelo_inurba_marseille","lat":43.28261,"lon":5.35056,"is_reserved":false,"is_disabled":false,"rental_uris":{"android":"levelo://app?vid=ffc6de31-52e7-4d7b-8778-c713164d4891","ios":"levelo://app?vid=ffc6de31-52e7-4d7b-8778-c713164d4891"},"vehicle_type_id":"4","last_reported":1761560016,"current_range_meters":20800,"station_id":"ce4bhbp2rcd13ifvqerg","pricing_plan_id":"cebpf4jnsgd1na2vs0mg"},{"bike_id":"8a9ed1cc-5d6e-4a75-8cde-5abe136239d6","system_id":"levelo_inurba_marseille","lat":43.29703,"lon":5.37702,"is_reserved":false,"is_disabled":false,"rental_uris":{"android":"levelo://app?vid=8a9ed1cc-5d6e-4a75-8cde-5abe136239d6","ios":"levelo://app?vid=8a9ed1cc-5d6e-4a75-8cde-5abe136239d6"},"vehicle_type_id":"4","last_reported":1761560016,"current_range_meters":20800,"station_id":"ce4bgkh2rcd13ifvqbl0","pricing_plan_id":"cebpf4jnsgd1na2vs0mg"},{"bike_id":"dced2bcc-e95f-44ce-b7d8-7bb47def612a","system_id":"levelo_inurba_marseille","lat":43.21195,"lon":5.35078,"is_reserved":false,"is_disabled":false,"rental_uris":{"android":"levelo://app?vid=dced2bcc-e95f-44ce-b7d8-7bb47def612a","ios":"levelo://app?vid=dced2bcc-e95f-44ce-b7d8-7bb47def612a"},"vehicle_type_id":"4","last_reported":1761560016,"current_range_meters":20800,"station_id":"st_cvj6sg6p6f1abm77japg","pricing_plan_id":"cebpf4jnsgd1na2vs0mg"},{"bike_id":"87301e08-7a50-4b21-8716-63de377bc711","system_id":"levelo_inurba_marseille","lat":43.31372,"lon":5.38495,"is_reserved":false,"is_disabled":false,"rental_uris":{"android":"levelo://app?vid=87301e08-7a50-4b21-8716-63de377bc711","ios":"levelo://app?vid=87301e08-7a50-4b21-8716-63de377bc711"},"vehicle_type_id":"4","last_reported":1761560016,"current_range_meters":20800,"station_id":"ce4bgt92rcd13ifvqcf0","pricing_plan_id":"cebpf4jnsgd1na2vs0mg"},{"bike_id":"4c91f3f8-cda4-40a0-ba04-6678ff45f846","system_id":"levelo_inurba_marseille","lat":43.282646,"lon":5.350617,"is_reserved":false,"is_disabled":false,"rental_uris":{"android":"levelo://app?vid=4c91f3f8-cda4-40a0-ba04-6678ff45f846","ios":"levelo://app?vid=4c91f3f8-cda4-40a0-ba04-6678ff45f846"},"vehicle_type_id":"4","last_reported":1761560016,"current_range_meters":20800,"station_id":"ce4bhbp2rcd13ifvqerg","pricing_plan_id":"cebpf4jnsgd1na2vs0mg"},{"bike_id":"fd9060e7-14d5-40ed-b4ad-2aa823718b00","system_id":"levelo_inurba_marseille","lat":43.30523,"lon":5.36698,"is_reserved":false,"is_disabled":false,"rental_uris":{"android":"levelo://app?vid=fd9060e7-14d5-40ed-b4ad-2aa823718b00","ios":"levelo://app?vid=fd9060e7-14d5-40ed-b4ad-2aa823718b00"},"vehicle_type_id":"4","last_reported":1761560016,"current_range_meters":20800,"station_id":"ce4bgrp2rcd13ifvqc9g","pricing_plan_id":"cebpf4jnsgd1na2vs0mg"},{"bike_id":"6aa9a1ee-9778-4d45-859f-f81494315a8d","system_id":"levelo_inurba_marseille","lat":43.211896,"lon":5.350707,"is_reserved":false,"is_disabled":false,"rental_uris":{"android":"levelo://app?vid=6aa9a1ee-9778-4d45-859f-f81494315a8d","ios":"levelo://app?vid=6aa9a1ee-9778-4d45-859f-f81494315a8d"},"vehicle_type_id":"4","last_reported":1761560016,"current_range_meters":20800,"station_id":"st_cvj6sg6p6f1abm77japg","pricing_plan_id":"cebpf4jnsgd1na2vs0mg"},{"bike_id":"55ac339c-4813-4fb3-ae9e-0baca28d2223","system_id":"levelo_inurba_marseille","lat":43.26215,"lon":5.40466,"is_reserved":false,"is_disabled":false,"rental_uris":{"android":"levelo://app?vid=55ac339c-4813-4fb3-ae9e-0baca28d2223","ios":"levelo://app?vid=55ac339c-4813-4fb3-ae9e-0baca28d2223"},"vehicle_type_id":"4","last_reported":1761560016,"current_range_meters":21600,"station_id":"ce4bhmh2rcd13ifvqgmg","pricing_plan_id":"cebpf4jnsgd1na2vs0mg"},{"bike_id":"cd6cbad8-a663-4232-8985-8512b0efcb1c","system_id":"levelo_inurba_marseille","lat":43.24805,"lon":5.37457,"is_reserved":false,"is_disabled":false,"rental_uris":{"android":"levelo://app?vid=cd6cbad8-a663-4232-8985-8512b0efcb1c","ios":"levelo://app?vid=cd6cbad8-a663-4232-8985-8512b0efcb1c"},"vehicle_type_id":"4","last_reported":1761560016,"current_range_meters":21600,"station_id":"ce4bhgh2rcd13ifvqfb0","pricing_plan_id":"cebpf4jnsgd1na2vs0mg"},{"bike_id":"6f60b159-83c5-40f3-a1b0-7b6a6268dfa5","system_id":"levelo_inurba_marseille","lat":43.291628,"lon":5.356366,"is_reserved":false,"is_disabled":false,"rental_uris":{"android":"levelo://app?vid=6f60b159-83c5-40f3-a1b0-7b6a6268dfa5","ios":"levelo://app?vid=6f60b159-83c5-40f3-a1b0-7b6a6268dfa5"},"vehicle_type_id":"4","last_reported":1761560016,"current_range_meters":21600,"station_id":"","pricing_plan_id":"cebpf4jnsgd1na2vs0mg"},{"bike_id":"b8cb499c-c981-4e53-a291-39ecd780cafc","system_id":"levelo_inurba_marseille","lat":43.26487,"lon":5.39552,"is_reserved":false,"is_disabled":false,"rental_uris":{"android":"levelo://app?vid=b8cb499c-c981-4e53-a291-39ecd780cafc","ios":"levelo://app?vid=b8cb499c-c981-4e53-a291-39ecd780cafc"},"vehicle_type_id":"4","last_reported":1761560016,"current_range_meters":21600,"station_id":"ce4bhi12rcd13ifvqfq0","pricing_plan_id":"cebpf4jnsgd1na2vs0mg"},{"bike_id":"6e3d496c-4020-4020-9f61-f95fc7a1c3b0","system_id":"levelo_inurba_marseille","lat":43.31291,"lon":5.40163,"is_reserved":false,"is_disabled":false,"rental_uris":{"android":"levelo://app?vid=6e3d496c-4020-4020-9f61-f95fc7a1c3b0","ios":"levelo://app?vid=6e3d496c-4020-4020-9f61-f95fc7a1c3b0"},"vehicle_type_id":"4","last_reported":1761560016,"current_range_meters":21600,"station_id":"ce4bh092rcd13ifvqd30","pricing_plan_id":"cebpf4jnsgd1na2vs0mg"},{"bike_id":"9d447215-7097-463a-ab01-ffec67831b86","system_id":"levelo_inurba_marseille","lat":43.32366,"lon":5.36762,"is_reserved":false,"is_disabled":false,"rental_uris":{"android":"levelo://app?vid=9d447215-7097-463a-ab01-ffec67831b86","ios":"levelo://app?vid=9d447215-7097-463a-ab01-ffec67831b86"},"vehicle_type_id":"4","last_reported":1761560016,"current_range_meters":21600,"station_id":"ce4bhsh2rcd13ifvqi2g","pricing_plan_id":"cebpf4jnsgd1na2vs0mg"},{"bike_id":"e180927e-d961-458a-bf99-b578c3436860","system_id":"levelo_inurba_marseille","lat":43.284065,"lon":5.34975,"is_reserved":false,"is_disabled":false,"rental_uris":{"android":"levelo://app?vid=e180927e-d961-458a-bf99-b578c3436860","ios":"levelo://app?vid=e180927e-d961-458a-bf99-b578c3436860"},"vehicle_type_id":"4","last_reported":1761560016,"current_range_meters":21600,"station_id":"ce4bhbh2rcd13ifvqepg","pricing_plan_id":"cebpf4jnsgd1na2vs0mg"},{"bike_id":"634e7e24-1790-41b3-8483-3195480b038c","system_id":"levelo_inurba_marseille","lat":43.27501,"lon":5.4245,"is_reserved":false,"is_disabled":false,"rental_uris":{"android":"levelo://app?vid=634e7e24-1790-41b3-8483-3195480b038c","ios":"levelo://app?vid=634e7e24-1790-41b3-8483-3195480b038c"},"vehicle_type_id":"4","last_reported":1761560016,"current_range_meters":21600,"station_id":"ce4bhn92rcd13ifvqgrg","pricing_plan_id":"cebpf4jnsgd1na2vs0mg"},{"bike_id":"773ffab7-86d5-4341-b950-011256482200","system_id":"levelo_inurba_marseille","lat":43.2418,"lon":5.39718,"is_reserved":false,"is_disabled":false,"rental_uris":{"android":"levelo://app?vid=773ffab7-86d5-4341-b950-011256482200","ios":"levelo://app?vid=773ffab7-86d5-4341-b950-011256482200"},"vehicle_type_id":"4","last_reported":1761560016,"current_range_meters":21600,"station_id":"ce4bhn12rcd13ifvqgpg","pricing_plan_id":"cebpf4jnsgd1na2vs0mg"},{"bike_id":"32d7653e-b033-4183-b4c0-f44169bb9067","system_id":"levelo_inurba_marseille","lat":43.32703,"lon":5.3924,"is_reserved":false,"is_disabled":false,"rental_uris":{"android":"levelo://app?vid=32d7653e-b033-4183-b4c0-f44169bb9067","ios":"levelo://app?vid=32d7653e-b033-4183-b4c0-f44169bb9067"},"vehicle_type_id":"4","last_reported":1761560016,"current_range_meters":22000,"station_id":"","pricing_plan_id":"cebpf4jnsgd1na2vs0mg"},{"bike_id":"66bb6106-955e-4c57-b3d3-6d5a011c7e82","system_id":"levelo_inurba_marseille","lat":43.26572,"lon":5.39002,"is_reserved":false,"is_disabled":false,"rental_uris":{"android":"levelo://app?vid=66bb6106-955e-4c57-b3d3-6d5a011c7e82","ios":"levelo://app?vid=66bb6106-955e-4c57-b3d3-6d5a011c7e82"},"vehicle_type_id":"4","last_reported":1761560016,"current_range_meters":22000,"station_id":"ce4bhe12rcd13ifvqf30","pricing_plan_id":"cebpf4jnsgd1na2vs0mg"},{"bike_id":"8c71c05b-dd29-470b-8b05-4159f459865a","system_id":"levelo_inurba_marseille","lat":43.2766,"lon":5.38904,"is_reserved":false,"is_disabled":false,"rental_uris":{"android":"levelo://app?vid=8c71c05b-dd29-470b-8b05-4159f459865a","ios":"levelo://app?vid=8c71c05b-dd29-470b-8b05-4159f459865a"},"vehicle_type_id":"4","last_reported":1761560016,"current_range_meters":22000,"station_id":"ce4bhi12rcd13ifvqfo0","pricing_plan_id":"cebpf4jnsgd1na2vs0mg"},{"bike_id":"914951f9-b4c0-4749-a4f3-cd14d9c6e55d","system_id":"levelo_inurba_marseille","lat":43.250037,"lon":5.389246,"is_reserved":false,"is_disabled":false,"rental_uris":{"android":"levelo://app?vid=914951f9-b4c0-4749-a4f3-cd14d9c6e55d","ios":"levelo://app?vid=914951f9-b4c0-4749-a4f3-cd14d9c6e55d"},"vehicle_type_id":"4","last_reported":1761560016,"current_range_meters":22000,"station_id":"ce4bhgp2rcd13ifvqfd0","pricing_plan_id":"cebpf4jnsgd1na2vs0mg"},{"bike_id":"ad315ea3-1ff1-468a-9a73-8d1005d1707f","system_id":"levelo_inurba_marseille","lat":43.29527,"lon":5.37503,"is_reserved":false,"is_disabled":true,"rental_uris":{"android":"levelo://app?vid=ad315ea3-1ff1-468a-9a73-8d1005d1707f","ios":"levelo://app?vid=ad315ea3-1ff1-468a-9a73-8d1005d1707f"},"vehicle_type_id":"4","last_reported":1761560016,"current_range_meters":22000,"station_id":"ce4bgkp2rcd13ifvqbmg","pricing_plan_id":"cebpf4jnsgd1na2vs0mg"},{"bike_id":"d5d744bc-1e5d-4657-b38b-3a76833d6d31","system_id":"levelo_inurba_marseille","lat":43.23156,"lon":5.43709,"is_reserved":false,"is_disabled":false,"rental_uris":{"android":"levelo://app?vid=d5d744bc-1e5d-4657-b38b-3a76833d6d31","ios":"levelo://app?vid=d5d744bc-1e5d-4657-b38b-3a76833d6d31"},"vehicle_type_id":"4","last_reported":1761560016,"current_range_meters":22000,"station_id":"ce4bhmp2rcd13ifvqgog","pricing_plan_id":"cebpf4jnsgd1na2vs0mg"},{"bike_id":"e0b06deb-af2f-4fa9-a2a5-e0a4113cc381","system_id":"levelo_inurba_marseille","lat":43.284189,"lon":5.35792,"is_reserved":false,"is_disabled":false,"rental_uris":{"android":"levelo://app?vid=e0b06deb-af2f-4fa9-a2a5-e0a4113cc381","ios":"levelo://app?vid=e0b06deb-af2f-4fa9-a2a5-e0a4113cc381"},"vehicle_type_id":"4","last_reported":1761560016,"current_range_meters":22000,"station_id":"ce4bhah2rcd13ifvqei0","pricing_plan_id":"cebpf4jnsgd1na2vs0mg"},{"bike_id":"51a7e268-9562-4b96-8e84-f568b0acc7b7","system_id":"levelo_inurba_marseille","lat":43.247969,"lon":5.37456,"is_reserved":false,"is_disabled":false,"rental_uris":{"android":"levelo://app?vid=51a7e268-9562-4b96-8e84-f568b0acc7b7","ios":"levelo://app?vid=51a7e268-9562-4b96-8e84-f568b0acc7b7"},"vehicle_type_id":"4","last_reported":1761560016,"current_range_meters":22400,"station_id":"","pricing_plan_id":"cebpf4jnsgd1na2vs0mg"},{"bike_id":"30b1827d-4b67-45fd-b720-302d29fb571b","system_id":"levelo_inurba_marseille","lat":43.23195,"lon":5.35537,"is_reserved":false,"is_disabled":true,"rental_uris":{"android":"levelo://app?vid=30b1827d-4b67-45fd-b720-302d29fb571b","ios":"levelo://app?vid=30b1827d-4b67-45fd-b720-302d29fb571b"},"vehicle_type_id":"4","last_reported":1761560016,"current_range_meters":22400,"station_id":"ce4bhu92rcd13ifvqi70","pricing_plan_id":"cebpf4jnsgd1na2vs0mg"},{"bike_id":"5f6c4fea-ada2-453b-9aa3-59bf116cef02","system_id":"levelo_inurba_marseille","lat":43.225341,"lon":5.348319,"is_reserved":false,"is_disabled":false,"rental_uris":{"android":"levelo://app?vid=5f6c4fea-ada2-453b-9aa3-59bf116cef02","ios":"levelo://app?vid=5f6c4fea-ada2-453b-9aa3-59bf116cef02"},"vehicle_type_id":"4","last_reported":1761560016,"current_range_meters":22400,"station_id":"","pricing_plan_id":"cebpf4jnsgd1na2vs0mg"},{"bike_id":"92eaf39d-1ab7-4bac-9cc0-9ae6867f8bc4","system_id":"levelo_inurba_marseille","lat":43.33743,"lon":5.36269,"is_reserved":false,"is_disabled":false,"rental_uris":{"android":"levelo://app?vid=92eaf39d-1ab7-4bac-9cc0-9ae6867f8bc4","ios":"levelo://app?vid=92eaf39d-1ab7-4bac-9cc0-9ae6867f8bc4"},"vehicle_type_id":"4","last_reported":1761560016,"current_range_meters":22400,"station_id":"","pricing_plan_id":"cebpf4jnsgd1na2vs0mg"},{"bike_id":"af9c7714-7f5c-42ea-81f7-e3d9b5c6ca20","system_id":"levelo_inurba_marseille","lat":43.284764,"lon":5.38432,"is_reserved":false,"is_disabled":false,"rental_uris":{"android":"levelo://app?vid=af9c7714-7f5c-42ea-81f7-e3d9b5c6ca20","ios":"levelo://app?vid=af9c7714-7f5c-42ea-81f7-e3d9b5c6ca20"},"vehicle_type_id":"4","last_reported":1761560016,"current_range_meters":22400,"station_id":"ce4bh512rcd13ifvqe3g","pricing_plan_id":"cebpf4jnsgd1na2vs0mg"},{"bike_id":"086824bb-449b-4593-9374-67fda5267366","system_id":"levelo_inurba_marseille","lat":43.21667,"lon":5.346385,"is_reserved":false,"is_disabled":false,"rental_uris":{"android":"levelo://app?vid=086824bb-449b-4593-9374-67fda5267366","ios":"levelo://app?vid=086824bb-449b-4593-9374-67fda5267366"},"vehicle_type_id":"4","last_reported":1761560016,"current_range_meters":22400,"station_id":"","pricing_plan_id":"cebpf4jnsgd1na2vs0mg"},{"bike_id":"8f408273-c5a8-4b8e-acaf-f79b02fe3397","system_id":"levelo_inurba_marseille","lat":43.30542,"lon":5.36706,"is_reserved":false,"is_disabled":false,"rental_uris":{"android":"levelo://app?vid=8f408273-c5a8-4b8e-acaf-f79b02fe3397","ios":"levelo://app?vid=8f408273-c5a8-4b8e-acaf-f79b02fe3397"},"vehicle_type_id":"4","last_reported":1761560016,"current_range_meters":22400,"station_id":"ce4bgrp2rcd13ifvqc9g","pricing_plan_id":"cebpf4jnsgd1na2vs0mg"},{"bike_id":"faf3bf7a-3509-4af1-a1b1-0b8d244e4749","system_id":"levelo_inurba_marseille","lat":43.2592,"lon":5.40915,"is_reserved":false,"is_disabled":false,"rental_uris":{"android":"levelo://app?vid=faf3bf7a-3509-4af1-a1b1-0b8d244e4749","ios":"levelo://app?vid=faf3bf7a-3509-4af1-a1b1-0b8d244e4749"},"vehicle_type_id":"4","last_reported":1761560016,"current_range_meters":22400,"station_id":"ce4bhm92rcd13ifvqglg","pricing_plan_id":"cebpf4jnsgd1na2vs0mg"},{"bike_id":"8e95e25a-9212-4196-9c7e-97ab4e6b1bd8","system_id":"levelo_inurba_marseille","lat":43.25722,"lon":5.4111,"is_reserved":false,"is_disabled":false,"rental_uris":{"android":"levelo://app?vid=8e95e25a-9212-4196-9c7e-97ab4e6b1bd8","ios":"levelo://app?vid=8e95e25a-9212-4196-9c7e-97ab4e6b1bd8"},"vehicle_type_id":"4","last_reported":1761560016,"current_range_meters":22400,"station_id":"ce4bhkp2rcd13ifvqgd0","pricing_plan_id":"cebpf4jnsgd1na2vs0mg"},{"bike_id":"49ed0d39-51fe-4cd4-8527-50556baa8749","system_id":"levelo_inurba_marseille","lat":43.225318,"lon":5.348308,"is_reserved":false,"is_disabled":false,"rental_uris":{"android":"levelo://app?vid=49ed0d39-51fe-4cd4-8527-50556baa8749","ios":"levelo://app?vid=49ed0d39-51fe-4cd4-8527-50556baa8749"},"vehicle_type_id":"4","last_reported":1761560016,"current_range_meters":22400,"station_id":"","pricing_plan_id":"cebpf4jnsgd1na2vs0mg"},{"bike_id":"3ca749dd-838d-431c-96be-99088429df91","system_id":"levelo_inurba_marseille","lat":43.269257,"lon":5.389082,"is_reserved":false,"is_disabled":false,"rental_uris":{"android":"levelo://app?vid=3ca749dd-838d-431c-96be-99088429df91","ios":"levelo://app?vid=3ca749dd-838d-431c-96be-99088429df91"},"vehicle_type_id":"4","last_reported":1761560016,"current_range_meters":22400,"station_id":"ce4bhhh2rcd13ifvqfl0","pricing_plan_id":"cebpf4jnsgd1na2vs0mg"},{"bike_id":"965c0783-3346-4f0a-aeb7-f9cceececb3b","system_id":"levelo_inurba_marseille","lat":43.26226,"lon":5.40447,"is_reserved":false,"is_disabled":false,"rental_uris":{"android":"levelo://app?vid=965c0783-3346-4f0a-aeb7-f9cceececb3b","ios":"levelo://app?vid=965c0783-3346-4f0a-aeb7-f9cceececb3b"},"vehicle_type_id":"4","last_reported":1761560016,"current_range_meters":22400,"station_id":"ce4bhmh2rcd13ifvqgmg","pricing_plan_id":"cebpf4jnsgd1na2vs0mg"},{"bike_id":"f3e441e7-59fe-49c2-8cce-957389399377","system_id":"levelo_inurba_marseille","lat":43.291423,"lon":5.359077,"is_reserved":false,"is_disabled":false,"rental_uris":{"android":"levelo://app?vid=f3e441e7-59fe-49c2-8cce-957389399377","ios":"levelo://app?vid=f3e441e7-59fe-49c2-8cce-957389399377"},"vehicle_type_id":"4","last_reported":1761560016,"current_range_meters":22400,"station_id":"ce4bha92rcd13ifvqeg0","pricing_plan_id":"cebpf4jnsgd1na2vs0mg"},{"bike_id":"987c1dfe-9139-415b-a70f-808d28aaf9cd","system_id":"levelo_inurba_marseille","lat":43.271725,"lon":5.409921,"is_reserved":false,"is_disabled":false,"rental_uris":{"android":"levelo://app?vid=987c1dfe-9139-415b-a70f-808d28aaf9cd","ios":"levelo://app?vid=987c1dfe-9139-415b-a70f-808d28aaf9cd"},"vehicle_type_id":"4","last_reported":1761560016,"current_range_meters":22800,"station_id":"ce4bhl12rcd13ifvqgf0","pricing_plan_id":"cebpf4jnsgd1na2vs0mg"},{"bike_id":"910354a5-7717-41a7-8cf2-1542580ee6d2","system_id":"levelo_inurba_marseille","lat":43.25935,"lon":5.40902,"is_reserved":false,"is_disabled":false,"rental_uris":{"android":"levelo://app?vid=910354a5-7717-41a7-8cf2-1542580ee6d2","ios":"levelo://app?vid=910354a5-7717-41a7-8cf2-1542580ee6d2"},"vehicle_type_id":"4","last_reported":1761560016,"current_range_meters":22800,"station_id":"ce4bhm92rcd13ifvqglg","pricing_plan_id":"cebpf4jnsgd1na2vs0mg"},{"bike_id":"5c5cf98e-7fa3-4ae7-a298-ae5413831201","system_id":"levelo_inurba_marseille","lat":43.29167,"lon":5.37147,"is_reserved":false,"is_disabled":false,"rental_uris":{"android":"levelo://app?vid=5c5cf98e-7fa3-4ae7-a298-ae5413831201","ios":"levelo://app?vid=5c5cf98e-7fa3-4ae7-a298-ae5413831201"},"vehicle_type_id":"4","last_reported":1761560016,"current_range_meters":22800,"station_id":"ce4bha92rcd13ifvqeh0","pricing_plan_id":"cebpf4jnsgd1na2vs0mg"},{"bike_id":"0748ee2c-2d71-4151-8f96-a2c51d6fc686","system_id":"levelo_inurba_marseille","lat":43.29264,"lon":5.38426,"is_reserved":false,"is_disabled":false,"rental_uris":{"android":"levelo://app?vid=0748ee2c-2d71-4151-8f96-a2c51d6fc686","ios":"levelo://app?vid=0748ee2c-2d71-4151-8f96-a2c51d6fc686"},"vehicle_type_id":"4","last_reported":1761560016,"current_range_meters":22800,"station_id":"ce4bh692rcd13ifvqea0","pricing_plan_id":"cebpf4jnsgd1na2vs0mg"},{"bike_id":"a9ec7efb-4e23-4c3a-ac28-b4494ca241c9","system_id":"levelo_inurba_marseille","lat":43.22568,"lon":5.41622,"is_reserved":false,"is_disabled":false,"rental_uris":{"android":"levelo://app?vid=a9ec7efb-4e23-4c3a-ac28-b4494ca241c9","ios":"levelo://app?vid=a9ec7efb-4e23-4c3a-ac28-b4494ca241c9"},"vehicle_type_id":"4","last_reported":1761560016,"current_range_meters":22800,"station_id":"st_d2o4gvlbi1j2169b742g","pricing_plan_id":"cebpf4jnsgd1na2vs0mg"},{"bike_id":"67b793e9-a241-4578-a20c-225fb61a9ace","system_id":"levelo_inurba_marseille","lat":43.312324,"lon":5.36853,"is_reserved":false,"is_disabled":false,"rental_uris":{"android":"levelo://app?vid=67b793e9-a241-4578-a20c-225fb61a9ace","ios":"levelo://app?vid=67b793e9-a241-4578-a20c-225fb61a9ace"},"vehicle_type_id":"4","last_reported":1761560016,"current_range_meters":22800,"station_id":"ce4bgl92rcd13ifvqbq0","pricing_plan_id":"cebpf4jnsgd1na2vs0mg"},{"bike_id":"57185adc-6152-4762-b3ab-836c5f2dcef3","system_id":"levelo_inurba_marseille","lat":43.2316,"lon":5.43701,"is_reserved":false,"is_disabled":false,"rental_uris":{"android":"levelo://app?vid=57185adc-6152-4762-b3ab-836c5f2dcef3","ios":"levelo://app?vid=57185adc-6152-4762-b3ab-836c5f2dcef3"},"vehicle_type_id":"4","last_reported":1761560016,"current_range_meters":22800,"station_id":"ce4bhmp2rcd13ifvqgog","pricing_plan_id":"cebpf4jnsgd1na2vs0mg"},{"bike_id":"74555d5a-1ae2-445e-8ce6-75a97c219228","system_id":"levelo_inurba_marseille","lat":43.28483,"lon":5.3842,"is_reserved":false,"is_disabled":false,"rental_uris":{"android":"levelo://app?vid=74555d5a-1ae2-445e-8ce6-75a97c219228","ios":"levelo://app?vid=74555d5a-1ae2-445e-8ce6-75a97c219228"},"vehicle_type_id":"4","last_reported":1761560016,"current_range_meters":22800,"station_id":"ce4bh512rcd13ifvqe3g","pricing_plan_id":"cebpf4jnsgd1na2vs0mg"},{"bike_id":"e3e5350b-b319-4e4e-b678-4479a54d46b6","system_id":"levelo_inurba_marseille","lat":43.27953,"lon":5.38712,"is_reserved":false,"is_disabled":false,"rental_uris":{"android":"levelo://app?vid=e3e5350b-b319-4e4e-b678-4479a54d46b6","ios":"levelo://app?vid=e3e5350b-b319-4e4e-b678-4479a54d46b6"},"vehicle_type_id":"4","last_reported":1761560016,"current_range_meters":23200,"station_id":"ce4bhg12rcd13ifvqf80","pricing_plan_id":"cebpf4jnsgd1na2vs0mg"},{"bike_id":"2d3653f9-c328-4adb-b889-314434219b0f","system_id":"levelo_inurba_marseille","lat":43.28982,"lon":5.3784,"is_reserved":false,"is_disabled":false,"rental_uris":{"android":"levelo://app?vid=2d3653f9-c328-4adb-b889-314434219b0f","ios":"levelo://app?vid=2d3653f9-c328-4adb-b889-314434219b0f"},"vehicle_type_id":"4","last_reported":1761560016,"current_range_meters":23200,"station_id":"ce4bh9p2rcd13ifvqed0","pricing_plan_id":"cebpf4jnsgd1na2vs0mg"},{"bike_id":"ae490c08-0ba9-42f3-9bf9-f36c2376a1b8","system_id":"levelo_inurba_marseille","lat":43.30946,"lon":5.390343,"is_reserved":false,"is_disabled":false,"rental_uris":{"android":"levelo://app?vid=ae490c08-0ba9-42f3-9bf9-f36c2376a1b8","ios":"levelo://app?vid=ae490c08-0ba9-42f3-9bf9-f36c2376a1b8"},"vehicle_type_id":"4","last_reported":1761560016,"current_range_meters":23200,"station_id":"ce4bgup2rcd13ifvqco0","pricing_plan_id":"cebpf4jnsgd1na2vs0mg"},{"bike_id":"b1e81361-2b17-4ef1-8a58-6def5753471b","system_id":"levelo_inurba_marseille","lat":43.337474,"lon":5.374712,"is_reserved":false,"is_disabled":false,"rental_uris":{"android":"levelo://app?vid=b1e81361-2b17-4ef1-8a58-6def5753471b","ios":"levelo://app?vid=b1e81361-2b17-4ef1-8a58-6def5753471b"},"vehicle_type_id":"4","last_reported":1761560016,"current_range_meters":23200,"station_id":"","pricing_plan_id":"cebpf4jnsgd1na2vs0mg"},{"bike_id":"65be2296-1e9f-4dfb-aa3e-c9aaba7b4fc8","system_id":"levelo_inurba_marseille","lat":43.29092,"lon":5.381148,"is_reserved":false,"is_disabled":false,"rental_uris":{"android":"levelo://app?vid=65be2296-1e9f-4dfb-aa3e-c9aaba7b4fc8","ios":"levelo://app?vid=65be2296-1e9f-4dfb-aa3e-c9aaba7b4fc8"},"vehicle_type_id":"4","last_reported":1761560016,"current_range_meters":23200,"station_id":"ce4bh512rcd13ifvqe2g","pricing_plan_id":"cebpf4jnsgd1na2vs0mg"},{"bike_id":"5ea95fb2-f219-4316-94b8-fe6e127b1fff","system_id":"levelo_inurba_marseille","lat":43.2737,"lon":5.36255,"is_reserved":false,"is_disabled":false,"rental_uris":{"android":"levelo://app?vid=5ea95fb2-f219-4316-94b8-fe6e127b1fff","ios":"levelo://app?vid=5ea95fb2-f219-4316-94b8-fe6e127b1fff"},"vehicle_type_id":"4","last_reported":1761560016,"current_range_meters":23200,"station_id":"ce4bhbh2rcd13ifvqeo0","pricing_plan_id":"cebpf4jnsgd1na2vs0mg"},{"bike_id":"036b404e-5098-480d-990c-0f2049ce5761","system_id":"levelo_inurba_marseille","lat":43.26789,"lon":5.39409,"is_reserved":false,"is_disabled":false,"rental_uris":{"android":"levelo://app?vid=036b404e-5098-480d-990c-0f2049ce5761","ios":"levelo://app?vid=036b404e-5098-480d-990c-0f2049ce5761"},"vehicle_type_id":"4","last_reported":1761560016,"current_range_meters":23200,"station_id":"ce4bhh12rcd13ifvqfg0","pricing_plan_id":"cebpf4jnsgd1na2vs0mg"},{"bike_id":"5a5f4c1a-8ce3-4140-8268-fad5160f1378","system_id":"levelo_inurba_marseille","lat":43.25815,"lon":5.39431,"is_reserved":false,"is_disabled":false,"rental_uris":{"android":"levelo://app?vid=5a5f4c1a-8ce3-4140-8268-fad5160f1378","ios":"levelo://app?vid=5a5f4c1a-8ce3-4140-8268-fad5160f1378"},"vehicle_type_id":"4","last_reported":1761560016,"current_range_meters":23200,"station_id":"ce4bhip2rcd13ifvqft0","pricing_plan_id":"cebpf4jnsgd1na2vs0mg"},{"bike_id":"26fb1292-3795-47ce-9dba-5411522bb698","system_id":"levelo_inurba_marseille","lat":43.24071,"lon":5.37751,"is_reserved":false,"is_disabled":false,"rental_uris":{"android":"levelo://app?vid=26fb1292-3795-47ce-9dba-5411522bb698","ios":"levelo://app?vid=26fb1292-3795-47ce-9dba-5411522bb698"},"vehicle_type_id":"4","last_reported":1761560016,"current_range_meters":24000,"station_id":"ce4bhnp2rcd13ifvqgvg","pricing_plan_id":"cebpf4jnsgd1na2vs0mg"},