{"last_updated":1698430108,"ttl":30,"version":"2.2","data":{"bikes":[{"bike_id":"193f5bee-d6ff-400f-b9a2-e0ec1ab0e767","system_id":"levelo_inurba_marseille","lat":43.312239,"lon":5.368562,"is_reserved":false,"is_disabled":false,"rental_uris":{"android":"levelo://app?vid=193f5bee-d6ff-400f-b9a2-e0ec1ab0e767","ios":"levelo://app?vid=193f5bee-d6ff-400f-b9a2-e0ec1ab0e767"},"vehicle_type_id":"4","last_reported":1698430108,"current_range_meters":17600,"station_id":"ce4bgl92rcd13ifvqbq0","pricing_plan_id":"free"},{"bike_id":"206a0d03-4f5f-4b67-80d1-2c19e2467dcc","system_id":"levelo_inurba_marseille","lat":43.312239,"lon":5.368562,"is_reserved":false,"is_disabled":false,"rental_uris":{"android":"levelo://app?vid=206a0d03-4f5f-4b67-80d1-2c19e2467dcc","ios":"levelo://app?vid=206a0d03-4f5f-4b67-80d1-2c19e2467dcc"},"vehicle_type_id":"4","last_reported":1698430108,"current_range_meters":12000,"station_id":"ce4bgl92rcd13ifvqbq0","pricing_plan_id":"free"},{"bike_id":"dca50422-7738-4e04-b123-4e551ffea958","system_id":"levelo_inurba_marseille","lat":43.312239,"lon":5.368562,"is_reserved":false,"is_disabled":false,"rental_uris":{"android":"levelo://app?vid=dca50422-7738-4e04-b123-4e551ffea958","ios":"levelo://app?vid=dca50422-7738-4e04-b123-4e551ffea958"},"vehicle_type_id":"4","last_reported":1698430108,"current_range_meters":18000,"station_id":"ce4bgl92rcd13ifvqbq0","pricing_plan_id":"free"},{"bike_id":"ee686378-144b-4380-8c1c-81845a3d594f","system_id":"levelo_inurba_marseille","lat":43.312239,"lon":5.368562,"is_reserved":false,"is_disabled":false,"rental_uris":{"android":"levelo://app?vid=ee686378-144b-4380-8c1c-81845a3d594f","ios":"levelo://app?vid=ee686378-144b-4380-8c1c-81845a3d594f"},"vehicle_type_id":"4","last_reported":1698430108,"current_range_meters":31200,"station_id":"ce4bgl92rcd13ifvqbq0","pricing_plan_id":"free"},{"bike_id":"dbc38b5e-7ae4-4dc3-be87-5d8a01409b52","system_id":"levelo_inurba_marseille","lat":43.30884,"lon":5.37096,"is_reserved":false,"is_disabled":false,"rental_uris":{"android":"levelo://app?vid=dbc38b5e-7ae4-4dc3-be87-5d8a01409b52","ios":"levelo://app?vid=dbc38b5e-7ae4-4dc3-be87-5d8a01409b52"},"vehicle_type_id":"4","last_reported":1698430108,"current_range_meters":0,"station_id":"ce4bgqh2rcd13ifvqc5g","pricing_plan_id":"free"},{"bike_id":"322c643a-1c3d-4f8d-bd25-a88be835fa97","system_id":"levelo_inurba_marseille","lat":43.314811,"lon":5.373103,"is_reserved":false,"is_disabled":false,"rental_uris":{"android":"levelo://app?vid=322c643a-1c3d-4f8d-bd25-a88be835fa97","ios":"levelo://app?vid=322c643a-1c3d-4f8d-bd25-a88be835fa97"},"vehicle_type_id":"4","last_reported":1698430108,"current_range_meters":14000,"station_id":"ce4bgt12rcd13ifvqcd0","pricing_plan_id":"free"},{"bike_id":"e22ae59d-4c50-4577-bcd9-68cc9ceb5bbc","system_id":"levelo_inurba_marseille","lat":43.31488,"lon":5.37314,"is_reserved":false,"is_disabled":false,"rental_uris":{"android":"levelo://app?vid=e22ae59d-4c50-4577-bcd9-68cc9ceb5bbc","ios":"levelo://app?vid=e22ae59d-4c50-4577-bcd9-68cc9ceb5bbc"},"vehicle_type_id":"4","last_reported":1698430108,"current_range_meters":0,"station_id":"ce4bgt12rcd13ifvqcd0","pricing_plan_id":"free"},{"bike_id":"dbbdea51-7e3d-4271-bd96-c3aabecbd7e2","system_id":"levelo_inurba_marseille","lat":43.315783,"lon":5.372523,"is_reserved":false,"is_disabled":false,"rental_uris":{"android":"levelo://app?vid=dbbdea51-7e3d-4271-bd96-c3aabecbd7e2","ios":"levelo://app?vid=dbbdea51-7e3d-4271-bd96-c3aabecbd7e2"},"vehicle_type_id":"4","last_reported":1698430108,"current_range_meters":11200,"station_id":"","pricing_plan_id":"free"},{"bike_id":"e8147173-512b-4df2-82e3-bd27f48cd210","system_id":"levelo_inurba_marseille","lat":43.305486,"lon":5.366262,"is_reserved":false,"is_disabled":false,"rental_uris":{"android":"levelo://app?vid=e8147173-512b-4df2-82e3-bd27f48cd210","ios":"levelo://app?vid=e8147173-512b-4df2-82e3-bd27f48cd210"},"vehicle_type_id":"4","last_reported":1698430108,"current_range_meters":7600,"station_id":"ce4bgs12rcd13ifvqcag","pricing_plan_id":"free"},{"bike_id":"858b0454-f600-4bf0-a050-77ffb90eed69","system_id":"levelo_inurba_marseille","lat":43.30611,"lon":5.37146,"is_reserved":false,"is_disabled":false,"rental_uris":{"android":"levelo://app?vid=858b0454-f600-4bf0-a050-77ffb90eed69","ios":"levelo://app?vid=858b0454-f600-4bf0-a050-77ffb90eed69"},"vehicle_type_id":"4","last_reported":1698430108,"current_range_meters":11600,"station_id":"","pricing_plan_id":"free"},{"bike_id":"c59bcbe6-f95c-4fdd-9f5a-d1745ae8826f","system_id":"levelo_inurba_marseille","lat":43.30536,"lon":5.36545,"is_reserved":false,"is_disabled":false,"rental_uris":{"android":"levelo://app?vid=c59bcbe6-f95c-4fdd-9f5a-d1745ae8826f","ios":"levelo://app?vid=c59bcbe6-f95c-4fdd-9f5a-d1745ae8826f"},"vehicle_type_id":"4","last_reported":1698430108,"current_range_meters":0,"station_id":"ce4bgs12rcd13ifvqcag","pricing_plan_id":"free"},{"bike_id":"f252b071-dddd-4e5f-ad07-506846af6d1a","system_id":"levelo_inurba_marseille","lat":43.30534,"lon":5.36535,"is_reserved":false,"is_disabled":false,"rental_uris":{"android":"levelo://app?vid=f252b071-dddd-4e5f-ad07-506846af6d1a","ios":"levelo://app?vid=f252b071-dddd-4e5f-ad07-506846af6d1a"},"vehicle_type_id":"4","last_reported":1698430108,"current_range_meters":23600,"station_id":"ce4bgs12rcd13ifvqcag","pricing_plan_id":"free"},{"bike_id":"900f2229-e337-41ef-8c54-7e9ea08754f2","system_id":"levelo_inurba_marseille","lat":43.30523,"lon":5.36724,"is_reserved":false,"is_disabled":false,"rental_uris":{"android":"levelo://app?vid=900f2229-e337-41ef-8c54-7e9ea08754f2","ios":"levelo://app?vid=900f2229-e337-41ef-8c54-7e9ea08754f2"},"vehicle_type_id":"4","last_reported":1698430108,"current_range_meters":14800,"station_id":"ce4bgrp2rcd13ifvqc9g","pricing_plan_id":"free"},{"bike_id":"15a17ec0-f839-417f-8bec-f0ab9e578c4f","system_id":"levelo_inurba_marseille","lat":43.305989,"lon":5.37225,"is_reserved":false,"is_disabled":false,"rental_uris":{"android":"levelo://app?vid=15a17ec0-f839-417f-8bec-f0ab9e578c4f","ios":"levelo://app?vid=15a17ec0-f839-417f-8bec-f0ab9e578c4f"},"vehicle_type_id":"4","last_reported":1698430108,"current_range_meters":12000,"station_id":"ce4bgqh2rcd13ifvqc4g","pricing_plan_id":"free"},{"bike_id":"ce2d3f32-be92-46a3-9f2a-d931aa5a5f1a","system_id":"levelo_inurba_marseille","lat":43.305989,"lon":5.37225,"is_reserved":false,"is_disabled":false,"rental_uris":{"android":"levelo://app?vid=ce2d3f32-be92-46a3-9f2a-d931aa5a5f1a","ios":"levelo://app?vid=ce2d3f32-be92-46a3-9f2a-d931aa5a5f1a"},"vehicle_type_id":"4","last_reported":1698430108,"current_range_meters":14000,"station_id":"ce4bgqh2rcd13ifvqc4g","pricing_plan_id":"free"},{"bike_id":"a5ca1271-4fe5-41f0-ac5d-b30f5241844e","system_id":"levelo_inurba_marseille","lat":43.305989,"lon":5.37225,"is_reserved":false,"is_disabled":false,"rental_uris":{"android":"levelo://app?vid=a5ca1271-4fe5-41f0-ac5d-b30f5241844e","ios":"levelo://app?vid=a5ca1271-4fe5-41f0-ac5d-b30f5241844e"},"vehicle_type_id":"4","last_reported":1698430108,"current_range_meters":28800,"station_id":"ce4bgqh2rcd13ifvqc4g","pricing_plan_id":"free"},{"bike_id":"42c9a347-e988-41cd-ba91-7e634d8cc869","system_id":"levelo_inurba_marseille","lat":43.305989,"lon":5.37225,"is_reserved":false,"is_disabled":false,"rental_uris":{"android":"levelo://app?vid=42c9a347-e988-41cd-ba91-7e634d8cc869","ios":"levelo://app?vid=42c9a347-e988-41cd-ba91-7e634d8cc869"},"vehicle_type_id":"4","last_reported":1698430108,"current_range_meters":15600,"station_id":"ce4bgqh2rcd13ifvqc4g","pricing_plan_id":"free"},{"bike_id":"c5e64a08-bac5-42ba-9830-9f4161ac7216","system_id":"levelo_inurba_marseille","lat":43.311213,"lon":5.377668,"is_reserved":false,"is_disabled":false,"rental_uris":{"android":"levelo://app?vid=c5e64a08-bac5-42ba-9830-9f4161ac7216","ios":"levelo://app?vid=c5e64a08-bac5-42ba-9830-9f4161ac7216"},"vehicle_type_id":"4","last_reported":1698430108,"current_range_meters":0,"station_id":"","pricing_plan_id":"free"},{"bike_id":"9dadee38-66e6-45c4-8b95-57468aaa2eb8","system_id":"levelo_inurba_marseille","lat":43.307842,"lon":5.376473,"is_reserved":false,"is_disabled":false,"rental_uris":{"android":"levelo://app?vid=9dadee38-66e6-45c4-8b95-57468aaa2eb8","ios":"levelo://app?vid=9dadee38-66e6-45c4-8b95-57468aaa2eb8"},"vehicle_type_id":"4","last_reported":1698430108,"current_range_meters":7200,"station_id":"ce4bgv92rcd13ifvqcq0","pricing_plan_id":"free"},{"bike_id":"566f155a-99b9-4815-8af5-cf10cb3d5b17","system_id":"levelo_inurba_marseille","lat":43.317075,"lon":5.377367,"is_reserved":false,"is_disabled":false,"rental_uris":{"android":"levelo://app?vid=566f155a-99b9-4815-8af5-cf10cb3d5b17","ios":"levelo://app?vid=566f155a-99b9-4815-8af5-cf10cb3d5b17"},"vehicle_type_id":"4","last_reported":1698430108,"current_range_meters":10000,"station_id":"ce4bgth2rcd13ifvqch0","pricing_plan_id":"free"},{"bike_id":"acbd4cdb-a7f7-4f76-94b7-13509e3e479a","system_id":"levelo_inurba_marseille","lat":43.317075,"lon":5.377367,"is_reserved":false,"is_disabled":false,"rental_uris":{"android":"levelo://app?vid=acbd4cdb-a7f7-4f76-94b7-13509e3e479a","ios":"levelo://app?vid=acbd4cdb-a7f7-4f76-94b7-13509e3e479a"},"vehicle_type_id":"4","last_reported":1698430108,"current_range_meters":10400,"station_id":"ce4bgth2rcd13ifvqch0","pricing_plan_id":"free"},{"bike_id":"ecf825d0-af12-4bee-b7b2-482cd7d2cd21","system_id":"levelo_inurba_marseille","lat":43.317075,"lon":5.377367,"is_reserved":false,"is_disabled":false,"rental_uris":{"android":"levelo://app?vid=ecf825d0-af12-4bee-b7b2-482cd7d2cd21","ios":"levelo://app?vid=ecf825d0-af12-4bee-b7b2-482cd7d2cd21"},"vehicle_type_id":"4","last_reported":1698430108,"current_range_meters":5600,"station_id":"ce4bgth2rcd13ifvqch0","pricing_plan_id":"free"},{"bike_id":"47ed5ec6-6a9b-4c89-a8d1-ed8dfef32bb0","system_id":"levelo_inurba_marseille","lat":43.317075,"lon":5.377367,"is_reserved":false,"is_disabled":false,"rental_uris":{"android":"levelo://app?vid=47ed5ec6-6a9b-4c89-a8d1-ed8dfef32bb0","ios":"levelo://app?vid=47ed5ec6-6a9b-4c89-a8d1-ed8dfef32bb0"},"vehicle_type_id":"4","last_reported":1698430108,"current_range_meters":14800,"station_id":"ce4bgth2rcd13ifvqch0","pricing_plan_id":"free"},{"bike_id":"56a3dee9-23a7-4fd1-bfa5-ab06f723286f","system_id":"levelo_inurba_marseille","lat":43.317075,"lon":5.377367,"is_reserved":false,"is_disabled":false,"rental_uris":{"android":"levelo://app?vid=56a3dee9-23a7-4fd1-bfa5-ab06f723286f","ios":"levelo://app?vid=56a3dee9-23a7-4fd1-bfa5-ab06f723286f"},"vehicle_type_id":"4","last_reported":1698430108,"current_range_meters":31200,"station_id":"ce4bgth2rcd13ifvqch0","pricing_plan_id":"free"},{"bike_id":"51c15eb4-6097-4f48-b9f2-a46f48840449","system_id":"levelo_inurba_marseille","lat":43.317075,"lon":5.377367,"is_reserved":false,"is_disabled":false,"rental_uris":{"android":"levelo://app?vid=51c15eb4-6097-4f48-b9f2-a46f48840449","ios":"levelo://app?vid=51c15eb4-6097-4f48-b9f2-a46f48840449"},"vehicle_type_id":"4","last_reported":1698430108,"current_range_meters":15200,"station_id":"ce4bgth2rcd13ifvqch0","pricing_plan_id":"free"},{"bike_id":"e112bd38-e11d-4789-9c6f-2037517ec05f","system_id":"levelo_inurba_marseille","lat":43.317075,"lon":5.377367,"is_reserved":false,"is_disabled":false,"rental_uris":{"android":"levelo://app?vid=e112bd38-e11d-4789-9c6f-2037517ec05f","ios":"levelo://app?vid=e112bd38-e11d-4789-9c6f-2037517ec05f"},"vehicle_type_id":"4","last_reported":1698430108,"current_range_meters":22400,"station_id":"ce4bgth2rcd13ifvqch0","pricing_plan_id":"free"},{"bike_id":"11a64c66-aeaf-47f0-991b-e50b86706b91","system_id":"levelo_inurba_marseille","lat":43.30304,"lon":5.368987,"is_reserved":false,"is_disabled":false,"rental_uris":{"android":"levelo://app?vid=11a64c66-aeaf-47f0-991b-e50b86706b91","ios":"levelo://app?vid=11a64c66-aeaf-47f0-991b-e50b86706b91"},"vehicle_type_id":"4","last_reported":1698430108,"current_range_meters":15600,"station_id":"ce4bgqh2rcd13ifvqc5g","pricing_plan_id":"free"},{"bike_id":"59442139-08e5-4d97-808b-7e9d5af1e88a","system_id":"levelo_inurba_marseille","lat":43.311124,"lon":5.381312,"is_reserved":false,"is_disabled":false,"rental_uris":{"android":"levelo://app?vid=59442139-08e5-4d97-808b-7e9d5af1e88a","ios":"levelo://app?vid=59442139-08e5-4d97-808b-7e9d5af1e88a"},"vehicle_type_id":"4","last_reported":1698430108,"current_range_meters":0,"station_id":"","pricing_plan_id":"free"},{"bike_id":"3bc902b2-30e2-421e-8a92-5f180d5392db","system_id":"levelo_inurba_marseille","lat":43.308012,"lon":5.381511,"is_reserved":false,"is_disabled":false,"rental_uris":{"android":"levelo://app?vid=3bc902b2-30e2-421e-8a92-5f180d5392db","ios":"levelo://app?vid=3bc902b2-30e2-421e-8a92-5f180d5392db"},"vehicle_type_id":"4","last_reported":1698430108,"current_range_meters":14000,"station_id":"ce4bgt12rcd13ifvqce0","pricing_plan_id":"free"},{"bike_id":"b21c9f77-bc37-41bb-b53c-cac58551b2a0","system_id":"levelo_inurba_marseille","lat":43.304606,"lon":5.379026,"is_reserved":false,"is_disabled":false,"rental_uris":{"android":"levelo://app?vid=b21c9f77-bc37-41bb-b53c-cac58551b2a0","ios":"levelo://app?vid=b21c9f77-bc37-41bb-b53c-cac58551b2a0"},"vehicle_type_id":"4","last_reported":1698430108,"current_range_meters":4800,"station_id":"ce4bgup2rcd13ifvqcn0","pricing_plan_id":"free"},{"bike_id":"d797f1e6-f3ca-4ad7-8b56-5ed6191da53c","system_id":"levelo_inurba_marseille","lat":43.304635,"lon":5.379175,"is_reserved":false,"is_disabled":false,"rental_uris":{"android":"levelo://app?vid=d797f1e6-f3ca-4ad7-8b56-5ed6191da53c","ios":"levelo://app?vid=d797f1e6-f3ca-4ad7-8b56-5ed6191da53c"},"vehicle_type_id":"4","last_reported":1698430108,"current_range_meters":31200,"station_id":"ce4bgup2rcd13ifvqcn0","pricing_plan_id":"free"},{"bike_id":"33ee12c1-bfff-4ae7-ad6d-77b569898cd1","system_id":"levelo_inurba_marseille","lat":43.324763,"lon":5.365713,"is_reserved":false,"is_disabled":false,"rental_uris":{"android":"levelo://app?vid=33ee12c1-bfff-4ae7-ad6d-77b569898cd1","ios":"levelo://app?vid=33ee12c1-bfff-4ae7-ad6d-77b569898cd1"},"vehicle_type_id":"4","last_reported":1698430108,"current_range_meters":19200,"station_id":"","pricing_plan_id":"free"},{"bike_id":"1047bcc5-10ff-460b-bd6f-eac1d4a67db4","system_id":"levelo_inurba_marseille","lat":43.31745,"lon":5.382537,"is_reserved":false,"is_disabled":false,"rental_uris":{"android":"levelo://app?vid=1047bcc5-10ff-460b-bd6f-eac1d4a67db4","ios":"levelo://app?vid=1047bcc5-10ff-460b-bd6f-eac1d4a67db4"},"vehicle_type_id":"4","last_reported":1698430108,"current_range_meters":0,"station_id":"","pricing_plan_id":"free"},{"bike_id":"b570dd36-545a-46c8-b7b6-84eb42598cdc","system_id":"levelo_inurba_marseille","lat":43.302784,"lon":5.377158,"is_reserved":false,"is_disabled":false,"rental_uris":{"android":"levelo://app?vid=b570dd36-545a-46c8-b7b6-84eb42598cdc","ios":"levelo://app?vid=b570dd36-545a-46c8-b7b6-84eb42598cdc"},"vehicle_type_id":"4","last_reported":1698430108,"current_range_meters":2000,"station_id":"ce4bguh2rcd13ifvqcj0","pricing_plan_id":"free"},{"bike_id":"0d497c6f-23ef-4790-b598-06a0b0dfd8fa","system_id":"levelo_inurba_marseille","lat":43.30143,"lon":5.37413,"is_reserved":false,"is_disabled":false,"rental_uris":{"android":"levelo://app?vid=0d497c6f-23ef-4790-b598-06a0b0dfd8fa","ios":"levelo://app?vid=0d497c6f-23ef-4790-b598-06a0b0dfd8fa"},"vehicle_type_id":"4","last_reported":1698430108,"current_range_meters":28400,"station_id":"ce4bgs92rcd13ifvqcc0","pricing_plan_id":"free"},{"bike_id":"c4b90572-4f2f-4dc4-9651-676736a9ee61","system_id":"levelo_inurba_marseille","lat":43.302784,"lon":5.377158,"is_reserved":false,"is_disabled":false,"rental_uris":{"android":"levelo://app?vid=c4b90572-4f2f-4dc4-9651-676736a9ee61","ios":"levelo://app?vid=c4b90572-4f2f-4dc4-9651-676736a9ee61"},"vehicle_type_id":"4","last_reported":1698430108,"current_range_meters":26000,"station_id":"ce4bguh2rcd13ifvqcj0","pricing_plan_id":"free"},{"bike_id":"a86c77a8-bd39-41a1-a278-788f4bf01402","system_id":"levelo_inurba_marseille","lat":43.301429,"lon":5.37413,"is_reserved":false,"is_disabled":false,"rental_uris":{"android":"levelo://app?vid=a86c77a8-bd39-41a1-a278-788f4bf01402","ios":"levelo://app?vid=a86c77a8-bd39-41a1-a278-788f4bf01402"},"vehicle_type_id":"4","last_reported":1698430108,"current_range_meters":25200,"station_id":"ce4bgs92rcd13ifvqcc0","pricing_plan_id":"free"},{"bike_id":"dc13d423-5e03-426f-85b3-c07301adce6a","system_id":"levelo_inurba_marseille","lat":43.301429,"lon":5.37413,"is_reserved":false,"is_disabled":false,"rental_uris":{"android":"levelo://app?vid=dc13d423-5e03-426f-85b3-c07301adce6a","ios":"levelo://app?vid=dc13d423-5e03-426f-85b3-c07301adce6a"},"vehicle_type_id":"4","last_reported":1698430108,"current_range_meters":19600,"station_id":"ce4bgs92rcd13ifvqcc0","pricing_plan_id":"free"},{"bike_id":"60cb8787-095d-459e-be6f-a0fb12bc51ce","system_id":"levelo_inurba_marseille","lat":43.32007,"lon":5.38137,"is_reserved":false,"is_disabled":false,"rental_uris":{"android":"levelo://app?vid=60cb8787-095d-459e-be6f-a0fb12bc51ce","ios":"levelo://app?vid=60cb8787-095d-459e-be6f-a0fb12bc51ce"},"vehicle_type_id":"4","last_reported":1698430108,"current_range_meters":2800,"station_id":"ce4bhr12rcd13ifvqhqg","pricing_plan_id":"free"},{"bike_id":"c2a4ea93-9a12-4af4-85ed-bdc873ab1807","system_id":"levelo_inurba_marseille","lat":43.319421,"lon":5.381959,"is_reserved":false,"is_disabled":false,"rental_uris":{"android":"levelo://app?vid=c2a4ea93-9a12-4af4-85ed-bdc873ab1807","ios":"levelo://app?vid=c2a4ea93-9a12-4af4-85ed-bdc873ab1807"},"vehicle_type_id":"4","last_reported":1698430108,"current_range_meters":20800,"station_id":"ce4bhr12rcd13ifvqhpg","pricing_plan_id":"free"},{"bike_id":"608be8b1-2271-4a8d-9fdc-07efb486958d","system_id":"levelo_inurba_marseille","lat":43.320076,"lon":5.381495,"is_reserved":false,"is_disabled":false,"rental_uris":{"android":"levelo://app?vid=608be8b1-2271-4a8d-9fdc-07efb486958d","ios":"levelo://app?vid=608be8b1-2271-4a8d-9fdc-07efb486958d"},"vehicle_type_id":"4","last_reported":1698430108,"current_range_meters":12000,"station_id":"","pricing_plan_id":"free"},{"bike_id":"e68f611e-baf6-484b-a2c8-be1ca8077ce6","system_id":"levelo_inurba_marseille","lat":43.31992,"lon":5.38165,"is_reserved":false,"is_disabled":false,"rental_uris":{"android":"levelo://app?vid=e68f611e-baf6-484b-a2c8-be1ca8077ce6","ios":"levelo://app?vid=e68f611e-baf6-484b-a2c8-be1ca8077ce6"},"vehicle_type_id":"4","last_reported":1698430108,"current_range_meters":19200,"station_id":"ce4bhr12rcd13ifvqhpg","pricing_plan_id":"free"},{"bike_id":"7364ec67-57a5-4f09-910d-34be8d104041","system_id":"levelo_inurba_marseille","lat":43.313571,"lon":5.384829,"is_reserved":false,"is_disabled":false,"rental_uris":{"android":"levelo://app?vid=7364ec67-57a5-4f09-910d-34be8d104041","ios":"levelo://app?vid=7364ec67-57a5-4f09-910d-34be8d104041"},"vehicle_type_id":"4","last_reported":1698430108,"current_range_meters":14400,"station_id":"ce4bgt92rcd13ifvqcf0","pricing_plan_id":"free"},{"bike_id":"3ec58c4b-9f8e-4dca-96e6-f56cbb157d55","system_id":"levelo_inurba_marseille","lat":43.313571,"lon":5.384829,"is_reserved":false,"is_disabled":false,"rental_uris":{"android":"levelo://app?vid=3ec58c4b-9f8e-4dca-96e6-f56cbb157d55","ios":"levelo://app?vid=3ec58c4b-9f8e-4dca-96e6-f56cbb157d55"},"vehicle_type_id":"4","last_reported":1698430108,"current_range_meters":6800,"station_id":"ce4bgt92rcd13ifvqcf0","pricing_plan_id":"free"},{"bike_id":"a71d74ee-5303-4d33-baf2-19876db432e6","system_id":"levelo_inurba_marseille","lat":43.313571,"lon":5.384829,"is_reserved":false,"is_disabled":false,"rental_uris":{"android":"levelo://app?vid=a71d74ee-5303-4d33-baf2-19876db432e6","ios":"levelo://app?vid=a71d74ee-5303-4d33-baf2-19876db432e6"},"vehicle_type_id":"4","last_reported":1698430108,"current_range_meters":29200,"station_id":"ce4bgt92rcd13ifvqcf0","pricing_plan_id":"free"},{"bike_id":"23f13195-0b65-4bf9-9501-595af2a19e19","system_id":"levelo_inurba_marseille","lat":43.313571,"lon":5.384829,"is_reserved":false,"is_disabled":false,"rental_uris":{"android":"levelo://app?vid=23f13195-0b65-4bf9-9501-595af2a19e19","ios":"levelo://app?vid=23f13195-0b65-4bf9-9501-595af2a19e19"},"vehicle_type_id":"4","last_reported":1698430108,"current_range_meters":12400,"station_id":"ce4bgt92rcd13ifvqcf0","pricing_plan_id":"free"},{"bike_id":"ba391a48-aa7b-469a-b4e5-48a0f1a1e589","system_id":"levelo_inurba_marseille","lat":43.313571,"lon":5.384829,"is_reserved":false,"is_disabled":false,"rental_uris":{"android":"levelo://app?vid=ba391a48-aa7b-469a-b4e5-48a0f1a1e589","ios":"levelo://app?vid=ba391a48-aa7b-469a-b4e5-48a0f1a1e589"},"vehicle_type_id":"4","last_reported":1698430108,"current_range_meters":14000,"station_id":"ce4bgt92rcd13ifvqcf0","pricing_plan_id":"free"},{"bike_id":"97997ef7-b347-4148-ba57-9a15ecc4912d","system_id":"levelo_inurba_marseille","lat":43.320945,"lon":5.38306,"is_reserved":false,"is_disabled":false,"rental_uris":{"android":"levelo://app?vid=97997ef7-b347-4148-ba57-9a15ecc4912d","ios":"levelo://app?vid=97997ef7-b347-4148-ba57-9a15ecc4912d"},"vehicle_type_id":"4","last_reported":1698430108,"current_range_meters":0,"station_id":"","pricing_plan_id":"free"},{"bike_id":"98fe8fac-cc7b-41b5-84af-6c2773aeb081","system_id":"levelo_inurba_marseille","lat":43.29852,"lon":5.36281,"is_reserved":false,"is_disabled":false,"rental_uris":{"android":"levelo://app?vid=98fe8fac-cc7b-41b5-84af-6c2773aeb081","ios":"levelo://app?vid=98fe8fac-cc7b-41b5-84af-6c2773aeb081"},"vehicle_type_id":"4","last_reported":1698430108,"current_range_meters":31200,"station_id":"ce4bgpp2rcd13ifvqc3g","pricing_plan_id":"free"},{"bike_id":"095da36c-b1af-4d2c-957a-2c4b43fe6423","system_id":"levelo_inurba_marseille","lat":43.298433,"lon":5.362774,"is_reserved":false,"is_disabled":false,"rental_uris":{"android":"levelo://app?vid=095da36c-b1af-4d2c-957a-2c4b43fe6423","ios":"levelo://app?vid=095da36c-b1af-4d2c-957a-2c4b43fe6423"},"vehicle_type_id":"4","last_reported":1698430108,"current_range_meters":26000,"station_id":"ce4bgpp2rcd13ifvqc3g","pricing_plan_id":"free"},{"bike_id":"179c9e3c-d9bb-46d8-a52d-4c1d171696f2","system_id":"levelo_inurba_marseille","lat":43.298433,"lon":5.362774,"is_reserved":false,"is_disabled":false,"rental_uris":{"android":"levelo://app?vid=179c9e3c-d9bb-46d8-a52d-4c1d171696f2","ios":"levelo://app?vid=179c9e3c-d9bb-46d8-a52d-4c1d171696f2"},"vehicle_type_id":"4","last_reported":1698430108,"current_range_meters":13600,"station_id":"ce4bgpp2rcd13ifvqc3g","pricing_plan_id":"free"},{"bike_id":"b56fc066-ed3f-4946-8c03-b114de9ee938","system_id":"levelo_inurba_marseille","lat":43.311722,"lon":5.387247,"is_reserved":false,"is_disabled":false,"rental_uris":{"android":"levelo://app?vid=b56fc066-ed3f-4946-8c03-b114de9ee938","ios":"levelo://app?vid=b56fc066-ed3f-4946-8c03-b114de9ee938"},"vehicle_type_id":"4","last_reported":1698430108,"current_range_meters":2800,"station_id":"ce4bgv12rcd13ifvqcp0","pricing_plan_id":"free"},{"bike_id":"68eefa9c-0c17-4eb4-8ac1-942322733746","system_id":"levelo_inurba_marseille","lat":43.29911,"lon":5.37472,"is_reserved":false,"is_disabled":false,"rental_uris":{"android":"levelo://app?vid=68eefa9c-0c17-4eb4-8ac1-942322733746","ios":"levelo://app?vid=68eefa9c-0c17-4eb4-8ac1-942322733746"},"vehicle_type_id":"4","last_reported":1698430108,"current_range_meters":25600,"station_id":"ce4bgjh2rcd13ifvqbg0","pricing_plan_id":"free"},{"bike_id":"9a8da736-4952-43ab-acab-f0746496a6bd","system_id":"levelo_inurba_marseille","lat":43.311722,"lon":5.387247,"is_reserved":false,"is_disabled":false,"rental_uris":{"android":"levelo://app?vid=9a8da736-4952-43ab-acab-f0746496a6bd","ios":"levelo://app?vid=9a8da736-4952-43ab-acab-f0746496a6bd"},"vehicle_type_id":"4","last_reported":1698430108,"current_range_meters":1600,"station_id":"ce4bgv12rcd13ifvqcp0","pricing_plan_id":"free"},{"bike_id":"7f814380-83e2-444f-89cb-0bc9f0b0341a","system_id":"levelo_inurba_marseille","lat":43.297774,"lon":5.370875,"is_reserved":false,"is_disabled":false,"rental_uris":{"android":"levelo://app?vid=7f814380-83e2-444f-89cb-0bc9f0b0341a","ios":"levelo://app?vid=7f814380-83e2-444f-89cb-0bc9f0b0341a"},"vehicle_type_id":"4","last_reported":1698430108,"current_range_meters":27200,"station_id":"ce4bgop2rcd13ifvqc1g","pricing_plan_id":"free"},{"bike_id":"6db68e2d-f951-4eed-b762-fc9243a00761","system_id":"levelo_inurba_marseille","lat":43.322872,"lon":5.382756,"is_reserved":false,"is_disabled":false,"rental_uris":{"android":"levelo://app?vid=6db68e2d-f951-4eed-b762-fc9243a00761","ios":"levelo://app?vid=6db68e2d-f951-4eed-b762-fc9243a00761"},"vehicle_type_id":"4","last_reported":1698430108,"current_range_meters":18800,"station_id":"ce4bhr12rcd13ifvqhqg","pricing_plan_id":"free"},{"bike_id":"5b4f818b-33be-48bb-8cc9-88ada6f802a4","system_id":"levelo_inurba_marseille","lat":43.322872,"lon":5.382756,"is_reserved":false,"is_disabled":false,"rental_uris":{"android":"levelo://app?vid=5b4f818b-33be-48bb-8cc9-88ada6f802a4","ios":"levelo://app?vid=5b4f818b-33be-48bb-8cc9-88ada6f802a4"},"vehicle_type_id":"4","last_reported":1698430108,"current_range_meters":10800,"station_id":"ce4bhr12rcd13ifvqhqg","pricing_plan_id":"free"},{"bike_id":"220bd685-bdb0-49e6-8e16-b5251442aff1","system_id":"levelo_inurba_marseille","lat":43.328371,"lon":5.366912,"is_reserved":false,"is_disabled":false,"rental_uris":{"android":"levelo://app?vid=220bd685-bdb0-49e6-8e16-b5251442aff1","ios":"levelo://app?vid=220bd685-bdb0-49e6-8e16-b5251442aff1"},"vehicle_type_id":"4","last_reported":1698430108,"current_range_meters":3200,"station_id":"ce4bhs92rcd13ifvqi0g","pricing_plan_id":"free"},{"bike_id":"7c721af1-a5b0-41f9-a74b-effa6685822a","system_id":"levelo_inurba_marseille","lat":43.323124,"lon":5.382854,"is_reserved":false,"is_disabled":false,"rental_uris":{"android":"levelo://app?vid=7c721af1-a5b0-41f9-a74b-effa6685822a","ios":"levelo://app?vid=7c721af1-a5b0-41f9-a74b-effa6685822a"},"vehicle_type_id":"4","last_reported":1698430108,"current_range_meters":10800,"station_id":"ce4bhr12rcd13ifvqhqg","pricing_plan_id":"free"},{"bike_id":"2bf09692-7151-4aba-9fa7-8ce1d6106004","system_id":"levelo_inurba_marseille","lat":43.328303,"lon":5.366873,"is_reserved":false,"is_disabled":false,"rental_uris":{"android":"levelo://app?vid=2bf09692-7151-4aba-9fa7-8ce1d6106004","ios":"levelo://app?vid=2bf09692-7151-4aba-9fa7-8ce1d6106004"},"vehicle_type_id":"4","last_reported":1698430108,"current_range_meters":16000,"station_id":"","pricing_plan_id":"free"},{"bike_id":"b3e63496-ef57-4fe7-9649-3ee98b2a4e91","system_id":"levelo_inurba_marseille","lat":43.32831,"lon":5.36697,"is_reserved":false,"is_disabled":false,"rental_uris":{"android":"levelo://app?vid=b3e63496-ef57-4fe7-9649-3ee98b2a4e91","ios":"levelo://app?vid=b3e63496-ef57-4fe7-9649-3ee98b2a4e91"},"vehicle_type_id":"4","last_reported":1698430108,"current_range_meters":12800,"station_id":"","pricing_plan_id":"free"},{"bike_id":"4e7c11df-5013-4d01-9ed6-bdc691d5b5cc","system_id":"levelo_inurba_marseille","lat":43.328336,"lon":5.366916,"is_reserved":false,"is_disabled":false,"rental_uris":{"android":"levelo://app?vid=4e7c11df-5013-4d01-9ed6-bdc691d5b5cc","ios":"levelo://app?vid=4e7c11df-5013-4d01-9ed6-bdc691d5b5cc"},"vehicle_type_id":"4","last_reported":1698430108,"current_range_meters":0,"station_id":"ce4bhs92rcd13ifvqi0g","pricing_plan_id":"free"},{"bike_id":"a3c107fe-e6d0-41c2-be03-452395cf3181","system_id":"levelo_inurba_marseille","lat":43.297163,"lon":5.365866,"is_reserved":false,"is_disabled":false,"rental_uris":{"android":"levelo://app?vid=a3c107fe-e6d0-41c2-be03-452395cf3181","ios":"levelo://app?vid=a3c107fe-e6d0-41c2-be03-452395cf3181"},"vehicle_type_id":"4","last_reported":1698430108,"current_range_meters":6800,"station_id":"ce4bgn12rcd13ifvqbt0","pricing_plan_id":"free"},{"bike_id":"c9ce4657-5061-4e38-9490-e968c1a785af","system_id":"levelo_inurba_marseille","lat":43.2968,"lon":5.37291,"is_reserved":false,"is_disabled":false,"rental_uris":{"android":"levelo://app?vid=c9ce4657-5061-4e38-9490-e968c1a785af","ios":"levelo://app?vid=c9ce4657-5061-4e38-9490-e968c1a785af"},"vehicle_type_id":"4","last_reported":1698430108,"current_range_meters":21600,"station_id":"ce4bgk12rcd13ifvqbj0","pricing_plan_id":"free"},{"bike_id":"9618dd21-4bd2-454a-aab5-d0b74f2001a4","system_id":"levelo_inurba_marseille","lat":43.2968,"lon":5.37291,"is_reserved":false,"is_disabled":false,"rental_uris":{"android":"levelo://app?vid=9618dd21-4bd2-454a-aab5-d0b74f2001a4","ios":"levelo://app?vid=9618dd21-4bd2-454a-aab5-d0b74f2001a4"},"vehicle_type_id":"4","last_reported":1698430108,"current_range_meters":25200,"station_id":"ce4bgk12rcd13ifvqbj0","pricing_plan_id":"free"},{"bike_id":"9c7b312b-1292-45f6-bc47-3abdbde5c9af","system_id":"levelo_inurba_marseille","lat":43.296129,"lon":5.370777,"is_reserved":false,"is_disabled":false,"rental_uris":{"android":"levelo://app?vid=9c7b312b-1292-45f6-bc47-3abdbde5c9af","ios":"levelo://app?vid=9c7b312b-1292-45f6-bc47-3abdbde5c9af"},"vehicle_type_id":"4","last_reported":1698430108,"current_range_meters":27200,"station_id":"ce4bgnh2rcd13ifvqc0g","pricing_plan_id":"free"},{"bike_id":"31f3319f-9a71-4455-8ccb-652e0cd7441a","system_id":"levelo_inurba_marseille","lat":43.296131,"lon":5.370791,"is_reserved":false,"is_disabled":false,"rental_uris":{"android":"levelo://app?vid=31f3319f-9a71-4455-8ccb-652e0cd7441a","ios":"levelo://app?vid=31f3319f-9a71-4455-8ccb-652e0cd7441a"},"vehicle_type_id":"4","last_reported":1698430108,"current_range_meters":2800,"station_id":"ce4bgnh2rcd13ifvqc0g","pricing_plan_id":"free"},{"bike_id":"45725e2b-409a-4eec-bde0-5d20abd2bc55","system_id":"levelo_inurba_marseille","lat":43.29573,"lon":5.367355,"is_reserved":false,"is_disabled":false,"rental_uris":{"android":"levelo://app?vid=45725e2b-409a-4eec-bde0-5d20abd2bc55","ios":"levelo://app?vid=45725e2b-409a-4eec-bde0-5d20abd2bc55"},"vehicle_type_id":"4","last_reported":1698430108,"current_range_meters":400,"station_id":"ce4bgph2rcd13ifvqc2g","pricing_plan_id":"free"},{"bike_id":"f3d0381f-7a2d-409e-a12f-bd3d9095653d","system_id":"levelo_inurba_marseille","lat":43.329673,"lon":5.365468,"is_reserved":false,"is_disabled":false,"rental_uris":{"android":"levelo://app?vid=f3d0381f-7a2d-409e-a12f-bd3d9095653d","ios":"levelo://app?vid=f3d0381f-7a2d-409e-a12f-bd3d9095653d"},"vehicle_type_id":"4","last_reported":1698430108,"current_range_meters":8400,"station_id":"","pricing_plan_id":"free"},{"bike_id":"8fbab5ac-3d4b-4365-ad6a-fe22b8debca3","system_id":"levelo_inurba_marseille","lat":43.29573,"lon":5.367355,"is_reserved":false,"is_disabled":false,"rental_uris":{"android":"levelo://app?vid=8fbab5ac-3d4b-4365-ad6a-fe22b8debca3","ios":"levelo://app?vid=8fbab5ac-3d4b-4365-ad6a-fe22b8debca3"},"vehicle_type_id":"4","last_reported":1698430108,"current_range_meters":7200,"station_id":"ce4bgph2rcd13ifvqc2g","pricing_plan_id":"free"},{"bike_id":"e687ecdd-e254-4578-a505-27a80c9641be","system_id":"levelo_inurba_marseille","lat":43.309589,"lon":5.390258,"is_reserved":false,"is_disabled":false,"rental_uris":{"android":"levelo://app?vid=e687ecdd-e254-4578-a505-27a80c9641be","ios":"levelo://app?vid=e687ecdd-e254-4578-a505-27a80c9641be"},"vehicle_type_id":"4","last_reported":1698430108,"current_range_meters":20800,"station_id":"ce4bgup2rcd13ifvqco0","pricing_plan_id":"free"},{"bike_id":"acf3d8de-8dab-4ec8-ac72-d21746b797ab","system_id":"levelo_inurba_marseille","lat":43.309589,"lon":5.390258,"is_reserved":false,"is_disabled":false,"rental_uris":{"android":"levelo://app?vid=acf3d8de-8dab-4ec8-ac72-d21746b797ab","ios":"levelo://app?vid=acf3d8de-8dab-4ec8-ac72-d21746b797ab"},"vehicle_type_id":"4","last_reported":1698430108,"current_range_meters":0,"station_id":"ce4bgup2rcd13ifvqco0","pricing_plan_id":"free"},{"bike_id":"8a3dc2cc-26de-445f-a661-ad76601fc3a9","system_id":"levelo_inurba_marseille","lat":43.304278,"lon":5.388868,"is_reserved":false,"is_disabled":false,"rental_uris":{"android":"levelo://app?vid=8a3dc2cc-26de-445f-a661-ad76601fc3a9","ios":"levelo://app?vid=8a3dc2cc-26de-445f-a661-ad76601fc3a9"},"vehicle_type_id":"4","last_reported":1698430108,"current_range_meters":15600,"station_id":"ce4bgk12rcd13ifvqbi0","pricing_plan_id":"free"},{"bike_id":"9a659368-35e4-493d-a858-91a41a3ca319","system_id":"levelo_inurba_marseille","lat":43.304274,"lon":5.388873,"is_reserved":false,"is_disabled":false,"rental_uris":{"android":"levelo://app?vid=9a659368-35e4-493d-a858-91a41a3ca319","ios":"levelo://app?vid=9a659368-35e4-493d-a858-91a41a3ca319"},"vehicle_type_id":"4","last_reported":1698430108,"current_range_meters":22800,"station_id":"ce4bgk12rcd13ifvqbi0","pricing_plan_id":"free"},{"bike_id":"fd310e28-b6ec-4333-a6dd-8bc0c6f5fb14","system_id":"levelo_inurba_marseille","lat":43.295748,"lon":5.37522,"is_reserved":false,"is_disabled":false,"rental_uris":{"android":"levelo://app?vid=fd310e28-b6ec-4333-a6dd-8bc0c6f5fb14","ios":"levelo://app?vid=fd310e28-b6ec-4333-a6dd-8bc0c6f5fb14"},"vehicle_type_id":"4","last_reported":1698430108,"current_range_meters":800,"station_id":"ce4bgh92rcd13ifvqb50","pricing_plan_id":"free"},{"bike_id":"216e8356-71cc-4fe5-b1ba-23856559a886","system_id":"levelo_inurba_marseille","lat":43.30435,"lon":5.38902,"is_reserved":false,"is_disabled":false,"rental_uris":{"android":"levelo://app?vid=216e8356-71cc-4fe5-b1ba-23856559a886","ios":"levelo://app?vid=216e8356-71cc-4fe5-b1ba-23856559a886"},"vehicle_type_id":"4","last_reported":1698430108,"current_range_meters":0,"station_id":"ce4bgk12rcd13ifvqbi0","pricing_plan_id":"free"},{"bike_id":"c4bd290a-8d51-4bc0-8cc8-c8f71391fd0f","system_id":"levelo_inurba_marseille","lat":43.29783,"lon":5.38117,"is_reserved":false,"is_disabled":false,"rental_uris":{"android":"levelo://app?vid=c4bd290a-8d51-4bc0-8cc8-c8f71391fd0f","ios":"levelo://app?vid=c4bd290a-8d51-4bc0-8cc8-c8f71391fd0f"},"vehicle_type_id":"4","last_reported":1698430108,"current_range_meters":0,"station_id":"ce4bgip2rcd13ifvqbb0","pricing_plan_id":"free"},{"bike_id":"626b4b07-a522-49d7-8069-2b2d463e3d5a","system_id":"levelo_inurba_marseille","lat":43.299707,"lon":5.384859,"is_reserved":false,"is_disabled":false,"rental_uris":{"android":"levelo://app?vid=626b4b07-a522-49d7-8069-2b2d463e3d5a","ios":"levelo://app?vid=626b4b07-a522-49d7-8069-2b2d463e3d5a"},"vehicle_type_id":"4","last_reported":1698430108,"current_range_meters":800,"station_id":"ce4bgj92rcd13ifvqbd0","pricing_plan_id":"free"},{"bike_id":"c843ed2f-a52f-4c0e-90ce-bcb0584589e3","system_id":"levelo_inurba_marseille","lat":43.299707,"lon":5.384859,"is_reserved":false,"is_disabled":false,"rental_uris":{"android":"levelo://app?vid=c843ed2f-a52f-4c0e-90ce-bcb0584589e3","ios":"levelo://app?vid=c843ed2f-a52f-4c0e-90ce-bcb0584589e3"},"vehicle_type_id":"4","last_reported":1698430108,"current_range_meters":0,"station_id":"ce4bgj92rcd13ifvqbd0","pricing_plan_id":"free"},{"bike_id":"00af0679-faea-4288-ada0-362dc4342ba1","system_id":"levelo_inurba_marseille","lat":43.299707,"lon":5.384859,"is_reserved":false,"is_disabled":false,"rental_uris":{"android":"levelo://app?vid=00af0679-faea-4288-ada0-362dc4342ba1","ios":"levelo://app?vid=00af0679-faea-4288-ada0-362dc4342ba1"},"vehicle_type_id":"4","last_reported":1698430108,"current_range_meters":12400,"station_id":"ce4bgj92rcd13ifvqbd0","pricing_plan_id":"free"},{"bike_id":"5fb3012b-9c84-4abd-9e6f-6eea868b6bb0","system_id":"levelo_inurba_marseille","lat":43.29971,"lon":5.38502,"is_reserved":false,"is_disabled":false,"rental_uris":{"android":"levelo://app?vid=5fb3012b-9c84-4abd-9e6f-6eea868b6bb0","ios":"levelo://app?vid=5fb3012b-9c84-4abd-9e6f-6eea868b6bb0"},"vehicle_type_id":"4","last_reported":1698430108,"current_range_meters":0,"station_id":"ce4bgj92rcd13ifvqbd0","pricing_plan_id":"free"},{"bike_id":"50ba0a4e-dc52-4b36-bbea-ef74378b458b","system_id":"levelo_inurba_marseille","lat":43.29698,"lon":5.3812,"is_reserved":false,"is_disabled":false,"rental_uris":{"android":"levelo://app?vid=50ba0a4e-dc52-4b36-bbea-ef74378b458b","ios":"levelo://app?vid=50ba0a4e-dc52-4b36-bbea-ef74378b458b"},"vehicle_type_id":"4","last_reported":1698430108,"current_range_meters":0,"station_id":"","pricing_plan_id":"free"},{"bike_id":"90b60a7f-1bcc-4592-8aec-a9ff6ca5280e","system_id":"levelo_inurba_marseille","lat":43.32367,"lon":5.388836,"is_reserved":false,"is_disabled":false,"rental_uris":{"android":"levelo://app?vid=90b60a7f-1bcc-4592-8aec-a9ff6ca5280e","ios":"levelo://app?vid=90b60a7f-1bcc-4592-8aec-a9ff6ca5280e"},"vehicle_type_id":"4","last_reported":1698430108,"current_range_meters":16400,"station_id":"ce4bhqp2rcd13ifvqhog","pricing_plan_id":"free"},{"bike_id":"dd53f42d-32f3-4d00-b5fd-d6ea44bf49ee","system_id":"levelo_inurba_marseille","lat":43.323692,"lon":5.389131,"is_reserved":false,"is_disabled":false,"rental_uris":{"android":"levelo://app?vid=dd53f42d-32f3-4d00-b5fd-d6ea44bf49ee","ios":"levelo://app?vid=dd53f42d-32f3-4d00-b5fd-d6ea44bf49ee"},"vehicle_type_id":"4","last_reported":1698430108,"current_range_meters":26800,"station_id":"","pricing_plan_id":"free"},{"bike_id":"1ddaaf12-ae14-4851-a8bd-70c81015bd2e","system_id":"levelo_inurba_marseille","lat":43.29602,"lon":5.381084,"is_reserved":false,"is_disabled":false,"rental_uris":{"android":"levelo://app?vid=1ddaaf12-ae14-4851-a8bd-70c81015bd2e","ios":"levelo://app?vid=1ddaaf12-ae14-4851-a8bd-70c81015bd2e"},"vehicle_type_id":"4","last_reported":1698430108,"current_range_meters":14400,"station_id":"ce4bgl12rcd13ifvqbo0","pricing_plan_id":"free"},{"bike_id":"11676c6f-7121-46f3-99f1-214e7f63db0d","system_id":"levelo_inurba_marseille","lat":43.29601,"lon":5.381084,"is_reserved":false,"is_disabled":false,"rental_uris":{"android":"levelo://app?vid=11676c6f-7121-46f3-99f1-214e7f63db0d","ios":"levelo://app?vid=11676c6f-7121-46f3-99f1-214e7f63db0d"},"vehicle_type_id":"4","last_reported":1698430108,"current_range_meters":25600,"station_id":"ce4bgl12rcd13ifvqbo0","pricing_plan_id":"free"},{"bike_id":"da92e02f-d761-43e4-90c0-6b4a24c7fb28","system_id":"levelo_inurba_marseille","lat":43.29602,"lon":5.381084,"is_reserved":false,"is_disabled":false,"rental_uris":{"android":"levelo://app?vid=da92e02f-d761-43e4-90c0-6b4a24c7fb28","ios":"levelo://app?vid=da92e02f-d761-43e4-90c0-6b4a24c7fb28"},"vehicle_type_id":"4","last_reported":1698430108,"current_range_meters":24800,"station_id":"ce4bgl12rcd13ifvqbo0","pricing_plan_id":"free"},{"bike_id":"dab9a053-86ed-43a9-86a7-e5543e76294c","system_id":"levelo_inurba_marseille","lat":43.29279,"lon":5.3685,"is_reserved":false,"is_disabled":false,"rental_uris":{"android":"levelo://app?vid=dab9a053-86ed-43a9-86a7-e5543e76294c","ios":"levelo://app?vid=dab9a053-86ed-43a9-86a7-e5543e76294c"},"vehicle_type_id":"4","last_reported":1698430108,"current_range_meters":2400,"station_id":"ce4bhbp2rcd13ifvqesg","pricing_plan_id":"free"},{"bike_id":"4c8c3c32-9d49-4d09-a3a5-38f704ce3101","system_id":"levelo_inurba_marseille","lat":43.29306,"lon":5.37182,"is_reserved":false,"is_disabled":false,"rental_uris":{"android":"levelo://app?vid=4c8c3c32-9d49-4d09-a3a5-38f704ce3101","ios":"levelo://app?vid=4c8c3c32-9d49-4d09-a3a5-38f704ce3101"},"vehicle_type_id":"4","last_reported":1698430108,"current_range_meters":0,"station_id":"ce4bgh92rcd13ifvqb40","pricing_plan_id":"free"},{"bike_id":"3074b3e6-b9b9-454d-9e30-f87ff7c2b0f0","system_id":"levelo_inurba_marseille","lat":43.29303,"lon":5.37177,"is_reserved":false,"is_disabled":false,"rental_uris":{"android":"levelo://app?vid=3074b3e6-b9b9-454d-9e30-f87ff7c2b0f0","ios":"levelo://app?vid=3074b3e6-b9b9-454d-9e30-f87ff7c2b0f0"},"vehicle_type_id":"4","last_reported":1698430108,"current_range_meters":800,"station_id":"ce4bgh92rcd13ifvqb40","pricing_plan_id":"free"},{"bike_id":"ae1f7056-f94f-40b3-8ef1-ca88b866aa68","system_id":"levelo_inurba_marseille","lat":43.29302,"lon":5.37171,"is_reserved":false,"is_disabled":false,"rental_uris":{"android":"levelo://app?vid=ae1f7056-f94f-40b3-8ef1-ca88b866aa68","ios":"levelo://app?vid=ae1f7056-f94f-40b3-8ef1-ca88b866aa68"},"vehicle_type_id":"4","last_reported":1698430108,"current_range_meters":19600,"station_id":"ce4bgh92rcd13ifvqb40","pricing_plan_id":"free"},{"bike_id":"bbab7e28-ee01-4080-b12e-dd8baccd43d0","system_id":"levelo_inurba_marseille","lat":43.32394,"lon":5.389747,"is_reserved":false,"is_disabled":false,"rental_uris":{"android":"levelo://app?vid=bbab7e28-ee01-4080-b12e-dd8baccd43d0","ios":"levelo://app?vid=bbab7e28-ee01-4080-b12e-dd8baccd43d0"},"vehicle_type_id":"4","last_reported":1698430108,"current_range_meters":12000,"station_id":"","pricing_plan_id":"free"},{"bike_id":"651ce3e0-1e3e-4357-b926-10e90e81db9e","system_id":"levelo_inurba_marseille","lat":43.292749,"lon":5.368398,"is_reserved":false,"is_disabled":false,"rental_uris":{"android":"levelo://app?vid=651ce3e0-1e3e-4357-b926-10e90e81db9e","ios":"levelo://app?vid=651ce3e0-1e3e-4357-b926-10e90e81db9e"},"vehicle_type_id":"4","last_reported":1698430108,"current_range_meters":0,"station_id":"ce4bhbp2rcd13ifvqesg","pricing_plan_id":"free"},{"bike_id":"6396996a-8d20-4e57-a9fd-365bfd70c250","system_id":"levelo_inurba_marseille","lat":43.293009,"lon":5.374584,"is_reserved":false,"is_disabled":false,"rental_uris":{"android":"levelo://app?vid=6396996a-8d20-4e57-a9fd-365bfd70c250","ios":"levelo://app?vid=6396996a-8d20-4e57-a9fd-365bfd70c250"},"vehicle_type_id":"4","last_reported":1698430108,"current_range_meters":30000,"station_id":"ce4bgi12rcd13ifvqb70","pricing_plan_id":"free"},{"bike_id":"12b0cf44-d2ad-44db-ad50-e9ea064d3cda","system_id":"levelo_inurba_marseille","lat":43.293012,"lon":5.37462,"is_reserved":false,"is_disabled":false,"rental_uris":{"android":"levelo://app?vid=12b0cf44-d2ad-44db-ad50-e9ea064d3cda","ios":"levelo://app?vid=12b0cf44-d2ad-44db-ad50-e9ea064d3cda"},"vehicle_type_id":"4","last_reported":1698430108,"current_range_meters":0,"station_id":"ce4bgi12rcd13ifvqb70","pricing_plan_id":"free"},{"bike_id":"4b911307-b652-4ae8-a3b1-c8634ac183f5","system_id":"levelo_inurba_marseille","lat":43.305994,"lon":5.393687,"is_reserved":false,"is_disabled":false,"rental_uris":{"android":"levelo://app?vid=4b911307-b652-4ae8-a3b1-c8634ac183f5","ios":"levelo://app?vid=4b911307-b652-4ae8-a3b1-c8634ac183f5"},"vehicle_type_id":"4","last_reported":1698430108,"current_range_meters":15600,"station_id":"ce4bh0p2rcd13ifvqd80","pricing_plan_id":"free"},{"bike_id":"df589c34-8649-4b8f-9417-ca74309a95e2","system_id":"levelo_inurba_marseille","lat":43.30586,"lon":5.3936,"is_reserved":false,"is_disabled":false,"rental_uris":{"android":"levelo://app?vid=df589c34-8649-4b8f-9417-ca74309a95e2","ios":"levelo://app?vid=df589c34-8649-4b8f-9417-ca74309a95e2"},"vehicle_type_id":"4","last_reported":1698430108,"current_range_meters":0,"station_id":"ce4bh0p2rcd13ifvqd80","pricing_plan_id":"free"},{"bike_id":"b7299807-9bb3-4c4b-9645-23ad4fc1c619","system_id":"levelo_inurba_marseille","lat":43.2936,"lon":5.37835,"is_reserved":false,"is_disabled":false,"rental_uris":{"android":"levelo://app?vid=b7299807-9bb3-4c4b-9645-23ad4fc1c619","ios":"levelo://app?vid=b7299807-9bb3-4c4b-9645-23ad4fc1c619"},"vehicle_type_id":"4","last_reported":1698430108,"current_range_meters":1600,"station_id":"ce4bgjh2rcd13ifvqbf0","pricing_plan_id":"free"},{"bike_id":"c4512d88-15c5-47bf-8ea1-908f09e15b53","system_id":"levelo_inurba_marseille","lat":43.2936,"lon":5.37835,"is_reserved":false,"is_disabled":false,"rental_uris":{"android":"levelo://app?vid=c4512d88-15c5-47bf-8ea1-908f09e15b53","ios":"levelo://app?vid=c4512d88-15c5-47bf-8ea1-908f09e15b53"},"vehicle_type_id":"4","last_reported":1698430108,"current_range_meters":11600,"station_id":"ce4bgjh2rcd13ifvqbf0","pricing_plan_id":"free"},{"bike_id":"62c826ea-4974-45ad-8e09-4a6d1e83ae79","system_id":"levelo_inurba_marseille","lat":43.2936,"lon":5.37835,"is_reserved":false,"is_disabled":false,"rental_uris":{"android":"levelo://app?vid=62c826ea-4974-45ad-8e09-4a6d1e83ae79","ios":"levelo://app?vid=62c826ea-4974-45ad-8e09-4a6d1e83ae79"},"vehicle_type_id":"4","last_reported":1698430108,"current_range_meters":23600,"station_id":"ce4bgjh2rcd13ifvqbf0","pricing_plan_id":"free"},{"bike_id":"49e2fb52-7712-4209-83d6-74a05c6e32d8","system_id":"levelo_inurba_marseille","lat":43.29218,"lon":5.361765,"is_reserved":false,"is_disabled":false,"rental_uris":{"android":"levelo://app?vid=49e2fb52-7712-4209-83d6-74a05c6e32d8","ios":"levelo://app?vid=49e2fb52-7712-4209-83d6-74a05c6e32d8"},"vehicle_type_id":"4","last_reported":1698430108,"current_range_meters":30800,"station_id":"ce4bhbh2rcd13ifvqeqg","pricing_plan_id":"free"},{"bike_id":"0e8726a9-2a98-40ff-adbf-d4ed4ad21a79","system_id":"levelo_inurba_marseille","lat":43.29227,"lon":5.36061,"is_reserved":false,"is_disabled":false,"rental_uris":{"android":"levelo://app?vid=0e8726a9-2a98-40ff-adbf-d4ed4ad21a79","ios":"levelo://app?vid=0e8726a9-2a98-40ff-adbf-d4ed4ad21a79"},"vehicle_type_id":"4","last_reported":1698430108,"current_range_meters":8000,"station_id":"ce4bhbh2rcd13ifvqeqg","pricing_plan_id":"free"},{"bike_id":"d80be2db-286b-40a3-8470-687ed0f71f08","system_id":"levelo_inurba_marseille","lat":43.292651,"lon":5.376149,"is_reserved":false,"is_disabled":false,"rental_uris":{"android":"levelo://app?vid=d80be2db-286b-40a3-8470-687ed0f71f08","ios":"levelo://app?vid=d80be2db-286b-40a3-8470-687ed0f71f08"},"vehicle_type_id":"4","last_reported":1698430108,"current_range_meters":4400,"station_id":"ce4bgi12rcd13ifvqb80","pricing_plan_id":"free"},{"bike_id":"73afed97-618a-4826-8f58-37ceb300bdc1","system_id":"levelo_inurba_marseille","lat":43.29269,"lon":5.37642,"is_reserved":false,"is_disabled":false,"rental_uris":{"android":"levelo://app?vid=73afed97-618a-4826-8f58-37ceb300bdc1","ios":"levelo://app?vid=73afed97-618a-4826-8f58-37ceb300bdc1"},"vehicle_type_id":"4","last_reported":1698430108,"current_range_meters":2800,"station_id":"ce4bgi12rcd13ifvqb80","pricing_plan_id":"free"},{"bike_id":"16c45bb9-ca44-43ec-9970-a09ed4a977ea","system_id":"levelo_inurba_marseille","lat":43.29256,"lon":5.3763,"is_reserved":false,"is_disabled":false,"rental_uris":{"android":"levelo://app?vid=16c45bb9-ca44-43ec-9970-a09ed4a977ea","ios":"levelo://app?vid=16c45bb9-ca44-43ec-9970-a09ed4a977ea"},"vehicle_type_id":"4","last_reported":1698430108,"current_range_meters":21200,"station_id":"ce4bgi12rcd13ifvqb80","pricing_plan_id":"free"},{"bike_id":"4dc4e134-4138-4631-a182-a46320640ea3","system_id":"levelo_inurba_marseille","lat":43.29879,"lon":5.38909,"is_reserved":false,"is_disabled":false,"rental_uris":{"android":"levelo://app?vid=4dc4e134-4138-4631-a182-a46320640ea3","ios":"levelo://app?vid=4dc4e134-4138-4631-a182-a46320640ea3"},"vehicle_type_id":"4","last_reported":1698430108,"current_range_meters":0,"station_id":"ce4bh392rcd13ifvqdl0","pricing_plan_id":"free"},{"bike_id":"643a8dd1-0606-4658-8bea-4427c78fd085","system_id":"levelo_inurba_marseille","lat":43.291617,"lon":5.37153,"is_reserved":false,"is_disabled":false,"rental_uris":{"android":"levelo://app?vid=643a8dd1-0606-4658-8bea-4427c78fd085","ios":"levelo://app?vid=643a8dd1-0606-4658-8bea-4427c78fd085"},"vehicle_type_id":"4","last_reported":1698430108,"current_range_meters":20000,"station_id":"ce4bha92rcd13ifvqeh0","pricing_plan_id":"free"},{"bike_id":"595df494-766a-4ecf-a7dd-2f094c6f028f","system_id":"levelo_inurba_marseille","lat":43.3133,"lon":5.39691,"is_reserved":false,"is_disabled":false,"rental_uris":{"android":"levelo://app?vid=595df494-766a-4ecf-a7dd-2f094c6f028f","ios":"levelo://app?vid=595df494-766a-4ecf-a7dd-2f094c6f028f"},"vehicle_type_id":"4","last_reported":1698430108,"current_range_meters":3600,"station_id":"ce4bgvp2rcd13ifvqcu0","pricing_plan_id":"free"},{"bike_id":"a0b217cf-b5cc-4565-8faa-c5b0945a09e5","system_id":"levelo_inurba_marseille","lat":43.3132,"lon":5.3971,"is_reserved":false,"is_disabled":false,"rental_uris":{"android":"levelo://app?vid=a0b217cf-b5cc-4565-8faa-c5b0945a09e5","ios":"levelo://app?vid=a0b217cf-b5cc-4565-8faa-c5b0945a09e5"},"vehicle_type_id":"4","last_reported":1698430108,"current_range_meters":19200,"station_id":"ce4bgvp2rcd13ifvqcu0","pricing_plan_id":"free"},{"bike_id":"5fdaae21-066d-4c01-a896-2ee2287d46e8","system_id":"levelo_inurba_marseille","lat":43.309047,"lon":5.396551,"is_reserved":false,"is_disabled":false,"rental_uris":{"android":"levelo://app?vid=5fdaae21-066d-4c01-a896-2ee2287d46e8","ios":"levelo://app?vid=5fdaae21-066d-4c01-a896-2ee2287d46e8"},"vehicle_type_id":"4","last_reported":1698430108,"current_range_meters":25600,"station_id":"ce4bh012rcd13ifvqcv0","pricing_plan_id":"free"},{"bike_id":"a9aa04a1-d91c-435f-af6b-08a871e0c893","system_id":"levelo_inurba_marseille","lat":43.309038,"lon":5.396546,"is_reserved":false,"is_disabled":false,"rental_uris":{"android":"levelo://app?vid=a9aa04a1-d91c-435f-af6b-08a871e0c893","ios":"levelo://app?vid=a9aa04a1-d91c-435f-af6b-08a871e0c893"},"vehicle_type_id":"4","last_reported":1698430108,"current_range_meters":16000,"station_id":"ce4bh012rcd13ifvqcv0","pricing_plan_id":"free"},{"bike_id":"9cc7e63d-a3e5-4d26-9406-396381cd44a6","system_id":"levelo_inurba_marseille","lat":43.29532,"lon":5.38544,"is_reserved":false,"is_disabled":false,"rental_uris":{"android":"levelo://app?vid=9cc7e63d-a3e5-4d26-9406-396381cd44a6","ios":"levelo://app?vid=9cc7e63d-a3e5-4d26-9406-396381cd44a6"},"vehicle_type_id":"4","last_reported":1698430108,"current_range_meters":23200,"station_id":"ce4bgih2rcd13ifvqba0","pricing_plan_id":"free"},{"bike_id":"17b68cb0-17b0-40c8-b1af-451da482ee87","system_id":"levelo_inurba_marseille","lat":43.29529,"lon":5.385581,"is_reserved":false,"is_disabled":false,"rental_uris":{"android":"levelo://app?vid=17b68cb0-17b0-40c8-b1af-451da482ee87","ios":"levelo://app?vid=17b68cb0-17b0-40c8-b1af-451da482ee87"},"vehicle_type_id":"4","last_reported":1698430108,"current_range_meters":7200,"station_id":"ce4bgih2rcd13ifvqba0","pricing_plan_id":"free"},{"bike_id":"cd56a1c7-25fc-44f8-b0c2-7c3166c817fc","system_id":"levelo_inurba_marseille","lat":43.29531,"lon":5.38549,"is_reserved":false,"is_disabled":false,"rental_uris":{"android":"levelo://app?vid=cd56a1c7-25fc-44f8-b0c2-7c3166c817fc","ios":"levelo://app?vid=cd56a1c7-25fc-44f8-b0c2-7c3166c817fc"},"vehicle_type_id":"4","last_reported":1698430108,"current_range_meters":22400,"station_id":"ce4bgih2rcd13ifvqba0","pricing_plan_id":"free"},{"bike_id":"d575502f-d7f0-4dcd-916a-80942a743a2a","system_id":"levelo_inurba_marseille","lat":43.29531,"lon":5.38551,"is_reserved":false,"is_disabled":false,"rental_uris":{"android":"levelo://app?vid=d575502f-d7f0-4dcd-916a-80942a743a2a","ios":"levelo://app?vid=d575502f-d7f0-4dcd-916a-80942a743a2a"},"vehicle_type_id":"4","last_reported":1698430108,"current_range_meters":18800,"station_id":"ce4bgih2rcd13ifvqba0","pricing_plan_id":"free"},{"bike_id":"cf1fd3b6-abe8-4b41-8999-1a67b98b558d","system_id":"levelo_inurba_marseille","lat":43.29529,"lon":5.385581,"is_reserved":false,"is_disabled":false,"rental_uris":{"android":"levelo://app?vid=cf1fd3b6-abe8-4b41-8999-1a67b98b558d","ios":"levelo://app?vid=cf1fd3b6-abe8-4b41-8999-1a67b98b558d"},"vehicle_type_id":"4","last_reported":1698430108,"current_range_meters":4000,"station_id":"ce4bgih2rcd13ifvqba0","pricing_plan_id":"free"},{"bike_id":"806fee01-9f30-4ba3-948c-5688ec7ea2da","system_id":"levelo_inurba_marseille","lat":43.29528,"lon":5.38549,"is_reserved":false,"is_disabled":false,"rental_uris":{"android":"levelo://app?vid=806fee01-9f30-4ba3-948c-5688ec7ea2da","ios":"levelo://app?vid=806fee01-9f30-4ba3-948c-5688ec7ea2da"},"vehicle_type_id":"4","last_reported":1698430108,"current_range_meters":10400,"station_id":"ce4bgih2rcd13ifvqba0","pricing_plan_id":"free"},{"bike_id":"bee723cc-3973-4578-b3cc-070d5fa61a78","system_id":"levelo_inurba_marseille","lat":43.29529,"lon":5.385581,"is_reserved":false,"is_disabled":false,"rental_uris":{"android":"levelo://app?vid=bee723cc-3973-4578-b3cc-070d5fa61a78","ios":"levelo://app?vid=bee723cc-3973-4578-b3cc-070d5fa61a78"},"vehicle_type_id":"4","last_reported":1698430108,"current_range_meters":12800,"station_id":"ce4bgih2rcd13ifvqba0","pricing_plan_id":"free"},{"bike_id":"214483a2-d463-4d85-b835-fb54b7f602f1","system_id":"levelo_inurba_marseille","lat":43.29529,"lon":5.385581,"is_reserved":false,"is_disabled":false,"rental_uris":{"android":"levelo://app?vid=214483a2-d463-4d85-b835-fb54b7f602f1","ios":"levelo://app?vid=214483a2-d463-4d85-b835-fb54b7f602f1"},"vehicle_type_id":"4","last_reported":1698430108,"current_range_meters":25600,"station_id":"ce4bgih2rcd13ifvqba0","pricing_plan_id":"free"},{"bike_id":"381d3d0c-5902-438c-857a-8fa74dd4ae10","system_id":"levelo_inurba_marseille","lat":43.29526,"lon":5.38549,"is_reserved":false,"is_disabled":false,"rental_uris":{"android":"levelo://app?vid=381d3d0c-5902-438c-857a-8fa74dd4ae10","ios":"levelo://app?vid=381d3d0c-5902-438c-857a-8fa74dd4ae10"},"vehicle_type_id":"4","last_reported":1698430108,"current_range_meters":27600,"station_id":"ce4bgih2rcd13ifvqba0","pricing_plan_id":"free"},{"bike_id":"126d4670-e812-40c6-9f2a-535ee2ec9a6b","system_id":"levelo_inurba_marseille","lat":43.33219,"lon":5.38149,"is_reserved":false,"is_disabled":false,"rental_uris":{"android":"levelo://app?vid=126d4670-e812-40c6-9f2a-535ee2ec9a6b","ios":"levelo://app?vid=126d4670-e812-40c6-9f2a-535ee2ec9a6b"},"vehicle_type_id":"4","last_reported":1698430108,"current_range_meters":0,"station_id":"","pricing_plan_id":"free"},{"bike_id":"d445e7dc-8f39-4198-8d15-1838ad42556e","system_id":"levelo_inurba_marseille","lat":43.302079,"lon":5.394659,"is_reserved":false,"is_disabled":false,"rental_uris":{"android":"levelo://app?vid=d445e7dc-8f39-4198-8d15-1838ad42556e","ios":"levelo://app?vid=d445e7dc-8f39-4198-8d15-1838ad42556e"},"vehicle_type_id":"4","last_reported":1698430108,"current_range_meters":20000,"station_id":"ce4bh0p2rcd13ifvqd70","pricing_plan_id":"free"},{"bike_id":"8fc37517-2ef6-4f9d-ba25-4d30be19b133","system_id":"levelo_inurba_marseille","lat":43.294153,"lon":5.386305,"is_reserved":false,"is_disabled":false,"rental_uris":{"android":"levelo://app?vid=8fc37517-2ef6-4f9d-ba25-4d30be19b133","ios":"levelo://app?vid=8fc37517-2ef6-4f9d-ba25-4d30be19b133"},"vehicle_type_id":"4","last_reported":1698430108,"current_range_meters":22400,"station_id":"ce4bh2h2rcd13ifvqdh0","pricing_plan_id":"free"},{"bike_id":"3ba9337c-3a4c-4b79-bb22-9c08f678ee27","system_id":"levelo_inurba_marseille","lat":43.3339,"lon":5.37907,"is_reserved":false,"is_disabled":false,"rental_uris":{"android":"levelo://app?vid=3ba9337c-3a4c-4b79-bb22-9c08f678ee27","ios":"levelo://app?vid=3ba9337c-3a4c-4b79-bb22-9c08f678ee27"},"vehicle_type_id":"4","last_reported":1698430108,"current_range_meters":18000,"station_id":"","pricing_plan_id":"free"},{"bike_id":"b24a079b-ad61-494b-845e-72f8baab72c4","system_id":"levelo_inurba_marseille","lat":43.290092,"lon":5.372904,"is_reserved":false,"is_disabled":false,"rental_uris":{"android":"levelo://app?vid=b24a079b-ad61-494b-845e-72f8baab72c4","ios":"levelo://app?vid=b24a079b-ad61-494b-845e-72f8baab72c4"},"vehicle_type_id":"4","last_reported":1698430108,"current_range_meters":4400,"station_id":"","pricing_plan_id":"free"},{"bike_id":"0564c860-15e7-4143-ba65-576a48a9eef0","system_id":"levelo_inurba_marseille","lat":43.294153,"lon":5.386305,"is_reserved":false,"is_disabled":false,"rental_uris":{"android":"levelo://app?vid=0564c860-15e7-4143-ba65-576a48a9eef0","ios":"levelo://app?vid=0564c860-15e7-4143-ba65-576a48a9eef0"},"vehicle_type_id":"4","last_reported":1698430108,"current_range_meters":19200,"station_id":"ce4bh2h2rcd13ifvqdh0","pricing_plan_id":"free"},{"bike_id":"c49e5c16-e95c-4e08-a8a2-7d910a71962e","system_id":"levelo_inurba_marseille","lat":43.290327,"lon":5.375711,"is_reserved":false,"is_disabled":false,"rental_uris":{"android":"levelo://app?vid=c49e5c16-e95c-4e08-a8a2-7d910a71962e","ios":"levelo://app?vid=c49e5c16-e95c-4e08-a8a2-7d910a71962e"},"vehicle_type_id":"4","last_reported":1698430108,"current_range_meters":5600,"station_id":"ce4bh692rcd13ifvqe90","pricing_plan_id":"free"},{"bike_id":"1b833a83-3ede-4b03-871d-ee8c472ca254","system_id":"levelo_inurba_marseille","lat":43.294153,"lon":5.386305,"is_reserved":false,"is_disabled":false,"rental_uris":{"android":"levelo://app?vid=1b833a83-3ede-4b03-871d-ee8c472ca254","ios":"levelo://app?vid=1b833a83-3ede-4b03-871d-ee8c472ca254"},"vehicle_type_id":"4","last_reported":1698430108,"current_range_meters":13600,"station_id":"ce4bh2h2rcd13ifvqdh0","pricing_plan_id":"free"},{"bike_id":"0a33d2cc-8028-4c1b-9367-7c5960d74641","system_id":"levelo_inurba_marseille","lat":43.294153,"lon":5.386305,"is_reserved":false,"is_disabled":false,"rental_uris":{"android":"levelo://app?vid=0a33d2cc-8028-4c1b-9367-7c5960d74641","ios":"levelo://app?vid=0a33d2cc-8028-4c1b-9367-7c5960d74641"},"vehicle_type_id":"4","last_reported":1698430108,"current_range_meters":28000,"station_id":"ce4bh2h2rcd13ifvqdh0","pricing_plan_id":"free"},{"bike_id":"ef71b56a-5d66-4e7c-84b1-11fb7967f673","system_id":"levelo_inurba_marseille","lat":43.29416,"lon":5.38632,"is_reserved":false,"is_disabled":false,"rental_uris":{"android":"levelo://app?vid=ef71b56a-5d66-4e7c-84b1-11fb7967f673","ios":"levelo://app?vid=ef71b56a-5d66-4e7c-84b1-11fb7967f673"},"vehicle_type_id":"4","last_reported":1698430108,"current_range_meters":14000,"station_id":"ce4bh2h2rcd13ifvqdh0","pricing_plan_id":"free"},{"bike_id":"2dd837fa-e94b-447f-ad5e-aca62ce8a2aa","system_id":"levelo_inurba_marseille","lat":43.294153,"lon":5.386305,"is_reserved":false,"is_disabled":false,"rental_uris":{"android":"levelo://app?vid=2dd837fa-e94b-447f-ad5e-aca62ce8a2aa","ios":"levelo://app?vid=2dd837fa-e94b-447f-ad5e-aca62ce8a2aa"},"vehicle_type_id":"4","last_reported":1698430108,"current_range_meters":23200,"station_id":"ce4bh2h2rcd13ifvqdh0","pricing_plan_id":"free"},{"bike_id":"ba642e15-9f38-4456-9480-e77d07f31dcd","system_id":"levelo_inurba_marseille","lat":43.294162,"lon":5.386292,"is_reserved":false,"is_disabled":false,"rental_uris":{"android":"levelo://app?vid=ba642e15-9f38-4456-9480-e77d07f31dcd","ios":"levelo://app?vid=ba642e15-9f38-4456-9480-e77d07f31dcd"},"vehicle_type_id":"4","last_reported":1698430108,"current_range_meters":19200,"station_id":"ce4bh2h2rcd13ifvqdh0","pricing_plan_id":"free"},{"bike_id":"fa509c92-c207-4ec7-b0a3-f7e6ed574a3f","system_id":"levelo_inurba_marseille","lat":43.294162,"lon":5.386292,"is_reserved":false,"is_disabled":false,"rental_uris":{"android":"levelo://app?vid=fa509c92-c207-4ec7-b0a3-f7e6ed574a3f","ios":"levelo://app?vid=fa509c92-c207-4ec7-b0a3-f7e6ed574a3f"},"vehicle_type_id":"4","last_reported":1698430108,"current_range_meters":11600,"station_id":"ce4bh2h2rcd13ifvqdh0","pricing_plan_id":"free"},{"bike_id":"2e3af960-8896-4d76-a0ce-702c53b48065","system_id":"levelo_inurba_marseille","lat":43.289184,"lon":5.366408,"is_reserved":false,"is_disabled":false,"rental_uris":{"android":"levelo://app?vid=2e3af960-8896-4d76-a0ce-702c53b48065","ios":"levelo://app?vid=2e3af960-8896-4d76-a0ce-702c53b48065"},"vehicle_type_id":"4","last_reported":1698430108,"current_range_meters":13200,"station_id":"ce4bhap2rcd13ifvqek0","pricing_plan_id":"free"},{"bike_id":"1046d549-a6a7-46c2-a47a-00fb7412a071","system_id":"levelo_inurba_marseille","lat":43.289184,"lon":5.366408,"is_reserved":false,"is_disabled":false,"rental_uris":{"android":"levelo://app?vid=1046d549-a6a7-46c2-a47a-00fb7412a071","ios":"levelo://app?vid=1046d549-a6a7-46c2-a47a-00fb7412a071"},"vehicle_type_id":"4","last_reported":1698430108,"current_range_meters":3600,"station_id":"ce4bhap2rcd13ifvqek0","pricing_plan_id":"free"},{"bike_id":"63b81600-45c1-4e8b-9174-ad834e05ab55","system_id":"levelo_inurba_marseille","lat":43.289468,"lon":5.363719,"is_reserved":false,"is_disabled":false,"rental_uris":{"android":"levelo://app?vid=63b81600-45c1-4e8b-9174-ad834e05ab55","ios":"levelo://app?vid=63b81600-45c1-4e8b-9174-ad834e05ab55"},"vehicle_type_id":"4","last_reported":1698430108,"current_range_meters":26400,"station_id":"ce4bhc92rcd13ifvqetg","pricing_plan_id":"free"},{"bike_id":"cc2c61c0-4c68-46c3-a0fa-46435c663399","system_id":"levelo_inurba_marseille","lat":43.292642,"lon":5.384254,"is_reserved":false,"is_disabled":false,"rental_uris":{"android":"levelo://app?vid=cc2c61c0-4c68-46c3-a0fa-46435c663399","ios":"levelo://app?vid=cc2c61c0-4c68-46c3-a0fa-46435c663399"},"vehicle_type_id":"4","last_reported":1698430108,"current_range_meters":21600,"station_id":"ce4bh692rcd13ifvqea0","pricing_plan_id":"free"},{"bike_id":"f691e9c2-c337-47f7-b54c-887fa955268d","system_id":"levelo_inurba_marseille","lat":43.292644,"lon":5.384257,"is_reserved":false,"is_disabled":false,"rental_uris":{"android":"levelo://app?vid=f691e9c2-c337-47f7-b54c-887fa955268d","ios":"levelo://app?vid=f691e9c2-c337-47f7-b54c-887fa955268d"},"vehicle_type_id":"4","last_reported":1698430108,"current_range_meters":21600,"station_id":"ce4bh692rcd13ifvqea0","pricing_plan_id":"free"},{"bike_id":"fc839677-6004-43ea-9dad-67a7b60668de","system_id":"levelo_inurba_marseille","lat":43.292642,"lon":5.384254,"is_reserved":false,"is_disabled":false,"rental_uris":{"android":"levelo://app?vid=fc839677-6004-43ea-9dad-67a7b60668de","ios":"levelo://app?vid=fc839677-6004-43ea-9dad-67a7b60668de"},"vehicle_type_id":"4","last_reported":1698430108,"current_range_meters":23200,"station_id":"ce4bh692rcd13ifvqea0","pricing_plan_id":"free"},{"bike_id":"e3d93241-853e-489f-a0d8-f1a84e98ebc6","system_id":"levelo_inurba_marseille","lat":43.29269,"lon":5.38444,"is_reserved":false,"is_disabled":false,"rental_uris":{"android":"levelo://app?vid=e3d93241-853e-489f-a0d8-f1a84e98ebc6","ios":"levelo://app?vid=e3d93241-853e-489f-a0d8-f1a84e98ebc6"},"vehicle_type_id":"4","last_reported":1698430108,"current_range_meters":14000,"station_id":"ce4bh692rcd13ifvqea0","pricing_plan_id":"free"},{"bike_id":"8b1b96dc-6db7-4513-929a-475e200513f2","system_id":"levelo_inurba_marseille","lat":43.29261,"lon":5.38428,"is_reserved":false,"is_disabled":false,"rental_uris":{"android":"levelo://app?vid=8b1b96dc-6db7-4513-929a-475e200513f2","ios":"levelo://app?vid=8b1b96dc-6db7-4513-929a-475e200513f2"},"vehicle_type_id":"4","last_reported":1698430108,"current_range_meters":3600,"station_id":"ce4bh692rcd13ifvqea0","pricing_plan_id":"free"},{"bike_id":"aafe16ca-0008-4709-b654-8422ea865b03","system_id":"levelo_inurba_marseille","lat":43.29256,"lon":5.3842,"is_reserved":false,"is_disabled":false,"rental_uris":{"android":"levelo://app?vid=aafe16ca-0008-4709-b654-8422ea865b03","ios":"levelo://app?vid=aafe16ca-0008-4709-b654-8422ea865b03"},"vehicle_type_id":"4","last_reported":1698430108,"current_range_meters":6400,"station_id":"ce4bh692rcd13ifvqea0","pricing_plan_id":"free"},{"bike_id":"26c20bb4-bdbe-4fa2-a9d7-6e5535144e85","system_id":"levelo_inurba_marseille","lat":43.29264,"lon":5.38441,"is_reserved":false,"is_disabled":false,"rental_uris":{"android":"levelo://app?vid=26c20bb4-bdbe-4fa2-a9d7-6e5535144e85","ios":"levelo://app?vid=26c20bb4-bdbe-4fa2-a9d7-6e5535144e85"},"vehicle_type_id":"4","last_reported":1698430108,"current_range_meters":3200,"station_id":"ce4bh692rcd13ifvqea0","pricing_plan_id":"free"},{"bike_id":"b2ca91a7-d2c3-4ed8-ba34-eba4e3b2a691","system_id":"levelo_inurba_marseille","lat":43.29265,"lon":5.38444,"is_reserved":false,"is_disabled":false,"rental_uris":{"android":"levelo://app?vid=b2ca91a7-d2c3-4ed8-ba34-eba4e3b2a691","ios":"levelo://app?vid=b2ca91a7-d2c3-4ed8-ba34-eba4e3b2a691"},"vehicle_type_id":"4","last_reported":1698430108,"current_range_meters":27200,"station_id":"ce4bh692rcd13ifvqea0","pricing_plan_id":"free"},{"bike_id":"7d89832c-dc0a-4c26-b8f1-e035f76d1580","system_id":"levelo_inurba_marseille","lat":43.29259,"lon":5.38434,"is_reserved":false,"is_disabled":false,"rental_uris":{"android":"levelo://app?vid=7d89832c-dc0a-4c26-b8f1-e035f76d1580","ios":"levelo://app?vid=7d89832c-dc0a-4c26-b8f1-e035f76d1580"},"vehicle_type_id":"4","last_reported":1698430108,"current_range_meters":21200,"station_id":"ce4bh692rcd13ifvqea0","pricing_plan_id":"free"},{"bike_id":"ed19a530-74b8-442a-8460-1336b8ac7ce4","system_id":"levelo_inurba_marseille","lat":43.2926,"lon":5.38438,"is_reserved":false,"is_disabled":false,"rental_uris":{"android":"levelo://app?vid=ed19a530-74b8-442a-8460-1336b8ac7ce4","ios":"levelo://app?vid=ed19a530-74b8-442a-8460-1336b8ac7ce4"},"vehicle_type_id":"4","last_reported":1698430108,"current_range_meters":28800,"station_id":"ce4bh692rcd13ifvqea0","pricing_plan_id":"free"},{"bike_id":"af65a294-3b5e-462e-93df-5aa8a2105a69","system_id":"levelo_inurba_marseille","lat":43.304296,"lon":5.397513,"is_reserved":false,"is_disabled":false,"rental_uris":{"android":"levelo://app?vid=af65a294-3b5e-462e-93df-5aa8a2105a69","ios":"levelo://app?vid=af65a294-3b5e-462e-93df-5aa8a2105a69"},"vehicle_type_id":"4","last_reported":1698430108,"current_range_meters":0,"station_id":"ce4bh092rcd13ifvqd20","pricing_plan_id":"free"},{"bike_id":"e6e682f4-4dc5-4723-9756-9d98474dd792","system_id":"levelo_inurba_marseille","lat":43.2926,"lon":5.38442,"is_reserved":false,"is_disabled":false,"rental_uris":{"android":"levelo://app?vid=e6e682f4-4dc5-4723-9756-9d98474dd792","ios":"levelo://app?vid=e6e682f4-4dc5-4723-9756-9d98474dd792"},"vehicle_type_id":"4","last_reported":1698430108,"current_range_meters":2800,"station_id":"ce4bh692rcd13ifvqea0","pricing_plan_id":"free"},{"bike_id":"ce138283-f05b-4607-8334-b99069e7b96e","system_id":"levelo_inurba_marseille","lat":43.29258,"lon":5.38438,"is_reserved":false,"is_disabled":false,"rental_uris":{"android":"levelo://app?vid=ce138283-f05b-4607-8334-b99069e7b96e","ios":"levelo://app?vid=ce138283-f05b-4607-8334-b99069e7b96e"},"vehicle_type_id":"4","last_reported":1698430108,"current_range_meters":3600,"station_id":"ce4bh692rcd13ifvqea0","pricing_plan_id":"free"},{"bike_id":"34714067-523b-454a-b11a-82ec4f56098c","system_id":"levelo_inurba_marseille","lat":43.292644,"lon":5.384257,"is_reserved":false,"is_disabled":false,"rental_uris":{"android":"levelo://app?vid=34714067-523b-454a-b11a-82ec4f56098c","ios":"levelo://app?vid=34714067-523b-454a-b11a-82ec4f56098c"},"vehicle_type_id":"4","last_reported":1698430108,"current_range_meters":4800,"station_id":"ce4bh692rcd13ifvqea0","pricing_plan_id":"free"},{"bike_id":"45e89ecf-9113-4b90-bb53-05d1e6bfc819","system_id":"levelo_inurba_marseille","lat":43.292644,"lon":5.384257,"is_reserved":false,"is_disabled":false,"rental_uris":{"android":"levelo://app?vid=45e89ecf-9113-4b90-bb53-05d1e6bfc819","ios":"levelo://app?vid=45e89ecf-9113-4b90-bb53-05d1e6bfc819"},"vehicle_type_id":"4","last_reported":1698430108,"current_range_meters":27200,"station_id":"ce4bh692rcd13ifvqea0","pricing_plan_id":"free"},{"bike_id":"2430e6ed-9fe8-406f-8f97-ce9b6eb4b644","system_id":"levelo_inurba_marseille","lat":43.292576,"lon":5.384462,"is_reserved":false,"is_disabled":false,"rental_uris":{"android":"levelo://app?vid=2430e6ed-9fe8-406f-8f97-ce9b6eb4b644","ios":"levelo://app?vid=2430e6ed-9fe8-406f-8f97-ce9b6eb4b644"},"vehicle_type_id":"4","last_reported":1698430108,"current_range_meters":6400,"station_id":"ce4bh692rcd13ifvqea0","pricing_plan_id":"free"},{"bike_id":"2aa3999e-b6b5-4aab-8af2-8933f7f30c27","system_id":"levelo_inurba_marseille","lat":43.29258,"lon":5.38447,"is_reserved":false,"is_disabled":false,"rental_uris":{"android":"levelo://app?vid=2aa3999e-b6b5-4aab-8af2-8933f7f30c27","ios":"levelo://app?vid=2aa3999e-b6b5-4aab-8af2-8933f7f30c27"},"vehicle_type_id":"4","last_reported":1698430108,"current_range_meters":18400,"station_id":"ce4bh692rcd13ifvqea0","pricing_plan_id":"free"},{"bike_id":"26198c50-f1ae-491b-97bc-5d7b09e814b8","system_id":"levelo_inurba_marseille","lat":43.292642,"lon":5.384254,"is_reserved":false,"is_disabled":false,"rental_uris":{"android":"levelo://app?vid=26198c50-f1ae-491b-97bc-5d7b09e814b8","ios":"levelo://app?vid=26198c50-f1ae-491b-97bc-5d7b09e814b8"},"vehicle_type_id":"4","last_reported":1698430108,"current_range_meters":6000,"station_id":"ce4bh692rcd13ifvqea0","pricing_plan_id":"free"},{"bike_id":"781527e5-300e-4b31-b3a5-6dfa53741e50","system_id":"levelo_inurba_marseille","lat":43.29253,"lon":5.38439,"is_reserved":false,"is_disabled":false,"rental_uris":{"android":"levelo://app?vid=781527e5-300e-4b31-b3a5-6dfa53741e50","ios":"levelo://app?vid=781527e5-300e-4b31-b3a5-6dfa53741e50"},"vehicle_type_id":"4","last_reported":1698430108,"current_range_meters":400,"station_id":"ce4bh692rcd13ifvqea0","pricing_plan_id":"free"},{"bike_id":"f9879fab-4ae0-4e60-beec-18bb9d8774a1","system_id":"levelo_inurba_marseille","lat":43.292644,"lon":5.384257,"is_reserved":false,"is_disabled":false,"rental_uris":{"android":"levelo://app?vid=f9879fab-4ae0-4e60-beec-18bb9d8774a1","ios":"levelo://app?vid=f9879fab-4ae0-4e60-beec-18bb9d8774a1"},"vehicle_type_id":"4","last_reported":1698430108,"current_range_meters":13600,"station_id":"ce4bh692rcd13ifvqea0","pricing_plan_id":"free"},{"bike_id":"a2fd28fb-5995-402a-a618-c2048b75f1bb","system_id":"levelo_inurba_marseille","lat":43.29253,"lon":5.38441,"is_reserved":false,"is_disabled":false,"rental_uris":{"android":"levelo://app?vid=a2fd28fb-5995-402a-a618-c2048b75f1bb","ios":"levelo://app?vid=a2fd28fb-5995-402a-a618-c2048b75f1bb"},"vehicle_type_id":"4","last_reported":1698430108,"current_range_meters":29200,"station_id":"ce4bh692rcd13ifvqea0","pricing_plan_id":"free"},{"bike_id":"4052f41f-1aef-419e-877c-93459267555a","system_id":"levelo_inurba_marseille","lat":43.29252,"lon":5.38444,"is_reserved":false,"is_disabled":false,"rental_uris":{"android":"levelo://app?vid=4052f41f-1aef-419e-877c-93459267555a","ios":"levelo://app?vid=4052f41f-1aef-419e-877c-93459267555a"},"vehicle_type_id":"4","last_reported":1698430108,"current_range_meters":8000,"station_id":"ce4bh692rcd13ifvqea0","pricing_plan_id":"free"},{"bike_id":"6fae0255-8a65-4a6f-a226-b54b640ad755","system_id":"levelo_inurba_marseille","lat":43.292644,"lon":5.384257,"is_reserved":false,"is_disabled":false,"rental_uris":{"android":"levelo://app?vid=6fae0255-8a65-4a6f-a226-b54b640ad755","ios":"levelo://app?vid=6fae0255-8a65-4a6f-a226-b54b640ad755"},"vehicle_type_id":"4","last_reported":1698430108,"current_range_meters":25600,"station_id":"ce4bh692rcd13ifvqea0","pricing_plan_id":"free"},{"bike_id":"bebf79b8-2697-4236-b0de-b88aed30a5f8","system_id":"levelo_inurba_marseille","lat":43.330404,"lon":5.3892,"is_reserved":false,"is_disabled":false,"rental_uris":{"android":"levelo://app?vid=bebf79b8-2697-4236-b0de-b88aed30a5f8","ios":"levelo://app?vid=bebf79b8-2697-4236-b0de-b88aed30a5f8"},"vehicle_type_id":"4","last_reported":1698430108,"current_range_meters":0,"station_id":"ce4bhr92rcd13ifvqhrg","pricing_plan_id":"free"},{"bike_id":"f182dfe9-3ea2-4061-9ebc-ce52bbfa49e7","system_id":"levelo_inurba_marseille","lat":43.330442,"lon":5.389148,"is_reserved":false,"is_disabled":false,"rental_uris":{"android":"levelo://app?vid=f182dfe9-3ea2-4061-9ebc-ce52bbfa49e7","ios":"levelo://app?vid=f182dfe9-3ea2-4061-9ebc-ce52bbfa49e7"},"vehicle_type_id":"4","last_reported":1698430108,"current_range_meters":2400,"station_id":"ce4bhr92rcd13ifvqhrg","pricing_plan_id":"free"},{"bike_id":"0a375c32-4cea-48ab-8995-4fb692c5d6c9","system_id":"levelo_inurba_marseille","lat":43.292644,"lon":5.384257,"is_reserved":false,"is_disabled":false,"rental_uris":{"android":"levelo://app?vid=0a375c32-4cea-48ab-8995-4fb692c5d6c9","ios":"levelo://app?vid=0a375c32-4cea-48ab-8995-4fb692c5d6c9"},"vehicle_type_id":"4","last_reported":1698430108,"current_range_meters":27600,"station_id":"ce4bh692rcd13ifvqea0","pricing_plan_id":"free"},{"bike_id":"92b974e6-59f7-4932-ac95-512f6fcba6f4","system_id":"levelo_inurba_marseille","lat":43.290103,"lon":5.356114,"is_reserved":false,"is_disabled":false,"rental_uris":{"android":"levelo://app?vid=92b974e6-59f7-4932-ac95-512f6fcba6f4","ios":"levelo://app?vid=92b974e6-59f7-4932-ac95-512f6fcba6f4"},"vehicle_type_id":"4","last_reported":1698430108,"current_range_meters":19600,"station_id":"ce4bhb92rcd13ifvqen0","pricing_plan_id":"free"},{"bike_id":"048d0af3-b4fd-41a6-80c1-649d52c38e85","system_id":"levelo_inurba_marseille","lat":43.290995,"lon":5.381361,"is_reserved":false,"is_disabled":false,"rental_uris":{"android":"levelo://app?vid=048d0af3-b4fd-41a6-80c1-649d52c38e85","ios":"levelo://app?vid=048d0af3-b4fd-41a6-80c1-649d52c38e85"},"vehicle_type_id":"4","last_reported":1698430108,"current_range_meters":19600,"station_id":"ce4bh512rcd13ifvqe2g","pricing_plan_id":"free"},{"bike_id":"6f6b687e-886a-4db9-97cb-7a33238eda55","system_id":"levelo_inurba_marseille","lat":43.290995,"lon":5.381361,"is_reserved":false,"is_disabled":false,"rental_uris":{"android":"levelo://app?vid=6f6b687e-886a-4db9-97cb-7a33238eda55","ios":"levelo://app?vid=6f6b687e-886a-4db9-97cb-7a33238eda55"},"vehicle_type_id":"4","last_reported":1698430108,"current_range_meters":11600,"station_id":"ce4bh512rcd13ifvqe2g","pricing_plan_id":"free"},{"bike_id":"3f0ac743-ac79-4712-8706-f44109837c5a","system_id":"levelo_inurba_marseille","lat":43.290995,"lon":5.381361,"is_reserved":false,"is_disabled":false,"rental_uris":{"android":"levelo://app?vid=3f0ac743-ac79-4712-8706-f44109837c5a","ios":"levelo://app?vid=3f0ac743-ac79-4712-8706-f44109837c5a"},"vehicle_type_id":"4","last_reported":1698430108,"current_range_meters":2400,"station_id":"ce4bh512rcd13ifvqe2g","pricing_plan_id":"free"},{"bike_id":"bb98bab8-7acf-4fd0-acc9-07c36fe5de01","system_id":"levelo_inurba_marseille","lat":43.297815,"lon":5.393548,"is_reserved":false,"is_disabled":false,"rental_uris":{"android":"levelo://app?vid=bb98bab8-7acf-4fd0-acc9-07c36fe5de01","ios":"levelo://app?vid=bb98bab8-7acf-4fd0-acc9-07c36fe5de01"},"vehicle_type_id":"4","last_reported":1698430108,"current_range_meters":11600,"station_id":"chh1huq6cuj3fo74tm60","pricing_plan_id":"free"},{"bike_id":"3a5b4486-7ded-4566-8378-9ebae5e43a46","system_id":"levelo_inurba_marseille","lat":43.297815,"lon":5.393548,"is_reserved":false,"is_disabled":false,"rental_uris":{"android":"levelo://app?vid=3a5b4486-7ded-4566-8378-9ebae5e43a46","ios":"levelo://app?vid=3a5b4486-7ded-4566-8378-9ebae5e43a46"},"vehicle_type_id":"4","last_reported":1698430108,"current_range_meters":0,"station_id":"chh1huq6cuj3fo74tm60","pricing_plan_id":"free"},{"bike_id":"c69e57a0-67f7-4b31-b143-1f8ab17f66e1","system_id":"levelo_inurba_marseille","lat":43.29789,"lon":5.39344,"is_reserved":false,"is_disabled":false,"rental_uris":{"android":"levelo://app?vid=c69e57a0-67f7-4b31-b143-1f8ab17f66e1","ios":"levelo://app?vid=c69e57a0-67f7-4b31-b143-1f8ab17f66e1"},"vehicle_type_id":"4","last_reported":1698430108,"current_range_meters":0,"station_id":"chh1huq6cuj3fo74tm60","pricing_plan_id":"free"},{"bike_id":"62e0e769-f1b6-465f-843c-f7d734424108","system_id":"levelo_inurba_marseille","lat":43.29525,"lon":5.390348,"is_reserved":false,"is_disabled":false,"rental_uris":{"android":"levelo://app?vid=62e0e769-f1b6-465f-843c-f7d734424108","ios":"levelo://app?vid=62e0e769-f1b6-465f-843c-f7d734424108"},"vehicle_type_id":"4","last_reported":1698430108,"current_range_meters":15200,"station_id":"ce4bh3p2rcd13ifvqdp0","pricing_plan_id":"free"},{"bike_id":"14cef915-887b-46e4-924b-9eae9558064b","system_id":"levelo_inurba_marseille","lat":43.295169,"lon":5.390426,"is_reserved":false,"is_disabled":false,"rental_uris":{"android":"levelo://app?vid=14cef915-887b-46e4-924b-9eae9558064b","ios":"levelo://app?vid=14cef915-887b-46e4-924b-9eae9558064b"},"vehicle_type_id":"4","last_reported":1698430108,"current_range_meters":4000,"station_id":"ce4bh3p2rcd13ifvqdp0","pricing_plan_id":"free"},{"bike_id":"aae0de26-2446-4c4b-b068-c69b04696f10","system_id":"levelo_inurba_marseille","lat":43.290094,"lon":5.381264,"is_reserved":false,"is_disabled":false,"rental_uris":{"android":"levelo://app?vid=aae0de26-2446-4c4b-b068-c69b04696f10","ios":"levelo://app?vid=aae0de26-2446-4c4b-b068-c69b04696f10"},"vehicle_type_id":"4","last_reported":1698430108,"current_range_meters":8000,"station_id":"ce4bh4p2rcd13ifvqe1g","pricing_plan_id":"free"},{"bike_id":"05b342ca-81b5-4cec-ad0c-903d4989ec74","system_id":"levelo_inurba_marseille","lat":43.290094,"lon":5.381264,"is_reserved":false,"is_disabled":false,"rental_uris":{"android":"levelo://app?vid=05b342ca-81b5-4cec-ad0c-903d4989ec74","ios":"levelo://app?vid=05b342ca-81b5-4cec-ad0c-903d4989ec74"},"vehicle_type_id":"4","last_reported":1698430108,"current_range_meters":7200,"station_id":"ce4bh4p2rcd13ifvqe1g","pricing_plan_id":"free"},{"bike_id":"e733bc70-282d-4106-a423-6ef1cdeac9ad","system_id":"levelo_inurba_marseille","lat":43.337413,"lon":5.374589,"is_reserved":false,"is_disabled":false,"rental_uris":{"android":"levelo://app?vid=e733bc70-282d-4106-a423-6ef1cdeac9ad","ios":"levelo://app?vid=e733bc70-282d-4106-a423-6ef1cdeac9ad"},"vehicle_type_id":"4","last_reported":1698430108,"current_range_meters":26000,"station_id":"","pricing_plan_id":"free"},{"bike_id":"cb9ff235-45c5-4c75-8c7e-254a02e34571","system_id":"levelo_inurba_marseille","lat":43.306412,"lon":5.401035,"is_reserved":false,"is_disabled":false,"rental_uris":{"android":"levelo://app?vid=cb9ff235-45c5-4c75-8c7e-254a02e34571","ios":"levelo://app?vid=cb9ff235-45c5-4c75-8c7e-254a02e34571"},"vehicle_type_id":"4","last_reported":1698430108,"current_range_meters":22800,"station_id":"ce4bh112rcd13ifvqda0","pricing_plan_id":"free"},{"bike_id":"6b2d642d-1c1b-40c1-829b-970c48e9ca1e","system_id":"levelo_inurba_marseille","lat":43.29214,"lon":5.38802,"is_reserved":false,"is_disabled":false,"rental_uris":{"android":"levelo://app?vid=6b2d642d-1c1b-40c1-829b-970c48e9ca1e","ios":"levelo://app?vid=6b2d642d-1c1b-40c1-829b-970c48e9ca1e"},"vehicle_type_id":"4","last_reported":1698430108,"current_range_meters":10000,"station_id":"","pricing_plan_id":"free"},{"bike_id":"ad842dbb-de11-487c-9f2e-7bb66c967eb4","system_id":"levelo_inurba_marseille","lat":43.30126,"lon":5.398623,"is_reserved":false,"is_disabled":false,"rental_uris":{"android":"levelo://app?vid=ad842dbb-de11-487c-9f2e-7bb66c967eb4","ios":"levelo://app?vid=ad842dbb-de11-487c-9f2e-7bb66c967eb4"},"vehicle_type_id":"4","last_reported":1698430108,"current_range_meters":4000,"station_id":"ce4bh0h2rcd13ifvqd40","pricing_plan_id":"free"},{"bike_id":"2f695aad-19fb-41fa-b9e8-0cea80209361","system_id":"levelo_inurba_marseille","lat":43.28727,"lon":5.36078,"is_reserved":false,"is_disabled":false,"rental_uris":{"android":"levelo://app?vid=2f695aad-19fb-41fa-b9e8-0cea80209361","ios":"levelo://app?vid=2f695aad-19fb-41fa-b9e8-0cea80209361"},"vehicle_type_id":"4","last_reported":1698430108,"current_range_meters":31200,"station_id":"cki0cbj6b192h4jlfktg","pricing_plan_id":"free"},{"bike_id":"0323a479-f917-4782-994d-09015953c72d","system_id":"levelo_inurba_marseille","lat":43.28727,"lon":5.36078,"is_reserved":false,"is_disabled":false,"rental_uris":{"android":"levelo://app?vid=0323a479-f917-4782-994d-09015953c72d","ios":"levelo://app?vid=0323a479-f917-4782-994d-09015953c72d"},"vehicle_type_id":"4","last_reported":1698430108,"current_range_meters":22000,"station_id":"cki0cbj6b192h4jlfktg","pricing_plan_id":"free"},{"bike_id":"ac938abc-969d-4dc2-bbc7-792ab9cced8f","system_id":"levelo_inurba_marseille","lat":43.28727,"lon":5.36078,"is_reserved":false,"is_disabled":false,"rental_uris":{"android":"levelo://app?vid=ac938abc-969d-4dc2-bbc7-792ab9cced8f","ios":"levelo://app?vid=ac938abc-969d-4dc2-bbc7-792ab9cced8f"},"vehicle_type_id":"4","last_reported":1698430108,"current_range_meters":6400,"station_id":"cki0cbj6b192h4jlfktg","pricing_plan_id":"free"},{"bike_id":"bdbc3db6-263e-4c49-b9dc-6016ba7b7c03","system_id":"levelo_inurba_marseille","lat":43.28727,"lon":5.36078,"is_reserved":false,"is_disabled":false,"rental_uris":{"android":"levelo://app?vid=bdbc3db6-263e-4c49-b9dc-6016ba7b7c03","ios":"levelo://app?vid=bdbc3db6-263e-4c49-b9dc-6016ba7b7c03"},"vehicle_type_id":"4","last_reported":1698430108,"current_range_meters":31200,"station_id":"cki0cbj6b192h4jlfktg","pricing_plan_id":"free"},{"bike_id":"f33126d2-4547-4efd-9103-fbf856a1a7d4","system_id":"levelo_inurba_marseille","lat":43.286961,"lon":5.373785,"is_reserved":false,"is_disabled":false,"rental_uris":{"android":"levelo://app?vid=f33126d2-4547-4efd-9103-fbf856a1a7d4","ios":"levelo://app?vid=f33126d2-4547-4efd-9103-fbf856a1a7d4"},"vehicle_type_id":"4","last_reported":1698430108,"current_range_meters":5600,"station_id":"ce4bh3p2rcd13ifvqdq0","pricing_plan_id":"free"},{"bike_id":"21db64d4-3f4c-4cf9-92d1-04e312ae8f05","system_id":"levelo_inurba_marseille","lat":43.298681,"lon":5.397225,"is_reserved":false,"is_disabled":false,"rental_uris":{"android":"levelo://app?vid=21db64d4-3f4c-4cf9-92d1-04e312ae8f05","ios":"levelo://app?vid=21db64d4-3f4c-4cf9-92d1-04e312ae8f05"},"vehicle_type_id":"4","last_reported":1698430108,"current_range_meters":16800,"station_id":"ce4bh0h2rcd13ifvqd50","pricing_plan_id":"free"},{"bike_id":"9b046aba-561a-4cdb-96e5-5573f9764ea6","system_id":"levelo_inurba_marseille","lat":43.298681,"lon":5.397225,"is_reserved":false,"is_disabled":false,"rental_uris":{"android":"levelo://app?vid=9b046aba-561a-4cdb-96e5-5573f9764ea6","ios":"levelo://app?vid=9b046aba-561a-4cdb-96e5-5573f9764ea6"},"vehicle_type_id":"4","last_reported":1698430108,"current_range_meters":20000,"station_id":"ce4bh0h2rcd13ifvqd50","pricing_plan_id":"free"},{"bike_id":"1a4c94ae-08bd-43bc-91a1-5edf0b99fbfe","system_id":"levelo_inurba_marseille","lat":43.298681,"lon":5.397225,"is_reserved":false,"is_disabled":false,"rental_uris":{"android":"levelo://app?vid=1a4c94ae-08bd-43bc-91a1-5edf0b99fbfe","ios":"levelo://app?vid=1a4c94ae-08bd-43bc-91a1-5edf0b99fbfe"},"vehicle_type_id":"4","last_reported":1698430108,"current_range_meters":20400,"station_id":"ce4bh0h2rcd13ifvqd50","pricing_plan_id":"free"},{"bike_id":"b2dbd7a1-4716-4f02-88e9-3ce283f78714","system_id":"levelo_inurba_marseille","lat":43.298681,"lon":5.397225,"is_reserved":false,"is_disabled":false,"rental_uris":{"android":"levelo://app?vid=b2dbd7a1-4716-4f02-88e9-3ce283f78714","ios":"levelo://app?vid=b2dbd7a1-4716-4f02-88e9-3ce283f78714"},"vehicle_type_id":"4","last_reported":1698430108,"current_range_meters":10000,"station_id":"ce4bh0h2rcd13ifvqd50","pricing_plan_id":"free"},{"bike_id":"c9e4766e-b3c2-4d93-96fc-efa9cba93094","system_id":"levelo_inurba_marseille","lat":43.298681,"lon":5.397225,"is_reserved":false,"is_disabled":false,"rental_uris":{"android":"levelo://app?vid=c9e4766e-b3c2-4d93-96fc-efa9cba93094","ios":"levelo://app?vid=c9e4766e-b3c2-4d93-96fc-efa9cba93094"},"vehicle_type_id":"4","last_reported":1698430108,"current_range_meters":8400,"station_id":"ce4bh0h2rcd13ifvqd50","pricing_plan_id":"free"},{"bike_id":"daaeb08d-105f-45b7-8366-9acd8d47c73d","system_id":"levelo_inurba_marseille","lat":43.298681,"lon":5.397225,"is_reserved":false,"is_disabled":false,"rental_uris":{"android":"levelo://app?vid=daaeb08d-105f-45b7-8366-9acd8d47c73d","ios":"levelo://app?vid=daaeb08d-105f-45b7-8366-9acd8d47c73d"},"vehicle_type_id":"4","last_reported":1698430108,"current_range_meters":0,"station_id":"ce4bh0h2rcd13ifvqd50","pricing_plan_id":"free"},{"bike_id":"680b2d04-77ac-4177-ab82-0857e4f364d9","system_id":"levelo_inurba_marseille","lat":43.298681,"lon":5.397225,"is_reserved":false,"is_disabled":false,"rental_uris":{"android":"levelo://app?vid=680b2d04-77ac-4177-ab82-0857e4f364d9","ios":"levelo://app?vid=680b2d04-77ac-4177-ab82-0857e4f364d9"},"vehicle_type_id":"4","last_reported":1698430108,"current_range_meters":10800,"station_id":"ce4bh0h2rcd13ifvqd50","pricing_plan_id":"free"},{"bike_id":"ae82edf6-ea3d-46a2-8f61-2ea27ce9975f","system_id":"levelo_inurba_marseille","lat":43.29534,"lon":5.39409,"is_reserved":false,"is_disabled":false,"rental_uris":{"android":"levelo://app?vid=ae82edf6-ea3d-46a2-8f61-2ea27ce9975f","ios":"levelo://app?vid=ae82edf6-ea3d-46a2-8f61-2ea27ce9975f"},"vehicle_type_id":"4","last_reported":1698430108,"current_range_meters":3600,"station_id":"","pricing_plan_id":"free"},{"bike_id":"4ce43f4d-760d-4952-beea-55d0bce78260","system_id":"levelo_inurba_marseille","lat":43.28931,"lon":5.38391,"is_reserved":false,"is_disabled":false,"rental_uris":{"android":"levelo://app?vid=4ce43f4d-760d-4952-beea-55d0bce78260","ios":"levelo://app?vid=4ce43f4d-760d-4952-beea-55d0bce78260"},"vehicle_type_id":"4","last_reported":1698430108,"current_range_meters":8000,"station_id":"ce4bh612rcd13ifvqe6g","pricing_plan_id":"free"},{"bike_id":"1519422c-1f0e-4ddf-b014-77ce8c3520e6","system_id":"levelo_inurba_marseille","lat":43.29032,"lon":5.38635,"is_reserved":false,"is_disabled":false,"rental_uris":{"android":"levelo://app?vid=1519422c-1f0e-4ddf-b014-77ce8c3520e6","ios":"levelo://app?vid=1519422c-1f0e-4ddf-b014-77ce8c3520e6"},"vehicle_type_id":"4","last_reported":1698430108,"current_range_meters":8000,"station_id":"","pricing_plan_id":"free"},{"bike_id":"bc368e20-93c0-495a-bb4f-cd8ed7ee7f0d","system_id":"levelo_inurba_marseille","lat":43.335307,"lon":5.388143,"is_reserved":false,"is_disabled":false,"rental_uris":{"android":"levelo://app?vid=bc368e20-93c0-495a-bb4f-cd8ed7ee7f0d","ios":"levelo://app?vid=bc368e20-93c0-495a-bb4f-cd8ed7ee7f0d"},"vehicle_type_id":"4","last_reported":1698430108,"current_range_meters":0,"station_id":"","pricing_plan_id":"free"},{"bike_id":"70941957-82dc-4224-a0c6-21d0b4d42a40","system_id":"levelo_inurba_marseille","lat":43.316504,"lon":5.404292,"is_reserved":false,"is_disabled":false,"rental_uris":{"android":"levelo://app?vid=70941957-82dc-4224-a0c6-21d0b4d42a40","ios":"levelo://app?vid=70941957-82dc-4224-a0c6-21d0b4d42a40"},"vehicle_type_id":"4","last_reported":1698430108,"current_range_meters":19200,"station_id":"ce4bh012rcd13ifvqd00","pricing_plan_id":"free"},{"bike_id":"54220ddf-253c-4f74-a3d9-33325a05d8e6","system_id":"levelo_inurba_marseille","lat":43.316517,"lon":5.404375,"is_reserved":false,"is_disabled":false,"rental_uris":{"android":"levelo://app?vid=54220ddf-253c-4f74-a3d9-33325a05d8e6","ios":"levelo://app?vid=54220ddf-253c-4f74-a3d9-33325a05d8e6"},"vehicle_type_id":"4","last_reported":1698430108,"current_range_meters":17200,"station_id":"ce4bh012rcd13ifvqd00","pricing_plan_id":"free"},{"bike_id":"d1c0ec92-6286-4cc2-a4dd-a57d435a0c75","system_id":"levelo_inurba_marseille","lat":43.291994,"lon":5.392907,"is_reserved":false,"is_disabled":false,"rental_uris":{"android":"levelo://app?vid=d1c0ec92-6286-4cc2-a4dd-a57d435a0c75","ios":"levelo://app?vid=d1c0ec92-6286-4cc2-a4dd-a57d435a0c75"},"vehicle_type_id":"4","last_reported":1698430108,"current_range_meters":9600,"station_id":"ce4bh192rcd13ifvqdd0","pricing_plan_id":"free"},{"bike_id":"c6cb8ba7-086f-4e1d-b31e-5bbafb7dd5a7","system_id":"levelo_inurba_marseille","lat":43.28464,"lon":5.35899,"is_reserved":false,"is_disabled":false,"rental_uris":{"android":"levelo://app?vid=c6cb8ba7-086f-4e1d-b31e-5bbafb7dd5a7","ios":"levelo://app?vid=c6cb8ba7-086f-4e1d-b31e-5bbafb7dd5a7"},"vehicle_type_id":"4","last_reported":1698430108,"current_range_meters":31200,"station_id":"ce4bhah2rcd13ifvqei0","pricing_plan_id":"free"},{"bike_id":"aa11ab24-68d9-4ce9-9fe5-b81ef5125170","system_id":"levelo_inurba_marseille","lat":43.2846,"lon":5.35893,"is_reserved":false,"is_disabled":false,"rental_uris":{"android":"levelo://app?vid=aa11ab24-68d9-4ce9-9fe5-b81ef5125170","ios":"levelo://app?vid=aa11ab24-68d9-4ce9-9fe5-b81ef5125170"},"vehicle_type_id":"4","last_reported":1698430108,"current_range_meters":0,"station_id":"ce4bhah2rcd13ifvqei0","pricing_plan_id":"free"},{"bike_id":"f485c943-a7b6-4af4-bd81-d3cf9af644ed","system_id":"levelo_inurba_marseille","lat":43.2944,"lon":5.39765,"is_reserved":false,"is_disabled":false,"rental_uris":{"android":"levelo://app?vid=f485c943-a7b6-4af4-bd81-d3cf9af644ed","ios":"levelo://app?vid=f485c943-a7b6-4af4-bd81-d3cf9af644ed"},"vehicle_type_id":"4","last_reported":1698430108,"current_range_meters":0,"station_id":"ce4bh3h2rcd13ifvqdo0","pricing_plan_id":"free"},{"bike_id":"3b9b3840-e85a-4632-a2d0-fb8ba4485340","system_id":"levelo_inurba_marseille","lat":43.285848,"lon":5.350787,"is_reserved":false,"is_disabled":false,"rental_uris":{"android":"levelo://app?vid=3b9b3840-e85a-4632-a2d0-fb8ba4485340","ios":"levelo://app?vid=3b9b3840-e85a-4632-a2d0-fb8ba4485340"},"vehicle_type_id":"4","last_reported":1698430108,"current_range_meters":16800,"station_id":"ce4bhch2rcd13ifvqeug","pricing_plan_id":"free"},{"bike_id":"28bb8097-0f90-4622-9540-61c19b2e1467","system_id":"levelo_inurba_marseille","lat":43.285848,"lon":5.350787,"is_reserved":false,"is_disabled":false,"rental_uris":{"android":"levelo://app?vid=28bb8097-0f90-4622-9540-61c19b2e1467","ios":"levelo://app?vid=28bb8097-0f90-4622-9540-61c19b2e1467"},"vehicle_type_id":"4","last_reported":1698430108,"current_range_meters":25600,"station_id":"ce4bhch2rcd13ifvqeug","pricing_plan_id":"free"},{"bike_id":"9d7565f5-fd0f-43b6-b32b-4dea8f7a43e7","system_id":"levelo_inurba_marseille","lat":43.285848,"lon":5.350787,"is_reserved":false,"is_disabled":false,"rental_uris":{"android":"levelo://app?vid=9d7565f5-fd0f-43b6-b32b-4dea8f7a43e7","ios":"levelo://app?vid=9d7565f5-fd0f-43b6-b32b-4dea8f7a43e7"},"vehicle_type_id":"4","last_reported":1698430108,"current_range_meters":2400,"station_id":"ce4bhch2rcd13ifvqeug","pricing_plan_id":"free"},{"bike_id":"4dd91594-865c-46cc-a1bb-31b0edcb19d6","system_id":"levelo_inurba_marseille","lat":43.284152,"lon":5.375082,"is_reserved":false,"is_disabled":false,"rental_uris":{"android":"levelo://app?vid=4dd91594-865c-46cc-a1bb-31b0edcb19d6","ios":"levelo://app?vid=4dd91594-865c-46cc-a1bb-31b0edcb19d6"},"vehicle_type_id":"4","last_reported":1698430108,"current_range_meters":0,"station_id":"ce4bh412rcd13ifvqds0","pricing_plan_id":"free"},{"bike_id":"a06c47aa-6a2c-4a00-8bb7-f12d882232e2","system_id":"levelo_inurba_marseille","lat":43.286595,"lon":5.386795,"is_reserved":false,"is_disabled":false,"rental_uris":{"android":"levelo://app?vid=a06c47aa-6a2c-4a00-8bb7-f12d882232e2","ios":"levelo://app?vid=a06c47aa-6a2c-4a00-8bb7-f12d882232e2"},"vehicle_type_id":"4","last_reported":1698430108,"current_range_meters":0,"station_id":"ce4bh492rcd13ifvqdug","pricing_plan_id":"free"},{"bike_id":"8f4b8f3a-5eff-4bf9-826f-ebc8fa0983ce","system_id":"levelo_inurba_marseille","lat":43.286595,"lon":5.386795,"is_reserved":false,"is_disabled":false,"rental_uris":{"android":"levelo://app?vid=8f4b8f3a-5eff-4bf9-826f-ebc8fa0983ce","ios":"levelo://app?vid=8f4b8f3a-5eff-4bf9-826f-ebc8fa0983ce"},"vehicle_type_id":"4","last_reported":1698430108,"current_range_meters":8800,"station_id":"ce4bh492rcd13ifvqdug","pricing_plan_id":"free"},{"bike_id":"8c1a728d-c38f-486a-ad24-efa42c41aa32","system_id":"levelo_inurba_marseille","lat":43.319179,"lon":5.407725,"is_reserved":false,"is_disabled":false,"rental_uris":{"android":"levelo://app?vid=8c1a728d-c38f-486a-ad24-efa42c41aa32","ios":"levelo://app?vid=8c1a728d-c38f-486a-ad24-efa42c41aa32"},"vehicle_type_id":"4","last_reported":1698430108,"current_range_meters":19600,"station_id":"ce4bhq12rcd13ifvqhig","pricing_plan_id":"free"},{"bike_id":"a04dca67-8317-445e-90d6-5788929468fd","system_id":"levelo_inurba_marseille","lat":43.33674,"lon":5.39198,"is_reserved":false,"is_disabled":false,"rental_uris":{"android":"levelo://app?vid=a04dca67-8317-445e-90d6-5788929468fd","ios":"levelo://app?vid=a04dca67-8317-445e-90d6-5788929468fd"},"vehicle_type_id":"4","last_reported":1698430108,"current_range_meters":8800,"station_id":"","pricing_plan_id":"free"},{"bike_id":"b3f3d054-bfa0-466e-8d79-d457488f5380","system_id":"levelo_inurba_marseille","lat":43.323464,"lon":5.406297,"is_reserved":false,"is_disabled":false,"rental_uris":{"android":"levelo://app?vid=b3f3d054-bfa0-466e-8d79-d457488f5380","ios":"levelo://app?vid=b3f3d054-bfa0-466e-8d79-d457488f5380"},"vehicle_type_id":"4","last_reported":1698430108,"current_range_meters":21200,"station_id":"ce4bhq92rcd13ifvqhjg","pricing_plan_id":"free"},{"bike_id":"5fe2de8b-85a0-46c7-ac2f-20486e90058f","system_id":"levelo_inurba_marseille","lat":43.297946,"lon":5.404063,"is_reserved":false,"is_disabled":false,"rental_uris":{"android":"levelo://app?vid=5fe2de8b-85a0-46c7-ac2f-20486e90058f","ios":"levelo://app?vid=5fe2de8b-85a0-46c7-ac2f-20486e90058f"},"vehicle_type_id":"4","last_reported":1698430108,"current_range_meters":28800,"station_id":"ce4bh112rcd13ifvqd90","pricing_plan_id":"free"},{"bike_id":"2e056643-a78b-4e8b-9694-ae4fb1184975","system_id":"levelo_inurba_marseille","lat":43.297946,"lon":5.404063,"is_reserved":false,"is_disabled":false,"rental_uris":{"android":"levelo://app?vid=2e056643-a78b-4e8b-9694-ae4fb1184975","ios":"levelo://app?vid=2e056643-a78b-4e8b-9694-ae4fb1184975"},"vehicle_type_id":"4","last_reported":1698430108,"current_range_meters":17600,"station_id":"ce4bh112rcd13ifvqd90","pricing_plan_id":"free"},{"bike_id":"351f18ed-3b9a-4af3-8019-9240c2e110c1","system_id":"levelo_inurba_marseille","lat":43.297946,"lon":5.404063,"is_reserved":false,"is_disabled":false,"rental_uris":{"android":"levelo://app?vid=351f18ed-3b9a-4af3-8019-9240c2e110c1","ios":"levelo://app?vid=351f18ed-3b9a-4af3-8019-9240c2e110c1"},"vehicle_type_id":"4","last_reported":1698430108,"current_range_meters":2000,"station_id":"ce4bh112rcd13ifvqd90","pricing_plan_id":"free"},{"bike_id":"6bbf8be1-5d19-43fa-9d54-51934f0b8d30","system_id":"levelo_inurba_marseille","lat":43.29795,"lon":5.404086,"is_reserved":false,"is_disabled":false,"rental_uris":{"android":"levelo://app?vid=6bbf8be1-5d19-43fa-9d54-51934f0b8d30","ios":"levelo://app?vid=6bbf8be1-5d19-43fa-9d54-51934f0b8d30"},"vehicle_type_id":"4","last_reported":1698430108,"current_range_meters":18400,"station_id":"ce4bh112rcd13ifvqd90","pricing_plan_id":"free"},{"bike_id":"771aeae7-6aad-4959-b4cb-d9aa74a79de7","system_id":"levelo_inurba_marseille","lat":43.288497,"lon":5.393089,"is_reserved":false,"is_disabled":false,"rental_uris":{"android":"levelo://app?vid=771aeae7-6aad-4959-b4cb-d9aa74a79de7","ios":"levelo://app?vid=771aeae7-6aad-4959-b4cb-d9aa74a79de7"},"vehicle_type_id":"4","last_reported":1698430108,"current_range_meters":29200,"station_id":"ce4bh2p2rcd13ifvqdi0","pricing_plan_id":"free"},{"bike_id":"2f666bbb-190f-4291-ade2-95e2c0cfd815","system_id":"levelo_inurba_marseille","lat":43.325281,"lon":5.405683,"is_reserved":false,"is_disabled":false,"rental_uris":{"android":"levelo://app?vid=2f666bbb-190f-4291-ade2-95e2c0cfd815","ios":"levelo://app?vid=2f666bbb-190f-4291-ade2-95e2c0cfd815"},"vehicle_type_id":"4","last_reported":1698430108,"current_range_meters":21200,"station_id":"","pricing_plan_id":"free"},{"bike_id":"e05e5d71-7502-4678-8ddf-4809175a2d58","system_id":"levelo_inurba_marseille","lat":43.283494,"lon":5.380945,"is_reserved":false,"is_disabled":false,"rental_uris":{"android":"levelo://app?vid=e05e5d71-7502-4678-8ddf-4809175a2d58","ios":"levelo://app?vid=e05e5d71-7502-4678-8ddf-4809175a2d58"},"vehicle_type_id":"4","last_reported":1698430108,"current_range_meters":800,"station_id":"ce4bh412rcd13ifvqdr0","pricing_plan_id":"free"},{"bike_id":"9d64cd12-5943-4f19-b57e-f943757fb09a","system_id":"levelo_inurba_marseille","lat":43.283498,"lon":5.380948,"is_reserved":false,"is_disabled":false,"rental_uris":{"android":"levelo://app?vid=9d64cd12-5943-4f19-b57e-f943757fb09a","ios":"levelo://app?vid=9d64cd12-5943-4f19-b57e-f943757fb09a"},"vehicle_type_id":"4","last_reported":1698430108,"current_range_meters":25200,"station_id":"ce4bh412rcd13ifvqdr0","pricing_plan_id":"free"},{"bike_id":"183fc132-6211-43a0-88f4-cb0847f6c82b","system_id":"levelo_inurba_marseille","lat":43.283498,"lon":5.380948,"is_reserved":false,"is_disabled":false,"rental_uris":{"android":"levelo://app?vid=183fc132-6211-43a0-88f4-cb0847f6c82b","ios":"levelo://app?vid=183fc132-6211-43a0-88f4-cb0847f6c82b"},"vehicle_type_id":"4","last_reported":1698430108,"current_range_meters":12000,"station_id":"ce4bh412rcd13ifvqdr0","pricing_plan_id":"free"},{"bike_id":"4a6c8c6e-e32b-4ff3-8daf-67c57983ed46","system_id":"levelo_inurba_marseille","lat":43.2835,"lon":5.3811,"is_reserved":false,"is_disabled":false,"rental_uris":{"android":"levelo://app?vid=4a6c8c6e-e32b-4ff3-8daf-67c57983ed46","ios":"levelo://app?vid=4a6c8c6e-e32b-4ff3-8daf-67c57983ed46"},"vehicle_type_id":"4","last_reported":1698430108,"current_range_meters":16400,"station_id":"ce4bh412rcd13ifvqdr0","pricing_plan_id":"free"},{"bike_id":"bc88cc2e-7b5a-430d-802d-0bcc0d12e16a","system_id":"levelo_inurba_marseille","lat":43.284219,"lon":5.3497,"is_reserved":false,"is_disabled":false,"rental_uris":{"android":"levelo://app?vid=bc88cc2e-7b5a-430d-802d-0bcc0d12e16a","ios":"levelo://app?vid=bc88cc2e-7b5a-430d-802d-0bcc0d12e16a"},"vehicle_type_id":"4","last_reported":1698430108,"current_range_meters":2000,"station_id":"ce4bhbh2rcd13ifvqepg","pricing_plan_id":"free"},{"bike_id":"4e5b60e2-faf0-480d-8cd3-090ae712e27f","system_id":"levelo_inurba_marseille","lat":43.283502,"lon":5.386471,"is_reserved":false,"is_disabled":false,"rental_uris":{"android":"levelo://app?vid=4e5b60e2-faf0-480d-8cd3-090ae712e27f","ios":"levelo://app?vid=4e5b60e2-faf0-480d-8cd3-090ae712e27f"},"vehicle_type_id":"4","last_reported":1698430108,"current_range_meters":14400,"station_id":"ce4bh492rcd13ifvqdvg","pricing_plan_id":"free"},{"bike_id":"c006f8be-796a-4485-83d7-d3d396669d36","system_id":"levelo_inurba_marseille","lat":43.282744,"lon":5.350533,"is_reserved":false,"is_disabled":false,"rental_uris":{"android":"levelo://app?vid=c006f8be-796a-4485-83d7-d3d396669d36","ios":"levelo://app?vid=c006f8be-796a-4485-83d7-d3d396669d36"},"vehicle_type_id":"4","last_reported":1698430108,"current_range_meters":27600,"station_id":"ce4bhbp2rcd13ifvqerg","pricing_plan_id":"free"},{"bike_id":"1d540eeb-0d60-4d8e-9693-73c8cd3f3917","system_id":"levelo_inurba_marseille","lat":43.28262,"lon":5.35057,"is_reserved":false,"is_disabled":false,"rental_uris":{"android":"levelo://app?vid=1d540eeb-0d60-4d8e-9693-73c8cd3f3917","ios":"levelo://app?vid=1d540eeb-0d60-4d8e-9693-73c8cd3f3917"},"vehicle_type_id":"4","last_reported":1698430108,"current_range_meters":25600,"station_id":"ce4bhbp2rcd13ifvqerg","pricing_plan_id":"free"},{"bike_id":"f11c9f56-582f-48de-8f48-15d5ad990936","system_id":"levelo_inurba_marseille","lat":43.28039,"lon":5.369297,"is_reserved":false,"is_disabled":false,"rental_uris":{"android":"levelo://app?vid=f11c9f56-582f-48de-8f48-15d5ad990936","ios":"levelo://app?vid=f11c9f56-582f-48de-8f48-15d5ad990936"},"vehicle_type_id":"4","last_reported":1698430108,"current_range_meters":26000,"station_id":"ce4bha12rcd13ifvqef0","pricing_plan_id":"free"},{"bike_id":"86688156-2d62-4bd5-845c-e94aca1e43ba","system_id":"levelo_inurba_marseille","lat":43.28036,"lon":5.36951,"is_reserved":false,"is_disabled":false,"rental_uris":{"android":"levelo://app?vid=86688156-2d62-4bd5-845c-e94aca1e43ba","ios":"levelo://app?vid=86688156-2d62-4bd5-845c-e94aca1e43ba"},"vehicle_type_id":"4","last_reported":1698430108,"current_range_meters":31200,"station_id":"ce4bha12rcd13ifvqef0","pricing_plan_id":"free"},{"bike_id":"1d1fb236-1466-4be1-a9f1-181f00c1c3c6","system_id":"levelo_inurba_marseille","lat":43.28039,"lon":5.369297,"is_reserved":false,"is_disabled":false,"rental_uris":{"android":"levelo://app?vid=1d1fb236-1466-4be1-a9f1-181f00c1c3c6","ios":"levelo://app?vid=1d1fb236-1466-4be1-a9f1-181f00c1c3c6"},"vehicle_type_id":"4","last_reported":1698430108,"current_range_meters":28800,"station_id":"ce4bha12rcd13ifvqef0","pricing_plan_id":"free"},{"bike_id":"1ca242fe-6084-4f9b-8b54-35d465872844","system_id":"levelo_inurba_marseille","lat":43.290412,"lon":5.399633,"is_reserved":false,"is_disabled":false,"rental_uris":{"android":"levelo://app?vid=1ca242fe-6084-4f9b-8b54-35d465872844","ios":"levelo://app?vid=1ca242fe-6084-4f9b-8b54-35d465872844"},"vehicle_type_id":"4","last_reported":1698430108,"current_range_meters":22400,"station_id":"ce4bh392rcd13ifvqdm0","pricing_plan_id":"free"},{"bike_id":"e85a37de-2800-4355-b6af-1c90d7b2f2d8","system_id":"levelo_inurba_marseille","lat":43.30382,"lon":5.410231,"is_reserved":false,"is_disabled":false,"rental_uris":{"android":"levelo://app?vid=e85a37de-2800-4355-b6af-1c90d7b2f2d8","ios":"levelo://app?vid=e85a37de-2800-4355-b6af-1c90d7b2f2d8"},"vehicle_type_id":"4","last_reported":1698430108,"current_range_meters":3200,"station_id":"ce4bhop2rcd13ifvqh8g","pricing_plan_id":"free"},