{"last_updated":1728947304,"ttl":60,"version":"2.2","data":{"bikes":[{"bike_id":"bdfebf5b-d2cc-4c8d-b7ba-e9fd07ad275f","system_id":"levelo_inurba_marseille","lat":43.30591,"lon":5.39357,"is_reserved":false,"is_disabled":false,"rental_uris":{"android":"levelo://app?vid=bdfebf5b-d2cc-4c8d-b7ba-e9fd07ad275f","ios":"levelo://app?vid=bdfebf5b-d2cc-4c8d-b7ba-e9fd07ad275f"},"vehicle_type_id":"4","last_reported":1728947305,"current_range_meters":37600,"station_id":"ce4bh0p2rcd13ifvqd80","pricing_plan_id":"cebpf4jnsgd1na2vs0mg"},{"bike_id":"10530386-7ea2-4630-9cfd-fe14c55cdb58","system_id":"levelo_inurba_marseille","lat":43.31759,"lon":5.39017,"is_reserved":false,"is_disabled":false,"rental_uris":{"android":"levelo://app?vid=10530386-7ea2-4630-9cfd-fe14c55cdb58","ios":"levelo://app?vid=10530386-7ea2-4630-9cfd-fe14c55cdb58"},"vehicle_type_id":"4","last_reported":1728947305,"current_range_meters":9600,"station_id":"ce4bhqp2rcd13ifvqhng","pricing_plan_id":"cebpf4jnsgd1na2vs0mg"},{"bike_id":"0e00236d-6c78-40f2-aabc-967513e135d4","system_id":"levelo_inurba_marseille","lat":43.287059,"lon":5.373862,"is_reserved":false,"is_disabled":false,"rental_uris":{"android":"levelo://app?vid=0e00236d-6c78-40f2-aabc-967513e135d4","ios":"levelo://app?vid=0e00236d-6c78-40f2-aabc-967513e135d4"},"vehicle_type_id":"4","last_reported":1728947305,"current_range_meters":39200,"station_id":"ce4bh3p2rcd13ifvqdq0","pricing_plan_id":"cebpf4jnsgd1na2vs0mg"},{"bike_id":"cf4cabc2-1787-4d02-a606-03a61104119e","system_id":"levelo_inurba_marseille","lat":43.313284,"lon":5.396998,"is_reserved":false,"is_disabled":false,"rental_uris":{"android":"levelo://app?vid=cf4cabc2-1787-4d02-a606-03a61104119e","ios":"levelo://app?vid=cf4cabc2-1787-4d02-a606-03a61104119e"},"vehicle_type_id":"4","last_reported":1728947305,"current_range_meters":37600,"station_id":"ce4bgvp2rcd13ifvqcu0","pricing_plan_id":"cebpf4jnsgd1na2vs0mg"},{"bike_id":"ac788206-ab8f-4ef0-a827-047740674c33","system_id":"levelo_inurba_marseille","lat":43.31259,"lon":5.39429,"is_reserved":false,"is_disabled":false,"rental_uris":{"android":"levelo://app?vid=ac788206-ab8f-4ef0-a827-047740674c33","ios":"levelo://app?vid=ac788206-ab8f-4ef0-a827-047740674c33"},"vehicle_type_id":"4","last_reported":1728947305,"current_range_meters":20400,"station_id":"","pricing_plan_id":"cebpf4jnsgd1na2vs0mg"},{"bike_id":"f4d5b4d2-0a44-42ed-ab83-851738facba2","system_id":"levelo_inurba_marseille","lat":43.27368,"lon":5.36248,"is_reserved":false,"is_disabled":false,"rental_uris":{"android":"levelo://app?vid=f4d5b4d2-0a44-42ed-ab83-851738facba2","ios":"levelo://app?vid=f4d5b4d2-0a44-42ed-ab83-851738facba2"},"vehicle_type_id":"4","last_reported":1728947305,"current_range_meters":21600,"station_id":"ce4bhbh2rcd13ifvqeo0","pricing_plan_id":"cebpf4jnsgd1na2vs0mg"},{"bike_id":"ab06f5b3-3c08-4bb2-ab1c-a3aa34c68d36","system_id":"levelo_inurba_marseille","lat":43.2508,"lon":5.39516,"is_reserved":false,"is_disabled":false,"rental_uris":{"android":"levelo://app?vid=ab06f5b3-3c08-4bb2-ab1c-a3aa34c68d36","ios":"levelo://app?vid=ab06f5b3-3c08-4bb2-ab1c-a3aa34c68d36"},"vehicle_type_id":"4","last_reported":1728947305,"current_range_meters":39200,"station_id":"ce4bhm12rcd13ifvqgkg","pricing_plan_id":"cebpf4jnsgd1na2vs0mg"},{"bike_id":"6c769316-75e3-4eba-8bca-7dffbdb7e41c","system_id":"levelo_inurba_marseille","lat":43.28462,"lon":5.35894,"is_reserved":false,"is_disabled":false,"rental_uris":{"android":"levelo://app?vid=6c769316-75e3-4eba-8bca-7dffbdb7e41c","ios":"levelo://app?vid=6c769316-75e3-4eba-8bca-7dffbdb7e41c"},"vehicle_type_id":"4","last_reported":1728947305,"current_range_meters":38800,"station_id":"ce4bhah2rcd13ifvqei0","pricing_plan_id":"cebpf4jnsgd1na2vs0mg"},{"bike_id":"261bd9d6-59cc-4bd5-83dc-a5723cdfb9b6","system_id":"levelo_inurba_marseille","lat":43.31275,"lon":5.40167,"is_reserved":false,"is_disabled":false,"rental_uris":{"android":"levelo://app?vid=261bd9d6-59cc-4bd5-83dc-a5723cdfb9b6","ios":"levelo://app?vid=261bd9d6-59cc-4bd5-83dc-a5723cdfb9b6"},"vehicle_type_id":"4","last_reported":1728947305,"current_range_meters":35600,"station_id":"ce4bh092rcd13ifvqd30","pricing_plan_id":"cebpf4jnsgd1na2vs0mg"},{"bike_id":"f1800d52-2918-422c-a139-ab616233c036","system_id":"levelo_inurba_marseille","lat":43.30651,"lon":5.40071,"is_reserved":false,"is_disabled":false,"rental_uris":{"android":"levelo://app?vid=f1800d52-2918-422c-a139-ab616233c036","ios":"levelo://app?vid=f1800d52-2918-422c-a139-ab616233c036"},"vehicle_type_id":"4","last_reported":1728947305,"current_range_meters":39200,"station_id":"ce4bh112rcd13ifvqda0","pricing_plan_id":"cebpf4jnsgd1na2vs0mg"},{"bike_id":"ceb766f0-d391-46e8-8221-d34fbc4e12db","system_id":"levelo_inurba_marseille","lat":43.2979,"lon":5.39351,"is_reserved":false,"is_disabled":false,"rental_uris":{"android":"levelo://app?vid=ceb766f0-d391-46e8-8221-d34fbc4e12db","ios":"levelo://app?vid=ceb766f0-d391-46e8-8221-d34fbc4e12db"},"vehicle_type_id":"4","last_reported":1728947305,"current_range_meters":39200,"station_id":"chh1huq6cuj3fo74tm60","pricing_plan_id":"cebpf4jnsgd1na2vs0mg"},{"bike_id":"9e7b3ef3-9a33-4815-8174-d0946fd6d646","system_id":"levelo_inurba_marseille","lat":43.3108,"lon":5.38345,"is_reserved":false,"is_disabled":false,"rental_uris":{"android":"levelo://app?vid=9e7b3ef3-9a33-4815-8174-d0946fd6d646","ios":"levelo://app?vid=9e7b3ef3-9a33-4815-8174-d0946fd6d646"},"vehicle_type_id":"4","last_reported":1728947305,"current_range_meters":38000,"station_id":"ce4bgv92rcd13ifvqcr0","pricing_plan_id":"cebpf4jnsgd1na2vs0mg"},{"bike_id":"0e27d2a3-05c1-4ee1-8499-176b54a59476","system_id":"levelo_inurba_marseille","lat":43.29789,"lon":5.39341,"is_reserved":false,"is_disabled":false,"rental_uris":{"android":"levelo://app?vid=0e27d2a3-05c1-4ee1-8499-176b54a59476","ios":"levelo://app?vid=0e27d2a3-05c1-4ee1-8499-176b54a59476"},"vehicle_type_id":"4","last_reported":1728947305,"current_range_meters":38800,"station_id":"chh1huq6cuj3fo74tm60","pricing_plan_id":"cebpf4jnsgd1na2vs0mg"},{"bike_id":"8f0ddbae-438c-4d1f-9f27-4368934ce05e","system_id":"levelo_inurba_marseille","lat":43.305957,"lon":5.393547,"is_reserved":false,"is_disabled":false,"rental_uris":{"android":"levelo://app?vid=8f0ddbae-438c-4d1f-9f27-4368934ce05e","ios":"levelo://app?vid=8f0ddbae-438c-4d1f-9f27-4368934ce05e"},"vehicle_type_id":"4","last_reported":1728947305,"current_range_meters":37600,"station_id":"ce4bh0p2rcd13ifvqd80","pricing_plan_id":"cebpf4jnsgd1na2vs0mg"},{"bike_id":"aedc2950-8b7b-4e89-9368-59c434adb633","system_id":"levelo_inurba_marseille","lat":43.28267,"lon":5.35071,"is_reserved":false,"is_disabled":false,"rental_uris":{"android":"levelo://app?vid=aedc2950-8b7b-4e89-9368-59c434adb633","ios":"levelo://app?vid=aedc2950-8b7b-4e89-9368-59c434adb633"},"vehicle_type_id":"4","last_reported":1728947305,"current_range_meters":38800,"station_id":"ce4bhbp2rcd13ifvqerg","pricing_plan_id":"cebpf4jnsgd1na2vs0mg"},{"bike_id":"e0d609ec-d2fb-447a-aae2-ed2991c291e9","system_id":"levelo_inurba_marseille","lat":43.31169,"lon":5.38712,"is_reserved":false,"is_disabled":false,"rental_uris":{"android":"levelo://app?vid=e0d609ec-d2fb-447a-aae2-ed2991c291e9","ios":"levelo://app?vid=e0d609ec-d2fb-447a-aae2-ed2991c291e9"},"vehicle_type_id":"4","last_reported":1728947305,"current_range_meters":35600,"station_id":"ce4bgv12rcd13ifvqcp0","pricing_plan_id":"cebpf4jnsgd1na2vs0mg"},{"bike_id":"4fb899fb-c7f7-4299-8856-d588065fcc96","system_id":"levelo_inurba_marseille","lat":43.31727,"lon":5.42401,"is_reserved":false,"is_disabled":false,"rental_uris":{"android":"levelo://app?vid=4fb899fb-c7f7-4299-8856-d588065fcc96","ios":"levelo://app?vid=4fb899fb-c7f7-4299-8856-d588065fcc96"},"vehicle_type_id":"4","last_reported":1728947305,"current_range_meters":39200,"station_id":"ce4bhp92rcd13ifvqhbg","pricing_plan_id":"cebpf4jnsgd1na2vs0mg"},{"bike_id":"a741e10f-0759-49b0-af27-2a852c4aee52","system_id":"levelo_inurba_marseille","lat":43.32651,"lon":5.4099,"is_reserved":false,"is_disabled":false,"rental_uris":{"android":"levelo://app?vid=a741e10f-0759-49b0-af27-2a852c4aee52","ios":"levelo://app?vid=a741e10f-0759-49b0-af27-2a852c4aee52"},"vehicle_type_id":"4","last_reported":1728947305,"current_range_meters":38000,"station_id":"ce4bhpp2rcd13ifvqhgg","pricing_plan_id":"cebpf4jnsgd1na2vs0mg"},{"bike_id":"58f13e0b-f545-4df4-bc1f-4c6e95704afc","system_id":"levelo_inurba_marseille","lat":43.28416,"lon":5.37509,"is_reserved":false,"is_disabled":false,"rental_uris":{"android":"levelo://app?vid=58f13e0b-f545-4df4-bc1f-4c6e95704afc","ios":"levelo://app?vid=58f13e0b-f545-4df4-bc1f-4c6e95704afc"},"vehicle_type_id":"4","last_reported":1728947305,"current_range_meters":38400,"station_id":"ce4bh412rcd13ifvqds0","pricing_plan_id":"cebpf4jnsgd1na2vs0mg"},{"bike_id":"dfe8030c-37d8-4b9c-a9e4-185e78aae511","system_id":"levelo_inurba_marseille","lat":43.31762,"lon":5.39016,"is_reserved":false,"is_disabled":false,"rental_uris":{"android":"levelo://app?vid=dfe8030c-37d8-4b9c-a9e4-185e78aae511","ios":"levelo://app?vid=dfe8030c-37d8-4b9c-a9e4-185e78aae511"},"vehicle_type_id":"4","last_reported":1728947305,"current_range_meters":38800,"station_id":"ce4bhqp2rcd13ifvqhng","pricing_plan_id":"cebpf4jnsgd1na2vs0mg"},{"bike_id":"1c5b8ae7-786d-445b-b9e1-97874f67f0a3","system_id":"levelo_inurba_marseille","lat":43.30778,"lon":5.37648,"is_reserved":false,"is_disabled":false,"rental_uris":{"android":"levelo://app?vid=1c5b8ae7-786d-445b-b9e1-97874f67f0a3","ios":"levelo://app?vid=1c5b8ae7-786d-445b-b9e1-97874f67f0a3"},"vehicle_type_id":"4","last_reported":1728947305,"current_range_meters":39200,"station_id":"ce4bgv92rcd13ifvqcq0","pricing_plan_id":"cebpf4jnsgd1na2vs0mg"},{"bike_id":"5d12803c-19db-45e4-a857-1fff9be49f25","system_id":"levelo_inurba_marseille","lat":43.25927,"lon":5.40901,"is_reserved":false,"is_disabled":false,"rental_uris":{"android":"levelo://app?vid=5d12803c-19db-45e4-a857-1fff9be49f25","ios":"levelo://app?vid=5d12803c-19db-45e4-a857-1fff9be49f25"},"vehicle_type_id":"4","last_reported":1728947305,"current_range_meters":38800,"station_id":"ce4bhm92rcd13ifvqglg","pricing_plan_id":"cebpf4jnsgd1na2vs0mg"},{"bike_id":"009e1944-5320-46ff-a5bd-7f170a6cc59c","system_id":"levelo_inurba_marseille","lat":43.31076,"lon":5.38344,"is_reserved":false,"is_disabled":false,"rental_uris":{"android":"levelo://app?vid=009e1944-5320-46ff-a5bd-7f170a6cc59c","ios":"levelo://app?vid=009e1944-5320-46ff-a5bd-7f170a6cc59c"},"vehicle_type_id":"4","last_reported":1728947305,"current_range_meters":38800,"station_id":"ce4bgv92rcd13ifvqcr0","pricing_plan_id":"cebpf4jnsgd1na2vs0mg"},{"bike_id":"73f9a39c-7690-4438-b647-f6ccb95b7ed4","system_id":"levelo_inurba_marseille","lat":43.32481,"lon":5.36558,"is_reserved":false,"is_disabled":false,"rental_uris":{"android":"levelo://app?vid=73f9a39c-7690-4438-b647-f6ccb95b7ed4","ios":"levelo://app?vid=73f9a39c-7690-4438-b647-f6ccb95b7ed4"},"vehicle_type_id":"4","last_reported":1728947305,"current_range_meters":19600,"station_id":"ce4bhs12rcd13ifvqhvg","pricing_plan_id":"cebpf4jnsgd1na2vs0mg"},{"bike_id":"2c9ed3c2-8f06-4c6d-9374-4d34c0d3ad6b","system_id":"levelo_inurba_marseille","lat":43.32654,"lon":5.40993,"is_reserved":false,"is_disabled":false,"rental_uris":{"android":"levelo://app?vid=2c9ed3c2-8f06-4c6d-9374-4d34c0d3ad6b","ios":"levelo://app?vid=2c9ed3c2-8f06-4c6d-9374-4d34c0d3ad6b"},"vehicle_type_id":"4","last_reported":1728947305,"current_range_meters":28400,"station_id":"ce4bhpp2rcd13ifvqhgg","pricing_plan_id":"cebpf4jnsgd1na2vs0mg"},{"bike_id":"28462d19-e15d-41dd-bbef-77267e4be378","system_id":"levelo_inurba_marseille","lat":43.29261,"lon":5.40902,"is_reserved":false,"is_disabled":false,"rental_uris":{"android":"levelo://app?vid=28462d19-e15d-41dd-bbef-77267e4be378","ios":"levelo://app?vid=28462d19-e15d-41dd-bbef-77267e4be378"},"vehicle_type_id":"4","last_reported":1728947305,"current_range_meters":36000,"station_id":"ce4bh192rcd13ifvqdc0","pricing_plan_id":"cebpf4jnsgd1na2vs0mg"},{"bike_id":"c6cb8169-86d9-4979-b6d9-2235f845d6f0","system_id":"levelo_inurba_marseille","lat":43.31489,"lon":5.37306,"is_reserved":false,"is_disabled":false,"rental_uris":{"android":"levelo://app?vid=c6cb8169-86d9-4979-b6d9-2235f845d6f0","ios":"levelo://app?vid=c6cb8169-86d9-4979-b6d9-2235f845d6f0"},"vehicle_type_id":"4","last_reported":1728947305,"current_range_meters":39200,"station_id":"ce4bgt12rcd13ifvqcd0","pricing_plan_id":"cebpf4jnsgd1na2vs0mg"},{"bike_id":"a7ae970b-cce5-49a6-b53f-f9de983a8105","system_id":"levelo_inurba_marseille","lat":43.30646,"lon":5.40064,"is_reserved":false,"is_disabled":false,"rental_uris":{"android":"levelo://app?vid=a7ae970b-cce5-49a6-b53f-f9de983a8105","ios":"levelo://app?vid=a7ae970b-cce5-49a6-b53f-f9de983a8105"},"vehicle_type_id":"4","last_reported":1728947305,"current_range_meters":27200,"station_id":"ce4bh112rcd13ifvqda0","pricing_plan_id":"cebpf4jnsgd1na2vs0mg"},{"bike_id":"5292987e-66b0-490b-9008-873f9af3c4a1","system_id":"levelo_inurba_marseille","lat":43.25866,"lon":5.39895,"is_reserved":false,"is_disabled":false,"rental_uris":{"android":"levelo://app?vid=5292987e-66b0-490b-9008-873f9af3c4a1","ios":"levelo://app?vid=5292987e-66b0-490b-9008-873f9af3c4a1"},"vehicle_type_id":"4","last_reported":1728947305,"current_range_meters":38800,"station_id":"ce4bhl92rcd13ifvqghg","pricing_plan_id":"cebpf4jnsgd1na2vs0mg"},{"bike_id":"1c9343e4-7b78-402e-b1fe-6599c269887e","system_id":"levelo_inurba_marseille","lat":43.314515,"lon":5.37384,"is_reserved":false,"is_disabled":false,"rental_uris":{"android":"levelo://app?vid=1c9343e4-7b78-402e-b1fe-6599c269887e","ios":"levelo://app?vid=1c9343e4-7b78-402e-b1fe-6599c269887e"},"vehicle_type_id":"4","last_reported":1728947305,"current_range_meters":26000,"station_id":"","pricing_plan_id":"cebpf4jnsgd1na2vs0mg"},{"bike_id":"b42f2c24-44ff-457a-9a5c-112549c7964a","system_id":"levelo_inurba_marseille","lat":43.25115,"lon":5.40318,"is_reserved":false,"is_disabled":false,"rental_uris":{"android":"levelo://app?vid=b42f2c24-44ff-457a-9a5c-112549c7964a","ios":"levelo://app?vid=b42f2c24-44ff-457a-9a5c-112549c7964a"},"vehicle_type_id":"4","last_reported":1728947305,"current_range_meters":38400,"station_id":"ce4bhlh2rcd13ifvqgig","pricing_plan_id":"cebpf4jnsgd1na2vs0mg"},{"bike_id":"910c855f-7d14-4ff8-96a2-5fe4318a9225","system_id":"levelo_inurba_marseille","lat":43.30462,"lon":5.37905,"is_reserved":false,"is_disabled":false,"rental_uris":{"android":"levelo://app?vid=910c855f-7d14-4ff8-96a2-5fe4318a9225","ios":"levelo://app?vid=910c855f-7d14-4ff8-96a2-5fe4318a9225"},"vehicle_type_id":"4","last_reported":1728947305,"current_range_meters":38800,"station_id":"ce4bgup2rcd13ifvqcn0","pricing_plan_id":"cebpf4jnsgd1na2vs0mg"},{"bike_id":"0f436496-4da5-49a1-8b18-624ffd1d6246","system_id":"levelo_inurba_marseille","lat":43.28465,"lon":5.35892,"is_reserved":false,"is_disabled":false,"rental_uris":{"android":"levelo://app?vid=0f436496-4da5-49a1-8b18-624ffd1d6246","ios":"levelo://app?vid=0f436496-4da5-49a1-8b18-624ffd1d6246"},"vehicle_type_id":"4","last_reported":1728947305,"current_range_meters":35200,"station_id":"ce4bhah2rcd13ifvqei0","pricing_plan_id":"cebpf4jnsgd1na2vs0mg"},{"bike_id":"5d474d0f-c59b-4278-ac35-6201f553535f","system_id":"levelo_inurba_marseille","lat":43.29633,"lon":5.40594,"is_reserved":false,"is_disabled":false,"rental_uris":{"android":"levelo://app?vid=5d474d0f-c59b-4278-ac35-6201f553535f","ios":"levelo://app?vid=5d474d0f-c59b-4278-ac35-6201f553535f"},"vehicle_type_id":"4","last_reported":1728947305,"current_range_meters":22000,"station_id":"ce4bh0h2rcd13ifvqd60","pricing_plan_id":"cebpf4jnsgd1na2vs0mg"},{"bike_id":"23d8bd7c-2dd6-4dbc-8138-b2a4ac4b4b56","system_id":"levelo_inurba_marseille","lat":43.31525,"lon":5.38035,"is_reserved":false,"is_disabled":false,"rental_uris":{"android":"levelo://app?vid=23d8bd7c-2dd6-4dbc-8138-b2a4ac4b4b56","ios":"levelo://app?vid=23d8bd7c-2dd6-4dbc-8138-b2a4ac4b4b56"},"vehicle_type_id":"4","last_reported":1728947305,"current_range_meters":38800,"station_id":"ce4bhsp2rcd13ifvqi50","pricing_plan_id":"cebpf4jnsgd1na2vs0mg"},{"bike_id":"450b6619-f61c-44d3-94c7-1e54a9312474","system_id":"levelo_inurba_marseille","lat":43.31116,"lon":5.37759,"is_reserved":false,"is_disabled":false,"rental_uris":{"android":"levelo://app?vid=450b6619-f61c-44d3-94c7-1e54a9312474","ios":"levelo://app?vid=450b6619-f61c-44d3-94c7-1e54a9312474"},"vehicle_type_id":"4","last_reported":1728947305,"current_range_meters":36400,"station_id":"ce4bgt92rcd13ifvqcg0","pricing_plan_id":"cebpf4jnsgd1na2vs0mg"},{"bike_id":"725cf1f1-c36f-4257-98d4-57b786bdb67f","system_id":"levelo_inurba_marseille","lat":43.24649,"lon":5.38881,"is_reserved":false,"is_disabled":false,"rental_uris":{"android":"levelo://app?vid=725cf1f1-c36f-4257-98d4-57b786bdb67f","ios":"levelo://app?vid=725cf1f1-c36f-4257-98d4-57b786bdb67f"},"vehicle_type_id":"4","last_reported":1728947305,"current_range_meters":38400,"station_id":"ce4bhg12rcd13ifvqf60","pricing_plan_id":"cebpf4jnsgd1na2vs0mg"},{"bike_id":"b35fcd0d-0b0b-4c33-b438-02cf58ed0ee3","system_id":"levelo_inurba_marseille","lat":43.27574,"lon":5.3842,"is_reserved":false,"is_disabled":false,"rental_uris":{"android":"levelo://app?vid=b35fcd0d-0b0b-4c33-b438-02cf58ed0ee3","ios":"levelo://app?vid=b35fcd0d-0b0b-4c33-b438-02cf58ed0ee3"},"vehicle_type_id":"4","last_reported":1728947305,"current_range_meters":39200,"station_id":"ce4bhh92rcd13ifvqfi0","pricing_plan_id":"cebpf4jnsgd1na2vs0mg"},{"bike_id":"66af5183-0557-40c9-85f5-ba2be7d23599","system_id":"levelo_inurba_marseille","lat":43.29979,"lon":5.37176,"is_reserved":false,"is_disabled":false,"rental_uris":{"android":"levelo://app?vid=66af5183-0557-40c9-85f5-ba2be7d23599","ios":"levelo://app?vid=66af5183-0557-40c9-85f5-ba2be7d23599"},"vehicle_type_id":"4","last_reported":1728947305,"current_range_meters":38400,"station_id":"ce4bgr92rcd13ifvqc7g","pricing_plan_id":"cebpf4jnsgd1na2vs0mg"},{"bike_id":"0aa0a823-4192-4039-a41f-8b7be20c611d","system_id":"levelo_inurba_marseille","lat":43.31496,"lon":5.373,"is_reserved":false,"is_disabled":false,"rental_uris":{"android":"levelo://app?vid=0aa0a823-4192-4039-a41f-8b7be20c611d","ios":"levelo://app?vid=0aa0a823-4192-4039-a41f-8b7be20c611d"},"vehicle_type_id":"4","last_reported":1728947305,"current_range_meters":10000,"station_id":"ce4bgt12rcd13ifvqcd0","pricing_plan_id":"cebpf4jnsgd1na2vs0mg"},{"bike_id":"05a48c1f-8542-4604-801f-8bcad6213878","system_id":"levelo_inurba_marseille","lat":43.34139,"lon":5.40896,"is_reserved":false,"is_disabled":false,"rental_uris":{"android":"levelo://app?vid=05a48c1f-8542-4604-801f-8bcad6213878","ios":"levelo://app?vid=05a48c1f-8542-4604-801f-8bcad6213878"},"vehicle_type_id":"4","last_reported":1728947305,"current_range_meters":19200,"station_id":"ce4bhqh2rcd13ifvqhlg","pricing_plan_id":"cebpf4jnsgd1na2vs0mg"},{"bike_id":"2b85a6e0-def7-4a19-ab1f-dffd44eebd82","system_id":"levelo_inurba_marseille","lat":43.32364,"lon":5.38874,"is_reserved":false,"is_disabled":false,"rental_uris":{"android":"levelo://app?vid=2b85a6e0-def7-4a19-ab1f-dffd44eebd82","ios":"levelo://app?vid=2b85a6e0-def7-4a19-ab1f-dffd44eebd82"},"vehicle_type_id":"4","last_reported":1728947305,"current_range_meters":12400,"station_id":"ce4bhqp2rcd13ifvqhog","pricing_plan_id":"cebpf4jnsgd1na2vs0mg"},{"bike_id":"b33fb764-46a4-49bb-8826-da12c1c9f740","system_id":"levelo_inurba_marseille","lat":43.287,"lon":5.37402,"is_reserved":false,"is_disabled":false,"rental_uris":{"android":"levelo://app?vid=b33fb764-46a4-49bb-8826-da12c1c9f740","ios":"levelo://app?vid=b33fb764-46a4-49bb-8826-da12c1c9f740"},"vehicle_type_id":"4","last_reported":1728947305,"current_range_meters":26000,"station_id":"ce4bh3p2rcd13ifvqdq0","pricing_plan_id":"cebpf4jnsgd1na2vs0mg"},{"bike_id":"02d20c80-1832-49a8-b20c-d886b909e3b2","system_id":"levelo_inurba_marseille","lat":43.2926,"lon":5.40912,"is_reserved":false,"is_disabled":false,"rental_uris":{"android":"levelo://app?vid=02d20c80-1832-49a8-b20c-d886b909e3b2","ios":"levelo://app?vid=02d20c80-1832-49a8-b20c-d886b909e3b2"},"vehicle_type_id":"4","last_reported":1728947305,"current_range_meters":35600,"station_id":"ce4bh192rcd13ifvqdc0","pricing_plan_id":"cebpf4jnsgd1na2vs0mg"},{"bike_id":"1eb0d291-c980-43c3-897c-b678fe3f7bcf","system_id":"levelo_inurba_marseille","lat":43.32343,"lon":5.40624,"is_reserved":false,"is_disabled":false,"rental_uris":{"android":"levelo://app?vid=1eb0d291-c980-43c3-897c-b678fe3f7bcf","ios":"levelo://app?vid=1eb0d291-c980-43c3-897c-b678fe3f7bcf"},"vehicle_type_id":"4","last_reported":1728947305,"current_range_meters":33600,"station_id":"ce4bhq92rcd13ifvqhjg","pricing_plan_id":"cebpf4jnsgd1na2vs0mg"},{"bike_id":"8fdd4147-e848-49f0-9c54-870bdb6cb1f5","system_id":"levelo_inurba_marseille","lat":43.33599,"lon":5.4102,"is_reserved":false,"is_disabled":false,"rental_uris":{"android":"levelo://app?vid=8fdd4147-e848-49f0-9c54-870bdb6cb1f5","ios":"levelo://app?vid=8fdd4147-e848-49f0-9c54-870bdb6cb1f5"},"vehicle_type_id":"4","last_reported":1728947305,"current_range_meters":37600,"station_id":"ce4bhqh2rcd13ifvqhmg","pricing_plan_id":"cebpf4jnsgd1na2vs0mg"},{"bike_id":"16108f92-6bb6-4625-8e86-043bb5e3efc3","system_id":"levelo_inurba_marseille","lat":43.33595,"lon":5.41023,"is_reserved":false,"is_disabled":false,"rental_uris":{"android":"levelo://app?vid=16108f92-6bb6-4625-8e86-043bb5e3efc3","ios":"levelo://app?vid=16108f92-6bb6-4625-8e86-043bb5e3efc3"},"vehicle_type_id":"4","last_reported":1728947305,"current_range_meters":24800,"station_id":"ce4bhqh2rcd13ifvqhmg","pricing_plan_id":"cebpf4jnsgd1na2vs0mg"},{"bike_id":"38f8e82f-b32d-4209-9f63-50ee9fadf9e5","system_id":"levelo_inurba_marseille","lat":43.27067,"lon":5.42274,"is_reserved":false,"is_disabled":false,"rental_uris":{"android":"levelo://app?vid=38f8e82f-b32d-4209-9f63-50ee9fadf9e5","ios":"levelo://app?vid=38f8e82f-b32d-4209-9f63-50ee9fadf9e5"},"vehicle_type_id":"4","last_reported":1728947305,"current_range_meters":26800,"station_id":"ce4bhk92rcd13ifvqgb0","pricing_plan_id":"cebpf4jnsgd1na2vs0mg"},{"bike_id":"fdfebcf8-fb17-4b40-8a78-d74a03d62b1a","system_id":"levelo_inurba_marseille","lat":43.23177,"lon":5.39991,"is_reserved":false,"is_disabled":false,"rental_uris":{"android":"levelo://app?vid=fdfebcf8-fb17-4b40-8a78-d74a03d62b1a","ios":"levelo://app?vid=fdfebcf8-fb17-4b40-8a78-d74a03d62b1a"},"vehicle_type_id":"4","last_reported":1728947305,"current_range_meters":29600,"station_id":"ce4bhn12rcd13ifvqgqg","pricing_plan_id":"cebpf4jnsgd1na2vs0mg"},{"bike_id":"4acaa12a-59a0-401c-a35a-9d542ce22a01","system_id":"levelo_inurba_marseille","lat":43.29888,"lon":5.43659,"is_reserved":false,"is_disabled":false,"rental_uris":{"android":"levelo://app?vid=4acaa12a-59a0-401c-a35a-9d542ce22a01","ios":"levelo://app?vid=4acaa12a-59a0-401c-a35a-9d542ce22a01"},"vehicle_type_id":"4","last_reported":1728947305,"current_range_meters":33200,"station_id":"ce4bhpp2rcd13ifvqhfg","pricing_plan_id":"cebpf4jnsgd1na2vs0mg"},{"bike_id":"27521189-a10b-488a-82b8-973812fa95e1","system_id":"levelo_inurba_marseille","lat":43.3249,"lon":5.36567,"is_reserved":false,"is_disabled":false,"rental_uris":{"android":"levelo://app?vid=27521189-a10b-488a-82b8-973812fa95e1","ios":"levelo://app?vid=27521189-a10b-488a-82b8-973812fa95e1"},"vehicle_type_id":"4","last_reported":1728947305,"current_range_meters":38400,"station_id":"ce4bhs12rcd13ifvqhvg","pricing_plan_id":"cebpf4jnsgd1na2vs0mg"},{"bike_id":"de247580-7b42-44b2-91cb-98260b1c6640","system_id":"levelo_inurba_marseille","lat":43.3089,"lon":5.39626,"is_reserved":false,"is_disabled":false,"rental_uris":{"android":"levelo://app?vid=de247580-7b42-44b2-91cb-98260b1c6640","ios":"levelo://app?vid=de247580-7b42-44b2-91cb-98260b1c6640"},"vehicle_type_id":"4","last_reported":1728947305,"current_range_meters":38000,"station_id":"ce4bh012rcd13ifvqcv0","pricing_plan_id":"cebpf4jnsgd1na2vs0mg"},{"bike_id":"2bfab616-519d-4176-be5e-18a9df497326","system_id":"levelo_inurba_marseille","lat":43.29975,"lon":5.38486,"is_reserved":false,"is_disabled":false,"rental_uris":{"android":"levelo://app?vid=2bfab616-519d-4176-be5e-18a9df497326","ios":"levelo://app?vid=2bfab616-519d-4176-be5e-18a9df497326"},"vehicle_type_id":"4","last_reported":1728947305,"current_range_meters":17200,"station_id":"ce4bgj92rcd13ifvqbd0","pricing_plan_id":"cebpf4jnsgd1na2vs0mg"},{"bike_id":"9db40ddd-438c-4b3e-acd4-f19cdf6b8d2b","system_id":"levelo_inurba_marseille","lat":43.24806,"lon":5.37455,"is_reserved":false,"is_disabled":false,"rental_uris":{"android":"levelo://app?vid=9db40ddd-438c-4b3e-acd4-f19cdf6b8d2b","ios":"levelo://app?vid=9db40ddd-438c-4b3e-acd4-f19cdf6b8d2b"},"vehicle_type_id":"4","last_reported":1728947305,"current_range_meters":32800,"station_id":"ce4bhgh2rcd13ifvqfb0","pricing_plan_id":"cebpf4jnsgd1na2vs0mg"},{"bike_id":"5724a621-30fc-4cf9-b14f-4b747b3dff4a","system_id":"levelo_inurba_marseille","lat":43.24661,"lon":5.38159,"is_reserved":false,"is_disabled":false,"rental_uris":{"android":"levelo://app?vid=5724a621-30fc-4cf9-b14f-4b747b3dff4a","ios":"levelo://app?vid=5724a621-30fc-4cf9-b14f-4b747b3dff4a"},"vehicle_type_id":"4","last_reported":1728947305,"current_range_meters":38800,"station_id":"ce4bhih2rcd13ifvqfr0","pricing_plan_id":"cebpf4jnsgd1na2vs0mg"},{"bike_id":"09a2e575-ef21-47f1-afdd-66b4617de5a0","system_id":"levelo_inurba_marseille","lat":43.28077,"lon":5.39658,"is_reserved":false,"is_disabled":false,"rental_uris":{"android":"levelo://app?vid=09a2e575-ef21-47f1-afdd-66b4617de5a0","ios":"levelo://app?vid=09a2e575-ef21-47f1-afdd-66b4617de5a0"},"vehicle_type_id":"4","last_reported":1728947305,"current_range_meters":39200,"station_id":"ce4bho12rcd13ifvqh2g","pricing_plan_id":"cebpf4jnsgd1na2vs0mg"},{"bike_id":"43fd3bc4-3630-4734-886b-08173f43e52c","system_id":"levelo_inurba_marseille","lat":43.29526,"lon":5.39404,"is_reserved":false,"is_disabled":false,"rental_uris":{"android":"levelo://app?vid=43fd3bc4-3630-4734-886b-08173f43e52c","ios":"levelo://app?vid=43fd3bc4-3630-4734-886b-08173f43e52c"},"vehicle_type_id":"4","last_reported":1728947305,"current_range_meters":20000,"station_id":"ce4bh292rcd13ifvqdf0","pricing_plan_id":"cebpf4jnsgd1na2vs0mg"},{"bike_id":"70700c70-fa0c-4308-8c61-fb4893e7da37","system_id":"levelo_inurba_marseille","lat":43.30416,"lon":5.41281,"is_reserved":false,"is_disabled":false,"rental_uris":{"android":"levelo://app?vid=70700c70-fa0c-4308-8c61-fb4893e7da37","ios":"levelo://app?vid=70700c70-fa0c-4308-8c61-fb4893e7da37"},"vehicle_type_id":"4","last_reported":1728947305,"current_range_meters":36800,"station_id":"ce4bhop2rcd13ifvqh8g","pricing_plan_id":"cebpf4jnsgd1na2vs0mg"},{"bike_id":"4482dbd3-0d31-4b43-bbd3-5cfbb130291d","system_id":"levelo_inurba_marseille","lat":43.231897,"lon":5.355458,"is_reserved":false,"is_disabled":false,"rental_uris":{"android":"levelo://app?vid=4482dbd3-0d31-4b43-bbd3-5cfbb130291d","ios":"levelo://app?vid=4482dbd3-0d31-4b43-bbd3-5cfbb130291d"},"vehicle_type_id":"4","last_reported":1728947305,"current_range_meters":3200,"station_id":"ce4bhu92rcd13ifvqi70","pricing_plan_id":"cebpf4jnsgd1na2vs0mg"},{"bike_id":"cdca2df9-6111-42b2-ad4d-c05555c959cf","system_id":"levelo_inurba_marseille","lat":43.30181,"lon":5.36608,"is_reserved":false,"is_disabled":false,"rental_uris":{"android":"levelo://app?vid=cdca2df9-6111-42b2-ad4d-c05555c959cf","ios":"levelo://app?vid=cdca2df9-6111-42b2-ad4d-c05555c959cf"},"vehicle_type_id":"4","last_reported":1728947305,"current_range_meters":37600,"station_id":"ce4bgrh2rcd13ifvqc8g","pricing_plan_id":"cebpf4jnsgd1na2vs0mg"},{"bike_id":"c3d7c0eb-3d86-4cb2-9661-09e5ae2b8029","system_id":"levelo_inurba_marseille","lat":43.279049,"lon":5.38009,"is_reserved":false,"is_disabled":false,"rental_uris":{"android":"levelo://app?vid=c3d7c0eb-3d86-4cb2-9661-09e5ae2b8029","ios":"levelo://app?vid=c3d7c0eb-3d86-4cb2-9661-09e5ae2b8029"},"vehicle_type_id":"4","last_reported":1728947305,"current_range_meters":38000,"station_id":"ce4bhf92rcd13ifvqf50","pricing_plan_id":"cebpf4jnsgd1na2vs0mg"},{"bike_id":"11961461-44e3-464d-b597-7f76cd80ed83","system_id":"levelo_inurba_marseille","lat":43.32659,"lon":5.40988,"is_reserved":false,"is_disabled":false,"rental_uris":{"android":"levelo://app?vid=11961461-44e3-464d-b597-7f76cd80ed83","ios":"levelo://app?vid=11961461-44e3-464d-b597-7f76cd80ed83"},"vehicle_type_id":"4","last_reported":1728947305,"current_range_meters":20000,"station_id":"ce4bhpp2rcd13ifvqhgg","pricing_plan_id":"cebpf4jnsgd1na2vs0mg"},{"bike_id":"d68a13a4-a346-4048-9044-ed61653ff321","system_id":"levelo_inurba_marseille","lat":43.32656,"lon":5.40987,"is_reserved":false,"is_disabled":false,"rental_uris":{"android":"levelo://app?vid=d68a13a4-a346-4048-9044-ed61653ff321","ios":"levelo://app?vid=d68a13a4-a346-4048-9044-ed61653ff321"},"vehicle_type_id":"4","last_reported":1728947305,"current_range_meters":38000,"station_id":"ce4bhpp2rcd13ifvqhgg","pricing_plan_id":"cebpf4jnsgd1na2vs0mg"},{"bike_id":"a7ac06c3-430e-48f4-9ad6-5a0061e134a2","system_id":"levelo_inurba_marseille","lat":43.29257,"lon":5.40902,"is_reserved":false,"is_disabled":false,"rental_uris":{"android":"levelo://app?vid=a7ac06c3-430e-48f4-9ad6-5a0061e134a2","ios":"levelo://app?vid=a7ac06c3-430e-48f4-9ad6-5a0061e134a2"},"vehicle_type_id":"4","last_reported":1728947305,"current_range_meters":17600,"station_id":"ce4bh192rcd13ifvqdc0","pricing_plan_id":"cebpf4jnsgd1na2vs0mg"},{"bike_id":"7788dc4b-4f54-41ed-a1d3-a1984d58b388","system_id":"levelo_inurba_marseille","lat":43.28617,"lon":5.35106,"is_reserved":false,"is_disabled":false,"rental_uris":{"android":"levelo://app?vid=7788dc4b-4f54-41ed-a1d3-a1984d58b388","ios":"levelo://app?vid=7788dc4b-4f54-41ed-a1d3-a1984d58b388"},"vehicle_type_id":"4","last_reported":1728947305,"current_range_meters":38400,"station_id":"ce4bhch2rcd13ifvqeug","pricing_plan_id":"cebpf4jnsgd1na2vs0mg"},{"bike_id":"e8fd743b-6305-49f6-9cda-5da5f3b2104d","system_id":"levelo_inurba_marseille","lat":43.25114,"lon":5.40321,"is_reserved":false,"is_disabled":false,"rental_uris":{"android":"levelo://app?vid=e8fd743b-6305-49f6-9cda-5da5f3b2104d","ios":"levelo://app?vid=e8fd743b-6305-49f6-9cda-5da5f3b2104d"},"vehicle_type_id":"4","last_reported":1728947305,"current_range_meters":39200,"station_id":"ce4bhlh2rcd13ifvqgig","pricing_plan_id":"cebpf4jnsgd1na2vs0mg"},{"bike_id":"2cae58b0-1d09-4f39-9486-738f0cc9e4a7","system_id":"levelo_inurba_marseille","lat":43.26052,"lon":5.39391,"is_reserved":false,"is_disabled":false,"rental_uris":{"android":"levelo://app?vid=2cae58b0-1d09-4f39-9486-738f0cc9e4a7","ios":"levelo://app?vid=2cae58b0-1d09-4f39-9486-738f0cc9e4a7"},"vehicle_type_id":"4","last_reported":1728947305,"current_range_meters":38800,"station_id":"ce4bhh92rcd13ifvqfj0","pricing_plan_id":"cebpf4jnsgd1na2vs0mg"},{"bike_id":"995213a4-b0e8-4737-b0b6-5f59e564978e","system_id":"levelo_inurba_marseille","lat":43.33603,"lon":5.41025,"is_reserved":false,"is_disabled":false,"rental_uris":{"android":"levelo://app?vid=995213a4-b0e8-4737-b0b6-5f59e564978e","ios":"levelo://app?vid=995213a4-b0e8-4737-b0b6-5f59e564978e"},"vehicle_type_id":"4","last_reported":1728947305,"current_range_meters":12400,"station_id":"ce4bhqh2rcd13ifvqhmg","pricing_plan_id":"cebpf4jnsgd1na2vs0mg"},{"bike_id":"b178b062-35cd-4f92-91db-f4ae171fe0ea","system_id":"levelo_inurba_marseille","lat":43.292851,"lon":5.368404,"is_reserved":false,"is_disabled":false,"rental_uris":{"android":"levelo://app?vid=b178b062-35cd-4f92-91db-f4ae171fe0ea","ios":"levelo://app?vid=b178b062-35cd-4f92-91db-f4ae171fe0ea"},"vehicle_type_id":"4","last_reported":1728947305,"current_range_meters":12400,"station_id":"","pricing_plan_id":"cebpf4jnsgd1na2vs0mg"},{"bike_id":"252d1b20-655d-4314-9684-3fb736d1a505","system_id":"levelo_inurba_marseille","lat":43.30885,"lon":5.39635,"is_reserved":false,"is_disabled":false,"rental_uris":{"android":"levelo://app?vid=252d1b20-655d-4314-9684-3fb736d1a505","ios":"levelo://app?vid=252d1b20-655d-4314-9684-3fb736d1a505"},"vehicle_type_id":"4","last_reported":1728947305,"current_range_meters":38400,"station_id":"ce4bh012rcd13ifvqcv0","pricing_plan_id":"cebpf4jnsgd1na2vs0mg"},{"bike_id":"d302fb41-2c47-4a95-b7f9-3d90b4fa95cf","system_id":"levelo_inurba_marseille","lat":43.26558,"lon":5.37287,"is_reserved":false,"is_disabled":false,"rental_uris":{"android":"levelo://app?vid=d302fb41-2c47-4a95-b7f9-3d90b4fa95cf","ios":"levelo://app?vid=d302fb41-2c47-4a95-b7f9-3d90b4fa95cf"},"vehicle_type_id":"4","last_reported":1728947305,"current_range_meters":18000,"station_id":"ce4bhg12rcd13ifvqf70","pricing_plan_id":"cebpf4jnsgd1na2vs0mg"},{"bike_id":"b17bd6a0-4c14-4c8c-96d0-fdc1bec84ba5","system_id":"levelo_inurba_marseille","lat":43.31071,"lon":5.38354,"is_reserved":false,"is_disabled":false,"rental_uris":{"android":"levelo://app?vid=b17bd6a0-4c14-4c8c-96d0-fdc1bec84ba5","ios":"levelo://app?vid=b17bd6a0-4c14-4c8c-96d0-fdc1bec84ba5"},"vehicle_type_id":"4","last_reported":1728947305,"current_range_meters":10800,"station_id":"ce4bgv92rcd13ifvqcr0","pricing_plan_id":"cebpf4jnsgd1na2vs0mg"},{"bike_id":"a0004b86-0108-4a59-8420-8474f739e195","system_id":"levelo_inurba_marseille","lat":43.31757,"lon":5.39022,"is_reserved":false,"is_disabled":false,"rental_uris":{"android":"levelo://app?vid=a0004b86-0108-4a59-8420-8474f739e195","ios":"levelo://app?vid=a0004b86-0108-4a59-8420-8474f739e195"},"vehicle_type_id":"4","last_reported":1728947305,"current_range_meters":38000,"station_id":"ce4bhqp2rcd13ifvqhng","pricing_plan_id":"cebpf4jnsgd1na2vs0mg"},{"bike_id":"c0670d96-b06e-446b-a07e-6b5eeebc59d7","system_id":"levelo_inurba_marseille","lat":43.274948,"lon":5.424466,"is_reserved":false,"is_disabled":false,"rental_uris":{"android":"levelo://app?vid=c0670d96-b06e-446b-a07e-6b5eeebc59d7","ios":"levelo://app?vid=c0670d96-b06e-446b-a07e-6b5eeebc59d7"},"vehicle_type_id":"4","last_reported":1728947305,"current_range_meters":14800,"station_id":"ce4bhn92rcd13ifvqgrg","pricing_plan_id":"cebpf4jnsgd1na2vs0mg"},{"bike_id":"fc75fa28-69db-4cb3-85fb-3c7ea9927cfe","system_id":"levelo_inurba_marseille","lat":43.24667,"lon":5.3816,"is_reserved":false,"is_disabled":false,"rental_uris":{"android":"levelo://app?vid=fc75fa28-69db-4cb3-85fb-3c7ea9927cfe","ios":"levelo://app?vid=fc75fa28-69db-4cb3-85fb-3c7ea9927cfe"},"vehicle_type_id":"4","last_reported":1728947305,"current_range_meters":18000,"station_id":"ce4bhih2rcd13ifvqfr0","pricing_plan_id":"cebpf4jnsgd1na2vs0mg"},{"bike_id":"aa6f8b46-b3a2-4381-9f2b-74e08e3afb96","system_id":"levelo_inurba_marseille","lat":43.29277,"lon":5.40123,"is_reserved":false,"is_disabled":false,"rental_uris":{"android":"levelo://app?vid=aa6f8b46-b3a2-4381-9f2b-74e08e3afb96","ios":"levelo://app?vid=aa6f8b46-b3a2-4381-9f2b-74e08e3afb96"},"vehicle_type_id":"4","last_reported":1728947305,"current_range_meters":38800,"station_id":"ce4bh312rcd13ifvqdk0","pricing_plan_id":"cebpf4jnsgd1na2vs0mg"},{"bike_id":"66f19c86-2913-454e-ad63-aada6244fa0f","system_id":"levelo_inurba_marseille","lat":43.30959,"lon":5.39041,"is_reserved":false,"is_disabled":false,"rental_uris":{"android":"levelo://app?vid=66f19c86-2913-454e-ad63-aada6244fa0f","ios":"levelo://app?vid=66f19c86-2913-454e-ad63-aada6244fa0f"},"vehicle_type_id":"4","last_reported":1728947305,"current_range_meters":38000,"station_id":"ce4bgup2rcd13ifvqco0","pricing_plan_id":"cebpf4jnsgd1na2vs0mg"},{"bike_id":"a0d3d324-fa7e-4417-aee7-85012ecab44e","system_id":"levelo_inurba_marseille","lat":43.3421,"lon":5.44547,"is_reserved":false,"is_disabled":false,"rental_uris":{"android":"levelo://app?vid=a0d3d324-fa7e-4417-aee7-85012ecab44e","ios":"levelo://app?vid=a0d3d324-fa7e-4417-aee7-85012ecab44e"},"vehicle_type_id":"4","last_reported":1728947305,"current_range_meters":26000,"station_id":"","pricing_plan_id":"cebpf4jnsgd1na2vs0mg"},{"bike_id":"724c8533-6c2a-4d58-9645-9dc7cc8cde49","system_id":"levelo_inurba_marseille","lat":43.27179,"lon":5.40996,"is_reserved":false,"is_disabled":false,"rental_uris":{"android":"levelo://app?vid=724c8533-6c2a-4d58-9645-9dc7cc8cde49","ios":"levelo://app?vid=724c8533-6c2a-4d58-9645-9dc7cc8cde49"},"vehicle_type_id":"4","last_reported":1728947305,"current_range_meters":38800,"station_id":"ce4bhl12rcd13ifvqgf0","pricing_plan_id":"cebpf4jnsgd1na2vs0mg"},{"bike_id":"16b07e6e-ae2a-4eb8-8bb1-c71380449afb","system_id":"levelo_inurba_marseille","lat":43.30544,"lon":5.38424,"is_reserved":false,"is_disabled":false,"rental_uris":{"android":"levelo://app?vid=16b07e6e-ae2a-4eb8-8bb1-c71380449afb","ios":"levelo://app?vid=16b07e6e-ae2a-4eb8-8bb1-c71380449afb"},"vehicle_type_id":"4","last_reported":1728947305,"current_range_meters":26800,"station_id":"ce4bgg92rcd13ifvqb30","pricing_plan_id":"cebpf4jnsgd1na2vs0mg"},{"bike_id":"9b4cc07a-8e06-4f52-bccc-0f5b961a7294","system_id":"levelo_inurba_marseille","lat":43.24171,"lon":5.39723,"is_reserved":false,"is_disabled":false,"rental_uris":{"android":"levelo://app?vid=9b4cc07a-8e06-4f52-bccc-0f5b961a7294","ios":"levelo://app?vid=9b4cc07a-8e06-4f52-bccc-0f5b961a7294"},"vehicle_type_id":"4","last_reported":1728947305,"current_range_meters":26800,"station_id":"ce4bhn12rcd13ifvqgpg","pricing_plan_id":"cebpf4jnsgd1na2vs0mg"},{"bike_id":"6a6e8901-7cf8-4ec1-b6aa-3e523137d174","system_id":"levelo_inurba_marseille","lat":43.31176,"lon":5.38712,"is_reserved":false,"is_disabled":false,"rental_uris":{"android":"levelo://app?vid=6a6e8901-7cf8-4ec1-b6aa-3e523137d174","ios":"levelo://app?vid=6a6e8901-7cf8-4ec1-b6aa-3e523137d174"},"vehicle_type_id":"4","last_reported":1728947305,"current_range_meters":8800,"station_id":"ce4bgv12rcd13ifvqcp0","pricing_plan_id":"cebpf4jnsgd1na2vs0mg"},{"bike_id":"644810b7-5229-4f71-9575-acaadc738537","system_id":"levelo_inurba_marseille","lat":43.29878,"lon":5.38911,"is_reserved":false,"is_disabled":false,"rental_uris":{"android":"levelo://app?vid=644810b7-5229-4f71-9575-acaadc738537","ios":"levelo://app?vid=644810b7-5229-4f71-9575-acaadc738537"},"vehicle_type_id":"4","last_reported":1728947305,"current_range_meters":17200,"station_id":"ce4bh392rcd13ifvqdl0","pricing_plan_id":"cebpf4jnsgd1na2vs0mg"},{"bike_id":"824a3c57-a86d-4866-a35a-8bc228d11bd0","system_id":"levelo_inurba_marseille","lat":43.29029,"lon":5.38638,"is_reserved":false,"is_disabled":false,"rental_uris":{"android":"levelo://app?vid=824a3c57-a86d-4866-a35a-8bc228d11bd0","ios":"levelo://app?vid=824a3c57-a86d-4866-a35a-8bc228d11bd0"},"vehicle_type_id":"4","last_reported":1728947305,"current_range_meters":26000,"station_id":"ce4bh4p2rcd13ifvqe0g","pricing_plan_id":"cebpf4jnsgd1na2vs0mg"},{"bike_id":"9cbbe67b-d607-4d6c-8ade-aa1c5d82f4ea","system_id":"levelo_inurba_marseille","lat":43.25111,"lon":5.4033,"is_reserved":false,"is_disabled":false,"rental_uris":{"android":"levelo://app?vid=9cbbe67b-d607-4d6c-8ade-aa1c5d82f4ea","ios":"levelo://app?vid=9cbbe67b-d607-4d6c-8ade-aa1c5d82f4ea"},"vehicle_type_id":"4","last_reported":1728947305,"current_range_meters":38800,"station_id":"ce4bhlh2rcd13ifvqgig","pricing_plan_id":"cebpf4jnsgd1na2vs0mg"},{"bike_id":"d3e7b90d-b6d9-4822-af46-f8fcdffef043","system_id":"levelo_inurba_marseille","lat":43.29522,"lon":5.39399,"is_reserved":false,"is_disabled":false,"rental_uris":{"android":"levelo://app?vid=d3e7b90d-b6d9-4822-af46-f8fcdffef043","ios":"levelo://app?vid=d3e7b90d-b6d9-4822-af46-f8fcdffef043"},"vehicle_type_id":"4","last_reported":1728947305,"current_range_meters":38800,"station_id":"ce4bh292rcd13ifvqdf0","pricing_plan_id":"cebpf4jnsgd1na2vs0mg"},{"bike_id":"e35e1fc4-2f37-458a-9cbe-a46399f79aa8","system_id":"levelo_inurba_marseille","lat":43.30801,"lon":5.38155,"is_reserved":false,"is_disabled":false,"rental_uris":{"android":"levelo://app?vid=e35e1fc4-2f37-458a-9cbe-a46399f79aa8","ios":"levelo://app?vid=e35e1fc4-2f37-458a-9cbe-a46399f79aa8"},"vehicle_type_id":"4","last_reported":1728947305,"current_range_meters":39200,"station_id":"ce4bgt12rcd13ifvqce0","pricing_plan_id":"cebpf4jnsgd1na2vs0mg"},{"bike_id":"793b1d32-dafb-4771-acc9-064e03a7fa79","system_id":"levelo_inurba_marseille","lat":43.29785,"lon":5.39346,"is_reserved":false,"is_disabled":false,"rental_uris":{"android":"levelo://app?vid=793b1d32-dafb-4771-acc9-064e03a7fa79","ios":"levelo://app?vid=793b1d32-dafb-4771-acc9-064e03a7fa79"},"vehicle_type_id":"4","last_reported":1728947305,"current_range_meters":16800,"station_id":"chh1huq6cuj3fo74tm60","pricing_plan_id":"cebpf4jnsgd1na2vs0mg"},{"bike_id":"725778a0-0ed4-4bc0-918b-3b4879d33cad","system_id":"levelo_inurba_marseille","lat":43.31324,"lon":5.39705,"is_reserved":false,"is_disabled":false,"rental_uris":{"android":"levelo://app?vid=725778a0-0ed4-4bc0-918b-3b4879d33cad","ios":"levelo://app?vid=725778a0-0ed4-4bc0-918b-3b4879d33cad"},"vehicle_type_id":"4","last_reported":1728947305,"current_range_meters":27200,"station_id":"ce4bgvp2rcd13ifvqcu0","pricing_plan_id":"cebpf4jnsgd1na2vs0mg"},{"bike_id":"1e73027b-0c25-4e93-a48b-592f5c5b175f","system_id":"levelo_inurba_marseille","lat":43.30361,"lon":5.41875,"is_reserved":false,"is_disabled":false,"rental_uris":{"android":"levelo://app?vid=1e73027b-0c25-4e93-a48b-592f5c5b175f","ios":"levelo://app?vid=1e73027b-0c25-4e93-a48b-592f5c5b175f"},"vehicle_type_id":"4","last_reported":1728947305,"current_range_meters":35600,"station_id":"ce4bhop2rcd13ifvqh7g","pricing_plan_id":"cebpf4jnsgd1na2vs0mg"},{"bike_id":"572b3f5a-1091-4fa3-b694-ca3344cebf69","system_id":"levelo_inurba_marseille","lat":43.30593,"lon":5.39355,"is_reserved":false,"is_disabled":false,"rental_uris":{"android":"levelo://app?vid=572b3f5a-1091-4fa3-b694-ca3344cebf69","ios":"levelo://app?vid=572b3f5a-1091-4fa3-b694-ca3344cebf69"},"vehicle_type_id":"4","last_reported":1728947305,"current_range_meters":39200,"station_id":"ce4bh0p2rcd13ifvqd80","pricing_plan_id":"cebpf4jnsgd1na2vs0mg"},{"bike_id":"3504f3a0-44ab-42b7-bd29-b6c4f5e56540","system_id":"levelo_inurba_marseille","lat":43.2508,"lon":5.39515,"is_reserved":false,"is_disabled":false,"rental_uris":{"android":"levelo://app?vid=3504f3a0-44ab-42b7-bd29-b6c4f5e56540","ios":"levelo://app?vid=3504f3a0-44ab-42b7-bd29-b6c4f5e56540"},"vehicle_type_id":"4","last_reported":1728947305,"current_range_meters":38800,"station_id":"ce4bhm12rcd13ifvqgkg","pricing_plan_id":"cebpf4jnsgd1na2vs0mg"},{"bike_id":"53f2ab5f-d9c9-4a94-bfb0-8cf1040a6d08","system_id":"levelo_inurba_marseille","lat":43.30305,"lon":5.36888,"is_reserved":false,"is_disabled":false,"rental_uris":{"android":"levelo://app?vid=53f2ab5f-d9c9-4a94-bfb0-8cf1040a6d08","ios":"levelo://app?vid=53f2ab5f-d9c9-4a94-bfb0-8cf1040a6d08"},"vehicle_type_id":"4","last_reported":1728947305,"current_range_meters":12800,"station_id":"ce4bgqh2rcd13ifvqc5g","pricing_plan_id":"cebpf4jnsgd1na2vs0mg"},{"bike_id":"3afb0681-8fbd-47fe-8917-e12bc3cf488b","system_id":"levelo_inurba_marseille","lat":43.33717,"lon":5.39176,"is_reserved":false,"is_disabled":false,"rental_uris":{"android":"levelo://app?vid=3afb0681-8fbd-47fe-8917-e12bc3cf488b","ios":"levelo://app?vid=3afb0681-8fbd-47fe-8917-e12bc3cf488b"},"vehicle_type_id":"4","last_reported":1728947305,"current_range_meters":38800,"station_id":"ce4bhr92rcd13ifvqhsg","pricing_plan_id":"cebpf4jnsgd1na2vs0mg"},{"bike_id":"f25b9087-5c61-492d-8a81-c981d671dc2b","system_id":"levelo_inurba_marseille","lat":43.28271,"lon":5.35072,"is_reserved":false,"is_disabled":false,"rental_uris":{"android":"levelo://app?vid=f25b9087-5c61-492d-8a81-c981d671dc2b","ios":"levelo://app?vid=f25b9087-5c61-492d-8a81-c981d671dc2b"},"vehicle_type_id":"4","last_reported":1728947305,"current_range_meters":9600,"station_id":"ce4bhbp2rcd13ifvqerg","pricing_plan_id":"cebpf4jnsgd1na2vs0mg"},{"bike_id":"a732941c-85bc-42aa-bd93-04ae552d110c","system_id":"levelo_inurba_marseille","lat":43.30802,"lon":5.43523,"is_reserved":false,"is_disabled":false,"rental_uris":{"android":"levelo://app?vid=a732941c-85bc-42aa-bd93-04ae552d110c","ios":"levelo://app?vid=a732941c-85bc-42aa-bd93-04ae552d110c"},"vehicle_type_id":"4","last_reported":1728947305,"current_range_meters":8000,"station_id":"ce4bhph2rcd13ifvqheg","pricing_plan_id":"cebpf4jnsgd1na2vs0mg"},{"bike_id":"5f9bbca4-c275-4b1d-bb90-de4434b02e5b","system_id":"levelo_inurba_marseille","lat":43.27498,"lon":5.42452,"is_reserved":false,"is_disabled":false,"rental_uris":{"android":"levelo://app?vid=5f9bbca4-c275-4b1d-bb90-de4434b02e5b","ios":"levelo://app?vid=5f9bbca4-c275-4b1d-bb90-de4434b02e5b"},"vehicle_type_id":"4","last_reported":1728947305,"current_range_meters":38000,"station_id":"ce4bhn92rcd13ifvqgrg","pricing_plan_id":"cebpf4jnsgd1na2vs0mg"},{"bike_id":"71cdb9e1-5075-490f-bf25-59e6d36abd3d","system_id":"levelo_inurba_marseille","lat":43.31368,"lon":5.38498,"is_reserved":false,"is_disabled":false,"rental_uris":{"android":"levelo://app?vid=71cdb9e1-5075-490f-bf25-59e6d36abd3d","ios":"levelo://app?vid=71cdb9e1-5075-490f-bf25-59e6d36abd3d"},"vehicle_type_id":"4","last_reported":1728947305,"current_range_meters":39200,"station_id":"ce4bgt92rcd13ifvqcf0","pricing_plan_id":"cebpf4jnsgd1na2vs0mg"},{"bike_id":"ac01e824-d40b-4d7f-a0cc-589e84351732","system_id":"levelo_inurba_marseille","lat":43.30926,"lon":5.40139,"is_reserved":false,"is_disabled":false,"rental_uris":{"android":"levelo://app?vid=ac01e824-d40b-4d7f-a0cc-589e84351732","ios":"levelo://app?vid=ac01e824-d40b-4d7f-a0cc-589e84351732"},"vehicle_type_id":"4","last_reported":1728947305,"current_range_meters":38800,"station_id":"ce4bgvp2rcd13ifvqct0","pricing_plan_id":"cebpf4jnsgd1na2vs0mg"},{"bike_id":"e9beb8d7-2da3-4682-a424-ae07c8fcc948","system_id":"levelo_inurba_marseille","lat":43.31068,"lon":5.38346,"is_reserved":false,"is_disabled":false,"rental_uris":{"android":"levelo://app?vid=e9beb8d7-2da3-4682-a424-ae07c8fcc948","ios":"levelo://app?vid=e9beb8d7-2da3-4682-a424-ae07c8fcc948"},"vehicle_type_id":"4","last_reported":1728947305,"current_range_meters":22400,"station_id":"ce4bgv92rcd13ifvqcr0","pricing_plan_id":"cebpf4jnsgd1na2vs0mg"},{"bike_id":"a2a2eee2-67f1-4950-874b-99c0ac226d01","system_id":"levelo_inurba_marseille","lat":43.30638,"lon":5.40083,"is_reserved":false,"is_disabled":false,"rental_uris":{"android":"levelo://app?vid=a2a2eee2-67f1-4950-874b-99c0ac226d01","ios":"levelo://app?vid=a2a2eee2-67f1-4950-874b-99c0ac226d01"},"vehicle_type_id":"4","last_reported":1728947305,"current_range_meters":12400,"station_id":"ce4bh112rcd13ifvqda0","pricing_plan_id":"cebpf4jnsgd1na2vs0mg"},{"bike_id":"87f82ab2-fd31-48d9-89b5-ed358abaa142","system_id":"levelo_inurba_marseille","lat":43.30264,"lon":5.40079,"is_reserved":false,"is_disabled":false,"rental_uris":{"android":"levelo://app?vid=87f82ab2-fd31-48d9-89b5-ed358abaa142","ios":"levelo://app?vid=87f82ab2-fd31-48d9-89b5-ed358abaa142"},"vehicle_type_id":"4","last_reported":1728947305,"current_range_meters":30800,"station_id":"ce4bgvh2rcd13ifvqcs0","pricing_plan_id":"cebpf4jnsgd1na2vs0mg"},{"bike_id":"0ed0c075-e6fe-402d-bd25-ee3cc88443aa","system_id":"levelo_inurba_marseille","lat":43.25822,"lon":5.39423,"is_reserved":false,"is_disabled":false,"rental_uris":{"android":"levelo://app?vid=0ed0c075-e6fe-402d-bd25-ee3cc88443aa","ios":"levelo://app?vid=0ed0c075-e6fe-402d-bd25-ee3cc88443aa"},"vehicle_type_id":"4","last_reported":1728947305,"current_range_meters":38800,"station_id":"ce4bhip2rcd13ifvqft0","pricing_plan_id":"cebpf4jnsgd1na2vs0mg"},{"bike_id":"a32ac163-48ce-4b32-900d-2f39da2712bd","system_id":"levelo_inurba_marseille","lat":43.31761,"lon":5.39016,"is_reserved":false,"is_disabled":false,"rental_uris":{"android":"levelo://app?vid=a32ac163-48ce-4b32-900d-2f39da2712bd","ios":"levelo://app?vid=a32ac163-48ce-4b32-900d-2f39da2712bd"},"vehicle_type_id":"4","last_reported":1728947305,"current_range_meters":18000,"station_id":"ce4bhqp2rcd13ifvqhng","pricing_plan_id":"cebpf4jnsgd1na2vs0mg"},{"bike_id":"9baf4630-9073-486a-a0d5-ce2290767dc4","system_id":"levelo_inurba_marseille","lat":43.31076,"lon":5.38341,"is_reserved":false,"is_disabled":false,"rental_uris":{"android":"levelo://app?vid=9baf4630-9073-486a-a0d5-ce2290767dc4","ios":"levelo://app?vid=9baf4630-9073-486a-a0d5-ce2290767dc4"},"vehicle_type_id":"4","last_reported":1728947305,"current_range_meters":26000,"station_id":"ce4bgv92rcd13ifvqcr0","pricing_plan_id":"cebpf4jnsgd1na2vs0mg"},{"bike_id":"156a0bc3-4b5e-445e-ae9e-b853060babb5","system_id":"levelo_inurba_marseille","lat":43.31123,"lon":5.37762,"is_reserved":false,"is_disabled":false,"rental_uris":{"android":"levelo://app?vid=156a0bc3-4b5e-445e-ae9e-b853060babb5","ios":"levelo://app?vid=156a0bc3-4b5e-445e-ae9e-b853060babb5"},"vehicle_type_id":"4","last_reported":1728947305,"current_range_meters":23200,"station_id":"ce4bgt92rcd13ifvqcg0","pricing_plan_id":"cebpf4jnsgd1na2vs0mg"},{"bike_id":"b97ac990-8c0e-4aa6-a428-6bf3d623b8ab","system_id":"levelo_inurba_marseille","lat":43.24553,"lon":5.39524,"is_reserved":false,"is_disabled":false,"rental_uris":{"android":"levelo://app?vid=b97ac990-8c0e-4aa6-a428-6bf3d623b8ab","ios":"levelo://app?vid=b97ac990-8c0e-4aa6-a428-6bf3d623b8ab"},"vehicle_type_id":"4","last_reported":1728947305,"current_range_meters":28400,"station_id":"ce4bhlp2rcd13ifvqgjg","pricing_plan_id":"cebpf4jnsgd1na2vs0mg"},{"bike_id":"2a3311b0-027e-4242-9875-2c7f69c0596f","system_id":"levelo_inurba_marseille","lat":43.29194,"lon":5.35795,"is_reserved":false,"is_disabled":false,"rental_uris":{"android":"levelo://app?vid=2a3311b0-027e-4242-9875-2c7f69c0596f","ios":"levelo://app?vid=2a3311b0-027e-4242-9875-2c7f69c0596f"},"vehicle_type_id":"4","last_reported":1728947305,"current_range_meters":27200,"station_id":"ce4bhb12rcd13ifvqel0","pricing_plan_id":"cebpf4jnsgd1na2vs0mg"},{"bike_id":"d2ae8d7f-7b3a-472e-9aef-617bbb91fe40","system_id":"levelo_inurba_marseille","lat":43.30094,"lon":5.39074,"is_reserved":false,"is_disabled":false,"rental_uris":{"android":"levelo://app?vid=d2ae8d7f-7b3a-472e-9aef-617bbb91fe40","ios":"levelo://app?vid=d2ae8d7f-7b3a-472e-9aef-617bbb91fe40"},"vehicle_type_id":"4","last_reported":1728947305,"current_range_meters":14000,"station_id":"ce4bh192rcd13ifvqdb0","pricing_plan_id":"cebpf4jnsgd1na2vs0mg"},{"bike_id":"c3859e9b-f515-430b-a811-8bbd3362718f","system_id":"levelo_inurba_marseille","lat":43.32337,"lon":5.40619,"is_reserved":false,"is_disabled":false,"rental_uris":{"android":"levelo://app?vid=c3859e9b-f515-430b-a811-8bbd3362718f","ios":"levelo://app?vid=c3859e9b-f515-430b-a811-8bbd3362718f"},"vehicle_type_id":"4","last_reported":1728947305,"current_range_meters":33600,"station_id":"ce4bhq92rcd13ifvqhjg","pricing_plan_id":"cebpf4jnsgd1na2vs0mg"},{"bike_id":"07538918-d507-49c7-b40a-4119b7a280f9","system_id":"levelo_inurba_marseille","lat":43.25868,"lon":5.39898,"is_reserved":false,"is_disabled":false,"rental_uris":{"android":"levelo://app?vid=07538918-d507-49c7-b40a-4119b7a280f9","ios":"levelo://app?vid=07538918-d507-49c7-b40a-4119b7a280f9"},"vehicle_type_id":"4","last_reported":1728947305,"current_range_meters":32400,"station_id":"ce4bhl92rcd13ifvqghg","pricing_plan_id":"cebpf4jnsgd1na2vs0mg"},{"bike_id":"b80c714b-6a66-4d5c-832e-bd487c535a72","system_id":"levelo_inurba_marseille","lat":43.31109,"lon":5.38064,"is_reserved":false,"is_disabled":false,"rental_uris":{"android":"levelo://app?vid=b80c714b-6a66-4d5c-832e-bd487c535a72","ios":"levelo://app?vid=b80c714b-6a66-4d5c-832e-bd487c535a72"},"vehicle_type_id":"4","last_reported":1728947305,"current_range_meters":17600,"station_id":"ce4bgt92rcd13ifvqcf0","pricing_plan_id":"cebpf4jnsgd1na2vs0mg"},{"bike_id":"2140b6a3-5118-4150-823e-9225aeb56201","system_id":"levelo_inurba_marseille","lat":43.23199,"lon":5.35552,"is_reserved":false,"is_disabled":false,"rental_uris":{"android":"levelo://app?vid=2140b6a3-5118-4150-823e-9225aeb56201","ios":"levelo://app?vid=2140b6a3-5118-4150-823e-9225aeb56201"},"vehicle_type_id":"4","last_reported":1728947305,"current_range_meters":10800,"station_id":"ce4bhu92rcd13ifvqi70","pricing_plan_id":"cebpf4jnsgd1na2vs0mg"},{"bike_id":"41d5826d-86cc-48bc-b715-fdd0f5033caa","system_id":"levelo_inurba_marseille","lat":43.2835,"lon":5.38093,"is_reserved":false,"is_disabled":false,"rental_uris":{"android":"levelo://app?vid=41d5826d-86cc-48bc-b715-fdd0f5033caa","ios":"levelo://app?vid=41d5826d-86cc-48bc-b715-fdd0f5033caa"},"vehicle_type_id":"4","last_reported":1728947305,"current_range_meters":6800,"station_id":"ce4bh412rcd13ifvqdr0","pricing_plan_id":"cebpf4jnsgd1na2vs0mg"},{"bike_id":"478f5959-9690-4265-aea1-95006faa579d","system_id":"levelo_inurba_marseille","lat":43.27174,"lon":5.41,"is_reserved":false,"is_disabled":false,"rental_uris":{"android":"levelo://app?vid=478f5959-9690-4265-aea1-95006faa579d","ios":"levelo://app?vid=478f5959-9690-4265-aea1-95006faa579d"},"vehicle_type_id":"4","last_reported":1728947305,"current_range_meters":39200,"station_id":"ce4bhl12rcd13ifvqgf0","pricing_plan_id":"cebpf4jnsgd1na2vs0mg"},{"bike_id":"5e3c4e0d-c8cf-4e2d-bc0c-a77ad4ef7d06","system_id":"levelo_inurba_marseille","lat":43.3176,"lon":5.3902,"is_reserved":false,"is_disabled":false,"rental_uris":{"android":"levelo://app?vid=5e3c4e0d-c8cf-4e2d-bc0c-a77ad4ef7d06","ios":"levelo://app?vid=5e3c4e0d-c8cf-4e2d-bc0c-a77ad4ef7d06"},"vehicle_type_id":"4","last_reported":1728947305,"current_range_meters":9600,"station_id":"ce4bhqp2rcd13ifvqhng","pricing_plan_id":"cebpf4jnsgd1na2vs0mg"},{"bike_id":"bead9c83-edfe-41ad-9426-3a8d14b72148","system_id":"levelo_inurba_marseille","lat":43.30295,"lon":5.39209,"is_reserved":false,"is_disabled":false,"rental_uris":{"android":"levelo://app?vid=bead9c83-edfe-41ad-9426-3a8d14b72148","ios":"levelo://app?vid=bead9c83-edfe-41ad-9426-3a8d14b72148"},"vehicle_type_id":"4","last_reported":1728947305,"current_range_meters":15200,"station_id":"ce4bgkh2rcd13ifvqbk0","pricing_plan_id":"cebpf4jnsgd1na2vs0mg"},{"bike_id":"79e9e570-a13a-4836-affc-e20102298a8c","system_id":"levelo_inurba_marseille","lat":43.28722,"lon":5.37944,"is_reserved":false,"is_disabled":false,"rental_uris":{"android":"levelo://app?vid=79e9e570-a13a-4836-affc-e20102298a8c","ios":"levelo://app?vid=79e9e570-a13a-4836-affc-e20102298a8c"},"vehicle_type_id":"4","last_reported":1728947305,"current_range_meters":38400,"station_id":"ce4bh9p2rcd13ifvqec0","pricing_plan_id":"cebpf4jnsgd1na2vs0mg"},{"bike_id":"c3c7024d-57b6-478f-98eb-dab6fb52878b","system_id":"levelo_inurba_marseille","lat":43.29629,"lon":5.40594,"is_reserved":false,"is_disabled":false,"rental_uris":{"android":"levelo://app?vid=c3c7024d-57b6-478f-98eb-dab6fb52878b","ios":"levelo://app?vid=c3c7024d-57b6-478f-98eb-dab6fb52878b"},"vehicle_type_id":"4","last_reported":1728947305,"current_range_meters":16800,"station_id":"ce4bh0h2rcd13ifvqd60","pricing_plan_id":"cebpf4jnsgd1na2vs0mg"},{"bike_id":"982be6c0-e2a4-43ec-b318-18332fe02ad7","system_id":"levelo_inurba_marseille","lat":43.28667,"lon":5.3635,"is_reserved":false,"is_disabled":false,"rental_uris":{"android":"levelo://app?vid=982be6c0-e2a4-43ec-b318-18332fe02ad7","ios":"levelo://app?vid=982be6c0-e2a4-43ec-b318-18332fe02ad7"},"vehicle_type_id":"4","last_reported":1728947305,"current_range_meters":39200,"station_id":"ce4bhah2rcd13ifvqej0","pricing_plan_id":"cebpf4jnsgd1na2vs0mg"},{"bike_id":"5893e8e9-8af4-4ac4-a335-70eeb96dd4e4","system_id":"levelo_inurba_marseille","lat":43.27826,"lon":5.39199,"is_reserved":false,"is_disabled":false,"rental_uris":{"android":"levelo://app?vid=5893e8e9-8af4-4ac4-a335-70eeb96dd4e4","ios":"levelo://app?vid=5893e8e9-8af4-4ac4-a335-70eeb96dd4e4"},"vehicle_type_id":"4","last_reported":1728947305,"current_range_meters":39200,"station_id":"ce4bhjp2rcd13ifvqga0","pricing_plan_id":"cebpf4jnsgd1na2vs0mg"},{"bike_id":"02edf250-0bdc-44d6-9936-04b527fbc30e","system_id":"levelo_inurba_marseille","lat":43.243864,"lon":5.370559,"is_reserved":false,"is_disabled":false,"rental_uris":{"android":"levelo://app?vid=02edf250-0bdc-44d6-9936-04b527fbc30e","ios":"levelo://app?vid=02edf250-0bdc-44d6-9936-04b527fbc30e"},"vehicle_type_id":"4","last_reported":1728947305,"current_range_meters":12800,"station_id":"ce4bhhh2rcd13ifvqfk0","pricing_plan_id":"cebpf4jnsgd1na2vs0mg"},{"bike_id":"e1af8b0b-40cc-4e1e-b314-88a9498ba4e6","system_id":"levelo_inurba_marseille","lat":43.28267,"lon":5.35074,"is_reserved":false,"is_disabled":false,"rental_uris":{"android":"levelo://app?vid=e1af8b0b-40cc-4e1e-b314-88a9498ba4e6","ios":"levelo://app?vid=e1af8b0b-40cc-4e1e-b314-88a9498ba4e6"},"vehicle_type_id":"4","last_reported":1728947305,"current_range_meters":38000,"station_id":"ce4bhbp2rcd13ifvqerg","pricing_plan_id":"cebpf4jnsgd1na2vs0mg"},{"bike_id":"de5fb6c9-1629-41d4-994d-0b513290afbf","system_id":"levelo_inurba_marseille","lat":43.30317,"lon":5.40437,"is_reserved":false,"is_disabled":false,"rental_uris":{"android":"levelo://app?vid=de5fb6c9-1629-41d4-994d-0b513290afbf","ios":"levelo://app?vid=de5fb6c9-1629-41d4-994d-0b513290afbf"},"vehicle_type_id":"4","last_reported":1728947305,"current_range_meters":38800,"station_id":"ce4bh012rcd13ifvqd10","pricing_plan_id":"cebpf4jnsgd1na2vs0mg"},{"bike_id":"e6afd3c7-d2b5-455b-93f2-83eb93400624","system_id":"levelo_inurba_marseille","lat":43.255,"lon":5.37649,"is_reserved":false,"is_disabled":false,"rental_uris":{"android":"levelo://app?vid=e6afd3c7-d2b5-455b-93f2-83eb93400624","ios":"levelo://app?vid=e6afd3c7-d2b5-455b-93f2-83eb93400624"},"vehicle_type_id":"4","last_reported":1728947305,"current_range_meters":38000,"station_id":"ce4bhh12rcd13ifvqff0","pricing_plan_id":"cebpf4jnsgd1na2vs0mg"},{"bike_id":"8aa82f16-a6a0-4a14-9f25-838a8898f98d","system_id":"levelo_inurba_marseille","lat":43.2621,"lon":5.37446,"is_reserved":false,"is_disabled":false,"rental_uris":{"android":"levelo://app?vid=8aa82f16-a6a0-4a14-9f25-838a8898f98d","ios":"levelo://app?vid=8aa82f16-a6a0-4a14-9f25-838a8898f98d"},"vehicle_type_id":"4","last_reported":1728947305,"current_range_meters":38800,"station_id":"ce4bhgp2rcd13ifvqfc0","pricing_plan_id":"cebpf4jnsgd1na2vs0mg"},{"bike_id":"dc9cb9d8-ec56-43b2-a222-2bd37472647e","system_id":"levelo_inurba_marseille","lat":43.30208,"lon":5.3947,"is_reserved":false,"is_disabled":false,"rental_uris":{"android":"levelo://app?vid=dc9cb9d8-ec56-43b2-a222-2bd37472647e","ios":"levelo://app?vid=dc9cb9d8-ec56-43b2-a222-2bd37472647e"},"vehicle_type_id":"4","last_reported":1728947305,"current_range_meters":34800,"station_id":"ce4bh0p2rcd13ifvqd70","pricing_plan_id":"cebpf4jnsgd1na2vs0mg"},{"bike_id":"cda1b611-cb93-422a-8b06-efbe92015dbe","system_id":"levelo_inurba_marseille","lat":43.28435,"lon":5.39183,"is_reserved":false,"is_disabled":false,"rental_uris":{"android":"levelo://app?vid=cda1b611-cb93-422a-8b06-efbe92015dbe","ios":"levelo://app?vid=cda1b611-cb93-422a-8b06-efbe92015dbe"},"vehicle_type_id":"4","last_reported":1728947305,"current_range_meters":38000,"station_id":"ce4bhoh2rcd13ifvqh5g","pricing_plan_id":"cebpf4jnsgd1na2vs0mg"},{"bike_id":"2223a3bd-c75c-4118-93ca-21e03d665431","system_id":"levelo_inurba_marseille","lat":43.31131,"lon":5.37742,"is_reserved":false,"is_disabled":false,"rental_uris":{"android":"levelo://app?vid=2223a3bd-c75c-4118-93ca-21e03d665431","ios":"levelo://app?vid=2223a3bd-c75c-4118-93ca-21e03d665431"},"vehicle_type_id":"4","last_reported":1728947305,"current_range_meters":22800,"station_id":"ce4bgt92rcd13ifvqcg0","pricing_plan_id":"cebpf4jnsgd1na2vs0mg"},{"bike_id":"7fce2c73-d1e6-4aac-a3a0-51a5db68c843","system_id":"levelo_inurba_marseille","lat":43.26937,"lon":5.40251,"is_reserved":false,"is_disabled":false,"rental_uris":{"android":"levelo://app?vid=7fce2c73-d1e6-4aac-a3a0-51a5db68c843","ios":"levelo://app?vid=7fce2c73-d1e6-4aac-a3a0-51a5db68c843"},"vehicle_type_id":"4","last_reported":1728947305,"current_range_meters":38800,"station_id":"cjm6bp8fraef2m0cb0m0","pricing_plan_id":"cebpf4jnsgd1na2vs0mg"},{"bike_id":"c130d266-11e3-484c-bccd-9f7041e77c51","system_id":"levelo_inurba_marseille","lat":43.28076,"lon":5.39644,"is_reserved":false,"is_disabled":false,"rental_uris":{"android":"levelo://app?vid=c130d266-11e3-484c-bccd-9f7041e77c51","ios":"levelo://app?vid=c130d266-11e3-484c-bccd-9f7041e77c51"},"vehicle_type_id":"4","last_reported":1728947305,"current_range_meters":27200,"station_id":"ce4bho12rcd13ifvqh2g","pricing_plan_id":"cebpf4jnsgd1na2vs0mg"},{"bike_id":"1183d7b5-9c89-4b9a-87ff-0ccc49010bcd","system_id":"levelo_inurba_marseille","lat":43.31279,"lon":5.40167,"is_reserved":false,"is_disabled":false,"rental_uris":{"android":"levelo://app?vid=1183d7b5-9c89-4b9a-87ff-0ccc49010bcd","ios":"levelo://app?vid=1183d7b5-9c89-4b9a-87ff-0ccc49010bcd"},"vehicle_type_id":"4","last_reported":1728947305,"current_range_meters":14000,"station_id":"ce4bh092rcd13ifvqd30","pricing_plan_id":"cebpf4jnsgd1na2vs0mg"},{"bike_id":"00e5c71a-1933-4298-b02f-08f784b2909c","system_id":"levelo_inurba_marseille","lat":43.24387,"lon":5.37056,"is_reserved":false,"is_disabled":false,"rental_uris":{"android":"levelo://app?vid=00e5c71a-1933-4298-b02f-08f784b2909c","ios":"levelo://app?vid=00e5c71a-1933-4298-b02f-08f784b2909c"},"vehicle_type_id":"4","last_reported":1728947305,"current_range_meters":39200,"station_id":"ce4bhhh2rcd13ifvqfk0","pricing_plan_id":"cebpf4jnsgd1na2vs0mg"},{"bike_id":"e01e41b6-906b-4d38-bd47-8409331ef9cb","system_id":"levelo_inurba_marseille","lat":43.24165,"lon":5.36397,"is_reserved":false,"is_disabled":false,"rental_uris":{"android":"levelo://app?vid=e01e41b6-906b-4d38-bd47-8409331ef9cb","ios":"levelo://app?vid=e01e41b6-906b-4d38-bd47-8409331ef9cb"},"vehicle_type_id":"4","last_reported":1728947305,"current_range_meters":36400,"station_id":"cpo36qri1sfpv3e86is0","pricing_plan_id":"cebpf4jnsgd1na2vs0mg"},{"bike_id":"0eafdba6-2b03-4430-88b8-4e60c6aa4b07","system_id":"levelo_inurba_marseille","lat":43.30415,"lon":5.41283,"is_reserved":false,"is_disabled":false,"rental_uris":{"android":"levelo://app?vid=0eafdba6-2b03-4430-88b8-4e60c6aa4b07","ios":"levelo://app?vid=0eafdba6-2b03-4430-88b8-4e60c6aa4b07"},"vehicle_type_id":"4","last_reported":1728947305,"current_range_meters":38400,"station_id":"ce4bhop2rcd13ifvqh8g","pricing_plan_id":"cebpf4jnsgd1na2vs0mg"},{"bike_id":"93abdbdf-1438-45e5-8756-442e7e3c29f1","system_id":"levelo_inurba_marseille","lat":43.31172,"lon":5.387078,"is_reserved":false,"is_disabled":false,"rental_uris":{"android":"levelo://app?vid=93abdbdf-1438-45e5-8756-442e7e3c29f1","ios":"levelo://app?vid=93abdbdf-1438-45e5-8756-442e7e3c29f1"},"vehicle_type_id":"4","last_reported":1728947305,"current_range_meters":40000,"station_id":"ce4bgv12rcd13ifvqcp0","pricing_plan_id":"cebpf4jnsgd1na2vs0mg"},{"bike_id":"4d3da2c7-a256-4b90-980c-9a92764f835f","system_id":"levelo_inurba_marseille","lat":43.31222,"lon":5.36861,"is_reserved":false,"is_disabled":false,"rental_uris":{"android":"levelo://app?vid=4d3da2c7-a256-4b90-980c-9a92764f835f","ios":"levelo://app?vid=4d3da2c7-a256-4b90-980c-9a92764f835f"},"vehicle_type_id":"4","last_reported":1728947305,"current_range_meters":22000,"station_id":"ce4bgl92rcd13ifvqbq0","pricing_plan_id":"cebpf4jnsgd1na2vs0mg"},{"bike_id":"89211ee2-076f-4df3-92bd-cd8885f2e76d","system_id":"levelo_inurba_marseille","lat":43.23196,"lon":5.35552,"is_reserved":false,"is_disabled":false,"rental_uris":{"android":"levelo://app?vid=89211ee2-076f-4df3-92bd-cd8885f2e76d","ios":"levelo://app?vid=89211ee2-076f-4df3-92bd-cd8885f2e76d"},"vehicle_type_id":"4","last_reported":1728947305,"current_range_meters":40000,"station_id":"ce4bhu92rcd13ifvqi70","pricing_plan_id":"cebpf4jnsgd1na2vs0mg"},{"bike_id":"6f108c79-169f-46fd-b08b-6b93e5050ee6","system_id":"levelo_inurba_marseille","lat":43.33713,"lon":5.39196,"is_reserved":false,"is_disabled":false,"rental_uris":{"android":"levelo://app?vid=6f108c79-169f-46fd-b08b-6b93e5050ee6","ios":"levelo://app?vid=6f108c79-169f-46fd-b08b-6b93e5050ee6"},"vehicle_type_id":"4","last_reported":1728947305,"current_range_meters":38800,"station_id":"ce4bhr92rcd13ifvqhsg","pricing_plan_id":"cebpf4jnsgd1na2vs0mg"},{"bike_id":"de485e34-9ebe-4f27-bc4c-a0b813191d55","system_id":"levelo_inurba_marseille","lat":43.31759,"lon":5.39023,"is_reserved":false,"is_disabled":false,"rental_uris":{"android":"levelo://app?vid=de485e34-9ebe-4f27-bc4c-a0b813191d55","ios":"levelo://app?vid=de485e34-9ebe-4f27-bc4c-a0b813191d55"},"vehicle_type_id":"4","last_reported":1728947305,"current_range_meters":30400,"station_id":"ce4bhqp2rcd13ifvqhng","pricing_plan_id":"cebpf4jnsgd1na2vs0mg"},{"bike_id":"d9486349-c332-407f-893d-bef322644bb8","system_id":"levelo_inurba_marseille","lat":43.30932,"lon":5.40143,"is_reserved":false,"is_disabled":false,"rental_uris":{"android":"levelo://app?vid=d9486349-c332-407f-893d-bef322644bb8","ios":"levelo://app?vid=d9486349-c332-407f-893d-bef322644bb8"},"vehicle_type_id":"4","last_reported":1728947305,"current_range_meters":24400,"station_id":"ce4bgvp2rcd13ifvqct0","pricing_plan_id":"cebpf4jnsgd1na2vs0mg"},{"bike_id":"b2553f0e-6484-4756-917c-70bb4d9e5481","system_id":"levelo_inurba_marseille","lat":43.26951,"lon":5.38626,"is_reserved":false,"is_disabled":false,"rental_uris":{"android":"levelo://app?vid=b2553f0e-6484-4756-917c-70bb4d9e5481","ios":"levelo://app?vid=b2553f0e-6484-4756-917c-70bb4d9e5481"},"vehicle_type_id":"4","last_reported":1728947305,"current_range_meters":16000,"station_id":"ce4bhh92rcd13ifvqfh0","pricing_plan_id":"cebpf4jnsgd1na2vs0mg"},{"bike_id":"4401e9fe-8fae-4df0-be02-0119e3aeedbd","system_id":"levelo_inurba_marseille","lat":43.33769,"lon":5.37427,"is_reserved":false,"is_disabled":false,"rental_uris":{"android":"levelo://app?vid=4401e9fe-8fae-4df0-be02-0119e3aeedbd","ios":"levelo://app?vid=4401e9fe-8fae-4df0-be02-0119e3aeedbd"},"vehicle_type_id":"4","last_reported":1728947305,"current_range_meters":34800,"station_id":"","pricing_plan_id":"cebpf4jnsgd1na2vs0mg"},{"bike_id":"c26c9bb1-b28c-40c1-a76c-f35d2916c182","system_id":"levelo_inurba_marseille","lat":43.24813,"lon":5.37464,"is_reserved":false,"is_disabled":false,"rental_uris":{"android":"levelo://app?vid=c26c9bb1-b28c-40c1-a76c-f35d2916c182","ios":"levelo://app?vid=c26c9bb1-b28c-40c1-a76c-f35d2916c182"},"vehicle_type_id":"4","last_reported":1728947305,"current_range_meters":18800,"station_id":"ce4bhgh2rcd13ifvqfb0","pricing_plan_id":"cebpf4jnsgd1na2vs0mg"},{"bike_id":"7407b431-bff5-4398-a903-ce772c985ca2","system_id":"levelo_inurba_marseille","lat":43.24394,"lon":5.37065,"is_reserved":false,"is_disabled":false,"rental_uris":{"android":"levelo://app?vid=7407b431-bff5-4398-a903-ce772c985ca2","ios":"levelo://app?vid=7407b431-bff5-4398-a903-ce772c985ca2"},"vehicle_type_id":"4","last_reported":1728947305,"current_range_meters":20800,"station_id":"ce4bhhh2rcd13ifvqfk0","pricing_plan_id":"cebpf4jnsgd1na2vs0mg"},{"bike_id":"832e1e4a-ed47-4b81-9ffb-b84ccd2176a5","system_id":"levelo_inurba_marseille","lat":43.26678,"lon":5.38263,"is_reserved":false,"is_disabled":false,"rental_uris":{"android":"levelo://app?vid=832e1e4a-ed47-4b81-9ffb-b84ccd2176a5","ios":"levelo://app?vid=832e1e4a-ed47-4b81-9ffb-b84ccd2176a5"},"vehicle_type_id":"4","last_reported":1728947305,"current_range_meters":35600,"station_id":"ce4bhg92rcd13ifvqf90","pricing_plan_id":"cebpf4jnsgd1na2vs0mg"},{"bike_id":"8afc2d11-5f30-4024-8dd1-bcca6caac62e","system_id":"levelo_inurba_marseille","lat":43.3188,"lon":5.40726,"is_reserved":false,"is_disabled":false,"rental_uris":{"android":"levelo://app?vid=8afc2d11-5f30-4024-8dd1-bcca6caac62e","ios":"levelo://app?vid=8afc2d11-5f30-4024-8dd1-bcca6caac62e"},"vehicle_type_id":"4","last_reported":1728947305,"current_range_meters":39200,"station_id":"ce4bhq12rcd13ifvqhig","pricing_plan_id":"cebpf4jnsgd1na2vs0mg"},{"bike_id":"f86c0e4c-e675-4813-89ef-9c087542fa2b","system_id":"levelo_inurba_marseille","lat":43.28469,"lon":5.35876,"is_reserved":false,"is_disabled":false,"rental_uris":{"android":"levelo://app?vid=f86c0e4c-e675-4813-89ef-9c087542fa2b","ios":"levelo://app?vid=f86c0e4c-e675-4813-89ef-9c087542fa2b"},"vehicle_type_id":"4","last_reported":1728947305,"current_range_meters":3600,"station_id":"ce4bhah2rcd13ifvqei0","pricing_plan_id":"cebpf4jnsgd1na2vs0mg"},{"bike_id":"3f0d3248-e783-4468-83c3-58a8e361f6f2","system_id":"levelo_inurba_marseille","lat":43.29248,"lon":5.40906,"is_reserved":false,"is_disabled":false,"rental_uris":{"android":"levelo://app?vid=3f0d3248-e783-4468-83c3-58a8e361f6f2","ios":"levelo://app?vid=3f0d3248-e783-4468-83c3-58a8e361f6f2"},"vehicle_type_id":"4","last_reported":1728947305,"current_range_meters":18000,"station_id":"ce4bh192rcd13ifvqdc0","pricing_plan_id":"cebpf4jnsgd1na2vs0mg"},{"bike_id":"de9fce36-42d5-4f27-b0a2-d390f9b6b1c9","system_id":"levelo_inurba_marseille","lat":43.25117,"lon":5.40325,"is_reserved":false,"is_disabled":false,"rental_uris":{"android":"levelo://app?vid=de9fce36-42d5-4f27-b0a2-d390f9b6b1c9","ios":"levelo://app?vid=de9fce36-42d5-4f27-b0a2-d390f9b6b1c9"},"vehicle_type_id":"4","last_reported":1728947305,"current_range_meters":14400,"station_id":"ce4bhlh2rcd13ifvqgig","pricing_plan_id":"cebpf4jnsgd1na2vs0mg"},{"bike_id":"4dc1d225-5761-4879-8f1a-044daee9054f","system_id":"levelo_inurba_marseille","lat":43.308851,"lon":5.37175,"is_reserved":false,"is_disabled":false,"rental_uris":{"android":"levelo://app?vid=4dc1d225-5761-4879-8f1a-044daee9054f","ios":"levelo://app?vid=4dc1d225-5761-4879-8f1a-044daee9054f"},"vehicle_type_id":"4","last_reported":1728947305,"current_range_meters":22400,"station_id":"ce4bguh2rcd13ifvqckg","pricing_plan_id":"cebpf4jnsgd1na2vs0mg"},{"bike_id":"544b8d64-8bbe-4ff8-b401-1ae6d24b3eb1","system_id":"levelo_inurba_marseille","lat":43.30932,"lon":5.40145,"is_reserved":false,"is_disabled":false,"rental_uris":{"android":"levelo://app?vid=544b8d64-8bbe-4ff8-b401-1ae6d24b3eb1","ios":"levelo://app?vid=544b8d64-8bbe-4ff8-b401-1ae6d24b3eb1"},"vehicle_type_id":"4","last_reported":1728947305,"current_range_meters":22800,"station_id":"ce4bgvp2rcd13ifvqct0","pricing_plan_id":"cebpf4jnsgd1na2vs0mg"},{"bike_id":"8eca1db8-c7a5-4c55-a530-7e36502bac8b","system_id":"levelo_inurba_marseille","lat":43.33024,"lon":5.39036,"is_reserved":false,"is_disabled":false,"rental_uris":{"android":"levelo://app?vid=8eca1db8-c7a5-4c55-a530-7e36502bac8b","ios":"levelo://app?vid=8eca1db8-c7a5-4c55-a530-7e36502bac8b"},"vehicle_type_id":"4","last_reported":1728947305,"current_range_meters":30000,"station_id":"ce4bhr92rcd13ifvqhrg","pricing_plan_id":"cebpf4jnsgd1na2vs0mg"},{"bike_id":"4b9f383b-d680-4feb-8ceb-ccd6ca568b98","system_id":"levelo_inurba_marseille","lat":43.32364,"lon":5.38882,"is_reserved":false,"is_disabled":false,"rental_uris":{"android":"levelo://app?vid=4b9f383b-d680-4feb-8ceb-ccd6ca568b98","ios":"levelo://app?vid=4b9f383b-d680-4feb-8ceb-ccd6ca568b98"},"vehicle_type_id":"4","last_reported":1728947305,"current_range_meters":10000,"station_id":"ce4bhqp2rcd13ifvqhog","pricing_plan_id":"cebpf4jnsgd1na2vs0mg"},{"bike_id":"e422e2ae-a96e-48ca-997a-bbd5f10ac0e0","system_id":"levelo_inurba_marseille","lat":43.24544,"lon":5.39525,"is_reserved":false,"is_disabled":false,"rental_uris":{"android":"levelo://app?vid=e422e2ae-a96e-48ca-997a-bbd5f10ac0e0","ios":"levelo://app?vid=e422e2ae-a96e-48ca-997a-bbd5f10ac0e0"},"vehicle_type_id":"4","last_reported":1728947305,"current_range_meters":39200,"station_id":"ce4bhlp2rcd13ifvqgjg","pricing_plan_id":"cebpf4jnsgd1na2vs0mg"},{"bike_id":"3c9a80a7-6d68-4bb8-9474-fe0e2b009cb0","system_id":"levelo_inurba_marseille","lat":43.31758,"lon":5.39022,"is_reserved":false,"is_disabled":false,"rental_uris":{"android":"levelo://app?vid=3c9a80a7-6d68-4bb8-9474-fe0e2b009cb0","ios":"levelo://app?vid=3c9a80a7-6d68-4bb8-9474-fe0e2b009cb0"},"vehicle_type_id":"4","last_reported":1728947305,"current_range_meters":8400,"station_id":"ce4bhqp2rcd13ifvqhng","pricing_plan_id":"cebpf4jnsgd1na2vs0mg"},{"bike_id":"4e8bf75a-f60c-4784-a213-558cc88de64c","system_id":"levelo_inurba_marseille","lat":43.284743,"lon":5.384155,"is_reserved":false,"is_disabled":false,"rental_uris":{"android":"levelo://app?vid=4e8bf75a-f60c-4784-a213-558cc88de64c","ios":"levelo://app?vid=4e8bf75a-f60c-4784-a213-558cc88de64c"},"vehicle_type_id":"4","last_reported":1728947305,"current_range_meters":38800,"station_id":"ce4bh512rcd13ifvqe3g","pricing_plan_id":"cebpf4jnsgd1na2vs0mg"},{"bike_id":"bc03ccbb-238a-438e-9698-c71e60a696b1","system_id":"levelo_inurba_marseille","lat":43.30648,"lon":5.40078,"is_reserved":false,"is_disabled":false,"rental_uris":{"android":"levelo://app?vid=bc03ccbb-238a-438e-9698-c71e60a696b1","ios":"levelo://app?vid=bc03ccbb-238a-438e-9698-c71e60a696b1"},"vehicle_type_id":"4","last_reported":1728947305,"current_range_meters":38800,"station_id":"ce4bh112rcd13ifvqda0","pricing_plan_id":"cebpf4jnsgd1na2vs0mg"},{"bike_id":"ff96eee3-1ac8-4888-9ae7-e4b6cc8154af","system_id":"levelo_inurba_marseille","lat":43.33739,"lon":5.3746,"is_reserved":false,"is_disabled":false,"rental_uris":{"android":"levelo://app?vid=ff96eee3-1ac8-4888-9ae7-e4b6cc8154af","ios":"levelo://app?vid=ff96eee3-1ac8-4888-9ae7-e4b6cc8154af"},"vehicle_type_id":"4","last_reported":1728947305,"current_range_meters":36400,"station_id":"","pricing_plan_id":"cebpf4jnsgd1na2vs0mg"},{"bike_id":"6b5d2128-dc38-4643-bc23-b894fe503d55","system_id":"levelo_inurba_marseille","lat":43.3009,"lon":5.39085,"is_reserved":false,"is_disabled":false,"rental_uris":{"android":"levelo://app?vid=6b5d2128-dc38-4643-bc23-b894fe503d55","ios":"levelo://app?vid=6b5d2128-dc38-4643-bc23-b894fe503d55"},"vehicle_type_id":"4","last_reported":1728947305,"current_range_meters":24800,"station_id":"ce4bh192rcd13ifvqdb0","pricing_plan_id":"cebpf4jnsgd1na2vs0mg"},{"bike_id":"87070b4b-67ca-46ca-bb7f-d5a97d044803","system_id":"levelo_inurba_marseille","lat":43.31118,"lon":5.37762,"is_reserved":false,"is_disabled":false,"rental_uris":{"android":"levelo://app?vid=87070b4b-67ca-46ca-bb7f-d5a97d044803","ios":"levelo://app?vid=87070b4b-67ca-46ca-bb7f-d5a97d044803"},"vehicle_type_id":"4","last_reported":1728947305,"current_range_meters":22800,"station_id":"ce4bgt92rcd13ifvqcg0","pricing_plan_id":"cebpf4jnsgd1na2vs0mg"},{"bike_id":"58189e9e-4194-4d27-b971-8ac13dc5383f","system_id":"levelo_inurba_marseille","lat":43.31488,"lon":5.37307,"is_reserved":false,"is_disabled":false,"rental_uris":{"android":"levelo://app?vid=58189e9e-4194-4d27-b971-8ac13dc5383f","ios":"levelo://app?vid=58189e9e-4194-4d27-b971-8ac13dc5383f"},"vehicle_type_id":"4","last_reported":1728947305,"current_range_meters":28800,"station_id":"ce4bgt12rcd13ifvqcd0","pricing_plan_id":"cebpf4jnsgd1na2vs0mg"},{"bike_id":"c50c599b-7eb4-4ae0-bc1f-a366e21ec0ac","system_id":"levelo_inurba_marseille","lat":43.33013,"lon":5.39036,"is_reserved":false,"is_disabled":false,"rental_uris":{"android":"levelo://app?vid=c50c599b-7eb4-4ae0-bc1f-a366e21ec0ac","ios":"levelo://app?vid=c50c599b-7eb4-4ae0-bc1f-a366e21ec0ac"},"vehicle_type_id":"4","last_reported":1728947305,"current_range_meters":36800,"station_id":"ce4bhr92rcd13ifvqhrg","pricing_plan_id":"cebpf4jnsgd1na2vs0mg"},{"bike_id":"44d4703f-bde8-4941-8aba-9d8b90e9d78f","system_id":"levelo_inurba_marseille","lat":43.3014,"lon":5.38776,"is_reserved":false,"is_disabled":false,"rental_uris":{"android":"levelo://app?vid=44d4703f-bde8-4941-8aba-9d8b90e9d78f","ios":"levelo://app?vid=44d4703f-bde8-4941-8aba-9d8b90e9d78f"},"vehicle_type_id":"4","last_reported":1728947305,"current_range_meters":6800,"station_id":"ce4bghh2rcd13ifvqb60","pricing_plan_id":"cebpf4jnsgd1na2vs0mg"},{"bike_id":"affbb959-d301-4244-bb79-4c72a90d3c33","system_id":"levelo_inurba_marseille","lat":43.28257,"lon":5.40909,"is_reserved":false,"is_disabled":false,"rental_uris":{"android":"levelo://app?vid=affbb959-d301-4244-bb79-4c72a90d3c33","ios":"levelo://app?vid=affbb959-d301-4244-bb79-4c72a90d3c33"},"vehicle_type_id":"4","last_reported":1728947305,"current_range_meters":32800,"station_id":"","pricing_plan_id":"cebpf4jnsgd1na2vs0mg"},{"bike_id":"13fdcd62-9f46-4fb7-9985-1cfb68d7ba2a","system_id":"levelo_inurba_marseille","lat":43.29224,"lon":5.36082,"is_reserved":false,"is_disabled":false,"rental_uris":{"android":"levelo://app?vid=13fdcd62-9f46-4fb7-9985-1cfb68d7ba2a","ios":"levelo://app?vid=13fdcd62-9f46-4fb7-9985-1cfb68d7ba2a"},"vehicle_type_id":"4","last_reported":1728947305,"current_range_meters":14800,"station_id":"ce4bhbh2rcd13ifvqeqg","pricing_plan_id":"cebpf4jnsgd1na2vs0mg"},{"bike_id":"9824d324-d859-48cc-9cb5-90b3cf898ef8","system_id":"levelo_inurba_marseille","lat":43.28467,"lon":5.35883,"is_reserved":false,"is_disabled":false,"rental_uris":{"android":"levelo://app?vid=9824d324-d859-48cc-9cb5-90b3cf898ef8","ios":"levelo://app?vid=9824d324-d859-48cc-9cb5-90b3cf898ef8"},"vehicle_type_id":"4","last_reported":1728947305,"current_range_meters":38800,"station_id":"ce4bhah2rcd13ifvqei0","pricing_plan_id":"cebpf4jnsgd1na2vs0mg"},{"bike_id":"124fe4c8-d877-453b-88bd-af8d62d24653","system_id":"levelo_inurba_marseille","lat":43.24647,"lon":5.38894,"is_reserved":false,"is_disabled":false,"rental_uris":{"android":"levelo://app?vid=124fe4c8-d877-453b-88bd-af8d62d24653","ios":"levelo://app?vid=124fe4c8-d877-453b-88bd-af8d62d24653"},"vehicle_type_id":"4","last_reported":1728947305,"current_range_meters":8800,"station_id":"ce4bhg12rcd13ifvqf60","pricing_plan_id":"cebpf4jnsgd1na2vs0mg"},{"bike_id":"d6fed98b-6f3d-4ee9-b77c-30a41d4f3bbb","system_id":"levelo_inurba_marseille","lat":43.28463,"lon":5.35885,"is_reserved":false,"is_disabled":false,"rental_uris":{"android":"levelo://app?vid=d6fed98b-6f3d-4ee9-b77c-30a41d4f3bbb","ios":"levelo://app?vid=d6fed98b-6f3d-4ee9-b77c-30a41d4f3bbb"},"vehicle_type_id":"4","last_reported":1728947305,"current_range_meters":36400,"station_id":"ce4bhah2rcd13ifvqei0","pricing_plan_id":"cebpf4jnsgd1na2vs0mg"},{"bike_id":"fef33a01-1b0e-4553-94a4-fb9045e805f5","system_id":"levelo_inurba_marseille","lat":43.31168,"lon":5.38721,"is_reserved":false,"is_disabled":false,"rental_uris":{"android":"levelo://app?vid=fef33a01-1b0e-4553-94a4-fb9045e805f5","ios":"levelo://app?vid=fef33a01-1b0e-4553-94a4-fb9045e805f5"},"vehicle_type_id":"4","last_reported":1728947305,"current_range_meters":28000,"station_id":"ce4bgv12rcd13ifvqcp0","pricing_plan_id":"cebpf4jnsgd1na2vs0mg"},{"bike_id":"f57f4d6f-75e3-40c2-8b37-fd35a15bf7ea","system_id":"levelo_inurba_marseille","lat":43.28104,"lon":5.37838,"is_reserved":false,"is_disabled":false,"rental_uris":{"android":"levelo://app?vid=f57f4d6f-75e3-40c2-8b37-fd35a15bf7ea","ios":"levelo://app?vid=f57f4d6f-75e3-40c2-8b37-fd35a15bf7ea"},"vehicle_type_id":"4","last_reported":1728947305,"current_range_meters":38000,"station_id":"ce4bha12rcd13ifvqee0","pricing_plan_id":"cebpf4jnsgd1na2vs0mg"},{"bike_id":"fd5d6e39-fef6-41e5-ab0a-5f9e7b94603a","system_id":"levelo_inurba_marseille","lat":43.24646,"lon":5.38894,"is_reserved":false,"is_disabled":false,"rental_uris":{"android":"levelo://app?vid=fd5d6e39-fef6-41e5-ab0a-5f9e7b94603a","ios":"levelo://app?vid=fd5d6e39-fef6-41e5-ab0a-5f9e7b94603a"},"vehicle_type_id":"4","last_reported":1728947305,"current_range_meters":38800,"station_id":"ce4bhg12rcd13ifvqf60","pricing_plan_id":"cebpf4jnsgd1na2vs0mg"},{"bike_id":"8bf5b36e-884a-4ead-a687-4aeaa5d33435","system_id":"levelo_inurba_marseille","lat":43.25874,"lon":5.39905,"is_reserved":false,"is_disabled":false,"rental_uris":{"android":"levelo://app?vid=8bf5b36e-884a-4ead-a687-4aeaa5d33435","ios":"levelo://app?vid=8bf5b36e-884a-4ead-a687-4aeaa5d33435"},"vehicle_type_id":"4","last_reported":1728947305,"current_range_meters":39200,"station_id":"ce4bhl92rcd13ifvqghg","pricing_plan_id":"cebpf4jnsgd1na2vs0mg"},{"bike_id":"a45020b6-6c16-41bf-adef-73c6d102b810","system_id":"levelo_inurba_marseille","lat":43.28701,"lon":5.39972,"is_reserved":false,"is_disabled":false,"rental_uris":{"android":"levelo://app?vid=a45020b6-6c16-41bf-adef-73c6d102b810","ios":"levelo://app?vid=a45020b6-6c16-41bf-adef-73c6d102b810"},"vehicle_type_id":"4","last_reported":1728947305,"current_range_meters":38400,"station_id":"ce4bho92rcd13ifvqh3g","pricing_plan_id":"cebpf4jnsgd1na2vs0mg"},{"bike_id":"e55ce7e2-8e60-47b5-844e-977029bd08ba","system_id":"levelo_inurba_marseille","lat":43.29554,"lon":5.42271,"is_reserved":false,"is_disabled":false,"rental_uris":{"android":"levelo://app?vid=e55ce7e2-8e60-47b5-844e-977029bd08ba","ios":"levelo://app?vid=e55ce7e2-8e60-47b5-844e-977029bd08ba"},"vehicle_type_id":"4","last_reported":1728947305,"current_range_meters":39200,"station_id":"ce4bhph2rcd13ifvqhdg","pricing_plan_id":"cebpf4jnsgd1na2vs0mg"},{"bike_id":"07d70820-54c8-485a-b04b-017096cc6e14","system_id":"levelo_inurba_marseille","lat":43.330253,"lon":5.390403,"is_reserved":false,"is_disabled":false,"rental_uris":{"android":"levelo://app?vid=07d70820-54c8-485a-b04b-017096cc6e14","ios":"levelo://app?vid=07d70820-54c8-485a-b04b-017096cc6e14"},"vehicle_type_id":"4","last_reported":1728947305,"current_range_meters":38800,"station_id":"ce4bhr92rcd13ifvqhrg","pricing_plan_id":"cebpf4jnsgd1na2vs0mg"},{"bike_id":"292b9425-1372-40d4-bf0a-fe57aa779a41","system_id":"levelo_inurba_marseille","lat":43.23058,"lon":5.35495,"is_reserved":false,"is_disabled":false,"rental_uris":{"android":"levelo://app?vid=292b9425-1372-40d4-bf0a-fe57aa779a41","ios":"levelo://app?vid=292b9425-1372-40d4-bf0a-fe57aa779a41"},"vehicle_type_id":"4","last_reported":1728947305,"current_range_meters":36400,"station_id":"cpo3342slgdg3j2ifvpg","pricing_plan_id":"cebpf4jnsgd1na2vs0mg"},{"bike_id":"12461a23-70ed-4bb6-8bd7-3c3e204957fc","system_id":"levelo_inurba_marseille","lat":43.30301,"lon":5.39202,"is_reserved":false,"is_disabled":false,"rental_uris":{"android":"levelo://app?vid=12461a23-70ed-4bb6-8bd7-3c3e204957fc","ios":"levelo://app?vid=12461a23-70ed-4bb6-8bd7-3c3e204957fc"},"vehicle_type_id":"4","last_reported":1728947305,"current_range_meters":40000,"station_id":"ce4bgkh2rcd13ifvqbk0","pricing_plan_id":"cebpf4jnsgd1na2vs0mg"},{"bike_id":"a0e94a62-92b9-4aee-841c-76cf95b5fb0a","system_id":"levelo_inurba_marseille","lat":43.25079,"lon":5.39511,"is_reserved":false,"is_disabled":false,"rental_uris":{"android":"levelo://app?vid=a0e94a62-92b9-4aee-841c-76cf95b5fb0a","ios":"levelo://app?vid=a0e94a62-92b9-4aee-841c-76cf95b5fb0a"},"vehicle_type_id":"4","last_reported":1728947305,"current_range_meters":29600,"station_id":"ce4bhm12rcd13ifvqgkg","pricing_plan_id":"cebpf4jnsgd1na2vs0mg"},{"bike_id":"35b48b50-b446-4a64-9e47-a66935f74835","system_id":"levelo_inurba_marseille","lat":43.27836,"lon":5.39205,"is_reserved":false,"is_disabled":false,"rental_uris":{"android":"levelo://app?vid=35b48b50-b446-4a64-9e47-a66935f74835","ios":"levelo://app?vid=35b48b50-b446-4a64-9e47-a66935f74835"},"vehicle_type_id":"4","last_reported":1728947305,"current_range_meters":39200,"station_id":"ce4bhjp2rcd13ifvqga0","pricing_plan_id":"cebpf4jnsgd1na2vs0mg"},{"bike_id":"4ab6b2ce-f81b-4e19-90f7-924cfa3fce97","system_id":"levelo_inurba_marseille","lat":43.29438,"lon":5.39752,"is_reserved":false,"is_disabled":false,"rental_uris":{"android":"levelo://app?vid=4ab6b2ce-f81b-4e19-90f7-924cfa3fce97","ios":"levelo://app?vid=4ab6b2ce-f81b-4e19-90f7-924cfa3fce97"},"vehicle_type_id":"4","last_reported":1728947305,"current_range_meters":37600,"station_id":"ce4bh3h2rcd13ifvqdo0","pricing_plan_id":"cebpf4jnsgd1na2vs0mg"},{"bike_id":"47fba287-234a-473a-861a-19e3fa341875","system_id":"levelo_inurba_marseille","lat":43.28272,"lon":5.35073,"is_reserved":false,"is_disabled":false,"rental_uris":{"android":"levelo://app?vid=47fba287-234a-473a-861a-19e3fa341875","ios":"levelo://app?vid=47fba287-234a-473a-861a-19e3fa341875"},"vehicle_type_id":"4","last_reported":1728947305,"current_range_meters":8800,"station_id":"ce4bhbp2rcd13ifvqerg","pricing_plan_id":"cebpf4jnsgd1na2vs0mg"},{"bike_id":"92864da1-a397-4a3b-bd33-8b556867fd8f","system_id":"levelo_inurba_marseille","lat":43.24544,"lon":5.39529,"is_reserved":false,"is_disabled":false,"rental_uris":{"android":"levelo://app?vid=92864da1-a397-4a3b-bd33-8b556867fd8f","ios":"levelo://app?vid=92864da1-a397-4a3b-bd33-8b556867fd8f"},"vehicle_type_id":"4","last_reported":1728947305,"current_range_meters":25200,"station_id":"ce4bhlp2rcd13ifvqgjg","pricing_plan_id":"cebpf4jnsgd1na2vs0mg"},{"bike_id":"2f856bfb-366d-4a8a-afe7-c16bc64e24e9","system_id":"levelo_inurba_marseille","lat":43.28855,"lon":5.35842,"is_reserved":false,"is_disabled":false,"rental_uris":{"android":"levelo://app?vid=2f856bfb-366d-4a8a-afe7-c16bc64e24e9","ios":"levelo://app?vid=2f856bfb-366d-4a8a-afe7-c16bc64e24e9"},"vehicle_type_id":"4","last_reported":1728947305,"current_range_meters":25600,"station_id":"ce4bhb12rcd13ifvqem0","pricing_plan_id":"cebpf4jnsgd1na2vs0mg"},{"bike_id":"f9431acc-4158-4e63-bbe0-7544277cc35e","system_id":"levelo_inurba_marseille","lat":43.29032,"lon":5.37567,"is_reserved":false,"is_disabled":false,"rental_uris":{"android":"levelo://app?vid=f9431acc-4158-4e63-bbe0-7544277cc35e","ios":"levelo://app?vid=f9431acc-4158-4e63-bbe0-7544277cc35e"},"vehicle_type_id":"4","last_reported":1728947305,"current_range_meters":28800,"station_id":"ce4bh692rcd13ifvqe90","pricing_plan_id":"cebpf4jnsgd1na2vs0mg"},{"bike_id":"e42a5c5b-19d2-48bc-8dfc-c8514ef28621","system_id":"levelo_inurba_marseille","lat":43.24166,"lon":5.36393,"is_reserved":false,"is_disabled":false,"rental_uris":{"android":"levelo://app?vid=e42a5c5b-19d2-48bc-8dfc-c8514ef28621","ios":"levelo://app?vid=e42a5c5b-19d2-48bc-8dfc-c8514ef28621"},"vehicle_type_id":"4","last_reported":1728947305,"current_range_meters":28400,"station_id":"cpo36qri1sfpv3e86is0","pricing_plan_id":"cebpf4jnsgd1na2vs0mg"},{"bike_id":"24a43979-b432-43c7-83da-543a83415270","system_id":"levelo_inurba_marseille","lat":43.27061,"lon":5.40258,"is_reserved":false,"is_disabled":false,"rental_uris":{"android":"levelo://app?vid=24a43979-b432-43c7-83da-543a83415270","ios":"levelo://app?vid=24a43979-b432-43c7-83da-543a83415270"},"vehicle_type_id":"4","last_reported":1728947305,"current_range_meters":38400,"station_id":"ce4bhk92rcd13ifvqgc0","pricing_plan_id":"cebpf4jnsgd1na2vs0mg"},{"bike_id":"a8e051ed-6aea-47ae-a855-1de69c426089","system_id":"levelo_inurba_marseille","lat":43.25104,"lon":5.40329,"is_reserved":false,"is_disabled":false,"rental_uris":{"android":"levelo://app?vid=a8e051ed-6aea-47ae-a855-1de69c426089","ios":"levelo://app?vid=a8e051ed-6aea-47ae-a855-1de69c426089"},"vehicle_type_id":"4","last_reported":1728947305,"current_range_meters":38800,"station_id":"ce4bhlh2rcd13ifvqgig","pricing_plan_id":"cebpf4jnsgd1na2vs0mg"},{"bike_id":"96312f5f-0242-4af5-8904-5da6da457ea0","system_id":"levelo_inurba_marseille","lat":43.288528,"lon":5.358404,"is_reserved":false,"is_disabled":false,"rental_uris":{"android":"levelo://app?vid=96312f5f-0242-4af5-8904-5da6da457ea0","ios":"levelo://app?vid=96312f5f-0242-4af5-8904-5da6da457ea0"},"vehicle_type_id":"4","last_reported":1728947305,"current_range_meters":38800,"station_id":"ce4bhb12rcd13ifvqem0","pricing_plan_id":"cebpf4jnsgd1na2vs0mg"},{"bike_id":"1e9462cf-eb62-40fa-b817-ae3905be444d","system_id":"levelo_inurba_marseille","lat":43.30189,"lon":5.36606,"is_reserved":false,"is_disabled":false,"rental_uris":{"android":"levelo://app?vid=1e9462cf-eb62-40fa-b817-ae3905be444d","ios":"levelo://app?vid=1e9462cf-eb62-40fa-b817-ae3905be444d"},"vehicle_type_id":"4","last_reported":1728947305,"current_range_meters":38000,"station_id":"ce4bgrh2rcd13ifvqc8g","pricing_plan_id":"cebpf4jnsgd1na2vs0mg"},{"bike_id":"0262a9fe-feca-45d9-bcc5-0db5cd20149e","system_id":"levelo_inurba_marseille","lat":43.31265,"lon":5.40164,"is_reserved":false,"is_disabled":false,"rental_uris":{"android":"levelo://app?vid=0262a9fe-feca-45d9-bcc5-0db5cd20149e","ios":"levelo://app?vid=0262a9fe-feca-45d9-bcc5-0db5cd20149e"},"vehicle_type_id":"4","last_reported":1728947305,"current_range_meters":40000,"station_id":"ce4bh092rcd13ifvqd30","pricing_plan_id":"cebpf4jnsgd1na2vs0mg"},{"bike_id":"c33238aa-1247-4c16-bdb1-0c68942c7f08","system_id":"levelo_inurba_marseille","lat":43.30781,"lon":5.37652,"is_reserved":false,"is_disabled":false,"rental_uris":{"android":"levelo://app?vid=c33238aa-1247-4c16-bdb1-0c68942c7f08","ios":"levelo://app?vid=c33238aa-1247-4c16-bdb1-0c68942c7f08"},"vehicle_type_id":"4","last_reported":1728947305,"current_range_meters":24800,"station_id":"ce4bgv92rcd13ifvqcq0","pricing_plan_id":"cebpf4jnsgd1na2vs0mg"},{"bike_id":"c3d19ee9-9995-4177-baec-3f2c8d846bcb","system_id":"levelo_inurba_marseille","lat":43.30883,"lon":5.39627,"is_reserved":false,"is_disabled":false,"rental_uris":{"android":"levelo://app?vid=c3d19ee9-9995-4177-baec-3f2c8d846bcb","ios":"levelo://app?vid=c3d19ee9-9995-4177-baec-3f2c8d846bcb"},"vehicle_type_id":"4","last_reported":1728947305,"current_range_meters":34000,"station_id":"ce4bh012rcd13ifvqcv0","pricing_plan_id":"cebpf4jnsgd1na2vs0mg"},{"bike_id":"d06f24f3-1961-4c39-8b26-c72733863fe9","system_id":"levelo_inurba_marseille","lat":43.33781,"lon":5.37443,"is_reserved":false,"is_disabled":false,"rental_uris":{"android":"levelo://app?vid=d06f24f3-1961-4c39-8b26-c72733863fe9","ios":"levelo://app?vid=d06f24f3-1961-4c39-8b26-c72733863fe9"},"vehicle_type_id":"4","last_reported":1728947305,"current_range_meters":27200,"station_id":"","pricing_plan_id":"cebpf4jnsgd1na2vs0mg"},{"bike_id":"5d0ca1a8-2664-46ab-b038-f25dc8573e1a","system_id":"levelo_inurba_marseille","lat":43.28004,"lon":5.40007,"is_reserved":false,"is_disabled":false,"rental_uris":{"android":"levelo://app?vid=5d0ca1a8-2664-46ab-b038-f25dc8573e1a","ios":"levelo://app?vid=5d0ca1a8-2664-46ab-b038-f25dc8573e1a"},"vehicle_type_id":"4","last_reported":1728947305,"current_range_meters":38800,"station_id":"ce4bho92rcd13ifvqh4g","pricing_plan_id":"cebpf4jnsgd1na2vs0mg"},{"bike_id":"2da6aa54-ad0c-484f-8279-5aac8ad1d94b","system_id":"levelo_inurba_marseille","lat":43.31715,"lon":5.4241,"is_reserved":false,"is_disabled":false,"rental_uris":{"android":"levelo://app?vid=2da6aa54-ad0c-484f-8279-5aac8ad1d94b","ios":"levelo://app?vid=2da6aa54-ad0c-484f-8279-5aac8ad1d94b"},"vehicle_type_id":"4","last_reported":1728947305,"current_range_meters":37600,"station_id":"ce4bhp92rcd13ifvqhbg","pricing_plan_id":"cebpf4jnsgd1na2vs0mg"},{"bike_id":"6d1e9b82-c078-4afa-ba2d-8366bc0d7400","system_id":"levelo_inurba_marseille","lat":43.29564,"lon":5.3996,"is_reserved":false,"is_disabled":false,"rental_uris":{"android":"levelo://app?vid=6d1e9b82-c078-4afa-ba2d-8366bc0d7400","ios":"levelo://app?vid=6d1e9b82-c078-4afa-ba2d-8366bc0d7400"},"vehicle_type_id":"4","last_reported":1728947305,"current_range_meters":24800,"station_id":"ce4bh312rcd13ifvqdj0","pricing_plan_id":"cebpf4jnsgd1na2vs0mg"},{"bike_id":"59801407-972f-4a36-807e-85d5772337bc","system_id":"levelo_inurba_marseille","lat":43.28076,"lon":5.39649,"is_reserved":false,"is_disabled":false,"rental_uris":{"android":"levelo://app?vid=59801407-972f-4a36-807e-85d5772337bc","ios":"levelo://app?vid=59801407-972f-4a36-807e-85d5772337bc"},"vehicle_type_id":"4","last_reported":1728947305,"current_range_meters":19200,"station_id":"ce4bho12rcd13ifvqh2g","pricing_plan_id":"cebpf4jnsgd1na2vs0mg"},{"bike_id":"537e77d6-1c8a-47f0-9964-2253af554a01","system_id":"levelo_inurba_marseille","lat":43.28663,"lon":5.36357,"is_reserved":false,"is_disabled":false,"rental_uris":{"android":"levelo://app?vid=537e77d6-1c8a-47f0-9964-2253af554a01","ios":"levelo://app?vid=537e77d6-1c8a-47f0-9964-2253af554a01"},"vehicle_type_id":"4","last_reported":1728947305,"current_range_meters":39200,"station_id":"ce4bhah2rcd13ifvqej0","pricing_plan_id":"cebpf4jnsgd1na2vs0mg"},{"bike_id":"de55ef64-fd38-455a-b0e1-1ae601486694","system_id":"levelo_inurba_marseille","lat":43.28459,"lon":5.35895,"is_reserved":false,"is_disabled":false,"rental_uris":{"android":"levelo://app?vid=de55ef64-fd38-455a-b0e1-1ae601486694","ios":"levelo://app?vid=de55ef64-fd38-455a-b0e1-1ae601486694"},"vehicle_type_id":"4","last_reported":1728947305,"current_range_meters":28800,"station_id":"ce4bhah2rcd13ifvqei0","pricing_plan_id":"cebpf4jnsgd1na2vs0mg"},{"bike_id":"d41309ab-1a1f-4395-acaa-455483c3f8e1","system_id":"levelo_inurba_marseille","lat":43.23192,"lon":5.35556,"is_reserved":false,"is_disabled":false,"rental_uris":{"android":"levelo://app?vid=d41309ab-1a1f-4395-acaa-455483c3f8e1","ios":"levelo://app?vid=d41309ab-1a1f-4395-acaa-455483c3f8e1"},"vehicle_type_id":"4","last_reported":1728947305,"current_range_meters":36800,"station_id":"ce4bhu92rcd13ifvqi70","pricing_plan_id":"cebpf4jnsgd1na2vs0mg"},{"bike_id":"4d61dae6-15fa-4e8d-92b6-002cd41e2abc","system_id":"levelo_inurba_marseille","lat":43.28267,"lon":5.35061,"is_reserved":false,"is_disabled":false,"rental_uris":{"android":"levelo://app?vid=4d61dae6-15fa-4e8d-92b6-002cd41e2abc","ios":"levelo://app?vid=4d61dae6-15fa-4e8d-92b6-002cd41e2abc"},"vehicle_type_id":"4","last_reported":1728947305,"current_range_meters":16400,"station_id":"ce4bhbp2rcd13ifvqerg","pricing_plan_id":"cebpf4jnsgd1na2vs0mg"},{"bike_id":"621f96f4-09af-43a6-9d6e-e7a687bab458","system_id":"levelo_inurba_marseille","lat":43.25083,"lon":5.39501,"is_reserved":false,"is_disabled":false,"rental_uris":{"android":"levelo://app?vid=621f96f4-09af-43a6-9d6e-e7a687bab458","ios":"levelo://app?vid=621f96f4-09af-43a6-9d6e-e7a687bab458"},"vehicle_type_id":"4","last_reported":1728947305,"current_range_meters":38800,"station_id":"ce4bhm12rcd13ifvqgkg","pricing_plan_id":"cebpf4jnsgd1na2vs0mg"},{"bike_id":"710523a7-e306-4ecb-ab43-7eb6b3a30162","system_id":"levelo_inurba_marseille","lat":43.30467,"lon":5.40185,"is_reserved":false,"is_disabled":false,"rental_uris":{"android":"levelo://app?vid=710523a7-e306-4ecb-ab43-7eb6b3a30162","ios":"levelo://app?vid=710523a7-e306-4ecb-ab43-7eb6b3a30162"},"vehicle_type_id":"4","last_reported":1728947305,"current_range_meters":25600,"station_id":"","pricing_plan_id":"cebpf4jnsgd1na2vs0mg"},{"bike_id":"3dbf4e3e-5839-4c37-b41f-742e4bb32b46","system_id":"levelo_inurba_marseille","lat":43.308,"lon":5.38143,"is_reserved":false,"is_disabled":false,"rental_uris":{"android":"levelo://app?vid=3dbf4e3e-5839-4c37-b41f-742e4bb32b46","ios":"levelo://app?vid=3dbf4e3e-5839-4c37-b41f-742e4bb32b46"},"vehicle_type_id":"4","last_reported":1728947305,"current_range_meters":12000,"station_id":"ce4bgt12rcd13ifvqce0","pricing_plan_id":"cebpf4jnsgd1na2vs0mg"},{"bike_id":"fca53f66-742d-44ee-956a-20e7ae576730","system_id":"levelo_inurba_marseille","lat":43.31273,"lon":5.40158,"is_reserved":false,"is_disabled":false,"rental_uris":{"android":"levelo://app?vid=fca53f66-742d-44ee-956a-20e7ae576730","ios":"levelo://app?vid=fca53f66-742d-44ee-956a-20e7ae576730"},"vehicle_type_id":"4","last_reported":1728947305,"current_range_meters":11200,"station_id":"ce4bh092rcd13ifvqd30","pricing_plan_id":"cebpf4jnsgd1na2vs0mg"},{"bike_id":"eaedc49c-645c-4444-a4d2-8456bbc17d70","system_id":"levelo_inurba_marseille","lat":43.29904,"lon":5.43656,"is_reserved":false,"is_disabled":false,"rental_uris":{"android":"levelo://app?vid=eaedc49c-645c-4444-a4d2-8456bbc17d70","ios":"levelo://app?vid=eaedc49c-645c-4444-a4d2-8456bbc17d70"},"vehicle_type_id":"4","last_reported":1728947305,"current_range_meters":16000,"station_id":"ce4bhpp2rcd13ifvqhfg","pricing_plan_id":"cebpf4jnsgd1na2vs0mg"},{"bike_id":"20cf49f9-1944-454b-98be-038481d3426a","system_id":"levelo_inurba_marseille","lat":43.32479,"lon":5.36553,"is_reserved":false,"is_disabled":false,"rental_uris":{"android":"levelo://app?vid=20cf49f9-1944-454b-98be-038481d3426a","ios":"levelo://app?vid=20cf49f9-1944-454b-98be-038481d3426a"},"vehicle_type_id":"4","last_reported":1728947305,"current_range_meters":40000,"station_id":"ce4bhs12rcd13ifvqhvg","pricing_plan_id":"cebpf4jnsgd1na2vs0mg"},{"bike_id":"841fb6f8-2296-487b-9f27-17f776d3e1ac","system_id":"levelo_inurba_marseille","lat":43.241776,"lon":5.397315,"is_reserved":false,"is_disabled":false,"rental_uris":{"android":"levelo://app?vid=841fb6f8-2296-487b-9f27-17f776d3e1ac","ios":"levelo://app?vid=841fb6f8-2296-487b-9f27-17f776d3e1ac"},"vehicle_type_id":"4","last_reported":1728947305,"current_range_meters":38000,"station_id":"ce4bhn12rcd13ifvqgpg","pricing_plan_id":"cebpf4jnsgd1na2vs0mg"},{"bike_id":"70c95378-a25a-4142-a216-c8b3cf7fb134","system_id":"levelo_inurba_marseille","lat":43.26049,"lon":5.39391,"is_reserved":false,"is_disabled":false,"rental_uris":{"android":"levelo://app?vid=70c95378-a25a-4142-a216-c8b3cf7fb134","ios":"levelo://app?vid=70c95378-a25a-4142-a216-c8b3cf7fb134"},"vehicle_type_id":"4","last_reported":1728947305,"current_range_meters":38000,"station_id":"ce4bhh92rcd13ifvqfj0","pricing_plan_id":"cebpf4jnsgd1na2vs0mg"},{"bike_id":"69b09ac4-905b-4dfb-80eb-2afebc7708ea","system_id":"levelo_inurba_marseille","lat":43.27827,"lon":5.39197,"is_reserved":false,"is_disabled":false,"rental_uris":{"android":"levelo://app?vid=69b09ac4-905b-4dfb-80eb-2afebc7708ea","ios":"levelo://app?vid=69b09ac4-905b-4dfb-80eb-2afebc7708ea"},"vehicle_type_id":"4","last_reported":1728947305,"current_range_meters":30000,"station_id":"ce4bhjp2rcd13ifvqga0","pricing_plan_id":"cebpf4jnsgd1na2vs0mg"},{"bike_id":"c2de6b46-2359-44a7-a3eb-73ea7522a9b9","system_id":"levelo_inurba_marseille","lat":43.28938,"lon":5.36634,"is_reserved":false,"is_disabled":false,"rental_uris":{"android":"levelo://app?vid=c2de6b46-2359-44a7-a3eb-73ea7522a9b9","ios":"levelo://app?vid=c2de6b46-2359-44a7-a3eb-73ea7522a9b9"},"vehicle_type_id":"4","last_reported":1728947305,"current_range_meters":38000,"station_id":"ce4bhap2rcd13ifvqek0","pricing_plan_id":"cebpf4jnsgd1na2vs0mg"},{"bike_id":"f33ca04e-0fdd-4816-b4fc-80bcd342b78a","system_id":"levelo_inurba_marseille","lat":43.29557,"lon":5.42284,"is_reserved":false,"is_disabled":false,"rental_uris":{"android":"levelo://app?vid=f33ca04e-0fdd-4816-b4fc-80bcd342b78a","ios":"levelo://app?vid=f33ca04e-0fdd-4816-b4fc-80bcd342b78a"},"vehicle_type_id":"4","last_reported":1728947305,"current_range_meters":39200,"station_id":"ce4bhph2rcd13ifvqhdg","pricing_plan_id":"cebpf4jnsgd1na2vs0mg"},{"bike_id":"032379fd-e95c-4e2e-b627-930ca9fb0184","system_id":"levelo_inurba_marseille","lat":43.27808,"lon":5.40711,"is_reserved":false,"is_disabled":false,"rental_uris":{"android":"levelo://app?vid=032379fd-e95c-4e2e-b627-930ca9fb0184","ios":"levelo://app?vid=032379fd-e95c-4e2e-b627-930ca9fb0184"},"vehicle_type_id":"4","last_reported":1728947305,"current_range_meters":38000,"station_id":"ce4bhnh2rcd13ifvqgtg","pricing_plan_id":"cebpf4jnsgd1na2vs0mg"},{"bike_id":"eeeaf89a-2451-4a2b-8e6b-5ef5e62ca9bc","system_id":"levelo_inurba_marseille","lat":43.28435,"lon":5.3918,"is_reserved":false,"is_disabled":false,"rental_uris":{"android":"levelo://app?vid=eeeaf89a-2451-4a2b-8e6b-5ef5e62ca9bc","ios":"levelo://app?vid=eeeaf89a-2451-4a2b-8e6b-5ef5e62ca9bc"},"vehicle_type_id":"4","last_reported":1728947305,"current_range_meters":22400,"station_id":"ce4bhoh2rcd13ifvqh5g","pricing_plan_id":"cebpf4jnsgd1na2vs0mg"},{"bike_id":"ab4b5dd5-7da7-49ec-b6b1-7716be5592e7","system_id":"levelo_inurba_marseille","lat":43.30876,"lon":5.39634,"is_reserved":false,"is_disabled":false,"rental_uris":{"android":"levelo://app?vid=ab4b5dd5-7da7-49ec-b6b1-7716be5592e7","ios":"levelo://app?vid=ab4b5dd5-7da7-49ec-b6b1-7716be5592e7"},"vehicle_type_id":"4","last_reported":1728947305,"current_range_meters":38400,"station_id":"ce4bh012rcd13ifvqcv0","pricing_plan_id":"cebpf4jnsgd1na2vs0mg"},{"bike_id":"93c36816-f903-4ba2-a7c6-a65f08bbd2ec","system_id":"levelo_inurba_marseille","lat":43.29632,"lon":5.40605,"is_reserved":false,"is_disabled":false,"rental_uris":{"android":"levelo://app?vid=93c36816-f903-4ba2-a7c6-a65f08bbd2ec","ios":"levelo://app?vid=93c36816-f903-4ba2-a7c6-a65f08bbd2ec"},"vehicle_type_id":"4","last_reported":1728947305,"current_range_meters":24400,"station_id":"ce4bh0h2rcd13ifvqd60","pricing_plan_id":"cebpf4jnsgd1na2vs0mg"},{"bike_id":"006ce50b-1d1b-4781-a031-2d7cf4fe67be","system_id":"levelo_inurba_marseille","lat":43.24545,"lon":5.39526,"is_reserved":false,"is_disabled":false,"rental_uris":{"android":"levelo://app?vid=006ce50b-1d1b-4781-a031-2d7cf4fe67be","ios":"levelo://app?vid=006ce50b-1d1b-4781-a031-2d7cf4fe67be"},"vehicle_type_id":"4","last_reported":1728947305,"current_range_meters":13600,"station_id":"ce4bhlp2rcd13ifvqgjg","pricing_plan_id":"cebpf4jnsgd1na2vs0mg"},{"bike_id":"00f7f99a-d45a-43de-905c-50f86815ff55","system_id":"levelo_inurba_marseille","lat":43.30949,"lon":5.39053,"is_reserved":false,"is_disabled":false,"rental_uris":{"android":"levelo://app?vid=00f7f99a-d45a-43de-905c-50f86815ff55","ios":"levelo://app?vid=00f7f99a-d45a-43de-905c-50f86815ff55"},"vehicle_type_id":"4","last_reported":1728947305,"current_range_meters":38000,"station_id":"ce4bgup2rcd13ifvqco0","pricing_plan_id":"cebpf4jnsgd1na2vs0mg"},