{"last_updated":1726585757,"ttl":30,"version":"2.2","data":{"bikes":[{"bike_id":"e4be7cad-1ab4-4dc3-94b2-f38d24e73775","system_id":"levelo_inurba_marseille","lat":43.2962,"lon":5.377121,"is_reserved":false,"is_disabled":false,"rental_uris":{"android":"levelo://app?vid=e4be7cad-1ab4-4dc3-94b2-f38d24e73775","ios":"levelo://app?vid=e4be7cad-1ab4-4dc3-94b2-f38d24e73775"},"vehicle_type_id":"4","last_reported":1726585757,"current_range_meters":34800,"station_id":"ce4bgi92rcd13ifvqb90","pricing_plan_id":"cebpf4jnsgd1na2vs0mg"},{"bike_id":"68d4d8e5-c4af-41c0-8804-e15ec363a5c1","system_id":"levelo_inurba_marseille","lat":43.28692,"lon":5.399913,"is_reserved":false,"is_disabled":false,"rental_uris":{"android":"levelo://app?vid=68d4d8e5-c4af-41c0-8804-e15ec363a5c1","ios":"levelo://app?vid=68d4d8e5-c4af-41c0-8804-e15ec363a5c1"},"vehicle_type_id":"4","last_reported":1726585757,"current_range_meters":28800,"station_id":"ce4bho92rcd13ifvqh3g","pricing_plan_id":"cebpf4jnsgd1na2vs0mg"},{"bike_id":"92f0ae7a-f94e-4606-9c60-77a82c00205d","system_id":"levelo_inurba_marseille","lat":43.27496,"lon":5.4243,"is_reserved":false,"is_disabled":false,"rental_uris":{"android":"levelo://app?vid=92f0ae7a-f94e-4606-9c60-77a82c00205d","ios":"levelo://app?vid=92f0ae7a-f94e-4606-9c60-77a82c00205d"},"vehicle_type_id":"4","last_reported":1726585757,"current_range_meters":3600,"station_id":"ce4bhn92rcd13ifvqgrg","pricing_plan_id":"cebpf4jnsgd1na2vs0mg"},{"bike_id":"43176770-eaee-4996-86c7-d408161e4ce6","system_id":"levelo_inurba_marseille","lat":43.29899,"lon":5.4366,"is_reserved":false,"is_disabled":false,"rental_uris":{"android":"levelo://app?vid=43176770-eaee-4996-86c7-d408161e4ce6","ios":"levelo://app?vid=43176770-eaee-4996-86c7-d408161e4ce6"},"vehicle_type_id":"4","last_reported":1726585757,"current_range_meters":5600,"station_id":"ce4bhpp2rcd13ifvqhfg","pricing_plan_id":"cebpf4jnsgd1na2vs0mg"},{"bike_id":"6057dae5-245a-41a7-b726-08dfc7f4b495","system_id":"levelo_inurba_marseille","lat":43.3013,"lon":5.39855,"is_reserved":false,"is_disabled":false,"rental_uris":{"android":"levelo://app?vid=6057dae5-245a-41a7-b726-08dfc7f4b495","ios":"levelo://app?vid=6057dae5-245a-41a7-b726-08dfc7f4b495"},"vehicle_type_id":"4","last_reported":1726585757,"current_range_meters":11200,"station_id":"ce4bh0h2rcd13ifvqd40","pricing_plan_id":"cebpf4jnsgd1na2vs0mg"},{"bike_id":"7b2f97db-eeab-498c-8f29-9de35d358bfe","system_id":"levelo_inurba_marseille","lat":43.26554,"lon":5.37286,"is_reserved":false,"is_disabled":false,"rental_uris":{"android":"levelo://app?vid=7b2f97db-eeab-498c-8f29-9de35d358bfe","ios":"levelo://app?vid=7b2f97db-eeab-498c-8f29-9de35d358bfe"},"vehicle_type_id":"4","last_reported":1726585757,"current_range_meters":30800,"station_id":"ce4bhg12rcd13ifvqf70","pricing_plan_id":"cebpf4jnsgd1na2vs0mg"},{"bike_id":"7242170e-59ed-4ff8-9bd1-442c5b9f4d28","system_id":"levelo_inurba_marseille","lat":43.25494,"lon":5.37653,"is_reserved":false,"is_disabled":false,"rental_uris":{"android":"levelo://app?vid=7242170e-59ed-4ff8-9bd1-442c5b9f4d28","ios":"levelo://app?vid=7242170e-59ed-4ff8-9bd1-442c5b9f4d28"},"vehicle_type_id":"4","last_reported":1726585757,"current_range_meters":25200,"station_id":"ce4bhh12rcd13ifvqff0","pricing_plan_id":"cebpf4jnsgd1na2vs0mg"},{"bike_id":"017ad941-2bc7-4c23-aa10-a9af1a423d28","system_id":"levelo_inurba_marseille","lat":43.33029,"lon":5.39037,"is_reserved":false,"is_disabled":false,"rental_uris":{"android":"levelo://app?vid=017ad941-2bc7-4c23-aa10-a9af1a423d28","ios":"levelo://app?vid=017ad941-2bc7-4c23-aa10-a9af1a423d28"},"vehicle_type_id":"4","last_reported":1726585757,"current_range_meters":15200,"station_id":"ce4bhr92rcd13ifvqhrg","pricing_plan_id":"cebpf4jnsgd1na2vs0mg"},{"bike_id":"8ee5198f-f2e6-42b0-9222-7b0c644ae14e","system_id":"levelo_inurba_marseille","lat":43.31085,"lon":5.42433,"is_reserved":false,"is_disabled":false,"rental_uris":{"android":"levelo://app?vid=8ee5198f-f2e6-42b0-9222-7b0c644ae14e","ios":"levelo://app?vid=8ee5198f-f2e6-42b0-9222-7b0c644ae14e"},"vehicle_type_id":"4","last_reported":1726585757,"current_range_meters":39200,"station_id":"ce4bhp92rcd13ifvqhag","pricing_plan_id":"cebpf4jnsgd1na2vs0mg"},{"bike_id":"5a567a26-d9cf-4db5-9a45-0cc60399f6f1","system_id":"levelo_inurba_marseille","lat":43.30304,"lon":5.368932,"is_reserved":false,"is_disabled":false,"rental_uris":{"android":"levelo://app?vid=5a567a26-d9cf-4db5-9a45-0cc60399f6f1","ios":"levelo://app?vid=5a567a26-d9cf-4db5-9a45-0cc60399f6f1"},"vehicle_type_id":"4","last_reported":1726585757,"current_range_meters":30400,"station_id":"ce4bgqh2rcd13ifvqc5g","pricing_plan_id":"cebpf4jnsgd1na2vs0mg"},{"bike_id":"56845603-e681-4bcf-bd89-fdbea338a6e6","system_id":"levelo_inurba_marseille","lat":43.29682,"lon":5.37291,"is_reserved":false,"is_disabled":false,"rental_uris":{"android":"levelo://app?vid=56845603-e681-4bcf-bd89-fdbea338a6e6","ios":"levelo://app?vid=56845603-e681-4bcf-bd89-fdbea338a6e6"},"vehicle_type_id":"4","last_reported":1726585757,"current_range_meters":20400,"station_id":"ce4bgk12rcd13ifvqbj0","pricing_plan_id":"cebpf4jnsgd1na2vs0mg"},{"bike_id":"c0012247-68dc-4b8c-af23-81e598dbbbc7","system_id":"levelo_inurba_marseille","lat":43.29523,"lon":5.39039,"is_reserved":false,"is_disabled":false,"rental_uris":{"android":"levelo://app?vid=c0012247-68dc-4b8c-af23-81e598dbbbc7","ios":"levelo://app?vid=c0012247-68dc-4b8c-af23-81e598dbbbc7"},"vehicle_type_id":"4","last_reported":1726585757,"current_range_meters":38800,"station_id":"ce4bh3p2rcd13ifvqdp0","pricing_plan_id":"cebpf4jnsgd1na2vs0mg"},{"bike_id":"d2465314-c95c-48a7-be9d-3c09c3f94707","system_id":"levelo_inurba_marseille","lat":43.30179,"lon":5.36603,"is_reserved":false,"is_disabled":false,"rental_uris":{"android":"levelo://app?vid=d2465314-c95c-48a7-be9d-3c09c3f94707","ios":"levelo://app?vid=d2465314-c95c-48a7-be9d-3c09c3f94707"},"vehicle_type_id":"4","last_reported":1726585757,"current_range_meters":4800,"station_id":"ce4bgrh2rcd13ifvqc8g","pricing_plan_id":"cebpf4jnsgd1na2vs0mg"},{"bike_id":"eca6f56a-c217-4a9b-8572-ca126ef55b7c","system_id":"levelo_inurba_marseille","lat":43.26059,"lon":5.39395,"is_reserved":false,"is_disabled":false,"rental_uris":{"android":"levelo://app?vid=eca6f56a-c217-4a9b-8572-ca126ef55b7c","ios":"levelo://app?vid=eca6f56a-c217-4a9b-8572-ca126ef55b7c"},"vehicle_type_id":"4","last_reported":1726585757,"current_range_meters":8400,"station_id":"ce4bhh92rcd13ifvqfj0","pricing_plan_id":"cebpf4jnsgd1na2vs0mg"},{"bike_id":"9d243943-f186-4f8f-b775-710d28fca1e0","system_id":"levelo_inurba_marseille","lat":43.32538,"lon":5.41429,"is_reserved":false,"is_disabled":false,"rental_uris":{"android":"levelo://app?vid=9d243943-f186-4f8f-b775-710d28fca1e0","ios":"levelo://app?vid=9d243943-f186-4f8f-b775-710d28fca1e0"},"vehicle_type_id":"4","last_reported":1726585757,"current_range_meters":32400,"station_id":"ce4bhq12rcd13ifvqhhg","pricing_plan_id":"cebpf4jnsgd1na2vs0mg"},{"bike_id":"9362a171-d355-40d6-8082-a267f9e9eff0","system_id":"levelo_inurba_marseille","lat":43.241807,"lon":5.397059,"is_reserved":false,"is_disabled":false,"rental_uris":{"android":"levelo://app?vid=9362a171-d355-40d6-8082-a267f9e9eff0","ios":"levelo://app?vid=9362a171-d355-40d6-8082-a267f9e9eff0"},"vehicle_type_id":"4","last_reported":1726585757,"current_range_meters":31200,"station_id":"ce4bhn12rcd13ifvqgpg","pricing_plan_id":"cebpf4jnsgd1na2vs0mg"},{"bike_id":"ebbcefaf-20d5-462a-9932-6512ad59f94f","system_id":"levelo_inurba_marseille","lat":43.29846,"lon":5.36272,"is_reserved":false,"is_disabled":false,"rental_uris":{"android":"levelo://app?vid=ebbcefaf-20d5-462a-9932-6512ad59f94f","ios":"levelo://app?vid=ebbcefaf-20d5-462a-9932-6512ad59f94f"},"vehicle_type_id":"4","last_reported":1726585757,"current_range_meters":18800,"station_id":"ce4bgpp2rcd13ifvqc3g","pricing_plan_id":"cebpf4jnsgd1na2vs0mg"},{"bike_id":"add46327-23bc-4055-bbe1-314cfc8e3709","system_id":"levelo_inurba_marseille","lat":43.23198,"lon":5.35555,"is_reserved":false,"is_disabled":false,"rental_uris":{"android":"levelo://app?vid=add46327-23bc-4055-bbe1-314cfc8e3709","ios":"levelo://app?vid=add46327-23bc-4055-bbe1-314cfc8e3709"},"vehicle_type_id":"4","last_reported":1726585757,"current_range_meters":5600,"station_id":"ce4bhu92rcd13ifvqi70","pricing_plan_id":"cebpf4jnsgd1na2vs0mg"},{"bike_id":"71e5352a-3296-436c-9a6e-45237cbdfc98","system_id":"levelo_inurba_marseille","lat":43.31331,"lon":5.39689,"is_reserved":false,"is_disabled":false,"rental_uris":{"android":"levelo://app?vid=71e5352a-3296-436c-9a6e-45237cbdfc98","ios":"levelo://app?vid=71e5352a-3296-436c-9a6e-45237cbdfc98"},"vehicle_type_id":"4","last_reported":1726585757,"current_range_meters":38800,"station_id":"ce4bgvp2rcd13ifvqcu0","pricing_plan_id":"cebpf4jnsgd1na2vs0mg"},{"bike_id":"36587967-1e79-47c3-ba21-dd6bfe64ec87","system_id":"levelo_inurba_marseille","lat":43.32368,"lon":5.38873,"is_reserved":false,"is_disabled":false,"rental_uris":{"android":"levelo://app?vid=36587967-1e79-47c3-ba21-dd6bfe64ec87","ios":"levelo://app?vid=36587967-1e79-47c3-ba21-dd6bfe64ec87"},"vehicle_type_id":"4","last_reported":1726585757,"current_range_meters":16000,"station_id":"ce4bhqp2rcd13ifvqhog","pricing_plan_id":"cebpf4jnsgd1na2vs0mg"},{"bike_id":"d0d176ff-ecfd-4c97-9514-b455f8e5828f","system_id":"levelo_inurba_marseille","lat":43.31078,"lon":5.4243,"is_reserved":false,"is_disabled":false,"rental_uris":{"android":"levelo://app?vid=d0d176ff-ecfd-4c97-9514-b455f8e5828f","ios":"levelo://app?vid=d0d176ff-ecfd-4c97-9514-b455f8e5828f"},"vehicle_type_id":"4","last_reported":1726585757,"current_range_meters":22000,"station_id":"ce4bhp92rcd13ifvqhag","pricing_plan_id":"cebpf4jnsgd1na2vs0mg"},{"bike_id":"e89da338-e3df-4d35-a0b7-c3b0c919a804","system_id":"levelo_inurba_marseille","lat":43.29422,"lon":5.38618,"is_reserved":false,"is_disabled":false,"rental_uris":{"android":"levelo://app?vid=e89da338-e3df-4d35-a0b7-c3b0c919a804","ios":"levelo://app?vid=e89da338-e3df-4d35-a0b7-c3b0c919a804"},"vehicle_type_id":"4","last_reported":1726585757,"current_range_meters":38800,"station_id":"ce4bh2h2rcd13ifvqdh0","pricing_plan_id":"cebpf4jnsgd1na2vs0mg"},{"bike_id":"fabdb534-4967-4da4-9813-b0d61cf97005","system_id":"levelo_inurba_marseille","lat":43.29599,"lon":5.367667,"is_reserved":false,"is_disabled":false,"rental_uris":{"android":"levelo://app?vid=fabdb534-4967-4da4-9813-b0d61cf97005","ios":"levelo://app?vid=fabdb534-4967-4da4-9813-b0d61cf97005"},"vehicle_type_id":"4","last_reported":1726585757,"current_range_meters":37600,"station_id":"ce4bgh92rcd13ifvqb50","pricing_plan_id":"cebpf4jnsgd1na2vs0mg"},{"bike_id":"36ff1673-e996-4918-8958-9ffc564ae753","system_id":"levelo_inurba_marseille","lat":43.29265,"lon":5.40895,"is_reserved":false,"is_disabled":false,"rental_uris":{"android":"levelo://app?vid=36ff1673-e996-4918-8958-9ffc564ae753","ios":"levelo://app?vid=36ff1673-e996-4918-8958-9ffc564ae753"},"vehicle_type_id":"4","last_reported":1726585757,"current_range_meters":28000,"station_id":"ce4bh192rcd13ifvqdc0","pricing_plan_id":"cebpf4jnsgd1na2vs0mg"},{"bike_id":"c9051fb2-e268-45de-b959-b85aef8f7644","system_id":"levelo_inurba_marseille","lat":43.29604,"lon":5.37715,"is_reserved":false,"is_disabled":false,"rental_uris":{"android":"levelo://app?vid=c9051fb2-e268-45de-b959-b85aef8f7644","ios":"levelo://app?vid=c9051fb2-e268-45de-b959-b85aef8f7644"},"vehicle_type_id":"4","last_reported":1726585757,"current_range_meters":28400,"station_id":"ce4bgi92rcd13ifvqb90","pricing_plan_id":"cebpf4jnsgd1na2vs0mg"},{"bike_id":"01759e73-2eb3-4eb0-969b-3ae8a0113287","system_id":"levelo_inurba_marseille","lat":43.25862,"lon":5.39902,"is_reserved":false,"is_disabled":false,"rental_uris":{"android":"levelo://app?vid=01759e73-2eb3-4eb0-969b-3ae8a0113287","ios":"levelo://app?vid=01759e73-2eb3-4eb0-969b-3ae8a0113287"},"vehicle_type_id":"4","last_reported":1726585757,"current_range_meters":4800,"station_id":"ce4bhl92rcd13ifvqghg","pricing_plan_id":"cebpf4jnsgd1na2vs0mg"},{"bike_id":"2a5808e5-1612-4dc1-a62b-b9c71459256c","system_id":"levelo_inurba_marseille","lat":43.34095,"lon":5.39095,"is_reserved":false,"is_disabled":false,"rental_uris":{"android":"levelo://app?vid=2a5808e5-1612-4dc1-a62b-b9c71459256c","ios":"levelo://app?vid=2a5808e5-1612-4dc1-a62b-b9c71459256c"},"vehicle_type_id":"4","last_reported":1726585757,"current_range_meters":10000,"station_id":"","pricing_plan_id":"cebpf4jnsgd1na2vs0mg"},{"bike_id":"9def4d63-7cec-4ef3-bac5-883bf42519e2","system_id":"levelo_inurba_marseille","lat":43.28465,"lon":5.35891,"is_reserved":false,"is_disabled":false,"rental_uris":{"android":"levelo://app?vid=9def4d63-7cec-4ef3-bac5-883bf42519e2","ios":"levelo://app?vid=9def4d63-7cec-4ef3-bac5-883bf42519e2"},"vehicle_type_id":"4","last_reported":1726585757,"current_range_meters":17200,"station_id":"ce4bhah2rcd13ifvqei0","pricing_plan_id":"cebpf4jnsgd1na2vs0mg"},{"bike_id":"0d60255f-dbc9-49ec-8b04-ada5f1b9361d","system_id":"levelo_inurba_marseille","lat":43.32026,"lon":5.41559,"is_reserved":false,"is_disabled":false,"rental_uris":{"android":"levelo://app?vid=0d60255f-dbc9-49ec-8b04-ada5f1b9361d","ios":"levelo://app?vid=0d60255f-dbc9-49ec-8b04-ada5f1b9361d"},"vehicle_type_id":"4","last_reported":1726585757,"current_range_meters":19200,"station_id":"ce4bhq92rcd13ifvqhkg","pricing_plan_id":"cebpf4jnsgd1na2vs0mg"},{"bike_id":"b3588e4b-1826-4185-93b1-04b24b1895d2","system_id":"levelo_inurba_marseille","lat":43.2997,"lon":5.38487,"is_reserved":false,"is_disabled":false,"rental_uris":{"android":"levelo://app?vid=b3588e4b-1826-4185-93b1-04b24b1895d2","ios":"levelo://app?vid=b3588e4b-1826-4185-93b1-04b24b1895d2"},"vehicle_type_id":"4","last_reported":1726585757,"current_range_meters":21600,"station_id":"ce4bh0h2rcd13ifvqd40","pricing_plan_id":"cebpf4jnsgd1na2vs0mg"},{"bike_id":"8e348505-df72-410a-93d0-1c9770028c82","system_id":"levelo_inurba_marseille","lat":43.30796,"lon":5.43521,"is_reserved":false,"is_disabled":false,"rental_uris":{"android":"levelo://app?vid=8e348505-df72-410a-93d0-1c9770028c82","ios":"levelo://app?vid=8e348505-df72-410a-93d0-1c9770028c82"},"vehicle_type_id":"4","last_reported":1726585757,"current_range_meters":27600,"station_id":"ce4bhph2rcd13ifvqheg","pricing_plan_id":"cebpf4jnsgd1na2vs0mg"},{"bike_id":"6a071d55-f702-4d7a-8037-fabd2b8c7fad","system_id":"levelo_inurba_marseille","lat":43.26796,"lon":5.40259,"is_reserved":false,"is_disabled":false,"rental_uris":{"android":"levelo://app?vid=6a071d55-f702-4d7a-8037-fabd2b8c7fad","ios":"levelo://app?vid=6a071d55-f702-4d7a-8037-fabd2b8c7fad"},"vehicle_type_id":"4","last_reported":1726585757,"current_range_meters":7200,"station_id":"ce501612rcd8frsf0b60","pricing_plan_id":"cebpf4jnsgd1na2vs0mg"},{"bike_id":"26ba68ce-9abf-45c1-9160-ad0d48c72a28","system_id":"levelo_inurba_marseille","lat":43.30541,"lon":5.36528,"is_reserved":false,"is_disabled":false,"rental_uris":{"android":"levelo://app?vid=26ba68ce-9abf-45c1-9160-ad0d48c72a28","ios":"levelo://app?vid=26ba68ce-9abf-45c1-9160-ad0d48c72a28"},"vehicle_type_id":"4","last_reported":1726585757,"current_range_meters":33600,"station_id":"ce4bgs12rcd13ifvqcag","pricing_plan_id":"cebpf4jnsgd1na2vs0mg"},{"bike_id":"7c94aa0e-fc27-4ab7-a706-74de2a18f89c","system_id":"levelo_inurba_marseille","lat":43.29532,"lon":5.38539,"is_reserved":false,"is_disabled":false,"rental_uris":{"android":"levelo://app?vid=7c94aa0e-fc27-4ab7-a706-74de2a18f89c","ios":"levelo://app?vid=7c94aa0e-fc27-4ab7-a706-74de2a18f89c"},"vehicle_type_id":"4","last_reported":1726585757,"current_range_meters":12000,"station_id":"ce4bgih2rcd13ifvqba0","pricing_plan_id":"cebpf4jnsgd1na2vs0mg"},{"bike_id":"6c3b465f-08c2-4171-978e-02e7d0439687","system_id":"levelo_inurba_marseille","lat":43.31989,"lon":5.38141,"is_reserved":false,"is_disabled":false,"rental_uris":{"android":"levelo://app?vid=6c3b465f-08c2-4171-978e-02e7d0439687","ios":"levelo://app?vid=6c3b465f-08c2-4171-978e-02e7d0439687"},"vehicle_type_id":"4","last_reported":1726585757,"current_range_meters":37600,"station_id":"ce4bhr12rcd13ifvqhpg","pricing_plan_id":"cebpf4jnsgd1na2vs0mg"},{"bike_id":"f701636f-5785-4315-b84b-03eda67bcee2","system_id":"levelo_inurba_marseille","lat":43.23961,"lon":5.36642,"is_reserved":false,"is_disabled":false,"rental_uris":{"android":"levelo://app?vid=f701636f-5785-4315-b84b-03eda67bcee2","ios":"levelo://app?vid=f701636f-5785-4315-b84b-03eda67bcee2"},"vehicle_type_id":"4","last_reported":1726585757,"current_range_meters":32800,"station_id":"ce4bhi12rcd13ifvqfp0","pricing_plan_id":"cebpf4jnsgd1na2vs0mg"},{"bike_id":"8ed03d4f-f681-4f9a-b0c7-e1c5f7fb06d9","system_id":"levelo_inurba_marseille","lat":43.24084,"lon":5.37749,"is_reserved":false,"is_disabled":false,"rental_uris":{"android":"levelo://app?vid=8ed03d4f-f681-4f9a-b0c7-e1c5f7fb06d9","ios":"levelo://app?vid=8ed03d4f-f681-4f9a-b0c7-e1c5f7fb06d9"},"vehicle_type_id":"4","last_reported":1726585757,"current_range_meters":26800,"station_id":"ce4bhnp2rcd13ifvqgvg","pricing_plan_id":"cebpf4jnsgd1na2vs0mg"},{"bike_id":"2ed86a88-ead4-4bbf-a2e7-573e8d9e60b9","system_id":"levelo_inurba_marseille","lat":43.27616,"lon":5.36099,"is_reserved":false,"is_disabled":false,"rental_uris":{"android":"levelo://app?vid=2ed86a88-ead4-4bbf-a2e7-573e8d9e60b9","ios":"levelo://app?vid=2ed86a88-ead4-4bbf-a2e7-573e8d9e60b9"},"vehicle_type_id":"4","last_reported":1726585757,"current_range_meters":28400,"station_id":"ce4bgj92rcd13ifvqbe0","pricing_plan_id":"cebpf4jnsgd1na2vs0mg"},{"bike_id":"8edcd43e-ef96-4afc-9df9-024ec1cd42d2","system_id":"levelo_inurba_marseille","lat":43.26224,"lon":5.40431,"is_reserved":false,"is_disabled":false,"rental_uris":{"android":"levelo://app?vid=8edcd43e-ef96-4afc-9df9-024ec1cd42d2","ios":"levelo://app?vid=8edcd43e-ef96-4afc-9df9-024ec1cd42d2"},"vehicle_type_id":"4","last_reported":1726585757,"current_range_meters":26000,"station_id":"","pricing_plan_id":"cebpf4jnsgd1na2vs0mg"},{"bike_id":"882e327a-d92c-4bd6-b42d-19c69c8b050c","system_id":"levelo_inurba_marseille","lat":43.30531,"lon":5.36699,"is_reserved":false,"is_disabled":false,"rental_uris":{"android":"levelo://app?vid=882e327a-d92c-4bd6-b42d-19c69c8b050c","ios":"levelo://app?vid=882e327a-d92c-4bd6-b42d-19c69c8b050c"},"vehicle_type_id":"4","last_reported":1726585757,"current_range_meters":36400,"station_id":"ce4bgrp2rcd13ifvqc9g","pricing_plan_id":"cebpf4jnsgd1na2vs0mg"},{"bike_id":"b9f6a000-29a1-4547-89da-cef6582d7a03","system_id":"levelo_inurba_marseille","lat":43.29708,"lon":5.36605,"is_reserved":false,"is_disabled":false,"rental_uris":{"android":"levelo://app?vid=b9f6a000-29a1-4547-89da-cef6582d7a03","ios":"levelo://app?vid=b9f6a000-29a1-4547-89da-cef6582d7a03"},"vehicle_type_id":"4","last_reported":1726585757,"current_range_meters":38800,"station_id":"ce4bgn12rcd13ifvqbt0","pricing_plan_id":"cebpf4jnsgd1na2vs0mg"},{"bike_id":"f409a27c-3291-4d9b-ac57-9e74e75d80d1","system_id":"levelo_inurba_marseille","lat":43.32367,"lon":5.3887,"is_reserved":false,"is_disabled":false,"rental_uris":{"android":"levelo://app?vid=f409a27c-3291-4d9b-ac57-9e74e75d80d1","ios":"levelo://app?vid=f409a27c-3291-4d9b-ac57-9e74e75d80d1"},"vehicle_type_id":"4","last_reported":1726585757,"current_range_meters":13600,"station_id":"ce4bhqp2rcd13ifvqhog","pricing_plan_id":"cebpf4jnsgd1na2vs0mg"},{"bike_id":"a7a0be61-9161-4314-b872-c05463d370c1","system_id":"levelo_inurba_marseille","lat":43.294162,"lon":5.386275,"is_reserved":false,"is_disabled":false,"rental_uris":{"android":"levelo://app?vid=a7a0be61-9161-4314-b872-c05463d370c1","ios":"levelo://app?vid=a7a0be61-9161-4314-b872-c05463d370c1"},"vehicle_type_id":"4","last_reported":1726585757,"current_range_meters":9200,"station_id":"ce4bh2h2rcd13ifvqdh0","pricing_plan_id":"cebpf4jnsgd1na2vs0mg"},{"bike_id":"30ce5f9d-e14d-4ee7-b9f8-22f7215e3c5f","system_id":"levelo_inurba_marseille","lat":43.23152,"lon":5.43723,"is_reserved":false,"is_disabled":false,"rental_uris":{"android":"levelo://app?vid=30ce5f9d-e14d-4ee7-b9f8-22f7215e3c5f","ios":"levelo://app?vid=30ce5f9d-e14d-4ee7-b9f8-22f7215e3c5f"},"vehicle_type_id":"4","last_reported":1726585757,"current_range_meters":22400,"station_id":"ce4bhmp2rcd13ifvqgog","pricing_plan_id":"cebpf4jnsgd1na2vs0mg"},{"bike_id":"108d930b-75d8-49d8-80d3-a26b2293f084","system_id":"levelo_inurba_marseille","lat":43.273169,"lon":5.390673,"is_reserved":false,"is_disabled":false,"rental_uris":{"android":"levelo://app?vid=108d930b-75d8-49d8-80d3-a26b2293f084","ios":"levelo://app?vid=108d930b-75d8-49d8-80d3-a26b2293f084"},"vehicle_type_id":"4","last_reported":1726585757,"current_range_meters":17600,"station_id":"ce4bhgp2rcd13ifvqfe0","pricing_plan_id":"cebpf4jnsgd1na2vs0mg"},{"bike_id":"cd1d4c55-2cbb-4b85-a1be-a7235ca53de6","system_id":"levelo_inurba_marseille","lat":43.32481,"lon":5.36569,"is_reserved":false,"is_disabled":false,"rental_uris":{"android":"levelo://app?vid=cd1d4c55-2cbb-4b85-a1be-a7235ca53de6","ios":"levelo://app?vid=cd1d4c55-2cbb-4b85-a1be-a7235ca53de6"},"vehicle_type_id":"4","last_reported":1726585757,"current_range_meters":24000,"station_id":"ce4bhs12rcd13ifvqhvg","pricing_plan_id":"cebpf4jnsgd1na2vs0mg"},{"bike_id":"ee7cab51-ac41-4df2-a570-0b8afed077f6","system_id":"levelo_inurba_marseille","lat":43.3303,"lon":5.39036,"is_reserved":false,"is_disabled":false,"rental_uris":{"android":"levelo://app?vid=ee7cab51-ac41-4df2-a570-0b8afed077f6","ios":"levelo://app?vid=ee7cab51-ac41-4df2-a570-0b8afed077f6"},"vehicle_type_id":"4","last_reported":1726585757,"current_range_meters":29600,"station_id":"ce4bhr92rcd13ifvqhrg","pricing_plan_id":"cebpf4jnsgd1na2vs0mg"},{"bike_id":"c7f93bf2-2b30-4c5c-aa72-447b3f4a28ea","system_id":"levelo_inurba_marseille","lat":43.29896,"lon":5.43664,"is_reserved":false,"is_disabled":false,"rental_uris":{"android":"levelo://app?vid=c7f93bf2-2b30-4c5c-aa72-447b3f4a28ea","ios":"levelo://app?vid=c7f93bf2-2b30-4c5c-aa72-447b3f4a28ea"},"vehicle_type_id":"4","last_reported":1726585757,"current_range_meters":8800,"station_id":"ce4bhpp2rcd13ifvqhfg","pricing_plan_id":"cebpf4jnsgd1na2vs0mg"},{"bike_id":"58ce924a-882e-43b6-9991-ea8db65c1e2c","system_id":"levelo_inurba_marseille","lat":43.25489,"lon":5.3765,"is_reserved":false,"is_disabled":false,"rental_uris":{"android":"levelo://app?vid=58ce924a-882e-43b6-9991-ea8db65c1e2c","ios":"levelo://app?vid=58ce924a-882e-43b6-9991-ea8db65c1e2c"},"vehicle_type_id":"4","last_reported":1726585757,"current_range_meters":21600,"station_id":"ce4bhh12rcd13ifvqff0","pricing_plan_id":"cebpf4jnsgd1na2vs0mg"},{"bike_id":"22a588b1-cfec-4a63-9499-3cf933091fed","system_id":"levelo_inurba_marseille","lat":43.30543,"lon":5.36701,"is_reserved":false,"is_disabled":false,"rental_uris":{"android":"levelo://app?vid=22a588b1-cfec-4a63-9499-3cf933091fed","ios":"levelo://app?vid=22a588b1-cfec-4a63-9499-3cf933091fed"},"vehicle_type_id":"4","last_reported":1726585757,"current_range_meters":38800,"station_id":"ce4bgrp2rcd13ifvqc9g","pricing_plan_id":"cebpf4jnsgd1na2vs0mg"},{"bike_id":"a492ebef-40c3-4eeb-98c6-c8d8ef0c4056","system_id":"levelo_inurba_marseille","lat":43.29076,"lon":5.37167,"is_reserved":false,"is_disabled":false,"rental_uris":{"android":"levelo://app?vid=a492ebef-40c3-4eeb-98c6-c8d8ef0c4056","ios":"levelo://app?vid=a492ebef-40c3-4eeb-98c6-c8d8ef0c4056"},"vehicle_type_id":"4","last_reported":1726585757,"current_range_meters":33600,"station_id":"ce4bh692rcd13ifvqea0","pricing_plan_id":"cebpf4jnsgd1na2vs0mg"},{"bike_id":"8cfe3626-52b9-4edd-ba44-baecea89025e","system_id":"levelo_inurba_marseille","lat":43.29621,"lon":5.37711,"is_reserved":false,"is_disabled":false,"rental_uris":{"android":"levelo://app?vid=8cfe3626-52b9-4edd-ba44-baecea89025e","ios":"levelo://app?vid=8cfe3626-52b9-4edd-ba44-baecea89025e"},"vehicle_type_id":"4","last_reported":1726585757,"current_range_meters":33600,"station_id":"ce4bgi92rcd13ifvqb90","pricing_plan_id":"cebpf4jnsgd1na2vs0mg"},{"bike_id":"00f237b5-7721-4438-9910-4bc611a11f96","system_id":"levelo_inurba_marseille","lat":43.32271,"lon":5.38256,"is_reserved":false,"is_disabled":false,"rental_uris":{"android":"levelo://app?vid=00f237b5-7721-4438-9910-4bc611a11f96","ios":"levelo://app?vid=00f237b5-7721-4438-9910-4bc611a11f96"},"vehicle_type_id":"4","last_reported":1726585757,"current_range_meters":9200,"station_id":"ce4bhr12rcd13ifvqhqg","pricing_plan_id":"cebpf4jnsgd1na2vs0mg"},{"bike_id":"54d27f26-f2ca-40f9-9a5a-6647c45caba7","system_id":"levelo_inurba_marseille","lat":43.28512,"lon":5.37965,"is_reserved":false,"is_disabled":false,"rental_uris":{"android":"levelo://app?vid=54d27f26-f2ca-40f9-9a5a-6647c45caba7","ios":"levelo://app?vid=54d27f26-f2ca-40f9-9a5a-6647c45caba7"},"vehicle_type_id":"4","last_reported":1726585757,"current_range_meters":27200,"station_id":"","pricing_plan_id":"cebpf4jnsgd1na2vs0mg"},{"bike_id":"82f81282-7625-40c8-b9da-9cb6ad46397b","system_id":"levelo_inurba_marseille","lat":43.29191,"lon":5.35802,"is_reserved":false,"is_disabled":false,"rental_uris":{"android":"levelo://app?vid=82f81282-7625-40c8-b9da-9cb6ad46397b","ios":"levelo://app?vid=82f81282-7625-40c8-b9da-9cb6ad46397b"},"vehicle_type_id":"4","last_reported":1726585757,"current_range_meters":20400,"station_id":"ce4bgr92rcd13ifvqc7g","pricing_plan_id":"cebpf4jnsgd1na2vs0mg"},{"bike_id":"73f741b3-6816-4fbc-91e1-0d009066f067","system_id":"levelo_inurba_marseille","lat":43.30791,"lon":5.37637,"is_reserved":false,"is_disabled":false,"rental_uris":{"android":"levelo://app?vid=73f741b3-6816-4fbc-91e1-0d009066f067","ios":"levelo://app?vid=73f741b3-6816-4fbc-91e1-0d009066f067"},"vehicle_type_id":"4","last_reported":1726585757,"current_range_meters":8800,"station_id":"ce4bgv92rcd13ifvqcq0","pricing_plan_id":"cebpf4jnsgd1na2vs0mg"},{"bike_id":"b88d8bac-711e-49d2-9eee-8f0f2fcec434","system_id":"levelo_inurba_marseille","lat":43.3303,"lon":5.39038,"is_reserved":false,"is_disabled":false,"rental_uris":{"android":"levelo://app?vid=b88d8bac-711e-49d2-9eee-8f0f2fcec434","ios":"levelo://app?vid=b88d8bac-711e-49d2-9eee-8f0f2fcec434"},"vehicle_type_id":"4","last_reported":1726585757,"current_range_meters":28800,"station_id":"ce4bhr92rcd13ifvqhrg","pricing_plan_id":"cebpf4jnsgd1na2vs0mg"},{"bike_id":"eca884a3-a426-45ce-a780-5240260b9642","system_id":"levelo_inurba_marseille","lat":43.30091,"lon":5.39091,"is_reserved":false,"is_disabled":false,"rental_uris":{"android":"levelo://app?vid=eca884a3-a426-45ce-a780-5240260b9642","ios":"levelo://app?vid=eca884a3-a426-45ce-a780-5240260b9642"},"vehicle_type_id":"4","last_reported":1726585757,"current_range_meters":8400,"station_id":"ce4bh192rcd13ifvqdb0","pricing_plan_id":"cebpf4jnsgd1na2vs0mg"},{"bike_id":"3226a81f-c20a-42eb-addd-ddcdf771bb89","system_id":"levelo_inurba_marseille","lat":43.28356,"lon":5.38093,"is_reserved":false,"is_disabled":false,"rental_uris":{"android":"levelo://app?vid=3226a81f-c20a-42eb-addd-ddcdf771bb89","ios":"levelo://app?vid=3226a81f-c20a-42eb-addd-ddcdf771bb89"},"vehicle_type_id":"4","last_reported":1726585757,"current_range_meters":4800,"station_id":"ce4bh412rcd13ifvqdr0","pricing_plan_id":"cebpf4jnsgd1na2vs0mg"},{"bike_id":"efca1381-26f6-4558-9c16-606baf378980","system_id":"levelo_inurba_marseille","lat":43.26929,"lon":5.38924,"is_reserved":false,"is_disabled":false,"rental_uris":{"android":"levelo://app?vid=efca1381-26f6-4558-9c16-606baf378980","ios":"levelo://app?vid=efca1381-26f6-4558-9c16-606baf378980"},"vehicle_type_id":"4","last_reported":1726585757,"current_range_meters":36800,"station_id":"ce4bhhh2rcd13ifvqfl0","pricing_plan_id":"cebpf4jnsgd1na2vs0mg"},{"bike_id":"2e2254f6-d3ed-4277-af5f-ee204e464f40","system_id":"levelo_inurba_marseille","lat":43.29962,"lon":5.41312,"is_reserved":false,"is_disabled":false,"rental_uris":{"android":"levelo://app?vid=2e2254f6-d3ed-4277-af5f-ee204e464f40","ios":"levelo://app?vid=2e2254f6-d3ed-4277-af5f-ee204e464f40"},"vehicle_type_id":"4","last_reported":1726585757,"current_range_meters":38800,"station_id":"ce4bhp12rcd13ifvqh9g","pricing_plan_id":"cebpf4jnsgd1na2vs0mg"},{"bike_id":"a82e4058-1c6e-43ef-b5c8-ed11b0658ac3","system_id":"levelo_inurba_marseille","lat":43.2572,"lon":5.41112,"is_reserved":false,"is_disabled":false,"rental_uris":{"android":"levelo://app?vid=a82e4058-1c6e-43ef-b5c8-ed11b0658ac3","ios":"levelo://app?vid=a82e4058-1c6e-43ef-b5c8-ed11b0658ac3"},"vehicle_type_id":"4","last_reported":1726585757,"current_range_meters":7200,"station_id":"ce4bhkp2rcd13ifvqgd0","pricing_plan_id":"cebpf4jnsgd1na2vs0mg"},{"bike_id":"1154c787-9674-4050-ae25-148ef162edef","system_id":"levelo_inurba_marseille","lat":43.300963,"lon":5.390854,"is_reserved":false,"is_disabled":false,"rental_uris":{"android":"levelo://app?vid=1154c787-9674-4050-ae25-148ef162edef","ios":"levelo://app?vid=1154c787-9674-4050-ae25-148ef162edef"},"vehicle_type_id":"4","last_reported":1726585757,"current_range_meters":37600,"station_id":"ce4bh192rcd13ifvqdb0","pricing_plan_id":"cebpf4jnsgd1na2vs0mg"},{"bike_id":"8cb592d9-f82f-4171-894f-8d7ffa6525e5","system_id":"levelo_inurba_marseille","lat":43.23194,"lon":5.35547,"is_reserved":false,"is_disabled":false,"rental_uris":{"android":"levelo://app?vid=8cb592d9-f82f-4171-894f-8d7ffa6525e5","ios":"levelo://app?vid=8cb592d9-f82f-4171-894f-8d7ffa6525e5"},"vehicle_type_id":"4","last_reported":1726585757,"current_range_meters":18800,"station_id":"ce4bhu92rcd13ifvqi70","pricing_plan_id":"cebpf4jnsgd1na2vs0mg"},{"bike_id":"f5f523a0-e72f-4043-8be8-e6dde1003997","system_id":"levelo_inurba_marseille","lat":43.30141,"lon":5.38067,"is_reserved":false,"is_disabled":false,"rental_uris":{"android":"levelo://app?vid=f5f523a0-e72f-4043-8be8-e6dde1003997","ios":"levelo://app?vid=f5f523a0-e72f-4043-8be8-e6dde1003997"},"vehicle_type_id":"4","last_reported":1726585757,"current_range_meters":6800,"station_id":"ce4bgjp2rcd13ifvqbh0","pricing_plan_id":"cebpf4jnsgd1na2vs0mg"},{"bike_id":"5d75f6aa-86df-493f-8d69-fe45e17e7161","system_id":"levelo_inurba_marseille","lat":43.27372,"lon":5.36244,"is_reserved":false,"is_disabled":false,"rental_uris":{"android":"levelo://app?vid=5d75f6aa-86df-493f-8d69-fe45e17e7161","ios":"levelo://app?vid=5d75f6aa-86df-493f-8d69-fe45e17e7161"},"vehicle_type_id":"4","last_reported":1726585757,"current_range_meters":37600,"station_id":"ce4bhbh2rcd13ifvqeo0","pricing_plan_id":"cebpf4jnsgd1na2vs0mg"},{"bike_id":"32086ed5-6186-405f-a497-3a11b11dc520","system_id":"levelo_inurba_marseille","lat":43.306854,"lon":5.395007,"is_reserved":false,"is_disabled":false,"rental_uris":{"android":"levelo://app?vid=32086ed5-6186-405f-a497-3a11b11dc520","ios":"levelo://app?vid=32086ed5-6186-405f-a497-3a11b11dc520"},"vehicle_type_id":"4","last_reported":1726585757,"current_range_meters":6400,"station_id":"ce4bh012rcd13ifvqcv0","pricing_plan_id":"cebpf4jnsgd1na2vs0mg"},{"bike_id":"699d09b8-17ae-4b5a-81a4-f0906a954e6d","system_id":"levelo_inurba_marseille","lat":43.32729,"lon":5.41388,"is_reserved":false,"is_disabled":false,"rental_uris":{"android":"levelo://app?vid=699d09b8-17ae-4b5a-81a4-f0906a954e6d","ios":"levelo://app?vid=699d09b8-17ae-4b5a-81a4-f0906a954e6d"},"vehicle_type_id":"4","last_reported":1726585757,"current_range_meters":14000,"station_id":"ce4bhr12rcd13ifvqhqg","pricing_plan_id":"cebpf4jnsgd1na2vs0mg"},{"bike_id":"20a4a91d-8541-4958-9b2e-4e75165c8a2a","system_id":"levelo_inurba_marseille","lat":43.30799,"lon":5.43518,"is_reserved":false,"is_disabled":false,"rental_uris":{"android":"levelo://app?vid=20a4a91d-8541-4958-9b2e-4e75165c8a2a","ios":"levelo://app?vid=20a4a91d-8541-4958-9b2e-4e75165c8a2a"},"vehicle_type_id":"4","last_reported":1726585757,"current_range_meters":13600,"station_id":"ce4bhph2rcd13ifvqheg","pricing_plan_id":"cebpf4jnsgd1na2vs0mg"},{"bike_id":"c3bcca86-6294-4639-9d07-9722d40f464e","system_id":"levelo_inurba_marseille","lat":43.29897,"lon":5.43658,"is_reserved":false,"is_disabled":false,"rental_uris":{"android":"levelo://app?vid=c3bcca86-6294-4639-9d07-9722d40f464e","ios":"levelo://app?vid=c3bcca86-6294-4639-9d07-9722d40f464e"},"vehicle_type_id":"4","last_reported":1726585757,"current_range_meters":33200,"station_id":"ce4bhpp2rcd13ifvqhfg","pricing_plan_id":"cebpf4jnsgd1na2vs0mg"},{"bike_id":"b8575011-8302-48a4-8af4-a59ce79d4a2f","system_id":"levelo_inurba_marseille","lat":43.31087,"lon":5.42427,"is_reserved":false,"is_disabled":false,"rental_uris":{"android":"levelo://app?vid=b8575011-8302-48a4-8af4-a59ce79d4a2f","ios":"levelo://app?vid=b8575011-8302-48a4-8af4-a59ce79d4a2f"},"vehicle_type_id":"4","last_reported":1726585757,"current_range_meters":30800,"station_id":"ce4bhp92rcd13ifvqhag","pricing_plan_id":"cebpf4jnsgd1na2vs0mg"},{"bike_id":"464b765a-5bcf-418f-9058-526dab1b44f9","system_id":"levelo_inurba_marseille","lat":43.32289,"lon":5.38281,"is_reserved":false,"is_disabled":false,"rental_uris":{"android":"levelo://app?vid=464b765a-5bcf-418f-9058-526dab1b44f9","ios":"levelo://app?vid=464b765a-5bcf-418f-9058-526dab1b44f9"},"vehicle_type_id":"4","last_reported":1726585757,"current_range_meters":26800,"station_id":"ce4bhr12rcd13ifvqhqg","pricing_plan_id":"cebpf4jnsgd1na2vs0mg"},{"bike_id":"8d4fa9ce-4f53-4bbd-8ebe-9fa61a6486de","system_id":"levelo_inurba_marseille","lat":43.27619,"lon":5.36106,"is_reserved":false,"is_disabled":false,"rental_uris":{"android":"levelo://app?vid=8d4fa9ce-4f53-4bbd-8ebe-9fa61a6486de","ios":"levelo://app?vid=8d4fa9ce-4f53-4bbd-8ebe-9fa61a6486de"},"vehicle_type_id":"4","last_reported":1726585757,"current_range_meters":16800,"station_id":"ce4bgj92rcd13ifvqbe0","pricing_plan_id":"cebpf4jnsgd1na2vs0mg"},{"bike_id":"506f3d29-ca3a-47ec-afd9-fa9160b3347a","system_id":"levelo_inurba_marseille","lat":43.29517,"lon":5.39395,"is_reserved":false,"is_disabled":false,"rental_uris":{"android":"levelo://app?vid=506f3d29-ca3a-47ec-afd9-fa9160b3347a","ios":"levelo://app?vid=506f3d29-ca3a-47ec-afd9-fa9160b3347a"},"vehicle_type_id":"4","last_reported":1726585757,"current_range_meters":28800,"station_id":"ce4bh292rcd13ifvqdf0","pricing_plan_id":"cebpf4jnsgd1na2vs0mg"},{"bike_id":"3dd17066-8d76-4a83-a586-45483b6747ae","system_id":"levelo_inurba_marseille","lat":43.32046,"lon":5.41557,"is_reserved":false,"is_disabled":false,"rental_uris":{"android":"levelo://app?vid=3dd17066-8d76-4a83-a586-45483b6747ae","ios":"levelo://app?vid=3dd17066-8d76-4a83-a586-45483b6747ae"},"vehicle_type_id":"4","last_reported":1726585757,"current_range_meters":34000,"station_id":"ce4bhq92rcd13ifvqhkg","pricing_plan_id":"cebpf4jnsgd1na2vs0mg"},{"bike_id":"8e3c84db-879d-4669-8d43-f74eed3d4c1b","system_id":"levelo_inurba_marseille","lat":43.2737,"lon":5.36253,"is_reserved":false,"is_disabled":false,"rental_uris":{"android":"levelo://app?vid=8e3c84db-879d-4669-8d43-f74eed3d4c1b","ios":"levelo://app?vid=8e3c84db-879d-4669-8d43-f74eed3d4c1b"},"vehicle_type_id":"4","last_reported":1726585757,"current_range_meters":39200,"station_id":"ce4bhbh2rcd13ifvqeo0","pricing_plan_id":"cebpf4jnsgd1na2vs0mg"},{"bike_id":"be233b65-69f5-4ff9-a9b5-1d4bda15ff2b","system_id":"levelo_inurba_marseille","lat":43.29516,"lon":5.37498,"is_reserved":false,"is_disabled":false,"rental_uris":{"android":"levelo://app?vid=be233b65-69f5-4ff9-a9b5-1d4bda15ff2b","ios":"levelo://app?vid=be233b65-69f5-4ff9-a9b5-1d4bda15ff2b"},"vehicle_type_id":"4","last_reported":1726585757,"current_range_meters":4400,"station_id":"ce4bgkp2rcd13ifvqbmg","pricing_plan_id":"cebpf4jnsgd1na2vs0mg"},{"bike_id":"79e579ac-2a47-4719-963d-55325d6598dd","system_id":"levelo_inurba_marseille","lat":43.31492,"lon":5.37316,"is_reserved":false,"is_disabled":false,"rental_uris":{"android":"levelo://app?vid=79e579ac-2a47-4719-963d-55325d6598dd","ios":"levelo://app?vid=79e579ac-2a47-4719-963d-55325d6598dd"},"vehicle_type_id":"4","last_reported":1726585757,"current_range_meters":8400,"station_id":"ce4bgt12rcd13ifvqcd0","pricing_plan_id":"cebpf4jnsgd1na2vs0mg"},{"bike_id":"b1db6496-7d7b-4acc-a88c-e5406d38e100","system_id":"levelo_inurba_marseille","lat":43.23196,"lon":5.35556,"is_reserved":false,"is_disabled":false,"rental_uris":{"android":"levelo://app?vid=b1db6496-7d7b-4acc-a88c-e5406d38e100","ios":"levelo://app?vid=b1db6496-7d7b-4acc-a88c-e5406d38e100"},"vehicle_type_id":"4","last_reported":1726585757,"current_range_meters":27200,"station_id":"ce4bhu92rcd13ifvqi70","pricing_plan_id":"cebpf4jnsgd1na2vs0mg"},{"bike_id":"42a6abfa-385c-4e3b-ae96-ee6eb47eca2a","system_id":"levelo_inurba_marseille","lat":43.29567,"lon":5.38895,"is_reserved":false,"is_disabled":false,"rental_uris":{"android":"levelo://app?vid=42a6abfa-385c-4e3b-ae96-ee6eb47eca2a","ios":"levelo://app?vid=42a6abfa-385c-4e3b-ae96-ee6eb47eca2a"},"vehicle_type_id":"4","last_reported":1726585757,"current_range_meters":21600,"station_id":"","pricing_plan_id":"cebpf4jnsgd1na2vs0mg"},{"bike_id":"733e4865-3357-4a1f-819b-4a724885d4e3","system_id":"levelo_inurba_marseille","lat":43.26921,"lon":5.38638,"is_reserved":false,"is_disabled":false,"rental_uris":{"android":"levelo://app?vid=733e4865-3357-4a1f-819b-4a724885d4e3","ios":"levelo://app?vid=733e4865-3357-4a1f-819b-4a724885d4e3"},"vehicle_type_id":"4","last_reported":1726585757,"current_range_meters":32000,"station_id":"ce4bhh92rcd13ifvqfh0","pricing_plan_id":"cebpf4jnsgd1na2vs0mg"},{"bike_id":"cc3b8af5-922b-47a4-9520-14c9cfb481c6","system_id":"levelo_inurba_marseille","lat":43.27496,"lon":5.42441,"is_reserved":false,"is_disabled":false,"rental_uris":{"android":"levelo://app?vid=cc3b8af5-922b-47a4-9520-14c9cfb481c6","ios":"levelo://app?vid=cc3b8af5-922b-47a4-9520-14c9cfb481c6"},"vehicle_type_id":"4","last_reported":1726585757,"current_range_meters":8000,"station_id":"ce4bhn92rcd13ifvqgrg","pricing_plan_id":"cebpf4jnsgd1na2vs0mg"},{"bike_id":"672dd828-3224-4d4c-ada1-cb01ae4f75bd","system_id":"levelo_inurba_marseille","lat":43.32002,"lon":5.38154,"is_reserved":false,"is_disabled":false,"rental_uris":{"android":"levelo://app?vid=672dd828-3224-4d4c-ada1-cb01ae4f75bd","ios":"levelo://app?vid=672dd828-3224-4d4c-ada1-cb01ae4f75bd"},"vehicle_type_id":"4","last_reported":1726585757,"current_range_meters":11200,"station_id":"ce4bhr12rcd13ifvqhpg","pricing_plan_id":"cebpf4jnsgd1na2vs0mg"},{"bike_id":"23044902-6139-4f93-8a8b-a191abdcd726","system_id":"levelo_inurba_marseille","lat":43.30639,"lon":5.40069,"is_reserved":false,"is_disabled":false,"rental_uris":{"android":"levelo://app?vid=23044902-6139-4f93-8a8b-a191abdcd726","ios":"levelo://app?vid=23044902-6139-4f93-8a8b-a191abdcd726"},"vehicle_type_id":"4","last_reported":1726585757,"current_range_meters":17600,"station_id":"ce4bh112rcd13ifvqda0","pricing_plan_id":"cebpf4jnsgd1na2vs0mg"},{"bike_id":"b645ac77-0d58-4fa9-8ad3-947af8bdb1d9","system_id":"levelo_inurba_marseille","lat":43.29897,"lon":5.43669,"is_reserved":false,"is_disabled":false,"rental_uris":{"android":"levelo://app?vid=b645ac77-0d58-4fa9-8ad3-947af8bdb1d9","ios":"levelo://app?vid=b645ac77-0d58-4fa9-8ad3-947af8bdb1d9"},"vehicle_type_id":"4","last_reported":1726585757,"current_range_meters":24400,"station_id":"ce4bhpp2rcd13ifvqhfg","pricing_plan_id":"cebpf4jnsgd1na2vs0mg"},{"bike_id":"40c4d1c9-d11f-4d3a-bac4-7d3b7b52cfb8","system_id":"levelo_inurba_marseille","lat":43.292975,"lon":5.374667,"is_reserved":false,"is_disabled":false,"rental_uris":{"android":"levelo://app?vid=40c4d1c9-d11f-4d3a-bac4-7d3b7b52cfb8","ios":"levelo://app?vid=40c4d1c9-d11f-4d3a-bac4-7d3b7b52cfb8"},"vehicle_type_id":"4","last_reported":1726585757,"current_range_meters":26800,"station_id":"ce4bgi12rcd13ifvqb70","pricing_plan_id":"cebpf4jnsgd1na2vs0mg"},{"bike_id":"62671458-8eaa-4077-b200-54702184bb40","system_id":"levelo_inurba_marseille","lat":43.27834,"lon":5.39207,"is_reserved":false,"is_disabled":false,"rental_uris":{"android":"levelo://app?vid=62671458-8eaa-4077-b200-54702184bb40","ios":"levelo://app?vid=62671458-8eaa-4077-b200-54702184bb40"},"vehicle_type_id":"4","last_reported":1726585757,"current_range_meters":24800,"station_id":"ce4bhjp2rcd13ifvqga0","pricing_plan_id":"cebpf4jnsgd1na2vs0mg"},{"bike_id":"e8e3a2d9-395a-4aca-b53b-5a624e9f8474","system_id":"levelo_inurba_marseille","lat":43.30147,"lon":5.38066,"is_reserved":false,"is_disabled":false,"rental_uris":{"android":"levelo://app?vid=e8e3a2d9-395a-4aca-b53b-5a624e9f8474","ios":"levelo://app?vid=e8e3a2d9-395a-4aca-b53b-5a624e9f8474"},"vehicle_type_id":"4","last_reported":1726585757,"current_range_meters":5600,"station_id":"ce4bgjp2rcd13ifvqbh0","pricing_plan_id":"cebpf4jnsgd1na2vs0mg"},{"bike_id":"3ad25104-e05a-413a-8b77-728c6ffdbbad","system_id":"levelo_inurba_marseille","lat":43.32288,"lon":5.38273,"is_reserved":false,"is_disabled":false,"rental_uris":{"android":"levelo://app?vid=3ad25104-e05a-413a-8b77-728c6ffdbbad","ios":"levelo://app?vid=3ad25104-e05a-413a-8b77-728c6ffdbbad"},"vehicle_type_id":"4","last_reported":1726585757,"current_range_meters":32000,"station_id":"ce4bhr12rcd13ifvqhqg","pricing_plan_id":"cebpf4jnsgd1na2vs0mg"},{"bike_id":"677498c9-746b-4650-9a8e-2c7479635944","system_id":"levelo_inurba_marseille","lat":43.33026,"lon":5.39046,"is_reserved":false,"is_disabled":false,"rental_uris":{"android":"levelo://app?vid=677498c9-746b-4650-9a8e-2c7479635944","ios":"levelo://app?vid=677498c9-746b-4650-9a8e-2c7479635944"},"vehicle_type_id":"4","last_reported":1726585757,"current_range_meters":21600,"station_id":"ce4bhr92rcd13ifvqhrg","pricing_plan_id":"cebpf4jnsgd1na2vs0mg"},{"bike_id":"a8f001cc-011c-492d-845a-c4644d2a1f1e","system_id":"levelo_inurba_marseille","lat":43.32537,"lon":5.41429,"is_reserved":false,"is_disabled":false,"rental_uris":{"android":"levelo://app?vid=a8f001cc-011c-492d-845a-c4644d2a1f1e","ios":"levelo://app?vid=a8f001cc-011c-492d-845a-c4644d2a1f1e"},"vehicle_type_id":"4","last_reported":1726585757,"current_range_meters":16400,"station_id":"ce4bhq12rcd13ifvqhhg","pricing_plan_id":"cebpf4jnsgd1na2vs0mg"},{"bike_id":"82e335f2-5e8d-48a4-be97-64f6b8097063","system_id":"levelo_inurba_marseille","lat":43.27204,"lon":5.39188,"is_reserved":false,"is_disabled":false,"rental_uris":{"android":"levelo://app?vid=82e335f2-5e8d-48a4-be97-64f6b8097063","ios":"levelo://app?vid=82e335f2-5e8d-48a4-be97-64f6b8097063"},"vehicle_type_id":"4","last_reported":1726585757,"current_range_meters":8400,"station_id":"ce4bhhp2rcd13ifvqfm0","pricing_plan_id":"cebpf4jnsgd1na2vs0mg"},{"bike_id":"0aff2689-3e67-4569-b0ff-18a3fce32146","system_id":"levelo_inurba_marseille","lat":43.30788,"lon":5.37656,"is_reserved":false,"is_disabled":false,"rental_uris":{"android":"levelo://app?vid=0aff2689-3e67-4569-b0ff-18a3fce32146","ios":"levelo://app?vid=0aff2689-3e67-4569-b0ff-18a3fce32146"},"vehicle_type_id":"4","last_reported":1726585757,"current_range_meters":19600,"station_id":"ce4bgv92rcd13ifvqcq0","pricing_plan_id":"cebpf4jnsgd1na2vs0mg"},{"bike_id":"e99ef4cc-db5d-4937-90ae-ef4bc6ab20e0","system_id":"levelo_inurba_marseille","lat":43.32488,"lon":5.36562,"is_reserved":false,"is_disabled":false,"rental_uris":{"android":"levelo://app?vid=e99ef4cc-db5d-4937-90ae-ef4bc6ab20e0","ios":"levelo://app?vid=e99ef4cc-db5d-4937-90ae-ef4bc6ab20e0"},"vehicle_type_id":"4","last_reported":1726585757,"current_range_meters":38800,"station_id":"ce4bhs12rcd13ifvqhvg","pricing_plan_id":"cebpf4jnsgd1na2vs0mg"},{"bike_id":"0e7fa0af-7f2f-4ef9-9134-c3fffbdc0a42","system_id":"levelo_inurba_marseille","lat":43.31359,"lon":5.38491,"is_reserved":false,"is_disabled":false,"rental_uris":{"android":"levelo://app?vid=0e7fa0af-7f2f-4ef9-9134-c3fffbdc0a42","ios":"levelo://app?vid=0e7fa0af-7f2f-4ef9-9134-c3fffbdc0a42"},"vehicle_type_id":"4","last_reported":1726585757,"current_range_meters":32400,"station_id":"ce4bgt92rcd13ifvqcf0","pricing_plan_id":"cebpf4jnsgd1na2vs0mg"},{"bike_id":"55cf1243-68c6-4e83-8056-4ffaf9009e99","system_id":"levelo_inurba_marseille","lat":43.30533,"lon":5.36544,"is_reserved":false,"is_disabled":false,"rental_uris":{"android":"levelo://app?vid=55cf1243-68c6-4e83-8056-4ffaf9009e99","ios":"levelo://app?vid=55cf1243-68c6-4e83-8056-4ffaf9009e99"},"vehicle_type_id":"4","last_reported":1726585757,"current_range_meters":37600,"station_id":"ce4bgs12rcd13ifvqcag","pricing_plan_id":"cebpf4jnsgd1na2vs0mg"},{"bike_id":"e322896a-9301-4e00-8a2b-00ac0afcf56a","system_id":"levelo_inurba_marseille","lat":43.2971,"lon":5.36615,"is_reserved":false,"is_disabled":false,"rental_uris":{"android":"levelo://app?vid=e322896a-9301-4e00-8a2b-00ac0afcf56a","ios":"levelo://app?vid=e322896a-9301-4e00-8a2b-00ac0afcf56a"},"vehicle_type_id":"4","last_reported":1726585757,"current_range_meters":38800,"station_id":"ce4bgn12rcd13ifvqbt0","pricing_plan_id":"cebpf4jnsgd1na2vs0mg"},{"bike_id":"51a70f55-86d5-469b-84d3-2da1e7367cdb","system_id":"levelo_inurba_marseille","lat":43.30184,"lon":5.36624,"is_reserved":false,"is_disabled":false,"rental_uris":{"android":"levelo://app?vid=51a70f55-86d5-469b-84d3-2da1e7367cdb","ios":"levelo://app?vid=51a70f55-86d5-469b-84d3-2da1e7367cdb"},"vehicle_type_id":"4","last_reported":1726585757,"current_range_meters":28800,"station_id":"ce4bgrh2rcd13ifvqc8g","pricing_plan_id":"cebpf4jnsgd1na2vs0mg"},{"bike_id":"15f0a6a0-fc99-4f34-a617-ef73335b938c","system_id":"levelo_inurba_marseille","lat":43.25727,"lon":5.41107,"is_reserved":false,"is_disabled":false,"rental_uris":{"android":"levelo://app?vid=15f0a6a0-fc99-4f34-a617-ef73335b938c","ios":"levelo://app?vid=15f0a6a0-fc99-4f34-a617-ef73335b938c"},"vehicle_type_id":"4","last_reported":1726585757,"current_range_meters":21600,"station_id":"ce4bhkp2rcd13ifvqgd0","pricing_plan_id":"cebpf4jnsgd1na2vs0mg"},{"bike_id":"8c8e7811-3dde-492d-af70-27b64d1d92d5","system_id":"levelo_inurba_marseille","lat":43.29683,"lon":5.37285,"is_reserved":false,"is_disabled":false,"rental_uris":{"android":"levelo://app?vid=8c8e7811-3dde-492d-af70-27b64d1d92d5","ios":"levelo://app?vid=8c8e7811-3dde-492d-af70-27b64d1d92d5"},"vehicle_type_id":"4","last_reported":1726585757,"current_range_meters":30800,"station_id":"ce4bgk12rcd13ifvqbj0","pricing_plan_id":"cebpf4jnsgd1na2vs0mg"},{"bike_id":"182d1093-90b1-4c7b-b983-e0d1fe141873","system_id":"levelo_inurba_marseille","lat":43.25117,"lon":5.40318,"is_reserved":false,"is_disabled":false,"rental_uris":{"android":"levelo://app?vid=182d1093-90b1-4c7b-b983-e0d1fe141873","ios":"levelo://app?vid=182d1093-90b1-4c7b-b983-e0d1fe141873"},"vehicle_type_id":"4","last_reported":1726585757,"current_range_meters":38000,"station_id":"ce4bhlh2rcd13ifvqgig","pricing_plan_id":"cebpf4jnsgd1na2vs0mg"},{"bike_id":"59138867-961f-4aa9-ad08-a421cd6775e7","system_id":"levelo_inurba_marseille","lat":43.27918,"lon":5.39576,"is_reserved":false,"is_disabled":false,"rental_uris":{"android":"levelo://app?vid=59138867-961f-4aa9-ad08-a421cd6775e7","ios":"levelo://app?vid=59138867-961f-4aa9-ad08-a421cd6775e7"},"vehicle_type_id":"4","last_reported":1726585757,"current_range_meters":28000,"station_id":"ce4bhf92rcd13ifvqf40","pricing_plan_id":"cebpf4jnsgd1na2vs0mg"},{"bike_id":"53d267b1-e83b-4a88-b76b-9d644cef2d8e","system_id":"levelo_inurba_marseille","lat":43.30933,"lon":5.4014,"is_reserved":false,"is_disabled":false,"rental_uris":{"android":"levelo://app?vid=53d267b1-e83b-4a88-b76b-9d644cef2d8e","ios":"levelo://app?vid=53d267b1-e83b-4a88-b76b-9d644cef2d8e"},"vehicle_type_id":"4","last_reported":1726585757,"current_range_meters":27600,"station_id":"ce4bgvp2rcd13ifvqct0","pricing_plan_id":"cebpf4jnsgd1na2vs0mg"},{"bike_id":"1de4de3a-2ef8-42cb-8c7d-7ebf1bc7e98b","system_id":"levelo_inurba_marseille","lat":43.27619,"lon":5.36121,"is_reserved":false,"is_disabled":false,"rental_uris":{"android":"levelo://app?vid=1de4de3a-2ef8-42cb-8c7d-7ebf1bc7e98b","ios":"levelo://app?vid=1de4de3a-2ef8-42cb-8c7d-7ebf1bc7e98b"},"vehicle_type_id":"4","last_reported":1726585757,"current_range_meters":38800,"station_id":"ce4bgj92rcd13ifvqbe0","pricing_plan_id":"cebpf4jnsgd1na2vs0mg"},{"bike_id":"99684f50-b398-427b-a4e9-7ca0a0382c79","system_id":"levelo_inurba_marseille","lat":43.23199,"lon":5.35547,"is_reserved":false,"is_disabled":false,"rental_uris":{"android":"levelo://app?vid=99684f50-b398-427b-a4e9-7ca0a0382c79","ios":"levelo://app?vid=99684f50-b398-427b-a4e9-7ca0a0382c79"},"vehicle_type_id":"4","last_reported":1726585757,"current_range_meters":38800,"station_id":"ce4bhu92rcd13ifvqi70","pricing_plan_id":"cebpf4jnsgd1na2vs0mg"},{"bike_id":"3035210a-8e82-44b6-b145-b99eb6bcaa5e","system_id":"levelo_inurba_marseille","lat":43.28458,"lon":5.35895,"is_reserved":false,"is_disabled":false,"rental_uris":{"android":"levelo://app?vid=3035210a-8e82-44b6-b145-b99eb6bcaa5e","ios":"levelo://app?vid=3035210a-8e82-44b6-b145-b99eb6bcaa5e"},"vehicle_type_id":"4","last_reported":1726585757,"current_range_meters":16000,"station_id":"ce4bhah2rcd13ifvqei0","pricing_plan_id":"cebpf4jnsgd1na2vs0mg"},{"bike_id":"217c3038-c26d-480b-9c69-a8be78201d53","system_id":"levelo_inurba_marseille","lat":43.293948,"lon":5.376779,"is_reserved":false,"is_disabled":false,"rental_uris":{"android":"levelo://app?vid=217c3038-c26d-480b-9c69-a8be78201d53","ios":"levelo://app?vid=217c3038-c26d-480b-9c69-a8be78201d53"},"vehicle_type_id":"4","last_reported":1726585757,"current_range_meters":30800,"station_id":"ce4bgi12rcd13ifvqb70","pricing_plan_id":"cebpf4jnsgd1na2vs0mg"},{"bike_id":"d782c430-b2c7-45ce-aaaf-78dc9a80ca97","system_id":"levelo_inurba_marseille","lat":43.33025,"lon":5.39039,"is_reserved":false,"is_disabled":false,"rental_uris":{"android":"levelo://app?vid=d782c430-b2c7-45ce-aaaf-78dc9a80ca97","ios":"levelo://app?vid=d782c430-b2c7-45ce-aaaf-78dc9a80ca97"},"vehicle_type_id":"4","last_reported":1726585757,"current_range_meters":26800,"station_id":"ce4bhr92rcd13ifvqhrg","pricing_plan_id":"cebpf4jnsgd1na2vs0mg"},{"bike_id":"02f71644-20e6-4580-8508-867a7a012d4d","system_id":"levelo_inurba_marseille","lat":43.24994,"lon":5.38939,"is_reserved":false,"is_disabled":false,"rental_uris":{"android":"levelo://app?vid=02f71644-20e6-4580-8508-867a7a012d4d","ios":"levelo://app?vid=02f71644-20e6-4580-8508-867a7a012d4d"},"vehicle_type_id":"4","last_reported":1726585757,"current_range_meters":5600,"station_id":"ce4bhgp2rcd13ifvqfd0","pricing_plan_id":"cebpf4jnsgd1na2vs0mg"},{"bike_id":"6c1468de-e14a-407b-9a20-3cdfa0922744","system_id":"levelo_inurba_marseille","lat":43.28462,"lon":5.35891,"is_reserved":false,"is_disabled":false,"rental_uris":{"android":"levelo://app?vid=6c1468de-e14a-407b-9a20-3cdfa0922744","ios":"levelo://app?vid=6c1468de-e14a-407b-9a20-3cdfa0922744"},"vehicle_type_id":"4","last_reported":1726585757,"current_range_meters":39200,"station_id":"ce4bhah2rcd13ifvqei0","pricing_plan_id":"cebpf4jnsgd1na2vs0mg"},{"bike_id":"496e6e0a-03c0-469b-a66b-529cb267131d","system_id":"levelo_inurba_marseille","lat":43.24177,"lon":5.39735,"is_reserved":false,"is_disabled":false,"rental_uris":{"android":"levelo://app?vid=496e6e0a-03c0-469b-a66b-529cb267131d","ios":"levelo://app?vid=496e6e0a-03c0-469b-a66b-529cb267131d"},"vehicle_type_id":"4","last_reported":1726585757,"current_range_meters":20400,"station_id":"ce4bhn12rcd13ifvqgpg","pricing_plan_id":"cebpf4jnsgd1na2vs0mg"},{"bike_id":"34a90722-f629-41bb-bdb8-6f743a933f4a","system_id":"levelo_inurba_marseille","lat":43.29587,"lon":5.36734,"is_reserved":false,"is_disabled":false,"rental_uris":{"android":"levelo://app?vid=34a90722-f629-41bb-bdb8-6f743a933f4a","ios":"levelo://app?vid=34a90722-f629-41bb-bdb8-6f743a933f4a"},"vehicle_type_id":"4","last_reported":1726585757,"current_range_meters":38800,"station_id":"ce4bgph2rcd13ifvqc2g","pricing_plan_id":"cebpf4jnsgd1na2vs0mg"},{"bike_id":"2b714e73-49f8-4f26-bb6d-7d72ce23aabc","system_id":"levelo_inurba_marseille","lat":43.23053,"lon":5.35488,"is_reserved":false,"is_disabled":false,"rental_uris":{"android":"levelo://app?vid=2b714e73-49f8-4f26-bb6d-7d72ce23aabc","ios":"levelo://app?vid=2b714e73-49f8-4f26-bb6d-7d72ce23aabc"},"vehicle_type_id":"4","last_reported":1726585757,"current_range_meters":12400,"station_id":"cpo3342slgdg3j2ifvpg","pricing_plan_id":"cebpf4jnsgd1na2vs0mg"},{"bike_id":"3183cc8f-6af1-47a0-af41-66ef528efc3f","system_id":"levelo_inurba_marseille","lat":43.30809,"lon":5.38135,"is_reserved":false,"is_disabled":false,"rental_uris":{"android":"levelo://app?vid=3183cc8f-6af1-47a0-af41-66ef528efc3f","ios":"levelo://app?vid=3183cc8f-6af1-47a0-af41-66ef528efc3f"},"vehicle_type_id":"4","last_reported":1726585757,"current_range_meters":14000,"station_id":"ce4bgt12rcd13ifvqce0","pricing_plan_id":"cebpf4jnsgd1na2vs0mg"},{"bike_id":"86487b22-4b2f-4876-a550-05cc03d3ed0f","system_id":"levelo_inurba_marseille","lat":43.31117,"lon":5.37783,"is_reserved":false,"is_disabled":false,"rental_uris":{"android":"levelo://app?vid=86487b22-4b2f-4876-a550-05cc03d3ed0f","ios":"levelo://app?vid=86487b22-4b2f-4876-a550-05cc03d3ed0f"},"vehicle_type_id":"4","last_reported":1726585757,"current_range_meters":38800,"station_id":"ce4bgt92rcd13ifvqcg0","pricing_plan_id":"cebpf4jnsgd1na2vs0mg"},{"bike_id":"dac5aff9-f6ef-449b-9338-9d10f668bd34","system_id":"levelo_inurba_marseille","lat":43.28106,"lon":5.37838,"is_reserved":false,"is_disabled":false,"rental_uris":{"android":"levelo://app?vid=dac5aff9-f6ef-449b-9338-9d10f668bd34","ios":"levelo://app?vid=dac5aff9-f6ef-449b-9338-9d10f668bd34"},"vehicle_type_id":"4","last_reported":1726585757,"current_range_meters":28800,"station_id":"ce4bha12rcd13ifvqee0","pricing_plan_id":"cebpf4jnsgd1na2vs0mg"},{"bike_id":"dff3dd77-7187-4652-8073-1f3353d0530f","system_id":"levelo_inurba_marseille","lat":43.28678,"lon":5.38096,"is_reserved":false,"is_disabled":false,"rental_uris":{"android":"levelo://app?vid=dff3dd77-7187-4652-8073-1f3353d0530f","ios":"levelo://app?vid=dff3dd77-7187-4652-8073-1f3353d0530f"},"vehicle_type_id":"4","last_reported":1726585757,"current_range_meters":6800,"station_id":"ce4bha12rcd13ifvqee0","pricing_plan_id":"cebpf4jnsgd1na2vs0mg"},{"bike_id":"8cba807a-492a-438b-8156-772a022a37ef","system_id":"levelo_inurba_marseille","lat":43.24548,"lon":5.39521,"is_reserved":false,"is_disabled":false,"rental_uris":{"android":"levelo://app?vid=8cba807a-492a-438b-8156-772a022a37ef","ios":"levelo://app?vid=8cba807a-492a-438b-8156-772a022a37ef"},"vehicle_type_id":"4","last_reported":1726585757,"current_range_meters":13600,"station_id":"ce4bhlp2rcd13ifvqgjg","pricing_plan_id":"cebpf4jnsgd1na2vs0mg"},{"bike_id":"8d359dc8-e4ce-43f6-a579-842aef3ec8f4","system_id":"levelo_inurba_marseille","lat":43.24544,"lon":5.3952,"is_reserved":false,"is_disabled":false,"rental_uris":{"android":"levelo://app?vid=8d359dc8-e4ce-43f6-a579-842aef3ec8f4","ios":"levelo://app?vid=8d359dc8-e4ce-43f6-a579-842aef3ec8f4"},"vehicle_type_id":"4","last_reported":1726585757,"current_range_meters":31200,"station_id":"ce4bhlp2rcd13ifvqgjg","pricing_plan_id":"cebpf4jnsgd1na2vs0mg"},{"bike_id":"e4b53e43-158a-426e-af68-ec9e46026644","system_id":"levelo_inurba_marseille","lat":43.29638,"lon":5.3715,"is_reserved":false,"is_disabled":false,"rental_uris":{"android":"levelo://app?vid=e4b53e43-158a-426e-af68-ec9e46026644","ios":"levelo://app?vid=e4b53e43-158a-426e-af68-ec9e46026644"},"vehicle_type_id":"4","last_reported":1726585757,"current_range_meters":39200,"station_id":"ce4bgnh2rcd13ifvqc0g","pricing_plan_id":"cebpf4jnsgd1na2vs0mg"},{"bike_id":"2d132183-9542-447b-8318-cefe146f40ca","system_id":"levelo_inurba_marseille","lat":43.32365,"lon":5.38888,"is_reserved":false,"is_disabled":false,"rental_uris":{"android":"levelo://app?vid=2d132183-9542-447b-8318-cefe146f40ca","ios":"levelo://app?vid=2d132183-9542-447b-8318-cefe146f40ca"},"vehicle_type_id":"4","last_reported":1726585757,"current_range_meters":12800,"station_id":"ce4bhqp2rcd13ifvqhog","pricing_plan_id":"cebpf4jnsgd1na2vs0mg"},{"bike_id":"6ddd5076-d872-40de-8226-230980709a17","system_id":"levelo_inurba_marseille","lat":43.29258,"lon":5.40905,"is_reserved":false,"is_disabled":false,"rental_uris":{"android":"levelo://app?vid=6ddd5076-d872-40de-8226-230980709a17","ios":"levelo://app?vid=6ddd5076-d872-40de-8226-230980709a17"},"vehicle_type_id":"4","last_reported":1726585757,"current_range_meters":9600,"station_id":"ce4bh192rcd13ifvqdc0","pricing_plan_id":"cebpf4jnsgd1na2vs0mg"},{"bike_id":"5a042452-6682-49af-88a9-908596425f16","system_id":"levelo_inurba_marseille","lat":43.27837,"lon":5.39211,"is_reserved":false,"is_disabled":false,"rental_uris":{"android":"levelo://app?vid=5a042452-6682-49af-88a9-908596425f16","ios":"levelo://app?vid=5a042452-6682-49af-88a9-908596425f16"},"vehicle_type_id":"4","last_reported":1726585757,"current_range_meters":17200,"station_id":"ce4bhjp2rcd13ifvqga0","pricing_plan_id":"cebpf4jnsgd1na2vs0mg"},{"bike_id":"5ce18740-1041-4048-b11d-64251e2ba0a2","system_id":"levelo_inurba_marseille","lat":43.32489,"lon":5.36564,"is_reserved":false,"is_disabled":false,"rental_uris":{"android":"levelo://app?vid=5ce18740-1041-4048-b11d-64251e2ba0a2","ios":"levelo://app?vid=5ce18740-1041-4048-b11d-64251e2ba0a2"},"vehicle_type_id":"4","last_reported":1726585757,"current_range_meters":38800,"station_id":"ce4bhs12rcd13ifvqhvg","pricing_plan_id":"cebpf4jnsgd1na2vs0mg"},{"bike_id":"255def12-1a7e-4787-b2e4-a6a54888a394","system_id":"levelo_inurba_marseille","lat":43.32478,"lon":5.36572,"is_reserved":false,"is_disabled":false,"rental_uris":{"android":"levelo://app?vid=255def12-1a7e-4787-b2e4-a6a54888a394","ios":"levelo://app?vid=255def12-1a7e-4787-b2e4-a6a54888a394"},"vehicle_type_id":"4","last_reported":1726585757,"current_range_meters":6800,"station_id":"ce4bhs12rcd13ifvqhvg","pricing_plan_id":"cebpf4jnsgd1na2vs0mg"},{"bike_id":"6dd17a2f-59bb-4453-859d-2c09ab795824","system_id":"levelo_inurba_marseille","lat":43.33024,"lon":5.39043,"is_reserved":false,"is_disabled":false,"rental_uris":{"android":"levelo://app?vid=6dd17a2f-59bb-4453-859d-2c09ab795824","ios":"levelo://app?vid=6dd17a2f-59bb-4453-859d-2c09ab795824"},"vehicle_type_id":"4","last_reported":1726585757,"current_range_meters":30000,"station_id":"ce4bhr92rcd13ifvqhrg","pricing_plan_id":"cebpf4jnsgd1na2vs0mg"},{"bike_id":"c2ecb147-8ee1-4803-aa1c-5a9b13d8ea1c","system_id":"levelo_inurba_marseille","lat":43.23153,"lon":5.43711,"is_reserved":false,"is_disabled":false,"rental_uris":{"android":"levelo://app?vid=c2ecb147-8ee1-4803-aa1c-5a9b13d8ea1c","ios":"levelo://app?vid=c2ecb147-8ee1-4803-aa1c-5a9b13d8ea1c"},"vehicle_type_id":"4","last_reported":1726585757,"current_range_meters":39200,"station_id":"ce4bhmp2rcd13ifvqgog","pricing_plan_id":"cebpf4jnsgd1na2vs0mg"},{"bike_id":"8ac17af3-1087-4030-8684-fc752197666e","system_id":"levelo_inurba_marseille","lat":43.32367,"lon":5.38876,"is_reserved":false,"is_disabled":false,"rental_uris":{"android":"levelo://app?vid=8ac17af3-1087-4030-8684-fc752197666e","ios":"levelo://app?vid=8ac17af3-1087-4030-8684-fc752197666e"},"vehicle_type_id":"4","last_reported":1726585757,"current_range_meters":17200,"station_id":"ce4bhqp2rcd13ifvqhog","pricing_plan_id":"cebpf4jnsgd1na2vs0mg"},{"bike_id":"37649f8a-26ce-45f3-92cb-f9fcfc4223d2","system_id":"levelo_inurba_marseille","lat":43.29718,"lon":5.377057,"is_reserved":false,"is_disabled":false,"rental_uris":{"android":"levelo://app?vid=37649f8a-26ce-45f3-92cb-f9fcfc4223d2","ios":"levelo://app?vid=37649f8a-26ce-45f3-92cb-f9fcfc4223d2"},"vehicle_type_id":"4","last_reported":1726585757,"current_range_meters":30000,"station_id":"ce4bgkh2rcd13ifvqbl0","pricing_plan_id":"cebpf4jnsgd1na2vs0mg"},{"bike_id":"d19272d2-ffa8-4f55-8194-bac4b443dfdc","system_id":"levelo_inurba_marseille","lat":43.293152,"lon":5.377092,"is_reserved":false,"is_disabled":false,"rental_uris":{"android":"levelo://app?vid=d19272d2-ffa8-4f55-8194-bac4b443dfdc","ios":"levelo://app?vid=d19272d2-ffa8-4f55-8194-bac4b443dfdc"},"vehicle_type_id":"4","last_reported":1726585757,"current_range_meters":8000,"station_id":"ce4bhah2rcd13ifvqei0","pricing_plan_id":"cebpf4jnsgd1na2vs0mg"},{"bike_id":"fa14cb43-8dd6-4a56-a72f-d39065113b39","system_id":"levelo_inurba_marseille","lat":43.29033,"lon":5.38644,"is_reserved":false,"is_disabled":false,"rental_uris":{"android":"levelo://app?vid=fa14cb43-8dd6-4a56-a72f-d39065113b39","ios":"levelo://app?vid=fa14cb43-8dd6-4a56-a72f-d39065113b39"},"vehicle_type_id":"4","last_reported":1726585757,"current_range_meters":4000,"station_id":"ce4bh4p2rcd13ifvqe0g","pricing_plan_id":"cebpf4jnsgd1na2vs0mg"},{"bike_id":"6da2efd2-b608-4dc3-851d-d8721749a541","system_id":"levelo_inurba_marseille","lat":43.32366,"lon":5.38885,"is_reserved":false,"is_disabled":false,"rental_uris":{"android":"levelo://app?vid=6da2efd2-b608-4dc3-851d-d8721749a541","ios":"levelo://app?vid=6da2efd2-b608-4dc3-851d-d8721749a541"},"vehicle_type_id":"4","last_reported":1726585757,"current_range_meters":14400,"station_id":"ce4bhqp2rcd13ifvqhog","pricing_plan_id":"cebpf4jnsgd1na2vs0mg"},{"bike_id":"f11293b9-5944-418c-9cea-2087ec8521d3","system_id":"levelo_inurba_marseille","lat":43.31217,"lon":5.36858,"is_reserved":false,"is_disabled":false,"rental_uris":{"android":"levelo://app?vid=f11293b9-5944-418c-9cea-2087ec8521d3","ios":"levelo://app?vid=f11293b9-5944-418c-9cea-2087ec8521d3"},"vehicle_type_id":"4","last_reported":1726585757,"current_range_meters":14400,"station_id":"ce4bgl92rcd13ifvqbq0","pricing_plan_id":"cebpf4jnsgd1na2vs0mg"},{"bike_id":"d00ef931-ca94-46a5-a153-d39e1f7651c4","system_id":"levelo_inurba_marseille","lat":43.24649,"lon":5.38896,"is_reserved":false,"is_disabled":false,"rental_uris":{"android":"levelo://app?vid=d00ef931-ca94-46a5-a153-d39e1f7651c4","ios":"levelo://app?vid=d00ef931-ca94-46a5-a153-d39e1f7651c4"},"vehicle_type_id":"4","last_reported":1726585757,"current_range_meters":3200,"station_id":"ce4bhg12rcd13ifvqf60","pricing_plan_id":"cebpf4jnsgd1na2vs0mg"},{"bike_id":"0308f358-78cd-4ed3-9f73-03a0aff7b7aa","system_id":"levelo_inurba_marseille","lat":43.29901,"lon":5.43654,"is_reserved":false,"is_disabled":false,"rental_uris":{"android":"levelo://app?vid=0308f358-78cd-4ed3-9f73-03a0aff7b7aa","ios":"levelo://app?vid=0308f358-78cd-4ed3-9f73-03a0aff7b7aa"},"vehicle_type_id":"4","last_reported":1726585757,"current_range_meters":18000,"station_id":"ce4bhpp2rcd13ifvqhfg","pricing_plan_id":"cebpf4jnsgd1na2vs0mg"},{"bike_id":"1aa16472-a9b8-4d56-a9b0-f90ba1c94f31","system_id":"levelo_inurba_marseille","lat":43.30789,"lon":5.37649,"is_reserved":false,"is_disabled":false,"rental_uris":{"android":"levelo://app?vid=1aa16472-a9b8-4d56-a9b0-f90ba1c94f31","ios":"levelo://app?vid=1aa16472-a9b8-4d56-a9b0-f90ba1c94f31"},"vehicle_type_id":"4","last_reported":1726585757,"current_range_meters":38000,"station_id":"ce4bgv92rcd13ifvqcq0","pricing_plan_id":"cebpf4jnsgd1na2vs0mg"},{"bike_id":"873c7417-47a4-448a-8201-52d35bb69ae2","system_id":"levelo_inurba_marseille","lat":43.23961,"lon":5.36625,"is_reserved":false,"is_disabled":false,"rental_uris":{"android":"levelo://app?vid=873c7417-47a4-448a-8201-52d35bb69ae2","ios":"levelo://app?vid=873c7417-47a4-448a-8201-52d35bb69ae2"},"vehicle_type_id":"4","last_reported":1726585757,"current_range_meters":24400,"station_id":"ce4bhi12rcd13ifvqfp0","pricing_plan_id":"cebpf4jnsgd1na2vs0mg"},{"bike_id":"846c0b10-03c9-421e-a766-91c0008a28d5","system_id":"levelo_inurba_marseille","lat":43.29,"lon":5.35614,"is_reserved":false,"is_disabled":false,"rental_uris":{"android":"levelo://app?vid=846c0b10-03c9-421e-a766-91c0008a28d5","ios":"levelo://app?vid=846c0b10-03c9-421e-a766-91c0008a28d5"},"vehicle_type_id":"4","last_reported":1726585757,"current_range_meters":32000,"station_id":"ce4bhb92rcd13ifvqen0","pricing_plan_id":"cebpf4jnsgd1na2vs0mg"},{"bike_id":"5b61e811-fe69-45fc-9c01-7ca98ea36a3f","system_id":"levelo_inurba_marseille","lat":43.25875,"lon":5.39894,"is_reserved":false,"is_disabled":false,"rental_uris":{"android":"levelo://app?vid=5b61e811-fe69-45fc-9c01-7ca98ea36a3f","ios":"levelo://app?vid=5b61e811-fe69-45fc-9c01-7ca98ea36a3f"},"vehicle_type_id":"4","last_reported":1726585757,"current_range_meters":30400,"station_id":"ce4bhl92rcd13ifvqghg","pricing_plan_id":"cebpf4jnsgd1na2vs0mg"},{"bike_id":"862c9a62-a678-4b4a-97b0-1e5b249c89f8","system_id":"levelo_inurba_marseille","lat":43.29581,"lon":5.36745,"is_reserved":false,"is_disabled":false,"rental_uris":{"android":"levelo://app?vid=862c9a62-a678-4b4a-97b0-1e5b249c89f8","ios":"levelo://app?vid=862c9a62-a678-4b4a-97b0-1e5b249c89f8"},"vehicle_type_id":"4","last_reported":1726585757,"current_range_meters":38800,"station_id":"ce4bgph2rcd13ifvqc2g","pricing_plan_id":"cebpf4jnsgd1na2vs0mg"},{"bike_id":"3dbd44c0-d75a-4b7a-b889-c965adbbd2fc","system_id":"levelo_inurba_marseille","lat":43.25864,"lon":5.39895,"is_reserved":false,"is_disabled":false,"rental_uris":{"android":"levelo://app?vid=3dbd44c0-d75a-4b7a-b889-c965adbbd2fc","ios":"levelo://app?vid=3dbd44c0-d75a-4b7a-b889-c965adbbd2fc"},"vehicle_type_id":"4","last_reported":1726585757,"current_range_meters":20000,"station_id":"ce4bhl92rcd13ifvqghg","pricing_plan_id":"cebpf4jnsgd1na2vs0mg"},{"bike_id":"2d5323e3-77ee-44fb-a18f-c44baabb01ba","system_id":"levelo_inurba_marseille","lat":43.25497,"lon":5.3765,"is_reserved":false,"is_disabled":false,"rental_uris":{"android":"levelo://app?vid=2d5323e3-77ee-44fb-a18f-c44baabb01ba","ios":"levelo://app?vid=2d5323e3-77ee-44fb-a18f-c44baabb01ba"},"vehicle_type_id":"4","last_reported":1726585757,"current_range_meters":28800,"station_id":"ce4bhh12rcd13ifvqff0","pricing_plan_id":"cebpf4jnsgd1na2vs0mg"},{"bike_id":"76c6faf3-f03f-425e-acfa-912d0967be79","system_id":"levelo_inurba_marseille","lat":43.30097,"lon":5.39069,"is_reserved":false,"is_disabled":false,"rental_uris":{"android":"levelo://app?vid=76c6faf3-f03f-425e-acfa-912d0967be79","ios":"levelo://app?vid=76c6faf3-f03f-425e-acfa-912d0967be79"},"vehicle_type_id":"4","last_reported":1726585757,"current_range_meters":38000,"station_id":"ce4bh192rcd13ifvqdb0","pricing_plan_id":"cebpf4jnsgd1na2vs0mg"},{"bike_id":"65eecb51-7024-4f30-af20-d65f809bce2b","system_id":"levelo_inurba_marseille","lat":43.31342,"lon":5.3791,"is_reserved":false,"is_disabled":false,"rental_uris":{"android":"levelo://app?vid=65eecb51-7024-4f30-af20-d65f809bce2b","ios":"levelo://app?vid=65eecb51-7024-4f30-af20-d65f809bce2b"},"vehicle_type_id":"4","last_reported":1726585757,"current_range_meters":7200,"station_id":"","pricing_plan_id":"cebpf4jnsgd1na2vs0mg"},{"bike_id":"2c77c5f0-cb55-4024-8106-9340ac23b8eb","system_id":"levelo_inurba_marseille","lat":43.2656,"lon":5.37285,"is_reserved":false,"is_disabled":false,"rental_uris":{"android":"levelo://app?vid=2c77c5f0-cb55-4024-8106-9340ac23b8eb","ios":"levelo://app?vid=2c77c5f0-cb55-4024-8106-9340ac23b8eb"},"vehicle_type_id":"4","last_reported":1726585757,"current_range_meters":24400,"station_id":"ce4bhg12rcd13ifvqf70","pricing_plan_id":"cebpf4jnsgd1na2vs0mg"},{"bike_id":"dfc9d763-9a80-42a5-b1a6-dabea29c6f3d","system_id":"levelo_inurba_marseille","lat":43.287256,"lon":5.379365,"is_reserved":false,"is_disabled":false,"rental_uris":{"android":"levelo://app?vid=dfc9d763-9a80-42a5-b1a6-dabea29c6f3d","ios":"levelo://app?vid=dfc9d763-9a80-42a5-b1a6-dabea29c6f3d"},"vehicle_type_id":"4","last_reported":1726585757,"current_range_meters":37600,"station_id":"ce4bh9p2rcd13ifvqec0","pricing_plan_id":"cebpf4jnsgd1na2vs0mg"},{"bike_id":"93dd37e5-c30e-445f-960a-2c313f3eb6cb","system_id":"levelo_inurba_marseille","lat":43.24809,"lon":5.37455,"is_reserved":false,"is_disabled":false,"rental_uris":{"android":"levelo://app?vid=93dd37e5-c30e-445f-960a-2c313f3eb6cb","ios":"levelo://app?vid=93dd37e5-c30e-445f-960a-2c313f3eb6cb"},"vehicle_type_id":"4","last_reported":1726585757,"current_range_meters":18000,"station_id":"ce4bhgh2rcd13ifvqfb0","pricing_plan_id":"cebpf4jnsgd1na2vs0mg"},{"bike_id":"d67cbdda-9115-4f27-8b9c-e764add25032","system_id":"levelo_inurba_marseille","lat":43.281042,"lon":5.37837,"is_reserved":false,"is_disabled":false,"rental_uris":{"android":"levelo://app?vid=d67cbdda-9115-4f27-8b9c-e764add25032","ios":"levelo://app?vid=d67cbdda-9115-4f27-8b9c-e764add25032"},"vehicle_type_id":"4","last_reported":1726585757,"current_range_meters":35600,"station_id":"ce4bha12rcd13ifvqee0","pricing_plan_id":"cebpf4jnsgd1na2vs0mg"},{"bike_id":"e7fbe6a9-6452-4605-ad98-ec8f6c725938","system_id":"levelo_inurba_marseille","lat":43.3172,"lon":5.42395,"is_reserved":false,"is_disabled":false,"rental_uris":{"android":"levelo://app?vid=e7fbe6a9-6452-4605-ad98-ec8f6c725938","ios":"levelo://app?vid=e7fbe6a9-6452-4605-ad98-ec8f6c725938"},"vehicle_type_id":"4","last_reported":1726585757,"current_range_meters":37600,"station_id":"ce4bhp92rcd13ifvqhbg","pricing_plan_id":"cebpf4jnsgd1na2vs0mg"},{"bike_id":"23dd0c20-fce0-40ea-aaa2-cab4c3dedbd9","system_id":"levelo_inurba_marseille","lat":43.23154,"lon":5.43722,"is_reserved":false,"is_disabled":false,"rental_uris":{"android":"levelo://app?vid=23dd0c20-fce0-40ea-aaa2-cab4c3dedbd9","ios":"levelo://app?vid=23dd0c20-fce0-40ea-aaa2-cab4c3dedbd9"},"vehicle_type_id":"4","last_reported":1726585757,"current_range_meters":9600,"station_id":"ce4bhmp2rcd13ifvqgog","pricing_plan_id":"cebpf4jnsgd1na2vs0mg"},{"bike_id":"135f7a05-ba61-4293-bc8a-22a6432afaf0","system_id":"levelo_inurba_marseille","lat":43.29707,"lon":5.36601,"is_reserved":false,"is_disabled":false,"rental_uris":{"android":"levelo://app?vid=135f7a05-ba61-4293-bc8a-22a6432afaf0","ios":"levelo://app?vid=135f7a05-ba61-4293-bc8a-22a6432afaf0"},"vehicle_type_id":"4","last_reported":1726585757,"current_range_meters":38800,"station_id":"ce4bgn12rcd13ifvqbt0","pricing_plan_id":"cebpf4jnsgd1na2vs0mg"},{"bike_id":"5458364f-3707-4b75-b10a-31d28c8c2dcd","system_id":"levelo_inurba_marseille","lat":43.308,"lon":5.38147,"is_reserved":false,"is_disabled":false,"rental_uris":{"android":"levelo://app?vid=5458364f-3707-4b75-b10a-31d28c8c2dcd","ios":"levelo://app?vid=5458364f-3707-4b75-b10a-31d28c8c2dcd"},"vehicle_type_id":"4","last_reported":1726585757,"current_range_meters":22000,"station_id":"ce4bgt12rcd13ifvqce0","pricing_plan_id":"cebpf4jnsgd1na2vs0mg"},{"bike_id":"fb389055-f66c-4e32-b271-86411d587f5d","system_id":"levelo_inurba_marseille","lat":43.30313,"lon":5.36899,"is_reserved":false,"is_disabled":false,"rental_uris":{"android":"levelo://app?vid=fb389055-f66c-4e32-b271-86411d587f5d","ios":"levelo://app?vid=fb389055-f66c-4e32-b271-86411d587f5d"},"vehicle_type_id":"4","last_reported":1726585757,"current_range_meters":38800,"station_id":"ce4bgqh2rcd13ifvqc5g","pricing_plan_id":"cebpf4jnsgd1na2vs0mg"},{"bike_id":"8ea79706-33c2-4140-a630-4d917dade742","system_id":"levelo_inurba_marseille","lat":43.2315,"lon":5.43723,"is_reserved":false,"is_disabled":false,"rental_uris":{"android":"levelo://app?vid=8ea79706-33c2-4140-a630-4d917dade742","ios":"levelo://app?vid=8ea79706-33c2-4140-a630-4d917dade742"},"vehicle_type_id":"4","last_reported":1726585757,"current_range_meters":16800,"station_id":"ce4bhmp2rcd13ifvqgog","pricing_plan_id":"cebpf4jnsgd1na2vs0mg"},{"bike_id":"66d35dfc-52ab-4591-9bb5-9b993e5fd8f8","system_id":"levelo_inurba_marseille","lat":43.30271,"lon":5.36466,"is_reserved":false,"is_disabled":false,"rental_uris":{"android":"levelo://app?vid=66d35dfc-52ab-4591-9bb5-9b993e5fd8f8","ios":"levelo://app?vid=66d35dfc-52ab-4591-9bb5-9b993e5fd8f8"},"vehicle_type_id":"4","last_reported":1726585757,"current_range_meters":38800,"station_id":"","pricing_plan_id":"cebpf4jnsgd1na2vs0mg"},{"bike_id":"e1055f26-c66c-41ee-bf2f-25406c6db080","system_id":"levelo_inurba_marseille","lat":43.33027,"lon":5.39041,"is_reserved":false,"is_disabled":false,"rental_uris":{"android":"levelo://app?vid=e1055f26-c66c-41ee-bf2f-25406c6db080","ios":"levelo://app?vid=e1055f26-c66c-41ee-bf2f-25406c6db080"},"vehicle_type_id":"4","last_reported":1726585757,"current_range_meters":38400,"station_id":"ce4bhr92rcd13ifvqhrg","pricing_plan_id":"cebpf4jnsgd1na2vs0mg"},{"bike_id":"34649df9-2ea7-4c34-b9ed-91a818d6b4f7","system_id":"levelo_inurba_marseille","lat":43.29594,"lon":5.38096,"is_reserved":false,"is_disabled":false,"rental_uris":{"android":"levelo://app?vid=34649df9-2ea7-4c34-b9ed-91a818d6b4f7","ios":"levelo://app?vid=34649df9-2ea7-4c34-b9ed-91a818d6b4f7"},"vehicle_type_id":"4","last_reported":1726585757,"current_range_meters":31200,"station_id":"ce4bgl12rcd13ifvqbo0","pricing_plan_id":"cebpf4jnsgd1na2vs0mg"},{"bike_id":"a13b8302-4ea2-4c29-8731-e0e42e68149a","system_id":"levelo_inurba_marseille","lat":43.32291,"lon":5.38279,"is_reserved":false,"is_disabled":false,"rental_uris":{"android":"levelo://app?vid=a13b8302-4ea2-4c29-8731-e0e42e68149a","ios":"levelo://app?vid=a13b8302-4ea2-4c29-8731-e0e42e68149a"},"vehicle_type_id":"4","last_reported":1726585757,"current_range_meters":32800,"station_id":"ce4bhr12rcd13ifvqhqg","pricing_plan_id":"cebpf4jnsgd1na2vs0mg"},{"bike_id":"dc17347b-6de9-4ce4-9462-db5c81d57c80","system_id":"levelo_inurba_marseille","lat":43.23964,"lon":5.36632,"is_reserved":false,"is_disabled":false,"rental_uris":{"android":"levelo://app?vid=dc17347b-6de9-4ce4-9462-db5c81d57c80","ios":"levelo://app?vid=dc17347b-6de9-4ce4-9462-db5c81d57c80"},"vehicle_type_id":"4","last_reported":1726585757,"current_range_meters":6400,"station_id":"ce4bhi12rcd13ifvqfp0","pricing_plan_id":"cebpf4jnsgd1na2vs0mg"},{"bike_id":"0093f99f-32e7-41b0-abe0-a28b802c66c9","system_id":"levelo_inurba_marseille","lat":43.29936,"lon":5.36533,"is_reserved":false,"is_disabled":false,"rental_uris":{"android":"levelo://app?vid=0093f99f-32e7-41b0-abe0-a28b802c66c9","ios":"levelo://app?vid=0093f99f-32e7-41b0-abe0-a28b802c66c9"},"vehicle_type_id":"4","last_reported":1726585757,"current_range_meters":25200,"station_id":"ce4bgm92rcd13ifvqbr0","pricing_plan_id":"cebpf4jnsgd1na2vs0mg"},{"bike_id":"3bc3cfc7-ef53-4756-b081-f792f4825914","system_id":"levelo_inurba_marseille","lat":43.27632,"lon":5.4086,"is_reserved":false,"is_disabled":false,"rental_uris":{"android":"levelo://app?vid=3bc3cfc7-ef53-4756-b081-f792f4825914","ios":"levelo://app?vid=3bc3cfc7-ef53-4756-b081-f792f4825914"},"vehicle_type_id":"4","last_reported":1726585757,"current_range_meters":14000,"station_id":"","pricing_plan_id":"cebpf4jnsgd1na2vs0mg"},{"bike_id":"d41ff41a-2813-448b-b0b1-e51872eb964b","system_id":"levelo_inurba_marseille","lat":43.299072,"lon":5.374713,"is_reserved":false,"is_disabled":false,"rental_uris":{"android":"levelo://app?vid=d41ff41a-2813-448b-b0b1-e51872eb964b","ios":"levelo://app?vid=d41ff41a-2813-448b-b0b1-e51872eb964b"},"vehicle_type_id":"4","last_reported":1726585757,"current_range_meters":37600,"station_id":"ce4bgjh2rcd13ifvqbg0","pricing_plan_id":"cebpf4jnsgd1na2vs0mg"},{"bike_id":"fee3d5bb-6253-48da-96ac-cce5fd5baf46","system_id":"levelo_inurba_marseille","lat":43.3055,"lon":5.36524,"is_reserved":false,"is_disabled":false,"rental_uris":{"android":"levelo://app?vid=fee3d5bb-6253-48da-96ac-cce5fd5baf46","ios":"levelo://app?vid=fee3d5bb-6253-48da-96ac-cce5fd5baf46"},"vehicle_type_id":"4","last_reported":1726585757,"current_range_meters":39200,"station_id":"ce4bgs12rcd13ifvqcag","pricing_plan_id":"cebpf4jnsgd1na2vs0mg"},{"bike_id":"6874942e-e7ec-4f8b-bce0-5d094adfc140","system_id":"levelo_inurba_marseille","lat":43.30545,"lon":5.365692,"is_reserved":false,"is_disabled":false,"rental_uris":{"android":"levelo://app?vid=6874942e-e7ec-4f8b-bce0-5d094adfc140","ios":"levelo://app?vid=6874942e-e7ec-4f8b-bce0-5d094adfc140"},"vehicle_type_id":"4","last_reported":1726585757,"current_range_meters":33600,"station_id":"ce4bhop2rcd13ifvqh8g","pricing_plan_id":"cebpf4jnsgd1na2vs0mg"},{"bike_id":"826c9bde-a951-47fc-b24c-a5e33f1655d5","system_id":"levelo_inurba_marseille","lat":43.29005,"lon":5.35605,"is_reserved":false,"is_disabled":false,"rental_uris":{"android":"levelo://app?vid=826c9bde-a951-47fc-b24c-a5e33f1655d5","ios":"levelo://app?vid=826c9bde-a951-47fc-b24c-a5e33f1655d5"},"vehicle_type_id":"4","last_reported":1726585757,"current_range_meters":4400,"station_id":"ce4bhb92rcd13ifvqen0","pricing_plan_id":"cebpf4jnsgd1na2vs0mg"},{"bike_id":"cbaf03bf-0340-4293-a424-18d0ef0b595f","system_id":"levelo_inurba_marseille","lat":43.29897,"lon":5.43666,"is_reserved":false,"is_disabled":false,"rental_uris":{"android":"levelo://app?vid=cbaf03bf-0340-4293-a424-18d0ef0b595f","ios":"levelo://app?vid=cbaf03bf-0340-4293-a424-18d0ef0b595f"},"vehicle_type_id":"4","last_reported":1726585757,"current_range_meters":20800,"station_id":"ce4bhpp2rcd13ifvqhfg","pricing_plan_id":"cebpf4jnsgd1na2vs0mg"},{"bike_id":"db327ca9-5361-451e-8e79-a725de794899","system_id":"levelo_inurba_marseille","lat":43.28948,"lon":5.364,"is_reserved":false,"is_disabled":false,"rental_uris":{"android":"levelo://app?vid=db327ca9-5361-451e-8e79-a725de794899","ios":"levelo://app?vid=db327ca9-5361-451e-8e79-a725de794899"},"vehicle_type_id":"4","last_reported":1726585757,"current_range_meters":34000,"station_id":"ce4bhc92rcd13ifvqetg","pricing_plan_id":"cebpf4jnsgd1na2vs0mg"},{"bike_id":"9a868d00-c62d-465d-83b0-5ae20cc81fc9","system_id":"levelo_inurba_marseille","lat":43.30547,"lon":5.36696,"is_reserved":false,"is_disabled":false,"rental_uris":{"android":"levelo://app?vid=9a868d00-c62d-465d-83b0-5ae20cc81fc9","ios":"levelo://app?vid=9a868d00-c62d-465d-83b0-5ae20cc81fc9"},"vehicle_type_id":"4","last_reported":1726585757,"current_range_meters":20000,"station_id":"ce4bgrp2rcd13ifvqc9g","pricing_plan_id":"cebpf4jnsgd1na2vs0mg"},{"bike_id":"49e200ca-be2e-44c1-88e1-5c0a88694170","system_id":"levelo_inurba_marseille","lat":43.30532,"lon":5.36535,"is_reserved":false,"is_disabled":false,"rental_uris":{"android":"levelo://app?vid=49e200ca-be2e-44c1-88e1-5c0a88694170","ios":"levelo://app?vid=49e200ca-be2e-44c1-88e1-5c0a88694170"},"vehicle_type_id":"4","last_reported":1726585757,"current_range_meters":33600,"station_id":"ce4bgs12rcd13ifvqcag","pricing_plan_id":"cebpf4jnsgd1na2vs0mg"},{"bike_id":"8069b458-0dc4-4b70-8298-df90518dd54a","system_id":"levelo_inurba_marseille","lat":43.24072,"lon":5.37755,"is_reserved":false,"is_disabled":false,"rental_uris":{"android":"levelo://app?vid=8069b458-0dc4-4b70-8298-df90518dd54a","ios":"levelo://app?vid=8069b458-0dc4-4b70-8298-df90518dd54a"},"vehicle_type_id":"4","last_reported":1726585757,"current_range_meters":2000,"station_id":"ce4bhnp2rcd13ifvqgvg","pricing_plan_id":"cebpf4jnsgd1na2vs0mg"},{"bike_id":"d8e751ce-68d8-4843-af31-f29be99d953d","system_id":"levelo_inurba_marseille","lat":43.23957,"lon":5.36641,"is_reserved":false,"is_disabled":false,"rental_uris":{"android":"levelo://app?vid=d8e751ce-68d8-4843-af31-f29be99d953d","ios":"levelo://app?vid=d8e751ce-68d8-4843-af31-f29be99d953d"},"vehicle_type_id":"4","last_reported":1726585757,"current_range_meters":12400,"station_id":"ce4bhi12rcd13ifvqfp0","pricing_plan_id":"cebpf4jnsgd1na2vs0mg"},{"bike_id":"37c55f49-96d3-4801-8d75-fca2ef4e3381","system_id":"levelo_inurba_marseille","lat":43.29609,"lon":5.3772,"is_reserved":false,"is_disabled":false,"rental_uris":{"android":"levelo://app?vid=37c55f49-96d3-4801-8d75-fca2ef4e3381","ios":"levelo://app?vid=37c55f49-96d3-4801-8d75-fca2ef4e3381"},"vehicle_type_id":"4","last_reported":1726585757,"current_range_meters":30400,"station_id":"ce4bgi92rcd13ifvqb90","pricing_plan_id":"cebpf4jnsgd1na2vs0mg"},{"bike_id":"73e17ec8-e47d-415b-a693-9917ccf29905","system_id":"levelo_inurba_marseille","lat":43.31754,"lon":5.39015,"is_reserved":false,"is_disabled":false,"rental_uris":{"android":"levelo://app?vid=73e17ec8-e47d-415b-a693-9917ccf29905","ios":"levelo://app?vid=73e17ec8-e47d-415b-a693-9917ccf29905"},"vehicle_type_id":"4","last_reported":1726585757,"current_range_meters":29600,"station_id":"ce4bhqp2rcd13ifvqhng","pricing_plan_id":"cebpf4jnsgd1na2vs0mg"},{"bike_id":"bb9b0b96-fc7b-46c6-8bd7-e61f24aa0921","system_id":"levelo_inurba_marseille","lat":43.3237,"lon":5.38866,"is_reserved":false,"is_disabled":false,"rental_uris":{"android":"levelo://app?vid=bb9b0b96-fc7b-46c6-8bd7-e61f24aa0921","ios":"levelo://app?vid=bb9b0b96-fc7b-46c6-8bd7-e61f24aa0921"},"vehicle_type_id":"4","last_reported":1726585757,"current_range_meters":4800,"station_id":"ce4bhqp2rcd13ifvqhog","pricing_plan_id":"cebpf4jnsgd1na2vs0mg"},{"bike_id":"30a1d438-cd1f-4efc-8191-8d305973f83c","system_id":"levelo_inurba_marseille","lat":43.30643,"lon":5.40084,"is_reserved":false,"is_disabled":false,"rental_uris":{"android":"levelo://app?vid=30a1d438-cd1f-4efc-8191-8d305973f83c","ios":"levelo://app?vid=30a1d438-cd1f-4efc-8191-8d305973f83c"},"vehicle_type_id":"4","last_reported":1726585757,"current_range_meters":33200,"station_id":"ce4bh112rcd13ifvqda0","pricing_plan_id":"cebpf4jnsgd1na2vs0mg"},{"bike_id":"8feb52f1-17bd-497e-ab8c-f3df349465bf","system_id":"levelo_inurba_marseille","lat":43.29579,"lon":5.3674,"is_reserved":false,"is_disabled":false,"rental_uris":{"android":"levelo://app?vid=8feb52f1-17bd-497e-ab8c-f3df349465bf","ios":"levelo://app?vid=8feb52f1-17bd-497e-ab8c-f3df349465bf"},"vehicle_type_id":"4","last_reported":1726585757,"current_range_meters":19600,"station_id":"ce4bgph2rcd13ifvqc2g","pricing_plan_id":"cebpf4jnsgd1na2vs0mg"},{"bike_id":"c82d7f3c-afe2-4dff-9dcb-16ae1a7b7ae3","system_id":"levelo_inurba_marseille","lat":43.32286,"lon":5.38269,"is_reserved":false,"is_disabled":false,"rental_uris":{"android":"levelo://app?vid=c82d7f3c-afe2-4dff-9dcb-16ae1a7b7ae3","ios":"levelo://app?vid=c82d7f3c-afe2-4dff-9dcb-16ae1a7b7ae3"},"vehicle_type_id":"4","last_reported":1726585757,"current_range_meters":9200,"station_id":"ce4bhr12rcd13ifvqhqg","pricing_plan_id":"cebpf4jnsgd1na2vs0mg"},{"bike_id":"cd5bcc1f-6586-4314-9ac3-73bb4c6b0673","system_id":"levelo_inurba_marseille","lat":43.274872,"lon":5.424514,"is_reserved":false,"is_disabled":false,"rental_uris":{"android":"levelo://app?vid=cd5bcc1f-6586-4314-9ac3-73bb4c6b0673","ios":"levelo://app?vid=cd5bcc1f-6586-4314-9ac3-73bb4c6b0673"},"vehicle_type_id":"4","last_reported":1726585757,"current_range_meters":24400,"station_id":"ce4bhn92rcd13ifvqgrg","pricing_plan_id":"cebpf4jnsgd1na2vs0mg"},{"bike_id":"c49cd568-b8a4-4b23-9f55-ca6d9187c759","system_id":"levelo_inurba_marseille","lat":43.278345,"lon":5.391989,"is_reserved":false,"is_disabled":false,"rental_uris":{"android":"levelo://app?vid=c49cd568-b8a4-4b23-9f55-ca6d9187c759","ios":"levelo://app?vid=c49cd568-b8a4-4b23-9f55-ca6d9187c759"},"vehicle_type_id":"4","last_reported":1726585757,"current_range_meters":30800,"station_id":"ce4bhjp2rcd13ifvqga0","pricing_plan_id":"cebpf4jnsgd1na2vs0mg"},{"bike_id":"328d45f9-980e-4811-97c0-47d761861509","system_id":"levelo_inurba_marseille","lat":43.29847,"lon":5.37836,"is_reserved":false,"is_disabled":false,"rental_uris":{"android":"levelo://app?vid=328d45f9-980e-4811-97c0-47d761861509","ios":"levelo://app?vid=328d45f9-980e-4811-97c0-47d761861509"},"vehicle_type_id":"4","last_reported":1726585757,"current_range_meters":16800,"station_id":"ce4bgkh2rcd13ifvqbl0","pricing_plan_id":"cebpf4jnsgd1na2vs0mg"},{"bike_id":"207ff6b1-002a-4d09-a808-aa239faefc23","system_id":"levelo_inurba_marseille","lat":43.304372,"lon":5.368731,"is_reserved":false,"is_disabled":false,"rental_uris":{"android":"levelo://app?vid=207ff6b1-002a-4d09-a808-aa239faefc23","ios":"levelo://app?vid=207ff6b1-002a-4d09-a808-aa239faefc23"},"vehicle_type_id":"4","last_reported":1726585757,"current_range_meters":24800,"station_id":"ce4bgqh2rcd13ifvqc5g","pricing_plan_id":"cebpf4jnsgd1na2vs0mg"},{"bike_id":"d37d842a-6b3c-4c22-945f-ed5132c8f7a7","system_id":"levelo_inurba_marseille","lat":43.28464,"lon":5.35885,"is_reserved":false,"is_disabled":false,"rental_uris":{"android":"levelo://app?vid=d37d842a-6b3c-4c22-945f-ed5132c8f7a7","ios":"levelo://app?vid=d37d842a-6b3c-4c22-945f-ed5132c8f7a7"},"vehicle_type_id":"4","last_reported":1726585757,"current_range_meters":28800,"station_id":"ce4bhah2rcd13ifvqei0","pricing_plan_id":"cebpf4jnsgd1na2vs0mg"},{"bike_id":"5778ca64-d8b6-48b4-8ed2-5eb61a11b2ad","system_id":"levelo_inurba_marseille","lat":43.276362,"lon":5.360996,"is_reserved":false,"is_disabled":false,"rental_uris":{"android":"levelo://app?vid=5778ca64-d8b6-48b4-8ed2-5eb61a11b2ad","ios":"levelo://app?vid=5778ca64-d8b6-48b4-8ed2-5eb61a11b2ad"},"vehicle_type_id":"4","last_reported":1726585757,"current_range_meters":34000,"station_id":"ce4bgj92rcd13ifvqbe0","pricing_plan_id":"cebpf4jnsgd1na2vs0mg"},{"bike_id":"f1d528f4-b023-44e3-be7e-a56e8f57a3c1","system_id":"levelo_inurba_marseille","lat":43.284463,"lon":5.392025,"is_reserved":false,"is_disabled":false,"rental_uris":{"android":"levelo://app?vid=f1d528f4-b023-44e3-be7e-a56e8f57a3c1","ios":"levelo://app?vid=f1d528f4-b023-44e3-be7e-a56e8f57a3c1"},"vehicle_type_id":"4","last_reported":1726585757,"current_range_meters":32000,"station_id":"ce4bhoh2rcd13ifvqh5g","pricing_plan_id":"cebpf4jnsgd1na2vs0mg"},{"bike_id":"fa690805-233a-4a70-a9f3-33f1b67cdb1f","system_id":"levelo_inurba_marseille","lat":43.3228,"lon":5.38269,"is_reserved":false,"is_disabled":false,"rental_uris":{"android":"levelo://app?vid=fa690805-233a-4a70-a9f3-33f1b67cdb1f","ios":"levelo://app?vid=fa690805-233a-4a70-a9f3-33f1b67cdb1f"},"vehicle_type_id":"4","last_reported":1726585757,"current_range_meters":32000,"station_id":"ce4bhr12rcd13ifvqhqg","pricing_plan_id":"cebpf4jnsgd1na2vs0mg"},{"bike_id":"8b608b96-fedf-4511-8d4b-09bad2606e1a","system_id":"levelo_inurba_marseille","lat":43.27719,"lon":5.41133,"is_reserved":false,"is_disabled":false,"rental_uris":{"android":"levelo://app?vid=8b608b96-fedf-4511-8d4b-09bad2606e1a","ios":"levelo://app?vid=8b608b96-fedf-4511-8d4b-09bad2606e1a"},"vehicle_type_id":"4","last_reported":1726585757,"current_range_meters":9200,"station_id":"","pricing_plan_id":"cebpf4jnsgd1na2vs0mg"},{"bike_id":"a3074517-34d9-4f18-8c41-e66d695aee21","system_id":"levelo_inurba_marseille","lat":43.295594,"lon":5.422872,"is_reserved":false,"is_disabled":false,"rental_uris":{"android":"levelo://app?vid=a3074517-34d9-4f18-8c41-e66d695aee21","ios":"levelo://app?vid=a3074517-34d9-4f18-8c41-e66d695aee21"},"vehicle_type_id":"4","last_reported":1726585757,"current_range_meters":12400,"station_id":"ce4bhph2rcd13ifvqhdg","pricing_plan_id":"cebpf4jnsgd1na2vs0mg"},{"bike_id":"2d759c45-1c48-4814-a60a-e3f6a816c11e","system_id":"levelo_inurba_marseille","lat":43.3229,"lon":5.38268,"is_reserved":false,"is_disabled":false,"rental_uris":{"android":"levelo://app?vid=2d759c45-1c48-4814-a60a-e3f6a816c11e","ios":"levelo://app?vid=2d759c45-1c48-4814-a60a-e3f6a816c11e"},"vehicle_type_id":"4","last_reported":1726585757,"current_range_meters":36800,"station_id":"ce4bhr12rcd13ifvqhqg","pricing_plan_id":"cebpf4jnsgd1na2vs0mg"},{"bike_id":"7934c2b6-1bac-43bf-8ede-d33bc81e347b","system_id":"levelo_inurba_marseille","lat":43.23966,"lon":5.36632,"is_reserved":false,"is_disabled":false,"rental_uris":{"android":"levelo://app?vid=7934c2b6-1bac-43bf-8ede-d33bc81e347b","ios":"levelo://app?vid=7934c2b6-1bac-43bf-8ede-d33bc81e347b"},"vehicle_type_id":"4","last_reported":1726585757,"current_range_meters":3200,"station_id":"ce4bhi12rcd13ifvqfp0","pricing_plan_id":"cebpf4jnsgd1na2vs0mg"},{"bike_id":"0a82703d-3c14-4c4c-a30b-a1b0e6be1a7c","system_id":"levelo_inurba_marseille","lat":43.28414,"lon":5.34986,"is_reserved":false,"is_disabled":false,"rental_uris":{"android":"levelo://app?vid=0a82703d-3c14-4c4c-a30b-a1b0e6be1a7c","ios":"levelo://app?vid=0a82703d-3c14-4c4c-a30b-a1b0e6be1a7c"},"vehicle_type_id":"4","last_reported":1726585757,"current_range_meters":31200,"station_id":"ce4bhbh2rcd13ifvqepg","pricing_plan_id":"cebpf4jnsgd1na2vs0mg"},{"bike_id":"84411795-ef60-4862-a4d9-831a578333bd","system_id":"levelo_inurba_marseille","lat":43.29561,"lon":5.40637,"is_reserved":false,"is_disabled":false,"rental_uris":{"android":"levelo://app?vid=84411795-ef60-4862-a4d9-831a578333bd","ios":"levelo://app?vid=84411795-ef60-4862-a4d9-831a578333bd"},"vehicle_type_id":"4","last_reported":1726585757,"current_range_meters":30400,"station_id":"ce4bh192rcd13ifvqdc0","pricing_plan_id":"cebpf4jnsgd1na2vs0mg"},{"bike_id":"96578bf8-4092-497b-a512-847175888404","system_id":"levelo_inurba_marseille","lat":43.30532,"lon":5.36555,"is_reserved":false,"is_disabled":false,"rental_uris":{"android":"levelo://app?vid=96578bf8-4092-497b-a512-847175888404","ios":"levelo://app?vid=96578bf8-4092-497b-a512-847175888404"},"vehicle_type_id":"4","last_reported":1726585757,"current_range_meters":30000,"station_id":"ce4bgs12rcd13ifvqcag","pricing_plan_id":"cebpf4jnsgd1na2vs0mg"},{"bike_id":"36aeed49-da71-4106-9676-9768d0b45ee4","system_id":"levelo_inurba_marseille","lat":43.27754,"lon":5.39096,"is_reserved":false,"is_disabled":false,"rental_uris":{"android":"levelo://app?vid=36aeed49-da71-4106-9676-9768d0b45ee4","ios":"levelo://app?vid=36aeed49-da71-4106-9676-9768d0b45ee4"},"vehicle_type_id":"4","last_reported":1726585757,"current_range_meters":22800,"station_id":"","pricing_plan_id":"cebpf4jnsgd1na2vs0mg"},{"bike_id":"442d380e-fe45-42c1-9280-0a6b07954710","system_id":"levelo_inurba_marseille","lat":43.239604,"lon":5.366294,"is_reserved":false,"is_disabled":false,"rental_uris":{"android":"levelo://app?vid=442d380e-fe45-42c1-9280-0a6b07954710","ios":"levelo://app?vid=442d380e-fe45-42c1-9280-0a6b07954710"},"vehicle_type_id":"4","last_reported":1726585757,"current_range_meters":13600,"station_id":"ce4bhi12rcd13ifvqfp0","pricing_plan_id":"cebpf4jnsgd1na2vs0mg"},{"bike_id":"70c46fc5-4f9a-4798-8e25-7760f86894af","system_id":"levelo_inurba_marseille","lat":43.28154,"lon":5.42642,"is_reserved":false,"is_disabled":false,"rental_uris":{"android":"levelo://app?vid=70c46fc5-4f9a-4798-8e25-7760f86894af","ios":"levelo://app?vid=70c46fc5-4f9a-4798-8e25-7760f86894af"},"vehicle_type_id":"4","last_reported":1726585757,"current_range_meters":4800,"station_id":"ce4bhnh2rcd13ifvqgug","pricing_plan_id":"cebpf4jnsgd1na2vs0mg"},{"bike_id":"c02317e4-3b9a-451b-9ef8-7886ce7ae93a","system_id":"levelo_inurba_marseille","lat":43.33762,"lon":5.37437,"is_reserved":false,"is_disabled":false,"rental_uris":{"android":"levelo://app?vid=c02317e4-3b9a-451b-9ef8-7886ce7ae93a","ios":"levelo://app?vid=c02317e4-3b9a-451b-9ef8-7886ce7ae93a"},"vehicle_type_id":"4","last_reported":1726585757,"current_range_meters":38000,"station_id":"","pricing_plan_id":"cebpf4jnsgd1na2vs0mg"},{"bike_id":"cbe5f91c-b2d1-494a-804f-ec44a3c199c5","system_id":"levelo_inurba_marseille","lat":43.30427,"lon":5.38883,"is_reserved":false,"is_disabled":false,"rental_uris":{"android":"levelo://app?vid=cbe5f91c-b2d1-494a-804f-ec44a3c199c5","ios":"levelo://app?vid=cbe5f91c-b2d1-494a-804f-ec44a3c199c5"},"vehicle_type_id":"4","last_reported":1726585757,"current_range_meters":6000,"station_id":"ce4bgk12rcd13ifvqbi0","pricing_plan_id":"cebpf4jnsgd1na2vs0mg"},{"bike_id":"6c17662a-73f4-49d1-8c63-86e6a2fceac4","system_id":"levelo_inurba_marseille","lat":43.28436,"lon":5.39205,"is_reserved":false,"is_disabled":false,"rental_uris":{"android":"levelo://app?vid=6c17662a-73f4-49d1-8c63-86e6a2fceac4","ios":"levelo://app?vid=6c17662a-73f4-49d1-8c63-86e6a2fceac4"},"vehicle_type_id":"4","last_reported":1726585757,"current_range_meters":32400,"station_id":"ce4bhoh2rcd13ifvqh5g","pricing_plan_id":"cebpf4jnsgd1na2vs0mg"},{"bike_id":"ac552e57-2e76-4073-91c5-f9cfff3a32a3","system_id":"levelo_inurba_marseille","lat":43.2957,"lon":5.36738,"is_reserved":false,"is_disabled":false,"rental_uris":{"android":"levelo://app?vid=ac552e57-2e76-4073-91c5-f9cfff3a32a3","ios":"levelo://app?vid=ac552e57-2e76-4073-91c5-f9cfff3a32a3"},"vehicle_type_id":"4","last_reported":1726585757,"current_range_meters":8000,"station_id":"ce4bgph2rcd13ifvqc2g","pricing_plan_id":"cebpf4jnsgd1na2vs0mg"},{"bike_id":"dfe28337-6347-49bb-b8bc-d01d6758f2d4","system_id":"levelo_inurba_marseille","lat":43.30927,"lon":5.40134,"is_reserved":false,"is_disabled":false,"rental_uris":{"android":"levelo://app?vid=dfe28337-6347-49bb-b8bc-d01d6758f2d4","ios":"levelo://app?vid=dfe28337-6347-49bb-b8bc-d01d6758f2d4"},"vehicle_type_id":"4","last_reported":1726585757,"current_range_meters":32000,"station_id":"ce4bgvp2rcd13ifvqct0","pricing_plan_id":"cebpf4jnsgd1na2vs0mg"},{"bike_id":"cac679ff-5392-43ea-93bf-7befb04a5cb2","system_id":"levelo_inurba_marseille","lat":43.28696,"lon":5.3739,"is_reserved":false,"is_disabled":false,"rental_uris":{"android":"levelo://app?vid=cac679ff-5392-43ea-93bf-7befb04a5cb2","ios":"levelo://app?vid=cac679ff-5392-43ea-93bf-7befb04a5cb2"},"vehicle_type_id":"4","last_reported":1726585757,"current_range_meters":19600,"station_id":"ce4bh3p2rcd13ifvqdq0","pricing_plan_id":"cebpf4jnsgd1na2vs0mg"},{"bike_id":"9b516e6c-7d49-4de5-87bb-faba19a9ef79","system_id":"levelo_inurba_marseille","lat":43.279968,"lon":5.400141,"is_reserved":false,"is_disabled":false,"rental_uris":{"android":"levelo://app?vid=9b516e6c-7d49-4de5-87bb-faba19a9ef79","ios":"levelo://app?vid=9b516e6c-7d49-4de5-87bb-faba19a9ef79"},"vehicle_type_id":"4","last_reported":1726585757,"current_range_meters":21600,"station_id":"ce4bho92rcd13ifvqh4g","pricing_plan_id":"cebpf4jnsgd1na2vs0mg"},{"bike_id":"c663d1d4-567b-4032-bde2-ef89fd028bda","system_id":"levelo_inurba_marseille","lat":43.30552,"lon":5.36541,"is_reserved":false,"is_disabled":false,"rental_uris":{"android":"levelo://app?vid=c663d1d4-567b-4032-bde2-ef89fd028bda","ios":"levelo://app?vid=c663d1d4-567b-4032-bde2-ef89fd028bda"},"vehicle_type_id":"4","last_reported":1726585757,"current_range_meters":27600,"station_id":"ce4bgs12rcd13ifvqcag","pricing_plan_id":"cebpf4jnsgd1na2vs0mg"},{"bike_id":"3d91f249-42ba-4304-ae7b-e082d59624f0","system_id":"levelo_inurba_marseille","lat":43.30551,"lon":5.36704,"is_reserved":false,"is_disabled":false,"rental_uris":{"android":"levelo://app?vid=3d91f249-42ba-4304-ae7b-e082d59624f0","ios":"levelo://app?vid=3d91f249-42ba-4304-ae7b-e082d59624f0"},"vehicle_type_id":"4","last_reported":1726585757,"current_range_meters":27600,"station_id":"ce4bgrp2rcd13ifvqc9g","pricing_plan_id":"cebpf4jnsgd1na2vs0mg"},{"bike_id":"79aae6c9-2353-4e66-b227-d1a2adcc2132","system_id":"levelo_inurba_marseille","lat":43.24645,"lon":5.38894,"is_reserved":false,"is_disabled":false,"rental_uris":{"android":"levelo://app?vid=79aae6c9-2353-4e66-b227-d1a2adcc2132","ios":"levelo://app?vid=79aae6c9-2353-4e66-b227-d1a2adcc2132"},"vehicle_type_id":"4","last_reported":1726585757,"current_range_meters":26800,"station_id":"ce4bhg12rcd13ifvqf60","pricing_plan_id":"cebpf4jnsgd1na2vs0mg"},{"bike_id":"daf6a8e9-7ccc-4104-8d83-9d730622c640","system_id":"levelo_inurba_marseille","lat":43.29621,"lon":5.37385,"is_reserved":false,"is_disabled":false,"rental_uris":{"android":"levelo://app?vid=daf6a8e9-7ccc-4104-8d83-9d730622c640","ios":"levelo://app?vid=daf6a8e9-7ccc-4104-8d83-9d730622c640"},"vehicle_type_id":"4","last_reported":1726585757,"current_range_meters":22800,"station_id":"ce4bgh92rcd13ifvqb50","pricing_plan_id":"cebpf4jnsgd1na2vs0mg"},{"bike_id":"2bee2fcb-9cad-4451-bb19-ef7542e2dfc3","system_id":"levelo_inurba_marseille","lat":43.295839,"lon":5.367196,"is_reserved":false,"is_disabled":false,"rental_uris":{"android":"levelo://app?vid=2bee2fcb-9cad-4451-bb19-ef7542e2dfc3","ios":"levelo://app?vid=2bee2fcb-9cad-4451-bb19-ef7542e2dfc3"},"vehicle_type_id":"4","last_reported":1726585757,"current_range_meters":33200,"station_id":"ce4bgph2rcd13ifvqc2g","pricing_plan_id":"cebpf4jnsgd1na2vs0mg"},{"bike_id":"f4be4ace-328b-4591-8f9c-bf83b4711c88","system_id":"levelo_inurba_marseille","lat":43.29415,"lon":5.38629,"is_reserved":false,"is_disabled":false,"rental_uris":{"android":"levelo://app?vid=f4be4ace-328b-4591-8f9c-bf83b4711c88","ios":"levelo://app?vid=f4be4ace-328b-4591-8f9c-bf83b4711c88"},"vehicle_type_id":"4","last_reported":1726585757,"current_range_meters":30800,"station_id":"ce4bh2h2rcd13ifvqdh0","pricing_plan_id":"cebpf4jnsgd1na2vs0mg"},{"bike_id":"35344f7f-23b9-44cf-b4f0-94b058da6e82","system_id":"levelo_inurba_marseille","lat":43.2706,"lon":5.40263,"is_reserved":false,"is_disabled":false,"rental_uris":{"android":"levelo://app?vid=35344f7f-23b9-44cf-b4f0-94b058da6e82","ios":"levelo://app?vid=35344f7f-23b9-44cf-b4f0-94b058da6e82"},"vehicle_type_id":"4","last_reported":1726585757,"current_range_meters":38800,"station_id":"ce4bhk92rcd13ifvqgc0","pricing_plan_id":"cebpf4jnsgd1na2vs0mg"},{"bike_id":"88c48fd9-14af-4c3a-aee5-d2372390d921","system_id":"levelo_inurba_marseille","lat":43.2418,"lon":5.39737,"is_reserved":false,"is_disabled":false,"rental_uris":{"android":"levelo://app?vid=88c48fd9-14af-4c3a-aee5-d2372390d921","ios":"levelo://app?vid=88c48fd9-14af-4c3a-aee5-d2372390d921"},"vehicle_type_id":"4","last_reported":1726585757,"current_range_meters":34000,"station_id":"ce4bhn12rcd13ifvqgpg","pricing_plan_id":"cebpf4jnsgd1na2vs0mg"},{"bike_id":"82dcdc42-43cf-4dfc-9bc3-3af19cb4f4db","system_id":"levelo_inurba_marseille","lat":43.30653,"lon":5.40078,"is_reserved":false,"is_disabled":false,"rental_uris":{"android":"levelo://app?vid=82dcdc42-43cf-4dfc-9bc3-3af19cb4f4db","ios":"levelo://app?vid=82dcdc42-43cf-4dfc-9bc3-3af19cb4f4db"},"vehicle_type_id":"4","last_reported":1726585757,"current_range_meters":34000,"station_id":"ce4bh112rcd13ifvqda0","pricing_plan_id":"cebpf4jnsgd1na2vs0mg"},{"bike_id":"6f387a41-1a28-4619-ac86-26875678b81b","system_id":"levelo_inurba_marseille","lat":43.29899,"lon":5.43672,"is_reserved":false,"is_disabled":false,"rental_uris":{"android":"levelo://app?vid=6f387a41-1a28-4619-ac86-26875678b81b","ios":"levelo://app?vid=6f387a41-1a28-4619-ac86-26875678b81b"},"vehicle_type_id":"4","last_reported":1726585757,"current_range_meters":20800,"station_id":"ce4bhpp2rcd13ifvqhfg","pricing_plan_id":"cebpf4jnsgd1na2vs0mg"},{"bike_id":"314e9de7-0568-4209-ad4f-9611a297f912","system_id":"levelo_inurba_marseille","lat":43.284185,"lon":5.349714,"is_reserved":false,"is_disabled":false,"rental_uris":{"android":"levelo://app?vid=314e9de7-0568-4209-ad4f-9611a297f912","ios":"levelo://app?vid=314e9de7-0568-4209-ad4f-9611a297f912"},"vehicle_type_id":"4","last_reported":1726585757,"current_range_meters":17200,"station_id":"ce4bhbh2rcd13ifvqepg","pricing_plan_id":"cebpf4jnsgd1na2vs0mg"},{"bike_id":"8d5642dc-12f2-4698-bb83-c479be5b759c","system_id":"levelo_inurba_marseille","lat":43.29534,"lon":5.38536,"is_reserved":false,"is_disabled":false,"rental_uris":{"android":"levelo://app?vid=8d5642dc-12f2-4698-bb83-c479be5b759c","ios":"levelo://app?vid=8d5642dc-12f2-4698-bb83-c479be5b759c"},"vehicle_type_id":"4","last_reported":1726585757,"current_range_meters":18800,"station_id":"ce4bgih2rcd13ifvqba0","pricing_plan_id":"cebpf4jnsgd1na2vs0mg"},{"bike_id":"99f96c7a-2af1-47c8-9ab2-7ca180b29aa4","system_id":"levelo_inurba_marseille","lat":43.295188,"lon":5.390387,"is_reserved":false,"is_disabled":false,"rental_uris":{"android":"levelo://app?vid=99f96c7a-2af1-47c8-9ab2-7ca180b29aa4","ios":"levelo://app?vid=99f96c7a-2af1-47c8-9ab2-7ca180b29aa4"},"vehicle_type_id":"4","last_reported":1726585757,"current_range_meters":25200,"station_id":"ce4bh3p2rcd13ifvqdp0","pricing_plan_id":"cebpf4jnsgd1na2vs0mg"},{"bike_id":"04b843a2-eb15-4990-a5d5-e4688af15940","system_id":"levelo_inurba_marseille","lat":43.24653,"lon":5.38902,"is_reserved":false,"is_disabled":false,"rental_uris":{"android":"levelo://app?vid=04b843a2-eb15-4990-a5d5-e4688af15940","ios":"levelo://app?vid=04b843a2-eb15-4990-a5d5-e4688af15940"},"vehicle_type_id":"4","last_reported":1726585757,"current_range_meters":38800,"station_id":"ce4bhg12rcd13ifvqf60","pricing_plan_id":"cebpf4jnsgd1na2vs0mg"},{"bike_id":"75697ce2-e1b3-4242-a457-7ddacfc478a3","system_id":"levelo_inurba_marseille","lat":43.30543,"lon":5.36705,"is_reserved":false,"is_disabled":false,"rental_uris":{"android":"levelo://app?vid=75697ce2-e1b3-4242-a457-7ddacfc478a3","ios":"levelo://app?vid=75697ce2-e1b3-4242-a457-7ddacfc478a3"},"vehicle_type_id":"4","last_reported":1726585757,"current_range_meters":23200,"station_id":"ce4bgrp2rcd13ifvqc9g","pricing_plan_id":"cebpf4jnsgd1na2vs0mg"},{"bike_id":"5f275159-33ee-4026-8974-695054abbd4a","system_id":"levelo_inurba_marseille","lat":43.24079,"lon":5.37754,"is_reserved":false,"is_disabled":false,"rental_uris":{"android":"levelo://app?vid=5f275159-33ee-4026-8974-695054abbd4a","ios":"levelo://app?vid=5f275159-33ee-4026-8974-695054abbd4a"},"vehicle_type_id":"4","last_reported":1726585757,"current_range_meters":30800,"station_id":"ce4bhnp2rcd13ifvqgvg","pricing_plan_id":"cebpf4jnsgd1na2vs0mg"},{"bike_id":"dea93d70-6662-4e0b-959d-1c2cb1e1a989","system_id":"levelo_inurba_marseille","lat":43.296271,"lon":5.405972,"is_reserved":false,"is_disabled":false,"rental_uris":{"android":"levelo://app?vid=dea93d70-6662-4e0b-959d-1c2cb1e1a989","ios":"levelo://app?vid=dea93d70-6662-4e0b-959d-1c2cb1e1a989"},"vehicle_type_id":"4","last_reported":1726585757,"current_range_meters":32400,"station_id":"ce4bh0h2rcd13ifvqd60","pricing_plan_id":"cebpf4jnsgd1na2vs0mg"},