{"last_updated":1709845610,"ttl":30,"version":"2.2","data":{"bikes":[{"bike_id":"09f02337-fc03-4b14-829c-e41f456a8a28","system_id":"levelo_inurba_marseille","lat":43.313391,"lon":5.36706,"is_reserved":false,"is_disabled":false,"rental_uris":{"android":"levelo://app?vid=09f02337-fc03-4b14-829c-e41f456a8a28","ios":"levelo://app?vid=09f02337-fc03-4b14-829c-e41f456a8a28"},"vehicle_type_id":"4","last_reported":1709845610,"current_range_meters":20400,"station_id":"ce4bgr92rcd13ifvqc6g","pricing_plan_id":"cebpf4jnsgd1na2vs0mg"},{"bike_id":"363b1128-dd6b-4ab7-926f-c250150d1183","system_id":"levelo_inurba_marseille","lat":43.31341,"lon":5.367098,"is_reserved":false,"is_disabled":false,"rental_uris":{"android":"levelo://app?vid=363b1128-dd6b-4ab7-926f-c250150d1183","ios":"levelo://app?vid=363b1128-dd6b-4ab7-926f-c250150d1183"},"vehicle_type_id":"4","last_reported":1709845610,"current_range_meters":8800,"station_id":"ce4bgr92rcd13ifvqc6g","pricing_plan_id":"cebpf4jnsgd1na2vs0mg"},{"bike_id":"231e6b99-b416-40bd-90c8-0f6d860032b5","system_id":"levelo_inurba_marseille","lat":43.312239,"lon":5.368562,"is_reserved":false,"is_disabled":false,"rental_uris":{"android":"levelo://app?vid=231e6b99-b416-40bd-90c8-0f6d860032b5","ios":"levelo://app?vid=231e6b99-b416-40bd-90c8-0f6d860032b5"},"vehicle_type_id":"4","last_reported":1709845610,"current_range_meters":13200,"station_id":"ce4bgl92rcd13ifvqbq0","pricing_plan_id":"cebpf4jnsgd1na2vs0mg"},{"bike_id":"4412d692-e8cd-446d-b183-8452e146a808","system_id":"levelo_inurba_marseille","lat":43.312239,"lon":5.368562,"is_reserved":false,"is_disabled":false,"rental_uris":{"android":"levelo://app?vid=4412d692-e8cd-446d-b183-8452e146a808","ios":"levelo://app?vid=4412d692-e8cd-446d-b183-8452e146a808"},"vehicle_type_id":"4","last_reported":1709845610,"current_range_meters":4800,"station_id":"ce4bgl92rcd13ifvqbq0","pricing_plan_id":"cebpf4jnsgd1na2vs0mg"},{"bike_id":"e90e84db-b651-45a4-9e49-d036a41c286a","system_id":"levelo_inurba_marseille","lat":43.312239,"lon":5.368562,"is_reserved":false,"is_disabled":false,"rental_uris":{"android":"levelo://app?vid=e90e84db-b651-45a4-9e49-d036a41c286a","ios":"levelo://app?vid=e90e84db-b651-45a4-9e49-d036a41c286a"},"vehicle_type_id":"4","last_reported":1709845610,"current_range_meters":4800,"station_id":"ce4bgl92rcd13ifvqbq0","pricing_plan_id":"cebpf4jnsgd1na2vs0mg"},{"bike_id":"55c08248-8c26-4544-be31-8a29c39cbabb","system_id":"levelo_inurba_marseille","lat":43.312239,"lon":5.368562,"is_reserved":false,"is_disabled":false,"rental_uris":{"android":"levelo://app?vid=55c08248-8c26-4544-be31-8a29c39cbabb","ios":"levelo://app?vid=55c08248-8c26-4544-be31-8a29c39cbabb"},"vehicle_type_id":"4","last_reported":1709845610,"current_range_meters":6800,"station_id":"ce4bgl92rcd13ifvqbq0","pricing_plan_id":"cebpf4jnsgd1na2vs0mg"},{"bike_id":"b9248b8b-89c9-4b10-b60c-5351140421b6","system_id":"levelo_inurba_marseille","lat":43.312239,"lon":5.368562,"is_reserved":false,"is_disabled":false,"rental_uris":{"android":"levelo://app?vid=b9248b8b-89c9-4b10-b60c-5351140421b6","ios":"levelo://app?vid=b9248b8b-89c9-4b10-b60c-5351140421b6"},"vehicle_type_id":"4","last_reported":1709845610,"current_range_meters":22000,"station_id":"ce4bgl92rcd13ifvqbq0","pricing_plan_id":"cebpf4jnsgd1na2vs0mg"},{"bike_id":"1401d6a3-ef4e-42f2-a27c-f28a1754c91f","system_id":"levelo_inurba_marseille","lat":43.3149,"lon":5.37306,"is_reserved":false,"is_disabled":false,"rental_uris":{"android":"levelo://app?vid=1401d6a3-ef4e-42f2-a27c-f28a1754c91f","ios":"levelo://app?vid=1401d6a3-ef4e-42f2-a27c-f28a1754c91f"},"vehicle_type_id":"4","last_reported":1709845610,"current_range_meters":800,"station_id":"ce4bgt12rcd13ifvqcd0","pricing_plan_id":"cebpf4jnsgd1na2vs0mg"},{"bike_id":"551213d9-110c-4577-b2ac-0765bfe5df77","system_id":"levelo_inurba_marseille","lat":43.316373,"lon":5.374223,"is_reserved":false,"is_disabled":false,"rental_uris":{"android":"levelo://app?vid=551213d9-110c-4577-b2ac-0765bfe5df77","ios":"levelo://app?vid=551213d9-110c-4577-b2ac-0765bfe5df77"},"vehicle_type_id":"4","last_reported":1709845610,"current_range_meters":3200,"station_id":"","pricing_plan_id":"cebpf4jnsgd1na2vs0mg"},{"bike_id":"81b0c8c7-5de3-4474-89ec-ee0eb447a8db","system_id":"levelo_inurba_marseille","lat":43.30554,"lon":5.36536,"is_reserved":false,"is_disabled":false,"rental_uris":{"android":"levelo://app?vid=81b0c8c7-5de3-4474-89ec-ee0eb447a8db","ios":"levelo://app?vid=81b0c8c7-5de3-4474-89ec-ee0eb447a8db"},"vehicle_type_id":"4","last_reported":1709845610,"current_range_meters":0,"station_id":"ce4bgs12rcd13ifvqcag","pricing_plan_id":"cebpf4jnsgd1na2vs0mg"},{"bike_id":"63d5fedb-75ce-4d2a-8aec-c5cf7482371c","system_id":"levelo_inurba_marseille","lat":43.3054,"lon":5.36527,"is_reserved":false,"is_disabled":false,"rental_uris":{"android":"levelo://app?vid=63d5fedb-75ce-4d2a-8aec-c5cf7482371c","ios":"levelo://app?vid=63d5fedb-75ce-4d2a-8aec-c5cf7482371c"},"vehicle_type_id":"4","last_reported":1709845610,"current_range_meters":0,"station_id":"ce4bgs12rcd13ifvqcag","pricing_plan_id":"cebpf4jnsgd1na2vs0mg"},{"bike_id":"2faebe19-c31c-454c-9886-d5abdacf3d6e","system_id":"levelo_inurba_marseille","lat":43.30603,"lon":5.37207,"is_reserved":false,"is_disabled":false,"rental_uris":{"android":"levelo://app?vid=2faebe19-c31c-454c-9886-d5abdacf3d6e","ios":"levelo://app?vid=2faebe19-c31c-454c-9886-d5abdacf3d6e"},"vehicle_type_id":"4","last_reported":1709845610,"current_range_meters":17600,"station_id":"ce4bgqh2rcd13ifvqc4g","pricing_plan_id":"cebpf4jnsgd1na2vs0mg"},{"bike_id":"318091d9-3f7d-409c-989d-c88335ef12b7","system_id":"levelo_inurba_marseille","lat":43.305985,"lon":5.37231,"is_reserved":false,"is_disabled":false,"rental_uris":{"android":"levelo://app?vid=318091d9-3f7d-409c-989d-c88335ef12b7","ios":"levelo://app?vid=318091d9-3f7d-409c-989d-c88335ef12b7"},"vehicle_type_id":"4","last_reported":1709845610,"current_range_meters":15200,"station_id":"ce4bgqh2rcd13ifvqc4g","pricing_plan_id":"cebpf4jnsgd1na2vs0mg"},{"bike_id":"7edc579d-cab3-4a5d-a6d5-fc83ac9772be","system_id":"levelo_inurba_marseille","lat":43.30594,"lon":5.37223,"is_reserved":false,"is_disabled":false,"rental_uris":{"android":"levelo://app?vid=7edc579d-cab3-4a5d-a6d5-fc83ac9772be","ios":"levelo://app?vid=7edc579d-cab3-4a5d-a6d5-fc83ac9772be"},"vehicle_type_id":"4","last_reported":1709845610,"current_range_meters":0,"station_id":"ce4bgqh2rcd13ifvqc4g","pricing_plan_id":"cebpf4jnsgd1na2vs0mg"},{"bike_id":"6b39f1c8-1ffb-4c2b-a97c-32b38768c3cc","system_id":"levelo_inurba_marseille","lat":43.305989,"lon":5.37225,"is_reserved":false,"is_disabled":false,"rental_uris":{"android":"levelo://app?vid=6b39f1c8-1ffb-4c2b-a97c-32b38768c3cc","ios":"levelo://app?vid=6b39f1c8-1ffb-4c2b-a97c-32b38768c3cc"},"vehicle_type_id":"4","last_reported":1709845610,"current_range_meters":29200,"station_id":"ce4bgqh2rcd13ifvqc4g","pricing_plan_id":"cebpf4jnsgd1na2vs0mg"},{"bike_id":"13efe1f2-c1b5-4f07-89b6-91dae5b565d3","system_id":"levelo_inurba_marseille","lat":43.311131,"lon":5.377651,"is_reserved":false,"is_disabled":false,"rental_uris":{"android":"levelo://app?vid=13efe1f2-c1b5-4f07-89b6-91dae5b565d3","ios":"levelo://app?vid=13efe1f2-c1b5-4f07-89b6-91dae5b565d3"},"vehicle_type_id":"4","last_reported":1709845610,"current_range_meters":5200,"station_id":"ce4bgt92rcd13ifvqcg0","pricing_plan_id":"cebpf4jnsgd1na2vs0mg"},{"bike_id":"75edc056-dd5c-490e-819e-b908ed04a59b","system_id":"levelo_inurba_marseille","lat":43.311131,"lon":5.377651,"is_reserved":false,"is_disabled":false,"rental_uris":{"android":"levelo://app?vid=75edc056-dd5c-490e-819e-b908ed04a59b","ios":"levelo://app?vid=75edc056-dd5c-490e-819e-b908ed04a59b"},"vehicle_type_id":"4","last_reported":1709845610,"current_range_meters":26800,"station_id":"ce4bgt92rcd13ifvqcg0","pricing_plan_id":"cebpf4jnsgd1na2vs0mg"},{"bike_id":"2a627898-8ecf-4ed7-bd4a-3b1a2af7bdd5","system_id":"levelo_inurba_marseille","lat":43.317101,"lon":5.376437,"is_reserved":false,"is_disabled":false,"rental_uris":{"android":"levelo://app?vid=2a627898-8ecf-4ed7-bd4a-3b1a2af7bdd5","ios":"levelo://app?vid=2a627898-8ecf-4ed7-bd4a-3b1a2af7bdd5"},"vehicle_type_id":"4","last_reported":1709845610,"current_range_meters":0,"station_id":"","pricing_plan_id":"cebpf4jnsgd1na2vs0mg"},{"bike_id":"5121ec67-5391-43a2-b51c-8ce377ed7d25","system_id":"levelo_inurba_marseille","lat":43.307945,"lon":5.376487,"is_reserved":false,"is_disabled":false,"rental_uris":{"android":"levelo://app?vid=5121ec67-5391-43a2-b51c-8ce377ed7d25","ios":"levelo://app?vid=5121ec67-5391-43a2-b51c-8ce377ed7d25"},"vehicle_type_id":"4","last_reported":1709845610,"current_range_meters":24400,"station_id":"ce4bgv92rcd13ifvqcq0","pricing_plan_id":"cebpf4jnsgd1na2vs0mg"},{"bike_id":"d1cad779-55a6-43b1-9b65-aa0d58b6ed00","system_id":"levelo_inurba_marseille","lat":43.30784,"lon":5.37637,"is_reserved":false,"is_disabled":false,"rental_uris":{"android":"levelo://app?vid=d1cad779-55a6-43b1-9b65-aa0d58b6ed00","ios":"levelo://app?vid=d1cad779-55a6-43b1-9b65-aa0d58b6ed00"},"vehicle_type_id":"4","last_reported":1709845610,"current_range_meters":10800,"station_id":"ce4bgv92rcd13ifvqcq0","pricing_plan_id":"cebpf4jnsgd1na2vs0mg"},{"bike_id":"533bae6f-4380-4631-a8e3-c07b92db79ab","system_id":"levelo_inurba_marseille","lat":43.307945,"lon":5.376487,"is_reserved":false,"is_disabled":false,"rental_uris":{"android":"levelo://app?vid=533bae6f-4380-4631-a8e3-c07b92db79ab","ios":"levelo://app?vid=533bae6f-4380-4631-a8e3-c07b92db79ab"},"vehicle_type_id":"4","last_reported":1709845610,"current_range_meters":10800,"station_id":"ce4bgv92rcd13ifvqcq0","pricing_plan_id":"cebpf4jnsgd1na2vs0mg"},{"bike_id":"3a49a684-4bff-4adb-b2e6-c5bf4c12daa7","system_id":"levelo_inurba_marseille","lat":43.317075,"lon":5.377367,"is_reserved":false,"is_disabled":false,"rental_uris":{"android":"levelo://app?vid=3a49a684-4bff-4adb-b2e6-c5bf4c12daa7","ios":"levelo://app?vid=3a49a684-4bff-4adb-b2e6-c5bf4c12daa7"},"vehicle_type_id":"4","last_reported":1709845610,"current_range_meters":20400,"station_id":"ce4bgth2rcd13ifvqch0","pricing_plan_id":"cebpf4jnsgd1na2vs0mg"},{"bike_id":"7709f547-cb12-4b5a-b911-b29961c8f3f9","system_id":"levelo_inurba_marseille","lat":43.315289,"lon":5.380349,"is_reserved":false,"is_disabled":false,"rental_uris":{"android":"levelo://app?vid=7709f547-cb12-4b5a-b911-b29961c8f3f9","ios":"levelo://app?vid=7709f547-cb12-4b5a-b911-b29961c8f3f9"},"vehicle_type_id":"4","last_reported":1709845610,"current_range_meters":6000,"station_id":"ce4bhsp2rcd13ifvqi50","pricing_plan_id":"cebpf4jnsgd1na2vs0mg"},{"bike_id":"ea9edad0-88b6-4a75-ab3e-9061a3a9f9b5","system_id":"levelo_inurba_marseille","lat":43.315368,"lon":5.380303,"is_reserved":false,"is_disabled":false,"rental_uris":{"android":"levelo://app?vid=ea9edad0-88b6-4a75-ab3e-9061a3a9f9b5","ios":"levelo://app?vid=ea9edad0-88b6-4a75-ab3e-9061a3a9f9b5"},"vehicle_type_id":"4","last_reported":1709845610,"current_range_meters":8400,"station_id":"ce4bhsp2rcd13ifvqi50","pricing_plan_id":"cebpf4jnsgd1na2vs0mg"},{"bike_id":"e875f898-d9e9-4ed9-b0e0-28dd8899903a","system_id":"levelo_inurba_marseille","lat":43.3154,"lon":5.38031,"is_reserved":false,"is_disabled":false,"rental_uris":{"android":"levelo://app?vid=e875f898-d9e9-4ed9-b0e0-28dd8899903a","ios":"levelo://app?vid=e875f898-d9e9-4ed9-b0e0-28dd8899903a"},"vehicle_type_id":"4","last_reported":1709845610,"current_range_meters":1600,"station_id":"ce4bhsp2rcd13ifvqi50","pricing_plan_id":"cebpf4jnsgd1na2vs0mg"},{"bike_id":"860d8ad8-77c1-40d9-ac71-4724f9a9c1b0","system_id":"levelo_inurba_marseille","lat":43.301939,"lon":5.366286,"is_reserved":false,"is_disabled":false,"rental_uris":{"android":"levelo://app?vid=860d8ad8-77c1-40d9-ac71-4724f9a9c1b0","ios":"levelo://app?vid=860d8ad8-77c1-40d9-ac71-4724f9a9c1b0"},"vehicle_type_id":"4","last_reported":1709845610,"current_range_meters":6400,"station_id":"ce4bgrh2rcd13ifvqc8g","pricing_plan_id":"cebpf4jnsgd1na2vs0mg"},{"bike_id":"00ab42d3-af2a-40fe-81fe-19c5b2b2320f","system_id":"levelo_inurba_marseille","lat":43.308012,"lon":5.381511,"is_reserved":false,"is_disabled":false,"rental_uris":{"android":"levelo://app?vid=00ab42d3-af2a-40fe-81fe-19c5b2b2320f","ios":"levelo://app?vid=00ab42d3-af2a-40fe-81fe-19c5b2b2320f"},"vehicle_type_id":"4","last_reported":1709845610,"current_range_meters":4400,"station_id":"ce4bgt12rcd13ifvqce0","pricing_plan_id":"cebpf4jnsgd1na2vs0mg"},{"bike_id":"cdd09f83-54e1-4f43-877e-fdf97e26c1db","system_id":"levelo_inurba_marseille","lat":43.304606,"lon":5.379026,"is_reserved":false,"is_disabled":false,"rental_uris":{"android":"levelo://app?vid=cdd09f83-54e1-4f43-877e-fdf97e26c1db","ios":"levelo://app?vid=cdd09f83-54e1-4f43-877e-fdf97e26c1db"},"vehicle_type_id":"4","last_reported":1709845610,"current_range_meters":16400,"station_id":"ce4bgup2rcd13ifvqcn0","pricing_plan_id":"cebpf4jnsgd1na2vs0mg"},{"bike_id":"34b2bed7-c4ae-4325-b7ff-b57f8262afbe","system_id":"levelo_inurba_marseille","lat":43.324771,"lon":5.36557,"is_reserved":false,"is_disabled":false,"rental_uris":{"android":"levelo://app?vid=34b2bed7-c4ae-4325-b7ff-b57f8262afbe","ios":"levelo://app?vid=34b2bed7-c4ae-4325-b7ff-b57f8262afbe"},"vehicle_type_id":"4","last_reported":1709845610,"current_range_meters":2400,"station_id":"ce4bhs12rcd13ifvqhvg","pricing_plan_id":"cebpf4jnsgd1na2vs0mg"},{"bike_id":"a6d418c4-60eb-48c3-977a-8fb1f89a2058","system_id":"levelo_inurba_marseille","lat":43.324771,"lon":5.36557,"is_reserved":false,"is_disabled":false,"rental_uris":{"android":"levelo://app?vid=a6d418c4-60eb-48c3-977a-8fb1f89a2058","ios":"levelo://app?vid=a6d418c4-60eb-48c3-977a-8fb1f89a2058"},"vehicle_type_id":"4","last_reported":1709845610,"current_range_meters":2800,"station_id":"ce4bhs12rcd13ifvqhvg","pricing_plan_id":"cebpf4jnsgd1na2vs0mg"},{"bike_id":"21df76d8-0e40-4902-96b1-55dd0607ba36","system_id":"levelo_inurba_marseille","lat":43.324771,"lon":5.36557,"is_reserved":false,"is_disabled":false,"rental_uris":{"android":"levelo://app?vid=21df76d8-0e40-4902-96b1-55dd0607ba36","ios":"levelo://app?vid=21df76d8-0e40-4902-96b1-55dd0607ba36"},"vehicle_type_id":"4","last_reported":1709845610,"current_range_meters":5600,"station_id":"ce4bhs12rcd13ifvqhvg","pricing_plan_id":"cebpf4jnsgd1na2vs0mg"},{"bike_id":"bfb8d7ab-619f-4bc3-9170-bb403a29d7f3","system_id":"levelo_inurba_marseille","lat":43.324771,"lon":5.36557,"is_reserved":false,"is_disabled":false,"rental_uris":{"android":"levelo://app?vid=bfb8d7ab-619f-4bc3-9170-bb403a29d7f3","ios":"levelo://app?vid=bfb8d7ab-619f-4bc3-9170-bb403a29d7f3"},"vehicle_type_id":"4","last_reported":1709845610,"current_range_meters":18000,"station_id":"ce4bhs12rcd13ifvqhvg","pricing_plan_id":"cebpf4jnsgd1na2vs0mg"},{"bike_id":"7543e2f4-cad6-43cc-ada3-26ce75172a81","system_id":"levelo_inurba_marseille","lat":43.31062,"lon":5.383465,"is_reserved":false,"is_disabled":false,"rental_uris":{"android":"levelo://app?vid=7543e2f4-cad6-43cc-ada3-26ce75172a81","ios":"levelo://app?vid=7543e2f4-cad6-43cc-ada3-26ce75172a81"},"vehicle_type_id":"4","last_reported":1709845610,"current_range_meters":18000,"station_id":"ce4bgv92rcd13ifvqcr0","pricing_plan_id":"cebpf4jnsgd1na2vs0mg"},{"bike_id":"9859c636-2c1c-4a6d-a0da-a1286fb394ba","system_id":"levelo_inurba_marseille","lat":43.310804,"lon":5.38359,"is_reserved":false,"is_disabled":false,"rental_uris":{"android":"levelo://app?vid=9859c636-2c1c-4a6d-a0da-a1286fb394ba","ios":"levelo://app?vid=9859c636-2c1c-4a6d-a0da-a1286fb394ba"},"vehicle_type_id":"4","last_reported":1709845610,"current_range_meters":12000,"station_id":"ce4bgv92rcd13ifvqcr0","pricing_plan_id":"cebpf4jnsgd1na2vs0mg"},{"bike_id":"b35f4fdf-838a-4c16-b862-a4868c49ce51","system_id":"levelo_inurba_marseille","lat":43.310804,"lon":5.38359,"is_reserved":false,"is_disabled":false,"rental_uris":{"android":"levelo://app?vid=b35f4fdf-838a-4c16-b862-a4868c49ce51","ios":"levelo://app?vid=b35f4fdf-838a-4c16-b862-a4868c49ce51"},"vehicle_type_id":"4","last_reported":1709845610,"current_range_meters":4400,"station_id":"ce4bgv92rcd13ifvqcr0","pricing_plan_id":"cebpf4jnsgd1na2vs0mg"},{"bike_id":"16cc38a8-d5bc-4c1f-b890-b46e9059752e","system_id":"levelo_inurba_marseille","lat":43.302784,"lon":5.377158,"is_reserved":false,"is_disabled":false,"rental_uris":{"android":"levelo://app?vid=16cc38a8-d5bc-4c1f-b890-b46e9059752e","ios":"levelo://app?vid=16cc38a8-d5bc-4c1f-b890-b46e9059752e"},"vehicle_type_id":"4","last_reported":1709845610,"current_range_meters":11200,"station_id":"ce4bguh2rcd13ifvqcj0","pricing_plan_id":"cebpf4jnsgd1na2vs0mg"},{"bike_id":"e5531e22-a0a1-427d-963e-033a6d04df0e","system_id":"levelo_inurba_marseille","lat":43.301429,"lon":5.37413,"is_reserved":false,"is_disabled":false,"rental_uris":{"android":"levelo://app?vid=e5531e22-a0a1-427d-963e-033a6d04df0e","ios":"levelo://app?vid=e5531e22-a0a1-427d-963e-033a6d04df0e"},"vehicle_type_id":"4","last_reported":1709845610,"current_range_meters":0,"station_id":"ce4bgs92rcd13ifvqcc0","pricing_plan_id":"cebpf4jnsgd1na2vs0mg"},{"bike_id":"0363fb8b-2eda-48f9-9159-5daeb34cca67","system_id":"levelo_inurba_marseille","lat":43.32001,"lon":5.38151,"is_reserved":false,"is_disabled":false,"rental_uris":{"android":"levelo://app?vid=0363fb8b-2eda-48f9-9159-5daeb34cca67","ios":"levelo://app?vid=0363fb8b-2eda-48f9-9159-5daeb34cca67"},"vehicle_type_id":"4","last_reported":1709845610,"current_range_meters":7600,"station_id":"ce4bhr12rcd13ifvqhpg","pricing_plan_id":"cebpf4jnsgd1na2vs0mg"},{"bike_id":"73291c6a-f045-402e-92c2-5aa6ca6ec782","system_id":"levelo_inurba_marseille","lat":43.313571,"lon":5.384829,"is_reserved":false,"is_disabled":false,"rental_uris":{"android":"levelo://app?vid=73291c6a-f045-402e-92c2-5aa6ca6ec782","ios":"levelo://app?vid=73291c6a-f045-402e-92c2-5aa6ca6ec782"},"vehicle_type_id":"4","last_reported":1709845610,"current_range_meters":22000,"station_id":"ce4bgt92rcd13ifvqcf0","pricing_plan_id":"cebpf4jnsgd1na2vs0mg"},{"bike_id":"cf139c3c-ca32-4dfd-abe0-5a4a30e718c8","system_id":"levelo_inurba_marseille","lat":43.31369,"lon":5.38493,"is_reserved":false,"is_disabled":false,"rental_uris":{"android":"levelo://app?vid=cf139c3c-ca32-4dfd-abe0-5a4a30e718c8","ios":"levelo://app?vid=cf139c3c-ca32-4dfd-abe0-5a4a30e718c8"},"vehicle_type_id":"4","last_reported":1709845610,"current_range_meters":12400,"station_id":"ce4bgt92rcd13ifvqcf0","pricing_plan_id":"cebpf4jnsgd1na2vs0mg"},{"bike_id":"93034e52-9284-452e-bf9f-486929c40ec5","system_id":"levelo_inurba_marseille","lat":43.3137,"lon":5.385,"is_reserved":false,"is_disabled":false,"rental_uris":{"android":"levelo://app?vid=93034e52-9284-452e-bf9f-486929c40ec5","ios":"levelo://app?vid=93034e52-9284-452e-bf9f-486929c40ec5"},"vehicle_type_id":"4","last_reported":1709845610,"current_range_meters":4400,"station_id":"ce4bgt92rcd13ifvqcf0","pricing_plan_id":"cebpf4jnsgd1na2vs0mg"},{"bike_id":"c5bdbf81-d184-44ec-9330-6402f2f6f52c","system_id":"levelo_inurba_marseille","lat":43.299724,"lon":5.371829,"is_reserved":false,"is_disabled":false,"rental_uris":{"android":"levelo://app?vid=c5bdbf81-d184-44ec-9330-6402f2f6f52c","ios":"levelo://app?vid=c5bdbf81-d184-44ec-9330-6402f2f6f52c"},"vehicle_type_id":"4","last_reported":1709845610,"current_range_meters":22000,"station_id":"ce4bgr92rcd13ifvqc7g","pricing_plan_id":"cebpf4jnsgd1na2vs0mg"},{"bike_id":"0fe6fa2d-db31-4620-a751-2eb9209dd56a","system_id":"levelo_inurba_marseille","lat":43.299222,"lon":5.365554,"is_reserved":false,"is_disabled":false,"rental_uris":{"android":"levelo://app?vid=0fe6fa2d-db31-4620-a751-2eb9209dd56a","ios":"levelo://app?vid=0fe6fa2d-db31-4620-a751-2eb9209dd56a"},"vehicle_type_id":"4","last_reported":1709845610,"current_range_meters":2000,"station_id":"ce4bgm92rcd13ifvqbr0","pricing_plan_id":"cebpf4jnsgd1na2vs0mg"},{"bike_id":"76993ecf-ef85-4313-903f-e6177343ff2f","system_id":"levelo_inurba_marseille","lat":43.299222,"lon":5.365554,"is_reserved":false,"is_disabled":false,"rental_uris":{"android":"levelo://app?vid=76993ecf-ef85-4313-903f-e6177343ff2f","ios":"levelo://app?vid=76993ecf-ef85-4313-903f-e6177343ff2f"},"vehicle_type_id":"4","last_reported":1709845610,"current_range_meters":0,"station_id":"ce4bgm92rcd13ifvqbr0","pricing_plan_id":"cebpf4jnsgd1na2vs0mg"},{"bike_id":"46780d81-84df-4158-b26a-4061819f85cf","system_id":"levelo_inurba_marseille","lat":43.299724,"lon":5.371829,"is_reserved":false,"is_disabled":false,"rental_uris":{"android":"levelo://app?vid=46780d81-84df-4158-b26a-4061819f85cf","ios":"levelo://app?vid=46780d81-84df-4158-b26a-4061819f85cf"},"vehicle_type_id":"4","last_reported":1709845610,"current_range_meters":20400,"station_id":"ce4bgr92rcd13ifvqc7g","pricing_plan_id":"cebpf4jnsgd1na2vs0mg"},{"bike_id":"256d056d-e309-4918-a8ad-4b28a8fefa17","system_id":"levelo_inurba_marseille","lat":43.299724,"lon":5.371829,"is_reserved":false,"is_disabled":false,"rental_uris":{"android":"levelo://app?vid=256d056d-e309-4918-a8ad-4b28a8fefa17","ios":"levelo://app?vid=256d056d-e309-4918-a8ad-4b28a8fefa17"},"vehicle_type_id":"4","last_reported":1709845610,"current_range_meters":4800,"station_id":"ce4bgr92rcd13ifvqc7g","pricing_plan_id":"cebpf4jnsgd1na2vs0mg"},{"bike_id":"9c0cfe1f-9ab0-4ebc-adbc-4abaf6f2c94f","system_id":"levelo_inurba_marseille","lat":43.29851,"lon":5.36287,"is_reserved":false,"is_disabled":false,"rental_uris":{"android":"levelo://app?vid=9c0cfe1f-9ab0-4ebc-adbc-4abaf6f2c94f","ios":"levelo://app?vid=9c0cfe1f-9ab0-4ebc-adbc-4abaf6f2c94f"},"vehicle_type_id":"4","last_reported":1709845610,"current_range_meters":10000,"station_id":"ce4bgpp2rcd13ifvqc3g","pricing_plan_id":"cebpf4jnsgd1na2vs0mg"},{"bike_id":"1fea4229-3fcb-46c1-8878-ee3d31e5fc00","system_id":"levelo_inurba_marseille","lat":43.298433,"lon":5.362774,"is_reserved":false,"is_disabled":false,"rental_uris":{"android":"levelo://app?vid=1fea4229-3fcb-46c1-8878-ee3d31e5fc00","ios":"levelo://app?vid=1fea4229-3fcb-46c1-8878-ee3d31e5fc00"},"vehicle_type_id":"4","last_reported":1709845610,"current_range_meters":19200,"station_id":"ce4bgpp2rcd13ifvqc3g","pricing_plan_id":"cebpf4jnsgd1na2vs0mg"},{"bike_id":"085c955c-4ee6-4ce3-bd13-143b02a900ae","system_id":"levelo_inurba_marseille","lat":43.298433,"lon":5.362774,"is_reserved":false,"is_disabled":false,"rental_uris":{"android":"levelo://app?vid=085c955c-4ee6-4ce3-bd13-143b02a900ae","ios":"levelo://app?vid=085c955c-4ee6-4ce3-bd13-143b02a900ae"},"vehicle_type_id":"4","last_reported":1709845610,"current_range_meters":30000,"station_id":"ce4bgpp2rcd13ifvqc3g","pricing_plan_id":"cebpf4jnsgd1na2vs0mg"},{"bike_id":"ccba4b6e-f54d-42fa-bdda-f29a59c049c9","system_id":"levelo_inurba_marseille","lat":43.305364,"lon":5.384119,"is_reserved":false,"is_disabled":false,"rental_uris":{"android":"levelo://app?vid=ccba4b6e-f54d-42fa-bdda-f29a59c049c9","ios":"levelo://app?vid=ccba4b6e-f54d-42fa-bdda-f29a59c049c9"},"vehicle_type_id":"4","last_reported":1709845610,"current_range_meters":12000,"station_id":"ce4bgg92rcd13ifvqb30","pricing_plan_id":"cebpf4jnsgd1na2vs0mg"},{"bike_id":"81a54845-0004-4edb-bb83-636913701f1c","system_id":"levelo_inurba_marseille","lat":43.305364,"lon":5.384119,"is_reserved":false,"is_disabled":false,"rental_uris":{"android":"levelo://app?vid=81a54845-0004-4edb-bb83-636913701f1c","ios":"levelo://app?vid=81a54845-0004-4edb-bb83-636913701f1c"},"vehicle_type_id":"4","last_reported":1709845610,"current_range_meters":0,"station_id":"ce4bgg92rcd13ifvqb30","pricing_plan_id":"cebpf4jnsgd1na2vs0mg"},{"bike_id":"97224b39-72b9-4664-8735-0671c5cce521","system_id":"levelo_inurba_marseille","lat":43.305364,"lon":5.384119,"is_reserved":false,"is_disabled":false,"rental_uris":{"android":"levelo://app?vid=97224b39-72b9-4664-8735-0671c5cce521","ios":"levelo://app?vid=97224b39-72b9-4664-8735-0671c5cce521"},"vehicle_type_id":"4","last_reported":1709845610,"current_range_meters":11200,"station_id":"ce4bgg92rcd13ifvqb30","pricing_plan_id":"cebpf4jnsgd1na2vs0mg"},{"bike_id":"31f6e901-df84-4cb1-b6cb-c68aae13d821","system_id":"levelo_inurba_marseille","lat":43.305364,"lon":5.384119,"is_reserved":false,"is_disabled":false,"rental_uris":{"android":"levelo://app?vid=31f6e901-df84-4cb1-b6cb-c68aae13d821","ios":"levelo://app?vid=31f6e901-df84-4cb1-b6cb-c68aae13d821"},"vehicle_type_id":"4","last_reported":1709845610,"current_range_meters":3600,"station_id":"ce4bgg92rcd13ifvqb30","pricing_plan_id":"cebpf4jnsgd1na2vs0mg"},{"bike_id":"2936e85a-e704-466c-b1f3-6c5bc8ea4d4f","system_id":"levelo_inurba_marseille","lat":43.305364,"lon":5.384119,"is_reserved":false,"is_disabled":false,"rental_uris":{"android":"levelo://app?vid=2936e85a-e704-466c-b1f3-6c5bc8ea4d4f","ios":"levelo://app?vid=2936e85a-e704-466c-b1f3-6c5bc8ea4d4f"},"vehicle_type_id":"4","last_reported":1709845610,"current_range_meters":0,"station_id":"ce4bgg92rcd13ifvqb30","pricing_plan_id":"cebpf4jnsgd1na2vs0mg"},{"bike_id":"f4f6226b-fe12-4fa1-b446-659b21544881","system_id":"levelo_inurba_marseille","lat":43.298433,"lon":5.362774,"is_reserved":false,"is_disabled":false,"rental_uris":{"android":"levelo://app?vid=f4f6226b-fe12-4fa1-b446-659b21544881","ios":"levelo://app?vid=f4f6226b-fe12-4fa1-b446-659b21544881"},"vehicle_type_id":"4","last_reported":1709845610,"current_range_meters":29600,"station_id":"ce4bgpp2rcd13ifvqc3g","pricing_plan_id":"cebpf4jnsgd1na2vs0mg"},{"bike_id":"633b0930-2172-4c47-b634-7fc07b257702","system_id":"levelo_inurba_marseille","lat":43.305364,"lon":5.384119,"is_reserved":false,"is_disabled":false,"rental_uris":{"android":"levelo://app?vid=633b0930-2172-4c47-b634-7fc07b257702","ios":"levelo://app?vid=633b0930-2172-4c47-b634-7fc07b257702"},"vehicle_type_id":"4","last_reported":1709845610,"current_range_meters":9600,"station_id":"ce4bgg92rcd13ifvqb30","pricing_plan_id":"cebpf4jnsgd1na2vs0mg"},{"bike_id":"622d12ec-bd72-4237-bb51-a5ba1283db65","system_id":"levelo_inurba_marseille","lat":43.305364,"lon":5.384119,"is_reserved":false,"is_disabled":false,"rental_uris":{"android":"levelo://app?vid=622d12ec-bd72-4237-bb51-a5ba1283db65","ios":"levelo://app?vid=622d12ec-bd72-4237-bb51-a5ba1283db65"},"vehicle_type_id":"4","last_reported":1709845610,"current_range_meters":1200,"station_id":"ce4bgg92rcd13ifvqb30","pricing_plan_id":"cebpf4jnsgd1na2vs0mg"},{"bike_id":"18358f0e-399e-4c89-ac05-8b756d131ba8","system_id":"levelo_inurba_marseille","lat":43.31182,"lon":5.38713,"is_reserved":false,"is_disabled":false,"rental_uris":{"android":"levelo://app?vid=18358f0e-399e-4c89-ac05-8b756d131ba8","ios":"levelo://app?vid=18358f0e-399e-4c89-ac05-8b756d131ba8"},"vehicle_type_id":"4","last_reported":1709845610,"current_range_meters":4400,"station_id":"ce4bgv12rcd13ifvqcp0","pricing_plan_id":"cebpf4jnsgd1na2vs0mg"},{"bike_id":"9f68305d-f10a-421b-9e9a-6796f50ed107","system_id":"levelo_inurba_marseille","lat":43.311722,"lon":5.387247,"is_reserved":false,"is_disabled":false,"rental_uris":{"android":"levelo://app?vid=9f68305d-f10a-421b-9e9a-6796f50ed107","ios":"levelo://app?vid=9f68305d-f10a-421b-9e9a-6796f50ed107"},"vehicle_type_id":"4","last_reported":1709845610,"current_range_meters":11200,"station_id":"ce4bgv12rcd13ifvqcp0","pricing_plan_id":"cebpf4jnsgd1na2vs0mg"},{"bike_id":"d73110b4-23b8-42a9-a533-5179a1df764f","system_id":"levelo_inurba_marseille","lat":43.311722,"lon":5.387247,"is_reserved":false,"is_disabled":false,"rental_uris":{"android":"levelo://app?vid=d73110b4-23b8-42a9-a533-5179a1df764f","ios":"levelo://app?vid=d73110b4-23b8-42a9-a533-5179a1df764f"},"vehicle_type_id":"4","last_reported":1709845610,"current_range_meters":26400,"station_id":"ce4bgv12rcd13ifvqcp0","pricing_plan_id":"cebpf4jnsgd1na2vs0mg"},{"bike_id":"500a3dba-2ffc-4190-ba3b-02ddf78963ed","system_id":"levelo_inurba_marseille","lat":43.299724,"lon":5.371829,"is_reserved":false,"is_disabled":false,"rental_uris":{"android":"levelo://app?vid=500a3dba-2ffc-4190-ba3b-02ddf78963ed","ios":"levelo://app?vid=500a3dba-2ffc-4190-ba3b-02ddf78963ed"},"vehicle_type_id":"4","last_reported":1709845610,"current_range_meters":16400,"station_id":"ce4bgr92rcd13ifvqc7g","pricing_plan_id":"cebpf4jnsgd1na2vs0mg"},{"bike_id":"43725db1-c618-46ed-8a77-5856726da4fe","system_id":"levelo_inurba_marseille","lat":43.297794,"lon":5.370888,"is_reserved":false,"is_disabled":false,"rental_uris":{"android":"levelo://app?vid=43725db1-c618-46ed-8a77-5856726da4fe","ios":"levelo://app?vid=43725db1-c618-46ed-8a77-5856726da4fe"},"vehicle_type_id":"4","last_reported":1709845610,"current_range_meters":30000,"station_id":"ce4bgop2rcd13ifvqc1g","pricing_plan_id":"cebpf4jnsgd1na2vs0mg"},{"bike_id":"baa27915-64b8-4d5f-81a2-a8e40767fbcf","system_id":"levelo_inurba_marseille","lat":43.297774,"lon":5.370875,"is_reserved":false,"is_disabled":false,"rental_uris":{"android":"levelo://app?vid=baa27915-64b8-4d5f-81a2-a8e40767fbcf","ios":"levelo://app?vid=baa27915-64b8-4d5f-81a2-a8e40767fbcf"},"vehicle_type_id":"4","last_reported":1709845610,"current_range_meters":9200,"station_id":"ce4bgop2rcd13ifvqc1g","pricing_plan_id":"cebpf4jnsgd1na2vs0mg"},{"bike_id":"5fa6298f-bb19-4f68-95ce-78a081aeaac3","system_id":"levelo_inurba_marseille","lat":43.322872,"lon":5.382756,"is_reserved":false,"is_disabled":false,"rental_uris":{"android":"levelo://app?vid=5fa6298f-bb19-4f68-95ce-78a081aeaac3","ios":"levelo://app?vid=5fa6298f-bb19-4f68-95ce-78a081aeaac3"},"vehicle_type_id":"4","last_reported":1709845610,"current_range_meters":0,"station_id":"ce4bhr12rcd13ifvqhqg","pricing_plan_id":"cebpf4jnsgd1na2vs0mg"},{"bike_id":"299e1b1d-026d-4cfd-9bd6-7cc24e19ad4c","system_id":"levelo_inurba_marseille","lat":43.322872,"lon":5.382756,"is_reserved":false,"is_disabled":false,"rental_uris":{"android":"levelo://app?vid=299e1b1d-026d-4cfd-9bd6-7cc24e19ad4c","ios":"levelo://app?vid=299e1b1d-026d-4cfd-9bd6-7cc24e19ad4c"},"vehicle_type_id":"4","last_reported":1709845610,"current_range_meters":31600,"station_id":"ce4bhr12rcd13ifvqhqg","pricing_plan_id":"cebpf4jnsgd1na2vs0mg"},{"bike_id":"e2267438-f67f-4875-8372-83a51af1157d","system_id":"levelo_inurba_marseille","lat":43.322872,"lon":5.382756,"is_reserved":false,"is_disabled":false,"rental_uris":{"android":"levelo://app?vid=e2267438-f67f-4875-8372-83a51af1157d","ios":"levelo://app?vid=e2267438-f67f-4875-8372-83a51af1157d"},"vehicle_type_id":"4","last_reported":1709845610,"current_range_meters":0,"station_id":"ce4bhr12rcd13ifvqhqg","pricing_plan_id":"cebpf4jnsgd1na2vs0mg"},{"bike_id":"7a1c88bf-e5fb-4ca4-a110-f35064f867c4","system_id":"levelo_inurba_marseille","lat":43.322872,"lon":5.382756,"is_reserved":false,"is_disabled":false,"rental_uris":{"android":"levelo://app?vid=7a1c88bf-e5fb-4ca4-a110-f35064f867c4","ios":"levelo://app?vid=7a1c88bf-e5fb-4ca4-a110-f35064f867c4"},"vehicle_type_id":"4","last_reported":1709845610,"current_range_meters":17200,"station_id":"ce4bhr12rcd13ifvqhqg","pricing_plan_id":"cebpf4jnsgd1na2vs0mg"},{"bike_id":"86b46df3-868b-4c5d-84aa-9e29bfde67d4","system_id":"levelo_inurba_marseille","lat":43.322872,"lon":5.382756,"is_reserved":false,"is_disabled":false,"rental_uris":{"android":"levelo://app?vid=86b46df3-868b-4c5d-84aa-9e29bfde67d4","ios":"levelo://app?vid=86b46df3-868b-4c5d-84aa-9e29bfde67d4"},"vehicle_type_id":"4","last_reported":1709845610,"current_range_meters":31200,"station_id":"ce4bhr12rcd13ifvqhqg","pricing_plan_id":"cebpf4jnsgd1na2vs0mg"},{"bike_id":"89281250-89ef-4dd7-84fe-26879b55f408","system_id":"levelo_inurba_marseille","lat":43.322872,"lon":5.382756,"is_reserved":false,"is_disabled":false,"rental_uris":{"android":"levelo://app?vid=89281250-89ef-4dd7-84fe-26879b55f408","ios":"levelo://app?vid=89281250-89ef-4dd7-84fe-26879b55f408"},"vehicle_type_id":"4","last_reported":1709845610,"current_range_meters":14000,"station_id":"ce4bhr12rcd13ifvqhqg","pricing_plan_id":"cebpf4jnsgd1na2vs0mg"},{"bike_id":"371e6a2c-3338-4dae-a4e7-3f648e3af128","system_id":"levelo_inurba_marseille","lat":43.322872,"lon":5.382756,"is_reserved":false,"is_disabled":false,"rental_uris":{"android":"levelo://app?vid=371e6a2c-3338-4dae-a4e7-3f648e3af128","ios":"levelo://app?vid=371e6a2c-3338-4dae-a4e7-3f648e3af128"},"vehicle_type_id":"4","last_reported":1709845610,"current_range_meters":30000,"station_id":"ce4bhr12rcd13ifvqhqg","pricing_plan_id":"cebpf4jnsgd1na2vs0mg"},{"bike_id":"c0664275-516d-4cfb-8db1-2225aa364432","system_id":"levelo_inurba_marseille","lat":43.322872,"lon":5.382756,"is_reserved":false,"is_disabled":false,"rental_uris":{"android":"levelo://app?vid=c0664275-516d-4cfb-8db1-2225aa364432","ios":"levelo://app?vid=c0664275-516d-4cfb-8db1-2225aa364432"},"vehicle_type_id":"4","last_reported":1709845610,"current_range_meters":18000,"station_id":"ce4bhr12rcd13ifvqhqg","pricing_plan_id":"cebpf4jnsgd1na2vs0mg"},{"bike_id":"3de07d31-64a7-460c-8981-e17039f19cae","system_id":"levelo_inurba_marseille","lat":43.297774,"lon":5.370875,"is_reserved":false,"is_disabled":false,"rental_uris":{"android":"levelo://app?vid=3de07d31-64a7-460c-8981-e17039f19cae","ios":"levelo://app?vid=3de07d31-64a7-460c-8981-e17039f19cae"},"vehicle_type_id":"4","last_reported":1709845610,"current_range_meters":15200,"station_id":"ce4bgop2rcd13ifvqc1g","pricing_plan_id":"cebpf4jnsgd1na2vs0mg"},{"bike_id":"18cf7580-6b1a-4743-84c1-f0e42ef51f90","system_id":"levelo_inurba_marseille","lat":43.297163,"lon":5.365866,"is_reserved":false,"is_disabled":false,"rental_uris":{"android":"levelo://app?vid=18cf7580-6b1a-4743-84c1-f0e42ef51f90","ios":"levelo://app?vid=18cf7580-6b1a-4743-84c1-f0e42ef51f90"},"vehicle_type_id":"4","last_reported":1709845610,"current_range_meters":18000,"station_id":"ce4bgn12rcd13ifvqbt0","pricing_plan_id":"cebpf4jnsgd1na2vs0mg"},{"bike_id":"c1698da9-2266-43fb-9ba9-c391d376c7a6","system_id":"levelo_inurba_marseille","lat":43.297163,"lon":5.365866,"is_reserved":false,"is_disabled":false,"rental_uris":{"android":"levelo://app?vid=c1698da9-2266-43fb-9ba9-c391d376c7a6","ios":"levelo://app?vid=c1698da9-2266-43fb-9ba9-c391d376c7a6"},"vehicle_type_id":"4","last_reported":1709845610,"current_range_meters":22400,"station_id":"ce4bgn12rcd13ifvqbt0","pricing_plan_id":"cebpf4jnsgd1na2vs0mg"},{"bike_id":"a5bd8dab-285d-48cb-9326-2c1bf31ebbec","system_id":"levelo_inurba_marseille","lat":43.297163,"lon":5.365866,"is_reserved":false,"is_disabled":false,"rental_uris":{"android":"levelo://app?vid=a5bd8dab-285d-48cb-9326-2c1bf31ebbec","ios":"levelo://app?vid=a5bd8dab-285d-48cb-9326-2c1bf31ebbec"},"vehicle_type_id":"4","last_reported":1709845610,"current_range_meters":28000,"station_id":"ce4bgn12rcd13ifvqbt0","pricing_plan_id":"cebpf4jnsgd1na2vs0mg"},{"bike_id":"8ac2c0a7-0fde-4645-99cb-8e715ee9b2c8","system_id":"levelo_inurba_marseille","lat":43.297163,"lon":5.365866,"is_reserved":false,"is_disabled":false,"rental_uris":{"android":"levelo://app?vid=8ac2c0a7-0fde-4645-99cb-8e715ee9b2c8","ios":"levelo://app?vid=8ac2c0a7-0fde-4645-99cb-8e715ee9b2c8"},"vehicle_type_id":"4","last_reported":1709845610,"current_range_meters":400,"station_id":"ce4bgn12rcd13ifvqbt0","pricing_plan_id":"cebpf4jnsgd1na2vs0mg"},{"bike_id":"81d64cc5-6ab5-41a5-aac1-6b2c90f9e6a4","system_id":"levelo_inurba_marseille","lat":43.297163,"lon":5.365866,"is_reserved":false,"is_disabled":false,"rental_uris":{"android":"levelo://app?vid=81d64cc5-6ab5-41a5-aac1-6b2c90f9e6a4","ios":"levelo://app?vid=81d64cc5-6ab5-41a5-aac1-6b2c90f9e6a4"},"vehicle_type_id":"4","last_reported":1709845610,"current_range_meters":23200,"station_id":"ce4bgn12rcd13ifvqbt0","pricing_plan_id":"cebpf4jnsgd1na2vs0mg"},{"bike_id":"3ca8ea5b-ef05-47c8-8197-3dfb9c1f36d8","system_id":"levelo_inurba_marseille","lat":43.297163,"lon":5.365866,"is_reserved":false,"is_disabled":false,"rental_uris":{"android":"levelo://app?vid=3ca8ea5b-ef05-47c8-8197-3dfb9c1f36d8","ios":"levelo://app?vid=3ca8ea5b-ef05-47c8-8197-3dfb9c1f36d8"},"vehicle_type_id":"4","last_reported":1709845610,"current_range_meters":13600,"station_id":"ce4bgn12rcd13ifvqbt0","pricing_plan_id":"cebpf4jnsgd1na2vs0mg"},{"bike_id":"de645224-86a9-428d-8317-55be92bd33db","system_id":"levelo_inurba_marseille","lat":43.29573,"lon":5.367355,"is_reserved":false,"is_disabled":false,"rental_uris":{"android":"levelo://app?vid=de645224-86a9-428d-8317-55be92bd33db","ios":"levelo://app?vid=de645224-86a9-428d-8317-55be92bd33db"},"vehicle_type_id":"4","last_reported":1709845610,"current_range_meters":5200,"station_id":"ce4bgph2rcd13ifvqc2g","pricing_plan_id":"cebpf4jnsgd1na2vs0mg"},{"bike_id":"743f1d11-608a-4ab3-9c54-8e29807cfc86","system_id":"levelo_inurba_marseille","lat":43.296131,"lon":5.370791,"is_reserved":false,"is_disabled":false,"rental_uris":{"android":"levelo://app?vid=743f1d11-608a-4ab3-9c54-8e29807cfc86","ios":"levelo://app?vid=743f1d11-608a-4ab3-9c54-8e29807cfc86"},"vehicle_type_id":"4","last_reported":1709845610,"current_range_meters":19200,"station_id":"ce4bgnh2rcd13ifvqc0g","pricing_plan_id":"cebpf4jnsgd1na2vs0mg"},{"bike_id":"e4f8a414-bc43-445f-b321-75166f7b2e6a","system_id":"levelo_inurba_marseille","lat":43.29584,"lon":5.367966,"is_reserved":false,"is_disabled":false,"rental_uris":{"android":"levelo://app?vid=e4f8a414-bc43-445f-b321-75166f7b2e6a","ios":"levelo://app?vid=e4f8a414-bc43-445f-b321-75166f7b2e6a"},"vehicle_type_id":"4","last_reported":1709845610,"current_range_meters":7600,"station_id":"","pricing_plan_id":"cebpf4jnsgd1na2vs0mg"},{"bike_id":"ed6b7fd4-62e6-4b40-a562-65b8d9765aa3","system_id":"levelo_inurba_marseille","lat":43.29573,"lon":5.367355,"is_reserved":false,"is_disabled":false,"rental_uris":{"android":"levelo://app?vid=ed6b7fd4-62e6-4b40-a562-65b8d9765aa3","ios":"levelo://app?vid=ed6b7fd4-62e6-4b40-a562-65b8d9765aa3"},"vehicle_type_id":"4","last_reported":1709845610,"current_range_meters":17200,"station_id":"ce4bgph2rcd13ifvqc2g","pricing_plan_id":"cebpf4jnsgd1na2vs0mg"},{"bike_id":"38e4264c-c093-456d-8145-0cec2942ab21","system_id":"levelo_inurba_marseille","lat":43.29573,"lon":5.367355,"is_reserved":false,"is_disabled":false,"rental_uris":{"android":"levelo://app?vid=38e4264c-c093-456d-8145-0cec2942ab21","ios":"levelo://app?vid=38e4264c-c093-456d-8145-0cec2942ab21"},"vehicle_type_id":"4","last_reported":1709845610,"current_range_meters":10800,"station_id":"ce4bgph2rcd13ifvqc2g","pricing_plan_id":"cebpf4jnsgd1na2vs0mg"},{"bike_id":"52d73a7e-f3b7-4ae1-a539-37306529ec35","system_id":"levelo_inurba_marseille","lat":43.30952,"lon":5.39021,"is_reserved":false,"is_disabled":false,"rental_uris":{"android":"levelo://app?vid=52d73a7e-f3b7-4ae1-a539-37306529ec35","ios":"levelo://app?vid=52d73a7e-f3b7-4ae1-a539-37306529ec35"},"vehicle_type_id":"4","last_reported":1709845610,"current_range_meters":0,"station_id":"ce4bgup2rcd13ifvqco0","pricing_plan_id":"cebpf4jnsgd1na2vs0mg"},{"bike_id":"307cad38-5e3c-42fe-bab8-45d13405e060","system_id":"levelo_inurba_marseille","lat":43.30959,"lon":5.39028,"is_reserved":false,"is_disabled":false,"rental_uris":{"android":"levelo://app?vid=307cad38-5e3c-42fe-bab8-45d13405e060","ios":"levelo://app?vid=307cad38-5e3c-42fe-bab8-45d13405e060"},"vehicle_type_id":"4","last_reported":1709845610,"current_range_meters":0,"station_id":"ce4bgup2rcd13ifvqco0","pricing_plan_id":"cebpf4jnsgd1na2vs0mg"},{"bike_id":"ef4c475c-1c1b-45c6-9251-d24dc706a3a3","system_id":"levelo_inurba_marseille","lat":43.309589,"lon":5.390258,"is_reserved":false,"is_disabled":false,"rental_uris":{"android":"levelo://app?vid=ef4c475c-1c1b-45c6-9251-d24dc706a3a3","ios":"levelo://app?vid=ef4c475c-1c1b-45c6-9251-d24dc706a3a3"},"vehicle_type_id":"4","last_reported":1709845610,"current_range_meters":27200,"station_id":"ce4bgup2rcd13ifvqco0","pricing_plan_id":"cebpf4jnsgd1na2vs0mg"},{"bike_id":"fc34cf20-3978-4df7-8599-7789a114f694","system_id":"levelo_inurba_marseille","lat":43.309589,"lon":5.390258,"is_reserved":false,"is_disabled":false,"rental_uris":{"android":"levelo://app?vid=fc34cf20-3978-4df7-8599-7789a114f694","ios":"levelo://app?vid=fc34cf20-3978-4df7-8599-7789a114f694"},"vehicle_type_id":"4","last_reported":1709845610,"current_range_meters":16800,"station_id":"ce4bgup2rcd13ifvqco0","pricing_plan_id":"cebpf4jnsgd1na2vs0mg"},{"bike_id":"b8d52246-aee3-4d2a-b19b-986460cda428","system_id":"levelo_inurba_marseille","lat":43.309589,"lon":5.390258,"is_reserved":false,"is_disabled":false,"rental_uris":{"android":"levelo://app?vid=b8d52246-aee3-4d2a-b19b-986460cda428","ios":"levelo://app?vid=b8d52246-aee3-4d2a-b19b-986460cda428"},"vehicle_type_id":"4","last_reported":1709845610,"current_range_meters":14000,"station_id":"ce4bgup2rcd13ifvqco0","pricing_plan_id":"cebpf4jnsgd1na2vs0mg"},{"bike_id":"747449bc-eb8d-43d2-b1a8-e3998768102f","system_id":"levelo_inurba_marseille","lat":43.317557,"lon":5.390173,"is_reserved":false,"is_disabled":false,"rental_uris":{"android":"levelo://app?vid=747449bc-eb8d-43d2-b1a8-e3998768102f","ios":"levelo://app?vid=747449bc-eb8d-43d2-b1a8-e3998768102f"},"vehicle_type_id":"4","last_reported":1709845610,"current_range_meters":22000,"station_id":"ce4bhqp2rcd13ifvqhng","pricing_plan_id":"cebpf4jnsgd1na2vs0mg"},{"bike_id":"481d78f6-e968-4346-8805-3a65a2e9a50c","system_id":"levelo_inurba_marseille","lat":43.317557,"lon":5.390173,"is_reserved":false,"is_disabled":false,"rental_uris":{"android":"levelo://app?vid=481d78f6-e968-4346-8805-3a65a2e9a50c","ios":"levelo://app?vid=481d78f6-e968-4346-8805-3a65a2e9a50c"},"vehicle_type_id":"4","last_reported":1709845610,"current_range_meters":22000,"station_id":"ce4bhqp2rcd13ifvqhng","pricing_plan_id":"cebpf4jnsgd1na2vs0mg"},{"bike_id":"16f7fe0a-a554-4ec3-839f-7ecca952472f","system_id":"levelo_inurba_marseille","lat":43.3176,"lon":5.39012,"is_reserved":false,"is_disabled":false,"rental_uris":{"android":"levelo://app?vid=16f7fe0a-a554-4ec3-839f-7ecca952472f","ios":"levelo://app?vid=16f7fe0a-a554-4ec3-839f-7ecca952472f"},"vehicle_type_id":"4","last_reported":1709845610,"current_range_meters":2800,"station_id":"ce4bhqp2rcd13ifvqhng","pricing_plan_id":"cebpf4jnsgd1na2vs0mg"},{"bike_id":"8032fd1c-480c-496d-b498-7dbea2cd1255","system_id":"levelo_inurba_marseille","lat":43.31754,"lon":5.39015,"is_reserved":false,"is_disabled":false,"rental_uris":{"android":"levelo://app?vid=8032fd1c-480c-496d-b498-7dbea2cd1255","ios":"levelo://app?vid=8032fd1c-480c-496d-b498-7dbea2cd1255"},"vehicle_type_id":"4","last_reported":1709845610,"current_range_meters":26400,"station_id":"ce4bhqp2rcd13ifvqhng","pricing_plan_id":"cebpf4jnsgd1na2vs0mg"},{"bike_id":"2b98a538-2d0f-499a-91b7-36cff4782839","system_id":"levelo_inurba_marseille","lat":43.317557,"lon":5.390173,"is_reserved":false,"is_disabled":false,"rental_uris":{"android":"levelo://app?vid=2b98a538-2d0f-499a-91b7-36cff4782839","ios":"levelo://app?vid=2b98a538-2d0f-499a-91b7-36cff4782839"},"vehicle_type_id":"4","last_reported":1709845610,"current_range_meters":26800,"station_id":"ce4bhqp2rcd13ifvqhng","pricing_plan_id":"cebpf4jnsgd1na2vs0mg"},{"bike_id":"8fced112-2c10-4b7a-a55f-15d0a87cf457","system_id":"levelo_inurba_marseille","lat":43.317557,"lon":5.390173,"is_reserved":false,"is_disabled":false,"rental_uris":{"android":"levelo://app?vid=8fced112-2c10-4b7a-a55f-15d0a87cf457","ios":"levelo://app?vid=8fced112-2c10-4b7a-a55f-15d0a87cf457"},"vehicle_type_id":"4","last_reported":1709845610,"current_range_meters":4000,"station_id":"ce4bhqp2rcd13ifvqhng","pricing_plan_id":"cebpf4jnsgd1na2vs0mg"},{"bike_id":"fbf4bc01-1489-42df-9b36-78c5a7600041","system_id":"levelo_inurba_marseille","lat":43.317557,"lon":5.390173,"is_reserved":false,"is_disabled":false,"rental_uris":{"android":"levelo://app?vid=fbf4bc01-1489-42df-9b36-78c5a7600041","ios":"levelo://app?vid=fbf4bc01-1489-42df-9b36-78c5a7600041"},"vehicle_type_id":"4","last_reported":1709845610,"current_range_meters":2800,"station_id":"ce4bhqp2rcd13ifvqhng","pricing_plan_id":"cebpf4jnsgd1na2vs0mg"},{"bike_id":"a50d8518-274b-4c10-b0b7-650050baa7d7","system_id":"levelo_inurba_marseille","lat":43.31755,"lon":5.39028,"is_reserved":false,"is_disabled":false,"rental_uris":{"android":"levelo://app?vid=a50d8518-274b-4c10-b0b7-650050baa7d7","ios":"levelo://app?vid=a50d8518-274b-4c10-b0b7-650050baa7d7"},"vehicle_type_id":"4","last_reported":1709845610,"current_range_meters":29200,"station_id":"ce4bhqp2rcd13ifvqhng","pricing_plan_id":"cebpf4jnsgd1na2vs0mg"},{"bike_id":"673eafcb-a6e4-4267-afd3-f2e6d88957a0","system_id":"levelo_inurba_marseille","lat":43.29812,"lon":5.38098,"is_reserved":false,"is_disabled":false,"rental_uris":{"android":"levelo://app?vid=673eafcb-a6e4-4267-afd3-f2e6d88957a0","ios":"levelo://app?vid=673eafcb-a6e4-4267-afd3-f2e6d88957a0"},"vehicle_type_id":"4","last_reported":1709845610,"current_range_meters":30400,"station_id":"","pricing_plan_id":"cebpf4jnsgd1na2vs0mg"},{"bike_id":"6715122d-4af7-4b64-b9a1-08c2abce3f00","system_id":"levelo_inurba_marseille","lat":43.298037,"lon":5.381066,"is_reserved":false,"is_disabled":false,"rental_uris":{"android":"levelo://app?vid=6715122d-4af7-4b64-b9a1-08c2abce3f00","ios":"levelo://app?vid=6715122d-4af7-4b64-b9a1-08c2abce3f00"},"vehicle_type_id":"4","last_reported":1709845610,"current_range_meters":28800,"station_id":"ce4bgip2rcd13ifvqbb0","pricing_plan_id":"cebpf4jnsgd1na2vs0mg"},{"bike_id":"64c5374d-a9b3-4fd8-bf8a-63dba29a9e26","system_id":"levelo_inurba_marseille","lat":43.298037,"lon":5.381066,"is_reserved":false,"is_disabled":false,"rental_uris":{"android":"levelo://app?vid=64c5374d-a9b3-4fd8-bf8a-63dba29a9e26","ios":"levelo://app?vid=64c5374d-a9b3-4fd8-bf8a-63dba29a9e26"},"vehicle_type_id":"4","last_reported":1709845610,"current_range_meters":25200,"station_id":"ce4bgip2rcd13ifvqbb0","pricing_plan_id":"cebpf4jnsgd1na2vs0mg"},{"bike_id":"26f03a58-7aa4-43d2-bcb0-234639d1feea","system_id":"levelo_inurba_marseille","lat":43.298037,"lon":5.381066,"is_reserved":false,"is_disabled":false,"rental_uris":{"android":"levelo://app?vid=26f03a58-7aa4-43d2-bcb0-234639d1feea","ios":"levelo://app?vid=26f03a58-7aa4-43d2-bcb0-234639d1feea"},"vehicle_type_id":"4","last_reported":1709845610,"current_range_meters":25200,"station_id":"ce4bgip2rcd13ifvqbb0","pricing_plan_id":"cebpf4jnsgd1na2vs0mg"},{"bike_id":"e2d21e52-56c7-456f-b083-3d1b87a2e0e5","system_id":"levelo_inurba_marseille","lat":43.298037,"lon":5.381066,"is_reserved":false,"is_disabled":false,"rental_uris":{"android":"levelo://app?vid=e2d21e52-56c7-456f-b083-3d1b87a2e0e5","ios":"levelo://app?vid=e2d21e52-56c7-456f-b083-3d1b87a2e0e5"},"vehicle_type_id":"4","last_reported":1709845610,"current_range_meters":18000,"station_id":"ce4bgip2rcd13ifvqbb0","pricing_plan_id":"cebpf4jnsgd1na2vs0mg"},{"bike_id":"54e7a8fc-2d79-426a-b930-5c0dfc969802","system_id":"levelo_inurba_marseille","lat":43.298037,"lon":5.381066,"is_reserved":false,"is_disabled":false,"rental_uris":{"android":"levelo://app?vid=54e7a8fc-2d79-426a-b930-5c0dfc969802","ios":"levelo://app?vid=54e7a8fc-2d79-426a-b930-5c0dfc969802"},"vehicle_type_id":"4","last_reported":1709845610,"current_range_meters":0,"station_id":"ce4bgip2rcd13ifvqbb0","pricing_plan_id":"cebpf4jnsgd1na2vs0mg"},{"bike_id":"83a2d2b0-e8aa-4cb7-8e4c-9ba53f4f5069","system_id":"levelo_inurba_marseille","lat":43.298037,"lon":5.381066,"is_reserved":false,"is_disabled":false,"rental_uris":{"android":"levelo://app?vid=83a2d2b0-e8aa-4cb7-8e4c-9ba53f4f5069","ios":"levelo://app?vid=83a2d2b0-e8aa-4cb7-8e4c-9ba53f4f5069"},"vehicle_type_id":"4","last_reported":1709845610,"current_range_meters":20800,"station_id":"ce4bgip2rcd13ifvqbb0","pricing_plan_id":"cebpf4jnsgd1na2vs0mg"},{"bike_id":"433d79e7-2743-498a-a74d-7ae4461a8caf","system_id":"levelo_inurba_marseille","lat":43.29796,"lon":5.380907,"is_reserved":false,"is_disabled":false,"rental_uris":{"android":"levelo://app?vid=433d79e7-2743-498a-a74d-7ae4461a8caf","ios":"levelo://app?vid=433d79e7-2743-498a-a74d-7ae4461a8caf"},"vehicle_type_id":"4","last_reported":1709845610,"current_range_meters":22800,"station_id":"ce4bgip2rcd13ifvqbb0","pricing_plan_id":"cebpf4jnsgd1na2vs0mg"},{"bike_id":"f2a1ae5b-c9ea-40f1-829f-bbc952fa1b5a","system_id":"levelo_inurba_marseille","lat":43.297879,"lon":5.380756,"is_reserved":false,"is_disabled":false,"rental_uris":{"android":"levelo://app?vid=f2a1ae5b-c9ea-40f1-829f-bbc952fa1b5a","ios":"levelo://app?vid=f2a1ae5b-c9ea-40f1-829f-bbc952fa1b5a"},"vehicle_type_id":"4","last_reported":1709845610,"current_range_meters":27600,"station_id":"ce4bgip2rcd13ifvqbb0","pricing_plan_id":"cebpf4jnsgd1na2vs0mg"},{"bike_id":"2acb2396-b01e-4322-841c-4e4be5ebcbd7","system_id":"levelo_inurba_marseille","lat":43.29794,"lon":5.38089,"is_reserved":false,"is_disabled":false,"rental_uris":{"android":"levelo://app?vid=2acb2396-b01e-4322-841c-4e4be5ebcbd7","ios":"levelo://app?vid=2acb2396-b01e-4322-841c-4e4be5ebcbd7"},"vehicle_type_id":"4","last_reported":1709845610,"current_range_meters":29600,"station_id":"ce4bgip2rcd13ifvqbb0","pricing_plan_id":"cebpf4jnsgd1na2vs0mg"},{"bike_id":"0a332c5a-c6ea-485b-b4bd-355a508efc14","system_id":"levelo_inurba_marseille","lat":43.29578,"lon":5.37505,"is_reserved":false,"is_disabled":false,"rental_uris":{"android":"levelo://app?vid=0a332c5a-c6ea-485b-b4bd-355a508efc14","ios":"levelo://app?vid=0a332c5a-c6ea-485b-b4bd-355a508efc14"},"vehicle_type_id":"4","last_reported":1709845610,"current_range_meters":0,"station_id":"ce4bgh92rcd13ifvqb50","pricing_plan_id":"cebpf4jnsgd1na2vs0mg"},{"bike_id":"0ab6b2ad-545b-443d-aafb-f68632b1f6d8","system_id":"levelo_inurba_marseille","lat":43.29798,"lon":5.38103,"is_reserved":false,"is_disabled":false,"rental_uris":{"android":"levelo://app?vid=0ab6b2ad-545b-443d-aafb-f68632b1f6d8","ios":"levelo://app?vid=0ab6b2ad-545b-443d-aafb-f68632b1f6d8"},"vehicle_type_id":"4","last_reported":1709845610,"current_range_meters":21600,"station_id":"ce4bgip2rcd13ifvqbb0","pricing_plan_id":"cebpf4jnsgd1na2vs0mg"},{"bike_id":"d6221948-1808-44b7-9a61-4cc262175a94","system_id":"levelo_inurba_marseille","lat":43.297956,"lon":5.381014,"is_reserved":false,"is_disabled":false,"rental_uris":{"android":"levelo://app?vid=d6221948-1808-44b7-9a61-4cc262175a94","ios":"levelo://app?vid=d6221948-1808-44b7-9a61-4cc262175a94"},"vehicle_type_id":"4","last_reported":1709845610,"current_range_meters":25200,"station_id":"ce4bgip2rcd13ifvqbb0","pricing_plan_id":"cebpf4jnsgd1na2vs0mg"},{"bike_id":"8da42bd3-1adf-4fc5-aca5-4f4174cd6db1","system_id":"levelo_inurba_marseille","lat":43.297928,"lon":5.380958,"is_reserved":false,"is_disabled":false,"rental_uris":{"android":"levelo://app?vid=8da42bd3-1adf-4fc5-aca5-4f4174cd6db1","ios":"levelo://app?vid=8da42bd3-1adf-4fc5-aca5-4f4174cd6db1"},"vehicle_type_id":"4","last_reported":1709845610,"current_range_meters":2400,"station_id":"ce4bgip2rcd13ifvqbb0","pricing_plan_id":"cebpf4jnsgd1na2vs0mg"},{"bike_id":"9664b195-350f-432c-a02d-96f65bc837a6","system_id":"levelo_inurba_marseille","lat":43.30442,"lon":5.38885,"is_reserved":false,"is_disabled":false,"rental_uris":{"android":"levelo://app?vid=9664b195-350f-432c-a02d-96f65bc837a6","ios":"levelo://app?vid=9664b195-350f-432c-a02d-96f65bc837a6"},"vehicle_type_id":"4","last_reported":1709845610,"current_range_meters":26400,"station_id":"ce4bgk12rcd13ifvqbi0","pricing_plan_id":"cebpf4jnsgd1na2vs0mg"},{"bike_id":"707abdb3-2c17-4205-9685-79302b1cfaf7","system_id":"levelo_inurba_marseille","lat":43.304367,"lon":5.388873,"is_reserved":false,"is_disabled":false,"rental_uris":{"android":"levelo://app?vid=707abdb3-2c17-4205-9685-79302b1cfaf7","ios":"levelo://app?vid=707abdb3-2c17-4205-9685-79302b1cfaf7"},"vehicle_type_id":"4","last_reported":1709845610,"current_range_meters":4000,"station_id":"ce4bgk12rcd13ifvqbi0","pricing_plan_id":"cebpf4jnsgd1na2vs0mg"},{"bike_id":"49b98ffb-e5d9-4574-81df-66416a135b4f","system_id":"levelo_inurba_marseille","lat":43.304398,"lon":5.388898,"is_reserved":false,"is_disabled":false,"rental_uris":{"android":"levelo://app?vid=49b98ffb-e5d9-4574-81df-66416a135b4f","ios":"levelo://app?vid=49b98ffb-e5d9-4574-81df-66416a135b4f"},"vehicle_type_id":"4","last_reported":1709845610,"current_range_meters":14800,"station_id":"ce4bgk12rcd13ifvqbi0","pricing_plan_id":"cebpf4jnsgd1na2vs0mg"},{"bike_id":"50758912-8d02-4100-8370-55cb044e1f60","system_id":"levelo_inurba_marseille","lat":43.3043,"lon":5.38885,"is_reserved":false,"is_disabled":false,"rental_uris":{"android":"levelo://app?vid=50758912-8d02-4100-8370-55cb044e1f60","ios":"levelo://app?vid=50758912-8d02-4100-8370-55cb044e1f60"},"vehicle_type_id":"4","last_reported":1709845610,"current_range_meters":9200,"station_id":"ce4bgk12rcd13ifvqbi0","pricing_plan_id":"cebpf4jnsgd1na2vs0mg"},{"bike_id":"154b151d-3dd9-4f72-a1cc-8854c5f9643e","system_id":"levelo_inurba_marseille","lat":43.296263,"lon":5.377094,"is_reserved":false,"is_disabled":false,"rental_uris":{"android":"levelo://app?vid=154b151d-3dd9-4f72-a1cc-8854c5f9643e","ios":"levelo://app?vid=154b151d-3dd9-4f72-a1cc-8854c5f9643e"},"vehicle_type_id":"4","last_reported":1709845610,"current_range_meters":30800,"station_id":"ce4bgi92rcd13ifvqb90","pricing_plan_id":"cebpf4jnsgd1na2vs0mg"},{"bike_id":"0e573b54-2078-427a-a6e0-55312eb884e0","system_id":"levelo_inurba_marseille","lat":43.29978,"lon":5.38495,"is_reserved":false,"is_disabled":false,"rental_uris":{"android":"levelo://app?vid=0e573b54-2078-427a-a6e0-55312eb884e0","ios":"levelo://app?vid=0e573b54-2078-427a-a6e0-55312eb884e0"},"vehicle_type_id":"4","last_reported":1709845610,"current_range_meters":7200,"station_id":"ce4bgj92rcd13ifvqbd0","pricing_plan_id":"cebpf4jnsgd1na2vs0mg"},{"bike_id":"65c9fd39-23bf-408d-8d58-10b286191339","system_id":"levelo_inurba_marseille","lat":43.295279,"lon":5.375048,"is_reserved":false,"is_disabled":false,"rental_uris":{"android":"levelo://app?vid=65c9fd39-23bf-408d-8d58-10b286191339","ios":"levelo://app?vid=65c9fd39-23bf-408d-8d58-10b286191339"},"vehicle_type_id":"4","last_reported":1709845610,"current_range_meters":7200,"station_id":"ce4bgkp2rcd13ifvqbmg","pricing_plan_id":"cebpf4jnsgd1na2vs0mg"},{"bike_id":"a2182c02-0e7c-4384-a4b5-b0fdb33a5a4f","system_id":"levelo_inurba_marseille","lat":43.295279,"lon":5.375048,"is_reserved":false,"is_disabled":false,"rental_uris":{"android":"levelo://app?vid=a2182c02-0e7c-4384-a4b5-b0fdb33a5a4f","ios":"levelo://app?vid=a2182c02-0e7c-4384-a4b5-b0fdb33a5a4f"},"vehicle_type_id":"4","last_reported":1709845610,"current_range_meters":19200,"station_id":"ce4bgkp2rcd13ifvqbmg","pricing_plan_id":"cebpf4jnsgd1na2vs0mg"},{"bike_id":"7b01b8b5-f77b-4d29-a855-852884626b59","system_id":"levelo_inurba_marseille","lat":43.29975,"lon":5.38499,"is_reserved":false,"is_disabled":false,"rental_uris":{"android":"levelo://app?vid=7b01b8b5-f77b-4d29-a855-852884626b59","ios":"levelo://app?vid=7b01b8b5-f77b-4d29-a855-852884626b59"},"vehicle_type_id":"4","last_reported":1709845610,"current_range_meters":0,"station_id":"ce4bgj92rcd13ifvqbd0","pricing_plan_id":"cebpf4jnsgd1na2vs0mg"},{"bike_id":"ab8f4b8e-3eed-4e11-b6c1-0b22e073b63c","system_id":"levelo_inurba_marseille","lat":43.299717,"lon":5.384845,"is_reserved":false,"is_disabled":false,"rental_uris":{"android":"levelo://app?vid=ab8f4b8e-3eed-4e11-b6c1-0b22e073b63c","ios":"levelo://app?vid=ab8f4b8e-3eed-4e11-b6c1-0b22e073b63c"},"vehicle_type_id":"4","last_reported":1709845610,"current_range_meters":8400,"station_id":"ce4bgj92rcd13ifvqbd0","pricing_plan_id":"cebpf4jnsgd1na2vs0mg"},{"bike_id":"4e6ecaaa-5b79-42bc-b508-7fbd8bc435bd","system_id":"levelo_inurba_marseille","lat":43.299887,"lon":5.385277,"is_reserved":false,"is_disabled":false,"rental_uris":{"android":"levelo://app?vid=4e6ecaaa-5b79-42bc-b508-7fbd8bc435bd","ios":"levelo://app?vid=4e6ecaaa-5b79-42bc-b508-7fbd8bc435bd"},"vehicle_type_id":"4","last_reported":1709845610,"current_range_meters":4400,"station_id":"ce4bgj92rcd13ifvqbd0","pricing_plan_id":"cebpf4jnsgd1na2vs0mg"},{"bike_id":"5f2f7ac3-3e64-499f-abd9-697fe271d6d8","system_id":"levelo_inurba_marseille","lat":43.32365,"lon":5.38881,"is_reserved":false,"is_disabled":false,"rental_uris":{"android":"levelo://app?vid=5f2f7ac3-3e64-499f-abd9-697fe271d6d8","ios":"levelo://app?vid=5f2f7ac3-3e64-499f-abd9-697fe271d6d8"},"vehicle_type_id":"4","last_reported":1709845610,"current_range_meters":4800,"station_id":"ce4bhqp2rcd13ifvqhog","pricing_plan_id":"cebpf4jnsgd1na2vs0mg"},{"bike_id":"97a4d82a-f758-40b0-a6a5-85d948c1a27e","system_id":"levelo_inurba_marseille","lat":43.32364,"lon":5.38885,"is_reserved":false,"is_disabled":false,"rental_uris":{"android":"levelo://app?vid=97a4d82a-f758-40b0-a6a5-85d948c1a27e","ios":"levelo://app?vid=97a4d82a-f758-40b0-a6a5-85d948c1a27e"},"vehicle_type_id":"4","last_reported":1709845610,"current_range_meters":2000,"station_id":"ce4bhqp2rcd13ifvqhog","pricing_plan_id":"cebpf4jnsgd1na2vs0mg"},{"bike_id":"87229f76-c6ad-44b7-a3e4-14204eaf182c","system_id":"levelo_inurba_marseille","lat":43.32364,"lon":5.38885,"is_reserved":false,"is_disabled":false,"rental_uris":{"android":"levelo://app?vid=87229f76-c6ad-44b7-a3e4-14204eaf182c","ios":"levelo://app?vid=87229f76-c6ad-44b7-a3e4-14204eaf182c"},"vehicle_type_id":"4","last_reported":1709845610,"current_range_meters":2800,"station_id":"ce4bhqp2rcd13ifvqhog","pricing_plan_id":"cebpf4jnsgd1na2vs0mg"},{"bike_id":"32cf131d-1564-4297-adb3-6e0cfb2b8f2b","system_id":"levelo_inurba_marseille","lat":43.32367,"lon":5.388836,"is_reserved":false,"is_disabled":false,"rental_uris":{"android":"levelo://app?vid=32cf131d-1564-4297-adb3-6e0cfb2b8f2b","ios":"levelo://app?vid=32cf131d-1564-4297-adb3-6e0cfb2b8f2b"},"vehicle_type_id":"4","last_reported":1709845610,"current_range_meters":7200,"station_id":"ce4bhqp2rcd13ifvqhog","pricing_plan_id":"cebpf4jnsgd1na2vs0mg"},{"bike_id":"5f1221d4-84bd-4819-87f7-89986a7b862f","system_id":"levelo_inurba_marseille","lat":43.32367,"lon":5.388836,"is_reserved":false,"is_disabled":false,"rental_uris":{"android":"levelo://app?vid=5f1221d4-84bd-4819-87f7-89986a7b862f","ios":"levelo://app?vid=5f1221d4-84bd-4819-87f7-89986a7b862f"},"vehicle_type_id":"4","last_reported":1709845610,"current_range_meters":8000,"station_id":"ce4bhqp2rcd13ifvqhog","pricing_plan_id":"cebpf4jnsgd1na2vs0mg"},{"bike_id":"fef7fb17-8feb-442d-ada1-e933f379d802","system_id":"levelo_inurba_marseille","lat":43.323689,"lon":5.388931,"is_reserved":false,"is_disabled":false,"rental_uris":{"android":"levelo://app?vid=fef7fb17-8feb-442d-ada1-e933f379d802","ios":"levelo://app?vid=fef7fb17-8feb-442d-ada1-e933f379d802"},"vehicle_type_id":"4","last_reported":1709845610,"current_range_meters":13600,"station_id":"ce4bhqp2rcd13ifvqhog","pricing_plan_id":"cebpf4jnsgd1na2vs0mg"},{"bike_id":"d62eb374-41c4-44e2-a45a-67af6aba0579","system_id":"levelo_inurba_marseille","lat":43.32367,"lon":5.388836,"is_reserved":false,"is_disabled":false,"rental_uris":{"android":"levelo://app?vid=d62eb374-41c4-44e2-a45a-67af6aba0579","ios":"levelo://app?vid=d62eb374-41c4-44e2-a45a-67af6aba0579"},"vehicle_type_id":"4","last_reported":1709845610,"current_range_meters":10400,"station_id":"ce4bhqp2rcd13ifvqhog","pricing_plan_id":"cebpf4jnsgd1na2vs0mg"},{"bike_id":"1347a499-a1c1-467d-a5c4-44f4465bfd33","system_id":"levelo_inurba_marseille","lat":43.29602,"lon":5.381084,"is_reserved":false,"is_disabled":false,"rental_uris":{"android":"levelo://app?vid=1347a499-a1c1-467d-a5c4-44f4465bfd33","ios":"levelo://app?vid=1347a499-a1c1-467d-a5c4-44f4465bfd33"},"vehicle_type_id":"4","last_reported":1709845610,"current_range_meters":28000,"station_id":"ce4bgl12rcd13ifvqbo0","pricing_plan_id":"cebpf4jnsgd1na2vs0mg"},{"bike_id":"d0b7a5ac-8adc-4bf7-8ec6-c6ea5b96b959","system_id":"levelo_inurba_marseille","lat":43.29597,"lon":5.381038,"is_reserved":false,"is_disabled":false,"rental_uris":{"android":"levelo://app?vid=d0b7a5ac-8adc-4bf7-8ec6-c6ea5b96b959","ios":"levelo://app?vid=d0b7a5ac-8adc-4bf7-8ec6-c6ea5b96b959"},"vehicle_type_id":"4","last_reported":1709845610,"current_range_meters":2800,"station_id":"ce4bgl12rcd13ifvqbo0","pricing_plan_id":"cebpf4jnsgd1na2vs0mg"},{"bike_id":"221db56d-e034-4286-bc4e-18f40358f4ba","system_id":"levelo_inurba_marseille","lat":43.29602,"lon":5.381084,"is_reserved":false,"is_disabled":false,"rental_uris":{"android":"levelo://app?vid=221db56d-e034-4286-bc4e-18f40358f4ba","ios":"levelo://app?vid=221db56d-e034-4286-bc4e-18f40358f4ba"},"vehicle_type_id":"4","last_reported":1709845610,"current_range_meters":25200,"station_id":"ce4bgl12rcd13ifvqbo0","pricing_plan_id":"cebpf4jnsgd1na2vs0mg"},{"bike_id":"ea6ec237-5293-4454-93aa-53e57b76b5f7","system_id":"levelo_inurba_marseille","lat":43.292877,"lon":5.368483,"is_reserved":false,"is_disabled":false,"rental_uris":{"android":"levelo://app?vid=ea6ec237-5293-4454-93aa-53e57b76b5f7","ios":"levelo://app?vid=ea6ec237-5293-4454-93aa-53e57b76b5f7"},"vehicle_type_id":"4","last_reported":1709845610,"current_range_meters":7200,"station_id":"ce4bhbp2rcd13ifvqesg","pricing_plan_id":"cebpf4jnsgd1na2vs0mg"},{"bike_id":"b7b06afc-8785-4832-b8a0-945f3257bad9","system_id":"levelo_inurba_marseille","lat":43.29315,"lon":5.37174,"is_reserved":false,"is_disabled":false,"rental_uris":{"android":"levelo://app?vid=b7b06afc-8785-4832-b8a0-945f3257bad9","ios":"levelo://app?vid=b7b06afc-8785-4832-b8a0-945f3257bad9"},"vehicle_type_id":"4","last_reported":1709845610,"current_range_meters":4400,"station_id":"ce4bgh92rcd13ifvqb40","pricing_plan_id":"cebpf4jnsgd1na2vs0mg"},{"bike_id":"2600d51c-fe1b-400c-8fd7-2efc444e6b51","system_id":"levelo_inurba_marseille","lat":43.29315,"lon":5.37188,"is_reserved":false,"is_disabled":false,"rental_uris":{"android":"levelo://app?vid=2600d51c-fe1b-400c-8fd7-2efc444e6b51","ios":"levelo://app?vid=2600d51c-fe1b-400c-8fd7-2efc444e6b51"},"vehicle_type_id":"4","last_reported":1709845610,"current_range_meters":15200,"station_id":"ce4bgh92rcd13ifvqb40","pricing_plan_id":"cebpf4jnsgd1na2vs0mg"},{"bike_id":"39354bae-6707-4c2c-a271-de7f747bc966","system_id":"levelo_inurba_marseille","lat":43.292749,"lon":5.368402,"is_reserved":false,"is_disabled":false,"rental_uris":{"android":"levelo://app?vid=39354bae-6707-4c2c-a271-de7f747bc966","ios":"levelo://app?vid=39354bae-6707-4c2c-a271-de7f747bc966"},"vehicle_type_id":"4","last_reported":1709845610,"current_range_meters":28400,"station_id":"ce4bhbp2rcd13ifvqesg","pricing_plan_id":"cebpf4jnsgd1na2vs0mg"},{"bike_id":"d236dbf2-2776-427d-8baf-f0dedbb6ffe4","system_id":"levelo_inurba_marseille","lat":43.2931,"lon":5.3717,"is_reserved":false,"is_disabled":false,"rental_uris":{"android":"levelo://app?vid=d236dbf2-2776-427d-8baf-f0dedbb6ffe4","ios":"levelo://app?vid=d236dbf2-2776-427d-8baf-f0dedbb6ffe4"},"vehicle_type_id":"4","last_reported":1709845610,"current_range_meters":5600,"station_id":"ce4bgh92rcd13ifvqb40","pricing_plan_id":"cebpf4jnsgd1na2vs0mg"},{"bike_id":"066f492f-7c5a-4148-b156-80fe83af195b","system_id":"levelo_inurba_marseille","lat":43.293089,"lon":5.371615,"is_reserved":false,"is_disabled":false,"rental_uris":{"android":"levelo://app?vid=066f492f-7c5a-4148-b156-80fe83af195b","ios":"levelo://app?vid=066f492f-7c5a-4148-b156-80fe83af195b"},"vehicle_type_id":"4","last_reported":1709845610,"current_range_meters":8000,"station_id":"ce4bgh92rcd13ifvqb40","pricing_plan_id":"cebpf4jnsgd1na2vs0mg"},{"bike_id":"8cd06193-7da2-4764-81e3-8802ef5ad890","system_id":"levelo_inurba_marseille","lat":43.2931,"lon":5.371719,"is_reserved":false,"is_disabled":false,"rental_uris":{"android":"levelo://app?vid=8cd06193-7da2-4764-81e3-8802ef5ad890","ios":"levelo://app?vid=8cd06193-7da2-4764-81e3-8802ef5ad890"},"vehicle_type_id":"4","last_reported":1709845610,"current_range_meters":26800,"station_id":"ce4bgh92rcd13ifvqb40","pricing_plan_id":"cebpf4jnsgd1na2vs0mg"},{"bike_id":"1853145b-3e25-44b1-89f2-12721d9c5e40","system_id":"levelo_inurba_marseille","lat":43.292749,"lon":5.368402,"is_reserved":false,"is_disabled":false,"rental_uris":{"android":"levelo://app?vid=1853145b-3e25-44b1-89f2-12721d9c5e40","ios":"levelo://app?vid=1853145b-3e25-44b1-89f2-12721d9c5e40"},"vehicle_type_id":"4","last_reported":1709845610,"current_range_meters":31200,"station_id":"ce4bhbp2rcd13ifvqesg","pricing_plan_id":"cebpf4jnsgd1na2vs0mg"},{"bike_id":"6f982377-8769-45da-a292-a484e76b39c9","system_id":"levelo_inurba_marseille","lat":43.29308,"lon":5.37167,"is_reserved":false,"is_disabled":false,"rental_uris":{"android":"levelo://app?vid=6f982377-8769-45da-a292-a484e76b39c9","ios":"levelo://app?vid=6f982377-8769-45da-a292-a484e76b39c9"},"vehicle_type_id":"4","last_reported":1709845610,"current_range_meters":19600,"station_id":"ce4bgh92rcd13ifvqb40","pricing_plan_id":"cebpf4jnsgd1na2vs0mg"},{"bike_id":"7431ca50-5baa-4c6c-b791-117967ff0cc6","system_id":"levelo_inurba_marseille","lat":43.29308,"lon":5.37171,"is_reserved":false,"is_disabled":false,"rental_uris":{"android":"levelo://app?vid=7431ca50-5baa-4c6c-b791-117967ff0cc6","ios":"levelo://app?vid=7431ca50-5baa-4c6c-b791-117967ff0cc6"},"vehicle_type_id":"4","last_reported":1709845610,"current_range_meters":8400,"station_id":"ce4bgh92rcd13ifvqb40","pricing_plan_id":"cebpf4jnsgd1na2vs0mg"},{"bike_id":"08dc89cd-566e-4406-8ff3-4477ce41c059","system_id":"levelo_inurba_marseille","lat":43.293259,"lon":5.371586,"is_reserved":false,"is_disabled":false,"rental_uris":{"android":"levelo://app?vid=08dc89cd-566e-4406-8ff3-4477ce41c059","ios":"levelo://app?vid=08dc89cd-566e-4406-8ff3-4477ce41c059"},"vehicle_type_id":"4","last_reported":1709845610,"current_range_meters":800,"station_id":"ce4bgh92rcd13ifvqb40","pricing_plan_id":"cebpf4jnsgd1na2vs0mg"},{"bike_id":"bd09d4b8-c75a-40d8-9f02-4e1f335604d2","system_id":"levelo_inurba_marseille","lat":43.29279,"lon":5.36838,"is_reserved":false,"is_disabled":false,"rental_uris":{"android":"levelo://app?vid=bd09d4b8-c75a-40d8-9f02-4e1f335604d2","ios":"levelo://app?vid=bd09d4b8-c75a-40d8-9f02-4e1f335604d2"},"vehicle_type_id":"4","last_reported":1709845610,"current_range_meters":0,"station_id":"ce4bhbp2rcd13ifvqesg","pricing_plan_id":"cebpf4jnsgd1na2vs0mg"},{"bike_id":"f95d4691-44eb-4c0d-82b2-4d899d685b20","system_id":"levelo_inurba_marseille","lat":43.292749,"lon":5.368402,"is_reserved":false,"is_disabled":false,"rental_uris":{"android":"levelo://app?vid=f95d4691-44eb-4c0d-82b2-4d899d685b20","ios":"levelo://app?vid=f95d4691-44eb-4c0d-82b2-4d899d685b20"},"vehicle_type_id":"4","last_reported":1709845610,"current_range_meters":29200,"station_id":"ce4bhbp2rcd13ifvqesg","pricing_plan_id":"cebpf4jnsgd1na2vs0mg"},{"bike_id":"60090123-ea92-49c7-9767-82fcda844ff8","system_id":"levelo_inurba_marseille","lat":43.29305,"lon":5.37178,"is_reserved":false,"is_disabled":false,"rental_uris":{"android":"levelo://app?vid=60090123-ea92-49c7-9767-82fcda844ff8","ios":"levelo://app?vid=60090123-ea92-49c7-9767-82fcda844ff8"},"vehicle_type_id":"4","last_reported":1709845610,"current_range_meters":10800,"station_id":"ce4bgh92rcd13ifvqb40","pricing_plan_id":"cebpf4jnsgd1na2vs0mg"},{"bike_id":"080bc93b-570b-4c91-a917-274df160b638","system_id":"levelo_inurba_marseille","lat":43.29304,"lon":5.37173,"is_reserved":false,"is_disabled":false,"rental_uris":{"android":"levelo://app?vid=080bc93b-570b-4c91-a917-274df160b638","ios":"levelo://app?vid=080bc93b-570b-4c91-a917-274df160b638"},"vehicle_type_id":"4","last_reported":1709845610,"current_range_meters":0,"station_id":"ce4bgh92rcd13ifvqb40","pricing_plan_id":"cebpf4jnsgd1na2vs0mg"},{"bike_id":"fdf712d2-d560-4523-8404-ff2bc8dc7596","system_id":"levelo_inurba_marseille","lat":43.29274,"lon":5.36842,"is_reserved":false,"is_disabled":false,"rental_uris":{"android":"levelo://app?vid=fdf712d2-d560-4523-8404-ff2bc8dc7596","ios":"levelo://app?vid=fdf712d2-d560-4523-8404-ff2bc8dc7596"},"vehicle_type_id":"4","last_reported":1709845610,"current_range_meters":28400,"station_id":"ce4bhbp2rcd13ifvqesg","pricing_plan_id":"cebpf4jnsgd1na2vs0mg"},{"bike_id":"e64f9603-1264-4f55-9862-775026b459c1","system_id":"levelo_inurba_marseille","lat":43.29301,"lon":5.37169,"is_reserved":false,"is_disabled":false,"rental_uris":{"android":"levelo://app?vid=e64f9603-1264-4f55-9862-775026b459c1","ios":"levelo://app?vid=e64f9603-1264-4f55-9862-775026b459c1"},"vehicle_type_id":"4","last_reported":1709845610,"current_range_meters":8800,"station_id":"ce4bgh92rcd13ifvqb40","pricing_plan_id":"cebpf4jnsgd1na2vs0mg"},{"bike_id":"3d2939d0-9ca9-482b-89c2-a934e95975cb","system_id":"levelo_inurba_marseille","lat":43.29302,"lon":5.37177,"is_reserved":false,"is_disabled":false,"rental_uris":{"android":"levelo://app?vid=3d2939d0-9ca9-482b-89c2-a934e95975cb","ios":"levelo://app?vid=3d2939d0-9ca9-482b-89c2-a934e95975cb"},"vehicle_type_id":"4","last_reported":1709845610,"current_range_meters":24800,"station_id":"ce4bgh92rcd13ifvqb40","pricing_plan_id":"cebpf4jnsgd1na2vs0mg"},{"bike_id":"95fa5727-6ce5-451c-8681-8119006d2b53","system_id":"levelo_inurba_marseille","lat":43.292749,"lon":5.368402,"is_reserved":false,"is_disabled":false,"rental_uris":{"android":"levelo://app?vid=95fa5727-6ce5-451c-8681-8119006d2b53","ios":"levelo://app?vid=95fa5727-6ce5-451c-8681-8119006d2b53"},"vehicle_type_id":"4","last_reported":1709845610,"current_range_meters":0,"station_id":"ce4bhbp2rcd13ifvqesg","pricing_plan_id":"cebpf4jnsgd1na2vs0mg"},{"bike_id":"42b18fee-383d-4dc4-bc85-1f1e999dda99","system_id":"levelo_inurba_marseille","lat":43.29271,"lon":5.36837,"is_reserved":false,"is_disabled":false,"rental_uris":{"android":"levelo://app?vid=42b18fee-383d-4dc4-bc85-1f1e999dda99","ios":"levelo://app?vid=42b18fee-383d-4dc4-bc85-1f1e999dda99"},"vehicle_type_id":"4","last_reported":1709845610,"current_range_meters":24400,"station_id":"ce4bhbp2rcd13ifvqesg","pricing_plan_id":"cebpf4jnsgd1na2vs0mg"},{"bike_id":"76e0a9ea-7fc0-4805-a92e-3c5223419a4c","system_id":"levelo_inurba_marseille","lat":43.29264,"lon":5.36846,"is_reserved":false,"is_disabled":false,"rental_uris":{"android":"levelo://app?vid=76e0a9ea-7fc0-4805-a92e-3c5223419a4c","ios":"levelo://app?vid=76e0a9ea-7fc0-4805-a92e-3c5223419a4c"},"vehicle_type_id":"4","last_reported":1709845610,"current_range_meters":30400,"station_id":"ce4bhbp2rcd13ifvqesg","pricing_plan_id":"cebpf4jnsgd1na2vs0mg"},{"bike_id":"70c58ee5-6db0-4421-9c7b-788053e436b7","system_id":"levelo_inurba_marseille","lat":43.293009,"lon":5.374584,"is_reserved":false,"is_disabled":false,"rental_uris":{"android":"levelo://app?vid=70c58ee5-6db0-4421-9c7b-788053e436b7","ios":"levelo://app?vid=70c58ee5-6db0-4421-9c7b-788053e436b7"},"vehicle_type_id":"4","last_reported":1709845610,"current_range_meters":4800,"station_id":"ce4bgi12rcd13ifvqb70","pricing_plan_id":"cebpf4jnsgd1na2vs0mg"},{"bike_id":"3276c60b-880b-4b2a-bfab-4d380a630ed9","system_id":"levelo_inurba_marseille","lat":43.293009,"lon":5.374584,"is_reserved":false,"is_disabled":false,"rental_uris":{"android":"levelo://app?vid=3276c60b-880b-4b2a-bfab-4d380a630ed9","ios":"levelo://app?vid=3276c60b-880b-4b2a-bfab-4d380a630ed9"},"vehicle_type_id":"4","last_reported":1709845610,"current_range_meters":13200,"station_id":"ce4bgi12rcd13ifvqb70","pricing_plan_id":"cebpf4jnsgd1na2vs0mg"},{"bike_id":"0d946d22-ad3d-4f3a-a19d-ba3cf651491c","system_id":"levelo_inurba_marseille","lat":43.29302,"lon":5.3746,"is_reserved":false,"is_disabled":false,"rental_uris":{"android":"levelo://app?vid=0d946d22-ad3d-4f3a-a19d-ba3cf651491c","ios":"levelo://app?vid=0d946d22-ad3d-4f3a-a19d-ba3cf651491c"},"vehicle_type_id":"4","last_reported":1709845610,"current_range_meters":10000,"station_id":"ce4bgi12rcd13ifvqb70","pricing_plan_id":"cebpf4jnsgd1na2vs0mg"},{"bike_id":"d0b53d9e-5d76-4e57-8eb3-294db5054f1a","system_id":"levelo_inurba_marseille","lat":43.293009,"lon":5.374584,"is_reserved":false,"is_disabled":false,"rental_uris":{"android":"levelo://app?vid=d0b53d9e-5d76-4e57-8eb3-294db5054f1a","ios":"levelo://app?vid=d0b53d9e-5d76-4e57-8eb3-294db5054f1a"},"vehicle_type_id":"4","last_reported":1709845610,"current_range_meters":8400,"station_id":"ce4bgi12rcd13ifvqb70","pricing_plan_id":"cebpf4jnsgd1na2vs0mg"},{"bike_id":"ee27ecfc-684c-4707-b311-b369da46daf1","system_id":"levelo_inurba_marseille","lat":43.29302,"lon":5.37466,"is_reserved":false,"is_disabled":false,"rental_uris":{"android":"levelo://app?vid=ee27ecfc-684c-4707-b311-b369da46daf1","ios":"levelo://app?vid=ee27ecfc-684c-4707-b311-b369da46daf1"},"vehicle_type_id":"4","last_reported":1709845610,"current_range_meters":17600,"station_id":"ce4bgi12rcd13ifvqb70","pricing_plan_id":"cebpf4jnsgd1na2vs0mg"},{"bike_id":"f7cf46a8-5aa8-4c85-8c41-4c8cfbca7a59","system_id":"levelo_inurba_marseille","lat":43.29297,"lon":5.37448,"is_reserved":false,"is_disabled":false,"rental_uris":{"android":"levelo://app?vid=f7cf46a8-5aa8-4c85-8c41-4c8cfbca7a59","ios":"levelo://app?vid=f7cf46a8-5aa8-4c85-8c41-4c8cfbca7a59"},"vehicle_type_id":"4","last_reported":1709845610,"current_range_meters":16800,"station_id":"ce4bgi12rcd13ifvqb70","pricing_plan_id":"cebpf4jnsgd1na2vs0mg"},{"bike_id":"3a613d4d-b255-426a-bea6-5953a6b14827","system_id":"levelo_inurba_marseille","lat":43.305994,"lon":5.393687,"is_reserved":false,"is_disabled":false,"rental_uris":{"android":"levelo://app?vid=3a613d4d-b255-426a-bea6-5953a6b14827","ios":"levelo://app?vid=3a613d4d-b255-426a-bea6-5953a6b14827"},"vehicle_type_id":"4","last_reported":1709845610,"current_range_meters":10800,"station_id":"ce4bh0p2rcd13ifvqd80","pricing_plan_id":"cebpf4jnsgd1na2vs0mg"},{"bike_id":"35e5a675-5a76-4bd7-ae70-3d4a848ce353","system_id":"levelo_inurba_marseille","lat":43.2936,"lon":5.37835,"is_reserved":false,"is_disabled":false,"rental_uris":{"android":"levelo://app?vid=35e5a675-5a76-4bd7-ae70-3d4a848ce353","ios":"levelo://app?vid=35e5a675-5a76-4bd7-ae70-3d4a848ce353"},"vehicle_type_id":"4","last_reported":1709845610,"current_range_meters":24800,"station_id":"ce4bgjh2rcd13ifvqbf0","pricing_plan_id":"cebpf4jnsgd1na2vs0mg"},{"bike_id":"efa89669-2a5b-4356-afff-8e7c74d0f8d8","system_id":"levelo_inurba_marseille","lat":43.2936,"lon":5.37835,"is_reserved":false,"is_disabled":false,"rental_uris":{"android":"levelo://app?vid=efa89669-2a5b-4356-afff-8e7c74d0f8d8","ios":"levelo://app?vid=efa89669-2a5b-4356-afff-8e7c74d0f8d8"},"vehicle_type_id":"4","last_reported":1709845610,"current_range_meters":16800,"station_id":"ce4bgjh2rcd13ifvqbf0","pricing_plan_id":"cebpf4jnsgd1na2vs0mg"},{"bike_id":"6d8e48d8-09af-40b6-befd-61481452ab6a","system_id":"levelo_inurba_marseille","lat":43.2936,"lon":5.37835,"is_reserved":false,"is_disabled":false,"rental_uris":{"android":"levelo://app?vid=6d8e48d8-09af-40b6-befd-61481452ab6a","ios":"levelo://app?vid=6d8e48d8-09af-40b6-befd-61481452ab6a"},"vehicle_type_id":"4","last_reported":1709845610,"current_range_meters":16000,"station_id":"ce4bgjh2rcd13ifvqbf0","pricing_plan_id":"cebpf4jnsgd1na2vs0mg"},{"bike_id":"daf5ccb6-1436-429e-87e0-a41ead77d9da","system_id":"levelo_inurba_marseille","lat":43.305994,"lon":5.393687,"is_reserved":false,"is_disabled":false,"rental_uris":{"android":"levelo://app?vid=daf5ccb6-1436-429e-87e0-a41ead77d9da","ios":"levelo://app?vid=daf5ccb6-1436-429e-87e0-a41ead77d9da"},"vehicle_type_id":"4","last_reported":1709845610,"current_range_meters":18000,"station_id":"ce4bh0p2rcd13ifvqd80","pricing_plan_id":"cebpf4jnsgd1na2vs0mg"},{"bike_id":"dafee290-7631-40f2-a981-ab5746fea5f3","system_id":"levelo_inurba_marseille","lat":43.300852,"lon":5.390859,"is_reserved":false,"is_disabled":false,"rental_uris":{"android":"levelo://app?vid=dafee290-7631-40f2-a981-ab5746fea5f3","ios":"levelo://app?vid=dafee290-7631-40f2-a981-ab5746fea5f3"},"vehicle_type_id":"4","last_reported":1709845610,"current_range_meters":24400,"station_id":"ce4bh192rcd13ifvqdb0","pricing_plan_id":"cebpf4jnsgd1na2vs0mg"},{"bike_id":"f897383b-d934-421f-b4a0-a07b66916f26","system_id":"levelo_inurba_marseille","lat":43.300852,"lon":5.390859,"is_reserved":false,"is_disabled":false,"rental_uris":{"android":"levelo://app?vid=f897383b-d934-421f-b4a0-a07b66916f26","ios":"levelo://app?vid=f897383b-d934-421f-b4a0-a07b66916f26"},"vehicle_type_id":"4","last_reported":1709845610,"current_range_meters":5200,"station_id":"ce4bh192rcd13ifvqdb0","pricing_plan_id":"cebpf4jnsgd1na2vs0mg"},{"bike_id":"7b65b06d-13f0-43b3-be4d-19c4a7e86904","system_id":"levelo_inurba_marseille","lat":43.292311,"lon":5.360731,"is_reserved":false,"is_disabled":false,"rental_uris":{"android":"levelo://app?vid=7b65b06d-13f0-43b3-be4d-19c4a7e86904","ios":"levelo://app?vid=7b65b06d-13f0-43b3-be4d-19c4a7e86904"},"vehicle_type_id":"4","last_reported":1709845610,"current_range_meters":24000,"station_id":"ce4bhbh2rcd13ifvqeqg","pricing_plan_id":"cebpf4jnsgd1na2vs0mg"},{"bike_id":"57402cf4-c6a2-4605-83cc-92df7197bef6","system_id":"levelo_inurba_marseille","lat":43.29227,"lon":5.36046,"is_reserved":false,"is_disabled":false,"rental_uris":{"android":"levelo://app?vid=57402cf4-c6a2-4605-83cc-92df7197bef6","ios":"levelo://app?vid=57402cf4-c6a2-4605-83cc-92df7197bef6"},"vehicle_type_id":"4","last_reported":1709845610,"current_range_meters":27600,"station_id":"ce4bhbh2rcd13ifvqeqg","pricing_plan_id":"cebpf4jnsgd1na2vs0mg"},{"bike_id":"f697610a-0546-41d5-90d2-d47b0b109c01","system_id":"levelo_inurba_marseille","lat":43.300852,"lon":5.390859,"is_reserved":false,"is_disabled":false,"rental_uris":{"android":"levelo://app?vid=f697610a-0546-41d5-90d2-d47b0b109c01","ios":"levelo://app?vid=f697610a-0546-41d5-90d2-d47b0b109c01"},"vehicle_type_id":"4","last_reported":1709845610,"current_range_meters":30000,"station_id":"ce4bh192rcd13ifvqdb0","pricing_plan_id":"cebpf4jnsgd1na2vs0mg"},{"bike_id":"09671071-c55b-4a61-b93b-14cc2b13824d","system_id":"levelo_inurba_marseille","lat":43.300852,"lon":5.390859,"is_reserved":false,"is_disabled":false,"rental_uris":{"android":"levelo://app?vid=09671071-c55b-4a61-b93b-14cc2b13824d","ios":"levelo://app?vid=09671071-c55b-4a61-b93b-14cc2b13824d"},"vehicle_type_id":"4","last_reported":1709845610,"current_range_meters":2800,"station_id":"ce4bh192rcd13ifvqdb0","pricing_plan_id":"cebpf4jnsgd1na2vs0mg"},{"bike_id":"4f0b161d-6de2-4275-b76b-b76aac827fe8","system_id":"levelo_inurba_marseille","lat":43.292311,"lon":5.360731,"is_reserved":false,"is_disabled":false,"rental_uris":{"android":"levelo://app?vid=4f0b161d-6de2-4275-b76b-b76aac827fe8","ios":"levelo://app?vid=4f0b161d-6de2-4275-b76b-b76aac827fe8"},"vehicle_type_id":"4","last_reported":1709845610,"current_range_meters":30000,"station_id":"ce4bhbh2rcd13ifvqeqg","pricing_plan_id":"cebpf4jnsgd1na2vs0mg"},{"bike_id":"43421eb6-6efe-4014-ae38-863e3f4c72c4","system_id":"levelo_inurba_marseille","lat":43.292218,"lon":5.360441,"is_reserved":false,"is_disabled":false,"rental_uris":{"android":"levelo://app?vid=43421eb6-6efe-4014-ae38-863e3f4c72c4","ios":"levelo://app?vid=43421eb6-6efe-4014-ae38-863e3f4c72c4"},"vehicle_type_id":"4","last_reported":1709845610,"current_range_meters":8000,"station_id":"ce4bhbh2rcd13ifvqeqg","pricing_plan_id":"cebpf4jnsgd1na2vs0mg"},{"bike_id":"cce3c9ac-5724-47e1-86cf-285e31a97ed9","system_id":"levelo_inurba_marseille","lat":43.292195,"lon":5.36051,"is_reserved":false,"is_disabled":false,"rental_uris":{"android":"levelo://app?vid=cce3c9ac-5724-47e1-86cf-285e31a97ed9","ios":"levelo://app?vid=cce3c9ac-5724-47e1-86cf-285e31a97ed9"},"vehicle_type_id":"4","last_reported":1709845610,"current_range_meters":12000,"station_id":"ce4bhbh2rcd13ifvqeqg","pricing_plan_id":"cebpf4jnsgd1na2vs0mg"},{"bike_id":"1f992004-a2de-4635-9997-aae4055d7b97","system_id":"levelo_inurba_marseille","lat":43.292189,"lon":5.360511,"is_reserved":false,"is_disabled":false,"rental_uris":{"android":"levelo://app?vid=1f992004-a2de-4635-9997-aae4055d7b97","ios":"levelo://app?vid=1f992004-a2de-4635-9997-aae4055d7b97"},"vehicle_type_id":"4","last_reported":1709845610,"current_range_meters":30000,"station_id":"ce4bhbh2rcd13ifvqeqg","pricing_plan_id":"cebpf4jnsgd1na2vs0mg"},{"bike_id":"3b825ce0-b599-431d-9a98-ed070843428c","system_id":"levelo_inurba_marseille","lat":43.298764,"lon":5.388973,"is_reserved":false,"is_disabled":false,"rental_uris":{"android":"levelo://app?vid=3b825ce0-b599-431d-9a98-ed070843428c","ios":"levelo://app?vid=3b825ce0-b599-431d-9a98-ed070843428c"},"vehicle_type_id":"4","last_reported":1709845610,"current_range_meters":14800,"station_id":"ce4bh392rcd13ifvqdl0","pricing_plan_id":"cebpf4jnsgd1na2vs0mg"},{"bike_id":"9e69df96-4248-417f-9594-4b864666dab8","system_id":"levelo_inurba_marseille","lat":43.291675,"lon":5.371583,"is_reserved":false,"is_disabled":false,"rental_uris":{"android":"levelo://app?vid=9e69df96-4248-417f-9594-4b864666dab8","ios":"levelo://app?vid=9e69df96-4248-417f-9594-4b864666dab8"},"vehicle_type_id":"4","last_reported":1709845610,"current_range_meters":12800,"station_id":"ce4bha92rcd13ifvqeh0","pricing_plan_id":"cebpf4jnsgd1na2vs0mg"},{"bike_id":"8f5715fd-c447-4b39-946b-3194868f5708","system_id":"levelo_inurba_marseille","lat":43.291675,"lon":5.371583,"is_reserved":false,"is_disabled":false,"rental_uris":{"android":"levelo://app?vid=8f5715fd-c447-4b39-946b-3194868f5708","ios":"levelo://app?vid=8f5715fd-c447-4b39-946b-3194868f5708"},"vehicle_type_id":"4","last_reported":1709845610,"current_range_meters":0,"station_id":"ce4bha92rcd13ifvqeh0","pricing_plan_id":"cebpf4jnsgd1na2vs0mg"},{"bike_id":"dade7e2c-c532-4ee8-a20a-43ef09344217","system_id":"levelo_inurba_marseille","lat":43.291671,"lon":5.371575,"is_reserved":false,"is_disabled":false,"rental_uris":{"android":"levelo://app?vid=dade7e2c-c532-4ee8-a20a-43ef09344217","ios":"levelo://app?vid=dade7e2c-c532-4ee8-a20a-43ef09344217"},"vehicle_type_id":"4","last_reported":1709845610,"current_range_meters":5200,"station_id":"ce4bha92rcd13ifvqeh0","pricing_plan_id":"cebpf4jnsgd1na2vs0mg"},{"bike_id":"08663a49-9fb5-4ee0-8284-0a1e8ad9fc11","system_id":"levelo_inurba_marseille","lat":43.29257,"lon":5.37617,"is_reserved":false,"is_disabled":false,"rental_uris":{"android":"levelo://app?vid=08663a49-9fb5-4ee0-8284-0a1e8ad9fc11","ios":"levelo://app?vid=08663a49-9fb5-4ee0-8284-0a1e8ad9fc11"},"vehicle_type_id":"4","last_reported":1709845610,"current_range_meters":9200,"station_id":"","pricing_plan_id":"cebpf4jnsgd1na2vs0mg"},{"bike_id":"dcb94e3b-be07-42d0-9111-86fda5fbd37d","system_id":"levelo_inurba_marseille","lat":43.291986,"lon":5.360526,"is_reserved":false,"is_disabled":false,"rental_uris":{"android":"levelo://app?vid=dcb94e3b-be07-42d0-9111-86fda5fbd37d","ios":"levelo://app?vid=dcb94e3b-be07-42d0-9111-86fda5fbd37d"},"vehicle_type_id":"4","last_reported":1709845610,"current_range_meters":31200,"station_id":"ce4bhbh2rcd13ifvqeqg","pricing_plan_id":"cebpf4jnsgd1na2vs0mg"},{"bike_id":"7da052f8-8830-415e-8c23-37055984b4da","system_id":"levelo_inurba_marseille","lat":43.298764,"lon":5.388973,"is_reserved":false,"is_disabled":false,"rental_uris":{"android":"levelo://app?vid=7da052f8-8830-415e-8c23-37055984b4da","ios":"levelo://app?vid=7da052f8-8830-415e-8c23-37055984b4da"},"vehicle_type_id":"4","last_reported":1709845610,"current_range_meters":9200,"station_id":"ce4bh392rcd13ifvqdl0","pricing_plan_id":"cebpf4jnsgd1na2vs0mg"},{"bike_id":"f3e7f653-1577-41b7-bb86-18df7f1ba36b","system_id":"levelo_inurba_marseille","lat":43.298764,"lon":5.388973,"is_reserved":false,"is_disabled":false,"rental_uris":{"android":"levelo://app?vid=f3e7f653-1577-41b7-bb86-18df7f1ba36b","ios":"levelo://app?vid=f3e7f653-1577-41b7-bb86-18df7f1ba36b"},"vehicle_type_id":"4","last_reported":1709845610,"current_range_meters":13600,"station_id":"ce4bh392rcd13ifvqdl0","pricing_plan_id":"cebpf4jnsgd1na2vs0mg"},{"bike_id":"a61cc2c5-6d6e-4616-8970-869c80ea4012","system_id":"levelo_inurba_marseille","lat":43.2989,"lon":5.38913,"is_reserved":false,"is_disabled":false,"rental_uris":{"android":"levelo://app?vid=a61cc2c5-6d6e-4616-8970-869c80ea4012","ios":"levelo://app?vid=a61cc2c5-6d6e-4616-8970-869c80ea4012"},"vehicle_type_id":"4","last_reported":1709845610,"current_range_meters":21600,"station_id":"ce4bh392rcd13ifvqdl0","pricing_plan_id":"cebpf4jnsgd1na2vs0mg"},{"bike_id":"68e38947-a45d-4a7c-b5ee-5d736f62a2f4","system_id":"levelo_inurba_marseille","lat":43.291671,"lon":5.371575,"is_reserved":false,"is_disabled":false,"rental_uris":{"android":"levelo://app?vid=68e38947-a45d-4a7c-b5ee-5d736f62a2f4","ios":"levelo://app?vid=68e38947-a45d-4a7c-b5ee-5d736f62a2f4"},"vehicle_type_id":"4","last_reported":1709845610,"current_range_meters":17600,"station_id":"ce4bha92rcd13ifvqeh0","pricing_plan_id":"cebpf4jnsgd1na2vs0mg"},{"bike_id":"e8158ab6-9ca3-4c09-a548-b1260a5a9fec","system_id":"levelo_inurba_marseille","lat":43.291675,"lon":5.371583,"is_reserved":false,"is_disabled":false,"rental_uris":{"android":"levelo://app?vid=e8158ab6-9ca3-4c09-a548-b1260a5a9fec","ios":"levelo://app?vid=e8158ab6-9ca3-4c09-a548-b1260a5a9fec"},"vehicle_type_id":"4","last_reported":1709845610,"current_range_meters":18000,"station_id":"ce4bha92rcd13ifvqeh0","pricing_plan_id":"cebpf4jnsgd1na2vs0mg"},{"bike_id":"1facc159-7fcf-4cb1-a00b-9d974957b69e","system_id":"levelo_inurba_marseille","lat":43.29882,"lon":5.38908,"is_reserved":false,"is_disabled":false,"rental_uris":{"android":"levelo://app?vid=1facc159-7fcf-4cb1-a00b-9d974957b69e","ios":"levelo://app?vid=1facc159-7fcf-4cb1-a00b-9d974957b69e"},"vehicle_type_id":"4","last_reported":1709845610,"current_range_meters":4000,"station_id":"ce4bh392rcd13ifvqdl0","pricing_plan_id":"cebpf4jnsgd1na2vs0mg"},{"bike_id":"95df29af-5340-41b9-8969-3cd13d102315","system_id":"levelo_inurba_marseille","lat":43.29884,"lon":5.38911,"is_reserved":false,"is_disabled":false,"rental_uris":{"android":"levelo://app?vid=95df29af-5340-41b9-8969-3cd13d102315","ios":"levelo://app?vid=95df29af-5340-41b9-8969-3cd13d102315"},"vehicle_type_id":"4","last_reported":1709845610,"current_range_meters":17600,"station_id":"ce4bh392rcd13ifvqdl0","pricing_plan_id":"cebpf4jnsgd1na2vs0mg"},{"bike_id":"49aa0daa-8a88-446f-ba67-ff79ffb8d7c9","system_id":"levelo_inurba_marseille","lat":43.29881,"lon":5.38908,"is_reserved":false,"is_disabled":false,"rental_uris":{"android":"levelo://app?vid=49aa0daa-8a88-446f-ba67-ff79ffb8d7c9","ios":"levelo://app?vid=49aa0daa-8a88-446f-ba67-ff79ffb8d7c9"},"vehicle_type_id":"4","last_reported":1709845610,"current_range_meters":25200,"station_id":"ce4bh392rcd13ifvqdl0","pricing_plan_id":"cebpf4jnsgd1na2vs0mg"},{"bike_id":"3fb103d5-3bc2-480c-a852-19e1705dbc83","system_id":"levelo_inurba_marseille","lat":43.298832,"lon":5.38911,"is_reserved":false,"is_disabled":false,"rental_uris":{"android":"levelo://app?vid=3fb103d5-3bc2-480c-a852-19e1705dbc83","ios":"levelo://app?vid=3fb103d5-3bc2-480c-a852-19e1705dbc83"},"vehicle_type_id":"4","last_reported":1709845610,"current_range_meters":3200,"station_id":"ce4bh392rcd13ifvqdl0","pricing_plan_id":"cebpf4jnsgd1na2vs0mg"},{"bike_id":"84cabd40-6408-420b-80f5-239b50cef53e","system_id":"levelo_inurba_marseille","lat":43.29879,"lon":5.38906,"is_reserved":false,"is_disabled":false,"rental_uris":{"android":"levelo://app?vid=84cabd40-6408-420b-80f5-239b50cef53e","ios":"levelo://app?vid=84cabd40-6408-420b-80f5-239b50cef53e"},"vehicle_type_id":"4","last_reported":1709845610,"current_range_meters":4800,"station_id":"ce4bh392rcd13ifvqdl0","pricing_plan_id":"cebpf4jnsgd1na2vs0mg"},{"bike_id":"cf296181-1fbc-43ed-96aa-191c6614a1bd","system_id":"levelo_inurba_marseille","lat":43.298764,"lon":5.388973,"is_reserved":false,"is_disabled":false,"rental_uris":{"android":"levelo://app?vid=cf296181-1fbc-43ed-96aa-191c6614a1bd","ios":"levelo://app?vid=cf296181-1fbc-43ed-96aa-191c6614a1bd"},"vehicle_type_id":"4","last_reported":1709845610,"current_range_meters":20000,"station_id":"ce4bh392rcd13ifvqdl0","pricing_plan_id":"cebpf4jnsgd1na2vs0mg"},{"bike_id":"d4f19ff2-7011-414a-831a-a4df5fde0ac4","system_id":"levelo_inurba_marseille","lat":43.298809,"lon":5.389126,"is_reserved":false,"is_disabled":false,"rental_uris":{"android":"levelo://app?vid=d4f19ff2-7011-414a-831a-a4df5fde0ac4","ios":"levelo://app?vid=d4f19ff2-7011-414a-831a-a4df5fde0ac4"},"vehicle_type_id":"4","last_reported":1709845610,"current_range_meters":23200,"station_id":"ce4bh392rcd13ifvqdl0","pricing_plan_id":"cebpf4jnsgd1na2vs0mg"},{"bike_id":"3d06c08d-eb08-43bc-ab95-ae2db2b91045","system_id":"levelo_inurba_marseille","lat":43.298764,"lon":5.388973,"is_reserved":false,"is_disabled":false,"rental_uris":{"android":"levelo://app?vid=3d06c08d-eb08-43bc-ab95-ae2db2b91045","ios":"levelo://app?vid=3d06c08d-eb08-43bc-ab95-ae2db2b91045"},"vehicle_type_id":"4","last_reported":1709845610,"current_range_meters":0,"station_id":"ce4bh392rcd13ifvqdl0","pricing_plan_id":"cebpf4jnsgd1na2vs0mg"},{"bike_id":"743413dd-02e7-4578-a963-12c25dbfa588","system_id":"levelo_inurba_marseille","lat":43.298764,"lon":5.388973,"is_reserved":false,"is_disabled":false,"rental_uris":{"android":"levelo://app?vid=743413dd-02e7-4578-a963-12c25dbfa588","ios":"levelo://app?vid=743413dd-02e7-4578-a963-12c25dbfa588"},"vehicle_type_id":"4","last_reported":1709845610,"current_range_meters":1200,"station_id":"ce4bh392rcd13ifvqdl0","pricing_plan_id":"cebpf4jnsgd1na2vs0mg"},{"bike_id":"9e47374d-174b-4c69-8da2-4751104298e2","system_id":"levelo_inurba_marseille","lat":43.298764,"lon":5.388973,"is_reserved":false,"is_disabled":false,"rental_uris":{"android":"levelo://app?vid=9e47374d-174b-4c69-8da2-4751104298e2","ios":"levelo://app?vid=9e47374d-174b-4c69-8da2-4751104298e2"},"vehicle_type_id":"4","last_reported":1709845610,"current_range_meters":27200,"station_id":"ce4bh392rcd13ifvqdl0","pricing_plan_id":"cebpf4jnsgd1na2vs0mg"},{"bike_id":"7f711e3b-d2ff-4c0f-bd09-696609701ee9","system_id":"levelo_inurba_marseille","lat":43.29874,"lon":5.38912,"is_reserved":false,"is_disabled":false,"rental_uris":{"android":"levelo://app?vid=7f711e3b-d2ff-4c0f-bd09-696609701ee9","ios":"levelo://app?vid=7f711e3b-d2ff-4c0f-bd09-696609701ee9"},"vehicle_type_id":"4","last_reported":1709845610,"current_range_meters":25200,"station_id":"ce4bh392rcd13ifvqdl0","pricing_plan_id":"cebpf4jnsgd1na2vs0mg"},{"bike_id":"82cd196c-6207-4c1b-939c-e5050703b497","system_id":"levelo_inurba_marseille","lat":43.298764,"lon":5.388973,"is_reserved":false,"is_disabled":false,"rental_uris":{"android":"levelo://app?vid=82cd196c-6207-4c1b-939c-e5050703b497","ios":"levelo://app?vid=82cd196c-6207-4c1b-939c-e5050703b497"},"vehicle_type_id":"4","last_reported":1709845610,"current_range_meters":18400,"station_id":"ce4bh392rcd13ifvqdl0","pricing_plan_id":"cebpf4jnsgd1na2vs0mg"},{"bike_id":"31009e8f-e69c-4299-beec-2dd7771423a6","system_id":"levelo_inurba_marseille","lat":43.291994,"lon":5.357886,"is_reserved":false,"is_disabled":false,"rental_uris":{"android":"levelo://app?vid=31009e8f-e69c-4299-beec-2dd7771423a6","ios":"levelo://app?vid=31009e8f-e69c-4299-beec-2dd7771423a6"},"vehicle_type_id":"4","last_reported":1709845610,"current_range_meters":15200,"station_id":"ce4bhb12rcd13ifvqel0","pricing_plan_id":"cebpf4jnsgd1na2vs0mg"},{"bike_id":"2e88c82f-e65c-4708-b04c-82a18408426f","system_id":"levelo_inurba_marseille","lat":43.291994,"lon":5.357886,"is_reserved":false,"is_disabled":false,"rental_uris":{"android":"levelo://app?vid=2e88c82f-e65c-4708-b04c-82a18408426f","ios":"levelo://app?vid=2e88c82f-e65c-4708-b04c-82a18408426f"},"vehicle_type_id":"4","last_reported":1709845610,"current_range_meters":800,"station_id":"ce4bhb12rcd13ifvqel0","pricing_plan_id":"cebpf4jnsgd1na2vs0mg"},{"bike_id":"68474b89-f2df-4b65-943a-28d1a8f970f7","system_id":"levelo_inurba_marseille","lat":43.291994,"lon":5.357886,"is_reserved":false,"is_disabled":false,"rental_uris":{"android":"levelo://app?vid=68474b89-f2df-4b65-943a-28d1a8f970f7","ios":"levelo://app?vid=68474b89-f2df-4b65-943a-28d1a8f970f7"},"vehicle_type_id":"4","last_reported":1709845610,"current_range_meters":4000,"station_id":"ce4bhb12rcd13ifvqel0","pricing_plan_id":"cebpf4jnsgd1na2vs0mg"},{"bike_id":"f708068d-192b-4657-ad49-8fa7006f19c8","system_id":"levelo_inurba_marseille","lat":43.291994,"lon":5.357886,"is_reserved":false,"is_disabled":false,"rental_uris":{"android":"levelo://app?vid=f708068d-192b-4657-ad49-8fa7006f19c8","ios":"levelo://app?vid=f708068d-192b-4657-ad49-8fa7006f19c8"},"vehicle_type_id":"4","last_reported":1709845610,"current_range_meters":7200,"station_id":"ce4bhb12rcd13ifvqel0","pricing_plan_id":"cebpf4jnsgd1na2vs0mg"},{"bike_id":"86e0b3d0-5198-4283-96b9-2faa0529b451","system_id":"levelo_inurba_marseille","lat":43.291994,"lon":5.357886,"is_reserved":false,"is_disabled":false,"rental_uris":{"android":"levelo://app?vid=86e0b3d0-5198-4283-96b9-2faa0529b451","ios":"levelo://app?vid=86e0b3d0-5198-4283-96b9-2faa0529b451"},"vehicle_type_id":"4","last_reported":1709845610,"current_range_meters":14800,"station_id":"ce4bhb12rcd13ifvqel0","pricing_plan_id":"cebpf4jnsgd1na2vs0mg"},{"bike_id":"3e012a1e-93f3-45e0-ab19-2a18b0f3704d","system_id":"levelo_inurba_marseille","lat":43.291994,"lon":5.357886,"is_reserved":false,"is_disabled":false,"rental_uris":{"android":"levelo://app?vid=3e012a1e-93f3-45e0-ab19-2a18b0f3704d","ios":"levelo://app?vid=3e012a1e-93f3-45e0-ab19-2a18b0f3704d"},"vehicle_type_id":"4","last_reported":1709845610,"current_range_meters":10000,"station_id":"ce4bhb12rcd13ifvqel0","pricing_plan_id":"cebpf4jnsgd1na2vs0mg"},{"bike_id":"8b0bbdcc-e511-4906-a077-02deb4d4a8ac","system_id":"levelo_inurba_marseille","lat":43.291994,"lon":5.357886,"is_reserved":false,"is_disabled":false,"rental_uris":{"android":"levelo://app?vid=8b0bbdcc-e511-4906-a077-02deb4d4a8ac","ios":"levelo://app?vid=8b0bbdcc-e511-4906-a077-02deb4d4a8ac"},"vehicle_type_id":"4","last_reported":1709845610,"current_range_meters":12000,"station_id":"ce4bhb12rcd13ifvqel0","pricing_plan_id":"cebpf4jnsgd1na2vs0mg"},{"bike_id":"46189881-14d9-43d2-bbbb-6d33b9b376ba","system_id":"levelo_inurba_marseille","lat":43.291994,"lon":5.357886,"is_reserved":false,"is_disabled":false,"rental_uris":{"android":"levelo://app?vid=46189881-14d9-43d2-bbbb-6d33b9b376ba","ios":"levelo://app?vid=46189881-14d9-43d2-bbbb-6d33b9b376ba"},"vehicle_type_id":"4","last_reported":1709845610,"current_range_meters":800,"station_id":"ce4bhb12rcd13ifvqel0","pricing_plan_id":"cebpf4jnsgd1na2vs0mg"},{"bike_id":"f6c2d6e6-c433-4ffd-86f5-87e435ea927e","system_id":"levelo_inurba_marseille","lat":43.313291,"lon":5.396838,"is_reserved":false,"is_disabled":false,"rental_uris":{"android":"levelo://app?vid=f6c2d6e6-c433-4ffd-86f5-87e435ea927e","ios":"levelo://app?vid=f6c2d6e6-c433-4ffd-86f5-87e435ea927e"},"vehicle_type_id":"4","last_reported":1709845610,"current_range_meters":12400,"station_id":"ce4bgvp2rcd13ifvqcu0","pricing_plan_id":"cebpf4jnsgd1na2vs0mg"},{"bike_id":"14d78d9b-81fe-49b1-a127-27e707e23a48","system_id":"levelo_inurba_marseille","lat":43.291994,"lon":5.357886,"is_reserved":false,"is_disabled":false,"rental_uris":{"android":"levelo://app?vid=14d78d9b-81fe-49b1-a127-27e707e23a48","ios":"levelo://app?vid=14d78d9b-81fe-49b1-a127-27e707e23a48"},"vehicle_type_id":"4","last_reported":1709845610,"current_range_meters":25200,"station_id":"ce4bhb12rcd13ifvqel0","pricing_plan_id":"cebpf4jnsgd1na2vs0mg"},{"bike_id":"ba0f29d1-0165-4e8a-9daa-3c80df8e5eda","system_id":"levelo_inurba_marseille","lat":43.313291,"lon":5.396838,"is_reserved":false,"is_disabled":false,"rental_uris":{"android":"levelo://app?vid=ba0f29d1-0165-4e8a-9daa-3c80df8e5eda","ios":"levelo://app?vid=ba0f29d1-0165-4e8a-9daa-3c80df8e5eda"},"vehicle_type_id":"4","last_reported":1709845610,"current_range_meters":4800,"station_id":"ce4bgvp2rcd13ifvqcu0","pricing_plan_id":"cebpf4jnsgd1na2vs0mg"},{"bike_id":"208179f7-fc0f-4f64-bfeb-d47aadc0ce19","system_id":"levelo_inurba_marseille","lat":43.31331,"lon":5.39692,"is_reserved":false,"is_disabled":false,"rental_uris":{"android":"levelo://app?vid=208179f7-fc0f-4f64-bfeb-d47aadc0ce19","ios":"levelo://app?vid=208179f7-fc0f-4f64-bfeb-d47aadc0ce19"},"vehicle_type_id":"4","last_reported":1709845610,"current_range_meters":0,"station_id":"ce4bgvp2rcd13ifvqcu0","pricing_plan_id":"cebpf4jnsgd1na2vs0mg"},{"bike_id":"194cfb5a-4e77-4454-994b-82e0d816d7da","system_id":"levelo_inurba_marseille","lat":43.291994,"lon":5.357886,"is_reserved":false,"is_disabled":false,"rental_uris":{"android":"levelo://app?vid=194cfb5a-4e77-4454-994b-82e0d816d7da","ios":"levelo://app?vid=194cfb5a-4e77-4454-994b-82e0d816d7da"},"vehicle_type_id":"4","last_reported":1709845610,"current_range_meters":27600,"station_id":"ce4bhb12rcd13ifvqel0","pricing_plan_id":"cebpf4jnsgd1na2vs0mg"},{"bike_id":"91c986ae-76e4-4c1a-af04-1b51b9765cc3","system_id":"levelo_inurba_marseille","lat":43.31331,"lon":5.39696,"is_reserved":false,"is_disabled":false,"rental_uris":{"android":"levelo://app?vid=91c986ae-76e4-4c1a-af04-1b51b9765cc3","ios":"levelo://app?vid=91c986ae-76e4-4c1a-af04-1b51b9765cc3"},"vehicle_type_id":"4","last_reported":1709845610,"current_range_meters":0,"station_id":"ce4bgvp2rcd13ifvqcu0","pricing_plan_id":"cebpf4jnsgd1na2vs0mg"},{"bike_id":"cd2a0ca7-d1b7-4823-b33d-589c877d264b","system_id":"levelo_inurba_marseille","lat":43.291994,"lon":5.357886,"is_reserved":false,"is_disabled":false,"rental_uris":{"android":"levelo://app?vid=cd2a0ca7-d1b7-4823-b33d-589c877d264b","ios":"levelo://app?vid=cd2a0ca7-d1b7-4823-b33d-589c877d264b"},"vehicle_type_id":"4","last_reported":1709845610,"current_range_meters":1200,"station_id":"ce4bhb12rcd13ifvqel0","pricing_plan_id":"cebpf4jnsgd1na2vs0mg"},{"bike_id":"4b96eeaf-890c-4cc3-b287-65820e8609c0","system_id":"levelo_inurba_marseille","lat":43.313291,"lon":5.396838,"is_reserved":false,"is_disabled":false,"rental_uris":{"android":"levelo://app?vid=4b96eeaf-890c-4cc3-b287-65820e8609c0","ios":"levelo://app?vid=4b96eeaf-890c-4cc3-b287-65820e8609c0"},"vehicle_type_id":"4","last_reported":1709845610,"current_range_meters":10000,"station_id":"ce4bgvp2rcd13ifvqcu0","pricing_plan_id":"cebpf4jnsgd1na2vs0mg"},{"bike_id":"cc580d74-4386-49c8-bad5-809f345c5526","system_id":"levelo_inurba_marseille","lat":43.2954,"lon":5.38541,"is_reserved":false,"is_disabled":false,"rental_uris":{"android":"levelo://app?vid=cc580d74-4386-49c8-bad5-809f345c5526","ios":"levelo://app?vid=cc580d74-4386-49c8-bad5-809f345c5526"},"vehicle_type_id":"4","last_reported":1709845610,"current_range_meters":5200,"station_id":"ce4bgih2rcd13ifvqba0","pricing_plan_id":"cebpf4jnsgd1na2vs0mg"},{"bike_id":"d6c1288a-5ead-40c7-a406-c18022798f2f","system_id":"levelo_inurba_marseille","lat":43.29529,"lon":5.385581,"is_reserved":false,"is_disabled":false,"rental_uris":{"android":"levelo://app?vid=d6c1288a-5ead-40c7-a406-c18022798f2f","ios":"levelo://app?vid=d6c1288a-5ead-40c7-a406-c18022798f2f"},"vehicle_type_id":"4","last_reported":1709845610,"current_range_meters":5200,"station_id":"ce4bgih2rcd13ifvqba0","pricing_plan_id":"cebpf4jnsgd1na2vs0mg"},{"bike_id":"ac6718ba-da06-47e3-a032-2a7745e9eeb9","system_id":"levelo_inurba_marseille","lat":43.29529,"lon":5.385581,"is_reserved":false,"is_disabled":false,"rental_uris":{"android":"levelo://app?vid=ac6718ba-da06-47e3-a032-2a7745e9eeb9","ios":"levelo://app?vid=ac6718ba-da06-47e3-a032-2a7745e9eeb9"},"vehicle_type_id":"4","last_reported":1709845610,"current_range_meters":17200,"station_id":"ce4bgih2rcd13ifvqba0","pricing_plan_id":"cebpf4jnsgd1na2vs0mg"},{"bike_id":"0e19ecbe-f5f5-4943-8e07-e6ded6bd06f3","system_id":"levelo_inurba_marseille","lat":43.29534,"lon":5.3854,"is_reserved":false,"is_disabled":false,"rental_uris":{"android":"levelo://app?vid=0e19ecbe-f5f5-4943-8e07-e6ded6bd06f3","ios":"levelo://app?vid=0e19ecbe-f5f5-4943-8e07-e6ded6bd06f3"},"vehicle_type_id":"4","last_reported":1709845610,"current_range_meters":2000,"station_id":"ce4bgih2rcd13ifvqba0","pricing_plan_id":"cebpf4jnsgd1na2vs0mg"},{"bike_id":"2b018541-e70c-4827-a686-d89e096b343e","system_id":"levelo_inurba_marseille","lat":43.29531,"lon":5.38537,"is_reserved":false,"is_disabled":false,"rental_uris":{"android":"levelo://app?vid=2b018541-e70c-4827-a686-d89e096b343e","ios":"levelo://app?vid=2b018541-e70c-4827-a686-d89e096b343e"},"vehicle_type_id":"4","last_reported":1709845610,"current_range_meters":8800,"station_id":"ce4bgih2rcd13ifvqba0","pricing_plan_id":"cebpf4jnsgd1na2vs0mg"},{"bike_id":"79471986-fdec-4147-b78f-fd3b1bcec6db","system_id":"levelo_inurba_marseille","lat":43.29529,"lon":5.385581,"is_reserved":false,"is_disabled":false,"rental_uris":{"android":"levelo://app?vid=79471986-fdec-4147-b78f-fd3b1bcec6db","ios":"levelo://app?vid=79471986-fdec-4147-b78f-fd3b1bcec6db"},"vehicle_type_id":"4","last_reported":1709845610,"current_range_meters":25200,"station_id":"ce4bgih2rcd13ifvqba0","pricing_plan_id":"cebpf4jnsgd1na2vs0mg"},{"bike_id":"fcc63295-ee4f-44ad-ab2b-ab1d4704b291","system_id":"levelo_inurba_marseille","lat":43.29537,"lon":5.3855,"is_reserved":false,"is_disabled":false,"rental_uris":{"android":"levelo://app?vid=fcc63295-ee4f-44ad-ab2b-ab1d4704b291","ios":"levelo://app?vid=fcc63295-ee4f-44ad-ab2b-ab1d4704b291"},