{"last_updated":1747822292,"ttl":60,"version":"2.2","data":{"bikes":[{"bike_id":"c0b9fd4f-e181-46ce-b0bf-f5119973334f","system_id":"levelo_inurba_marseille","lat":43.33771,"lon":5.37424,"is_reserved":false,"is_disabled":true,"rental_uris":{"android":"levelo://app?vid=c0b9fd4f-e181-46ce-b0bf-f5119973334f","ios":"levelo://app?vid=c0b9fd4f-e181-46ce-b0bf-f5119973334f"},"vehicle_type_id":"4","last_reported":1747822292,"current_range_meters":0,"station_id":"","pricing_plan_id":"cebpf4jnsgd1na2vs0mg"},{"bike_id":"dc1e871b-d161-4707-8d3c-3c3f2f89bbf9","system_id":"levelo_inurba_marseille","lat":43.272344,"lon":5.391833,"is_reserved":false,"is_disabled":true,"rental_uris":{"android":"levelo://app?vid=dc1e871b-d161-4707-8d3c-3c3f2f89bbf9","ios":"levelo://app?vid=dc1e871b-d161-4707-8d3c-3c3f2f89bbf9"},"vehicle_type_id":"4","last_reported":1747822292,"current_range_meters":0,"station_id":"","pricing_plan_id":"cebpf4jnsgd1na2vs0mg"},{"bike_id":"1dec17c8-cbde-4354-8b6c-219f98c89710","system_id":"levelo_inurba_marseille","lat":43.291827,"lon":5.422652,"is_reserved":false,"is_disabled":true,"rental_uris":{"android":"levelo://app?vid=1dec17c8-cbde-4354-8b6c-219f98c89710","ios":"levelo://app?vid=1dec17c8-cbde-4354-8b6c-219f98c89710"},"vehicle_type_id":"4","last_reported":1747822292,"current_range_meters":0,"station_id":"","pricing_plan_id":"cebpf4jnsgd1na2vs0mg"},{"bike_id":"edcf38fb-2240-4153-9357-03ecf2ae4cfa","system_id":"levelo_inurba_marseille","lat":43.296215,"lon":5.371667,"is_reserved":false,"is_disabled":true,"rental_uris":{"android":"levelo://app?vid=edcf38fb-2240-4153-9357-03ecf2ae4cfa","ios":"levelo://app?vid=edcf38fb-2240-4153-9357-03ecf2ae4cfa"},"vehicle_type_id":"4","last_reported":1747822292,"current_range_meters":0,"station_id":"","pricing_plan_id":"cebpf4jnsgd1na2vs0mg"},{"bike_id":"e9dd3aa4-b5e7-4480-926d-d7f537719bfa","system_id":"levelo_inurba_marseille","lat":43.230331,"lon":5.401847,"is_reserved":false,"is_disabled":true,"rental_uris":{"android":"levelo://app?vid=e9dd3aa4-b5e7-4480-926d-d7f537719bfa","ios":"levelo://app?vid=e9dd3aa4-b5e7-4480-926d-d7f537719bfa"},"vehicle_type_id":"4","last_reported":1747822292,"current_range_meters":0,"station_id":"","pricing_plan_id":"cebpf4jnsgd1na2vs0mg"},{"bike_id":"14603e41-b2dd-4757-a53c-2e366aa4f983","system_id":"levelo_inurba_marseille","lat":43.2699,"lon":5.42802,"is_reserved":false,"is_disabled":true,"rental_uris":{"android":"levelo://app?vid=14603e41-b2dd-4757-a53c-2e366aa4f983","ios":"levelo://app?vid=14603e41-b2dd-4757-a53c-2e366aa4f983"},"vehicle_type_id":"4","last_reported":1747822292,"current_range_meters":0,"station_id":"","pricing_plan_id":"cebpf4jnsgd1na2vs0mg"},{"bike_id":"9da6cccf-d7c1-4d0c-86f5-666691036e36","system_id":"levelo_inurba_marseille","lat":43.29786,"lon":5.38098,"is_reserved":false,"is_disabled":true,"rental_uris":{"android":"levelo://app?vid=9da6cccf-d7c1-4d0c-86f5-666691036e36","ios":"levelo://app?vid=9da6cccf-d7c1-4d0c-86f5-666691036e36"},"vehicle_type_id":"4","last_reported":1747822292,"current_range_meters":0,"station_id":"ce4bgip2rcd13ifvqbb0","pricing_plan_id":"cebpf4jnsgd1na2vs0mg"},{"bike_id":"73bbede7-3033-44c9-a3b1-c75a25f405ae","system_id":"levelo_inurba_marseille","lat":43.31696,"lon":5.40457,"is_reserved":false,"is_disabled":true,"rental_uris":{"android":"levelo://app?vid=73bbede7-3033-44c9-a3b1-c75a25f405ae","ios":"levelo://app?vid=73bbede7-3033-44c9-a3b1-c75a25f405ae"},"vehicle_type_id":"4","last_reported":1747822292,"current_range_meters":0,"station_id":"ce4bh012rcd13ifvqd00","pricing_plan_id":"cebpf4jnsgd1na2vs0mg"},{"bike_id":"e8e706a7-937d-4d2e-ae68-b019bcda49ec","system_id":"levelo_inurba_marseille","lat":43.29035,"lon":5.37563,"is_reserved":false,"is_disabled":true,"rental_uris":{"android":"levelo://app?vid=e8e706a7-937d-4d2e-ae68-b019bcda49ec","ios":"levelo://app?vid=e8e706a7-937d-4d2e-ae68-b019bcda49ec"},"vehicle_type_id":"4","last_reported":1747822292,"current_range_meters":0,"station_id":"ce4bh692rcd13ifvqe90","pricing_plan_id":"cebpf4jnsgd1na2vs0mg"},{"bike_id":"59e56d49-c57d-4ae9-a933-715a357f14c1","system_id":"levelo_inurba_marseille","lat":43.2792,"lon":5.39581,"is_reserved":false,"is_disabled":true,"rental_uris":{"android":"levelo://app?vid=59e56d49-c57d-4ae9-a933-715a357f14c1","ios":"levelo://app?vid=59e56d49-c57d-4ae9-a933-715a357f14c1"},"vehicle_type_id":"4","last_reported":1747822292,"current_range_meters":0,"station_id":"ce4bhf92rcd13ifvqf40","pricing_plan_id":"cebpf4jnsgd1na2vs0mg"},{"bike_id":"181919e7-826f-4d89-a2e4-a45944ad098e","system_id":"levelo_inurba_marseille","lat":43.2792,"lon":5.37982,"is_reserved":false,"is_disabled":true,"rental_uris":{"android":"levelo://app?vid=181919e7-826f-4d89-a2e4-a45944ad098e","ios":"levelo://app?vid=181919e7-826f-4d89-a2e4-a45944ad098e"},"vehicle_type_id":"4","last_reported":1747822292,"current_range_meters":0,"station_id":"ce4bhf92rcd13ifvqf50","pricing_plan_id":"cebpf4jnsgd1na2vs0mg"},{"bike_id":"b38cf2cf-5836-4b73-81b9-05bd50d0f774","system_id":"levelo_inurba_marseille","lat":43.265562,"lon":5.373355,"is_reserved":false,"is_disabled":true,"rental_uris":{"android":"levelo://app?vid=b38cf2cf-5836-4b73-81b9-05bd50d0f774","ios":"levelo://app?vid=b38cf2cf-5836-4b73-81b9-05bd50d0f774"},"vehicle_type_id":"4","last_reported":1747822292,"current_range_meters":0,"station_id":"ce4bhg12rcd13ifvqf70","pricing_plan_id":"cebpf4jnsgd1na2vs0mg"},{"bike_id":"2bdc3e2e-592d-4696-877b-38d9a83a4ef0","system_id":"levelo_inurba_marseille","lat":43.27498,"lon":5.42468,"is_reserved":false,"is_disabled":true,"rental_uris":{"android":"levelo://app?vid=2bdc3e2e-592d-4696-877b-38d9a83a4ef0","ios":"levelo://app?vid=2bdc3e2e-592d-4696-877b-38d9a83a4ef0"},"vehicle_type_id":"4","last_reported":1747822292,"current_range_meters":0,"station_id":"ce4bhn92rcd13ifvqgrg","pricing_plan_id":"cebpf4jnsgd1na2vs0mg"},{"bike_id":"b7ce9f06-2d34-4591-84a7-0042f0a4bb53","system_id":"levelo_inurba_marseille","lat":43.2793,"lon":5.41025,"is_reserved":false,"is_disabled":true,"rental_uris":{"android":"levelo://app?vid=b7ce9f06-2d34-4591-84a7-0042f0a4bb53","ios":"levelo://app?vid=b7ce9f06-2d34-4591-84a7-0042f0a4bb53"},"vehicle_type_id":"4","last_reported":1747822292,"current_range_meters":0,"station_id":"ce4bhnp2rcd13ifvqh0g","pricing_plan_id":"cebpf4jnsgd1na2vs0mg"},{"bike_id":"f26f85ce-d1ce-4a0c-91ab-c1cb84396873","system_id":"levelo_inurba_marseille","lat":43.24397,"lon":5.37054,"is_reserved":false,"is_disabled":true,"rental_uris":{"android":"levelo://app?vid=f26f85ce-d1ce-4a0c-91ab-c1cb84396873","ios":"levelo://app?vid=f26f85ce-d1ce-4a0c-91ab-c1cb84396873"},"vehicle_type_id":"4","last_reported":1747822292,"current_range_meters":800,"station_id":"ce4bhhh2rcd13ifvqfk0","pricing_plan_id":"cebpf4jnsgd1na2vs0mg"},{"bike_id":"43ecfee3-d9ac-4db2-a376-3eb8da4e7fd6","system_id":"levelo_inurba_marseille","lat":43.27496,"lon":5.424547,"is_reserved":false,"is_disabled":true,"rental_uris":{"android":"levelo://app?vid=43ecfee3-d9ac-4db2-a376-3eb8da4e7fd6","ios":"levelo://app?vid=43ecfee3-d9ac-4db2-a376-3eb8da4e7fd6"},"vehicle_type_id":"4","last_reported":1747822292,"current_range_meters":800,"station_id":"ce4bhn92rcd13ifvqgrg","pricing_plan_id":"cebpf4jnsgd1na2vs0mg"},{"bike_id":"20bee342-4a3f-4f34-940d-bb6cf00d52ae","system_id":"levelo_inurba_marseille","lat":43.26667,"lon":5.38572,"is_reserved":false,"is_disabled":true,"rental_uris":{"android":"levelo://app?vid=20bee342-4a3f-4f34-940d-bb6cf00d52ae","ios":"levelo://app?vid=20bee342-4a3f-4f34-940d-bb6cf00d52ae"},"vehicle_type_id":"4","last_reported":1747822292,"current_range_meters":1200,"station_id":"","pricing_plan_id":"cebpf4jnsgd1na2vs0mg"},{"bike_id":"87b2333b-d72a-41a1-9f0f-47b8cc2e798c","system_id":"levelo_inurba_marseille","lat":43.30143,"lon":5.38071,"is_reserved":false,"is_disabled":true,"rental_uris":{"android":"levelo://app?vid=87b2333b-d72a-41a1-9f0f-47b8cc2e798c","ios":"levelo://app?vid=87b2333b-d72a-41a1-9f0f-47b8cc2e798c"},"vehicle_type_id":"4","last_reported":1747822292,"current_range_meters":1200,"station_id":"ce4bgjp2rcd13ifvqbh0","pricing_plan_id":"cebpf4jnsgd1na2vs0mg"},{"bike_id":"8513a273-92fe-4ab4-9ade-44d88d8c21e9","system_id":"levelo_inurba_marseille","lat":43.30947,"lon":5.39025,"is_reserved":false,"is_disabled":true,"rental_uris":{"android":"levelo://app?vid=8513a273-92fe-4ab4-9ade-44d88d8c21e9","ios":"levelo://app?vid=8513a273-92fe-4ab4-9ade-44d88d8c21e9"},"vehicle_type_id":"4","last_reported":1747822292,"current_range_meters":1200,"station_id":"ce4bgup2rcd13ifvqco0","pricing_plan_id":"cebpf4jnsgd1na2vs0mg"},{"bike_id":"92f14edd-135b-4474-8578-03003f2191c0","system_id":"levelo_inurba_marseille","lat":43.3116,"lon":5.3871,"is_reserved":false,"is_disabled":true,"rental_uris":{"android":"levelo://app?vid=92f14edd-135b-4474-8578-03003f2191c0","ios":"levelo://app?vid=92f14edd-135b-4474-8578-03003f2191c0"},"vehicle_type_id":"4","last_reported":1747822292,"current_range_meters":1200,"station_id":"ce4bgv12rcd13ifvqcp0","pricing_plan_id":"cebpf4jnsgd1na2vs0mg"},{"bike_id":"95077d46-792a-415e-b07c-db91ffbbd049","system_id":"levelo_inurba_marseille","lat":43.27929,"lon":5.41039,"is_reserved":false,"is_disabled":true,"rental_uris":{"android":"levelo://app?vid=95077d46-792a-415e-b07c-db91ffbbd049","ios":"levelo://app?vid=95077d46-792a-415e-b07c-db91ffbbd049"},"vehicle_type_id":"4","last_reported":1747822292,"current_range_meters":1200,"station_id":"ce4bhnp2rcd13ifvqh0g","pricing_plan_id":"cebpf4jnsgd1na2vs0mg"},{"bike_id":"2150c90f-31d5-49fd-89de-399fa134a212","system_id":"levelo_inurba_marseille","lat":43.32339,"lon":5.40623,"is_reserved":false,"is_disabled":true,"rental_uris":{"android":"levelo://app?vid=2150c90f-31d5-49fd-89de-399fa134a212","ios":"levelo://app?vid=2150c90f-31d5-49fd-89de-399fa134a212"},"vehicle_type_id":"4","last_reported":1747822292,"current_range_meters":1200,"station_id":"ce4bhq92rcd13ifvqhjg","pricing_plan_id":"cebpf4jnsgd1na2vs0mg"},{"bike_id":"06f61d0a-80e1-4ed2-9f20-f2a6e95a6399","system_id":"levelo_inurba_marseille","lat":43.33613,"lon":5.41038,"is_reserved":false,"is_disabled":true,"rental_uris":{"android":"levelo://app?vid=06f61d0a-80e1-4ed2-9f20-f2a6e95a6399","ios":"levelo://app?vid=06f61d0a-80e1-4ed2-9f20-f2a6e95a6399"},"vehicle_type_id":"4","last_reported":1747822292,"current_range_meters":1200,"station_id":"ce4bhqh2rcd13ifvqhmg","pricing_plan_id":"cebpf4jnsgd1na2vs0mg"},{"bike_id":"1c741986-0876-4520-ac61-e47cc5d5b1d3","system_id":"levelo_inurba_marseille","lat":43.321175,"lon":5.367793,"is_reserved":false,"is_disabled":true,"rental_uris":{"android":"levelo://app?vid=1c741986-0876-4520-ac61-e47cc5d5b1d3","ios":"levelo://app?vid=1c741986-0876-4520-ac61-e47cc5d5b1d3"},"vehicle_type_id":"4","last_reported":1747822292,"current_range_meters":1200,"station_id":"ce4bhrh2rcd13ifvqhug","pricing_plan_id":"cebpf4jnsgd1na2vs0mg"},{"bike_id":"edf36c37-86c1-4ce6-a47e-83c65f1f0172","system_id":"levelo_inurba_marseille","lat":43.30141,"lon":5.38058,"is_reserved":false,"is_disabled":true,"rental_uris":{"android":"levelo://app?vid=edf36c37-86c1-4ce6-a47e-83c65f1f0172","ios":"levelo://app?vid=edf36c37-86c1-4ce6-a47e-83c65f1f0172"},"vehicle_type_id":"4","last_reported":1747822292,"current_range_meters":1600,"station_id":"ce4bgjp2rcd13ifvqbh0","pricing_plan_id":"cebpf4jnsgd1na2vs0mg"},{"bike_id":"1217056f-f8d4-4ae9-b223-f16978cbfd4a","system_id":"levelo_inurba_marseille","lat":43.30944,"lon":5.39041,"is_reserved":false,"is_disabled":true,"rental_uris":{"android":"levelo://app?vid=1217056f-f8d4-4ae9-b223-f16978cbfd4a","ios":"levelo://app?vid=1217056f-f8d4-4ae9-b223-f16978cbfd4a"},"vehicle_type_id":"4","last_reported":1747822292,"current_range_meters":1600,"station_id":"ce4bgup2rcd13ifvqco0","pricing_plan_id":"cebpf4jnsgd1na2vs0mg"},{"bike_id":"cfdbf9ea-fe43-4734-b465-744a84c08df5","system_id":"levelo_inurba_marseille","lat":43.27963,"lon":5.38686,"is_reserved":false,"is_disabled":true,"rental_uris":{"android":"levelo://app?vid=cfdbf9ea-fe43-4734-b465-744a84c08df5","ios":"levelo://app?vid=cfdbf9ea-fe43-4734-b465-744a84c08df5"},"vehicle_type_id":"4","last_reported":1747822292,"current_range_meters":1600,"station_id":"ce4bhg12rcd13ifvqf80","pricing_plan_id":"cebpf4jnsgd1na2vs0mg"},{"bike_id":"e7a97274-de5c-4878-bd03-90e05b9062c1","system_id":"levelo_inurba_marseille","lat":43.267782,"lon":5.39419,"is_reserved":false,"is_disabled":false,"rental_uris":{"android":"levelo://app?vid=e7a97274-de5c-4878-bd03-90e05b9062c1","ios":"levelo://app?vid=e7a97274-de5c-4878-bd03-90e05b9062c1"},"vehicle_type_id":"4","last_reported":1747822292,"current_range_meters":1600,"station_id":"ce4bhh12rcd13ifvqfg0","pricing_plan_id":"cebpf4jnsgd1na2vs0mg"},{"bike_id":"a863f1eb-0058-4315-9365-275360febbd4","system_id":"levelo_inurba_marseille","lat":43.313503,"lon":5.3671,"is_reserved":false,"is_disabled":true,"rental_uris":{"android":"levelo://app?vid=a863f1eb-0058-4315-9365-275360febbd4","ios":"levelo://app?vid=a863f1eb-0058-4315-9365-275360febbd4"},"vehicle_type_id":"4","last_reported":1747822292,"current_range_meters":2000,"station_id":"ce4bgr92rcd13ifvqc6g","pricing_plan_id":"cebpf4jnsgd1na2vs0mg"},{"bike_id":"c1e8085f-73a5-4598-be3c-0bad91937a79","system_id":"levelo_inurba_marseille","lat":43.30543,"lon":5.36543,"is_reserved":false,"is_disabled":true,"rental_uris":{"android":"levelo://app?vid=c1e8085f-73a5-4598-be3c-0bad91937a79","ios":"levelo://app?vid=c1e8085f-73a5-4598-be3c-0bad91937a79"},"vehicle_type_id":"4","last_reported":1747822292,"current_range_meters":2000,"station_id":"ce4bgs12rcd13ifvqcag","pricing_plan_id":"cebpf4jnsgd1na2vs0mg"},{"bike_id":"0ae1d33b-6e88-4d84-91ea-9bb4b9bf9da6","system_id":"levelo_inurba_marseille","lat":43.31119,"lon":5.37774,"is_reserved":false,"is_disabled":true,"rental_uris":{"android":"levelo://app?vid=0ae1d33b-6e88-4d84-91ea-9bb4b9bf9da6","ios":"levelo://app?vid=0ae1d33b-6e88-4d84-91ea-9bb4b9bf9da6"},"vehicle_type_id":"4","last_reported":1747822292,"current_range_meters":2000,"station_id":"ce4bgt92rcd13ifvqcg0","pricing_plan_id":"cebpf4jnsgd1na2vs0mg"},{"bike_id":"33d3bbc7-12de-4e0f-8a1a-6ea61f51c09d","system_id":"levelo_inurba_marseille","lat":43.280327,"lon":5.369428,"is_reserved":false,"is_disabled":true,"rental_uris":{"android":"levelo://app?vid=33d3bbc7-12de-4e0f-8a1a-6ea61f51c09d","ios":"levelo://app?vid=33d3bbc7-12de-4e0f-8a1a-6ea61f51c09d"},"vehicle_type_id":"4","last_reported":1747822292,"current_range_meters":2000,"station_id":"ce4bha12rcd13ifvqef0","pricing_plan_id":"cebpf4jnsgd1na2vs0mg"},{"bike_id":"831301f5-18e0-4d6d-82c3-aae4f2dba01c","system_id":"levelo_inurba_marseille","lat":43.29168,"lon":5.37167,"is_reserved":false,"is_disabled":true,"rental_uris":{"android":"levelo://app?vid=831301f5-18e0-4d6d-82c3-aae4f2dba01c","ios":"levelo://app?vid=831301f5-18e0-4d6d-82c3-aae4f2dba01c"},"vehicle_type_id":"4","last_reported":1747822292,"current_range_meters":2000,"station_id":"ce4bha92rcd13ifvqeh0","pricing_plan_id":"cebpf4jnsgd1na2vs0mg"},{"bike_id":"373cfc63-d9a2-4cb0-bf36-c54410ee48c5","system_id":"levelo_inurba_marseille","lat":43.28618,"lon":5.35109,"is_reserved":false,"is_disabled":true,"rental_uris":{"android":"levelo://app?vid=373cfc63-d9a2-4cb0-bf36-c54410ee48c5","ios":"levelo://app?vid=373cfc63-d9a2-4cb0-bf36-c54410ee48c5"},"vehicle_type_id":"4","last_reported":1747822292,"current_range_meters":2000,"station_id":"ce4bhch2rcd13ifvqeug","pricing_plan_id":"cebpf4jnsgd1na2vs0mg"},{"bike_id":"00cb99e8-0d75-4db1-bcd5-27f07b38577d","system_id":"levelo_inurba_marseille","lat":43.28,"lon":5.40014,"is_reserved":false,"is_disabled":true,"rental_uris":{"android":"levelo://app?vid=00cb99e8-0d75-4db1-bcd5-27f07b38577d","ios":"levelo://app?vid=00cb99e8-0d75-4db1-bcd5-27f07b38577d"},"vehicle_type_id":"4","last_reported":1747822292,"current_range_meters":2000,"station_id":"ce4bho92rcd13ifvqh4g","pricing_plan_id":"cebpf4jnsgd1na2vs0mg"},{"bike_id":"ba59102a-6c47-4600-bcb9-76e5920c2815","system_id":"levelo_inurba_marseille","lat":43.31352,"lon":5.37199,"is_reserved":false,"is_disabled":false,"rental_uris":{"android":"levelo://app?vid=ba59102a-6c47-4600-bcb9-76e5920c2815","ios":"levelo://app?vid=ba59102a-6c47-4600-bcb9-76e5920c2815"},"vehicle_type_id":"4","last_reported":1747822292,"current_range_meters":2800,"station_id":"","pricing_plan_id":"cebpf4jnsgd1na2vs0mg"},{"bike_id":"a7fc6a62-dacb-4320-90d0-6a94a6c7f185","system_id":"levelo_inurba_marseille","lat":43.28282,"lon":5.350737,"is_reserved":false,"is_disabled":false,"rental_uris":{"android":"levelo://app?vid=a7fc6a62-dacb-4320-90d0-6a94a6c7f185","ios":"levelo://app?vid=a7fc6a62-dacb-4320-90d0-6a94a6c7f185"},"vehicle_type_id":"4","last_reported":1747822292,"current_range_meters":3200,"station_id":"ce4bhbp2rcd13ifvqerg","pricing_plan_id":"cebpf4jnsgd1na2vs0mg"},{"bike_id":"8f0f531d-6a65-4647-8a6f-baa3d982f42f","system_id":"levelo_inurba_marseille","lat":43.28108,"lon":5.42568,"is_reserved":false,"is_disabled":false,"rental_uris":{"android":"levelo://app?vid=8f0f531d-6a65-4647-8a6f-baa3d982f42f","ios":"levelo://app?vid=8f0f531d-6a65-4647-8a6f-baa3d982f42f"},"vehicle_type_id":"4","last_reported":1747822292,"current_range_meters":3600,"station_id":"","pricing_plan_id":"cebpf4jnsgd1na2vs0mg"},{"bike_id":"a5bcf3ab-5daa-4dec-898b-27b2e944e103","system_id":"levelo_inurba_marseille","lat":43.27325,"lon":5.41016,"is_reserved":false,"is_disabled":false,"rental_uris":{"android":"levelo://app?vid=a5bcf3ab-5daa-4dec-898b-27b2e944e103","ios":"levelo://app?vid=a5bcf3ab-5daa-4dec-898b-27b2e944e103"},"vehicle_type_id":"4","last_reported":1747822292,"current_range_meters":3600,"station_id":"","pricing_plan_id":"cebpf4jnsgd1na2vs0mg"},{"bike_id":"c0e29b78-5ef8-450c-9879-72f4a478f9e5","system_id":"levelo_inurba_marseille","lat":43.24426,"lon":5.37466,"is_reserved":false,"is_disabled":false,"rental_uris":{"android":"levelo://app?vid=c0e29b78-5ef8-450c-9879-72f4a478f9e5","ios":"levelo://app?vid=c0e29b78-5ef8-450c-9879-72f4a478f9e5"},"vehicle_type_id":"4","last_reported":1747822292,"current_range_meters":3600,"station_id":"","pricing_plan_id":"cebpf4jnsgd1na2vs0mg"},{"bike_id":"375ce9a5-4aaf-40c1-b099-315b5e008d6c","system_id":"levelo_inurba_marseille","lat":43.27378,"lon":5.36257,"is_reserved":false,"is_disabled":false,"rental_uris":{"android":"levelo://app?vid=375ce9a5-4aaf-40c1-b099-315b5e008d6c","ios":"levelo://app?vid=375ce9a5-4aaf-40c1-b099-315b5e008d6c"},"vehicle_type_id":"4","last_reported":1747822292,"current_range_meters":3600,"station_id":"ce4bhbh2rcd13ifvqeo0","pricing_plan_id":"cebpf4jnsgd1na2vs0mg"},{"bike_id":"eb7488ae-0193-4633-926d-0604031fec15","system_id":"levelo_inurba_marseille","lat":43.25126,"lon":5.40325,"is_reserved":false,"is_disabled":false,"rental_uris":{"android":"levelo://app?vid=eb7488ae-0193-4633-926d-0604031fec15","ios":"levelo://app?vid=eb7488ae-0193-4633-926d-0604031fec15"},"vehicle_type_id":"4","last_reported":1747822292,"current_range_meters":3600,"station_id":"ce4bhlh2rcd13ifvqgig","pricing_plan_id":"cebpf4jnsgd1na2vs0mg"},{"bike_id":"a67b1e2a-1b0c-484d-a80f-de2177d6b1fb","system_id":"levelo_inurba_marseille","lat":43.28707,"lon":5.35196,"is_reserved":false,"is_disabled":false,"rental_uris":{"android":"levelo://app?vid=a67b1e2a-1b0c-484d-a80f-de2177d6b1fb","ios":"levelo://app?vid=a67b1e2a-1b0c-484d-a80f-de2177d6b1fb"},"vehicle_type_id":"4","last_reported":1747822292,"current_range_meters":4000,"station_id":"","pricing_plan_id":"cebpf4jnsgd1na2vs0mg"},{"bike_id":"ff523201-568a-4aa4-86e2-49259a57c89e","system_id":"levelo_inurba_marseille","lat":43.28425,"lon":5.3498,"is_reserved":false,"is_disabled":false,"rental_uris":{"android":"levelo://app?vid=ff523201-568a-4aa4-86e2-49259a57c89e","ios":"levelo://app?vid=ff523201-568a-4aa4-86e2-49259a57c89e"},"vehicle_type_id":"4","last_reported":1747822292,"current_range_meters":4000,"station_id":"ce4bhbh2rcd13ifvqepg","pricing_plan_id":"cebpf4jnsgd1na2vs0mg"},{"bike_id":"1addcad7-d488-4e1c-b76c-777e91802e42","system_id":"levelo_inurba_marseille","lat":43.25087,"lon":5.39519,"is_reserved":false,"is_disabled":false,"rental_uris":{"android":"levelo://app?vid=1addcad7-d488-4e1c-b76c-777e91802e42","ios":"levelo://app?vid=1addcad7-d488-4e1c-b76c-777e91802e42"},"vehicle_type_id":"4","last_reported":1747822292,"current_range_meters":4000,"station_id":"ce4bhm12rcd13ifvqgkg","pricing_plan_id":"cebpf4jnsgd1na2vs0mg"},{"bike_id":"65ff67e9-ad15-44f6-8f0c-2a334da73254","system_id":"levelo_inurba_marseille","lat":43.28702,"lon":5.39981,"is_reserved":false,"is_disabled":false,"rental_uris":{"android":"levelo://app?vid=65ff67e9-ad15-44f6-8f0c-2a334da73254","ios":"levelo://app?vid=65ff67e9-ad15-44f6-8f0c-2a334da73254"},"vehicle_type_id":"4","last_reported":1747822292,"current_range_meters":4000,"station_id":"ce4bho92rcd13ifvqh3g","pricing_plan_id":"cebpf4jnsgd1na2vs0mg"},{"bike_id":"bfdf3105-78af-4674-ad33-edeb6ceca94c","system_id":"levelo_inurba_marseille","lat":43.322902,"lon":5.382494,"is_reserved":false,"is_disabled":false,"rental_uris":{"android":"levelo://app?vid=bfdf3105-78af-4674-ad33-edeb6ceca94c","ios":"levelo://app?vid=bfdf3105-78af-4674-ad33-edeb6ceca94c"},"vehicle_type_id":"4","last_reported":1747822292,"current_range_meters":4000,"station_id":"ce4bhr12rcd13ifvqhqg","pricing_plan_id":"cebpf4jnsgd1na2vs0mg"},{"bike_id":"10f82511-78f9-4537-a4e3-3c8c0ce14ef4","system_id":"levelo_inurba_marseille","lat":43.32486,"lon":5.36556,"is_reserved":false,"is_disabled":false,"rental_uris":{"android":"levelo://app?vid=10f82511-78f9-4537-a4e3-3c8c0ce14ef4","ios":"levelo://app?vid=10f82511-78f9-4537-a4e3-3c8c0ce14ef4"},"vehicle_type_id":"4","last_reported":1747822292,"current_range_meters":4000,"station_id":"ce4bhs12rcd13ifvqhvg","pricing_plan_id":"cebpf4jnsgd1na2vs0mg"},{"bike_id":"a6a79777-8e26-46b0-be40-2e589b0e5a0f","system_id":"levelo_inurba_marseille","lat":43.211904,"lon":5.350703,"is_reserved":false,"is_disabled":false,"rental_uris":{"android":"levelo://app?vid=a6a79777-8e26-46b0-be40-2e589b0e5a0f","ios":"levelo://app?vid=a6a79777-8e26-46b0-be40-2e589b0e5a0f"},"vehicle_type_id":"4","last_reported":1747822292,"current_range_meters":4400,"station_id":"st_cvj6sg6p6f1abm77japg","pricing_plan_id":"cebpf4jnsgd1na2vs0mg"},{"bike_id":"85eaca89-9437-48d0-9bca-a254337b88db","system_id":"levelo_inurba_marseille","lat":43.27448,"lon":5.40982,"is_reserved":false,"is_disabled":false,"rental_uris":{"android":"levelo://app?vid=85eaca89-9437-48d0-9bca-a254337b88db","ios":"levelo://app?vid=85eaca89-9437-48d0-9bca-a254337b88db"},"vehicle_type_id":"4","last_reported":1747822292,"current_range_meters":4800,"station_id":"","pricing_plan_id":"cebpf4jnsgd1na2vs0mg"},{"bike_id":"b64d0cd7-0e16-4be3-9262-9f2e6a55838e","system_id":"levelo_inurba_marseille","lat":43.290113,"lon":5.38145,"is_reserved":false,"is_disabled":false,"rental_uris":{"android":"levelo://app?vid=b64d0cd7-0e16-4be3-9262-9f2e6a55838e","ios":"levelo://app?vid=b64d0cd7-0e16-4be3-9262-9f2e6a55838e"},"vehicle_type_id":"4","last_reported":1747822292,"current_range_meters":4800,"station_id":"ce4bh4p2rcd13ifvqe1g","pricing_plan_id":"cebpf4jnsgd1na2vs0mg"},{"bike_id":"35f4f27b-865c-4da1-9bad-e26db9f7ba5f","system_id":"levelo_inurba_marseille","lat":43.25584,"lon":5.38229,"is_reserved":false,"is_disabled":false,"rental_uris":{"android":"levelo://app?vid=35f4f27b-865c-4da1-9bad-e26db9f7ba5f","ios":"levelo://app?vid=35f4f27b-865c-4da1-9bad-e26db9f7ba5f"},"vehicle_type_id":"4","last_reported":1747822292,"current_range_meters":4800,"station_id":"ce4bhih2rcd13ifvqfs0","pricing_plan_id":"cebpf4jnsgd1na2vs0mg"},{"bike_id":"8a77c670-a7af-4ac0-9918-4e6c1c91e962","system_id":"levelo_inurba_marseille","lat":43.25085,"lon":5.39511,"is_reserved":false,"is_disabled":false,"rental_uris":{"android":"levelo://app?vid=8a77c670-a7af-4ac0-9918-4e6c1c91e962","ios":"levelo://app?vid=8a77c670-a7af-4ac0-9918-4e6c1c91e962"},"vehicle_type_id":"4","last_reported":1747822292,"current_range_meters":4800,"station_id":"ce4bhm12rcd13ifvqgkg","pricing_plan_id":"cebpf4jnsgd1na2vs0mg"},{"bike_id":"347ca563-6d36-422d-8530-aa8fc2225d46","system_id":"levelo_inurba_marseille","lat":43.31083,"lon":5.42431,"is_reserved":false,"is_disabled":false,"rental_uris":{"android":"levelo://app?vid=347ca563-6d36-422d-8530-aa8fc2225d46","ios":"levelo://app?vid=347ca563-6d36-422d-8530-aa8fc2225d46"},"vehicle_type_id":"4","last_reported":1747822292,"current_range_meters":4800,"station_id":"ce4bhp92rcd13ifvqhag","pricing_plan_id":"cebpf4jnsgd1na2vs0mg"},{"bike_id":"c732859b-99a5-4e91-991e-ac72994c5ecf","system_id":"levelo_inurba_marseille","lat":43.29258,"lon":5.38441,"is_reserved":false,"is_disabled":false,"rental_uris":{"android":"levelo://app?vid=c732859b-99a5-4e91-991e-ac72994c5ecf","ios":"levelo://app?vid=c732859b-99a5-4e91-991e-ac72994c5ecf"},"vehicle_type_id":"4","last_reported":1747822292,"current_range_meters":5600,"station_id":"ce4bh692rcd13ifvqea0","pricing_plan_id":"cebpf4jnsgd1na2vs0mg"},{"bike_id":"e56f1a64-39cf-4e55-abea-55d5552636bd","system_id":"levelo_inurba_marseille","lat":43.28041,"lon":5.36954,"is_reserved":false,"is_disabled":false,"rental_uris":{"android":"levelo://app?vid=e56f1a64-39cf-4e55-abea-55d5552636bd","ios":"levelo://app?vid=e56f1a64-39cf-4e55-abea-55d5552636bd"},"vehicle_type_id":"4","last_reported":1747822292,"current_range_meters":5600,"station_id":"ce4bha12rcd13ifvqef0","pricing_plan_id":"cebpf4jnsgd1na2vs0mg"},{"bike_id":"b874b83b-718f-4cac-b5c3-f2bdb64b5789","system_id":"levelo_inurba_marseille","lat":43.28618,"lon":5.3511,"is_reserved":false,"is_disabled":false,"rental_uris":{"android":"levelo://app?vid=b874b83b-718f-4cac-b5c3-f2bdb64b5789","ios":"levelo://app?vid=b874b83b-718f-4cac-b5c3-f2bdb64b5789"},"vehicle_type_id":"4","last_reported":1747822292,"current_range_meters":5600,"station_id":"ce4bhch2rcd13ifvqeug","pricing_plan_id":"cebpf4jnsgd1na2vs0mg"},{"bike_id":"d1b4589a-7c49-4dbd-86c1-6d0edccb851e","system_id":"levelo_inurba_marseille","lat":43.26555,"lon":5.37283,"is_reserved":false,"is_disabled":false,"rental_uris":{"android":"levelo://app?vid=d1b4589a-7c49-4dbd-86c1-6d0edccb851e","ios":"levelo://app?vid=d1b4589a-7c49-4dbd-86c1-6d0edccb851e"},"vehicle_type_id":"4","last_reported":1747822292,"current_range_meters":5600,"station_id":"ce4bhg12rcd13ifvqf70","pricing_plan_id":"cebpf4jnsgd1na2vs0mg"},{"bike_id":"25237339-253a-44e5-ab01-1cb4797f99d2","system_id":"levelo_inurba_marseille","lat":43.23154,"lon":5.4371,"is_reserved":false,"is_disabled":false,"rental_uris":{"android":"levelo://app?vid=25237339-253a-44e5-ab01-1cb4797f99d2","ios":"levelo://app?vid=25237339-253a-44e5-ab01-1cb4797f99d2"},"vehicle_type_id":"4","last_reported":1747822292,"current_range_meters":6000,"station_id":"ce4bhmp2rcd13ifvqgog","pricing_plan_id":"cebpf4jnsgd1na2vs0mg"},{"bike_id":"d432b018-2a72-4f2c-9393-4b986dc48fc9","system_id":"levelo_inurba_marseille","lat":43.28075,"lon":5.39662,"is_reserved":false,"is_disabled":false,"rental_uris":{"android":"levelo://app?vid=d432b018-2a72-4f2c-9393-4b986dc48fc9","ios":"levelo://app?vid=d432b018-2a72-4f2c-9393-4b986dc48fc9"},"vehicle_type_id":"4","last_reported":1747822292,"current_range_meters":6000,"station_id":"ce4bho12rcd13ifvqh2g","pricing_plan_id":"cebpf4jnsgd1na2vs0mg"},{"bike_id":"165d67e7-7820-413e-9335-5112e6b2d1ca","system_id":"levelo_inurba_marseille","lat":43.326733,"lon":5.40966,"is_reserved":false,"is_disabled":false,"rental_uris":{"android":"levelo://app?vid=165d67e7-7820-413e-9335-5112e6b2d1ca","ios":"levelo://app?vid=165d67e7-7820-413e-9335-5112e6b2d1ca"},"vehicle_type_id":"4","last_reported":1747822292,"current_range_meters":6400,"station_id":"ce4bhpp2rcd13ifvqhgg","pricing_plan_id":"cebpf4jnsgd1na2vs0mg"},{"bike_id":"bffbaf88-357a-4e87-a68c-a9a27a6e01e6","system_id":"levelo_inurba_marseille","lat":43.26222,"lon":5.42114,"is_reserved":false,"is_disabled":false,"rental_uris":{"android":"levelo://app?vid=bffbaf88-357a-4e87-a68c-a9a27a6e01e6","ios":"levelo://app?vid=bffbaf88-357a-4e87-a68c-a9a27a6e01e6"},"vehicle_type_id":"4","last_reported":1747822292,"current_range_meters":6800,"station_id":"","pricing_plan_id":"cebpf4jnsgd1na2vs0mg"},{"bike_id":"d0b6d1e3-af36-4bf3-b60f-31bf11e9159a","system_id":"levelo_inurba_marseille","lat":43.29863,"lon":5.36275,"is_reserved":false,"is_disabled":false,"rental_uris":{"android":"levelo://app?vid=d0b6d1e3-af36-4bf3-b60f-31bf11e9159a","ios":"levelo://app?vid=d0b6d1e3-af36-4bf3-b60f-31bf11e9159a"},"vehicle_type_id":"4","last_reported":1747822292,"current_range_meters":6800,"station_id":"ce4bgpp2rcd13ifvqc3g","pricing_plan_id":"cebpf4jnsgd1na2vs0mg"},{"bike_id":"2780fc2f-51a1-4c04-9c79-fa28f5dacfa6","system_id":"levelo_inurba_marseille","lat":43.28716,"lon":5.39989,"is_reserved":false,"is_disabled":false,"rental_uris":{"android":"levelo://app?vid=2780fc2f-51a1-4c04-9c79-fa28f5dacfa6","ios":"levelo://app?vid=2780fc2f-51a1-4c04-9c79-fa28f5dacfa6"},"vehicle_type_id":"4","last_reported":1747822292,"current_range_meters":6800,"station_id":"ce4bho92rcd13ifvqh3g","pricing_plan_id":"cebpf4jnsgd1na2vs0mg"},{"bike_id":"1f0cf0c3-c867-45ef-b018-4a981b6f0df1","system_id":"levelo_inurba_marseille","lat":43.31354,"lon":5.38495,"is_reserved":false,"is_disabled":false,"rental_uris":{"android":"levelo://app?vid=1f0cf0c3-c867-45ef-b018-4a981b6f0df1","ios":"levelo://app?vid=1f0cf0c3-c867-45ef-b018-4a981b6f0df1"},"vehicle_type_id":"4","last_reported":1747822292,"current_range_meters":7200,"station_id":"ce4bgt92rcd13ifvqcf0","pricing_plan_id":"cebpf4jnsgd1na2vs0mg"},{"bike_id":"7a0a9bd8-151b-4ce8-94fd-75f50423dcb3","system_id":"levelo_inurba_marseille","lat":43.31358,"lon":5.38492,"is_reserved":false,"is_disabled":false,"rental_uris":{"android":"levelo://app?vid=7a0a9bd8-151b-4ce8-94fd-75f50423dcb3","ios":"levelo://app?vid=7a0a9bd8-151b-4ce8-94fd-75f50423dcb3"},"vehicle_type_id":"4","last_reported":1747822292,"current_range_meters":7200,"station_id":"ce4bgt92rcd13ifvqcf0","pricing_plan_id":"cebpf4jnsgd1na2vs0mg"},{"bike_id":"a1fd970b-aee3-4946-80e3-428b586f6092","system_id":"levelo_inurba_marseille","lat":43.27425,"lon":5.39413,"is_reserved":false,"is_disabled":false,"rental_uris":{"android":"levelo://app?vid=a1fd970b-aee3-4946-80e3-428b586f6092","ios":"levelo://app?vid=a1fd970b-aee3-4946-80e3-428b586f6092"},"vehicle_type_id":"4","last_reported":1747822292,"current_range_meters":7200,"station_id":"ce4bhdp2rcd13ifvqf20","pricing_plan_id":"cebpf4jnsgd1na2vs0mg"},{"bike_id":"c75716b2-0378-4c34-ab41-b6e79d64159e","system_id":"levelo_inurba_marseille","lat":43.25582,"lon":5.38225,"is_reserved":false,"is_disabled":false,"rental_uris":{"android":"levelo://app?vid=c75716b2-0378-4c34-ab41-b6e79d64159e","ios":"levelo://app?vid=c75716b2-0378-4c34-ab41-b6e79d64159e"},"vehicle_type_id":"4","last_reported":1747822292,"current_range_meters":7200,"station_id":"ce4bhih2rcd13ifvqfs0","pricing_plan_id":"cebpf4jnsgd1na2vs0mg"},{"bike_id":"1c0d4498-0de9-4c0e-b11f-6f5a085faac8","system_id":"levelo_inurba_marseille","lat":43.27058,"lon":5.40253,"is_reserved":false,"is_disabled":false,"rental_uris":{"android":"levelo://app?vid=1c0d4498-0de9-4c0e-b11f-6f5a085faac8","ios":"levelo://app?vid=1c0d4498-0de9-4c0e-b11f-6f5a085faac8"},"vehicle_type_id":"4","last_reported":1747822292,"current_range_meters":7200,"station_id":"ce4bhk92rcd13ifvqgc0","pricing_plan_id":"cebpf4jnsgd1na2vs0mg"},{"bike_id":"aaed6d56-8e6c-4be8-b9ea-1de555c2f33c","system_id":"levelo_inurba_marseille","lat":43.23141,"lon":5.43687,"is_reserved":false,"is_disabled":false,"rental_uris":{"android":"levelo://app?vid=aaed6d56-8e6c-4be8-b9ea-1de555c2f33c","ios":"levelo://app?vid=aaed6d56-8e6c-4be8-b9ea-1de555c2f33c"},"vehicle_type_id":"4","last_reported":1747822292,"current_range_meters":7200,"station_id":"ce4bhmp2rcd13ifvqgog","pricing_plan_id":"cebpf4jnsgd1na2vs0mg"},{"bike_id":"71e146ad-5169-4dc5-a288-c7c746aad618","system_id":"levelo_inurba_marseille","lat":43.23058,"lon":5.35496,"is_reserved":false,"is_disabled":false,"rental_uris":{"android":"levelo://app?vid=71e146ad-5169-4dc5-a288-c7c746aad618","ios":"levelo://app?vid=71e146ad-5169-4dc5-a288-c7c746aad618"},"vehicle_type_id":"4","last_reported":1747822292,"current_range_meters":8000,"station_id":"","pricing_plan_id":"cebpf4jnsgd1na2vs0mg"},{"bike_id":"b8b511c7-6f48-45be-97af-1e0036b54cc5","system_id":"levelo_inurba_marseille","lat":43.27357,"lon":5.42388,"is_reserved":false,"is_disabled":false,"rental_uris":{"android":"levelo://app?vid=b8b511c7-6f48-45be-97af-1e0036b54cc5","ios":"levelo://app?vid=b8b511c7-6f48-45be-97af-1e0036b54cc5"},"vehicle_type_id":"4","last_reported":1747822292,"current_range_meters":8000,"station_id":"","pricing_plan_id":"cebpf4jnsgd1na2vs0mg"},{"bike_id":"119414dd-a64a-482e-b0a3-d8cde5e6007d","system_id":"levelo_inurba_marseille","lat":43.27815,"lon":5.40727,"is_reserved":false,"is_disabled":false,"rental_uris":{"android":"levelo://app?vid=119414dd-a64a-482e-b0a3-d8cde5e6007d","ios":"levelo://app?vid=119414dd-a64a-482e-b0a3-d8cde5e6007d"},"vehicle_type_id":"4","last_reported":1747822292,"current_range_meters":8000,"station_id":"ce4bhnh2rcd13ifvqgtg","pricing_plan_id":"cebpf4jnsgd1na2vs0mg"},{"bike_id":"e8162579-a5ad-485f-ad83-fec8a2ebe7e1","system_id":"levelo_inurba_marseille","lat":43.26826,"lon":5.39099,"is_reserved":false,"is_disabled":false,"rental_uris":{"android":"levelo://app?vid=e8162579-a5ad-485f-ad83-fec8a2ebe7e1","ios":"levelo://app?vid=e8162579-a5ad-485f-ad83-fec8a2ebe7e1"},"vehicle_type_id":"4","last_reported":1747822292,"current_range_meters":8400,"station_id":"","pricing_plan_id":"cebpf4jnsgd1na2vs0mg"},{"bike_id":"7b90bbd6-6b9c-4f18-86e7-55e5e43c995c","system_id":"levelo_inurba_marseille","lat":43.26116,"lon":5.41469,"is_reserved":false,"is_disabled":false,"rental_uris":{"android":"levelo://app?vid=7b90bbd6-6b9c-4f18-86e7-55e5e43c995c","ios":"levelo://app?vid=7b90bbd6-6b9c-4f18-86e7-55e5e43c995c"},"vehicle_type_id":"4","last_reported":1747822292,"current_range_meters":8400,"station_id":"","pricing_plan_id":"cebpf4jnsgd1na2vs0mg"},{"bike_id":"40fda01c-c07a-44ad-81f0-d700ef8e8c86","system_id":"levelo_inurba_marseille","lat":43.28283,"lon":5.35097,"is_reserved":false,"is_disabled":false,"rental_uris":{"android":"levelo://app?vid=40fda01c-c07a-44ad-81f0-d700ef8e8c86","ios":"levelo://app?vid=40fda01c-c07a-44ad-81f0-d700ef8e8c86"},"vehicle_type_id":"4","last_reported":1747822292,"current_range_meters":8400,"station_id":"ce4bhbp2rcd13ifvqerg","pricing_plan_id":"cebpf4jnsgd1na2vs0mg"},{"bike_id":"3dc4318f-075b-4099-a95b-b1cec4531103","system_id":"levelo_inurba_marseille","lat":43.25497,"lon":5.37646,"is_reserved":false,"is_disabled":false,"rental_uris":{"android":"levelo://app?vid=3dc4318f-075b-4099-a95b-b1cec4531103","ios":"levelo://app?vid=3dc4318f-075b-4099-a95b-b1cec4531103"},"vehicle_type_id":"4","last_reported":1747822292,"current_range_meters":8400,"station_id":"ce4bhh12rcd13ifvqff0","pricing_plan_id":"cebpf4jnsgd1na2vs0mg"},{"bike_id":"2d46557d-e26e-456a-b15f-cfc9aa876f37","system_id":"levelo_inurba_marseille","lat":43.24395,"lon":5.37052,"is_reserved":false,"is_disabled":false,"rental_uris":{"android":"levelo://app?vid=2d46557d-e26e-456a-b15f-cfc9aa876f37","ios":"levelo://app?vid=2d46557d-e26e-456a-b15f-cfc9aa876f37"},"vehicle_type_id":"4","last_reported":1747822292,"current_range_meters":8400,"station_id":"ce4bhhh2rcd13ifvqfk0","pricing_plan_id":"cebpf4jnsgd1na2vs0mg"},{"bike_id":"56847ead-db17-4b72-bcfc-c9648336eca4","system_id":"levelo_inurba_marseille","lat":43.27998,"lon":5.41659,"is_reserved":false,"is_disabled":false,"rental_uris":{"android":"levelo://app?vid=56847ead-db17-4b72-bcfc-c9648336eca4","ios":"levelo://app?vid=56847ead-db17-4b72-bcfc-c9648336eca4"},"vehicle_type_id":"4","last_reported":1747822292,"current_range_meters":8400,"station_id":"ce4bho12rcd13ifvqh1g","pricing_plan_id":"cebpf4jnsgd1na2vs0mg"},{"bike_id":"1c1345fe-714e-4c02-b2b9-a549c7b5fb19","system_id":"levelo_inurba_marseille","lat":43.32478,"lon":5.3656,"is_reserved":false,"is_disabled":false,"rental_uris":{"android":"levelo://app?vid=1c1345fe-714e-4c02-b2b9-a549c7b5fb19","ios":"levelo://app?vid=1c1345fe-714e-4c02-b2b9-a549c7b5fb19"},"vehicle_type_id":"4","last_reported":1747822292,"current_range_meters":8400,"station_id":"ce4bhs12rcd13ifvqhvg","pricing_plan_id":"cebpf4jnsgd1na2vs0mg"},{"bike_id":"3552fbf2-b43a-446f-93f5-d695fc251b73","system_id":"levelo_inurba_marseille","lat":43.25189,"lon":5.37498,"is_reserved":false,"is_disabled":false,"rental_uris":{"android":"levelo://app?vid=3552fbf2-b43a-446f-93f5-d695fc251b73","ios":"levelo://app?vid=3552fbf2-b43a-446f-93f5-d695fc251b73"},"vehicle_type_id":"4","last_reported":1747822292,"current_range_meters":8800,"station_id":"","pricing_plan_id":"cebpf4jnsgd1na2vs0mg"},{"bike_id":"c65a791a-5e5c-4c9b-939f-ea06ef898429","system_id":"levelo_inurba_marseille","lat":43.31317,"lon":5.36647,"is_reserved":false,"is_disabled":false,"rental_uris":{"android":"levelo://app?vid=c65a791a-5e5c-4c9b-939f-ea06ef898429","ios":"levelo://app?vid=c65a791a-5e5c-4c9b-939f-ea06ef898429"},"vehicle_type_id":"4","last_reported":1747822292,"current_range_meters":8800,"station_id":"","pricing_plan_id":"cebpf4jnsgd1na2vs0mg"},{"bike_id":"15fece08-8fc5-430f-a21c-4d8a316b0217","system_id":"levelo_inurba_marseille","lat":43.23965,"lon":5.36628,"is_reserved":false,"is_disabled":false,"rental_uris":{"android":"levelo://app?vid=15fece08-8fc5-430f-a21c-4d8a316b0217","ios":"levelo://app?vid=15fece08-8fc5-430f-a21c-4d8a316b0217"},"vehicle_type_id":"4","last_reported":1747822292,"current_range_meters":8800,"station_id":"ce4bhi12rcd13ifvqfp0","pricing_plan_id":"cebpf4jnsgd1na2vs0mg"},{"bike_id":"5d70566b-38ec-4494-b254-63b30c65efa7","system_id":"levelo_inurba_marseille","lat":43.23147,"lon":5.4371,"is_reserved":false,"is_disabled":false,"rental_uris":{"android":"levelo://app?vid=5d70566b-38ec-4494-b254-63b30c65efa7","ios":"levelo://app?vid=5d70566b-38ec-4494-b254-63b30c65efa7"},"vehicle_type_id":"4","last_reported":1747822292,"current_range_meters":8800,"station_id":"ce4bhmp2rcd13ifvqgog","pricing_plan_id":"cebpf4jnsgd1na2vs0mg"},{"bike_id":"dc80936a-51b4-4ef9-b71e-e259b58f2ac3","system_id":"levelo_inurba_marseille","lat":43.28582,"lon":5.38739,"is_reserved":false,"is_disabled":false,"rental_uris":{"android":"levelo://app?vid=dc80936a-51b4-4ef9-b71e-e259b58f2ac3","ios":"levelo://app?vid=dc80936a-51b4-4ef9-b71e-e259b58f2ac3"},"vehicle_type_id":"4","last_reported":1747822292,"current_range_meters":9200,"station_id":"","pricing_plan_id":"cebpf4jnsgd1na2vs0mg"},{"bike_id":"dcf12b73-46a2-4523-ab4f-f1278d39a386","system_id":"levelo_inurba_marseille","lat":43.3135,"lon":5.36712,"is_reserved":false,"is_disabled":false,"rental_uris":{"android":"levelo://app?vid=dcf12b73-46a2-4523-ab4f-f1278d39a386","ios":"levelo://app?vid=dcf12b73-46a2-4523-ab4f-f1278d39a386"},"vehicle_type_id":"4","last_reported":1747822292,"current_range_meters":9200,"station_id":"ce4bgr92rcd13ifvqc6g","pricing_plan_id":"cebpf4jnsgd1na2vs0mg"},{"bike_id":"fec117ec-9404-42aa-941c-12549d9ba573","system_id":"levelo_inurba_marseille","lat":43.26193,"lon":5.37447,"is_reserved":false,"is_disabled":false,"rental_uris":{"android":"levelo://app?vid=fec117ec-9404-42aa-941c-12549d9ba573","ios":"levelo://app?vid=fec117ec-9404-42aa-941c-12549d9ba573"},"vehicle_type_id":"4","last_reported":1747822292,"current_range_meters":9200,"station_id":"ce4bhgp2rcd13ifvqfc0","pricing_plan_id":"cebpf4jnsgd1na2vs0mg"},{"bike_id":"66d4e9cd-9695-49a4-b984-57f37a2f36ae","system_id":"levelo_inurba_marseille","lat":43.23164,"lon":5.43712,"is_reserved":false,"is_disabled":false,"rental_uris":{"android":"levelo://app?vid=66d4e9cd-9695-49a4-b984-57f37a2f36ae","ios":"levelo://app?vid=66d4e9cd-9695-49a4-b984-57f37a2f36ae"},"vehicle_type_id":"4","last_reported":1747822292,"current_range_meters":9200,"station_id":"ce4bhmp2rcd13ifvqgog","pricing_plan_id":"cebpf4jnsgd1na2vs0mg"},{"bike_id":"1ff4dd87-bf56-4ab1-8365-aad71fcb827c","system_id":"levelo_inurba_marseille","lat":43.316076,"lon":5.423906,"is_reserved":false,"is_disabled":false,"rental_uris":{"android":"levelo://app?vid=1ff4dd87-bf56-4ab1-8365-aad71fcb827c","ios":"levelo://app?vid=1ff4dd87-bf56-4ab1-8365-aad71fcb827c"},"vehicle_type_id":"4","last_reported":1747822292,"current_range_meters":9200,"station_id":"ce4bhp92rcd13ifvqhbg","pricing_plan_id":"cebpf4jnsgd1na2vs0mg"},{"bike_id":"0c59289b-fdb3-4fcd-a580-bc617f9eb9a0","system_id":"levelo_inurba_marseille","lat":43.336059,"lon":5.410239,"is_reserved":false,"is_disabled":false,"rental_uris":{"android":"levelo://app?vid=0c59289b-fdb3-4fcd-a580-bc617f9eb9a0","ios":"levelo://app?vid=0c59289b-fdb3-4fcd-a580-bc617f9eb9a0"},"vehicle_type_id":"4","last_reported":1747822292,"current_range_meters":9200,"station_id":"ce4bhqh2rcd13ifvqhmg","pricing_plan_id":"cebpf4jnsgd1na2vs0mg"},{"bike_id":"04a855ad-0644-4c7d-8853-a42a8be1f9ed","system_id":"levelo_inurba_marseille","lat":43.273582,"lon":5.424178,"is_reserved":false,"is_disabled":false,"rental_uris":{"android":"levelo://app?vid=04a855ad-0644-4c7d-8853-a42a8be1f9ed","ios":"levelo://app?vid=04a855ad-0644-4c7d-8853-a42a8be1f9ed"},"vehicle_type_id":"4","last_reported":1747822292,"current_range_meters":9600,"station_id":"","pricing_plan_id":"cebpf4jnsgd1na2vs0mg"},{"bike_id":"e946018a-2fcf-4566-b979-81594d8e2df7","system_id":"levelo_inurba_marseille","lat":43.29526,"lon":5.38551,"is_reserved":false,"is_disabled":false,"rental_uris":{"android":"levelo://app?vid=e946018a-2fcf-4566-b979-81594d8e2df7","ios":"levelo://app?vid=e946018a-2fcf-4566-b979-81594d8e2df7"},"vehicle_type_id":"4","last_reported":1747822292,"current_range_meters":9600,"station_id":"ce4bgih2rcd13ifvqba0","pricing_plan_id":"cebpf4jnsgd1na2vs0mg"},{"bike_id":"1936f065-0fe4-4de9-ba39-8f68be84c196","system_id":"levelo_inurba_marseille","lat":43.29977,"lon":5.37171,"is_reserved":false,"is_disabled":false,"rental_uris":{"android":"levelo://app?vid=1936f065-0fe4-4de9-ba39-8f68be84c196","ios":"levelo://app?vid=1936f065-0fe4-4de9-ba39-8f68be84c196"},"vehicle_type_id":"4","last_reported":1747822292,"current_range_meters":9600,"station_id":"ce4bgr92rcd13ifvqc7g","pricing_plan_id":"cebpf4jnsgd1na2vs0mg"},{"bike_id":"77fa3ba5-4ebc-456f-a5e5-2e256982b936","system_id":"levelo_inurba_marseille","lat":43.26209,"lon":5.37442,"is_reserved":false,"is_disabled":false,"rental_uris":{"android":"levelo://app?vid=77fa3ba5-4ebc-456f-a5e5-2e256982b936","ios":"levelo://app?vid=77fa3ba5-4ebc-456f-a5e5-2e256982b936"},"vehicle_type_id":"4","last_reported":1747822292,"current_range_meters":9600,"station_id":"ce4bhgp2rcd13ifvqfc0","pricing_plan_id":"cebpf4jnsgd1na2vs0mg"},{"bike_id":"c3c11b11-8507-45b4-bd48-1e3bdd46fbbe","system_id":"levelo_inurba_marseille","lat":43.23178,"lon":5.39983,"is_reserved":false,"is_disabled":false,"rental_uris":{"android":"levelo://app?vid=c3c11b11-8507-45b4-bd48-1e3bdd46fbbe","ios":"levelo://app?vid=c3c11b11-8507-45b4-bd48-1e3bdd46fbbe"},"vehicle_type_id":"4","last_reported":1747822292,"current_range_meters":9600,"station_id":"ce4bhn12rcd13ifvqgqg","pricing_plan_id":"cebpf4jnsgd1na2vs0mg"},{"bike_id":"360b0756-bb1f-49c9-9b44-5ad1edee7b38","system_id":"levelo_inurba_marseille","lat":43.27504,"lon":5.42448,"is_reserved":false,"is_disabled":false,"rental_uris":{"android":"levelo://app?vid=360b0756-bb1f-49c9-9b44-5ad1edee7b38","ios":"levelo://app?vid=360b0756-bb1f-49c9-9b44-5ad1edee7b38"},"vehicle_type_id":"4","last_reported":1747822292,"current_range_meters":9600,"station_id":"ce4bhn92rcd13ifvqgrg","pricing_plan_id":"cebpf4jnsgd1na2vs0mg"},{"bike_id":"4133a69a-1206-417e-b5a9-a5b6f4ea7587","system_id":"levelo_inurba_marseille","lat":43.288561,"lon":5.393091,"is_reserved":false,"is_disabled":false,"rental_uris":{"android":"levelo://app?vid=4133a69a-1206-417e-b5a9-a5b6f4ea7587","ios":"levelo://app?vid=4133a69a-1206-417e-b5a9-a5b6f4ea7587"},"vehicle_type_id":"4","last_reported":1747822292,"current_range_meters":10000,"station_id":"ce4bh2p2rcd13ifvqdi0","pricing_plan_id":"cebpf4jnsgd1na2vs0mg"},{"bike_id":"af4e87b2-1020-430c-b28e-4591beadf001","system_id":"levelo_inurba_marseille","lat":43.24665,"lon":5.38168,"is_reserved":false,"is_disabled":false,"rental_uris":{"android":"levelo://app?vid=af4e87b2-1020-430c-b28e-4591beadf001","ios":"levelo://app?vid=af4e87b2-1020-430c-b28e-4591beadf001"},"vehicle_type_id":"4","last_reported":1747822292,"current_range_meters":10000,"station_id":"ce4bhih2rcd13ifvqfr0","pricing_plan_id":"cebpf4jnsgd1na2vs0mg"},{"bike_id":"6fa2a045-306c-4146-823c-182cbdf87330","system_id":"levelo_inurba_marseille","lat":43.23186,"lon":5.39989,"is_reserved":false,"is_disabled":false,"rental_uris":{"android":"levelo://app?vid=6fa2a045-306c-4146-823c-182cbdf87330","ios":"levelo://app?vid=6fa2a045-306c-4146-823c-182cbdf87330"},"vehicle_type_id":"4","last_reported":1747822292,"current_range_meters":10000,"station_id":"ce4bhn12rcd13ifvqgqg","pricing_plan_id":"cebpf4jnsgd1na2vs0mg"},{"bike_id":"2f34c329-54fe-438b-a307-b47c6ac8481c","system_id":"levelo_inurba_marseille","lat":43.29905,"lon":5.43661,"is_reserved":false,"is_disabled":false,"rental_uris":{"android":"levelo://app?vid=2f34c329-54fe-438b-a307-b47c6ac8481c","ios":"levelo://app?vid=2f34c329-54fe-438b-a307-b47c6ac8481c"},"vehicle_type_id":"4","last_reported":1747822292,"current_range_meters":10000,"station_id":"ce4bhpp2rcd13ifvqhfg","pricing_plan_id":"cebpf4jnsgd1na2vs0mg"},{"bike_id":"bba5debf-b39a-40b8-b406-5d120e8cc462","system_id":"levelo_inurba_marseille","lat":43.29193,"lon":5.35802,"is_reserved":false,"is_disabled":false,"rental_uris":{"android":"levelo://app?vid=bba5debf-b39a-40b8-b406-5d120e8cc462","ios":"levelo://app?vid=bba5debf-b39a-40b8-b406-5d120e8cc462"},"vehicle_type_id":"4","last_reported":1747822292,"current_range_meters":10800,"station_id":"ce4bhb12rcd13ifvqel0","pricing_plan_id":"cebpf4jnsgd1na2vs0mg"},{"bike_id":"1df42cc4-ca0d-46b2-9f71-092b4713b502","system_id":"levelo_inurba_marseille","lat":43.290058,"lon":5.356109,"is_reserved":false,"is_disabled":false,"rental_uris":{"android":"levelo://app?vid=1df42cc4-ca0d-46b2-9f71-092b4713b502","ios":"levelo://app?vid=1df42cc4-ca0d-46b2-9f71-092b4713b502"},"vehicle_type_id":"4","last_reported":1747822292,"current_range_meters":10800,"station_id":"ce4bhb92rcd13ifvqen0","pricing_plan_id":"cebpf4jnsgd1na2vs0mg"},{"bike_id":"738d422a-e7cc-489e-9c51-560411a1c463","system_id":"levelo_inurba_marseille","lat":43.28412,"lon":5.34983,"is_reserved":false,"is_disabled":false,"rental_uris":{"android":"levelo://app?vid=738d422a-e7cc-489e-9c51-560411a1c463","ios":"levelo://app?vid=738d422a-e7cc-489e-9c51-560411a1c463"},"vehicle_type_id":"4","last_reported":1747822292,"current_range_meters":10800,"station_id":"ce4bhbh2rcd13ifvqepg","pricing_plan_id":"cebpf4jnsgd1na2vs0mg"},{"bike_id":"c2b36c6e-6850-4767-9aeb-3784cc866fbb","system_id":"levelo_inurba_marseille","lat":43.24179,"lon":5.39732,"is_reserved":false,"is_disabled":false,"rental_uris":{"android":"levelo://app?vid=c2b36c6e-6850-4767-9aeb-3784cc866fbb","ios":"levelo://app?vid=c2b36c6e-6850-4767-9aeb-3784cc866fbb"},"vehicle_type_id":"4","last_reported":1747822292,"current_range_meters":10800,"station_id":"ce4bhn12rcd13ifvqgpg","pricing_plan_id":"cebpf4jnsgd1na2vs0mg"},{"bike_id":"cc0fb06d-3123-4c4a-a92a-ea0e657a9677","system_id":"levelo_inurba_marseille","lat":43.27501,"lon":5.42455,"is_reserved":false,"is_disabled":false,"rental_uris":{"android":"levelo://app?vid=cc0fb06d-3123-4c4a-a92a-ea0e657a9677","ios":"levelo://app?vid=cc0fb06d-3123-4c4a-a92a-ea0e657a9677"},"vehicle_type_id":"4","last_reported":1747822292,"current_range_meters":10800,"station_id":"ce4bhn92rcd13ifvqgrg","pricing_plan_id":"cebpf4jnsgd1na2vs0mg"},{"bike_id":"c06c87aa-99e3-4b89-97dc-fd6edd7b18f0","system_id":"levelo_inurba_marseille","lat":43.321035,"lon":5.367734,"is_reserved":false,"is_disabled":false,"rental_uris":{"android":"levelo://app?vid=c06c87aa-99e3-4b89-97dc-fd6edd7b18f0","ios":"levelo://app?vid=c06c87aa-99e3-4b89-97dc-fd6edd7b18f0"},"vehicle_type_id":"4","last_reported":1747822292,"current_range_meters":10800,"station_id":"ce4bhrh2rcd13ifvqhug","pricing_plan_id":"cebpf4jnsgd1na2vs0mg"},{"bike_id":"324231ab-033b-40ae-97d2-7b70e0442b0c","system_id":"levelo_inurba_marseille","lat":43.312318,"lon":5.368533,"is_reserved":false,"is_disabled":false,"rental_uris":{"android":"levelo://app?vid=324231ab-033b-40ae-97d2-7b70e0442b0c","ios":"levelo://app?vid=324231ab-033b-40ae-97d2-7b70e0442b0c"},"vehicle_type_id":"4","last_reported":1747822292,"current_range_meters":11200,"station_id":"ce4bgl92rcd13ifvqbq0","pricing_plan_id":"cebpf4jnsgd1na2vs0mg"},{"bike_id":"23203a69-feb5-4ae1-a15c-d23b97097000","system_id":"levelo_inurba_marseille","lat":43.26686,"lon":5.382748,"is_reserved":false,"is_disabled":false,"rental_uris":{"android":"levelo://app?vid=23203a69-feb5-4ae1-a15c-d23b97097000","ios":"levelo://app?vid=23203a69-feb5-4ae1-a15c-d23b97097000"},"vehicle_type_id":"4","last_reported":1747822292,"current_range_meters":11200,"station_id":"ce4bhg92rcd13ifvqf90","pricing_plan_id":"cebpf4jnsgd1na2vs0mg"},{"bike_id":"e9b3d240-f6f2-4596-996c-1e35e668eeab","system_id":"levelo_inurba_marseille","lat":43.271864,"lon":5.391875,"is_reserved":false,"is_disabled":false,"rental_uris":{"android":"levelo://app?vid=e9b3d240-f6f2-4596-996c-1e35e668eeab","ios":"levelo://app?vid=e9b3d240-f6f2-4596-996c-1e35e668eeab"},"vehicle_type_id":"4","last_reported":1747822292,"current_range_meters":11200,"station_id":"ce4bhhp2rcd13ifvqfm0","pricing_plan_id":"cebpf4jnsgd1na2vs0mg"},{"bike_id":"fc24307c-655c-4d5c-b1b5-7f7103f1990d","system_id":"levelo_inurba_marseille","lat":43.24672,"lon":5.38164,"is_reserved":false,"is_disabled":false,"rental_uris":{"android":"levelo://app?vid=fc24307c-655c-4d5c-b1b5-7f7103f1990d","ios":"levelo://app?vid=fc24307c-655c-4d5c-b1b5-7f7103f1990d"},"vehicle_type_id":"4","last_reported":1747822292,"current_range_meters":11200,"station_id":"ce4bhih2rcd13ifvqfr0","pricing_plan_id":"cebpf4jnsgd1na2vs0mg"},{"bike_id":"54dde319-f32b-4fb0-bcf6-ee1e501f2b8f","system_id":"levelo_inurba_marseille","lat":43.25817,"lon":5.39442,"is_reserved":false,"is_disabled":false,"rental_uris":{"android":"levelo://app?vid=54dde319-f32b-4fb0-bcf6-ee1e501f2b8f","ios":"levelo://app?vid=54dde319-f32b-4fb0-bcf6-ee1e501f2b8f"},"vehicle_type_id":"4","last_reported":1747822292,"current_range_meters":11200,"station_id":"ce4bhip2rcd13ifvqft0","pricing_plan_id":"cebpf4jnsgd1na2vs0mg"},{"bike_id":"b19eb02c-cf63-49ab-9e88-e6de1c057c7d","system_id":"levelo_inurba_marseille","lat":43.303544,"lon":5.418838,"is_reserved":false,"is_disabled":false,"rental_uris":{"android":"levelo://app?vid=b19eb02c-cf63-49ab-9e88-e6de1c057c7d","ios":"levelo://app?vid=b19eb02c-cf63-49ab-9e88-e6de1c057c7d"},"vehicle_type_id":"4","last_reported":1747822292,"current_range_meters":11600,"station_id":"","pricing_plan_id":"cebpf4jnsgd1na2vs0mg"},{"bike_id":"232d933a-5d46-408d-bd2a-f2806fa69d49","system_id":"levelo_inurba_marseille","lat":43.28424,"lon":5.3498,"is_reserved":false,"is_disabled":false,"rental_uris":{"android":"levelo://app?vid=232d933a-5d46-408d-bd2a-f2806fa69d49","ios":"levelo://app?vid=232d933a-5d46-408d-bd2a-f2806fa69d49"},"vehicle_type_id":"4","last_reported":1747822292,"current_range_meters":11600,"station_id":"ce4bhbh2rcd13ifvqepg","pricing_plan_id":"cebpf4jnsgd1na2vs0mg"},{"bike_id":"bd352f34-b030-4a16-8e89-90f665a92dd9","system_id":"levelo_inurba_marseille","lat":43.28422,"lon":5.34973,"is_reserved":false,"is_disabled":false,"rental_uris":{"android":"levelo://app?vid=bd352f34-b030-4a16-8e89-90f665a92dd9","ios":"levelo://app?vid=bd352f34-b030-4a16-8e89-90f665a92dd9"},"vehicle_type_id":"4","last_reported":1747822292,"current_range_meters":11600,"station_id":"ce4bhbh2rcd13ifvqepg","pricing_plan_id":"cebpf4jnsgd1na2vs0mg"},{"bike_id":"1a340bac-8012-4c7c-b50a-247d19f083a9","system_id":"levelo_inurba_marseille","lat":43.21402,"lon":5.34929,"is_reserved":false,"is_disabled":false,"rental_uris":{"android":"levelo://app?vid=1a340bac-8012-4c7c-b50a-247d19f083a9","ios":"levelo://app?vid=1a340bac-8012-4c7c-b50a-247d19f083a9"},"vehicle_type_id":"4","last_reported":1747822292,"current_range_meters":12000,"station_id":"","pricing_plan_id":"cebpf4jnsgd1na2vs0mg"},{"bike_id":"a08195d5-5c7a-4ecd-878c-ef2210b80a36","system_id":"levelo_inurba_marseille","lat":43.29716,"lon":5.37697,"is_reserved":false,"is_disabled":false,"rental_uris":{"android":"levelo://app?vid=a08195d5-5c7a-4ecd-878c-ef2210b80a36","ios":"levelo://app?vid=a08195d5-5c7a-4ecd-878c-ef2210b80a36"},"vehicle_type_id":"4","last_reported":1747822292,"current_range_meters":12000,"station_id":"ce4bgkh2rcd13ifvqbl0","pricing_plan_id":"cebpf4jnsgd1na2vs0mg"},{"bike_id":"c5137cae-4647-4fb1-bc48-eb14871622c6","system_id":"levelo_inurba_marseille","lat":43.29276,"lon":5.36839,"is_reserved":false,"is_disabled":false,"rental_uris":{"android":"levelo://app?vid=c5137cae-4647-4fb1-bc48-eb14871622c6","ios":"levelo://app?vid=c5137cae-4647-4fb1-bc48-eb14871622c6"},"vehicle_type_id":"4","last_reported":1747822292,"current_range_meters":12000,"station_id":"ce4bhbp2rcd13ifvqesg","pricing_plan_id":"cebpf4jnsgd1na2vs0mg"},{"bike_id":"d3794132-a70f-416f-8f79-15d73a23ca4b","system_id":"levelo_inurba_marseille","lat":43.24641,"lon":5.38905,"is_reserved":false,"is_disabled":false,"rental_uris":{"android":"levelo://app?vid=d3794132-a70f-416f-8f79-15d73a23ca4b","ios":"levelo://app?vid=d3794132-a70f-416f-8f79-15d73a23ca4b"},"vehicle_type_id":"4","last_reported":1747822292,"current_range_meters":12000,"station_id":"ce4bhg12rcd13ifvqf60","pricing_plan_id":"cebpf4jnsgd1na2vs0mg"},{"bike_id":"750b9bcf-97e9-4197-bd49-eeac7fb5b822","system_id":"levelo_inurba_marseille","lat":43.28421,"lon":5.34983,"is_reserved":false,"is_disabled":false,"rental_uris":{"android":"levelo://app?vid=750b9bcf-97e9-4197-bd49-eeac7fb5b822","ios":"levelo://app?vid=750b9bcf-97e9-4197-bd49-eeac7fb5b822"},"vehicle_type_id":"4","last_reported":1747822292,"current_range_meters":12400,"station_id":"ce4bhbh2rcd13ifvqepg","pricing_plan_id":"cebpf4jnsgd1na2vs0mg"},{"bike_id":"8e9792ab-772c-4e06-afe4-17f19f8ca288","system_id":"levelo_inurba_marseille","lat":43.26687,"lon":5.38268,"is_reserved":false,"is_disabled":false,"rental_uris":{"android":"levelo://app?vid=8e9792ab-772c-4e06-afe4-17f19f8ca288","ios":"levelo://app?vid=8e9792ab-772c-4e06-afe4-17f19f8ca288"},"vehicle_type_id":"4","last_reported":1747822292,"current_range_meters":12400,"station_id":"ce4bhg92rcd13ifvqf90","pricing_plan_id":"cebpf4jnsgd1na2vs0mg"},{"bike_id":"9a145c1e-0a3d-4290-a9ab-dd835c8a830e","system_id":"levelo_inurba_marseille","lat":43.23953,"lon":5.36666,"is_reserved":false,"is_disabled":false,"rental_uris":{"android":"levelo://app?vid=9a145c1e-0a3d-4290-a9ab-dd835c8a830e","ios":"levelo://app?vid=9a145c1e-0a3d-4290-a9ab-dd835c8a830e"},"vehicle_type_id":"4","last_reported":1747822292,"current_range_meters":12400,"station_id":"ce4bhi12rcd13ifvqfp0","pricing_plan_id":"cebpf4jnsgd1na2vs0mg"},{"bike_id":"ded357d2-b318-412f-9ffd-6727a13631b7","system_id":"levelo_inurba_marseille","lat":43.25865,"lon":5.39898,"is_reserved":false,"is_disabled":false,"rental_uris":{"android":"levelo://app?vid=ded357d2-b318-412f-9ffd-6727a13631b7","ios":"levelo://app?vid=ded357d2-b318-412f-9ffd-6727a13631b7"},"vehicle_type_id":"4","last_reported":1747822292,"current_range_meters":12400,"station_id":"ce4bhl92rcd13ifvqghg","pricing_plan_id":"cebpf4jnsgd1na2vs0mg"},{"bike_id":"56cf80a0-6e20-4517-b7ab-ff4ac3730a84","system_id":"levelo_inurba_marseille","lat":43.23185,"lon":5.39965,"is_reserved":false,"is_disabled":false,"rental_uris":{"android":"levelo://app?vid=56cf80a0-6e20-4517-b7ab-ff4ac3730a84","ios":"levelo://app?vid=56cf80a0-6e20-4517-b7ab-ff4ac3730a84"},"vehicle_type_id":"4","last_reported":1747822292,"current_range_meters":12400,"station_id":"ce4bhn12rcd13ifvqgqg","pricing_plan_id":"cebpf4jnsgd1na2vs0mg"},{"bike_id":"baf0c4b5-70fa-4edf-88a7-a029a69445f0","system_id":"levelo_inurba_marseille","lat":43.31305,"lon":5.36952,"is_reserved":false,"is_disabled":false,"rental_uris":{"android":"levelo://app?vid=baf0c4b5-70fa-4edf-88a7-a029a69445f0","ios":"levelo://app?vid=baf0c4b5-70fa-4edf-88a7-a029a69445f0"},"vehicle_type_id":"4","last_reported":1747822292,"current_range_meters":12800,"station_id":"","pricing_plan_id":"cebpf4jnsgd1na2vs0mg"},{"bike_id":"63e3b4cd-1ecf-4a64-8aaa-6db2a2da85a9","system_id":"levelo_inurba_marseille","lat":43.24385,"lon":5.37054,"is_reserved":false,"is_disabled":false,"rental_uris":{"android":"levelo://app?vid=63e3b4cd-1ecf-4a64-8aaa-6db2a2da85a9","ios":"levelo://app?vid=63e3b4cd-1ecf-4a64-8aaa-6db2a2da85a9"},"vehicle_type_id":"4","last_reported":1747822292,"current_range_meters":12800,"station_id":"ce4bhhh2rcd13ifvqfk0","pricing_plan_id":"cebpf4jnsgd1na2vs0mg"},{"bike_id":"120c77ac-e603-404f-94d2-094850d09f86","system_id":"levelo_inurba_marseille","lat":43.25928,"lon":5.40876,"is_reserved":false,"is_disabled":false,"rental_uris":{"android":"levelo://app?vid=120c77ac-e603-404f-94d2-094850d09f86","ios":"levelo://app?vid=120c77ac-e603-404f-94d2-094850d09f86"},"vehicle_type_id":"4","last_reported":1747822292,"current_range_meters":12800,"station_id":"ce4bhm92rcd13ifvqglg","pricing_plan_id":"cebpf4jnsgd1na2vs0mg"},{"bike_id":"41a63ad7-5271-4c92-a07b-12a7b1d342de","system_id":"levelo_inurba_marseille","lat":43.21354,"lon":5.34991,"is_reserved":false,"is_disabled":false,"rental_uris":{"android":"levelo://app?vid=41a63ad7-5271-4c92-a07b-12a7b1d342de","ios":"levelo://app?vid=41a63ad7-5271-4c92-a07b-12a7b1d342de"},"vehicle_type_id":"4","last_reported":1747822292,"current_range_meters":13600,"station_id":"","pricing_plan_id":"cebpf4jnsgd1na2vs0mg"},{"bike_id":"0cc58957-c5b7-42c1-abec-33957dbb5986","system_id":"levelo_inurba_marseille","lat":43.2926,"lon":5.37628,"is_reserved":false,"is_disabled":false,"rental_uris":{"android":"levelo://app?vid=0cc58957-c5b7-42c1-abec-33957dbb5986","ios":"levelo://app?vid=0cc58957-c5b7-42c1-abec-33957dbb5986"},"vehicle_type_id":"4","last_reported":1747822292,"current_range_meters":13600,"station_id":"ce4bgi12rcd13ifvqb80","pricing_plan_id":"cebpf4jnsgd1na2vs0mg"},{"bike_id":"07906026-c2ae-4a48-81e0-0a31b36dfc98","system_id":"levelo_inurba_marseille","lat":43.29267,"lon":5.37624,"is_reserved":false,"is_disabled":false,"rental_uris":{"android":"levelo://app?vid=07906026-c2ae-4a48-81e0-0a31b36dfc98","ios":"levelo://app?vid=07906026-c2ae-4a48-81e0-0a31b36dfc98"},"vehicle_type_id":"4","last_reported":1747822292,"current_range_meters":13600,"station_id":"ce4bgi12rcd13ifvqb80","pricing_plan_id":"cebpf4jnsgd1na2vs0mg"},{"bike_id":"527ecb6c-55c4-4f1b-ae35-6e496b211aa8","system_id":"levelo_inurba_marseille","lat":43.31338,"lon":5.39704,"is_reserved":false,"is_disabled":false,"rental_uris":{"android":"levelo://app?vid=527ecb6c-55c4-4f1b-ae35-6e496b211aa8","ios":"levelo://app?vid=527ecb6c-55c4-4f1b-ae35-6e496b211aa8"},"vehicle_type_id":"4","last_reported":1747822292,"current_range_meters":13600,"station_id":"ce4bgvp2rcd13ifvqcu0","pricing_plan_id":"cebpf4jnsgd1na2vs0mg"},{"bike_id":"285fd279-ced9-432c-b115-7c5a6fe484ee","system_id":"levelo_inurba_marseille","lat":43.28101,"lon":5.37845,"is_reserved":false,"is_disabled":false,"rental_uris":{"android":"levelo://app?vid=285fd279-ced9-432c-b115-7c5a6fe484ee","ios":"levelo://app?vid=285fd279-ced9-432c-b115-7c5a6fe484ee"},"vehicle_type_id":"4","last_reported":1747822292,"current_range_meters":13600,"station_id":"ce4bha12rcd13ifvqee0","pricing_plan_id":"cebpf4jnsgd1na2vs0mg"},{"bike_id":"17ec442e-d9c5-4d78-9c7a-c45335698452","system_id":"levelo_inurba_marseille","lat":43.28034,"lon":5.36952,"is_reserved":false,"is_disabled":false,"rental_uris":{"android":"levelo://app?vid=17ec442e-d9c5-4d78-9c7a-c45335698452","ios":"levelo://app?vid=17ec442e-d9c5-4d78-9c7a-c45335698452"},"vehicle_type_id":"4","last_reported":1747822292,"current_range_meters":13600,"station_id":"ce4bha12rcd13ifvqef0","pricing_plan_id":"cebpf4jnsgd1na2vs0mg"},{"bike_id":"60bd9881-5084-43e2-bd51-bf012147f24a","system_id":"levelo_inurba_marseille","lat":43.27065,"lon":5.423,"is_reserved":false,"is_disabled":false,"rental_uris":{"android":"levelo://app?vid=60bd9881-5084-43e2-bd51-bf012147f24a","ios":"levelo://app?vid=60bd9881-5084-43e2-bd51-bf012147f24a"},"vehicle_type_id":"4","last_reported":1747822292,"current_range_meters":13600,"station_id":"ce4bhk92rcd13ifvqgb0","pricing_plan_id":"cebpf4jnsgd1na2vs0mg"},{"bike_id":"3712461b-e0ad-49ef-a8fe-58f841cef756","system_id":"levelo_inurba_marseille","lat":43.27065,"lon":5.42289,"is_reserved":false,"is_disabled":false,"rental_uris":{"android":"levelo://app?vid=3712461b-e0ad-49ef-a8fe-58f841cef756","ios":"levelo://app?vid=3712461b-e0ad-49ef-a8fe-58f841cef756"},"vehicle_type_id":"4","last_reported":1747822292,"current_range_meters":13600,"station_id":"ce4bhk92rcd13ifvqgb0","pricing_plan_id":"cebpf4jnsgd1na2vs0mg"},{"bike_id":"783401d3-da3c-4854-b9a3-76b28ba8ab2e","system_id":"levelo_inurba_marseille","lat":43.29028,"lon":5.37563,"is_reserved":false,"is_disabled":false,"rental_uris":{"android":"levelo://app?vid=783401d3-da3c-4854-b9a3-76b28ba8ab2e","ios":"levelo://app?vid=783401d3-da3c-4854-b9a3-76b28ba8ab2e"},"vehicle_type_id":"4","last_reported":1747822292,"current_range_meters":14000,"station_id":"ce4bh692rcd13ifvqe90","pricing_plan_id":"cebpf4jnsgd1na2vs0mg"},{"bike_id":"09b092f7-73a2-4306-8179-0264b487a722","system_id":"levelo_inurba_marseille","lat":43.27941,"lon":5.4105,"is_reserved":false,"is_disabled":false,"rental_uris":{"android":"levelo://app?vid=09b092f7-73a2-4306-8179-0264b487a722","ios":"levelo://app?vid=09b092f7-73a2-4306-8179-0264b487a722"},"vehicle_type_id":"4","last_reported":1747822292,"current_range_meters":14000,"station_id":"ce4bhnp2rcd13ifvqh0g","pricing_plan_id":"cebpf4jnsgd1na2vs0mg"},{"bike_id":"a6b8639d-58d3-487b-8471-bc0549abe8e1","system_id":"levelo_inurba_marseille","lat":43.2984,"lon":5.36267,"is_reserved":false,"is_disabled":false,"rental_uris":{"android":"levelo://app?vid=a6b8639d-58d3-487b-8471-bc0549abe8e1","ios":"levelo://app?vid=a6b8639d-58d3-487b-8471-bc0549abe8e1"},"vehicle_type_id":"4","last_reported":1747822292,"current_range_meters":14400,"station_id":"ce4bgpp2rcd13ifvqc3g","pricing_plan_id":"cebpf4jnsgd1na2vs0mg"},{"bike_id":"9ab9a453-c610-4ee6-bfe9-c53b25fc7671","system_id":"levelo_inurba_marseille","lat":43.26667,"lon":5.395676,"is_reserved":false,"is_disabled":false,"rental_uris":{"android":"levelo://app?vid=9ab9a453-c610-4ee6-bfe9-c53b25fc7671","ios":"levelo://app?vid=9ab9a453-c610-4ee6-bfe9-c53b25fc7671"},"vehicle_type_id":"4","last_reported":1747822292,"current_range_meters":14800,"station_id":"","pricing_plan_id":"cebpf4jnsgd1na2vs0mg"},{"bike_id":"f9fb40c0-1fcd-48cb-8e26-3f2dc0fb2451","system_id":"levelo_inurba_marseille","lat":43.33751,"lon":5.37509,"is_reserved":false,"is_disabled":false,"rental_uris":{"android":"levelo://app?vid=f9fb40c0-1fcd-48cb-8e26-3f2dc0fb2451","ios":"levelo://app?vid=f9fb40c0-1fcd-48cb-8e26-3f2dc0fb2451"},"vehicle_type_id":"4","last_reported":1747822292,"current_range_meters":14800,"station_id":"","pricing_plan_id":"cebpf4jnsgd1na2vs0mg"},{"bike_id":"ff18f8b2-fa41-4562-989d-0ae639a943d3","system_id":"levelo_inurba_marseille","lat":43.29229,"lon":5.3607,"is_reserved":false,"is_disabled":false,"rental_uris":{"android":"levelo://app?vid=ff18f8b2-fa41-4562-989d-0ae639a943d3","ios":"levelo://app?vid=ff18f8b2-fa41-4562-989d-0ae639a943d3"},"vehicle_type_id":"4","last_reported":1747822292,"current_range_meters":14800,"station_id":"ce4bhbh2rcd13ifvqeqg","pricing_plan_id":"cebpf4jnsgd1na2vs0mg"},{"bike_id":"3c0300aa-3669-4f50-ae12-06c5f9beef96","system_id":"levelo_inurba_marseille","lat":43.25868,"lon":5.39916,"is_reserved":false,"is_disabled":false,"rental_uris":{"android":"levelo://app?vid=3c0300aa-3669-4f50-ae12-06c5f9beef96","ios":"levelo://app?vid=3c0300aa-3669-4f50-ae12-06c5f9beef96"},"vehicle_type_id":"4","last_reported":1747822292,"current_range_meters":14800,"station_id":"ce4bhl92rcd13ifvqghg","pricing_plan_id":"cebpf4jnsgd1na2vs0mg"},{"bike_id":"f693b179-d4c4-4ee0-8a73-552a9c1888ff","system_id":"levelo_inurba_marseille","lat":43.25922,"lon":5.4089,"is_reserved":false,"is_disabled":false,"rental_uris":{"android":"levelo://app?vid=f693b179-d4c4-4ee0-8a73-552a9c1888ff","ios":"levelo://app?vid=f693b179-d4c4-4ee0-8a73-552a9c1888ff"},"vehicle_type_id":"4","last_reported":1747822292,"current_range_meters":14800,"station_id":"ce4bhm92rcd13ifvqglg","pricing_plan_id":"cebpf4jnsgd1na2vs0mg"},{"bike_id":"1b06c297-b620-4baa-8469-7fc93984e230","system_id":"levelo_inurba_marseille","lat":43.24178,"lon":5.39701,"is_reserved":false,"is_disabled":false,"rental_uris":{"android":"levelo://app?vid=1b06c297-b620-4baa-8469-7fc93984e230","ios":"levelo://app?vid=1b06c297-b620-4baa-8469-7fc93984e230"},"vehicle_type_id":"4","last_reported":1747822292,"current_range_meters":14800,"station_id":"ce4bhn12rcd13ifvqgpg","pricing_plan_id":"cebpf4jnsgd1na2vs0mg"},{"bike_id":"824a86f4-99ca-47bd-ae65-1ed008ec6a72","system_id":"levelo_inurba_marseille","lat":43.24441,"lon":5.38036,"is_reserved":false,"is_disabled":false,"rental_uris":{"android":"levelo://app?vid=824a86f4-99ca-47bd-ae65-1ed008ec6a72","ios":"levelo://app?vid=824a86f4-99ca-47bd-ae65-1ed008ec6a72"},"vehicle_type_id":"4","last_reported":1747822292,"current_range_meters":15200,"station_id":"","pricing_plan_id":"cebpf4jnsgd1na2vs0mg"},{"bike_id":"26f7fb37-fe13-47bd-bc32-8bb1df144be9","system_id":"levelo_inurba_marseille","lat":43.29258,"lon":5.37609,"is_reserved":false,"is_disabled":false,"rental_uris":{"android":"levelo://app?vid=26f7fb37-fe13-47bd-bc32-8bb1df144be9","ios":"levelo://app?vid=26f7fb37-fe13-47bd-bc32-8bb1df144be9"},"vehicle_type_id":"4","last_reported":1747822292,"current_range_meters":15200,"station_id":"ce4bgi12rcd13ifvqb80","pricing_plan_id":"cebpf4jnsgd1na2vs0mg"},{"bike_id":"8c5aca7d-c002-427f-8d63-cf90f529e89e","system_id":"levelo_inurba_marseille","lat":43.31328,"lon":5.396986,"is_reserved":false,"is_disabled":false,"rental_uris":{"android":"levelo://app?vid=8c5aca7d-c002-427f-8d63-cf90f529e89e","ios":"levelo://app?vid=8c5aca7d-c002-427f-8d63-cf90f529e89e"},"vehicle_type_id":"4","last_reported":1747822292,"current_range_meters":15200,"station_id":"ce4bgvp2rcd13ifvqcu0","pricing_plan_id":"cebpf4jnsgd1na2vs0mg"},{"bike_id":"721d91d9-d836-480c-a1ee-38ef1fcdbe11","system_id":"levelo_inurba_marseille","lat":43.313295,"lon":5.396984,"is_reserved":false,"is_disabled":false,"rental_uris":{"android":"levelo://app?vid=721d91d9-d836-480c-a1ee-38ef1fcdbe11","ios":"levelo://app?vid=721d91d9-d836-480c-a1ee-38ef1fcdbe11"},"vehicle_type_id":"4","last_reported":1747822292,"current_range_meters":15200,"station_id":"ce4bgvp2rcd13ifvqcu0","pricing_plan_id":"cebpf4jnsgd1na2vs0mg"},{"bike_id":"88f76d3a-b2e1-4de0-bff0-e4596a173133","system_id":"levelo_inurba_marseille","lat":43.27417,"lon":5.39395,"is_reserved":false,"is_disabled":false,"rental_uris":{"android":"levelo://app?vid=88f76d3a-b2e1-4de0-bff0-e4596a173133","ios":"levelo://app?vid=88f76d3a-b2e1-4de0-bff0-e4596a173133"},"vehicle_type_id":"4","last_reported":1747822292,"current_range_meters":15200,"station_id":"ce4bhdp2rcd13ifvqf20","pricing_plan_id":"cebpf4jnsgd1na2vs0mg"},{"bike_id":"ec1e5af5-a2c9-40c7-8196-abeddc2c4e77","system_id":"levelo_inurba_marseille","lat":43.33593,"lon":5.41008,"is_reserved":false,"is_disabled":false,"rental_uris":{"android":"levelo://app?vid=ec1e5af5-a2c9-40c7-8196-abeddc2c4e77","ios":"levelo://app?vid=ec1e5af5-a2c9-40c7-8196-abeddc2c4e77"},"vehicle_type_id":"4","last_reported":1747822292,"current_range_meters":15200,"station_id":"ce4bhqh2rcd13ifvqhmg","pricing_plan_id":"cebpf4jnsgd1na2vs0mg"},{"bike_id":"509a7bc5-3ed4-44a0-83b3-6bbf477b3a61","system_id":"levelo_inurba_marseille","lat":43.21399,"lon":5.34941,"is_reserved":false,"is_disabled":false,"rental_uris":{"android":"levelo://app?vid=509a7bc5-3ed4-44a0-83b3-6bbf477b3a61","ios":"levelo://app?vid=509a7bc5-3ed4-44a0-83b3-6bbf477b3a61"},"vehicle_type_id":"4","last_reported":1747822292,"current_range_meters":16000,"station_id":"","pricing_plan_id":"cebpf4jnsgd1na2vs0mg"},{"bike_id":"5eda19dd-2117-416f-86ae-20e22a7cf9c6","system_id":"levelo_inurba_marseille","lat":43.30319,"lon":5.36897,"is_reserved":false,"is_disabled":false,"rental_uris":{"android":"levelo://app?vid=5eda19dd-2117-416f-86ae-20e22a7cf9c6","ios":"levelo://app?vid=5eda19dd-2117-416f-86ae-20e22a7cf9c6"},"vehicle_type_id":"4","last_reported":1747822292,"current_range_meters":16000,"station_id":"ce4bgqh2rcd13ifvqc5g","pricing_plan_id":"cebpf4jnsgd1na2vs0mg"},{"bike_id":"1c6b2cc5-0117-4eb4-91c7-bd68d0b2ec05","system_id":"levelo_inurba_marseille","lat":43.31365,"lon":5.36753,"is_reserved":false,"is_disabled":false,"rental_uris":{"android":"levelo://app?vid=1c6b2cc5-0117-4eb4-91c7-bd68d0b2ec05","ios":"levelo://app?vid=1c6b2cc5-0117-4eb4-91c7-bd68d0b2ec05"},"vehicle_type_id":"4","last_reported":1747822292,"current_range_meters":16000,"station_id":"ce4bgr92rcd13ifvqc6g","pricing_plan_id":"cebpf4jnsgd1na2vs0mg"},{"bike_id":"1396a1e4-a7a4-45f6-aea9-62380bf2972a","system_id":"levelo_inurba_marseille","lat":43.3132,"lon":5.3672,"is_reserved":false,"is_disabled":false,"rental_uris":{"android":"levelo://app?vid=1396a1e4-a7a4-45f6-aea9-62380bf2972a","ios":"levelo://app?vid=1396a1e4-a7a4-45f6-aea9-62380bf2972a"},"vehicle_type_id":"4","last_reported":1747822292,"current_range_meters":16000,"station_id":"ce4bgr92rcd13ifvqc6g","pricing_plan_id":"cebpf4jnsgd1na2vs0mg"},{"bike_id":"6f32e118-dfc6-43bc-9619-7b4d468f523a","system_id":"levelo_inurba_marseille","lat":43.304585,"lon":5.378958,"is_reserved":false,"is_disabled":false,"rental_uris":{"android":"levelo://app?vid=6f32e118-dfc6-43bc-9619-7b4d468f523a","ios":"levelo://app?vid=6f32e118-dfc6-43bc-9619-7b4d468f523a"},"vehicle_type_id":"4","last_reported":1747822292,"current_range_meters":16000,"station_id":"ce4bgup2rcd13ifvqcn0","pricing_plan_id":"cebpf4jnsgd1na2vs0mg"},{"bike_id":"dbd701ce-b74f-4507-88cf-7d2b64f801da","system_id":"levelo_inurba_marseille","lat":43.259345,"lon":5.408999,"is_reserved":false,"is_disabled":false,"rental_uris":{"android":"levelo://app?vid=dbd701ce-b74f-4507-88cf-7d2b64f801da","ios":"levelo://app?vid=dbd701ce-b74f-4507-88cf-7d2b64f801da"},"vehicle_type_id":"4","last_reported":1747822292,"current_range_meters":16000,"station_id":"ce4bhm92rcd13ifvqglg","pricing_plan_id":"cebpf4jnsgd1na2vs0mg"},{"bike_id":"0552706d-7ee7-4fee-97ae-ee5ed92102cb","system_id":"levelo_inurba_marseille","lat":43.33593,"lon":5.41007,"is_reserved":false,"is_disabled":false,"rental_uris":{"android":"levelo://app?vid=0552706d-7ee7-4fee-97ae-ee5ed92102cb","ios":"levelo://app?vid=0552706d-7ee7-4fee-97ae-ee5ed92102cb"},"vehicle_type_id":"4","last_reported":1747822292,"current_range_meters":16000,"station_id":"ce4bhqh2rcd13ifvqhmg","pricing_plan_id":"cebpf4jnsgd1na2vs0mg"},{"bike_id":"c9a00e74-029a-454e-8e85-1b3d994b9d78","system_id":"levelo_inurba_marseille","lat":43.211928,"lon":5.350802,"is_reserved":false,"is_disabled":false,"rental_uris":{"android":"levelo://app?vid=c9a00e74-029a-454e-8e85-1b3d994b9d78","ios":"levelo://app?vid=c9a00e74-029a-454e-8e85-1b3d994b9d78"},"vehicle_type_id":"4","last_reported":1747822292,"current_range_meters":16000,"station_id":"st_cvj6sg6p6f1abm77japg","pricing_plan_id":"cebpf4jnsgd1na2vs0mg"},{"bike_id":"8ca18dff-499b-4dae-96fb-172672c1db3c","system_id":"levelo_inurba_marseille","lat":43.29986,"lon":5.37195,"is_reserved":false,"is_disabled":false,"rental_uris":{"android":"levelo://app?vid=8ca18dff-499b-4dae-96fb-172672c1db3c","ios":"levelo://app?vid=8ca18dff-499b-4dae-96fb-172672c1db3c"},"vehicle_type_id":"4","last_reported":1747822292,"current_range_meters":16400,"station_id":"ce4bgr92rcd13ifvqc7g","pricing_plan_id":"cebpf4jnsgd1na2vs0mg"},{"bike_id":"e23e82b9-a321-4c2f-b988-17b9a39b72f8","system_id":"levelo_inurba_marseille","lat":43.28262,"lon":5.35071,"is_reserved":false,"is_disabled":false,"rental_uris":{"android":"levelo://app?vid=e23e82b9-a321-4c2f-b988-17b9a39b72f8","ios":"levelo://app?vid=e23e82b9-a321-4c2f-b988-17b9a39b72f8"},"vehicle_type_id":"4","last_reported":1747822292,"current_range_meters":16400,"station_id":"ce4bhbp2rcd13ifvqerg","pricing_plan_id":"cebpf4jnsgd1na2vs0mg"},{"bike_id":"367001af-20e0-499c-b98c-752a74b4fbcf","system_id":"levelo_inurba_marseille","lat":43.23145,"lon":5.43713,"is_reserved":false,"is_disabled":false,"rental_uris":{"android":"levelo://app?vid=367001af-20e0-499c-b98c-752a74b4fbcf","ios":"levelo://app?vid=367001af-20e0-499c-b98c-752a74b4fbcf"},"vehicle_type_id":"4","last_reported":1747822292,"current_range_meters":16400,"station_id":"ce4bhmp2rcd13ifvqgog","pricing_plan_id":"cebpf4jnsgd1na2vs0mg"},{"bike_id":"cab1bc3a-d133-45d1-b5e2-49215a305917","system_id":"levelo_inurba_marseille","lat":43.23193,"lon":5.39981,"is_reserved":false,"is_disabled":false,"rental_uris":{"android":"levelo://app?vid=cab1bc3a-d133-45d1-b5e2-49215a305917","ios":"levelo://app?vid=cab1bc3a-d133-45d1-b5e2-49215a305917"},"vehicle_type_id":"4","last_reported":1747822292,"current_range_meters":16400,"station_id":"ce4bhn12rcd13ifvqgqg","pricing_plan_id":"cebpf4jnsgd1na2vs0mg"},{"bike_id":"b7dd41aa-2ef7-4ede-8a12-15dad72683ae","system_id":"levelo_inurba_marseille","lat":43.295562,"lon":5.422793,"is_reserved":false,"is_disabled":false,"rental_uris":{"android":"levelo://app?vid=b7dd41aa-2ef7-4ede-8a12-15dad72683ae","ios":"levelo://app?vid=b7dd41aa-2ef7-4ede-8a12-15dad72683ae"},"vehicle_type_id":"4","last_reported":1747822292,"current_range_meters":16400,"station_id":"ce4bhph2rcd13ifvqhdg","pricing_plan_id":"cebpf4jnsgd1na2vs0mg"},{"bike_id":"1a091a66-2e68-4ded-9fc5-3d6f9e9f6f62","system_id":"levelo_inurba_marseille","lat":43.32127,"lon":5.36755,"is_reserved":false,"is_disabled":false,"rental_uris":{"android":"levelo://app?vid=1a091a66-2e68-4ded-9fc5-3d6f9e9f6f62","ios":"levelo://app?vid=1a091a66-2e68-4ded-9fc5-3d6f9e9f6f62"},"vehicle_type_id":"4","last_reported":1747822292,"current_range_meters":16400,"station_id":"ce4bhrh2rcd13ifvqhug","pricing_plan_id":"cebpf4jnsgd1na2vs0mg"},{"bike_id":"83df6315-59f2-4f1d-8766-748b0e7b6b41","system_id":"levelo_inurba_marseille","lat":43.33227,"lon":5.38607,"is_reserved":false,"is_disabled":false,"rental_uris":{"android":"levelo://app?vid=83df6315-59f2-4f1d-8766-748b0e7b6b41","ios":"levelo://app?vid=83df6315-59f2-4f1d-8766-748b0e7b6b41"},"vehicle_type_id":"4","last_reported":1747822292,"current_range_meters":16800,"station_id":"","pricing_plan_id":"cebpf4jnsgd1na2vs0mg"},{"bike_id":"e5867987-a967-4022-98a5-4be055cde6f6","system_id":"levelo_inurba_marseille","lat":43.30428,"lon":5.38887,"is_reserved":false,"is_disabled":false,"rental_uris":{"android":"levelo://app?vid=e5867987-a967-4022-98a5-4be055cde6f6","ios":"levelo://app?vid=e5867987-a967-4022-98a5-4be055cde6f6"},"vehicle_type_id":"4","last_reported":1747822292,"current_range_meters":16800,"station_id":"ce4bgk12rcd13ifvqbi0","pricing_plan_id":"cebpf4jnsgd1na2vs0mg"},{"bike_id":"87987afe-4534-47e9-920e-2df9e4427a38","system_id":"levelo_inurba_marseille","lat":43.30538,"lon":5.36511,"is_reserved":false,"is_disabled":false,"rental_uris":{"android":"levelo://app?vid=87987afe-4534-47e9-920e-2df9e4427a38","ios":"levelo://app?vid=87987afe-4534-47e9-920e-2df9e4427a38"},"vehicle_type_id":"4","last_reported":1747822292,"current_range_meters":16800,"station_id":"ce4bgs12rcd13ifvqcag","pricing_plan_id":"cebpf4jnsgd1na2vs0mg"},{"bike_id":"9eda32a1-f772-43bf-8dde-cd892374eb1d","system_id":"levelo_inurba_marseille","lat":43.31323,"lon":5.39701,"is_reserved":false,"is_disabled":false,"rental_uris":{"android":"levelo://app?vid=9eda32a1-f772-43bf-8dde-cd892374eb1d","ios":"levelo://app?vid=9eda32a1-f772-43bf-8dde-cd892374eb1d"},"vehicle_type_id":"4","last_reported":1747822292,"current_range_meters":16800,"station_id":"ce4bgvp2rcd13ifvqcu0","pricing_plan_id":"cebpf4jnsgd1na2vs0mg"},{"bike_id":"ab2e55bb-2cb0-4d25-a514-658f35db26a4","system_id":"levelo_inurba_marseille","lat":43.26556,"lon":5.37284,"is_reserved":false,"is_disabled":false,"rental_uris":{"android":"levelo://app?vid=ab2e55bb-2cb0-4d25-a514-658f35db26a4","ios":"levelo://app?vid=ab2e55bb-2cb0-4d25-a514-658f35db26a4"},"vehicle_type_id":"4","last_reported":1747822292,"current_range_meters":16800,"station_id":"ce4bhg12rcd13ifvqf70","pricing_plan_id":"cebpf4jnsgd1na2vs0mg"},{"bike_id":"e3120b8b-8871-4a05-b522-497a98c26691","system_id":"levelo_inurba_marseille","lat":43.25871,"lon":5.3991,"is_reserved":false,"is_disabled":false,"rental_uris":{"android":"levelo://app?vid=e3120b8b-8871-4a05-b522-497a98c26691","ios":"levelo://app?vid=e3120b8b-8871-4a05-b522-497a98c26691"},"vehicle_type_id":"4","last_reported":1747822292,"current_range_meters":16800,"station_id":"ce4bhl92rcd13ifvqghg","pricing_plan_id":"cebpf4jnsgd1na2vs0mg"},{"bike_id":"9074a6d5-57b4-4178-bf69-7ddd3b4f1ac7","system_id":"levelo_inurba_marseille","lat":43.231447,"lon":5.436993,"is_reserved":false,"is_disabled":false,"rental_uris":{"android":"levelo://app?vid=9074a6d5-57b4-4178-bf69-7ddd3b4f1ac7","ios":"levelo://app?vid=9074a6d5-57b4-4178-bf69-7ddd3b4f1ac7"},"vehicle_type_id":"4","last_reported":1747822292,"current_range_meters":16800,"station_id":"ce4bhmp2rcd13ifvqgog","pricing_plan_id":"cebpf4jnsgd1na2vs0mg"},{"bike_id":"365035b1-1caa-4c0e-8398-0ac6765175a4","system_id":"levelo_inurba_marseille","lat":43.23183,"lon":5.39989,"is_reserved":false,"is_disabled":false,"rental_uris":{"android":"levelo://app?vid=365035b1-1caa-4c0e-8398-0ac6765175a4","ios":"levelo://app?vid=365035b1-1caa-4c0e-8398-0ac6765175a4"},"vehicle_type_id":"4","last_reported":1747822292,"current_range_meters":16800,"station_id":"ce4bhn12rcd13ifvqgqg","pricing_plan_id":"cebpf4jnsgd1na2vs0mg"},{"bike_id":"46838dcc-bfcd-47f7-9e26-97ebaf4848eb","system_id":"levelo_inurba_marseille","lat":43.21188,"lon":5.3508,"is_reserved":false,"is_disabled":false,"rental_uris":{"android":"levelo://app?vid=46838dcc-bfcd-47f7-9e26-97ebaf4848eb","ios":"levelo://app?vid=46838dcc-bfcd-47f7-9e26-97ebaf4848eb"},"vehicle_type_id":"4","last_reported":1747822292,"current_range_meters":16800,"station_id":"st_cvj6sg6p6f1abm77japg","pricing_plan_id":"cebpf4jnsgd1na2vs0mg"},{"bike_id":"5251a293-bd39-4b09-a53e-298ab9dd521e","system_id":"levelo_inurba_marseille","lat":43.31347,"lon":5.36726,"is_reserved":false,"is_disabled":false,"rental_uris":{"android":"levelo://app?vid=5251a293-bd39-4b09-a53e-298ab9dd521e","ios":"levelo://app?vid=5251a293-bd39-4b09-a53e-298ab9dd521e"},"vehicle_type_id":"4","last_reported":1747822292,"current_range_meters":17200,"station_id":"ce4bgr92rcd13ifvqc6g","pricing_plan_id":"cebpf4jnsgd1na2vs0mg"},{"bike_id":"c339e758-fb9c-41f6-8219-8747cdbe2320","system_id":"levelo_inurba_marseille","lat":43.30546,"lon":5.36525,"is_reserved":false,"is_disabled":false,"rental_uris":{"android":"levelo://app?vid=c339e758-fb9c-41f6-8219-8747cdbe2320","ios":"levelo://app?vid=c339e758-fb9c-41f6-8219-8747cdbe2320"},"vehicle_type_id":"4","last_reported":1747822292,"current_range_meters":17200,"station_id":"ce4bgs12rcd13ifvqcag","pricing_plan_id":"cebpf4jnsgd1na2vs0mg"},{"bike_id":"2156ddc2-019a-46f8-9b83-7fb26ad1f8f9","system_id":"levelo_inurba_marseille","lat":43.30294,"lon":5.40468,"is_reserved":false,"is_disabled":false,"rental_uris":{"android":"levelo://app?vid=2156ddc2-019a-46f8-9b83-7fb26ad1f8f9","ios":"levelo://app?vid=2156ddc2-019a-46f8-9b83-7fb26ad1f8f9"},"vehicle_type_id":"4","last_reported":1747822292,"current_range_meters":17200,"station_id":"ce4bh012rcd13ifvqd10","pricing_plan_id":"cebpf4jnsgd1na2vs0mg"},{"bike_id":"aeca66b3-db8b-4297-b4c1-eab2280b4bd6","system_id":"levelo_inurba_marseille","lat":43.24809,"lon":5.37457,"is_reserved":false,"is_disabled":false,"rental_uris":{"android":"levelo://app?vid=aeca66b3-db8b-4297-b4c1-eab2280b4bd6","ios":"levelo://app?vid=aeca66b3-db8b-4297-b4c1-eab2280b4bd6"},"vehicle_type_id":"4","last_reported":1747822292,"current_range_meters":17200,"station_id":"ce4bhgh2rcd13ifvqfb0","pricing_plan_id":"cebpf4jnsgd1na2vs0mg"},{"bike_id":"dc61c065-6ed1-487e-9ecf-5a93a8f61ca7","system_id":"levelo_inurba_marseille","lat":43.231829,"lon":5.399834,"is_reserved":false,"is_disabled":false,"rental_uris":{"android":"levelo://app?vid=dc61c065-6ed1-487e-9ecf-5a93a8f61ca7","ios":"levelo://app?vid=dc61c065-6ed1-487e-9ecf-5a93a8f61ca7"},"vehicle_type_id":"4","last_reported":1747822292,"current_range_meters":17200,"station_id":"ce4bhn12rcd13ifvqgqg","pricing_plan_id":"cebpf4jnsgd1na2vs0mg"},{"bike_id":"5bf7a144-894d-4c5c-afff-d90dcfd63f87","system_id":"levelo_inurba_marseille","lat":43.28001,"lon":5.41665,"is_reserved":false,"is_disabled":false,"rental_uris":{"android":"levelo://app?vid=5bf7a144-894d-4c5c-afff-d90dcfd63f87","ios":"levelo://app?vid=5bf7a144-894d-4c5c-afff-d90dcfd63f87"},"vehicle_type_id":"4","last_reported":1747822292,"current_range_meters":17200,"station_id":"ce4bho12rcd13ifvqh1g","pricing_plan_id":"cebpf4jnsgd1na2vs0mg"},{"bike_id":"2b6c3286-142e-473e-8f76-c5a225ad2f2a","system_id":"levelo_inurba_marseille","lat":43.3176,"lon":5.39013,"is_reserved":false,"is_disabled":false,"rental_uris":{"android":"levelo://app?vid=2b6c3286-142e-473e-8f76-c5a225ad2f2a","ios":"levelo://app?vid=2b6c3286-142e-473e-8f76-c5a225ad2f2a"},"vehicle_type_id":"4","last_reported":1747822292,"current_range_meters":17200,"station_id":"ce4bhqp2rcd13ifvqhng","pricing_plan_id":"cebpf4jnsgd1na2vs0mg"},{"bike_id":"b075732e-e941-479b-9417-f853b1af7266","system_id":"levelo_inurba_marseille","lat":43.30743,"lon":5.42459,"is_reserved":false,"is_disabled":false,"rental_uris":{"android":"levelo://app?vid=b075732e-e941-479b-9417-f853b1af7266","ios":"levelo://app?vid=b075732e-e941-479b-9417-f853b1af7266"},"vehicle_type_id":"4","last_reported":1747822292,"current_range_meters":17200,"station_id":"st_cvj6ca6bvosntc0bfgr0","pricing_plan_id":"cebpf4jnsgd1na2vs0mg"},{"bike_id":"a1f171e7-6823-45c8-a29f-51cfbfc63352","system_id":"levelo_inurba_marseille","lat":43.33757,"lon":5.37433,"is_reserved":false,"is_disabled":false,"rental_uris":{"android":"levelo://app?vid=a1f171e7-6823-45c8-a29f-51cfbfc63352","ios":"levelo://app?vid=a1f171e7-6823-45c8-a29f-51cfbfc63352"},"vehicle_type_id":"4","last_reported":1747822292,"current_range_meters":17600,"station_id":"","pricing_plan_id":"cebpf4jnsgd1na2vs0mg"},{"bike_id":"2d17f447-8ddd-46da-92ee-b626610266d5","system_id":"levelo_inurba_marseille","lat":43.31074,"lon":5.38354,"is_reserved":false,"is_disabled":false,"rental_uris":{"android":"levelo://app?vid=2d17f447-8ddd-46da-92ee-b626610266d5","ios":"levelo://app?vid=2d17f447-8ddd-46da-92ee-b626610266d5"},"vehicle_type_id":"4","last_reported":1747822292,"current_range_meters":17600,"station_id":"ce4bgv92rcd13ifvqcr0","pricing_plan_id":"cebpf4jnsgd1na2vs0mg"},{"bike_id":"861f4a84-2fc6-475a-ac64-9ee908125eb5","system_id":"levelo_inurba_marseille","lat":43.313259,"lon":5.39696,"is_reserved":false,"is_disabled":false,"rental_uris":{"android":"levelo://app?vid=861f4a84-2fc6-475a-ac64-9ee908125eb5","ios":"levelo://app?vid=861f4a84-2fc6-475a-ac64-9ee908125eb5"},"vehicle_type_id":"4","last_reported":1747822292,"current_range_meters":17600,"station_id":"ce4bgvp2rcd13ifvqcu0","pricing_plan_id":"cebpf4jnsgd1na2vs0mg"},{"bike_id":"be06887e-89bb-4ccc-880e-0755093717d5","system_id":"levelo_inurba_marseille","lat":43.28618,"lon":5.35112,"is_reserved":false,"is_disabled":false,"rental_uris":{"android":"levelo://app?vid=be06887e-89bb-4ccc-880e-0755093717d5","ios":"levelo://app?vid=be06887e-89bb-4ccc-880e-0755093717d5"},"vehicle_type_id":"4","last_reported":1747822292,"current_range_meters":17600,"station_id":"ce4bhch2rcd13ifvqeug","pricing_plan_id":"cebpf4jnsgd1na2vs0mg"},{"bike_id":"7b5de037-479a-459d-a3bc-4ee37d6835a6","system_id":"levelo_inurba_marseille","lat":43.26175,"lon":5.37481,"is_reserved":false,"is_disabled":false,"rental_uris":{"android":"levelo://app?vid=7b5de037-479a-459d-a3bc-4ee37d6835a6","ios":"levelo://app?vid=7b5de037-479a-459d-a3bc-4ee37d6835a6"},"vehicle_type_id":"4","last_reported":1747822292,"current_range_meters":17600,"station_id":"ce4bhgp2rcd13ifvqfc0","pricing_plan_id":"cebpf4jnsgd1na2vs0mg"},{"bike_id":"29de2ffb-574a-484d-b5fd-49359a647b4a","system_id":"levelo_inurba_marseille","lat":43.2756,"lon":5.3842,"is_reserved":false,"is_disabled":false,"rental_uris":{"android":"levelo://app?vid=29de2ffb-574a-484d-b5fd-49359a647b4a","ios":"levelo://app?vid=29de2ffb-574a-484d-b5fd-49359a647b4a"},"vehicle_type_id":"4","last_reported":1747822292,"current_range_meters":17600,"station_id":"ce4bhh92rcd13ifvqfi0","pricing_plan_id":"cebpf4jnsgd1na2vs0mg"},{"bike_id":"512cad48-a180-4060-b1f1-89c6ef5852f2","system_id":"levelo_inurba_marseille","lat":43.23187,"lon":5.39987,"is_reserved":false,"is_disabled":false,"rental_uris":{"android":"levelo://app?vid=512cad48-a180-4060-b1f1-89c6ef5852f2","ios":"levelo://app?vid=512cad48-a180-4060-b1f1-89c6ef5852f2"},"vehicle_type_id":"4","last_reported":1747822292,"current_range_meters":17600,"station_id":"ce4bhn12rcd13ifvqgqg","pricing_plan_id":"cebpf4jnsgd1na2vs0mg"},{"bike_id":"308f1b2f-e901-4b0e-a642-7c92e464a0b0","system_id":"levelo_inurba_marseille","lat":43.28011,"lon":5.39985,"is_reserved":false,"is_disabled":false,"rental_uris":{"android":"levelo://app?vid=308f1b2f-e901-4b0e-a642-7c92e464a0b0","ios":"levelo://app?vid=308f1b2f-e901-4b0e-a642-7c92e464a0b0"},"vehicle_type_id":"4","last_reported":1747822292,"current_range_meters":17600,"station_id":"ce4bho92rcd13ifvqh4g","pricing_plan_id":"cebpf4jnsgd1na2vs0mg"},{"bike_id":"5129acdd-2547-4a4d-99f1-b3c93e253dac","system_id":"levelo_inurba_marseille","lat":43.31226,"lon":5.36857,"is_reserved":false,"is_disabled":false,"rental_uris":{"android":"levelo://app?vid=5129acdd-2547-4a4d-99f1-b3c93e253dac","ios":"levelo://app?vid=5129acdd-2547-4a4d-99f1-b3c93e253dac"},"vehicle_type_id":"4","last_reported":1747822292,"current_range_meters":18000,"station_id":"ce4bgl92rcd13ifvqbq0","pricing_plan_id":"cebpf4jnsgd1na2vs0mg"},{"bike_id":"21358f7d-f42d-4bfe-b5ae-0ae61aab8caa","system_id":"levelo_inurba_marseille","lat":43.24649,"lon":5.38891,"is_reserved":false,"is_disabled":false,"rental_uris":{"android":"levelo://app?vid=21358f7d-f42d-4bfe-b5ae-0ae61aab8caa","ios":"levelo://app?vid=21358f7d-f42d-4bfe-b5ae-0ae61aab8caa"},"vehicle_type_id":"4","last_reported":1747822292,"current_range_meters":18000,"station_id":"ce4bhg12rcd13ifvqf60","pricing_plan_id":"cebpf4jnsgd1na2vs0mg"},{"bike_id":"e5a09778-5760-4dbe-a386-59458e5d6d34","system_id":"levelo_inurba_marseille","lat":43.24802,"lon":5.37455,"is_reserved":false,"is_disabled":false,"rental_uris":{"android":"levelo://app?vid=e5a09778-5760-4dbe-a386-59458e5d6d34","ios":"levelo://app?vid=e5a09778-5760-4dbe-a386-59458e5d6d34"},"vehicle_type_id":"4","last_reported":1747822292,"current_range_meters":18000,"station_id":"ce4bhgh2rcd13ifvqfb0","pricing_plan_id":"cebpf4jnsgd1na2vs0mg"},{"bike_id":"1d8b4ba8-7775-4eff-a957-acbcd593ba19","system_id":"levelo_inurba_marseille","lat":43.27182,"lon":5.40986,"is_reserved":false,"is_disabled":false,"rental_uris":{"android":"levelo://app?vid=1d8b4ba8-7775-4eff-a957-acbcd593ba19","ios":"levelo://app?vid=1d8b4ba8-7775-4eff-a957-acbcd593ba19"},"vehicle_type_id":"4","last_reported":1747822292,"current_range_meters":18000,"station_id":"ce4bhl12rcd13ifvqgf0","pricing_plan_id":"cebpf4jnsgd1na2vs0mg"},{"bike_id":"bc01ca4f-6423-4660-887a-b557b7dd6835","system_id":"levelo_inurba_marseille","lat":43.27813,"lon":5.40715,"is_reserved":false,"is_disabled":false,"rental_uris":{"android":"levelo://app?vid=bc01ca4f-6423-4660-887a-b557b7dd6835","ios":"levelo://app?vid=bc01ca4f-6423-4660-887a-b557b7dd6835"},"vehicle_type_id":"4","last_reported":1747822292,"current_range_meters":18000,"station_id":"ce4bhnh2rcd13ifvqgtg","pricing_plan_id":"cebpf4jnsgd1na2vs0mg"},{"bike_id":"f95467c3-7995-404a-bdb2-7e975cf59345","system_id":"levelo_inurba_marseille","lat":43.28707,"lon":5.39988,"is_reserved":false,"is_disabled":false,"rental_uris":{"android":"levelo://app?vid=f95467c3-7995-404a-bdb2-7e975cf59345","ios":"levelo://app?vid=f95467c3-7995-404a-bdb2-7e975cf59345"},"vehicle_type_id":"4","last_reported":1747822292,"current_range_meters":18000,"station_id":"ce4bho92rcd13ifvqh3g","pricing_plan_id":"cebpf4jnsgd1na2vs0mg"},{"bike_id":"3a48c182-8aa9-4817-97ec-3a2c2ae3fb96","system_id":"levelo_inurba_marseille","lat":43.29899,"lon":5.43647,"is_reserved":false,"is_disabled":false,"rental_uris":{"android":"levelo://app?vid=3a48c182-8aa9-4817-97ec-3a2c2ae3fb96","ios":"levelo://app?vid=3a48c182-8aa9-4817-97ec-3a2c2ae3fb96"},"vehicle_type_id":"4","last_reported":1747822292,"current_range_meters":18000,"station_id":"ce4bhpp2rcd13ifvqhfg","pricing_plan_id":"cebpf4jnsgd1na2vs0mg"},{"bike_id":"e99a519c-8c33-489e-be23-d9eb9ff49952","system_id":"levelo_inurba_marseille","lat":43.3376,"lon":5.3742,"is_reserved":false,"is_disabled":false,"rental_uris":{"android":"levelo://app?vid=e99a519c-8c33-489e-be23-d9eb9ff49952","ios":"levelo://app?vid=e99a519c-8c33-489e-be23-d9eb9ff49952"},"vehicle_type_id":"4","last_reported":1747822292,"current_range_meters":18800,"station_id":"","pricing_plan_id":"cebpf4jnsgd1na2vs0mg"},{"bike_id":"8dd2d96d-d03c-4523-9519-aa9107fa6a17","system_id":"levelo_inurba_marseille","lat":43.29599,"lon":5.38099,"is_reserved":false,"is_disabled":false,"rental_uris":{"android":"levelo://app?vid=8dd2d96d-d03c-4523-9519-aa9107fa6a17","ios":"levelo://app?vid=8dd2d96d-d03c-4523-9519-aa9107fa6a17"},"vehicle_type_id":"4","last_reported":1747822292,"current_range_meters":18800,"station_id":"ce4bgl12rcd13ifvqbo0","pricing_plan_id":"cebpf4jnsgd1na2vs0mg"},{"bike_id":"cc5273e9-792c-4a38-b145-d9476038cb1a","system_id":"levelo_inurba_marseille","lat":43.274317,"lon":5.394,"is_reserved":false,"is_disabled":false,"rental_uris":{"android":"levelo://app?vid=cc5273e9-792c-4a38-b145-d9476038cb1a","ios":"levelo://app?vid=cc5273e9-792c-4a38-b145-d9476038cb1a"},"vehicle_type_id":"4","last_reported":1747822292,"current_range_meters":18800,"station_id":"ce4bhdp2rcd13ifvqf20","pricing_plan_id":"cebpf4jnsgd1na2vs0mg"},{"bike_id":"e384a851-8a83-49f3-8856-dc02278bbbd5","system_id":"levelo_inurba_marseille","lat":43.2455,"lon":5.39513,"is_reserved":false,"is_disabled":false,"rental_uris":{"android":"levelo://app?vid=e384a851-8a83-49f3-8856-dc02278bbbd5","ios":"levelo://app?vid=e384a851-8a83-49f3-8856-dc02278bbbd5"},"vehicle_type_id":"4","last_reported":1747822292,"current_range_meters":18800,"station_id":"ce4bhlp2rcd13ifvqgjg","pricing_plan_id":"cebpf4jnsgd1na2vs0mg"},{"bike_id":"ed3012b8-bc58-4fd0-b1ee-c50361ef51d0","system_id":"levelo_inurba_marseille","lat":43.25083,"lon":5.39527,"is_reserved":false,"is_disabled":false,"rental_uris":{"android":"levelo://app?vid=ed3012b8-bc58-4fd0-b1ee-c50361ef51d0","ios":"levelo://app?vid=ed3012b8-bc58-4fd0-b1ee-c50361ef51d0"},"vehicle_type_id":"4","last_reported":1747822292,"current_range_meters":18800,"station_id":"ce4bhm12rcd13ifvqgkg","pricing_plan_id":"cebpf4jnsgd1na2vs0mg"},{"bike_id":"605365fd-0976-4fcc-a42a-ee810d6ebd22","system_id":"levelo_inurba_marseille","lat":43.25089,"lon":5.39513,"is_reserved":false,"is_disabled":false,"rental_uris":{"android":"levelo://app?vid=605365fd-0976-4fcc-a42a-ee810d6ebd22","ios":"levelo://app?vid=605365fd-0976-4fcc-a42a-ee810d6ebd22"},"vehicle_type_id":"4","last_reported":1747822292,"current_range_meters":18800,"station_id":"ce4bhm12rcd13ifvqgkg","pricing_plan_id":"cebpf4jnsgd1na2vs0mg"},{"bike_id":"1a34ddf8-02ae-440e-b6e3-f2c03323862b","system_id":"levelo_inurba_marseille","lat":43.262243,"lon":5.404548,"is_reserved":false,"is_disabled":false,"rental_uris":{"android":"levelo://app?vid=1a34ddf8-02ae-440e-b6e3-f2c03323862b","ios":"levelo://app?vid=1a34ddf8-02ae-440e-b6e3-f2c03323862b"},"vehicle_type_id":"4","last_reported":1747822292,"current_range_meters":18800,"station_id":"ce4bhmh2rcd13ifvqgmg","pricing_plan_id":"cebpf4jnsgd1na2vs0mg"},{"bike_id":"9f46dd6e-32ef-4c52-b1a0-0b57c31262bf","system_id":"levelo_inurba_marseille","lat":43.28081,"lon":5.39662,"is_reserved":false,"is_disabled":false,"rental_uris":{"android":"levelo://app?vid=9f46dd6e-32ef-4c52-b1a0-0b57c31262bf","ios":"levelo://app?vid=9f46dd6e-32ef-4c52-b1a0-0b57c31262bf"},"vehicle_type_id":"4","last_reported":1747822292,"current_range_meters":18800,"station_id":"ce4bho12rcd13ifvqh2g","pricing_plan_id":"cebpf4jnsgd1na2vs0mg"},{"bike_id":"25d236cd-2a56-463a-af8f-72e04ba4faa2","system_id":"levelo_inurba_marseille","lat":43.31329,"lon":5.39701,"is_reserved":false,"is_disabled":false,"rental_uris":{"android":"levelo://app?vid=25d236cd-2a56-463a-af8f-72e04ba4faa2","ios":"levelo://app?vid=25d236cd-2a56-463a-af8f-72e04ba4faa2"},"vehicle_type_id":"4","last_reported":1747822292,"current_range_meters":19200,"station_id":"ce4bgvp2rcd13ifvqcu0","pricing_plan_id":"cebpf4jnsgd1na2vs0mg"},{"bike_id":"8690f46a-3559-4abd-a99f-f615844afeb9","system_id":"levelo_inurba_marseille","lat":43.27072,"lon":5.42281,"is_reserved":false,"is_disabled":false,"rental_uris":{"android":"levelo://app?vid=8690f46a-3559-4abd-a99f-f615844afeb9","ios":"levelo://app?vid=8690f46a-3559-4abd-a99f-f615844afeb9"},"vehicle_type_id":"4","last_reported":1747822292,"current_range_meters":19200,"station_id":"ce4bhk92rcd13ifvqgb0","pricing_plan_id":"cebpf4jnsgd1na2vs0mg"},{"bike_id":"3952f952-41e3-4694-865b-bada7d1d8b98","system_id":"levelo_inurba_marseille","lat":43.25926,"lon":5.40902,"is_reserved":false,"is_disabled":false,"rental_uris":{"android":"levelo://app?vid=3952f952-41e3-4694-865b-bada7d1d8b98","ios":"levelo://app?vid=3952f952-41e3-4694-865b-bada7d1d8b98"},"vehicle_type_id":"4","last_reported":1747822292,"current_range_meters":19200,"station_id":"ce4bhm92rcd13ifvqglg","pricing_plan_id":"cebpf4jnsgd1na2vs0mg"},{"bike_id":"03d0f06a-ea4a-4496-bced-b467bb24e575","system_id":"levelo_inurba_marseille","lat":43.2293,"lon":5.35378,"is_reserved":false,"is_disabled":false,"rental_uris":{"android":"levelo://app?vid=03d0f06a-ea4a-4496-bced-b467bb24e575","ios":"levelo://app?vid=03d0f06a-ea4a-4496-bced-b467bb24e575"},"vehicle_type_id":"4","last_reported":1747822292,"current_range_meters":19200,"station_id":"cpo3532slgdg3j2ikp40","pricing_plan_id":"cebpf4jnsgd1na2vs0mg"},{"bike_id":"8d2a0cfd-b0f7-4822-afa8-2cf8c7ea91aa","system_id":"levelo_inurba_marseille","lat":43.29845,"lon":5.36276,"is_reserved":false,"is_disabled":false,"rental_uris":{"android":"levelo://app?vid=8d2a0cfd-b0f7-4822-afa8-2cf8c7ea91aa","ios":"levelo://app?vid=8d2a0cfd-b0f7-4822-afa8-2cf8c7ea91aa"},"vehicle_type_id":"4","last_reported":1747822292,"current_range_meters":19600,"station_id":"ce4bgpp2rcd13ifvqc3g","pricing_plan_id":"cebpf4jnsgd1na2vs0mg"},{"bike_id":"286b5dde-71e1-44ab-9ee9-4a52137b30ed","system_id":"levelo_inurba_marseille","lat":43.313276,"lon":5.396978,"is_reserved":false,"is_disabled":false,"rental_uris":{"android":"levelo://app?vid=286b5dde-71e1-44ab-9ee9-4a52137b30ed","ios":"levelo://app?vid=286b5dde-71e1-44ab-9ee9-4a52137b30ed"},"vehicle_type_id":"4","last_reported":1747822292,"current_range_meters":19600,"station_id":"ce4bgvp2rcd13ifvqcu0","pricing_plan_id":"cebpf4jnsgd1na2vs0mg"},{"bike_id":"3049c727-804f-4091-b33f-29c2aa0d9f66","system_id":"levelo_inurba_marseille","lat":43.25087,"lon":5.39525,"is_reserved":false,"is_disabled":false,"rental_uris":{"android":"levelo://app?vid=3049c727-804f-4091-b33f-29c2aa0d9f66","ios":"levelo://app?vid=3049c727-804f-4091-b33f-29c2aa0d9f66"},"vehicle_type_id":"4","last_reported":1747822292,"current_range_meters":19600,"station_id":"ce4bhm12rcd13ifvqgkg","pricing_plan_id":"cebpf4jnsgd1na2vs0mg"},{"bike_id":"9479bbb8-dcb4-42ed-b38d-e838c4d19a30","system_id":"levelo_inurba_marseille","lat":43.29258,"lon":5.37611,"is_reserved":false,"is_disabled":false,"rental_uris":{"android":"levelo://app?vid=9479bbb8-dcb4-42ed-b38d-e838c4d19a30","ios":"levelo://app?vid=9479bbb8-dcb4-42ed-b38d-e838c4d19a30"},"vehicle_type_id":"4","last_reported":1747822292,"current_range_meters":20000,"station_id":"ce4bgi12rcd13ifvqb80","pricing_plan_id":"cebpf4jnsgd1na2vs0mg"},{"bike_id":"d8272ca3-76af-483b-8c0a-eca2a7c0c3f8","system_id":"levelo_inurba_marseille","lat":43.298433,"lon":5.362663,"is_reserved":false,"is_disabled":false,"rental_uris":{"android":"levelo://app?vid=d8272ca3-76af-483b-8c0a-eca2a7c0c3f8","ios":"levelo://app?vid=d8272ca3-76af-483b-8c0a-eca2a7c0c3f8"},"vehicle_type_id":"4","last_reported":1747822292,"current_range_meters":20000,"station_id":"ce4bgpp2rcd13ifvqc3g","pricing_plan_id":"cebpf4jnsgd1na2vs0mg"},{"bike_id":"a13aada3-4a25-42fd-8828-01a831f59b16","system_id":"levelo_inurba_marseille","lat":43.29005,"lon":5.35608,"is_reserved":false,"is_disabled":false,"rental_uris":{"android":"levelo://app?vid=a13aada3-4a25-42fd-8828-01a831f59b16","ios":"levelo://app?vid=a13aada3-4a25-42fd-8828-01a831f59b16"},"vehicle_type_id":"4","last_reported":1747822292,"current_range_meters":20000,"station_id":"ce4bhb92rcd13ifvqen0","pricing_plan_id":"cebpf4jnsgd1na2vs0mg"},{"bike_id":"f14fa791-7ed9-418a-9645-5a94551ef9c8","system_id":"levelo_inurba_marseille","lat":43.26566,"lon":5.37285,"is_reserved":false,"is_disabled":false,"rental_uris":{"android":"levelo://app?vid=f14fa791-7ed9-418a-9645-5a94551ef9c8","ios":"levelo://app?vid=f14fa791-7ed9-418a-9645-5a94551ef9c8"},"vehicle_type_id":"4","last_reported":1747822292,"current_range_meters":20000,"station_id":"ce4bhg12rcd13ifvqf70","pricing_plan_id":"cebpf4jnsgd1na2vs0mg"},{"bike_id":"b611a948-04cb-4249-8665-08274db53db2","system_id":"levelo_inurba_marseille","lat":43.30605,"lon":5.37231,"is_reserved":false,"is_disabled":false,"rental_uris":{"android":"levelo://app?vid=b611a948-04cb-4249-8665-08274db53db2","ios":"levelo://app?vid=b611a948-04cb-4249-8665-08274db53db2"},"vehicle_type_id":"4","last_reported":1747822292,"current_range_meters":20400,"station_id":"ce4bgqh2rcd13ifvqc4g","pricing_plan_id":"cebpf4jnsgd1na2vs0mg"},{"bike_id":"880e9c14-7f08-4a43-8eb9-dd6aa2bc8df1","system_id":"levelo_inurba_marseille","lat":43.30556,"lon":5.36521,"is_reserved":false,"is_disabled":false,"rental_uris":{"android":"levelo://app?vid=880e9c14-7f08-4a43-8eb9-dd6aa2bc8df1","ios":"levelo://app?vid=880e9c14-7f08-4a43-8eb9-dd6aa2bc8df1"},"vehicle_type_id":"4","last_reported":1747822292,"current_range_meters":20400,"station_id":"ce4bgs12rcd13ifvqcag","pricing_plan_id":"cebpf4jnsgd1na2vs0mg"},{"bike_id":"4085066c-1874-4b14-a471-27456d45553f","system_id":"levelo_inurba_marseille","lat":43.31496,"lon":5.37304,"is_reserved":false,"is_disabled":false,"rental_uris":{"android":"levelo://app?vid=4085066c-1874-4b14-a471-27456d45553f","ios":"levelo://app?vid=4085066c-1874-4b14-a471-27456d45553f"},"vehicle_type_id":"4","last_reported":1747822292,"current_range_meters":20400,"station_id":"ce4bgt12rcd13ifvqcd0","pricing_plan_id":"cebpf4jnsgd1na2vs0mg"},{"bike_id":"35b6de80-eb54-48d8-80ee-a100b29c2293","system_id":"levelo_inurba_marseille","lat":43.31324,"lon":5.39693,"is_reserved":false,"is_disabled":false,"rental_uris":{"android":"levelo://app?vid=35b6de80-eb54-48d8-80ee-a100b29c2293","ios":"levelo://app?vid=35b6de80-eb54-48d8-80ee-a100b29c2293"},"vehicle_type_id":"4","last_reported":1747822292,"current_range_meters":20400,"station_id":"ce4bgvp2rcd13ifvqcu0","pricing_plan_id":"cebpf4jnsgd1na2vs0mg"},{"bike_id":"a2383fdb-2b5d-49c5-9036-1ad56ef3d943","system_id":"levelo_inurba_marseille","lat":43.28418,"lon":5.34975,"is_reserved":false,"is_disabled":false,"rental_uris":{"android":"levelo://app?vid=a2383fdb-2b5d-49c5-9036-1ad56ef3d943","ios":"levelo://app?vid=a2383fdb-2b5d-49c5-9036-1ad56ef3d943"},"vehicle_type_id":"4","last_reported":1747822292,"current_range_meters":20400,"station_id":"ce4bhbh2rcd13ifvqepg","pricing_plan_id":"cebpf4jnsgd1na2vs0mg"},{"bike_id":"3a2aa673-957b-41be-83dc-0545f2ad02c0","system_id":"levelo_inurba_marseille","lat":43.24385,"lon":5.37064,"is_reserved":false,"is_disabled":false,"rental_uris":{"android":"levelo://app?vid=3a2aa673-957b-41be-83dc-0545f2ad02c0","ios":"levelo://app?vid=3a2aa673-957b-41be-83dc-0545f2ad02c0"},"vehicle_type_id":"4","last_reported":1747822292,"current_range_meters":20400,"station_id":"ce4bhhh2rcd13ifvqfk0","pricing_plan_id":"cebpf4jnsgd1na2vs0mg"},