{"last_updated":1678568773,"ttl":30,"version":"2.2","data":{"bikes":[{"bike_id":"db584dcb-fc52-4378-8819-6f433a832c5a","system_id":"levelo_inurba_marseille","lat":43.30895,"lon":5.36846,"is_reserved":false,"is_disabled":false,"rental_uris":{"android":"levelo://app?vid=db584dcb-fc52-4378-8819-6f433a832c5a","ios":"levelo://app?vid=db584dcb-fc52-4378-8819-6f433a832c5a"},"vehicle_type_id":"4","last_reported":1678568774,"current_range_meters":0,"station_id":"","pricing_plan_id":"free"},{"bike_id":"ccf42d3a-5a2a-44b4-8a68-aa47682ebb3c","system_id":"levelo_inurba_marseille","lat":43.31783,"lon":5.368083,"is_reserved":false,"is_disabled":false,"rental_uris":{"android":"levelo://app?vid=ccf42d3a-5a2a-44b4-8a68-aa47682ebb3c","ios":"levelo://app?vid=ccf42d3a-5a2a-44b4-8a68-aa47682ebb3c"},"vehicle_type_id":"4","last_reported":1678568774,"current_range_meters":12800,"station_id":"","pricing_plan_id":"free"},{"bike_id":"d90966e6-bdff-4689-8246-ee3e26f668dd","system_id":"levelo_inurba_marseille","lat":43.30886,"lon":5.371885,"is_reserved":false,"is_disabled":false,"rental_uris":{"android":"levelo://app?vid=d90966e6-bdff-4689-8246-ee3e26f668dd","ios":"levelo://app?vid=d90966e6-bdff-4689-8246-ee3e26f668dd"},"vehicle_type_id":"4","last_reported":1678568774,"current_range_meters":4400,"station_id":"","pricing_plan_id":"free"},{"bike_id":"5b7ac36b-4879-435c-bde8-d948bdc9a90d","system_id":"levelo_inurba_marseille","lat":43.308324,"lon":5.376585,"is_reserved":false,"is_disabled":false,"rental_uris":{"android":"levelo://app?vid=5b7ac36b-4879-435c-bde8-d948bdc9a90d","ios":"levelo://app?vid=5b7ac36b-4879-435c-bde8-d948bdc9a90d"},"vehicle_type_id":"4","last_reported":1678568774,"current_range_meters":0,"station_id":"ce4bgv92rcd13ifvqcq0","pricing_plan_id":"free"},{"bike_id":"5440f78d-1fcd-48f4-8792-4a50e2bae8a6","system_id":"levelo_inurba_marseille","lat":43.317075,"lon":5.377367,"is_reserved":false,"is_disabled":false,"rental_uris":{"android":"levelo://app?vid=5440f78d-1fcd-48f4-8792-4a50e2bae8a6","ios":"levelo://app?vid=5440f78d-1fcd-48f4-8792-4a50e2bae8a6"},"vehicle_type_id":"4","last_reported":1678568774,"current_range_meters":20400,"station_id":"ce4bgth2rcd13ifvqch0","pricing_plan_id":"free"},{"bike_id":"56012012-15b8-4c12-b547-202fcea6e6ff","system_id":"levelo_inurba_marseille","lat":43.317075,"lon":5.377367,"is_reserved":false,"is_disabled":false,"rental_uris":{"android":"levelo://app?vid=56012012-15b8-4c12-b547-202fcea6e6ff","ios":"levelo://app?vid=56012012-15b8-4c12-b547-202fcea6e6ff"},"vehicle_type_id":"4","last_reported":1678568774,"current_range_meters":16800,"station_id":"ce4bgth2rcd13ifvqch0","pricing_plan_id":"free"},{"bike_id":"003ec28f-bc25-4cdd-a524-c6b02aa6e319","system_id":"levelo_inurba_marseille","lat":43.317053,"lon":5.377515,"is_reserved":false,"is_disabled":false,"rental_uris":{"android":"levelo://app?vid=003ec28f-bc25-4cdd-a524-c6b02aa6e319","ios":"levelo://app?vid=003ec28f-bc25-4cdd-a524-c6b02aa6e319"},"vehicle_type_id":"4","last_reported":1678568774,"current_range_meters":15600,"station_id":"","pricing_plan_id":"free"},{"bike_id":"878f0e81-eda5-425b-9816-843edae93cbf","system_id":"levelo_inurba_marseille","lat":43.317075,"lon":5.377367,"is_reserved":false,"is_disabled":false,"rental_uris":{"android":"levelo://app?vid=878f0e81-eda5-425b-9816-843edae93cbf","ios":"levelo://app?vid=878f0e81-eda5-425b-9816-843edae93cbf"},"vehicle_type_id":"4","last_reported":1678568774,"current_range_meters":400,"station_id":"ce4bgth2rcd13ifvqch0","pricing_plan_id":"free"},{"bike_id":"e01f44e0-e5e0-4cb4-bac7-3fc94f7d8b96","system_id":"levelo_inurba_marseille","lat":43.317075,"lon":5.377367,"is_reserved":false,"is_disabled":false,"rental_uris":{"android":"levelo://app?vid=e01f44e0-e5e0-4cb4-bac7-3fc94f7d8b96","ios":"levelo://app?vid=e01f44e0-e5e0-4cb4-bac7-3fc94f7d8b96"},"vehicle_type_id":"4","last_reported":1678568774,"current_range_meters":26400,"station_id":"ce4bgth2rcd13ifvqch0","pricing_plan_id":"free"},{"bike_id":"83129ceb-0c43-479c-94b1-245c23138ee4","system_id":"levelo_inurba_marseille","lat":43.30342,"lon":5.37255,"is_reserved":false,"is_disabled":false,"rental_uris":{"android":"levelo://app?vid=83129ceb-0c43-479c-94b1-245c23138ee4","ios":"levelo://app?vid=83129ceb-0c43-479c-94b1-245c23138ee4"},"vehicle_type_id":"4","last_reported":1678568774,"current_range_meters":0,"station_id":"","pricing_plan_id":"free"},{"bike_id":"46a4a20c-5f57-49b7-9f8b-396fb03f2994","system_id":"levelo_inurba_marseille","lat":43.301939,"lon":5.366286,"is_reserved":false,"is_disabled":false,"rental_uris":{"android":"levelo://app?vid=46a4a20c-5f57-49b7-9f8b-396fb03f2994","ios":"levelo://app?vid=46a4a20c-5f57-49b7-9f8b-396fb03f2994"},"vehicle_type_id":"4","last_reported":1678568774,"current_range_meters":14000,"station_id":"ce4bgrh2rcd13ifvqc8g","pricing_plan_id":"free"},{"bike_id":"4e661f70-2a07-4be3-b2cb-7245fe887a38","system_id":"levelo_inurba_marseille","lat":43.301939,"lon":5.366286,"is_reserved":false,"is_disabled":false,"rental_uris":{"android":"levelo://app?vid=4e661f70-2a07-4be3-b2cb-7245fe887a38","ios":"levelo://app?vid=4e661f70-2a07-4be3-b2cb-7245fe887a38"},"vehicle_type_id":"4","last_reported":1678568774,"current_range_meters":27200,"station_id":"ce4bgrh2rcd13ifvqc8g","pricing_plan_id":"free"},{"bike_id":"4dc301db-4e59-406b-97f4-2859bf55295f","system_id":"levelo_inurba_marseille","lat":43.3046,"lon":5.37904,"is_reserved":false,"is_disabled":false,"rental_uris":{"android":"levelo://app?vid=4dc301db-4e59-406b-97f4-2859bf55295f","ios":"levelo://app?vid=4dc301db-4e59-406b-97f4-2859bf55295f"},"vehicle_type_id":"4","last_reported":1678568774,"current_range_meters":15200,"station_id":"ce4bgup2rcd13ifvqcn0","pricing_plan_id":"free"},{"bike_id":"caa7fd6b-ca3b-4dc6-9361-91720c1cdf73","system_id":"levelo_inurba_marseille","lat":43.30459,"lon":5.37907,"is_reserved":false,"is_disabled":false,"rental_uris":{"android":"levelo://app?vid=caa7fd6b-ca3b-4dc6-9361-91720c1cdf73","ios":"levelo://app?vid=caa7fd6b-ca3b-4dc6-9361-91720c1cdf73"},"vehicle_type_id":"4","last_reported":1678568774,"current_range_meters":0,"station_id":"","pricing_plan_id":"free"},{"bike_id":"a69a9f8d-4658-47da-bb15-59b4c2d2ef45","system_id":"levelo_inurba_marseille","lat":43.304606,"lon":5.379026,"is_reserved":false,"is_disabled":false,"rental_uris":{"android":"levelo://app?vid=a69a9f8d-4658-47da-bb15-59b4c2d2ef45","ios":"levelo://app?vid=a69a9f8d-4658-47da-bb15-59b4c2d2ef45"},"vehicle_type_id":"4","last_reported":1678568774,"current_range_meters":4800,"station_id":"ce4bgup2rcd13ifvqcn0","pricing_plan_id":"free"},{"bike_id":"6e659a07-ca28-4923-b9fb-d586173c0a1e","system_id":"levelo_inurba_marseille","lat":43.304606,"lon":5.379026,"is_reserved":false,"is_disabled":false,"rental_uris":{"android":"levelo://app?vid=6e659a07-ca28-4923-b9fb-d586173c0a1e","ios":"levelo://app?vid=6e659a07-ca28-4923-b9fb-d586173c0a1e"},"vehicle_type_id":"4","last_reported":1678568774,"current_range_meters":4800,"station_id":"ce4bgup2rcd13ifvqcn0","pricing_plan_id":"free"},{"bike_id":"16bdf53b-5ff9-4550-96bf-599fd562d4ef","system_id":"levelo_inurba_marseille","lat":43.304606,"lon":5.379026,"is_reserved":false,"is_disabled":false,"rental_uris":{"android":"levelo://app?vid=16bdf53b-5ff9-4550-96bf-599fd562d4ef","ios":"levelo://app?vid=16bdf53b-5ff9-4550-96bf-599fd562d4ef"},"vehicle_type_id":"4","last_reported":1678568774,"current_range_meters":16800,"station_id":"ce4bgup2rcd13ifvqcn0","pricing_plan_id":"free"},{"bike_id":"bdb415f9-c5fc-4c35-998d-fe1d29d2e5e0","system_id":"levelo_inurba_marseille","lat":43.301969,"lon":5.375008,"is_reserved":false,"is_disabled":false,"rental_uris":{"android":"levelo://app?vid=bdb415f9-c5fc-4c35-998d-fe1d29d2e5e0","ios":"levelo://app?vid=bdb415f9-c5fc-4c35-998d-fe1d29d2e5e0"},"vehicle_type_id":"4","last_reported":1678568774,"current_range_meters":0,"station_id":"","pricing_plan_id":"free"},{"bike_id":"bd9d62e0-8d24-4932-8454-9f83366eabc8","system_id":"levelo_inurba_marseille","lat":43.30143,"lon":5.37413,"is_reserved":false,"is_disabled":false,"rental_uris":{"android":"levelo://app?vid=bd9d62e0-8d24-4932-8454-9f83366eabc8","ios":"levelo://app?vid=bd9d62e0-8d24-4932-8454-9f83366eabc8"},"vehicle_type_id":"4","last_reported":1678568774,"current_range_meters":10000,"station_id":"ce4bgs92rcd13ifvqcc0","pricing_plan_id":"free"},{"bike_id":"94d16f7f-3614-415e-a1e5-08024012b0ce","system_id":"levelo_inurba_marseille","lat":43.301429,"lon":5.37413,"is_reserved":false,"is_disabled":false,"rental_uris":{"android":"levelo://app?vid=94d16f7f-3614-415e-a1e5-08024012b0ce","ios":"levelo://app?vid=94d16f7f-3614-415e-a1e5-08024012b0ce"},"vehicle_type_id":"4","last_reported":1678568774,"current_range_meters":7600,"station_id":"ce4bgs92rcd13ifvqcc0","pricing_plan_id":"free"},{"bike_id":"0701ea9d-9c92-4830-8ba4-e3f822eea920","system_id":"levelo_inurba_marseille","lat":43.30143,"lon":5.37413,"is_reserved":false,"is_disabled":false,"rental_uris":{"android":"levelo://app?vid=0701ea9d-9c92-4830-8ba4-e3f822eea920","ios":"levelo://app?vid=0701ea9d-9c92-4830-8ba4-e3f822eea920"},"vehicle_type_id":"4","last_reported":1678568774,"current_range_meters":28400,"station_id":"ce4bgs92rcd13ifvqcc0","pricing_plan_id":"free"},{"bike_id":"a7a58afd-6e54-43dd-b9f7-1eff8278c59d","system_id":"levelo_inurba_marseille","lat":43.30143,"lon":5.37413,"is_reserved":false,"is_disabled":false,"rental_uris":{"android":"levelo://app?vid=a7a58afd-6e54-43dd-b9f7-1eff8278c59d","ios":"levelo://app?vid=a7a58afd-6e54-43dd-b9f7-1eff8278c59d"},"vehicle_type_id":"4","last_reported":1678568774,"current_range_meters":12400,"station_id":"ce4bgs92rcd13ifvqcc0","pricing_plan_id":"free"},{"bike_id":"aca1184b-e505-4fdc-b6f0-0c9bb1077395","system_id":"levelo_inurba_marseille","lat":43.313571,"lon":5.384829,"is_reserved":false,"is_disabled":false,"rental_uris":{"android":"levelo://app?vid=aca1184b-e505-4fdc-b6f0-0c9bb1077395","ios":"levelo://app?vid=aca1184b-e505-4fdc-b6f0-0c9bb1077395"},"vehicle_type_id":"4","last_reported":1678568774,"current_range_meters":17200,"station_id":"ce4bgt92rcd13ifvqcf0","pricing_plan_id":"free"},{"bike_id":"f5c76f12-1c22-47f4-9c6c-a8f622b5a186","system_id":"levelo_inurba_marseille","lat":43.29932,"lon":5.36549,"is_reserved":false,"is_disabled":false,"rental_uris":{"android":"levelo://app?vid=f5c76f12-1c22-47f4-9c6c-a8f622b5a186","ios":"levelo://app?vid=f5c76f12-1c22-47f4-9c6c-a8f622b5a186"},"vehicle_type_id":"4","last_reported":1678568774,"current_range_meters":24000,"station_id":"","pricing_plan_id":"free"},{"bike_id":"7b38ca56-5eb2-49d2-bf3f-bbf574657171","system_id":"levelo_inurba_marseille","lat":43.30569,"lon":5.3827,"is_reserved":false,"is_disabled":false,"rental_uris":{"android":"levelo://app?vid=7b38ca56-5eb2-49d2-bf3f-bbf574657171","ios":"levelo://app?vid=7b38ca56-5eb2-49d2-bf3f-bbf574657171"},"vehicle_type_id":"4","last_reported":1678568774,"current_range_meters":13200,"station_id":"","pricing_plan_id":"free"},{"bike_id":"23069d61-07f8-4a56-85f3-2f8bbcc526f7","system_id":"levelo_inurba_marseille","lat":43.298433,"lon":5.362774,"is_reserved":false,"is_disabled":false,"rental_uris":{"android":"levelo://app?vid=23069d61-07f8-4a56-85f3-2f8bbcc526f7","ios":"levelo://app?vid=23069d61-07f8-4a56-85f3-2f8bbcc526f7"},"vehicle_type_id":"4","last_reported":1678568774,"current_range_meters":9200,"station_id":"ce4bgpp2rcd13ifvqc3g","pricing_plan_id":"free"},{"bike_id":"df3d7a1b-1bac-414a-919c-0acc9c6f5669","system_id":"levelo_inurba_marseille","lat":43.305364,"lon":5.384119,"is_reserved":false,"is_disabled":false,"rental_uris":{"android":"levelo://app?vid=df3d7a1b-1bac-414a-919c-0acc9c6f5669","ios":"levelo://app?vid=df3d7a1b-1bac-414a-919c-0acc9c6f5669"},"vehicle_type_id":"4","last_reported":1678568774,"current_range_meters":5200,"station_id":"ce4bgg92rcd13ifvqb30","pricing_plan_id":"free"},{"bike_id":"91102199-be5c-4393-86b9-267a3dc95ba9","system_id":"levelo_inurba_marseille","lat":43.30534,"lon":5.38424,"is_reserved":false,"is_disabled":false,"rental_uris":{"android":"levelo://app?vid=91102199-be5c-4393-86b9-267a3dc95ba9","ios":"levelo://app?vid=91102199-be5c-4393-86b9-267a3dc95ba9"},"vehicle_type_id":"4","last_reported":1678568774,"current_range_meters":19200,"station_id":"ce4bgg92rcd13ifvqb30","pricing_plan_id":"free"},{"bike_id":"9366edcc-ca0d-43a5-82ae-4fa92caf5dd4","system_id":"levelo_inurba_marseille","lat":43.311722,"lon":5.387247,"is_reserved":false,"is_disabled":false,"rental_uris":{"android":"levelo://app?vid=9366edcc-ca0d-43a5-82ae-4fa92caf5dd4","ios":"levelo://app?vid=9366edcc-ca0d-43a5-82ae-4fa92caf5dd4"},"vehicle_type_id":"4","last_reported":1678568774,"current_range_meters":2000,"station_id":"ce4bgv12rcd13ifvqcp0","pricing_plan_id":"free"},{"bike_id":"458c98e5-99ae-44e2-ae7a-ccfe7fe39579","system_id":"levelo_inurba_marseille","lat":43.311722,"lon":5.387247,"is_reserved":false,"is_disabled":false,"rental_uris":{"android":"levelo://app?vid=458c98e5-99ae-44e2-ae7a-ccfe7fe39579","ios":"levelo://app?vid=458c98e5-99ae-44e2-ae7a-ccfe7fe39579"},"vehicle_type_id":"4","last_reported":1678568774,"current_range_meters":28000,"station_id":"ce4bgv12rcd13ifvqcp0","pricing_plan_id":"free"},{"bike_id":"f99d3b47-bc88-4d0a-bfb4-8566c3fa73b5","system_id":"levelo_inurba_marseille","lat":43.311722,"lon":5.387247,"is_reserved":false,"is_disabled":false,"rental_uris":{"android":"levelo://app?vid=f99d3b47-bc88-4d0a-bfb4-8566c3fa73b5","ios":"levelo://app?vid=f99d3b47-bc88-4d0a-bfb4-8566c3fa73b5"},"vehicle_type_id":"4","last_reported":1678568774,"current_range_meters":11200,"station_id":"ce4bgv12rcd13ifvqcp0","pricing_plan_id":"free"},{"bike_id":"84d541ca-a84d-4005-af37-27ab3d87e12c","system_id":"levelo_inurba_marseille","lat":43.311722,"lon":5.387247,"is_reserved":false,"is_disabled":false,"rental_uris":{"android":"levelo://app?vid=84d541ca-a84d-4005-af37-27ab3d87e12c","ios":"levelo://app?vid=84d541ca-a84d-4005-af37-27ab3d87e12c"},"vehicle_type_id":"4","last_reported":1678568774,"current_range_meters":23600,"station_id":"ce4bgv12rcd13ifvqcp0","pricing_plan_id":"free"},{"bike_id":"97ad37c7-a01f-4f78-af30-5319cd45e7ed","system_id":"levelo_inurba_marseille","lat":43.298433,"lon":5.362774,"is_reserved":false,"is_disabled":false,"rental_uris":{"android":"levelo://app?vid=97ad37c7-a01f-4f78-af30-5319cd45e7ed","ios":"levelo://app?vid=97ad37c7-a01f-4f78-af30-5319cd45e7ed"},"vehicle_type_id":"4","last_reported":1678568774,"current_range_meters":3200,"station_id":"ce4bgpp2rcd13ifvqc3g","pricing_plan_id":"free"},{"bike_id":"22ebd2a6-f80f-4c38-ada3-263028153afb","system_id":"levelo_inurba_marseille","lat":43.328371,"lon":5.366912,"is_reserved":false,"is_disabled":false,"rental_uris":{"android":"levelo://app?vid=22ebd2a6-f80f-4c38-ada3-263028153afb","ios":"levelo://app?vid=22ebd2a6-f80f-4c38-ada3-263028153afb"},"vehicle_type_id":"4","last_reported":1678568774,"current_range_meters":28800,"station_id":"ce4bhs92rcd13ifvqi0g","pricing_plan_id":"free"},{"bike_id":"70db027b-5957-4c3d-a2f9-a8a4d79b8eac","system_id":"levelo_inurba_marseille","lat":43.328371,"lon":5.366909,"is_reserved":false,"is_disabled":false,"rental_uris":{"android":"levelo://app?vid=70db027b-5957-4c3d-a2f9-a8a4d79b8eac","ios":"levelo://app?vid=70db027b-5957-4c3d-a2f9-a8a4d79b8eac"},"vehicle_type_id":"4","last_reported":1678568774,"current_range_meters":4000,"station_id":"ce4bhs92rcd13ifvqi0g","pricing_plan_id":"free"},{"bike_id":"c96f2d64-10b9-4826-93b5-7efc32bb0caf","system_id":"levelo_inurba_marseille","lat":43.328371,"lon":5.366909,"is_reserved":false,"is_disabled":false,"rental_uris":{"android":"levelo://app?vid=c96f2d64-10b9-4826-93b5-7efc32bb0caf","ios":"levelo://app?vid=c96f2d64-10b9-4826-93b5-7efc32bb0caf"},"vehicle_type_id":"4","last_reported":1678568774,"current_range_meters":9200,"station_id":"ce4bhs92rcd13ifvqi0g","pricing_plan_id":"free"},{"bike_id":"9a3e8659-050b-4e9e-a97d-d77ae798a02d","system_id":"levelo_inurba_marseille","lat":43.328371,"lon":5.366909,"is_reserved":false,"is_disabled":false,"rental_uris":{"android":"levelo://app?vid=9a3e8659-050b-4e9e-a97d-d77ae798a02d","ios":"levelo://app?vid=9a3e8659-050b-4e9e-a97d-d77ae798a02d"},"vehicle_type_id":"4","last_reported":1678568774,"current_range_meters":9600,"station_id":"ce4bhs92rcd13ifvqi0g","pricing_plan_id":"free"},{"bike_id":"09c1be90-9a08-43cf-bf13-e1882045e67a","system_id":"levelo_inurba_marseille","lat":43.3003,"lon":5.38072,"is_reserved":false,"is_disabled":false,"rental_uris":{"android":"levelo://app?vid=09c1be90-9a08-43cf-bf13-e1882045e67a","ios":"levelo://app?vid=09c1be90-9a08-43cf-bf13-e1882045e67a"},"vehicle_type_id":"4","last_reported":1678568774,"current_range_meters":16800,"station_id":"","pricing_plan_id":"free"},{"bike_id":"1c4b26ae-6078-4fec-abc8-8e51a59595ae","system_id":"levelo_inurba_marseille","lat":43.29573,"lon":5.367355,"is_reserved":false,"is_disabled":false,"rental_uris":{"android":"levelo://app?vid=1c4b26ae-6078-4fec-abc8-8e51a59595ae","ios":"levelo://app?vid=1c4b26ae-6078-4fec-abc8-8e51a59595ae"},"vehicle_type_id":"4","last_reported":1678568774,"current_range_meters":5600,"station_id":"ce4bgph2rcd13ifvqc2g","pricing_plan_id":"free"},{"bike_id":"50bd9918-8313-4776-baa7-51a598c7f2c6","system_id":"levelo_inurba_marseille","lat":43.29584,"lon":5.36751,"is_reserved":false,"is_disabled":false,"rental_uris":{"android":"levelo://app?vid=50bd9918-8313-4776-baa7-51a598c7f2c6","ios":"levelo://app?vid=50bd9918-8313-4776-baa7-51a598c7f2c6"},"vehicle_type_id":"4","last_reported":1678568774,"current_range_meters":400,"station_id":"ce4bgph2rcd13ifvqc2g","pricing_plan_id":"free"},{"bike_id":"e5f25d41-3cec-44a9-ba83-18ca0bc7160d","system_id":"levelo_inurba_marseille","lat":43.295783,"lon":5.367435,"is_reserved":false,"is_disabled":false,"rental_uris":{"android":"levelo://app?vid=e5f25d41-3cec-44a9-ba83-18ca0bc7160d","ios":"levelo://app?vid=e5f25d41-3cec-44a9-ba83-18ca0bc7160d"},"vehicle_type_id":"4","last_reported":1678568774,"current_range_meters":25600,"station_id":"","pricing_plan_id":"free"},{"bike_id":"f11ad8d7-b42b-4b90-a978-1cf76efa093a","system_id":"levelo_inurba_marseille","lat":43.29573,"lon":5.367355,"is_reserved":false,"is_disabled":false,"rental_uris":{"android":"levelo://app?vid=f11ad8d7-b42b-4b90-a978-1cf76efa093a","ios":"levelo://app?vid=f11ad8d7-b42b-4b90-a978-1cf76efa093a"},"vehicle_type_id":"4","last_reported":1678568774,"current_range_meters":5200,"station_id":"ce4bgph2rcd13ifvqc2g","pricing_plan_id":"free"},{"bike_id":"f7179c6f-0f07-4463-85d3-501283b9b399","system_id":"levelo_inurba_marseille","lat":43.309589,"lon":5.390258,"is_reserved":false,"is_disabled":false,"rental_uris":{"android":"levelo://app?vid=f7179c6f-0f07-4463-85d3-501283b9b399","ios":"levelo://app?vid=f7179c6f-0f07-4463-85d3-501283b9b399"},"vehicle_type_id":"4","last_reported":1678568774,"current_range_meters":22400,"station_id":"ce4bgup2rcd13ifvqco0","pricing_plan_id":"free"},{"bike_id":"2d147397-e5a0-45aa-b790-5d6dd30c0c24","system_id":"levelo_inurba_marseille","lat":43.30955,"lon":5.39037,"is_reserved":false,"is_disabled":false,"rental_uris":{"android":"levelo://app?vid=2d147397-e5a0-45aa-b790-5d6dd30c0c24","ios":"levelo://app?vid=2d147397-e5a0-45aa-b790-5d6dd30c0c24"},"vehicle_type_id":"4","last_reported":1678568774,"current_range_meters":30000,"station_id":"ce4bgup2rcd13ifvqco0","pricing_plan_id":"free"},{"bike_id":"f504cd5b-1a79-41a5-9705-d213a340f9bf","system_id":"levelo_inurba_marseille","lat":43.299028,"lon":5.381509,"is_reserved":false,"is_disabled":false,"rental_uris":{"android":"levelo://app?vid=f504cd5b-1a79-41a5-9705-d213a340f9bf","ios":"levelo://app?vid=f504cd5b-1a79-41a5-9705-d213a340f9bf"},"vehicle_type_id":"4","last_reported":1678568774,"current_range_meters":20400,"station_id":"ce4bgj12rcd13ifvqbc0","pricing_plan_id":"free"},{"bike_id":"e612a666-9b67-4a04-b9c9-ccecefbb580c","system_id":"levelo_inurba_marseille","lat":43.317557,"lon":5.390173,"is_reserved":false,"is_disabled":false,"rental_uris":{"android":"levelo://app?vid=e612a666-9b67-4a04-b9c9-ccecefbb580c","ios":"levelo://app?vid=e612a666-9b67-4a04-b9c9-ccecefbb580c"},"vehicle_type_id":"4","last_reported":1678568774,"current_range_meters":31600,"station_id":"ce4bhqp2rcd13ifvqhng","pricing_plan_id":"free"},{"bike_id":"29ee8031-70ec-42cf-8949-eb5a60c96431","system_id":"levelo_inurba_marseille","lat":43.317557,"lon":5.390173,"is_reserved":false,"is_disabled":false,"rental_uris":{"android":"levelo://app?vid=29ee8031-70ec-42cf-8949-eb5a60c96431","ios":"levelo://app?vid=29ee8031-70ec-42cf-8949-eb5a60c96431"},"vehicle_type_id":"4","last_reported":1678568774,"current_range_meters":30400,"station_id":"ce4bhqp2rcd13ifvqhng","pricing_plan_id":"free"},{"bike_id":"0fbf2b6d-77d8-454f-8789-8881ddd2edd7","system_id":"levelo_inurba_marseille","lat":43.317557,"lon":5.390173,"is_reserved":false,"is_disabled":false,"rental_uris":{"android":"levelo://app?vid=0fbf2b6d-77d8-454f-8789-8881ddd2edd7","ios":"levelo://app?vid=0fbf2b6d-77d8-454f-8789-8881ddd2edd7"},"vehicle_type_id":"4","last_reported":1678568774,"current_range_meters":24000,"station_id":"ce4bhqp2rcd13ifvqhng","pricing_plan_id":"free"},{"bike_id":"55b0205a-8e75-46f5-99f3-d582e7b5723e","system_id":"levelo_inurba_marseille","lat":43.317557,"lon":5.390173,"is_reserved":false,"is_disabled":false,"rental_uris":{"android":"levelo://app?vid=55b0205a-8e75-46f5-99f3-d582e7b5723e","ios":"levelo://app?vid=55b0205a-8e75-46f5-99f3-d582e7b5723e"},"vehicle_type_id":"4","last_reported":1678568774,"current_range_meters":15200,"station_id":"ce4bhqp2rcd13ifvqhng","pricing_plan_id":"free"},{"bike_id":"776723cd-ea0f-4401-9bc6-9d6bdce7578d","system_id":"levelo_inurba_marseille","lat":43.317557,"lon":5.390173,"is_reserved":false,"is_disabled":false,"rental_uris":{"android":"levelo://app?vid=776723cd-ea0f-4401-9bc6-9d6bdce7578d","ios":"levelo://app?vid=776723cd-ea0f-4401-9bc6-9d6bdce7578d"},"vehicle_type_id":"4","last_reported":1678568774,"current_range_meters":22400,"station_id":"ce4bhqp2rcd13ifvqhng","pricing_plan_id":"free"},{"bike_id":"10181c2b-6116-47eb-ae0b-ff80d825779c","system_id":"levelo_inurba_marseille","lat":43.317557,"lon":5.390173,"is_reserved":false,"is_disabled":false,"rental_uris":{"android":"levelo://app?vid=10181c2b-6116-47eb-ae0b-ff80d825779c","ios":"levelo://app?vid=10181c2b-6116-47eb-ae0b-ff80d825779c"},"vehicle_type_id":"4","last_reported":1678568774,"current_range_meters":25200,"station_id":"ce4bhqp2rcd13ifvqhng","pricing_plan_id":"free"},{"bike_id":"80ad3bc1-c0f4-4ae7-abcc-62ebdf7b454a","system_id":"levelo_inurba_marseille","lat":43.317557,"lon":5.390173,"is_reserved":false,"is_disabled":false,"rental_uris":{"android":"levelo://app?vid=80ad3bc1-c0f4-4ae7-abcc-62ebdf7b454a","ios":"levelo://app?vid=80ad3bc1-c0f4-4ae7-abcc-62ebdf7b454a"},"vehicle_type_id":"4","last_reported":1678568774,"current_range_meters":31600,"station_id":"ce4bhqp2rcd13ifvqhng","pricing_plan_id":"free"},{"bike_id":"7af0b745-be9d-4dd6-8d05-34a9e5e495d5","system_id":"levelo_inurba_marseille","lat":43.317557,"lon":5.390173,"is_reserved":false,"is_disabled":false,"rental_uris":{"android":"levelo://app?vid=7af0b745-be9d-4dd6-8d05-34a9e5e495d5","ios":"levelo://app?vid=7af0b745-be9d-4dd6-8d05-34a9e5e495d5"},"vehicle_type_id":"4","last_reported":1678568774,"current_range_meters":27600,"station_id":"ce4bhqp2rcd13ifvqhng","pricing_plan_id":"free"},{"bike_id":"7b2fd3ff-69cd-40f4-a036-ed30dda90606","system_id":"levelo_inurba_marseille","lat":43.295783,"lon":5.37499,"is_reserved":false,"is_disabled":false,"rental_uris":{"android":"levelo://app?vid=7b2fd3ff-69cd-40f4-a036-ed30dda90606","ios":"levelo://app?vid=7b2fd3ff-69cd-40f4-a036-ed30dda90606"},"vehicle_type_id":"4","last_reported":1678568774,"current_range_meters":15200,"station_id":"","pricing_plan_id":"free"},{"bike_id":"c6044cac-ae4c-482f-8673-6ec83114fa33","system_id":"levelo_inurba_marseille","lat":43.296263,"lon":5.377094,"is_reserved":false,"is_disabled":false,"rental_uris":{"android":"levelo://app?vid=c6044cac-ae4c-482f-8673-6ec83114fa33","ios":"levelo://app?vid=c6044cac-ae4c-482f-8673-6ec83114fa33"},"vehicle_type_id":"4","last_reported":1678568774,"current_range_meters":0,"station_id":"ce4bgi92rcd13ifvqb90","pricing_plan_id":"free"},{"bike_id":"c85cd27b-e69e-4391-8fa7-5d948f5342d2","system_id":"levelo_inurba_marseille","lat":43.295339,"lon":5.374693,"is_reserved":false,"is_disabled":false,"rental_uris":{"android":"levelo://app?vid=c85cd27b-e69e-4391-8fa7-5d948f5342d2","ios":"levelo://app?vid=c85cd27b-e69e-4391-8fa7-5d948f5342d2"},"vehicle_type_id":"4","last_reported":1678568774,"current_range_meters":0,"station_id":"","pricing_plan_id":"free"},{"bike_id":"b511f3d7-bcb8-46a5-ae5f-cf0dc06cf307","system_id":"levelo_inurba_marseille","lat":43.299778,"lon":5.384928,"is_reserved":false,"is_disabled":false,"rental_uris":{"android":"levelo://app?vid=b511f3d7-bcb8-46a5-ae5f-cf0dc06cf307","ios":"levelo://app?vid=b511f3d7-bcb8-46a5-ae5f-cf0dc06cf307"},"vehicle_type_id":"4","last_reported":1678568774,"current_range_meters":0,"station_id":"ce4bgj92rcd13ifvqbd0","pricing_plan_id":"free"},{"bike_id":"d5896ea2-0c82-4fa7-9b67-cb27f01bcfce","system_id":"levelo_inurba_marseille","lat":43.299715,"lon":5.384863,"is_reserved":false,"is_disabled":false,"rental_uris":{"android":"levelo://app?vid=d5896ea2-0c82-4fa7-9b67-cb27f01bcfce","ios":"levelo://app?vid=d5896ea2-0c82-4fa7-9b67-cb27f01bcfce"},"vehicle_type_id":"4","last_reported":1678568774,"current_range_meters":0,"station_id":"","pricing_plan_id":"free"},{"bike_id":"119fc3bf-4523-45d0-b759-7d1bbf6fdbf3","system_id":"levelo_inurba_marseille","lat":43.32367,"lon":5.388836,"is_reserved":false,"is_disabled":false,"rental_uris":{"android":"levelo://app?vid=119fc3bf-4523-45d0-b759-7d1bbf6fdbf3","ios":"levelo://app?vid=119fc3bf-4523-45d0-b759-7d1bbf6fdbf3"},"vehicle_type_id":"4","last_reported":1678568774,"current_range_meters":18800,"station_id":"ce4bhqp2rcd13ifvqhog","pricing_plan_id":"free"},{"bike_id":"53b760a8-a9fd-42d5-ab9b-e8ded5d1a33b","system_id":"levelo_inurba_marseille","lat":43.32367,"lon":5.388836,"is_reserved":false,"is_disabled":false,"rental_uris":{"android":"levelo://app?vid=53b760a8-a9fd-42d5-ab9b-e8ded5d1a33b","ios":"levelo://app?vid=53b760a8-a9fd-42d5-ab9b-e8ded5d1a33b"},"vehicle_type_id":"4","last_reported":1678568774,"current_range_meters":27600,"station_id":"ce4bhqp2rcd13ifvqhog","pricing_plan_id":"free"},{"bike_id":"9f7b7f52-bdb5-446c-b3e2-21b0e5369ba1","system_id":"levelo_inurba_marseille","lat":43.32367,"lon":5.388836,"is_reserved":false,"is_disabled":false,"rental_uris":{"android":"levelo://app?vid=9f7b7f52-bdb5-446c-b3e2-21b0e5369ba1","ios":"levelo://app?vid=9f7b7f52-bdb5-446c-b3e2-21b0e5369ba1"},"vehicle_type_id":"4","last_reported":1678568774,"current_range_meters":31600,"station_id":"ce4bhqp2rcd13ifvqhog","pricing_plan_id":"free"},{"bike_id":"b1e2453e-b5bb-4b6e-8924-e348d50edcfe","system_id":"levelo_inurba_marseille","lat":43.32367,"lon":5.388836,"is_reserved":false,"is_disabled":false,"rental_uris":{"android":"levelo://app?vid=b1e2453e-b5bb-4b6e-8924-e348d50edcfe","ios":"levelo://app?vid=b1e2453e-b5bb-4b6e-8924-e348d50edcfe"},"vehicle_type_id":"4","last_reported":1678568774,"current_range_meters":9600,"station_id":"ce4bhqp2rcd13ifvqhog","pricing_plan_id":"free"},{"bike_id":"007cd52a-fdd4-45d1-92eb-f50edc7c1def","system_id":"levelo_inurba_marseille","lat":43.32367,"lon":5.388836,"is_reserved":false,"is_disabled":false,"rental_uris":{"android":"levelo://app?vid=007cd52a-fdd4-45d1-92eb-f50edc7c1def","ios":"levelo://app?vid=007cd52a-fdd4-45d1-92eb-f50edc7c1def"},"vehicle_type_id":"4","last_reported":1678568774,"current_range_meters":15600,"station_id":"ce4bhqp2rcd13ifvqhog","pricing_plan_id":"free"},{"bike_id":"0e681a27-32e8-4437-8c72-92305bee9285","system_id":"levelo_inurba_marseille","lat":43.30593,"lon":5.39351,"is_reserved":false,"is_disabled":false,"rental_uris":{"android":"levelo://app?vid=0e681a27-32e8-4437-8c72-92305bee9285","ios":"levelo://app?vid=0e681a27-32e8-4437-8c72-92305bee9285"},"vehicle_type_id":"4","last_reported":1678568774,"current_range_meters":16000,"station_id":"ce4bh0p2rcd13ifvqd80","pricing_plan_id":"free"},{"bike_id":"e0251f71-0d71-4841-b69b-9a488ab70673","system_id":"levelo_inurba_marseille","lat":43.293009,"lon":5.374584,"is_reserved":false,"is_disabled":false,"rental_uris":{"android":"levelo://app?vid=e0251f71-0d71-4841-b69b-9a488ab70673","ios":"levelo://app?vid=e0251f71-0d71-4841-b69b-9a488ab70673"},"vehicle_type_id":"4","last_reported":1678568774,"current_range_meters":17600,"station_id":"ce4bgi12rcd13ifvqb70","pricing_plan_id":"free"},{"bike_id":"2437b172-eec0-4784-9001-787a2825f408","system_id":"levelo_inurba_marseille","lat":43.313291,"lon":5.396838,"is_reserved":false,"is_disabled":false,"rental_uris":{"android":"levelo://app?vid=2437b172-eec0-4784-9001-787a2825f408","ios":"levelo://app?vid=2437b172-eec0-4784-9001-787a2825f408"},"vehicle_type_id":"4","last_reported":1678568774,"current_range_meters":25600,"station_id":"ce4bgvp2rcd13ifvqcu0","pricing_plan_id":"free"},{"bike_id":"b8362f4a-a03b-4747-9bce-6f15ca8f2d49","system_id":"levelo_inurba_marseille","lat":43.313291,"lon":5.396838,"is_reserved":false,"is_disabled":false,"rental_uris":{"android":"levelo://app?vid=b8362f4a-a03b-4747-9bce-6f15ca8f2d49","ios":"levelo://app?vid=b8362f4a-a03b-4747-9bce-6f15ca8f2d49"},"vehicle_type_id":"4","last_reported":1678568774,"current_range_meters":15600,"station_id":"ce4bgvp2rcd13ifvqcu0","pricing_plan_id":"free"},{"bike_id":"4dcff1ae-8d84-427a-9a66-47664dd2c866","system_id":"levelo_inurba_marseille","lat":43.313291,"lon":5.396838,"is_reserved":false,"is_disabled":false,"rental_uris":{"android":"levelo://app?vid=4dcff1ae-8d84-427a-9a66-47664dd2c866","ios":"levelo://app?vid=4dcff1ae-8d84-427a-9a66-47664dd2c866"},"vehicle_type_id":"4","last_reported":1678568774,"current_range_meters":15600,"station_id":"ce4bgvp2rcd13ifvqcu0","pricing_plan_id":"free"},{"bike_id":"93e102b9-14be-4219-ac27-d911d4fe75e9","system_id":"levelo_inurba_marseille","lat":43.313291,"lon":5.396838,"is_reserved":false,"is_disabled":false,"rental_uris":{"android":"levelo://app?vid=93e102b9-14be-4219-ac27-d911d4fe75e9","ios":"levelo://app?vid=93e102b9-14be-4219-ac27-d911d4fe75e9"},"vehicle_type_id":"4","last_reported":1678568774,"current_range_meters":28400,"station_id":"ce4bgvp2rcd13ifvqcu0","pricing_plan_id":"free"},{"bike_id":"62798985-c703-4429-b66b-e458f452d381","system_id":"levelo_inurba_marseille","lat":43.313291,"lon":5.396838,"is_reserved":false,"is_disabled":false,"rental_uris":{"android":"levelo://app?vid=62798985-c703-4429-b66b-e458f452d381","ios":"levelo://app?vid=62798985-c703-4429-b66b-e458f452d381"},"vehicle_type_id":"4","last_reported":1678568774,"current_range_meters":8800,"station_id":"ce4bgvp2rcd13ifvqcu0","pricing_plan_id":"free"},{"bike_id":"c1b7a151-dd87-4a5c-bc0e-dea80827bb70","system_id":"levelo_inurba_marseille","lat":43.313291,"lon":5.396838,"is_reserved":false,"is_disabled":false,"rental_uris":{"android":"levelo://app?vid=c1b7a151-dd87-4a5c-bc0e-dea80827bb70","ios":"levelo://app?vid=c1b7a151-dd87-4a5c-bc0e-dea80827bb70"},"vehicle_type_id":"4","last_reported":1678568774,"current_range_meters":13200,"station_id":"ce4bgvp2rcd13ifvqcu0","pricing_plan_id":"free"},{"bike_id":"4bacb50a-03c8-4a81-9dea-64dbf6bca64e","system_id":"levelo_inurba_marseille","lat":43.29527,"lon":5.3853,"is_reserved":false,"is_disabled":false,"rental_uris":{"android":"levelo://app?vid=4bacb50a-03c8-4a81-9dea-64dbf6bca64e","ios":"levelo://app?vid=4bacb50a-03c8-4a81-9dea-64dbf6bca64e"},"vehicle_type_id":"4","last_reported":1678568774,"current_range_meters":24000,"station_id":"ce4bgih2rcd13ifvqba0","pricing_plan_id":"free"},{"bike_id":"c79628b4-7ed6-4704-9f97-aaf779fb1da4","system_id":"levelo_inurba_marseille","lat":43.29529,"lon":5.385581,"is_reserved":false,"is_disabled":false,"rental_uris":{"android":"levelo://app?vid=c79628b4-7ed6-4704-9f97-aaf779fb1da4","ios":"levelo://app?vid=c79628b4-7ed6-4704-9f97-aaf779fb1da4"},"vehicle_type_id":"4","last_reported":1678568774,"current_range_meters":25200,"station_id":"ce4bgih2rcd13ifvqba0","pricing_plan_id":"free"},{"bike_id":"c955738d-67e6-4f21-b32a-bc08e1e258bd","system_id":"levelo_inurba_marseille","lat":43.29529,"lon":5.385581,"is_reserved":false,"is_disabled":false,"rental_uris":{"android":"levelo://app?vid=c955738d-67e6-4f21-b32a-bc08e1e258bd","ios":"levelo://app?vid=c955738d-67e6-4f21-b32a-bc08e1e258bd"},"vehicle_type_id":"4","last_reported":1678568774,"current_range_meters":0,"station_id":"ce4bgih2rcd13ifvqba0","pricing_plan_id":"free"},{"bike_id":"71a3d5f3-3fa3-4b8a-abf8-6c66d5f01be5","system_id":"levelo_inurba_marseille","lat":43.29365,"lon":5.38349,"is_reserved":false,"is_disabled":false,"rental_uris":{"android":"levelo://app?vid=71a3d5f3-3fa3-4b8a-abf8-6c66d5f01be5","ios":"levelo://app?vid=71a3d5f3-3fa3-4b8a-abf8-6c66d5f01be5"},"vehicle_type_id":"4","last_reported":1678568774,"current_range_meters":20800,"station_id":"ce4bh692rcd13ifvqea0","pricing_plan_id":"free"},{"bike_id":"6b82772e-584b-47f0-a5c0-f4a77989c61e","system_id":"levelo_inurba_marseille","lat":43.302008,"lon":5.394694,"is_reserved":false,"is_disabled":false,"rental_uris":{"android":"levelo://app?vid=6b82772e-584b-47f0-a5c0-f4a77989c61e","ios":"levelo://app?vid=6b82772e-584b-47f0-a5c0-f4a77989c61e"},"vehicle_type_id":"4","last_reported":1678568774,"current_range_meters":800,"station_id":"ce4bh0p2rcd13ifvqd70","pricing_plan_id":"free"},{"bike_id":"9d8125af-9fb3-4b46-b0f3-1bbe48ee7e7c","system_id":"levelo_inurba_marseille","lat":43.302008,"lon":5.394694,"is_reserved":false,"is_disabled":false,"rental_uris":{"android":"levelo://app?vid=9d8125af-9fb3-4b46-b0f3-1bbe48ee7e7c","ios":"levelo://app?vid=9d8125af-9fb3-4b46-b0f3-1bbe48ee7e7c"},"vehicle_type_id":"4","last_reported":1678568774,"current_range_meters":10400,"station_id":"ce4bh0p2rcd13ifvqd70","pricing_plan_id":"free"},{"bike_id":"f0bb8e73-ac7d-41e8-9db8-bd0fe9b414d7","system_id":"levelo_inurba_marseille","lat":43.289468,"lon":5.363719,"is_reserved":false,"is_disabled":false,"rental_uris":{"android":"levelo://app?vid=f0bb8e73-ac7d-41e8-9db8-bd0fe9b414d7","ios":"levelo://app?vid=f0bb8e73-ac7d-41e8-9db8-bd0fe9b414d7"},"vehicle_type_id":"4","last_reported":1678568774,"current_range_meters":20800,"station_id":"ce4bhc92rcd13ifvqetg","pricing_plan_id":"free"},{"bike_id":"6cdaedbe-f5ff-491d-b346-921c84e36904","system_id":"levelo_inurba_marseille","lat":43.29046,"lon":5.35915,"is_reserved":false,"is_disabled":false,"rental_uris":{"android":"levelo://app?vid=6cdaedbe-f5ff-491d-b346-921c84e36904","ios":"levelo://app?vid=6cdaedbe-f5ff-491d-b346-921c84e36904"},"vehicle_type_id":"4","last_reported":1678568774,"current_range_meters":19200,"station_id":"ce4bha92rcd13ifvqeg0","pricing_plan_id":"free"},{"bike_id":"98d17ab9-cb35-43ad-81e7-9163b0f56535","system_id":"levelo_inurba_marseille","lat":43.290443,"lon":5.359177,"is_reserved":false,"is_disabled":false,"rental_uris":{"android":"levelo://app?vid=98d17ab9-cb35-43ad-81e7-9163b0f56535","ios":"levelo://app?vid=98d17ab9-cb35-43ad-81e7-9163b0f56535"},"vehicle_type_id":"4","last_reported":1678568774,"current_range_meters":10800,"station_id":"","pricing_plan_id":"free"},{"bike_id":"df2a55fb-5b18-44c7-a842-71d750ed991c","system_id":"levelo_inurba_marseille","lat":43.294153,"lon":5.386305,"is_reserved":false,"is_disabled":false,"rental_uris":{"android":"levelo://app?vid=df2a55fb-5b18-44c7-a842-71d750ed991c","ios":"levelo://app?vid=df2a55fb-5b18-44c7-a842-71d750ed991c"},"vehicle_type_id":"4","last_reported":1678568774,"current_range_meters":0,"station_id":"ce4bh2h2rcd13ifvqdh0","pricing_plan_id":"free"},{"bike_id":"6821fe9d-6d02-496c-aac4-a9e07c642238","system_id":"levelo_inurba_marseille","lat":43.294337,"lon":5.386167,"is_reserved":false,"is_disabled":false,"rental_uris":{"android":"levelo://app?vid=6821fe9d-6d02-496c-aac4-a9e07c642238","ios":"levelo://app?vid=6821fe9d-6d02-496c-aac4-a9e07c642238"},"vehicle_type_id":"4","last_reported":1678568774,"current_range_meters":19600,"station_id":"","pricing_plan_id":"free"},{"bike_id":"dbea8edc-e417-4bc5-a8e7-22e6a1a3829e","system_id":"levelo_inurba_marseille","lat":43.290327,"lon":5.375711,"is_reserved":false,"is_disabled":false,"rental_uris":{"android":"levelo://app?vid=dbea8edc-e417-4bc5-a8e7-22e6a1a3829e","ios":"levelo://app?vid=dbea8edc-e417-4bc5-a8e7-22e6a1a3829e"},"vehicle_type_id":"4","last_reported":1678568774,"current_range_meters":28000,"station_id":"ce4bh692rcd13ifvqe90","pricing_plan_id":"free"},{"bike_id":"c4e8688e-b4b5-4508-b692-cf2562c55bf9","system_id":"levelo_inurba_marseille","lat":43.294153,"lon":5.386305,"is_reserved":false,"is_disabled":false,"rental_uris":{"android":"levelo://app?vid=c4e8688e-b4b5-4508-b692-cf2562c55bf9","ios":"levelo://app?vid=c4e8688e-b4b5-4508-b692-cf2562c55bf9"},"vehicle_type_id":"4","last_reported":1678568774,"current_range_meters":7200,"station_id":"ce4bh2h2rcd13ifvqdh0","pricing_plan_id":"free"},{"bike_id":"63a61f91-d06b-4fdc-b01d-fe3e2eebbb6a","system_id":"levelo_inurba_marseille","lat":43.2942,"lon":5.38637,"is_reserved":false,"is_disabled":false,"rental_uris":{"android":"levelo://app?vid=63a61f91-d06b-4fdc-b01d-fe3e2eebbb6a","ios":"levelo://app?vid=63a61f91-d06b-4fdc-b01d-fe3e2eebbb6a"},"vehicle_type_id":"4","last_reported":1678568774,"current_range_meters":24400,"station_id":"","pricing_plan_id":"free"},{"bike_id":"7d3ba5b0-892d-48c2-9355-f8d77c5628dc","system_id":"levelo_inurba_marseille","lat":43.289184,"lon":5.366408,"is_reserved":false,"is_disabled":false,"rental_uris":{"android":"levelo://app?vid=7d3ba5b0-892d-48c2-9355-f8d77c5628dc","ios":"levelo://app?vid=7d3ba5b0-892d-48c2-9355-f8d77c5628dc"},"vehicle_type_id":"4","last_reported":1678568774,"current_range_meters":8800,"station_id":"ce4bhap2rcd13ifvqek0","pricing_plan_id":"free"},{"bike_id":"b7a06c0b-321f-494a-9efb-d720bbf6528a","system_id":"levelo_inurba_marseille","lat":43.294143,"lon":5.386343,"is_reserved":false,"is_disabled":false,"rental_uris":{"android":"levelo://app?vid=b7a06c0b-321f-494a-9efb-d720bbf6528a","ios":"levelo://app?vid=b7a06c0b-321f-494a-9efb-d720bbf6528a"},"vehicle_type_id":"4","last_reported":1678568774,"current_range_meters":22000,"station_id":"ce4bh2h2rcd13ifvqdh0","pricing_plan_id":"free"},{"bike_id":"8c7583cf-74a7-4f2a-a4f3-31fa89155001","system_id":"levelo_inurba_marseille","lat":43.289468,"lon":5.363719,"is_reserved":false,"is_disabled":false,"rental_uris":{"android":"levelo://app?vid=8c7583cf-74a7-4f2a-a4f3-31fa89155001","ios":"levelo://app?vid=8c7583cf-74a7-4f2a-a4f3-31fa89155001"},"vehicle_type_id":"4","last_reported":1678568774,"current_range_meters":11600,"station_id":"ce4bhc92rcd13ifvqetg","pricing_plan_id":"free"},{"bike_id":"4d8f16dc-570f-4e2b-8f1e-9e6f458ba4ab","system_id":"levelo_inurba_marseille","lat":43.289208,"lon":5.36634,"is_reserved":false,"is_disabled":false,"rental_uris":{"android":"levelo://app?vid=4d8f16dc-570f-4e2b-8f1e-9e6f458ba4ab","ios":"levelo://app?vid=4d8f16dc-570f-4e2b-8f1e-9e6f458ba4ab"},"vehicle_type_id":"4","last_reported":1678568774,"current_range_meters":19200,"station_id":"","pricing_plan_id":"free"},{"bike_id":"51fdfa65-c15f-4483-9cce-b31dbc8d19d1","system_id":"levelo_inurba_marseille","lat":43.292795,"lon":5.384368,"is_reserved":false,"is_disabled":false,"rental_uris":{"android":"levelo://app?vid=51fdfa65-c15f-4483-9cce-b31dbc8d19d1","ios":"levelo://app?vid=51fdfa65-c15f-4483-9cce-b31dbc8d19d1"},"vehicle_type_id":"4","last_reported":1678568774,"current_range_meters":22400,"station_id":"ce4bgv12rcd13ifvqcp0","pricing_plan_id":"free"},{"bike_id":"f33f542a-9f98-40a7-a272-92c92d5f57cc","system_id":"levelo_inurba_marseille","lat":43.29271,"lon":5.38438,"is_reserved":false,"is_disabled":false,"rental_uris":{"android":"levelo://app?vid=f33f542a-9f98-40a7-a272-92c92d5f57cc","ios":"levelo://app?vid=f33f542a-9f98-40a7-a272-92c92d5f57cc"},"vehicle_type_id":"4","last_reported":1678568774,"current_range_meters":7200,"station_id":"","pricing_plan_id":"free"},{"bike_id":"ee9edc5a-d4d7-46c3-a967-b43dae9a8397","system_id":"levelo_inurba_marseille","lat":43.29265,"lon":5.38434,"is_reserved":false,"is_disabled":false,"rental_uris":{"android":"levelo://app?vid=ee9edc5a-d4d7-46c3-a967-b43dae9a8397","ios":"levelo://app?vid=ee9edc5a-d4d7-46c3-a967-b43dae9a8397"},"vehicle_type_id":"4","last_reported":1678568774,"current_range_meters":14000,"station_id":"ce4bh692rcd13ifvqea0","pricing_plan_id":"free"},{"bike_id":"ad1af4c5-1596-4714-9e54-219a9e3b4b5d","system_id":"levelo_inurba_marseille","lat":43.2927,"lon":5.3845,"is_reserved":false,"is_disabled":false,"rental_uris":{"android":"levelo://app?vid=ad1af4c5-1596-4714-9e54-219a9e3b4b5d","ios":"levelo://app?vid=ad1af4c5-1596-4714-9e54-219a9e3b4b5d"},"vehicle_type_id":"4","last_reported":1678568774,"current_range_meters":0,"station_id":"ce4bh692rcd13ifvqea0","pricing_plan_id":"free"},{"bike_id":"cf3f4313-679a-4d84-95de-5e8851ca71a5","system_id":"levelo_inurba_marseille","lat":43.292587,"lon":5.384335,"is_reserved":false,"is_disabled":false,"rental_uris":{"android":"levelo://app?vid=cf3f4313-679a-4d84-95de-5e8851ca71a5","ios":"levelo://app?vid=cf3f4313-679a-4d84-95de-5e8851ca71a5"},"vehicle_type_id":"4","last_reported":1678568774,"current_range_meters":0,"station_id":"ce4bh692rcd13ifvqea0","pricing_plan_id":"free"},{"bike_id":"54cea9a1-4580-4b33-bd4a-bf17db2559e0","system_id":"levelo_inurba_marseille","lat":43.29257,"lon":5.38441,"is_reserved":false,"is_disabled":false,"rental_uris":{"android":"levelo://app?vid=54cea9a1-4580-4b33-bd4a-bf17db2559e0","ios":"levelo://app?vid=54cea9a1-4580-4b33-bd4a-bf17db2559e0"},"vehicle_type_id":"4","last_reported":1678568774,"current_range_meters":6000,"station_id":"","pricing_plan_id":"free"},{"bike_id":"f39fa085-3947-4dc2-8fff-51c68cc6bf7b","system_id":"levelo_inurba_marseille","lat":43.29256,"lon":5.38439,"is_reserved":false,"is_disabled":false,"rental_uris":{"android":"levelo://app?vid=f39fa085-3947-4dc2-8fff-51c68cc6bf7b","ios":"levelo://app?vid=f39fa085-3947-4dc2-8fff-51c68cc6bf7b"},"vehicle_type_id":"4","last_reported":1678568774,"current_range_meters":26800,"station_id":"","pricing_plan_id":"free"},{"bike_id":"19e5e085-6e4a-4f7b-9b0f-a382cafae39a","system_id":"levelo_inurba_marseille","lat":43.292555,"lon":5.384385,"is_reserved":false,"is_disabled":false,"rental_uris":{"android":"levelo://app?vid=19e5e085-6e4a-4f7b-9b0f-a382cafae39a","ios":"levelo://app?vid=19e5e085-6e4a-4f7b-9b0f-a382cafae39a"},"vehicle_type_id":"4","last_reported":1678568774,"current_range_meters":1200,"station_id":"ce4bh692rcd13ifvqea0","pricing_plan_id":"free"},{"bike_id":"2182e73a-4abe-45c2-9eb4-6c9d33e2d991","system_id":"levelo_inurba_marseille","lat":43.29257,"lon":5.38442,"is_reserved":false,"is_disabled":false,"rental_uris":{"android":"levelo://app?vid=2182e73a-4abe-45c2-9eb4-6c9d33e2d991","ios":"levelo://app?vid=2182e73a-4abe-45c2-9eb4-6c9d33e2d991"},"vehicle_type_id":"4","last_reported":1678568774,"current_range_meters":13600,"station_id":"","pricing_plan_id":"free"},{"bike_id":"032bdb2c-cf41-43b7-b509-3a7ee38ae255","system_id":"levelo_inurba_marseille","lat":43.292579,"lon":5.384441,"is_reserved":false,"is_disabled":false,"rental_uris":{"android":"levelo://app?vid=032bdb2c-cf41-43b7-b509-3a7ee38ae255","ios":"levelo://app?vid=032bdb2c-cf41-43b7-b509-3a7ee38ae255"},"vehicle_type_id":"4","last_reported":1678568774,"current_range_meters":27200,"station_id":"","pricing_plan_id":"free"},{"bike_id":"53e557b0-1afc-4558-8686-44b47635024b","system_id":"levelo_inurba_marseille","lat":43.29256,"lon":5.38441,"is_reserved":false,"is_disabled":false,"rental_uris":{"android":"levelo://app?vid=53e557b0-1afc-4558-8686-44b47635024b","ios":"levelo://app?vid=53e557b0-1afc-4558-8686-44b47635024b"},"vehicle_type_id":"4","last_reported":1678568774,"current_range_meters":5600,"station_id":"","pricing_plan_id":"free"},{"bike_id":"433237ff-0d26-41b8-8504-083aa1693974","system_id":"levelo_inurba_marseille","lat":43.29255,"lon":5.38443,"is_reserved":false,"is_disabled":false,"rental_uris":{"android":"levelo://app?vid=433237ff-0d26-41b8-8504-083aa1693974","ios":"levelo://app?vid=433237ff-0d26-41b8-8504-083aa1693974"},"vehicle_type_id":"4","last_reported":1678568774,"current_range_meters":24000,"station_id":"","pricing_plan_id":"free"},{"bike_id":"ca966d91-df7a-45fd-80c0-d0908ef238f8","system_id":"levelo_inurba_marseille","lat":43.292525,"lon":5.384385,"is_reserved":false,"is_disabled":false,"rental_uris":{"android":"levelo://app?vid=ca966d91-df7a-45fd-80c0-d0908ef238f8","ios":"levelo://app?vid=ca966d91-df7a-45fd-80c0-d0908ef238f8"},"vehicle_type_id":"4","last_reported":1678568774,"current_range_meters":13200,"station_id":"","pricing_plan_id":"free"},{"bike_id":"b44a22ed-9ea3-4290-95cd-cd49f9ebc075","system_id":"levelo_inurba_marseille","lat":43.29255,"lon":5.38446,"is_reserved":false,"is_disabled":false,"rental_uris":{"android":"levelo://app?vid=b44a22ed-9ea3-4290-95cd-cd49f9ebc075","ios":"levelo://app?vid=b44a22ed-9ea3-4290-95cd-cd49f9ebc075"},"vehicle_type_id":"4","last_reported":1678568774,"current_range_meters":13200,"station_id":"","pricing_plan_id":"free"},{"bike_id":"58cece7e-f777-4a7e-bd7b-734e9dfa5c00","system_id":"levelo_inurba_marseille","lat":43.29252,"lon":5.38441,"is_reserved":false,"is_disabled":false,"rental_uris":{"android":"levelo://app?vid=58cece7e-f777-4a7e-bd7b-734e9dfa5c00","ios":"levelo://app?vid=58cece7e-f777-4a7e-bd7b-734e9dfa5c00"},"vehicle_type_id":"4","last_reported":1678568774,"current_range_meters":10800,"station_id":"","pricing_plan_id":"free"},{"bike_id":"b766b162-658b-40cc-82ff-11ebf0ea67d9","system_id":"levelo_inurba_marseille","lat":43.29251,"lon":5.38441,"is_reserved":false,"is_disabled":false,"rental_uris":{"android":"levelo://app?vid=b766b162-658b-40cc-82ff-11ebf0ea67d9","ios":"levelo://app?vid=b766b162-658b-40cc-82ff-11ebf0ea67d9"},"vehicle_type_id":"4","last_reported":1678568774,"current_range_meters":6000,"station_id":"","pricing_plan_id":"free"},{"bike_id":"71fdc5df-a62c-452b-adae-2661a56c676a","system_id":"levelo_inurba_marseille","lat":43.29244,"lon":5.38438,"is_reserved":false,"is_disabled":false,"rental_uris":{"android":"levelo://app?vid=71fdc5df-a62c-452b-adae-2661a56c676a","ios":"levelo://app?vid=71fdc5df-a62c-452b-adae-2661a56c676a"},"vehicle_type_id":"4","last_reported":1678568774,"current_range_meters":0,"station_id":"ce4bh692rcd13ifvqea0","pricing_plan_id":"free"},{"bike_id":"48738fcb-ce14-4e53-96fb-523f12f62511","system_id":"levelo_inurba_marseille","lat":43.330442,"lon":5.389148,"is_reserved":false,"is_disabled":false,"rental_uris":{"android":"levelo://app?vid=48738fcb-ce14-4e53-96fb-523f12f62511","ios":"levelo://app?vid=48738fcb-ce14-4e53-96fb-523f12f62511"},"vehicle_type_id":"4","last_reported":1678568774,"current_range_meters":16800,"station_id":"ce4bhr92rcd13ifvqhrg","pricing_plan_id":"free"},{"bike_id":"fadca3f6-f342-4b61-ab93-846c87e237ae","system_id":"levelo_inurba_marseille","lat":43.330442,"lon":5.389148,"is_reserved":false,"is_disabled":false,"rental_uris":{"android":"levelo://app?vid=fadca3f6-f342-4b61-ab93-846c87e237ae","ios":"levelo://app?vid=fadca3f6-f342-4b61-ab93-846c87e237ae"},"vehicle_type_id":"4","last_reported":1678568774,"current_range_meters":10400,"station_id":"ce4bhr92rcd13ifvqhrg","pricing_plan_id":"free"},{"bike_id":"932e3fcd-07ab-4306-af8d-fbb46f3389cd","system_id":"levelo_inurba_marseille","lat":43.317557,"lon":5.390173,"is_reserved":false,"is_disabled":false,"rental_uris":{"android":"levelo://app?vid=932e3fcd-07ab-4306-af8d-fbb46f3389cd","ios":"levelo://app?vid=932e3fcd-07ab-4306-af8d-fbb46f3389cd"},"vehicle_type_id":"4","last_reported":1678568774,"current_range_meters":19200,"station_id":"ce4bhqp2rcd13ifvqhng","pricing_plan_id":"free"},{"bike_id":"71d1a9b1-d3d6-422e-9b9c-255e5e2e58bb","system_id":"levelo_inurba_marseille","lat":43.29009,"lon":5.35613,"is_reserved":false,"is_disabled":false,"rental_uris":{"android":"levelo://app?vid=71d1a9b1-d3d6-422e-9b9c-255e5e2e58bb","ios":"levelo://app?vid=71d1a9b1-d3d6-422e-9b9c-255e5e2e58bb"},"vehicle_type_id":"4","last_reported":1678568774,"current_range_meters":25600,"station_id":"","pricing_plan_id":"free"},{"bike_id":"5eb25964-4c5d-4509-bbe3-5a3f5647e29d","system_id":"levelo_inurba_marseille","lat":43.330442,"lon":5.389148,"is_reserved":false,"is_disabled":false,"rental_uris":{"android":"levelo://app?vid=5eb25964-4c5d-4509-bbe3-5a3f5647e29d","ios":"levelo://app?vid=5eb25964-4c5d-4509-bbe3-5a3f5647e29d"},"vehicle_type_id":"4","last_reported":1678568774,"current_range_meters":14000,"station_id":"ce4bhr92rcd13ifvqhrg","pricing_plan_id":"free"},{"bike_id":"b1c7c7a6-595d-485c-a5f9-0c8dda219c97","system_id":"levelo_inurba_marseille","lat":43.330442,"lon":5.389148,"is_reserved":false,"is_disabled":false,"rental_uris":{"android":"levelo://app?vid=b1c7c7a6-595d-485c-a5f9-0c8dda219c97","ios":"levelo://app?vid=b1c7c7a6-595d-485c-a5f9-0c8dda219c97"},"vehicle_type_id":"4","last_reported":1678568774,"current_range_meters":31200,"station_id":"ce4bhr92rcd13ifvqhrg","pricing_plan_id":"free"},{"bike_id":"4865b40a-4111-4f1a-8482-fb68e875133f","system_id":"levelo_inurba_marseille","lat":43.33043,"lon":5.38917,"is_reserved":false,"is_disabled":false,"rental_uris":{"android":"levelo://app?vid=4865b40a-4111-4f1a-8482-fb68e875133f","ios":"levelo://app?vid=4865b40a-4111-4f1a-8482-fb68e875133f"},"vehicle_type_id":"4","last_reported":1678568774,"current_range_meters":21600,"station_id":"","pricing_plan_id":"free"},{"bike_id":"bc0a4780-b21d-4f90-951b-4c0d7a15fd2f","system_id":"levelo_inurba_marseille","lat":43.30148,"lon":5.396037,"is_reserved":false,"is_disabled":false,"rental_uris":{"android":"levelo://app?vid=bc0a4780-b21d-4f90-951b-4c0d7a15fd2f","ios":"levelo://app?vid=bc0a4780-b21d-4f90-951b-4c0d7a15fd2f"},"vehicle_type_id":"4","last_reported":1678568774,"current_range_meters":24800,"station_id":"","pricing_plan_id":"free"},{"bike_id":"c6fb06ec-bb98-4389-ad18-1d9e0556933c","system_id":"levelo_inurba_marseille","lat":43.290104,"lon":5.356111,"is_reserved":false,"is_disabled":false,"rental_uris":{"android":"levelo://app?vid=c6fb06ec-bb98-4389-ad18-1d9e0556933c","ios":"levelo://app?vid=c6fb06ec-bb98-4389-ad18-1d9e0556933c"},"vehicle_type_id":"4","last_reported":1678568774,"current_range_meters":16800,"station_id":"ce4bhb92rcd13ifvqen0","pricing_plan_id":"free"},{"bike_id":"7720c977-0a3d-4365-913a-dc7a01006ad8","system_id":"levelo_inurba_marseille","lat":43.290104,"lon":5.356111,"is_reserved":false,"is_disabled":false,"rental_uris":{"android":"levelo://app?vid=7720c977-0a3d-4365-913a-dc7a01006ad8","ios":"levelo://app?vid=7720c977-0a3d-4365-913a-dc7a01006ad8"},"vehicle_type_id":"4","last_reported":1678568774,"current_range_meters":5600,"station_id":"ce4bhb92rcd13ifvqen0","pricing_plan_id":"free"},{"bike_id":"6119f6ce-6d3d-4b42-a8e5-7d6668c62333","system_id":"levelo_inurba_marseille","lat":43.330442,"lon":5.389148,"is_reserved":false,"is_disabled":false,"rental_uris":{"android":"levelo://app?vid=6119f6ce-6d3d-4b42-a8e5-7d6668c62333","ios":"levelo://app?vid=6119f6ce-6d3d-4b42-a8e5-7d6668c62333"},"vehicle_type_id":"4","last_reported":1678568774,"current_range_meters":13200,"station_id":"ce4bhr92rcd13ifvqhrg","pricing_plan_id":"free"},{"bike_id":"2ea27cb0-9931-4d03-a3ee-31603e6817f3","system_id":"levelo_inurba_marseille","lat":43.29005,"lon":5.35616,"is_reserved":false,"is_disabled":false,"rental_uris":{"android":"levelo://app?vid=2ea27cb0-9931-4d03-a3ee-31603e6817f3","ios":"levelo://app?vid=2ea27cb0-9931-4d03-a3ee-31603e6817f3"},"vehicle_type_id":"4","last_reported":1678568774,"current_range_meters":24800,"station_id":"","pricing_plan_id":"free"},{"bike_id":"e55bb4d8-5c5e-4107-8e08-0f72e1003048","system_id":"levelo_inurba_marseille","lat":43.290104,"lon":5.356111,"is_reserved":false,"is_disabled":false,"rental_uris":{"android":"levelo://app?vid=e55bb4d8-5c5e-4107-8e08-0f72e1003048","ios":"levelo://app?vid=e55bb4d8-5c5e-4107-8e08-0f72e1003048"},"vehicle_type_id":"4","last_reported":1678568774,"current_range_meters":28400,"station_id":"ce4bhb92rcd13ifvqen0","pricing_plan_id":"free"},{"bike_id":"da0f99e3-cd41-45ff-bdab-3aa5cab6d869","system_id":"levelo_inurba_marseille","lat":43.29005,"lon":5.356115,"is_reserved":false,"is_disabled":false,"rental_uris":{"android":"levelo://app?vid=da0f99e3-cd41-45ff-bdab-3aa5cab6d869","ios":"levelo://app?vid=da0f99e3-cd41-45ff-bdab-3aa5cab6d869"},"vehicle_type_id":"4","last_reported":1678568774,"current_range_meters":6000,"station_id":"ce4bhb92rcd13ifvqen0","pricing_plan_id":"free"},{"bike_id":"18d168bd-3310-483c-84fb-85de0f8cb09e","system_id":"levelo_inurba_marseille","lat":43.290066,"lon":5.35605,"is_reserved":false,"is_disabled":false,"rental_uris":{"android":"levelo://app?vid=18d168bd-3310-483c-84fb-85de0f8cb09e","ios":"levelo://app?vid=18d168bd-3310-483c-84fb-85de0f8cb09e"},"vehicle_type_id":"4","last_reported":1678568774,"current_range_meters":30400,"station_id":"ce4bhb92rcd13ifvqen0","pricing_plan_id":"free"},{"bike_id":"d864f1bc-4d76-42c7-aefc-80ac651458cb","system_id":"levelo_inurba_marseille","lat":43.290104,"lon":5.356111,"is_reserved":false,"is_disabled":false,"rental_uris":{"android":"levelo://app?vid=d864f1bc-4d76-42c7-aefc-80ac651458cb","ios":"levelo://app?vid=d864f1bc-4d76-42c7-aefc-80ac651458cb"},"vehicle_type_id":"4","last_reported":1678568774,"current_range_meters":16400,"station_id":"ce4bhb92rcd13ifvqen0","pricing_plan_id":"free"},{"bike_id":"e519ae35-c8a0-4669-b9f4-9e952ab7b6de","system_id":"levelo_inurba_marseille","lat":43.290104,"lon":5.356111,"is_reserved":false,"is_disabled":false,"rental_uris":{"android":"levelo://app?vid=e519ae35-c8a0-4669-b9f4-9e952ab7b6de","ios":"levelo://app?vid=e519ae35-c8a0-4669-b9f4-9e952ab7b6de"},"vehicle_type_id":"4","last_reported":1678568774,"current_range_meters":0,"station_id":"ce4bhb92rcd13ifvqen0","pricing_plan_id":"free"},{"bike_id":"36e06f27-876e-4d57-a2ea-3e7999c14d1d","system_id":"levelo_inurba_marseille","lat":43.290104,"lon":5.356111,"is_reserved":false,"is_disabled":false,"rental_uris":{"android":"levelo://app?vid=36e06f27-876e-4d57-a2ea-3e7999c14d1d","ios":"levelo://app?vid=36e06f27-876e-4d57-a2ea-3e7999c14d1d"},"vehicle_type_id":"4","last_reported":1678568774,"current_range_meters":800,"station_id":"ce4bhb92rcd13ifvqen0","pricing_plan_id":"free"},{"bike_id":"f77083a0-4705-4276-ad24-87197ac4b537","system_id":"levelo_inurba_marseille","lat":43.290104,"lon":5.356111,"is_reserved":false,"is_disabled":false,"rental_uris":{"android":"levelo://app?vid=f77083a0-4705-4276-ad24-87197ac4b537","ios":"levelo://app?vid=f77083a0-4705-4276-ad24-87197ac4b537"},"vehicle_type_id":"4","last_reported":1678568774,"current_range_meters":12800,"station_id":"ce4bhb92rcd13ifvqen0","pricing_plan_id":"free"},{"bike_id":"3acb9add-bae7-46eb-ad06-2b287e34e542","system_id":"levelo_inurba_marseille","lat":43.290104,"lon":5.356111,"is_reserved":false,"is_disabled":false,"rental_uris":{"android":"levelo://app?vid=3acb9add-bae7-46eb-ad06-2b287e34e542","ios":"levelo://app?vid=3acb9add-bae7-46eb-ad06-2b287e34e542"},"vehicle_type_id":"4","last_reported":1678568774,"current_range_meters":26000,"station_id":"ce4bhb92rcd13ifvqen0","pricing_plan_id":"free"},{"bike_id":"09cd5a43-07eb-4598-be3b-60405f470b2b","system_id":"levelo_inurba_marseille","lat":43.29098,"lon":5.38139,"is_reserved":false,"is_disabled":false,"rental_uris":{"android":"levelo://app?vid=09cd5a43-07eb-4598-be3b-60405f470b2b","ios":"levelo://app?vid=09cd5a43-07eb-4598-be3b-60405f470b2b"},"vehicle_type_id":"4","last_reported":1678568774,"current_range_meters":14800,"station_id":"","pricing_plan_id":"free"},{"bike_id":"b266b778-22fe-404e-85df-9f4625f22fe9","system_id":"levelo_inurba_marseille","lat":43.295169,"lon":5.390426,"is_reserved":false,"is_disabled":false,"rental_uris":{"android":"levelo://app?vid=b266b778-22fe-404e-85df-9f4625f22fe9","ios":"levelo://app?vid=b266b778-22fe-404e-85df-9f4625f22fe9"},"vehicle_type_id":"4","last_reported":1678568774,"current_range_meters":400,"station_id":"ce4bh3p2rcd13ifvqdp0","pricing_plan_id":"free"},{"bike_id":"336b0c8b-28f1-44ea-bbc6-966ce40c3f68","system_id":"levelo_inurba_marseille","lat":43.295169,"lon":5.390426,"is_reserved":false,"is_disabled":false,"rental_uris":{"android":"levelo://app?vid=336b0c8b-28f1-44ea-bbc6-966ce40c3f68","ios":"levelo://app?vid=336b0c8b-28f1-44ea-bbc6-966ce40c3f68"},"vehicle_type_id":"4","last_reported":1678568774,"current_range_meters":2800,"station_id":"ce4bh3p2rcd13ifvqdp0","pricing_plan_id":"free"},{"bike_id":"8c96313d-4462-4376-a6e6-e642b3edf8e0","system_id":"levelo_inurba_marseille","lat":43.295169,"lon":5.390426,"is_reserved":false,"is_disabled":false,"rental_uris":{"android":"levelo://app?vid=8c96313d-4462-4376-a6e6-e642b3edf8e0","ios":"levelo://app?vid=8c96313d-4462-4376-a6e6-e642b3edf8e0"},"vehicle_type_id":"4","last_reported":1678568774,"current_range_meters":8000,"station_id":"ce4bh3p2rcd13ifvqdp0","pricing_plan_id":"free"},{"bike_id":"67f98270-ff21-4fa7-853e-95f4e884aa55","system_id":"levelo_inurba_marseille","lat":43.295169,"lon":5.390426,"is_reserved":false,"is_disabled":false,"rental_uris":{"android":"levelo://app?vid=67f98270-ff21-4fa7-853e-95f4e884aa55","ios":"levelo://app?vid=67f98270-ff21-4fa7-853e-95f4e884aa55"},"vehicle_type_id":"4","last_reported":1678568774,"current_range_meters":28000,"station_id":"ce4bh3p2rcd13ifvqdp0","pricing_plan_id":"free"},{"bike_id":"d57d7d54-7c2a-4649-b6aa-3a071e51d607","system_id":"levelo_inurba_marseille","lat":43.29288,"lon":5.38723,"is_reserved":false,"is_disabled":false,"rental_uris":{"android":"levelo://app?vid=d57d7d54-7c2a-4649-b6aa-3a071e51d607","ios":"levelo://app?vid=d57d7d54-7c2a-4649-b6aa-3a071e51d607"},"vehicle_type_id":"4","last_reported":1678568774,"current_range_meters":16400,"station_id":"","pricing_plan_id":"free"},{"bike_id":"ee55c849-ec6a-4cc5-a49e-a63420bf1bb5","system_id":"levelo_inurba_marseille","lat":43.28856,"lon":5.358371,"is_reserved":false,"is_disabled":false,"rental_uris":{"android":"levelo://app?vid=ee55c849-ec6a-4cc5-a49e-a63420bf1bb5","ios":"levelo://app?vid=ee55c849-ec6a-4cc5-a49e-a63420bf1bb5"},"vehicle_type_id":"4","last_reported":1678568774,"current_range_meters":8000,"station_id":"ce4bhb12rcd13ifvqem0","pricing_plan_id":"free"},{"bike_id":"d4d903ce-0ea9-4003-b8fd-7923482a669b","system_id":"levelo_inurba_marseille","lat":43.28856,"lon":5.358371,"is_reserved":false,"is_disabled":false,"rental_uris":{"android":"levelo://app?vid=d4d903ce-0ea9-4003-b8fd-7923482a669b","ios":"levelo://app?vid=d4d903ce-0ea9-4003-b8fd-7923482a669b"},"vehicle_type_id":"4","last_reported":1678568774,"current_range_meters":5200,"station_id":"ce4bhb12rcd13ifvqem0","pricing_plan_id":"free"},{"bike_id":"ea5caafb-1c7d-48dd-9a29-2139b2fb1b84","system_id":"levelo_inurba_marseille","lat":43.301117,"lon":5.398795,"is_reserved":false,"is_disabled":false,"rental_uris":{"android":"levelo://app?vid=ea5caafb-1c7d-48dd-9a29-2139b2fb1b84","ios":"levelo://app?vid=ea5caafb-1c7d-48dd-9a29-2139b2fb1b84"},"vehicle_type_id":"4","last_reported":1678568774,"current_range_meters":25600,"station_id":"ce4bh0h2rcd13ifvqd40","pricing_plan_id":"free"},{"bike_id":"b10fe648-ff43-43e1-9c21-cb503155a8f6","system_id":"levelo_inurba_marseille","lat":43.301117,"lon":5.398795,"is_reserved":false,"is_disabled":false,"rental_uris":{"android":"levelo://app?vid=b10fe648-ff43-43e1-9c21-cb503155a8f6","ios":"levelo://app?vid=b10fe648-ff43-43e1-9c21-cb503155a8f6"},"vehicle_type_id":"4","last_reported":1678568774,"current_range_meters":4400,"station_id":"ce4bh0h2rcd13ifvqd40","pricing_plan_id":"free"},{"bike_id":"dd59aa0b-129d-4e53-8982-4afe11d4c8ec","system_id":"levelo_inurba_marseille","lat":43.301117,"lon":5.398795,"is_reserved":false,"is_disabled":false,"rental_uris":{"android":"levelo://app?vid=dd59aa0b-129d-4e53-8982-4afe11d4c8ec","ios":"levelo://app?vid=dd59aa0b-129d-4e53-8982-4afe11d4c8ec"},"vehicle_type_id":"4","last_reported":1678568774,"current_range_meters":16400,"station_id":"ce4bh0h2rcd13ifvqd40","pricing_plan_id":"free"},{"bike_id":"dd16e088-e4c3-4ba4-a34e-c7a7ced25394","system_id":"levelo_inurba_marseille","lat":43.301117,"lon":5.398795,"is_reserved":false,"is_disabled":false,"rental_uris":{"android":"levelo://app?vid=dd16e088-e4c3-4ba4-a34e-c7a7ced25394","ios":"levelo://app?vid=dd16e088-e4c3-4ba4-a34e-c7a7ced25394"},"vehicle_type_id":"4","last_reported":1678568774,"current_range_meters":31600,"station_id":"ce4bh0h2rcd13ifvqd40","pricing_plan_id":"free"},{"bike_id":"056f7073-3d4a-4418-85f0-46f7290e5d0d","system_id":"levelo_inurba_marseille","lat":43.301117,"lon":5.398795,"is_reserved":false,"is_disabled":false,"rental_uris":{"android":"levelo://app?vid=056f7073-3d4a-4418-85f0-46f7290e5d0d","ios":"levelo://app?vid=056f7073-3d4a-4418-85f0-46f7290e5d0d"},"vehicle_type_id":"4","last_reported":1678568774,"current_range_meters":31600,"station_id":"ce4bh0h2rcd13ifvqd40","pricing_plan_id":"free"},{"bike_id":"feb14c2b-8a5e-47ef-9399-5c4f1977fdb7","system_id":"levelo_inurba_marseille","lat":43.301117,"lon":5.398795,"is_reserved":false,"is_disabled":false,"rental_uris":{"android":"levelo://app?vid=feb14c2b-8a5e-47ef-9399-5c4f1977fdb7","ios":"levelo://app?vid=feb14c2b-8a5e-47ef-9399-5c4f1977fdb7"},"vehicle_type_id":"4","last_reported":1678568774,"current_range_meters":6400,"station_id":"ce4bh0h2rcd13ifvqd40","pricing_plan_id":"free"},{"bike_id":"63bbe979-1686-4757-bae6-576183283bc1","system_id":"levelo_inurba_marseille","lat":43.29523,"lon":5.39396,"is_reserved":false,"is_disabled":false,"rental_uris":{"android":"levelo://app?vid=63bbe979-1686-4757-bae6-576183283bc1","ios":"levelo://app?vid=63bbe979-1686-4757-bae6-576183283bc1"},"vehicle_type_id":"4","last_reported":1678568774,"current_range_meters":22000,"station_id":"ce4bh212rcd13ifvqde0","pricing_plan_id":"free"},{"bike_id":"d547db91-b07f-4554-a722-d019c77949cd","system_id":"levelo_inurba_marseille","lat":43.295178,"lon":5.393929,"is_reserved":false,"is_disabled":false,"rental_uris":{"android":"levelo://app?vid=d547db91-b07f-4554-a722-d019c77949cd","ios":"levelo://app?vid=d547db91-b07f-4554-a722-d019c77949cd"},"vehicle_type_id":"4","last_reported":1678568774,"current_range_meters":18800,"station_id":"ce4bh212rcd13ifvqde0","pricing_plan_id":"free"},{"bike_id":"5b23170b-6189-48e2-92a6-2618433b8ed8","system_id":"levelo_inurba_marseille","lat":43.29522,"lon":5.39399,"is_reserved":false,"is_disabled":false,"rental_uris":{"android":"levelo://app?vid=5b23170b-6189-48e2-92a6-2618433b8ed8","ios":"levelo://app?vid=5b23170b-6189-48e2-92a6-2618433b8ed8"},"vehicle_type_id":"4","last_reported":1678568774,"current_range_meters":29600,"station_id":"ce4bh292rcd13ifvqdf0","pricing_plan_id":"free"},{"bike_id":"8e70820c-4751-4839-96c2-49d1ba6b4c24","system_id":"levelo_inurba_marseille","lat":43.2952,"lon":5.39401,"is_reserved":false,"is_disabled":false,"rental_uris":{"android":"levelo://app?vid=8e70820c-4751-4839-96c2-49d1ba6b4c24","ios":"levelo://app?vid=8e70820c-4751-4839-96c2-49d1ba6b4c24"},"vehicle_type_id":"4","last_reported":1678568774,"current_range_meters":28800,"station_id":"ce4bh212rcd13ifvqde0","pricing_plan_id":"free"},{"bike_id":"5d4b96b3-2d05-4c0e-8ebd-b0dffbe2f678","system_id":"levelo_inurba_marseille","lat":43.29517,"lon":5.39407,"is_reserved":false,"is_disabled":false,"rental_uris":{"android":"levelo://app?vid=5d4b96b3-2d05-4c0e-8ebd-b0dffbe2f678","ios":"levelo://app?vid=5d4b96b3-2d05-4c0e-8ebd-b0dffbe2f678"},"vehicle_type_id":"4","last_reported":1678568774,"current_range_meters":19200,"station_id":"ce4bh212rcd13ifvqde0","pricing_plan_id":"free"},{"bike_id":"286b592c-218f-454a-b9e0-9ab08832358f","system_id":"levelo_inurba_marseille","lat":43.302463,"lon":5.40048,"is_reserved":false,"is_disabled":false,"rental_uris":{"android":"levelo://app?vid=286b592c-218f-454a-b9e0-9ab08832358f","ios":"levelo://app?vid=286b592c-218f-454a-b9e0-9ab08832358f"},"vehicle_type_id":"4","last_reported":1678568774,"current_range_meters":24800,"station_id":"","pricing_plan_id":"free"},{"bike_id":"03e43f06-cd3d-4efc-8476-bbeace3b05e4","system_id":"levelo_inurba_marseille","lat":43.29035,"lon":5.38641,"is_reserved":false,"is_disabled":false,"rental_uris":{"android":"levelo://app?vid=03e43f06-cd3d-4efc-8476-bbeace3b05e4","ios":"levelo://app?vid=03e43f06-cd3d-4efc-8476-bbeace3b05e4"},"vehicle_type_id":"4","last_reported":1678568774,"current_range_meters":0,"station_id":"ce4bh4p2rcd13ifvqe0g","pricing_plan_id":"free"},{"bike_id":"c3a4e1bb-b895-412c-a888-da81e704f9f5","system_id":"levelo_inurba_marseille","lat":43.290299,"lon":5.386359,"is_reserved":false,"is_disabled":false,"rental_uris":{"android":"levelo://app?vid=c3a4e1bb-b895-412c-a888-da81e704f9f5","ios":"levelo://app?vid=c3a4e1bb-b895-412c-a888-da81e704f9f5"},"vehicle_type_id":"4","last_reported":1678568774,"current_range_meters":0,"station_id":"","pricing_plan_id":"free"},{"bike_id":"9a41290e-d72a-4bdc-a1d8-75a26ee7aa9d","system_id":"levelo_inurba_marseille","lat":43.29029,"lon":5.38635,"is_reserved":false,"is_disabled":false,"rental_uris":{"android":"levelo://app?vid=9a41290e-d72a-4bdc-a1d8-75a26ee7aa9d","ios":"levelo://app?vid=9a41290e-d72a-4bdc-a1d8-75a26ee7aa9d"},"vehicle_type_id":"4","last_reported":1678568774,"current_range_meters":0,"station_id":"ce4bh4p2rcd13ifvqe0g","pricing_plan_id":"free"},{"bike_id":"95edac08-5f7a-4823-84e2-a568c8fae293","system_id":"levelo_inurba_marseille","lat":43.29026,"lon":5.3863,"is_reserved":false,"is_disabled":false,"rental_uris":{"android":"levelo://app?vid=95edac08-5f7a-4823-84e2-a568c8fae293","ios":"levelo://app?vid=95edac08-5f7a-4823-84e2-a568c8fae293"},"vehicle_type_id":"4","last_reported":1678568774,"current_range_meters":0,"station_id":"ce4bh4p2rcd13ifvqe0g","pricing_plan_id":"free"},{"bike_id":"1cc841d5-7912-4ae0-b171-3cc48530310f","system_id":"levelo_inurba_marseille","lat":43.30247,"lon":5.40064,"is_reserved":false,"is_disabled":false,"rental_uris":{"android":"levelo://app?vid=1cc841d5-7912-4ae0-b171-3cc48530310f","ios":"levelo://app?vid=1cc841d5-7912-4ae0-b171-3cc48530310f"},"vehicle_type_id":"4","last_reported":1678568774,"current_range_meters":27200,"station_id":"","pricing_plan_id":"free"},{"bike_id":"fc1d766f-c988-4bc9-8d32-78d5a2a6aa7c","system_id":"levelo_inurba_marseille","lat":43.286114,"lon":5.370625,"is_reserved":false,"is_disabled":false,"rental_uris":{"android":"levelo://app?vid=fc1d766f-c988-4bc9-8d32-78d5a2a6aa7c","ios":"levelo://app?vid=fc1d766f-c988-4bc9-8d32-78d5a2a6aa7c"},"vehicle_type_id":"4","last_reported":1678568774,"current_range_meters":21200,"station_id":"ce4bht12rcd13ifvqi60","pricing_plan_id":"free"},{"bike_id":"93ff6548-2007-4c83-b6b0-7c2c3ac8c23d","system_id":"levelo_inurba_marseille","lat":43.301429,"lon":5.37413,"is_reserved":false,"is_disabled":false,"rental_uris":{"android":"levelo://app?vid=93ff6548-2007-4c83-b6b0-7c2c3ac8c23d","ios":"levelo://app?vid=93ff6548-2007-4c83-b6b0-7c2c3ac8c23d"},"vehicle_type_id":"4","last_reported":1678568774,"current_range_meters":29600,"station_id":"ce4bgs92rcd13ifvqcc0","pricing_plan_id":"free"},{"bike_id":"7f2e142d-81fe-4704-bd1a-7b9b30c04f48","system_id":"levelo_inurba_marseille","lat":43.287184,"lon":5.37937,"is_reserved":false,"is_disabled":false,"rental_uris":{"android":"levelo://app?vid=7f2e142d-81fe-4704-bd1a-7b9b30c04f48","ios":"levelo://app?vid=7f2e142d-81fe-4704-bd1a-7b9b30c04f48"},"vehicle_type_id":"4","last_reported":1678568774,"current_range_meters":0,"station_id":"ce4bh9p2rcd13ifvqec0","pricing_plan_id":"free"},{"bike_id":"847ddf49-5492-4a35-9124-afd704640df1","system_id":"levelo_inurba_marseille","lat":43.316517,"lon":5.404375,"is_reserved":false,"is_disabled":false,"rental_uris":{"android":"levelo://app?vid=847ddf49-5492-4a35-9124-afd704640df1","ios":"levelo://app?vid=847ddf49-5492-4a35-9124-afd704640df1"},"vehicle_type_id":"4","last_reported":1678568774,"current_range_meters":30800,"station_id":"ce4bh012rcd13ifvqd00","pricing_plan_id":"free"},{"bike_id":"cf00639b-3efd-47ed-80a3-9285353205e6","system_id":"levelo_inurba_marseille","lat":43.316517,"lon":5.404375,"is_reserved":false,"is_disabled":false,"rental_uris":{"android":"levelo://app?vid=cf00639b-3efd-47ed-80a3-9285353205e6","ios":"levelo://app?vid=cf00639b-3efd-47ed-80a3-9285353205e6"},"vehicle_type_id":"4","last_reported":1678568774,"current_range_meters":28800,"station_id":"ce4bh012rcd13ifvqd00","pricing_plan_id":"free"},{"bike_id":"243ae2b8-9255-4faa-a896-f177c89f8ede","system_id":"levelo_inurba_marseille","lat":43.316517,"lon":5.404375,"is_reserved":false,"is_disabled":false,"rental_uris":{"android":"levelo://app?vid=243ae2b8-9255-4faa-a896-f177c89f8ede","ios":"levelo://app?vid=243ae2b8-9255-4faa-a896-f177c89f8ede"},"vehicle_type_id":"4","last_reported":1678568774,"current_range_meters":24400,"station_id":"ce4bh012rcd13ifvqd00","pricing_plan_id":"free"},{"bike_id":"161db933-aeb8-4b83-a76f-f26a0f465db3","system_id":"levelo_inurba_marseille","lat":43.31642,"lon":5.40435,"is_reserved":false,"is_disabled":false,"rental_uris":{"android":"levelo://app?vid=161db933-aeb8-4b83-a76f-f26a0f465db3","ios":"levelo://app?vid=161db933-aeb8-4b83-a76f-f26a0f465db3"},"vehicle_type_id":"4","last_reported":1678568774,"current_range_meters":1600,"station_id":"","pricing_plan_id":"free"},{"bike_id":"d93bb3b0-5cb2-422b-9b56-bffe29bb3d7f","system_id":"levelo_inurba_marseille","lat":43.31642,"lon":5.40435,"is_reserved":false,"is_disabled":false,"rental_uris":{"android":"levelo://app?vid=d93bb3b0-5cb2-422b-9b56-bffe29bb3d7f","ios":"levelo://app?vid=d93bb3b0-5cb2-422b-9b56-bffe29bb3d7f"},"vehicle_type_id":"4","last_reported":1678568774,"current_range_meters":20400,"station_id":"ce4bh012rcd13ifvqd00","pricing_plan_id":"free"},{"bike_id":"b51d770d-a33a-4431-8dd1-d8967064c1d8","system_id":"levelo_inurba_marseille","lat":43.316517,"lon":5.404375,"is_reserved":false,"is_disabled":false,"rental_uris":{"android":"levelo://app?vid=b51d770d-a33a-4431-8dd1-d8967064c1d8","ios":"levelo://app?vid=b51d770d-a33a-4431-8dd1-d8967064c1d8"},"vehicle_type_id":"4","last_reported":1678568774,"current_range_meters":31200,"station_id":"ce4bh012rcd13ifvqd00","pricing_plan_id":"free"},{"bike_id":"a7c54f68-4ebd-46c5-ab43-2625d7f16c76","system_id":"levelo_inurba_marseille","lat":43.31643,"lon":5.40437,"is_reserved":false,"is_disabled":false,"rental_uris":{"android":"levelo://app?vid=a7c54f68-4ebd-46c5-ab43-2625d7f16c76","ios":"levelo://app?vid=a7c54f68-4ebd-46c5-ab43-2625d7f16c76"},"vehicle_type_id":"4","last_reported":1678568774,"current_range_meters":1200,"station_id":"ce4bh012rcd13ifvqd00","pricing_plan_id":"free"},{"bike_id":"ea7b04f1-5b15-4c49-915c-0eaf094396bf","system_id":"levelo_inurba_marseille","lat":43.31645,"lon":5.40437,"is_reserved":false,"is_disabled":false,"rental_uris":{"android":"levelo://app?vid=ea7b04f1-5b15-4c49-915c-0eaf094396bf","ios":"levelo://app?vid=ea7b04f1-5b15-4c49-915c-0eaf094396bf"},"vehicle_type_id":"4","last_reported":1678568774,"current_range_meters":19600,"station_id":"ce4bh012rcd13ifvqd00","pricing_plan_id":"free"},{"bike_id":"42607d62-11f1-4e1e-8be1-4a39e47017ee","system_id":"levelo_inurba_marseille","lat":43.31644,"lon":5.40438,"is_reserved":false,"is_disabled":false,"rental_uris":{"android":"levelo://app?vid=42607d62-11f1-4e1e-8be1-4a39e47017ee","ios":"levelo://app?vid=42607d62-11f1-4e1e-8be1-4a39e47017ee"},"vehicle_type_id":"4","last_reported":1678568774,"current_range_meters":8800,"station_id":"","pricing_plan_id":"free"},{"bike_id":"aeca2a0f-cbe9-4c0c-92ff-53b89f86a313","system_id":"levelo_inurba_marseille","lat":43.31644,"lon":5.40438,"is_reserved":false,"is_disabled":false,"rental_uris":{"android":"levelo://app?vid=aeca2a0f-cbe9-4c0c-92ff-53b89f86a313","ios":"levelo://app?vid=aeca2a0f-cbe9-4c0c-92ff-53b89f86a313"},"vehicle_type_id":"4","last_reported":1678568774,"current_range_meters":0,"station_id":"","pricing_plan_id":"free"},{"bike_id":"2e53870f-bd12-4246-86c1-e7cc0b761e7e","system_id":"levelo_inurba_marseille","lat":43.316517,"lon":5.404375,"is_reserved":false,"is_disabled":false,"rental_uris":{"android":"levelo://app?vid=2e53870f-bd12-4246-86c1-e7cc0b761e7e","ios":"levelo://app?vid=2e53870f-bd12-4246-86c1-e7cc0b761e7e"},"vehicle_type_id":"4","last_reported":1678568774,"current_range_meters":29200,"station_id":"ce4bh012rcd13ifvqd00","pricing_plan_id":"free"},{"bike_id":"4fafd2c1-9cd1-495f-8862-c5a347d4ef27","system_id":"levelo_inurba_marseille","lat":43.316517,"lon":5.404375,"is_reserved":false,"is_disabled":false,"rental_uris":{"android":"levelo://app?vid=4fafd2c1-9cd1-495f-8862-c5a347d4ef27","ios":"levelo://app?vid=4fafd2c1-9cd1-495f-8862-c5a347d4ef27"},"vehicle_type_id":"4","last_reported":1678568774,"current_range_meters":2400,"station_id":"ce4bh012rcd13ifvqd00","pricing_plan_id":"free"},{"bike_id":"365ab45e-3872-4f6c-a7a2-e207013fd22a","system_id":"levelo_inurba_marseille","lat":43.316517,"lon":5.404375,"is_reserved":false,"is_disabled":false,"rental_uris":{"android":"levelo://app?vid=365ab45e-3872-4f6c-a7a2-e207013fd22a","ios":"levelo://app?vid=365ab45e-3872-4f6c-a7a2-e207013fd22a"},"vehicle_type_id":"4","last_reported":1678568774,"current_range_meters":14800,"station_id":"ce4bh012rcd13ifvqd00","pricing_plan_id":"free"},{"bike_id":"1cac3514-301e-4317-8dc5-f87dce2d0a21","system_id":"levelo_inurba_marseille","lat":43.31644,"lon":5.4044,"is_reserved":false,"is_disabled":false,"rental_uris":{"android":"levelo://app?vid=1cac3514-301e-4317-8dc5-f87dce2d0a21","ios":"levelo://app?vid=1cac3514-301e-4317-8dc5-f87dce2d0a21"},"vehicle_type_id":"4","last_reported":1678568774,"current_range_meters":5600,"station_id":"ce4bh012rcd13ifvqd00","pricing_plan_id":"free"},{"bike_id":"21aa7f6b-ae02-46d3-ba93-3b5c19f48973","system_id":"levelo_inurba_marseille","lat":43.316515,"lon":5.40444,"is_reserved":false,"is_disabled":false,"rental_uris":{"android":"levelo://app?vid=21aa7f6b-ae02-46d3-ba93-3b5c19f48973","ios":"levelo://app?vid=21aa7f6b-ae02-46d3-ba93-3b5c19f48973"},"vehicle_type_id":"4","last_reported":1678568774,"current_range_meters":1200,"station_id":"ce4bh012rcd13ifvqd00","pricing_plan_id":"free"},{"bike_id":"e9b44ed1-3424-4445-af9c-fa21744008fe","system_id":"levelo_inurba_marseille","lat":43.23555,"lon":5.41034,"is_reserved":false,"is_disabled":false,"rental_uris":{"android":"levelo://app?vid=e9b44ed1-3424-4445-af9c-fa21744008fe","ios":"levelo://app?vid=e9b44ed1-3424-4445-af9c-fa21744008fe"},"vehicle_type_id":"4","last_reported":1678568774,"current_range_meters":2800,"station_id":"","pricing_plan_id":"free"},{"bike_id":"10c3a17b-9607-4c11-9d50-1fca3a764e59","system_id":"levelo_inurba_marseille","lat":43.28467,"lon":5.35894,"is_reserved":false,"is_disabled":false,"rental_uris":{"android":"levelo://app?vid=10c3a17b-9607-4c11-9d50-1fca3a764e59","ios":"levelo://app?vid=10c3a17b-9607-4c11-9d50-1fca3a764e59"},"vehicle_type_id":"4","last_reported":1678568774,"current_range_meters":2400,"station_id":"","pricing_plan_id":"free"},{"bike_id":"a74db311-6b8e-45eb-b923-d3fc4f6a3ac7","system_id":"levelo_inurba_marseille","lat":43.284657,"lon":5.358862,"is_reserved":false,"is_disabled":false,"rental_uris":{"android":"levelo://app?vid=a74db311-6b8e-45eb-b923-d3fc4f6a3ac7","ios":"levelo://app?vid=a74db311-6b8e-45eb-b923-d3fc4f6a3ac7"},"vehicle_type_id":"4","last_reported":1678568774,"current_range_meters":2800,"station_id":"","pricing_plan_id":"free"},{"bike_id":"0f1609ff-1bb2-4b9c-92ca-70432aad1896","system_id":"levelo_inurba_marseille","lat":43.28459,"lon":5.3589,"is_reserved":false,"is_disabled":false,"rental_uris":{"android":"levelo://app?vid=0f1609ff-1bb2-4b9c-92ca-70432aad1896","ios":"levelo://app?vid=0f1609ff-1bb2-4b9c-92ca-70432aad1896"},"vehicle_type_id":"4","last_reported":1678568774,"current_range_meters":18400,"station_id":"ce4bhah2rcd13ifvqei0","pricing_plan_id":"free"},{"bike_id":"3d68fd7e-4c83-4e1a-bfa2-2f87cf4ad9b7","system_id":"levelo_inurba_marseille","lat":43.28456,"lon":5.35894,"is_reserved":false,"is_disabled":false,"rental_uris":{"android":"levelo://app?vid=3d68fd7e-4c83-4e1a-bfa2-2f87cf4ad9b7","ios":"levelo://app?vid=3d68fd7e-4c83-4e1a-bfa2-2f87cf4ad9b7"},"vehicle_type_id":"4","last_reported":1678568774,"current_range_meters":29200,"station_id":"ce4bhah2rcd13ifvqei0","pricing_plan_id":"free"},{"bike_id":"43c95647-1902-45b8-b6b1-f2a77b5b8724","system_id":"levelo_inurba_marseille","lat":43.284535,"lon":5.358798,"is_reserved":false,"is_disabled":false,"rental_uris":{"android":"levelo://app?vid=43c95647-1902-45b8-b6b1-f2a77b5b8724","ios":"levelo://app?vid=43c95647-1902-45b8-b6b1-f2a77b5b8724"},"vehicle_type_id":"4","last_reported":1678568774,"current_range_meters":27600,"station_id":"","pricing_plan_id":"free"},{"bike_id":"095f186a-8bd2-4fb7-8c7d-1e214eb92cab","system_id":"levelo_inurba_marseille","lat":43.295713,"lon":5.399639,"is_reserved":false,"is_disabled":false,"rental_uris":{"android":"levelo://app?vid=095f186a-8bd2-4fb7-8c7d-1e214eb92cab","ios":"levelo://app?vid=095f186a-8bd2-4fb7-8c7d-1e214eb92cab"},"vehicle_type_id":"4","last_reported":1678568774,"current_range_meters":10400,"station_id":"ce4bh312rcd13ifvqdj0","pricing_plan_id":"free"},{"bike_id":"13e2a46c-6e10-4d06-9779-165e60757148","system_id":"levelo_inurba_marseille","lat":43.295713,"lon":5.399639,"is_reserved":false,"is_disabled":false,"rental_uris":{"android":"levelo://app?vid=13e2a46c-6e10-4d06-9779-165e60757148","ios":"levelo://app?vid=13e2a46c-6e10-4d06-9779-165e60757148"},"vehicle_type_id":"4","last_reported":1678568774,"current_range_meters":14400,"station_id":"ce4bh312rcd13ifvqdj0","pricing_plan_id":"free"},{"bike_id":"cee1c4f8-2d6a-44dd-8ab1-fb2de8971cf4","system_id":"levelo_inurba_marseille","lat":43.286595,"lon":5.386795,"is_reserved":false,"is_disabled":false,"rental_uris":{"android":"levelo://app?vid=cee1c4f8-2d6a-44dd-8ab1-fb2de8971cf4","ios":"levelo://app?vid=cee1c4f8-2d6a-44dd-8ab1-fb2de8971cf4"},"vehicle_type_id":"4","last_reported":1678568774,"current_range_meters":2000,"station_id":"ce4bh492rcd13ifvqdug","pricing_plan_id":"free"},{"bike_id":"2a284fae-e892-4d47-b82a-8b24392042ad","system_id":"levelo_inurba_marseille","lat":43.28668,"lon":5.38658,"is_reserved":false,"is_disabled":false,"rental_uris":{"android":"levelo://app?vid=2a284fae-e892-4d47-b82a-8b24392042ad","ios":"levelo://app?vid=2a284fae-e892-4d47-b82a-8b24392042ad"},"vehicle_type_id":"4","last_reported":1678568774,"current_range_meters":16800,"station_id":"","pricing_plan_id":"free"},{"bike_id":"aad34e3f-607e-4ccd-aead-ec1368accd3c","system_id":"levelo_inurba_marseille","lat":43.286595,"lon":5.386795,"is_reserved":false,"is_disabled":false,"rental_uris":{"android":"levelo://app?vid=aad34e3f-607e-4ccd-aead-ec1368accd3c","ios":"levelo://app?vid=aad34e3f-607e-4ccd-aead-ec1368accd3c"},"vehicle_type_id":"4","last_reported":1678568774,"current_range_meters":1600,"station_id":"ce4bh492rcd13ifvqdug","pricing_plan_id":"free"},{"bike_id":"fff5d743-e7ed-4fe8-bacd-0e95cf493cce","system_id":"levelo_inurba_marseille","lat":43.286595,"lon":5.386795,"is_reserved":false,"is_disabled":false,"rental_uris":{"android":"levelo://app?vid=fff5d743-e7ed-4fe8-bacd-0e95cf493cce","ios":"levelo://app?vid=fff5d743-e7ed-4fe8-bacd-0e95cf493cce"},"vehicle_type_id":"4","last_reported":1678568774,"current_range_meters":16400,"station_id":"ce4bh492rcd13ifvqdug","pricing_plan_id":"free"},{"bike_id":"220dfd62-2d65-4d2e-9927-fa9344990af4","system_id":"levelo_inurba_marseille","lat":43.295713,"lon":5.399639,"is_reserved":false,"is_disabled":false,"rental_uris":{"android":"levelo://app?vid=220dfd62-2d65-4d2e-9927-fa9344990af4","ios":"levelo://app?vid=220dfd62-2d65-4d2e-9927-fa9344990af4"},"vehicle_type_id":"4","last_reported":1678568774,"current_range_meters":0,"station_id":"ce4bh312rcd13ifvqdj0","pricing_plan_id":"free"},{"bike_id":"c6663e10-5580-4ca6-b47e-7f4f35e494f7","system_id":"levelo_inurba_marseille","lat":43.33715,"lon":5.3918,"is_reserved":false,"is_disabled":false,"rental_uris":{"android":"levelo://app?vid=c6663e10-5580-4ca6-b47e-7f4f35e494f7","ios":"levelo://app?vid=c6663e10-5580-4ca6-b47e-7f4f35e494f7"},"vehicle_type_id":"4","last_reported":1678568774,"current_range_meters":26000,"station_id":"","pricing_plan_id":"free"},{"bike_id":"7ebff1c8-db28-4930-a896-d6a1bb9e737c","system_id":"levelo_inurba_marseille","lat":43.337168,"lon":5.391825,"is_reserved":false,"is_disabled":false,"rental_uris":{"android":"levelo://app?vid=7ebff1c8-db28-4930-a896-d6a1bb9e737c","ios":"levelo://app?vid=7ebff1c8-db28-4930-a896-d6a1bb9e737c"},"vehicle_type_id":"4","last_reported":1678568774,"current_range_meters":31600,"station_id":"ce4bhr92rcd13ifvqhsg","pricing_plan_id":"free"},{"bike_id":"071751a6-2257-4f47-b83d-6a49691737ea","system_id":"levelo_inurba_marseille","lat":43.33719,"lon":5.39179,"is_reserved":false,"is_disabled":false,"rental_uris":{"android":"levelo://app?vid=071751a6-2257-4f47-b83d-6a49691737ea","ios":"levelo://app?vid=071751a6-2257-4f47-b83d-6a49691737ea"},"vehicle_type_id":"4","last_reported":1678568774,"current_range_meters":19600,"station_id":"","pricing_plan_id":"free"},{"bike_id":"16f0dc7b-56a1-4503-831f-4e1fb24172ab","system_id":"levelo_inurba_marseille","lat":43.337168,"lon":5.391825,"is_reserved":false,"is_disabled":false,"rental_uris":{"android":"levelo://app?vid=16f0dc7b-56a1-4503-831f-4e1fb24172ab","ios":"levelo://app?vid=16f0dc7b-56a1-4503-831f-4e1fb24172ab"},"vehicle_type_id":"4","last_reported":1678568774,"current_range_meters":26000,"station_id":"ce4bhr92rcd13ifvqhsg","pricing_plan_id":"free"},{"bike_id":"4e34cadd-607d-4ba4-83f0-da4cac819d45","system_id":"levelo_inurba_marseille","lat":43.337168,"lon":5.391825,"is_reserved":false,"is_disabled":false,"rental_uris":{"android":"levelo://app?vid=4e34cadd-607d-4ba4-83f0-da4cac819d45","ios":"levelo://app?vid=4e34cadd-607d-4ba4-83f0-da4cac819d45"},"vehicle_type_id":"4","last_reported":1678568774,"current_range_meters":28000,"station_id":"ce4bhr92rcd13ifvqhsg","pricing_plan_id":"free"},{"bike_id":"42e28ab5-8793-4be0-9d7f-ebdfd7e9b678","system_id":"levelo_inurba_marseille","lat":43.337168,"lon":5.391825,"is_reserved":false,"is_disabled":false,"rental_uris":{"android":"levelo://app?vid=42e28ab5-8793-4be0-9d7f-ebdfd7e9b678","ios":"levelo://app?vid=42e28ab5-8793-4be0-9d7f-ebdfd7e9b678"},"vehicle_type_id":"4","last_reported":1678568774,"current_range_meters":15200,"station_id":"ce4bhr92rcd13ifvqhsg","pricing_plan_id":"free"},{"bike_id":"024758cd-58b3-47e4-a65c-1a19a9b716b5","system_id":"levelo_inurba_marseille","lat":43.337168,"lon":5.391825,"is_reserved":false,"is_disabled":false,"rental_uris":{"android":"levelo://app?vid=024758cd-58b3-47e4-a65c-1a19a9b716b5","ios":"levelo://app?vid=024758cd-58b3-47e4-a65c-1a19a9b716b5"},"vehicle_type_id":"4","last_reported":1678568774,"current_range_meters":13200,"station_id":"ce4bhr92rcd13ifvqhsg","pricing_plan_id":"free"},{"bike_id":"cfbcfa0e-a04b-48fb-a2af-b7c60c740e1b","system_id":"levelo_inurba_marseille","lat":43.323382,"lon":5.406218,"is_reserved":false,"is_disabled":false,"rental_uris":{"android":"levelo://app?vid=cfbcfa0e-a04b-48fb-a2af-b7c60c740e1b","ios":"levelo://app?vid=cfbcfa0e-a04b-48fb-a2af-b7c60c740e1b"},"vehicle_type_id":"4","last_reported":1678568774,"current_range_meters":5600,"station_id":"","pricing_plan_id":"free"},{"bike_id":"8740c9a6-83bd-4ec0-b313-25a6fb365634","system_id":"levelo_inurba_marseille","lat":43.337168,"lon":5.391825,"is_reserved":false,"is_disabled":false,"rental_uris":{"android":"levelo://app?vid=8740c9a6-83bd-4ec0-b313-25a6fb365634","ios":"levelo://app?vid=8740c9a6-83bd-4ec0-b313-25a6fb365634"},"vehicle_type_id":"4","last_reported":1678568774,"current_range_meters":13600,"station_id":"ce4bhr92rcd13ifvqhsg","pricing_plan_id":"free"},{"bike_id":"be89b116-4999-470c-a7d4-b1c9dc279419","system_id":"levelo_inurba_marseille","lat":43.337168,"lon":5.391825,"is_reserved":false,"is_disabled":false,"rental_uris":{"android":"levelo://app?vid=be89b116-4999-470c-a7d4-b1c9dc279419","ios":"levelo://app?vid=be89b116-4999-470c-a7d4-b1c9dc279419"},"vehicle_type_id":"4","last_reported":1678568774,"current_range_meters":30000,"station_id":"ce4bhr92rcd13ifvqhsg","pricing_plan_id":"free"},{"bike_id":"fb824a8b-b7e6-4597-9670-0a9fa0599b69","system_id":"levelo_inurba_marseille","lat":43.321418,"lon":5.407243,"is_reserved":false,"is_disabled":false,"rental_uris":{"android":"levelo://app?vid=fb824a8b-b7e6-4597-9670-0a9fa0599b69","ios":"levelo://app?vid=fb824a8b-b7e6-4597-9670-0a9fa0599b69"},"vehicle_type_id":"4","last_reported":1678568774,"current_range_meters":0,"station_id":"","pricing_plan_id":"free"},{"bike_id":"c53752e2-10b2-4f95-b682-e03de14bc7dc","system_id":"levelo_inurba_marseille","lat":43.284787,"lon":5.384116,"is_reserved":false,"is_disabled":false,"rental_uris":{"android":"levelo://app?vid=c53752e2-10b2-4f95-b682-e03de14bc7dc","ios":"levelo://app?vid=c53752e2-10b2-4f95-b682-e03de14bc7dc"},"vehicle_type_id":"4","last_reported":1678568774,"current_range_meters":0,"station_id":"ce4bh512rcd13ifvqe3g","pricing_plan_id":"free"},{"bike_id":"245b25c6-3748-4146-abc4-8c17e2c753ec","system_id":"levelo_inurba_marseille","lat":43.284787,"lon":5.384116,"is_reserved":false,"is_disabled":false,"rental_uris":{"android":"levelo://app?vid=245b25c6-3748-4146-abc4-8c17e2c753ec","ios":"levelo://app?vid=245b25c6-3748-4146-abc4-8c17e2c753ec"},"vehicle_type_id":"4","last_reported":1678568774,"current_range_meters":3200,"station_id":"ce4bh512rcd13ifvqe3g","pricing_plan_id":"free"},{"bike_id":"7e1e9c46-65a9-458c-835c-ed34c06cd959","system_id":"levelo_inurba_marseille","lat":43.284273,"lon":5.34985,"is_reserved":false,"is_disabled":false,"rental_uris":{"android":"levelo://app?vid=7e1e9c46-65a9-458c-835c-ed34c06cd959","ios":"levelo://app?vid=7e1e9c46-65a9-458c-835c-ed34c06cd959"},"vehicle_type_id":"4","last_reported":1678568774,"current_range_meters":25600,"station_id":"ce4bhbh2rcd13ifvqepg","pricing_plan_id":"free"},{"bike_id":"bbc37436-ef60-40b3-9710-5d18219aa93d","system_id":"levelo_inurba_marseille","lat":43.284219,"lon":5.3497,"is_reserved":false,"is_disabled":false,"rental_uris":{"android":"levelo://app?vid=bbc37436-ef60-40b3-9710-5d18219aa93d","ios":"levelo://app?vid=bbc37436-ef60-40b3-9710-5d18219aa93d"},"vehicle_type_id":"4","last_reported":1678568774,"current_range_meters":29600,"station_id":"ce4bhbh2rcd13ifvqepg","pricing_plan_id":"free"},{"bike_id":"cb76e280-acf9-4c20-98e5-b9c96b97b16d","system_id":"levelo_inurba_marseille","lat":43.289363,"lon":5.396322,"is_reserved":false,"is_disabled":false,"rental_uris":{"android":"levelo://app?vid=cb76e280-acf9-4c20-98e5-b9c96b97b16d","ios":"levelo://app?vid=cb76e280-acf9-4c20-98e5-b9c96b97b16d"},"vehicle_type_id":"4","last_reported":1678568774,"current_range_meters":8000,"station_id":"ce4bh3h2rcd13ifvqdn0","pricing_plan_id":"free"},{"bike_id":"7eea7e0c-b64e-4ea5-897f-164d9bab6995","system_id":"levelo_inurba_marseille","lat":43.282735,"lon":5.350675,"is_reserved":false,"is_disabled":false,"rental_uris":{"android":"levelo://app?vid=7eea7e0c-b64e-4ea5-897f-164d9bab6995","ios":"levelo://app?vid=7eea7e0c-b64e-4ea5-897f-164d9bab6995"},"vehicle_type_id":"4","last_reported":1678568774,"current_range_meters":0,"station_id":"","pricing_plan_id":"free"},{"bike_id":"d45c4450-6efc-4c7f-be32-1cbb18736166","system_id":"levelo_inurba_marseille","lat":43.28272,"lon":5.35059,"is_reserved":false,"is_disabled":false,"rental_uris":{"android":"levelo://app?vid=d45c4450-6efc-4c7f-be32-1cbb18736166","ios":"levelo://app?vid=d45c4450-6efc-4c7f-be32-1cbb18736166"},"vehicle_type_id":"4","last_reported":1678568774,"current_range_meters":0,"station_id":"ce4bhbp2rcd13ifvqerg","pricing_plan_id":"free"},{"bike_id":"7cf8de23-13a7-4ebc-b8cd-bb1bfdf89c5c","system_id":"levelo_inurba_marseille","lat":43.28362,"lon":5.38625,"is_reserved":false,"is_disabled":false,"rental_uris":{"android":"levelo://app?vid=7cf8de23-13a7-4ebc-b8cd-bb1bfdf89c5c","ios":"levelo://app?vid=7cf8de23-13a7-4ebc-b8cd-bb1bfdf89c5c"},"vehicle_type_id":"4","last_reported":1678568774,"current_range_meters":0,"station_id":"ce4bh492rcd13ifvqdvg","pricing_plan_id":"free"},{"bike_id":"051d8d00-5ced-43f5-ad27-3cc9f2d03f4f","system_id":"levelo_inurba_marseille","lat":43.28039,"lon":5.369297,"is_reserved":false,"is_disabled":false,"rental_uris":{"android":"levelo://app?vid=051d8d00-5ced-43f5-ad27-3cc9f2d03f4f","ios":"levelo://app?vid=051d8d00-5ced-43f5-ad27-3cc9f2d03f4f"},"vehicle_type_id":"4","last_reported":1678568774,"current_range_meters":3600,"station_id":"ce4bha12rcd13ifvqef0","pricing_plan_id":"free"},{"bike_id":"d4bb87ad-5a94-4ebc-91e6-8d325da11171","system_id":"levelo_inurba_marseille","lat":43.28039,"lon":5.369297,"is_reserved":false,"is_disabled":false,"rental_uris":{"android":"levelo://app?vid=d4bb87ad-5a94-4ebc-91e6-8d325da11171","ios":"levelo://app?vid=d4bb87ad-5a94-4ebc-91e6-8d325da11171"},"vehicle_type_id":"4","last_reported":1678568774,"current_range_meters":2000,"station_id":"ce4bha12rcd13ifvqef0","pricing_plan_id":"free"},{"bike_id":"52600047-77e7-44c4-a3b1-3098851ee8f4","system_id":"levelo_inurba_marseille","lat":43.28039,"lon":5.369297,"is_reserved":false,"is_disabled":false,"rental_uris":{"android":"levelo://app?vid=52600047-77e7-44c4-a3b1-3098851ee8f4","ios":"levelo://app?vid=52600047-77e7-44c4-a3b1-3098851ee8f4"},"vehicle_type_id":"4","last_reported":1678568774,"current_range_meters":8800,"station_id":"ce4bha12rcd13ifvqef0","pricing_plan_id":"free"},{"bike_id":"500a553c-de52-42fd-bf74-2ff59e3a3cff","system_id":"levelo_inurba_marseille","lat":43.28039,"lon":5.369297,"is_reserved":false,"is_disabled":false,"rental_uris":{"android":"levelo://app?vid=500a553c-de52-42fd-bf74-2ff59e3a3cff","ios":"levelo://app?vid=500a553c-de52-42fd-bf74-2ff59e3a3cff"},"vehicle_type_id":"4","last_reported":1678568774,"current_range_meters":26000,"station_id":"ce4bha12rcd13ifvqef0","pricing_plan_id":"free"},{"bike_id":"81fd18e9-7355-4bbd-87bc-229eb8a30511","system_id":"levelo_inurba_marseille","lat":43.28039,"lon":5.369297,"is_reserved":false,"is_disabled":false,"rental_uris":{"android":"levelo://app?vid=81fd18e9-7355-4bbd-87bc-229eb8a30511","ios":"levelo://app?vid=81fd18e9-7355-4bbd-87bc-229eb8a30511"},"vehicle_type_id":"4","last_reported":1678568774,"current_range_meters":14400,"station_id":"ce4bha12rcd13ifvqef0","pricing_plan_id":"free"},{"bike_id":"5d3089ef-ea26-47cd-a9df-3a22aa2ae572","system_id":"levelo_inurba_marseille","lat":43.28121,"lon":5.378286,"is_reserved":false,"is_disabled":false,"rental_uris":{"android":"levelo://app?vid=5d3089ef-ea26-47cd-a9df-3a22aa2ae572","ios":"levelo://app?vid=5d3089ef-ea26-47cd-a9df-3a22aa2ae572"},"vehicle_type_id":"4","last_reported":1678568774,"current_range_meters":26000,"station_id":"ce4bha12rcd13ifvqee0","pricing_plan_id":"free"},{"bike_id":"ef6447ed-10f5-49da-91fe-f99c76157b29","system_id":"levelo_inurba_marseille","lat":43.28105,"lon":5.37836,"is_reserved":false,"is_disabled":false,"rental_uris":{"android":"levelo://app?vid=ef6447ed-10f5-49da-91fe-f99c76157b29","ios":"levelo://app?vid=ef6447ed-10f5-49da-91fe-f99c76157b29"},"vehicle_type_id":"4","last_reported":1678568774,"current_range_meters":12800,"station_id":"ce4bha12rcd13ifvqee0","pricing_plan_id":"free"},{"bike_id":"5f5d55b2-6cd0-4974-935d-c31bd7d9dc91","system_id":"levelo_inurba_marseille","lat":43.296263,"lon":5.40601,"is_reserved":false,"is_disabled":false,"rental_uris":{"android":"levelo://app?vid=5f5d55b2-6cd0-4974-935d-c31bd7d9dc91","ios":"levelo://app?vid=5f5d55b2-6cd0-4974-935d-c31bd7d9dc91"},"vehicle_type_id":"4","last_reported":1678568774,"current_range_meters":21200,"station_id":"ce4bh0h2rcd13ifvqd60","pricing_plan_id":"free"},{"bike_id":"e80a48c9-70db-46ad-8bc6-e0daa06117cb","system_id":"levelo_inurba_marseille","lat":43.296263,"lon":5.40601,"is_reserved":false,"is_disabled":false,"rental_uris":{"android":"levelo://app?vid=e80a48c9-70db-46ad-8bc6-e0daa06117cb","ios":"levelo://app?vid=e80a48c9-70db-46ad-8bc6-e0daa06117cb"},"vehicle_type_id":"4","last_reported":1678568774,"current_range_meters":12400,"station_id":"ce4bh0h2rcd13ifvqd60","pricing_plan_id":"free"},{"bike_id":"433b0ebb-c6a7-439c-bc79-d8c392491a41","system_id":"levelo_inurba_marseille","lat":43.281044,"lon":5.378308,"is_reserved":false,"is_disabled":false,"rental_uris":{"android":"levelo://app?vid=433b0ebb-c6a7-439c-bc79-d8c392491a41","ios":"levelo://app?vid=433b0ebb-c6a7-439c-bc79-d8c392491a41"},"vehicle_type_id":"4","last_reported":1678568774,"current_range_meters":0,"station_id":"ce4bha12rcd13ifvqee0","pricing_plan_id":"free"},{"bike_id":"64bcbc9d-096a-402b-8396-8d57ecf3da71","system_id":"levelo_inurba_marseille","lat":43.296263,"lon":5.40601,"is_reserved":false,"is_disabled":false,"rental_uris":{"android":"levelo://app?vid=64bcbc9d-096a-402b-8396-8d57ecf3da71","ios":"levelo://app?vid=64bcbc9d-096a-402b-8396-8d57ecf3da71"},"vehicle_type_id":"4","last_reported":1678568774,"current_range_meters":0,"station_id":"ce4bh0h2rcd13ifvqd60","pricing_plan_id":"free"},{"bike_id":"76e511cc-a5f1-4660-9af9-a515ed32c571","system_id":"levelo_inurba_marseille","lat":43.287154,"lon":5.399979,"is_reserved":false,"is_disabled":false,"rental_uris":{"android":"levelo://app?vid=76e511cc-a5f1-4660-9af9-a515ed32c571","ios":"levelo://app?vid=76e511cc-a5f1-4660-9af9-a515ed32c571"},"vehicle_type_id":"4","last_reported":1678568774,"current_range_meters":4800,"station_id":"ce4bho92rcd13ifvqh3g","pricing_plan_id":"free"},{"bike_id":"d873de88-39ec-4ff2-9ffd-f98414bb9fd1","system_id":"levelo_inurba_marseille","lat":43.320444,"lon":5.415326,"is_reserved":false,"is_disabled":false,"rental_uris":{"android":"levelo://app?vid=d873de88-39ec-4ff2-9ffd-f98414bb9fd1","ios":"levelo://app?vid=d873de88-39ec-4ff2-9ffd-f98414bb9fd1"},"vehicle_type_id":"4","last_reported":1678568774,"current_range_meters":30800,"station_id":"","pricing_plan_id":"free"},{"bike_id":"12d93222-8545-4cbc-8d66-06921f4e0044","system_id":"levelo_inurba_marseille","lat":43.320045,"lon":5.415048,"is_reserved":false,"is_disabled":false,"rental_uris":{"android":"levelo://app?vid=12d93222-8545-4cbc-8d66-06921f4e0044","ios":"levelo://app?vid=12d93222-8545-4cbc-8d66-06921f4e0044"},"vehicle_type_id":"4","last_reported":1678568774,"current_range_meters":27600,"station_id":"ce4bhq92rcd13ifvqhkg","pricing_plan_id":"free"},{"bike_id":"86241b88-164f-4ead-ab7e-313f87213e2c","system_id":"levelo_inurba_marseille","lat":43.320045,"lon":5.415048,"is_reserved":false,"is_disabled":false,"rental_uris":{"android":"levelo://app?vid=86241b88-164f-4ead-ab7e-313f87213e2c","ios":"levelo://app?vid=86241b88-164f-4ead-ab7e-313f87213e2c"},"vehicle_type_id":"4","last_reported":1678568774,"current_range_meters":17600,"station_id":"ce4bhq92rcd13ifvqhkg","pricing_plan_id":"free"},{"bike_id":"5dd14ec1-75d5-496b-87fc-db177a17fe58","system_id":"levelo_inurba_marseille","lat":43.320045,"lon":5.415048,"is_reserved":false,"is_disabled":false,"rental_uris":{"android":"levelo://app?vid=5dd14ec1-75d5-496b-87fc-db177a17fe58","ios":"levelo://app?vid=5dd14ec1-75d5-496b-87fc-db177a17fe58"},"vehicle_type_id":"4","last_reported":1678568774,"current_range_meters":15200,"station_id":"ce4bhq92rcd13ifvqhkg","pricing_plan_id":"free"},{"bike_id":"652de2e5-7d4f-41be-8f9e-1dba6d0ea678","system_id":"levelo_inurba_marseille","lat":43.320045,"lon":5.415048,"is_reserved":false,"is_disabled":false,"rental_uris":{"android":"levelo://app?vid=652de2e5-7d4f-41be-8f9e-1dba6d0ea678","ios":"levelo://app?vid=652de2e5-7d4f-41be-8f9e-1dba6d0ea678"},"vehicle_type_id":"4","last_reported":1678568774,"current_range_meters":25600,"station_id":"ce4bhq92rcd13ifvqhkg","pricing_plan_id":"free"},{"bike_id":"8033fd04-d3dd-4935-9ba0-09ae37b10d3b","system_id":"levelo_inurba_marseille","lat":43.320045,"lon":5.415048,"is_reserved":false,"is_disabled":false,"rental_uris":{"android":"levelo://app?vid=8033fd04-d3dd-4935-9ba0-09ae37b10d3b","ios":"levelo://app?vid=8033fd04-d3dd-4935-9ba0-09ae37b10d3b"},"vehicle_type_id":"4","last_reported":1678568774,"current_range_meters":28000,"station_id":"ce4bhq92rcd13ifvqhkg","pricing_plan_id":"free"},{"bike_id":"62d5ccff-05fe-4953-b201-2101628b29e2","system_id":"levelo_inurba_marseille","lat":43.320445,"lon":5.415415,"is_reserved":false,"is_disabled":false,"rental_uris":{"android":"levelo://app?vid=62d5ccff-05fe-4953-b201-2101628b29e2","ios":"levelo://app?vid=62d5ccff-05fe-4953-b201-2101628b29e2"},"vehicle_type_id":"4","last_reported":1678568774,"current_range_meters":29200,"station_id":"","pricing_plan_id":"free"},{"bike_id":"60af5091-7766-4c8b-865c-90888c3c5344","system_id":"levelo_inurba_marseille","lat":43.320045,"lon":5.415048,"is_reserved":false,"is_disabled":false,"rental_uris":{"android":"levelo://app?vid=60af5091-7766-4c8b-865c-90888c3c5344","ios":"levelo://app?vid=60af5091-7766-4c8b-865c-90888c3c5344"},"vehicle_type_id":"4","last_reported":1678568774,"current_range_meters":30800,"station_id":"ce4bhq92rcd13ifvqhkg","pricing_plan_id":"free"},{"bike_id":"7b3c5858-141d-4e08-b369-5c5d04809261","system_id":"levelo_inurba_marseille","lat":43.320045,"lon":5.415048,"is_reserved":false,"is_disabled":false,"rental_uris":{"android":"levelo://app?vid=7b3c5858-141d-4e08-b369-5c5d04809261","ios":"levelo://app?vid=7b3c5858-141d-4e08-b369-5c5d04809261"},"vehicle_type_id":"4","last_reported":1678568774,"current_range_meters":25600,"station_id":"ce4bhq92rcd13ifvqhkg","pricing_plan_id":"free"},{"bike_id":"3f66c85e-68f5-4535-af58-8c9801415e46","system_id":"levelo_inurba_marseille","lat":43.279742,"lon":5.38744,"is_reserved":false,"is_disabled":false,"rental_uris":{"android":"levelo://app?vid=3f66c85e-68f5-4535-af58-8c9801415e46","ios":"levelo://app?vid=3f66c85e-68f5-4535-af58-8c9801415e46"},"vehicle_type_id":"4","last_reported":1678568774,"current_range_meters":1200,"station_id":"ce4bhg12rcd13ifvqf80","pricing_plan_id":"free"},{"bike_id":"b193c10f-b1c9-4e3a-a61b-12bc2ed175b1","system_id":"levelo_inurba_marseille","lat":43.320508,"lon":5.41557,"is_reserved":false,"is_disabled":false,"rental_uris":{"android":"levelo://app?vid=b193c10f-b1c9-4e3a-a61b-12bc2ed175b1","ios":"levelo://app?vid=b193c10f-b1c9-4e3a-a61b-12bc2ed175b1"},"vehicle_type_id":"4","last_reported":1678568774,"current_range_meters":31600,"station_id":"","pricing_plan_id":"free"},{"bike_id":"fc310a87-5e94-4fdc-a419-ef9c0efa8e04","system_id":"levelo_inurba_marseille","lat":43.320045,"lon":5.415048,"is_reserved":false,"is_disabled":false,"rental_uris":{"android":"levelo://app?vid=fc310a87-5e94-4fdc-a419-ef9c0efa8e04","ios":"levelo://app?vid=fc310a87-5e94-4fdc-a419-ef9c0efa8e04"},"vehicle_type_id":"4","last_reported":1678568774,"current_range_meters":25600,"station_id":"ce4bhq92rcd13ifvqhkg","pricing_plan_id":"free"},{"bike_id":"18aa44bb-65a4-4112-aada-f68a39a6d620","system_id":"levelo_inurba_marseille","lat":43.27618,"lon":5.361009,"is_reserved":false,"is_disabled":false,"rental_uris":{"android":"levelo://app?vid=18aa44bb-65a4-4112-aada-f68a39a6d620","ios":"levelo://app?vid=18aa44bb-65a4-4112-aada-f68a39a6d620"},"vehicle_type_id":"4","last_reported":1678568774,"current_range_meters":28400,"station_id":"ce4bgj92rcd13ifvqbe0","pricing_plan_id":"free"},{"bike_id":"45b0a26b-fbe6-4f16-96bd-187a255706eb","system_id":"levelo_inurba_marseille","lat":43.3254,"lon":5.41437,"is_reserved":false,"is_disabled":false,"rental_uris":{"android":"levelo://app?vid=45b0a26b-fbe6-4f16-96bd-187a255706eb","ios":"levelo://app?vid=45b0a26b-fbe6-4f16-96bd-187a255706eb"},"vehicle_type_id":"4","last_reported":1678568774,"current_range_meters":25200,"station_id":"ce4bhq12rcd13ifvqhhg","pricing_plan_id":"free"},{"bike_id":"888ec31e-7ff1-4415-9121-a594691e70f7","system_id":"levelo_inurba_marseille","lat":43.27618,"lon":5.361009,"is_reserved":false,"is_disabled":false,"rental_uris":{"android":"levelo://app?vid=888ec31e-7ff1-4415-9121-a594691e70f7","ios":"levelo://app?vid=888ec31e-7ff1-4415-9121-a594691e70f7"},"vehicle_type_id":"4","last_reported":1678568774,"current_range_meters":31200,"station_id":"ce4bgj92rcd13ifvqbe0","pricing_plan_id":"free"},{"bike_id":"4e3fe89f-1f82-43e6-a58d-364147f1545e","system_id":"levelo_inurba_marseille","lat":43.27618,"lon":5.361009,"is_reserved":false,"is_disabled":false,"rental_uris":{"android":"levelo://app?vid=4e3fe89f-1f82-43e6-a58d-364147f1545e","ios":"levelo://app?vid=4e3fe89f-1f82-43e6-a58d-364147f1545e"},