{"last_updated":1768916301,"ttl":60,"version":"2.2","data":{"bikes":[{"bike_id":"b8fcd8cb-0594-4218-bff2-939b2eaa3365","system_id":"levelo_inurba_marseille","lat":43.27941,"lon":5.41046,"is_reserved":false,"is_disabled":false,"rental_uris":{"android":"levelo://app?vid=b8fcd8cb-0594-4218-bff2-939b2eaa3365","ios":"levelo://app?vid=b8fcd8cb-0594-4218-bff2-939b2eaa3365"},"vehicle_type_id":"4","last_reported":1768916302,"current_range_meters":2800,"station_id":"ce4bhnp2rcd13ifvqh0g","pricing_plan_id":"cebpf4jnsgd1na2vs0mg"},{"bike_id":"dcc6a235-8f61-4a3a-9f0a-2e585a917704","system_id":"levelo_inurba_marseille","lat":43.30121,"lon":5.39843,"is_reserved":false,"is_disabled":false,"rental_uris":{"android":"levelo://app?vid=dcc6a235-8f61-4a3a-9f0a-2e585a917704","ios":"levelo://app?vid=dcc6a235-8f61-4a3a-9f0a-2e585a917704"},"vehicle_type_id":"4","last_reported":1768916302,"current_range_meters":2800,"station_id":"ce4bh0h2rcd13ifvqd40","pricing_plan_id":"cebpf4jnsgd1na2vs0mg"},{"bike_id":"55a93059-46da-4326-b3f6-eca54949cf8d","system_id":"levelo_inurba_marseille","lat":43.27823,"lon":5.40698,"is_reserved":false,"is_disabled":false,"rental_uris":{"android":"levelo://app?vid=55a93059-46da-4326-b3f6-eca54949cf8d","ios":"levelo://app?vid=55a93059-46da-4326-b3f6-eca54949cf8d"},"vehicle_type_id":"4","last_reported":1768916302,"current_range_meters":2800,"station_id":"ce4bhnh2rcd13ifvqgtg","pricing_plan_id":"cebpf4jnsgd1na2vs0mg"},{"bike_id":"d16668c1-3494-42a0-89aa-a7fc6a4a19f9","system_id":"levelo_inurba_marseille","lat":43.22925,"lon":5.35359,"is_reserved":false,"is_disabled":false,"rental_uris":{"android":"levelo://app?vid=d16668c1-3494-42a0-89aa-a7fc6a4a19f9","ios":"levelo://app?vid=d16668c1-3494-42a0-89aa-a7fc6a4a19f9"},"vehicle_type_id":"4","last_reported":1768916302,"current_range_meters":2800,"station_id":"cpo3532slgdg3j2ikp40","pricing_plan_id":"cebpf4jnsgd1na2vs0mg"},{"bike_id":"32b9055d-85b8-4b54-b386-56f3f6117604","system_id":"levelo_inurba_marseille","lat":43.30785,"lon":5.37637,"is_reserved":false,"is_disabled":false,"rental_uris":{"android":"levelo://app?vid=32b9055d-85b8-4b54-b386-56f3f6117604","ios":"levelo://app?vid=32b9055d-85b8-4b54-b386-56f3f6117604"},"vehicle_type_id":"4","last_reported":1768916302,"current_range_meters":2800,"station_id":"ce4bgv92rcd13ifvqcq0","pricing_plan_id":"cebpf4jnsgd1na2vs0mg"},{"bike_id":"0352f83e-42c9-4b95-aab1-5eb895fe3a3d","system_id":"levelo_inurba_marseille","lat":43.2257,"lon":5.41641,"is_reserved":false,"is_disabled":false,"rental_uris":{"android":"levelo://app?vid=0352f83e-42c9-4b95-aab1-5eb895fe3a3d","ios":"levelo://app?vid=0352f83e-42c9-4b95-aab1-5eb895fe3a3d"},"vehicle_type_id":"4","last_reported":1768916302,"current_range_meters":2800,"station_id":"st_d2o4gvlbi1j2169b742g","pricing_plan_id":"cebpf4jnsgd1na2vs0mg"},{"bike_id":"24c89c87-4e34-4758-98ab-4279f78b4108","system_id":"levelo_inurba_marseille","lat":43.25829,"lon":5.39385,"is_reserved":false,"is_disabled":false,"rental_uris":{"android":"levelo://app?vid=24c89c87-4e34-4758-98ab-4279f78b4108","ios":"levelo://app?vid=24c89c87-4e34-4758-98ab-4279f78b4108"},"vehicle_type_id":"4","last_reported":1768916302,"current_range_meters":2800,"station_id":"ce4bhip2rcd13ifvqft0","pricing_plan_id":"cebpf4jnsgd1na2vs0mg"},{"bike_id":"d94b0719-67c8-4a98-823a-17ee81ceae99","system_id":"levelo_inurba_marseille","lat":43.27994,"lon":5.39979,"is_reserved":false,"is_disabled":false,"rental_uris":{"android":"levelo://app?vid=d94b0719-67c8-4a98-823a-17ee81ceae99","ios":"levelo://app?vid=d94b0719-67c8-4a98-823a-17ee81ceae99"},"vehicle_type_id":"4","last_reported":1768916302,"current_range_meters":2800,"station_id":"ce4bho92rcd13ifvqh4g","pricing_plan_id":"cebpf4jnsgd1na2vs0mg"},{"bike_id":"7203e830-a3e8-48b3-874d-a33c2d2d3056","system_id":"levelo_inurba_marseille","lat":43.33753,"lon":5.37462,"is_reserved":false,"is_disabled":false,"rental_uris":{"android":"levelo://app?vid=7203e830-a3e8-48b3-874d-a33c2d2d3056","ios":"levelo://app?vid=7203e830-a3e8-48b3-874d-a33c2d2d3056"},"vehicle_type_id":"4","last_reported":1768916302,"current_range_meters":2800,"station_id":"","pricing_plan_id":"cebpf4jnsgd1na2vs0mg"},{"bike_id":"d354101e-8514-4eb1-87fb-de53ddecb2cd","system_id":"levelo_inurba_marseille","lat":43.23786,"lon":5.3663,"is_reserved":false,"is_disabled":false,"rental_uris":{"android":"levelo://app?vid=d354101e-8514-4eb1-87fb-de53ddecb2cd","ios":"levelo://app?vid=d354101e-8514-4eb1-87fb-de53ddecb2cd"},"vehicle_type_id":"4","last_reported":1768916302,"current_range_meters":2800,"station_id":"st_d3nk18o9ro0c73en2l3g","pricing_plan_id":"cebpf4jnsgd1na2vs0mg"},{"bike_id":"677a7507-9fa8-4b3b-bc9d-d833305c9270","system_id":"levelo_inurba_marseille","lat":43.30201,"lon":5.38077,"is_reserved":false,"is_disabled":false,"rental_uris":{"android":"levelo://app?vid=677a7507-9fa8-4b3b-bc9d-d833305c9270","ios":"levelo://app?vid=677a7507-9fa8-4b3b-bc9d-d833305c9270"},"vehicle_type_id":"4","last_reported":1768916302,"current_range_meters":2800,"station_id":"","pricing_plan_id":"cebpf4jnsgd1na2vs0mg"},{"bike_id":"c40a6ea2-15bc-4aca-b4f5-3663d2c8f2ab","system_id":"levelo_inurba_marseille","lat":43.27674,"lon":5.38852,"is_reserved":false,"is_disabled":false,"rental_uris":{"android":"levelo://app?vid=c40a6ea2-15bc-4aca-b4f5-3663d2c8f2ab","ios":"levelo://app?vid=c40a6ea2-15bc-4aca-b4f5-3663d2c8f2ab"},"vehicle_type_id":"4","last_reported":1768916302,"current_range_meters":2800,"station_id":"ce4bhi12rcd13ifvqfo0","pricing_plan_id":"cebpf4jnsgd1na2vs0mg"},{"bike_id":"1466823c-acd5-4f0c-b6f1-f177320818ea","system_id":"levelo_inurba_marseille","lat":43.29942,"lon":5.3718,"is_reserved":false,"is_disabled":false,"rental_uris":{"android":"levelo://app?vid=1466823c-acd5-4f0c-b6f1-f177320818ea","ios":"levelo://app?vid=1466823c-acd5-4f0c-b6f1-f177320818ea"},"vehicle_type_id":"4","last_reported":1768916302,"current_range_meters":2800,"station_id":"ce4bgr92rcd13ifvqc7g","pricing_plan_id":"cebpf4jnsgd1na2vs0mg"},{"bike_id":"72531f71-d042-483c-a024-3dc9ad4c3b33","system_id":"levelo_inurba_marseille","lat":43.28001,"lon":5.40005,"is_reserved":false,"is_disabled":false,"rental_uris":{"android":"levelo://app?vid=72531f71-d042-483c-a024-3dc9ad4c3b33","ios":"levelo://app?vid=72531f71-d042-483c-a024-3dc9ad4c3b33"},"vehicle_type_id":"4","last_reported":1768916302,"current_range_meters":3200,"station_id":"ce4bho92rcd13ifvqh4g","pricing_plan_id":"cebpf4jnsgd1na2vs0mg"},{"bike_id":"425ae759-4c6d-4238-8b22-bd8b4c917247","system_id":"levelo_inurba_marseille","lat":43.31236,"lon":5.36968,"is_reserved":false,"is_disabled":false,"rental_uris":{"android":"levelo://app?vid=425ae759-4c6d-4238-8b22-bd8b4c917247","ios":"levelo://app?vid=425ae759-4c6d-4238-8b22-bd8b4c917247"},"vehicle_type_id":"4","last_reported":1768916302,"current_range_meters":3200,"station_id":"","pricing_plan_id":"cebpf4jnsgd1na2vs0mg"},{"bike_id":"4b5aa404-a223-4202-a9b4-4364010f0fb4","system_id":"levelo_inurba_marseille","lat":43.33758,"lon":5.37493,"is_reserved":false,"is_disabled":false,"rental_uris":{"android":"levelo://app?vid=4b5aa404-a223-4202-a9b4-4364010f0fb4","ios":"levelo://app?vid=4b5aa404-a223-4202-a9b4-4364010f0fb4"},"vehicle_type_id":"4","last_reported":1768916302,"current_range_meters":3200,"station_id":"","pricing_plan_id":"cebpf4jnsgd1na2vs0mg"},{"bike_id":"d01eeaad-fbd8-45ca-82b1-b7c8e1f571be","system_id":"levelo_inurba_marseille","lat":43.2937,"lon":5.37854,"is_reserved":false,"is_disabled":false,"rental_uris":{"android":"levelo://app?vid=d01eeaad-fbd8-45ca-82b1-b7c8e1f571be","ios":"levelo://app?vid=d01eeaad-fbd8-45ca-82b1-b7c8e1f571be"},"vehicle_type_id":"4","last_reported":1768916302,"current_range_meters":3200,"station_id":"ce4bgjh2rcd13ifvqbf0","pricing_plan_id":"cebpf4jnsgd1na2vs0mg"},{"bike_id":"83a27adc-f08b-4f3c-9386-51ca11678b54","system_id":"levelo_inurba_marseille","lat":43.33613,"lon":5.410219,"is_reserved":false,"is_disabled":true,"rental_uris":{"android":"levelo://app?vid=83a27adc-f08b-4f3c-9386-51ca11678b54","ios":"levelo://app?vid=83a27adc-f08b-4f3c-9386-51ca11678b54"},"vehicle_type_id":"4","last_reported":1768916302,"current_range_meters":3200,"station_id":"ce4bhqh2rcd13ifvqhmg","pricing_plan_id":"cebpf4jnsgd1na2vs0mg"},{"bike_id":"6ff95acc-2984-4def-8ef1-d69f5109eab1","system_id":"levelo_inurba_marseille","lat":43.24463,"lon":5.42537,"is_reserved":false,"is_disabled":false,"rental_uris":{"android":"levelo://app?vid=6ff95acc-2984-4def-8ef1-d69f5109eab1","ios":"levelo://app?vid=6ff95acc-2984-4def-8ef1-d69f5109eab1"},"vehicle_type_id":"4","last_reported":1768916302,"current_range_meters":3200,"station_id":"st_d4a3vfp97mjs738cd8kg","pricing_plan_id":"cebpf4jnsgd1na2vs0mg"},{"bike_id":"580c4651-9d29-4ac4-86f4-acd3d76df0f2","system_id":"levelo_inurba_marseille","lat":43.3048,"lon":5.37913,"is_reserved":false,"is_disabled":false,"rental_uris":{"android":"levelo://app?vid=580c4651-9d29-4ac4-86f4-acd3d76df0f2","ios":"levelo://app?vid=580c4651-9d29-4ac4-86f4-acd3d76df0f2"},"vehicle_type_id":"4","last_reported":1768916302,"current_range_meters":3200,"station_id":"ce4bgup2rcd13ifvqcn0","pricing_plan_id":"cebpf4jnsgd1na2vs0mg"},{"bike_id":"4e482957-f0dc-4002-9b34-5f058909a1a1","system_id":"levelo_inurba_marseille","lat":43.26944,"lon":5.38629,"is_reserved":false,"is_disabled":false,"rental_uris":{"android":"levelo://app?vid=4e482957-f0dc-4002-9b34-5f058909a1a1","ios":"levelo://app?vid=4e482957-f0dc-4002-9b34-5f058909a1a1"},"vehicle_type_id":"4","last_reported":1768916302,"current_range_meters":3200,"station_id":"ce4bhh92rcd13ifvqfh0","pricing_plan_id":"cebpf4jnsgd1na2vs0mg"},{"bike_id":"1779aedc-63d9-49b6-983d-66dd8284d089","system_id":"levelo_inurba_marseille","lat":43.295215,"lon":5.390421,"is_reserved":false,"is_disabled":false,"rental_uris":{"android":"levelo://app?vid=1779aedc-63d9-49b6-983d-66dd8284d089","ios":"levelo://app?vid=1779aedc-63d9-49b6-983d-66dd8284d089"},"vehicle_type_id":"4","last_reported":1768916302,"current_range_meters":3200,"station_id":"ce4bh3p2rcd13ifvqdp0","pricing_plan_id":"cebpf4jnsgd1na2vs0mg"},{"bike_id":"7d57c2b3-697c-4b7f-83f1-caedf104c832","system_id":"levelo_inurba_marseille","lat":43.28477,"lon":5.38417,"is_reserved":false,"is_disabled":false,"rental_uris":{"android":"levelo://app?vid=7d57c2b3-697c-4b7f-83f1-caedf104c832","ios":"levelo://app?vid=7d57c2b3-697c-4b7f-83f1-caedf104c832"},"vehicle_type_id":"4","last_reported":1768916302,"current_range_meters":3600,"station_id":"ce4bh512rcd13ifvqe3g","pricing_plan_id":"cebpf4jnsgd1na2vs0mg"},{"bike_id":"4f2dd164-7013-43b2-a24e-bc13e5296f6a","system_id":"levelo_inurba_marseille","lat":43.241732,"lon":5.397258,"is_reserved":false,"is_disabled":false,"rental_uris":{"android":"levelo://app?vid=4f2dd164-7013-43b2-a24e-bc13e5296f6a","ios":"levelo://app?vid=4f2dd164-7013-43b2-a24e-bc13e5296f6a"},"vehicle_type_id":"4","last_reported":1768916302,"current_range_meters":3600,"station_id":"ce4bhn12rcd13ifvqgpg","pricing_plan_id":"cebpf4jnsgd1na2vs0mg"},{"bike_id":"4a44edbd-38a3-4b47-8006-b37848186620","system_id":"levelo_inurba_marseille","lat":43.26685,"lon":5.38266,"is_reserved":false,"is_disabled":false,"rental_uris":{"android":"levelo://app?vid=4a44edbd-38a3-4b47-8006-b37848186620","ios":"levelo://app?vid=4a44edbd-38a3-4b47-8006-b37848186620"},"vehicle_type_id":"4","last_reported":1768916302,"current_range_meters":3600,"station_id":"ce4bhg92rcd13ifvqf90","pricing_plan_id":"cebpf4jnsgd1na2vs0mg"},{"bike_id":"f4704682-aa96-4a0b-a789-56d1976bc4dd","system_id":"levelo_inurba_marseille","lat":43.24417,"lon":5.3708,"is_reserved":false,"is_disabled":false,"rental_uris":{"android":"levelo://app?vid=f4704682-aa96-4a0b-a789-56d1976bc4dd","ios":"levelo://app?vid=f4704682-aa96-4a0b-a789-56d1976bc4dd"},"vehicle_type_id":"4","last_reported":1768916302,"current_range_meters":3600,"station_id":"ce4bhhh2rcd13ifvqfk0","pricing_plan_id":"cebpf4jnsgd1na2vs0mg"},{"bike_id":"01a9dfdc-fec3-4957-aa4e-69893e0976c5","system_id":"levelo_inurba_marseille","lat":43.30571,"lon":5.36719,"is_reserved":false,"is_disabled":false,"rental_uris":{"android":"levelo://app?vid=01a9dfdc-fec3-4957-aa4e-69893e0976c5","ios":"levelo://app?vid=01a9dfdc-fec3-4957-aa4e-69893e0976c5"},"vehicle_type_id":"4","last_reported":1768916302,"current_range_meters":3600,"station_id":"ce4bgrp2rcd13ifvqc9g","pricing_plan_id":"cebpf4jnsgd1na2vs0mg"},{"bike_id":"6f7f755c-c203-431d-bef1-e0582d5f140d","system_id":"levelo_inurba_marseille","lat":43.24648,"lon":5.43139,"is_reserved":false,"is_disabled":false,"rental_uris":{"android":"levelo://app?vid=6f7f755c-c203-431d-bef1-e0582d5f140d","ios":"levelo://app?vid=6f7f755c-c203-431d-bef1-e0582d5f140d"},"vehicle_type_id":"4","last_reported":1768916302,"current_range_meters":3600,"station_id":"st_d2m6c4gdas8pm72e190g","pricing_plan_id":"cebpf4jnsgd1na2vs0mg"},{"bike_id":"e5afdae1-8536-48ae-affe-93a7f04d1b80","system_id":"levelo_inurba_marseille","lat":43.283591,"lon":5.394318,"is_reserved":false,"is_disabled":false,"rental_uris":{"android":"levelo://app?vid=e5afdae1-8536-48ae-affe-93a7f04d1b80","ios":"levelo://app?vid=e5afdae1-8536-48ae-affe-93a7f04d1b80"},"vehicle_type_id":"4","last_reported":1768916302,"current_range_meters":3600,"station_id":"","pricing_plan_id":"cebpf4jnsgd1na2vs0mg"},{"bike_id":"a88fcd62-ae19-405b-85db-c6d7846c8099","system_id":"levelo_inurba_marseille","lat":43.31202,"lon":5.36898,"is_reserved":false,"is_disabled":false,"rental_uris":{"android":"levelo://app?vid=a88fcd62-ae19-405b-85db-c6d7846c8099","ios":"levelo://app?vid=a88fcd62-ae19-405b-85db-c6d7846c8099"},"vehicle_type_id":"4","last_reported":1768916302,"current_range_meters":3600,"station_id":"ce4bgl92rcd13ifvqbq0","pricing_plan_id":"cebpf4jnsgd1na2vs0mg"},{"bike_id":"65fa859c-fd52-4fc1-bf24-0348f651f61b","system_id":"levelo_inurba_marseille","lat":43.27992,"lon":5.40018,"is_reserved":false,"is_disabled":false,"rental_uris":{"android":"levelo://app?vid=65fa859c-fd52-4fc1-bf24-0348f651f61b","ios":"levelo://app?vid=65fa859c-fd52-4fc1-bf24-0348f651f61b"},"vehicle_type_id":"4","last_reported":1768916302,"current_range_meters":4000,"station_id":"ce4bho92rcd13ifvqh4g","pricing_plan_id":"cebpf4jnsgd1na2vs0mg"},{"bike_id":"641f6d56-4303-4cf6-9597-eb435e4a5f44","system_id":"levelo_inurba_marseille","lat":43.29007,"lon":5.38131,"is_reserved":false,"is_disabled":false,"rental_uris":{"android":"levelo://app?vid=641f6d56-4303-4cf6-9597-eb435e4a5f44","ios":"levelo://app?vid=641f6d56-4303-4cf6-9597-eb435e4a5f44"},"vehicle_type_id":"4","last_reported":1768916302,"current_range_meters":4000,"station_id":"ce4bh4p2rcd13ifvqe1g","pricing_plan_id":"cebpf4jnsgd1na2vs0mg"},{"bike_id":"fbbedfeb-5767-4a40-9eeb-fb558ba05242","system_id":"levelo_inurba_marseille","lat":43.2501,"lon":5.38939,"is_reserved":false,"is_disabled":false,"rental_uris":{"android":"levelo://app?vid=fbbedfeb-5767-4a40-9eeb-fb558ba05242","ios":"levelo://app?vid=fbbedfeb-5767-4a40-9eeb-fb558ba05242"},"vehicle_type_id":"4","last_reported":1768916302,"current_range_meters":4000,"station_id":"ce4bhgp2rcd13ifvqfd0","pricing_plan_id":"cebpf4jnsgd1na2vs0mg"},{"bike_id":"38879988-6a74-41ea-a3d4-fbfb5d9494ed","system_id":"levelo_inurba_marseille","lat":43.30139,"lon":5.38076,"is_reserved":false,"is_disabled":false,"rental_uris":{"android":"levelo://app?vid=38879988-6a74-41ea-a3d4-fbfb5d9494ed","ios":"levelo://app?vid=38879988-6a74-41ea-a3d4-fbfb5d9494ed"},"vehicle_type_id":"4","last_reported":1768916302,"current_range_meters":4000,"station_id":"ce4bgjp2rcd13ifvqbh0","pricing_plan_id":"cebpf4jnsgd1na2vs0mg"},{"bike_id":"153cc4b2-66a6-4282-8f54-9bbd2c5ddb3f","system_id":"levelo_inurba_marseille","lat":43.29031,"lon":5.3756,"is_reserved":false,"is_disabled":false,"rental_uris":{"android":"levelo://app?vid=153cc4b2-66a6-4282-8f54-9bbd2c5ddb3f","ios":"levelo://app?vid=153cc4b2-66a6-4282-8f54-9bbd2c5ddb3f"},"vehicle_type_id":"4","last_reported":1768916302,"current_range_meters":4000,"station_id":"ce4bh692rcd13ifvqe90","pricing_plan_id":"cebpf4jnsgd1na2vs0mg"},{"bike_id":"e06565ab-e9a6-4dd0-8b84-1fcb423d61af","system_id":"levelo_inurba_marseille","lat":43.26061,"lon":5.39384,"is_reserved":false,"is_disabled":false,"rental_uris":{"android":"levelo://app?vid=e06565ab-e9a6-4dd0-8b84-1fcb423d61af","ios":"levelo://app?vid=e06565ab-e9a6-4dd0-8b84-1fcb423d61af"},"vehicle_type_id":"4","last_reported":1768916302,"current_range_meters":4000,"station_id":"ce4bhh92rcd13ifvqfj0","pricing_plan_id":"cebpf4jnsgd1na2vs0mg"},{"bike_id":"ae8bf250-6ed5-431f-b1af-178c3f2df1ef","system_id":"levelo_inurba_marseille","lat":43.26691,"lon":5.3828,"is_reserved":false,"is_disabled":false,"rental_uris":{"android":"levelo://app?vid=ae8bf250-6ed5-431f-b1af-178c3f2df1ef","ios":"levelo://app?vid=ae8bf250-6ed5-431f-b1af-178c3f2df1ef"},"vehicle_type_id":"4","last_reported":1768916302,"current_range_meters":4400,"station_id":"ce4bhg92rcd13ifvqf90","pricing_plan_id":"cebpf4jnsgd1na2vs0mg"},{"bike_id":"526b8503-7faf-448a-b0f6-00cc94ab5971","system_id":"levelo_inurba_marseille","lat":43.2446,"lon":5.42536,"is_reserved":false,"is_disabled":false,"rental_uris":{"android":"levelo://app?vid=526b8503-7faf-448a-b0f6-00cc94ab5971","ios":"levelo://app?vid=526b8503-7faf-448a-b0f6-00cc94ab5971"},"vehicle_type_id":"4","last_reported":1768916302,"current_range_meters":4400,"station_id":"st_d4a3vfp97mjs738cd8kg","pricing_plan_id":"cebpf4jnsgd1na2vs0mg"},{"bike_id":"06bc447b-16e0-4732-afcc-36d4f751f25b","system_id":"levelo_inurba_marseille","lat":43.231615,"lon":5.437053,"is_reserved":false,"is_disabled":false,"rental_uris":{"android":"levelo://app?vid=06bc447b-16e0-4732-afcc-36d4f751f25b","ios":"levelo://app?vid=06bc447b-16e0-4732-afcc-36d4f751f25b"},"vehicle_type_id":"4","last_reported":1768916302,"current_range_meters":4400,"station_id":"ce4bhmp2rcd13ifvqgog","pricing_plan_id":"cebpf4jnsgd1na2vs0mg"},{"bike_id":"dc8c1109-459c-4368-859d-186168c2462d","system_id":"levelo_inurba_marseille","lat":43.24176,"lon":5.36391,"is_reserved":false,"is_disabled":false,"rental_uris":{"android":"levelo://app?vid=dc8c1109-459c-4368-859d-186168c2462d","ios":"levelo://app?vid=dc8c1109-459c-4368-859d-186168c2462d"},"vehicle_type_id":"4","last_reported":1768916302,"current_range_meters":4400,"station_id":"cpo36qri1sfpv3e86is0","pricing_plan_id":"cebpf4jnsgd1na2vs0mg"},{"bike_id":"f85858b4-cfd7-41bf-9fca-073aa435703b","system_id":"levelo_inurba_marseille","lat":43.308048,"lon":5.381464,"is_reserved":false,"is_disabled":false,"rental_uris":{"android":"levelo://app?vid=f85858b4-cfd7-41bf-9fca-073aa435703b","ios":"levelo://app?vid=f85858b4-cfd7-41bf-9fca-073aa435703b"},"vehicle_type_id":"4","last_reported":1768916302,"current_range_meters":4400,"station_id":"ce4bgt12rcd13ifvqce0","pricing_plan_id":"cebpf4jnsgd1na2vs0mg"},{"bike_id":"e30883dd-96d3-4b00-8b5d-c5c36c37f796","system_id":"levelo_inurba_marseille","lat":43.255668,"lon":5.382443,"is_reserved":false,"is_disabled":false,"rental_uris":{"android":"levelo://app?vid=e30883dd-96d3-4b00-8b5d-c5c36c37f796","ios":"levelo://app?vid=e30883dd-96d3-4b00-8b5d-c5c36c37f796"},"vehicle_type_id":"4","last_reported":1768916302,"current_range_meters":4400,"station_id":"ce4bhih2rcd13ifvqfs0","pricing_plan_id":"cebpf4jnsgd1na2vs0mg"},{"bike_id":"26fa87a8-64e8-4574-88ad-3ef617745c36","system_id":"levelo_inurba_marseille","lat":43.27807,"lon":5.40705,"is_reserved":false,"is_disabled":false,"rental_uris":{"android":"levelo://app?vid=26fa87a8-64e8-4574-88ad-3ef617745c36","ios":"levelo://app?vid=26fa87a8-64e8-4574-88ad-3ef617745c36"},"vehicle_type_id":"4","last_reported":1768916302,"current_range_meters":4400,"station_id":"ce4bhnh2rcd13ifvqgtg","pricing_plan_id":"cebpf4jnsgd1na2vs0mg"},{"bike_id":"3299dc67-7236-4443-ae9d-83bdb1d9d6d3","system_id":"levelo_inurba_marseille","lat":43.2665,"lon":5.39837,"is_reserved":false,"is_disabled":false,"rental_uris":{"android":"levelo://app?vid=3299dc67-7236-4443-ae9d-83bdb1d9d6d3","ios":"levelo://app?vid=3299dc67-7236-4443-ae9d-83bdb1d9d6d3"},"vehicle_type_id":"4","last_reported":1768916302,"current_range_meters":4400,"station_id":"","pricing_plan_id":"cebpf4jnsgd1na2vs0mg"},{"bike_id":"f949b1a8-0099-4897-af1c-b4c1c497f28f","system_id":"levelo_inurba_marseille","lat":43.25818,"lon":5.39434,"is_reserved":false,"is_disabled":false,"rental_uris":{"android":"levelo://app?vid=f949b1a8-0099-4897-af1c-b4c1c497f28f","ios":"levelo://app?vid=f949b1a8-0099-4897-af1c-b4c1c497f28f"},"vehicle_type_id":"4","last_reported":1768916302,"current_range_meters":4400,"station_id":"ce4bhip2rcd13ifvqft0","pricing_plan_id":"cebpf4jnsgd1na2vs0mg"},{"bike_id":"3a53e1c6-5c5b-4e8e-9b99-8d056c960bd7","system_id":"levelo_inurba_marseille","lat":43.28443,"lon":5.39178,"is_reserved":false,"is_disabled":false,"rental_uris":{"android":"levelo://app?vid=3a53e1c6-5c5b-4e8e-9b99-8d056c960bd7","ios":"levelo://app?vid=3a53e1c6-5c5b-4e8e-9b99-8d056c960bd7"},"vehicle_type_id":"4","last_reported":1768916302,"current_range_meters":4400,"station_id":"ce4bhoh2rcd13ifvqh5g","pricing_plan_id":"cebpf4jnsgd1na2vs0mg"},{"bike_id":"d0a70439-b068-41ba-bc8d-4fbe10ec4141","system_id":"levelo_inurba_marseille","lat":43.28133,"lon":5.42639,"is_reserved":false,"is_disabled":false,"rental_uris":{"android":"levelo://app?vid=d0a70439-b068-41ba-bc8d-4fbe10ec4141","ios":"levelo://app?vid=d0a70439-b068-41ba-bc8d-4fbe10ec4141"},"vehicle_type_id":"4","last_reported":1768916302,"current_range_meters":4400,"station_id":"ce4bhnh2rcd13ifvqgug","pricing_plan_id":"cebpf4jnsgd1na2vs0mg"},{"bike_id":"b129582d-2c63-48d7-8138-529469f94ac5","system_id":"levelo_inurba_marseille","lat":43.26142,"lon":5.4035,"is_reserved":false,"is_disabled":false,"rental_uris":{"android":"levelo://app?vid=b129582d-2c63-48d7-8138-529469f94ac5","ios":"levelo://app?vid=b129582d-2c63-48d7-8138-529469f94ac5"},"vehicle_type_id":"4","last_reported":1768916302,"current_range_meters":4400,"station_id":"","pricing_plan_id":"cebpf4jnsgd1na2vs0mg"},{"bike_id":"90e30c61-c606-4ba6-adb5-183cc649b959","system_id":"levelo_inurba_marseille","lat":43.27943,"lon":5.41053,"is_reserved":false,"is_disabled":false,"rental_uris":{"android":"levelo://app?vid=90e30c61-c606-4ba6-adb5-183cc649b959","ios":"levelo://app?vid=90e30c61-c606-4ba6-adb5-183cc649b959"},"vehicle_type_id":"4","last_reported":1768916302,"current_range_meters":4400,"station_id":"ce4bhnp2rcd13ifvqh0g","pricing_plan_id":"cebpf4jnsgd1na2vs0mg"},{"bike_id":"9cde565e-751f-4d1c-94ae-7977c2021c32","system_id":"levelo_inurba_marseille","lat":43.3248,"lon":5.36576,"is_reserved":false,"is_disabled":false,"rental_uris":{"android":"levelo://app?vid=9cde565e-751f-4d1c-94ae-7977c2021c32","ios":"levelo://app?vid=9cde565e-751f-4d1c-94ae-7977c2021c32"},"vehicle_type_id":"4","last_reported":1768916302,"current_range_meters":4400,"station_id":"ce4bhs12rcd13ifvqhvg","pricing_plan_id":"cebpf4jnsgd1na2vs0mg"},{"bike_id":"2a7e72c7-7fdf-46b5-8e98-fbe8666dc7c0","system_id":"levelo_inurba_marseille","lat":43.24805,"lon":5.37443,"is_reserved":false,"is_disabled":false,"rental_uris":{"android":"levelo://app?vid=2a7e72c7-7fdf-46b5-8e98-fbe8666dc7c0","ios":"levelo://app?vid=2a7e72c7-7fdf-46b5-8e98-fbe8666dc7c0"},"vehicle_type_id":"4","last_reported":1768916302,"current_range_meters":4800,"station_id":"ce4bhgh2rcd13ifvqfb0","pricing_plan_id":"cebpf4jnsgd1na2vs0mg"},{"bike_id":"c7136bb2-eb12-44b6-9bfb-f3e8e54e1fb6","system_id":"levelo_inurba_marseille","lat":43.29268,"lon":5.37599,"is_reserved":false,"is_disabled":false,"rental_uris":{"android":"levelo://app?vid=c7136bb2-eb12-44b6-9bfb-f3e8e54e1fb6","ios":"levelo://app?vid=c7136bb2-eb12-44b6-9bfb-f3e8e54e1fb6"},"vehicle_type_id":"4","last_reported":1768916302,"current_range_meters":4800,"station_id":"ce4bgi12rcd13ifvqb80","pricing_plan_id":"cebpf4jnsgd1na2vs0mg"},{"bike_id":"71f428f0-7078-4b8c-ac98-cf141cac017d","system_id":"levelo_inurba_marseille","lat":43.24994,"lon":5.38938,"is_reserved":false,"is_disabled":false,"rental_uris":{"android":"levelo://app?vid=71f428f0-7078-4b8c-ac98-cf141cac017d","ios":"levelo://app?vid=71f428f0-7078-4b8c-ac98-cf141cac017d"},"vehicle_type_id":"4","last_reported":1768916302,"current_range_meters":4800,"station_id":"ce4bhgp2rcd13ifvqfd0","pricing_plan_id":"cebpf4jnsgd1na2vs0mg"},{"bike_id":"c945f0ba-a485-4dbc-9c7e-745da3aefd34","system_id":"levelo_inurba_marseille","lat":43.27818,"lon":5.40729,"is_reserved":false,"is_disabled":false,"rental_uris":{"android":"levelo://app?vid=c945f0ba-a485-4dbc-9c7e-745da3aefd34","ios":"levelo://app?vid=c945f0ba-a485-4dbc-9c7e-745da3aefd34"},"vehicle_type_id":"4","last_reported":1768916302,"current_range_meters":4800,"station_id":"ce4bhnh2rcd13ifvqgtg","pricing_plan_id":"cebpf4jnsgd1na2vs0mg"},{"bike_id":"46205775-a613-4ed5-afe6-bdae2b101019","system_id":"levelo_inurba_marseille","lat":43.266786,"lon":5.382717,"is_reserved":false,"is_disabled":false,"rental_uris":{"android":"levelo://app?vid=46205775-a613-4ed5-afe6-bdae2b101019","ios":"levelo://app?vid=46205775-a613-4ed5-afe6-bdae2b101019"},"vehicle_type_id":"4","last_reported":1768916302,"current_range_meters":4800,"station_id":"ce4bhg92rcd13ifvqf90","pricing_plan_id":"cebpf4jnsgd1na2vs0mg"},{"bike_id":"317dea54-40fb-4f2d-aa87-3d2f63dbed1d","system_id":"levelo_inurba_marseille","lat":43.29043,"lon":5.39938,"is_reserved":false,"is_disabled":false,"rental_uris":{"android":"levelo://app?vid=317dea54-40fb-4f2d-aa87-3d2f63dbed1d","ios":"levelo://app?vid=317dea54-40fb-4f2d-aa87-3d2f63dbed1d"},"vehicle_type_id":"4","last_reported":1768916302,"current_range_meters":4800,"station_id":"ce4bh392rcd13ifvqdm0","pricing_plan_id":"cebpf4jnsgd1na2vs0mg"},{"bike_id":"0c919691-af45-49d8-9e0c-5bffa00b3007","system_id":"levelo_inurba_marseille","lat":43.28939,"lon":5.36626,"is_reserved":false,"is_disabled":false,"rental_uris":{"android":"levelo://app?vid=0c919691-af45-49d8-9e0c-5bffa00b3007","ios":"levelo://app?vid=0c919691-af45-49d8-9e0c-5bffa00b3007"},"vehicle_type_id":"4","last_reported":1768916302,"current_range_meters":4800,"station_id":"ce4bhap2rcd13ifvqek0","pricing_plan_id":"cebpf4jnsgd1na2vs0mg"},{"bike_id":"78ed2b5e-6e07-4f08-8148-0320f194c7f5","system_id":"levelo_inurba_marseille","lat":43.27213,"lon":5.3917,"is_reserved":false,"is_disabled":false,"rental_uris":{"android":"levelo://app?vid=78ed2b5e-6e07-4f08-8148-0320f194c7f5","ios":"levelo://app?vid=78ed2b5e-6e07-4f08-8148-0320f194c7f5"},"vehicle_type_id":"4","last_reported":1768916302,"current_range_meters":4800,"station_id":"ce4bhhp2rcd13ifvqfm0","pricing_plan_id":"cebpf4jnsgd1na2vs0mg"},{"bike_id":"8dcf1558-3de6-4bbc-94ec-fdb5c07bdffe","system_id":"levelo_inurba_marseille","lat":43.30541,"lon":5.36553,"is_reserved":false,"is_disabled":false,"rental_uris":{"android":"levelo://app?vid=8dcf1558-3de6-4bbc-94ec-fdb5c07bdffe","ios":"levelo://app?vid=8dcf1558-3de6-4bbc-94ec-fdb5c07bdffe"},"vehicle_type_id":"4","last_reported":1768916302,"current_range_meters":4800,"station_id":"ce4bgs12rcd13ifvqcag","pricing_plan_id":"cebpf4jnsgd1na2vs0mg"},{"bike_id":"1d96bc89-a55a-4036-8519-21c71a49b3da","system_id":"levelo_inurba_marseille","lat":43.31142,"lon":5.38021,"is_reserved":false,"is_disabled":false,"rental_uris":{"android":"levelo://app?vid=1d96bc89-a55a-4036-8519-21c71a49b3da","ios":"levelo://app?vid=1d96bc89-a55a-4036-8519-21c71a49b3da"},"vehicle_type_id":"4","last_reported":1768916302,"current_range_meters":4800,"station_id":"","pricing_plan_id":"cebpf4jnsgd1na2vs0mg"},{"bike_id":"d98680e2-8519-4eb7-88a9-6aba4c293400","system_id":"levelo_inurba_marseille","lat":43.27976,"lon":5.40024,"is_reserved":false,"is_disabled":false,"rental_uris":{"android":"levelo://app?vid=d98680e2-8519-4eb7-88a9-6aba4c293400","ios":"levelo://app?vid=d98680e2-8519-4eb7-88a9-6aba4c293400"},"vehicle_type_id":"4","last_reported":1768916302,"current_range_meters":5600,"station_id":"ce4bho92rcd13ifvqh4g","pricing_plan_id":"cebpf4jnsgd1na2vs0mg"},{"bike_id":"6e7007a4-50a4-410a-b7bd-d0ebb7830797","system_id":"levelo_inurba_marseille","lat":43.24168,"lon":5.3971,"is_reserved":false,"is_disabled":false,"rental_uris":{"android":"levelo://app?vid=6e7007a4-50a4-410a-b7bd-d0ebb7830797","ios":"levelo://app?vid=6e7007a4-50a4-410a-b7bd-d0ebb7830797"},"vehicle_type_id":"4","last_reported":1768916302,"current_range_meters":5600,"station_id":"ce4bhn12rcd13ifvqgpg","pricing_plan_id":"cebpf4jnsgd1na2vs0mg"},{"bike_id":"fc17e8b9-2adb-4e96-bbab-76941e2577c9","system_id":"levelo_inurba_marseille","lat":43.25736,"lon":5.38981,"is_reserved":false,"is_disabled":false,"rental_uris":{"android":"levelo://app?vid=fc17e8b9-2adb-4e96-bbab-76941e2577c9","ios":"levelo://app?vid=fc17e8b9-2adb-4e96-bbab-76941e2577c9"},"vehicle_type_id":"4","last_reported":1768916302,"current_range_meters":5600,"station_id":"","pricing_plan_id":"cebpf4jnsgd1na2vs0mg"},{"bike_id":"42b5ad2d-acd8-454f-95e3-acdb00543462","system_id":"levelo_inurba_marseille","lat":43.26061,"lon":5.39392,"is_reserved":false,"is_disabled":false,"rental_uris":{"android":"levelo://app?vid=42b5ad2d-acd8-454f-95e3-acdb00543462","ios":"levelo://app?vid=42b5ad2d-acd8-454f-95e3-acdb00543462"},"vehicle_type_id":"4","last_reported":1768916302,"current_range_meters":5600,"station_id":"ce4bhh92rcd13ifvqfj0","pricing_plan_id":"cebpf4jnsgd1na2vs0mg"},{"bike_id":"97096676-429c-4f07-9652-1523f48f5442","system_id":"levelo_inurba_marseille","lat":43.30266,"lon":5.43429,"is_reserved":false,"is_disabled":false,"rental_uris":{"android":"levelo://app?vid=97096676-429c-4f07-9652-1523f48f5442","ios":"levelo://app?vid=97096676-429c-4f07-9652-1523f48f5442"},"vehicle_type_id":"4","last_reported":1768916302,"current_range_meters":5600,"station_id":"","pricing_plan_id":"cebpf4jnsgd1na2vs0mg"},{"bike_id":"6dd047f2-a91a-4e21-aaba-02725dff3f64","system_id":"levelo_inurba_marseille","lat":43.225614,"lon":5.416239,"is_reserved":false,"is_disabled":false,"rental_uris":{"android":"levelo://app?vid=6dd047f2-a91a-4e21-aaba-02725dff3f64","ios":"levelo://app?vid=6dd047f2-a91a-4e21-aaba-02725dff3f64"},"vehicle_type_id":"4","last_reported":1768916302,"current_range_meters":5600,"station_id":"st_d2o4gvlbi1j2169b742g","pricing_plan_id":"cebpf4jnsgd1na2vs0mg"},{"bike_id":"5b8761f9-406a-4deb-9d27-43967b8754e9","system_id":"levelo_inurba_marseille","lat":43.30488,"lon":5.37894,"is_reserved":false,"is_disabled":false,"rental_uris":{"android":"levelo://app?vid=5b8761f9-406a-4deb-9d27-43967b8754e9","ios":"levelo://app?vid=5b8761f9-406a-4deb-9d27-43967b8754e9"},"vehicle_type_id":"4","last_reported":1768916302,"current_range_meters":5600,"station_id":"ce4bgup2rcd13ifvqcn0","pricing_plan_id":"cebpf4jnsgd1na2vs0mg"},{"bike_id":"d38ce511-93aa-4be8-bbb9-de0c16295aac","system_id":"levelo_inurba_marseille","lat":43.30784,"lon":5.37628,"is_reserved":false,"is_disabled":false,"rental_uris":{"android":"levelo://app?vid=d38ce511-93aa-4be8-bbb9-de0c16295aac","ios":"levelo://app?vid=d38ce511-93aa-4be8-bbb9-de0c16295aac"},"vehicle_type_id":"4","last_reported":1768916302,"current_range_meters":5600,"station_id":"ce4bgv92rcd13ifvqcq0","pricing_plan_id":"cebpf4jnsgd1na2vs0mg"},{"bike_id":"d1656b93-1b71-4e85-bf98-22a1e92bb468","system_id":"levelo_inurba_marseille","lat":43.28877,"lon":5.425,"is_reserved":false,"is_disabled":false,"rental_uris":{"android":"levelo://app?vid=d1656b93-1b71-4e85-bf98-22a1e92bb468","ios":"levelo://app?vid=d1656b93-1b71-4e85-bf98-22a1e92bb468"},"vehicle_type_id":"4","last_reported":1768916302,"current_range_meters":5600,"station_id":"st_d3b462108ojc7389ooeg","pricing_plan_id":"cebpf4jnsgd1na2vs0mg"},{"bike_id":"be62e594-ab11-4940-821f-47ec2a30c34b","system_id":"levelo_inurba_marseille","lat":43.324881,"lon":5.365561,"is_reserved":false,"is_disabled":false,"rental_uris":{"android":"levelo://app?vid=be62e594-ab11-4940-821f-47ec2a30c34b","ios":"levelo://app?vid=be62e594-ab11-4940-821f-47ec2a30c34b"},"vehicle_type_id":"4","last_reported":1768916302,"current_range_meters":5600,"station_id":"ce4bhs12rcd13ifvqhvg","pricing_plan_id":"cebpf4jnsgd1na2vs0mg"},{"bike_id":"a8d2063b-b136-4ccb-ad44-f4ea411c2cb1","system_id":"levelo_inurba_marseille","lat":43.24693,"lon":5.43167,"is_reserved":false,"is_disabled":false,"rental_uris":{"android":"levelo://app?vid=a8d2063b-b136-4ccb-ad44-f4ea411c2cb1","ios":"levelo://app?vid=a8d2063b-b136-4ccb-ad44-f4ea411c2cb1"},"vehicle_type_id":"4","last_reported":1768916302,"current_range_meters":6000,"station_id":"st_d2m6c4gdas8pm72e190g","pricing_plan_id":"cebpf4jnsgd1na2vs0mg"},{"bike_id":"c46c481c-1efc-4012-8a97-f4317012c6c6","system_id":"levelo_inurba_marseille","lat":43.29577,"lon":5.36738,"is_reserved":false,"is_disabled":false,"rental_uris":{"android":"levelo://app?vid=c46c481c-1efc-4012-8a97-f4317012c6c6","ios":"levelo://app?vid=c46c481c-1efc-4012-8a97-f4317012c6c6"},"vehicle_type_id":"4","last_reported":1768916302,"current_range_meters":6000,"station_id":"ce4bgph2rcd13ifvqc2g","pricing_plan_id":"cebpf4jnsgd1na2vs0mg"},{"bike_id":"b4d4d78b-c7ae-46d1-84aa-0c58c638c8ea","system_id":"levelo_inurba_marseille","lat":43.2799,"lon":5.41665,"is_reserved":false,"is_disabled":false,"rental_uris":{"android":"levelo://app?vid=b4d4d78b-c7ae-46d1-84aa-0c58c638c8ea","ios":"levelo://app?vid=b4d4d78b-c7ae-46d1-84aa-0c58c638c8ea"},"vehicle_type_id":"4","last_reported":1768916302,"current_range_meters":6000,"station_id":"ce4bho12rcd13ifvqh1g","pricing_plan_id":"cebpf4jnsgd1na2vs0mg"},{"bike_id":"904d8f98-ad5c-45d0-b76b-38f569b867cf","system_id":"levelo_inurba_marseille","lat":43.295337,"lon":5.374966,"is_reserved":false,"is_disabled":false,"rental_uris":{"android":"levelo://app?vid=904d8f98-ad5c-45d0-b76b-38f569b867cf","ios":"levelo://app?vid=904d8f98-ad5c-45d0-b76b-38f569b867cf"},"vehicle_type_id":"4","last_reported":1768916302,"current_range_meters":6000,"station_id":"ce4bgkp2rcd13ifvqbmg","pricing_plan_id":"cebpf4jnsgd1na2vs0mg"},{"bike_id":"639e09fe-da3c-494a-9a67-eda7799bb616","system_id":"levelo_inurba_marseille","lat":43.29037,"lon":5.39952,"is_reserved":false,"is_disabled":false,"rental_uris":{"android":"levelo://app?vid=639e09fe-da3c-494a-9a67-eda7799bb616","ios":"levelo://app?vid=639e09fe-da3c-494a-9a67-eda7799bb616"},"vehicle_type_id":"4","last_reported":1768916302,"current_range_meters":6000,"station_id":"ce4bh392rcd13ifvqdm0","pricing_plan_id":"cebpf4jnsgd1na2vs0mg"},{"bike_id":"6d349840-c499-40cb-978a-faede0666e4d","system_id":"levelo_inurba_marseille","lat":43.296308,"lon":5.377741,"is_reserved":false,"is_disabled":false,"rental_uris":{"android":"levelo://app?vid=6d349840-c499-40cb-978a-faede0666e4d","ios":"levelo://app?vid=6d349840-c499-40cb-978a-faede0666e4d"},"vehicle_type_id":"4","last_reported":1768916302,"current_range_meters":6000,"station_id":"ce4bgi92rcd13ifvqb90","pricing_plan_id":"cebpf4jnsgd1na2vs0mg"},{"bike_id":"f650aff8-e742-48ca-8e77-f4fd3b3eebb9","system_id":"levelo_inurba_marseille","lat":43.26921,"lon":5.39534,"is_reserved":false,"is_disabled":false,"rental_uris":{"android":"levelo://app?vid=f650aff8-e742-48ca-8e77-f4fd3b3eebb9","ios":"levelo://app?vid=f650aff8-e742-48ca-8e77-f4fd3b3eebb9"},"vehicle_type_id":"4","last_reported":1768916302,"current_range_meters":6000,"station_id":"","pricing_plan_id":"cebpf4jnsgd1na2vs0mg"},{"bike_id":"aaff8d94-1fa8-4cba-bdbc-2775e2b840f4","system_id":"levelo_inurba_marseille","lat":43.30936,"lon":5.38032,"is_reserved":false,"is_disabled":false,"rental_uris":{"android":"levelo://app?vid=aaff8d94-1fa8-4cba-bdbc-2775e2b840f4","ios":"levelo://app?vid=aaff8d94-1fa8-4cba-bdbc-2775e2b840f4"},"vehicle_type_id":"4","last_reported":1768916302,"current_range_meters":6000,"station_id":"","pricing_plan_id":"cebpf4jnsgd1na2vs0mg"},{"bike_id":"37bdb184-236c-422b-a01e-e1e9fb01ddf0","system_id":"levelo_inurba_marseille","lat":43.30456,"lon":5.36717,"is_reserved":false,"is_disabled":false,"rental_uris":{"android":"levelo://app?vid=37bdb184-236c-422b-a01e-e1e9fb01ddf0","ios":"levelo://app?vid=37bdb184-236c-422b-a01e-e1e9fb01ddf0"},"vehicle_type_id":"4","last_reported":1768916302,"current_range_meters":6000,"station_id":"","pricing_plan_id":"cebpf4jnsgd1na2vs0mg"},{"bike_id":"efa38cb7-a84d-49d1-a1ea-367fe8bf17b7","system_id":"levelo_inurba_marseille","lat":43.30302,"lon":5.36908,"is_reserved":false,"is_disabled":false,"rental_uris":{"android":"levelo://app?vid=efa38cb7-a84d-49d1-a1ea-367fe8bf17b7","ios":"levelo://app?vid=efa38cb7-a84d-49d1-a1ea-367fe8bf17b7"},"vehicle_type_id":"4","last_reported":1768916302,"current_range_meters":6000,"station_id":"ce4bgqh2rcd13ifvqc5g","pricing_plan_id":"cebpf4jnsgd1na2vs0mg"},{"bike_id":"00e77eed-7e57-4db7-8e83-bed0a9e1a854","system_id":"levelo_inurba_marseille","lat":43.29162,"lon":5.371535,"is_reserved":false,"is_disabled":false,"rental_uris":{"android":"levelo://app?vid=00e77eed-7e57-4db7-8e83-bed0a9e1a854","ios":"levelo://app?vid=00e77eed-7e57-4db7-8e83-bed0a9e1a854"},"vehicle_type_id":"4","last_reported":1768916302,"current_range_meters":6000,"station_id":"ce4bha92rcd13ifvqeh0","pricing_plan_id":"cebpf4jnsgd1na2vs0mg"},{"bike_id":"dc7f2cde-f394-4ae1-b0e4-a51d66aa1255","system_id":"levelo_inurba_marseille","lat":43.28144,"lon":5.43153,"is_reserved":false,"is_disabled":false,"rental_uris":{"android":"levelo://app?vid=dc7f2cde-f394-4ae1-b0e4-a51d66aa1255","ios":"levelo://app?vid=dc7f2cde-f394-4ae1-b0e4-a51d66aa1255"},"vehicle_type_id":"4","last_reported":1768916302,"current_range_meters":6000,"station_id":"","pricing_plan_id":"cebpf4jnsgd1na2vs0mg"},{"bike_id":"ba3b0131-26f7-4740-a4d7-9ecd6b8a6953","system_id":"levelo_inurba_marseille","lat":43.29153,"lon":5.37146,"is_reserved":false,"is_disabled":false,"rental_uris":{"android":"levelo://app?vid=ba3b0131-26f7-4740-a4d7-9ecd6b8a6953","ios":"levelo://app?vid=ba3b0131-26f7-4740-a4d7-9ecd6b8a6953"},"vehicle_type_id":"4","last_reported":1768916302,"current_range_meters":6000,"station_id":"ce4bha92rcd13ifvqeh0","pricing_plan_id":"cebpf4jnsgd1na2vs0mg"},{"bike_id":"cc08d2b6-69fb-4c32-9f0f-91f88c556b74","system_id":"levelo_inurba_marseille","lat":43.22883,"lon":5.3523,"is_reserved":false,"is_disabled":false,"rental_uris":{"android":"levelo://app?vid=cc08d2b6-69fb-4c32-9f0f-91f88c556b74","ios":"levelo://app?vid=cc08d2b6-69fb-4c32-9f0f-91f88c556b74"},"vehicle_type_id":"4","last_reported":1768916302,"current_range_meters":6000,"station_id":"cpo3532slgdg3j2ikp40","pricing_plan_id":"cebpf4jnsgd1na2vs0mg"},{"bike_id":"fc624905-d839-4e1c-850a-56ee945a311f","system_id":"levelo_inurba_marseille","lat":43.29526,"lon":5.37506,"is_reserved":false,"is_disabled":false,"rental_uris":{"android":"levelo://app?vid=fc624905-d839-4e1c-850a-56ee945a311f","ios":"levelo://app?vid=fc624905-d839-4e1c-850a-56ee945a311f"},"vehicle_type_id":"4","last_reported":1768916302,"current_range_meters":6000,"station_id":"ce4bgkp2rcd13ifvqbmg","pricing_plan_id":"cebpf4jnsgd1na2vs0mg"},{"bike_id":"c055199c-bd62-490e-8577-d64c0f179897","system_id":"levelo_inurba_marseille","lat":43.28536,"lon":5.441,"is_reserved":false,"is_disabled":false,"rental_uris":{"android":"levelo://app?vid=c055199c-bd62-490e-8577-d64c0f179897","ios":"levelo://app?vid=c055199c-bd62-490e-8577-d64c0f179897"},"vehicle_type_id":"4","last_reported":1768916302,"current_range_meters":6000,"station_id":"st_d3j3df2ikq2c7380ej80","pricing_plan_id":"cebpf4jnsgd1na2vs0mg"},{"bike_id":"5c0b6085-ef5d-4ca2-80ac-5c60db0558a8","system_id":"levelo_inurba_marseille","lat":43.31268,"lon":5.36826,"is_reserved":false,"is_disabled":false,"rental_uris":{"android":"levelo://app?vid=5c0b6085-ef5d-4ca2-80ac-5c60db0558a8","ios":"levelo://app?vid=5c0b6085-ef5d-4ca2-80ac-5c60db0558a8"},"vehicle_type_id":"4","last_reported":1768916302,"current_range_meters":6400,"station_id":"","pricing_plan_id":"cebpf4jnsgd1na2vs0mg"},{"bike_id":"c9fc643e-c809-4366-80b3-8aff0898d318","system_id":"levelo_inurba_marseille","lat":43.25931,"lon":5.4091,"is_reserved":false,"is_disabled":false,"rental_uris":{"android":"levelo://app?vid=c9fc643e-c809-4366-80b3-8aff0898d318","ios":"levelo://app?vid=c9fc643e-c809-4366-80b3-8aff0898d318"},"vehicle_type_id":"4","last_reported":1768916302,"current_range_meters":6400,"station_id":"ce4bhm92rcd13ifvqglg","pricing_plan_id":"cebpf4jnsgd1na2vs0mg"},{"bike_id":"9a6fa9d6-bd85-41a0-a1be-8f3bc0337c0a","system_id":"levelo_inurba_marseille","lat":43.24462,"lon":5.42537,"is_reserved":false,"is_disabled":false,"rental_uris":{"android":"levelo://app?vid=9a6fa9d6-bd85-41a0-a1be-8f3bc0337c0a","ios":"levelo://app?vid=9a6fa9d6-bd85-41a0-a1be-8f3bc0337c0a"},"vehicle_type_id":"4","last_reported":1768916302,"current_range_meters":6400,"station_id":"st_d4a3vfp97mjs738cd8kg","pricing_plan_id":"cebpf4jnsgd1na2vs0mg"},{"bike_id":"2351e1c9-97c0-42ed-8ba7-93d168c64106","system_id":"levelo_inurba_marseille","lat":43.297654,"lon":5.427903,"is_reserved":false,"is_disabled":false,"rental_uris":{"android":"levelo://app?vid=2351e1c9-97c0-42ed-8ba7-93d168c64106","ios":"levelo://app?vid=2351e1c9-97c0-42ed-8ba7-93d168c64106"},"vehicle_type_id":"4","last_reported":1768916302,"current_range_meters":6400,"station_id":"st_d3md5207bmas73dh9klg","pricing_plan_id":"cebpf4jnsgd1na2vs0mg"},{"bike_id":"826aeb2d-9384-4062-9da4-ff770f5b59dd","system_id":"levelo_inurba_marseille","lat":43.26049,"lon":5.39372,"is_reserved":false,"is_disabled":false,"rental_uris":{"android":"levelo://app?vid=826aeb2d-9384-4062-9da4-ff770f5b59dd","ios":"levelo://app?vid=826aeb2d-9384-4062-9da4-ff770f5b59dd"},"vehicle_type_id":"4","last_reported":1768916302,"current_range_meters":6400,"station_id":"ce4bhh92rcd13ifvqfj0","pricing_plan_id":"cebpf4jnsgd1na2vs0mg"},{"bike_id":"9cff5037-b95f-4160-aed4-0c6a74c5919b","system_id":"levelo_inurba_marseille","lat":43.2849,"lon":5.48398,"is_reserved":false,"is_disabled":false,"rental_uris":{"android":"levelo://app?vid=9cff5037-b95f-4160-aed4-0c6a74c5919b","ios":"levelo://app?vid=9cff5037-b95f-4160-aed4-0c6a74c5919b"},"vehicle_type_id":"4","last_reported":1768916302,"current_range_meters":6400,"station_id":"","pricing_plan_id":"cebpf4jnsgd1na2vs0mg"},{"bike_id":"ee4afba0-9c9e-447e-8821-0702e59e661a","system_id":"levelo_inurba_marseille","lat":43.29785,"lon":5.3935,"is_reserved":false,"is_disabled":false,"rental_uris":{"android":"levelo://app?vid=ee4afba0-9c9e-447e-8821-0702e59e661a","ios":"levelo://app?vid=ee4afba0-9c9e-447e-8821-0702e59e661a"},"vehicle_type_id":"4","last_reported":1768916302,"current_range_meters":6400,"station_id":"chh1huq6cuj3fo74tm60","pricing_plan_id":"cebpf4jnsgd1na2vs0mg"},{"bike_id":"de0f4678-7dd3-4b16-840c-20ba2737ca6a","system_id":"levelo_inurba_marseille","lat":43.24066,"lon":5.37767,"is_reserved":false,"is_disabled":false,"rental_uris":{"android":"levelo://app?vid=de0f4678-7dd3-4b16-840c-20ba2737ca6a","ios":"levelo://app?vid=de0f4678-7dd3-4b16-840c-20ba2737ca6a"},"vehicle_type_id":"4","last_reported":1768916302,"current_range_meters":6400,"station_id":"ce4bhnp2rcd13ifvqgvg","pricing_plan_id":"cebpf4jnsgd1na2vs0mg"},{"bike_id":"9005e431-9c14-4005-af0f-9a7de320525f","system_id":"levelo_inurba_marseille","lat":43.24073,"lon":5.37768,"is_reserved":false,"is_disabled":false,"rental_uris":{"android":"levelo://app?vid=9005e431-9c14-4005-af0f-9a7de320525f","ios":"levelo://app?vid=9005e431-9c14-4005-af0f-9a7de320525f"},"vehicle_type_id":"4","last_reported":1768916302,"current_range_meters":6400,"station_id":"ce4bhnp2rcd13ifvqgvg","pricing_plan_id":"cebpf4jnsgd1na2vs0mg"},{"bike_id":"f1d4233d-2911-4edf-a268-ad1589486129","system_id":"levelo_inurba_marseille","lat":43.241782,"lon":5.39734,"is_reserved":false,"is_disabled":false,"rental_uris":{"android":"levelo://app?vid=f1d4233d-2911-4edf-a268-ad1589486129","ios":"levelo://app?vid=f1d4233d-2911-4edf-a268-ad1589486129"},"vehicle_type_id":"4","last_reported":1768916302,"current_range_meters":6400,"station_id":"ce4bhn12rcd13ifvqgpg","pricing_plan_id":"cebpf4jnsgd1na2vs0mg"},{"bike_id":"3cf4f121-47f1-4ab7-8209-fc71d72f0a66","system_id":"levelo_inurba_marseille","lat":43.31535,"lon":5.38002,"is_reserved":false,"is_disabled":false,"rental_uris":{"android":"levelo://app?vid=3cf4f121-47f1-4ab7-8209-fc71d72f0a66","ios":"levelo://app?vid=3cf4f121-47f1-4ab7-8209-fc71d72f0a66"},"vehicle_type_id":"4","last_reported":1768916302,"current_range_meters":6400,"station_id":"ce4bhsp2rcd13ifvqi50","pricing_plan_id":"cebpf4jnsgd1na2vs0mg"},{"bike_id":"87651664-a394-44b3-a88d-1c7bf46288bb","system_id":"levelo_inurba_marseille","lat":43.32541,"lon":5.41447,"is_reserved":false,"is_disabled":false,"rental_uris":{"android":"levelo://app?vid=87651664-a394-44b3-a88d-1c7bf46288bb","ios":"levelo://app?vid=87651664-a394-44b3-a88d-1c7bf46288bb"},"vehicle_type_id":"4","last_reported":1768916302,"current_range_meters":6400,"station_id":"ce4bhq12rcd13ifvqhhg","pricing_plan_id":"cebpf4jnsgd1na2vs0mg"},{"bike_id":"b005335c-6b18-438b-8b3c-63321309c058","system_id":"levelo_inurba_marseille","lat":43.31352,"lon":5.36713,"is_reserved":false,"is_disabled":false,"rental_uris":{"android":"levelo://app?vid=b005335c-6b18-438b-8b3c-63321309c058","ios":"levelo://app?vid=b005335c-6b18-438b-8b3c-63321309c058"},"vehicle_type_id":"4","last_reported":1768916302,"current_range_meters":6400,"station_id":"ce4bgr92rcd13ifvqc6g","pricing_plan_id":"cebpf4jnsgd1na2vs0mg"},{"bike_id":"ea1b6251-046e-45fa-99ed-c6d51993189a","system_id":"levelo_inurba_marseille","lat":43.23965,"lon":5.36634,"is_reserved":false,"is_disabled":false,"rental_uris":{"android":"levelo://app?vid=ea1b6251-046e-45fa-99ed-c6d51993189a","ios":"levelo://app?vid=ea1b6251-046e-45fa-99ed-c6d51993189a"},"vehicle_type_id":"4","last_reported":1768916302,"current_range_meters":6400,"station_id":"ce4bhi12rcd13ifvqfp0","pricing_plan_id":"cebpf4jnsgd1na2vs0mg"},{"bike_id":"3864feb4-c679-4465-83fa-c397935811eb","system_id":"levelo_inurba_marseille","lat":43.31341,"lon":5.36726,"is_reserved":false,"is_disabled":false,"rental_uris":{"android":"levelo://app?vid=3864feb4-c679-4465-83fa-c397935811eb","ios":"levelo://app?vid=3864feb4-c679-4465-83fa-c397935811eb"},"vehicle_type_id":"4","last_reported":1768916302,"current_range_meters":6400,"station_id":"ce4bgr92rcd13ifvqc6g","pricing_plan_id":"cebpf4jnsgd1na2vs0mg"},{"bike_id":"4a54421e-c705-4c8b-9b98-a1c176516748","system_id":"levelo_inurba_marseille","lat":43.30595,"lon":5.37235,"is_reserved":false,"is_disabled":false,"rental_uris":{"android":"levelo://app?vid=4a54421e-c705-4c8b-9b98-a1c176516748","ios":"levelo://app?vid=4a54421e-c705-4c8b-9b98-a1c176516748"},"vehicle_type_id":"4","last_reported":1768916302,"current_range_meters":6800,"station_id":"ce4bgqh2rcd13ifvqc4g","pricing_plan_id":"cebpf4jnsgd1na2vs0mg"},{"bike_id":"d238f16e-4062-499e-8108-95d77e85591f","system_id":"levelo_inurba_marseille","lat":43.29793,"lon":5.40414,"is_reserved":false,"is_disabled":false,"rental_uris":{"android":"levelo://app?vid=d238f16e-4062-499e-8108-95d77e85591f","ios":"levelo://app?vid=d238f16e-4062-499e-8108-95d77e85591f"},"vehicle_type_id":"4","last_reported":1768916302,"current_range_meters":6800,"station_id":"ce4bh112rcd13ifvqd90","pricing_plan_id":"cebpf4jnsgd1na2vs0mg"},{"bike_id":"f47d55bb-a399-4369-8173-5c6192d6e74d","system_id":"levelo_inurba_marseille","lat":43.30269,"lon":5.377,"is_reserved":false,"is_disabled":false,"rental_uris":{"android":"levelo://app?vid=f47d55bb-a399-4369-8173-5c6192d6e74d","ios":"levelo://app?vid=f47d55bb-a399-4369-8173-5c6192d6e74d"},"vehicle_type_id":"4","last_reported":1768916302,"current_range_meters":6800,"station_id":"ce4bguh2rcd13ifvqcj0","pricing_plan_id":"cebpf4jnsgd1na2vs0mg"},{"bike_id":"855173a0-3379-49a2-8d48-56dd2230240e","system_id":"levelo_inurba_marseille","lat":43.27495,"lon":5.42438,"is_reserved":false,"is_disabled":false,"rental_uris":{"android":"levelo://app?vid=855173a0-3379-49a2-8d48-56dd2230240e","ios":"levelo://app?vid=855173a0-3379-49a2-8d48-56dd2230240e"},"vehicle_type_id":"4","last_reported":1768916302,"current_range_meters":6800,"station_id":"ce4bhn92rcd13ifvqgrg","pricing_plan_id":"cebpf4jnsgd1na2vs0mg"},{"bike_id":"e3caaaee-f8d9-44b6-b3d8-e04b5e8c88ba","system_id":"levelo_inurba_marseille","lat":43.27819,"lon":5.40723,"is_reserved":false,"is_disabled":false,"rental_uris":{"android":"levelo://app?vid=e3caaaee-f8d9-44b6-b3d8-e04b5e8c88ba","ios":"levelo://app?vid=e3caaaee-f8d9-44b6-b3d8-e04b5e8c88ba"},"vehicle_type_id":"4","last_reported":1768916302,"current_range_meters":6800,"station_id":"ce4bhnh2rcd13ifvqgtg","pricing_plan_id":"cebpf4jnsgd1na2vs0mg"},{"bike_id":"6c3a5c15-7423-4a25-87ba-05f3c8d2d87e","system_id":"levelo_inurba_marseille","lat":43.32367,"lon":5.3674,"is_reserved":false,"is_disabled":false,"rental_uris":{"android":"levelo://app?vid=6c3a5c15-7423-4a25-87ba-05f3c8d2d87e","ios":"levelo://app?vid=6c3a5c15-7423-4a25-87ba-05f3c8d2d87e"},"vehicle_type_id":"4","last_reported":1768916302,"current_range_meters":6800,"station_id":"ce4bhsh2rcd13ifvqi2g","pricing_plan_id":"cebpf4jnsgd1na2vs0mg"},{"bike_id":"c848ef88-9bba-440c-bccf-3dad8e3c10e5","system_id":"levelo_inurba_marseille","lat":43.305584,"lon":5.365321,"is_reserved":false,"is_disabled":false,"rental_uris":{"android":"levelo://app?vid=c848ef88-9bba-440c-bccf-3dad8e3c10e5","ios":"levelo://app?vid=c848ef88-9bba-440c-bccf-3dad8e3c10e5"},"vehicle_type_id":"4","last_reported":1768916302,"current_range_meters":6800,"station_id":"ce4bgs12rcd13ifvqcag","pricing_plan_id":"cebpf4jnsgd1na2vs0mg"},{"bike_id":"705085e2-9b40-490f-8b97-ff135b7389a2","system_id":"levelo_inurba_marseille","lat":43.27479,"lon":5.42394,"is_reserved":false,"is_disabled":false,"rental_uris":{"android":"levelo://app?vid=705085e2-9b40-490f-8b97-ff135b7389a2","ios":"levelo://app?vid=705085e2-9b40-490f-8b97-ff135b7389a2"},"vehicle_type_id":"4","last_reported":1768916302,"current_range_meters":6800,"station_id":"","pricing_plan_id":"cebpf4jnsgd1na2vs0mg"},{"bike_id":"85c08aa5-29a6-4378-a34a-4b44d3f93913","system_id":"levelo_inurba_marseille","lat":43.31338,"lon":5.36744,"is_reserved":false,"is_disabled":false,"rental_uris":{"android":"levelo://app?vid=85c08aa5-29a6-4378-a34a-4b44d3f93913","ios":"levelo://app?vid=85c08aa5-29a6-4378-a34a-4b44d3f93913"},"vehicle_type_id":"4","last_reported":1768916302,"current_range_meters":7200,"station_id":"ce4bgr92rcd13ifvqc6g","pricing_plan_id":"cebpf4jnsgd1na2vs0mg"},{"bike_id":"526d26c0-396b-4353-b988-5a07ce2663a2","system_id":"levelo_inurba_marseille","lat":43.3095,"lon":5.3903,"is_reserved":false,"is_disabled":false,"rental_uris":{"android":"levelo://app?vid=526d26c0-396b-4353-b988-5a07ce2663a2","ios":"levelo://app?vid=526d26c0-396b-4353-b988-5a07ce2663a2"},"vehicle_type_id":"4","last_reported":1768916302,"current_range_meters":7200,"station_id":"ce4bgup2rcd13ifvqco0","pricing_plan_id":"cebpf4jnsgd1na2vs0mg"},{"bike_id":"075027b0-ad3b-4d47-b78a-883f441d8916","system_id":"levelo_inurba_marseille","lat":43.29283,"lon":5.36852,"is_reserved":false,"is_disabled":false,"rental_uris":{"android":"levelo://app?vid=075027b0-ad3b-4d47-b78a-883f441d8916","ios":"levelo://app?vid=075027b0-ad3b-4d47-b78a-883f441d8916"},"vehicle_type_id":"4","last_reported":1768916302,"current_range_meters":7200,"station_id":"ce4bhbp2rcd13ifvqesg","pricing_plan_id":"cebpf4jnsgd1na2vs0mg"},{"bike_id":"c90f8d49-c464-4abb-b50f-a6f2833250ba","system_id":"levelo_inurba_marseille","lat":43.26055,"lon":5.39377,"is_reserved":false,"is_disabled":false,"rental_uris":{"android":"levelo://app?vid=c90f8d49-c464-4abb-b50f-a6f2833250ba","ios":"levelo://app?vid=c90f8d49-c464-4abb-b50f-a6f2833250ba"},"vehicle_type_id":"4","last_reported":1768916302,"current_range_meters":7200,"station_id":"ce4bhh92rcd13ifvqfj0","pricing_plan_id":"cebpf4jnsgd1na2vs0mg"},{"bike_id":"ab62c2c7-778e-423c-8864-1a3f3a3a4fe7","system_id":"levelo_inurba_marseille","lat":43.27703,"lon":5.40797,"is_reserved":false,"is_disabled":false,"rental_uris":{"android":"levelo://app?vid=ab62c2c7-778e-423c-8864-1a3f3a3a4fe7","ios":"levelo://app?vid=ab62c2c7-778e-423c-8864-1a3f3a3a4fe7"},"vehicle_type_id":"4","last_reported":1768916302,"current_range_meters":7200,"station_id":"","pricing_plan_id":"cebpf4jnsgd1na2vs0mg"},{"bike_id":"e11ace29-9281-4611-80f5-6f260c90fd6f","system_id":"levelo_inurba_marseille","lat":43.31359,"lon":5.38482,"is_reserved":false,"is_disabled":false,"rental_uris":{"android":"levelo://app?vid=e11ace29-9281-4611-80f5-6f260c90fd6f","ios":"levelo://app?vid=e11ace29-9281-4611-80f5-6f260c90fd6f"},"vehicle_type_id":"4","last_reported":1768916302,"current_range_meters":7200,"station_id":"ce4bgt92rcd13ifvqcf0","pricing_plan_id":"cebpf4jnsgd1na2vs0mg"},{"bike_id":"d1b1cf6a-870f-4034-b895-5100ce4a3332","system_id":"levelo_inurba_marseille","lat":43.29553,"lon":5.42275,"is_reserved":false,"is_disabled":false,"rental_uris":{"android":"levelo://app?vid=d1b1cf6a-870f-4034-b895-5100ce4a3332","ios":"levelo://app?vid=d1b1cf6a-870f-4034-b895-5100ce4a3332"},"vehicle_type_id":"4","last_reported":1768916302,"current_range_meters":7200,"station_id":"ce4bhph2rcd13ifvqhdg","pricing_plan_id":"cebpf4jnsgd1na2vs0mg"},{"bike_id":"fb399f5a-106d-4e4e-b0b6-eb700dad2449","system_id":"levelo_inurba_marseille","lat":43.28601,"lon":5.39923,"is_reserved":false,"is_disabled":true,"rental_uris":{"android":"levelo://app?vid=fb399f5a-106d-4e4e-b0b6-eb700dad2449","ios":"levelo://app?vid=fb399f5a-106d-4e4e-b0b6-eb700dad2449"},"vehicle_type_id":"4","last_reported":1768916302,"current_range_meters":7200,"station_id":"ce4bho92rcd13ifvqh3g","pricing_plan_id":"cebpf4jnsgd1na2vs0mg"},{"bike_id":"40e2667e-f23a-4ded-8ddb-fef4d5eb0dfe","system_id":"levelo_inurba_marseille","lat":43.25511,"lon":5.3766,"is_reserved":false,"is_disabled":false,"rental_uris":{"android":"levelo://app?vid=40e2667e-f23a-4ded-8ddb-fef4d5eb0dfe","ios":"levelo://app?vid=40e2667e-f23a-4ded-8ddb-fef4d5eb0dfe"},"vehicle_type_id":"4","last_reported":1768916302,"current_range_meters":7200,"station_id":"ce4bhh12rcd13ifvqff0","pricing_plan_id":"cebpf4jnsgd1na2vs0mg"},{"bike_id":"4d9fb050-4361-4bab-ba3c-960b4264587c","system_id":"levelo_inurba_marseille","lat":43.3305,"lon":5.39068,"is_reserved":false,"is_disabled":false,"rental_uris":{"android":"levelo://app?vid=4d9fb050-4361-4bab-ba3c-960b4264587c","ios":"levelo://app?vid=4d9fb050-4361-4bab-ba3c-960b4264587c"},"vehicle_type_id":"4","last_reported":1768916302,"current_range_meters":7200,"station_id":"ce4bhr92rcd13ifvqhrg","pricing_plan_id":"cebpf4jnsgd1na2vs0mg"},{"bike_id":"f8df6978-a223-48a4-8bb0-7a8422bd1c70","system_id":"levelo_inurba_marseille","lat":43.25821,"lon":5.39415,"is_reserved":false,"is_disabled":false,"rental_uris":{"android":"levelo://app?vid=f8df6978-a223-48a4-8bb0-7a8422bd1c70","ios":"levelo://app?vid=f8df6978-a223-48a4-8bb0-7a8422bd1c70"},"vehicle_type_id":"4","last_reported":1768916302,"current_range_meters":7200,"station_id":"ce4bhip2rcd13ifvqft0","pricing_plan_id":"cebpf4jnsgd1na2vs0mg"},{"bike_id":"1cd68235-0dd0-4a18-b47e-f8a039dc8288","system_id":"levelo_inurba_marseille","lat":43.2643,"lon":5.41077,"is_reserved":false,"is_disabled":false,"rental_uris":{"android":"levelo://app?vid=1cd68235-0dd0-4a18-b47e-f8a039dc8288","ios":"levelo://app?vid=1cd68235-0dd0-4a18-b47e-f8a039dc8288"},"vehicle_type_id":"4","last_reported":1768916302,"current_range_meters":7200,"station_id":"st_d4e5ca6na9uc73bfl5fg","pricing_plan_id":"cebpf4jnsgd1na2vs0mg"},{"bike_id":"fe9d92c6-6bf2-42de-b9d6-1a1baad0a909","system_id":"levelo_inurba_marseille","lat":43.27953,"lon":5.38673,"is_reserved":false,"is_disabled":false,"rental_uris":{"android":"levelo://app?vid=fe9d92c6-6bf2-42de-b9d6-1a1baad0a909","ios":"levelo://app?vid=fe9d92c6-6bf2-42de-b9d6-1a1baad0a909"},"vehicle_type_id":"4","last_reported":1768916302,"current_range_meters":7200,"station_id":"ce4bhg12rcd13ifvqf80","pricing_plan_id":"cebpf4jnsgd1na2vs0mg"},{"bike_id":"b87aec02-303f-4033-be3d-4f788f5a52ea","system_id":"levelo_inurba_marseille","lat":43.30236,"lon":5.4006,"is_reserved":false,"is_disabled":false,"rental_uris":{"android":"levelo://app?vid=b87aec02-303f-4033-be3d-4f788f5a52ea","ios":"levelo://app?vid=b87aec02-303f-4033-be3d-4f788f5a52ea"},"vehicle_type_id":"4","last_reported":1768916302,"current_range_meters":7200,"station_id":"ce4bgvh2rcd13ifvqcs0","pricing_plan_id":"cebpf4jnsgd1na2vs0mg"},{"bike_id":"a7b9b0ec-83f6-40df-aa25-854c700427e8","system_id":"levelo_inurba_marseille","lat":43.24827,"lon":5.37427,"is_reserved":false,"is_disabled":false,"rental_uris":{"android":"levelo://app?vid=a7b9b0ec-83f6-40df-aa25-854c700427e8","ios":"levelo://app?vid=a7b9b0ec-83f6-40df-aa25-854c700427e8"},"vehicle_type_id":"4","last_reported":1768916302,"current_range_meters":7200,"station_id":"ce4bhgh2rcd13ifvqfb0","pricing_plan_id":"cebpf4jnsgd1na2vs0mg"},{"bike_id":"7cf18d94-e1a1-4160-915c-04b24e4ca41c","system_id":"levelo_inurba_marseille","lat":43.2961,"lon":5.38086,"is_reserved":false,"is_disabled":false,"rental_uris":{"android":"levelo://app?vid=7cf18d94-e1a1-4160-915c-04b24e4ca41c","ios":"levelo://app?vid=7cf18d94-e1a1-4160-915c-04b24e4ca41c"},"vehicle_type_id":"4","last_reported":1768916302,"current_range_meters":7200,"station_id":"ce4bgl12rcd13ifvqbo0","pricing_plan_id":"cebpf4jnsgd1na2vs0mg"},{"bike_id":"c7030079-d609-4e03-a600-e9f0eb6e96cd","system_id":"levelo_inurba_marseille","lat":43.29899,"lon":5.3975,"is_reserved":false,"is_disabled":false,"rental_uris":{"android":"levelo://app?vid=c7030079-d609-4e03-a600-e9f0eb6e96cd","ios":"levelo://app?vid=c7030079-d609-4e03-a600-e9f0eb6e96cd"},"vehicle_type_id":"4","last_reported":1768916302,"current_range_meters":7200,"station_id":"ce4bh0h2rcd13ifvqd50","pricing_plan_id":"cebpf4jnsgd1na2vs0mg"},{"bike_id":"3f155f0c-a1bd-400f-8289-4fd480af1e73","system_id":"levelo_inurba_marseille","lat":43.291291,"lon":5.382671,"is_reserved":false,"is_disabled":false,"rental_uris":{"android":"levelo://app?vid=3f155f0c-a1bd-400f-8289-4fd480af1e73","ios":"levelo://app?vid=3f155f0c-a1bd-400f-8289-4fd480af1e73"},"vehicle_type_id":"4","last_reported":1768916302,"current_range_meters":7200,"station_id":"","pricing_plan_id":"cebpf4jnsgd1na2vs0mg"},{"bike_id":"544ad0c6-321a-4014-a5c3-ffb32ae71cca","system_id":"levelo_inurba_marseille","lat":43.28473,"lon":5.48391,"is_reserved":false,"is_disabled":false,"rental_uris":{"android":"levelo://app?vid=544ad0c6-321a-4014-a5c3-ffb32ae71cca","ios":"levelo://app?vid=544ad0c6-321a-4014-a5c3-ffb32ae71cca"},"vehicle_type_id":"4","last_reported":1768916302,"current_range_meters":7200,"station_id":"","pricing_plan_id":"cebpf4jnsgd1na2vs0mg"},{"bike_id":"c7247dff-9886-444a-baaf-7060e5f94f01","system_id":"levelo_inurba_marseille","lat":43.26547,"lon":5.37295,"is_reserved":false,"is_disabled":false,"rental_uris":{"android":"levelo://app?vid=c7247dff-9886-444a-baaf-7060e5f94f01","ios":"levelo://app?vid=c7247dff-9886-444a-baaf-7060e5f94f01"},"vehicle_type_id":"4","last_reported":1768916302,"current_range_meters":7200,"station_id":"ce4bhg12rcd13ifvqf70","pricing_plan_id":"cebpf4jnsgd1na2vs0mg"},{"bike_id":"5d6ec190-4e3f-4728-8145-239caf53150f","system_id":"levelo_inurba_marseille","lat":43.306811,"lon":5.402959,"is_reserved":false,"is_disabled":false,"rental_uris":{"android":"levelo://app?vid=5d6ec190-4e3f-4728-8145-239caf53150f","ios":"levelo://app?vid=5d6ec190-4e3f-4728-8145-239caf53150f"},"vehicle_type_id":"4","last_reported":1768916302,"current_range_meters":7200,"station_id":"","pricing_plan_id":"cebpf4jnsgd1na2vs0mg"},{"bike_id":"fdc6c686-a63e-42ac-8637-afd5d70ee598","system_id":"levelo_inurba_marseille","lat":43.29292,"lon":5.40158,"is_reserved":false,"is_disabled":false,"rental_uris":{"android":"levelo://app?vid=fdc6c686-a63e-42ac-8637-afd5d70ee598","ios":"levelo://app?vid=fdc6c686-a63e-42ac-8637-afd5d70ee598"},"vehicle_type_id":"4","last_reported":1768916302,"current_range_meters":7200,"station_id":"ce4bh312rcd13ifvqdk0","pricing_plan_id":"cebpf4jnsgd1na2vs0mg"},{"bike_id":"00ba686f-7f91-43a6-b497-d9e9160e76ff","system_id":"levelo_inurba_marseille","lat":43.29785,"lon":5.38087,"is_reserved":false,"is_disabled":false,"rental_uris":{"android":"levelo://app?vid=00ba686f-7f91-43a6-b497-d9e9160e76ff","ios":"levelo://app?vid=00ba686f-7f91-43a6-b497-d9e9160e76ff"},"vehicle_type_id":"4","last_reported":1768916302,"current_range_meters":7200,"station_id":"ce4bgip2rcd13ifvqbb0","pricing_plan_id":"cebpf4jnsgd1na2vs0mg"},{"bike_id":"65f2e28d-b6c3-4183-a528-4abf22dd5335","system_id":"levelo_inurba_marseille","lat":43.2396,"lon":5.36637,"is_reserved":false,"is_disabled":false,"rental_uris":{"android":"levelo://app?vid=65f2e28d-b6c3-4183-a528-4abf22dd5335","ios":"levelo://app?vid=65f2e28d-b6c3-4183-a528-4abf22dd5335"},"vehicle_type_id":"4","last_reported":1768916302,"current_range_meters":8000,"station_id":"ce4bhi12rcd13ifvqfp0","pricing_plan_id":"cebpf4jnsgd1na2vs0mg"},{"bike_id":"de773d31-c0ae-4fe9-90d5-b0353b585a1e","system_id":"levelo_inurba_marseille","lat":43.26502,"lon":5.39555,"is_reserved":false,"is_disabled":false,"rental_uris":{"android":"levelo://app?vid=de773d31-c0ae-4fe9-90d5-b0353b585a1e","ios":"levelo://app?vid=de773d31-c0ae-4fe9-90d5-b0353b585a1e"},"vehicle_type_id":"4","last_reported":1768916302,"current_range_meters":8000,"station_id":"ce4bhi12rcd13ifvqfq0","pricing_plan_id":"cebpf4jnsgd1na2vs0mg"},{"bike_id":"19da54de-4602-49e5-a196-11068ea61238","system_id":"levelo_inurba_marseille","lat":43.30678,"lon":5.36599,"is_reserved":false,"is_disabled":false,"rental_uris":{"android":"levelo://app?vid=19da54de-4602-49e5-a196-11068ea61238","ios":"levelo://app?vid=19da54de-4602-49e5-a196-11068ea61238"},"vehicle_type_id":"4","last_reported":1768916302,"current_range_meters":8000,"station_id":"","pricing_plan_id":"cebpf4jnsgd1na2vs0mg"},{"bike_id":"7acd5d60-5a4b-425a-8156-5d21005d41d0","system_id":"levelo_inurba_marseille","lat":43.28968,"lon":5.36401,"is_reserved":false,"is_disabled":false,"rental_uris":{"android":"levelo://app?vid=7acd5d60-5a4b-425a-8156-5d21005d41d0","ios":"levelo://app?vid=7acd5d60-5a4b-425a-8156-5d21005d41d0"},"vehicle_type_id":"4","last_reported":1768916302,"current_range_meters":8000,"station_id":"ce4bhc92rcd13ifvqetg","pricing_plan_id":"cebpf4jnsgd1na2vs0mg"},{"bike_id":"4ca32394-f8f1-4623-8df9-31249aca63fc","system_id":"levelo_inurba_marseille","lat":43.23182,"lon":5.39987,"is_reserved":false,"is_disabled":false,"rental_uris":{"android":"levelo://app?vid=4ca32394-f8f1-4623-8df9-31249aca63fc","ios":"levelo://app?vid=4ca32394-f8f1-4623-8df9-31249aca63fc"},"vehicle_type_id":"4","last_reported":1768916302,"current_range_meters":8000,"station_id":"ce4bhn12rcd13ifvqgqg","pricing_plan_id":"cebpf4jnsgd1na2vs0mg"},{"bike_id":"350a79a1-2120-443a-849c-814a0e198d1b","system_id":"levelo_inurba_marseille","lat":43.255125,"lon":5.376469,"is_reserved":false,"is_disabled":false,"rental_uris":{"android":"levelo://app?vid=350a79a1-2120-443a-849c-814a0e198d1b","ios":"levelo://app?vid=350a79a1-2120-443a-849c-814a0e198d1b"},"vehicle_type_id":"4","last_reported":1768916302,"current_range_meters":8000,"station_id":"ce4bhh12rcd13ifvqff0","pricing_plan_id":"cebpf4jnsgd1na2vs0mg"},{"bike_id":"c766203c-fe51-459b-bf74-dd6b3df74629","system_id":"levelo_inurba_marseille","lat":43.23206,"lon":5.39966,"is_reserved":false,"is_disabled":false,"rental_uris":{"android":"levelo://app?vid=c766203c-fe51-459b-bf74-dd6b3df74629","ios":"levelo://app?vid=c766203c-fe51-459b-bf74-dd6b3df74629"},"vehicle_type_id":"4","last_reported":1768916302,"current_range_meters":8000,"station_id":"ce4bhn12rcd13ifvqgqg","pricing_plan_id":"cebpf4jnsgd1na2vs0mg"},{"bike_id":"f58dc067-4dd9-4635-8ae5-365aced9c977","system_id":"levelo_inurba_marseille","lat":43.26213,"lon":5.4044,"is_reserved":false,"is_disabled":false,"rental_uris":{"android":"levelo://app?vid=f58dc067-4dd9-4635-8ae5-365aced9c977","ios":"levelo://app?vid=f58dc067-4dd9-4635-8ae5-365aced9c977"},"vehicle_type_id":"4","last_reported":1768916302,"current_range_meters":8000,"station_id":"ce4bhmh2rcd13ifvqgmg","pricing_plan_id":"cebpf4jnsgd1na2vs0mg"},{"bike_id":"10483c0a-1726-407f-8492-2530493c0d67","system_id":"levelo_inurba_marseille","lat":43.250122,"lon":5.389251,"is_reserved":false,"is_disabled":false,"rental_uris":{"android":"levelo://app?vid=10483c0a-1726-407f-8492-2530493c0d67","ios":"levelo://app?vid=10483c0a-1726-407f-8492-2530493c0d67"},"vehicle_type_id":"4","last_reported":1768916302,"current_range_meters":8000,"station_id":"ce4bhgp2rcd13ifvqfd0","pricing_plan_id":"cebpf4jnsgd1na2vs0mg"},{"bike_id":"2527e860-c538-42e8-becf-02342a01753e","system_id":"levelo_inurba_marseille","lat":43.271332,"lon":5.4017,"is_reserved":false,"is_disabled":false,"rental_uris":{"android":"levelo://app?vid=2527e860-c538-42e8-becf-02342a01753e","ios":"levelo://app?vid=2527e860-c538-42e8-becf-02342a01753e"},"vehicle_type_id":"4","last_reported":1768916302,"current_range_meters":8000,"station_id":"ce4bhk92rcd13ifvqgc0","pricing_plan_id":"cebpf4jnsgd1na2vs0mg"},{"bike_id":"64564d81-7fa9-470c-84f7-e881a2d2d1a5","system_id":"levelo_inurba_marseille","lat":43.24462,"lon":5.42527,"is_reserved":false,"is_disabled":false,"rental_uris":{"android":"levelo://app?vid=64564d81-7fa9-470c-84f7-e881a2d2d1a5","ios":"levelo://app?vid=64564d81-7fa9-470c-84f7-e881a2d2d1a5"},"vehicle_type_id":"4","last_reported":1768916302,"current_range_meters":8000,"station_id":"st_d4a3vfp97mjs738cd8kg","pricing_plan_id":"cebpf4jnsgd1na2vs0mg"},{"bike_id":"35eb0f0f-42a8-4fd5-956e-bec6aa3f7ee3","system_id":"levelo_inurba_marseille","lat":43.23187,"lon":5.3999,"is_reserved":false,"is_disabled":false,"rental_uris":{"android":"levelo://app?vid=35eb0f0f-42a8-4fd5-956e-bec6aa3f7ee3","ios":"levelo://app?vid=35eb0f0f-42a8-4fd5-956e-bec6aa3f7ee3"},"vehicle_type_id":"4","last_reported":1768916302,"current_range_meters":8000,"station_id":"ce4bhn12rcd13ifvqgqg","pricing_plan_id":"cebpf4jnsgd1na2vs0mg"},{"bike_id":"ce65da15-5103-4c08-86e5-b4783ea2b238","system_id":"levelo_inurba_marseille","lat":43.29313,"lon":5.37181,"is_reserved":false,"is_disabled":false,"rental_uris":{"android":"levelo://app?vid=ce65da15-5103-4c08-86e5-b4783ea2b238","ios":"levelo://app?vid=ce65da15-5103-4c08-86e5-b4783ea2b238"},"vehicle_type_id":"4","last_reported":1768916302,"current_range_meters":8000,"station_id":"ce4bgh92rcd13ifvqb40","pricing_plan_id":"cebpf4jnsgd1na2vs0mg"},{"bike_id":"290c050b-3b33-4486-adf0-4f5aca9312b6","system_id":"levelo_inurba_marseille","lat":43.26546,"lon":5.372829,"is_reserved":false,"is_disabled":false,"rental_uris":{"android":"levelo://app?vid=290c050b-3b33-4486-adf0-4f5aca9312b6","ios":"levelo://app?vid=290c050b-3b33-4486-adf0-4f5aca9312b6"},"vehicle_type_id":"4","last_reported":1768916302,"current_range_meters":8000,"station_id":"ce4bhg12rcd13ifvqf70","pricing_plan_id":"cebpf4jnsgd1na2vs0mg"},{"bike_id":"00926366-40d2-4692-a7fe-1fb3b69e53b6","system_id":"levelo_inurba_marseille","lat":43.32463,"lon":5.36598,"is_reserved":false,"is_disabled":false,"rental_uris":{"android":"levelo://app?vid=00926366-40d2-4692-a7fe-1fb3b69e53b6","ios":"levelo://app?vid=00926366-40d2-4692-a7fe-1fb3b69e53b6"},"vehicle_type_id":"4","last_reported":1768916302,"current_range_meters":8400,"station_id":"ce4bhs12rcd13ifvqhvg","pricing_plan_id":"cebpf4jnsgd1na2vs0mg"},{"bike_id":"04d1fa74-7078-4e54-86c0-c9d3f7b08c45","system_id":"levelo_inurba_marseille","lat":43.25566,"lon":5.38249,"is_reserved":false,"is_disabled":false,"rental_uris":{"android":"levelo://app?vid=04d1fa74-7078-4e54-86c0-c9d3f7b08c45","ios":"levelo://app?vid=04d1fa74-7078-4e54-86c0-c9d3f7b08c45"},"vehicle_type_id":"4","last_reported":1768916302,"current_range_meters":8400,"station_id":"ce4bhih2rcd13ifvqfs0","pricing_plan_id":"cebpf4jnsgd1na2vs0mg"},{"bike_id":"d466e173-51b3-4260-bdba-320b58be2104","system_id":"levelo_inurba_marseille","lat":43.26559,"lon":5.37283,"is_reserved":false,"is_disabled":false,"rental_uris":{"android":"levelo://app?vid=d466e173-51b3-4260-bdba-320b58be2104","ios":"levelo://app?vid=d466e173-51b3-4260-bdba-320b58be2104"},"vehicle_type_id":"4","last_reported":1768916302,"current_range_meters":8400,"station_id":"ce4bhg12rcd13ifvqf70","pricing_plan_id":"cebpf4jnsgd1na2vs0mg"},{"bike_id":"7d2f250a-191b-441d-876b-7325dd6245a6","system_id":"levelo_inurba_marseille","lat":43.249985,"lon":5.389431,"is_reserved":false,"is_disabled":false,"rental_uris":{"android":"levelo://app?vid=7d2f250a-191b-441d-876b-7325dd6245a6","ios":"levelo://app?vid=7d2f250a-191b-441d-876b-7325dd6245a6"},"vehicle_type_id":"4","last_reported":1768916302,"current_range_meters":8400,"station_id":"ce4bhgp2rcd13ifvqfd0","pricing_plan_id":"cebpf4jnsgd1na2vs0mg"},{"bike_id":"df1b9a7e-c928-473d-adba-e2b75f20c556","system_id":"levelo_inurba_marseille","lat":43.2551,"lon":5.37647,"is_reserved":false,"is_disabled":false,"rental_uris":{"android":"levelo://app?vid=df1b9a7e-c928-473d-adba-e2b75f20c556","ios":"levelo://app?vid=df1b9a7e-c928-473d-adba-e2b75f20c556"},"vehicle_type_id":"4","last_reported":1768916302,"current_range_meters":8400,"station_id":"ce4bhh12rcd13ifvqff0","pricing_plan_id":"cebpf4jnsgd1na2vs0mg"},{"bike_id":"0ca44d88-081b-4cd2-8cbc-a7bfdf442710","system_id":"levelo_inurba_marseille","lat":43.3043,"lon":5.38878,"is_reserved":false,"is_disabled":false,"rental_uris":{"android":"levelo://app?vid=0ca44d88-081b-4cd2-8cbc-a7bfdf442710","ios":"levelo://app?vid=0ca44d88-081b-4cd2-8cbc-a7bfdf442710"},"vehicle_type_id":"4","last_reported":1768916302,"current_range_meters":8400,"station_id":"ce4bgk12rcd13ifvqbi0","pricing_plan_id":"cebpf4jnsgd1na2vs0mg"},{"bike_id":"bd47c088-7a9b-44ec-a68f-65b726393761","system_id":"levelo_inurba_marseille","lat":43.27946,"lon":5.40583,"is_reserved":false,"is_disabled":false,"rental_uris":{"android":"levelo://app?vid=bd47c088-7a9b-44ec-a68f-65b726393761","ios":"levelo://app?vid=bd47c088-7a9b-44ec-a68f-65b726393761"},"vehicle_type_id":"4","last_reported":1768916302,"current_range_meters":8400,"station_id":"","pricing_plan_id":"cebpf4jnsgd1na2vs0mg"},{"bike_id":"a5e5c619-8bc5-4328-9a09-ce54be33b975","system_id":"levelo_inurba_marseille","lat":43.24365,"lon":5.37057,"is_reserved":false,"is_disabled":false,"rental_uris":{"android":"levelo://app?vid=a5e5c619-8bc5-4328-9a09-ce54be33b975","ios":"levelo://app?vid=a5e5c619-8bc5-4328-9a09-ce54be33b975"},"vehicle_type_id":"4","last_reported":1768916302,"current_range_meters":8400,"station_id":"ce4bhhh2rcd13ifvqfk0","pricing_plan_id":"cebpf4jnsgd1na2vs0mg"},{"bike_id":"b72bfb49-5862-48cc-91e9-cf8f8941887e","system_id":"levelo_inurba_marseille","lat":43.284176,"lon":5.349764,"is_reserved":false,"is_disabled":false,"rental_uris":{"android":"levelo://app?vid=b72bfb49-5862-48cc-91e9-cf8f8941887e","ios":"levelo://app?vid=b72bfb49-5862-48cc-91e9-cf8f8941887e"},"vehicle_type_id":"4","last_reported":1768916302,"current_range_meters":8400,"station_id":"ce4bhbh2rcd13ifvqepg","pricing_plan_id":"cebpf4jnsgd1na2vs0mg"},{"bike_id":"82083f02-67d3-46a9-beaf-bc86cb863617","system_id":"levelo_inurba_marseille","lat":43.30537,"lon":5.36533,"is_reserved":false,"is_disabled":false,"rental_uris":{"android":"levelo://app?vid=82083f02-67d3-46a9-beaf-bc86cb863617","ios":"levelo://app?vid=82083f02-67d3-46a9-beaf-bc86cb863617"},"vehicle_type_id":"4","last_reported":1768916302,"current_range_meters":8400,"station_id":"ce4bgs12rcd13ifvqcag","pricing_plan_id":"cebpf4jnsgd1na2vs0mg"},{"bike_id":"26c32585-1ce4-4f1a-b32e-1e0f0a70922d","system_id":"levelo_inurba_marseille","lat":43.3014,"lon":5.43102,"is_reserved":false,"is_disabled":false,"rental_uris":{"android":"levelo://app?vid=26c32585-1ce4-4f1a-b32e-1e0f0a70922d","ios":"levelo://app?vid=26c32585-1ce4-4f1a-b32e-1e0f0a70922d"},"vehicle_type_id":"4","last_reported":1768916302,"current_range_meters":8400,"station_id":"st_d3js3co5814s73ftftug","pricing_plan_id":"cebpf4jnsgd1na2vs0mg"},{"bike_id":"da1775b4-f964-4c31-a42d-2a7370b74fae","system_id":"levelo_inurba_marseille","lat":43.28141,"lon":5.42634,"is_reserved":false,"is_disabled":false,"rental_uris":{"android":"levelo://app?vid=da1775b4-f964-4c31-a42d-2a7370b74fae","ios":"levelo://app?vid=da1775b4-f964-4c31-a42d-2a7370b74fae"},"vehicle_type_id":"4","last_reported":1768916302,"current_range_meters":8400,"station_id":"ce4bhnh2rcd13ifvqgug","pricing_plan_id":"cebpf4jnsgd1na2vs0mg"},{"bike_id":"0e84440f-1425-4251-a28c-38177f781258","system_id":"levelo_inurba_marseille","lat":43.28482,"lon":5.48398,"is_reserved":false,"is_disabled":false,"rental_uris":{"android":"levelo://app?vid=0e84440f-1425-4251-a28c-38177f781258","ios":"levelo://app?vid=0e84440f-1425-4251-a28c-38177f781258"},"vehicle_type_id":"4","last_reported":1768916302,"current_range_meters":8400,"station_id":"","pricing_plan_id":"cebpf4jnsgd1na2vs0mg"},{"bike_id":"3e57c784-076f-487c-b622-a075cc851190","system_id":"levelo_inurba_marseille","lat":43.263514,"lon":5.378121,"is_reserved":false,"is_disabled":false,"rental_uris":{"android":"levelo://app?vid=3e57c784-076f-487c-b622-a075cc851190","ios":"levelo://app?vid=3e57c784-076f-487c-b622-a075cc851190"},"vehicle_type_id":"4","last_reported":1768916302,"current_range_meters":8400,"station_id":"ce4bhjp2rcd13ifvqg90","pricing_plan_id":"cebpf4jnsgd1na2vs0mg"},{"bike_id":"a7f506cd-5724-49af-8c5e-9b6a5ed5046c","system_id":"levelo_inurba_marseille","lat":43.28917,"lon":5.384,"is_reserved":false,"is_disabled":false,"rental_uris":{"android":"levelo://app?vid=a7f506cd-5724-49af-8c5e-9b6a5ed5046c","ios":"levelo://app?vid=a7f506cd-5724-49af-8c5e-9b6a5ed5046c"},"vehicle_type_id":"4","last_reported":1768916302,"current_range_meters":8400,"station_id":"ce4bh612rcd13ifvqe6g","pricing_plan_id":"cebpf4jnsgd1na2vs0mg"},{"bike_id":"e775e37a-88b9-408c-8364-888bc63e91d3","system_id":"levelo_inurba_marseille","lat":43.243951,"lon":5.37067,"is_reserved":false,"is_disabled":false,"rental_uris":{"android":"levelo://app?vid=e775e37a-88b9-408c-8364-888bc63e91d3","ios":"levelo://app?vid=e775e37a-88b9-408c-8364-888bc63e91d3"},"vehicle_type_id":"4","last_reported":1768916302,"current_range_meters":8400,"station_id":"ce4bhhh2rcd13ifvqfk0","pricing_plan_id":"cebpf4jnsgd1na2vs0mg"},{"bike_id":"e860cb11-899e-47ca-b43f-7b889717f869","system_id":"levelo_inurba_marseille","lat":43.29036,"lon":5.3996,"is_reserved":false,"is_disabled":false,"rental_uris":{"android":"levelo://app?vid=e860cb11-899e-47ca-b43f-7b889717f869","ios":"levelo://app?vid=e860cb11-899e-47ca-b43f-7b889717f869"},"vehicle_type_id":"4","last_reported":1768916302,"current_range_meters":8400,"station_id":"ce4bh392rcd13ifvqdm0","pricing_plan_id":"cebpf4jnsgd1na2vs0mg"},{"bike_id":"b24dfe93-528a-4ca2-a4ce-91a3c4d0a631","system_id":"levelo_inurba_marseille","lat":43.29286,"lon":5.36846,"is_reserved":false,"is_disabled":false,"rental_uris":{"android":"levelo://app?vid=b24dfe93-528a-4ca2-a4ce-91a3c4d0a631","ios":"levelo://app?vid=b24dfe93-528a-4ca2-a4ce-91a3c4d0a631"},"vehicle_type_id":"4","last_reported":1768916302,"current_range_meters":8400,"station_id":"ce4bhbp2rcd13ifvqesg","pricing_plan_id":"cebpf4jnsgd1na2vs0mg"},{"bike_id":"9dff9bae-d519-49ab-850f-a6b93762d1fc","system_id":"levelo_inurba_marseille","lat":43.253401,"lon":5.421728,"is_reserved":false,"is_disabled":false,"rental_uris":{"android":"levelo://app?vid=9dff9bae-d519-49ab-850f-a6b93762d1fc","ios":"levelo://app?vid=9dff9bae-d519-49ab-850f-a6b93762d1fc"},"vehicle_type_id":"4","last_reported":1768916302,"current_range_meters":8400,"station_id":"st_d2m65c5bi1j21697t3ng","pricing_plan_id":"cebpf4jnsgd1na2vs0mg"},{"bike_id":"624e69c3-6b31-4186-969f-7f4473ab49c7","system_id":"levelo_inurba_marseille","lat":43.25921,"lon":5.3874,"is_reserved":false,"is_disabled":true,"rental_uris":{"android":"levelo://app?vid=624e69c3-6b31-4186-969f-7f4473ab49c7","ios":"levelo://app?vid=624e69c3-6b31-4186-969f-7f4473ab49c7"},"vehicle_type_id":"4","last_reported":1768916302,"current_range_meters":8800,"station_id":"","pricing_plan_id":"cebpf4jnsgd1na2vs0mg"},{"bike_id":"c9632c24-d4ba-453f-a643-952c5a012a8a","system_id":"levelo_inurba_marseille","lat":43.22563,"lon":5.4162,"is_reserved":false,"is_disabled":false,"rental_uris":{"android":"levelo://app?vid=c9632c24-d4ba-453f-a643-952c5a012a8a","ios":"levelo://app?vid=c9632c24-d4ba-453f-a643-952c5a012a8a"},"vehicle_type_id":"4","last_reported":1768916302,"current_range_meters":8800,"station_id":"st_d2o4gvlbi1j2169b742g","pricing_plan_id":"cebpf4jnsgd1na2vs0mg"},{"bike_id":"b7d7c2db-c2fc-4cd2-9978-528223c5de8e","system_id":"levelo_inurba_marseille","lat":43.27222,"lon":5.39189,"is_reserved":false,"is_disabled":false,"rental_uris":{"android":"levelo://app?vid=b7d7c2db-c2fc-4cd2-9978-528223c5de8e","ios":"levelo://app?vid=b7d7c2db-c2fc-4cd2-9978-528223c5de8e"},"vehicle_type_id":"4","last_reported":1768916302,"current_range_meters":8800,"station_id":"ce4bhhp2rcd13ifvqfm0","pricing_plan_id":"cebpf4jnsgd1na2vs0mg"},{"bike_id":"f2bccffe-a4f0-4793-bfaa-8fbb6939cb95","system_id":"levelo_inurba_marseille","lat":43.24644,"lon":5.389,"is_reserved":false,"is_disabled":false,"rental_uris":{"android":"levelo://app?vid=f2bccffe-a4f0-4793-bfaa-8fbb6939cb95","ios":"levelo://app?vid=f2bccffe-a4f0-4793-bfaa-8fbb6939cb95"},"vehicle_type_id":"4","last_reported":1768916302,"current_range_meters":8800,"station_id":"ce4bhg12rcd13ifvqf60","pricing_plan_id":"cebpf4jnsgd1na2vs0mg"},{"bike_id":"8be23c8f-0ff3-47cf-81b2-0793bab5bb1f","system_id":"levelo_inurba_marseille","lat":43.24173,"lon":5.39697,"is_reserved":false,"is_disabled":false,"rental_uris":{"android":"levelo://app?vid=8be23c8f-0ff3-47cf-81b2-0793bab5bb1f","ios":"levelo://app?vid=8be23c8f-0ff3-47cf-81b2-0793bab5bb1f"},"vehicle_type_id":"4","last_reported":1768916302,"current_range_meters":8800,"station_id":"ce4bhn12rcd13ifvqgpg","pricing_plan_id":"cebpf4jnsgd1na2vs0mg"},{"bike_id":"d65ecb9a-6bda-4676-a531-deb2c8e6f520","system_id":"levelo_inurba_marseille","lat":43.30896,"lon":5.36852,"is_reserved":false,"is_disabled":false,"rental_uris":{"android":"levelo://app?vid=d65ecb9a-6bda-4676-a531-deb2c8e6f520","ios":"levelo://app?vid=d65ecb9a-6bda-4676-a531-deb2c8e6f520"},"vehicle_type_id":"4","last_reported":1768916302,"current_range_meters":8800,"station_id":"ce4bgn92rcd13ifvqbvg","pricing_plan_id":"cebpf4jnsgd1na2vs0mg"},{"bike_id":"9a2ad800-0a03-43fa-8c40-1fdb282b6422","system_id":"levelo_inurba_marseille","lat":43.32476,"lon":5.36553,"is_reserved":false,"is_disabled":false,"rental_uris":{"android":"levelo://app?vid=9a2ad800-0a03-43fa-8c40-1fdb282b6422","ios":"levelo://app?vid=9a2ad800-0a03-43fa-8c40-1fdb282b6422"},"vehicle_type_id":"4","last_reported":1768916302,"current_range_meters":8800,"station_id":"ce4bhs12rcd13ifvqhvg","pricing_plan_id":"cebpf4jnsgd1na2vs0mg"},{"bike_id":"f47a1b6d-b131-4665-bbf4-a03c420f278d","system_id":"levelo_inurba_marseille","lat":43.30132,"lon":5.37406,"is_reserved":false,"is_disabled":false,"rental_uris":{"android":"levelo://app?vid=f47a1b6d-b131-4665-bbf4-a03c420f278d","ios":"levelo://app?vid=f47a1b6d-b131-4665-bbf4-a03c420f278d"},"vehicle_type_id":"4","last_reported":1768916302,"current_range_meters":8800,"station_id":"ce4bgs92rcd13ifvqcc0","pricing_plan_id":"cebpf4jnsgd1na2vs0mg"},{"bike_id":"03c8b8f6-26d6-43f0-b06e-1c354011d6d4","system_id":"levelo_inurba_marseille","lat":43.30569,"lon":5.36565,"is_reserved":false,"is_disabled":false,"rental_uris":{"android":"levelo://app?vid=03c8b8f6-26d6-43f0-b06e-1c354011d6d4","ios":"levelo://app?vid=03c8b8f6-26d6-43f0-b06e-1c354011d6d4"},"vehicle_type_id":"4","last_reported":1768916302,"current_range_meters":8800,"station_id":"ce4bgs12rcd13ifvqcag","pricing_plan_id":"cebpf4jnsgd1na2vs0mg"},{"bike_id":"0c80884c-9c03-40f4-a5db-26696ff4abea","system_id":"levelo_inurba_marseille","lat":43.305449,"lon":5.365533,"is_reserved":false,"is_disabled":false,"rental_uris":{"android":"levelo://app?vid=0c80884c-9c03-40f4-a5db-26696ff4abea","ios":"levelo://app?vid=0c80884c-9c03-40f4-a5db-26696ff4abea"},"vehicle_type_id":"4","last_reported":1768916302,"current_range_meters":8800,"station_id":"ce4bgs12rcd13ifvqcag","pricing_plan_id":"cebpf4jnsgd1na2vs0mg"},{"bike_id":"5f65347f-3f32-4020-a719-79b95209ec08","system_id":"levelo_inurba_marseille","lat":43.28354,"lon":5.381,"is_reserved":false,"is_disabled":false,"rental_uris":{"android":"levelo://app?vid=5f65347f-3f32-4020-a719-79b95209ec08","ios":"levelo://app?vid=5f65347f-3f32-4020-a719-79b95209ec08"},"vehicle_type_id":"4","last_reported":1768916302,"current_range_meters":8800,"station_id":"ce4bh412rcd13ifvqdr0","pricing_plan_id":"cebpf4jnsgd1na2vs0mg"},{"bike_id":"d6cd796c-ce30-4e18-a8ac-0259e62aaa47","system_id":"levelo_inurba_marseille","lat":43.25952,"lon":5.40914,"is_reserved":false,"is_disabled":false,"rental_uris":{"android":"levelo://app?vid=d6cd796c-ce30-4e18-a8ac-0259e62aaa47","ios":"levelo://app?vid=d6cd796c-ce30-4e18-a8ac-0259e62aaa47"},"vehicle_type_id":"4","last_reported":1768916302,"current_range_meters":8800,"station_id":"ce4bhm92rcd13ifvqglg","pricing_plan_id":"cebpf4jnsgd1na2vs0mg"},{"bike_id":"470d11ff-6533-496b-9b42-604d9a3c30ea","system_id":"levelo_inurba_marseille","lat":43.31589,"lon":5.36879,"is_reserved":false,"is_disabled":false,"rental_uris":{"android":"levelo://app?vid=470d11ff-6533-496b-9b42-604d9a3c30ea","ios":"levelo://app?vid=470d11ff-6533-496b-9b42-604d9a3c30ea"},"vehicle_type_id":"4","last_reported":1768916302,"current_range_meters":8800,"station_id":"","pricing_plan_id":"cebpf4jnsgd1na2vs0mg"},{"bike_id":"29b3fe27-3155-4bb1-9d12-be92f522d733","system_id":"levelo_inurba_marseille","lat":43.29751,"lon":5.42769,"is_reserved":false,"is_disabled":false,"rental_uris":{"android":"levelo://app?vid=29b3fe27-3155-4bb1-9d12-be92f522d733","ios":"levelo://app?vid=29b3fe27-3155-4bb1-9d12-be92f522d733"},"vehicle_type_id":"4","last_reported":1768916302,"current_range_meters":8800,"station_id":"st_d3md5207bmas73dh9klg","pricing_plan_id":"cebpf4jnsgd1na2vs0mg"},{"bike_id":"52c85b02-607c-4226-bd7b-fd246dd2dae8","system_id":"levelo_inurba_marseille","lat":43.22564,"lon":5.41622,"is_reserved":false,"is_disabled":false,"rental_uris":{"android":"levelo://app?vid=52c85b02-607c-4226-bd7b-fd246dd2dae8","ios":"levelo://app?vid=52c85b02-607c-4226-bd7b-fd246dd2dae8"},"vehicle_type_id":"4","last_reported":1768916302,"current_range_meters":8800,"station_id":"st_d2o4gvlbi1j2169b742g","pricing_plan_id":"cebpf4jnsgd1na2vs0mg"},{"bike_id":"ba1a4609-795c-4220-8926-bfdd65f5d3a2","system_id":"levelo_inurba_marseille","lat":43.26546,"lon":5.37268,"is_reserved":false,"is_disabled":false,"rental_uris":{"android":"levelo://app?vid=ba1a4609-795c-4220-8926-bfdd65f5d3a2","ios":"levelo://app?vid=ba1a4609-795c-4220-8926-bfdd65f5d3a2"},"vehicle_type_id":"4","last_reported":1768916302,"current_range_meters":8800,"station_id":"ce4bhg12rcd13ifvqf70","pricing_plan_id":"cebpf4jnsgd1na2vs0mg"},{"bike_id":"7706652f-94ec-4a0e-8bb1-56949ea24ee2","system_id":"levelo_inurba_marseille","lat":43.22552,"lon":5.41624,"is_reserved":false,"is_disabled":false,"rental_uris":{"android":"levelo://app?vid=7706652f-94ec-4a0e-8bb1-56949ea24ee2","ios":"levelo://app?vid=7706652f-94ec-4a0e-8bb1-56949ea24ee2"},"vehicle_type_id":"4","last_reported":1768916302,"current_range_meters":8800,"station_id":"st_d2o4gvlbi1j2169b742g","pricing_plan_id":"cebpf4jnsgd1na2vs0mg"},{"bike_id":"35d45a1c-9155-4ed5-a9d1-84956682819b","system_id":"levelo_inurba_marseille","lat":43.31352,"lon":5.36735,"is_reserved":false,"is_disabled":false,"rental_uris":{"android":"levelo://app?vid=35d45a1c-9155-4ed5-a9d1-84956682819b","ios":"levelo://app?vid=35d45a1c-9155-4ed5-a9d1-84956682819b"},"vehicle_type_id":"4","last_reported":1768916302,"current_range_meters":8800,"station_id":"ce4bgr92rcd13ifvqc6g","pricing_plan_id":"cebpf4jnsgd1na2vs0mg"},{"bike_id":"d87ca21c-5b81-488d-a810-2353e2c0a02e","system_id":"levelo_inurba_marseille","lat":43.29033,"lon":5.3995,"is_reserved":false,"is_disabled":false,"rental_uris":{"android":"levelo://app?vid=d87ca21c-5b81-488d-a810-2353e2c0a02e","ios":"levelo://app?vid=d87ca21c-5b81-488d-a810-2353e2c0a02e"},"vehicle_type_id":"4","last_reported":1768916302,"current_range_meters":8800,"station_id":"ce4bh392rcd13ifvqdm0","pricing_plan_id":"cebpf4jnsgd1na2vs0mg"},{"bike_id":"7f57e4b7-adcc-40f6-a2f9-1294ef7abba0","system_id":"levelo_inurba_marseille","lat":43.309,"lon":5.36845,"is_reserved":false,"is_disabled":false,"rental_uris":{"android":"levelo://app?vid=7f57e4b7-adcc-40f6-a2f9-1294ef7abba0","ios":"levelo://app?vid=7f57e4b7-adcc-40f6-a2f9-1294ef7abba0"},"vehicle_type_id":"4","last_reported":1768916302,"current_range_meters":9200,"station_id":"ce4bgn92rcd13ifvqbvg","pricing_plan_id":"cebpf4jnsgd1na2vs0mg"},{"bike_id":"80f2d7a9-ea8b-4f2f-8a0e-cbf1a38f2ddf","system_id":"levelo_inurba_marseille","lat":43.25579,"lon":5.38248,"is_reserved":false,"is_disabled":false,"rental_uris":{"android":"levelo://app?vid=80f2d7a9-ea8b-4f2f-8a0e-cbf1a38f2ddf","ios":"levelo://app?vid=80f2d7a9-ea8b-4f2f-8a0e-cbf1a38f2ddf"},"vehicle_type_id":"4","last_reported":1768916302,"current_range_meters":9200,"station_id":"ce4bhih2rcd13ifvqfs0","pricing_plan_id":"cebpf4jnsgd1na2vs0mg"},{"bike_id":"7859bb55-00f2-4351-83e3-1fd35b7e1009","system_id":"levelo_inurba_marseille","lat":43.29252,"lon":5.38438,"is_reserved":false,"is_disabled":false,"rental_uris":{"android":"levelo://app?vid=7859bb55-00f2-4351-83e3-1fd35b7e1009","ios":"levelo://app?vid=7859bb55-00f2-4351-83e3-1fd35b7e1009"},"vehicle_type_id":"4","last_reported":1768916302,"current_range_meters":9200,"station_id":"ce4bh692rcd13ifvqea0","pricing_plan_id":"cebpf4jnsgd1na2vs0mg"},{"bike_id":"82be7d97-718d-4ca3-a208-795195883a7c","system_id":"levelo_inurba_marseille","lat":43.25815,"lon":5.39427,"is_reserved":false,"is_disabled":false,"rental_uris":{"android":"levelo://app?vid=82be7d97-718d-4ca3-a208-795195883a7c","ios":"levelo://app?vid=82be7d97-718d-4ca3-a208-795195883a7c"},"vehicle_type_id":"4","last_reported":1768916302,"current_range_meters":9200,"station_id":"ce4bhip2rcd13ifvqft0","pricing_plan_id":"cebpf4jnsgd1na2vs0mg"},{"bike_id":"c648ce05-faa1-4b25-b283-bb371b3c83ac","system_id":"levelo_inurba_marseille","lat":43.28897,"lon":5.38172,"is_reserved":false,"is_disabled":false,"rental_uris":{"android":"levelo://app?vid=c648ce05-faa1-4b25-b283-bb371b3c83ac","ios":"levelo://app?vid=c648ce05-faa1-4b25-b283-bb371b3c83ac"},"vehicle_type_id":"4","last_reported":1768916302,"current_range_meters":9200,"station_id":"","pricing_plan_id":"cebpf4jnsgd1na2vs0mg"},{"bike_id":"b3b51a6b-2421-4b77-9215-4368c6501a43","system_id":"levelo_inurba_marseille","lat":43.29959,"lon":5.3651,"is_reserved":false,"is_disabled":false,"rental_uris":{"android":"levelo://app?vid=b3b51a6b-2421-4b77-9215-4368c6501a43","ios":"levelo://app?vid=b3b51a6b-2421-4b77-9215-4368c6501a43"},"vehicle_type_id":"4","last_reported":1768916302,"current_range_meters":9200,"station_id":"ce4bgm92rcd13ifvqbr0","pricing_plan_id":"cebpf4jnsgd1na2vs0mg"},{"bike_id":"82bc016e-ea5f-4e74-95db-96f538282223","system_id":"levelo_inurba_marseille","lat":43.29873,"lon":5.36265,"is_reserved":false,"is_disabled":false,"rental_uris":{"android":"levelo://app?vid=82bc016e-ea5f-4e74-95db-96f538282223","ios":"levelo://app?vid=82bc016e-ea5f-4e74-95db-96f538282223"},"vehicle_type_id":"4","last_reported":1768916302,"current_range_meters":9200,"station_id":"ce4bgpp2rcd13ifvqc3g","pricing_plan_id":"cebpf4jnsgd1na2vs0mg"},{"bike_id":"dc99e887-99d3-438b-b7ee-d27d4781096e","system_id":"levelo_inurba_marseille","lat":43.30119,"lon":5.43122,"is_reserved":false,"is_disabled":false,"rental_uris":{"android":"levelo://app?vid=dc99e887-99d3-438b-b7ee-d27d4781096e","ios":"levelo://app?vid=dc99e887-99d3-438b-b7ee-d27d4781096e"},"vehicle_type_id":"4","last_reported":1768916302,"current_range_meters":9200,"station_id":"st_d3js3co5814s73ftftug","pricing_plan_id":"cebpf4jnsgd1na2vs0mg"},{"bike_id":"ab30be93-f3bc-4651-99c2-0b47a22aed38","system_id":"levelo_inurba_marseille","lat":43.312152,"lon":5.368338,"is_reserved":false,"is_disabled":false,"rental_uris":{"android":"levelo://app?vid=ab30be93-f3bc-4651-99c2-0b47a22aed38","ios":"levelo://app?vid=ab30be93-f3bc-4651-99c2-0b47a22aed38"},"vehicle_type_id":"4","last_reported":1768916302,"current_range_meters":9200,"station_id":"ce4bgl92rcd13ifvqbq0","pricing_plan_id":"cebpf4jnsgd1na2vs0mg"},{"bike_id":"5dbfcf3f-7cec-4c29-8168-14f9c37f7762","system_id":"levelo_inurba_marseille","lat":43.22573,"lon":5.4165,"is_reserved":false,"is_disabled":false,"rental_uris":{"android":"levelo://app?vid=5dbfcf3f-7cec-4c29-8168-14f9c37f7762","ios":"levelo://app?vid=5dbfcf3f-7cec-4c29-8168-14f9c37f7762"},"vehicle_type_id":"4","last_reported":1768916302,"current_range_meters":9200,"station_id":"st_d2o4gvlbi1j2169b742g","pricing_plan_id":"cebpf4jnsgd1na2vs0mg"},{"bike_id":"9a5ced3a-082e-4f33-9dfe-cf3a0c43f5ae","system_id":"levelo_inurba_marseille","lat":43.29563,"lon":5.37505,"is_reserved":false,"is_disabled":false,"rental_uris":{"android":"levelo://app?vid=9a5ced3a-082e-4f33-9dfe-cf3a0c43f5ae","ios":"levelo://app?vid=9a5ced3a-082e-4f33-9dfe-cf3a0c43f5ae"},"vehicle_type_id":"4","last_reported":1768916302,"current_range_meters":9200,"station_id":"ce4bgh92rcd13ifvqb50","pricing_plan_id":"cebpf4jnsgd1na2vs0mg"},{"bike_id":"3b354a2e-ec16-4128-9f6e-f06cb1073091","system_id":"levelo_inurba_marseille","lat":43.24466,"lon":5.42539,"is_reserved":false,"is_disabled":false,"rental_uris":{"android":"levelo://app?vid=3b354a2e-ec16-4128-9f6e-f06cb1073091","ios":"levelo://app?vid=3b354a2e-ec16-4128-9f6e-f06cb1073091"},"vehicle_type_id":"4","last_reported":1768916302,"current_range_meters":9200,"station_id":"st_d4a3vfp97mjs738cd8kg","pricing_plan_id":"cebpf4jnsgd1na2vs0mg"},{"bike_id":"8155f86b-6d64-4287-9ed7-7fbe9d103dde","system_id":"levelo_inurba_marseille","lat":43.2257,"lon":5.41634,"is_reserved":false,"is_disabled":false,"rental_uris":{"android":"levelo://app?vid=8155f86b-6d64-4287-9ed7-7fbe9d103dde","ios":"levelo://app?vid=8155f86b-6d64-4287-9ed7-7fbe9d103dde"},"vehicle_type_id":"4","last_reported":1768916302,"current_range_meters":9200,"station_id":"st_d2o4gvlbi1j2169b742g","pricing_plan_id":"cebpf4jnsgd1na2vs0mg"},{"bike_id":"5b69eddc-3e09-4713-b9eb-8d4e55dc5d60","system_id":"levelo_inurba_marseille","lat":43.25578,"lon":5.38239,"is_reserved":false,"is_disabled":false,"rental_uris":{"android":"levelo://app?vid=5b69eddc-3e09-4713-b9eb-8d4e55dc5d60","ios":"levelo://app?vid=5b69eddc-3e09-4713-b9eb-8d4e55dc5d60"},"vehicle_type_id":"4","last_reported":1768916302,"current_range_meters":9200,"station_id":"ce4bhih2rcd13ifvqfs0","pricing_plan_id":"cebpf4jnsgd1na2vs0mg"},{"bike_id":"d26e6b95-e3c6-4a51-ad6e-476f361ae8e8","system_id":"levelo_inurba_marseille","lat":43.317522,"lon":5.390047,"is_reserved":false,"is_disabled":false,"rental_uris":{"android":"levelo://app?vid=d26e6b95-e3c6-4a51-ad6e-476f361ae8e8","ios":"levelo://app?vid=d26e6b95-e3c6-4a51-ad6e-476f361ae8e8"},"vehicle_type_id":"4","last_reported":1768916302,"current_range_meters":9200,"station_id":"ce4bhqp2rcd13ifvqhng","pricing_plan_id":"cebpf4jnsgd1na2vs0mg"},{"bike_id":"416786c9-5441-4ae2-97be-8dd18ff4a833","system_id":"levelo_inurba_marseille","lat":43.26549,"lon":5.40318,"is_reserved":false,"is_disabled":false,"rental_uris":{"android":"levelo://app?vid=416786c9-5441-4ae2-97be-8dd18ff4a833","ios":"levelo://app?vid=416786c9-5441-4ae2-97be-8dd18ff4a833"},"vehicle_type_id":"4","last_reported":1768916302,"current_range_meters":9200,"station_id":"ce4bhmp2rcd13ifvqgng","pricing_plan_id":"cebpf4jnsgd1na2vs0mg"},{"bike_id":"3923c76b-a3df-4b9d-81dc-4a2e2497c68d","system_id":"levelo_inurba_marseille","lat":43.29934,"lon":5.36534,"is_reserved":false,"is_disabled":false,"rental_uris":{"android":"levelo://app?vid=3923c76b-a3df-4b9d-81dc-4a2e2497c68d","ios":"levelo://app?vid=3923c76b-a3df-4b9d-81dc-4a2e2497c68d"},"vehicle_type_id":"4","last_reported":1768916302,"current_range_meters":9200,"station_id":"ce4bgm92rcd13ifvqbr0","pricing_plan_id":"cebpf4jnsgd1na2vs0mg"},{"bike_id":"c4859733-7859-4eb1-ab94-2d7176bdff36","system_id":"levelo_inurba_marseille","lat":43.286992,"lon":5.39979,"is_reserved":false,"is_disabled":false,"rental_uris":{"android":"levelo://app?vid=c4859733-7859-4eb1-ab94-2d7176bdff36","ios":"levelo://app?vid=c4859733-7859-4eb1-ab94-2d7176bdff36"},"vehicle_type_id":"4","last_reported":1768916302,"current_range_meters":9200,"station_id":"ce4bho92rcd13ifvqh3g","pricing_plan_id":"cebpf4jnsgd1na2vs0mg"},{"bike_id":"cce182ef-d0eb-4464-8914-eb3f770e0b13","system_id":"levelo_inurba_marseille","lat":43.22554,"lon":5.41625,"is_reserved":false,"is_disabled":false,"rental_uris":{"android":"levelo://app?vid=cce182ef-d0eb-4464-8914-eb3f770e0b13","ios":"levelo://app?vid=cce182ef-d0eb-4464-8914-eb3f770e0b13"},"vehicle_type_id":"4","last_reported":1768916302,"current_range_meters":9600,"station_id":"st_d2o4gvlbi1j2169b742g","pricing_plan_id":"cebpf4jnsgd1na2vs0mg"},{"bike_id":"99d65f09-c0e6-4f0f-b72f-6e110c0f1bd4","system_id":"levelo_inurba_marseille","lat":43.28988,"lon":5.37591,"is_reserved":false,"is_disabled":false,"rental_uris":{"android":"levelo://app?vid=99d65f09-c0e6-4f0f-b72f-6e110c0f1bd4","ios":"levelo://app?vid=99d65f09-c0e6-4f0f-b72f-6e110c0f1bd4"},"vehicle_type_id":"4","last_reported":1768916302,"current_range_meters":9600,"station_id":"","pricing_plan_id":"cebpf4jnsgd1na2vs0mg"},{"bike_id":"9fe9b7fa-bf5e-456b-b148-d56a572e2392","system_id":"levelo_inurba_marseille","lat":43.225644,"lon":5.41641,"is_reserved":false,"is_disabled":false,"rental_uris":{"android":"levelo://app?vid=9fe9b7fa-bf5e-456b-b148-d56a572e2392","ios":"levelo://app?vid=9fe9b7fa-bf5e-456b-b148-d56a572e2392"},"vehicle_type_id":"4","last_reported":1768916302,"current_range_meters":9600,"station_id":"st_d2o4gvlbi1j2169b742g","pricing_plan_id":"cebpf4jnsgd1na2vs0mg"},{"bike_id":"f6a1d26e-6712-43f5-ae78-b6e521a55cb7","system_id":"levelo_inurba_marseille","lat":43.27056,"lon":5.40259,"is_reserved":false,"is_disabled":false,"rental_uris":{"android":"levelo://app?vid=f6a1d26e-6712-43f5-ae78-b6e521a55cb7","ios":"levelo://app?vid=f6a1d26e-6712-43f5-ae78-b6e521a55cb7"},"vehicle_type_id":"4","last_reported":1768916302,"current_range_meters":9600,"station_id":"ce4bhk92rcd13ifvqgc0","pricing_plan_id":"cebpf4jnsgd1na2vs0mg"},{"bike_id":"56496f15-285b-4dff-92b3-54ffdff3e399","system_id":"levelo_inurba_marseille","lat":43.2682,"lon":5.396292,"is_reserved":false,"is_disabled":false,"rental_uris":{"android":"levelo://app?vid=56496f15-285b-4dff-92b3-54ffdff3e399","ios":"levelo://app?vid=56496f15-285b-4dff-92b3-54ffdff3e399"},"vehicle_type_id":"4","last_reported":1768916302,"current_range_meters":9600,"station_id":"","pricing_plan_id":"cebpf4jnsgd1na2vs0mg"},{"bike_id":"4eba8ab0-a760-4c8f-be2e-adcd88a4d0b1","system_id":"levelo_inurba_marseille","lat":43.26495,"lon":5.39545,"is_reserved":false,"is_disabled":false,"rental_uris":{"android":"levelo://app?vid=4eba8ab0-a760-4c8f-be2e-adcd88a4d0b1","ios":"levelo://app?vid=4eba8ab0-a760-4c8f-be2e-adcd88a4d0b1"},"vehicle_type_id":"4","last_reported":1768916302,"current_range_meters":9600,"station_id":"ce4bhi12rcd13ifvqfq0","pricing_plan_id":"cebpf4jnsgd1na2vs0mg"},{"bike_id":"3add45f3-adea-4d6b-962f-31a9074e8e8f","system_id":"levelo_inurba_marseille","lat":43.24182,"lon":5.3971,"is_reserved":false,"is_disabled":false,"rental_uris":{"android":"levelo://app?vid=3add45f3-adea-4d6b-962f-31a9074e8e8f","ios":"levelo://app?vid=3add45f3-adea-4d6b-962f-31a9074e8e8f"},"vehicle_type_id":"4","last_reported":1768916302,"current_range_meters":9600,"station_id":"ce4bhn12rcd13ifvqgpg","pricing_plan_id":"cebpf4jnsgd1na2vs0mg"},{"bike_id":"6e8f368a-f345-4786-9785-635049e0080c","system_id":"levelo_inurba_marseille","lat":43.29293,"lon":5.40154,"is_reserved":false,"is_disabled":false,"rental_uris":{"android":"levelo://app?vid=6e8f368a-f345-4786-9785-635049e0080c","ios":"levelo://app?vid=6e8f368a-f345-4786-9785-635049e0080c"},"vehicle_type_id":"4","last_reported":1768916302,"current_range_meters":9600,"station_id":"ce4bh312rcd13ifvqdk0","pricing_plan_id":"cebpf4jnsgd1na2vs0mg"},{"bike_id":"33fa26f0-0d41-40f0-937f-42edd0fc6d0d","system_id":"levelo_inurba_marseille","lat":43.25572,"lon":5.38228,"is_reserved":false,"is_disabled":false,"rental_uris":{"android":"levelo://app?vid=33fa26f0-0d41-40f0-937f-42edd0fc6d0d","ios":"levelo://app?vid=33fa26f0-0d41-40f0-937f-42edd0fc6d0d"},"vehicle_type_id":"4","last_reported":1768916302,"current_range_meters":9600,"station_id":"ce4bhih2rcd13ifvqfs0","pricing_plan_id":"cebpf4jnsgd1na2vs0mg"},{"bike_id":"31c21be6-18ca-494d-8d01-2f205767068d","system_id":"levelo_inurba_marseille","lat":43.31829,"lon":5.37471,"is_reserved":false,"is_disabled":false,"rental_uris":{"android":"levelo://app?vid=31c21be6-18ca-494d-8d01-2f205767068d","ios":"levelo://app?vid=31c21be6-18ca-494d-8d01-2f205767068d"},"vehicle_type_id":"4","last_reported":1768916302,"current_range_meters":9600,"station_id":"","pricing_plan_id":"cebpf4jnsgd1na2vs0mg"},{"bike_id":"2c0995a4-2dde-4941-9bf7-449a4c636ac0","system_id":"levelo_inurba_marseille","lat":43.2439,"lon":5.37069,"is_reserved":false,"is_disabled":false,"rental_uris":{"android":"levelo://app?vid=2c0995a4-2dde-4941-9bf7-449a4c636ac0","ios":"levelo://app?vid=2c0995a4-2dde-4941-9bf7-449a4c636ac0"},"vehicle_type_id":"4","last_reported":1768916302,"current_range_meters":9600,"station_id":"ce4bhhh2rcd13ifvqfk0","pricing_plan_id":"cebpf4jnsgd1na2vs0mg"},{"bike_id":"12e86e36-0a01-4324-8401-ea6676f34c14","system_id":"levelo_inurba_marseille","lat":43.25586,"lon":5.38253,"is_reserved":false,"is_disabled":false,"rental_uris":{"android":"levelo://app?vid=12e86e36-0a01-4324-8401-ea6676f34c14","ios":"levelo://app?vid=12e86e36-0a01-4324-8401-ea6676f34c14"},"vehicle_type_id":"4","last_reported":1768916302,"current_range_meters":9600,"station_id":"ce4bhih2rcd13ifvqfs0","pricing_plan_id":"cebpf4jnsgd1na2vs0mg"},{"bike_id":"f4cd706d-c97e-4a23-ac33-3002259f9304","system_id":"levelo_inurba_marseille","lat":43.30473,"lon":5.37913,"is_reserved":false,"is_disabled":false,"rental_uris":{"android":"levelo://app?vid=f4cd706d-c97e-4a23-ac33-3002259f9304","ios":"levelo://app?vid=f4cd706d-c97e-4a23-ac33-3002259f9304"},"vehicle_type_id":"4","last_reported":1768916302,"current_range_meters":9600,"station_id":"ce4bgup2rcd13ifvqcn0","pricing_plan_id":"cebpf4jnsgd1na2vs0mg"},{"bike_id":"e47dfb0a-fd42-4915-8bd4-c942b77cb4c9","system_id":"levelo_inurba_marseille","lat":43.25565,"lon":5.38241,"is_reserved":false,"is_disabled":false,"rental_uris":{"android":"levelo://app?vid=e47dfb0a-fd42-4915-8bd4-c942b77cb4c9","ios":"levelo://app?vid=e47dfb0a-fd42-4915-8bd4-c942b77cb4c9"},"vehicle_type_id":"4","last_reported":1768916302,"current_range_meters":9600,"station_id":"ce4bhih2rcd13ifvqfs0","pricing_plan_id":"cebpf4jnsgd1na2vs0mg"},{"bike_id":"29bfec45-ad76-429c-882a-34b6f5ca4191","system_id":"levelo_inurba_marseille","lat":43.32088,"lon":5.36749,"is_reserved":false,"is_disabled":false,"rental_uris":{"android":"levelo://app?vid=29bfec45-ad76-429c-882a-34b6f5ca4191","ios":"levelo://app?vid=29bfec45-ad76-429c-882a-34b6f5ca4191"},"vehicle_type_id":"4","last_reported":1768916302,"current_range_meters":9600,"station_id":"ce4bhrh2rcd13ifvqhug","pricing_plan_id":"cebpf4jnsgd1na2vs0mg"},{"bike_id":"83098069-1cb7-423e-af0c-9e55721265a8","system_id":"levelo_inurba_marseille","lat":43.31471,"lon":5.45424,"is_reserved":false,"is_disabled":false,"rental_uris":{"android":"levelo://app?vid=83098069-1cb7-423e-af0c-9e55721265a8","ios":"levelo://app?vid=83098069-1cb7-423e-af0c-9e55721265a8"},"vehicle_type_id":"4","last_reported":1768916302,"current_range_meters":9600,"station_id":"","pricing_plan_id":"cebpf4jnsgd1na2vs0mg"},{"bike_id":"3ce5fa2e-c28c-488d-ae3c-3bf16a92a7cc","system_id":"levelo_inurba_marseille","lat":43.24622,"lon":5.43164,"is_reserved":false,"is_disabled":false,"rental_uris":{"android":"levelo://app?vid=3ce5fa2e-c28c-488d-ae3c-3bf16a92a7cc","ios":"levelo://app?vid=3ce5fa2e-c28c-488d-ae3c-3bf16a92a7cc"},"vehicle_type_id":"4","last_reported":1768916302,"current_range_meters":10000,"station_id":"st_d2m6c4gdas8pm72e190g","pricing_plan_id":"cebpf4jnsgd1na2vs0mg"},{"bike_id":"7768982c-0506-4865-b7b5-c20f00821e85","system_id":"levelo_inurba_marseille","lat":43.26557,"lon":5.40318,"is_reserved":false,"is_disabled":false,"rental_uris":{"android":"levelo://app?vid=7768982c-0506-4865-b7b5-c20f00821e85","ios":"levelo://app?vid=7768982c-0506-4865-b7b5-c20f00821e85"},"vehicle_type_id":"4","last_reported":1768916302,"current_range_meters":10000,"station_id":"ce4bhmp2rcd13ifvqgng","pricing_plan_id":"cebpf4jnsgd1na2vs0mg"},