{"last_updated":1762535357,"ttl":60,"version":"2.2","data":{"bikes":[{"bike_id":"8214771f-824c-4bd1-8320-270cb7b6f13e","system_id":"levelo_inurba_marseille","lat":43.29034,"lon":5.38645,"is_reserved":false,"is_disabled":false,"rental_uris":{"android":"levelo://app?vid=8214771f-824c-4bd1-8320-270cb7b6f13e","ios":"levelo://app?vid=8214771f-824c-4bd1-8320-270cb7b6f13e"},"vehicle_type_id":"4","last_reported":1762535357,"current_range_meters":2800,"station_id":"ce4bh4p2rcd13ifvqe0g","pricing_plan_id":"cebpf4jnsgd1na2vs0mg"},{"bike_id":"571bd3a6-912b-44a3-9841-50c558a61481","system_id":"levelo_inurba_marseille","lat":43.28084,"lon":5.40565,"is_reserved":false,"is_disabled":false,"rental_uris":{"android":"levelo://app?vid=571bd3a6-912b-44a3-9841-50c558a61481","ios":"levelo://app?vid=571bd3a6-912b-44a3-9841-50c558a61481"},"vehicle_type_id":"4","last_reported":1762535357,"current_range_meters":2800,"station_id":"","pricing_plan_id":"cebpf4jnsgd1na2vs0mg"},{"bike_id":"c91ff22e-e576-4d01-98ca-810035a34ba6","system_id":"levelo_inurba_marseille","lat":43.29356,"lon":5.3786,"is_reserved":false,"is_disabled":false,"rental_uris":{"android":"levelo://app?vid=c91ff22e-e576-4d01-98ca-810035a34ba6","ios":"levelo://app?vid=c91ff22e-e576-4d01-98ca-810035a34ba6"},"vehicle_type_id":"4","last_reported":1762535357,"current_range_meters":2800,"station_id":"ce4bgjh2rcd13ifvqbf0","pricing_plan_id":"cebpf4jnsgd1na2vs0mg"},{"bike_id":"5d501305-6872-40b7-9760-6572d7b7fcbc","system_id":"levelo_inurba_marseille","lat":43.31184,"lon":5.38726,"is_reserved":false,"is_disabled":false,"rental_uris":{"android":"levelo://app?vid=5d501305-6872-40b7-9760-6572d7b7fcbc","ios":"levelo://app?vid=5d501305-6872-40b7-9760-6572d7b7fcbc"},"vehicle_type_id":"4","last_reported":1762535357,"current_range_meters":2800,"station_id":"ce4bgv12rcd13ifvqcp0","pricing_plan_id":"cebpf4jnsgd1na2vs0mg"},{"bike_id":"4d59da54-9eab-43fe-bd6e-b3e04ccdb10d","system_id":"levelo_inurba_marseille","lat":43.2418,"lon":5.39727,"is_reserved":false,"is_disabled":false,"rental_uris":{"android":"levelo://app?vid=4d59da54-9eab-43fe-bd6e-b3e04ccdb10d","ios":"levelo://app?vid=4d59da54-9eab-43fe-bd6e-b3e04ccdb10d"},"vehicle_type_id":"4","last_reported":1762535357,"current_range_meters":2800,"station_id":"ce4bhn12rcd13ifvqgpg","pricing_plan_id":"cebpf4jnsgd1na2vs0mg"},{"bike_id":"46ea1783-79a5-4ee9-b0e7-3de645166e70","system_id":"levelo_inurba_marseille","lat":43.22565,"lon":5.41632,"is_reserved":false,"is_disabled":false,"rental_uris":{"android":"levelo://app?vid=46ea1783-79a5-4ee9-b0e7-3de645166e70","ios":"levelo://app?vid=46ea1783-79a5-4ee9-b0e7-3de645166e70"},"vehicle_type_id":"4","last_reported":1762535357,"current_range_meters":2800,"station_id":"st_d2o4gvlbi1j2169b742g","pricing_plan_id":"cebpf4jnsgd1na2vs0mg"},{"bike_id":"03732777-509d-40f7-9122-eb92507eec18","system_id":"levelo_inurba_marseille","lat":43.29261,"lon":5.38437,"is_reserved":false,"is_disabled":false,"rental_uris":{"android":"levelo://app?vid=03732777-509d-40f7-9122-eb92507eec18","ios":"levelo://app?vid=03732777-509d-40f7-9122-eb92507eec18"},"vehicle_type_id":"4","last_reported":1762535357,"current_range_meters":2800,"station_id":"ce4bh692rcd13ifvqea0","pricing_plan_id":"cebpf4jnsgd1na2vs0mg"},{"bike_id":"cdce8893-cc18-473f-b827-753ac3bdddb1","system_id":"levelo_inurba_marseille","lat":43.29966,"lon":5.38495,"is_reserved":false,"is_disabled":false,"rental_uris":{"android":"levelo://app?vid=cdce8893-cc18-473f-b827-753ac3bdddb1","ios":"levelo://app?vid=cdce8893-cc18-473f-b827-753ac3bdddb1"},"vehicle_type_id":"4","last_reported":1762535357,"current_range_meters":3200,"station_id":"ce4bgj92rcd13ifvqbd0","pricing_plan_id":"cebpf4jnsgd1na2vs0mg"},{"bike_id":"c5d0feba-5bbc-48a9-afa8-8d6221556296","system_id":"levelo_inurba_marseille","lat":43.24801,"lon":5.37455,"is_reserved":false,"is_disabled":false,"rental_uris":{"android":"levelo://app?vid=c5d0feba-5bbc-48a9-afa8-8d6221556296","ios":"levelo://app?vid=c5d0feba-5bbc-48a9-afa8-8d6221556296"},"vehicle_type_id":"4","last_reported":1762535357,"current_range_meters":3200,"station_id":"ce4bhgh2rcd13ifvqfb0","pricing_plan_id":"cebpf4jnsgd1na2vs0mg"},{"bike_id":"8bb1e1dc-5ade-4a07-9604-5301f03033e6","system_id":"levelo_inurba_marseille","lat":43.27993,"lon":5.40012,"is_reserved":false,"is_disabled":false,"rental_uris":{"android":"levelo://app?vid=8bb1e1dc-5ade-4a07-9604-5301f03033e6","ios":"levelo://app?vid=8bb1e1dc-5ade-4a07-9604-5301f03033e6"},"vehicle_type_id":"4","last_reported":1762535357,"current_range_meters":3600,"station_id":"ce4bho92rcd13ifvqh4g","pricing_plan_id":"cebpf4jnsgd1na2vs0mg"},{"bike_id":"d3a8c452-bd73-4909-9cfe-f1c0285f3d0c","system_id":"levelo_inurba_marseille","lat":43.28492,"lon":5.48409,"is_reserved":false,"is_disabled":false,"rental_uris":{"android":"levelo://app?vid=d3a8c452-bd73-4909-9cfe-f1c0285f3d0c","ios":"levelo://app?vid=d3a8c452-bd73-4909-9cfe-f1c0285f3d0c"},"vehicle_type_id":"4","last_reported":1762535357,"current_range_meters":4000,"station_id":"","pricing_plan_id":"cebpf4jnsgd1na2vs0mg"},{"bike_id":"e45be908-1545-4413-ab59-75b778e5264c","system_id":"levelo_inurba_marseille","lat":43.30881,"lon":5.39656,"is_reserved":false,"is_disabled":false,"rental_uris":{"android":"levelo://app?vid=e45be908-1545-4413-ab59-75b778e5264c","ios":"levelo://app?vid=e45be908-1545-4413-ab59-75b778e5264c"},"vehicle_type_id":"4","last_reported":1762535357,"current_range_meters":4000,"station_id":"ce4bh012rcd13ifvqcv0","pricing_plan_id":"cebpf4jnsgd1na2vs0mg"},{"bike_id":"05d152f3-639e-47cc-bb47-6828170cba1b","system_id":"levelo_inurba_marseille","lat":43.27057,"lon":5.40265,"is_reserved":false,"is_disabled":false,"rental_uris":{"android":"levelo://app?vid=05d152f3-639e-47cc-bb47-6828170cba1b","ios":"levelo://app?vid=05d152f3-639e-47cc-bb47-6828170cba1b"},"vehicle_type_id":"4","last_reported":1762535357,"current_range_meters":4000,"station_id":"ce4bhk92rcd13ifvqgc0","pricing_plan_id":"cebpf4jnsgd1na2vs0mg"},{"bike_id":"77354c52-a5eb-4607-a452-845dbf86c3ff","system_id":"levelo_inurba_marseille","lat":43.27072,"lon":5.4228,"is_reserved":false,"is_disabled":false,"rental_uris":{"android":"levelo://app?vid=77354c52-a5eb-4607-a452-845dbf86c3ff","ios":"levelo://app?vid=77354c52-a5eb-4607-a452-845dbf86c3ff"},"vehicle_type_id":"4","last_reported":1762535357,"current_range_meters":4400,"station_id":"ce4bhk92rcd13ifvqgb0","pricing_plan_id":"cebpf4jnsgd1na2vs0mg"},{"bike_id":"3278b328-b64f-4d16-95b9-9593ed030d1f","system_id":"levelo_inurba_marseille","lat":43.285645,"lon":5.394937,"is_reserved":false,"is_disabled":false,"rental_uris":{"android":"levelo://app?vid=3278b328-b64f-4d16-95b9-9593ed030d1f","ios":"levelo://app?vid=3278b328-b64f-4d16-95b9-9593ed030d1f"},"vehicle_type_id":"4","last_reported":1762535357,"current_range_meters":4800,"station_id":"ce4bh292rcd13ifvqdg0","pricing_plan_id":"cebpf4jnsgd1na2vs0mg"},{"bike_id":"bda3f52c-bd2f-4b46-83b5-77f9132e0cda","system_id":"levelo_inurba_marseille","lat":43.23174,"lon":5.39993,"is_reserved":false,"is_disabled":false,"rental_uris":{"android":"levelo://app?vid=bda3f52c-bd2f-4b46-83b5-77f9132e0cda","ios":"levelo://app?vid=bda3f52c-bd2f-4b46-83b5-77f9132e0cda"},"vehicle_type_id":"4","last_reported":1762535357,"current_range_meters":5600,"station_id":"ce4bhn12rcd13ifvqgqg","pricing_plan_id":"cebpf4jnsgd1na2vs0mg"},{"bike_id":"54a8263b-54e0-4774-bac9-d4c45466320e","system_id":"levelo_inurba_marseille","lat":43.32652,"lon":5.40995,"is_reserved":false,"is_disabled":false,"rental_uris":{"android":"levelo://app?vid=54a8263b-54e0-4774-bac9-d4c45466320e","ios":"levelo://app?vid=54a8263b-54e0-4774-bac9-d4c45466320e"},"vehicle_type_id":"4","last_reported":1762535357,"current_range_meters":5600,"station_id":"ce4bhpp2rcd13ifvqhgg","pricing_plan_id":"cebpf4jnsgd1na2vs0mg"},{"bike_id":"0d982d01-1914-4755-87cd-3524c2d00196","system_id":"levelo_inurba_marseille","lat":43.29501,"lon":5.37525,"is_reserved":false,"is_disabled":false,"rental_uris":{"android":"levelo://app?vid=0d982d01-1914-4755-87cd-3524c2d00196","ios":"levelo://app?vid=0d982d01-1914-4755-87cd-3524c2d00196"},"vehicle_type_id":"4","last_reported":1762535357,"current_range_meters":5600,"station_id":"ce4bgkp2rcd13ifvqbmg","pricing_plan_id":"cebpf4jnsgd1na2vs0mg"},{"bike_id":"bf1ed866-9228-4fde-bd9e-ceaa89b5d94a","system_id":"levelo_inurba_marseille","lat":43.24167,"lon":5.364,"is_reserved":false,"is_disabled":false,"rental_uris":{"android":"levelo://app?vid=bf1ed866-9228-4fde-bd9e-ceaa89b5d94a","ios":"levelo://app?vid=bf1ed866-9228-4fde-bd9e-ceaa89b5d94a"},"vehicle_type_id":"4","last_reported":1762535357,"current_range_meters":5600,"station_id":"cpo36qri1sfpv3e86is0","pricing_plan_id":"cebpf4jnsgd1na2vs0mg"},{"bike_id":"6d6b4de6-1bff-4c19-8d1f-d94dfa31e91d","system_id":"levelo_inurba_marseille","lat":43.269374,"lon":5.40256,"is_reserved":false,"is_disabled":false,"rental_uris":{"android":"levelo://app?vid=6d6b4de6-1bff-4c19-8d1f-d94dfa31e91d","ios":"levelo://app?vid=6d6b4de6-1bff-4c19-8d1f-d94dfa31e91d"},"vehicle_type_id":"4","last_reported":1762535357,"current_range_meters":5600,"station_id":"","pricing_plan_id":"cebpf4jnsgd1na2vs0mg"},{"bike_id":"42e52d41-61b5-4dcb-9e48-b26b4f1e4249","system_id":"levelo_inurba_marseille","lat":43.25824,"lon":5.39436,"is_reserved":false,"is_disabled":false,"rental_uris":{"android":"levelo://app?vid=42e52d41-61b5-4dcb-9e48-b26b4f1e4249","ios":"levelo://app?vid=42e52d41-61b5-4dcb-9e48-b26b4f1e4249"},"vehicle_type_id":"4","last_reported":1762535357,"current_range_meters":5600,"station_id":"ce4bhip2rcd13ifvqft0","pricing_plan_id":"cebpf4jnsgd1na2vs0mg"},{"bike_id":"2eb283fc-8c28-4e9b-a53a-cbee80ffc4d1","system_id":"levelo_inurba_marseille","lat":43.2467,"lon":5.38156,"is_reserved":false,"is_disabled":false,"rental_uris":{"android":"levelo://app?vid=2eb283fc-8c28-4e9b-a53a-cbee80ffc4d1","ios":"levelo://app?vid=2eb283fc-8c28-4e9b-a53a-cbee80ffc4d1"},"vehicle_type_id":"4","last_reported":1762535357,"current_range_meters":6000,"station_id":"ce4bhih2rcd13ifvqfr0","pricing_plan_id":"cebpf4jnsgd1na2vs0mg"},{"bike_id":"faf02dba-a063-4be7-b738-20d510b602ef","system_id":"levelo_inurba_marseille","lat":43.2982,"lon":5.38298,"is_reserved":false,"is_disabled":false,"rental_uris":{"android":"levelo://app?vid=faf02dba-a063-4be7-b738-20d510b602ef","ios":"levelo://app?vid=faf02dba-a063-4be7-b738-20d510b602ef"},"vehicle_type_id":"4","last_reported":1762535357,"current_range_meters":6000,"station_id":"","pricing_plan_id":"cebpf4jnsgd1na2vs0mg"},{"bike_id":"81dcc136-dea2-46c0-98af-42dbdee92b54","system_id":"levelo_inurba_marseille","lat":43.28479,"lon":5.48401,"is_reserved":false,"is_disabled":false,"rental_uris":{"android":"levelo://app?vid=81dcc136-dea2-46c0-98af-42dbdee92b54","ios":"levelo://app?vid=81dcc136-dea2-46c0-98af-42dbdee92b54"},"vehicle_type_id":"4","last_reported":1762535357,"current_range_meters":6000,"station_id":"","pricing_plan_id":"cebpf4jnsgd1na2vs0mg"},{"bike_id":"fc8334d2-8cc7-48bf-93cc-8304409e8292","system_id":"levelo_inurba_marseille","lat":43.21749,"lon":5.34618,"is_reserved":false,"is_disabled":false,"rental_uris":{"android":"levelo://app?vid=fc8334d2-8cc7-48bf-93cc-8304409e8292","ios":"levelo://app?vid=fc8334d2-8cc7-48bf-93cc-8304409e8292"},"vehicle_type_id":"4","last_reported":1762535357,"current_range_meters":6000,"station_id":"","pricing_plan_id":"cebpf4jnsgd1na2vs0mg"},{"bike_id":"eb74b641-6980-419a-a640-b0444886a532","system_id":"levelo_inurba_marseille","lat":43.29266,"lon":5.38433,"is_reserved":false,"is_disabled":false,"rental_uris":{"android":"levelo://app?vid=eb74b641-6980-419a-a640-b0444886a532","ios":"levelo://app?vid=eb74b641-6980-419a-a640-b0444886a532"},"vehicle_type_id":"4","last_reported":1762535357,"current_range_meters":6000,"station_id":"ce4bh692rcd13ifvqea0","pricing_plan_id":"cebpf4jnsgd1na2vs0mg"},{"bike_id":"fcf362f7-7c93-4f72-a7c9-6524458bfd49","system_id":"levelo_inurba_marseille","lat":43.290081,"lon":5.381542,"is_reserved":false,"is_disabled":false,"rental_uris":{"android":"levelo://app?vid=fcf362f7-7c93-4f72-a7c9-6524458bfd49","ios":"levelo://app?vid=fcf362f7-7c93-4f72-a7c9-6524458bfd49"},"vehicle_type_id":"4","last_reported":1762535357,"current_range_meters":6000,"station_id":"ce4bh4p2rcd13ifvqe1g","pricing_plan_id":"cebpf4jnsgd1na2vs0mg"},{"bike_id":"e891f8fa-6344-4652-87b3-965579ae8e57","system_id":"levelo_inurba_marseille","lat":43.24664,"lon":5.38169,"is_reserved":false,"is_disabled":false,"rental_uris":{"android":"levelo://app?vid=e891f8fa-6344-4652-87b3-965579ae8e57","ios":"levelo://app?vid=e891f8fa-6344-4652-87b3-965579ae8e57"},"vehicle_type_id":"4","last_reported":1762535357,"current_range_meters":6400,"station_id":"ce4bhih2rcd13ifvqfr0","pricing_plan_id":"cebpf4jnsgd1na2vs0mg"},{"bike_id":"fb9e9562-4e68-4b32-aa51-0d0a7bffba5e","system_id":"levelo_inurba_marseille","lat":43.24665,"lon":5.38172,"is_reserved":false,"is_disabled":false,"rental_uris":{"android":"levelo://app?vid=fb9e9562-4e68-4b32-aa51-0d0a7bffba5e","ios":"levelo://app?vid=fb9e9562-4e68-4b32-aa51-0d0a7bffba5e"},"vehicle_type_id":"4","last_reported":1762535357,"current_range_meters":6800,"station_id":"ce4bhih2rcd13ifvqfr0","pricing_plan_id":"cebpf4jnsgd1na2vs0mg"},{"bike_id":"874b186c-6ec7-4094-a4dd-a249e7cc9b62","system_id":"levelo_inurba_marseille","lat":43.27721,"lon":5.4269,"is_reserved":false,"is_disabled":false,"rental_uris":{"android":"levelo://app?vid=874b186c-6ec7-4094-a4dd-a249e7cc9b62","ios":"levelo://app?vid=874b186c-6ec7-4094-a4dd-a249e7cc9b62"},"vehicle_type_id":"4","last_reported":1762535357,"current_range_meters":6800,"station_id":"","pricing_plan_id":"cebpf4jnsgd1na2vs0mg"},{"bike_id":"902cc4cd-06d4-46f4-9396-2bdc2c8091fa","system_id":"levelo_inurba_marseille","lat":43.295286,"lon":5.385407,"is_reserved":false,"is_disabled":false,"rental_uris":{"android":"levelo://app?vid=902cc4cd-06d4-46f4-9396-2bdc2c8091fa","ios":"levelo://app?vid=902cc4cd-06d4-46f4-9396-2bdc2c8091fa"},"vehicle_type_id":"4","last_reported":1762535357,"current_range_meters":6800,"station_id":"ce4bgih2rcd13ifvqba0","pricing_plan_id":"cebpf4jnsgd1na2vs0mg"},{"bike_id":"96ecdca7-f257-44e6-a70b-32b39ec1d228","system_id":"levelo_inurba_marseille","lat":43.286999,"lon":5.399823,"is_reserved":false,"is_disabled":false,"rental_uris":{"android":"levelo://app?vid=96ecdca7-f257-44e6-a70b-32b39ec1d228","ios":"levelo://app?vid=96ecdca7-f257-44e6-a70b-32b39ec1d228"},"vehicle_type_id":"4","last_reported":1762535357,"current_range_meters":6800,"station_id":"ce4bho92rcd13ifvqh3g","pricing_plan_id":"cebpf4jnsgd1na2vs0mg"},{"bike_id":"aa19a526-92a8-45ee-a21a-c382ccb71cdb","system_id":"levelo_inurba_marseille","lat":43.304286,"lon":5.412577,"is_reserved":false,"is_disabled":false,"rental_uris":{"android":"levelo://app?vid=aa19a526-92a8-45ee-a21a-c382ccb71cdb","ios":"levelo://app?vid=aa19a526-92a8-45ee-a21a-c382ccb71cdb"},"vehicle_type_id":"4","last_reported":1762535357,"current_range_meters":6800,"station_id":"ce4bhop2rcd13ifvqh8g","pricing_plan_id":"cebpf4jnsgd1na2vs0mg"},{"bike_id":"74a83f19-4620-4517-be1e-697db6f72f0b","system_id":"levelo_inurba_marseille","lat":43.32344,"lon":5.36743,"is_reserved":false,"is_disabled":false,"rental_uris":{"android":"levelo://app?vid=74a83f19-4620-4517-be1e-697db6f72f0b","ios":"levelo://app?vid=74a83f19-4620-4517-be1e-697db6f72f0b"},"vehicle_type_id":"4","last_reported":1762535357,"current_range_meters":6800,"station_id":"ce4bhsh2rcd13ifvqi2g","pricing_plan_id":"cebpf4jnsgd1na2vs0mg"},{"bike_id":"4c5b18b1-bf83-4c7c-afb0-caf8352033cd","system_id":"levelo_inurba_marseille","lat":43.27371,"lon":5.36261,"is_reserved":false,"is_disabled":false,"rental_uris":{"android":"levelo://app?vid=4c5b18b1-bf83-4c7c-afb0-caf8352033cd","ios":"levelo://app?vid=4c5b18b1-bf83-4c7c-afb0-caf8352033cd"},"vehicle_type_id":"4","last_reported":1762535357,"current_range_meters":6800,"station_id":"ce4bhbh2rcd13ifvqeo0","pricing_plan_id":"cebpf4jnsgd1na2vs0mg"},{"bike_id":"7d4b894a-b431-4d35-a453-44463e8f54f8","system_id":"levelo_inurba_marseille","lat":43.30594,"lon":5.39356,"is_reserved":false,"is_disabled":false,"rental_uris":{"android":"levelo://app?vid=7d4b894a-b431-4d35-a453-44463e8f54f8","ios":"levelo://app?vid=7d4b894a-b431-4d35-a453-44463e8f54f8"},"vehicle_type_id":"4","last_reported":1762535357,"current_range_meters":7200,"station_id":"ce4bh0p2rcd13ifvqd80","pricing_plan_id":"cebpf4jnsgd1na2vs0mg"},{"bike_id":"6d2bfd78-8c6e-4785-bb8d-90697b508b58","system_id":"levelo_inurba_marseille","lat":43.2761,"lon":5.36112,"is_reserved":false,"is_disabled":false,"rental_uris":{"android":"levelo://app?vid=6d2bfd78-8c6e-4785-bb8d-90697b508b58","ios":"levelo://app?vid=6d2bfd78-8c6e-4785-bb8d-90697b508b58"},"vehicle_type_id":"4","last_reported":1762535357,"current_range_meters":7200,"station_id":"ce4bgj92rcd13ifvqbe0","pricing_plan_id":"cebpf4jnsgd1na2vs0mg"},{"bike_id":"dfb5db16-3bd6-4652-817a-53ea6168925a","system_id":"levelo_inurba_marseille","lat":43.29224,"lon":5.36075,"is_reserved":false,"is_disabled":false,"rental_uris":{"android":"levelo://app?vid=dfb5db16-3bd6-4652-817a-53ea6168925a","ios":"levelo://app?vid=dfb5db16-3bd6-4652-817a-53ea6168925a"},"vehicle_type_id":"4","last_reported":1762535357,"current_range_meters":7200,"station_id":"ce4bhbh2rcd13ifvqeqg","pricing_plan_id":"cebpf4jnsgd1na2vs0mg"},{"bike_id":"71967476-752a-4f5e-b222-99c0eea95f39","system_id":"levelo_inurba_marseille","lat":43.32312,"lon":5.38417,"is_reserved":false,"is_disabled":false,"rental_uris":{"android":"levelo://app?vid=71967476-752a-4f5e-b222-99c0eea95f39","ios":"levelo://app?vid=71967476-752a-4f5e-b222-99c0eea95f39"},"vehicle_type_id":"4","last_reported":1762535357,"current_range_meters":7200,"station_id":"","pricing_plan_id":"cebpf4jnsgd1na2vs0mg"},{"bike_id":"046e60ba-d2a2-4c5c-822d-ba2b2d54ed11","system_id":"levelo_inurba_marseille","lat":43.33604,"lon":5.41035,"is_reserved":false,"is_disabled":false,"rental_uris":{"android":"levelo://app?vid=046e60ba-d2a2-4c5c-822d-ba2b2d54ed11","ios":"levelo://app?vid=046e60ba-d2a2-4c5c-822d-ba2b2d54ed11"},"vehicle_type_id":"4","last_reported":1762535357,"current_range_meters":8000,"station_id":"ce4bhqh2rcd13ifvqhmg","pricing_plan_id":"cebpf4jnsgd1na2vs0mg"},{"bike_id":"32c4054d-c111-4f1c-b188-9138aed42210","system_id":"levelo_inurba_marseille","lat":43.31972,"lon":5.41593,"is_reserved":false,"is_disabled":false,"rental_uris":{"android":"levelo://app?vid=32c4054d-c111-4f1c-b188-9138aed42210","ios":"levelo://app?vid=32c4054d-c111-4f1c-b188-9138aed42210"},"vehicle_type_id":"4","last_reported":1762535357,"current_range_meters":8000,"station_id":"","pricing_plan_id":"cebpf4jnsgd1na2vs0mg"},{"bike_id":"04d0f783-c5b8-4b3f-af75-3660ccbb2bf2","system_id":"levelo_inurba_marseille","lat":43.24947,"lon":5.40493,"is_reserved":false,"is_disabled":false,"rental_uris":{"android":"levelo://app?vid=04d0f783-c5b8-4b3f-af75-3660ccbb2bf2","ios":"levelo://app?vid=04d0f783-c5b8-4b3f-af75-3660ccbb2bf2"},"vehicle_type_id":"4","last_reported":1762535357,"current_range_meters":8000,"station_id":"st_d2ngiaodas8pm72gd1h0","pricing_plan_id":"cebpf4jnsgd1na2vs0mg"},{"bike_id":"a6b5c354-bbc4-46b2-9356-4b84838966f9","system_id":"levelo_inurba_marseille","lat":43.30675,"lon":5.40351,"is_reserved":false,"is_disabled":false,"rental_uris":{"android":"levelo://app?vid=a6b5c354-bbc4-46b2-9356-4b84838966f9","ios":"levelo://app?vid=a6b5c354-bbc4-46b2-9356-4b84838966f9"},"vehicle_type_id":"4","last_reported":1762535357,"current_range_meters":8000,"station_id":"","pricing_plan_id":"cebpf4jnsgd1na2vs0mg"},{"bike_id":"aa073d3c-91f3-4920-9d1e-90bf82850b1e","system_id":"levelo_inurba_marseille","lat":43.33796,"lon":5.37441,"is_reserved":false,"is_disabled":false,"rental_uris":{"android":"levelo://app?vid=aa073d3c-91f3-4920-9d1e-90bf82850b1e","ios":"levelo://app?vid=aa073d3c-91f3-4920-9d1e-90bf82850b1e"},"vehicle_type_id":"4","last_reported":1762535357,"current_range_meters":8000,"station_id":"","pricing_plan_id":"cebpf4jnsgd1na2vs0mg"},{"bike_id":"e56e47e1-2b9b-4915-b57f-fad9202eb2c8","system_id":"levelo_inurba_marseille","lat":43.284121,"lon":5.375076,"is_reserved":false,"is_disabled":false,"rental_uris":{"android":"levelo://app?vid=e56e47e1-2b9b-4915-b57f-fad9202eb2c8","ios":"levelo://app?vid=e56e47e1-2b9b-4915-b57f-fad9202eb2c8"},"vehicle_type_id":"4","last_reported":1762535357,"current_range_meters":8000,"station_id":"ce4bhg12rcd13ifvqf80","pricing_plan_id":"cebpf4jnsgd1na2vs0mg"},{"bike_id":"eddb17f6-3038-4601-aa3a-84e67044eac9","system_id":"levelo_inurba_marseille","lat":43.2452,"lon":5.39554,"is_reserved":false,"is_disabled":false,"rental_uris":{"android":"levelo://app?vid=eddb17f6-3038-4601-aa3a-84e67044eac9","ios":"levelo://app?vid=eddb17f6-3038-4601-aa3a-84e67044eac9"},"vehicle_type_id":"4","last_reported":1762535357,"current_range_meters":8000,"station_id":"ce4bhn12rcd13ifvqgpg","pricing_plan_id":"cebpf4jnsgd1na2vs0mg"},{"bike_id":"ab3a4d6b-b442-44b9-8f02-c1c222f445ba","system_id":"levelo_inurba_marseille","lat":43.27468,"lon":5.39279,"is_reserved":false,"is_disabled":false,"rental_uris":{"android":"levelo://app?vid=ab3a4d6b-b442-44b9-8f02-c1c222f445ba","ios":"levelo://app?vid=ab3a4d6b-b442-44b9-8f02-c1c222f445ba"},"vehicle_type_id":"4","last_reported":1762535357,"current_range_meters":8400,"station_id":"","pricing_plan_id":"cebpf4jnsgd1na2vs0mg"},{"bike_id":"77807b52-a342-4413-b550-e7560c391773","system_id":"levelo_inurba_marseille","lat":43.31272,"lon":5.401759,"is_reserved":false,"is_disabled":false,"rental_uris":{"android":"levelo://app?vid=77807b52-a342-4413-b550-e7560c391773","ios":"levelo://app?vid=77807b52-a342-4413-b550-e7560c391773"},"vehicle_type_id":"4","last_reported":1762535357,"current_range_meters":8400,"station_id":"ce4bh092rcd13ifvqd30","pricing_plan_id":"cebpf4jnsgd1na2vs0mg"},{"bike_id":"701270c1-8de6-4bd8-8b36-d4aa56b26197","system_id":"levelo_inurba_marseille","lat":43.29598,"lon":5.38106,"is_reserved":false,"is_disabled":false,"rental_uris":{"android":"levelo://app?vid=701270c1-8de6-4bd8-8b36-d4aa56b26197","ios":"levelo://app?vid=701270c1-8de6-4bd8-8b36-d4aa56b26197"},"vehicle_type_id":"4","last_reported":1762535357,"current_range_meters":8400,"station_id":"ce4bgl12rcd13ifvqbo0","pricing_plan_id":"cebpf4jnsgd1na2vs0mg"},{"bike_id":"edcf15c5-3f1b-49f4-adcd-d7bd4457fdcd","system_id":"levelo_inurba_marseille","lat":43.25573,"lon":5.38238,"is_reserved":false,"is_disabled":false,"rental_uris":{"android":"levelo://app?vid=edcf15c5-3f1b-49f4-adcd-d7bd4457fdcd","ios":"levelo://app?vid=edcf15c5-3f1b-49f4-adcd-d7bd4457fdcd"},"vehicle_type_id":"4","last_reported":1762535357,"current_range_meters":8400,"station_id":"ce4bhih2rcd13ifvqfs0","pricing_plan_id":"cebpf4jnsgd1na2vs0mg"},{"bike_id":"59b31ef2-3fe3-46e5-b5a5-685f264695ce","system_id":"levelo_inurba_marseille","lat":43.2847,"lon":5.48408,"is_reserved":false,"is_disabled":false,"rental_uris":{"android":"levelo://app?vid=59b31ef2-3fe3-46e5-b5a5-685f264695ce","ios":"levelo://app?vid=59b31ef2-3fe3-46e5-b5a5-685f264695ce"},"vehicle_type_id":"4","last_reported":1762535357,"current_range_meters":8400,"station_id":"","pricing_plan_id":"cebpf4jnsgd1na2vs0mg"},{"bike_id":"3ffe2c7b-f27f-49bd-95c3-0ecfbf0880d2","system_id":"levelo_inurba_marseille","lat":43.30702,"lon":5.38431,"is_reserved":false,"is_disabled":false,"rental_uris":{"android":"levelo://app?vid=3ffe2c7b-f27f-49bd-95c3-0ecfbf0880d2","ios":"levelo://app?vid=3ffe2c7b-f27f-49bd-95c3-0ecfbf0880d2"},"vehicle_type_id":"4","last_reported":1762535357,"current_range_meters":8400,"station_id":"","pricing_plan_id":"cebpf4jnsgd1na2vs0mg"},{"bike_id":"bece22cc-a6e2-43d4-a610-48ce10237bb5","system_id":"levelo_inurba_marseille","lat":43.29038,"lon":5.35929,"is_reserved":false,"is_disabled":false,"rental_uris":{"android":"levelo://app?vid=bece22cc-a6e2-43d4-a610-48ce10237bb5","ios":"levelo://app?vid=bece22cc-a6e2-43d4-a610-48ce10237bb5"},"vehicle_type_id":"4","last_reported":1762535357,"current_range_meters":8400,"station_id":"ce4bha92rcd13ifvqeg0","pricing_plan_id":"cebpf4jnsgd1na2vs0mg"},{"bike_id":"b0732b62-19ca-4ec8-88e7-432d75ca293d","system_id":"levelo_inurba_marseille","lat":43.21744,"lon":5.34606,"is_reserved":false,"is_disabled":false,"rental_uris":{"android":"levelo://app?vid=b0732b62-19ca-4ec8-88e7-432d75ca293d","ios":"levelo://app?vid=b0732b62-19ca-4ec8-88e7-432d75ca293d"},"vehicle_type_id":"4","last_reported":1762535357,"current_range_meters":8400,"station_id":"","pricing_plan_id":"cebpf4jnsgd1na2vs0mg"},{"bike_id":"2446441b-31cc-447d-b697-c63565c4a1de","system_id":"levelo_inurba_marseille","lat":43.28493,"lon":5.38573,"is_reserved":false,"is_disabled":false,"rental_uris":{"android":"levelo://app?vid=2446441b-31cc-447d-b697-c63565c4a1de","ios":"levelo://app?vid=2446441b-31cc-447d-b697-c63565c4a1de"},"vehicle_type_id":"4","last_reported":1762535357,"current_range_meters":8400,"station_id":"ce4bh8p2rcd13ifvqeb0","pricing_plan_id":"cebpf4jnsgd1na2vs0mg"},{"bike_id":"890a39bb-704f-4b92-a349-2624e6db3c3f","system_id":"levelo_inurba_marseille","lat":43.27201,"lon":5.39189,"is_reserved":false,"is_disabled":false,"rental_uris":{"android":"levelo://app?vid=890a39bb-704f-4b92-a349-2624e6db3c3f","ios":"levelo://app?vid=890a39bb-704f-4b92-a349-2624e6db3c3f"},"vehicle_type_id":"4","last_reported":1762535357,"current_range_meters":8400,"station_id":"ce4bhhp2rcd13ifvqfm0","pricing_plan_id":"cebpf4jnsgd1na2vs0mg"},{"bike_id":"857f7c25-e6d3-43ee-9625-bf3cf54e9c95","system_id":"levelo_inurba_marseille","lat":43.28844,"lon":5.35852,"is_reserved":false,"is_disabled":false,"rental_uris":{"android":"levelo://app?vid=857f7c25-e6d3-43ee-9625-bf3cf54e9c95","ios":"levelo://app?vid=857f7c25-e6d3-43ee-9625-bf3cf54e9c95"},"vehicle_type_id":"4","last_reported":1762535357,"current_range_meters":8800,"station_id":"ce4bhb12rcd13ifvqem0","pricing_plan_id":"cebpf4jnsgd1na2vs0mg"},{"bike_id":"b7294c61-5c81-4572-9fd4-ac39505ed826","system_id":"levelo_inurba_marseille","lat":43.28274,"lon":5.35068,"is_reserved":false,"is_disabled":false,"rental_uris":{"android":"levelo://app?vid=b7294c61-5c81-4572-9fd4-ac39505ed826","ios":"levelo://app?vid=b7294c61-5c81-4572-9fd4-ac39505ed826"},"vehicle_type_id":"4","last_reported":1762535357,"current_range_meters":8800,"station_id":"ce4bhbp2rcd13ifvqerg","pricing_plan_id":"cebpf4jnsgd1na2vs0mg"},{"bike_id":"62b597ad-0183-45ab-83ea-6b1f25540269","system_id":"levelo_inurba_marseille","lat":43.32743,"lon":5.45209,"is_reserved":false,"is_disabled":false,"rental_uris":{"android":"levelo://app?vid=62b597ad-0183-45ab-83ea-6b1f25540269","ios":"levelo://app?vid=62b597ad-0183-45ab-83ea-6b1f25540269"},"vehicle_type_id":"4","last_reported":1762535357,"current_range_meters":8800,"station_id":"","pricing_plan_id":"cebpf4jnsgd1na2vs0mg"},{"bike_id":"32c1c8d8-b75a-42cd-ac59-c6c599260108","system_id":"levelo_inurba_marseille","lat":43.295231,"lon":5.385448,"is_reserved":false,"is_disabled":false,"rental_uris":{"android":"levelo://app?vid=32c1c8d8-b75a-42cd-ac59-c6c599260108","ios":"levelo://app?vid=32c1c8d8-b75a-42cd-ac59-c6c599260108"},"vehicle_type_id":"4","last_reported":1762535357,"current_range_meters":8800,"station_id":"ce4bgih2rcd13ifvqba0","pricing_plan_id":"cebpf4jnsgd1na2vs0mg"},{"bike_id":"241b147e-8f22-4ba2-aac5-ac315ede0828","system_id":"levelo_inurba_marseille","lat":43.308825,"lon":5.39639,"is_reserved":false,"is_disabled":false,"rental_uris":{"android":"levelo://app?vid=241b147e-8f22-4ba2-aac5-ac315ede0828","ios":"levelo://app?vid=241b147e-8f22-4ba2-aac5-ac315ede0828"},"vehicle_type_id":"4","last_reported":1762535357,"current_range_meters":9200,"station_id":"ce4bh012rcd13ifvqcv0","pricing_plan_id":"cebpf4jnsgd1na2vs0mg"},{"bike_id":"a48e1f78-222d-4078-82f2-58caa28d1f97","system_id":"levelo_inurba_marseille","lat":43.3042,"lon":5.38898,"is_reserved":false,"is_disabled":false,"rental_uris":{"android":"levelo://app?vid=a48e1f78-222d-4078-82f2-58caa28d1f97","ios":"levelo://app?vid=a48e1f78-222d-4078-82f2-58caa28d1f97"},"vehicle_type_id":"4","last_reported":1762535357,"current_range_meters":9200,"station_id":"ce4bgk12rcd13ifvqbi0","pricing_plan_id":"cebpf4jnsgd1na2vs0mg"},{"bike_id":"53a1a2c1-2358-4c27-8065-235dd16b93e3","system_id":"levelo_inurba_marseille","lat":43.28664,"lon":5.3635,"is_reserved":false,"is_disabled":false,"rental_uris":{"android":"levelo://app?vid=53a1a2c1-2358-4c27-8065-235dd16b93e3","ios":"levelo://app?vid=53a1a2c1-2358-4c27-8065-235dd16b93e3"},"vehicle_type_id":"4","last_reported":1762535357,"current_range_meters":9200,"station_id":"ce4bhah2rcd13ifvqej0","pricing_plan_id":"cebpf4jnsgd1na2vs0mg"},{"bike_id":"0e20a5d9-0ab3-4e71-a3ef-c9be28fc5551","system_id":"levelo_inurba_marseille","lat":43.28535,"lon":5.44105,"is_reserved":false,"is_disabled":false,"rental_uris":{"android":"levelo://app?vid=0e20a5d9-0ab3-4e71-a3ef-c9be28fc5551","ios":"levelo://app?vid=0e20a5d9-0ab3-4e71-a3ef-c9be28fc5551"},"vehicle_type_id":"4","last_reported":1762535357,"current_range_meters":9600,"station_id":"st_d3j3df2ikq2c7380ej80","pricing_plan_id":"cebpf4jnsgd1na2vs0mg"},{"bike_id":"927fe002-e165-4df0-a534-d41378f87de1","system_id":"levelo_inurba_marseille","lat":43.285675,"lon":5.394931,"is_reserved":false,"is_disabled":false,"rental_uris":{"android":"levelo://app?vid=927fe002-e165-4df0-a534-d41378f87de1","ios":"levelo://app?vid=927fe002-e165-4df0-a534-d41378f87de1"},"vehicle_type_id":"4","last_reported":1762535357,"current_range_meters":10000,"station_id":"ce4bh292rcd13ifvqdg0","pricing_plan_id":"cebpf4jnsgd1na2vs0mg"},{"bike_id":"1429fa01-256c-4037-bf14-f7e4da268e66","system_id":"levelo_inurba_marseille","lat":43.29904,"lon":5.37472,"is_reserved":false,"is_disabled":false,"rental_uris":{"android":"levelo://app?vid=1429fa01-256c-4037-bf14-f7e4da268e66","ios":"levelo://app?vid=1429fa01-256c-4037-bf14-f7e4da268e66"},"vehicle_type_id":"4","last_reported":1762535357,"current_range_meters":10000,"station_id":"ce4bgjh2rcd13ifvqbg0","pricing_plan_id":"cebpf4jnsgd1na2vs0mg"},{"bike_id":"f15bc5cc-bf9e-4ae5-b4d9-ff0a9b68c8cf","system_id":"levelo_inurba_marseille","lat":43.23156,"lon":5.43707,"is_reserved":false,"is_disabled":false,"rental_uris":{"android":"levelo://app?vid=f15bc5cc-bf9e-4ae5-b4d9-ff0a9b68c8cf","ios":"levelo://app?vid=f15bc5cc-bf9e-4ae5-b4d9-ff0a9b68c8cf"},"vehicle_type_id":"4","last_reported":1762535357,"current_range_meters":10000,"station_id":"ce4bhmp2rcd13ifvqgog","pricing_plan_id":"cebpf4jnsgd1na2vs0mg"},{"bike_id":"beea4fa7-5641-4ca9-bc3d-923fcc0b34fe","system_id":"levelo_inurba_marseille","lat":43.251093,"lon":5.40322,"is_reserved":false,"is_disabled":false,"rental_uris":{"android":"levelo://app?vid=beea4fa7-5641-4ca9-bc3d-923fcc0b34fe","ios":"levelo://app?vid=beea4fa7-5641-4ca9-bc3d-923fcc0b34fe"},"vehicle_type_id":"4","last_reported":1762535357,"current_range_meters":10000,"station_id":"ce4bhlh2rcd13ifvqgig","pricing_plan_id":"cebpf4jnsgd1na2vs0mg"},{"bike_id":"711b5184-06a1-46c6-b1ad-270408b914a4","system_id":"levelo_inurba_marseille","lat":43.30013,"lon":5.40976,"is_reserved":false,"is_disabled":false,"rental_uris":{"android":"levelo://app?vid=711b5184-06a1-46c6-b1ad-270408b914a4","ios":"levelo://app?vid=711b5184-06a1-46c6-b1ad-270408b914a4"},"vehicle_type_id":"4","last_reported":1762535357,"current_range_meters":10000,"station_id":"","pricing_plan_id":"cebpf4jnsgd1na2vs0mg"},{"bike_id":"cdcdaaee-241e-4fbc-bec9-ecb4f057ca96","system_id":"levelo_inurba_marseille","lat":43.33021,"lon":5.39037,"is_reserved":false,"is_disabled":false,"rental_uris":{"android":"levelo://app?vid=cdcdaaee-241e-4fbc-bec9-ecb4f057ca96","ios":"levelo://app?vid=cdcdaaee-241e-4fbc-bec9-ecb4f057ca96"},"vehicle_type_id":"4","last_reported":1762535357,"current_range_meters":10000,"station_id":"ce4bhr92rcd13ifvqhrg","pricing_plan_id":"cebpf4jnsgd1na2vs0mg"},{"bike_id":"30837460-32a3-4a23-adca-913b3fa417d9","system_id":"levelo_inurba_marseille","lat":43.29841,"lon":5.36263,"is_reserved":false,"is_disabled":false,"rental_uris":{"android":"levelo://app?vid=30837460-32a3-4a23-adca-913b3fa417d9","ios":"levelo://app?vid=30837460-32a3-4a23-adca-913b3fa417d9"},"vehicle_type_id":"4","last_reported":1762535357,"current_range_meters":10000,"station_id":"ce4bgpp2rcd13ifvqc3g","pricing_plan_id":"cebpf4jnsgd1na2vs0mg"},{"bike_id":"735af335-66bf-4340-87fb-78f795989dcc","system_id":"levelo_inurba_marseille","lat":43.29927,"lon":5.38249,"is_reserved":false,"is_disabled":false,"rental_uris":{"android":"levelo://app?vid=735af335-66bf-4340-87fb-78f795989dcc","ios":"levelo://app?vid=735af335-66bf-4340-87fb-78f795989dcc"},"vehicle_type_id":"4","last_reported":1762535357,"current_range_meters":10000,"station_id":"","pricing_plan_id":"cebpf4jnsgd1na2vs0mg"},{"bike_id":"78e08d14-7adc-4e17-84ef-ebd17d4ccd7d","system_id":"levelo_inurba_marseille","lat":43.25123,"lon":5.40339,"is_reserved":false,"is_disabled":false,"rental_uris":{"android":"levelo://app?vid=78e08d14-7adc-4e17-84ef-ebd17d4ccd7d","ios":"levelo://app?vid=78e08d14-7adc-4e17-84ef-ebd17d4ccd7d"},"vehicle_type_id":"4","last_reported":1762535357,"current_range_meters":10000,"station_id":"ce4bhlh2rcd13ifvqgig","pricing_plan_id":"cebpf4jnsgd1na2vs0mg"},{"bike_id":"c70d9f36-a9fc-493e-8999-315cc9bbbe76","system_id":"levelo_inurba_marseille","lat":43.27903,"lon":5.38018,"is_reserved":false,"is_disabled":false,"rental_uris":{"android":"levelo://app?vid=c70d9f36-a9fc-493e-8999-315cc9bbbe76","ios":"levelo://app?vid=c70d9f36-a9fc-493e-8999-315cc9bbbe76"},"vehicle_type_id":"4","last_reported":1762535357,"current_range_meters":10000,"station_id":"ce4bhf92rcd13ifvqf50","pricing_plan_id":"cebpf4jnsgd1na2vs0mg"},{"bike_id":"a60fc6e8-ebbd-4600-a694-f65bcffaf094","system_id":"levelo_inurba_marseille","lat":43.285553,"lon":5.394965,"is_reserved":false,"is_disabled":false,"rental_uris":{"android":"levelo://app?vid=a60fc6e8-ebbd-4600-a694-f65bcffaf094","ios":"levelo://app?vid=a60fc6e8-ebbd-4600-a694-f65bcffaf094"},"vehicle_type_id":"4","last_reported":1762535357,"current_range_meters":10800,"station_id":"ce4bh292rcd13ifvqdg0","pricing_plan_id":"cebpf4jnsgd1na2vs0mg"},{"bike_id":"66811b94-65c3-4892-bfb5-8696f741a32e","system_id":"levelo_inurba_marseille","lat":43.2481,"lon":5.37462,"is_reserved":false,"is_disabled":false,"rental_uris":{"android":"levelo://app?vid=66811b94-65c3-4892-bfb5-8696f741a32e","ios":"levelo://app?vid=66811b94-65c3-4892-bfb5-8696f741a32e"},"vehicle_type_id":"4","last_reported":1762535357,"current_range_meters":10800,"station_id":"ce4bhgh2rcd13ifvqfb0","pricing_plan_id":"cebpf4jnsgd1na2vs0mg"},{"bike_id":"e29dcacd-c5cb-4908-af39-1ab6b3c10bce","system_id":"levelo_inurba_marseille","lat":43.28107,"lon":5.37848,"is_reserved":false,"is_disabled":false,"rental_uris":{"android":"levelo://app?vid=e29dcacd-c5cb-4908-af39-1ab6b3c10bce","ios":"levelo://app?vid=e29dcacd-c5cb-4908-af39-1ab6b3c10bce"},"vehicle_type_id":"4","last_reported":1762535357,"current_range_meters":10800,"station_id":"ce4bha12rcd13ifvqee0","pricing_plan_id":"cebpf4jnsgd1na2vs0mg"},{"bike_id":"5bee8f0f-57fe-4257-a72a-04a4967570b5","system_id":"levelo_inurba_marseille","lat":43.30035,"lon":5.37744,"is_reserved":false,"is_disabled":false,"rental_uris":{"android":"levelo://app?vid=5bee8f0f-57fe-4257-a72a-04a4967570b5","ios":"levelo://app?vid=5bee8f0f-57fe-4257-a72a-04a4967570b5"},"vehicle_type_id":"4","last_reported":1762535357,"current_range_meters":10800,"station_id":"","pricing_plan_id":"cebpf4jnsgd1na2vs0mg"},{"bike_id":"44e36360-d061-440e-b0d6-255fd67b5d23","system_id":"levelo_inurba_marseille","lat":43.28361,"lon":5.38629,"is_reserved":false,"is_disabled":false,"rental_uris":{"android":"levelo://app?vid=44e36360-d061-440e-b0d6-255fd67b5d23","ios":"levelo://app?vid=44e36360-d061-440e-b0d6-255fd67b5d23"},"vehicle_type_id":"4","last_reported":1762535357,"current_range_meters":11200,"station_id":"ce4bh492rcd13ifvqdvg","pricing_plan_id":"cebpf4jnsgd1na2vs0mg"},{"bike_id":"ff52e6d2-0126-428b-8241-f19a2cd5a014","system_id":"levelo_inurba_marseille","lat":43.26934,"lon":5.38652,"is_reserved":false,"is_disabled":true,"rental_uris":{"android":"levelo://app?vid=ff52e6d2-0126-428b-8241-f19a2cd5a014","ios":"levelo://app?vid=ff52e6d2-0126-428b-8241-f19a2cd5a014"},"vehicle_type_id":"4","last_reported":1762535357,"current_range_meters":11200,"station_id":"ce4bhh92rcd13ifvqfh0","pricing_plan_id":"cebpf4jnsgd1na2vs0mg"},{"bike_id":"b92ef6a4-e35d-43ac-b3c3-437188c3a722","system_id":"levelo_inurba_marseille","lat":43.301247,"lon":5.398701,"is_reserved":false,"is_disabled":false,"rental_uris":{"android":"levelo://app?vid=b92ef6a4-e35d-43ac-b3c3-437188c3a722","ios":"levelo://app?vid=b92ef6a4-e35d-43ac-b3c3-437188c3a722"},"vehicle_type_id":"4","last_reported":1762535357,"current_range_meters":11200,"station_id":"ce4bh0h2rcd13ifvqd40","pricing_plan_id":"cebpf4jnsgd1na2vs0mg"},{"bike_id":"c5314265-d092-4053-b77f-6f1290d89c2b","system_id":"levelo_inurba_marseille","lat":43.30541,"lon":5.36736,"is_reserved":false,"is_disabled":false,"rental_uris":{"android":"levelo://app?vid=c5314265-d092-4053-b77f-6f1290d89c2b","ios":"levelo://app?vid=c5314265-d092-4053-b77f-6f1290d89c2b"},"vehicle_type_id":"4","last_reported":1762535357,"current_range_meters":11200,"station_id":"ce4bgrp2rcd13ifvqc9g","pricing_plan_id":"cebpf4jnsgd1na2vs0mg"},{"bike_id":"bf54311a-6347-4b36-aaaf-ce1a0ecc323a","system_id":"levelo_inurba_marseille","lat":43.24176,"lon":5.364,"is_reserved":false,"is_disabled":false,"rental_uris":{"android":"levelo://app?vid=bf54311a-6347-4b36-aaaf-ce1a0ecc323a","ios":"levelo://app?vid=bf54311a-6347-4b36-aaaf-ce1a0ecc323a"},"vehicle_type_id":"4","last_reported":1762535357,"current_range_meters":11200,"station_id":"cpo36qri1sfpv3e86is0","pricing_plan_id":"cebpf4jnsgd1na2vs0mg"},{"bike_id":"c541d6c6-d855-480d-9416-ad1e26b18f93","system_id":"levelo_inurba_marseille","lat":43.29501,"lon":5.39412,"is_reserved":false,"is_disabled":true,"rental_uris":{"android":"levelo://app?vid=c541d6c6-d855-480d-9416-ad1e26b18f93","ios":"levelo://app?vid=c541d6c6-d855-480d-9416-ad1e26b18f93"},"vehicle_type_id":"4","last_reported":1762535357,"current_range_meters":11200,"station_id":"ce4bh292rcd13ifvqdf0","pricing_plan_id":"cebpf4jnsgd1na2vs0mg"},{"bike_id":"d66b0c5c-00d0-4818-85fe-1a64e31578bf","system_id":"levelo_inurba_marseille","lat":43.26058,"lon":5.39407,"is_reserved":false,"is_disabled":false,"rental_uris":{"android":"levelo://app?vid=d66b0c5c-00d0-4818-85fe-1a64e31578bf","ios":"levelo://app?vid=d66b0c5c-00d0-4818-85fe-1a64e31578bf"},"vehicle_type_id":"4","last_reported":1762535357,"current_range_meters":11200,"station_id":"ce4bhh92rcd13ifvqfj0","pricing_plan_id":"cebpf4jnsgd1na2vs0mg"},{"bike_id":"ed4b598a-d01a-4674-9ead-76ad5fc4abfc","system_id":"levelo_inurba_marseille","lat":43.30414,"lon":5.41283,"is_reserved":false,"is_disabled":true,"rental_uris":{"android":"levelo://app?vid=ed4b598a-d01a-4674-9ead-76ad5fc4abfc","ios":"levelo://app?vid=ed4b598a-d01a-4674-9ead-76ad5fc4abfc"},"vehicle_type_id":"4","last_reported":1762535357,"current_range_meters":11200,"station_id":"ce4bhop2rcd13ifvqh8g","pricing_plan_id":"cebpf4jnsgd1na2vs0mg"},{"bike_id":"4bdf9121-5a19-4791-97c1-7fd33bb46d50","system_id":"levelo_inurba_marseille","lat":43.27171,"lon":5.40998,"is_reserved":false,"is_disabled":false,"rental_uris":{"android":"levelo://app?vid=4bdf9121-5a19-4791-97c1-7fd33bb46d50","ios":"levelo://app?vid=4bdf9121-5a19-4791-97c1-7fd33bb46d50"},"vehicle_type_id":"4","last_reported":1762535357,"current_range_meters":11600,"station_id":"ce4bhl12rcd13ifvqgf0","pricing_plan_id":"cebpf4jnsgd1na2vs0mg"},{"bike_id":"91195dc3-7219-4139-a8eb-8e52bb6d271e","system_id":"levelo_inurba_marseille","lat":43.23185,"lon":5.35562,"is_reserved":false,"is_disabled":false,"rental_uris":{"android":"levelo://app?vid=91195dc3-7219-4139-a8eb-8e52bb6d271e","ios":"levelo://app?vid=91195dc3-7219-4139-a8eb-8e52bb6d271e"},"vehicle_type_id":"4","last_reported":1762535357,"current_range_meters":11600,"station_id":"ce4bhu92rcd13ifvqi70","pricing_plan_id":"cebpf4jnsgd1na2vs0mg"},{"bike_id":"ec44e195-cde1-4252-aadf-701a64256dd7","system_id":"levelo_inurba_marseille","lat":43.24617,"lon":5.43159,"is_reserved":false,"is_disabled":false,"rental_uris":{"android":"levelo://app?vid=ec44e195-cde1-4252-aadf-701a64256dd7","ios":"levelo://app?vid=ec44e195-cde1-4252-aadf-701a64256dd7"},"vehicle_type_id":"4","last_reported":1762535357,"current_range_meters":11600,"station_id":"st_d2m6c4gdas8pm72e190g","pricing_plan_id":"cebpf4jnsgd1na2vs0mg"},{"bike_id":"1633778c-45db-4c62-8566-32131e5804c4","system_id":"levelo_inurba_marseille","lat":43.31286,"lon":5.40166,"is_reserved":false,"is_disabled":false,"rental_uris":{"android":"levelo://app?vid=1633778c-45db-4c62-8566-32131e5804c4","ios":"levelo://app?vid=1633778c-45db-4c62-8566-32131e5804c4"},"vehicle_type_id":"4","last_reported":1762535357,"current_range_meters":11600,"station_id":"ce4bh092rcd13ifvqd30","pricing_plan_id":"cebpf4jnsgd1na2vs0mg"},{"bike_id":"76d2fdcd-05cf-4257-981b-16f4e01c92d4","system_id":"levelo_inurba_marseille","lat":43.295283,"lon":5.38527,"is_reserved":false,"is_disabled":false,"rental_uris":{"android":"levelo://app?vid=76d2fdcd-05cf-4257-981b-16f4e01c92d4","ios":"levelo://app?vid=76d2fdcd-05cf-4257-981b-16f4e01c92d4"},"vehicle_type_id":"4","last_reported":1762535357,"current_range_meters":12000,"station_id":"ce4bgih2rcd13ifvqba0","pricing_plan_id":"cebpf4jnsgd1na2vs0mg"},{"bike_id":"06d8a6d4-cde1-4774-80e5-91004a4fe543","system_id":"levelo_inurba_marseille","lat":43.29848,"lon":5.36273,"is_reserved":false,"is_disabled":false,"rental_uris":{"android":"levelo://app?vid=06d8a6d4-cde1-4774-80e5-91004a4fe543","ios":"levelo://app?vid=06d8a6d4-cde1-4774-80e5-91004a4fe543"},"vehicle_type_id":"4","last_reported":1762535357,"current_range_meters":12000,"station_id":"ce4bgpp2rcd13ifvqc3g","pricing_plan_id":"cebpf4jnsgd1na2vs0mg"},{"bike_id":"470fbe84-4292-424a-81a1-ddc5d0fc9959","system_id":"levelo_inurba_marseille","lat":43.33771,"lon":5.37432,"is_reserved":false,"is_disabled":false,"rental_uris":{"android":"levelo://app?vid=470fbe84-4292-424a-81a1-ddc5d0fc9959","ios":"levelo://app?vid=470fbe84-4292-424a-81a1-ddc5d0fc9959"},"vehicle_type_id":"4","last_reported":1762535357,"current_range_meters":12000,"station_id":"","pricing_plan_id":"cebpf4jnsgd1na2vs0mg"},{"bike_id":"0c4558c0-43a0-477f-9bac-57ecfc00e348","system_id":"levelo_inurba_marseille","lat":43.301307,"lon":5.398663,"is_reserved":false,"is_disabled":false,"rental_uris":{"android":"levelo://app?vid=0c4558c0-43a0-477f-9bac-57ecfc00e348","ios":"levelo://app?vid=0c4558c0-43a0-477f-9bac-57ecfc00e348"},"vehicle_type_id":"4","last_reported":1762535357,"current_range_meters":12000,"station_id":"ce4bh0h2rcd13ifvqd40","pricing_plan_id":"cebpf4jnsgd1na2vs0mg"},{"bike_id":"47b9271a-b6b1-425b-9228-6cd1931949e7","system_id":"levelo_inurba_marseille","lat":43.29777,"lon":5.37105,"is_reserved":false,"is_disabled":false,"rental_uris":{"android":"levelo://app?vid=47b9271a-b6b1-425b-9228-6cd1931949e7","ios":"levelo://app?vid=47b9271a-b6b1-425b-9228-6cd1931949e7"},"vehicle_type_id":"4","last_reported":1762535357,"current_range_meters":12000,"station_id":"ce4bgop2rcd13ifvqc1g","pricing_plan_id":"cebpf4jnsgd1na2vs0mg"},{"bike_id":"2214147d-b2bc-47a5-8262-b29a2f3cbd90","system_id":"levelo_inurba_marseille","lat":43.28854,"lon":5.4252,"is_reserved":false,"is_disabled":false,"rental_uris":{"android":"levelo://app?vid=2214147d-b2bc-47a5-8262-b29a2f3cbd90","ios":"levelo://app?vid=2214147d-b2bc-47a5-8262-b29a2f3cbd90"},"vehicle_type_id":"4","last_reported":1762535357,"current_range_meters":12000,"station_id":"st_d3b462108ojc7389ooeg","pricing_plan_id":"cebpf4jnsgd1na2vs0mg"},{"bike_id":"1163662a-59d3-4106-af0e-1e2d8bb82520","system_id":"levelo_inurba_marseille","lat":43.24994,"lon":5.3892,"is_reserved":false,"is_disabled":false,"rental_uris":{"android":"levelo://app?vid=1163662a-59d3-4106-af0e-1e2d8bb82520","ios":"levelo://app?vid=1163662a-59d3-4106-af0e-1e2d8bb82520"},"vehicle_type_id":"4","last_reported":1762535357,"current_range_meters":12000,"station_id":"ce4bhgp2rcd13ifvqfd0","pricing_plan_id":"cebpf4jnsgd1na2vs0mg"},{"bike_id":"2e0f5b64-65ed-42b3-9deb-fc4f03eedfcc","system_id":"levelo_inurba_marseille","lat":43.28531,"lon":5.44106,"is_reserved":false,"is_disabled":false,"rental_uris":{"android":"levelo://app?vid=2e0f5b64-65ed-42b3-9deb-fc4f03eedfcc","ios":"levelo://app?vid=2e0f5b64-65ed-42b3-9deb-fc4f03eedfcc"},"vehicle_type_id":"4","last_reported":1762535357,"current_range_meters":12000,"station_id":"st_d3j3df2ikq2c7380ej80","pricing_plan_id":"cebpf4jnsgd1na2vs0mg"},{"bike_id":"f5301eae-a92e-4c31-9865-efb02c2c624e","system_id":"levelo_inurba_marseille","lat":43.255803,"lon":5.382269,"is_reserved":false,"is_disabled":false,"rental_uris":{"android":"levelo://app?vid=f5301eae-a92e-4c31-9865-efb02c2c624e","ios":"levelo://app?vid=f5301eae-a92e-4c31-9865-efb02c2c624e"},"vehicle_type_id":"4","last_reported":1762535357,"current_range_meters":12000,"station_id":"ce4bhih2rcd13ifvqfs0","pricing_plan_id":"cebpf4jnsgd1na2vs0mg"},{"bike_id":"9fb4c85b-b944-4739-883c-9c9af0aa5a74","system_id":"levelo_inurba_marseille","lat":43.2464,"lon":5.43144,"is_reserved":false,"is_disabled":false,"rental_uris":{"android":"levelo://app?vid=9fb4c85b-b944-4739-883c-9c9af0aa5a74","ios":"levelo://app?vid=9fb4c85b-b944-4739-883c-9c9af0aa5a74"},"vehicle_type_id":"4","last_reported":1762535357,"current_range_meters":12400,"station_id":"st_d2m6c4gdas8pm72e190g","pricing_plan_id":"cebpf4jnsgd1na2vs0mg"},{"bike_id":"0a17fef9-a73a-46e5-a85e-7685794e7303","system_id":"levelo_inurba_marseille","lat":43.30122,"lon":5.39879,"is_reserved":false,"is_disabled":false,"rental_uris":{"android":"levelo://app?vid=0a17fef9-a73a-46e5-a85e-7685794e7303","ios":"levelo://app?vid=0a17fef9-a73a-46e5-a85e-7685794e7303"},"vehicle_type_id":"4","last_reported":1762535357,"current_range_meters":12400,"station_id":"ce4bh0h2rcd13ifvqd40","pricing_plan_id":"cebpf4jnsgd1na2vs0mg"},{"bike_id":"23d4b732-c785-4a74-a220-93191f06591d","system_id":"levelo_inurba_marseille","lat":43.21171,"lon":5.35095,"is_reserved":false,"is_disabled":true,"rental_uris":{"android":"levelo://app?vid=23d4b732-c785-4a74-a220-93191f06591d","ios":"levelo://app?vid=23d4b732-c785-4a74-a220-93191f06591d"},"vehicle_type_id":"4","last_reported":1762535357,"current_range_meters":12400,"station_id":"st_cvj6sg6p6f1abm77japg","pricing_plan_id":"cebpf4jnsgd1na2vs0mg"},{"bike_id":"2c54771e-bc90-4fcb-a7c7-984aebd4a9b2","system_id":"levelo_inurba_marseille","lat":43.30139,"lon":5.38784,"is_reserved":false,"is_disabled":false,"rental_uris":{"android":"levelo://app?vid=2c54771e-bc90-4fcb-a7c7-984aebd4a9b2","ios":"levelo://app?vid=2c54771e-bc90-4fcb-a7c7-984aebd4a9b2"},"vehicle_type_id":"4","last_reported":1762535357,"current_range_meters":12800,"station_id":"ce4bghh2rcd13ifvqb60","pricing_plan_id":"cebpf4jnsgd1na2vs0mg"},{"bike_id":"7c392732-2900-41fd-8c6d-e5b49cdf67b5","system_id":"levelo_inurba_marseille","lat":43.29687,"lon":5.38274,"is_reserved":false,"is_disabled":false,"rental_uris":{"android":"levelo://app?vid=7c392732-2900-41fd-8c6d-e5b49cdf67b5","ios":"levelo://app?vid=7c392732-2900-41fd-8c6d-e5b49cdf67b5"},"vehicle_type_id":"4","last_reported":1762535357,"current_range_meters":12800,"station_id":"","pricing_plan_id":"cebpf4jnsgd1na2vs0mg"},{"bike_id":"1709c930-df0b-4c2d-bb34-65c57935caf7","system_id":"levelo_inurba_marseille","lat":43.23182,"lon":5.39994,"is_reserved":false,"is_disabled":false,"rental_uris":{"android":"levelo://app?vid=1709c930-df0b-4c2d-bb34-65c57935caf7","ios":"levelo://app?vid=1709c930-df0b-4c2d-bb34-65c57935caf7"},"vehicle_type_id":"4","last_reported":1762535357,"current_range_meters":13600,"station_id":"ce4bhn12rcd13ifvqgqg","pricing_plan_id":"cebpf4jnsgd1na2vs0mg"},{"bike_id":"3a6b939b-8483-4a00-8652-d825cdd856d7","system_id":"levelo_inurba_marseille","lat":43.22552,"lon":5.41637,"is_reserved":false,"is_disabled":false,"rental_uris":{"android":"levelo://app?vid=3a6b939b-8483-4a00-8652-d825cdd856d7","ios":"levelo://app?vid=3a6b939b-8483-4a00-8652-d825cdd856d7"},"vehicle_type_id":"4","last_reported":1762535357,"current_range_meters":13600,"station_id":"st_d2o4gvlbi1j2169b742g","pricing_plan_id":"cebpf4jnsgd1na2vs0mg"},{"bike_id":"2b1af472-cee0-40b8-bdc9-29e7f49b67de","system_id":"levelo_inurba_marseille","lat":43.29534,"lon":5.37505,"is_reserved":false,"is_disabled":false,"rental_uris":{"android":"levelo://app?vid=2b1af472-cee0-40b8-bdc9-29e7f49b67de","ios":"levelo://app?vid=2b1af472-cee0-40b8-bdc9-29e7f49b67de"},"vehicle_type_id":"4","last_reported":1762535357,"current_range_meters":14000,"station_id":"ce4bgkp2rcd13ifvqbmg","pricing_plan_id":"cebpf4jnsgd1na2vs0mg"},{"bike_id":"a88522c2-7f31-460d-8b59-1c10109fed19","system_id":"levelo_inurba_marseille","lat":43.31436,"lon":5.37596,"is_reserved":false,"is_disabled":false,"rental_uris":{"android":"levelo://app?vid=a88522c2-7f31-460d-8b59-1c10109fed19","ios":"levelo://app?vid=a88522c2-7f31-460d-8b59-1c10109fed19"},"vehicle_type_id":"4","last_reported":1762535357,"current_range_meters":14000,"station_id":"","pricing_plan_id":"cebpf4jnsgd1na2vs0mg"},{"bike_id":"87cc4afb-c274-4386-b5ba-4bac3bda29af","system_id":"levelo_inurba_marseille","lat":43.32659,"lon":5.40994,"is_reserved":false,"is_disabled":false,"rental_uris":{"android":"levelo://app?vid=87cc4afb-c274-4386-b5ba-4bac3bda29af","ios":"levelo://app?vid=87cc4afb-c274-4386-b5ba-4bac3bda29af"},"vehicle_type_id":"4","last_reported":1762535357,"current_range_meters":14000,"station_id":"ce4bhpp2rcd13ifvqhgg","pricing_plan_id":"cebpf4jnsgd1na2vs0mg"},{"bike_id":"b5825cab-2182-4f43-a849-16484304073e","system_id":"levelo_inurba_marseille","lat":43.3135,"lon":5.38495,"is_reserved":false,"is_disabled":false,"rental_uris":{"android":"levelo://app?vid=b5825cab-2182-4f43-a849-16484304073e","ios":"levelo://app?vid=b5825cab-2182-4f43-a849-16484304073e"},"vehicle_type_id":"4","last_reported":1762535357,"current_range_meters":14000,"station_id":"ce4bgt92rcd13ifvqcf0","pricing_plan_id":"cebpf4jnsgd1na2vs0mg"},{"bike_id":"cf62a5e6-b353-4929-9723-31c47a0486da","system_id":"levelo_inurba_marseille","lat":43.29532,"lon":5.38544,"is_reserved":false,"is_disabled":false,"rental_uris":{"android":"levelo://app?vid=cf62a5e6-b353-4929-9723-31c47a0486da","ios":"levelo://app?vid=cf62a5e6-b353-4929-9723-31c47a0486da"},"vehicle_type_id":"4","last_reported":1762535357,"current_range_meters":14000,"station_id":"ce4bgih2rcd13ifvqba0","pricing_plan_id":"cebpf4jnsgd1na2vs0mg"},{"bike_id":"a2ec98fc-774b-4d02-bdad-95c66553af49","system_id":"levelo_inurba_marseille","lat":43.31324,"lon":5.39703,"is_reserved":false,"is_disabled":false,"rental_uris":{"android":"levelo://app?vid=a2ec98fc-774b-4d02-bdad-95c66553af49","ios":"levelo://app?vid=a2ec98fc-774b-4d02-bdad-95c66553af49"},"vehicle_type_id":"4","last_reported":1762535357,"current_range_meters":14000,"station_id":"ce4bgvp2rcd13ifvqcu0","pricing_plan_id":"cebpf4jnsgd1na2vs0mg"},{"bike_id":"d3b4e889-2f05-45b2-9dd0-7fb023001a62","system_id":"levelo_inurba_marseille","lat":43.28986,"lon":5.3784,"is_reserved":false,"is_disabled":false,"rental_uris":{"android":"levelo://app?vid=d3b4e889-2f05-45b2-9dd0-7fb023001a62","ios":"levelo://app?vid=d3b4e889-2f05-45b2-9dd0-7fb023001a62"},"vehicle_type_id":"4","last_reported":1762535357,"current_range_meters":14000,"station_id":"ce4bh9p2rcd13ifvqed0","pricing_plan_id":"cebpf4jnsgd1na2vs0mg"},{"bike_id":"310115a0-7bf2-4a4a-9d53-56bf6918e4d0","system_id":"levelo_inurba_marseille","lat":43.2848,"lon":5.48412,"is_reserved":false,"is_disabled":false,"rental_uris":{"android":"levelo://app?vid=310115a0-7bf2-4a4a-9d53-56bf6918e4d0","ios":"levelo://app?vid=310115a0-7bf2-4a4a-9d53-56bf6918e4d0"},"vehicle_type_id":"4","last_reported":1762535357,"current_range_meters":14400,"station_id":"st_d3svhcjqgbts73a3dn0g","pricing_plan_id":"cebpf4jnsgd1na2vs0mg"},{"bike_id":"05c639a2-6660-40ed-a12f-85b485fe188e","system_id":"levelo_inurba_marseille","lat":43.29199,"lon":5.35788,"is_reserved":false,"is_disabled":false,"rental_uris":{"android":"levelo://app?vid=05c639a2-6660-40ed-a12f-85b485fe188e","ios":"levelo://app?vid=05c639a2-6660-40ed-a12f-85b485fe188e"},"vehicle_type_id":"4","last_reported":1762535357,"current_range_meters":14400,"station_id":"ce4bhb12rcd13ifvqel0","pricing_plan_id":"cebpf4jnsgd1na2vs0mg"},{"bike_id":"3771f242-ebc1-4678-84d4-230be10e9f54","system_id":"levelo_inurba_marseille","lat":43.25333,"lon":5.42166,"is_reserved":false,"is_disabled":false,"rental_uris":{"android":"levelo://app?vid=3771f242-ebc1-4678-84d4-230be10e9f54","ios":"levelo://app?vid=3771f242-ebc1-4678-84d4-230be10e9f54"},"vehicle_type_id":"4","last_reported":1762535357,"current_range_meters":14400,"station_id":"st_d2m65c5bi1j21697t3ng","pricing_plan_id":"cebpf4jnsgd1na2vs0mg"},{"bike_id":"43cfab9e-f547-4304-9999-4a8329474751","system_id":"levelo_inurba_marseille","lat":43.21193,"lon":5.3509,"is_reserved":false,"is_disabled":false,"rental_uris":{"android":"levelo://app?vid=43cfab9e-f547-4304-9999-4a8329474751","ios":"levelo://app?vid=43cfab9e-f547-4304-9999-4a8329474751"},"vehicle_type_id":"4","last_reported":1762535357,"current_range_meters":14400,"station_id":"st_cvj6sg6p6f1abm77japg","pricing_plan_id":"cebpf4jnsgd1na2vs0mg"},{"bike_id":"d1951152-2c2e-44b1-9f0b-144e8c517d79","system_id":"levelo_inurba_marseille","lat":43.295497,"lon":5.422873,"is_reserved":false,"is_disabled":false,"rental_uris":{"android":"levelo://app?vid=d1951152-2c2e-44b1-9f0b-144e8c517d79","ios":"levelo://app?vid=d1951152-2c2e-44b1-9f0b-144e8c517d79"},"vehicle_type_id":"4","last_reported":1762535357,"current_range_meters":14400,"station_id":"ce4bhph2rcd13ifvqhdg","pricing_plan_id":"cebpf4jnsgd1na2vs0mg"},{"bike_id":"42ce7b04-ca5b-4c33-8ef4-9b78feb2b2c4","system_id":"levelo_inurba_marseille","lat":43.24177,"lon":5.39736,"is_reserved":false,"is_disabled":false,"rental_uris":{"android":"levelo://app?vid=42ce7b04-ca5b-4c33-8ef4-9b78feb2b2c4","ios":"levelo://app?vid=42ce7b04-ca5b-4c33-8ef4-9b78feb2b2c4"},"vehicle_type_id":"4","last_reported":1762535357,"current_range_meters":14400,"station_id":"ce4bhn12rcd13ifvqgpg","pricing_plan_id":"cebpf4jnsgd1na2vs0mg"},{"bike_id":"401209f9-1098-407a-9275-182f209531f6","system_id":"levelo_inurba_marseille","lat":43.295475,"lon":5.422869,"is_reserved":false,"is_disabled":false,"rental_uris":{"android":"levelo://app?vid=401209f9-1098-407a-9275-182f209531f6","ios":"levelo://app?vid=401209f9-1098-407a-9275-182f209531f6"},"vehicle_type_id":"4","last_reported":1762535357,"current_range_meters":14400,"station_id":"ce4bhph2rcd13ifvqhdg","pricing_plan_id":"cebpf4jnsgd1na2vs0mg"},{"bike_id":"9e6799c6-2cfa-4fea-b0c7-399a5fa187b6","system_id":"levelo_inurba_marseille","lat":43.295258,"lon":5.385457,"is_reserved":false,"is_disabled":false,"rental_uris":{"android":"levelo://app?vid=9e6799c6-2cfa-4fea-b0c7-399a5fa187b6","ios":"levelo://app?vid=9e6799c6-2cfa-4fea-b0c7-399a5fa187b6"},"vehicle_type_id":"4","last_reported":1762535357,"current_range_meters":14800,"station_id":"ce4bgih2rcd13ifvqba0","pricing_plan_id":"cebpf4jnsgd1na2vs0mg"},{"bike_id":"fc486c89-7d88-46d3-88cf-53a023b3613b","system_id":"levelo_inurba_marseille","lat":43.27937,"lon":5.41049,"is_reserved":false,"is_disabled":false,"rental_uris":{"android":"levelo://app?vid=fc486c89-7d88-46d3-88cf-53a023b3613b","ios":"levelo://app?vid=fc486c89-7d88-46d3-88cf-53a023b3613b"},"vehicle_type_id":"4","last_reported":1762535357,"current_range_meters":14800,"station_id":"ce4bhnp2rcd13ifvqh0g","pricing_plan_id":"cebpf4jnsgd1na2vs0mg"},{"bike_id":"5546ebe7-8bff-47e9-852b-8b78932d268e","system_id":"levelo_inurba_marseille","lat":43.274931,"lon":5.424484,"is_reserved":false,"is_disabled":false,"rental_uris":{"android":"levelo://app?vid=5546ebe7-8bff-47e9-852b-8b78932d268e","ios":"levelo://app?vid=5546ebe7-8bff-47e9-852b-8b78932d268e"},"vehicle_type_id":"4","last_reported":1762535357,"current_range_meters":14800,"station_id":"ce4bhn92rcd13ifvqgrg","pricing_plan_id":"cebpf4jnsgd1na2vs0mg"},{"bike_id":"dff6b6ac-b7da-4e65-b854-fe9dc1ccc19c","system_id":"levelo_inurba_marseille","lat":43.32026,"lon":5.41577,"is_reserved":false,"is_disabled":true,"rental_uris":{"android":"levelo://app?vid=dff6b6ac-b7da-4e65-b854-fe9dc1ccc19c","ios":"levelo://app?vid=dff6b6ac-b7da-4e65-b854-fe9dc1ccc19c"},"vehicle_type_id":"4","last_reported":1762535357,"current_range_meters":14800,"station_id":"ce4bhq92rcd13ifvqhkg","pricing_plan_id":"cebpf4jnsgd1na2vs0mg"},{"bike_id":"78bd5f74-b07f-4aac-b566-26ecec6fd5df","system_id":"levelo_inurba_marseille","lat":43.30679,"lon":5.38055,"is_reserved":false,"is_disabled":false,"rental_uris":{"android":"levelo://app?vid=78bd5f74-b07f-4aac-b566-26ecec6fd5df","ios":"levelo://app?vid=78bd5f74-b07f-4aac-b566-26ecec6fd5df"},"vehicle_type_id":"4","last_reported":1762535357,"current_range_meters":14800,"station_id":"","pricing_plan_id":"cebpf4jnsgd1na2vs0mg"},{"bike_id":"0016e34f-f756-4adf-af78-952b8cd1f72b","system_id":"levelo_inurba_marseille","lat":43.23171,"lon":5.39994,"is_reserved":false,"is_disabled":false,"rental_uris":{"android":"levelo://app?vid=0016e34f-f756-4adf-af78-952b8cd1f72b","ios":"levelo://app?vid=0016e34f-f756-4adf-af78-952b8cd1f72b"},"vehicle_type_id":"4","last_reported":1762535357,"current_range_meters":14800,"station_id":"ce4bhn12rcd13ifvqgqg","pricing_plan_id":"cebpf4jnsgd1na2vs0mg"},{"bike_id":"4548bfb3-06f4-4b10-aaa4-465cca5b7e05","system_id":"levelo_inurba_marseille","lat":43.28539,"lon":5.44105,"is_reserved":false,"is_disabled":false,"rental_uris":{"android":"levelo://app?vid=4548bfb3-06f4-4b10-aaa4-465cca5b7e05","ios":"levelo://app?vid=4548bfb3-06f4-4b10-aaa4-465cca5b7e05"},"vehicle_type_id":"4","last_reported":1762535357,"current_range_meters":15200,"station_id":"st_d3j3df2ikq2c7380ej80","pricing_plan_id":"cebpf4jnsgd1na2vs0mg"},{"bike_id":"a35f5d94-3b00-480f-9c18-98b7ae735e71","system_id":"levelo_inurba_marseille","lat":43.23193,"lon":5.39982,"is_reserved":false,"is_disabled":false,"rental_uris":{"android":"levelo://app?vid=a35f5d94-3b00-480f-9c18-98b7ae735e71","ios":"levelo://app?vid=a35f5d94-3b00-480f-9c18-98b7ae735e71"},"vehicle_type_id":"4","last_reported":1762535357,"current_range_meters":15200,"station_id":"ce4bhn12rcd13ifvqgqg","pricing_plan_id":"cebpf4jnsgd1na2vs0mg"},{"bike_id":"05635a91-42a6-4fbc-bded-b41b1e062529","system_id":"levelo_inurba_marseille","lat":43.30915,"lon":5.39742,"is_reserved":false,"is_disabled":false,"rental_uris":{"android":"levelo://app?vid=05635a91-42a6-4fbc-bded-b41b1e062529","ios":"levelo://app?vid=05635a91-42a6-4fbc-bded-b41b1e062529"},"vehicle_type_id":"4","last_reported":1762535357,"current_range_meters":15200,"station_id":"","pricing_plan_id":"cebpf4jnsgd1na2vs0mg"},{"bike_id":"6a9ff29b-bc63-443d-8e34-bfb5d6ec6345","system_id":"levelo_inurba_marseille","lat":43.31269,"lon":5.401731,"is_reserved":false,"is_disabled":false,"rental_uris":{"android":"levelo://app?vid=6a9ff29b-bc63-443d-8e34-bfb5d6ec6345","ios":"levelo://app?vid=6a9ff29b-bc63-443d-8e34-bfb5d6ec6345"},"vehicle_type_id":"4","last_reported":1762535357,"current_range_meters":15200,"station_id":"ce4bh092rcd13ifvqd30","pricing_plan_id":"cebpf4jnsgd1na2vs0mg"},{"bike_id":"22918fb7-a391-4f35-8c21-8eb60e2ab03f","system_id":"levelo_inurba_marseille","lat":43.22551,"lon":5.41643,"is_reserved":false,"is_disabled":false,"rental_uris":{"android":"levelo://app?vid=22918fb7-a391-4f35-8c21-8eb60e2ab03f","ios":"levelo://app?vid=22918fb7-a391-4f35-8c21-8eb60e2ab03f"},"vehicle_type_id":"4","last_reported":1762535357,"current_range_meters":15200,"station_id":"st_d2o4gvlbi1j2169b742g","pricing_plan_id":"cebpf4jnsgd1na2vs0mg"},{"bike_id":"37e9d35d-f13f-4bac-98a6-f88d39b5a885","system_id":"levelo_inurba_marseille","lat":43.31272,"lon":5.40181,"is_reserved":false,"is_disabled":false,"rental_uris":{"android":"levelo://app?vid=37e9d35d-f13f-4bac-98a6-f88d39b5a885","ios":"levelo://app?vid=37e9d35d-f13f-4bac-98a6-f88d39b5a885"},"vehicle_type_id":"4","last_reported":1762535357,"current_range_meters":15200,"station_id":"ce4bh092rcd13ifvqd30","pricing_plan_id":"cebpf4jnsgd1na2vs0mg"},{"bike_id":"4f84fc1d-f995-4016-a23c-7053d6f7336e","system_id":"levelo_inurba_marseille","lat":43.33024,"lon":5.39046,"is_reserved":false,"is_disabled":false,"rental_uris":{"android":"levelo://app?vid=4f84fc1d-f995-4016-a23c-7053d6f7336e","ios":"levelo://app?vid=4f84fc1d-f995-4016-a23c-7053d6f7336e"},"vehicle_type_id":"4","last_reported":1762535357,"current_range_meters":15200,"station_id":"ce4bhr92rcd13ifvqhrg","pricing_plan_id":"cebpf4jnsgd1na2vs0mg"},{"bike_id":"edcb6bfd-4f07-4eda-8196-a0fd14539fbe","system_id":"levelo_inurba_marseille","lat":43.3266,"lon":5.40997,"is_reserved":false,"is_disabled":false,"rental_uris":{"android":"levelo://app?vid=edcb6bfd-4f07-4eda-8196-a0fd14539fbe","ios":"levelo://app?vid=edcb6bfd-4f07-4eda-8196-a0fd14539fbe"},"vehicle_type_id":"4","last_reported":1762535357,"current_range_meters":15200,"station_id":"ce4bhpp2rcd13ifvqhgg","pricing_plan_id":"cebpf4jnsgd1na2vs0mg"},{"bike_id":"95c3d466-1a3a-482c-9dff-d78e7e80ef04","system_id":"levelo_inurba_marseille","lat":43.295366,"lon":5.385422,"is_reserved":false,"is_disabled":false,"rental_uris":{"android":"levelo://app?vid=95c3d466-1a3a-482c-9dff-d78e7e80ef04","ios":"levelo://app?vid=95c3d466-1a3a-482c-9dff-d78e7e80ef04"},"vehicle_type_id":"4","last_reported":1762535357,"current_range_meters":15200,"station_id":"ce4bgih2rcd13ifvqba0","pricing_plan_id":"cebpf4jnsgd1na2vs0mg"},{"bike_id":"a91000b7-b54a-4dce-8174-991c1b9ac737","system_id":"levelo_inurba_marseille","lat":43.32364,"lon":5.38882,"is_reserved":false,"is_disabled":false,"rental_uris":{"android":"levelo://app?vid=a91000b7-b54a-4dce-8174-991c1b9ac737","ios":"levelo://app?vid=a91000b7-b54a-4dce-8174-991c1b9ac737"},"vehicle_type_id":"4","last_reported":1762535357,"current_range_meters":15200,"station_id":"ce4bhqp2rcd13ifvqhog","pricing_plan_id":"cebpf4jnsgd1na2vs0mg"},{"bike_id":"caa38e39-cdb7-44f9-99ca-f5d641a35d90","system_id":"levelo_inurba_marseille","lat":43.26501,"lon":5.39537,"is_reserved":false,"is_disabled":false,"rental_uris":{"android":"levelo://app?vid=caa38e39-cdb7-44f9-99ca-f5d641a35d90","ios":"levelo://app?vid=caa38e39-cdb7-44f9-99ca-f5d641a35d90"},"vehicle_type_id":"4","last_reported":1762535357,"current_range_meters":15200,"station_id":"ce4bhi12rcd13ifvqfq0","pricing_plan_id":"cebpf4jnsgd1na2vs0mg"},{"bike_id":"3df6bfda-db80-475a-88ab-b10a24ae6e4f","system_id":"levelo_inurba_marseille","lat":43.2317,"lon":5.3999,"is_reserved":false,"is_disabled":false,"rental_uris":{"android":"levelo://app?vid=3df6bfda-db80-475a-88ab-b10a24ae6e4f","ios":"levelo://app?vid=3df6bfda-db80-475a-88ab-b10a24ae6e4f"},"vehicle_type_id":"4","last_reported":1762535357,"current_range_meters":16000,"station_id":"ce4bhn12rcd13ifvqgqg","pricing_plan_id":"cebpf4jnsgd1na2vs0mg"},{"bike_id":"feefb0ea-ca22-412c-a9cb-6cefd3383f0c","system_id":"levelo_inurba_marseille","lat":43.29263,"lon":5.3763,"is_reserved":false,"is_disabled":false,"rental_uris":{"android":"levelo://app?vid=feefb0ea-ca22-412c-a9cb-6cefd3383f0c","ios":"levelo://app?vid=feefb0ea-ca22-412c-a9cb-6cefd3383f0c"},"vehicle_type_id":"4","last_reported":1762535357,"current_range_meters":16000,"station_id":"ce4bgi12rcd13ifvqb80","pricing_plan_id":"cebpf4jnsgd1na2vs0mg"},{"bike_id":"9af0687b-3e79-4e11-b844-dd239618aeba","system_id":"levelo_inurba_marseille","lat":43.2887,"lon":5.42522,"is_reserved":false,"is_disabled":false,"rental_uris":{"android":"levelo://app?vid=9af0687b-3e79-4e11-b844-dd239618aeba","ios":"levelo://app?vid=9af0687b-3e79-4e11-b844-dd239618aeba"},"vehicle_type_id":"4","last_reported":1762535357,"current_range_meters":16000,"station_id":"st_d3b462108ojc7389ooeg","pricing_plan_id":"cebpf4jnsgd1na2vs0mg"},{"bike_id":"cbaf6e70-be37-4c92-8bb7-677f9be0a37d","system_id":"levelo_inurba_marseille","lat":43.30112,"lon":5.43122,"is_reserved":false,"is_disabled":false,"rental_uris":{"android":"levelo://app?vid=cbaf6e70-be37-4c92-8bb7-677f9be0a37d","ios":"levelo://app?vid=cbaf6e70-be37-4c92-8bb7-677f9be0a37d"},"vehicle_type_id":"4","last_reported":1762535357,"current_range_meters":16000,"station_id":"st_d3js3co5814s73ftftug","pricing_plan_id":"cebpf4jnsgd1na2vs0mg"},{"bike_id":"33fcdbb0-2f2f-418c-a9e2-8bfbd62dc3a5","system_id":"levelo_inurba_marseille","lat":43.3053,"lon":5.36716,"is_reserved":false,"is_disabled":false,"rental_uris":{"android":"levelo://app?vid=33fcdbb0-2f2f-418c-a9e2-8bfbd62dc3a5","ios":"levelo://app?vid=33fcdbb0-2f2f-418c-a9e2-8bfbd62dc3a5"},"vehicle_type_id":"4","last_reported":1762535357,"current_range_meters":16000,"station_id":"ce4bgrp2rcd13ifvqc9g","pricing_plan_id":"cebpf4jnsgd1na2vs0mg"},{"bike_id":"65d83eaf-428a-43cd-a356-ecaed95948ff","system_id":"levelo_inurba_marseille","lat":43.24845,"lon":5.39795,"is_reserved":false,"is_disabled":false,"rental_uris":{"android":"levelo://app?vid=65d83eaf-428a-43cd-a356-ecaed95948ff","ios":"levelo://app?vid=65d83eaf-428a-43cd-a356-ecaed95948ff"},"vehicle_type_id":"4","last_reported":1762535357,"current_range_meters":16400,"station_id":"","pricing_plan_id":"cebpf4jnsgd1na2vs0mg"},{"bike_id":"2f373a5f-e6e9-4abe-805d-f20b12d39ee9","system_id":"levelo_inurba_marseille","lat":43.24946,"lon":5.40495,"is_reserved":false,"is_disabled":false,"rental_uris":{"android":"levelo://app?vid=2f373a5f-e6e9-4abe-805d-f20b12d39ee9","ios":"levelo://app?vid=2f373a5f-e6e9-4abe-805d-f20b12d39ee9"},"vehicle_type_id":"4","last_reported":1762535357,"current_range_meters":16400,"station_id":"st_d2ngiaodas8pm72gd1h0","pricing_plan_id":"cebpf4jnsgd1na2vs0mg"},{"bike_id":"53529ee7-fa79-4bfe-8ac3-2ffb63a46b11","system_id":"levelo_inurba_marseille","lat":43.32746,"lon":5.40108,"is_reserved":false,"is_disabled":false,"rental_uris":{"android":"levelo://app?vid=53529ee7-fa79-4bfe-8ac3-2ffb63a46b11","ios":"levelo://app?vid=53529ee7-fa79-4bfe-8ac3-2ffb63a46b11"},"vehicle_type_id":"4","last_reported":1762535357,"current_range_meters":16400,"station_id":"","pricing_plan_id":"cebpf4jnsgd1na2vs0mg"},{"bike_id":"09dc458d-bdd2-43da-8bc1-041d33062f3e","system_id":"levelo_inurba_marseille","lat":43.30533,"lon":5.36723,"is_reserved":false,"is_disabled":false,"rental_uris":{"android":"levelo://app?vid=09dc458d-bdd2-43da-8bc1-041d33062f3e","ios":"levelo://app?vid=09dc458d-bdd2-43da-8bc1-041d33062f3e"},"vehicle_type_id":"4","last_reported":1762535357,"current_range_meters":16400,"station_id":"ce4bgrp2rcd13ifvqc9g","pricing_plan_id":"cebpf4jnsgd1na2vs0mg"},{"bike_id":"1bf477b3-55e6-4f59-a7a7-7034928d8403","system_id":"levelo_inurba_marseille","lat":43.25333,"lon":5.42171,"is_reserved":false,"is_disabled":false,"rental_uris":{"android":"levelo://app?vid=1bf477b3-55e6-4f59-a7a7-7034928d8403","ios":"levelo://app?vid=1bf477b3-55e6-4f59-a7a7-7034928d8403"},"vehicle_type_id":"4","last_reported":1762535357,"current_range_meters":16400,"station_id":"st_d2m65c5bi1j21697t3ng","pricing_plan_id":"cebpf4jnsgd1na2vs0mg"},{"bike_id":"b2938a50-d04f-4698-8a77-235a0c9cb699","system_id":"levelo_inurba_marseille","lat":43.31161,"lon":5.39382,"is_reserved":false,"is_disabled":false,"rental_uris":{"android":"levelo://app?vid=b2938a50-d04f-4698-8a77-235a0c9cb699","ios":"levelo://app?vid=b2938a50-d04f-4698-8a77-235a0c9cb699"},"vehicle_type_id":"4","last_reported":1762535357,"current_range_meters":16400,"station_id":"","pricing_plan_id":"cebpf4jnsgd1na2vs0mg"},{"bike_id":"fd403efa-2418-49e6-9b9b-faf96ca74b1d","system_id":"levelo_inurba_marseille","lat":43.25102,"lon":5.40321,"is_reserved":false,"is_disabled":false,"rental_uris":{"android":"levelo://app?vid=fd403efa-2418-49e6-9b9b-faf96ca74b1d","ios":"levelo://app?vid=fd403efa-2418-49e6-9b9b-faf96ca74b1d"},"vehicle_type_id":"4","last_reported":1762535357,"current_range_meters":16400,"station_id":"ce4bhlh2rcd13ifvqgig","pricing_plan_id":"cebpf4jnsgd1na2vs0mg"},{"bike_id":"1732a4f5-328a-4621-910f-5e3fe9dfbe91","system_id":"levelo_inurba_marseille","lat":43.2962,"lon":5.37165,"is_reserved":false,"is_disabled":false,"rental_uris":{"android":"levelo://app?vid=1732a4f5-328a-4621-910f-5e3fe9dfbe91","ios":"levelo://app?vid=1732a4f5-328a-4621-910f-5e3fe9dfbe91"},"vehicle_type_id":"4","last_reported":1762535357,"current_range_meters":16400,"station_id":"ce4bgnh2rcd13ifvqc0g","pricing_plan_id":"cebpf4jnsgd1na2vs0mg"},{"bike_id":"4a455362-a1ad-473d-8b6e-9efc8dd1be98","system_id":"levelo_inurba_marseille","lat":43.279505,"lon":5.410525,"is_reserved":false,"is_disabled":false,"rental_uris":{"android":"levelo://app?vid=4a455362-a1ad-473d-8b6e-9efc8dd1be98","ios":"levelo://app?vid=4a455362-a1ad-473d-8b6e-9efc8dd1be98"},"vehicle_type_id":"4","last_reported":1762535357,"current_range_meters":16400,"station_id":"ce4bhnp2rcd13ifvqh0g","pricing_plan_id":"cebpf4jnsgd1na2vs0mg"},{"bike_id":"d912dfcb-1b62-44db-81fe-a3a2a403f09d","system_id":"levelo_inurba_marseille","lat":43.29265,"lon":5.3844,"is_reserved":false,"is_disabled":false,"rental_uris":{"android":"levelo://app?vid=d912dfcb-1b62-44db-81fe-a3a2a403f09d","ios":"levelo://app?vid=d912dfcb-1b62-44db-81fe-a3a2a403f09d"},"vehicle_type_id":"4","last_reported":1762535357,"current_range_meters":16800,"station_id":"ce4bh692rcd13ifvqea0","pricing_plan_id":"cebpf4jnsgd1na2vs0mg"},{"bike_id":"0ff94a84-46fd-4352-866c-e134be757927","system_id":"levelo_inurba_marseille","lat":43.29525,"lon":5.38522,"is_reserved":false,"is_disabled":false,"rental_uris":{"android":"levelo://app?vid=0ff94a84-46fd-4352-866c-e134be757927","ios":"levelo://app?vid=0ff94a84-46fd-4352-866c-e134be757927"},"vehicle_type_id":"4","last_reported":1762535357,"current_range_meters":16800,"station_id":"ce4bgih2rcd13ifvqba0","pricing_plan_id":"cebpf4jnsgd1na2vs0mg"},{"bike_id":"0e0aa2de-4e73-4204-8a5a-8af46c537569","system_id":"levelo_inurba_marseille","lat":43.26948,"lon":5.38917,"is_reserved":false,"is_disabled":false,"rental_uris":{"android":"levelo://app?vid=0e0aa2de-4e73-4204-8a5a-8af46c537569","ios":"levelo://app?vid=0e0aa2de-4e73-4204-8a5a-8af46c537569"},"vehicle_type_id":"4","last_reported":1762535357,"current_range_meters":16800,"station_id":"ce4bhgp2rcd13ifvqfe0","pricing_plan_id":"cebpf4jnsgd1na2vs0mg"},{"bike_id":"46698b7d-6c4c-4218-bf0f-a42e405c9524","system_id":"levelo_inurba_marseille","lat":43.29527,"lon":5.38545,"is_reserved":false,"is_disabled":false,"rental_uris":{"android":"levelo://app?vid=46698b7d-6c4c-4218-bf0f-a42e405c9524","ios":"levelo://app?vid=46698b7d-6c4c-4218-bf0f-a42e405c9524"},"vehicle_type_id":"4","last_reported":1762535357,"current_range_meters":16800,"station_id":"ce4bgih2rcd13ifvqba0","pricing_plan_id":"cebpf4jnsgd1na2vs0mg"},{"bike_id":"baf0ba33-089f-45fc-a665-f42535d8d1be","system_id":"levelo_inurba_marseille","lat":43.30244,"lon":5.40074,"is_reserved":false,"is_disabled":false,"rental_uris":{"android":"levelo://app?vid=baf0ba33-089f-45fc-a665-f42535d8d1be","ios":"levelo://app?vid=baf0ba33-089f-45fc-a665-f42535d8d1be"},"vehicle_type_id":"4","last_reported":1762535357,"current_range_meters":16800,"station_id":"ce4bgvh2rcd13ifvqcs0","pricing_plan_id":"cebpf4jnsgd1na2vs0mg"},{"bike_id":"cc8d1b0b-54a8-4afe-b34a-74c51a8f3aff","system_id":"levelo_inurba_marseille","lat":43.29939,"lon":5.36567,"is_reserved":false,"is_disabled":false,"rental_uris":{"android":"levelo://app?vid=cc8d1b0b-54a8-4afe-b34a-74c51a8f3aff","ios":"levelo://app?vid=cc8d1b0b-54a8-4afe-b34a-74c51a8f3aff"},"vehicle_type_id":"4","last_reported":1762535357,"current_range_meters":16800,"station_id":"ce4bgm92rcd13ifvqbr0","pricing_plan_id":"cebpf4jnsgd1na2vs0mg"},{"bike_id":"00d880f8-12e2-4563-b6cf-31f68eeb0f6b","system_id":"levelo_inurba_marseille","lat":43.2902,"lon":5.38129,"is_reserved":false,"is_disabled":false,"rental_uris":{"android":"levelo://app?vid=00d880f8-12e2-4563-b6cf-31f68eeb0f6b","ios":"levelo://app?vid=00d880f8-12e2-4563-b6cf-31f68eeb0f6b"},"vehicle_type_id":"4","last_reported":1762535357,"current_range_meters":16800,"station_id":"ce4bh512rcd13ifvqe3g","pricing_plan_id":"cebpf4jnsgd1na2vs0mg"},{"bike_id":"a718cc29-6f54-49e3-862a-351d7a32001f","system_id":"levelo_inurba_marseille","lat":43.28475,"lon":5.48402,"is_reserved":false,"is_disabled":false,"rental_uris":{"android":"levelo://app?vid=a718cc29-6f54-49e3-862a-351d7a32001f","ios":"levelo://app?vid=a718cc29-6f54-49e3-862a-351d7a32001f"},"vehicle_type_id":"4","last_reported":1762535357,"current_range_meters":16800,"station_id":"","pricing_plan_id":"cebpf4jnsgd1na2vs0mg"},{"bike_id":"cad465f2-d52e-45c3-abc3-031080153343","system_id":"levelo_inurba_marseille","lat":43.311667,"lon":5.387129,"is_reserved":false,"is_disabled":false,"rental_uris":{"android":"levelo://app?vid=cad465f2-d52e-45c3-abc3-031080153343","ios":"levelo://app?vid=cad465f2-d52e-45c3-abc3-031080153343"},"vehicle_type_id":"4","last_reported":1762535357,"current_range_meters":17200,"station_id":"ce4bgv12rcd13ifvqcp0","pricing_plan_id":"cebpf4jnsgd1na2vs0mg"},{"bike_id":"aa9c833c-a88b-44d6-86f4-eb0cb2fd0ae5","system_id":"levelo_inurba_marseille","lat":43.29443,"lon":5.3976,"is_reserved":false,"is_disabled":false,"rental_uris":{"android":"levelo://app?vid=aa9c833c-a88b-44d6-86f4-eb0cb2fd0ae5","ios":"levelo://app?vid=aa9c833c-a88b-44d6-86f4-eb0cb2fd0ae5"},"vehicle_type_id":"4","last_reported":1762535357,"current_range_meters":17200,"station_id":"ce4bh3h2rcd13ifvqdo0","pricing_plan_id":"cebpf4jnsgd1na2vs0mg"},{"bike_id":"c448769d-72a1-4a2a-80b2-791ccf525608","system_id":"levelo_inurba_marseille","lat":43.25709,"lon":5.41116,"is_reserved":false,"is_disabled":false,"rental_uris":{"android":"levelo://app?vid=c448769d-72a1-4a2a-80b2-791ccf525608","ios":"levelo://app?vid=c448769d-72a1-4a2a-80b2-791ccf525608"},"vehicle_type_id":"4","last_reported":1762535357,"current_range_meters":17200,"station_id":"ce4bhkp2rcd13ifvqgd0","pricing_plan_id":"cebpf4jnsgd1na2vs0mg"},{"bike_id":"51373154-0940-491f-a90a-44e9dee7b149","system_id":"levelo_inurba_marseille","lat":43.29251,"lon":5.38447,"is_reserved":false,"is_disabled":false,"rental_uris":{"android":"levelo://app?vid=51373154-0940-491f-a90a-44e9dee7b149","ios":"levelo://app?vid=51373154-0940-491f-a90a-44e9dee7b149"},"vehicle_type_id":"4","last_reported":1762535357,"current_range_meters":17200,"station_id":"ce4bh692rcd13ifvqea0","pricing_plan_id":"cebpf4jnsgd1na2vs0mg"},{"bike_id":"4aadc1d9-ba43-4b92-a5cd-e66ee29250dd","system_id":"levelo_inurba_marseille","lat":43.27196,"lon":5.39192,"is_reserved":false,"is_disabled":true,"rental_uris":{"android":"levelo://app?vid=4aadc1d9-ba43-4b92-a5cd-e66ee29250dd","ios":"levelo://app?vid=4aadc1d9-ba43-4b92-a5cd-e66ee29250dd"},"vehicle_type_id":"4","last_reported":1762535357,"current_range_meters":17200,"station_id":"ce4bhhp2rcd13ifvqfm0","pricing_plan_id":"cebpf4jnsgd1na2vs0mg"},{"bike_id":"75d7dc47-dceb-471d-8668-ef13189f4f02","system_id":"levelo_inurba_marseille","lat":43.32361,"lon":5.36743,"is_reserved":false,"is_disabled":false,"rental_uris":{"android":"levelo://app?vid=75d7dc47-dceb-471d-8668-ef13189f4f02","ios":"levelo://app?vid=75d7dc47-dceb-471d-8668-ef13189f4f02"},"vehicle_type_id":"4","last_reported":1762535357,"current_range_meters":17200,"station_id":"ce4bhsh2rcd13ifvqi2g","pricing_plan_id":"cebpf4jnsgd1na2vs0mg"},{"bike_id":"7c6ea6d1-2010-41c4-837d-28cbafdf9295","system_id":"levelo_inurba_marseille","lat":43.28077,"lon":5.39657,"is_reserved":false,"is_disabled":false,"rental_uris":{"android":"levelo://app?vid=7c6ea6d1-2010-41c4-837d-28cbafdf9295","ios":"levelo://app?vid=7c6ea6d1-2010-41c4-837d-28cbafdf9295"},"vehicle_type_id":"4","last_reported":1762535357,"current_range_meters":17200,"station_id":"ce4bho12rcd13ifvqh2g","pricing_plan_id":"cebpf4jnsgd1na2vs0mg"},{"bike_id":"74bb8ce2-1ec5-4414-94bf-bc4889d1e14c","system_id":"levelo_inurba_marseille","lat":43.32473,"lon":5.39544,"is_reserved":false,"is_disabled":false,"rental_uris":{"android":"levelo://app?vid=74bb8ce2-1ec5-4414-94bf-bc4889d1e14c","ios":"levelo://app?vid=74bb8ce2-1ec5-4414-94bf-bc4889d1e14c"},"vehicle_type_id":"4","last_reported":1762535357,"current_range_meters":17200,"station_id":"","pricing_plan_id":"cebpf4jnsgd1na2vs0mg"},{"bike_id":"1e76495d-9292-4032-8b62-8cc9bf2343ac","system_id":"levelo_inurba_marseille","lat":43.305426,"lon":5.365465,"is_reserved":false,"is_disabled":false,"rental_uris":{"android":"levelo://app?vid=1e76495d-9292-4032-8b62-8cc9bf2343ac","ios":"levelo://app?vid=1e76495d-9292-4032-8b62-8cc9bf2343ac"},"vehicle_type_id":"4","last_reported":1762535357,"current_range_meters":17600,"station_id":"ce4bgs12rcd13ifvqcag","pricing_plan_id":"cebpf4jnsgd1na2vs0mg"},{"bike_id":"9bbd6843-ba0a-4b3b-87d8-bca2c27f36b7","system_id":"levelo_inurba_marseille","lat":43.27562,"lon":5.3841,"is_reserved":false,"is_disabled":false,"rental_uris":{"android":"levelo://app?vid=9bbd6843-ba0a-4b3b-87d8-bca2c27f36b7","ios":"levelo://app?vid=9bbd6843-ba0a-4b3b-87d8-bca2c27f36b7"},"vehicle_type_id":"4","last_reported":1762535357,"current_range_meters":17600,"station_id":"ce4bhh92rcd13ifvqfi0","pricing_plan_id":"cebpf4jnsgd1na2vs0mg"},{"bike_id":"64a7e14c-46d0-4d8c-91f0-19fb7c8ad288","system_id":"levelo_inurba_marseille","lat":43.305605,"lon":5.36711,"is_reserved":false,"is_disabled":true,"rental_uris":{"android":"levelo://app?vid=64a7e14c-46d0-4d8c-91f0-19fb7c8ad288","ios":"levelo://app?vid=64a7e14c-46d0-4d8c-91f0-19fb7c8ad288"},"vehicle_type_id":"4","last_reported":1762535357,"current_range_meters":17600,"station_id":"ce4bgrp2rcd13ifvqc9g","pricing_plan_id":"cebpf4jnsgd1na2vs0mg"},{"bike_id":"2c601832-3ad7-45cf-8c15-9179e9fef797","system_id":"levelo_inurba_marseille","lat":43.29851,"lon":5.36278,"is_reserved":false,"is_disabled":false,"rental_uris":{"android":"levelo://app?vid=2c601832-3ad7-45cf-8c15-9179e9fef797","ios":"levelo://app?vid=2c601832-3ad7-45cf-8c15-9179e9fef797"},"vehicle_type_id":"4","last_reported":1762535357,"current_range_meters":17600,"station_id":"ce4bgpp2rcd13ifvqc3g","pricing_plan_id":"cebpf4jnsgd1na2vs0mg"},{"bike_id":"c508dfa6-c4b6-4cea-a4ec-947e346a8310","system_id":"levelo_inurba_marseille","lat":43.33607,"lon":5.40997,"is_reserved":false,"is_disabled":true,"rental_uris":{"android":"levelo://app?vid=c508dfa6-c4b6-4cea-a4ec-947e346a8310","ios":"levelo://app?vid=c508dfa6-c4b6-4cea-a4ec-947e346a8310"},"vehicle_type_id":"4","last_reported":1762535357,"current_range_meters":17600,"station_id":"ce4bhqh2rcd13ifvqhmg","pricing_plan_id":"cebpf4jnsgd1na2vs0mg"},{"bike_id":"5c9dfb6b-70a0-4f7e-ad9b-662ca1209153","system_id":"levelo_inurba_marseille","lat":43.25334,"lon":5.42178,"is_reserved":false,"is_disabled":false,"rental_uris":{"android":"levelo://app?vid=5c9dfb6b-70a0-4f7e-ad9b-662ca1209153","ios":"levelo://app?vid=5c9dfb6b-70a0-4f7e-ad9b-662ca1209153"},"vehicle_type_id":"4","last_reported":1762535357,"current_range_meters":17600,"station_id":"st_d2m65c5bi1j21697t3ng","pricing_plan_id":"cebpf4jnsgd1na2vs0mg"},{"bike_id":"86eb639d-6e69-45fc-a7c8-87aa321cbed3","system_id":"levelo_inurba_marseille","lat":43.296169,"lon":5.371608,"is_reserved":false,"is_disabled":false,"rental_uris":{"android":"levelo://app?vid=86eb639d-6e69-45fc-a7c8-87aa321cbed3","ios":"levelo://app?vid=86eb639d-6e69-45fc-a7c8-87aa321cbed3"},"vehicle_type_id":"4","last_reported":1762535357,"current_range_meters":17600,"station_id":"ce4bgs92rcd13ifvqcc0","pricing_plan_id":"cebpf4jnsgd1na2vs0mg"},{"bike_id":"3fa5a410-a934-45f2-98aa-3e192907514a","system_id":"levelo_inurba_marseille","lat":43.25333,"lon":5.42175,"is_reserved":false,"is_disabled":false,"rental_uris":{"android":"levelo://app?vid=3fa5a410-a934-45f2-98aa-3e192907514a","ios":"levelo://app?vid=3fa5a410-a934-45f2-98aa-3e192907514a"},"vehicle_type_id":"4","last_reported":1762535357,"current_range_meters":17600,"station_id":"st_d2m65c5bi1j21697t3ng","pricing_plan_id":"cebpf4jnsgd1na2vs0mg"},{"bike_id":"d7cfe67c-1472-4405-b999-54cffd45c1ca","system_id":"levelo_inurba_marseille","lat":43.29194,"lon":5.39328,"is_reserved":false,"is_disabled":false,"rental_uris":{"android":"levelo://app?vid=d7cfe67c-1472-4405-b999-54cffd45c1ca","ios":"levelo://app?vid=d7cfe67c-1472-4405-b999-54cffd45c1ca"},"vehicle_type_id":"4","last_reported":1762535357,"current_range_meters":18000,"station_id":"ce4bh192rcd13ifvqdd0","pricing_plan_id":"cebpf4jnsgd1na2vs0mg"},{"bike_id":"27273602-381b-4c7a-b083-830f6581fea4","system_id":"levelo_inurba_marseille","lat":43.26563,"lon":5.39013,"is_reserved":false,"is_disabled":false,"rental_uris":{"android":"levelo://app?vid=27273602-381b-4c7a-b083-830f6581fea4","ios":"levelo://app?vid=27273602-381b-4c7a-b083-830f6581fea4"},"vehicle_type_id":"4","last_reported":1762535357,"current_range_meters":18000,"station_id":"ce4bhe12rcd13ifvqf30","pricing_plan_id":"cebpf4jnsgd1na2vs0mg"},{"bike_id":"58df984d-f6ad-47ef-818a-7818e887c7c9","system_id":"levelo_inurba_marseille","lat":43.30128,"lon":5.43111,"is_reserved":false,"is_disabled":false,"rental_uris":{"android":"levelo://app?vid=58df984d-f6ad-47ef-818a-7818e887c7c9","ios":"levelo://app?vid=58df984d-f6ad-47ef-818a-7818e887c7c9"},"vehicle_type_id":"4","last_reported":1762535357,"current_range_meters":18000,"station_id":"st_d3js3co5814s73ftftug","pricing_plan_id":"cebpf4jnsgd1na2vs0mg"},{"bike_id":"88042cb9-56c5-44dc-83b9-b8a6711a4222","system_id":"levelo_inurba_marseille","lat":43.30309,"lon":5.39204,"is_reserved":false,"is_disabled":false,"rental_uris":{"android":"levelo://app?vid=88042cb9-56c5-44dc-83b9-b8a6711a4222","ios":"levelo://app?vid=88042cb9-56c5-44dc-83b9-b8a6711a4222"},"vehicle_type_id":"4","last_reported":1762535357,"current_range_meters":18000,"station_id":"ce4bgkh2rcd13ifvqbk0","pricing_plan_id":"cebpf4jnsgd1na2vs0mg"},{"bike_id":"e719465d-43d9-48a3-ba90-6220e3eaf4f0","system_id":"levelo_inurba_marseille","lat":43.28856,"lon":5.35849,"is_reserved":false,"is_disabled":false,"rental_uris":{"android":"levelo://app?vid=e719465d-43d9-48a3-ba90-6220e3eaf4f0","ios":"levelo://app?vid=e719465d-43d9-48a3-ba90-6220e3eaf4f0"},"vehicle_type_id":"4","last_reported":1762535357,"current_range_meters":18000,"station_id":"ce4bhb12rcd13ifvqem0","pricing_plan_id":"cebpf4jnsgd1na2vs0mg"},{"bike_id":"b36532c4-b63d-4bfe-81a3-7ab60442d29c","system_id":"levelo_inurba_marseille","lat":43.29197,"lon":5.35802,"is_reserved":false,"is_disabled":false,"rental_uris":{"android":"levelo://app?vid=b36532c4-b63d-4bfe-81a3-7ab60442d29c","ios":"levelo://app?vid=b36532c4-b63d-4bfe-81a3-7ab60442d29c"},"vehicle_type_id":"4","last_reported":1762535357,"current_range_meters":18000,"station_id":"ce4bhb12rcd13ifvqel0","pricing_plan_id":"cebpf4jnsgd1na2vs0mg"},{"bike_id":"d0486e4c-83e2-47ea-b815-83949b2897b4","system_id":"levelo_inurba_marseille","lat":43.25336,"lon":5.42173,"is_reserved":false,"is_disabled":false,"rental_uris":{"android":"levelo://app?vid=d0486e4c-83e2-47ea-b815-83949b2897b4","ios":"levelo://app?vid=d0486e4c-83e2-47ea-b815-83949b2897b4"},"vehicle_type_id":"4","last_reported":1762535357,"current_range_meters":18000,"station_id":"st_d2m65c5bi1j21697t3ng","pricing_plan_id":"cebpf4jnsgd1na2vs0mg"},{"bike_id":"f85eec26-0a53-4a4d-b3b2-d69230d21ac8","system_id":"levelo_inurba_marseille","lat":43.286162,"lon":5.370603,"is_reserved":false,"is_disabled":false,"rental_uris":{"android":"levelo://app?vid=f85eec26-0a53-4a4d-b3b2-d69230d21ac8","ios":"levelo://app?vid=f85eec26-0a53-4a4d-b3b2-d69230d21ac8"},"vehicle_type_id":"4","last_reported":1762535357,"current_range_meters":18000,"station_id":"ce4bht12rcd13ifvqi60","pricing_plan_id":"cebpf4jnsgd1na2vs0mg"},{"bike_id":"4ec3ef20-664b-44fa-925c-15574d09d845","system_id":"levelo_inurba_marseille","lat":43.29509,"lon":5.39413,"is_reserved":false,"is_disabled":false,"rental_uris":{"android":"levelo://app?vid=4ec3ef20-664b-44fa-925c-15574d09d845","ios":"levelo://app?vid=4ec3ef20-664b-44fa-925c-15574d09d845"},"vehicle_type_id":"4","last_reported":1762535357,"current_range_meters":18000,"station_id":"ce4bh292rcd13ifvqdf0","pricing_plan_id":"cebpf4jnsgd1na2vs0mg"},{"bike_id":"15c946c1-4534-4349-9701-f756c17d2ecc","system_id":"levelo_inurba_marseille","lat":43.286039,"lon":5.35108,"is_reserved":false,"is_disabled":false,"rental_uris":{"android":"levelo://app?vid=15c946c1-4534-4349-9701-f756c17d2ecc","ios":"levelo://app?vid=15c946c1-4534-4349-9701-f756c17d2ecc"},"vehicle_type_id":"4","last_reported":1762535357,"current_range_meters":18800,"station_id":"","pricing_plan_id":"cebpf4jnsgd1na2vs0mg"},{"bike_id":"adc728c4-7d88-468c-be89-220c19218372","system_id":"levelo_inurba_marseille","lat":43.31166,"lon":5.3797,"is_reserved":false,"is_disabled":false,"rental_uris":{"android":"levelo://app?vid=adc728c4-7d88-468c-be89-220c19218372","ios":"levelo://app?vid=adc728c4-7d88-468c-be89-220c19218372"},"vehicle_type_id":"4","last_reported":1762535357,"current_range_meters":18800,"station_id":"","pricing_plan_id":"cebpf4jnsgd1na2vs0mg"},{"bike_id":"5098c842-5e48-40e2-b457-cc6766f8dfac","system_id":"levelo_inurba_marseille","lat":43.25727,"lon":5.4111,"is_reserved":false,"is_disabled":false,"rental_uris":{"android":"levelo://app?vid=5098c842-5e48-40e2-b457-cc6766f8dfac","ios":"levelo://app?vid=5098c842-5e48-40e2-b457-cc6766f8dfac"},"vehicle_type_id":"4","last_reported":1762535357,"current_range_meters":18800,"station_id":"ce4bhkp2rcd13ifvqgd0","pricing_plan_id":"cebpf4jnsgd1na2vs0mg"},{"bike_id":"106efc4b-3629-4c83-a1c4-3f4ee9d12cb6","system_id":"levelo_inurba_marseille","lat":43.30888,"lon":5.37294,"is_reserved":false,"is_disabled":false,"rental_uris":{"android":"levelo://app?vid=106efc4b-3629-4c83-a1c4-3f4ee9d12cb6","ios":"levelo://app?vid=106efc4b-3629-4c83-a1c4-3f4ee9d12cb6"},"vehicle_type_id":"4","last_reported":1762535357,"current_range_meters":18800,"station_id":"","pricing_plan_id":"cebpf4jnsgd1na2vs0mg"},{"bike_id":"ef276b08-ca25-45c3-96e3-87c3945d9bbf","system_id":"levelo_inurba_marseille","lat":43.24183,"lon":5.39722,"is_reserved":false,"is_disabled":false,"rental_uris":{"android":"levelo://app?vid=ef276b08-ca25-45c3-96e3-87c3945d9bbf","ios":"levelo://app?vid=ef276b08-ca25-45c3-96e3-87c3945d9bbf"},"vehicle_type_id":"4","last_reported":1762535357,"current_range_meters":18800,"station_id":"ce4bhn12rcd13ifvqgpg","pricing_plan_id":"cebpf4jnsgd1na2vs0mg"},{"bike_id":"f0d99751-b4ba-4b89-bd1c-c89da7167dbd","system_id":"levelo_inurba_marseille","lat":43.29514,"lon":5.39402,"is_reserved":false,"is_disabled":false,"rental_uris":{"android":"levelo://app?vid=f0d99751-b4ba-4b89-bd1c-c89da7167dbd","ios":"levelo://app?vid=f0d99751-b4ba-4b89-bd1c-c89da7167dbd"},"vehicle_type_id":"4","last_reported":1762535357,"current_range_meters":18800,"station_id":"ce4bh292rcd13ifvqdf0","pricing_plan_id":"cebpf4jnsgd1na2vs0mg"},{"bike_id":"d2991a60-dcfa-4252-8f9d-bfff4b1dc433","system_id":"levelo_inurba_marseille","lat":43.31044,"lon":5.3713,"is_reserved":false,"is_disabled":false,"rental_uris":{"android":"levelo://app?vid=d2991a60-dcfa-4252-8f9d-bfff4b1dc433","ios":"levelo://app?vid=d2991a60-dcfa-4252-8f9d-bfff4b1dc433"},"vehicle_type_id":"4","last_reported":1762535357,"current_range_meters":18800,"station_id":"","pricing_plan_id":"cebpf4jnsgd1na2vs0mg"},{"bike_id":"4bce02cb-bdba-488a-a39f-eae80d4c7da8","system_id":"levelo_inurba_marseille","lat":43.28211,"lon":5.39049,"is_reserved":false,"is_disabled":true,"rental_uris":{"android":"levelo://app?vid=4bce02cb-bdba-488a-a39f-eae80d4c7da8","ios":"levelo://app?vid=4bce02cb-bdba-488a-a39f-eae80d4c7da8"},"vehicle_type_id":"4","last_reported":1762535357,"current_range_meters":18800,"station_id":"ce4bhn92rcd13ifvqgsg","pricing_plan_id":"cebpf4jnsgd1na2vs0mg"},{"bike_id":"6fed337d-58dd-4e60-825e-cee7ab5e51b1","system_id":"levelo_inurba_marseille","lat":43.29525,"lon":5.38552,"is_reserved":false,"is_disabled":false,"rental_uris":{"android":"levelo://app?vid=6fed337d-58dd-4e60-825e-cee7ab5e51b1","ios":"levelo://app?vid=6fed337d-58dd-4e60-825e-cee7ab5e51b1"},"vehicle_type_id":"4","last_reported":1762535357,"current_range_meters":18800,"station_id":"ce4bgih2rcd13ifvqba0","pricing_plan_id":"cebpf4jnsgd1na2vs0mg"},{"bike_id":"e270f0db-93b9-4456-a5ae-4ac7765b3816","system_id":"levelo_inurba_marseille","lat":43.30563,"lon":5.36521,"is_reserved":false,"is_disabled":false,"rental_uris":{"android":"levelo://app?vid=e270f0db-93b9-4456-a5ae-4ac7765b3816","ios":"levelo://app?vid=e270f0db-93b9-4456-a5ae-4ac7765b3816"},"vehicle_type_id":"4","last_reported":1762535357,"current_range_meters":19200,"station_id":"ce4bgs12rcd13ifvqcag","pricing_plan_id":"cebpf4jnsgd1na2vs0mg"},{"bike_id":"76a6d70c-2fdb-4f21-b179-8859af854fb3","system_id":"levelo_inurba_marseille","lat":43.286655,"lon":5.386744,"is_reserved":false,"is_disabled":false,"rental_uris":{"android":"levelo://app?vid=76a6d70c-2fdb-4f21-b179-8859af854fb3","ios":"levelo://app?vid=76a6d70c-2fdb-4f21-b179-8859af854fb3"},"vehicle_type_id":"4","last_reported":1762535357,"current_range_meters":19200,"station_id":"ce4bh492rcd13ifvqdug","pricing_plan_id":"cebpf4jnsgd1na2vs0mg"},{"bike_id":"20a32aa4-9270-4935-a792-9ee632e85c68","system_id":"levelo_inurba_marseille","lat":43.266338,"lon":5.389822,"is_reserved":false,"is_disabled":false,"rental_uris":{"android":"levelo://app?vid=20a32aa4-9270-4935-a792-9ee632e85c68","ios":"levelo://app?vid=20a32aa4-9270-4935-a792-9ee632e85c68"},"vehicle_type_id":"4","last_reported":1762535357,"current_range_meters":19200,"station_id":"ce4bhe12rcd13ifvqf30","pricing_plan_id":"cebpf4jnsgd1na2vs0mg"},{"bike_id":"0e40b977-8772-43e1-98d4-439c6ff7226d","system_id":"levelo_inurba_marseille","lat":43.27367,"lon":5.36263,"is_reserved":false,"is_disabled":false,"rental_uris":{"android":"levelo://app?vid=0e40b977-8772-43e1-98d4-439c6ff7226d","ios":"levelo://app?vid=0e40b977-8772-43e1-98d4-439c6ff7226d"},"vehicle_type_id":"4","last_reported":1762535357,"current_range_meters":19200,"station_id":"ce4bhbh2rcd13ifvqeo0","pricing_plan_id":"cebpf4jnsgd1na2vs0mg"},{"bike_id":"ab83a83f-c752-42f1-b1fd-df614ee256b2","system_id":"levelo_inurba_marseille","lat":43.30878,"lon":5.39665,"is_reserved":false,"is_disabled":false,"rental_uris":{"android":"levelo://app?vid=ab83a83f-c752-42f1-b1fd-df614ee256b2","ios":"levelo://app?vid=ab83a83f-c752-42f1-b1fd-df614ee256b2"},"vehicle_type_id":"4","last_reported":1762535357,"current_range_meters":19200,"station_id":"","pricing_plan_id":"cebpf4jnsgd1na2vs0mg"},{"bike_id":"5ebbfdc4-4988-4f8f-860a-a23e6d29751d","system_id":"levelo_inurba_marseille","lat":43.30529,"lon":5.36557,"is_reserved":false,"is_disabled":false,"rental_uris":{"android":"levelo://app?vid=5ebbfdc4-4988-4f8f-860a-a23e6d29751d","ios":"levelo://app?vid=5ebbfdc4-4988-4f8f-860a-a23e6d29751d"},"vehicle_type_id":"4","last_reported":1762535357,"current_range_meters":19200,"station_id":"ce4bgs12rcd13ifvqcag","pricing_plan_id":"cebpf4jnsgd1na2vs0mg"},{"bike_id":"a687018a-85a5-4072-8d5f-9857a9f91fac","system_id":"levelo_inurba_marseille","lat":43.249486,"lon":5.404927,"is_reserved":false,"is_disabled":false,"rental_uris":{"android":"levelo://app?vid=a687018a-85a5-4072-8d5f-9857a9f91fac","ios":"levelo://app?vid=a687018a-85a5-4072-8d5f-9857a9f91fac"},"vehicle_type_id":"4","last_reported":1762535357,"current_range_meters":19200,"station_id":"st_d2ngiaodas8pm72gd1h0","pricing_plan_id":"cebpf4jnsgd1na2vs0mg"},{"bike_id":"01b612c9-e2ea-4120-a543-ea80b7d0582c","system_id":"levelo_inurba_marseille","lat":43.3268,"lon":5.39199,"is_reserved":false,"is_disabled":false,"rental_uris":{"android":"levelo://app?vid=01b612c9-e2ea-4120-a543-ea80b7d0582c","ios":"levelo://app?vid=01b612c9-e2ea-4120-a543-ea80b7d0582c"},"vehicle_type_id":"4","last_reported":1762535357,"current_range_meters":19200,"station_id":"","pricing_plan_id":"cebpf4jnsgd1na2vs0mg"},{"bike_id":"861d1742-5bb7-4b20-9b4c-635ef1820102","system_id":"levelo_inurba_marseille","lat":43.29843,"lon":5.36273,"is_reserved":false,"is_disabled":false,"rental_uris":{"android":"levelo://app?vid=861d1742-5bb7-4b20-9b4c-635ef1820102","ios":"levelo://app?vid=861d1742-5bb7-4b20-9b4c-635ef1820102"},"vehicle_type_id":"4","last_reported":1762535357,"current_range_meters":19200,"station_id":"ce4bgpp2rcd13ifvqc3g","pricing_plan_id":"cebpf4jnsgd1na2vs0mg"},{"bike_id":"e5b60406-6050-4895-badc-44260999dd59","system_id":"levelo_inurba_marseille","lat":43.29261,"lon":5.38442,"is_reserved":false,"is_disabled":false,"rental_uris":{"android":"levelo://app?vid=e5b60406-6050-4895-badc-44260999dd59","ios":"levelo://app?vid=e5b60406-6050-4895-badc-44260999dd59"},"vehicle_type_id":"4","last_reported":1762535357,"current_range_meters":19200,"station_id":"ce4bh692rcd13ifvqea0","pricing_plan_id":"cebpf4jnsgd1na2vs0mg"},{"bike_id":"a429371d-e4e4-4776-a1dd-27529722fe58","system_id":"levelo_inurba_marseille","lat":43.260614,"lon":5.393987,"is_reserved":false,"is_disabled":false,"rental_uris":{"android":"levelo://app?vid=a429371d-e4e4-4776-a1dd-27529722fe58","ios":"levelo://app?vid=a429371d-e4e4-4776-a1dd-27529722fe58"},"vehicle_type_id":"4","last_reported":1762535357,"current_range_meters":19600,"station_id":"ce4bhh92rcd13ifvqfj0","pricing_plan_id":"cebpf4jnsgd1na2vs0mg"},{"bike_id":"d9406ae0-a7d7-4070-8130-6f1d39eec4aa","system_id":"levelo_inurba_marseille","lat":43.28621,"lon":5.37072,"is_reserved":false,"is_disabled":false,"rental_uris":{"android":"levelo://app?vid=d9406ae0-a7d7-4070-8130-6f1d39eec4aa","ios":"levelo://app?vid=d9406ae0-a7d7-4070-8130-6f1d39eec4aa"},"vehicle_type_id":"4","last_reported":1762535357,"current_range_meters":19600,"station_id":"ce4bht12rcd13ifvqi60","pricing_plan_id":"cebpf4jnsgd1na2vs0mg"},{"bike_id":"0fe28076-79a4-4c58-8cb9-d4750cea7c8d","system_id":"levelo_inurba_marseille","lat":43.25338,"lon":5.42158,"is_reserved":false,"is_disabled":false,"rental_uris":{"android":"levelo://app?vid=0fe28076-79a4-4c58-8cb9-d4750cea7c8d","ios":"levelo://app?vid=0fe28076-79a4-4c58-8cb9-d4750cea7c8d"},"vehicle_type_id":"4","last_reported":1762535357,"current_range_meters":19600,"station_id":"st_d2m65c5bi1j21697t3ng","pricing_plan_id":"cebpf4jnsgd1na2vs0mg"},{"bike_id":"309a1e5e-51c8-4860-8bb7-12924ece393e","system_id":"levelo_inurba_marseille","lat":43.31012,"lon":5.37509,"is_reserved":false,"is_disabled":false,"rental_uris":{"android":"levelo://app?vid=309a1e5e-51c8-4860-8bb7-12924ece393e","ios":"levelo://app?vid=309a1e5e-51c8-4860-8bb7-12924ece393e"},"vehicle_type_id":"4","last_reported":1762535357,"current_range_meters":19600,"station_id":"","pricing_plan_id":"cebpf4jnsgd1na2vs0mg"},{"bike_id":"f26140eb-b59a-44b7-9d2a-f297939014be","system_id":"levelo_inurba_marseille","lat":43.315421,"lon":5.38915,"is_reserved":false,"is_disabled":false,"rental_uris":{"android":"levelo://app?vid=f26140eb-b59a-44b7-9d2a-f297939014be","ios":"levelo://app?vid=f26140eb-b59a-44b7-9d2a-f297939014be"},"vehicle_type_id":"4","last_reported":1762535357,"current_range_meters":19600,"station_id":"ce4bhqp2rcd13ifvqhng","pricing_plan_id":"cebpf4jnsgd1na2vs0mg"},{"bike_id":"1b165528-6019-419e-a3de-32740a5b7936","system_id":"levelo_inurba_marseille","lat":43.23176,"lon":5.39989,"is_reserved":false,"is_disabled":false,"rental_uris":{"android":"levelo://app?vid=1b165528-6019-419e-a3de-32740a5b7936","ios":"levelo://app?vid=1b165528-6019-419e-a3de-32740a5b7936"},"vehicle_type_id":"4","last_reported":1762535357,"current_range_meters":19600,"station_id":"ce4bhn12rcd13ifvqgqg","pricing_plan_id":"cebpf4jnsgd1na2vs0mg"},{"bike_id":"0fdc8086-5ae2-438b-a749-651f1d7dff3f","system_id":"levelo_inurba_marseille","lat":43.28463,"lon":5.35894,"is_reserved":false,"is_disabled":false,"rental_uris":{"android":"levelo://app?vid=0fdc8086-5ae2-438b-a749-651f1d7dff3f","ios":"levelo://app?vid=0fdc8086-5ae2-438b-a749-651f1d7dff3f"},"vehicle_type_id":"4","last_reported":1762535357,"current_range_meters":20000,"station_id":"ce4bhah2rcd13ifvqei0","pricing_plan_id":"cebpf4jnsgd1na2vs0mg"},{"bike_id":"c316b7c4-b11e-4b77-8499-0764a2763d08","system_id":"levelo_inurba_marseille","lat":43.32357,"lon":5.3676,"is_reserved":false,"is_disabled":false,"rental_uris":{"android":"levelo://app?vid=c316b7c4-b11e-4b77-8499-0764a2763d08","ios":"levelo://app?vid=c316b7c4-b11e-4b77-8499-0764a2763d08"},"vehicle_type_id":"4","last_reported":1762535357,"current_range_meters":20000,"station_id":"ce4bhsh2rcd13ifvqi2g","pricing_plan_id":"cebpf4jnsgd1na2vs0mg"},{"bike_id":"115148fd-ab10-4503-af58-70fc04d8d366","system_id":"levelo_inurba_marseille","lat":43.30427,"lon":5.389,"is_reserved":false,"is_disabled":false,"rental_uris":{"android":"levelo://app?vid=115148fd-ab10-4503-af58-70fc04d8d366","ios":"levelo://app?vid=115148fd-ab10-4503-af58-70fc04d8d366"},"vehicle_type_id":"4","last_reported":1762535357,"current_range_meters":20000,"station_id":"ce4bgk12rcd13ifvqbi0","pricing_plan_id":"cebpf4jnsgd1na2vs0mg"},{"bike_id":"3c90da5c-2889-4432-be3e-90ecd23419dc","system_id":"levelo_inurba_marseille","lat":43.24993,"lon":5.38929,"is_reserved":false,"is_disabled":false,"rental_uris":{"android":"levelo://app?vid=3c90da5c-2889-4432-be3e-90ecd23419dc","ios":"levelo://app?vid=3c90da5c-2889-4432-be3e-90ecd23419dc"},"vehicle_type_id":"4","last_reported":1762535357,"current_range_meters":20000,"station_id":"ce4bhgp2rcd13ifvqfd0","pricing_plan_id":"cebpf4jnsgd1na2vs0mg"},{"bike_id":"c389af01-5176-44ba-a2f1-e38ff49d3863","system_id":"levelo_inurba_marseille","lat":43.295222,"lon":5.394048,"is_reserved":false,"is_disabled":false,"rental_uris":{"android":"levelo://app?vid=c389af01-5176-44ba-a2f1-e38ff49d3863","ios":"levelo://app?vid=c389af01-5176-44ba-a2f1-e38ff49d3863"},"vehicle_type_id":"4","last_reported":1762535357,"current_range_meters":20000,"station_id":"ce4bh292rcd13ifvqdf0","pricing_plan_id":"cebpf4jnsgd1na2vs0mg"},{"bike_id":"9c77b155-ef6c-4230-8477-f1ac5d4256d9","system_id":"levelo_inurba_marseille","lat":43.32104,"lon":5.36767,"is_reserved":false,"is_disabled":false,"rental_uris":{"android":"levelo://app?vid=9c77b155-ef6c-4230-8477-f1ac5d4256d9","ios":"levelo://app?vid=9c77b155-ef6c-4230-8477-f1ac5d4256d9"},"vehicle_type_id":"4","last_reported":1762535357,"current_range_meters":20000,"station_id":"ce4bhrh2rcd13ifvqhug","pricing_plan_id":"cebpf4jnsgd1na2vs0mg"},{"bike_id":"9012bcf8-bb63-442b-8823-1b956a32ae9e","system_id":"levelo_inurba_marseille","lat":43.3011,"lon":5.43134,"is_reserved":false,"is_disabled":false,"rental_uris":{"android":"levelo://app?vid=9012bcf8-bb63-442b-8823-1b956a32ae9e","ios":"levelo://app?vid=9012bcf8-bb63-442b-8823-1b956a32ae9e"},"vehicle_type_id":"4","last_reported":1762535357,"current_range_meters":20000,"station_id":"st_d3js3co5814s73ftftug","pricing_plan_id":"cebpf4jnsgd1na2vs0mg"},{"bike_id":"c73c5513-728d-4700-9395-e31e4399cd51","system_id":"levelo_inurba_marseille","lat":43.29176,"lon":5.40253,"is_reserved":false,"is_disabled":false,"rental_uris":{"android":"levelo://app?vid=c73c5513-728d-4700-9395-e31e4399cd51","ios":"levelo://app?vid=c73c5513-728d-4700-9395-e31e4399cd51"},"vehicle_type_id":"4","last_reported":1762535357,"current_range_meters":20000,"station_id":"","pricing_plan_id":"cebpf4jnsgd1na2vs0mg"},{"bike_id":"06b572d6-d95a-4f1a-9a9a-b316897ad6d5","system_id":"levelo_inurba_marseille","lat":43.29545,"lon":5.3752,"is_reserved":false,"is_disabled":false,"rental_uris":{"android":"levelo://app?vid=06b572d6-d95a-4f1a-9a9a-b316897ad6d5","ios":"levelo://app?vid=06b572d6-d95a-4f1a-9a9a-b316897ad6d5"},"vehicle_type_id":"4","last_reported":1762535357,"current_range_meters":20000,"station_id":"ce4bgkp2rcd13ifvqbmg","pricing_plan_id":"cebpf4jnsgd1na2vs0mg"},{"bike_id":"f7f6c88c-bbcf-456c-b554-b206f1d46a66","system_id":"levelo_inurba_marseille","lat":43.317108,"lon":5.437102,"is_reserved":false,"is_disabled":false,"rental_uris":{"android":"levelo://app?vid=f7f6c88c-bbcf-456c-b554-b206f1d46a66","ios":"levelo://app?vid=f7f6c88c-bbcf-456c-b554-b206f1d46a66"},"vehicle_type_id":"4","last_reported":1762535357,"current_range_meters":20000,"station_id":"ce4bhp92rcd13ifvqhcg","pricing_plan_id":"cebpf4jnsgd1na2vs0mg"},{"bike_id":"0847e3e2-d4ac-43cb-9bc6-ed43dc06b8e2","system_id":"levelo_inurba_marseille","lat":43.241795,"lon":5.397353,"is_reserved":false,"is_disabled":false,"rental_uris":{"android":"levelo://app?vid=0847e3e2-d4ac-43cb-9bc6-ed43dc06b8e2","ios":"levelo://app?vid=0847e3e2-d4ac-43cb-9bc6-ed43dc06b8e2"},"vehicle_type_id":"4","last_reported":1762535357,"current_range_meters":20000,"station_id":"ce4bhn12rcd13ifvqgpg","pricing_plan_id":"cebpf4jnsgd1na2vs0mg"},