{"last_updated":1740496202,"ttl":60,"version":"2.2","data":{"bikes":[{"bike_id":"d4f8d91d-dc54-4a5f-bb26-0ed7fc66bac8","system_id":"levelo_inurba_marseille","lat":43.28698,"lon":5.38665,"is_reserved":false,"is_disabled":false,"rental_uris":{"android":"levelo://app?vid=d4f8d91d-dc54-4a5f-bb26-0ed7fc66bac8","ios":"levelo://app?vid=d4f8d91d-dc54-4a5f-bb26-0ed7fc66bac8"},"vehicle_type_id":"4","last_reported":1740496202,"current_range_meters":2800,"station_id":"ce4bh492rcd13ifvqdug","pricing_plan_id":"cebpf4jnsgd1na2vs0mg"},{"bike_id":"b1c651e0-037a-4a4f-a5d8-e3ee97d5769e","system_id":"levelo_inurba_marseille","lat":43.27212,"lon":5.39177,"is_reserved":false,"is_disabled":false,"rental_uris":{"android":"levelo://app?vid=b1c651e0-037a-4a4f-a5d8-e3ee97d5769e","ios":"levelo://app?vid=b1c651e0-037a-4a4f-a5d8-e3ee97d5769e"},"vehicle_type_id":"4","last_reported":1740496202,"current_range_meters":2800,"station_id":"","pricing_plan_id":"cebpf4jnsgd1na2vs0mg"},{"bike_id":"7d37e18e-3d91-444a-a2c3-5727e53d98e0","system_id":"levelo_inurba_marseille","lat":43.29076,"lon":5.37169,"is_reserved":false,"is_disabled":false,"rental_uris":{"android":"levelo://app?vid=7d37e18e-3d91-444a-a2c3-5727e53d98e0","ios":"levelo://app?vid=7d37e18e-3d91-444a-a2c3-5727e53d98e0"},"vehicle_type_id":"4","last_reported":1740496202,"current_range_meters":2800,"station_id":"ce4bh5p2rcd13ifvqe4g","pricing_plan_id":"cebpf4jnsgd1na2vs0mg"},{"bike_id":"d910d49f-24dd-4679-b24f-cfe006465996","system_id":"levelo_inurba_marseille","lat":43.26566,"lon":5.39021,"is_reserved":false,"is_disabled":true,"rental_uris":{"android":"levelo://app?vid=d910d49f-24dd-4679-b24f-cfe006465996","ios":"levelo://app?vid=d910d49f-24dd-4679-b24f-cfe006465996"},"vehicle_type_id":"4","last_reported":1740496202,"current_range_meters":3200,"station_id":"ce4bhe12rcd13ifvqf30","pricing_plan_id":"cebpf4jnsgd1na2vs0mg"},{"bike_id":"9afc44d2-1c33-4a0c-b359-69f96b355aad","system_id":"levelo_inurba_marseille","lat":43.23057,"lon":5.35497,"is_reserved":false,"is_disabled":false,"rental_uris":{"android":"levelo://app?vid=9afc44d2-1c33-4a0c-b359-69f96b355aad","ios":"levelo://app?vid=9afc44d2-1c33-4a0c-b359-69f96b355aad"},"vehicle_type_id":"4","last_reported":1740496202,"current_range_meters":2800,"station_id":"cpo3342slgdg3j2ifvpg","pricing_plan_id":"cebpf4jnsgd1na2vs0mg"},{"bike_id":"a6fba250-d5d0-415b-a4e0-d0c4d449308a","system_id":"levelo_inurba_marseille","lat":43.29799,"lon":5.38106,"is_reserved":false,"is_disabled":false,"rental_uris":{"android":"levelo://app?vid=a6fba250-d5d0-415b-a4e0-d0c4d449308a","ios":"levelo://app?vid=a6fba250-d5d0-415b-a4e0-d0c4d449308a"},"vehicle_type_id":"4","last_reported":1740496202,"current_range_meters":3200,"station_id":"ce4bgip2rcd13ifvqbb0","pricing_plan_id":"cebpf4jnsgd1na2vs0mg"},{"bike_id":"9982beae-b3a2-42b6-9450-e9c63991c2ef","system_id":"levelo_inurba_marseille","lat":43.31757,"lon":5.39023,"is_reserved":false,"is_disabled":false,"rental_uris":{"android":"levelo://app?vid=9982beae-b3a2-42b6-9450-e9c63991c2ef","ios":"levelo://app?vid=9982beae-b3a2-42b6-9450-e9c63991c2ef"},"vehicle_type_id":"4","last_reported":1740496202,"current_range_meters":3600,"station_id":"ce4bhqp2rcd13ifvqhng","pricing_plan_id":"cebpf4jnsgd1na2vs0mg"},{"bike_id":"c1a594da-49ad-4e30-8854-81191389d794","system_id":"levelo_inurba_marseille","lat":43.30547,"lon":5.36704,"is_reserved":false,"is_disabled":false,"rental_uris":{"android":"levelo://app?vid=c1a594da-49ad-4e30-8854-81191389d794","ios":"levelo://app?vid=c1a594da-49ad-4e30-8854-81191389d794"},"vehicle_type_id":"4","last_reported":1740496202,"current_range_meters":1200,"station_id":"ce4bgrp2rcd13ifvqc9g","pricing_plan_id":"cebpf4jnsgd1na2vs0mg"},{"bike_id":"69db591e-117c-4e22-b712-9ea322807f00","system_id":"levelo_inurba_marseille","lat":43.32286,"lon":5.38283,"is_reserved":false,"is_disabled":false,"rental_uris":{"android":"levelo://app?vid=69db591e-117c-4e22-b712-9ea322807f00","ios":"levelo://app?vid=69db591e-117c-4e22-b712-9ea322807f00"},"vehicle_type_id":"4","last_reported":1740496202,"current_range_meters":4000,"station_id":"ce4bhr12rcd13ifvqhqg","pricing_plan_id":"cebpf4jnsgd1na2vs0mg"},{"bike_id":"00f974f6-7954-40d9-bc37-0957e43a79aa","system_id":"levelo_inurba_marseille","lat":43.28659,"lon":5.38663,"is_reserved":false,"is_disabled":false,"rental_uris":{"android":"levelo://app?vid=00f974f6-7954-40d9-bc37-0957e43a79aa","ios":"levelo://app?vid=00f974f6-7954-40d9-bc37-0957e43a79aa"},"vehicle_type_id":"4","last_reported":1740496202,"current_range_meters":4000,"station_id":"ce4bh492rcd13ifvqdug","pricing_plan_id":"cebpf4jnsgd1na2vs0mg"},{"bike_id":"bd1c9204-109d-453d-a655-cc2878aad0c5","system_id":"levelo_inurba_marseille","lat":43.29895,"lon":5.43646,"is_reserved":false,"is_disabled":false,"rental_uris":{"android":"levelo://app?vid=bd1c9204-109d-453d-a655-cc2878aad0c5","ios":"levelo://app?vid=bd1c9204-109d-453d-a655-cc2878aad0c5"},"vehicle_type_id":"4","last_reported":1740496202,"current_range_meters":4400,"station_id":"ce4bhpp2rcd13ifvqhfg","pricing_plan_id":"cebpf4jnsgd1na2vs0mg"},{"bike_id":"213b730a-489e-42c6-8adc-262ed2751f8d","system_id":"levelo_inurba_marseille","lat":43.29309,"lon":5.3717,"is_reserved":false,"is_disabled":false,"rental_uris":{"android":"levelo://app?vid=213b730a-489e-42c6-8adc-262ed2751f8d","ios":"levelo://app?vid=213b730a-489e-42c6-8adc-262ed2751f8d"},"vehicle_type_id":"4","last_reported":1740496202,"current_range_meters":4400,"station_id":"ce4bgh92rcd13ifvqb40","pricing_plan_id":"cebpf4jnsgd1na2vs0mg"},{"bike_id":"be9ca81a-a195-4fb1-841a-5e99eadc9b98","system_id":"levelo_inurba_marseille","lat":43.30142,"lon":5.37405,"is_reserved":false,"is_disabled":false,"rental_uris":{"android":"levelo://app?vid=be9ca81a-a195-4fb1-841a-5e99eadc9b98","ios":"levelo://app?vid=be9ca81a-a195-4fb1-841a-5e99eadc9b98"},"vehicle_type_id":"4","last_reported":1740496202,"current_range_meters":28000,"station_id":"ce4bgs92rcd13ifvqcc0","pricing_plan_id":"cebpf4jnsgd1na2vs0mg"},{"bike_id":"585f69a8-2057-4dd3-9442-b9fe68da54a1","system_id":"levelo_inurba_marseille","lat":43.26561,"lon":5.3901,"is_reserved":false,"is_disabled":false,"rental_uris":{"android":"levelo://app?vid=585f69a8-2057-4dd3-9442-b9fe68da54a1","ios":"levelo://app?vid=585f69a8-2057-4dd3-9442-b9fe68da54a1"},"vehicle_type_id":"4","last_reported":1740496202,"current_range_meters":4800,"station_id":"ce4bhe12rcd13ifvqf30","pricing_plan_id":"cebpf4jnsgd1na2vs0mg"},{"bike_id":"4af72692-856d-46f3-82c3-f3545dfcb31a","system_id":"levelo_inurba_marseille","lat":43.26782,"lon":5.39424,"is_reserved":false,"is_disabled":false,"rental_uris":{"android":"levelo://app?vid=4af72692-856d-46f3-82c3-f3545dfcb31a","ios":"levelo://app?vid=4af72692-856d-46f3-82c3-f3545dfcb31a"},"vehicle_type_id":"4","last_reported":1740496202,"current_range_meters":4800,"station_id":"ce4bhh12rcd13ifvqfg0","pricing_plan_id":"cebpf4jnsgd1na2vs0mg"},{"bike_id":"15d63c41-d467-4e01-ab9d-1a4d98399eb8","system_id":"levelo_inurba_marseille","lat":43.2809,"lon":5.39666,"is_reserved":false,"is_disabled":true,"rental_uris":{"android":"levelo://app?vid=15d63c41-d467-4e01-ab9d-1a4d98399eb8","ios":"levelo://app?vid=15d63c41-d467-4e01-ab9d-1a4d98399eb8"},"vehicle_type_id":"4","last_reported":1740496202,"current_range_meters":5600,"station_id":"ce4bho12rcd13ifvqh2g","pricing_plan_id":"cebpf4jnsgd1na2vs0mg"},{"bike_id":"7cb96346-429e-43f7-ac5c-501471dfdb7e","system_id":"levelo_inurba_marseille","lat":43.2998,"lon":5.37186,"is_reserved":false,"is_disabled":false,"rental_uris":{"android":"levelo://app?vid=7cb96346-429e-43f7-ac5c-501471dfdb7e","ios":"levelo://app?vid=7cb96346-429e-43f7-ac5c-501471dfdb7e"},"vehicle_type_id":"4","last_reported":1740496202,"current_range_meters":4800,"station_id":"ce4bgr92rcd13ifvqc7g","pricing_plan_id":"cebpf4jnsgd1na2vs0mg"},{"bike_id":"71f606a5-4879-4b26-9ccd-1543fb1a6ec7","system_id":"levelo_inurba_marseille","lat":43.28364,"lon":5.39071,"is_reserved":false,"is_disabled":false,"rental_uris":{"android":"levelo://app?vid=71f606a5-4879-4b26-9ccd-1543fb1a6ec7","ios":"levelo://app?vid=71f606a5-4879-4b26-9ccd-1543fb1a6ec7"},"vehicle_type_id":"4","last_reported":1740496202,"current_range_meters":6000,"station_id":"","pricing_plan_id":"cebpf4jnsgd1na2vs0mg"},{"bike_id":"3eb9b231-c1ca-4744-b0f7-4f1d3b1e6417","system_id":"levelo_inurba_marseille","lat":43.29909,"lon":5.43671,"is_reserved":false,"is_disabled":false,"rental_uris":{"android":"levelo://app?vid=3eb9b231-c1ca-4744-b0f7-4f1d3b1e6417","ios":"levelo://app?vid=3eb9b231-c1ca-4744-b0f7-4f1d3b1e6417"},"vehicle_type_id":"4","last_reported":1740496202,"current_range_meters":6000,"station_id":"ce4bhpp2rcd13ifvqhfg","pricing_plan_id":"cebpf4jnsgd1na2vs0mg"},{"bike_id":"3833d8f6-56e2-4a2e-a72a-692b67e95cb9","system_id":"levelo_inurba_marseille","lat":43.28275,"lon":5.3507,"is_reserved":false,"is_disabled":false,"rental_uris":{"android":"levelo://app?vid=3833d8f6-56e2-4a2e-a72a-692b67e95cb9","ios":"levelo://app?vid=3833d8f6-56e2-4a2e-a72a-692b67e95cb9"},"vehicle_type_id":"4","last_reported":1740496202,"current_range_meters":10000,"station_id":"ce4bhgp2rcd13ifvqfe0","pricing_plan_id":"cebpf4jnsgd1na2vs0mg"},{"bike_id":"f3e2d31b-bf16-4d93-8358-e1b5fc69cdb1","system_id":"levelo_inurba_marseille","lat":43.280984,"lon":5.398851,"is_reserved":false,"is_disabled":false,"rental_uris":{"android":"levelo://app?vid=f3e2d31b-bf16-4d93-8358-e1b5fc69cdb1","ios":"levelo://app?vid=f3e2d31b-bf16-4d93-8358-e1b5fc69cdb1"},"vehicle_type_id":"4","last_reported":1740496202,"current_range_meters":6000,"station_id":"","pricing_plan_id":"cebpf4jnsgd1na2vs0mg"},{"bike_id":"f5da3e71-1daf-4716-9c49-f4f30c7616b9","system_id":"levelo_inurba_marseille","lat":43.29021,"lon":5.39995,"is_reserved":false,"is_disabled":false,"rental_uris":{"android":"levelo://app?vid=f5da3e71-1daf-4716-9c49-f4f30c7616b9","ios":"levelo://app?vid=f5da3e71-1daf-4716-9c49-f4f30c7616b9"},"vehicle_type_id":"4","last_reported":1740496202,"current_range_meters":6400,"station_id":"ce4bh392rcd13ifvqdm0","pricing_plan_id":"cebpf4jnsgd1na2vs0mg"},{"bike_id":"7711c225-872e-4efa-972d-dfd02cfc05be","system_id":"levelo_inurba_marseille","lat":43.29927,"lon":5.37479,"is_reserved":false,"is_disabled":false,"rental_uris":{"android":"levelo://app?vid=7711c225-872e-4efa-972d-dfd02cfc05be","ios":"levelo://app?vid=7711c225-872e-4efa-972d-dfd02cfc05be"},"vehicle_type_id":"4","last_reported":1740496202,"current_range_meters":6000,"station_id":"ce4bgjh2rcd13ifvqbg0","pricing_plan_id":"cebpf4jnsgd1na2vs0mg"},{"bike_id":"9924e2fb-5d86-43ae-8840-832a0cefdd3a","system_id":"levelo_inurba_marseille","lat":43.25118,"lon":5.40335,"is_reserved":false,"is_disabled":false,"rental_uris":{"android":"levelo://app?vid=9924e2fb-5d86-43ae-8840-832a0cefdd3a","ios":"levelo://app?vid=9924e2fb-5d86-43ae-8840-832a0cefdd3a"},"vehicle_type_id":"4","last_reported":1740496202,"current_range_meters":6800,"station_id":"ce4bhlh2rcd13ifvqgig","pricing_plan_id":"cebpf4jnsgd1na2vs0mg"},{"bike_id":"7dbdf566-cf9e-4283-a999-d9ea41155c78","system_id":"levelo_inurba_marseille","lat":43.27998,"lon":5.41659,"is_reserved":false,"is_disabled":false,"rental_uris":{"android":"levelo://app?vid=7dbdf566-cf9e-4283-a999-d9ea41155c78","ios":"levelo://app?vid=7dbdf566-cf9e-4283-a999-d9ea41155c78"},"vehicle_type_id":"4","last_reported":1740496202,"current_range_meters":5600,"station_id":"ce4bho12rcd13ifvqh1g","pricing_plan_id":"cebpf4jnsgd1na2vs0mg"},{"bike_id":"d0073582-4c2e-46de-b88d-434289ee7d9c","system_id":"levelo_inurba_marseille","lat":43.28477,"lon":5.38424,"is_reserved":false,"is_disabled":false,"rental_uris":{"android":"levelo://app?vid=d0073582-4c2e-46de-b88d-434289ee7d9c","ios":"levelo://app?vid=d0073582-4c2e-46de-b88d-434289ee7d9c"},"vehicle_type_id":"4","last_reported":1740496202,"current_range_meters":6800,"station_id":"ce4bh512rcd13ifvqe3g","pricing_plan_id":"cebpf4jnsgd1na2vs0mg"},{"bike_id":"ef9f7020-0f2e-478c-80ba-1d89d4aeaf22","system_id":"levelo_inurba_marseille","lat":43.29915,"lon":5.37483,"is_reserved":false,"is_disabled":false,"rental_uris":{"android":"levelo://app?vid=ef9f7020-0f2e-478c-80ba-1d89d4aeaf22","ios":"levelo://app?vid=ef9f7020-0f2e-478c-80ba-1d89d4aeaf22"},"vehicle_type_id":"4","last_reported":1740496202,"current_range_meters":7200,"station_id":"ce4bgjh2rcd13ifvqbg0","pricing_plan_id":"cebpf4jnsgd1na2vs0mg"},{"bike_id":"4f5348d9-432c-4d52-9bb1-565138017251","system_id":"levelo_inurba_marseille","lat":43.3093,"lon":5.40157,"is_reserved":false,"is_disabled":false,"rental_uris":{"android":"levelo://app?vid=4f5348d9-432c-4d52-9bb1-565138017251","ios":"levelo://app?vid=4f5348d9-432c-4d52-9bb1-565138017251"},"vehicle_type_id":"4","last_reported":1740496202,"current_range_meters":7200,"station_id":"ce4bgvp2rcd13ifvqct0","pricing_plan_id":"cebpf4jnsgd1na2vs0mg"},{"bike_id":"5a73bde8-3029-4df1-a08e-3df79ed4050e","system_id":"levelo_inurba_marseille","lat":43.27558,"lon":5.38415,"is_reserved":false,"is_disabled":false,"rental_uris":{"android":"levelo://app?vid=5a73bde8-3029-4df1-a08e-3df79ed4050e","ios":"levelo://app?vid=5a73bde8-3029-4df1-a08e-3df79ed4050e"},"vehicle_type_id":"4","last_reported":1740496202,"current_range_meters":7200,"station_id":"ce4bhh92rcd13ifvqfi0","pricing_plan_id":"cebpf4jnsgd1na2vs0mg"},{"bike_id":"bc1d03d8-2f17-49fc-9933-3edfde5e8fe2","system_id":"levelo_inurba_marseille","lat":43.27996,"lon":5.41666,"is_reserved":false,"is_disabled":false,"rental_uris":{"android":"levelo://app?vid=bc1d03d8-2f17-49fc-9933-3edfde5e8fe2","ios":"levelo://app?vid=bc1d03d8-2f17-49fc-9933-3edfde5e8fe2"},"vehicle_type_id":"4","last_reported":1740496202,"current_range_meters":7200,"station_id":"ce4bho12rcd13ifvqh1g","pricing_plan_id":"cebpf4jnsgd1na2vs0mg"},{"bike_id":"ceac0564-0c44-46f7-8f0c-f5c9f92a14d3","system_id":"levelo_inurba_marseille","lat":43.26219,"lon":5.40457,"is_reserved":false,"is_disabled":false,"rental_uris":{"android":"levelo://app?vid=ceac0564-0c44-46f7-8f0c-f5c9f92a14d3","ios":"levelo://app?vid=ceac0564-0c44-46f7-8f0c-f5c9f92a14d3"},"vehicle_type_id":"4","last_reported":1740496202,"current_range_meters":7200,"station_id":"ce4bhmh2rcd13ifvqgmg","pricing_plan_id":"cebpf4jnsgd1na2vs0mg"},{"bike_id":"781258fd-81c8-4ba6-bf25-43aa194dd068","system_id":"levelo_inurba_marseille","lat":43.30913,"lon":5.36852,"is_reserved":false,"is_disabled":false,"rental_uris":{"android":"levelo://app?vid=781258fd-81c8-4ba6-bf25-43aa194dd068","ios":"levelo://app?vid=781258fd-81c8-4ba6-bf25-43aa194dd068"},"vehicle_type_id":"4","last_reported":1740496202,"current_range_meters":8000,"station_id":"ce4bgn92rcd13ifvqbvg","pricing_plan_id":"cebpf4jnsgd1na2vs0mg"},{"bike_id":"c8fb0f83-f6ad-44d4-8ffb-08fbd3aeae17","system_id":"levelo_inurba_marseille","lat":43.28664,"lon":5.36355,"is_reserved":false,"is_disabled":false,"rental_uris":{"android":"levelo://app?vid=c8fb0f83-f6ad-44d4-8ffb-08fbd3aeae17","ios":"levelo://app?vid=c8fb0f83-f6ad-44d4-8ffb-08fbd3aeae17"},"vehicle_type_id":"4","last_reported":1740496202,"current_range_meters":9200,"station_id":"ce4bhah2rcd13ifvqej0","pricing_plan_id":"cebpf4jnsgd1na2vs0mg"},{"bike_id":"68ec8f82-d4f3-4405-aa70-5c19161a79f2","system_id":"levelo_inurba_marseille","lat":43.29438,"lon":5.39756,"is_reserved":false,"is_disabled":false,"rental_uris":{"android":"levelo://app?vid=68ec8f82-d4f3-4405-aa70-5c19161a79f2","ios":"levelo://app?vid=68ec8f82-d4f3-4405-aa70-5c19161a79f2"},"vehicle_type_id":"4","last_reported":1740496202,"current_range_meters":7200,"station_id":"ce4bh3h2rcd13ifvqdo0","pricing_plan_id":"cebpf4jnsgd1na2vs0mg"},{"bike_id":"ec17ff6a-26f9-4514-bd43-4ec7017c0b01","system_id":"levelo_inurba_marseille","lat":43.29331,"lon":5.37678,"is_reserved":false,"is_disabled":false,"rental_uris":{"android":"levelo://app?vid=ec17ff6a-26f9-4514-bd43-4ec7017c0b01","ios":"levelo://app?vid=ec17ff6a-26f9-4514-bd43-4ec7017c0b01"},"vehicle_type_id":"4","last_reported":1740496202,"current_range_meters":8000,"station_id":"","pricing_plan_id":"cebpf4jnsgd1na2vs0mg"},{"bike_id":"146aebc9-098b-47c2-b26e-46c1350561bc","system_id":"levelo_inurba_marseille","lat":43.337712,"lon":5.374807,"is_reserved":false,"is_disabled":false,"rental_uris":{"android":"levelo://app?vid=146aebc9-098b-47c2-b26e-46c1350561bc","ios":"levelo://app?vid=146aebc9-098b-47c2-b26e-46c1350561bc"},"vehicle_type_id":"4","last_reported":1740496202,"current_range_meters":8000,"station_id":"","pricing_plan_id":"cebpf4jnsgd1na2vs0mg"},{"bike_id":"87bd77cd-fdee-4727-855e-5f630767c00f","system_id":"levelo_inurba_marseille","lat":43.25502,"lon":5.37653,"is_reserved":false,"is_disabled":false,"rental_uris":{"android":"levelo://app?vid=87bd77cd-fdee-4727-855e-5f630767c00f","ios":"levelo://app?vid=87bd77cd-fdee-4727-855e-5f630767c00f"},"vehicle_type_id":"4","last_reported":1740496202,"current_range_meters":6400,"station_id":"ce4bhh12rcd13ifvqff0","pricing_plan_id":"cebpf4jnsgd1na2vs0mg"},{"bike_id":"5162c2ce-a731-4d3b-a21a-a1c8cb63150f","system_id":"levelo_inurba_marseille","lat":43.31711,"lon":5.43697,"is_reserved":false,"is_disabled":false,"rental_uris":{"android":"levelo://app?vid=5162c2ce-a731-4d3b-a21a-a1c8cb63150f","ios":"levelo://app?vid=5162c2ce-a731-4d3b-a21a-a1c8cb63150f"},"vehicle_type_id":"4","last_reported":1740496202,"current_range_meters":8000,"station_id":"ce4bhp92rcd13ifvqhcg","pricing_plan_id":"cebpf4jnsgd1na2vs0mg"},{"bike_id":"b7c49d71-92bc-4321-8653-9e423c034c7a","system_id":"levelo_inurba_marseille","lat":43.28695,"lon":5.37398,"is_reserved":false,"is_disabled":false,"rental_uris":{"android":"levelo://app?vid=b7c49d71-92bc-4321-8653-9e423c034c7a","ios":"levelo://app?vid=b7c49d71-92bc-4321-8653-9e423c034c7a"},"vehicle_type_id":"4","last_reported":1740496202,"current_range_meters":8000,"station_id":"ce4bh3p2rcd13ifvqdq0","pricing_plan_id":"cebpf4jnsgd1na2vs0mg"},{"bike_id":"946e9e0e-8b9e-402e-9908-27f82c47e8de","system_id":"levelo_inurba_marseille","lat":43.293064,"lon":5.385353,"is_reserved":false,"is_disabled":false,"rental_uris":{"android":"levelo://app?vid=946e9e0e-8b9e-402e-9908-27f82c47e8de","ios":"levelo://app?vid=946e9e0e-8b9e-402e-9908-27f82c47e8de"},"vehicle_type_id":"4","last_reported":1740496202,"current_range_meters":9200,"station_id":"ce4bgjh2rcd13ifvqbg0","pricing_plan_id":"cebpf4jnsgd1na2vs0mg"},{"bike_id":"bea517ec-06d8-4315-a101-031d4852ca77","system_id":"levelo_inurba_marseille","lat":43.24179,"lon":5.39733,"is_reserved":false,"is_disabled":false,"rental_uris":{"android":"levelo://app?vid=bea517ec-06d8-4315-a101-031d4852ca77","ios":"levelo://app?vid=bea517ec-06d8-4315-a101-031d4852ca77"},"vehicle_type_id":"4","last_reported":1740496202,"current_range_meters":8400,"station_id":"ce4bhn12rcd13ifvqgpg","pricing_plan_id":"cebpf4jnsgd1na2vs0mg"},{"bike_id":"22e9593d-c35c-4623-aa54-6a432fc5e98b","system_id":"levelo_inurba_marseille","lat":43.30137,"lon":5.39874,"is_reserved":false,"is_disabled":false,"rental_uris":{"android":"levelo://app?vid=22e9593d-c35c-4623-aa54-6a432fc5e98b","ios":"levelo://app?vid=22e9593d-c35c-4623-aa54-6a432fc5e98b"},"vehicle_type_id":"4","last_reported":1740496202,"current_range_meters":8000,"station_id":"ce4bh0h2rcd13ifvqd40","pricing_plan_id":"cebpf4jnsgd1na2vs0mg"},{"bike_id":"ce08e129-3210-4784-8e00-3661099c392d","system_id":"levelo_inurba_marseille","lat":43.29895,"lon":5.43655,"is_reserved":false,"is_disabled":false,"rental_uris":{"android":"levelo://app?vid=ce08e129-3210-4784-8e00-3661099c392d","ios":"levelo://app?vid=ce08e129-3210-4784-8e00-3661099c392d"},"vehicle_type_id":"4","last_reported":1740496202,"current_range_meters":8800,"station_id":"ce4bhpp2rcd13ifvqhfg","pricing_plan_id":"cebpf4jnsgd1na2vs0mg"},{"bike_id":"dd73b797-a13c-4891-bc60-0eae67a1f75e","system_id":"levelo_inurba_marseille","lat":43.29536,"lon":5.39035,"is_reserved":false,"is_disabled":false,"rental_uris":{"android":"levelo://app?vid=dd73b797-a13c-4891-bc60-0eae67a1f75e","ios":"levelo://app?vid=dd73b797-a13c-4891-bc60-0eae67a1f75e"},"vehicle_type_id":"4","last_reported":1740496202,"current_range_meters":8800,"station_id":"ce4bh3p2rcd13ifvqdp0","pricing_plan_id":"cebpf4jnsgd1na2vs0mg"},{"bike_id":"3d5f293d-09d0-49ae-a889-282f81e24252","system_id":"levelo_inurba_marseille","lat":43.27503,"lon":5.42447,"is_reserved":false,"is_disabled":false,"rental_uris":{"android":"levelo://app?vid=3d5f293d-09d0-49ae-a889-282f81e24252","ios":"levelo://app?vid=3d5f293d-09d0-49ae-a889-282f81e24252"},"vehicle_type_id":"4","last_reported":1740496202,"current_range_meters":8400,"station_id":"ce4bhn92rcd13ifvqgrg","pricing_plan_id":"cebpf4jnsgd1na2vs0mg"},{"bike_id":"08b5698a-1682-4cd0-9b7a-19cc80075adb","system_id":"levelo_inurba_marseille","lat":43.31758,"lon":5.39017,"is_reserved":false,"is_disabled":false,"rental_uris":{"android":"levelo://app?vid=08b5698a-1682-4cd0-9b7a-19cc80075adb","ios":"levelo://app?vid=08b5698a-1682-4cd0-9b7a-19cc80075adb"},"vehicle_type_id":"4","last_reported":1740496202,"current_range_meters":12000,"station_id":"ce4bhqp2rcd13ifvqhng","pricing_plan_id":"cebpf4jnsgd1na2vs0mg"},{"bike_id":"ceff7498-623c-49c6-b291-d6b8b533e34e","system_id":"levelo_inurba_marseille","lat":43.32354,"lon":5.38906,"is_reserved":false,"is_disabled":false,"rental_uris":{"android":"levelo://app?vid=ceff7498-623c-49c6-b291-d6b8b533e34e","ios":"levelo://app?vid=ceff7498-623c-49c6-b291-d6b8b533e34e"},"vehicle_type_id":"4","last_reported":1740496202,"current_range_meters":8800,"station_id":"ce4bhqp2rcd13ifvqhog","pricing_plan_id":"cebpf4jnsgd1na2vs0mg"},{"bike_id":"25066e30-e195-4915-b5ac-b0647489ee23","system_id":"levelo_inurba_marseille","lat":43.3054,"lon":5.3656,"is_reserved":false,"is_disabled":false,"rental_uris":{"android":"levelo://app?vid=25066e30-e195-4915-b5ac-b0647489ee23","ios":"levelo://app?vid=25066e30-e195-4915-b5ac-b0647489ee23"},"vehicle_type_id":"4","last_reported":1740496202,"current_range_meters":8800,"station_id":"ce4bgs12rcd13ifvqcag","pricing_plan_id":"cebpf4jnsgd1na2vs0mg"},{"bike_id":"7b77c8a6-74b2-4596-b46f-8e9227fdb30d","system_id":"levelo_inurba_marseille","lat":43.29933,"lon":5.3656,"is_reserved":false,"is_disabled":false,"rental_uris":{"android":"levelo://app?vid=7b77c8a6-74b2-4596-b46f-8e9227fdb30d","ios":"levelo://app?vid=7b77c8a6-74b2-4596-b46f-8e9227fdb30d"},"vehicle_type_id":"4","last_reported":1740496202,"current_range_meters":8000,"station_id":"ce4bgm92rcd13ifvqbr0","pricing_plan_id":"cebpf4jnsgd1na2vs0mg"},{"bike_id":"1e957f20-b116-4a59-93e9-8602094f4e8e","system_id":"levelo_inurba_marseille","lat":43.2591,"lon":5.40885,"is_reserved":false,"is_disabled":false,"rental_uris":{"android":"levelo://app?vid=1e957f20-b116-4a59-93e9-8602094f4e8e","ios":"levelo://app?vid=1e957f20-b116-4a59-93e9-8602094f4e8e"},"vehicle_type_id":"4","last_reported":1740496202,"current_range_meters":9200,"station_id":"ce4bhm92rcd13ifvqglg","pricing_plan_id":"cebpf4jnsgd1na2vs0mg"},{"bike_id":"e509d131-7d72-40d8-877c-ae5b30f74f3f","system_id":"levelo_inurba_marseille","lat":43.27173,"lon":5.40998,"is_reserved":false,"is_disabled":false,"rental_uris":{"android":"levelo://app?vid=e509d131-7d72-40d8-877c-ae5b30f74f3f","ios":"levelo://app?vid=e509d131-7d72-40d8-877c-ae5b30f74f3f"},"vehicle_type_id":"4","last_reported":1740496202,"current_range_meters":8800,"station_id":"ce4bhl12rcd13ifvqgf0","pricing_plan_id":"cebpf4jnsgd1na2vs0mg"},{"bike_id":"b3be3741-6ba0-4c85-bada-5d60cd637267","system_id":"levelo_inurba_marseille","lat":43.28159,"lon":5.42643,"is_reserved":false,"is_disabled":false,"rental_uris":{"android":"levelo://app?vid=b3be3741-6ba0-4c85-bada-5d60cd637267","ios":"levelo://app?vid=b3be3741-6ba0-4c85-bada-5d60cd637267"},"vehicle_type_id":"4","last_reported":1740496202,"current_range_meters":9200,"station_id":"ce4bhnh2rcd13ifvqgug","pricing_plan_id":"cebpf4jnsgd1na2vs0mg"},{"bike_id":"5513cd42-5cf8-4dc9-a166-88085c7560fa","system_id":"levelo_inurba_marseille","lat":43.30895,"lon":5.39666,"is_reserved":false,"is_disabled":false,"rental_uris":{"android":"levelo://app?vid=5513cd42-5cf8-4dc9-a166-88085c7560fa","ios":"levelo://app?vid=5513cd42-5cf8-4dc9-a166-88085c7560fa"},"vehicle_type_id":"4","last_reported":1740496202,"current_range_meters":9200,"station_id":"ce4bh012rcd13ifvqcv0","pricing_plan_id":"cebpf4jnsgd1na2vs0mg"},{"bike_id":"e10546ad-6294-4afc-82bb-67f99aa6c4be","system_id":"levelo_inurba_marseille","lat":43.25007,"lon":5.38929,"is_reserved":false,"is_disabled":false,"rental_uris":{"android":"levelo://app?vid=e10546ad-6294-4afc-82bb-67f99aa6c4be","ios":"levelo://app?vid=e10546ad-6294-4afc-82bb-67f99aa6c4be"},"vehicle_type_id":"4","last_reported":1740496202,"current_range_meters":9200,"station_id":"ce4bhgp2rcd13ifvqfd0","pricing_plan_id":"cebpf4jnsgd1na2vs0mg"},{"bike_id":"1a224358-4a93-4229-ba7b-b2603884b63e","system_id":"levelo_inurba_marseille","lat":43.29972,"lon":5.37175,"is_reserved":false,"is_disabled":false,"rental_uris":{"android":"levelo://app?vid=1a224358-4a93-4229-ba7b-b2603884b63e","ios":"levelo://app?vid=1a224358-4a93-4229-ba7b-b2603884b63e"},"vehicle_type_id":"4","last_reported":1740496202,"current_range_meters":9200,"station_id":"ce4bgr92rcd13ifvqc7g","pricing_plan_id":"cebpf4jnsgd1na2vs0mg"},{"bike_id":"c03f8347-5506-4d42-8df7-0ee12982e7b5","system_id":"levelo_inurba_marseille","lat":43.28674,"lon":5.38677,"is_reserved":false,"is_disabled":false,"rental_uris":{"android":"levelo://app?vid=c03f8347-5506-4d42-8df7-0ee12982e7b5","ios":"levelo://app?vid=c03f8347-5506-4d42-8df7-0ee12982e7b5"},"vehicle_type_id":"4","last_reported":1740496202,"current_range_meters":9200,"station_id":"ce4bh492rcd13ifvqdug","pricing_plan_id":"cebpf4jnsgd1na2vs0mg"},{"bike_id":"e4d253b1-bed8-4007-8de6-68c7c5badcca","system_id":"levelo_inurba_marseille","lat":43.29306,"lon":5.36857,"is_reserved":false,"is_disabled":false,"rental_uris":{"android":"levelo://app?vid=e4d253b1-bed8-4007-8de6-68c7c5badcca","ios":"levelo://app?vid=e4d253b1-bed8-4007-8de6-68c7c5badcca"},"vehicle_type_id":"4","last_reported":1740496202,"current_range_meters":9600,"station_id":"ce4bhbp2rcd13ifvqesg","pricing_plan_id":"cebpf4jnsgd1na2vs0mg"},{"bike_id":"4e3483dc-0e4a-419b-bff7-c5274db2d5fa","system_id":"levelo_inurba_marseille","lat":43.3096,"lon":5.39051,"is_reserved":false,"is_disabled":false,"rental_uris":{"android":"levelo://app?vid=4e3483dc-0e4a-419b-bff7-c5274db2d5fa","ios":"levelo://app?vid=4e3483dc-0e4a-419b-bff7-c5274db2d5fa"},"vehicle_type_id":"4","last_reported":1740496202,"current_range_meters":9600,"station_id":"ce4bgup2rcd13ifvqco0","pricing_plan_id":"cebpf4jnsgd1na2vs0mg"},{"bike_id":"2ec37144-338a-4a6a-8bb8-90db3e89a31d","system_id":"levelo_inurba_marseille","lat":43.30537,"lon":5.36533,"is_reserved":false,"is_disabled":false,"rental_uris":{"android":"levelo://app?vid=2ec37144-338a-4a6a-8bb8-90db3e89a31d","ios":"levelo://app?vid=2ec37144-338a-4a6a-8bb8-90db3e89a31d"},"vehicle_type_id":"4","last_reported":1740496202,"current_range_meters":0,"station_id":"ce4bgs12rcd13ifvqcag","pricing_plan_id":"cebpf4jnsgd1na2vs0mg"},{"bike_id":"dc9afcc9-e446-4a51-b68d-aa1cc595059e","system_id":"levelo_inurba_marseille","lat":43.29446,"lon":5.39757,"is_reserved":false,"is_disabled":false,"rental_uris":{"android":"levelo://app?vid=dc9afcc9-e446-4a51-b68d-aa1cc595059e","ios":"levelo://app?vid=dc9afcc9-e446-4a51-b68d-aa1cc595059e"},"vehicle_type_id":"4","last_reported":1740496202,"current_range_meters":10800,"station_id":"ce4bh3h2rcd13ifvqdo0","pricing_plan_id":"cebpf4jnsgd1na2vs0mg"},{"bike_id":"ae8a19c6-d644-4dc9-829e-8caf6b1d2af0","system_id":"levelo_inurba_marseille","lat":43.27208,"lon":5.39201,"is_reserved":false,"is_disabled":true,"rental_uris":{"android":"levelo://app?vid=ae8a19c6-d644-4dc9-829e-8caf6b1d2af0","ios":"levelo://app?vid=ae8a19c6-d644-4dc9-829e-8caf6b1d2af0"},"vehicle_type_id":"4","last_reported":1740496202,"current_range_meters":10000,"station_id":"ce4bhhp2rcd13ifvqfm0","pricing_plan_id":"cebpf4jnsgd1na2vs0mg"},{"bike_id":"c5c26728-281c-49c6-afe1-2c2a719e8f6f","system_id":"levelo_inurba_marseille","lat":43.29314,"lon":5.37186,"is_reserved":false,"is_disabled":false,"rental_uris":{"android":"levelo://app?vid=c5c26728-281c-49c6-afe1-2c2a719e8f6f","ios":"levelo://app?vid=c5c26728-281c-49c6-afe1-2c2a719e8f6f"},"vehicle_type_id":"4","last_reported":1740496202,"current_range_meters":9600,"station_id":"ce4bgh92rcd13ifvqb40","pricing_plan_id":"cebpf4jnsgd1na2vs0mg"},{"bike_id":"c80e0669-8786-4877-b1ad-4233e01d914b","system_id":"levelo_inurba_marseille","lat":43.28721,"lon":5.37927,"is_reserved":false,"is_disabled":false,"rental_uris":{"android":"levelo://app?vid=c80e0669-8786-4877-b1ad-4233e01d914b","ios":"levelo://app?vid=c80e0669-8786-4877-b1ad-4233e01d914b"},"vehicle_type_id":"4","last_reported":1740496202,"current_range_meters":9600,"station_id":"ce4bh9p2rcd13ifvqec0","pricing_plan_id":"cebpf4jnsgd1na2vs0mg"},{"bike_id":"9db9c1bc-8216-48f5-952b-5dc1e503ee6a","system_id":"levelo_inurba_marseille","lat":43.3031,"lon":5.36893,"is_reserved":false,"is_disabled":false,"rental_uris":{"android":"levelo://app?vid=9db9c1bc-8216-48f5-952b-5dc1e503ee6a","ios":"levelo://app?vid=9db9c1bc-8216-48f5-952b-5dc1e503ee6a"},"vehicle_type_id":"4","last_reported":1740496202,"current_range_meters":6400,"station_id":"ce4bgqh2rcd13ifvqc5g","pricing_plan_id":"cebpf4jnsgd1na2vs0mg"},{"bike_id":"4c8d2f14-9b48-4526-a12f-33379a52a255","system_id":"levelo_inurba_marseille","lat":43.33027,"lon":5.39054,"is_reserved":false,"is_disabled":false,"rental_uris":{"android":"levelo://app?vid=4c8d2f14-9b48-4526-a12f-33379a52a255","ios":"levelo://app?vid=4c8d2f14-9b48-4526-a12f-33379a52a255"},"vehicle_type_id":"4","last_reported":1740496202,"current_range_meters":4400,"station_id":"ce4bhr92rcd13ifvqhrg","pricing_plan_id":"cebpf4jnsgd1na2vs0mg"},{"bike_id":"e5c275a2-a964-47d8-9489-ed1126cf4cef","system_id":"levelo_inurba_marseille","lat":43.29613,"lon":5.3792,"is_reserved":false,"is_disabled":false,"rental_uris":{"android":"levelo://app?vid=e5c275a2-a964-47d8-9489-ed1126cf4cef","ios":"levelo://app?vid=e5c275a2-a964-47d8-9489-ed1126cf4cef"},"vehicle_type_id":"4","last_reported":1740496202,"current_range_meters":10000,"station_id":"","pricing_plan_id":"cebpf4jnsgd1na2vs0mg"},{"bike_id":"b86f6d09-16f9-40a7-b718-fbd2f6f5e660","system_id":"levelo_inurba_marseille","lat":43.25587,"lon":5.38248,"is_reserved":false,"is_disabled":false,"rental_uris":{"android":"levelo://app?vid=b86f6d09-16f9-40a7-b718-fbd2f6f5e660","ios":"levelo://app?vid=b86f6d09-16f9-40a7-b718-fbd2f6f5e660"},"vehicle_type_id":"4","last_reported":1740496202,"current_range_meters":10000,"station_id":"ce4bhih2rcd13ifvqfs0","pricing_plan_id":"cebpf4jnsgd1na2vs0mg"},{"bike_id":"fb882053-c9da-4ac0-a6ba-3b807d608aaa","system_id":"levelo_inurba_marseille","lat":43.284883,"lon":5.385657,"is_reserved":false,"is_disabled":false,"rental_uris":{"android":"levelo://app?vid=fb882053-c9da-4ac0-a6ba-3b807d608aaa","ios":"levelo://app?vid=fb882053-c9da-4ac0-a6ba-3b807d608aaa"},"vehicle_type_id":"4","last_reported":1740496202,"current_range_meters":10800,"station_id":"ce4bh8p2rcd13ifvqeb0","pricing_plan_id":"cebpf4jnsgd1na2vs0mg"},{"bike_id":"339b9cf4-689c-4f8e-b96d-e0114e7b9e9d","system_id":"levelo_inurba_marseille","lat":43.26786,"lon":5.3942,"is_reserved":false,"is_disabled":false,"rental_uris":{"android":"levelo://app?vid=339b9cf4-689c-4f8e-b96d-e0114e7b9e9d","ios":"levelo://app?vid=339b9cf4-689c-4f8e-b96d-e0114e7b9e9d"},"vehicle_type_id":"4","last_reported":1740496202,"current_range_meters":10000,"station_id":"ce4bhh12rcd13ifvqfg0","pricing_plan_id":"cebpf4jnsgd1na2vs0mg"},{"bike_id":"b8ce8132-e8a7-4e14-aa42-3537bd2b6a78","system_id":"levelo_inurba_marseille","lat":43.24658,"lon":5.3817,"is_reserved":false,"is_disabled":false,"rental_uris":{"android":"levelo://app?vid=b8ce8132-e8a7-4e14-aa42-3537bd2b6a78","ios":"levelo://app?vid=b8ce8132-e8a7-4e14-aa42-3537bd2b6a78"},"vehicle_type_id":"4","last_reported":1740496202,"current_range_meters":10000,"station_id":"ce4bhih2rcd13ifvqfr0","pricing_plan_id":"cebpf4jnsgd1na2vs0mg"},{"bike_id":"723864c1-6cc4-47c6-9ea7-8902d9b08bd4","system_id":"levelo_inurba_marseille","lat":43.29535,"lon":5.38545,"is_reserved":false,"is_disabled":false,"rental_uris":{"android":"levelo://app?vid=723864c1-6cc4-47c6-9ea7-8902d9b08bd4","ios":"levelo://app?vid=723864c1-6cc4-47c6-9ea7-8902d9b08bd4"},"vehicle_type_id":"4","last_reported":1740496202,"current_range_meters":10800,"station_id":"ce4bgih2rcd13ifvqba0","pricing_plan_id":"cebpf4jnsgd1na2vs0mg"},{"bike_id":"b8056528-61d4-45d9-b2dd-e6ab8ef50c51","system_id":"levelo_inurba_marseille","lat":43.31269,"lon":5.40169,"is_reserved":false,"is_disabled":false,"rental_uris":{"android":"levelo://app?vid=b8056528-61d4-45d9-b2dd-e6ab8ef50c51","ios":"levelo://app?vid=b8056528-61d4-45d9-b2dd-e6ab8ef50c51"},"vehicle_type_id":"4","last_reported":1740496202,"current_range_meters":10800,"station_id":"ce4bh092rcd13ifvqd30","pricing_plan_id":"cebpf4jnsgd1na2vs0mg"},{"bike_id":"7dbd9088-f325-49e0-b77f-968660d7216f","system_id":"levelo_inurba_marseille","lat":43.27976,"lon":5.38747,"is_reserved":false,"is_disabled":false,"rental_uris":{"android":"levelo://app?vid=7dbd9088-f325-49e0-b77f-968660d7216f","ios":"levelo://app?vid=7dbd9088-f325-49e0-b77f-968660d7216f"},"vehicle_type_id":"4","last_reported":1740496202,"current_range_meters":10000,"station_id":"ce4bhg12rcd13ifvqf80","pricing_plan_id":"cebpf4jnsgd1na2vs0mg"},{"bike_id":"680cfa80-2337-45ca-9b39-b7005d404ab9","system_id":"levelo_inurba_marseille","lat":43.27056,"lon":5.40271,"is_reserved":false,"is_disabled":false,"rental_uris":{"android":"levelo://app?vid=680cfa80-2337-45ca-9b39-b7005d404ab9","ios":"levelo://app?vid=680cfa80-2337-45ca-9b39-b7005d404ab9"},"vehicle_type_id":"4","last_reported":1740496202,"current_range_meters":10800,"station_id":"ce4bhk92rcd13ifvqgc0","pricing_plan_id":"cebpf4jnsgd1na2vs0mg"},{"bike_id":"e560522d-07bf-4796-9a0d-137dd8bf7d73","system_id":"levelo_inurba_marseille","lat":43.25117,"lon":5.40324,"is_reserved":false,"is_disabled":false,"rental_uris":{"android":"levelo://app?vid=e560522d-07bf-4796-9a0d-137dd8bf7d73","ios":"levelo://app?vid=e560522d-07bf-4796-9a0d-137dd8bf7d73"},"vehicle_type_id":"4","last_reported":1740496202,"current_range_meters":10800,"station_id":"ce4bhlh2rcd13ifvqgig","pricing_plan_id":"cebpf4jnsgd1na2vs0mg"},{"bike_id":"c53ed6e7-916e-40f4-9e84-94eccc7a73ea","system_id":"levelo_inurba_marseille","lat":43.23153,"lon":5.43723,"is_reserved":false,"is_disabled":false,"rental_uris":{"android":"levelo://app?vid=c53ed6e7-916e-40f4-9e84-94eccc7a73ea","ios":"levelo://app?vid=c53ed6e7-916e-40f4-9e84-94eccc7a73ea"},"vehicle_type_id":"4","last_reported":1740496202,"current_range_meters":10800,"station_id":"ce4bhmp2rcd13ifvqgog","pricing_plan_id":"cebpf4jnsgd1na2vs0mg"},{"bike_id":"65e3dbf5-cb43-4afc-9f8b-0026fd886e1f","system_id":"levelo_inurba_marseille","lat":43.324917,"lon":5.365849,"is_reserved":false,"is_disabled":false,"rental_uris":{"android":"levelo://app?vid=65e3dbf5-cb43-4afc-9f8b-0026fd886e1f","ios":"levelo://app?vid=65e3dbf5-cb43-4afc-9f8b-0026fd886e1f"},"vehicle_type_id":"4","last_reported":1740496202,"current_range_meters":10800,"station_id":"ce4bhs12rcd13ifvqhvg","pricing_plan_id":"cebpf4jnsgd1na2vs0mg"},{"bike_id":"a71f70d3-0e56-4055-b4e0-7c71b85a7551","system_id":"levelo_inurba_marseille","lat":43.27674,"lon":5.38867,"is_reserved":false,"is_disabled":false,"rental_uris":{"android":"levelo://app?vid=a71f70d3-0e56-4055-b4e0-7c71b85a7551","ios":"levelo://app?vid=a71f70d3-0e56-4055-b4e0-7c71b85a7551"},"vehicle_type_id":"4","last_reported":1740496202,"current_range_meters":10800,"station_id":"ce4bhi12rcd13ifvqfo0","pricing_plan_id":"cebpf4jnsgd1na2vs0mg"},{"bike_id":"d643baea-593d-4bd5-8b62-24fa18bab7a8","system_id":"levelo_inurba_marseille","lat":43.29589,"lon":5.37509,"is_reserved":false,"is_disabled":false,"rental_uris":{"android":"levelo://app?vid=d643baea-593d-4bd5-8b62-24fa18bab7a8","ios":"levelo://app?vid=d643baea-593d-4bd5-8b62-24fa18bab7a8"},"vehicle_type_id":"4","last_reported":1740496202,"current_range_meters":11200,"station_id":"ce4bgh92rcd13ifvqb50","pricing_plan_id":"cebpf4jnsgd1na2vs0mg"},{"bike_id":"41c45514-78ef-4437-b6cf-da857a9e58ef","system_id":"levelo_inurba_marseille","lat":43.25838,"lon":5.39433,"is_reserved":false,"is_disabled":false,"rental_uris":{"android":"levelo://app?vid=41c45514-78ef-4437-b6cf-da857a9e58ef","ios":"levelo://app?vid=41c45514-78ef-4437-b6cf-da857a9e58ef"},"vehicle_type_id":"4","last_reported":1740496202,"current_range_meters":11200,"station_id":"ce4bhip2rcd13ifvqft0","pricing_plan_id":"cebpf4jnsgd1na2vs0mg"},{"bike_id":"8897ed3b-0bb5-4b91-8567-b32811102fb4","system_id":"levelo_inurba_marseille","lat":43.27949,"lon":5.38724,"is_reserved":false,"is_disabled":false,"rental_uris":{"android":"levelo://app?vid=8897ed3b-0bb5-4b91-8567-b32811102fb4","ios":"levelo://app?vid=8897ed3b-0bb5-4b91-8567-b32811102fb4"},"vehicle_type_id":"4","last_reported":1740496202,"current_range_meters":11600,"station_id":"ce4bhg12rcd13ifvqf80","pricing_plan_id":"cebpf4jnsgd1na2vs0mg"},{"bike_id":"05f51bd6-bf8c-4b6c-ba2f-d7bf7cec3006","system_id":"levelo_inurba_marseille","lat":43.23198,"lon":5.35576,"is_reserved":false,"is_disabled":false,"rental_uris":{"android":"levelo://app?vid=05f51bd6-bf8c-4b6c-ba2f-d7bf7cec3006","ios":"levelo://app?vid=05f51bd6-bf8c-4b6c-ba2f-d7bf7cec3006"},"vehicle_type_id":"4","last_reported":1740496202,"current_range_meters":11600,"station_id":"ce4bhu92rcd13ifvqi70","pricing_plan_id":"cebpf4jnsgd1na2vs0mg"},{"bike_id":"8b50cb91-471e-4bba-86b9-2a8678b6b9ea","system_id":"levelo_inurba_marseille","lat":43.29527,"lon":5.38542,"is_reserved":false,"is_disabled":false,"rental_uris":{"android":"levelo://app?vid=8b50cb91-471e-4bba-86b9-2a8678b6b9ea","ios":"levelo://app?vid=8b50cb91-471e-4bba-86b9-2a8678b6b9ea"},"vehicle_type_id":"4","last_reported":1740496202,"current_range_meters":11600,"station_id":"ce4bgih2rcd13ifvqba0","pricing_plan_id":"cebpf4jnsgd1na2vs0mg"},{"bike_id":"fdb8a77a-baa2-4b66-9406-53657b7c05e5","system_id":"levelo_inurba_marseille","lat":43.29275,"lon":5.40125,"is_reserved":false,"is_disabled":false,"rental_uris":{"android":"levelo://app?vid=fdb8a77a-baa2-4b66-9406-53657b7c05e5","ios":"levelo://app?vid=fdb8a77a-baa2-4b66-9406-53657b7c05e5"},"vehicle_type_id":"4","last_reported":1740496202,"current_range_meters":11600,"station_id":"ce4bh312rcd13ifvqdk0","pricing_plan_id":"cebpf4jnsgd1na2vs0mg"},{"bike_id":"ba353e72-b588-4062-b8a0-6bc1629aa033","system_id":"levelo_inurba_marseille","lat":43.29278,"lon":5.36844,"is_reserved":false,"is_disabled":false,"rental_uris":{"android":"levelo://app?vid=ba353e72-b588-4062-b8a0-6bc1629aa033","ios":"levelo://app?vid=ba353e72-b588-4062-b8a0-6bc1629aa033"},"vehicle_type_id":"4","last_reported":1740496202,"current_range_meters":12000,"station_id":"ce4bhbp2rcd13ifvqesg","pricing_plan_id":"cebpf4jnsgd1na2vs0mg"},{"bike_id":"56497272-a0e2-445e-ac82-c8fb9b27bed0","system_id":"levelo_inurba_marseille","lat":43.29633,"lon":5.37726,"is_reserved":false,"is_disabled":false,"rental_uris":{"android":"levelo://app?vid=56497272-a0e2-445e-ac82-c8fb9b27bed0","ios":"levelo://app?vid=56497272-a0e2-445e-ac82-c8fb9b27bed0"},"vehicle_type_id":"4","last_reported":1740496202,"current_range_meters":12000,"station_id":"ce4bgi92rcd13ifvqb90","pricing_plan_id":"cebpf4jnsgd1na2vs0mg"},{"bike_id":"7c45866a-bd99-4c12-9747-66203f12a96e","system_id":"levelo_inurba_marseille","lat":43.23143,"lon":5.35519,"is_reserved":false,"is_disabled":false,"rental_uris":{"android":"levelo://app?vid=7c45866a-bd99-4c12-9747-66203f12a96e","ios":"levelo://app?vid=7c45866a-bd99-4c12-9747-66203f12a96e"},"vehicle_type_id":"4","last_reported":1740496202,"current_range_meters":12000,"station_id":"","pricing_plan_id":"cebpf4jnsgd1na2vs0mg"},{"bike_id":"31cecc24-a5e3-4b06-b226-209e9963d8fa","system_id":"levelo_inurba_marseille","lat":43.23129,"lon":5.43687,"is_reserved":false,"is_disabled":false,"rental_uris":{"android":"levelo://app?vid=31cecc24-a5e3-4b06-b226-209e9963d8fa","ios":"levelo://app?vid=31cecc24-a5e3-4b06-b226-209e9963d8fa"},"vehicle_type_id":"4","last_reported":1740496202,"current_range_meters":12000,"station_id":"ce4bhmp2rcd13ifvqgog","pricing_plan_id":"cebpf4jnsgd1na2vs0mg"},{"bike_id":"2c2286a6-c1b4-48d8-9142-447bcf139df9","system_id":"levelo_inurba_marseille","lat":43.29019,"lon":5.38152,"is_reserved":false,"is_disabled":false,"rental_uris":{"android":"levelo://app?vid=2c2286a6-c1b4-48d8-9142-447bcf139df9","ios":"levelo://app?vid=2c2286a6-c1b4-48d8-9142-447bcf139df9"},"vehicle_type_id":"4","last_reported":1740496202,"current_range_meters":9600,"station_id":"ce4bh4p2rcd13ifvqe1g","pricing_plan_id":"cebpf4jnsgd1na2vs0mg"},{"bike_id":"aa461733-5cf8-4735-867e-49f8d4ad6795","system_id":"levelo_inurba_marseille","lat":43.29285,"lon":5.3683,"is_reserved":false,"is_disabled":false,"rental_uris":{"android":"levelo://app?vid=aa461733-5cf8-4735-867e-49f8d4ad6795","ios":"levelo://app?vid=aa461733-5cf8-4735-867e-49f8d4ad6795"},"vehicle_type_id":"4","last_reported":1740496202,"current_range_meters":12400,"station_id":"ce4bhbp2rcd13ifvqesg","pricing_plan_id":"cebpf4jnsgd1na2vs0mg"},{"bike_id":"c49e12d6-221a-4f12-bd11-373c559bc0d5","system_id":"levelo_inurba_marseille","lat":43.25118,"lon":5.40325,"is_reserved":false,"is_disabled":false,"rental_uris":{"android":"levelo://app?vid=c49e12d6-221a-4f12-bd11-373c559bc0d5","ios":"levelo://app?vid=c49e12d6-221a-4f12-bd11-373c559bc0d5"},"vehicle_type_id":"4","last_reported":1740496202,"current_range_meters":12400,"station_id":"ce4bhlh2rcd13ifvqgig","pricing_plan_id":"cebpf4jnsgd1na2vs0mg"},{"bike_id":"c2336e3d-90a2-4750-a7a4-7124c33ece43","system_id":"levelo_inurba_marseille","lat":43.2311,"lon":5.43681,"is_reserved":false,"is_disabled":false,"rental_uris":{"android":"levelo://app?vid=c2336e3d-90a2-4750-a7a4-7124c33ece43","ios":"levelo://app?vid=c2336e3d-90a2-4750-a7a4-7124c33ece43"},"vehicle_type_id":"4","last_reported":1740496202,"current_range_meters":12400,"station_id":"ce4bhmp2rcd13ifvqgog","pricing_plan_id":"cebpf4jnsgd1na2vs0mg"},{"bike_id":"91850e3c-7892-4a69-bcba-71ceeab3fc2e","system_id":"levelo_inurba_marseille","lat":43.24542,"lon":5.39522,"is_reserved":false,"is_disabled":false,"rental_uris":{"android":"levelo://app?vid=91850e3c-7892-4a69-bcba-71ceeab3fc2e","ios":"levelo://app?vid=91850e3c-7892-4a69-bcba-71ceeab3fc2e"},"vehicle_type_id":"4","last_reported":1740496202,"current_range_meters":10000,"station_id":"ce4bhlp2rcd13ifvqgjg","pricing_plan_id":"cebpf4jnsgd1na2vs0mg"},{"bike_id":"2a28bcfe-6497-4079-988a-cc641db203ed","system_id":"levelo_inurba_marseille","lat":43.27942,"lon":5.4104,"is_reserved":false,"is_disabled":false,"rental_uris":{"android":"levelo://app?vid=2a28bcfe-6497-4079-988a-cc641db203ed","ios":"levelo://app?vid=2a28bcfe-6497-4079-988a-cc641db203ed"},"vehicle_type_id":"4","last_reported":1740496202,"current_range_meters":12400,"station_id":"ce4bhnp2rcd13ifvqh0g","pricing_plan_id":"cebpf4jnsgd1na2vs0mg"},{"bike_id":"8ecb4deb-82fd-4cf9-84d7-fb893a5d167e","system_id":"levelo_inurba_marseille","lat":43.28548,"lon":5.38457,"is_reserved":false,"is_disabled":false,"rental_uris":{"android":"levelo://app?vid=8ecb4deb-82fd-4cf9-84d7-fb893a5d167e","ios":"levelo://app?vid=8ecb4deb-82fd-4cf9-84d7-fb893a5d167e"},"vehicle_type_id":"4","last_reported":1740496202,"current_range_meters":12800,"station_id":"","pricing_plan_id":"cebpf4jnsgd1na2vs0mg"},{"bike_id":"c2d79d2e-6bc2-413c-87c3-4cc193dd8564","system_id":"levelo_inurba_marseille","lat":43.29909,"lon":5.3747,"is_reserved":false,"is_disabled":false,"rental_uris":{"android":"levelo://app?vid=c2d79d2e-6bc2-413c-87c3-4cc193dd8564","ios":"levelo://app?vid=c2d79d2e-6bc2-413c-87c3-4cc193dd8564"},"vehicle_type_id":"4","last_reported":1740496202,"current_range_meters":13600,"station_id":"ce4bgjh2rcd13ifvqbg0","pricing_plan_id":"cebpf4jnsgd1na2vs0mg"},{"bike_id":"2a4ab433-8ff4-404a-8234-f002641caff4","system_id":"levelo_inurba_marseille","lat":43.30136,"lon":5.38796,"is_reserved":false,"is_disabled":false,"rental_uris":{"android":"levelo://app?vid=2a4ab433-8ff4-404a-8234-f002641caff4","ios":"levelo://app?vid=2a4ab433-8ff4-404a-8234-f002641caff4"},"vehicle_type_id":"4","last_reported":1740496202,"current_range_meters":12800,"station_id":"ce4bghh2rcd13ifvqb60","pricing_plan_id":"cebpf4jnsgd1na2vs0mg"},{"bike_id":"278c8dfa-dce5-4580-9f98-1e5bf687fe79","system_id":"levelo_inurba_marseille","lat":43.3249,"lon":5.365742,"is_reserved":false,"is_disabled":false,"rental_uris":{"android":"levelo://app?vid=278c8dfa-dce5-4580-9f98-1e5bf687fe79","ios":"levelo://app?vid=278c8dfa-dce5-4580-9f98-1e5bf687fe79"},"vehicle_type_id":"4","last_reported":1740496202,"current_range_meters":13600,"station_id":"ce4bhs12rcd13ifvqhvg","pricing_plan_id":"cebpf4jnsgd1na2vs0mg"},{"bike_id":"c7ef45fd-2187-4278-973a-a5d49b65f47e","system_id":"levelo_inurba_marseille","lat":43.30319,"lon":5.40433,"is_reserved":false,"is_disabled":false,"rental_uris":{"android":"levelo://app?vid=c7ef45fd-2187-4278-973a-a5d49b65f47e","ios":"levelo://app?vid=c7ef45fd-2187-4278-973a-a5d49b65f47e"},"vehicle_type_id":"4","last_reported":1740496202,"current_range_meters":12800,"station_id":"ce4bh012rcd13ifvqd10","pricing_plan_id":"cebpf4jnsgd1na2vs0mg"},{"bike_id":"9062f7b6-9c81-49b8-a1bd-5df58202afcd","system_id":"levelo_inurba_marseille","lat":43.31713,"lon":5.43707,"is_reserved":false,"is_disabled":false,"rental_uris":{"android":"levelo://app?vid=9062f7b6-9c81-49b8-a1bd-5df58202afcd","ios":"levelo://app?vid=9062f7b6-9c81-49b8-a1bd-5df58202afcd"},"vehicle_type_id":"4","last_reported":1740496202,"current_range_meters":12800,"station_id":"ce4bhp92rcd13ifvqhcg","pricing_plan_id":"cebpf4jnsgd1na2vs0mg"},{"bike_id":"c1a6f2b9-0759-4679-b9e3-aa8adf885b07","system_id":"levelo_inurba_marseille","lat":43.29267,"lon":5.38447,"is_reserved":false,"is_disabled":false,"rental_uris":{"android":"levelo://app?vid=c1a6f2b9-0759-4679-b9e3-aa8adf885b07","ios":"levelo://app?vid=c1a6f2b9-0759-4679-b9e3-aa8adf885b07"},"vehicle_type_id":"4","last_reported":1740496202,"current_range_meters":12800,"station_id":"ce4bh692rcd13ifvqea0","pricing_plan_id":"cebpf4jnsgd1na2vs0mg"},{"bike_id":"6f207b35-4400-4fec-a36f-c4c946355a95","system_id":"levelo_inurba_marseille","lat":43.27935,"lon":5.41036,"is_reserved":false,"is_disabled":false,"rental_uris":{"android":"levelo://app?vid=6f207b35-4400-4fec-a36f-c4c946355a95","ios":"levelo://app?vid=6f207b35-4400-4fec-a36f-c4c946355a95"},"vehicle_type_id":"4","last_reported":1740496202,"current_range_meters":13600,"station_id":"ce4bhnp2rcd13ifvqh0g","pricing_plan_id":"cebpf4jnsgd1na2vs0mg"},{"bike_id":"55ae3bd8-29a8-40af-949a-81d3264f9bf6","system_id":"levelo_inurba_marseille","lat":43.26224,"lon":5.40449,"is_reserved":false,"is_disabled":false,"rental_uris":{"android":"levelo://app?vid=55ae3bd8-29a8-40af-949a-81d3264f9bf6","ios":"levelo://app?vid=55ae3bd8-29a8-40af-949a-81d3264f9bf6"},"vehicle_type_id":"4","last_reported":1740496202,"current_range_meters":13600,"station_id":"ce4bhmh2rcd13ifvqgmg","pricing_plan_id":"cebpf4jnsgd1na2vs0mg"},{"bike_id":"078ec0b8-f3ee-40a5-83dd-16c6ac25214b","system_id":"levelo_inurba_marseille","lat":43.25013,"lon":5.38916,"is_reserved":false,"is_disabled":false,"rental_uris":{"android":"levelo://app?vid=078ec0b8-f3ee-40a5-83dd-16c6ac25214b","ios":"levelo://app?vid=078ec0b8-f3ee-40a5-83dd-16c6ac25214b"},"vehicle_type_id":"4","last_reported":1740496202,"current_range_meters":13600,"station_id":"ce4bhgp2rcd13ifvqfd0","pricing_plan_id":"cebpf4jnsgd1na2vs0mg"},{"bike_id":"d0801915-0de0-4f9d-9726-750b42c06614","system_id":"levelo_inurba_marseille","lat":43.32097,"lon":5.36774,"is_reserved":false,"is_disabled":false,"rental_uris":{"android":"levelo://app?vid=d0801915-0de0-4f9d-9726-750b42c06614","ios":"levelo://app?vid=d0801915-0de0-4f9d-9726-750b42c06614"},"vehicle_type_id":"4","last_reported":1740496202,"current_range_meters":13600,"station_id":"ce4bhrh2rcd13ifvqhug","pricing_plan_id":"cebpf4jnsgd1na2vs0mg"},{"bike_id":"b613cfe6-905f-44bb-a91e-69532093639a","system_id":"levelo_inurba_marseille","lat":43.29034,"lon":5.37572,"is_reserved":false,"is_disabled":false,"rental_uris":{"android":"levelo://app?vid=b613cfe6-905f-44bb-a91e-69532093639a","ios":"levelo://app?vid=b613cfe6-905f-44bb-a91e-69532093639a"},"vehicle_type_id":"4","last_reported":1740496202,"current_range_meters":15200,"station_id":"ce4bh692rcd13ifvqe90","pricing_plan_id":"cebpf4jnsgd1na2vs0mg"},{"bike_id":"19fc91b8-7ac0-4caa-89c0-b395ae6b9802","system_id":"levelo_inurba_marseille","lat":43.26213,"lon":5.37447,"is_reserved":false,"is_disabled":false,"rental_uris":{"android":"levelo://app?vid=19fc91b8-7ac0-4caa-89c0-b395ae6b9802","ios":"levelo://app?vid=19fc91b8-7ac0-4caa-89c0-b395ae6b9802"},"vehicle_type_id":"4","last_reported":1740496202,"current_range_meters":14400,"station_id":"ce4bhgp2rcd13ifvqfc0","pricing_plan_id":"cebpf4jnsgd1na2vs0mg"},{"bike_id":"73ea6473-b79b-47d3-b2b7-153e9d286f14","system_id":"levelo_inurba_marseille","lat":43.29262,"lon":5.40905,"is_reserved":false,"is_disabled":false,"rental_uris":{"android":"levelo://app?vid=73ea6473-b79b-47d3-b2b7-153e9d286f14","ios":"levelo://app?vid=73ea6473-b79b-47d3-b2b7-153e9d286f14"},"vehicle_type_id":"4","last_reported":1740496202,"current_range_meters":14400,"station_id":"ce4bh192rcd13ifvqdc0","pricing_plan_id":"cebpf4jnsgd1na2vs0mg"},{"bike_id":"ebf18b50-37ba-4ef9-8eca-f595f189e384","system_id":"levelo_inurba_marseille","lat":43.28117,"lon":5.37819,"is_reserved":false,"is_disabled":false,"rental_uris":{"android":"levelo://app?vid=ebf18b50-37ba-4ef9-8eca-f595f189e384","ios":"levelo://app?vid=ebf18b50-37ba-4ef9-8eca-f595f189e384"},"vehicle_type_id":"4","last_reported":1740496202,"current_range_meters":15200,"station_id":"ce4bha12rcd13ifvqee0","pricing_plan_id":"cebpf4jnsgd1na2vs0mg"},{"bike_id":"1c61d2dc-6dc1-4c8f-976d-3ad42a47cc17","system_id":"levelo_inurba_marseille","lat":43.30911,"lon":5.36863,"is_reserved":false,"is_disabled":false,"rental_uris":{"android":"levelo://app?vid=1c61d2dc-6dc1-4c8f-976d-3ad42a47cc17","ios":"levelo://app?vid=1c61d2dc-6dc1-4c8f-976d-3ad42a47cc17"},"vehicle_type_id":"4","last_reported":1740496202,"current_range_meters":15200,"station_id":"ce4bgn92rcd13ifvqbvg","pricing_plan_id":"cebpf4jnsgd1na2vs0mg"},{"bike_id":"7750d85b-1fe2-4c07-981c-76163abfa8ef","system_id":"levelo_inurba_marseille","lat":43.28421,"lon":5.34973,"is_reserved":false,"is_disabled":false,"rental_uris":{"android":"levelo://app?vid=7750d85b-1fe2-4c07-981c-76163abfa8ef","ios":"levelo://app?vid=7750d85b-1fe2-4c07-981c-76163abfa8ef"},"vehicle_type_id":"4","last_reported":1740496202,"current_range_meters":15200,"station_id":"ce4bhbh2rcd13ifvqepg","pricing_plan_id":"cebpf4jnsgd1na2vs0mg"},{"bike_id":"941dd761-2dae-4c60-b2ec-a7cf99e063ac","system_id":"levelo_inurba_marseille","lat":43.30142,"lon":5.37408,"is_reserved":false,"is_disabled":false,"rental_uris":{"android":"levelo://app?vid=941dd761-2dae-4c60-b2ec-a7cf99e063ac","ios":"levelo://app?vid=941dd761-2dae-4c60-b2ec-a7cf99e063ac"},"vehicle_type_id":"4","last_reported":1740496202,"current_range_meters":18000,"station_id":"ce4bgs92rcd13ifvqcc0","pricing_plan_id":"cebpf4jnsgd1na2vs0mg"},{"bike_id":"40bd775e-5ce3-4948-be2f-acfa8e48e7a0","system_id":"levelo_inurba_marseille","lat":43.28618,"lon":5.35104,"is_reserved":false,"is_disabled":false,"rental_uris":{"android":"levelo://app?vid=40bd775e-5ce3-4948-be2f-acfa8e48e7a0","ios":"levelo://app?vid=40bd775e-5ce3-4948-be2f-acfa8e48e7a0"},"vehicle_type_id":"4","last_reported":1740496202,"current_range_meters":15200,"station_id":"ce4bhch2rcd13ifvqeug","pricing_plan_id":"cebpf4jnsgd1na2vs0mg"},{"bike_id":"fd14559b-059d-405f-8c4e-f756584c0d15","system_id":"levelo_inurba_marseille","lat":43.30798,"lon":5.38158,"is_reserved":false,"is_disabled":false,"rental_uris":{"android":"levelo://app?vid=fd14559b-059d-405f-8c4e-f756584c0d15","ios":"levelo://app?vid=fd14559b-059d-405f-8c4e-f756584c0d15"},"vehicle_type_id":"4","last_reported":1740496202,"current_range_meters":15200,"station_id":"ce4bgt12rcd13ifvqce0","pricing_plan_id":"cebpf4jnsgd1na2vs0mg"},{"bike_id":"77aea034-d40b-44ec-a3b0-a9bd9b158889","system_id":"levelo_inurba_marseille","lat":43.28268,"lon":5.35086,"is_reserved":false,"is_disabled":false,"rental_uris":{"android":"levelo://app?vid=77aea034-d40b-44ec-a3b0-a9bd9b158889","ios":"levelo://app?vid=77aea034-d40b-44ec-a3b0-a9bd9b158889"},"vehicle_type_id":"4","last_reported":1740496202,"current_range_meters":16000,"station_id":"ce4bhbp2rcd13ifvqerg","pricing_plan_id":"cebpf4jnsgd1na2vs0mg"},{"bike_id":"67ee95a1-160f-49c1-b11e-b3640680cd0d","system_id":"levelo_inurba_marseille","lat":43.32097,"lon":5.36799,"is_reserved":false,"is_disabled":false,"rental_uris":{"android":"levelo://app?vid=67ee95a1-160f-49c1-b11e-b3640680cd0d","ios":"levelo://app?vid=67ee95a1-160f-49c1-b11e-b3640680cd0d"},"vehicle_type_id":"4","last_reported":1740496202,"current_range_meters":16000,"station_id":"ce4bhrh2rcd13ifvqhug","pricing_plan_id":"cebpf4jnsgd1na2vs0mg"},{"bike_id":"4582d2c5-651f-4f5f-b4ed-1137781b1b11","system_id":"levelo_inurba_marseille","lat":43.30148,"lon":5.37423,"is_reserved":false,"is_disabled":false,"rental_uris":{"android":"levelo://app?vid=4582d2c5-651f-4f5f-b4ed-1137781b1b11","ios":"levelo://app?vid=4582d2c5-651f-4f5f-b4ed-1137781b1b11"},"vehicle_type_id":"4","last_reported":1740496202,"current_range_meters":14400,"station_id":"ce4bgs92rcd13ifvqcc0","pricing_plan_id":"cebpf4jnsgd1na2vs0mg"},{"bike_id":"63577696-17e3-4145-84fc-40c776ef9816","system_id":"levelo_inurba_marseille","lat":43.28503,"lon":5.38608,"is_reserved":false,"is_disabled":false,"rental_uris":{"android":"levelo://app?vid=63577696-17e3-4145-84fc-40c776ef9816","ios":"levelo://app?vid=63577696-17e3-4145-84fc-40c776ef9816"},"vehicle_type_id":"4","last_reported":1740496202,"current_range_meters":16000,"station_id":"ce4bh8p2rcd13ifvqeb0","pricing_plan_id":"cebpf4jnsgd1na2vs0mg"},{"bike_id":"79c0a0af-2bb0-47a3-9241-fddd4e7a95ab","system_id":"levelo_inurba_marseille","lat":43.32043,"lon":5.4157,"is_reserved":false,"is_disabled":false,"rental_uris":{"android":"levelo://app?vid=79c0a0af-2bb0-47a3-9241-fddd4e7a95ab","ios":"levelo://app?vid=79c0a0af-2bb0-47a3-9241-fddd4e7a95ab"},"vehicle_type_id":"4","last_reported":1740496202,"current_range_meters":16000,"station_id":"ce4bhq92rcd13ifvqhkg","pricing_plan_id":"cebpf4jnsgd1na2vs0mg"},{"bike_id":"18a42ace-cab1-4d36-aa51-a4c217260094","system_id":"levelo_inurba_marseille","lat":43.25824,"lon":5.39445,"is_reserved":false,"is_disabled":false,"rental_uris":{"android":"levelo://app?vid=18a42ace-cab1-4d36-aa51-a4c217260094","ios":"levelo://app?vid=18a42ace-cab1-4d36-aa51-a4c217260094"},"vehicle_type_id":"4","last_reported":1740496202,"current_range_meters":19200,"station_id":"ce4bhip2rcd13ifvqft0","pricing_plan_id":"cebpf4jnsgd1na2vs0mg"},{"bike_id":"00c6a2c9-78ec-4cb4-9bdb-3404a4229ede","system_id":"levelo_inurba_marseille","lat":43.29803,"lon":5.38086,"is_reserved":false,"is_disabled":false,"rental_uris":{"android":"levelo://app?vid=00c6a2c9-78ec-4cb4-9bdb-3404a4229ede","ios":"levelo://app?vid=00c6a2c9-78ec-4cb4-9bdb-3404a4229ede"},"vehicle_type_id":"4","last_reported":1740496202,"current_range_meters":16400,"station_id":"ce4bgip2rcd13ifvqbb0","pricing_plan_id":"cebpf4jnsgd1na2vs0mg"},{"bike_id":"2fcd3f9a-e5c5-4bd0-b9f0-88d96c218132","system_id":"levelo_inurba_marseille","lat":43.28715,"lon":5.37959,"is_reserved":false,"is_disabled":false,"rental_uris":{"android":"levelo://app?vid=2fcd3f9a-e5c5-4bd0-b9f0-88d96c218132","ios":"levelo://app?vid=2fcd3f9a-e5c5-4bd0-b9f0-88d96c218132"},"vehicle_type_id":"4","last_reported":1740496202,"current_range_meters":16400,"station_id":"ce4bh9p2rcd13ifvqec0","pricing_plan_id":"cebpf4jnsgd1na2vs0mg"},{"bike_id":"7425ab21-9824-429c-bb86-6c261e0c36aa","system_id":"levelo_inurba_marseille","lat":43.29266,"lon":5.40909,"is_reserved":false,"is_disabled":false,"rental_uris":{"android":"levelo://app?vid=7425ab21-9824-429c-bb86-6c261e0c36aa","ios":"levelo://app?vid=7425ab21-9824-429c-bb86-6c261e0c36aa"},"vehicle_type_id":"4","last_reported":1740496202,"current_range_meters":16400,"station_id":"ce4bh192rcd13ifvqdc0","pricing_plan_id":"cebpf4jnsgd1na2vs0mg"},{"bike_id":"38b06376-6887-4f69-bced-aeb1d34deead","system_id":"levelo_inurba_marseille","lat":43.29028,"lon":5.38642,"is_reserved":false,"is_disabled":false,"rental_uris":{"android":"levelo://app?vid=38b06376-6887-4f69-bced-aeb1d34deead","ios":"levelo://app?vid=38b06376-6887-4f69-bced-aeb1d34deead"},"vehicle_type_id":"4","last_reported":1740496202,"current_range_meters":16400,"station_id":"ce4bh4p2rcd13ifvqe0g","pricing_plan_id":"cebpf4jnsgd1na2vs0mg"},{"bike_id":"5bab9941-c997-48eb-9098-30a30c306e67","system_id":"levelo_inurba_marseille","lat":43.29069,"lon":5.37166,"is_reserved":false,"is_disabled":false,"rental_uris":{"android":"levelo://app?vid=5bab9941-c997-48eb-9098-30a30c306e67","ios":"levelo://app?vid=5bab9941-c997-48eb-9098-30a30c306e67"},"vehicle_type_id":"4","last_reported":1740496202,"current_range_meters":16400,"station_id":"ce4bh5p2rcd13ifvqe4g","pricing_plan_id":"cebpf4jnsgd1na2vs0mg"},{"bike_id":"d4328c88-2156-442e-b457-cebd452d99fe","system_id":"levelo_inurba_marseille","lat":43.290409,"lon":5.375759,"is_reserved":false,"is_disabled":false,"rental_uris":{"android":"levelo://app?vid=d4328c88-2156-442e-b457-cebd452d99fe","ios":"levelo://app?vid=d4328c88-2156-442e-b457-cebd452d99fe"},"vehicle_type_id":"4","last_reported":1740496202,"current_range_meters":16400,"station_id":"ce4bh692rcd13ifvqe90","pricing_plan_id":"cebpf4jnsgd1na2vs0mg"},{"bike_id":"0776a4cf-0fe2-4b84-8644-d146c987e27c","system_id":"levelo_inurba_marseille","lat":43.29719,"lon":5.36627,"is_reserved":false,"is_disabled":false,"rental_uris":{"android":"levelo://app?vid=0776a4cf-0fe2-4b84-8644-d146c987e27c","ios":"levelo://app?vid=0776a4cf-0fe2-4b84-8644-d146c987e27c"},"vehicle_type_id":"4","last_reported":1740496202,"current_range_meters":12000,"station_id":"ce4bgn12rcd13ifvqbt0","pricing_plan_id":"cebpf4jnsgd1na2vs0mg"},{"bike_id":"57f655d6-190e-4e44-b667-ec1f702c996d","system_id":"levelo_inurba_marseille","lat":43.26788,"lon":5.394233,"is_reserved":false,"is_disabled":false,"rental_uris":{"android":"levelo://app?vid=57f655d6-190e-4e44-b667-ec1f702c996d","ios":"levelo://app?vid=57f655d6-190e-4e44-b667-ec1f702c996d"},"vehicle_type_id":"4","last_reported":1740496202,"current_range_meters":16800,"station_id":"ce4bhh12rcd13ifvqfg0","pricing_plan_id":"cebpf4jnsgd1na2vs0mg"},{"bike_id":"dac28e23-49be-4ec5-a07f-374aa3dc0960","system_id":"levelo_inurba_marseille","lat":43.29931,"lon":5.36548,"is_reserved":false,"is_disabled":false,"rental_uris":{"android":"levelo://app?vid=dac28e23-49be-4ec5-a07f-374aa3dc0960","ios":"levelo://app?vid=dac28e23-49be-4ec5-a07f-374aa3dc0960"},"vehicle_type_id":"4","last_reported":1740496202,"current_range_meters":16800,"station_id":"ce4bgm92rcd13ifvqbr0","pricing_plan_id":"cebpf4jnsgd1na2vs0mg"},{"bike_id":"56c90c05-21dd-4258-af01-641c62e92e64","system_id":"levelo_inurba_marseille","lat":43.28624,"lon":5.35102,"is_reserved":false,"is_disabled":false,"rental_uris":{"android":"levelo://app?vid=56c90c05-21dd-4258-af01-641c62e92e64","ios":"levelo://app?vid=56c90c05-21dd-4258-af01-641c62e92e64"},"vehicle_type_id":"4","last_reported":1740496202,"current_range_meters":10800,"station_id":"ce4bhch2rcd13ifvqeug","pricing_plan_id":"cebpf4jnsgd1na2vs0mg"},{"bike_id":"c0ed74a2-e2a8-41f0-9b03-a680909f2682","system_id":"levelo_inurba_marseille","lat":43.27931,"lon":5.41038,"is_reserved":false,"is_disabled":false,"rental_uris":{"android":"levelo://app?vid=c0ed74a2-e2a8-41f0-9b03-a680909f2682","ios":"levelo://app?vid=c0ed74a2-e2a8-41f0-9b03-a680909f2682"},"vehicle_type_id":"4","last_reported":1740496202,"current_range_meters":16800,"station_id":"ce4bhnp2rcd13ifvqh0g","pricing_plan_id":"cebpf4jnsgd1na2vs0mg"},{"bike_id":"3bf64726-6707-4c38-9946-2332624f4c92","system_id":"levelo_inurba_marseille","lat":43.27907,"lon":5.38012,"is_reserved":false,"is_disabled":false,"rental_uris":{"android":"levelo://app?vid=3bf64726-6707-4c38-9946-2332624f4c92","ios":"levelo://app?vid=3bf64726-6707-4c38-9946-2332624f4c92"},"vehicle_type_id":"4","last_reported":1740496202,"current_range_meters":16400,"station_id":"ce4bhf92rcd13ifvqf50","pricing_plan_id":"cebpf4jnsgd1na2vs0mg"},{"bike_id":"99ecdcac-415f-4765-98a3-24c1718bdda8","system_id":"levelo_inurba_marseille","lat":43.3055,"lon":5.3672,"is_reserved":false,"is_disabled":false,"rental_uris":{"android":"levelo://app?vid=99ecdcac-415f-4765-98a3-24c1718bdda8","ios":"levelo://app?vid=99ecdcac-415f-4765-98a3-24c1718bdda8"},"vehicle_type_id":"4","last_reported":1740496202,"current_range_meters":16800,"station_id":"ce4bgrp2rcd13ifvqc9g","pricing_plan_id":"cebpf4jnsgd1na2vs0mg"},{"bike_id":"2b69adeb-5d7a-486a-9882-ac7cef43faa3","system_id":"levelo_inurba_marseille","lat":43.31168,"lon":5.38716,"is_reserved":false,"is_disabled":false,"rental_uris":{"android":"levelo://app?vid=2b69adeb-5d7a-486a-9882-ac7cef43faa3","ios":"levelo://app?vid=2b69adeb-5d7a-486a-9882-ac7cef43faa3"},"vehicle_type_id":"4","last_reported":1740496202,"current_range_meters":16400,"station_id":"ce4bgv12rcd13ifvqcp0","pricing_plan_id":"cebpf4jnsgd1na2vs0mg"},{"bike_id":"ad45f892-d70d-4ee2-b49b-6f5b55f6868a","system_id":"levelo_inurba_marseille","lat":43.30881,"lon":5.39631,"is_reserved":false,"is_disabled":false,"rental_uris":{"android":"levelo://app?vid=ad45f892-d70d-4ee2-b49b-6f5b55f6868a","ios":"levelo://app?vid=ad45f892-d70d-4ee2-b49b-6f5b55f6868a"},"vehicle_type_id":"4","last_reported":1740496202,"current_range_meters":16800,"station_id":"ce4bh012rcd13ifvqcv0","pricing_plan_id":"cebpf4jnsgd1na2vs0mg"},{"bike_id":"0b2f5009-1e4e-4593-8abd-b74dc1937c26","system_id":"levelo_inurba_marseille","lat":43.23192,"lon":5.39982,"is_reserved":false,"is_disabled":false,"rental_uris":{"android":"levelo://app?vid=0b2f5009-1e4e-4593-8abd-b74dc1937c26","ios":"levelo://app?vid=0b2f5009-1e4e-4593-8abd-b74dc1937c26"},"vehicle_type_id":"4","last_reported":1740496202,"current_range_meters":17200,"station_id":"ce4bhn12rcd13ifvqgqg","pricing_plan_id":"cebpf4jnsgd1na2vs0mg"},{"bike_id":"c696ad9a-9b68-4977-82bb-f7e0b53efe6f","system_id":"levelo_inurba_marseille","lat":43.29585,"lon":5.36748,"is_reserved":false,"is_disabled":false,"rental_uris":{"android":"levelo://app?vid=c696ad9a-9b68-4977-82bb-f7e0b53efe6f","ios":"levelo://app?vid=c696ad9a-9b68-4977-82bb-f7e0b53efe6f"},"vehicle_type_id":"4","last_reported":1740496202,"current_range_meters":17200,"station_id":"ce4bgph2rcd13ifvqc2g","pricing_plan_id":"cebpf4jnsgd1na2vs0mg"},{"bike_id":"fa506b51-41ba-442e-932a-476df4fa67d7","system_id":"levelo_inurba_marseille","lat":43.30162,"lon":5.3808,"is_reserved":false,"is_disabled":false,"rental_uris":{"android":"levelo://app?vid=fa506b51-41ba-442e-932a-476df4fa67d7","ios":"levelo://app?vid=fa506b51-41ba-442e-932a-476df4fa67d7"},"vehicle_type_id":"4","last_reported":1740496202,"current_range_meters":16400,"station_id":"ce4bgjp2rcd13ifvqbh0","pricing_plan_id":"cebpf4jnsgd1na2vs0mg"},{"bike_id":"518329ea-c4b3-422a-904a-f6b2190b2e7f","system_id":"levelo_inurba_marseille","lat":43.2417,"lon":5.39728,"is_reserved":false,"is_disabled":false,"rental_uris":{"android":"levelo://app?vid=518329ea-c4b3-422a-904a-f6b2190b2e7f","ios":"levelo://app?vid=518329ea-c4b3-422a-904a-f6b2190b2e7f"},"vehicle_type_id":"4","last_reported":1740496202,"current_range_meters":17600,"station_id":"ce4bhn12rcd13ifvqgpg","pricing_plan_id":"cebpf4jnsgd1na2vs0mg"},{"bike_id":"6a322d10-e576-4838-b30b-1ffd02f84288","system_id":"levelo_inurba_marseille","lat":43.23151,"lon":5.4372,"is_reserved":false,"is_disabled":false,"rental_uris":{"android":"levelo://app?vid=6a322d10-e576-4838-b30b-1ffd02f84288","ios":"levelo://app?vid=6a322d10-e576-4838-b30b-1ffd02f84288"},"vehicle_type_id":"4","last_reported":1740496202,"current_range_meters":17600,"station_id":"ce4bhmp2rcd13ifvqgog","pricing_plan_id":"cebpf4jnsgd1na2vs0mg"},{"bike_id":"a8961a16-4d9d-4026-81b4-70f1059f57c6","system_id":"levelo_inurba_marseille","lat":43.24177,"lon":5.36391,"is_reserved":false,"is_disabled":false,"rental_uris":{"android":"levelo://app?vid=a8961a16-4d9d-4026-81b4-70f1059f57c6","ios":"levelo://app?vid=a8961a16-4d9d-4026-81b4-70f1059f57c6"},"vehicle_type_id":"4","last_reported":1740496202,"current_range_meters":17600,"station_id":"cpo36qri1sfpv3e86is0","pricing_plan_id":"cebpf4jnsgd1na2vs0mg"},{"bike_id":"4eef4fed-fea6-4625-82fc-c05bc1c5b466","system_id":"levelo_inurba_marseille","lat":43.29006,"lon":5.35611,"is_reserved":false,"is_disabled":false,"rental_uris":{"android":"levelo://app?vid=4eef4fed-fea6-4625-82fc-c05bc1c5b466","ios":"levelo://app?vid=4eef4fed-fea6-4625-82fc-c05bc1c5b466"},"vehicle_type_id":"4","last_reported":1740496202,"current_range_meters":17600,"station_id":"ce4bhb92rcd13ifvqen0","pricing_plan_id":"cebpf4jnsgd1na2vs0mg"},{"bike_id":"5591e47c-57a3-42f4-b0e8-35d33dbfa918","system_id":"levelo_inurba_marseille","lat":43.33032,"lon":5.39041,"is_reserved":false,"is_disabled":false,"rental_uris":{"android":"levelo://app?vid=5591e47c-57a3-42f4-b0e8-35d33dbfa918","ios":"levelo://app?vid=5591e47c-57a3-42f4-b0e8-35d33dbfa918"},"vehicle_type_id":"4","last_reported":1740496202,"current_range_meters":17600,"station_id":"ce4bhr92rcd13ifvqhrg","pricing_plan_id":"cebpf4jnsgd1na2vs0mg"},{"bike_id":"3d8c23f8-b579-4892-810f-8a084a1bcfa9","system_id":"levelo_inurba_marseille","lat":43.25124,"lon":5.40328,"is_reserved":false,"is_disabled":false,"rental_uris":{"android":"levelo://app?vid=3d8c23f8-b579-4892-810f-8a084a1bcfa9","ios":"levelo://app?vid=3d8c23f8-b579-4892-810f-8a084a1bcfa9"},"vehicle_type_id":"4","last_reported":1740496202,"current_range_meters":17600,"station_id":"ce4bhlh2rcd13ifvqgig","pricing_plan_id":"cebpf4jnsgd1na2vs0mg"},{"bike_id":"ed4046f4-5b16-49bc-bfa1-cd37a905c54c","system_id":"levelo_inurba_marseille","lat":43.292159,"lon":5.383465,"is_reserved":false,"is_disabled":false,"rental_uris":{"android":"levelo://app?vid=ed4046f4-5b16-49bc-bfa1-cd37a905c54c","ios":"levelo://app?vid=ed4046f4-5b16-49bc-bfa1-cd37a905c54c"},"vehicle_type_id":"4","last_reported":1740496202,"current_range_meters":17600,"station_id":"ce4bh692rcd13ifvqea0","pricing_plan_id":"cebpf4jnsgd1na2vs0mg"},{"bike_id":"c3d0fefa-5db4-49bd-a964-1a22da440d36","system_id":"levelo_inurba_marseille","lat":43.269559,"lon":5.386313,"is_reserved":false,"is_disabled":true,"rental_uris":{"android":"levelo://app?vid=c3d0fefa-5db4-49bd-a964-1a22da440d36","ios":"levelo://app?vid=c3d0fefa-5db4-49bd-a964-1a22da440d36"},"vehicle_type_id":"4","last_reported":1740496202,"current_range_meters":17600,"station_id":"","pricing_plan_id":"cebpf4jnsgd1na2vs0mg"},{"bike_id":"1ab2acce-d2cb-47a4-abbb-c62d2d1f274d","system_id":"levelo_inurba_marseille","lat":43.2959,"lon":5.36747,"is_reserved":false,"is_disabled":false,"rental_uris":{"android":"levelo://app?vid=1ab2acce-d2cb-47a4-abbb-c62d2d1f274d","ios":"levelo://app?vid=1ab2acce-d2cb-47a4-abbb-c62d2d1f274d"},"vehicle_type_id":"4","last_reported":1740496202,"current_range_meters":18000,"station_id":"ce4bgph2rcd13ifvqc2g","pricing_plan_id":"cebpf4jnsgd1na2vs0mg"},{"bike_id":"e243d213-ed43-4e21-80e0-52a63e903cce","system_id":"levelo_inurba_marseille","lat":43.29926,"lon":5.36538,"is_reserved":false,"is_disabled":false,"rental_uris":{"android":"levelo://app?vid=e243d213-ed43-4e21-80e0-52a63e903cce","ios":"levelo://app?vid=e243d213-ed43-4e21-80e0-52a63e903cce"},"vehicle_type_id":"4","last_reported":1740496202,"current_range_meters":18000,"station_id":"ce4bgm92rcd13ifvqbr0","pricing_plan_id":"cebpf4jnsgd1na2vs0mg"},{"bike_id":"0c45db8a-f07f-468d-a6ef-c08290b1a757","system_id":"levelo_inurba_marseille","lat":43.29748,"lon":5.37668,"is_reserved":false,"is_disabled":false,"rental_uris":{"android":"levelo://app?vid=0c45db8a-f07f-468d-a6ef-c08290b1a757","ios":"levelo://app?vid=0c45db8a-f07f-468d-a6ef-c08290b1a757"},"vehicle_type_id":"4","last_reported":1740496202,"current_range_meters":18000,"station_id":"ce4bgkh2rcd13ifvqbl0","pricing_plan_id":"cebpf4jnsgd1na2vs0mg"},{"bike_id":"d47c6954-57df-4e01-a75f-471c9e4e30a6","system_id":"levelo_inurba_marseille","lat":43.2928,"lon":5.40122,"is_reserved":false,"is_disabled":false,"rental_uris":{"android":"levelo://app?vid=d47c6954-57df-4e01-a75f-471c9e4e30a6","ios":"levelo://app?vid=d47c6954-57df-4e01-a75f-471c9e4e30a6"},"vehicle_type_id":"4","last_reported":1740496202,"current_range_meters":18000,"station_id":"ce4bh312rcd13ifvqdk0","pricing_plan_id":"cebpf4jnsgd1na2vs0mg"},{"bike_id":"1488785c-5764-46a0-909a-48738cb9d31b","system_id":"levelo_inurba_marseille","lat":43.28413,"lon":5.34997,"is_reserved":false,"is_disabled":false,"rental_uris":{"android":"levelo://app?vid=1488785c-5764-46a0-909a-48738cb9d31b","ios":"levelo://app?vid=1488785c-5764-46a0-909a-48738cb9d31b"},"vehicle_type_id":"4","last_reported":1740496202,"current_range_meters":18000,"station_id":"ce4bhbh2rcd13ifvqepg","pricing_plan_id":"cebpf4jnsgd1na2vs0mg"},{"bike_id":"4c0004af-5979-4109-b355-0b5abba3cfea","system_id":"levelo_inurba_marseille","lat":43.28275,"lon":5.3507,"is_reserved":false,"is_disabled":false,"rental_uris":{"android":"levelo://app?vid=4c0004af-5979-4109-b355-0b5abba3cfea","ios":"levelo://app?vid=4c0004af-5979-4109-b355-0b5abba3cfea"},"vehicle_type_id":"4","last_reported":1740496202,"current_range_meters":18000,"station_id":"ce4bhbp2rcd13ifvqerg","pricing_plan_id":"cebpf4jnsgd1na2vs0mg"},{"bike_id":"331dda62-f24f-4833-81e7-dbff40bd081a","system_id":"levelo_inurba_marseille","lat":43.30532,"lon":5.36726,"is_reserved":false,"is_disabled":false,"rental_uris":{"android":"levelo://app?vid=331dda62-f24f-4833-81e7-dbff40bd081a","ios":"levelo://app?vid=331dda62-f24f-4833-81e7-dbff40bd081a"},"vehicle_type_id":"4","last_reported":1740496202,"current_range_meters":17600,"station_id":"ce4bgrp2rcd13ifvqc9g","pricing_plan_id":"cebpf4jnsgd1na2vs0mg"},{"bike_id":"45fbc5ad-c3ce-407b-b99c-d3d8bb710d66","system_id":"levelo_inurba_marseille","lat":43.25828,"lon":5.39441,"is_reserved":false,"is_disabled":false,"rental_uris":{"android":"levelo://app?vid=45fbc5ad-c3ce-407b-b99c-d3d8bb710d66","ios":"levelo://app?vid=45fbc5ad-c3ce-407b-b99c-d3d8bb710d66"},"vehicle_type_id":"4","last_reported":1740496202,"current_range_meters":17600,"station_id":"ce4bhip2rcd13ifvqft0","pricing_plan_id":"cebpf4jnsgd1na2vs0mg"},{"bike_id":"883f8347-0a1a-469f-b39f-af3ab784d027","system_id":"levelo_inurba_marseille","lat":43.29315,"lon":5.36842,"is_reserved":false,"is_disabled":false,"rental_uris":{"android":"levelo://app?vid=883f8347-0a1a-469f-b39f-af3ab784d027","ios":"levelo://app?vid=883f8347-0a1a-469f-b39f-af3ab784d027"},"vehicle_type_id":"4","last_reported":1740496202,"current_range_meters":18800,"station_id":"ce4bhbp2rcd13ifvqesg","pricing_plan_id":"cebpf4jnsgd1na2vs0mg"},{"bike_id":"9645e5b5-62f8-48ae-8672-34a676b88d9f","system_id":"levelo_inurba_marseille","lat":43.30552,"lon":5.36544,"is_reserved":false,"is_disabled":false,"rental_uris":{"android":"levelo://app?vid=9645e5b5-62f8-48ae-8672-34a676b88d9f","ios":"levelo://app?vid=9645e5b5-62f8-48ae-8672-34a676b88d9f"},"vehicle_type_id":"4","last_reported":1740496202,"current_range_meters":17600,"station_id":"ce4bgs12rcd13ifvqcag","pricing_plan_id":"cebpf4jnsgd1na2vs0mg"},{"bike_id":"25411262-23d1-41bb-a382-a545d4af1ec3","system_id":"levelo_inurba_marseille","lat":43.25114,"lon":5.4033,"is_reserved":false,"is_disabled":false,"rental_uris":{"android":"levelo://app?vid=25411262-23d1-41bb-a382-a545d4af1ec3","ios":"levelo://app?vid=25411262-23d1-41bb-a382-a545d4af1ec3"},"vehicle_type_id":"4","last_reported":1740496202,"current_range_meters":18800,"station_id":"ce4bhlh2rcd13ifvqgig","pricing_plan_id":"cebpf4jnsgd1na2vs0mg"},{"bike_id":"1a856f10-c5bc-4b12-a5aa-06d011bd52a2","system_id":"levelo_inurba_marseille","lat":43.27776,"lon":5.40716,"is_reserved":false,"is_disabled":false,"rental_uris":{"android":"levelo://app?vid=1a856f10-c5bc-4b12-a5aa-06d011bd52a2","ios":"levelo://app?vid=1a856f10-c5bc-4b12-a5aa-06d011bd52a2"},"vehicle_type_id":"4","last_reported":1740496202,"current_range_meters":18800,"station_id":"ce4bhnh2rcd13ifvqgtg","pricing_plan_id":"cebpf4jnsgd1na2vs0mg"},{"bike_id":"7eec0410-16a1-43de-bab5-2d3ea8ce9b9e","system_id":"levelo_inurba_marseille","lat":43.285686,"lon":5.394878,"is_reserved":false,"is_disabled":false,"rental_uris":{"android":"levelo://app?vid=7eec0410-16a1-43de-bab5-2d3ea8ce9b9e","ios":"levelo://app?vid=7eec0410-16a1-43de-bab5-2d3ea8ce9b9e"},"vehicle_type_id":"4","last_reported":1740496202,"current_range_meters":18000,"station_id":"ce4bh292rcd13ifvqdg0","pricing_plan_id":"cebpf4jnsgd1na2vs0mg"},{"bike_id":"ed676095-f078-4515-b170-4e31570d360d","system_id":"levelo_inurba_marseille","lat":43.29786,"lon":5.37046,"is_reserved":false,"is_disabled":false,"rental_uris":{"android":"levelo://app?vid=ed676095-f078-4515-b170-4e31570d360d","ios":"levelo://app?vid=ed676095-f078-4515-b170-4e31570d360d"},"vehicle_type_id":"4","last_reported":1740496202,"current_range_meters":18000,"station_id":"ce4bgop2rcd13ifvqc1g","pricing_plan_id":"cebpf4jnsgd1na2vs0mg"},{"bike_id":"b7d3c0bb-7d03-4d09-a6c9-12107485a8da","system_id":"levelo_inurba_marseille","lat":43.319943,"lon":5.381555,"is_reserved":false,"is_disabled":false,"rental_uris":{"android":"levelo://app?vid=b7d3c0bb-7d03-4d09-a6c9-12107485a8da","ios":"levelo://app?vid=b7d3c0bb-7d03-4d09-a6c9-12107485a8da"},"vehicle_type_id":"4","last_reported":1740496202,"current_range_meters":18800,"station_id":"ce4bhr12rcd13ifvqhpg","pricing_plan_id":"cebpf4jnsgd1na2vs0mg"},{"bike_id":"f5b3f0ab-bc3e-47fe-89be-21ce04706830","system_id":"levelo_inurba_marseille","lat":43.30954,"lon":5.3904,"is_reserved":false,"is_disabled":false,"rental_uris":{"android":"levelo://app?vid=f5b3f0ab-bc3e-47fe-89be-21ce04706830","ios":"levelo://app?vid=f5b3f0ab-bc3e-47fe-89be-21ce04706830"},"vehicle_type_id":"4","last_reported":1740496202,"current_range_meters":18800,"station_id":"ce4bgup2rcd13ifvqco0","pricing_plan_id":"cebpf4jnsgd1na2vs0mg"},{"bike_id":"ad9571bc-5194-4f71-90ef-f1cb0835f36e","system_id":"levelo_inurba_marseille","lat":43.25473,"lon":5.37694,"is_reserved":false,"is_disabled":true,"rental_uris":{"android":"levelo://app?vid=ad9571bc-5194-4f71-90ef-f1cb0835f36e","ios":"levelo://app?vid=ad9571bc-5194-4f71-90ef-f1cb0835f36e"},"vehicle_type_id":"4","last_reported":1740496202,"current_range_meters":18800,"station_id":"ce4bhh12rcd13ifvqff0","pricing_plan_id":"cebpf4jnsgd1na2vs0mg"},{"bike_id":"e4b61e67-5c22-4221-873e-01cee989859c","system_id":"levelo_inurba_marseille","lat":43.29897,"lon":5.43667,"is_reserved":false,"is_disabled":false,"rental_uris":{"android":"levelo://app?vid=e4b61e67-5c22-4221-873e-01cee989859c","ios":"levelo://app?vid=e4b61e67-5c22-4221-873e-01cee989859c"},"vehicle_type_id":"4","last_reported":1740496202,"current_range_meters":18800,"station_id":"ce4bhpp2rcd13ifvqhfg","pricing_plan_id":"cebpf4jnsgd1na2vs0mg"},{"bike_id":"b0dc7488-ac9d-466c-a88e-6a81e22b33a5","system_id":"levelo_inurba_marseille","lat":43.29944,"lon":5.36543,"is_reserved":false,"is_disabled":false,"rental_uris":{"android":"levelo://app?vid=b0dc7488-ac9d-466c-a88e-6a81e22b33a5","ios":"levelo://app?vid=b0dc7488-ac9d-466c-a88e-6a81e22b33a5"},"vehicle_type_id":"4","last_reported":1740496202,"current_range_meters":20000,"station_id":"ce4bgm92rcd13ifvqbr0","pricing_plan_id":"cebpf4jnsgd1na2vs0mg"},{"bike_id":"c333214c-e858-4d83-ae11-52fad9cac016","system_id":"levelo_inurba_marseille","lat":43.31765,"lon":5.39012,"is_reserved":false,"is_disabled":false,"rental_uris":{"android":"levelo://app?vid=c333214c-e858-4d83-ae11-52fad9cac016","ios":"levelo://app?vid=c333214c-e858-4d83-ae11-52fad9cac016"},"vehicle_type_id":"4","last_reported":1740496202,"current_range_meters":19600,"station_id":"ce4bhqp2rcd13ifvqhng","pricing_plan_id":"cebpf4jnsgd1na2vs0mg"},{"bike_id":"45127abe-699f-4c02-9aab-c9892981149b","system_id":"levelo_inurba_marseille","lat":43.27177,"lon":5.40993,"is_reserved":false,"is_disabled":false,"rental_uris":{"android":"levelo://app?vid=45127abe-699f-4c02-9aab-c9892981149b","ios":"levelo://app?vid=45127abe-699f-4c02-9aab-c9892981149b"},"vehicle_type_id":"4","last_reported":1740496202,"current_range_meters":19200,"station_id":"ce4bhl12rcd13ifvqgf0","pricing_plan_id":"cebpf4jnsgd1na2vs0mg"},{"bike_id":"d2aeb518-d05c-4ca3-822a-3f8b897a3bb4","system_id":"levelo_inurba_marseille","lat":43.31003,"lon":5.38988,"is_reserved":false,"is_disabled":false,"rental_uris":{"android":"levelo://app?vid=d2aeb518-d05c-4ca3-822a-3f8b897a3bb4","ios":"levelo://app?vid=d2aeb518-d05c-4ca3-822a-3f8b897a3bb4"},"vehicle_type_id":"4","last_reported":1740496202,"current_range_meters":20000,"station_id":"ce4bgup2rcd13ifvqco0","pricing_plan_id":"cebpf4jnsgd1na2vs0mg"},{"bike_id":"229d3b24-5d5f-4279-8963-df3a2091dea8","system_id":"levelo_inurba_marseille","lat":43.28938,"lon":5.36642,"is_reserved":false,"is_disabled":false,"rental_uris":{"android":"levelo://app?vid=229d3b24-5d5f-4279-8963-df3a2091dea8","ios":"levelo://app?vid=229d3b24-5d5f-4279-8963-df3a2091dea8"},"vehicle_type_id":"4","last_reported":1740496202,"current_range_meters":19200,"station_id":"ce4bhap2rcd13ifvqek0","pricing_plan_id":"cebpf4jnsgd1na2vs0mg"},{"bike_id":"4340121a-3901-46dc-9290-bd2924568596","system_id":"levelo_inurba_marseille","lat":43.29972,"lon":5.37185,"is_reserved":false,"is_disabled":false,"rental_uris":{"android":"levelo://app?vid=4340121a-3901-46dc-9290-bd2924568596","ios":"levelo://app?vid=4340121a-3901-46dc-9290-bd2924568596"},"vehicle_type_id":"4","last_reported":1740496202,"current_range_meters":19200,"station_id":"ce4bgr92rcd13ifvqc7g","pricing_plan_id":"cebpf4jnsgd1na2vs0mg"},{"bike_id":"29d2a6ce-a73a-4fdd-985d-84e9c66e7f97","system_id":"levelo_inurba_marseille","lat":43.27954,"lon":5.41054,"is_reserved":false,"is_disabled":false,"rental_uris":{"android":"levelo://app?vid=29d2a6ce-a73a-4fdd-985d-84e9c66e7f97","ios":"levelo://app?vid=29d2a6ce-a73a-4fdd-985d-84e9c66e7f97"},"vehicle_type_id":"4","last_reported":1740496202,"current_range_meters":19200,"station_id":"ce4bhnp2rcd13ifvqh0g","pricing_plan_id":"cebpf4jnsgd1na2vs0mg"},{"bike_id":"d208bca8-6e49-4888-93d5-c0233ed53415","system_id":"levelo_inurba_marseille","lat":43.28413,"lon":5.34987,"is_reserved":false,"is_disabled":false,"rental_uris":{"android":"levelo://app?vid=d208bca8-6e49-4888-93d5-c0233ed53415","ios":"levelo://app?vid=d208bca8-6e49-4888-93d5-c0233ed53415"},"vehicle_type_id":"4","last_reported":1740496202,"current_range_meters":19600,"station_id":"ce4bhbh2rcd13ifvqepg","pricing_plan_id":"cebpf4jnsgd1na2vs0mg"},{"bike_id":"900a18dd-1f6d-49af-a0f0-9ea03a4d5a04","system_id":"levelo_inurba_marseille","lat":43.2466,"lon":5.3818,"is_reserved":false,"is_disabled":false,"rental_uris":{"android":"levelo://app?vid=900a18dd-1f6d-49af-a0f0-9ea03a4d5a04","ios":"levelo://app?vid=900a18dd-1f6d-49af-a0f0-9ea03a4d5a04"},"vehicle_type_id":"4","last_reported":1740496202,"current_range_meters":19600,"station_id":"ce4bhih2rcd13ifvqfr0","pricing_plan_id":"cebpf4jnsgd1na2vs0mg"},{"bike_id":"c17f70a8-0b90-4785-a8bb-0bdf80ba2011","system_id":"levelo_inurba_marseille","lat":43.30156,"lon":5.3743,"is_reserved":false,"is_disabled":false,"rental_uris":{"android":"levelo://app?vid=c17f70a8-0b90-4785-a8bb-0bdf80ba2011","ios":"levelo://app?vid=c17f70a8-0b90-4785-a8bb-0bdf80ba2011"},"vehicle_type_id":"4","last_reported":1740496202,"current_range_meters":19600,"station_id":"ce4bgs92rcd13ifvqcc0","pricing_plan_id":"cebpf4jnsgd1na2vs0mg"},{"bike_id":"4d3d86e3-75c7-44f6-bf38-a78a75b43f66","system_id":"levelo_inurba_marseille","lat":43.27374,"lon":5.36256,"is_reserved":false,"is_disabled":false,"rental_uris":{"android":"levelo://app?vid=4d3d86e3-75c7-44f6-bf38-a78a75b43f66","ios":"levelo://app?vid=4d3d86e3-75c7-44f6-bf38-a78a75b43f66"},"vehicle_type_id":"4","last_reported":1740496202,"current_range_meters":18800,"station_id":"ce4bhbh2rcd13ifvqeo0","pricing_plan_id":"cebpf4jnsgd1na2vs0mg"},{"bike_id":"8de6311b-b038-405d-a45a-35249c1b0c87","system_id":"levelo_inurba_marseille","lat":43.24174,"lon":5.39731,"is_reserved":false,"is_disabled":false,"rental_uris":{"android":"levelo://app?vid=8de6311b-b038-405d-a45a-35249c1b0c87","ios":"levelo://app?vid=8de6311b-b038-405d-a45a-35249c1b0c87"},"vehicle_type_id":"4","last_reported":1740496202,"current_range_meters":19600,"station_id":"ce4bhn12rcd13ifvqgpg","pricing_plan_id":"cebpf4jnsgd1na2vs0mg"},{"bike_id":"d0201391-a8eb-4500-b252-b08cf0bd753d","system_id":"levelo_inurba_marseille","lat":43.30899,"lon":5.37194,"is_reserved":false,"is_disabled":false,"rental_uris":{"android":"levelo://app?vid=d0201391-a8eb-4500-b252-b08cf0bd753d","ios":"levelo://app?vid=d0201391-a8eb-4500-b252-b08cf0bd753d"},"vehicle_type_id":"4","last_reported":1740496202,"current_range_meters":19600,"station_id":"ce4bguh2rcd13ifvqckg","pricing_plan_id":"cebpf4jnsgd1na2vs0mg"},{"bike_id":"74613cd9-8372-460d-b7a5-33f22a0d2702","system_id":"levelo_inurba_marseille","lat":43.25508,"lon":5.37644,"is_reserved":false,"is_disabled":false,"rental_uris":{"android":"levelo://app?vid=74613cd9-8372-460d-b7a5-33f22a0d2702","ios":"levelo://app?vid=74613cd9-8372-460d-b7a5-33f22a0d2702"},"vehicle_type_id":"4","last_reported":1740496202,"current_range_meters":19600,"station_id":"ce4bhh12rcd13ifvqff0","pricing_plan_id":"cebpf4jnsgd1na2vs0mg"},{"bike_id":"c43e51db-b843-40e8-9351-1a7a073946e0","system_id":"levelo_inurba_marseille","lat":43.30884,"lon":5.3965,"is_reserved":false,"is_disabled":false,"rental_uris":{"android":"levelo://app?vid=c43e51db-b843-40e8-9351-1a7a073946e0","ios":"levelo://app?vid=c43e51db-b843-40e8-9351-1a7a073946e0"},"vehicle_type_id":"4","last_reported":1740496202,"current_range_meters":19200,"station_id":"ce4bh012rcd13ifvqcv0","pricing_plan_id":"cebpf4jnsgd1na2vs0mg"},{"bike_id":"1df32ffb-b6d0-42f0-8856-8dbb268b7110","system_id":"levelo_inurba_marseille","lat":43.3172,"lon":5.43697,"is_reserved":false,"is_disabled":false,"rental_uris":{"android":"levelo://app?vid=1df32ffb-b6d0-42f0-8856-8dbb268b7110","ios":"levelo://app?vid=1df32ffb-b6d0-42f0-8856-8dbb268b7110"},"vehicle_type_id":"4","last_reported":1740496202,"current_range_meters":19600,"station_id":"ce4bhp92rcd13ifvqhcg","pricing_plan_id":"cebpf4jnsgd1na2vs0mg"},{"bike_id":"3b81b62d-0b64-47fe-9385-e66f143cb1a7","system_id":"levelo_inurba_marseille","lat":43.27813,"lon":5.40708,"is_reserved":false,"is_disabled":false,"rental_uris":{"android":"levelo://app?vid=3b81b62d-0b64-47fe-9385-e66f143cb1a7","ios":"levelo://app?vid=3b81b62d-0b64-47fe-9385-e66f143cb1a7"},"vehicle_type_id":"4","last_reported":1740496202,"current_range_meters":19600,"station_id":"ce4bhnh2rcd13ifvqgtg","pricing_plan_id":"cebpf4jnsgd1na2vs0mg"},{"bike_id":"61b05d70-e59c-461d-adf7-fd3916a880b7","system_id":"levelo_inurba_marseille","lat":43.2706,"lon":5.40267,"is_reserved":false,"is_disabled":false,"rental_uris":{"android":"levelo://app?vid=61b05d70-e59c-461d-adf7-fd3916a880b7","ios":"levelo://app?vid=61b05d70-e59c-461d-adf7-fd3916a880b7"},"vehicle_type_id":"4","last_reported":1740496202,"current_range_meters":20000,"station_id":"ce4bhk92rcd13ifvqgc0","pricing_plan_id":"cebpf4jnsgd1na2vs0mg"},{"bike_id":"b58040a5-5e74-402f-b1f1-2998a0d32426","system_id":"levelo_inurba_marseille","lat":43.30549,"lon":5.36531,"is_reserved":false,"is_disabled":false,"rental_uris":{"android":"levelo://app?vid=b58040a5-5e74-402f-b1f1-2998a0d32426","ios":"levelo://app?vid=b58040a5-5e74-402f-b1f1-2998a0d32426"},"vehicle_type_id":"4","last_reported":1740496202,"current_range_meters":20000,"station_id":"ce4bgs12rcd13ifvqcag","pricing_plan_id":"cebpf4jnsgd1na2vs0mg"},{"bike_id":"738ba867-5dd4-4193-820d-61769cfac92c","system_id":"levelo_inurba_marseille","lat":43.31663,"lon":5.40687,"is_reserved":false,"is_disabled":false,"rental_uris":{"android":"levelo://app?vid=738ba867-5dd4-4193-820d-61769cfac92c","ios":"levelo://app?vid=738ba867-5dd4-4193-820d-61769cfac92c"},"vehicle_type_id":"4","last_reported":1740496202,"current_range_meters":20000,"station_id":"","pricing_plan_id":"cebpf4jnsgd1na2vs0mg"},{"bike_id":"4290c5c0-6ed4-463e-8f99-e41170804590","system_id":"levelo_inurba_marseille","lat":43.286793,"lon":5.386735,"is_reserved":false,"is_disabled":false,"rental_uris":{"android":"levelo://app?vid=4290c5c0-6ed4-463e-8f99-e41170804590","ios":"levelo://app?vid=4290c5c0-6ed4-463e-8f99-e41170804590"},"vehicle_type_id":"4","last_reported":1740496202,"current_range_meters":19600,"station_id":"ce4bhnh2rcd13ifvqgug","pricing_plan_id":"cebpf4jnsgd1na2vs0mg"},{"bike_id":"4ffd94dd-6b1d-4a72-bc3d-9deffb708ea7","system_id":"levelo_inurba_marseille","lat":43.32337,"lon":5.40628,"is_reserved":false,"is_disabled":false,"rental_uris":{"android":"levelo://app?vid=4ffd94dd-6b1d-4a72-bc3d-9deffb708ea7","ios":"levelo://app?vid=4ffd94dd-6b1d-4a72-bc3d-9deffb708ea7"},"vehicle_type_id":"4","last_reported":1740496202,"current_range_meters":19600,"station_id":"ce4bhq92rcd13ifvqhjg","pricing_plan_id":"cebpf4jnsgd1na2vs0mg"},{"bike_id":"658e10dc-9ec8-4c82-a86c-f0d37535b96d","system_id":"levelo_inurba_marseille","lat":43.23197,"lon":5.3998,"is_reserved":false,"is_disabled":false,"rental_uris":{"android":"levelo://app?vid=658e10dc-9ec8-4c82-a86c-f0d37535b96d","ios":"levelo://app?vid=658e10dc-9ec8-4c82-a86c-f0d37535b96d"},"vehicle_type_id":"4","last_reported":1740496202,"current_range_meters":20000,"station_id":"ce4bhn12rcd13ifvqgqg","pricing_plan_id":"cebpf4jnsgd1na2vs0mg"},{"bike_id":"3aaca506-5054-4b1b-b29a-24232f7f02a2","system_id":"levelo_inurba_marseille","lat":43.2465,"lon":5.38902,"is_reserved":false,"is_disabled":false,"rental_uris":{"android":"levelo://app?vid=3aaca506-5054-4b1b-b29a-24232f7f02a2","ios":"levelo://app?vid=3aaca506-5054-4b1b-b29a-24232f7f02a2"},"vehicle_type_id":"4","last_reported":1740496202,"current_range_meters":20400,"station_id":"ce4bhg12rcd13ifvqf60","pricing_plan_id":"cebpf4jnsgd1na2vs0mg"},{"bike_id":"04264387-929d-44fb-9b3e-3bfe01d5bccc","system_id":"levelo_inurba_marseille","lat":43.31488,"lon":5.373,"is_reserved":false,"is_disabled":false,"rental_uris":{"android":"levelo://app?vid=04264387-929d-44fb-9b3e-3bfe01d5bccc","ios":"levelo://app?vid=04264387-929d-44fb-9b3e-3bfe01d5bccc"},"vehicle_type_id":"4","last_reported":1740496202,"current_range_meters":20400,"station_id":"ce4bgt12rcd13ifvqcd0","pricing_plan_id":"cebpf4jnsgd1na2vs0mg"},{"bike_id":"79b7723a-968d-4149-a6f5-107332db95fe","system_id":"levelo_inurba_marseille","lat":43.331423,"lon":5.37488,"is_reserved":false,"is_disabled":false,"rental_uris":{"android":"levelo://app?vid=79b7723a-968d-4149-a6f5-107332db95fe","ios":"levelo://app?vid=79b7723a-968d-4149-a6f5-107332db95fe"},"vehicle_type_id":"4","last_reported":1740496202,"current_range_meters":20400,"station_id":"ce4bgth2rcd13ifvqch0","pricing_plan_id":"cebpf4jnsgd1na2vs0mg"},{"bike_id":"32c93e0d-3586-4168-be1f-a70e3a0b3b5c","system_id":"levelo_inurba_marseille","lat":43.29268,"lon":5.40134,"is_reserved":false,"is_disabled":false,"rental_uris":{"android":"levelo://app?vid=32c93e0d-3586-4168-be1f-a70e3a0b3b5c","ios":"levelo://app?vid=32c93e0d-3586-4168-be1f-a70e3a0b3b5c"},"vehicle_type_id":"4","last_reported":1740496202,"current_range_meters":20000,"station_id":"ce4bh312rcd13ifvqdk0","pricing_plan_id":"cebpf4jnsgd1na2vs0mg"},{"bike_id":"720cbf65-60c0-4e64-883b-b490d113560c","system_id":"levelo_inurba_marseille","lat":43.30885,"lon":5.39653,"is_reserved":false,"is_disabled":false,"rental_uris":{"android":"levelo://app?vid=720cbf65-60c0-4e64-883b-b490d113560c","ios":"levelo://app?vid=720cbf65-60c0-4e64-883b-b490d113560c"},"vehicle_type_id":"4","last_reported":1740496202,"current_range_meters":20000,"station_id":"ce4bh012rcd13ifvqcv0","pricing_plan_id":"cebpf4jnsgd1na2vs0mg"},{"bike_id":"1015abbd-7082-4ba1-86ea-5a0ad2804113","system_id":"levelo_inurba_marseille","lat":43.29896,"lon":5.4366,"is_reserved":false,"is_disabled":false,"rental_uris":{"android":"levelo://app?vid=1015abbd-7082-4ba1-86ea-5a0ad2804113","ios":"levelo://app?vid=1015abbd-7082-4ba1-86ea-5a0ad2804113"},"vehicle_type_id":"4","last_reported":1740496202,"current_range_meters":20400,"station_id":"ce4bhpp2rcd13ifvqhfg","pricing_plan_id":"cebpf4jnsgd1na2vs0mg"},{"bike_id":"b2d0ea14-9d13-4a6f-b9fc-bac921bfcd2d","system_id":"levelo_inurba_marseille","lat":43.295653,"lon":5.375178,"is_reserved":false,"is_disabled":false,"rental_uris":{"android":"levelo://app?vid=b2d0ea14-9d13-4a6f-b9fc-bac921bfcd2d","ios":"levelo://app?vid=b2d0ea14-9d13-4a6f-b9fc-bac921bfcd2d"},"vehicle_type_id":"4","last_reported":1740496202,"current_range_meters":20400,"station_id":"ce4bgh92rcd13ifvqb50","pricing_plan_id":"cebpf4jnsgd1na2vs0mg"},{"bike_id":"b7c09535-9389-45fc-8971-cbc7b7282bc9","system_id":"levelo_inurba_marseille","lat":43.25091,"lon":5.39521,"is_reserved":false,"is_disabled":false,"rental_uris":{"android":"levelo://app?vid=b7c09535-9389-45fc-8971-cbc7b7282bc9","ios":"levelo://app?vid=b7c09535-9389-45fc-8971-cbc7b7282bc9"},"vehicle_type_id":"4","last_reported":1740496202,"current_range_meters":20400,"station_id":"ce4bhm12rcd13ifvqgkg","pricing_plan_id":"cebpf4jnsgd1na2vs0mg"},{"bike_id":"ce6c3a57-2472-4142-ab26-fc6dee861395","system_id":"levelo_inurba_marseille","lat":43.29851,"lon":5.36288,"is_reserved":false,"is_disabled":false,"rental_uris":{"android":"levelo://app?vid=ce6c3a57-2472-4142-ab26-fc6dee861395","ios":"levelo://app?vid=ce6c3a57-2472-4142-ab26-fc6dee861395"},"vehicle_type_id":"4","last_reported":1740496202,"current_range_meters":20400,"station_id":"ce4bgpp2rcd13ifvqc3g","pricing_plan_id":"cebpf4jnsgd1na2vs0mg"},{"bike_id":"f91ee45f-26cd-4ca6-bc3b-cb683c79c9c0","system_id":"levelo_inurba_marseille","lat":43.31167,"lon":5.38741,"is_reserved":false,"is_disabled":false,"rental_uris":{"android":"levelo://app?vid=f91ee45f-26cd-4ca6-bc3b-cb683c79c9c0","ios":"levelo://app?vid=f91ee45f-26cd-4ca6-bc3b-cb683c79c9c0"},"vehicle_type_id":"4","last_reported":1740496202,"current_range_meters":20400,"station_id":"ce4bgv12rcd13ifvqcp0","pricing_plan_id":"cebpf4jnsgd1na2vs0mg"},{"bike_id":"1024ca71-7b4a-4994-b5e9-29e1a1a13356","system_id":"levelo_inurba_marseille","lat":43.29426,"lon":5.38613,"is_reserved":false,"is_disabled":false,"rental_uris":{"android":"levelo://app?vid=1024ca71-7b4a-4994-b5e9-29e1a1a13356","ios":"levelo://app?vid=1024ca71-7b4a-4994-b5e9-29e1a1a13356"},"vehicle_type_id":"4","last_reported":1740496202,"current_range_meters":20400,"station_id":"ce4bh2h2rcd13ifvqdh0","pricing_plan_id":"cebpf4jnsgd1na2vs0mg"},{"bike_id":"ca2d36d8-a45b-446e-abaa-f35bfe017e85","system_id":"levelo_inurba_marseille","lat":43.2468,"lon":5.38185,"is_reserved":false,"is_disabled":false,"rental_uris":{"android":"levelo://app?vid=ca2d36d8-a45b-446e-abaa-f35bfe017e85","ios":"levelo://app?vid=ca2d36d8-a45b-446e-abaa-f35bfe017e85"},"vehicle_type_id":"4","last_reported":1740496202,"current_range_meters":20400,"station_id":"ce4bhih2rcd13ifvqfr0","pricing_plan_id":"cebpf4jnsgd1na2vs0mg"},{"bike_id":"cadcd3f7-36da-45a0-afe7-3d3cf34b3425","system_id":"levelo_inurba_marseille","lat":43.29586,"lon":5.37508,"is_reserved":false,"is_disabled":false,"rental_uris":{"android":"levelo://app?vid=cadcd3f7-36da-45a0-afe7-3d3cf34b3425","ios":"levelo://app?vid=cadcd3f7-36da-45a0-afe7-3d3cf34b3425"},"vehicle_type_id":"4","last_reported":1740496202,"current_range_meters":20800,"station_id":"ce4bgh92rcd13ifvqb50","pricing_plan_id":"cebpf4jnsgd1na2vs0mg"},{"bike_id":"16b10589-0ee3-4420-bf12-962709afbe7b","system_id":"levelo_inurba_marseille","lat":43.2957,"lon":5.37525,"is_reserved":false,"is_disabled":false,"rental_uris":{"android":"levelo://app?vid=16b10589-0ee3-4420-bf12-962709afbe7b","ios":"levelo://app?vid=16b10589-0ee3-4420-bf12-962709afbe7b"},"vehicle_type_id":"4","last_reported":1740496202,"current_range_meters":20800,"station_id":"ce4bgh92rcd13ifvqb50","pricing_plan_id":"cebpf4jnsgd1na2vs0mg"},{"bike_id":"8d76d8c1-e799-4640-b49c-8f9acc1b2deb","system_id":"levelo_inurba_marseille","lat":43.31539,"lon":5.37321,"is_reserved":false,"is_disabled":false,"rental_uris":{"android":"levelo://app?vid=8d76d8c1-e799-4640-b49c-8f9acc1b2deb","ios":"levelo://app?vid=8d76d8c1-e799-4640-b49c-8f9acc1b2deb"},"vehicle_type_id":"4","last_reported":1740496202,"current_range_meters":20800,"station_id":"","pricing_plan_id":"cebpf4jnsgd1na2vs0mg"},{"bike_id":"2d05e645-2e38-42c2-9686-b6e82837f17a","system_id":"levelo_inurba_marseille","lat":43.30001,"lon":5.372,"is_reserved":false,"is_disabled":false,"rental_uris":{"android":"levelo://app?vid=2d05e645-2e38-42c2-9686-b6e82837f17a","ios":"levelo://app?vid=2d05e645-2e38-42c2-9686-b6e82837f17a"},"vehicle_type_id":"4","last_reported":1740496202,"current_range_meters":20400,"station_id":"ce4bgr92rcd13ifvqc7g","pricing_plan_id":"cebpf4jnsgd1na2vs0mg"},{"bike_id":"e3c11c48-17c7-48db-9d63-54ad248e8e40","system_id":"levelo_inurba_marseille","lat":43.29871,"lon":5.39744,"is_reserved":false,"is_disabled":false,"rental_uris":{"android":"levelo://app?vid=e3c11c48-17c7-48db-9d63-54ad248e8e40","ios":"levelo://app?vid=e3c11c48-17c7-48db-9d63-54ad248e8e40"},"vehicle_type_id":"4","last_reported":1740496202,"current_range_meters":20800,"station_id":"ce4bh0h2rcd13ifvqd50","pricing_plan_id":"cebpf4jnsgd1na2vs0mg"},{"bike_id":"0458a7fb-3216-4124-bd2a-ece8d20e5567","system_id":"levelo_inurba_marseille","lat":43.29916,"lon":5.37474,"is_reserved":false,"is_disabled":false,"rental_uris":{"android":"levelo://app?vid=0458a7fb-3216-4124-bd2a-ece8d20e5567","ios":"levelo://app?vid=0458a7fb-3216-4124-bd2a-ece8d20e5567"},"vehicle_type_id":"4","last_reported":1740496202,"current_range_meters":21600,"station_id":"ce4bgjh2rcd13ifvqbg0","pricing_plan_id":"cebpf4jnsgd1na2vs0mg"},{"bike_id":"733617de-c060-4da3-8313-10626fadc76a","system_id":"levelo_inurba_marseille","lat":43.26935,"lon":5.40262,"is_reserved":false,"is_disabled":false,"rental_uris":{"android":"levelo://app?vid=733617de-c060-4da3-8313-10626fadc76a","ios":"levelo://app?vid=733617de-c060-4da3-8313-10626fadc76a"},"vehicle_type_id":"4","last_reported":1740496202,"current_range_meters":20800,"station_id":"cjm6bp8fraef2m0cb0m0","pricing_plan_id":"cebpf4jnsgd1na2vs0mg"},{"bike_id":"449bfe48-b2f1-49bc-a891-215c43ffbb37","system_id":"levelo_inurba_marseille","lat":43.27555,"lon":5.38432,"is_reserved":false,"is_disabled":false,"rental_uris":{"android":"levelo://app?vid=449bfe48-b2f1-49bc-a891-215c43ffbb37","ios":"levelo://app?vid=449bfe48-b2f1-49bc-a891-215c43ffbb37"},"vehicle_type_id":"4","last_reported":1740496202,"current_range_meters":20800,"station_id":"ce4bhh92rcd13ifvqfi0","pricing_plan_id":"cebpf4jnsgd1na2vs0mg"},{"bike_id":"b02f38b8-5585-4b9e-ae2e-c889ac9d568b","system_id":"levelo_inurba_marseille","lat":43.3053,"lon":5.36536,"is_reserved":false,"is_disabled":false,"rental_uris":{"android":"levelo://app?vid=b02f38b8-5585-4b9e-ae2e-c889ac9d568b","ios":"levelo://app?vid=b02f38b8-5585-4b9e-ae2e-c889ac9d568b"},"vehicle_type_id":"4","last_reported":1740496202,"current_range_meters":21600,"station_id":"ce4bgs12rcd13ifvqcag","pricing_plan_id":"cebpf4jnsgd1na2vs0mg"},{"bike_id":"1a4dca53-4541-4179-88e4-d3690f77473f","system_id":"levelo_inurba_marseille","lat":43.29953,"lon":5.3817,"is_reserved":false,"is_disabled":false,"rental_uris":{"android":"levelo://app?vid=1a4dca53-4541-4179-88e4-d3690f77473f","ios":"levelo://app?vid=1a4dca53-4541-4179-88e4-d3690f77473f"},"vehicle_type_id":"4","last_reported":1740496202,"current_range_meters":21600,"station_id":"ce4bgj12rcd13ifvqbc0","pricing_plan_id":"cebpf4jnsgd1na2vs0mg"},{"bike_id":"95f05b6e-2c2a-4940-b7cb-ec4781dfe40c","system_id":"levelo_inurba_marseille","lat":43.25946,"lon":5.40912,"is_reserved":false,"is_disabled":false,"rental_uris":{"android":"levelo://app?vid=95f05b6e-2c2a-4940-b7cb-ec4781dfe40c","ios":"levelo://app?vid=95f05b6e-2c2a-4940-b7cb-ec4781dfe40c"},"vehicle_type_id":"4","last_reported":1740496202,"current_range_meters":21600,"station_id":"ce4bhm92rcd13ifvqglg","pricing_plan_id":"cebpf4jnsgd1na2vs0mg"},{"bike_id":"75e59ff6-8c38-4267-832a-6426bbd2e662","system_id":"levelo_inurba_marseille","lat":43.31234,"lon":5.36885,"is_reserved":false,"is_disabled":false,"rental_uris":{"android":"levelo://app?vid=75e59ff6-8c38-4267-832a-6426bbd2e662","ios":"levelo://app?vid=75e59ff6-8c38-4267-832a-6426bbd2e662"},"vehicle_type_id":"4","last_reported":1740496202,"current_range_meters":20800,"station_id":"ce4bgl92rcd13ifvqbq0","pricing_plan_id":"cebpf4jnsgd1na2vs0mg"},{"bike_id":"efbf3a9a-d664-4b35-9694-a88dcfe08770","system_id":"levelo_inurba_marseille","lat":43.24171,"lon":5.3972,"is_reserved":false,"is_disabled":false,"rental_uris":{"android":"levelo://app?vid=efbf3a9a-d664-4b35-9694-a88dcfe08770","ios":"levelo://app?vid=efbf3a9a-d664-4b35-9694-a88dcfe08770"},"vehicle_type_id":"4","last_reported":1740496202,"current_range_meters":22400,"station_id":"ce4bhn12rcd13ifvqgpg","pricing_plan_id":"cebpf4jnsgd1na2vs0mg"},{"bike_id":"1720ecc2-ac4d-4511-8f0c-53362d7f903a","system_id":"levelo_inurba_marseille","lat":43.2622,"lon":5.4047,"is_reserved":false,"is_disabled":false,"rental_uris":{"android":"levelo://app?vid=1720ecc2-ac4d-4511-8f0c-53362d7f903a","ios":"levelo://app?vid=1720ecc2-ac4d-4511-8f0c-53362d7f903a"},"vehicle_type_id":"4","last_reported":1740496202,"current_range_meters":22400,"station_id":"ce4bhmh2rcd13ifvqgmg","pricing_plan_id":"cebpf4jnsgd1na2vs0mg"},{"bike_id":"9eb10ab9-ef97-459e-a893-bed63e589588","system_id":"levelo_inurba_marseille","lat":43.25007,"lon":5.38934,"is_reserved":false,"is_disabled":false,"rental_uris":{"android":"levelo://app?vid=9eb10ab9-ef97-459e-a893-bed63e589588","ios":"levelo://app?vid=9eb10ab9-ef97-459e-a893-bed63e589588"},"vehicle_type_id":"4","last_reported":1740496202,"current_range_meters":22000,"station_id":"ce4bhgp2rcd13ifvqfd0","pricing_plan_id":"cebpf4jnsgd1na2vs0mg"},{"bike_id":"dd453111-08bf-4632-b0ef-810975e60ed4","system_id":"levelo_inurba_marseille","lat":43.33019,"lon":5.39046,"is_reserved":false,"is_disabled":false,"rental_uris":{"android":"levelo://app?vid=dd453111-08bf-4632-b0ef-810975e60ed4","ios":"levelo://app?vid=dd453111-08bf-4632-b0ef-810975e60ed4"},"vehicle_type_id":"4","last_reported":1740496202,"current_range_meters":20400,"station_id":"ce4bhr92rcd13ifvqhrg","pricing_plan_id":"cebpf4jnsgd1na2vs0mg"},{"bike_id":"ea3d215f-54ed-4ebb-a530-23712b24713f","system_id":"levelo_inurba_marseille","lat":43.29552,"lon":5.42306,"is_reserved":false,"is_disabled":false,"rental_uris":{"android":"levelo://app?vid=ea3d215f-54ed-4ebb-a530-23712b24713f","ios":"levelo://app?vid=ea3d215f-54ed-4ebb-a530-23712b24713f"},"vehicle_type_id":"4","last_reported":1740496202,"current_range_meters":22000,"station_id":"ce4bhph2rcd13ifvqhdg","pricing_plan_id":"cebpf4jnsgd1na2vs0mg"},{"bike_id":"b0a18b26-683f-4e72-b0b5-445f147276b2","system_id":"levelo_inurba_marseille","lat":43.28419,"lon":5.3751,"is_reserved":false,"is_disabled":false,"rental_uris":{"android":"levelo://app?vid=b0a18b26-683f-4e72-b0b5-445f147276b2","ios":"levelo://app?vid=b0a18b26-683f-4e72-b0b5-445f147276b2"},"vehicle_type_id":"4","last_reported":1740496202,"current_range_meters":22000,"station_id":"ce4bh412rcd13ifvqds0","pricing_plan_id":"cebpf4jnsgd1na2vs0mg"},{"bike_id":"ee7498ac-afae-4101-a827-ddb2ec43033c","system_id":"levelo_inurba_marseille","lat":43.23196,"lon":5.39985,"is_reserved":false,"is_disabled":false,"rental_uris":{"android":"levelo://app?vid=ee7498ac-afae-4101-a827-ddb2ec43033c","ios":"levelo://app?vid=ee7498ac-afae-4101-a827-ddb2ec43033c"},"vehicle_type_id":"4","last_reported":1740496202,"current_range_meters":22000,"station_id":"ce4bhn12rcd13ifvqgqg","pricing_plan_id":"cebpf4jnsgd1na2vs0mg"},{"bike_id":"b69d2ca7-a48b-4651-a829-0793f0051084","system_id":"levelo_inurba_marseille","lat":43.28681,"lon":5.38658,"is_reserved":false,"is_disabled":false,"rental_uris":{"android":"levelo://app?vid=b69d2ca7-a48b-4651-a829-0793f0051084","ios":"levelo://app?vid=b69d2ca7-a48b-4651-a829-0793f0051084"},"vehicle_type_id":"4","last_reported":1740496202,"current_range_meters":22000,"station_id":"ce4bh492rcd13ifvqdug","pricing_plan_id":"cebpf4jnsgd1na2vs0mg"},