{"last_updated":1683054331,"ttl":30,"version":"2.2","data":{"bikes":[{"bike_id":"b39f634a-31c5-4be7-8c3f-a3e8fbbb6dbd","system_id":"levelo_inurba_marseille","lat":43.31341,"lon":5.367098,"is_reserved":false,"is_disabled":false,"rental_uris":{"android":"levelo://app?vid=b39f634a-31c5-4be7-8c3f-a3e8fbbb6dbd","ios":"levelo://app?vid=b39f634a-31c5-4be7-8c3f-a3e8fbbb6dbd"},"vehicle_type_id":"4","last_reported":1683054332,"current_range_meters":30800,"station_id":"ce4bgr92rcd13ifvqc6g","pricing_plan_id":"free"},{"bike_id":"1f88f1d3-36c6-4c80-9db7-c8ab231ed3e4","system_id":"levelo_inurba_marseille","lat":43.309076,"lon":5.368465,"is_reserved":false,"is_disabled":false,"rental_uris":{"android":"levelo://app?vid=1f88f1d3-36c6-4c80-9db7-c8ab231ed3e4","ios":"levelo://app?vid=1f88f1d3-36c6-4c80-9db7-c8ab231ed3e4"},"vehicle_type_id":"4","last_reported":1683054332,"current_range_meters":3200,"station_id":"ce4bgn92rcd13ifvqbvg","pricing_plan_id":"free"},{"bike_id":"46e2a651-637e-460f-97d2-beed1bfd7144","system_id":"levelo_inurba_marseille","lat":43.309076,"lon":5.368465,"is_reserved":false,"is_disabled":false,"rental_uris":{"android":"levelo://app?vid=46e2a651-637e-460f-97d2-beed1bfd7144","ios":"levelo://app?vid=46e2a651-637e-460f-97d2-beed1bfd7144"},"vehicle_type_id":"4","last_reported":1683054332,"current_range_meters":29200,"station_id":"ce4bgn92rcd13ifvqbvg","pricing_plan_id":"free"},{"bike_id":"1aeafbc2-fdde-4325-a4b0-4192f624d512","system_id":"levelo_inurba_marseille","lat":43.30906,"lon":5.36846,"is_reserved":false,"is_disabled":false,"rental_uris":{"android":"levelo://app?vid=1aeafbc2-fdde-4325-a4b0-4192f624d512","ios":"levelo://app?vid=1aeafbc2-fdde-4325-a4b0-4192f624d512"},"vehicle_type_id":"4","last_reported":1683054332,"current_range_meters":20000,"station_id":"ce4bgn92rcd13ifvqbvg","pricing_plan_id":"free"},{"bike_id":"e821ab96-a030-41b1-8503-7755205938d8","system_id":"levelo_inurba_marseille","lat":43.314811,"lon":5.373103,"is_reserved":false,"is_disabled":false,"rental_uris":{"android":"levelo://app?vid=e821ab96-a030-41b1-8503-7755205938d8","ios":"levelo://app?vid=e821ab96-a030-41b1-8503-7755205938d8"},"vehicle_type_id":"4","last_reported":1683054332,"current_range_meters":30000,"station_id":"ce4bgt12rcd13ifvqcd0","pricing_plan_id":"free"},{"bike_id":"bf508fab-6d1a-4a2d-85a9-4fb6cc9c3da8","system_id":"levelo_inurba_marseille","lat":43.30897,"lon":5.372,"is_reserved":false,"is_disabled":false,"rental_uris":{"android":"levelo://app?vid=bf508fab-6d1a-4a2d-85a9-4fb6cc9c3da8","ios":"levelo://app?vid=bf508fab-6d1a-4a2d-85a9-4fb6cc9c3da8"},"vehicle_type_id":"4","last_reported":1683054332,"current_range_meters":26800,"station_id":"","pricing_plan_id":"free"},{"bike_id":"03a645f6-5509-4fdf-8498-8ad74dfcd64c","system_id":"levelo_inurba_marseille","lat":43.30883,"lon":5.37189,"is_reserved":false,"is_disabled":false,"rental_uris":{"android":"levelo://app?vid=03a645f6-5509-4fdf-8498-8ad74dfcd64c","ios":"levelo://app?vid=03a645f6-5509-4fdf-8498-8ad74dfcd64c"},"vehicle_type_id":"4","last_reported":1683054332,"current_range_meters":13200,"station_id":"","pricing_plan_id":"free"},{"bike_id":"bd921c28-3807-4652-907f-a117d3119380","system_id":"levelo_inurba_marseille","lat":43.30889,"lon":5.37198,"is_reserved":false,"is_disabled":false,"rental_uris":{"android":"levelo://app?vid=bd921c28-3807-4652-907f-a117d3119380","ios":"levelo://app?vid=bd921c28-3807-4652-907f-a117d3119380"},"vehicle_type_id":"4","last_reported":1683054332,"current_range_meters":9600,"station_id":"","pricing_plan_id":"free"},{"bike_id":"aabd78ee-d76e-4283-9973-c9ad0cbfae3c","system_id":"levelo_inurba_marseille","lat":43.3088,"lon":5.3719,"is_reserved":false,"is_disabled":false,"rental_uris":{"android":"levelo://app?vid=aabd78ee-d76e-4283-9973-c9ad0cbfae3c","ios":"levelo://app?vid=aabd78ee-d76e-4283-9973-c9ad0cbfae3c"},"vehicle_type_id":"4","last_reported":1683054332,"current_range_meters":0,"station_id":"","pricing_plan_id":"free"},{"bike_id":"caea2489-5a5d-4f00-8e78-8c319f8ed68e","system_id":"levelo_inurba_marseille","lat":43.3057,"lon":5.36553,"is_reserved":false,"is_disabled":false,"rental_uris":{"android":"levelo://app?vid=caea2489-5a5d-4f00-8e78-8c319f8ed68e","ios":"levelo://app?vid=caea2489-5a5d-4f00-8e78-8c319f8ed68e"},"vehicle_type_id":"4","last_reported":1683054332,"current_range_meters":25600,"station_id":"ce4bgs12rcd13ifvqcag","pricing_plan_id":"free"},{"bike_id":"ca6341c5-6bba-42e7-b549-445367300f9d","system_id":"levelo_inurba_marseille","lat":43.30644,"lon":5.37186,"is_reserved":false,"is_disabled":false,"rental_uris":{"android":"levelo://app?vid=ca6341c5-6bba-42e7-b549-445367300f9d","ios":"levelo://app?vid=ca6341c5-6bba-42e7-b549-445367300f9d"},"vehicle_type_id":"4","last_reported":1683054332,"current_range_meters":11200,"station_id":"","pricing_plan_id":"free"},{"bike_id":"54ae8f19-bc9a-45ec-b9b9-6ae534bc111e","system_id":"levelo_inurba_marseille","lat":43.305368,"lon":5.367343,"is_reserved":false,"is_disabled":false,"rental_uris":{"android":"levelo://app?vid=54ae8f19-bc9a-45ec-b9b9-6ae534bc111e","ios":"levelo://app?vid=54ae8f19-bc9a-45ec-b9b9-6ae534bc111e"},"vehicle_type_id":"4","last_reported":1683054332,"current_range_meters":0,"station_id":"ce4bgrp2rcd13ifvqc9g","pricing_plan_id":"free"},{"bike_id":"16f66d14-f13c-45c1-be06-9c8d4a2387d1","system_id":"levelo_inurba_marseille","lat":43.305368,"lon":5.367343,"is_reserved":false,"is_disabled":false,"rental_uris":{"android":"levelo://app?vid=16f66d14-f13c-45c1-be06-9c8d4a2387d1","ios":"levelo://app?vid=16f66d14-f13c-45c1-be06-9c8d4a2387d1"},"vehicle_type_id":"4","last_reported":1683054332,"current_range_meters":12400,"station_id":"ce4bgrp2rcd13ifvqc9g","pricing_plan_id":"free"},{"bike_id":"defe7993-efd8-4222-9146-d2d9daef0f98","system_id":"levelo_inurba_marseille","lat":43.305989,"lon":5.37225,"is_reserved":false,"is_disabled":false,"rental_uris":{"android":"levelo://app?vid=defe7993-efd8-4222-9146-d2d9daef0f98","ios":"levelo://app?vid=defe7993-efd8-4222-9146-d2d9daef0f98"},"vehicle_type_id":"4","last_reported":1683054332,"current_range_meters":23200,"station_id":"ce4bgqh2rcd13ifvqc4g","pricing_plan_id":"free"},{"bike_id":"be6421b6-88e8-443a-9c33-4b990c4b4368","system_id":"levelo_inurba_marseille","lat":43.305989,"lon":5.37225,"is_reserved":false,"is_disabled":false,"rental_uris":{"android":"levelo://app?vid=be6421b6-88e8-443a-9c33-4b990c4b4368","ios":"levelo://app?vid=be6421b6-88e8-443a-9c33-4b990c4b4368"},"vehicle_type_id":"4","last_reported":1683054332,"current_range_meters":31200,"station_id":"ce4bgqh2rcd13ifvqc4g","pricing_plan_id":"free"},{"bike_id":"ebc03cab-b8d9-4928-92df-97a6f0452d54","system_id":"levelo_inurba_marseille","lat":43.305989,"lon":5.37225,"is_reserved":false,"is_disabled":false,"rental_uris":{"android":"levelo://app?vid=ebc03cab-b8d9-4928-92df-97a6f0452d54","ios":"levelo://app?vid=ebc03cab-b8d9-4928-92df-97a6f0452d54"},"vehicle_type_id":"4","last_reported":1683054332,"current_range_meters":18000,"station_id":"ce4bgqh2rcd13ifvqc4g","pricing_plan_id":"free"},{"bike_id":"93917dac-91ee-4354-b4f2-bd6221c877b7","system_id":"levelo_inurba_marseille","lat":43.305989,"lon":5.37225,"is_reserved":false,"is_disabled":false,"rental_uris":{"android":"levelo://app?vid=93917dac-91ee-4354-b4f2-bd6221c877b7","ios":"levelo://app?vid=93917dac-91ee-4354-b4f2-bd6221c877b7"},"vehicle_type_id":"4","last_reported":1683054332,"current_range_meters":26000,"station_id":"ce4bgqh2rcd13ifvqc4g","pricing_plan_id":"free"},{"bike_id":"d9e056e5-19bb-4c08-b504-82fc8f9638ee","system_id":"levelo_inurba_marseille","lat":43.305989,"lon":5.37225,"is_reserved":false,"is_disabled":false,"rental_uris":{"android":"levelo://app?vid=d9e056e5-19bb-4c08-b504-82fc8f9638ee","ios":"levelo://app?vid=d9e056e5-19bb-4c08-b504-82fc8f9638ee"},"vehicle_type_id":"4","last_reported":1683054332,"current_range_meters":31200,"station_id":"ce4bgqh2rcd13ifvqc4g","pricing_plan_id":"free"},{"bike_id":"71b3fdb7-92c1-42bb-9eb5-2a07fba0f0f0","system_id":"levelo_inurba_marseille","lat":43.311125,"lon":5.377624,"is_reserved":false,"is_disabled":false,"rental_uris":{"android":"levelo://app?vid=71b3fdb7-92c1-42bb-9eb5-2a07fba0f0f0","ios":"levelo://app?vid=71b3fdb7-92c1-42bb-9eb5-2a07fba0f0f0"},"vehicle_type_id":"4","last_reported":1683054332,"current_range_meters":24000,"station_id":"ce4bgt92rcd13ifvqcg0","pricing_plan_id":"free"},{"bike_id":"f11ad5e3-196f-452c-a0f5-579afd9cbbc0","system_id":"levelo_inurba_marseille","lat":43.311131,"lon":5.377651,"is_reserved":false,"is_disabled":false,"rental_uris":{"android":"levelo://app?vid=f11ad5e3-196f-452c-a0f5-579afd9cbbc0","ios":"levelo://app?vid=f11ad5e3-196f-452c-a0f5-579afd9cbbc0"},"vehicle_type_id":"4","last_reported":1683054332,"current_range_meters":400,"station_id":"ce4bgt92rcd13ifvqcg0","pricing_plan_id":"free"},{"bike_id":"a6d8b167-c19d-4e51-beca-c804bb4ffef7","system_id":"levelo_inurba_marseille","lat":43.31115,"lon":5.37817,"is_reserved":false,"is_disabled":false,"rental_uris":{"android":"levelo://app?vid=a6d8b167-c19d-4e51-beca-c804bb4ffef7","ios":"levelo://app?vid=a6d8b167-c19d-4e51-beca-c804bb4ffef7"},"vehicle_type_id":"4","last_reported":1683054332,"current_range_meters":400,"station_id":"","pricing_plan_id":"free"},{"bike_id":"cb1fa371-c12b-4bf0-a5b7-75d4bbdd4a9c","system_id":"levelo_inurba_marseille","lat":43.317075,"lon":5.377367,"is_reserved":false,"is_disabled":false,"rental_uris":{"android":"levelo://app?vid=cb1fa371-c12b-4bf0-a5b7-75d4bbdd4a9c","ios":"levelo://app?vid=cb1fa371-c12b-4bf0-a5b7-75d4bbdd4a9c"},"vehicle_type_id":"4","last_reported":1683054332,"current_range_meters":14000,"station_id":"ce4bgth2rcd13ifvqch0","pricing_plan_id":"free"},{"bike_id":"4acc2a37-a2ba-4ee8-94b6-b741bd0a1554","system_id":"levelo_inurba_marseille","lat":43.317075,"lon":5.377367,"is_reserved":false,"is_disabled":false,"rental_uris":{"android":"levelo://app?vid=4acc2a37-a2ba-4ee8-94b6-b741bd0a1554","ios":"levelo://app?vid=4acc2a37-a2ba-4ee8-94b6-b741bd0a1554"},"vehicle_type_id":"4","last_reported":1683054332,"current_range_meters":17200,"station_id":"ce4bgth2rcd13ifvqch0","pricing_plan_id":"free"},{"bike_id":"df9c5f1c-9a51-47bf-ba0f-971fa2fee28c","system_id":"levelo_inurba_marseille","lat":43.317075,"lon":5.377367,"is_reserved":false,"is_disabled":false,"rental_uris":{"android":"levelo://app?vid=df9c5f1c-9a51-47bf-ba0f-971fa2fee28c","ios":"levelo://app?vid=df9c5f1c-9a51-47bf-ba0f-971fa2fee28c"},"vehicle_type_id":"4","last_reported":1683054332,"current_range_meters":26400,"station_id":"ce4bgth2rcd13ifvqch0","pricing_plan_id":"free"},{"bike_id":"7fa99ee2-2076-4781-87b2-4ed0beb30c9c","system_id":"levelo_inurba_marseille","lat":43.317075,"lon":5.377367,"is_reserved":false,"is_disabled":false,"rental_uris":{"android":"levelo://app?vid=7fa99ee2-2076-4781-87b2-4ed0beb30c9c","ios":"levelo://app?vid=7fa99ee2-2076-4781-87b2-4ed0beb30c9c"},"vehicle_type_id":"4","last_reported":1683054332,"current_range_meters":28400,"station_id":"ce4bgth2rcd13ifvqch0","pricing_plan_id":"free"},{"bike_id":"3649b808-931d-4648-b00c-8d724e2e949a","system_id":"levelo_inurba_marseille","lat":43.31773,"lon":5.37784,"is_reserved":false,"is_disabled":false,"rental_uris":{"android":"levelo://app?vid=3649b808-931d-4648-b00c-8d724e2e949a","ios":"levelo://app?vid=3649b808-931d-4648-b00c-8d724e2e949a"},"vehicle_type_id":"4","last_reported":1683054332,"current_range_meters":20400,"station_id":"","pricing_plan_id":"free"},{"bike_id":"c410b4d2-d93e-4bc8-b3ba-1ddf92d46c88","system_id":"levelo_inurba_marseille","lat":43.315289,"lon":5.380349,"is_reserved":false,"is_disabled":false,"rental_uris":{"android":"levelo://app?vid=c410b4d2-d93e-4bc8-b3ba-1ddf92d46c88","ios":"levelo://app?vid=c410b4d2-d93e-4bc8-b3ba-1ddf92d46c88"},"vehicle_type_id":"4","last_reported":1683054332,"current_range_meters":2400,"station_id":"ce4bhsp2rcd13ifvqi50","pricing_plan_id":"free"},{"bike_id":"c4850039-85ba-4a5b-93a1-d83b00078cc0","system_id":"levelo_inurba_marseille","lat":43.31532,"lon":5.38037,"is_reserved":false,"is_disabled":false,"rental_uris":{"android":"levelo://app?vid=c4850039-85ba-4a5b-93a1-d83b00078cc0","ios":"levelo://app?vid=c4850039-85ba-4a5b-93a1-d83b00078cc0"},"vehicle_type_id":"4","last_reported":1683054332,"current_range_meters":1600,"station_id":"ce4bhsp2rcd13ifvqi50","pricing_plan_id":"free"},{"bike_id":"f7a260ce-fffc-4ba1-9a7b-4a94bfd9c17e","system_id":"levelo_inurba_marseille","lat":43.31605,"lon":5.38043,"is_reserved":false,"is_disabled":false,"rental_uris":{"android":"levelo://app?vid=f7a260ce-fffc-4ba1-9a7b-4a94bfd9c17e","ios":"levelo://app?vid=f7a260ce-fffc-4ba1-9a7b-4a94bfd9c17e"},"vehicle_type_id":"4","last_reported":1683054332,"current_range_meters":5600,"station_id":"","pricing_plan_id":"free"},{"bike_id":"35b40813-7f75-4394-a132-f15b70ca306b","system_id":"levelo_inurba_marseille","lat":43.301939,"lon":5.366286,"is_reserved":false,"is_disabled":false,"rental_uris":{"android":"levelo://app?vid=35b40813-7f75-4394-a132-f15b70ca306b","ios":"levelo://app?vid=35b40813-7f75-4394-a132-f15b70ca306b"},"vehicle_type_id":"4","last_reported":1683054332,"current_range_meters":23200,"station_id":"ce4bgrh2rcd13ifvqc8g","pricing_plan_id":"free"},{"bike_id":"958bac21-a573-4c8b-8baa-5e6a375386e6","system_id":"levelo_inurba_marseille","lat":43.301939,"lon":5.366286,"is_reserved":false,"is_disabled":false,"rental_uris":{"android":"levelo://app?vid=958bac21-a573-4c8b-8baa-5e6a375386e6","ios":"levelo://app?vid=958bac21-a573-4c8b-8baa-5e6a375386e6"},"vehicle_type_id":"4","last_reported":1683054332,"current_range_meters":9200,"station_id":"ce4bgrh2rcd13ifvqc8g","pricing_plan_id":"free"},{"bike_id":"a201fec2-923b-42bf-a8ec-a519efeeb78c","system_id":"levelo_inurba_marseille","lat":43.301939,"lon":5.366286,"is_reserved":false,"is_disabled":false,"rental_uris":{"android":"levelo://app?vid=a201fec2-923b-42bf-a8ec-a519efeeb78c","ios":"levelo://app?vid=a201fec2-923b-42bf-a8ec-a519efeeb78c"},"vehicle_type_id":"4","last_reported":1683054332,"current_range_meters":24400,"station_id":"ce4bgrh2rcd13ifvqc8g","pricing_plan_id":"free"},{"bike_id":"60dddcac-b139-46a8-bb34-02ec4ee7e773","system_id":"levelo_inurba_marseille","lat":43.308012,"lon":5.381511,"is_reserved":false,"is_disabled":false,"rental_uris":{"android":"levelo://app?vid=60dddcac-b139-46a8-bb34-02ec4ee7e773","ios":"levelo://app?vid=60dddcac-b139-46a8-bb34-02ec4ee7e773"},"vehicle_type_id":"4","last_reported":1683054332,"current_range_meters":22800,"station_id":"ce4bgt12rcd13ifvqce0","pricing_plan_id":"free"},{"bike_id":"bb5a450f-814e-412b-b77c-fb4a7c37cbc1","system_id":"levelo_inurba_marseille","lat":43.308012,"lon":5.381511,"is_reserved":false,"is_disabled":false,"rental_uris":{"android":"levelo://app?vid=bb5a450f-814e-412b-b77c-fb4a7c37cbc1","ios":"levelo://app?vid=bb5a450f-814e-412b-b77c-fb4a7c37cbc1"},"vehicle_type_id":"4","last_reported":1683054332,"current_range_meters":15600,"station_id":"ce4bgt12rcd13ifvqce0","pricing_plan_id":"free"},{"bike_id":"8ced8675-8253-4597-bcbd-4175f4e73821","system_id":"levelo_inurba_marseille","lat":43.30111,"lon":5.36957,"is_reserved":false,"is_disabled":false,"rental_uris":{"android":"levelo://app?vid=8ced8675-8253-4597-bcbd-4175f4e73821","ios":"levelo://app?vid=8ced8675-8253-4597-bcbd-4175f4e73821"},"vehicle_type_id":"4","last_reported":1683054332,"current_range_meters":23600,"station_id":"","pricing_plan_id":"free"},{"bike_id":"5dbc73b6-7693-4ac9-af13-ef6f7fa75026","system_id":"levelo_inurba_marseille","lat":43.29982,"lon":5.36513,"is_reserved":false,"is_disabled":false,"rental_uris":{"android":"levelo://app?vid=5dbc73b6-7693-4ac9-af13-ef6f7fa75026","ios":"levelo://app?vid=5dbc73b6-7693-4ac9-af13-ef6f7fa75026"},"vehicle_type_id":"4","last_reported":1683054332,"current_range_meters":9200,"station_id":"","pricing_plan_id":"free"},{"bike_id":"290825b7-bec6-4af3-a429-c5b0d0d02606","system_id":"levelo_inurba_marseille","lat":43.313571,"lon":5.384829,"is_reserved":false,"is_disabled":false,"rental_uris":{"android":"levelo://app?vid=290825b7-bec6-4af3-a429-c5b0d0d02606","ios":"levelo://app?vid=290825b7-bec6-4af3-a429-c5b0d0d02606"},"vehicle_type_id":"4","last_reported":1683054332,"current_range_meters":4000,"station_id":"ce4bgt92rcd13ifvqcf0","pricing_plan_id":"free"},{"bike_id":"9157dbde-30ae-4eea-ba08-d5c60e1ef9c5","system_id":"levelo_inurba_marseille","lat":43.313571,"lon":5.384829,"is_reserved":false,"is_disabled":false,"rental_uris":{"android":"levelo://app?vid=9157dbde-30ae-4eea-ba08-d5c60e1ef9c5","ios":"levelo://app?vid=9157dbde-30ae-4eea-ba08-d5c60e1ef9c5"},"vehicle_type_id":"4","last_reported":1683054332,"current_range_meters":25600,"station_id":"ce4bgt92rcd13ifvqcf0","pricing_plan_id":"free"},{"bike_id":"6d9e9467-2833-42ac-bce7-cb24672194d4","system_id":"levelo_inurba_marseille","lat":43.313571,"lon":5.384829,"is_reserved":false,"is_disabled":false,"rental_uris":{"android":"levelo://app?vid=6d9e9467-2833-42ac-bce7-cb24672194d4","ios":"levelo://app?vid=6d9e9467-2833-42ac-bce7-cb24672194d4"},"vehicle_type_id":"4","last_reported":1683054332,"current_range_meters":31200,"station_id":"ce4bgt92rcd13ifvqcf0","pricing_plan_id":"free"},{"bike_id":"206f7df6-70ee-4d32-a0a6-a449e0803871","system_id":"levelo_inurba_marseille","lat":43.313571,"lon":5.384829,"is_reserved":false,"is_disabled":false,"rental_uris":{"android":"levelo://app?vid=206f7df6-70ee-4d32-a0a6-a449e0803871","ios":"levelo://app?vid=206f7df6-70ee-4d32-a0a6-a449e0803871"},"vehicle_type_id":"4","last_reported":1683054332,"current_range_meters":31200,"station_id":"ce4bgt92rcd13ifvqcf0","pricing_plan_id":"free"},{"bike_id":"2a25a4ad-afc2-4672-89b1-8df635f6d8e1","system_id":"levelo_inurba_marseille","lat":43.31362,"lon":5.385,"is_reserved":false,"is_disabled":false,"rental_uris":{"android":"levelo://app?vid=2a25a4ad-afc2-4672-89b1-8df635f6d8e1","ios":"levelo://app?vid=2a25a4ad-afc2-4672-89b1-8df635f6d8e1"},"vehicle_type_id":"4","last_reported":1683054332,"current_range_meters":10400,"station_id":"ce4bgt92rcd13ifvqcf0","pricing_plan_id":"free"},{"bike_id":"49f4f0a5-2b71-4708-9f91-40f674cbbce1","system_id":"levelo_inurba_marseille","lat":43.313571,"lon":5.384829,"is_reserved":false,"is_disabled":false,"rental_uris":{"android":"levelo://app?vid=49f4f0a5-2b71-4708-9f91-40f674cbbce1","ios":"levelo://app?vid=49f4f0a5-2b71-4708-9f91-40f674cbbce1"},"vehicle_type_id":"4","last_reported":1683054332,"current_range_meters":4800,"station_id":"ce4bgt92rcd13ifvqcf0","pricing_plan_id":"free"},{"bike_id":"58ff97ae-7220-4203-93dc-c81cfe01c6f6","system_id":"levelo_inurba_marseille","lat":43.313571,"lon":5.384829,"is_reserved":false,"is_disabled":false,"rental_uris":{"android":"levelo://app?vid=58ff97ae-7220-4203-93dc-c81cfe01c6f6","ios":"levelo://app?vid=58ff97ae-7220-4203-93dc-c81cfe01c6f6"},"vehicle_type_id":"4","last_reported":1683054332,"current_range_meters":5200,"station_id":"ce4bgt92rcd13ifvqcf0","pricing_plan_id":"free"},{"bike_id":"4a07b0c5-7db4-4308-ac0f-add8d827dcb9","system_id":"levelo_inurba_marseille","lat":43.313571,"lon":5.384829,"is_reserved":false,"is_disabled":false,"rental_uris":{"android":"levelo://app?vid=4a07b0c5-7db4-4308-ac0f-add8d827dcb9","ios":"levelo://app?vid=4a07b0c5-7db4-4308-ac0f-add8d827dcb9"},"vehicle_type_id":"4","last_reported":1683054332,"current_range_meters":28400,"station_id":"ce4bgt92rcd13ifvqcf0","pricing_plan_id":"free"},{"bike_id":"2ad66b11-2a85-4087-aee1-14f9083a9bf2","system_id":"levelo_inurba_marseille","lat":43.299222,"lon":5.365554,"is_reserved":false,"is_disabled":false,"rental_uris":{"android":"levelo://app?vid=2ad66b11-2a85-4087-aee1-14f9083a9bf2","ios":"levelo://app?vid=2ad66b11-2a85-4087-aee1-14f9083a9bf2"},"vehicle_type_id":"4","last_reported":1683054332,"current_range_meters":31200,"station_id":"ce4bgm92rcd13ifvqbr0","pricing_plan_id":"free"},{"bike_id":"f8244809-35c8-48f3-8ccc-c275c556c85e","system_id":"levelo_inurba_marseille","lat":43.299222,"lon":5.365554,"is_reserved":false,"is_disabled":false,"rental_uris":{"android":"levelo://app?vid=f8244809-35c8-48f3-8ccc-c275c556c85e","ios":"levelo://app?vid=f8244809-35c8-48f3-8ccc-c275c556c85e"},"vehicle_type_id":"4","last_reported":1683054332,"current_range_meters":31200,"station_id":"ce4bgm92rcd13ifvqbr0","pricing_plan_id":"free"},{"bike_id":"9c38e90a-5b3b-418d-ba40-b7440239721c","system_id":"levelo_inurba_marseille","lat":43.299222,"lon":5.365554,"is_reserved":false,"is_disabled":false,"rental_uris":{"android":"levelo://app?vid=9c38e90a-5b3b-418d-ba40-b7440239721c","ios":"levelo://app?vid=9c38e90a-5b3b-418d-ba40-b7440239721c"},"vehicle_type_id":"4","last_reported":1683054332,"current_range_meters":30400,"station_id":"ce4bgm92rcd13ifvqbr0","pricing_plan_id":"free"},{"bike_id":"37e4bc39-67e8-47b5-933c-303f25d1c01d","system_id":"levelo_inurba_marseille","lat":43.30547,"lon":5.38417,"is_reserved":false,"is_disabled":false,"rental_uris":{"android":"levelo://app?vid=37e4bc39-67e8-47b5-933c-303f25d1c01d","ios":"levelo://app?vid=37e4bc39-67e8-47b5-933c-303f25d1c01d"},"vehicle_type_id":"4","last_reported":1683054332,"current_range_meters":0,"station_id":"","pricing_plan_id":"free"},{"bike_id":"534d0898-db29-48a5-8e61-c85dcedf1cf3","system_id":"levelo_inurba_marseille","lat":43.298433,"lon":5.362774,"is_reserved":false,"is_disabled":false,"rental_uris":{"android":"levelo://app?vid=534d0898-db29-48a5-8e61-c85dcedf1cf3","ios":"levelo://app?vid=534d0898-db29-48a5-8e61-c85dcedf1cf3"},"vehicle_type_id":"4","last_reported":1683054332,"current_range_meters":31600,"station_id":"ce4bgpp2rcd13ifvqc3g","pricing_plan_id":"free"},{"bike_id":"164a8b25-5eb3-4e0b-96cf-ac81e0a51c78","system_id":"levelo_inurba_marseille","lat":43.298433,"lon":5.362774,"is_reserved":false,"is_disabled":false,"rental_uris":{"android":"levelo://app?vid=164a8b25-5eb3-4e0b-96cf-ac81e0a51c78","ios":"levelo://app?vid=164a8b25-5eb3-4e0b-96cf-ac81e0a51c78"},"vehicle_type_id":"4","last_reported":1683054332,"current_range_meters":7200,"station_id":"ce4bgpp2rcd13ifvqc3g","pricing_plan_id":"free"},{"bike_id":"484c80e1-98bf-4f25-bffc-8a22c6cea82d","system_id":"levelo_inurba_marseille","lat":43.298433,"lon":5.362774,"is_reserved":false,"is_disabled":false,"rental_uris":{"android":"levelo://app?vid=484c80e1-98bf-4f25-bffc-8a22c6cea82d","ios":"levelo://app?vid=484c80e1-98bf-4f25-bffc-8a22c6cea82d"},"vehicle_type_id":"4","last_reported":1683054332,"current_range_meters":25600,"station_id":"ce4bgpp2rcd13ifvqc3g","pricing_plan_id":"free"},{"bike_id":"8ead17b4-797d-4df3-8992-d630c9da38ad","system_id":"levelo_inurba_marseille","lat":43.30538,"lon":5.38433,"is_reserved":false,"is_disabled":false,"rental_uris":{"android":"levelo://app?vid=8ead17b4-797d-4df3-8992-d630c9da38ad","ios":"levelo://app?vid=8ead17b4-797d-4df3-8992-d630c9da38ad"},"vehicle_type_id":"4","last_reported":1683054332,"current_range_meters":0,"station_id":"ce4bgg92rcd13ifvqb30","pricing_plan_id":"free"},{"bike_id":"2aebb898-19d4-4b34-a59c-a53189222980","system_id":"levelo_inurba_marseille","lat":43.311722,"lon":5.387247,"is_reserved":false,"is_disabled":false,"rental_uris":{"android":"levelo://app?vid=2aebb898-19d4-4b34-a59c-a53189222980","ios":"levelo://app?vid=2aebb898-19d4-4b34-a59c-a53189222980"},"vehicle_type_id":"4","last_reported":1683054332,"current_range_meters":26000,"station_id":"ce4bgv12rcd13ifvqcp0","pricing_plan_id":"free"},{"bike_id":"c1a28b61-83ae-4999-979a-456a1c83157b","system_id":"levelo_inurba_marseille","lat":43.311722,"lon":5.387247,"is_reserved":false,"is_disabled":false,"rental_uris":{"android":"levelo://app?vid=c1a28b61-83ae-4999-979a-456a1c83157b","ios":"levelo://app?vid=c1a28b61-83ae-4999-979a-456a1c83157b"},"vehicle_type_id":"4","last_reported":1683054332,"current_range_meters":31200,"station_id":"ce4bgv12rcd13ifvqcp0","pricing_plan_id":"free"},{"bike_id":"500427d6-08ed-44ac-b4d7-74b734109b36","system_id":"levelo_inurba_marseille","lat":43.298433,"lon":5.362774,"is_reserved":false,"is_disabled":false,"rental_uris":{"android":"levelo://app?vid=500427d6-08ed-44ac-b4d7-74b734109b36","ios":"levelo://app?vid=500427d6-08ed-44ac-b4d7-74b734109b36"},"vehicle_type_id":"4","last_reported":1683054332,"current_range_meters":31600,"station_id":"ce4bgpp2rcd13ifvqc3g","pricing_plan_id":"free"},{"bike_id":"78ea9c88-29a9-4174-8c4e-ebcd59ab1c06","system_id":"levelo_inurba_marseille","lat":43.298433,"lon":5.362774,"is_reserved":false,"is_disabled":false,"rental_uris":{"android":"levelo://app?vid=78ea9c88-29a9-4174-8c4e-ebcd59ab1c06","ios":"levelo://app?vid=78ea9c88-29a9-4174-8c4e-ebcd59ab1c06"},"vehicle_type_id":"4","last_reported":1683054332,"current_range_meters":31600,"station_id":"ce4bgpp2rcd13ifvqc3g","pricing_plan_id":"free"},{"bike_id":"8adee9ad-3179-4537-b5e0-676e7d719b48","system_id":"levelo_inurba_marseille","lat":43.297794,"lon":5.370888,"is_reserved":false,"is_disabled":false,"rental_uris":{"android":"levelo://app?vid=8adee9ad-3179-4537-b5e0-676e7d719b48","ios":"levelo://app?vid=8adee9ad-3179-4537-b5e0-676e7d719b48"},"vehicle_type_id":"4","last_reported":1683054332,"current_range_meters":26800,"station_id":"ce4bgop2rcd13ifvqc1g","pricing_plan_id":"free"},{"bike_id":"9ad35fdb-806c-4f7a-adba-8f02e408c7d4","system_id":"levelo_inurba_marseille","lat":43.297794,"lon":5.370888,"is_reserved":false,"is_disabled":false,"rental_uris":{"android":"levelo://app?vid=9ad35fdb-806c-4f7a-adba-8f02e408c7d4","ios":"levelo://app?vid=9ad35fdb-806c-4f7a-adba-8f02e408c7d4"},"vehicle_type_id":"4","last_reported":1683054332,"current_range_meters":20000,"station_id":"ce4bgop2rcd13ifvqc1g","pricing_plan_id":"free"},{"bike_id":"19103db2-d387-4dc5-9982-d282d38bb3a2","system_id":"levelo_inurba_marseille","lat":43.297794,"lon":5.370888,"is_reserved":false,"is_disabled":false,"rental_uris":{"android":"levelo://app?vid=19103db2-d387-4dc5-9982-d282d38bb3a2","ios":"levelo://app?vid=19103db2-d387-4dc5-9982-d282d38bb3a2"},"vehicle_type_id":"4","last_reported":1683054332,"current_range_meters":31200,"station_id":"ce4bgop2rcd13ifvqc1g","pricing_plan_id":"free"},{"bike_id":"bd531c0e-df31-48e6-8877-1b49e7029d37","system_id":"levelo_inurba_marseille","lat":43.297774,"lon":5.370875,"is_reserved":false,"is_disabled":false,"rental_uris":{"android":"levelo://app?vid=bd531c0e-df31-48e6-8877-1b49e7029d37","ios":"levelo://app?vid=bd531c0e-df31-48e6-8877-1b49e7029d37"},"vehicle_type_id":"4","last_reported":1683054332,"current_range_meters":31200,"station_id":"ce4bgop2rcd13ifvqc1g","pricing_plan_id":"free"},{"bike_id":"c7d1e15d-8e3b-40a4-8075-48ddc2219dba","system_id":"levelo_inurba_marseille","lat":43.297774,"lon":5.370875,"is_reserved":false,"is_disabled":false,"rental_uris":{"android":"levelo://app?vid=c7d1e15d-8e3b-40a4-8075-48ddc2219dba","ios":"levelo://app?vid=c7d1e15d-8e3b-40a4-8075-48ddc2219dba"},"vehicle_type_id":"4","last_reported":1683054332,"current_range_meters":27600,"station_id":"ce4bgop2rcd13ifvqc1g","pricing_plan_id":"free"},{"bike_id":"ea7b1b45-94e2-42e1-8786-c18438a8fc2d","system_id":"levelo_inurba_marseille","lat":43.328371,"lon":5.366912,"is_reserved":false,"is_disabled":false,"rental_uris":{"android":"levelo://app?vid=ea7b1b45-94e2-42e1-8786-c18438a8fc2d","ios":"levelo://app?vid=ea7b1b45-94e2-42e1-8786-c18438a8fc2d"},"vehicle_type_id":"4","last_reported":1683054332,"current_range_meters":19600,"station_id":"ce4bhs92rcd13ifvqi0g","pricing_plan_id":"free"},{"bike_id":"bf0fe6ad-f1ee-4e90-851e-4bdb847d036f","system_id":"levelo_inurba_marseille","lat":43.328371,"lon":5.366912,"is_reserved":false,"is_disabled":false,"rental_uris":{"android":"levelo://app?vid=bf0fe6ad-f1ee-4e90-851e-4bdb847d036f","ios":"levelo://app?vid=bf0fe6ad-f1ee-4e90-851e-4bdb847d036f"},"vehicle_type_id":"4","last_reported":1683054332,"current_range_meters":26000,"station_id":"ce4bhs92rcd13ifvqi0g","pricing_plan_id":"free"},{"bike_id":"6df01fc4-01ce-46ac-b48b-48734e57f4f7","system_id":"levelo_inurba_marseille","lat":43.328371,"lon":5.366912,"is_reserved":false,"is_disabled":false,"rental_uris":{"android":"levelo://app?vid=6df01fc4-01ce-46ac-b48b-48734e57f4f7","ios":"levelo://app?vid=6df01fc4-01ce-46ac-b48b-48734e57f4f7"},"vehicle_type_id":"4","last_reported":1683054332,"current_range_meters":26400,"station_id":"ce4bhs92rcd13ifvqi0g","pricing_plan_id":"free"},{"bike_id":"1b119143-8637-4d3f-b918-49378318986d","system_id":"levelo_inurba_marseille","lat":43.328371,"lon":5.366912,"is_reserved":false,"is_disabled":false,"rental_uris":{"android":"levelo://app?vid=1b119143-8637-4d3f-b918-49378318986d","ios":"levelo://app?vid=1b119143-8637-4d3f-b918-49378318986d"},"vehicle_type_id":"4","last_reported":1683054332,"current_range_meters":5600,"station_id":"ce4bhs92rcd13ifvqi0g","pricing_plan_id":"free"},{"bike_id":"dfff19d0-5ac6-4398-a895-d6b30922e33c","system_id":"levelo_inurba_marseille","lat":43.296129,"lon":5.370777,"is_reserved":false,"is_disabled":false,"rental_uris":{"android":"levelo://app?vid=dfff19d0-5ac6-4398-a895-d6b30922e33c","ios":"levelo://app?vid=dfff19d0-5ac6-4398-a895-d6b30922e33c"},"vehicle_type_id":"4","last_reported":1683054332,"current_range_meters":4800,"station_id":"ce4bgnh2rcd13ifvqc0g","pricing_plan_id":"free"},{"bike_id":"c16a9400-4c7e-4ee7-a189-cb671d4c5719","system_id":"levelo_inurba_marseille","lat":43.296131,"lon":5.370773,"is_reserved":false,"is_disabled":false,"rental_uris":{"android":"levelo://app?vid=c16a9400-4c7e-4ee7-a189-cb671d4c5719","ios":"levelo://app?vid=c16a9400-4c7e-4ee7-a189-cb671d4c5719"},"vehicle_type_id":"4","last_reported":1683054332,"current_range_meters":31200,"station_id":"ce4bgnh2rcd13ifvqc0g","pricing_plan_id":"free"},{"bike_id":"852b4363-8723-4bbe-b188-f49527b3a80c","system_id":"levelo_inurba_marseille","lat":43.29573,"lon":5.367355,"is_reserved":false,"is_disabled":false,"rental_uris":{"android":"levelo://app?vid=852b4363-8723-4bbe-b188-f49527b3a80c","ios":"levelo://app?vid=852b4363-8723-4bbe-b188-f49527b3a80c"},"vehicle_type_id":"4","last_reported":1683054332,"current_range_meters":31200,"station_id":"ce4bgph2rcd13ifvqc2g","pricing_plan_id":"free"},{"bike_id":"f9a18e69-4c41-4cf7-a340-dbaffff74455","system_id":"levelo_inurba_marseille","lat":43.29573,"lon":5.367355,"is_reserved":false,"is_disabled":false,"rental_uris":{"android":"levelo://app?vid=f9a18e69-4c41-4cf7-a340-dbaffff74455","ios":"levelo://app?vid=f9a18e69-4c41-4cf7-a340-dbaffff74455"},"vehicle_type_id":"4","last_reported":1683054332,"current_range_meters":18800,"station_id":"ce4bgph2rcd13ifvqc2g","pricing_plan_id":"free"},{"bike_id":"8e191826-3681-4e0a-8947-fe52d8069d1b","system_id":"levelo_inurba_marseille","lat":43.29573,"lon":5.367355,"is_reserved":false,"is_disabled":false,"rental_uris":{"android":"levelo://app?vid=8e191826-3681-4e0a-8947-fe52d8069d1b","ios":"levelo://app?vid=8e191826-3681-4e0a-8947-fe52d8069d1b"},"vehicle_type_id":"4","last_reported":1683054332,"current_range_meters":31200,"station_id":"ce4bgph2rcd13ifvqc2g","pricing_plan_id":"free"},{"bike_id":"25bae565-b7f8-4b70-948f-362c4ae2e983","system_id":"levelo_inurba_marseille","lat":43.29573,"lon":5.367355,"is_reserved":false,"is_disabled":false,"rental_uris":{"android":"levelo://app?vid=25bae565-b7f8-4b70-948f-362c4ae2e983","ios":"levelo://app?vid=25bae565-b7f8-4b70-948f-362c4ae2e983"},"vehicle_type_id":"4","last_reported":1683054332,"current_range_meters":22000,"station_id":"ce4bgph2rcd13ifvqc2g","pricing_plan_id":"free"},{"bike_id":"25a40be0-09c0-4c09-9f36-8f413a826f3d","system_id":"levelo_inurba_marseille","lat":43.29573,"lon":5.367355,"is_reserved":false,"is_disabled":false,"rental_uris":{"android":"levelo://app?vid=25a40be0-09c0-4c09-9f36-8f413a826f3d","ios":"levelo://app?vid=25a40be0-09c0-4c09-9f36-8f413a826f3d"},"vehicle_type_id":"4","last_reported":1683054332,"current_range_meters":27600,"station_id":"ce4bgph2rcd13ifvqc2g","pricing_plan_id":"free"},{"bike_id":"1ea86a75-85d3-4cee-948b-36be1449a904","system_id":"levelo_inurba_marseille","lat":43.29923,"lon":5.38151,"is_reserved":false,"is_disabled":false,"rental_uris":{"android":"levelo://app?vid=1ea86a75-85d3-4cee-948b-36be1449a904","ios":"levelo://app?vid=1ea86a75-85d3-4cee-948b-36be1449a904"},"vehicle_type_id":"4","last_reported":1683054332,"current_range_meters":5200,"station_id":"","pricing_plan_id":"free"},{"bike_id":"0887451e-2160-4946-b4ab-d75adbb0a045","system_id":"levelo_inurba_marseille","lat":43.309589,"lon":5.390258,"is_reserved":false,"is_disabled":false,"rental_uris":{"android":"levelo://app?vid=0887451e-2160-4946-b4ab-d75adbb0a045","ios":"levelo://app?vid=0887451e-2160-4946-b4ab-d75adbb0a045"},"vehicle_type_id":"4","last_reported":1683054332,"current_range_meters":26000,"station_id":"ce4bgup2rcd13ifvqco0","pricing_plan_id":"free"},{"bike_id":"8f48eb87-0c44-4b04-8751-0bbeded308aa","system_id":"levelo_inurba_marseille","lat":43.299028,"lon":5.381509,"is_reserved":false,"is_disabled":false,"rental_uris":{"android":"levelo://app?vid=8f48eb87-0c44-4b04-8751-0bbeded308aa","ios":"levelo://app?vid=8f48eb87-0c44-4b04-8751-0bbeded308aa"},"vehicle_type_id":"4","last_reported":1683054332,"current_range_meters":23600,"station_id":"ce4bgj12rcd13ifvqbc0","pricing_plan_id":"free"},{"bike_id":"82df7b8b-cb01-4c39-ba72-0c39ac56bf25","system_id":"levelo_inurba_marseille","lat":43.299028,"lon":5.381509,"is_reserved":false,"is_disabled":false,"rental_uris":{"android":"levelo://app?vid=82df7b8b-cb01-4c39-ba72-0c39ac56bf25","ios":"levelo://app?vid=82df7b8b-cb01-4c39-ba72-0c39ac56bf25"},"vehicle_type_id":"4","last_reported":1683054332,"current_range_meters":7200,"station_id":"ce4bgj12rcd13ifvqbc0","pricing_plan_id":"free"},{"bike_id":"922afb9e-780c-400a-aa82-df1a1fc93844","system_id":"levelo_inurba_marseille","lat":43.299028,"lon":5.381509,"is_reserved":false,"is_disabled":false,"rental_uris":{"android":"levelo://app?vid=922afb9e-780c-400a-aa82-df1a1fc93844","ios":"levelo://app?vid=922afb9e-780c-400a-aa82-df1a1fc93844"},"vehicle_type_id":"4","last_reported":1683054332,"current_range_meters":15200,"station_id":"ce4bgj12rcd13ifvqbc0","pricing_plan_id":"free"},{"bike_id":"ba515570-54b6-4c35-b2f9-ce80169797df","system_id":"levelo_inurba_marseille","lat":43.299028,"lon":5.381509,"is_reserved":false,"is_disabled":false,"rental_uris":{"android":"levelo://app?vid=ba515570-54b6-4c35-b2f9-ce80169797df","ios":"levelo://app?vid=ba515570-54b6-4c35-b2f9-ce80169797df"},"vehicle_type_id":"4","last_reported":1683054332,"current_range_meters":27600,"station_id":"ce4bgj12rcd13ifvqbc0","pricing_plan_id":"free"},{"bike_id":"fb6cc9bd-2555-4098-9ff1-fcc27ee3dbec","system_id":"levelo_inurba_marseille","lat":43.309589,"lon":5.390258,"is_reserved":false,"is_disabled":false,"rental_uris":{"android":"levelo://app?vid=fb6cc9bd-2555-4098-9ff1-fcc27ee3dbec","ios":"levelo://app?vid=fb6cc9bd-2555-4098-9ff1-fcc27ee3dbec"},"vehicle_type_id":"4","last_reported":1683054332,"current_range_meters":5600,"station_id":"ce4bgup2rcd13ifvqco0","pricing_plan_id":"free"},{"bike_id":"292c12f9-d301-4b78-bca1-d0ac54b7ffad","system_id":"levelo_inurba_marseille","lat":43.317557,"lon":5.390173,"is_reserved":false,"is_disabled":false,"rental_uris":{"android":"levelo://app?vid=292c12f9-d301-4b78-bca1-d0ac54b7ffad","ios":"levelo://app?vid=292c12f9-d301-4b78-bca1-d0ac54b7ffad"},"vehicle_type_id":"4","last_reported":1683054332,"current_range_meters":13200,"station_id":"ce4bhqp2rcd13ifvqhng","pricing_plan_id":"free"},{"bike_id":"697176a2-904c-42c7-ab7b-548643ba27f8","system_id":"levelo_inurba_marseille","lat":43.317557,"lon":5.390173,"is_reserved":false,"is_disabled":false,"rental_uris":{"android":"levelo://app?vid=697176a2-904c-42c7-ab7b-548643ba27f8","ios":"levelo://app?vid=697176a2-904c-42c7-ab7b-548643ba27f8"},"vehicle_type_id":"4","last_reported":1683054332,"current_range_meters":6400,"station_id":"ce4bhqp2rcd13ifvqhng","pricing_plan_id":"free"},{"bike_id":"486434b4-bc15-4cce-ac95-944cb8c52b95","system_id":"levelo_inurba_marseille","lat":43.317557,"lon":5.390173,"is_reserved":false,"is_disabled":false,"rental_uris":{"android":"levelo://app?vid=486434b4-bc15-4cce-ac95-944cb8c52b95","ios":"levelo://app?vid=486434b4-bc15-4cce-ac95-944cb8c52b95"},"vehicle_type_id":"4","last_reported":1683054332,"current_range_meters":28400,"station_id":"ce4bhqp2rcd13ifvqhng","pricing_plan_id":"free"},{"bike_id":"62b1a654-711b-4181-a7e4-f45ac8210657","system_id":"levelo_inurba_marseille","lat":43.317557,"lon":5.390173,"is_reserved":false,"is_disabled":false,"rental_uris":{"android":"levelo://app?vid=62b1a654-711b-4181-a7e4-f45ac8210657","ios":"levelo://app?vid=62b1a654-711b-4181-a7e4-f45ac8210657"},"vehicle_type_id":"4","last_reported":1683054332,"current_range_meters":17600,"station_id":"ce4bhqp2rcd13ifvqhng","pricing_plan_id":"free"},{"bike_id":"d7a47a7a-f16a-47f9-a06a-e46ee3de14ae","system_id":"levelo_inurba_marseille","lat":43.295748,"lon":5.37522,"is_reserved":false,"is_disabled":false,"rental_uris":{"android":"levelo://app?vid=d7a47a7a-f16a-47f9-a06a-e46ee3de14ae","ios":"levelo://app?vid=d7a47a7a-f16a-47f9-a06a-e46ee3de14ae"},"vehicle_type_id":"4","last_reported":1683054332,"current_range_meters":25600,"station_id":"ce4bgh92rcd13ifvqb50","pricing_plan_id":"free"},{"bike_id":"09a281f5-09f4-4887-a9ed-35b11cdda92f","system_id":"levelo_inurba_marseille","lat":43.298037,"lon":5.381066,"is_reserved":false,"is_disabled":false,"rental_uris":{"android":"levelo://app?vid=09a281f5-09f4-4887-a9ed-35b11cdda92f","ios":"levelo://app?vid=09a281f5-09f4-4887-a9ed-35b11cdda92f"},"vehicle_type_id":"4","last_reported":1683054332,"current_range_meters":28400,"station_id":"ce4bgip2rcd13ifvqbb0","pricing_plan_id":"free"},{"bike_id":"a070276b-4b10-4783-b74c-aa75df62d418","system_id":"levelo_inurba_marseille","lat":43.30445,"lon":5.38886,"is_reserved":false,"is_disabled":false,"rental_uris":{"android":"levelo://app?vid=a070276b-4b10-4783-b74c-aa75df62d418","ios":"levelo://app?vid=a070276b-4b10-4783-b74c-aa75df62d418"},"vehicle_type_id":"4","last_reported":1683054332,"current_range_meters":0,"station_id":"ce4bgk12rcd13ifvqbi0","pricing_plan_id":"free"},{"bike_id":"68ce2a9c-8c4b-4663-b226-8dd96e70ebb4","system_id":"levelo_inurba_marseille","lat":43.298037,"lon":5.381066,"is_reserved":false,"is_disabled":false,"rental_uris":{"android":"levelo://app?vid=68ce2a9c-8c4b-4663-b226-8dd96e70ebb4","ios":"levelo://app?vid=68ce2a9c-8c4b-4663-b226-8dd96e70ebb4"},"vehicle_type_id":"4","last_reported":1683054332,"current_range_meters":4400,"station_id":"ce4bgip2rcd13ifvqbb0","pricing_plan_id":"free"},{"bike_id":"382a3c87-b783-49d2-899e-b8d51f772e3f","system_id":"levelo_inurba_marseille","lat":43.30439,"lon":5.38888,"is_reserved":false,"is_disabled":false,"rental_uris":{"android":"levelo://app?vid=382a3c87-b783-49d2-899e-b8d51f772e3f","ios":"levelo://app?vid=382a3c87-b783-49d2-899e-b8d51f772e3f"},"vehicle_type_id":"4","last_reported":1683054332,"current_range_meters":6400,"station_id":"ce4bgk12rcd13ifvqbi0","pricing_plan_id":"free"},{"bike_id":"981a83a6-6ea4-4946-bb67-a69012b6054a","system_id":"levelo_inurba_marseille","lat":43.30431,"lon":5.38883,"is_reserved":false,"is_disabled":false,"rental_uris":{"android":"levelo://app?vid=981a83a6-6ea4-4946-bb67-a69012b6054a","ios":"levelo://app?vid=981a83a6-6ea4-4946-bb67-a69012b6054a"},"vehicle_type_id":"4","last_reported":1683054332,"current_range_meters":12800,"station_id":"ce4bgk12rcd13ifvqbi0","pricing_plan_id":"free"},{"bike_id":"1395d881-d9c1-42d6-a827-2d020cde1993","system_id":"levelo_inurba_marseille","lat":43.30433,"lon":5.38888,"is_reserved":false,"is_disabled":false,"rental_uris":{"android":"levelo://app?vid=1395d881-d9c1-42d6-a827-2d020cde1993","ios":"levelo://app?vid=1395d881-d9c1-42d6-a827-2d020cde1993"},"vehicle_type_id":"4","last_reported":1683054332,"current_range_meters":11600,"station_id":"ce4bgk12rcd13ifvqbi0","pricing_plan_id":"free"},{"bike_id":"affc5669-9a3a-4c09-937d-cc6368b102ad","system_id":"levelo_inurba_marseille","lat":43.30437,"lon":5.38891,"is_reserved":false,"is_disabled":false,"rental_uris":{"android":"levelo://app?vid=affc5669-9a3a-4c09-937d-cc6368b102ad","ios":"levelo://app?vid=affc5669-9a3a-4c09-937d-cc6368b102ad"},"vehicle_type_id":"4","last_reported":1683054332,"current_range_meters":4000,"station_id":"ce4bgk12rcd13ifvqbi0","pricing_plan_id":"free"},{"bike_id":"433d5372-3395-4aa3-858a-9f2c5dd50ba6","system_id":"levelo_inurba_marseille","lat":43.30433,"lon":5.38889,"is_reserved":false,"is_disabled":false,"rental_uris":{"android":"levelo://app?vid=433d5372-3395-4aa3-858a-9f2c5dd50ba6","ios":"levelo://app?vid=433d5372-3395-4aa3-858a-9f2c5dd50ba6"},"vehicle_type_id":"4","last_reported":1683054332,"current_range_meters":26400,"station_id":"ce4bgk12rcd13ifvqbi0","pricing_plan_id":"free"},{"bike_id":"49a48de7-43e4-492b-8182-5933d24636c3","system_id":"levelo_inurba_marseille","lat":43.30432,"lon":5.38892,"is_reserved":false,"is_disabled":false,"rental_uris":{"android":"levelo://app?vid=49a48de7-43e4-492b-8182-5933d24636c3","ios":"levelo://app?vid=49a48de7-43e4-492b-8182-5933d24636c3"},"vehicle_type_id":"4","last_reported":1683054332,"current_range_meters":23600,"station_id":"ce4bgk12rcd13ifvqbi0","pricing_plan_id":"free"},{"bike_id":"10043aa3-e66f-4ec2-89bf-899982ca1bdf","system_id":"levelo_inurba_marseille","lat":43.29788,"lon":5.38109,"is_reserved":false,"is_disabled":false,"rental_uris":{"android":"levelo://app?vid=10043aa3-e66f-4ec2-89bf-899982ca1bdf","ios":"levelo://app?vid=10043aa3-e66f-4ec2-89bf-899982ca1bdf"},"vehicle_type_id":"4","last_reported":1683054332,"current_range_meters":11600,"station_id":"ce4bgip2rcd13ifvqbb0","pricing_plan_id":"free"},{"bike_id":"ce5b47b8-bf6f-4dc6-b5c5-cb82ceb37a49","system_id":"levelo_inurba_marseille","lat":43.30441,"lon":5.38899,"is_reserved":false,"is_disabled":false,"rental_uris":{"android":"levelo://app?vid=ce5b47b8-bf6f-4dc6-b5c5-cb82ceb37a49","ios":"levelo://app?vid=ce5b47b8-bf6f-4dc6-b5c5-cb82ceb37a49"},"vehicle_type_id":"4","last_reported":1683054332,"current_range_meters":21200,"station_id":"ce4bgk12rcd13ifvqbi0","pricing_plan_id":"free"},{"bike_id":"31c7ba01-7e65-45a3-b3ff-5fc0f25f8064","system_id":"levelo_inurba_marseille","lat":43.30426,"lon":5.38891,"is_reserved":false,"is_disabled":false,"rental_uris":{"android":"levelo://app?vid=31c7ba01-7e65-45a3-b3ff-5fc0f25f8064","ios":"levelo://app?vid=31c7ba01-7e65-45a3-b3ff-5fc0f25f8064"},"vehicle_type_id":"4","last_reported":1683054332,"current_range_meters":4400,"station_id":"ce4bgk12rcd13ifvqbi0","pricing_plan_id":"free"},{"bike_id":"71aa459a-aafd-4be3-894a-0c47d964d6e7","system_id":"levelo_inurba_marseille","lat":43.3043,"lon":5.38894,"is_reserved":false,"is_disabled":false,"rental_uris":{"android":"levelo://app?vid=71aa459a-aafd-4be3-894a-0c47d964d6e7","ios":"levelo://app?vid=71aa459a-aafd-4be3-894a-0c47d964d6e7"},"vehicle_type_id":"4","last_reported":1683054332,"current_range_meters":0,"station_id":"ce4bgk12rcd13ifvqbi0","pricing_plan_id":"free"},{"bike_id":"8b37d0ab-5ffa-43af-95c7-31e8fddd4e72","system_id":"levelo_inurba_marseille","lat":43.29611,"lon":5.37697,"is_reserved":false,"is_disabled":false,"rental_uris":{"android":"levelo://app?vid=8b37d0ab-5ffa-43af-95c7-31e8fddd4e72","ios":"levelo://app?vid=8b37d0ab-5ffa-43af-95c7-31e8fddd4e72"},"vehicle_type_id":"4","last_reported":1683054332,"current_range_meters":0,"station_id":"","pricing_plan_id":"free"},{"bike_id":"689b113a-bd37-42d3-b3f4-5f948b5fb25b","system_id":"levelo_inurba_marseille","lat":43.3044,"lon":5.38914,"is_reserved":false,"is_disabled":false,"rental_uris":{"android":"levelo://app?vid=689b113a-bd37-42d3-b3f4-5f948b5fb25b","ios":"levelo://app?vid=689b113a-bd37-42d3-b3f4-5f948b5fb25b"},"vehicle_type_id":"4","last_reported":1683054332,"current_range_meters":26800,"station_id":"ce4bgk12rcd13ifvqbi0","pricing_plan_id":"free"},{"bike_id":"b71208a8-c3d5-491d-a4c0-81418d96e007","system_id":"levelo_inurba_marseille","lat":43.299724,"lon":5.384848,"is_reserved":false,"is_disabled":false,"rental_uris":{"android":"levelo://app?vid=b71208a8-c3d5-491d-a4c0-81418d96e007","ios":"levelo://app?vid=b71208a8-c3d5-491d-a4c0-81418d96e007"},"vehicle_type_id":"4","last_reported":1683054332,"current_range_meters":21200,"station_id":"ce4bgj92rcd13ifvqbd0","pricing_plan_id":"free"},{"bike_id":"a422a08d-805c-478b-bb77-d073e69f67b4","system_id":"levelo_inurba_marseille","lat":43.299724,"lon":5.384848,"is_reserved":false,"is_disabled":false,"rental_uris":{"android":"levelo://app?vid=a422a08d-805c-478b-bb77-d073e69f67b4","ios":"levelo://app?vid=a422a08d-805c-478b-bb77-d073e69f67b4"},"vehicle_type_id":"4","last_reported":1683054332,"current_range_meters":2800,"station_id":"ce4bgj92rcd13ifvqbd0","pricing_plan_id":"free"},{"bike_id":"67791e4d-db93-488b-8ee1-9ea3561d2b92","system_id":"levelo_inurba_marseille","lat":43.32527,"lon":5.38612,"is_reserved":false,"is_disabled":false,"rental_uris":{"android":"levelo://app?vid=67791e4d-db93-488b-8ee1-9ea3561d2b92","ios":"levelo://app?vid=67791e4d-db93-488b-8ee1-9ea3561d2b92"},"vehicle_type_id":"4","last_reported":1683054332,"current_range_meters":4400,"station_id":"","pricing_plan_id":"free"},{"bike_id":"912b609f-e6c2-4b55-afd0-624e0c2d0c4b","system_id":"levelo_inurba_marseille","lat":43.29934,"lon":5.38515,"is_reserved":false,"is_disabled":false,"rental_uris":{"android":"levelo://app?vid=912b609f-e6c2-4b55-afd0-624e0c2d0c4b","ios":"levelo://app?vid=912b609f-e6c2-4b55-afd0-624e0c2d0c4b"},"vehicle_type_id":"4","last_reported":1683054332,"current_range_meters":26800,"station_id":"","pricing_plan_id":"free"},{"bike_id":"ea0a5240-f3c9-41a4-932c-11f2248938d5","system_id":"levelo_inurba_marseille","lat":43.31448,"lon":5.39282,"is_reserved":false,"is_disabled":false,"rental_uris":{"android":"levelo://app?vid=ea0a5240-f3c9-41a4-932c-11f2248938d5","ios":"levelo://app?vid=ea0a5240-f3c9-41a4-932c-11f2248938d5"},"vehicle_type_id":"4","last_reported":1683054332,"current_range_meters":12000,"station_id":"","pricing_plan_id":"free"},{"bike_id":"150654a9-bdf8-4dd6-ae83-e2e737e52ec4","system_id":"levelo_inurba_marseille","lat":43.294183,"lon":5.374714,"is_reserved":false,"is_disabled":false,"rental_uris":{"android":"levelo://app?vid=150654a9-bdf8-4dd6-ae83-e2e737e52ec4","ios":"levelo://app?vid=150654a9-bdf8-4dd6-ae83-e2e737e52ec4"},"vehicle_type_id":"4","last_reported":1683054332,"current_range_meters":27600,"station_id":"","pricing_plan_id":"free"},{"bike_id":"eb180471-aae9-41ad-8104-f15c1dcf53c5","system_id":"levelo_inurba_marseille","lat":43.29602,"lon":5.381084,"is_reserved":false,"is_disabled":false,"rental_uris":{"android":"levelo://app?vid=eb180471-aae9-41ad-8104-f15c1dcf53c5","ios":"levelo://app?vid=eb180471-aae9-41ad-8104-f15c1dcf53c5"},"vehicle_type_id":"4","last_reported":1683054332,"current_range_meters":30400,"station_id":"ce4bgl12rcd13ifvqbo0","pricing_plan_id":"free"},{"bike_id":"32f994bb-1c80-42e9-bbed-42e810d4f0c9","system_id":"levelo_inurba_marseille","lat":43.31417,"lon":5.39378,"is_reserved":false,"is_disabled":false,"rental_uris":{"android":"levelo://app?vid=32f994bb-1c80-42e9-bbed-42e810d4f0c9","ios":"levelo://app?vid=32f994bb-1c80-42e9-bbed-42e810d4f0c9"},"vehicle_type_id":"4","last_reported":1683054332,"current_range_meters":23200,"station_id":"","pricing_plan_id":"free"},{"bike_id":"0b0c87c1-de16-40b4-bb93-feb88dd6de5a","system_id":"levelo_inurba_marseille","lat":43.293249,"lon":5.371578,"is_reserved":false,"is_disabled":false,"rental_uris":{"android":"levelo://app?vid=0b0c87c1-de16-40b4-bb93-feb88dd6de5a","ios":"levelo://app?vid=0b0c87c1-de16-40b4-bb93-feb88dd6de5a"},"vehicle_type_id":"4","last_reported":1683054332,"current_range_meters":24400,"station_id":"ce4bgh92rcd13ifvqb40","pricing_plan_id":"free"},{"bike_id":"b937f403-5a5c-41ea-a314-7062f3b7250e","system_id":"levelo_inurba_marseille","lat":43.292743,"lon":5.368404,"is_reserved":false,"is_disabled":false,"rental_uris":{"android":"levelo://app?vid=b937f403-5a5c-41ea-a314-7062f3b7250e","ios":"levelo://app?vid=b937f403-5a5c-41ea-a314-7062f3b7250e"},"vehicle_type_id":"4","last_reported":1683054332,"current_range_meters":0,"station_id":"ce4bhbp2rcd13ifvqesg","pricing_plan_id":"free"},{"bike_id":"e71cd977-177a-4dec-8e56-89d88815f58a","system_id":"levelo_inurba_marseille","lat":43.29269,"lon":5.36845,"is_reserved":false,"is_disabled":false,"rental_uris":{"android":"levelo://app?vid=e71cd977-177a-4dec-8e56-89d88815f58a","ios":"levelo://app?vid=e71cd977-177a-4dec-8e56-89d88815f58a"},"vehicle_type_id":"4","last_reported":1683054332,"current_range_meters":9600,"station_id":"ce4bhbp2rcd13ifvqesg","pricing_plan_id":"free"},{"bike_id":"e317501b-4dc4-4012-9a1d-dbc122eea552","system_id":"levelo_inurba_marseille","lat":43.29265,"lon":5.36843,"is_reserved":false,"is_disabled":false,"rental_uris":{"android":"levelo://app?vid=e317501b-4dc4-4012-9a1d-dbc122eea552","ios":"levelo://app?vid=e317501b-4dc4-4012-9a1d-dbc122eea552"},"vehicle_type_id":"4","last_reported":1683054332,"current_range_meters":4000,"station_id":"ce4bhbp2rcd13ifvqesg","pricing_plan_id":"free"},{"bike_id":"a5e2b443-9e6b-48bc-95a5-34b714c620a8","system_id":"levelo_inurba_marseille","lat":43.31357,"lon":5.39479,"is_reserved":false,"is_disabled":false,"rental_uris":{"android":"levelo://app?vid=a5e2b443-9e6b-48bc-95a5-34b714c620a8","ios":"levelo://app?vid=a5e2b443-9e6b-48bc-95a5-34b714c620a8"},"vehicle_type_id":"4","last_reported":1683054332,"current_range_meters":7600,"station_id":"","pricing_plan_id":"free"},{"bike_id":"e241e22c-1aa4-4d46-8c11-9c6ca9c66fcc","system_id":"levelo_inurba_marseille","lat":43.29302,"lon":5.37466,"is_reserved":false,"is_disabled":false,"rental_uris":{"android":"levelo://app?vid=e241e22c-1aa4-4d46-8c11-9c6ca9c66fcc","ios":"levelo://app?vid=e241e22c-1aa4-4d46-8c11-9c6ca9c66fcc"},"vehicle_type_id":"4","last_reported":1683054332,"current_range_meters":0,"station_id":"ce4bgi12rcd13ifvqb70","pricing_plan_id":"free"},{"bike_id":"19c6a42f-598b-45ed-8501-c8d4b4a84db5","system_id":"levelo_inurba_marseille","lat":43.293,"lon":5.37461,"is_reserved":false,"is_disabled":false,"rental_uris":{"android":"levelo://app?vid=19c6a42f-598b-45ed-8501-c8d4b4a84db5","ios":"levelo://app?vid=19c6a42f-598b-45ed-8501-c8d4b4a84db5"},"vehicle_type_id":"4","last_reported":1683054332,"current_range_meters":0,"station_id":"ce4bgi12rcd13ifvqb70","pricing_plan_id":"free"},{"bike_id":"b2577b67-9c67-4809-a89f-b0bfc33675ca","system_id":"levelo_inurba_marseille","lat":43.31392,"lon":5.39508,"is_reserved":false,"is_disabled":false,"rental_uris":{"android":"levelo://app?vid=b2577b67-9c67-4809-a89f-b0bfc33675ca","ios":"levelo://app?vid=b2577b67-9c67-4809-a89f-b0bfc33675ca"},"vehicle_type_id":"4","last_reported":1683054332,"current_range_meters":12000,"station_id":"","pricing_plan_id":"free"},{"bike_id":"2210d66c-151a-4d76-9156-a0f7afc9661f","system_id":"levelo_inurba_marseille","lat":43.29298,"lon":5.37469,"is_reserved":false,"is_disabled":false,"rental_uris":{"android":"levelo://app?vid=2210d66c-151a-4d76-9156-a0f7afc9661f","ios":"levelo://app?vid=2210d66c-151a-4d76-9156-a0f7afc9661f"},"vehicle_type_id":"4","last_reported":1683054332,"current_range_meters":26800,"station_id":"ce4bgi12rcd13ifvqb70","pricing_plan_id":"free"},{"bike_id":"dde4f8a5-c109-403f-acde-29971318fc35","system_id":"levelo_inurba_marseille","lat":43.29292,"lon":5.37489,"is_reserved":false,"is_disabled":false,"rental_uris":{"android":"levelo://app?vid=dde4f8a5-c109-403f-acde-29971318fc35","ios":"levelo://app?vid=dde4f8a5-c109-403f-acde-29971318fc35"},"vehicle_type_id":"4","last_reported":1683054332,"current_range_meters":4000,"station_id":"ce4bgi12rcd13ifvqb70","pricing_plan_id":"free"},{"bike_id":"d2ef8c1c-49ef-45ce-90c1-84762fcdd50c","system_id":"levelo_inurba_marseille","lat":43.305994,"lon":5.393687,"is_reserved":false,"is_disabled":false,"rental_uris":{"android":"levelo://app?vid=d2ef8c1c-49ef-45ce-90c1-84762fcdd50c","ios":"levelo://app?vid=d2ef8c1c-49ef-45ce-90c1-84762fcdd50c"},"vehicle_type_id":"4","last_reported":1683054332,"current_range_meters":25600,"station_id":"ce4bh0p2rcd13ifvqd80","pricing_plan_id":"free"},{"bike_id":"f91d7ed5-0da7-4257-a2c9-d85723a87eb2","system_id":"levelo_inurba_marseille","lat":43.2936,"lon":5.37835,"is_reserved":false,"is_disabled":false,"rental_uris":{"android":"levelo://app?vid=f91d7ed5-0da7-4257-a2c9-d85723a87eb2","ios":"levelo://app?vid=f91d7ed5-0da7-4257-a2c9-d85723a87eb2"},"vehicle_type_id":"4","last_reported":1683054332,"current_range_meters":24400,"station_id":"ce4bgjh2rcd13ifvqbf0","pricing_plan_id":"free"},{"bike_id":"f103abfc-5c61-4c08-a93f-b0db85b51d5a","system_id":"levelo_inurba_marseille","lat":43.29374,"lon":5.37858,"is_reserved":false,"is_disabled":false,"rental_uris":{"android":"levelo://app?vid=f103abfc-5c61-4c08-a93f-b0db85b51d5a","ios":"levelo://app?vid=f103abfc-5c61-4c08-a93f-b0db85b51d5a"},"vehicle_type_id":"4","last_reported":1683054332,"current_range_meters":21200,"station_id":"ce4bgjh2rcd13ifvqbf0","pricing_plan_id":"free"},{"bike_id":"b43b6d1d-3467-47a1-967a-29f91150fcff","system_id":"levelo_inurba_marseille","lat":43.309047,"lon":5.396551,"is_reserved":false,"is_disabled":false,"rental_uris":{"android":"levelo://app?vid=b43b6d1d-3467-47a1-967a-29f91150fcff","ios":"levelo://app?vid=b43b6d1d-3467-47a1-967a-29f91150fcff"},"vehicle_type_id":"4","last_reported":1683054332,"current_range_meters":17600,"station_id":"ce4bh012rcd13ifvqcv0","pricing_plan_id":"free"},{"bike_id":"7320caaf-065a-494a-a2f4-3573d49b1af6","system_id":"levelo_inurba_marseille","lat":43.300852,"lon":5.390859,"is_reserved":false,"is_disabled":false,"rental_uris":{"android":"levelo://app?vid=7320caaf-065a-494a-a2f4-3573d49b1af6","ios":"levelo://app?vid=7320caaf-065a-494a-a2f4-3573d49b1af6"},"vehicle_type_id":"4","last_reported":1683054332,"current_range_meters":6000,"station_id":"ce4bh192rcd13ifvqdb0","pricing_plan_id":"free"},{"bike_id":"b3c0e20f-f4ec-4a4f-a027-6609e855e87d","system_id":"levelo_inurba_marseille","lat":43.300852,"lon":5.390859,"is_reserved":false,"is_disabled":false,"rental_uris":{"android":"levelo://app?vid=b3c0e20f-f4ec-4a4f-a027-6609e855e87d","ios":"levelo://app?vid=b3c0e20f-f4ec-4a4f-a027-6609e855e87d"},"vehicle_type_id":"4","last_reported":1683054332,"current_range_meters":27600,"station_id":"ce4bh192rcd13ifvqdb0","pricing_plan_id":"free"},{"bike_id":"cdbd9670-df3a-4248-a356-74e291a59802","system_id":"levelo_inurba_marseille","lat":43.30085,"lon":5.390856,"is_reserved":false,"is_disabled":false,"rental_uris":{"android":"levelo://app?vid=cdbd9670-df3a-4248-a356-74e291a59802","ios":"levelo://app?vid=cdbd9670-df3a-4248-a356-74e291a59802"},"vehicle_type_id":"4","last_reported":1683054332,"current_range_meters":29600,"station_id":"ce4bh192rcd13ifvqdb0","pricing_plan_id":"free"},{"bike_id":"ade1e7c4-dd5a-4b11-93ba-0e17b6b5bc51","system_id":"levelo_inurba_marseille","lat":43.30085,"lon":5.390856,"is_reserved":false,"is_disabled":false,"rental_uris":{"android":"levelo://app?vid=ade1e7c4-dd5a-4b11-93ba-0e17b6b5bc51","ios":"levelo://app?vid=ade1e7c4-dd5a-4b11-93ba-0e17b6b5bc51"},"vehicle_type_id":"4","last_reported":1683054332,"current_range_meters":22000,"station_id":"ce4bh192rcd13ifvqdb0","pricing_plan_id":"free"},{"bike_id":"3f9ac029-c2ce-4506-a7fb-d480b7a49dbb","system_id":"levelo_inurba_marseille","lat":43.298764,"lon":5.388973,"is_reserved":false,"is_disabled":false,"rental_uris":{"android":"levelo://app?vid=3f9ac029-c2ce-4506-a7fb-d480b7a49dbb","ios":"levelo://app?vid=3f9ac029-c2ce-4506-a7fb-d480b7a49dbb"},"vehicle_type_id":"4","last_reported":1683054332,"current_range_meters":14400,"station_id":"ce4bh392rcd13ifvqdl0","pricing_plan_id":"free"},{"bike_id":"131d0003-2882-47d7-8c75-47e77fb3538b","system_id":"levelo_inurba_marseille","lat":43.298764,"lon":5.388973,"is_reserved":false,"is_disabled":false,"rental_uris":{"android":"levelo://app?vid=131d0003-2882-47d7-8c75-47e77fb3538b","ios":"levelo://app?vid=131d0003-2882-47d7-8c75-47e77fb3538b"},"vehicle_type_id":"4","last_reported":1683054332,"current_range_meters":16800,"station_id":"ce4bh392rcd13ifvqdl0","pricing_plan_id":"free"},{"bike_id":"663660b6-3cb4-4469-a67a-d7a55c859256","system_id":"levelo_inurba_marseille","lat":43.298764,"lon":5.388973,"is_reserved":false,"is_disabled":false,"rental_uris":{"android":"levelo://app?vid=663660b6-3cb4-4469-a67a-d7a55c859256","ios":"levelo://app?vid=663660b6-3cb4-4469-a67a-d7a55c859256"},"vehicle_type_id":"4","last_reported":1683054332,"current_range_meters":18400,"station_id":"ce4bh392rcd13ifvqdl0","pricing_plan_id":"free"},{"bike_id":"edce1a11-858b-42fb-9bbf-d348d9a21e8b","system_id":"levelo_inurba_marseille","lat":43.298764,"lon":5.388973,"is_reserved":false,"is_disabled":false,"rental_uris":{"android":"levelo://app?vid=edce1a11-858b-42fb-9bbf-d348d9a21e8b","ios":"levelo://app?vid=edce1a11-858b-42fb-9bbf-d348d9a21e8b"},"vehicle_type_id":"4","last_reported":1683054332,"current_range_meters":2400,"station_id":"ce4bh392rcd13ifvqdl0","pricing_plan_id":"free"},{"bike_id":"6ae5edb5-96f6-4207-aab3-d5cb647dd955","system_id":"levelo_inurba_marseille","lat":43.291671,"lon":5.371575,"is_reserved":false,"is_disabled":false,"rental_uris":{"android":"levelo://app?vid=6ae5edb5-96f6-4207-aab3-d5cb647dd955","ios":"levelo://app?vid=6ae5edb5-96f6-4207-aab3-d5cb647dd955"},"vehicle_type_id":"4","last_reported":1683054332,"current_range_meters":7600,"station_id":"ce4bha92rcd13ifvqeh0","pricing_plan_id":"free"},{"bike_id":"b7bf10bd-620f-41f8-8a4e-697f3db70073","system_id":"levelo_inurba_marseille","lat":43.29298,"lon":5.35566,"is_reserved":false,"is_disabled":false,"rental_uris":{"android":"levelo://app?vid=b7bf10bd-620f-41f8-8a4e-697f3db70073","ios":"levelo://app?vid=b7bf10bd-620f-41f8-8a4e-697f3db70073"},"vehicle_type_id":"4","last_reported":1683054332,"current_range_meters":19600,"station_id":"","pricing_plan_id":"free"},{"bike_id":"683baa13-e0a5-4778-a227-96a5c092b6bc","system_id":"levelo_inurba_marseille","lat":43.309038,"lon":5.396546,"is_reserved":false,"is_disabled":false,"rental_uris":{"android":"levelo://app?vid=683baa13-e0a5-4778-a227-96a5c092b6bc","ios":"levelo://app?vid=683baa13-e0a5-4778-a227-96a5c092b6bc"},"vehicle_type_id":"4","last_reported":1683054332,"current_range_meters":25600,"station_id":"ce4bh012rcd13ifvqcv0","pricing_plan_id":"free"},{"bike_id":"78c20f04-613c-4a1b-824f-7e0f2b57b2e4","system_id":"levelo_inurba_marseille","lat":43.309047,"lon":5.396551,"is_reserved":false,"is_disabled":false,"rental_uris":{"android":"levelo://app?vid=78c20f04-613c-4a1b-824f-7e0f2b57b2e4","ios":"levelo://app?vid=78c20f04-613c-4a1b-824f-7e0f2b57b2e4"},"vehicle_type_id":"4","last_reported":1683054332,"current_range_meters":14400,"station_id":"ce4bh012rcd13ifvqcv0","pricing_plan_id":"free"},{"bike_id":"eff08aeb-6ba8-4077-838a-1827a46459e7","system_id":"levelo_inurba_marseille","lat":43.309047,"lon":5.396551,"is_reserved":false,"is_disabled":false,"rental_uris":{"android":"levelo://app?vid=eff08aeb-6ba8-4077-838a-1827a46459e7","ios":"levelo://app?vid=eff08aeb-6ba8-4077-838a-1827a46459e7"},"vehicle_type_id":"4","last_reported":1683054332,"current_range_meters":16400,"station_id":"ce4bh012rcd13ifvqcv0","pricing_plan_id":"free"},{"bike_id":"aa767fa3-dfbf-41fb-b02f-0ddab0d8c8b2","system_id":"levelo_inurba_marseille","lat":43.309038,"lon":5.396546,"is_reserved":false,"is_disabled":false,"rental_uris":{"android":"levelo://app?vid=aa767fa3-dfbf-41fb-b02f-0ddab0d8c8b2","ios":"levelo://app?vid=aa767fa3-dfbf-41fb-b02f-0ddab0d8c8b2"},"vehicle_type_id":"4","last_reported":1683054332,"current_range_meters":2000,"station_id":"ce4bh012rcd13ifvqcv0","pricing_plan_id":"free"},{"bike_id":"6acd810f-d0b7-4160-a1e2-97b0ee1d2696","system_id":"levelo_inurba_marseille","lat":43.313291,"lon":5.396838,"is_reserved":false,"is_disabled":false,"rental_uris":{"android":"levelo://app?vid=6acd810f-d0b7-4160-a1e2-97b0ee1d2696","ios":"levelo://app?vid=6acd810f-d0b7-4160-a1e2-97b0ee1d2696"},"vehicle_type_id":"4","last_reported":1683054332,"current_range_meters":22800,"station_id":"ce4bgvp2rcd13ifvqcu0","pricing_plan_id":"free"},{"bike_id":"53e3155e-4803-41b7-afd1-e170867a02b6","system_id":"levelo_inurba_marseille","lat":43.313291,"lon":5.396838,"is_reserved":false,"is_disabled":false,"rental_uris":{"android":"levelo://app?vid=53e3155e-4803-41b7-afd1-e170867a02b6","ios":"levelo://app?vid=53e3155e-4803-41b7-afd1-e170867a02b6"},"vehicle_type_id":"4","last_reported":1683054332,"current_range_meters":8000,"station_id":"ce4bgvp2rcd13ifvqcu0","pricing_plan_id":"free"},{"bike_id":"5ccd9c69-20fb-47d2-a341-662a409bd01f","system_id":"levelo_inurba_marseille","lat":43.309038,"lon":5.396546,"is_reserved":false,"is_disabled":false,"rental_uris":{"android":"levelo://app?vid=5ccd9c69-20fb-47d2-a341-662a409bd01f","ios":"levelo://app?vid=5ccd9c69-20fb-47d2-a341-662a409bd01f"},"vehicle_type_id":"4","last_reported":1683054332,"current_range_meters":7600,"station_id":"ce4bh012rcd13ifvqcv0","pricing_plan_id":"free"},{"bike_id":"f08f9845-95cc-4a01-9572-d434660ccb26","system_id":"levelo_inurba_marseille","lat":43.313291,"lon":5.396838,"is_reserved":false,"is_disabled":false,"rental_uris":{"android":"levelo://app?vid=f08f9845-95cc-4a01-9572-d434660ccb26","ios":"levelo://app?vid=f08f9845-95cc-4a01-9572-d434660ccb26"},"vehicle_type_id":"4","last_reported":1683054332,"current_range_meters":6800,"station_id":"ce4bgvp2rcd13ifvqcu0","pricing_plan_id":"free"},{"bike_id":"8e99d959-345b-4eb6-b384-0f1679d3c668","system_id":"levelo_inurba_marseille","lat":43.309038,"lon":5.396546,"is_reserved":false,"is_disabled":false,"rental_uris":{"android":"levelo://app?vid=8e99d959-345b-4eb6-b384-0f1679d3c668","ios":"levelo://app?vid=8e99d959-345b-4eb6-b384-0f1679d3c668"},"vehicle_type_id":"4","last_reported":1683054332,"current_range_meters":24800,"station_id":"ce4bh012rcd13ifvqcv0","pricing_plan_id":"free"},{"bike_id":"3cc11a9c-6da9-41b6-ace9-f386ff576022","system_id":"levelo_inurba_marseille","lat":43.313291,"lon":5.396838,"is_reserved":false,"is_disabled":false,"rental_uris":{"android":"levelo://app?vid=3cc11a9c-6da9-41b6-ace9-f386ff576022","ios":"levelo://app?vid=3cc11a9c-6da9-41b6-ace9-f386ff576022"},"vehicle_type_id":"4","last_reported":1683054332,"current_range_meters":16000,"station_id":"ce4bgvp2rcd13ifvqcu0","pricing_plan_id":"free"},{"bike_id":"4c5bc637-7bd6-49d4-89b1-2c5a430da0e4","system_id":"levelo_inurba_marseille","lat":43.309047,"lon":5.396551,"is_reserved":false,"is_disabled":false,"rental_uris":{"android":"levelo://app?vid=4c5bc637-7bd6-49d4-89b1-2c5a430da0e4","ios":"levelo://app?vid=4c5bc637-7bd6-49d4-89b1-2c5a430da0e4"},"vehicle_type_id":"4","last_reported":1683054332,"current_range_meters":8000,"station_id":"ce4bh012rcd13ifvqcv0","pricing_plan_id":"free"},{"bike_id":"22f39c9f-939e-4b39-a4cb-e9be42b5480a","system_id":"levelo_inurba_marseille","lat":43.313291,"lon":5.396838,"is_reserved":false,"is_disabled":false,"rental_uris":{"android":"levelo://app?vid=22f39c9f-939e-4b39-a4cb-e9be42b5480a","ios":"levelo://app?vid=22f39c9f-939e-4b39-a4cb-e9be42b5480a"},"vehicle_type_id":"4","last_reported":1683054332,"current_range_meters":28400,"station_id":"ce4bgvp2rcd13ifvqcu0","pricing_plan_id":"free"},{"bike_id":"75c2d5a5-9260-45a6-ab12-aad80068a51c","system_id":"levelo_inurba_marseille","lat":43.309038,"lon":5.396546,"is_reserved":false,"is_disabled":false,"rental_uris":{"android":"levelo://app?vid=75c2d5a5-9260-45a6-ab12-aad80068a51c","ios":"levelo://app?vid=75c2d5a5-9260-45a6-ab12-aad80068a51c"},"vehicle_type_id":"4","last_reported":1683054332,"current_range_meters":14000,"station_id":"ce4bh012rcd13ifvqcv0","pricing_plan_id":"free"},{"bike_id":"de68be80-dc37-4580-b79f-fb95ebe132f9","system_id":"levelo_inurba_marseille","lat":43.29529,"lon":5.385581,"is_reserved":false,"is_disabled":false,"rental_uris":{"android":"levelo://app?vid=de68be80-dc37-4580-b79f-fb95ebe132f9","ios":"levelo://app?vid=de68be80-dc37-4580-b79f-fb95ebe132f9"},"vehicle_type_id":"4","last_reported":1683054332,"current_range_meters":21600,"station_id":"ce4bgih2rcd13ifvqba0","pricing_plan_id":"free"},{"bike_id":"cd1dfba9-8bd0-4bbf-ac61-98bd5f6d60ce","system_id":"levelo_inurba_marseille","lat":43.29529,"lon":5.385581,"is_reserved":false,"is_disabled":false,"rental_uris":{"android":"levelo://app?vid=cd1dfba9-8bd0-4bbf-ac61-98bd5f6d60ce","ios":"levelo://app?vid=cd1dfba9-8bd0-4bbf-ac61-98bd5f6d60ce"},"vehicle_type_id":"4","last_reported":1683054332,"current_range_meters":22800,"station_id":"ce4bgih2rcd13ifvqba0","pricing_plan_id":"free"},{"bike_id":"aee7f05f-790c-4bbd-831d-0529878de44a","system_id":"levelo_inurba_marseille","lat":43.29537,"lon":5.38547,"is_reserved":false,"is_disabled":false,"rental_uris":{"android":"levelo://app?vid=aee7f05f-790c-4bbd-831d-0529878de44a","ios":"levelo://app?vid=aee7f05f-790c-4bbd-831d-0529878de44a"},"vehicle_type_id":"4","last_reported":1683054332,"current_range_meters":25600,"station_id":"ce4bgih2rcd13ifvqba0","pricing_plan_id":"free"},{"bike_id":"806012d2-bffb-4327-a1b1-ff6d259617f6","system_id":"levelo_inurba_marseille","lat":43.30248,"lon":5.39518,"is_reserved":false,"is_disabled":false,"rental_uris":{"android":"levelo://app?vid=806012d2-bffb-4327-a1b1-ff6d259617f6","ios":"levelo://app?vid=806012d2-bffb-4327-a1b1-ff6d259617f6"},"vehicle_type_id":"4","last_reported":1683054332,"current_range_meters":14000,"station_id":"","pricing_plan_id":"free"},{"bike_id":"d644ba05-ccc2-4c8f-af03-1eaf056e929b","system_id":"levelo_inurba_marseille","lat":43.29039,"lon":5.35907,"is_reserved":false,"is_disabled":false,"rental_uris":{"android":"levelo://app?vid=d644ba05-ccc2-4c8f-af03-1eaf056e929b","ios":"levelo://app?vid=d644ba05-ccc2-4c8f-af03-1eaf056e929b"},"vehicle_type_id":"4","last_reported":1683054332,"current_range_meters":3200,"station_id":"","pricing_plan_id":"free"},{"bike_id":"7e924fec-0851-4d12-bb33-04a62bba3419","system_id":"levelo_inurba_marseille","lat":43.290327,"lon":5.375711,"is_reserved":false,"is_disabled":false,"rental_uris":{"android":"levelo://app?vid=7e924fec-0851-4d12-bb33-04a62bba3419","ios":"levelo://app?vid=7e924fec-0851-4d12-bb33-04a62bba3419"},"vehicle_type_id":"4","last_reported":1683054332,"current_range_meters":8800,"station_id":"ce4bh692rcd13ifvqe90","pricing_plan_id":"free"},{"bike_id":"8767460d-06d9-44dc-8f22-9bf509051bc1","system_id":"levelo_inurba_marseille","lat":43.294162,"lon":5.386292,"is_reserved":false,"is_disabled":false,"rental_uris":{"android":"levelo://app?vid=8767460d-06d9-44dc-8f22-9bf509051bc1","ios":"levelo://app?vid=8767460d-06d9-44dc-8f22-9bf509051bc1"},"vehicle_type_id":"4","last_reported":1683054332,"current_range_meters":4800,"station_id":"ce4bh2h2rcd13ifvqdh0","pricing_plan_id":"free"},{"bike_id":"408de495-b498-4af7-b360-4b0dd3614165","system_id":"levelo_inurba_marseille","lat":43.290327,"lon":5.375711,"is_reserved":false,"is_disabled":false,"rental_uris":{"android":"levelo://app?vid=408de495-b498-4af7-b360-4b0dd3614165","ios":"levelo://app?vid=408de495-b498-4af7-b360-4b0dd3614165"},"vehicle_type_id":"4","last_reported":1683054332,"current_range_meters":8800,"station_id":"ce4bh692rcd13ifvqe90","pricing_plan_id":"free"},{"bike_id":"379853f3-8ceb-46b3-bfb8-c60a83afdc10","system_id":"levelo_inurba_marseille","lat":43.290327,"lon":5.375711,"is_reserved":false,"is_disabled":false,"rental_uris":{"android":"levelo://app?vid=379853f3-8ceb-46b3-bfb8-c60a83afdc10","ios":"levelo://app?vid=379853f3-8ceb-46b3-bfb8-c60a83afdc10"},"vehicle_type_id":"4","last_reported":1683054332,"current_range_meters":27200,"station_id":"ce4bh692rcd13ifvqe90","pricing_plan_id":"free"},{"bike_id":"13e95dd2-45a7-4f5b-86f2-4c97dbe6aa71","system_id":"levelo_inurba_marseille","lat":43.290319,"lon":5.375732,"is_reserved":false,"is_disabled":false,"rental_uris":{"android":"levelo://app?vid=13e95dd2-45a7-4f5b-86f2-4c97dbe6aa71","ios":"levelo://app?vid=13e95dd2-45a7-4f5b-86f2-4c97dbe6aa71"},"vehicle_type_id":"4","last_reported":1683054332,"current_range_meters":29200,"station_id":"ce4bh692rcd13ifvqe90","pricing_plan_id":"free"},{"bike_id":"afe122cd-862a-40d0-8731-1990e7ff1d95","system_id":"levelo_inurba_marseille","lat":43.294153,"lon":5.386305,"is_reserved":false,"is_disabled":false,"rental_uris":{"android":"levelo://app?vid=afe122cd-862a-40d0-8731-1990e7ff1d95","ios":"levelo://app?vid=afe122cd-862a-40d0-8731-1990e7ff1d95"},"vehicle_type_id":"4","last_reported":1683054332,"current_range_meters":0,"station_id":"ce4bh2h2rcd13ifvqdh0","pricing_plan_id":"free"},{"bike_id":"98645ddd-881c-4094-88ef-deb53b0cb851","system_id":"levelo_inurba_marseille","lat":43.294153,"lon":5.386305,"is_reserved":false,"is_disabled":false,"rental_uris":{"android":"levelo://app?vid=98645ddd-881c-4094-88ef-deb53b0cb851","ios":"levelo://app?vid=98645ddd-881c-4094-88ef-deb53b0cb851"},"vehicle_type_id":"4","last_reported":1683054332,"current_range_meters":27600,"station_id":"ce4bh2h2rcd13ifvqdh0","pricing_plan_id":"free"},{"bike_id":"b790e304-c119-49d6-a5bb-8adab12fa4ca","system_id":"levelo_inurba_marseille","lat":43.290327,"lon":5.375711,"is_reserved":false,"is_disabled":false,"rental_uris":{"android":"levelo://app?vid=b790e304-c119-49d6-a5bb-8adab12fa4ca","ios":"levelo://app?vid=b790e304-c119-49d6-a5bb-8adab12fa4ca"},"vehicle_type_id":"4","last_reported":1683054332,"current_range_meters":26400,"station_id":"ce4bh692rcd13ifvqe90","pricing_plan_id":"free"},{"bike_id":"3d9b13d0-60ef-4957-a380-783d42f8a7bd","system_id":"levelo_inurba_marseille","lat":43.294162,"lon":5.386292,"is_reserved":false,"is_disabled":false,"rental_uris":{"android":"levelo://app?vid=3d9b13d0-60ef-4957-a380-783d42f8a7bd","ios":"levelo://app?vid=3d9b13d0-60ef-4957-a380-783d42f8a7bd"},"vehicle_type_id":"4","last_reported":1683054332,"current_range_meters":22800,"station_id":"ce4bh2h2rcd13ifvqdh0","pricing_plan_id":"free"},{"bike_id":"23171136-a942-4966-98d2-032becba0422","system_id":"levelo_inurba_marseille","lat":43.294153,"lon":5.386305,"is_reserved":false,"is_disabled":false,"rental_uris":{"android":"levelo://app?vid=23171136-a942-4966-98d2-032becba0422","ios":"levelo://app?vid=23171136-a942-4966-98d2-032becba0422"},"vehicle_type_id":"4","last_reported":1683054332,"current_range_meters":10400,"station_id":"ce4bh2h2rcd13ifvqdh0","pricing_plan_id":"free"},{"bike_id":"7d45cf96-2864-4bc7-9111-e17e7210f42c","system_id":"levelo_inurba_marseille","lat":43.294153,"lon":5.386305,"is_reserved":false,"is_disabled":false,"rental_uris":{"android":"levelo://app?vid=7d45cf96-2864-4bc7-9111-e17e7210f42c","ios":"levelo://app?vid=7d45cf96-2864-4bc7-9111-e17e7210f42c"},"vehicle_type_id":"4","last_reported":1683054332,"current_range_meters":0,"station_id":"ce4bh2h2rcd13ifvqdh0","pricing_plan_id":"free"},{"bike_id":"8b490fe4-805d-4a21-ab10-572adb40ad7c","system_id":"levelo_inurba_marseille","lat":43.294162,"lon":5.386292,"is_reserved":false,"is_disabled":false,"rental_uris":{"android":"levelo://app?vid=8b490fe4-805d-4a21-ab10-572adb40ad7c","ios":"levelo://app?vid=8b490fe4-805d-4a21-ab10-572adb40ad7c"},"vehicle_type_id":"4","last_reported":1683054332,"current_range_meters":15600,"station_id":"ce4bh2h2rcd13ifvqdh0","pricing_plan_id":"free"},{"bike_id":"f8def9c3-f131-4a1e-b84d-8a7bf7dbb3a9","system_id":"levelo_inurba_marseille","lat":43.294162,"lon":5.386292,"is_reserved":false,"is_disabled":false,"rental_uris":{"android":"levelo://app?vid=f8def9c3-f131-4a1e-b84d-8a7bf7dbb3a9","ios":"levelo://app?vid=f8def9c3-f131-4a1e-b84d-8a7bf7dbb3a9"},"vehicle_type_id":"4","last_reported":1683054332,"current_range_meters":24400,"station_id":"ce4bh2h2rcd13ifvqdh0","pricing_plan_id":"free"},{"bike_id":"a1c0df1f-c0c3-443a-ba74-c3f750ea6a8c","system_id":"levelo_inurba_marseille","lat":43.289184,"lon":5.366408,"is_reserved":false,"is_disabled":false,"rental_uris":{"android":"levelo://app?vid=a1c0df1f-c0c3-443a-ba74-c3f750ea6a8c","ios":"levelo://app?vid=a1c0df1f-c0c3-443a-ba74-c3f750ea6a8c"},"vehicle_type_id":"4","last_reported":1683054332,"current_range_meters":25600,"station_id":"ce4bhap2rcd13ifvqek0","pricing_plan_id":"free"},{"bike_id":"0e16e298-36c5-4bce-90a7-a5e31fb3f332","system_id":"levelo_inurba_marseille","lat":43.294162,"lon":5.386292,"is_reserved":false,"is_disabled":false,"rental_uris":{"android":"levelo://app?vid=0e16e298-36c5-4bce-90a7-a5e31fb3f332","ios":"levelo://app?vid=0e16e298-36c5-4bce-90a7-a5e31fb3f332"},"vehicle_type_id":"4","last_reported":1683054332,"current_range_meters":4400,"station_id":"ce4bh2h2rcd13ifvqdh0","pricing_plan_id":"free"},{"bike_id":"38e5c178-4233-437a-88b2-eb0eb5171b7c","system_id":"levelo_inurba_marseille","lat":43.28951,"lon":5.364,"is_reserved":false,"is_disabled":false,"rental_uris":{"android":"levelo://app?vid=38e5c178-4233-437a-88b2-eb0eb5171b7c","ios":"levelo://app?vid=38e5c178-4233-437a-88b2-eb0eb5171b7c"},"vehicle_type_id":"4","last_reported":1683054332,"current_range_meters":5600,"station_id":"ce4bhc92rcd13ifvqetg","pricing_plan_id":"free"},{"bike_id":"89c103f2-cdec-4dab-ad8c-24fe1b8c06eb","system_id":"levelo_inurba_marseille","lat":43.289468,"lon":5.363719,"is_reserved":false,"is_disabled":false,"rental_uris":{"android":"levelo://app?vid=89c103f2-cdec-4dab-ad8c-24fe1b8c06eb","ios":"levelo://app?vid=89c103f2-cdec-4dab-ad8c-24fe1b8c06eb"},"vehicle_type_id":"4","last_reported":1683054332,"current_range_meters":29600,"station_id":"ce4bhc92rcd13ifvqetg","pricing_plan_id":"free"},{"bike_id":"b0c7a298-7fb0-4a16-b2d0-fff2d20f7644","system_id":"levelo_inurba_marseille","lat":43.28945,"lon":5.36406,"is_reserved":false,"is_disabled":false,"rental_uris":{"android":"levelo://app?vid=b0c7a298-7fb0-4a16-b2d0-fff2d20f7644","ios":"levelo://app?vid=b0c7a298-7fb0-4a16-b2d0-fff2d20f7644"},"vehicle_type_id":"4","last_reported":1683054332,"current_range_meters":17600,"station_id":"","pricing_plan_id":"free"},{"bike_id":"a0a36b4e-cd0e-42eb-b22b-a5a8d93b094a","system_id":"levelo_inurba_marseille","lat":43.28941,"lon":5.36406,"is_reserved":false,"is_disabled":false,"rental_uris":{"android":"levelo://app?vid=a0a36b4e-cd0e-42eb-b22b-a5a8d93b094a","ios":"levelo://app?vid=a0a36b4e-cd0e-42eb-b22b-a5a8d93b094a"},"vehicle_type_id":"4","last_reported":1683054332,"current_range_meters":0,"station_id":"","pricing_plan_id":"free"},{"bike_id":"56a2b855-8c14-49e8-8baf-956293744f80","system_id":"levelo_inurba_marseille","lat":43.289184,"lon":5.366408,"is_reserved":false,"is_disabled":false,"rental_uris":{"android":"levelo://app?vid=56a2b855-8c14-49e8-8baf-956293744f80","ios":"levelo://app?vid=56a2b855-8c14-49e8-8baf-956293744f80"},"vehicle_type_id":"4","last_reported":1683054332,"current_range_meters":31600,"station_id":"ce4bhap2rcd13ifvqek0","pricing_plan_id":"free"},{"bike_id":"d38d818b-d364-43e1-b77b-edc11aa6f8b3","system_id":"levelo_inurba_marseille","lat":43.28942,"lon":5.36385,"is_reserved":false,"is_disabled":false,"rental_uris":{"android":"levelo://app?vid=d38d818b-d364-43e1-b77b-edc11aa6f8b3","ios":"levelo://app?vid=d38d818b-d364-43e1-b77b-edc11aa6f8b3"},"vehicle_type_id":"4","last_reported":1683054332,"current_range_meters":12800,"station_id":"ce4bhc92rcd13ifvqetg","pricing_plan_id":"free"},{"bike_id":"da6f9a6f-4537-448e-b6a9-89cfb043abdb","system_id":"levelo_inurba_marseille","lat":43.28941,"lon":5.36397,"is_reserved":false,"is_disabled":false,"rental_uris":{"android":"levelo://app?vid=da6f9a6f-4537-448e-b6a9-89cfb043abdb","ios":"levelo://app?vid=da6f9a6f-4537-448e-b6a9-89cfb043abdb"},"vehicle_type_id":"4","last_reported":1683054332,"current_range_meters":25600,"station_id":"ce4bhc92rcd13ifvqetg","pricing_plan_id":"free"},{"bike_id":"9e71b7b3-f738-438a-949f-d298f62c2b64","system_id":"levelo_inurba_marseille","lat":43.289184,"lon":5.366408,"is_reserved":false,"is_disabled":false,"rental_uris":{"android":"levelo://app?vid=9e71b7b3-f738-438a-949f-d298f62c2b64","ios":"levelo://app?vid=9e71b7b3-f738-438a-949f-d298f62c2b64"},"vehicle_type_id":"4","last_reported":1683054332,"current_range_meters":7200,"station_id":"ce4bhap2rcd13ifvqek0","pricing_plan_id":"free"},{"bike_id":"f00c707f-8bb7-4237-920e-61b12ed0b7fc","system_id":"levelo_inurba_marseille","lat":43.28931,"lon":5.36633,"is_reserved":false,"is_disabled":false,"rental_uris":{"android":"levelo://app?vid=f00c707f-8bb7-4237-920e-61b12ed0b7fc","ios":"levelo://app?vid=f00c707f-8bb7-4237-920e-61b12ed0b7fc"},"vehicle_type_id":"4","last_reported":1683054332,"current_range_meters":11600,"station_id":"ce4bhap2rcd13ifvqek0","pricing_plan_id":"free"},{"bike_id":"e62578be-512a-4fa7-9b53-2f892fa75f4e","system_id":"levelo_inurba_marseille","lat":43.28935,"lon":5.36389,"is_reserved":false,"is_disabled":false,"rental_uris":{"android":"levelo://app?vid=e62578be-512a-4fa7-9b53-2f892fa75f4e","ios":"levelo://app?vid=e62578be-512a-4fa7-9b53-2f892fa75f4e"},"vehicle_type_id":"4","last_reported":1683054332,"current_range_meters":18000,"station_id":"ce4bhc92rcd13ifvqetg","pricing_plan_id":"free"},{"bike_id":"8cae23cd-354c-44b7-a88b-6e7f2570ebb9","system_id":"levelo_inurba_marseille","lat":43.28934,"lon":5.36382,"is_reserved":false,"is_disabled":false,"rental_uris":{"android":"levelo://app?vid=8cae23cd-354c-44b7-a88b-6e7f2570ebb9","ios":"levelo://app?vid=8cae23cd-354c-44b7-a88b-6e7f2570ebb9"},"vehicle_type_id":"4","last_reported":1683054332,"current_range_meters":12400,"station_id":"ce4bhc92rcd13ifvqetg","pricing_plan_id":"free"},{"bike_id":"e1be10e7-db60-4a3b-b86b-74eaa70071d9","system_id":"levelo_inurba_marseille","lat":43.28933,"lon":5.3638,"is_reserved":false,"is_disabled":false,"rental_uris":{"android":"levelo://app?vid=e1be10e7-db60-4a3b-b86b-74eaa70071d9","ios":"levelo://app?vid=e1be10e7-db60-4a3b-b86b-74eaa70071d9"},"vehicle_type_id":"4","last_reported":1683054332,"current_range_meters":24400,"station_id":"ce4bhc92rcd13ifvqetg","pricing_plan_id":"free"},{"bike_id":"914cd928-65c6-4acf-8ed8-6727f2450cf4","system_id":"levelo_inurba_marseille","lat":43.32716,"lon":5.39258,"is_reserved":false,"is_disabled":false,"rental_uris":{"android":"levelo://app?vid=914cd928-65c6-4acf-8ed8-6727f2450cf4","ios":"levelo://app?vid=914cd928-65c6-4acf-8ed8-6727f2450cf4"},"vehicle_type_id":"4","last_reported":1683054332,"current_range_meters":4800,"station_id":"","pricing_plan_id":"free"},{"bike_id":"4c79c145-56d5-4312-82d4-1b8d67365690","system_id":"levelo_inurba_marseille","lat":43.29281,"lon":5.38454,"is_reserved":false,"is_disabled":false,"rental_uris":{"android":"levelo://app?vid=4c79c145-56d5-4312-82d4-1b8d67365690","ios":"levelo://app?vid=4c79c145-56d5-4312-82d4-1b8d67365690"},"vehicle_type_id":"4","last_reported":1683054332,"current_range_meters":14800,"station_id":"","pricing_plan_id":"free"},{"bike_id":"56df6da7-46b0-487a-a0e1-e8ba32097d21","system_id":"levelo_inurba_marseille","lat":43.292642,"lon":5.384254,"is_reserved":false,"is_disabled":false,"rental_uris":{"android":"levelo://app?vid=56df6da7-46b0-487a-a0e1-e8ba32097d21","ios":"levelo://app?vid=56df6da7-46b0-487a-a0e1-e8ba32097d21"},"vehicle_type_id":"4","last_reported":1683054332,"current_range_meters":24800,"station_id":"ce4bh692rcd13ifvqea0","pricing_plan_id":"free"},{"bike_id":"a4d00dc0-8b63-44d6-b5d3-01fd9fe17322","system_id":"levelo_inurba_marseille","lat":43.292642,"lon":5.384254,"is_reserved":false,"is_disabled":false,"rental_uris":{"android":"levelo://app?vid=a4d00dc0-8b63-44d6-b5d3-01fd9fe17322","ios":"levelo://app?vid=a4d00dc0-8b63-44d6-b5d3-01fd9fe17322"},"vehicle_type_id":"4","last_reported":1683054332,"current_range_meters":20800,"station_id":"ce4bh692rcd13ifvqea0","pricing_plan_id":"free"},{"bike_id":"2dbc9eb6-743e-4470-82c7-a17fd912373d","system_id":"levelo_inurba_marseille","lat":43.292642,"lon":5.384254,"is_reserved":false,"is_disabled":false,"rental_uris":{"android":"levelo://app?vid=2dbc9eb6-743e-4470-82c7-a17fd912373d","ios":"levelo://app?vid=2dbc9eb6-743e-4470-82c7-a17fd912373d"},"vehicle_type_id":"4","last_reported":1683054332,"current_range_meters":16000,"station_id":"ce4bh692rcd13ifvqea0","pricing_plan_id":"free"},{"bike_id":"5e9318ba-91c5-4055-8b4c-902eafa6ae19","system_id":"levelo_inurba_marseille","lat":43.292644,"lon":5.384257,"is_reserved":false,"is_disabled":false,"rental_uris":{"android":"levelo://app?vid=5e9318ba-91c5-4055-8b4c-902eafa6ae19","ios":"levelo://app?vid=5e9318ba-91c5-4055-8b4c-902eafa6ae19"},"vehicle_type_id":"4","last_reported":1683054332,"current_range_meters":11200,"station_id":"ce4bh692rcd13ifvqea0","pricing_plan_id":"free"},{"bike_id":"a75075ed-0a5f-4b65-8c56-0fac77094a36","system_id":"levelo_inurba_marseille","lat":43.292642,"lon":5.384254,"is_reserved":false,"is_disabled":false,"rental_uris":{"android":"levelo://app?vid=a75075ed-0a5f-4b65-8c56-0fac77094a36","ios":"levelo://app?vid=a75075ed-0a5f-4b65-8c56-0fac77094a36"},"vehicle_type_id":"4","last_reported":1683054332,"current_range_meters":2400,"station_id":"ce4bh692rcd13ifvqea0","pricing_plan_id":"free"},{"bike_id":"887ccb94-5911-4409-ace8-3dc78dce888b","system_id":"levelo_inurba_marseille","lat":43.292644,"lon":5.384257,"is_reserved":false,"is_disabled":false,"rental_uris":{"android":"levelo://app?vid=887ccb94-5911-4409-ace8-3dc78dce888b","ios":"levelo://app?vid=887ccb94-5911-4409-ace8-3dc78dce888b"},"vehicle_type_id":"4","last_reported":1683054332,"current_range_meters":1600,"station_id":"ce4bh692rcd13ifvqea0","pricing_plan_id":"free"},{"bike_id":"d82a8bb5-ae4c-4524-b11b-d09de3d22bd1","system_id":"levelo_inurba_marseille","lat":43.292644,"lon":5.384257,"is_reserved":false,"is_disabled":false,"rental_uris":{"android":"levelo://app?vid=d82a8bb5-ae4c-4524-b11b-d09de3d22bd1","ios":"levelo://app?vid=d82a8bb5-ae4c-4524-b11b-d09de3d22bd1"},"vehicle_type_id":"4","last_reported":1683054332,"current_range_meters":20400,"station_id":"ce4bh692rcd13ifvqea0","pricing_plan_id":"free"},{"bike_id":"08204404-c24b-4431-8c9e-0c3d7bfbc217","system_id":"levelo_inurba_marseille","lat":43.292644,"lon":5.384257,"is_reserved":false,"is_disabled":false,"rental_uris":{"android":"levelo://app?vid=08204404-c24b-4431-8c9e-0c3d7bfbc217","ios":"levelo://app?vid=08204404-c24b-4431-8c9e-0c3d7bfbc217"},"vehicle_type_id":"4","last_reported":1683054332,"current_range_meters":29600,"station_id":"ce4bh692rcd13ifvqea0","pricing_plan_id":"free"},{"bike_id":"de6c1b27-add8-480e-8f60-7a8c0d1a488a","system_id":"levelo_inurba_marseille","lat":43.292642,"lon":5.384254,"is_reserved":false,"is_disabled":false,"rental_uris":{"android":"levelo://app?vid=de6c1b27-add8-480e-8f60-7a8c0d1a488a","ios":"levelo://app?vid=de6c1b27-add8-480e-8f60-7a8c0d1a488a"},"vehicle_type_id":"4","last_reported":1683054332,"current_range_meters":21200,"station_id":"ce4bh692rcd13ifvqea0","pricing_plan_id":"free"},{"bike_id":"036881e6-77e6-40f3-aa29-48bf88309865","system_id":"levelo_inurba_marseille","lat":43.292642,"lon":5.384254,"is_reserved":false,"is_disabled":false,"rental_uris":{"android":"levelo://app?vid=036881e6-77e6-40f3-aa29-48bf88309865","ios":"levelo://app?vid=036881e6-77e6-40f3-aa29-48bf88309865"},"vehicle_type_id":"4","last_reported":1683054332,"current_range_meters":21600,"station_id":"ce4bh692rcd13ifvqea0","pricing_plan_id":"free"},{"bike_id":"8c393974-757c-44e4-8f27-d1f627e548a5","system_id":"levelo_inurba_marseille","lat":43.292644,"lon":5.384257,"is_reserved":false,"is_disabled":false,"rental_uris":{"android":"levelo://app?vid=8c393974-757c-44e4-8f27-d1f627e548a5","ios":"levelo://app?vid=8c393974-757c-44e4-8f27-d1f627e548a5"},"vehicle_type_id":"4","last_reported":1683054332,"current_range_meters":24800,"station_id":"ce4bh692rcd13ifvqea0","pricing_plan_id":"free"},{"bike_id":"022f947d-300a-466a-a12c-a42f252ae6a7","system_id":"levelo_inurba_marseille","lat":43.292644,"lon":5.384257,"is_reserved":false,"is_disabled":false,"rental_uris":{"android":"levelo://app?vid=022f947d-300a-466a-a12c-a42f252ae6a7","ios":"levelo://app?vid=022f947d-300a-466a-a12c-a42f252ae6a7"},"vehicle_type_id":"4","last_reported":1683054332,"current_range_meters":23200,"station_id":"ce4bh692rcd13ifvqea0","pricing_plan_id":"free"},{"bike_id":"2635e28f-2d8b-479f-83a6-b4ceda07a74d","system_id":"levelo_inurba_marseille","lat":43.292642,"lon":5.384254,"is_reserved":false,"is_disabled":false,"rental_uris":{"android":"levelo://app?vid=2635e28f-2d8b-479f-83a6-b4ceda07a74d","ios":"levelo://app?vid=2635e28f-2d8b-479f-83a6-b4ceda07a74d"},"vehicle_type_id":"4","last_reported":1683054332,"current_range_meters":12000,"station_id":"ce4bh692rcd13ifvqea0","pricing_plan_id":"free"},{"bike_id":"3d9e0942-732a-4d73-be32-b0a1a261614d","system_id":"levelo_inurba_marseille","lat":43.292644,"lon":5.384257,"is_reserved":false,"is_disabled":false,"rental_uris":{"android":"levelo://app?vid=3d9e0942-732a-4d73-be32-b0a1a261614d","ios":"levelo://app?vid=3d9e0942-732a-4d73-be32-b0a1a261614d"},"vehicle_type_id":"4","last_reported":1683054332,"current_range_meters":0,"station_id":"ce4bh692rcd13ifvqea0","pricing_plan_id":"free"},{"bike_id":"cae31773-6b6e-4107-9087-7e013416c333","system_id":"levelo_inurba_marseille","lat":43.292644,"lon":5.384257,"is_reserved":false,"is_disabled":false,"rental_uris":{"android":"levelo://app?vid=cae31773-6b6e-4107-9087-7e013416c333","ios":"levelo://app?vid=cae31773-6b6e-4107-9087-7e013416c333"},"vehicle_type_id":"4","last_reported":1683054332,"current_range_meters":8800,"station_id":"ce4bh692rcd13ifvqea0","pricing_plan_id":"free"},{"bike_id":"a455a2e7-d31e-4716-9bbc-0e2e1003ade4","system_id":"levelo_inurba_marseille","lat":43.292644,"lon":5.384257,"is_reserved":false,"is_disabled":false,"rental_uris":{"android":"levelo://app?vid=a455a2e7-d31e-4716-9bbc-0e2e1003ade4","ios":"levelo://app?vid=a455a2e7-d31e-4716-9bbc-0e2e1003ade4"},"vehicle_type_id":"4","last_reported":1683054332,"current_range_meters":14400,"station_id":"ce4bh692rcd13ifvqea0","pricing_plan_id":"free"},{"bike_id":"3ae7d41b-70f6-495f-86dc-0b7400632a50","system_id":"levelo_inurba_marseille","lat":43.33045,"lon":5.38915,"is_reserved":false,"is_disabled":false,"rental_uris":{"android":"levelo://app?vid=3ae7d41b-70f6-495f-86dc-0b7400632a50","ios":"levelo://app?vid=3ae7d41b-70f6-495f-86dc-0b7400632a50"},"vehicle_type_id":"4","last_reported":1683054332,"current_range_meters":20000,"station_id":"ce4bhr92rcd13ifvqhrg","pricing_plan_id":"free"},{"bike_id":"749f6c86-dbf7-4da5-a223-ca9c17e86c0b","system_id":"levelo_inurba_marseille","lat":43.33046,"lon":5.38916,"is_reserved":false,"is_disabled":false,"rental_uris":{"android":"levelo://app?vid=749f6c86-dbf7-4da5-a223-ca9c17e86c0b","ios":"levelo://app?vid=749f6c86-dbf7-4da5-a223-ca9c17e86c0b"},"vehicle_type_id":"4","last_reported":1683054332,"current_range_meters":9200,"station_id":"ce4bhr92rcd13ifvqhrg","pricing_plan_id":"free"},{"bike_id":"1b6fa1f5-2514-4810-a6aa-ab5a2504d38e","system_id":"levelo_inurba_marseille","lat":43.330433,"lon":5.389211,"is_reserved":false,"is_disabled":false,"rental_uris":{"android":"levelo://app?vid=1b6fa1f5-2514-4810-a6aa-ab5a2504d38e","ios":"levelo://app?vid=1b6fa1f5-2514-4810-a6aa-ab5a2504d38e"},"vehicle_type_id":"4","last_reported":1683054332,"current_range_meters":25200,"station_id":"ce4bhr92rcd13ifvqhrg","pricing_plan_id":"free"},{"bike_id":"696bbb51-481a-49b9-913a-060384f03a55","system_id":"levelo_inurba_marseille","lat":43.33045,"lon":5.38921,"is_reserved":false,"is_disabled":false,"rental_uris":{"android":"levelo://app?vid=696bbb51-481a-49b9-913a-060384f03a55","ios":"levelo://app?vid=696bbb51-481a-49b9-913a-060384f03a55"},"vehicle_type_id":"4","last_reported":1683054332,"current_range_meters":18400,"station_id":"ce4bhr92rcd13ifvqhrg","pricing_plan_id":"free"},{"bike_id":"4de1e501-c74e-4c9d-bd5e-73ac50d436e2","system_id":"levelo_inurba_marseille","lat":43.290995,"lon":5.381361,"is_reserved":false,"is_disabled":false,"rental_uris":{"android":"levelo://app?vid=4de1e501-c74e-4c9d-bd5e-73ac50d436e2","ios":"levelo://app?vid=4de1e501-c74e-4c9d-bd5e-73ac50d436e2"},"vehicle_type_id":"4","last_reported":1683054332,"current_range_meters":6000,"station_id":"ce4bh512rcd13ifvqe2g","pricing_plan_id":"free"},{"bike_id":"202a95e2-ffe9-496a-ae38-4c157c013744","system_id":"levelo_inurba_marseille","lat":43.290995,"lon":5.381361,"is_reserved":false,"is_disabled":false,"rental_uris":{"android":"levelo://app?vid=202a95e2-ffe9-496a-ae38-4c157c013744","ios":"levelo://app?vid=202a95e2-ffe9-496a-ae38-4c157c013744"},"vehicle_type_id":"4","last_reported":1683054332,"current_range_meters":29200,"station_id":"ce4bh512rcd13ifvqe2g","pricing_plan_id":"free"},{"bike_id":"42521f28-ce6d-4e53-8c7c-01bed4ea9355","system_id":"levelo_inurba_marseille","lat":43.290995,"lon":5.381361,"is_reserved":false,"is_disabled":false,"rental_uris":{"android":"levelo://app?vid=42521f28-ce6d-4e53-8c7c-01bed4ea9355","ios":"levelo://app?vid=42521f28-ce6d-4e53-8c7c-01bed4ea9355"},"vehicle_type_id":"4","last_reported":1683054332,"current_range_meters":10800,"station_id":"ce4bh512rcd13ifvqe2g","pricing_plan_id":"free"},{"bike_id":"1c332587-4077-4c7f-8286-4f31c2cff567","system_id":"levelo_inurba_marseille","lat":43.292571,"lon":5.409107,"is_reserved":false,"is_disabled":false,"rental_uris":{"android":"levelo://app?vid=1c332587-4077-4c7f-8286-4f31c2cff567","ios":"levelo://app?vid=1c332587-4077-4c7f-8286-4f31c2cff567"},"vehicle_type_id":"4","last_reported":1683054332,"current_range_meters":17600,"station_id":"ce4bh192rcd13ifvqdc0","pricing_plan_id":"free"},{"bike_id":"265ee99f-3569-478c-bc62-5ef39ddce705","system_id":"levelo_inurba_marseille","lat":43.295169,"lon":5.390426,"is_reserved":false,"is_disabled":false,"rental_uris":{"android":"levelo://app?vid=265ee99f-3569-478c-bc62-5ef39ddce705","ios":"levelo://app?vid=265ee99f-3569-478c-bc62-5ef39ddce705"},"vehicle_type_id":"4","last_reported":1683054332,"current_range_meters":9600,"station_id":"ce4bh3p2rcd13ifvqdp0","pricing_plan_id":"free"},{"bike_id":"0ea789fc-0185-4eb6-badb-493aaa2cc732","system_id":"levelo_inurba_marseille","lat":43.289741,"lon":5.378306,"is_reserved":false,"is_disabled":false,"rental_uris":{"android":"levelo://app?vid=0ea789fc-0185-4eb6-badb-493aaa2cc732","ios":"levelo://app?vid=0ea789fc-0185-4eb6-badb-493aaa2cc732"},"vehicle_type_id":"4","last_reported":1683054332,"current_range_meters":16800,"station_id":"ce4bh9p2rcd13ifvqed0","pricing_plan_id":"free"},{"bike_id":"f0aed251-9d42-42a3-b258-ba22e42e2571","system_id":"levelo_inurba_marseille","lat":43.295169,"lon":5.390426,"is_reserved":false,"is_disabled":false,"rental_uris":{"android":"levelo://app?vid=f0aed251-9d42-42a3-b258-ba22e42e2571","ios":"levelo://app?vid=f0aed251-9d42-42a3-b258-ba22e42e2571"},"vehicle_type_id":"4","last_reported":1683054332,"current_range_meters":16400,"station_id":"ce4bh3p2rcd13ifvqdp0","pricing_plan_id":"free"},{"bike_id":"7afeca71-25a2-4e8e-a0af-91894f058cf5","system_id":"levelo_inurba_marseille","lat":43.295169,"lon":5.390426,"is_reserved":false,"is_disabled":false,"rental_uris":{"android":"levelo://app?vid=7afeca71-25a2-4e8e-a0af-91894f058cf5","ios":"levelo://app?vid=7afeca71-25a2-4e8e-a0af-91894f058cf5"},"vehicle_type_id":"4","last_reported":1683054332,"current_range_meters":0,"station_id":"ce4bh3p2rcd13ifvqdp0","pricing_plan_id":"free"},{"bike_id":"e4dba95d-38b3-4ddd-84ec-0eb37ebcf3b4","system_id":"levelo_inurba_marseille","lat":43.295169,"lon":5.390426,"is_reserved":false,"is_disabled":false,"rental_uris":{"android":"levelo://app?vid=e4dba95d-38b3-4ddd-84ec-0eb37ebcf3b4","ios":"levelo://app?vid=e4dba95d-38b3-4ddd-84ec-0eb37ebcf3b4"},"vehicle_type_id":"4","last_reported":1683054332,"current_range_meters":23200,"station_id":"ce4bh3p2rcd13ifvqdp0","pricing_plan_id":"free"},{"bike_id":"a2fa33cb-5fff-4853-9f5c-72af5f498a7d","system_id":"levelo_inurba_marseille","lat":43.28856,"lon":5.358371,"is_reserved":false,"is_disabled":false,"rental_uris":{"android":"levelo://app?vid=a2fa33cb-5fff-4853-9f5c-72af5f498a7d","ios":"levelo://app?vid=a2fa33cb-5fff-4853-9f5c-72af5f498a7d"},"vehicle_type_id":"4","last_reported":1683054332,"current_range_meters":31600,"station_id":"ce4bhb12rcd13ifvqem0","pricing_plan_id":"free"},{"bike_id":"f98e9523-529b-44c5-a020-3a9a785f3426","system_id":"levelo_inurba_marseille","lat":43.28856,"lon":5.35856,"is_reserved":false,"is_disabled":false,"rental_uris":{"android":"levelo://app?vid=f98e9523-529b-44c5-a020-3a9a785f3426","ios":"levelo://app?vid=f98e9523-529b-44c5-a020-3a9a785f3426"},"vehicle_type_id":"4","last_reported":1683054332,"current_range_meters":0,"station_id":"ce4bhb12rcd13ifvqem0","pricing_plan_id":"free"},{"bike_id":"529312c9-6539-42db-807d-b48e68c19e75","system_id":"levelo_inurba_marseille","lat":43.28856,"lon":5.358371,"is_reserved":false,"is_disabled":false,"rental_uris":{"android":"levelo://app?vid=529312c9-6539-42db-807d-b48e68c19e75","ios":"levelo://app?vid=529312c9-6539-42db-807d-b48e68c19e75"},"vehicle_type_id":"4","last_reported":1683054332,"current_range_meters":31600,"station_id":"ce4bhb12rcd13ifvqem0","pricing_plan_id":"free"},{"bike_id":"67cd2257-539e-4fda-bc08-1528ac9f6db4","system_id":"levelo_inurba_marseille","lat":43.28854,"lon":5.35852,"is_reserved":false,"is_disabled":false,"rental_uris":{"android":"levelo://app?vid=67cd2257-539e-4fda-bc08-1528ac9f6db4","ios":"levelo://app?vid=67cd2257-539e-4fda-bc08-1528ac9f6db4"},"vehicle_type_id":"4","last_reported":1683054332,"current_range_meters":15600,"station_id":"ce4bhb12rcd13ifvqem0","pricing_plan_id":"free"},{"bike_id":"2a7b6c2e-cf24-4d0c-a075-72f9daa0aae2","system_id":"levelo_inurba_marseille","lat":43.28854,"lon":5.35836,"is_reserved":false,"is_disabled":false,"rental_uris":{"android":"levelo://app?vid=2a7b6c2e-cf24-4d0c-a075-72f9daa0aae2","ios":"levelo://app?vid=2a7b6c2e-cf24-4d0c-a075-72f9daa0aae2"},"vehicle_type_id":"4","last_reported":1683054332,"current_range_meters":17600,"station_id":"ce4bhb12rcd13ifvqem0","pricing_plan_id":"free"},{"bike_id":"c4512a74-7a79-4ddf-b377-264debb21770","system_id":"levelo_inurba_marseille","lat":43.28856,"lon":5.358371,"is_reserved":false,"is_disabled":false,"rental_uris":{"android":"levelo://app?vid=c4512a74-7a79-4ddf-b377-264debb21770","ios":"levelo://app?vid=c4512a74-7a79-4ddf-b377-264debb21770"},"vehicle_type_id":"4","last_reported":1683054332,"current_range_meters":12400,"station_id":"ce4bhb12rcd13ifvqem0","pricing_plan_id":"free"},{"bike_id":"9ecfb182-f50b-4e40-800a-ec2b5d840e57","system_id":"levelo_inurba_marseille","lat":43.28849,"lon":5.35848,"is_reserved":false,"is_disabled":false,"rental_uris":{"android":"levelo://app?vid=9ecfb182-f50b-4e40-800a-ec2b5d840e57","ios":"levelo://app?vid=9ecfb182-f50b-4e40-800a-ec2b5d840e57"},"vehicle_type_id":"4","last_reported":1683054332,"current_range_meters":20400,"station_id":"ce4bhb12rcd13ifvqem0","pricing_plan_id":"free"},{"bike_id":"a47ea25e-a0ed-41d5-a13a-3ac6305033d8","system_id":"levelo_inurba_marseille","lat":43.28846,"lon":5.35859,"is_reserved":false,"is_disabled":false,"rental_uris":{"android":"levelo://app?vid=a47ea25e-a0ed-41d5-a13a-3ac6305033d8","ios":"levelo://app?vid=a47ea25e-a0ed-41d5-a13a-3ac6305033d8"},"vehicle_type_id":"4","last_reported":1683054332,"current_range_meters":19600,"station_id":"ce4bhb12rcd13ifvqem0","pricing_plan_id":"free"},{"bike_id":"0322ba79-6bf8-4868-b419-4a3b43ea7d55","system_id":"levelo_inurba_marseille","lat":43.28856,"lon":5.358371,"is_reserved":false,"is_disabled":false,"rental_uris":{"android":"levelo://app?vid=0322ba79-6bf8-4868-b419-4a3b43ea7d55","ios":"levelo://app?vid=0322ba79-6bf8-4868-b419-4a3b43ea7d55"},"vehicle_type_id":"4","last_reported":1683054332,"current_range_meters":20000,"station_id":"ce4bhb12rcd13ifvqem0","pricing_plan_id":"free"},{"bike_id":"9d370c20-60c3-4eb8-a38a-2f1846dfc219","system_id":"levelo_inurba_marseille","lat":43.28856,"lon":5.358371,"is_reserved":false,"is_disabled":false,"rental_uris":{"android":"levelo://app?vid=9d370c20-60c3-4eb8-a38a-2f1846dfc219","ios":"levelo://app?vid=9d370c20-60c3-4eb8-a38a-2f1846dfc219"},"vehicle_type_id":"4","last_reported":1683054332,"current_range_meters":23600,"station_id":"ce4bhb12rcd13ifvqem0","pricing_plan_id":"free"},{"bike_id":"769acaf5-ca3e-49dc-8db2-9f8ac235e75c","system_id":"levelo_inurba_marseille","lat":43.28845,"lon":5.35851,"is_reserved":false,"is_disabled":false,"rental_uris":{"android":"levelo://app?vid=769acaf5-ca3e-49dc-8db2-9f8ac235e75c","ios":"levelo://app?vid=769acaf5-ca3e-49dc-8db2-9f8ac235e75c"},"vehicle_type_id":"4","last_reported":1683054332,"current_range_meters":24800,"station_id":"ce4bhb12rcd13ifvqem0","pricing_plan_id":"free"},{"bike_id":"af266a36-8ba9-413c-91c8-ba4e9983b229","system_id":"levelo_inurba_marseille","lat":43.28844,"lon":5.35854,"is_reserved":false,"is_disabled":false,"rental_uris":{"android":"levelo://app?vid=af266a36-8ba9-413c-91c8-ba4e9983b229","ios":"levelo://app?vid=af266a36-8ba9-413c-91c8-ba4e9983b229"},"vehicle_type_id":"4","last_reported":1683054332,"current_range_meters":28400,"station_id":"ce4bhb12rcd13ifvqem0","pricing_plan_id":"free"},{"bike_id":"c5f3b859-cc19-41c1-84bb-2efaac155878","system_id":"levelo_inurba_marseille","lat":43.28856,"lon":5.358371,"is_reserved":false,"is_disabled":false,"rental_uris":{"android":"levelo://app?vid=c5f3b859-cc19-41c1-84bb-2efaac155878","ios":"levelo://app?vid=c5f3b859-cc19-41c1-84bb-2efaac155878"},"vehicle_type_id":"4","last_reported":1683054332,"current_range_meters":31200,"station_id":"ce4bhb12rcd13ifvqem0","pricing_plan_id":"free"},{"bike_id":"2126deab-7828-4e97-8378-ae71cb130f72","system_id":"levelo_inurba_marseille","lat":43.28856,"lon":5.358371,"is_reserved":false,"is_disabled":false,"rental_uris":{"android":"levelo://app?vid=2126deab-7828-4e97-8378-ae71cb130f72","ios":"levelo://app?vid=2126deab-7828-4e97-8378-ae71cb130f72"},"vehicle_type_id":"4","last_reported":1683054332,"current_range_meters":17200,"station_id":"ce4bhb12rcd13ifvqem0","pricing_plan_id":"free"},{"bike_id":"311a799e-7683-4fe7-adc3-e41cd4bc1e40","system_id":"levelo_inurba_marseille","lat":43.28856,"lon":5.358371,"is_reserved":false,"is_disabled":false,"rental_uris":{"android":"levelo://app?vid=311a799e-7683-4fe7-adc3-e41cd4bc1e40","ios":"levelo://app?vid=311a799e-7683-4fe7-adc3-e41cd4bc1e40"},"vehicle_type_id":"4","last_reported":1683054332,"current_range_meters":25600,"station_id":"ce4bhb12rcd13ifvqem0","pricing_plan_id":"free"},{"bike_id":"9cb5f6df-4912-42b8-b943-a1066624cef8","system_id":"levelo_inurba_marseille","lat":43.28841,"lon":5.35857,"is_reserved":false,"is_disabled":false,"rental_uris":{"android":"levelo://app?vid=9cb5f6df-4912-42b8-b943-a1066624cef8","ios":"levelo://app?vid=9cb5f6df-4912-42b8-b943-a1066624cef8"},"vehicle_type_id":"4","last_reported":1683054332,"current_range_meters":30000,"station_id":"ce4bhb12rcd13ifvqem0","pricing_plan_id":"free"},{"bike_id":"425d11b9-27ba-4808-a530-24c21c1acd42","system_id":"levelo_inurba_marseille","lat":43.286591,"lon":5.363346,"is_reserved":false,"is_disabled":false,"rental_uris":{"android":"levelo://app?vid=425d11b9-27ba-4808-a530-24c21c1acd42","ios":"levelo://app?vid=425d11b9-27ba-4808-a530-24c21c1acd42"},"vehicle_type_id":"4","last_reported":1683054332,"current_range_meters":27600,"station_id":"ce4bhah2rcd13ifvqej0","pricing_plan_id":"free"},{"bike_id":"a53797f6-8d1e-48aa-be73-5104c9d889bb","system_id":"levelo_inurba_marseille","lat":43.28842,"lon":5.35851,"is_reserved":false,"is_disabled":false,"rental_uris":{"android":"levelo://app?vid=a53797f6-8d1e-48aa-be73-5104c9d889bb","ios":"levelo://app?vid=a53797f6-8d1e-48aa-be73-5104c9d889bb"},"vehicle_type_id":"4","last_reported":1683054332,"current_range_meters":29200,"station_id":"ce4bhb12rcd13ifvqem0","pricing_plan_id":"free"},{"bike_id":"dd888dec-8103-426a-b654-9116c1b00bf5","system_id":"levelo_inurba_marseille","lat":43.28842,"lon":5.35847,"is_reserved":false,"is_disabled":false,"rental_uris":{"android":"levelo://app?vid=dd888dec-8103-426a-b654-9116c1b00bf5","ios":"levelo://app?vid=dd888dec-8103-426a-b654-9116c1b00bf5"},"vehicle_type_id":"4","last_reported":1683054332,"current_range_meters":10400,"station_id":"ce4bhb12rcd13ifvqem0","pricing_plan_id":"free"},{"bike_id":"3ad88df0-fd0d-46fc-941b-0e7c4c40e704","system_id":"levelo_inurba_marseille","lat":43.33737,"lon":5.37458,"is_reserved":false,"is_disabled":false,"rental_uris":{"android":"levelo://app?vid=3ad88df0-fd0d-46fc-941b-0e7c4c40e704","ios":"levelo://app?vid=3ad88df0-fd0d-46fc-941b-0e7c4c40e704"},"vehicle_type_id":"4","last_reported":1683054332,"current_range_meters":30000,"station_id":"","pricing_plan_id":"free"},