{"last_updated":1737915048,"ttl":60,"version":"2.2","data":{"bikes":[{"bike_id":"3685365c-6791-4fd4-92f4-92d2ec2806e4","system_id":"levelo_inurba_marseille","lat":43.29199,"lon":5.35798,"is_reserved":false,"is_disabled":false,"rental_uris":{"android":"levelo://app?vid=3685365c-6791-4fd4-92f4-92d2ec2806e4","ios":"levelo://app?vid=3685365c-6791-4fd4-92f4-92d2ec2806e4"},"vehicle_type_id":"4","last_reported":1737915048,"current_range_meters":38800,"station_id":"ce4bhb12rcd13ifvqel0","pricing_plan_id":"cebpf4jnsgd1na2vs0mg"},{"bike_id":"38d64b74-8151-4565-91ae-d861a82da039","system_id":"levelo_inurba_marseille","lat":43.29031,"lon":5.38632,"is_reserved":false,"is_disabled":false,"rental_uris":{"android":"levelo://app?vid=38d64b74-8151-4565-91ae-d861a82da039","ios":"levelo://app?vid=38d64b74-8151-4565-91ae-d861a82da039"},"vehicle_type_id":"4","last_reported":1737915048,"current_range_meters":17200,"station_id":"ce4bh4p2rcd13ifvqe0g","pricing_plan_id":"cebpf4jnsgd1na2vs0mg"},{"bike_id":"f158f5a1-fd74-43cc-b6b6-0019ae9cccfc","system_id":"levelo_inurba_marseille","lat":43.30142,"lon":5.39857,"is_reserved":false,"is_disabled":false,"rental_uris":{"android":"levelo://app?vid=f158f5a1-fd74-43cc-b6b6-0019ae9cccfc","ios":"levelo://app?vid=f158f5a1-fd74-43cc-b6b6-0019ae9cccfc"},"vehicle_type_id":"4","last_reported":1737915048,"current_range_meters":24800,"station_id":"ce4bh0h2rcd13ifvqd40","pricing_plan_id":"cebpf4jnsgd1na2vs0mg"},{"bike_id":"e99cc94d-9d9b-4398-920e-3d92ecbab1be","system_id":"levelo_inurba_marseille","lat":43.29021,"lon":5.38131,"is_reserved":false,"is_disabled":false,"rental_uris":{"android":"levelo://app?vid=e99cc94d-9d9b-4398-920e-3d92ecbab1be","ios":"levelo://app?vid=e99cc94d-9d9b-4398-920e-3d92ecbab1be"},"vehicle_type_id":"4","last_reported":1737915048,"current_range_meters":19200,"station_id":"ce4bh4p2rcd13ifvqe1g","pricing_plan_id":"cebpf4jnsgd1na2vs0mg"},{"bike_id":"22fdda07-29f7-4097-aa7c-457566d3caba","system_id":"levelo_inurba_marseille","lat":43.2508,"lon":5.3951,"is_reserved":false,"is_disabled":false,"rental_uris":{"android":"levelo://app?vid=22fdda07-29f7-4097-aa7c-457566d3caba","ios":"levelo://app?vid=22fdda07-29f7-4097-aa7c-457566d3caba"},"vehicle_type_id":"4","last_reported":1737915048,"current_range_meters":24800,"station_id":"ce4bhm12rcd13ifvqgkg","pricing_plan_id":"cebpf4jnsgd1na2vs0mg"},{"bike_id":"6903bd93-3831-44af-9688-793a949e365f","system_id":"levelo_inurba_marseille","lat":43.27949,"lon":5.41052,"is_reserved":false,"is_disabled":false,"rental_uris":{"android":"levelo://app?vid=6903bd93-3831-44af-9688-793a949e365f","ios":"levelo://app?vid=6903bd93-3831-44af-9688-793a949e365f"},"vehicle_type_id":"4","last_reported":1737915048,"current_range_meters":38400,"station_id":"ce4bhnp2rcd13ifvqh0g","pricing_plan_id":"cebpf4jnsgd1na2vs0mg"},{"bike_id":"4857b4cf-decd-41a9-ade3-4c571462c146","system_id":"levelo_inurba_marseille","lat":43.25399,"lon":5.4191,"is_reserved":false,"is_disabled":true,"rental_uris":{"android":"levelo://app?vid=4857b4cf-decd-41a9-ade3-4c571462c146","ios":"levelo://app?vid=4857b4cf-decd-41a9-ade3-4c571462c146"},"vehicle_type_id":"4","last_reported":1737915048,"current_range_meters":0,"station_id":"","pricing_plan_id":"cebpf4jnsgd1na2vs0mg"},{"bike_id":"dee161fe-82c1-4855-9bd7-e7193193e749","system_id":"levelo_inurba_marseille","lat":43.31697,"lon":5.43675,"is_reserved":false,"is_disabled":false,"rental_uris":{"android":"levelo://app?vid=dee161fe-82c1-4855-9bd7-e7193193e749","ios":"levelo://app?vid=dee161fe-82c1-4855-9bd7-e7193193e749"},"vehicle_type_id":"4","last_reported":1737915048,"current_range_meters":39200,"station_id":"ce4bhp92rcd13ifvqhcg","pricing_plan_id":"cebpf4jnsgd1na2vs0mg"},{"bike_id":"58d9e3df-28a3-4560-b2cd-4d33fefbd544","system_id":"levelo_inurba_marseille","lat":43.28351,"lon":5.38125,"is_reserved":false,"is_disabled":true,"rental_uris":{"android":"levelo://app?vid=58d9e3df-28a3-4560-b2cd-4d33fefbd544","ios":"levelo://app?vid=58d9e3df-28a3-4560-b2cd-4d33fefbd544"},"vehicle_type_id":"4","last_reported":1737915048,"current_range_meters":16400,"station_id":"ce4bh412rcd13ifvqdr0","pricing_plan_id":"cebpf4jnsgd1na2vs0mg"},{"bike_id":"fa5cc696-fa74-45d7-9894-bb340f9342a9","system_id":"levelo_inurba_marseille","lat":43.28649,"lon":5.36357,"is_reserved":false,"is_disabled":true,"rental_uris":{"android":"levelo://app?vid=fa5cc696-fa74-45d7-9894-bb340f9342a9","ios":"levelo://app?vid=fa5cc696-fa74-45d7-9894-bb340f9342a9"},"vehicle_type_id":"4","last_reported":1737915048,"current_range_meters":0,"station_id":"ce4bhah2rcd13ifvqej0","pricing_plan_id":"cebpf4jnsgd1na2vs0mg"},{"bike_id":"450cc934-d7f7-4068-b2cc-435d5917e7c0","system_id":"levelo_inurba_marseille","lat":43.23193,"lon":5.40003,"is_reserved":false,"is_disabled":false,"rental_uris":{"android":"levelo://app?vid=450cc934-d7f7-4068-b2cc-435d5917e7c0","ios":"levelo://app?vid=450cc934-d7f7-4068-b2cc-435d5917e7c0"},"vehicle_type_id":"4","last_reported":1737915048,"current_range_meters":3600,"station_id":"ce4bhn12rcd13ifvqgqg","pricing_plan_id":"cebpf4jnsgd1na2vs0mg"},{"bike_id":"d48c5a28-3877-434f-a0d4-71f4eb2eb2cc","system_id":"levelo_inurba_marseille","lat":43.3133,"lon":5.3969,"is_reserved":false,"is_disabled":false,"rental_uris":{"android":"levelo://app?vid=d48c5a28-3877-434f-a0d4-71f4eb2eb2cc","ios":"levelo://app?vid=d48c5a28-3877-434f-a0d4-71f4eb2eb2cc"},"vehicle_type_id":"4","last_reported":1737915048,"current_range_meters":30000,"station_id":"ce4bgvp2rcd13ifvqcu0","pricing_plan_id":"cebpf4jnsgd1na2vs0mg"},{"bike_id":"984f7c78-4e5e-495f-9ca7-c8bc0d84b6d5","system_id":"levelo_inurba_marseille","lat":43.32297,"lon":5.38268,"is_reserved":false,"is_disabled":false,"rental_uris":{"android":"levelo://app?vid=984f7c78-4e5e-495f-9ca7-c8bc0d84b6d5","ios":"levelo://app?vid=984f7c78-4e5e-495f-9ca7-c8bc0d84b6d5"},"vehicle_type_id":"4","last_reported":1737915048,"current_range_meters":39200,"station_id":"ce4bhr12rcd13ifvqhqg","pricing_plan_id":"cebpf4jnsgd1na2vs0mg"},{"bike_id":"b736a487-4414-4ab6-811a-649d682c4d34","system_id":"levelo_inurba_marseille","lat":43.29614,"lon":5.37709,"is_reserved":false,"is_disabled":true,"rental_uris":{"android":"levelo://app?vid=b736a487-4414-4ab6-811a-649d682c4d34","ios":"levelo://app?vid=b736a487-4414-4ab6-811a-649d682c4d34"},"vehicle_type_id":"4","last_reported":1737915048,"current_range_meters":0,"station_id":"ce4bgi92rcd13ifvqb90","pricing_plan_id":"cebpf4jnsgd1na2vs0mg"},{"bike_id":"c04e984e-e9b3-4b82-badb-3e980dfb37f7","system_id":"levelo_inurba_marseille","lat":43.30213,"lon":5.39467,"is_reserved":false,"is_disabled":false,"rental_uris":{"android":"levelo://app?vid=c04e984e-e9b3-4b82-badb-3e980dfb37f7","ios":"levelo://app?vid=c04e984e-e9b3-4b82-badb-3e980dfb37f7"},"vehicle_type_id":"4","last_reported":1737915048,"current_range_meters":14400,"station_id":"ce4bh0p2rcd13ifvqd70","pricing_plan_id":"cebpf4jnsgd1na2vs0mg"},{"bike_id":"99116adf-bcc6-45b6-8af0-1016c0be8361","system_id":"levelo_inurba_marseille","lat":43.29288,"lon":5.37445,"is_reserved":false,"is_disabled":false,"rental_uris":{"android":"levelo://app?vid=99116adf-bcc6-45b6-8af0-1016c0be8361","ios":"levelo://app?vid=99116adf-bcc6-45b6-8af0-1016c0be8361"},"vehicle_type_id":"4","last_reported":1737915048,"current_range_meters":36800,"station_id":"ce4bgi12rcd13ifvqb70","pricing_plan_id":"cebpf4jnsgd1na2vs0mg"},{"bike_id":"22fe6381-bfa8-481c-9415-4e6666169356","system_id":"levelo_inurba_marseille","lat":43.265616,"lon":5.389936,"is_reserved":false,"is_disabled":false,"rental_uris":{"android":"levelo://app?vid=22fe6381-bfa8-481c-9415-4e6666169356","ios":"levelo://app?vid=22fe6381-bfa8-481c-9415-4e6666169356"},"vehicle_type_id":"4","last_reported":1737915048,"current_range_meters":32000,"station_id":"ce4bhe12rcd13ifvqf30","pricing_plan_id":"cebpf4jnsgd1na2vs0mg"},{"bike_id":"301e3a88-e933-432d-97cf-b1f8f744a8f6","system_id":"levelo_inurba_marseille","lat":43.26202,"lon":5.37919,"is_reserved":false,"is_disabled":false,"rental_uris":{"android":"levelo://app?vid=301e3a88-e933-432d-97cf-b1f8f744a8f6","ios":"levelo://app?vid=301e3a88-e933-432d-97cf-b1f8f744a8f6"},"vehicle_type_id":"4","last_reported":1737915048,"current_range_meters":38800,"station_id":"ce4bhjp2rcd13ifvqg90","pricing_plan_id":"cebpf4jnsgd1na2vs0mg"},{"bike_id":"457dbd0e-8f95-45e9-8ae6-40b39a5ca596","system_id":"levelo_inurba_marseille","lat":43.23203,"lon":5.35543,"is_reserved":false,"is_disabled":false,"rental_uris":{"android":"levelo://app?vid=457dbd0e-8f95-45e9-8ae6-40b39a5ca596","ios":"levelo://app?vid=457dbd0e-8f95-45e9-8ae6-40b39a5ca596"},"vehicle_type_id":"4","last_reported":1737915048,"current_range_meters":35600,"station_id":"ce4bhu92rcd13ifvqi70","pricing_plan_id":"cebpf4jnsgd1na2vs0mg"},{"bike_id":"d77db00f-908b-4381-ac06-dc3e91b69008","system_id":"levelo_inurba_marseille","lat":43.25583,"lon":5.38237,"is_reserved":false,"is_disabled":false,"rental_uris":{"android":"levelo://app?vid=d77db00f-908b-4381-ac06-dc3e91b69008","ios":"levelo://app?vid=d77db00f-908b-4381-ac06-dc3e91b69008"},"vehicle_type_id":"4","last_reported":1737915048,"current_range_meters":38800,"station_id":"ce4bhih2rcd13ifvqfs0","pricing_plan_id":"cebpf4jnsgd1na2vs0mg"},{"bike_id":"1e523247-26b5-4870-b41b-f02e55f7a084","system_id":"levelo_inurba_marseille","lat":43.26044,"lon":5.37574,"is_reserved":false,"is_disabled":false,"rental_uris":{"android":"levelo://app?vid=1e523247-26b5-4870-b41b-f02e55f7a084","ios":"levelo://app?vid=1e523247-26b5-4870-b41b-f02e55f7a084"},"vehicle_type_id":"4","last_reported":1737915048,"current_range_meters":38800,"station_id":"ce4bhgh2rcd13ifvqfa0","pricing_plan_id":"cebpf4jnsgd1na2vs0mg"},{"bike_id":"fe87a798-f89c-45d8-8809-5a1b2847763b","system_id":"levelo_inurba_marseille","lat":43.31166,"lon":5.3871,"is_reserved":false,"is_disabled":false,"rental_uris":{"android":"levelo://app?vid=fe87a798-f89c-45d8-8809-5a1b2847763b","ios":"levelo://app?vid=fe87a798-f89c-45d8-8809-5a1b2847763b"},"vehicle_type_id":"4","last_reported":1737915048,"current_range_meters":37600,"station_id":"ce4bgv12rcd13ifvqcp0","pricing_plan_id":"cebpf4jnsgd1na2vs0mg"},{"bike_id":"d249027f-c553-4ff1-9f7c-498d6709f69a","system_id":"levelo_inurba_marseille","lat":43.28417,"lon":5.349949,"is_reserved":false,"is_disabled":false,"rental_uris":{"android":"levelo://app?vid=d249027f-c553-4ff1-9f7c-498d6709f69a","ios":"levelo://app?vid=d249027f-c553-4ff1-9f7c-498d6709f69a"},"vehicle_type_id":"4","last_reported":1737915048,"current_range_meters":33600,"station_id":"","pricing_plan_id":"cebpf4jnsgd1na2vs0mg"},{"bike_id":"5a6503ca-c2c6-4dbe-a6f7-68e5f1916ac2","system_id":"levelo_inurba_marseille","lat":43.29901,"lon":5.43672,"is_reserved":false,"is_disabled":false,"rental_uris":{"android":"levelo://app?vid=5a6503ca-c2c6-4dbe-a6f7-68e5f1916ac2","ios":"levelo://app?vid=5a6503ca-c2c6-4dbe-a6f7-68e5f1916ac2"},"vehicle_type_id":"4","last_reported":1737915048,"current_range_meters":14400,"station_id":"ce4bhpp2rcd13ifvqhfg","pricing_plan_id":"cebpf4jnsgd1na2vs0mg"},{"bike_id":"516c69c9-a929-4724-bd21-7638ca75ddba","system_id":"levelo_inurba_marseille","lat":43.32037,"lon":5.41548,"is_reserved":false,"is_disabled":false,"rental_uris":{"android":"levelo://app?vid=516c69c9-a929-4724-bd21-7638ca75ddba","ios":"levelo://app?vid=516c69c9-a929-4724-bd21-7638ca75ddba"},"vehicle_type_id":"4","last_reported":1737915048,"current_range_meters":38400,"station_id":"ce4bhq92rcd13ifvqhkg","pricing_plan_id":"cebpf4jnsgd1na2vs0mg"},{"bike_id":"d4e45fc8-da92-4d12-9d68-cc717e02e5d0","system_id":"levelo_inurba_marseille","lat":43.2813,"lon":5.42631,"is_reserved":false,"is_disabled":false,"rental_uris":{"android":"levelo://app?vid=d4e45fc8-da92-4d12-9d68-cc717e02e5d0","ios":"levelo://app?vid=d4e45fc8-da92-4d12-9d68-cc717e02e5d0"},"vehicle_type_id":"4","last_reported":1737915048,"current_range_meters":14800,"station_id":"ce4bhnh2rcd13ifvqgug","pricing_plan_id":"cebpf4jnsgd1na2vs0mg"},{"bike_id":"76d96864-c23f-423a-ae43-88c5b4217330","system_id":"levelo_inurba_marseille","lat":43.28078,"lon":5.3966,"is_reserved":false,"is_disabled":false,"rental_uris":{"android":"levelo://app?vid=76d96864-c23f-423a-ae43-88c5b4217330","ios":"levelo://app?vid=76d96864-c23f-423a-ae43-88c5b4217330"},"vehicle_type_id":"4","last_reported":1737915048,"current_range_meters":35200,"station_id":"ce4bho12rcd13ifvqh2g","pricing_plan_id":"cebpf4jnsgd1na2vs0mg"},{"bike_id":"2ed428b3-515b-450e-b73a-7d0d15c43f65","system_id":"levelo_inurba_marseille","lat":43.28436,"lon":5.39164,"is_reserved":false,"is_disabled":false,"rental_uris":{"android":"levelo://app?vid=2ed428b3-515b-450e-b73a-7d0d15c43f65","ios":"levelo://app?vid=2ed428b3-515b-450e-b73a-7d0d15c43f65"},"vehicle_type_id":"4","last_reported":1737915048,"current_range_meters":36800,"station_id":"ce4bhoh2rcd13ifvqh5g","pricing_plan_id":"cebpf4jnsgd1na2vs0mg"},{"bike_id":"e05b826e-7ecd-4d63-bf30-527254ee854c","system_id":"levelo_inurba_marseille","lat":43.30957,"lon":5.3904,"is_reserved":false,"is_disabled":true,"rental_uris":{"android":"levelo://app?vid=e05b826e-7ecd-4d63-bf30-527254ee854c","ios":"levelo://app?vid=e05b826e-7ecd-4d63-bf30-527254ee854c"},"vehicle_type_id":"4","last_reported":1737915048,"current_range_meters":0,"station_id":"ce4bgup2rcd13ifvqco0","pricing_plan_id":"cebpf4jnsgd1na2vs0mg"},{"bike_id":"cdd3ee8c-8a3d-434f-bbab-69b040fa03ea","system_id":"levelo_inurba_marseille","lat":43.31999,"lon":5.3817,"is_reserved":false,"is_disabled":false,"rental_uris":{"android":"levelo://app?vid=cdd3ee8c-8a3d-434f-bbab-69b040fa03ea","ios":"levelo://app?vid=cdd3ee8c-8a3d-434f-bbab-69b040fa03ea"},"vehicle_type_id":"4","last_reported":1737915048,"current_range_meters":39200,"station_id":"ce4bhr12rcd13ifvqhpg","pricing_plan_id":"cebpf4jnsgd1na2vs0mg"},{"bike_id":"7323d508-0457-464c-9ffd-6fde994c0719","system_id":"levelo_inurba_marseille","lat":43.27999,"lon":5.40011,"is_reserved":false,"is_disabled":false,"rental_uris":{"android":"levelo://app?vid=7323d508-0457-464c-9ffd-6fde994c0719","ios":"levelo://app?vid=7323d508-0457-464c-9ffd-6fde994c0719"},"vehicle_type_id":"4","last_reported":1737915048,"current_range_meters":30800,"station_id":"ce4bho92rcd13ifvqh4g","pricing_plan_id":"cebpf4jnsgd1na2vs0mg"},{"bike_id":"2843a59a-f3ba-44ef-934d-8a7fd2fd7316","system_id":"levelo_inurba_marseille","lat":43.29516,"lon":5.39399,"is_reserved":false,"is_disabled":false,"rental_uris":{"android":"levelo://app?vid=2843a59a-f3ba-44ef-934d-8a7fd2fd7316","ios":"levelo://app?vid=2843a59a-f3ba-44ef-934d-8a7fd2fd7316"},"vehicle_type_id":"4","last_reported":1737915048,"current_range_meters":28800,"station_id":"ce4bh292rcd13ifvqdf0","pricing_plan_id":"cebpf4jnsgd1na2vs0mg"},{"bike_id":"bb9df935-971d-48fe-841d-0dade0ac91aa","system_id":"levelo_inurba_marseille","lat":43.29539,"lon":5.38547,"is_reserved":false,"is_disabled":true,"rental_uris":{"android":"levelo://app?vid=bb9df935-971d-48fe-841d-0dade0ac91aa","ios":"levelo://app?vid=bb9df935-971d-48fe-841d-0dade0ac91aa"},"vehicle_type_id":"4","last_reported":1737915048,"current_range_meters":30000,"station_id":"ce4bgih2rcd13ifvqba0","pricing_plan_id":"cebpf4jnsgd1na2vs0mg"},{"bike_id":"fcf92ef0-bd92-40f6-8eed-c0eedec68d2b","system_id":"levelo_inurba_marseille","lat":43.25506,"lon":5.37651,"is_reserved":false,"is_disabled":true,"rental_uris":{"android":"levelo://app?vid=fcf92ef0-bd92-40f6-8eed-c0eedec68d2b","ios":"levelo://app?vid=fcf92ef0-bd92-40f6-8eed-c0eedec68d2b"},"vehicle_type_id":"4","last_reported":1737915048,"current_range_meters":1200,"station_id":"ce4bhh12rcd13ifvqff0","pricing_plan_id":"cebpf4jnsgd1na2vs0mg"},{"bike_id":"c0e25864-98d0-421d-8e40-8c5a58b7e43b","system_id":"levelo_inurba_marseille","lat":43.24995,"lon":5.38938,"is_reserved":false,"is_disabled":false,"rental_uris":{"android":"levelo://app?vid=c0e25864-98d0-421d-8e40-8c5a58b7e43b","ios":"levelo://app?vid=c0e25864-98d0-421d-8e40-8c5a58b7e43b"},"vehicle_type_id":"4","last_reported":1737915048,"current_range_meters":25200,"station_id":"ce4bhgp2rcd13ifvqfd0","pricing_plan_id":"cebpf4jnsgd1na2vs0mg"},{"bike_id":"468a3a31-a37d-4efe-b85c-3c19ea7f16d7","system_id":"levelo_inurba_marseille","lat":43.28482,"lon":5.38448,"is_reserved":false,"is_disabled":false,"rental_uris":{"android":"levelo://app?vid=468a3a31-a37d-4efe-b85c-3c19ea7f16d7","ios":"levelo://app?vid=468a3a31-a37d-4efe-b85c-3c19ea7f16d7"},"vehicle_type_id":"4","last_reported":1737915048,"current_range_meters":11600,"station_id":"ce4bh512rcd13ifvqe3g","pricing_plan_id":"cebpf4jnsgd1na2vs0mg"},{"bike_id":"054b7e8e-8389-4168-b0c3-4f7205cd402d","system_id":"levelo_inurba_marseille","lat":43.31888,"lon":5.40738,"is_reserved":false,"is_disabled":false,"rental_uris":{"android":"levelo://app?vid=054b7e8e-8389-4168-b0c3-4f7205cd402d","ios":"levelo://app?vid=054b7e8e-8389-4168-b0c3-4f7205cd402d"},"vehicle_type_id":"4","last_reported":1737915048,"current_range_meters":24000,"station_id":"ce4bhq12rcd13ifvqhig","pricing_plan_id":"cebpf4jnsgd1na2vs0mg"},{"bike_id":"ee3ef347-413f-41ca-aed8-11c5c157ccc6","system_id":"levelo_inurba_marseille","lat":43.30882,"lon":5.37201,"is_reserved":false,"is_disabled":false,"rental_uris":{"android":"levelo://app?vid=ee3ef347-413f-41ca-aed8-11c5c157ccc6","ios":"levelo://app?vid=ee3ef347-413f-41ca-aed8-11c5c157ccc6"},"vehicle_type_id":"4","last_reported":1737915048,"current_range_meters":27600,"station_id":"ce4bguh2rcd13ifvqckg","pricing_plan_id":"cebpf4jnsgd1na2vs0mg"},{"bike_id":"2990ac0a-d6ce-48cf-8c2e-15129d853cd2","system_id":"levelo_inurba_marseille","lat":43.29534,"lon":5.38548,"is_reserved":false,"is_disabled":true,"rental_uris":{"android":"levelo://app?vid=2990ac0a-d6ce-48cf-8c2e-15129d853cd2","ios":"levelo://app?vid=2990ac0a-d6ce-48cf-8c2e-15129d853cd2"},"vehicle_type_id":"4","last_reported":1737915048,"current_range_meters":0,"station_id":"ce4bgih2rcd13ifvqba0","pricing_plan_id":"cebpf4jnsgd1na2vs0mg"},{"bike_id":"8b24ee26-2ef3-43bc-a61f-7dad385fa3a7","system_id":"levelo_inurba_marseille","lat":43.2668,"lon":5.38263,"is_reserved":false,"is_disabled":true,"rental_uris":{"android":"levelo://app?vid=8b24ee26-2ef3-43bc-a61f-7dad385fa3a7","ios":"levelo://app?vid=8b24ee26-2ef3-43bc-a61f-7dad385fa3a7"},"vehicle_type_id":"4","last_reported":1737915048,"current_range_meters":4400,"station_id":"ce4bhg92rcd13ifvqf90","pricing_plan_id":"cebpf4jnsgd1na2vs0mg"},{"bike_id":"db9ff4d6-03c8-4ab8-8178-be1ed6b4d1d6","system_id":"levelo_inurba_marseille","lat":43.303279,"lon":5.404399,"is_reserved":false,"is_disabled":false,"rental_uris":{"android":"levelo://app?vid=db9ff4d6-03c8-4ab8-8178-be1ed6b4d1d6","ios":"levelo://app?vid=db9ff4d6-03c8-4ab8-8178-be1ed6b4d1d6"},"vehicle_type_id":"4","last_reported":1737915048,"current_range_meters":39200,"station_id":"ce4bh012rcd13ifvqd10","pricing_plan_id":"cebpf4jnsgd1na2vs0mg"},{"bike_id":"2907bee4-1767-4819-8323-8e11ddab38b2","system_id":"levelo_inurba_marseille","lat":43.28433,"lon":5.39182,"is_reserved":false,"is_disabled":false,"rental_uris":{"android":"levelo://app?vid=2907bee4-1767-4819-8323-8e11ddab38b2","ios":"levelo://app?vid=2907bee4-1767-4819-8323-8e11ddab38b2"},"vehicle_type_id":"4","last_reported":1737915048,"current_range_meters":15200,"station_id":"ce4bhoh2rcd13ifvqh5g","pricing_plan_id":"cebpf4jnsgd1na2vs0mg"},{"bike_id":"7b764a37-86ae-4506-bf6b-9f8ff35451d3","system_id":"levelo_inurba_marseille","lat":43.2322,"lon":5.35565,"is_reserved":false,"is_disabled":false,"rental_uris":{"android":"levelo://app?vid=7b764a37-86ae-4506-bf6b-9f8ff35451d3","ios":"levelo://app?vid=7b764a37-86ae-4506-bf6b-9f8ff35451d3"},"vehicle_type_id":"4","last_reported":1737915048,"current_range_meters":11200,"station_id":"ce4bhu92rcd13ifvqi70","pricing_plan_id":"cebpf4jnsgd1na2vs0mg"},{"bike_id":"5de3a2ff-e22b-4d37-a51c-f4f2c9cb3dbc","system_id":"levelo_inurba_marseille","lat":43.3233,"lon":5.38945,"is_reserved":false,"is_disabled":false,"rental_uris":{"android":"levelo://app?vid=5de3a2ff-e22b-4d37-a51c-f4f2c9cb3dbc","ios":"levelo://app?vid=5de3a2ff-e22b-4d37-a51c-f4f2c9cb3dbc"},"vehicle_type_id":"4","last_reported":1737915048,"current_range_meters":19600,"station_id":"ce4bhqp2rcd13ifvqhog","pricing_plan_id":"cebpf4jnsgd1na2vs0mg"},{"bike_id":"707291c0-801f-4378-b622-04349833c400","system_id":"levelo_inurba_marseille","lat":43.289447,"lon":5.366308,"is_reserved":false,"is_disabled":true,"rental_uris":{"android":"levelo://app?vid=707291c0-801f-4378-b622-04349833c400","ios":"levelo://app?vid=707291c0-801f-4378-b622-04349833c400"},"vehicle_type_id":"4","last_reported":1737915048,"current_range_meters":34000,"station_id":"ce4bhap2rcd13ifvqek0","pricing_plan_id":"cebpf4jnsgd1na2vs0mg"},{"bike_id":"c998a431-fe7c-4694-a808-6e4ab347c702","system_id":"levelo_inurba_marseille","lat":43.24648,"lon":5.38909,"is_reserved":false,"is_disabled":false,"rental_uris":{"android":"levelo://app?vid=c998a431-fe7c-4694-a808-6e4ab347c702","ios":"levelo://app?vid=c998a431-fe7c-4694-a808-6e4ab347c702"},"vehicle_type_id":"4","last_reported":1737915048,"current_range_meters":38800,"station_id":"ce4bhg12rcd13ifvqf60","pricing_plan_id":"cebpf4jnsgd1na2vs0mg"},{"bike_id":"e4ee43a3-1ed5-4aea-8ed1-bb4e2b0fb607","system_id":"levelo_inurba_marseille","lat":43.2929,"lon":5.40153,"is_reserved":false,"is_disabled":false,"rental_uris":{"android":"levelo://app?vid=e4ee43a3-1ed5-4aea-8ed1-bb4e2b0fb607","ios":"levelo://app?vid=e4ee43a3-1ed5-4aea-8ed1-bb4e2b0fb607"},"vehicle_type_id":"4","last_reported":1737915048,"current_range_meters":28800,"station_id":"ce4bh312rcd13ifvqdk0","pricing_plan_id":"cebpf4jnsgd1na2vs0mg"},{"bike_id":"a6bb6ed3-5b96-48f4-8d49-5c7aaee9b17a","system_id":"levelo_inurba_marseille","lat":43.2707,"lon":5.42265,"is_reserved":false,"is_disabled":true,"rental_uris":{"android":"levelo://app?vid=a6bb6ed3-5b96-48f4-8d49-5c7aaee9b17a","ios":"levelo://app?vid=a6bb6ed3-5b96-48f4-8d49-5c7aaee9b17a"},"vehicle_type_id":"4","last_reported":1737915048,"current_range_meters":0,"station_id":"ce4bhk92rcd13ifvqgb0","pricing_plan_id":"cebpf4jnsgd1na2vs0mg"},{"bike_id":"25640bf6-4db5-4daf-88ac-1c7253c8aaa7","system_id":"levelo_inurba_marseille","lat":43.29299,"lon":5.37462,"is_reserved":false,"is_disabled":false,"rental_uris":{"android":"levelo://app?vid=25640bf6-4db5-4daf-88ac-1c7253c8aaa7","ios":"levelo://app?vid=25640bf6-4db5-4daf-88ac-1c7253c8aaa7"},"vehicle_type_id":"4","last_reported":1737915048,"current_range_meters":13600,"station_id":"ce4bgi12rcd13ifvqb70","pricing_plan_id":"cebpf4jnsgd1na2vs0mg"},{"bike_id":"12295d51-a133-4b32-94bd-0de988c6c0cc","system_id":"levelo_inurba_marseille","lat":43.298072,"lon":5.380824,"is_reserved":false,"is_disabled":false,"rental_uris":{"android":"levelo://app?vid=12295d51-a133-4b32-94bd-0de988c6c0cc","ios":"levelo://app?vid=12295d51-a133-4b32-94bd-0de988c6c0cc"},"vehicle_type_id":"4","last_reported":1737915048,"current_range_meters":36400,"station_id":"ce4bgip2rcd13ifvqbb0","pricing_plan_id":"cebpf4jnsgd1na2vs0mg"},{"bike_id":"bf5ea4cd-441e-40b5-86d7-2cfd0ef0507f","system_id":"levelo_inurba_marseille","lat":43.2513,"lon":5.40319,"is_reserved":false,"is_disabled":false,"rental_uris":{"android":"levelo://app?vid=bf5ea4cd-441e-40b5-86d7-2cfd0ef0507f","ios":"levelo://app?vid=bf5ea4cd-441e-40b5-86d7-2cfd0ef0507f"},"vehicle_type_id":"4","last_reported":1737915048,"current_range_meters":20000,"station_id":"ce4bhlh2rcd13ifvqgig","pricing_plan_id":"cebpf4jnsgd1na2vs0mg"},{"bike_id":"f81400cb-f7cb-4b96-bc1a-2bb79860c30a","system_id":"levelo_inurba_marseille","lat":43.27819,"lon":5.40732,"is_reserved":false,"is_disabled":false,"rental_uris":{"android":"levelo://app?vid=f81400cb-f7cb-4b96-bc1a-2bb79860c30a","ios":"levelo://app?vid=f81400cb-f7cb-4b96-bc1a-2bb79860c30a"},"vehicle_type_id":"4","last_reported":1737915048,"current_range_meters":39200,"station_id":"ce4bhnh2rcd13ifvqgtg","pricing_plan_id":"cebpf4jnsgd1na2vs0mg"},{"bike_id":"51ddcc66-297b-4d3a-9044-668602e59abb","system_id":"levelo_inurba_marseille","lat":43.27995,"lon":5.40009,"is_reserved":false,"is_disabled":false,"rental_uris":{"android":"levelo://app?vid=51ddcc66-297b-4d3a-9044-668602e59abb","ios":"levelo://app?vid=51ddcc66-297b-4d3a-9044-668602e59abb"},"vehicle_type_id":"4","last_reported":1737915048,"current_range_meters":32800,"station_id":"ce4bho92rcd13ifvqh4g","pricing_plan_id":"cebpf4jnsgd1na2vs0mg"},{"bike_id":"5a504fe4-0ab6-4eed-b9ef-e27131441d67","system_id":"levelo_inurba_marseille","lat":43.30318,"lon":5.37848,"is_reserved":false,"is_disabled":false,"rental_uris":{"android":"levelo://app?vid=5a504fe4-0ab6-4eed-b9ef-e27131441d67","ios":"levelo://app?vid=5a504fe4-0ab6-4eed-b9ef-e27131441d67"},"vehicle_type_id":"4","last_reported":1737915048,"current_range_meters":28000,"station_id":"","pricing_plan_id":"cebpf4jnsgd1na2vs0mg"},{"bike_id":"29537b6d-60f6-4053-b601-105bf13a2e3a","system_id":"levelo_inurba_marseille","lat":43.28472,"lon":5.38448,"is_reserved":false,"is_disabled":true,"rental_uris":{"android":"levelo://app?vid=29537b6d-60f6-4053-b601-105bf13a2e3a","ios":"levelo://app?vid=29537b6d-60f6-4053-b601-105bf13a2e3a"},"vehicle_type_id":"4","last_reported":1737915048,"current_range_meters":1200,"station_id":"ce4bh512rcd13ifvqe3g","pricing_plan_id":"cebpf4jnsgd1na2vs0mg"},{"bike_id":"b5a217cf-755e-449d-9de4-9c9870d79a8f","system_id":"levelo_inurba_marseille","lat":43.24372,"lon":5.37066,"is_reserved":false,"is_disabled":false,"rental_uris":{"android":"levelo://app?vid=b5a217cf-755e-449d-9de4-9c9870d79a8f","ios":"levelo://app?vid=b5a217cf-755e-449d-9de4-9c9870d79a8f"},"vehicle_type_id":"4","last_reported":1737915048,"current_range_meters":38800,"station_id":"ce4bhhh2rcd13ifvqfk0","pricing_plan_id":"cebpf4jnsgd1na2vs0mg"},{"bike_id":"34f577e6-9351-4e27-b65f-96d601d8e426","system_id":"levelo_inurba_marseille","lat":43.25869,"lon":5.39899,"is_reserved":false,"is_disabled":false,"rental_uris":{"android":"levelo://app?vid=34f577e6-9351-4e27-b65f-96d601d8e426","ios":"levelo://app?vid=34f577e6-9351-4e27-b65f-96d601d8e426"},"vehicle_type_id":"4","last_reported":1737915048,"current_range_meters":28800,"station_id":"ce4bhl92rcd13ifvqghg","pricing_plan_id":"cebpf4jnsgd1na2vs0mg"},{"bike_id":"04e648e1-7014-47c2-a03e-7d6d34f47e23","system_id":"levelo_inurba_marseille","lat":43.24076,"lon":5.37758,"is_reserved":false,"is_disabled":true,"rental_uris":{"android":"levelo://app?vid=04e648e1-7014-47c2-a03e-7d6d34f47e23","ios":"levelo://app?vid=04e648e1-7014-47c2-a03e-7d6d34f47e23"},"vehicle_type_id":"4","last_reported":1737915048,"current_range_meters":800,"station_id":"ce4bhnp2rcd13ifvqgvg","pricing_plan_id":"cebpf4jnsgd1na2vs0mg"},{"bike_id":"c54f5b2e-f783-418a-8119-a38c5ea2c0aa","system_id":"levelo_inurba_marseille","lat":43.28966,"lon":5.35558,"is_reserved":false,"is_disabled":true,"rental_uris":{"android":"levelo://app?vid=c54f5b2e-f783-418a-8119-a38c5ea2c0aa","ios":"levelo://app?vid=c54f5b2e-f783-418a-8119-a38c5ea2c0aa"},"vehicle_type_id":"4","last_reported":1737915048,"current_range_meters":4400,"station_id":"ce4bhb92rcd13ifvqen0","pricing_plan_id":"cebpf4jnsgd1na2vs0mg"},{"bike_id":"9838cc78-2b53-49d3-ae13-82df62c4fd64","system_id":"levelo_inurba_marseille","lat":43.28425,"lon":5.40935,"is_reserved":false,"is_disabled":true,"rental_uris":{"android":"levelo://app?vid=9838cc78-2b53-49d3-ae13-82df62c4fd64","ios":"levelo://app?vid=9838cc78-2b53-49d3-ae13-82df62c4fd64"},"vehicle_type_id":"4","last_reported":1737915048,"current_range_meters":0,"station_id":"","pricing_plan_id":"cebpf4jnsgd1na2vs0mg"},{"bike_id":"bee6535d-4697-4984-8a84-7f12fad40f3e","system_id":"levelo_inurba_marseille","lat":43.27374,"lon":5.36242,"is_reserved":false,"is_disabled":true,"rental_uris":{"android":"levelo://app?vid=bee6535d-4697-4984-8a84-7f12fad40f3e","ios":"levelo://app?vid=bee6535d-4697-4984-8a84-7f12fad40f3e"},"vehicle_type_id":"4","last_reported":1737915048,"current_range_meters":800,"station_id":"ce4bhbh2rcd13ifvqeo0","pricing_plan_id":"cebpf4jnsgd1na2vs0mg"},{"bike_id":"68f99b21-2fbe-41a7-b050-a7f4c140afc1","system_id":"levelo_inurba_marseille","lat":43.29911,"lon":5.40209,"is_reserved":false,"is_disabled":true,"rental_uris":{"android":"levelo://app?vid=68f99b21-2fbe-41a7-b050-a7f4c140afc1","ios":"levelo://app?vid=68f99b21-2fbe-41a7-b050-a7f4c140afc1"},"vehicle_type_id":"4","last_reported":1737915048,"current_range_meters":400,"station_id":"","pricing_plan_id":"cebpf4jnsgd1na2vs0mg"},{"bike_id":"1a12ccc4-119d-4583-9cd0-f3b08fa41a49","system_id":"levelo_inurba_marseille","lat":43.24077,"lon":5.37767,"is_reserved":false,"is_disabled":false,"rental_uris":{"android":"levelo://app?vid=1a12ccc4-119d-4583-9cd0-f3b08fa41a49","ios":"levelo://app?vid=1a12ccc4-119d-4583-9cd0-f3b08fa41a49"},"vehicle_type_id":"4","last_reported":1737915048,"current_range_meters":38000,"station_id":"ce4bhnp2rcd13ifvqgvg","pricing_plan_id":"cebpf4jnsgd1na2vs0mg"},{"bike_id":"c4a421c4-fa0f-4ba6-8525-fb0935c8b20f","system_id":"levelo_inurba_marseille","lat":43.32664,"lon":5.40985,"is_reserved":false,"is_disabled":false,"rental_uris":{"android":"levelo://app?vid=c4a421c4-fa0f-4ba6-8525-fb0935c8b20f","ios":"levelo://app?vid=c4a421c4-fa0f-4ba6-8525-fb0935c8b20f"},"vehicle_type_id":"4","last_reported":1737915048,"current_range_meters":38800,"station_id":"ce4bhpp2rcd13ifvqhgg","pricing_plan_id":"cebpf4jnsgd1na2vs0mg"},{"bike_id":"bf096a89-ee72-4f37-85bd-7b3cf9f0cb41","system_id":"levelo_inurba_marseille","lat":43.3373,"lon":5.39197,"is_reserved":false,"is_disabled":false,"rental_uris":{"android":"levelo://app?vid=bf096a89-ee72-4f37-85bd-7b3cf9f0cb41","ios":"levelo://app?vid=bf096a89-ee72-4f37-85bd-7b3cf9f0cb41"},"vehicle_type_id":"4","last_reported":1737915048,"current_range_meters":27600,"station_id":"ce4bhr92rcd13ifvqhsg","pricing_plan_id":"cebpf4jnsgd1na2vs0mg"},{"bike_id":"5310f7e3-8e77-4d91-a00f-e11a801e0b57","system_id":"levelo_inurba_marseille","lat":43.28566,"lon":5.39508,"is_reserved":false,"is_disabled":false,"rental_uris":{"android":"levelo://app?vid=5310f7e3-8e77-4d91-a00f-e11a801e0b57","ios":"levelo://app?vid=5310f7e3-8e77-4d91-a00f-e11a801e0b57"},"vehicle_type_id":"4","last_reported":1737915048,"current_range_meters":38400,"station_id":"ce4bh292rcd13ifvqdg0","pricing_plan_id":"cebpf4jnsgd1na2vs0mg"},{"bike_id":"c2378bb1-796c-4edf-bf87-198266dfa5e8","system_id":"levelo_inurba_marseille","lat":43.23183,"lon":5.35589,"is_reserved":false,"is_disabled":false,"rental_uris":{"android":"levelo://app?vid=c2378bb1-796c-4edf-bf87-198266dfa5e8","ios":"levelo://app?vid=c2378bb1-796c-4edf-bf87-198266dfa5e8"},"vehicle_type_id":"4","last_reported":1737915048,"current_range_meters":37600,"station_id":"ce4bhu92rcd13ifvqi70","pricing_plan_id":"cebpf4jnsgd1na2vs0mg"},{"bike_id":"45f22221-2497-4221-89d9-ad45725e7110","system_id":"levelo_inurba_marseille","lat":43.24069,"lon":5.37766,"is_reserved":false,"is_disabled":false,"rental_uris":{"android":"levelo://app?vid=45f22221-2497-4221-89d9-ad45725e7110","ios":"levelo://app?vid=45f22221-2497-4221-89d9-ad45725e7110"},"vehicle_type_id":"4","last_reported":1737915048,"current_range_meters":6400,"station_id":"ce4bhnp2rcd13ifvqgvg","pricing_plan_id":"cebpf4jnsgd1na2vs0mg"},{"bike_id":"c72765a6-3cc9-4a6c-ab43-21106e071480","system_id":"levelo_inurba_marseille","lat":43.30603,"lon":5.39363,"is_reserved":false,"is_disabled":false,"rental_uris":{"android":"levelo://app?vid=c72765a6-3cc9-4a6c-ab43-21106e071480","ios":"levelo://app?vid=c72765a6-3cc9-4a6c-ab43-21106e071480"},"vehicle_type_id":"4","last_reported":1737915048,"current_range_meters":19600,"station_id":"ce4bh0p2rcd13ifvqd80","pricing_plan_id":"cebpf4jnsgd1na2vs0mg"},{"bike_id":"eb8e2715-50e8-4f9c-aaa7-763acdecaa89","system_id":"levelo_inurba_marseille","lat":43.29242,"lon":5.36587,"is_reserved":false,"is_disabled":true,"rental_uris":{"android":"levelo://app?vid=eb8e2715-50e8-4f9c-aaa7-763acdecaa89","ios":"levelo://app?vid=eb8e2715-50e8-4f9c-aaa7-763acdecaa89"},"vehicle_type_id":"4","last_reported":1737915048,"current_range_meters":1200,"station_id":"","pricing_plan_id":"cebpf4jnsgd1na2vs0mg"},{"bike_id":"2e0a8b86-b457-48a0-8577-213b01080398","system_id":"levelo_inurba_marseille","lat":43.23193,"lon":5.35545,"is_reserved":false,"is_disabled":false,"rental_uris":{"android":"levelo://app?vid=2e0a8b86-b457-48a0-8577-213b01080398","ios":"levelo://app?vid=2e0a8b86-b457-48a0-8577-213b01080398"},"vehicle_type_id":"4","last_reported":1737915048,"current_range_meters":38800,"station_id":"ce4bhu92rcd13ifvqi70","pricing_plan_id":"cebpf4jnsgd1na2vs0mg"},{"bike_id":"a7cf4467-440c-4bb8-a849-e8f193507576","system_id":"levelo_inurba_marseille","lat":43.29705,"lon":5.37685,"is_reserved":false,"is_disabled":false,"rental_uris":{"android":"levelo://app?vid=a7cf4467-440c-4bb8-a849-e8f193507576","ios":"levelo://app?vid=a7cf4467-440c-4bb8-a849-e8f193507576"},"vehicle_type_id":"4","last_reported":1737915048,"current_range_meters":27600,"station_id":"ce4bgkh2rcd13ifvqbl0","pricing_plan_id":"cebpf4jnsgd1na2vs0mg"},{"bike_id":"d979d8d2-ec65-47af-9229-e4270aab279a","system_id":"levelo_inurba_marseille","lat":43.23082,"lon":5.35513,"is_reserved":false,"is_disabled":false,"rental_uris":{"android":"levelo://app?vid=d979d8d2-ec65-47af-9229-e4270aab279a","ios":"levelo://app?vid=d979d8d2-ec65-47af-9229-e4270aab279a"},"vehicle_type_id":"4","last_reported":1737915048,"current_range_meters":30400,"station_id":"cpo3342slgdg3j2ifvpg","pricing_plan_id":"cebpf4jnsgd1na2vs0mg"},{"bike_id":"a43da72b-37fc-43d8-b519-054874511739","system_id":"levelo_inurba_marseille","lat":43.29035,"lon":5.37575,"is_reserved":false,"is_disabled":false,"rental_uris":{"android":"levelo://app?vid=a43da72b-37fc-43d8-b519-054874511739","ios":"levelo://app?vid=a43da72b-37fc-43d8-b519-054874511739"},"vehicle_type_id":"4","last_reported":1737915048,"current_range_meters":28800,"station_id":"ce4bh692rcd13ifvqe90","pricing_plan_id":"cebpf4jnsgd1na2vs0mg"},{"bike_id":"87a5bed0-aef1-423b-bd85-fe44fdeeb863","system_id":"levelo_inurba_marseille","lat":43.33738,"lon":5.39185,"is_reserved":false,"is_disabled":false,"rental_uris":{"android":"levelo://app?vid=87a5bed0-aef1-423b-bd85-fe44fdeeb863","ios":"levelo://app?vid=87a5bed0-aef1-423b-bd85-fe44fdeeb863"},"vehicle_type_id":"4","last_reported":1737915048,"current_range_meters":34000,"station_id":"ce4bhr92rcd13ifvqhsg","pricing_plan_id":"cebpf4jnsgd1na2vs0mg"},{"bike_id":"9b2d194b-f0b2-45b2-bd44-a2f9329bed47","system_id":"levelo_inurba_marseille","lat":43.29783,"lon":5.38143,"is_reserved":false,"is_disabled":false,"rental_uris":{"android":"levelo://app?vid=9b2d194b-f0b2-45b2-bd44-a2f9329bed47","ios":"levelo://app?vid=9b2d194b-f0b2-45b2-bd44-a2f9329bed47"},"vehicle_type_id":"4","last_reported":1737915048,"current_range_meters":30000,"station_id":"ce4bgip2rcd13ifvqbb0","pricing_plan_id":"cebpf4jnsgd1na2vs0mg"},{"bike_id":"5c15f1a0-f3a9-4acd-b448-15018003ef2e","system_id":"levelo_inurba_marseille","lat":43.32535,"lon":5.41465,"is_reserved":false,"is_disabled":true,"rental_uris":{"android":"levelo://app?vid=5c15f1a0-f3a9-4acd-b448-15018003ef2e","ios":"levelo://app?vid=5c15f1a0-f3a9-4acd-b448-15018003ef2e"},"vehicle_type_id":"4","last_reported":1737915048,"current_range_meters":28000,"station_id":"ce4bhq12rcd13ifvqhhg","pricing_plan_id":"cebpf4jnsgd1na2vs0mg"},{"bike_id":"6e734e15-2ab8-4eec-82a8-7534605f2aec","system_id":"levelo_inurba_marseille","lat":43.29543,"lon":5.39041,"is_reserved":false,"is_disabled":true,"rental_uris":{"android":"levelo://app?vid=6e734e15-2ab8-4eec-82a8-7534605f2aec","ios":"levelo://app?vid=6e734e15-2ab8-4eec-82a8-7534605f2aec"},"vehicle_type_id":"4","last_reported":1737915048,"current_range_meters":19200,"station_id":"ce4bh3p2rcd13ifvqdp0","pricing_plan_id":"cebpf4jnsgd1na2vs0mg"},{"bike_id":"c3b7ecf4-9a99-4d88-b6e0-5c5a1662695f","system_id":"levelo_inurba_marseille","lat":43.27813,"lon":5.40715,"is_reserved":false,"is_disabled":false,"rental_uris":{"android":"levelo://app?vid=c3b7ecf4-9a99-4d88-b6e0-5c5a1662695f","ios":"levelo://app?vid=c3b7ecf4-9a99-4d88-b6e0-5c5a1662695f"},"vehicle_type_id":"4","last_reported":1737915048,"current_range_meters":30800,"station_id":"ce4bhnh2rcd13ifvqgtg","pricing_plan_id":"cebpf4jnsgd1na2vs0mg"},{"bike_id":"b2a6f4ce-e5e6-4b95-91b9-5cf515000dc6","system_id":"levelo_inurba_marseille","lat":43.31279,"lon":5.40173,"is_reserved":false,"is_disabled":true,"rental_uris":{"android":"levelo://app?vid=b2a6f4ce-e5e6-4b95-91b9-5cf515000dc6","ios":"levelo://app?vid=b2a6f4ce-e5e6-4b95-91b9-5cf515000dc6"},"vehicle_type_id":"4","last_reported":1737915048,"current_range_meters":22000,"station_id":"ce4bh092rcd13ifvqd30","pricing_plan_id":"cebpf4jnsgd1na2vs0mg"},{"bike_id":"bf1a07ea-0fc5-4696-a1db-1309679a15aa","system_id":"levelo_inurba_marseille","lat":43.33737,"lon":5.39192,"is_reserved":false,"is_disabled":false,"rental_uris":{"android":"levelo://app?vid=bf1a07ea-0fc5-4696-a1db-1309679a15aa","ios":"levelo://app?vid=bf1a07ea-0fc5-4696-a1db-1309679a15aa"},"vehicle_type_id":"4","last_reported":1737915048,"current_range_meters":38800,"station_id":"ce4bhr92rcd13ifvqhsg","pricing_plan_id":"cebpf4jnsgd1na2vs0mg"},{"bike_id":"73fa204b-2e6b-46ed-9cc9-5ee851430ebd","system_id":"levelo_inurba_marseille","lat":43.2679,"lon":5.39415,"is_reserved":false,"is_disabled":false,"rental_uris":{"android":"levelo://app?vid=73fa204b-2e6b-46ed-9cc9-5ee851430ebd","ios":"levelo://app?vid=73fa204b-2e6b-46ed-9cc9-5ee851430ebd"},"vehicle_type_id":"4","last_reported":1737915048,"current_range_meters":13600,"station_id":"ce4bhh12rcd13ifvqfg0","pricing_plan_id":"cebpf4jnsgd1na2vs0mg"},{"bike_id":"892230f3-5780-4161-b516-93422b4640f6","system_id":"levelo_inurba_marseille","lat":43.32657,"lon":5.40997,"is_reserved":false,"is_disabled":false,"rental_uris":{"android":"levelo://app?vid=892230f3-5780-4161-b516-93422b4640f6","ios":"levelo://app?vid=892230f3-5780-4161-b516-93422b4640f6"},"vehicle_type_id":"4","last_reported":1737915048,"current_range_meters":38800,"station_id":"ce4bhpp2rcd13ifvqhgg","pricing_plan_id":"cebpf4jnsgd1na2vs0mg"},{"bike_id":"6917a016-fa2f-4726-952b-ffe1167166a3","system_id":"levelo_inurba_marseille","lat":43.260635,"lon":5.393916,"is_reserved":false,"is_disabled":true,"rental_uris":{"android":"levelo://app?vid=6917a016-fa2f-4726-952b-ffe1167166a3","ios":"levelo://app?vid=6917a016-fa2f-4726-952b-ffe1167166a3"},"vehicle_type_id":"4","last_reported":1737915048,"current_range_meters":0,"station_id":"ce4bhh92rcd13ifvqfj0","pricing_plan_id":"cebpf4jnsgd1na2vs0mg"},{"bike_id":"acf4cec9-04b2-432c-83ba-19cc7ebac443","system_id":"levelo_inurba_marseille","lat":43.29012,"lon":5.38136,"is_reserved":false,"is_disabled":true,"rental_uris":{"android":"levelo://app?vid=acf4cec9-04b2-432c-83ba-19cc7ebac443","ios":"levelo://app?vid=acf4cec9-04b2-432c-83ba-19cc7ebac443"},"vehicle_type_id":"4","last_reported":1737915048,"current_range_meters":26800,"station_id":"ce4bh4p2rcd13ifvqe1g","pricing_plan_id":"cebpf4jnsgd1na2vs0mg"},{"bike_id":"c4e2c490-cf40-402e-bebc-1ab39352cd5f","system_id":"levelo_inurba_marseille","lat":43.27792,"lon":5.40712,"is_reserved":false,"is_disabled":false,"rental_uris":{"android":"levelo://app?vid=c4e2c490-cf40-402e-bebc-1ab39352cd5f","ios":"levelo://app?vid=c4e2c490-cf40-402e-bebc-1ab39352cd5f"},"vehicle_type_id":"4","last_reported":1737915048,"current_range_meters":39200,"station_id":"ce4bhnh2rcd13ifvqgtg","pricing_plan_id":"cebpf4jnsgd1na2vs0mg"},{"bike_id":"8a4fd9c1-126f-44bd-8919-7cf37f162b5e","system_id":"levelo_inurba_marseille","lat":43.28159,"lon":5.42633,"is_reserved":false,"is_disabled":false,"rental_uris":{"android":"levelo://app?vid=8a4fd9c1-126f-44bd-8919-7cf37f162b5e","ios":"levelo://app?vid=8a4fd9c1-126f-44bd-8919-7cf37f162b5e"},"vehicle_type_id":"4","last_reported":1737915048,"current_range_meters":34000,"station_id":"ce4bhnh2rcd13ifvqgug","pricing_plan_id":"cebpf4jnsgd1na2vs0mg"},{"bike_id":"fbb9d0a6-e86f-4e32-8806-2a3f9d350f06","system_id":"levelo_inurba_marseille","lat":43.32661,"lon":5.40995,"is_reserved":false,"is_disabled":false,"rental_uris":{"android":"levelo://app?vid=fbb9d0a6-e86f-4e32-8806-2a3f9d350f06","ios":"levelo://app?vid=fbb9d0a6-e86f-4e32-8806-2a3f9d350f06"},"vehicle_type_id":"4","last_reported":1737915048,"current_range_meters":20000,"station_id":"ce4bhpp2rcd13ifvqhgg","pricing_plan_id":"cebpf4jnsgd1na2vs0mg"},{"bike_id":"02a65308-936d-4187-b4db-c0afc2d3e10c","system_id":"levelo_inurba_marseille","lat":43.25929,"lon":5.40897,"is_reserved":false,"is_disabled":false,"rental_uris":{"android":"levelo://app?vid=02a65308-936d-4187-b4db-c0afc2d3e10c","ios":"levelo://app?vid=02a65308-936d-4187-b4db-c0afc2d3e10c"},"vehicle_type_id":"4","last_reported":1737915048,"current_range_meters":38800,"station_id":"ce4bhm92rcd13ifvqglg","pricing_plan_id":"cebpf4jnsgd1na2vs0mg"},{"bike_id":"1b7156cb-c2ae-4362-bf6a-1375e0cefede","system_id":"levelo_inurba_marseille","lat":43.31716,"lon":5.43712,"is_reserved":false,"is_disabled":false,"rental_uris":{"android":"levelo://app?vid=1b7156cb-c2ae-4362-bf6a-1375e0cefede","ios":"levelo://app?vid=1b7156cb-c2ae-4362-bf6a-1375e0cefede"},"vehicle_type_id":"4","last_reported":1737915048,"current_range_meters":12400,"station_id":"ce4bhp92rcd13ifvqhcg","pricing_plan_id":"cebpf4jnsgd1na2vs0mg"},{"bike_id":"e74219f8-874b-4efd-899c-65c0b0a9210f","system_id":"levelo_inurba_marseille","lat":43.30881,"lon":5.39629,"is_reserved":false,"is_disabled":false,"rental_uris":{"android":"levelo://app?vid=e74219f8-874b-4efd-899c-65c0b0a9210f","ios":"levelo://app?vid=e74219f8-874b-4efd-899c-65c0b0a9210f"},"vehicle_type_id":"4","last_reported":1737915048,"current_range_meters":27200,"station_id":"ce4bh012rcd13ifvqcv0","pricing_plan_id":"cebpf4jnsgd1na2vs0mg"},{"bike_id":"a8ebf96a-72c6-49a1-9891-ec74b107e794","system_id":"levelo_inurba_marseille","lat":43.23194,"lon":5.35547,"is_reserved":false,"is_disabled":false,"rental_uris":{"android":"levelo://app?vid=a8ebf96a-72c6-49a1-9891-ec74b107e794","ios":"levelo://app?vid=a8ebf96a-72c6-49a1-9891-ec74b107e794"},"vehicle_type_id":"4","last_reported":1737915048,"current_range_meters":16000,"station_id":"ce4bhu92rcd13ifvqi70","pricing_plan_id":"cebpf4jnsgd1na2vs0mg"},{"bike_id":"9a087887-14d9-4e87-a610-ab92d5bb4db4","system_id":"levelo_inurba_marseille","lat":43.26785,"lon":5.39409,"is_reserved":false,"is_disabled":false,"rental_uris":{"android":"levelo://app?vid=9a087887-14d9-4e87-a610-ab92d5bb4db4","ios":"levelo://app?vid=9a087887-14d9-4e87-a610-ab92d5bb4db4"},"vehicle_type_id":"4","last_reported":1737915048,"current_range_meters":17200,"station_id":"ce4bhh12rcd13ifvqfg0","pricing_plan_id":"cebpf4jnsgd1na2vs0mg"},{"bike_id":"e9bc701b-86ce-45d6-bb9e-c295f6ce732c","system_id":"levelo_inurba_marseille","lat":43.30655,"lon":5.40103,"is_reserved":false,"is_disabled":true,"rental_uris":{"android":"levelo://app?vid=e9bc701b-86ce-45d6-bb9e-c295f6ce732c","ios":"levelo://app?vid=e9bc701b-86ce-45d6-bb9e-c295f6ce732c"},"vehicle_type_id":"4","last_reported":1737915048,"current_range_meters":34000,"station_id":"ce4bh112rcd13ifvqda0","pricing_plan_id":"cebpf4jnsgd1na2vs0mg"},{"bike_id":"ebbb6dd1-ea2a-4b9e-a0fd-f2fc38df1042","system_id":"levelo_inurba_marseille","lat":43.25002,"lon":5.38938,"is_reserved":false,"is_disabled":true,"rental_uris":{"android":"levelo://app?vid=ebbb6dd1-ea2a-4b9e-a0fd-f2fc38df1042","ios":"levelo://app?vid=ebbb6dd1-ea2a-4b9e-a0fd-f2fc38df1042"},"vehicle_type_id":"4","last_reported":1737915048,"current_range_meters":38800,"station_id":"ce4bhgp2rcd13ifvqfd0","pricing_plan_id":"cebpf4jnsgd1na2vs0mg"},{"bike_id":"4aa7106c-b8f2-4762-8af2-d1b612bb5451","system_id":"levelo_inurba_marseille","lat":43.28471,"lon":5.38434,"is_reserved":false,"is_disabled":false,"rental_uris":{"android":"levelo://app?vid=4aa7106c-b8f2-4762-8af2-d1b612bb5451","ios":"levelo://app?vid=4aa7106c-b8f2-4762-8af2-d1b612bb5451"},"vehicle_type_id":"4","last_reported":1737915048,"current_range_meters":32400,"station_id":"ce4bh512rcd13ifvqe3g","pricing_plan_id":"cebpf4jnsgd1na2vs0mg"},{"bike_id":"f44b379e-b951-4e17-9fa5-429062e4f0fd","system_id":"levelo_inurba_marseille","lat":43.29062,"lon":5.37153,"is_reserved":false,"is_disabled":false,"rental_uris":{"android":"levelo://app?vid=f44b379e-b951-4e17-9fa5-429062e4f0fd","ios":"levelo://app?vid=f44b379e-b951-4e17-9fa5-429062e4f0fd"},"vehicle_type_id":"4","last_reported":1737915048,"current_range_meters":33600,"station_id":"ce4bh5p2rcd13ifvqe4g","pricing_plan_id":"cebpf4jnsgd1na2vs0mg"},{"bike_id":"e09bd7b9-d9f9-4ea1-806b-8029853de018","system_id":"levelo_inurba_marseille","lat":43.30432,"lon":5.39755,"is_reserved":false,"is_disabled":false,"rental_uris":{"android":"levelo://app?vid=e09bd7b9-d9f9-4ea1-806b-8029853de018","ios":"levelo://app?vid=e09bd7b9-d9f9-4ea1-806b-8029853de018"},"vehicle_type_id":"4","last_reported":1737915048,"current_range_meters":34000,"station_id":"ce4bh092rcd13ifvqd20","pricing_plan_id":"cebpf4jnsgd1na2vs0mg"},{"bike_id":"8327f4d0-3e74-46fd-8561-aa12a4ed8bd6","system_id":"levelo_inurba_marseille","lat":43.29011,"lon":5.38133,"is_reserved":false,"is_disabled":false,"rental_uris":{"android":"levelo://app?vid=8327f4d0-3e74-46fd-8561-aa12a4ed8bd6","ios":"levelo://app?vid=8327f4d0-3e74-46fd-8561-aa12a4ed8bd6"},"vehicle_type_id":"4","last_reported":1737915048,"current_range_meters":39200,"station_id":"ce4bh4p2rcd13ifvqe1g","pricing_plan_id":"cebpf4jnsgd1na2vs0mg"},{"bike_id":"11c0235b-a37f-4514-82d0-bffaa712f68a","system_id":"levelo_inurba_marseille","lat":43.288592,"lon":5.358681,"is_reserved":false,"is_disabled":false,"rental_uris":{"android":"levelo://app?vid=11c0235b-a37f-4514-82d0-bffaa712f68a","ios":"levelo://app?vid=11c0235b-a37f-4514-82d0-bffaa712f68a"},"vehicle_type_id":"4","last_reported":1737915048,"current_range_meters":38800,"station_id":"ce4bhb12rcd13ifvqem0","pricing_plan_id":"cebpf4jnsgd1na2vs0mg"},{"bike_id":"742b075e-5a66-4e2f-9ba1-2d871f2cf5f7","system_id":"levelo_inurba_marseille","lat":43.298078,"lon":5.381084,"is_reserved":false,"is_disabled":true,"rental_uris":{"android":"levelo://app?vid=742b075e-5a66-4e2f-9ba1-2d871f2cf5f7","ios":"levelo://app?vid=742b075e-5a66-4e2f-9ba1-2d871f2cf5f7"},"vehicle_type_id":"4","last_reported":1737915048,"current_range_meters":2800,"station_id":"ce4bgip2rcd13ifvqbb0","pricing_plan_id":"cebpf4jnsgd1na2vs0mg"},{"bike_id":"6f20f9a6-b786-4af4-81af-ba59be1217ef","system_id":"levelo_inurba_marseille","lat":43.31997,"lon":5.3816,"is_reserved":false,"is_disabled":false,"rental_uris":{"android":"levelo://app?vid=6f20f9a6-b786-4af4-81af-ba59be1217ef","ios":"levelo://app?vid=6f20f9a6-b786-4af4-81af-ba59be1217ef"},"vehicle_type_id":"4","last_reported":1737915048,"current_range_meters":36800,"station_id":"ce4bhr12rcd13ifvqhpg","pricing_plan_id":"cebpf4jnsgd1na2vs0mg"},{"bike_id":"2df2f137-64f2-424b-bec1-88d3bf0fc61d","system_id":"levelo_inurba_marseille","lat":43.28355,"lon":5.38101,"is_reserved":false,"is_disabled":false,"rental_uris":{"android":"levelo://app?vid=2df2f137-64f2-424b-bec1-88d3bf0fc61d","ios":"levelo://app?vid=2df2f137-64f2-424b-bec1-88d3bf0fc61d"},"vehicle_type_id":"4","last_reported":1737915048,"current_range_meters":8400,"station_id":"ce4bh412rcd13ifvqdr0","pricing_plan_id":"cebpf4jnsgd1na2vs0mg"},{"bike_id":"9ee46665-2843-4a88-9daf-1828cdbf5ffc","system_id":"levelo_inurba_marseille","lat":43.29299,"lon":5.37454,"is_reserved":false,"is_disabled":false,"rental_uris":{"android":"levelo://app?vid=9ee46665-2843-4a88-9daf-1828cdbf5ffc","ios":"levelo://app?vid=9ee46665-2843-4a88-9daf-1828cdbf5ffc"},"vehicle_type_id":"4","last_reported":1737915048,"current_range_meters":5600,"station_id":"ce4bgi12rcd13ifvqb70","pricing_plan_id":"cebpf4jnsgd1na2vs0mg"},{"bike_id":"a3a6fa22-9b71-4e4d-a4fb-6eb8e6097881","system_id":"levelo_inurba_marseille","lat":43.23194,"lon":5.35552,"is_reserved":false,"is_disabled":false,"rental_uris":{"android":"levelo://app?vid=a3a6fa22-9b71-4e4d-a4fb-6eb8e6097881","ios":"levelo://app?vid=a3a6fa22-9b71-4e4d-a4fb-6eb8e6097881"},"vehicle_type_id":"4","last_reported":1737915048,"current_range_meters":24000,"station_id":"ce4bhu92rcd13ifvqi70","pricing_plan_id":"cebpf4jnsgd1na2vs0mg"},{"bike_id":"bf5c8c51-e749-4f8a-9834-608f1bdc21c4","system_id":"levelo_inurba_marseille","lat":43.29791,"lon":5.38077,"is_reserved":false,"is_disabled":false,"rental_uris":{"android":"levelo://app?vid=bf5c8c51-e749-4f8a-9834-608f1bdc21c4","ios":"levelo://app?vid=bf5c8c51-e749-4f8a-9834-608f1bdc21c4"},"vehicle_type_id":"4","last_reported":1737915048,"current_range_meters":11200,"station_id":"ce4bgip2rcd13ifvqbb0","pricing_plan_id":"cebpf4jnsgd1na2vs0mg"},{"bike_id":"85acaf6b-0cba-4e1d-ad92-fc11753d654b","system_id":"levelo_inurba_marseille","lat":43.28898,"lon":5.45445,"is_reserved":false,"is_disabled":false,"rental_uris":{"android":"levelo://app?vid=85acaf6b-0cba-4e1d-ad92-fc11753d654b","ios":"levelo://app?vid=85acaf6b-0cba-4e1d-ad92-fc11753d654b"},"vehicle_type_id":"4","last_reported":1737915048,"current_range_meters":11200,"station_id":"","pricing_plan_id":"cebpf4jnsgd1na2vs0mg"},{"bike_id":"d54e7416-9133-47cb-bc55-3d590b1f98b8","system_id":"levelo_inurba_marseille","lat":43.28654,"lon":5.36357,"is_reserved":false,"is_disabled":true,"rental_uris":{"android":"levelo://app?vid=d54e7416-9133-47cb-bc55-3d590b1f98b8","ios":"levelo://app?vid=d54e7416-9133-47cb-bc55-3d590b1f98b8"},"vehicle_type_id":"4","last_reported":1737915048,"current_range_meters":0,"station_id":"ce4bhah2rcd13ifvqej0","pricing_plan_id":"cebpf4jnsgd1na2vs0mg"},{"bike_id":"f50c99f6-d9ef-4353-96c0-f0ed3401e807","system_id":"levelo_inurba_marseille","lat":43.2464,"lon":5.38917,"is_reserved":false,"is_disabled":false,"rental_uris":{"android":"levelo://app?vid=f50c99f6-d9ef-4353-96c0-f0ed3401e807","ios":"levelo://app?vid=f50c99f6-d9ef-4353-96c0-f0ed3401e807"},"vehicle_type_id":"4","last_reported":1737915048,"current_range_meters":23200,"station_id":"ce4bhg12rcd13ifvqf60","pricing_plan_id":"cebpf4jnsgd1na2vs0mg"},{"bike_id":"0ba01e9c-cd09-4f59-a64b-54e47a500c4d","system_id":"levelo_inurba_marseille","lat":43.31172,"lon":5.3872,"is_reserved":false,"is_disabled":false,"rental_uris":{"android":"levelo://app?vid=0ba01e9c-cd09-4f59-a64b-54e47a500c4d","ios":"levelo://app?vid=0ba01e9c-cd09-4f59-a64b-54e47a500c4d"},"vehicle_type_id":"4","last_reported":1737915048,"current_range_meters":30400,"station_id":"ce4bgv12rcd13ifvqcp0","pricing_plan_id":"cebpf4jnsgd1na2vs0mg"},{"bike_id":"e7b5364d-47e7-45d1-bfb6-e29107864918","system_id":"levelo_inurba_marseille","lat":43.29871,"lon":5.43637,"is_reserved":false,"is_disabled":false,"rental_uris":{"android":"levelo://app?vid=e7b5364d-47e7-45d1-bfb6-e29107864918","ios":"levelo://app?vid=e7b5364d-47e7-45d1-bfb6-e29107864918"},"vehicle_type_id":"4","last_reported":1737915048,"current_range_meters":8400,"station_id":"ce4bhpp2rcd13ifvqhfg","pricing_plan_id":"cebpf4jnsgd1na2vs0mg"},{"bike_id":"d3d7fdd5-e8ab-4079-a57f-52fbae4a9d26","system_id":"levelo_inurba_marseille","lat":43.28439,"lon":5.39184,"is_reserved":false,"is_disabled":false,"rental_uris":{"android":"levelo://app?vid=d3d7fdd5-e8ab-4079-a57f-52fbae4a9d26","ios":"levelo://app?vid=d3d7fdd5-e8ab-4079-a57f-52fbae4a9d26"},"vehicle_type_id":"4","last_reported":1737915048,"current_range_meters":16400,"station_id":"ce4bhoh2rcd13ifvqh5g","pricing_plan_id":"cebpf4jnsgd1na2vs0mg"},{"bike_id":"1c35c755-8b1c-439e-8798-f1a001a3969d","system_id":"levelo_inurba_marseille","lat":43.28103,"lon":5.37836,"is_reserved":false,"is_disabled":true,"rental_uris":{"android":"levelo://app?vid=1c35c755-8b1c-439e-8798-f1a001a3969d","ios":"levelo://app?vid=1c35c755-8b1c-439e-8798-f1a001a3969d"},"vehicle_type_id":"4","last_reported":1737915048,"current_range_meters":0,"station_id":"ce4bha12rcd13ifvqee0","pricing_plan_id":"cebpf4jnsgd1na2vs0mg"},{"bike_id":"822fbce3-312d-4c4e-afee-3dff6f874ef6","system_id":"levelo_inurba_marseille","lat":43.32334,"lon":5.4062,"is_reserved":false,"is_disabled":false,"rental_uris":{"android":"levelo://app?vid=822fbce3-312d-4c4e-afee-3dff6f874ef6","ios":"levelo://app?vid=822fbce3-312d-4c4e-afee-3dff6f874ef6"},"vehicle_type_id":"4","last_reported":1737915048,"current_range_meters":11600,"station_id":"ce4bhq92rcd13ifvqhjg","pricing_plan_id":"cebpf4jnsgd1na2vs0mg"},{"bike_id":"89ba57ad-c77e-4723-89e1-d3b215ed1c1e","system_id":"levelo_inurba_marseille","lat":43.29263,"lon":5.3845,"is_reserved":false,"is_disabled":false,"rental_uris":{"android":"levelo://app?vid=89ba57ad-c77e-4723-89e1-d3b215ed1c1e","ios":"levelo://app?vid=89ba57ad-c77e-4723-89e1-d3b215ed1c1e"},"vehicle_type_id":"4","last_reported":1737915048,"current_range_meters":34800,"station_id":"ce4bh692rcd13ifvqea0","pricing_plan_id":"cebpf4jnsgd1na2vs0mg"},{"bike_id":"884f4337-debb-4f4e-9ffb-854d7bf11416","system_id":"levelo_inurba_marseille","lat":43.3166,"lon":5.38972,"is_reserved":false,"is_disabled":false,"rental_uris":{"android":"levelo://app?vid=884f4337-debb-4f4e-9ffb-854d7bf11416","ios":"levelo://app?vid=884f4337-debb-4f4e-9ffb-854d7bf11416"},"vehicle_type_id":"4","last_reported":1737915048,"current_range_meters":37600,"station_id":"","pricing_plan_id":"cebpf4jnsgd1na2vs0mg"},{"bike_id":"11af9af6-380c-4ec4-a128-d18624f14261","system_id":"levelo_inurba_marseille","lat":43.27994,"lon":5.40007,"is_reserved":false,"is_disabled":false,"rental_uris":{"android":"levelo://app?vid=11af9af6-380c-4ec4-a128-d18624f14261","ios":"levelo://app?vid=11af9af6-380c-4ec4-a128-d18624f14261"},"vehicle_type_id":"4","last_reported":1737915048,"current_range_meters":8800,"station_id":"ce4bho92rcd13ifvqh4g","pricing_plan_id":"cebpf4jnsgd1na2vs0mg"},{"bike_id":"0f05df1f-f0c1-4a2a-90b5-5c10161dc9c3","system_id":"levelo_inurba_marseille","lat":43.29591,"lon":5.381,"is_reserved":false,"is_disabled":false,"rental_uris":{"android":"levelo://app?vid=0f05df1f-f0c1-4a2a-90b5-5c10161dc9c3","ios":"levelo://app?vid=0f05df1f-f0c1-4a2a-90b5-5c10161dc9c3"},"vehicle_type_id":"4","last_reported":1737915048,"current_range_meters":37600,"station_id":"ce4bgl12rcd13ifvqbo0","pricing_plan_id":"cebpf4jnsgd1na2vs0mg"},{"bike_id":"b96c22ba-a4c6-4ca8-b881-a2a2972e9bc2","system_id":"levelo_inurba_marseille","lat":43.260235,"lon":5.375586,"is_reserved":false,"is_disabled":true,"rental_uris":{"android":"levelo://app?vid=b96c22ba-a4c6-4ca8-b881-a2a2972e9bc2","ios":"levelo://app?vid=b96c22ba-a4c6-4ca8-b881-a2a2972e9bc2"},"vehicle_type_id":"4","last_reported":1737915048,"current_range_meters":30800,"station_id":"ce4bhgh2rcd13ifvqfa0","pricing_plan_id":"cebpf4jnsgd1na2vs0mg"},{"bike_id":"3fafc658-10ef-4322-9c72-b1e3a6dbbf26","system_id":"levelo_inurba_marseille","lat":43.26035,"lon":5.37549,"is_reserved":false,"is_disabled":false,"rental_uris":{"android":"levelo://app?vid=3fafc658-10ef-4322-9c72-b1e3a6dbbf26","ios":"levelo://app?vid=3fafc658-10ef-4322-9c72-b1e3a6dbbf26"},"vehicle_type_id":"4","last_reported":1737915048,"current_range_meters":24800,"station_id":"ce4bhgh2rcd13ifvqfa0","pricing_plan_id":"cebpf4jnsgd1na2vs0mg"},{"bike_id":"27e9ed6a-8bc6-4409-a393-30f180d9892b","system_id":"levelo_inurba_marseille","lat":43.25701,"lon":5.41118,"is_reserved":false,"is_disabled":false,"rental_uris":{"android":"levelo://app?vid=27e9ed6a-8bc6-4409-a393-30f180d9892b","ios":"levelo://app?vid=27e9ed6a-8bc6-4409-a393-30f180d9892b"},"vehicle_type_id":"4","last_reported":1737915048,"current_range_meters":24000,"station_id":"ce4bhkp2rcd13ifvqgd0","pricing_plan_id":"cebpf4jnsgd1na2vs0mg"},{"bike_id":"300616c0-4258-4bf0-b507-0a2f6c5162f3","system_id":"levelo_inurba_marseille","lat":43.29519,"lon":5.39389,"is_reserved":false,"is_disabled":false,"rental_uris":{"android":"levelo://app?vid=300616c0-4258-4bf0-b507-0a2f6c5162f3","ios":"levelo://app?vid=300616c0-4258-4bf0-b507-0a2f6c5162f3"},"vehicle_type_id":"4","last_reported":1737915048,"current_range_meters":38800,"station_id":"ce4bh292rcd13ifvqdf0","pricing_plan_id":"cebpf4jnsgd1na2vs0mg"},{"bike_id":"dcb50635-0e5e-4da9-b4df-329e73a63f8f","system_id":"levelo_inurba_marseille","lat":43.24183,"lon":5.39739,"is_reserved":false,"is_disabled":false,"rental_uris":{"android":"levelo://app?vid=dcb50635-0e5e-4da9-b4df-329e73a63f8f","ios":"levelo://app?vid=dcb50635-0e5e-4da9-b4df-329e73a63f8f"},"vehicle_type_id":"4","last_reported":1737915048,"current_range_meters":26800,"station_id":"ce4bhn12rcd13ifvqgpg","pricing_plan_id":"cebpf4jnsgd1na2vs0mg"},{"bike_id":"98a2cb10-0f11-4a3f-b5c2-fb63add72da7","system_id":"levelo_inurba_marseille","lat":43.23198,"lon":5.35546,"is_reserved":false,"is_disabled":false,"rental_uris":{"android":"levelo://app?vid=98a2cb10-0f11-4a3f-b5c2-fb63add72da7","ios":"levelo://app?vid=98a2cb10-0f11-4a3f-b5c2-fb63add72da7"},"vehicle_type_id":"4","last_reported":1737915048,"current_range_meters":28400,"station_id":"ce4bhu92rcd13ifvqi70","pricing_plan_id":"cebpf4jnsgd1na2vs0mg"},{"bike_id":"1346ff93-9ddb-4093-aa5d-b6cb09dfef3c","system_id":"levelo_inurba_marseille","lat":43.28498,"lon":5.36818,"is_reserved":false,"is_disabled":true,"rental_uris":{"android":"levelo://app?vid=1346ff93-9ddb-4093-aa5d-b6cb09dfef3c","ios":"levelo://app?vid=1346ff93-9ddb-4093-aa5d-b6cb09dfef3c"},"vehicle_type_id":"4","last_reported":1737915048,"current_range_meters":0,"station_id":"","pricing_plan_id":"cebpf4jnsgd1na2vs0mg"},{"bike_id":"2a179953-ee01-424f-9a6c-dfca1356a0f1","system_id":"levelo_inurba_marseille","lat":43.32037,"lon":5.41535,"is_reserved":false,"is_disabled":false,"rental_uris":{"android":"levelo://app?vid=2a179953-ee01-424f-9a6c-dfca1356a0f1","ios":"levelo://app?vid=2a179953-ee01-424f-9a6c-dfca1356a0f1"},"vehicle_type_id":"4","last_reported":1737915048,"current_range_meters":38000,"station_id":"ce4bhq92rcd13ifvqhkg","pricing_plan_id":"cebpf4jnsgd1na2vs0mg"},{"bike_id":"9ad8a958-4bec-4694-b030-6bb762c93a2e","system_id":"levelo_inurba_marseille","lat":43.29027,"lon":5.38627,"is_reserved":false,"is_disabled":false,"rental_uris":{"android":"levelo://app?vid=9ad8a958-4bec-4694-b030-6bb762c93a2e","ios":"levelo://app?vid=9ad8a958-4bec-4694-b030-6bb762c93a2e"},"vehicle_type_id":"4","last_reported":1737915048,"current_range_meters":32400,"station_id":"ce4bh4p2rcd13ifvqe0g","pricing_plan_id":"cebpf4jnsgd1na2vs0mg"},{"bike_id":"7c3a1add-fa1a-44e9-b210-58865ab9c863","system_id":"levelo_inurba_marseille","lat":43.32107,"lon":5.3678,"is_reserved":false,"is_disabled":false,"rental_uris":{"android":"levelo://app?vid=7c3a1add-fa1a-44e9-b210-58865ab9c863","ios":"levelo://app?vid=7c3a1add-fa1a-44e9-b210-58865ab9c863"},"vehicle_type_id":"4","last_reported":1737915048,"current_range_meters":28000,"station_id":"ce4bhrh2rcd13ifvqhug","pricing_plan_id":"cebpf4jnsgd1na2vs0mg"},{"bike_id":"5658bf19-5e40-4edf-ac7a-3999a5207afd","system_id":"levelo_inurba_marseille","lat":43.232013,"lon":5.35551,"is_reserved":false,"is_disabled":false,"rental_uris":{"android":"levelo://app?vid=5658bf19-5e40-4edf-ac7a-3999a5207afd","ios":"levelo://app?vid=5658bf19-5e40-4edf-ac7a-3999a5207afd"},"vehicle_type_id":"4","last_reported":1737915048,"current_range_meters":38800,"station_id":"ce4bhu92rcd13ifvqi70","pricing_plan_id":"cebpf4jnsgd1na2vs0mg"},{"bike_id":"b01b0706-3a3a-4ff1-ac0d-6b17e48eff7a","system_id":"levelo_inurba_marseille","lat":43.23191,"lon":5.35539,"is_reserved":false,"is_disabled":false,"rental_uris":{"android":"levelo://app?vid=b01b0706-3a3a-4ff1-ac0d-6b17e48eff7a","ios":"levelo://app?vid=b01b0706-3a3a-4ff1-ac0d-6b17e48eff7a"},"vehicle_type_id":"4","last_reported":1737915048,"current_range_meters":38800,"station_id":"ce4bhu92rcd13ifvqi70","pricing_plan_id":"cebpf4jnsgd1na2vs0mg"},{"bike_id":"bf02afe0-4db7-4a43-b4f6-60c339871bae","system_id":"levelo_inurba_marseille","lat":43.30575,"lon":5.39781,"is_reserved":false,"is_disabled":false,"rental_uris":{"android":"levelo://app?vid=bf02afe0-4db7-4a43-b4f6-60c339871bae","ios":"levelo://app?vid=bf02afe0-4db7-4a43-b4f6-60c339871bae"},"vehicle_type_id":"4","last_reported":1737915048,"current_range_meters":20800,"station_id":"","pricing_plan_id":"cebpf4jnsgd1na2vs0mg"},{"bike_id":"68bee2d9-0b1d-4393-b8ac-588ed9332d94","system_id":"levelo_inurba_marseille","lat":43.2843,"lon":5.37529,"is_reserved":false,"is_disabled":false,"rental_uris":{"android":"levelo://app?vid=68bee2d9-0b1d-4393-b8ac-588ed9332d94","ios":"levelo://app?vid=68bee2d9-0b1d-4393-b8ac-588ed9332d94"},"vehicle_type_id":"4","last_reported":1737915048,"current_range_meters":34800,"station_id":"ce4bh412rcd13ifvqds0","pricing_plan_id":"cebpf4jnsgd1na2vs0mg"},{"bike_id":"1df39e0a-209d-4620-8399-9d79536882d8","system_id":"levelo_inurba_marseille","lat":43.29558,"lon":5.42298,"is_reserved":false,"is_disabled":false,"rental_uris":{"android":"levelo://app?vid=1df39e0a-209d-4620-8399-9d79536882d8","ios":"levelo://app?vid=1df39e0a-209d-4620-8399-9d79536882d8"},"vehicle_type_id":"4","last_reported":1737915048,"current_range_meters":38000,"station_id":"ce4bhph2rcd13ifvqhdg","pricing_plan_id":"cebpf4jnsgd1na2vs0mg"},{"bike_id":"82268c69-bcd8-49fb-91ea-6277b4711aa7","system_id":"levelo_inurba_marseille","lat":43.25555,"lon":5.39783,"is_reserved":false,"is_disabled":false,"rental_uris":{"android":"levelo://app?vid=82268c69-bcd8-49fb-91ea-6277b4711aa7","ios":"levelo://app?vid=82268c69-bcd8-49fb-91ea-6277b4711aa7"},"vehicle_type_id":"4","last_reported":1737915048,"current_range_meters":28800,"station_id":"","pricing_plan_id":"cebpf4jnsgd1na2vs0mg"},{"bike_id":"0d3c1f8e-f3ff-4b52-9c15-4c6b44271f77","system_id":"levelo_inurba_marseille","lat":43.29786,"lon":5.38129,"is_reserved":false,"is_disabled":false,"rental_uris":{"android":"levelo://app?vid=0d3c1f8e-f3ff-4b52-9c15-4c6b44271f77","ios":"levelo://app?vid=0d3c1f8e-f3ff-4b52-9c15-4c6b44271f77"},"vehicle_type_id":"4","last_reported":1737915048,"current_range_meters":12400,"station_id":"ce4bgip2rcd13ifvqbb0","pricing_plan_id":"cebpf4jnsgd1na2vs0mg"},{"bike_id":"cb7c56ed-ebfd-44a2-9f32-00143dc4a242","system_id":"levelo_inurba_marseille","lat":43.305363,"lon":5.36711,"is_reserved":false,"is_disabled":false,"rental_uris":{"android":"levelo://app?vid=cb7c56ed-ebfd-44a2-9f32-00143dc4a242","ios":"levelo://app?vid=cb7c56ed-ebfd-44a2-9f32-00143dc4a242"},"vehicle_type_id":"4","last_reported":1737915048,"current_range_meters":25200,"station_id":"ce4bgrp2rcd13ifvqc9g","pricing_plan_id":"cebpf4jnsgd1na2vs0mg"},{"bike_id":"0ef4ad59-884d-41e9-b12e-a1b3fcf64523","system_id":"levelo_inurba_marseille","lat":43.31704,"lon":5.37761,"is_reserved":false,"is_disabled":false,"rental_uris":{"android":"levelo://app?vid=0ef4ad59-884d-41e9-b12e-a1b3fcf64523","ios":"levelo://app?vid=0ef4ad59-884d-41e9-b12e-a1b3fcf64523"},"vehicle_type_id":"4","last_reported":1737915048,"current_range_meters":10000,"station_id":"ce4bgth2rcd13ifvqch0","pricing_plan_id":"cebpf4jnsgd1na2vs0mg"},{"bike_id":"79bc66a4-aeed-4eda-a560-099c58d7dbf9","system_id":"levelo_inurba_marseille","lat":43.31489,"lon":5.3731,"is_reserved":false,"is_disabled":true,"rental_uris":{"android":"levelo://app?vid=79bc66a4-aeed-4eda-a560-099c58d7dbf9","ios":"levelo://app?vid=79bc66a4-aeed-4eda-a560-099c58d7dbf9"},"vehicle_type_id":"4","last_reported":1737915048,"current_range_meters":12400,"station_id":"ce4bgt12rcd13ifvqcd0","pricing_plan_id":"cebpf4jnsgd1na2vs0mg"},{"bike_id":"10b1a047-be93-49dc-bba5-67085f222023","system_id":"levelo_inurba_marseille","lat":43.25578,"lon":5.38234,"is_reserved":false,"is_disabled":false,"rental_uris":{"android":"levelo://app?vid=10b1a047-be93-49dc-bba5-67085f222023","ios":"levelo://app?vid=10b1a047-be93-49dc-bba5-67085f222023"},"vehicle_type_id":"4","last_reported":1737915048,"current_range_meters":16000,"station_id":"ce4bhih2rcd13ifvqfs0","pricing_plan_id":"cebpf4jnsgd1na2vs0mg"},{"bike_id":"1cdc8618-e6a7-47cf-9699-441583927032","system_id":"levelo_inurba_marseille","lat":43.28479,"lon":5.38425,"is_reserved":false,"is_disabled":false,"rental_uris":{"android":"levelo://app?vid=1cdc8618-e6a7-47cf-9699-441583927032","ios":"levelo://app?vid=1cdc8618-e6a7-47cf-9699-441583927032"},"vehicle_type_id":"4","last_reported":1737915048,"current_range_meters":30800,"station_id":"ce4bh512rcd13ifvqe3g","pricing_plan_id":"cebpf4jnsgd1na2vs0mg"},{"bike_id":"a8c397d3-8de5-40ee-bdb1-43d63fbaed4f","system_id":"levelo_inurba_marseille","lat":43.27992,"lon":5.4002,"is_reserved":false,"is_disabled":false,"rental_uris":{"android":"levelo://app?vid=a8c397d3-8de5-40ee-bdb1-43d63fbaed4f","ios":"levelo://app?vid=a8c397d3-8de5-40ee-bdb1-43d63fbaed4f"},"vehicle_type_id":"4","last_reported":1737915048,"current_range_meters":38800,"station_id":"ce4bho92rcd13ifvqh4g","pricing_plan_id":"cebpf4jnsgd1na2vs0mg"},{"bike_id":"8d4a2c03-332c-43fc-94a2-34f34407062a","system_id":"levelo_inurba_marseille","lat":43.3247,"lon":5.3659,"is_reserved":false,"is_disabled":false,"rental_uris":{"android":"levelo://app?vid=8d4a2c03-332c-43fc-94a2-34f34407062a","ios":"levelo://app?vid=8d4a2c03-332c-43fc-94a2-34f34407062a"},"vehicle_type_id":"4","last_reported":1737915048,"current_range_meters":30400,"station_id":"ce4bhs12rcd13ifvqhvg","pricing_plan_id":"cebpf4jnsgd1na2vs0mg"},{"bike_id":"57823e25-308b-4f11-a2b6-a7f52902c1c5","system_id":"levelo_inurba_marseille","lat":43.30805,"lon":5.38126,"is_reserved":false,"is_disabled":true,"rental_uris":{"android":"levelo://app?vid=57823e25-308b-4f11-a2b6-a7f52902c1c5","ios":"levelo://app?vid=57823e25-308b-4f11-a2b6-a7f52902c1c5"},"vehicle_type_id":"4","last_reported":1737915048,"current_range_meters":17200,"station_id":"ce4bgt12rcd13ifvqce0","pricing_plan_id":"cebpf4jnsgd1na2vs0mg"},{"bike_id":"ff68af14-5554-4f8d-a3de-4549d987f602","system_id":"levelo_inurba_marseille","lat":43.2989,"lon":5.43657,"is_reserved":false,"is_disabled":false,"rental_uris":{"android":"levelo://app?vid=ff68af14-5554-4f8d-a3de-4549d987f602","ios":"levelo://app?vid=ff68af14-5554-4f8d-a3de-4549d987f602"},"vehicle_type_id":"4","last_reported":1737915048,"current_range_meters":8000,"station_id":"ce4bhpp2rcd13ifvqhfg","pricing_plan_id":"cebpf4jnsgd1na2vs0mg"},{"bike_id":"6b9e76ce-c8d2-4fdd-befe-1a5d2c8999c6","system_id":"levelo_inurba_marseille","lat":43.26054,"lon":5.39399,"is_reserved":false,"is_disabled":false,"rental_uris":{"android":"levelo://app?vid=6b9e76ce-c8d2-4fdd-befe-1a5d2c8999c6","ios":"levelo://app?vid=6b9e76ce-c8d2-4fdd-befe-1a5d2c8999c6"},"vehicle_type_id":"4","last_reported":1737915048,"current_range_meters":38800,"station_id":"ce4bhh92rcd13ifvqfj0","pricing_plan_id":"cebpf4jnsgd1na2vs0mg"},{"bike_id":"ee25d5d2-f881-48aa-bf79-393a8c083e86","system_id":"levelo_inurba_marseille","lat":43.29294,"lon":5.37456,"is_reserved":false,"is_disabled":true,"rental_uris":{"android":"levelo://app?vid=ee25d5d2-f881-48aa-bf79-393a8c083e86","ios":"levelo://app?vid=ee25d5d2-f881-48aa-bf79-393a8c083e86"},"vehicle_type_id":"4","last_reported":1737915048,"current_range_meters":1200,"station_id":"ce4bgi12rcd13ifvqb70","pricing_plan_id":"cebpf4jnsgd1na2vs0mg"},{"bike_id":"1e328aaf-06e5-4767-a395-a9b21576497f","system_id":"levelo_inurba_marseille","lat":43.29793,"lon":5.37074,"is_reserved":false,"is_disabled":true,"rental_uris":{"android":"levelo://app?vid=1e328aaf-06e5-4767-a395-a9b21576497f","ios":"levelo://app?vid=1e328aaf-06e5-4767-a395-a9b21576497f"},"vehicle_type_id":"4","last_reported":1737915048,"current_range_meters":17200,"station_id":"ce4bgop2rcd13ifvqc1g","pricing_plan_id":"cebpf4jnsgd1na2vs0mg"},{"bike_id":"f7c24e44-41c1-419d-a615-e051b3b900f2","system_id":"levelo_inurba_marseille","lat":43.29871,"lon":5.39731,"is_reserved":false,"is_disabled":false,"rental_uris":{"android":"levelo://app?vid=f7c24e44-41c1-419d-a615-e051b3b900f2","ios":"levelo://app?vid=f7c24e44-41c1-419d-a615-e051b3b900f2"},"vehicle_type_id":"4","last_reported":1737915048,"current_range_meters":16000,"station_id":"ce4bh0h2rcd13ifvqd50","pricing_plan_id":"cebpf4jnsgd1na2vs0mg"},{"bike_id":"105b052f-157b-4e7a-a129-56f35a257489","system_id":"levelo_inurba_marseille","lat":43.32345,"lon":5.36729,"is_reserved":false,"is_disabled":false,"rental_uris":{"android":"levelo://app?vid=105b052f-157b-4e7a-a129-56f35a257489","ios":"levelo://app?vid=105b052f-157b-4e7a-a129-56f35a257489"},"vehicle_type_id":"4","last_reported":1737915048,"current_range_meters":17600,"station_id":"ce4bhsh2rcd13ifvqi2g","pricing_plan_id":"cebpf4jnsgd1na2vs0mg"},{"bike_id":"86b498e3-784c-4315-9910-77930c320efa","system_id":"levelo_inurba_marseille","lat":43.28569,"lon":5.37149,"is_reserved":false,"is_disabled":false,"rental_uris":{"android":"levelo://app?vid=86b498e3-784c-4315-9910-77930c320efa","ios":"levelo://app?vid=86b498e3-784c-4315-9910-77930c320efa"},"vehicle_type_id":"4","last_reported":1737915048,"current_range_meters":38800,"station_id":"","pricing_plan_id":"cebpf4jnsgd1na2vs0mg"},{"bike_id":"4526f045-27f1-4143-8611-21b0b8b93237","system_id":"levelo_inurba_marseille","lat":43.26195,"lon":5.37442,"is_reserved":false,"is_disabled":false,"rental_uris":{"android":"levelo://app?vid=4526f045-27f1-4143-8611-21b0b8b93237","ios":"levelo://app?vid=4526f045-27f1-4143-8611-21b0b8b93237"},"vehicle_type_id":"4","last_reported":1737915048,"current_range_meters":17600,"station_id":"ce4bhgp2rcd13ifvqfc0","pricing_plan_id":"cebpf4jnsgd1na2vs0mg"},{"bike_id":"0500d9db-3fc0-422e-9c24-5877fcd75e88","system_id":"levelo_inurba_marseille","lat":43.30299,"lon":5.39201,"is_reserved":false,"is_disabled":false,"rental_uris":{"android":"levelo://app?vid=0500d9db-3fc0-422e-9c24-5877fcd75e88","ios":"levelo://app?vid=0500d9db-3fc0-422e-9c24-5877fcd75e88"},"vehicle_type_id":"4","last_reported":1737915048,"current_range_meters":7200,"station_id":"ce4bgkh2rcd13ifvqbk0","pricing_plan_id":"cebpf4jnsgd1na2vs0mg"},{"bike_id":"1e8d29c7-58d6-489c-aaf2-01ac5e63ee96","system_id":"levelo_inurba_marseille","lat":43.30261,"lon":5.40076,"is_reserved":false,"is_disabled":false,"rental_uris":{"android":"levelo://app?vid=1e8d29c7-58d6-489c-aaf2-01ac5e63ee96","ios":"levelo://app?vid=1e8d29c7-58d6-489c-aaf2-01ac5e63ee96"},"vehicle_type_id":"4","last_reported":1737915048,"current_range_meters":16400,"station_id":"ce4bgvh2rcd13ifvqcs0","pricing_plan_id":"cebpf4jnsgd1na2vs0mg"},{"bike_id":"cf99d88f-d35e-4b8f-a564-62c5839e26e2","system_id":"levelo_inurba_marseille","lat":43.29079,"lon":5.37183,"is_reserved":false,"is_disabled":false,"rental_uris":{"android":"levelo://app?vid=cf99d88f-d35e-4b8f-a564-62c5839e26e2","ios":"levelo://app?vid=cf99d88f-d35e-4b8f-a564-62c5839e26e2"},"vehicle_type_id":"4","last_reported":1737915048,"current_range_meters":33200,"station_id":"ce4bh5p2rcd13ifvqe4g","pricing_plan_id":"cebpf4jnsgd1na2vs0mg"},{"bike_id":"a7fcc53e-6f14-41c5-8b6d-25ab86bedc5f","system_id":"levelo_inurba_marseille","lat":43.29031,"lon":5.38662,"is_reserved":false,"is_disabled":true,"rental_uris":{"android":"levelo://app?vid=a7fcc53e-6f14-41c5-8b6d-25ab86bedc5f","ios":"levelo://app?vid=a7fcc53e-6f14-41c5-8b6d-25ab86bedc5f"},"vehicle_type_id":"4","last_reported":1737915048,"current_range_meters":30400,"station_id":"ce4bh4p2rcd13ifvqe0g","pricing_plan_id":"cebpf4jnsgd1na2vs0mg"},{"bike_id":"574429cf-c091-49bb-bea6-725876d2acf8","system_id":"levelo_inurba_marseille","lat":43.28681,"lon":5.38668,"is_reserved":false,"is_disabled":false,"rental_uris":{"android":"levelo://app?vid=574429cf-c091-49bb-bea6-725876d2acf8","ios":"levelo://app?vid=574429cf-c091-49bb-bea6-725876d2acf8"},"vehicle_type_id":"4","last_reported":1737915048,"current_range_meters":34000,"station_id":"ce4bh492rcd13ifvqdug","pricing_plan_id":"cebpf4jnsgd1na2vs0mg"},{"bike_id":"7feb50cc-9a67-4ccb-9fef-07ede77689cd","system_id":"levelo_inurba_marseille","lat":43.24391,"lon":5.37059,"is_reserved":false,"is_disabled":false,"rental_uris":{"android":"levelo://app?vid=7feb50cc-9a67-4ccb-9fef-07ede77689cd","ios":"levelo://app?vid=7feb50cc-9a67-4ccb-9fef-07ede77689cd"},"vehicle_type_id":"4","last_reported":1737915048,"current_range_meters":12000,"station_id":"ce4bhhh2rcd13ifvqfk0","pricing_plan_id":"cebpf4jnsgd1na2vs0mg"},{"bike_id":"e7e444f4-f34e-4e60-acc4-1df72642b5a4","system_id":"levelo_inurba_marseille","lat":43.294335,"lon":5.374633,"is_reserved":false,"is_disabled":false,"rental_uris":{"android":"levelo://app?vid=e7e444f4-f34e-4e60-acc4-1df72642b5a4","ios":"levelo://app?vid=e7e444f4-f34e-4e60-acc4-1df72642b5a4"},"vehicle_type_id":"4","last_reported":1737915048,"current_range_meters":7200,"station_id":"ce4bgkp2rcd13ifvqbmg","pricing_plan_id":"cebpf4jnsgd1na2vs0mg"},{"bike_id":"a55f6e56-669c-444c-9606-d9b894e036f1","system_id":"levelo_inurba_marseille","lat":43.29802,"lon":5.40403,"is_reserved":false,"is_disabled":false,"rental_uris":{"android":"levelo://app?vid=a55f6e56-669c-444c-9606-d9b894e036f1","ios":"levelo://app?vid=a55f6e56-669c-444c-9606-d9b894e036f1"},"vehicle_type_id":"4","last_reported":1737915048,"current_range_meters":38000,"station_id":"ce4bh112rcd13ifvqd90","pricing_plan_id":"cebpf4jnsgd1na2vs0mg"},{"bike_id":"c6b048ad-e59b-42ce-924f-abe687a2f5ce","system_id":"levelo_inurba_marseille","lat":43.29797,"lon":5.38103,"is_reserved":false,"is_disabled":false,"rental_uris":{"android":"levelo://app?vid=c6b048ad-e59b-42ce-924f-abe687a2f5ce","ios":"levelo://app?vid=c6b048ad-e59b-42ce-924f-abe687a2f5ce"},"vehicle_type_id":"4","last_reported":1737915048,"current_range_meters":26800,"station_id":"ce4bgip2rcd13ifvqbb0","pricing_plan_id":"cebpf4jnsgd1na2vs0mg"},{"bike_id":"a498f920-1d89-4416-963d-ca3ea7c062b6","system_id":"levelo_inurba_marseille","lat":43.297965,"lon":5.380968,"is_reserved":false,"is_disabled":false,"rental_uris":{"android":"levelo://app?vid=a498f920-1d89-4416-963d-ca3ea7c062b6","ios":"levelo://app?vid=a498f920-1d89-4416-963d-ca3ea7c062b6"},"vehicle_type_id":"4","last_reported":1737915048,"current_range_meters":7200,"station_id":"ce4bgip2rcd13ifvqbb0","pricing_plan_id":"cebpf4jnsgd1na2vs0mg"},{"bike_id":"cb11c4e4-37a9-44f4-9ccd-767b3b519e30","system_id":"levelo_inurba_marseille","lat":43.28473,"lon":5.38432,"is_reserved":false,"is_disabled":true,"rental_uris":{"android":"levelo://app?vid=cb11c4e4-37a9-44f4-9ccd-767b3b519e30","ios":"levelo://app?vid=cb11c4e4-37a9-44f4-9ccd-767b3b519e30"},"vehicle_type_id":"4","last_reported":1737915048,"current_range_meters":14800,"station_id":"ce4bh512rcd13ifvqe3g","pricing_plan_id":"cebpf4jnsgd1na2vs0mg"},{"bike_id":"a9397b70-a385-4291-9897-8f0d82cd91b3","system_id":"levelo_inurba_marseille","lat":43.28602,"lon":5.37068,"is_reserved":false,"is_disabled":false,"rental_uris":{"android":"levelo://app?vid=a9397b70-a385-4291-9897-8f0d82cd91b3","ios":"levelo://app?vid=a9397b70-a385-4291-9897-8f0d82cd91b3"},"vehicle_type_id":"4","last_reported":1737915048,"current_range_meters":38800,"station_id":"ce4bht12rcd13ifvqi60","pricing_plan_id":"cebpf4jnsgd1na2vs0mg"},{"bike_id":"d9168b75-042e-4e2b-9686-0d6f9cc8c297","system_id":"levelo_inurba_marseille","lat":43.31364,"lon":5.38486,"is_reserved":false,"is_disabled":false,"rental_uris":{"android":"levelo://app?vid=d9168b75-042e-4e2b-9686-0d6f9cc8c297","ios":"levelo://app?vid=d9168b75-042e-4e2b-9686-0d6f9cc8c297"},"vehicle_type_id":"4","last_reported":1737915048,"current_range_meters":32000,"station_id":"ce4bgt92rcd13ifvqcf0","pricing_plan_id":"cebpf4jnsgd1na2vs0mg"},{"bike_id":"944ecfa4-1deb-441b-a89a-e1bce60c6518","system_id":"levelo_inurba_marseille","lat":43.2706,"lon":5.42297,"is_reserved":false,"is_disabled":false,"rental_uris":{"android":"levelo://app?vid=944ecfa4-1deb-441b-a89a-e1bce60c6518","ios":"levelo://app?vid=944ecfa4-1deb-441b-a89a-e1bce60c6518"},"vehicle_type_id":"4","last_reported":1737915048,"current_range_meters":39200,"station_id":"ce4bhk92rcd13ifvqgb0","pricing_plan_id":"cebpf4jnsgd1na2vs0mg"},{"bike_id":"d1c27158-772d-4991-88e9-a7864541f06e","system_id":"levelo_inurba_marseille","lat":43.32345,"lon":5.38897,"is_reserved":false,"is_disabled":false,"rental_uris":{"android":"levelo://app?vid=d1c27158-772d-4991-88e9-a7864541f06e","ios":"levelo://app?vid=d1c27158-772d-4991-88e9-a7864541f06e"},"vehicle_type_id":"4","last_reported":1737915048,"current_range_meters":36400,"station_id":"ce4bhqp2rcd13ifvqhog","pricing_plan_id":"cebpf4jnsgd1na2vs0mg"},{"bike_id":"25c61966-9d17-4da0-9473-61dab5f5eb18","system_id":"levelo_inurba_marseille","lat":43.29276,"lon":5.40122,"is_reserved":false,"is_disabled":false,"rental_uris":{"android":"levelo://app?vid=25c61966-9d17-4da0-9473-61dab5f5eb18","ios":"levelo://app?vid=25c61966-9d17-4da0-9473-61dab5f5eb18"},"vehicle_type_id":"4","last_reported":1737915048,"current_range_meters":3200,"station_id":"ce4bh312rcd13ifvqdk0","pricing_plan_id":"cebpf4jnsgd1na2vs0mg"},{"bike_id":"406f3a4e-22c7-4501-a7fe-e475a9f714e4","system_id":"levelo_inurba_marseille","lat":43.23197,"lon":5.35552,"is_reserved":false,"is_disabled":false,"rental_uris":{"android":"levelo://app?vid=406f3a4e-22c7-4501-a7fe-e475a9f714e4","ios":"levelo://app?vid=406f3a4e-22c7-4501-a7fe-e475a9f714e4"},"vehicle_type_id":"4","last_reported":1737915048,"current_range_meters":18000,"station_id":"ce4bhu92rcd13ifvqi70","pricing_plan_id":"cebpf4jnsgd1na2vs0mg"},{"bike_id":"e7965682-cb07-492d-a8dc-957cdc5a4b6e","system_id":"levelo_inurba_marseille","lat":43.29964,"lon":5.38474,"is_reserved":false,"is_disabled":true,"rental_uris":{"android":"levelo://app?vid=e7965682-cb07-492d-a8dc-957cdc5a4b6e","ios":"levelo://app?vid=e7965682-cb07-492d-a8dc-957cdc5a4b6e"},"vehicle_type_id":"4","last_reported":1737915048,"current_range_meters":8000,"station_id":"ce4bgj92rcd13ifvqbd0","pricing_plan_id":"cebpf4jnsgd1na2vs0mg"},{"bike_id":"c299cd09-26b4-4c27-b04d-7549f8615ce8","system_id":"levelo_inurba_marseille","lat":43.30873,"lon":5.39618,"is_reserved":false,"is_disabled":false,"rental_uris":{"android":"levelo://app?vid=c299cd09-26b4-4c27-b04d-7549f8615ce8","ios":"levelo://app?vid=c299cd09-26b4-4c27-b04d-7549f8615ce8"},"vehicle_type_id":"4","last_reported":1737915048,"current_range_meters":10000,"station_id":"ce4bh012rcd13ifvqcv0","pricing_plan_id":"cebpf4jnsgd1na2vs0mg"},{"bike_id":"731649f7-82ed-4d85-a6e7-414b37c1a0e9","system_id":"levelo_inurba_marseille","lat":43.3031,"lon":5.39213,"is_reserved":false,"is_disabled":false,"rental_uris":{"android":"levelo://app?vid=731649f7-82ed-4d85-a6e7-414b37c1a0e9","ios":"levelo://app?vid=731649f7-82ed-4d85-a6e7-414b37c1a0e9"},"vehicle_type_id":"4","last_reported":1737915048,"current_range_meters":24400,"station_id":"ce4bgkh2rcd13ifvqbk0","pricing_plan_id":"cebpf4jnsgd1na2vs0mg"},{"bike_id":"7a090aee-5361-4fdb-9794-3f877924279b","system_id":"levelo_inurba_marseille","lat":43.27991,"lon":5.4002,"is_reserved":false,"is_disabled":false,"rental_uris":{"android":"levelo://app?vid=7a090aee-5361-4fdb-9794-3f877924279b","ios":"levelo://app?vid=7a090aee-5361-4fdb-9794-3f877924279b"},"vehicle_type_id":"4","last_reported":1737915048,"current_range_meters":8400,"station_id":"ce4bho92rcd13ifvqh4g","pricing_plan_id":"cebpf4jnsgd1na2vs0mg"},{"bike_id":"e3e26aee-15e1-425c-a48f-db58aa520742","system_id":"levelo_inurba_marseille","lat":43.23064,"lon":5.355,"is_reserved":false,"is_disabled":false,"rental_uris":{"android":"levelo://app?vid=e3e26aee-15e1-425c-a48f-db58aa520742","ios":"levelo://app?vid=e3e26aee-15e1-425c-a48f-db58aa520742"},"vehicle_type_id":"4","last_reported":1737915048,"current_range_meters":7200,"station_id":"cpo3342slgdg3j2ifvpg","pricing_plan_id":"cebpf4jnsgd1na2vs0mg"},{"bike_id":"0a8105a0-2c8b-4177-8849-aafb374d328f","system_id":"levelo_inurba_marseille","lat":43.2953,"lon":5.39033,"is_reserved":false,"is_disabled":false,"rental_uris":{"android":"levelo://app?vid=0a8105a0-2c8b-4177-8849-aafb374d328f","ios":"levelo://app?vid=0a8105a0-2c8b-4177-8849-aafb374d328f"},"vehicle_type_id":"4","last_reported":1737915048,"current_range_meters":3600,"station_id":"ce4bh3p2rcd13ifvqdp0","pricing_plan_id":"cebpf4jnsgd1na2vs0mg"},{"bike_id":"4bd7a106-8a89-4d9a-a33b-27bcdcb7f480","system_id":"levelo_inurba_marseille","lat":43.28488,"lon":5.38415,"is_reserved":false,"is_disabled":false,"rental_uris":{"android":"levelo://app?vid=4bd7a106-8a89-4d9a-a33b-27bcdcb7f480","ios":"levelo://app?vid=4bd7a106-8a89-4d9a-a33b-27bcdcb7f480"},"vehicle_type_id":"4","last_reported":1737915048,"current_range_meters":33600,"station_id":"ce4bh512rcd13ifvqe3g","pricing_plan_id":"cebpf4jnsgd1na2vs0mg"},{"bike_id":"07162cf2-9520-4954-8d12-669f863694e1","system_id":"levelo_inurba_marseille","lat":43.25583,"lon":5.38231,"is_reserved":false,"is_disabled":false,"rental_uris":{"android":"levelo://app?vid=07162cf2-9520-4954-8d12-669f863694e1","ios":"levelo://app?vid=07162cf2-9520-4954-8d12-669f863694e1"},"vehicle_type_id":"4","last_reported":1737915048,"current_range_meters":35600,"station_id":"ce4bhih2rcd13ifvqfs0","pricing_plan_id":"cebpf4jnsgd1na2vs0mg"},{"bike_id":"7c78a755-c7f5-4f07-a96b-621451d47948","system_id":"levelo_inurba_marseille","lat":43.29898,"lon":5.4365,"is_reserved":false,"is_disabled":false,"rental_uris":{"android":"levelo://app?vid=7c78a755-c7f5-4f07-a96b-621451d47948","ios":"levelo://app?vid=7c78a755-c7f5-4f07-a96b-621451d47948"},"vehicle_type_id":"4","last_reported":1737915048,"current_range_meters":30400,"station_id":"ce4bhpp2rcd13ifvqhfg","pricing_plan_id":"cebpf4jnsgd1na2vs0mg"},{"bike_id":"876a8084-ea9e-4406-a1ab-a36512de3c44","system_id":"levelo_inurba_marseille","lat":43.28715,"lon":5.37937,"is_reserved":false,"is_disabled":false,"rental_uris":{"android":"levelo://app?vid=876a8084-ea9e-4406-a1ab-a36512de3c44","ios":"levelo://app?vid=876a8084-ea9e-4406-a1ab-a36512de3c44"},"vehicle_type_id":"4","last_reported":1737915048,"current_range_meters":38000,"station_id":"ce4bh9p2rcd13ifvqec0","pricing_plan_id":"cebpf4jnsgd1na2vs0mg"},{"bike_id":"199fa6fd-03f4-4b8a-970d-992267dc81f6","system_id":"levelo_inurba_marseille","lat":43.26194,"lon":5.3745,"is_reserved":false,"is_disabled":false,"rental_uris":{"android":"levelo://app?vid=199fa6fd-03f4-4b8a-970d-992267dc81f6","ios":"levelo://app?vid=199fa6fd-03f4-4b8a-970d-992267dc81f6"},"vehicle_type_id":"4","last_reported":1737915048,"current_range_meters":8800,"station_id":"ce4bhgp2rcd13ifvqfc0","pricing_plan_id":"cebpf4jnsgd1na2vs0mg"},{"bike_id":"a3f32f89-e6e8-4fbf-b11e-7fbea76b62a2","system_id":"levelo_inurba_marseille","lat":43.2999,"lon":5.37205,"is_reserved":false,"is_disabled":true,"rental_uris":{"android":"levelo://app?vid=a3f32f89-e6e8-4fbf-b11e-7fbea76b62a2","ios":"levelo://app?vid=a3f32f89-e6e8-4fbf-b11e-7fbea76b62a2"},"vehicle_type_id":"4","last_reported":1737915048,"current_range_meters":38000,"station_id":"ce4bgr92rcd13ifvqc7g","pricing_plan_id":"cebpf4jnsgd1na2vs0mg"},{"bike_id":"0ada7667-c406-44aa-9cde-49fab4601af1","system_id":"levelo_inurba_marseille","lat":43.30104,"lon":5.39845,"is_reserved":false,"is_disabled":true,"rental_uris":{"android":"levelo://app?vid=0ada7667-c406-44aa-9cde-49fab4601af1","ios":"levelo://app?vid=0ada7667-c406-44aa-9cde-49fab4601af1"},"vehicle_type_id":"4","last_reported":1737915048,"current_range_meters":0,"station_id":"ce4bh0h2rcd13ifvqd40","pricing_plan_id":"cebpf4jnsgd1na2vs0mg"},{"bike_id":"684ea44b-b4bc-456a-be59-2cf6bb158b0d","system_id":"levelo_inurba_marseille","lat":43.33711,"lon":5.3918,"is_reserved":false,"is_disabled":false,"rental_uris":{"android":"levelo://app?vid=684ea44b-b4bc-456a-be59-2cf6bb158b0d","ios":"levelo://app?vid=684ea44b-b4bc-456a-be59-2cf6bb158b0d"},"vehicle_type_id":"4","last_reported":1737915048,"current_range_meters":38800,"station_id":"ce4bhr92rcd13ifvqhsg","pricing_plan_id":"cebpf4jnsgd1na2vs0mg"},{"bike_id":"5e346759-ed0f-47f7-9ea6-d437e6884994","system_id":"levelo_inurba_marseille","lat":43.32648,"lon":5.41003,"is_reserved":false,"is_disabled":false,"rental_uris":{"android":"levelo://app?vid=5e346759-ed0f-47f7-9ea6-d437e6884994","ios":"levelo://app?vid=5e346759-ed0f-47f7-9ea6-d437e6884994"},"vehicle_type_id":"4","last_reported":1737915048,"current_range_meters":38800,"station_id":"ce4bhpp2rcd13ifvqhgg","pricing_plan_id":"cebpf4jnsgd1na2vs0mg"},{"bike_id":"a48a4fa8-387b-4ecc-bc7a-c3f07822bf47","system_id":"levelo_inurba_marseille","lat":43.270696,"lon":5.39224,"is_reserved":false,"is_disabled":true,"rental_uris":{"android":"levelo://app?vid=a48a4fa8-387b-4ecc-bc7a-c3f07822bf47","ios":"levelo://app?vid=a48a4fa8-387b-4ecc-bc7a-c3f07822bf47"},"vehicle_type_id":"4","last_reported":1737915048,"current_range_meters":0,"station_id":"","pricing_plan_id":"cebpf4jnsgd1na2vs0mg"},{"bike_id":"fd38b4b0-f42b-4d68-b90d-cf0284d0f76e","system_id":"levelo_inurba_marseille","lat":43.24076,"lon":5.37755,"is_reserved":false,"is_disabled":false,"rental_uris":{"android":"levelo://app?vid=fd38b4b0-f42b-4d68-b90d-cf0284d0f76e","ios":"levelo://app?vid=fd38b4b0-f42b-4d68-b90d-cf0284d0f76e"},"vehicle_type_id":"4","last_reported":1737915048,"current_range_meters":6000,"station_id":"ce4bhnp2rcd13ifvqgvg","pricing_plan_id":"cebpf4jnsgd1na2vs0mg"},{"bike_id":"7db3633a-2bb0-4d70-913a-8c7fa03aa25e","system_id":"levelo_inurba_marseille","lat":43.28691,"lon":5.39996,"is_reserved":false,"is_disabled":false,"rental_uris":{"android":"levelo://app?vid=7db3633a-2bb0-4d70-913a-8c7fa03aa25e","ios":"levelo://app?vid=7db3633a-2bb0-4d70-913a-8c7fa03aa25e"},"vehicle_type_id":"4","last_reported":1737915048,"current_range_meters":14000,"station_id":"ce4bho92rcd13ifvqh3g","pricing_plan_id":"cebpf4jnsgd1na2vs0mg"},{"bike_id":"a8d0380b-0a88-41c3-845f-e00ffb2cbc88","system_id":"levelo_inurba_marseille","lat":43.2799,"lon":5.40004,"is_reserved":false,"is_disabled":true,"rental_uris":{"android":"levelo://app?vid=a8d0380b-0a88-41c3-845f-e00ffb2cbc88","ios":"levelo://app?vid=a8d0380b-0a88-41c3-845f-e00ffb2cbc88"},"vehicle_type_id":"4","last_reported":1737915048,"current_range_meters":35200,"station_id":"ce4bho92rcd13ifvqh4g","pricing_plan_id":"cebpf4jnsgd1na2vs0mg"},{"bike_id":"8fd0082a-8558-471d-bd5c-8f2bb03de120","system_id":"levelo_inurba_marseille","lat":43.2872,"lon":5.39997,"is_reserved":false,"is_disabled":true,"rental_uris":{"android":"levelo://app?vid=8fd0082a-8558-471d-bd5c-8f2bb03de120","ios":"levelo://app?vid=8fd0082a-8558-471d-bd5c-8f2bb03de120"},"vehicle_type_id":"4","last_reported":1737915048,"current_range_meters":26000,"station_id":"ce4bho92rcd13ifvqh3g","pricing_plan_id":"cebpf4jnsgd1na2vs0mg"},{"bike_id":"a238eda9-ec7b-44e9-b010-9c9fa4ae2fed","system_id":"levelo_inurba_marseille","lat":43.30104,"lon":5.39063,"is_reserved":false,"is_disabled":false,"rental_uris":{"android":"levelo://app?vid=a238eda9-ec7b-44e9-b010-9c9fa4ae2fed","ios":"levelo://app?vid=a238eda9-ec7b-44e9-b010-9c9fa4ae2fed"},"vehicle_type_id":"4","last_reported":1737915048,"current_range_meters":4400,"station_id":"ce4bh192rcd13ifvqdb0","pricing_plan_id":"cebpf4jnsgd1na2vs0mg"},{"bike_id":"16e218ff-61ca-45e5-b0e8-8291f594dffc","system_id":"levelo_inurba_marseille","lat":43.25002,"lon":5.38923,"is_reserved":false,"is_disabled":false,"rental_uris":{"android":"levelo://app?vid=16e218ff-61ca-45e5-b0e8-8291f594dffc","ios":"levelo://app?vid=16e218ff-61ca-45e5-b0e8-8291f594dffc"},"vehicle_type_id":"4","last_reported":1737915048,"current_range_meters":38400,"station_id":"ce4bhgp2rcd13ifvqfd0","pricing_plan_id":"cebpf4jnsgd1na2vs0mg"},{"bike_id":"9c09af66-30f1-488d-910d-a8a905d02871","system_id":"levelo_inurba_marseille","lat":43.29387,"lon":5.37915,"is_reserved":false,"is_disabled":true,"rental_uris":{"android":"levelo://app?vid=9c09af66-30f1-488d-910d-a8a905d02871","ios":"levelo://app?vid=9c09af66-30f1-488d-910d-a8a905d02871"},"vehicle_type_id":"4","last_reported":1737915048,"current_range_meters":0,"station_id":"","pricing_plan_id":"cebpf4jnsgd1na2vs0mg"},{"bike_id":"0e291e25-7e0f-4c2e-88d1-2389fcd76767","system_id":"levelo_inurba_marseille","lat":43.28352,"lon":5.38119,"is_reserved":false,"is_disabled":false,"rental_uris":{"android":"levelo://app?vid=0e291e25-7e0f-4c2e-88d1-2389fcd76767","ios":"levelo://app?vid=0e291e25-7e0f-4c2e-88d1-2389fcd76767"},"vehicle_type_id":"4","last_reported":1737915048,"current_range_meters":6000,"station_id":"ce4bh412rcd13ifvqdr0","pricing_plan_id":"cebpf4jnsgd1na2vs0mg"},{"bike_id":"04291dd5-cf41-4cea-97d1-1e023497f306","system_id":"levelo_inurba_marseille","lat":43.27994,"lon":5.40015,"is_reserved":false,"is_disabled":false,"rental_uris":{"android":"levelo://app?vid=04291dd5-cf41-4cea-97d1-1e023497f306","ios":"levelo://app?vid=04291dd5-cf41-4cea-97d1-1e023497f306"},"vehicle_type_id":"4","last_reported":1737915048,"current_range_meters":31200,"station_id":"ce4bho92rcd13ifvqh4g","pricing_plan_id":"cebpf4jnsgd1na2vs0mg"},{"bike_id":"bb379041-3223-4f04-83f9-2a1e2a83d87a","system_id":"levelo_inurba_marseille","lat":43.30217,"lon":5.39477,"is_reserved":false,"is_disabled":false,"rental_uris":{"android":"levelo://app?vid=bb379041-3223-4f04-83f9-2a1e2a83d87a","ios":"levelo://app?vid=bb379041-3223-4f04-83f9-2a1e2a83d87a"},"vehicle_type_id":"4","last_reported":1737915048,"current_range_meters":39200,"station_id":"ce4bh0p2rcd13ifvqd70","pricing_plan_id":"cebpf4jnsgd1na2vs0mg"},{"bike_id":"ac7b1f8b-3c2d-4c14-9633-fa81a725a0a7","system_id":"levelo_inurba_marseille","lat":43.28803,"lon":5.40042,"is_reserved":false,"is_disabled":false,"rental_uris":{"android":"levelo://app?vid=ac7b1f8b-3c2d-4c14-9633-fa81a725a0a7","ios":"levelo://app?vid=ac7b1f8b-3c2d-4c14-9633-fa81a725a0a7"},"vehicle_type_id":"4","last_reported":1737915048,"current_range_meters":26000,"station_id":"ce4bho92rcd13ifvqh3g","pricing_plan_id":"cebpf4jnsgd1na2vs0mg"},{"bike_id":"de41f5f3-6887-45fa-834f-a5545abfc0b0","system_id":"levelo_inurba_marseille","lat":43.29791,"lon":5.39355,"is_reserved":false,"is_disabled":false,"rental_uris":{"android":"levelo://app?vid=de41f5f3-6887-45fa-834f-a5545abfc0b0","ios":"levelo://app?vid=de41f5f3-6887-45fa-834f-a5545abfc0b0"},"vehicle_type_id":"4","last_reported":1737915048,"current_range_meters":21600,"station_id":"chh1huq6cuj3fo74tm60","pricing_plan_id":"cebpf4jnsgd1na2vs0mg"},{"bike_id":"c438c788-2c8f-4eda-8233-a8485c23c4af","system_id":"levelo_inurba_marseille","lat":43.30418,"lon":5.4129,"is_reserved":false,"is_disabled":true,"rental_uris":{"android":"levelo://app?vid=c438c788-2c8f-4eda-8233-a8485c23c4af","ios":"levelo://app?vid=c438c788-2c8f-4eda-8233-a8485c23c4af"},"vehicle_type_id":"4","last_reported":1737915048,"current_range_meters":0,"station_id":"ce4bhop2rcd13ifvqh8g","pricing_plan_id":"cebpf4jnsgd1na2vs0mg"},{"bike_id":"621c3e58-d304-40b1-b5a4-a7620a49989d","system_id":"levelo_inurba_marseille","lat":43.28477,"lon":5.38422,"is_reserved":false,"is_disabled":false,"rental_uris":{"android":"levelo://app?vid=621c3e58-d304-40b1-b5a4-a7620a49989d","ios":"levelo://app?vid=621c3e58-d304-40b1-b5a4-a7620a49989d"},"vehicle_type_id":"4","last_reported":1737915048,"current_range_meters":29600,"station_id":"ce4bh512rcd13ifvqe3g","pricing_plan_id":"cebpf4jnsgd1na2vs0mg"},{"bike_id":"eb60346d-68ee-4edf-b47c-55e18ae2fa65","system_id":"levelo_inurba_marseille","lat":43.26914,"lon":5.3889,"is_reserved":false,"is_disabled":false,"rental_uris":{"android":"levelo://app?vid=eb60346d-68ee-4edf-b47c-55e18ae2fa65","ios":"levelo://app?vid=eb60346d-68ee-4edf-b47c-55e18ae2fa65"},"vehicle_type_id":"4","last_reported":1737915048,"current_range_meters":39200,"station_id":"ce4bhhh2rcd13ifvqfl0","pricing_plan_id":"cebpf4jnsgd1na2vs0mg"},{"bike_id":"72175b5b-4d04-4c0e-83cc-359c766e7dd9","system_id":"levelo_inurba_marseille","lat":43.26057,"lon":5.39392,"is_reserved":false,"is_disabled":false,"rental_uris":{"android":"levelo://app?vid=72175b5b-4d04-4c0e-83cc-359c766e7dd9","ios":"levelo://app?vid=72175b5b-4d04-4c0e-83cc-359c766e7dd9"},"vehicle_type_id":"4","last_reported":1737915048,"current_range_meters":38800,"station_id":"ce4bhh92rcd13ifvqfj0","pricing_plan_id":"cebpf4jnsgd1na2vs0mg"},{"bike_id":"94bd39b9-a6fa-4078-8ff7-37d66b489a4d","system_id":"levelo_inurba_marseille","lat":43.31119,"lon":5.37755,"is_reserved":false,"is_disabled":true,"rental_uris":{"android":"levelo://app?vid=94bd39b9-a6fa-4078-8ff7-37d66b489a4d","ios":"levelo://app?vid=94bd39b9-a6fa-4078-8ff7-37d66b489a4d"},"vehicle_type_id":"4","last_reported":1737915048,"current_range_meters":1200,"station_id":"ce4bgt92rcd13ifvqcg0","pricing_plan_id":"cebpf4jnsgd1na2vs0mg"},{"bike_id":"88afc791-2245-4d11-9763-252f73d20614","system_id":"levelo_inurba_marseille","lat":43.27814,"lon":5.40714,"is_reserved":false,"is_disabled":false,"rental_uris":{"android":"levelo://app?vid=88afc791-2245-4d11-9763-252f73d20614","ios":"levelo://app?vid=88afc791-2245-4d11-9763-252f73d20614"},"vehicle_type_id":"4","last_reported":1737915048,"current_range_meters":8000,"station_id":"ce4bhnh2rcd13ifvqgtg","pricing_plan_id":"cebpf4jnsgd1na2vs0mg"},{"bike_id":"13d7df70-7442-4143-a1dc-ada546d48d0d","system_id":"levelo_inurba_marseille","lat":43.30312,"lon":5.39214,"is_reserved":false,"is_disabled":false,"rental_uris":{"android":"levelo://app?vid=13d7df70-7442-4143-a1dc-ada546d48d0d","ios":"levelo://app?vid=13d7df70-7442-4143-a1dc-ada546d48d0d"},"vehicle_type_id":"4","last_reported":1737915048,"current_range_meters":9600,"station_id":"ce4bgkh2rcd13ifvqbk0","pricing_plan_id":"cebpf4jnsgd1na2vs0mg"},{"bike_id":"3d98c6ce-e80d-46e8-b577-648cd8c28632","system_id":"levelo_inurba_marseille","lat":43.34683,"lon":5.34738,"is_reserved":false,"is_disabled":true,"rental_uris":{"android":"levelo://app?vid=3d98c6ce-e80d-46e8-b577-648cd8c28632","ios":"levelo://app?vid=3d98c6ce-e80d-46e8-b577-648cd8c28632"},"vehicle_type_id":"4","last_reported":1737915048,"current_range_meters":0,"station_id":"","pricing_plan_id":"cebpf4jnsgd1na2vs0mg"},{"bike_id":"322c6f10-8ee3-490a-9c8a-49a7b3695963","system_id":"levelo_inurba_marseille","lat":43.29629,"lon":5.37166,"is_reserved":false,"is_disabled":true,"rental_uris":{"android":"levelo://app?vid=322c6f10-8ee3-490a-9c8a-49a7b3695963","ios":"levelo://app?vid=322c6f10-8ee3-490a-9c8a-49a7b3695963"},"vehicle_type_id":"4","last_reported":1737915048,"current_range_meters":1200,"station_id":"ce4bgnh2rcd13ifvqc0g","pricing_plan_id":"cebpf4jnsgd1na2vs0mg"},{"bike_id":"86167669-87ec-46d8-942a-1b0cb002dce8","system_id":"levelo_inurba_marseille","lat":43.29395,"lon":5.40109,"is_reserved":false,"is_disabled":true,"rental_uris":{"android":"levelo://app?vid=86167669-87ec-46d8-942a-1b0cb002dce8","ios":"levelo://app?vid=86167669-87ec-46d8-942a-1b0cb002dce8"},"vehicle_type_id":"4","last_reported":1737915048,"current_range_meters":25200,"station_id":"","pricing_plan_id":"cebpf4jnsgd1na2vs0mg"},{"bike_id":"6975cfd6-2081-4544-8ad1-47f93123d5f7","system_id":"levelo_inurba_marseille","lat":43.28724,"lon":5.39988,"is_reserved":false,"is_disabled":true,"rental_uris":{"android":"levelo://app?vid=6975cfd6-2081-4544-8ad1-47f93123d5f7","ios":"levelo://app?vid=6975cfd6-2081-4544-8ad1-47f93123d5f7"},"vehicle_type_id":"4","last_reported":1737915048,"current_range_meters":3200,"station_id":"ce4bho92rcd13ifvqh3g","pricing_plan_id":"cebpf4jnsgd1na2vs0mg"},{"bike_id":"16cba4e1-cb10-44ef-b1a1-eca95385335f","system_id":"levelo_inurba_marseille","lat":43.28421,"lon":5.34996,"is_reserved":false,"is_disabled":true,"rental_uris":{"android":"levelo://app?vid=16cba4e1-cb10-44ef-b1a1-eca95385335f","ios":"levelo://app?vid=16cba4e1-cb10-44ef-b1a1-eca95385335f"},"vehicle_type_id":"4","last_reported":1737915048,"current_range_meters":0,"station_id":"ce4bhbh2rcd13ifvqepg","pricing_plan_id":"cebpf4jnsgd1na2vs0mg"},{"bike_id":"9c6c808c-2344-4484-b654-8a68fb115aa6","system_id":"levelo_inurba_marseille","lat":43.31116,"lon":5.36962,"is_reserved":false,"is_disabled":false,"rental_uris":{"android":"levelo://app?vid=9c6c808c-2344-4484-b654-8a68fb115aa6","ios":"levelo://app?vid=9c6c808c-2344-4484-b654-8a68fb115aa6"},"vehicle_type_id":"4","last_reported":1737915048,"current_range_meters":36000,"station_id":"","pricing_plan_id":"cebpf4jnsgd1na2vs0mg"},{"bike_id":"0f702d43-aad2-41d2-a927-e3c1e9a835d1","system_id":"levelo_inurba_marseille","lat":43.28439,"lon":5.39177,"is_reserved":false,"is_disabled":false,"rental_uris":{"android":"levelo://app?vid=0f702d43-aad2-41d2-a927-e3c1e9a835d1","ios":"levelo://app?vid=0f702d43-aad2-41d2-a927-e3c1e9a835d1"},"vehicle_type_id":"4","last_reported":1737915048,"current_range_meters":3600,"station_id":"ce4bhoh2rcd13ifvqh5g","pricing_plan_id":"cebpf4jnsgd1na2vs0mg"},{"bike_id":"c7112c6f-7ffc-4eb1-9253-204206d7c463","system_id":"levelo_inurba_marseille","lat":43.29904,"lon":5.43667,"is_reserved":false,"is_disabled":false,"rental_uris":{"android":"levelo://app?vid=c7112c6f-7ffc-4eb1-9253-204206d7c463","ios":"levelo://app?vid=c7112c6f-7ffc-4eb1-9253-204206d7c463"},"vehicle_type_id":"4","last_reported":1737915048,"current_range_meters":14400,"station_id":"ce4bhpp2rcd13ifvqhfg","pricing_plan_id":"cebpf4jnsgd1na2vs0mg"},{"bike_id":"8fc5f132-29ed-47c1-bff0-bf17728d82ae","system_id":"levelo_inurba_marseille","lat":43.29374,"lon":5.37852,"is_reserved":false,"is_disabled":true,"rental_uris":{"android":"levelo://app?vid=8fc5f132-29ed-47c1-bff0-bf17728d82ae","ios":"levelo://app?vid=8fc5f132-29ed-47c1-bff0-bf17728d82ae"},"vehicle_type_id":"4","last_reported":1737915048,"current_range_meters":33200,"station_id":"ce4bgjh2rcd13ifvqbf0","pricing_plan_id":"cebpf4jnsgd1na2vs0mg"},{"bike_id":"7d036e61-2123-40b4-9cb4-9523f22c49b9","system_id":"levelo_inurba_marseille","lat":43.27024,"lon":5.40262,"is_reserved":false,"is_disabled":false,"rental_uris":{"android":"levelo://app?vid=7d036e61-2123-40b4-9cb4-9523f22c49b9","ios":"levelo://app?vid=7d036e61-2123-40b4-9cb4-9523f22c49b9"},"vehicle_type_id":"4","last_reported":1737915048,"current_range_meters":38800,"station_id":"ce4bhk92rcd13ifvqgc0","pricing_plan_id":"cebpf4jnsgd1na2vs0mg"},{"bike_id":"0409c418-1a87-452b-be7c-84da8e4aa35a","system_id":"levelo_inurba_marseille","lat":43.31999,"lon":5.38164,"is_reserved":false,"is_disabled":true,"rental_uris":{"android":"levelo://app?vid=0409c418-1a87-452b-be7c-84da8e4aa35a","ios":"levelo://app?vid=0409c418-1a87-452b-be7c-84da8e4aa35a"},"vehicle_type_id":"4","last_reported":1737915048,"current_range_meters":0,"station_id":"ce4bhr12rcd13ifvqhpg","pricing_plan_id":"cebpf4jnsgd1na2vs0mg"},{"bike_id":"18bfdb71-bc87-414a-b62b-7fa17f4ab8e3","system_id":"levelo_inurba_marseille","lat":43.27948,"lon":5.38728,"is_reserved":false,"is_disabled":false,"rental_uris":{"android":"levelo://app?vid=18bfdb71-bc87-414a-b62b-7fa17f4ab8e3","ios":"levelo://app?vid=18bfdb71-bc87-414a-b62b-7fa17f4ab8e3"},"vehicle_type_id":"4","last_reported":1737915048,"current_range_meters":13600,"station_id":"ce4bhg12rcd13ifvqf80","pricing_plan_id":"cebpf4jnsgd1na2vs0mg"},{"bike_id":"b7e32d18-8a88-474b-bc88-4ac887560d17","system_id":"levelo_inurba_marseille","lat":43.31166,"lon":5.38724,"is_reserved":false,"is_disabled":false,"rental_uris":{"android":"levelo://app?vid=b7e32d18-8a88-474b-bc88-4ac887560d17","ios":"levelo://app?vid=b7e32d18-8a88-474b-bc88-4ac887560d17"},"vehicle_type_id":"4","last_reported":1737915048,"current_range_meters":14800,"station_id":"ce4bgv12rcd13ifvqcp0","pricing_plan_id":"cebpf4jnsgd1na2vs0mg"},{"bike_id":"91d66d54-aabf-44b7-ac3a-355a4b9e5628","system_id":"levelo_inurba_marseille","lat":43.24047,"lon":5.37733,"is_reserved":false,"is_disabled":true,"rental_uris":{"android":"levelo://app?vid=91d66d54-aabf-44b7-ac3a-355a4b9e5628","ios":"levelo://app?vid=91d66d54-aabf-44b7-ac3a-355a4b9e5628"},"vehicle_type_id":"4","last_reported":1737915048,"current_range_meters":38800,"station_id":"ce4bhnp2rcd13ifvqgvg","pricing_plan_id":"cebpf4jnsgd1na2vs0mg"},{"bike_id":"6cd25b1f-7a28-4aed-b95e-b1bd58dbe13c","system_id":"levelo_inurba_marseille","lat":43.28347,"lon":5.3812,"is_reserved":false,"is_disabled":false,"rental_uris":{"android":"levelo://app?vid=6cd25b1f-7a28-4aed-b95e-b1bd58dbe13c","ios":"levelo://app?vid=6cd25b1f-7a28-4aed-b95e-b1bd58dbe13c"},"vehicle_type_id":"4","last_reported":1737915048,"current_range_meters":28800,"station_id":"ce4bh412rcd13ifvqdr0","pricing_plan_id":"cebpf4jnsgd1na2vs0mg"},{"bike_id":"37b05ef4-d393-418a-bfb2-4fb22821291c","system_id":"levelo_inurba_marseille","lat":43.27962,"lon":5.38723,"is_reserved":false,"is_disabled":false,"rental_uris":{"android":"levelo://app?vid=37b05ef4-d393-418a-bfb2-4fb22821291c","ios":"levelo://app?vid=37b05ef4-d393-418a-bfb2-4fb22821291c"},"vehicle_type_id":"4","last_reported":1737915048,"current_range_meters":6000,"station_id":"ce4bhg12rcd13ifvqf80","pricing_plan_id":"cebpf4jnsgd1na2vs0mg"},{"bike_id":"1034d541-3c0d-4d8f-a939-7b844cd7a6ec","system_id":"levelo_inurba_marseille","lat":43.27985,"lon":5.41653,"is_reserved":false,"is_disabled":false,"rental_uris":{"android":"levelo://app?vid=1034d541-3c0d-4d8f-a939-7b844cd7a6ec","ios":"levelo://app?vid=1034d541-3c0d-4d8f-a939-7b844cd7a6ec"},