{"last_updated":1745190545,"ttl":60,"version":"2.2","data":{"bikes":[{"bike_id":"c2d8600b-ec93-41e6-a437-b11d03e24ae7","system_id":"levelo_inurba_marseille","lat":43.30126,"lon":5.38758,"is_reserved":false,"is_disabled":false,"rental_uris":{"android":"levelo://app?vid=c2d8600b-ec93-41e6-a437-b11d03e24ae7","ios":"levelo://app?vid=c2d8600b-ec93-41e6-a437-b11d03e24ae7"},"vehicle_type_id":"4","last_reported":1745190545,"current_range_meters":2800,"station_id":"ce4bghh2rcd13ifvqb60","pricing_plan_id":"cebpf4jnsgd1na2vs0mg"},{"bike_id":"cd35a060-3f2c-4b20-9153-345fff3a0e24","system_id":"levelo_inurba_marseille","lat":43.245462,"lon":5.395225,"is_reserved":false,"is_disabled":true,"rental_uris":{"android":"levelo://app?vid=cd35a060-3f2c-4b20-9153-345fff3a0e24","ios":"levelo://app?vid=cd35a060-3f2c-4b20-9153-345fff3a0e24"},"vehicle_type_id":"4","last_reported":1745190545,"current_range_meters":2800,"station_id":"ce4bhlp2rcd13ifvqgjg","pricing_plan_id":"cebpf4jnsgd1na2vs0mg"},{"bike_id":"608caa31-fe6b-4659-bca1-9d8d0fed7dbf","system_id":"levelo_inurba_marseille","lat":43.21182,"lon":5.35071,"is_reserved":false,"is_disabled":false,"rental_uris":{"android":"levelo://app?vid=608caa31-fe6b-4659-bca1-9d8d0fed7dbf","ios":"levelo://app?vid=608caa31-fe6b-4659-bca1-9d8d0fed7dbf"},"vehicle_type_id":"4","last_reported":1745190545,"current_range_meters":2800,"station_id":"st_cvj6sg6p6f1abm77japg","pricing_plan_id":"cebpf4jnsgd1na2vs0mg"},{"bike_id":"1ffc65c4-f120-48de-b667-8f3a0faf0ef5","system_id":"levelo_inurba_marseille","lat":43.28937,"lon":5.39635,"is_reserved":false,"is_disabled":false,"rental_uris":{"android":"levelo://app?vid=1ffc65c4-f120-48de-b667-8f3a0faf0ef5","ios":"levelo://app?vid=1ffc65c4-f120-48de-b667-8f3a0faf0ef5"},"vehicle_type_id":"4","last_reported":1745190545,"current_range_meters":3200,"station_id":"ce4bh3h2rcd13ifvqdn0","pricing_plan_id":"cebpf4jnsgd1na2vs0mg"},{"bike_id":"e3ac940e-4d1b-4d51-ad04-b3abc26d819e","system_id":"levelo_inurba_marseille","lat":43.28922,"lon":5.38376,"is_reserved":false,"is_disabled":true,"rental_uris":{"android":"levelo://app?vid=e3ac940e-4d1b-4d51-ad04-b3abc26d819e","ios":"levelo://app?vid=e3ac940e-4d1b-4d51-ad04-b3abc26d819e"},"vehicle_type_id":"4","last_reported":1745190545,"current_range_meters":3200,"station_id":"ce4bh612rcd13ifvqe6g","pricing_plan_id":"cebpf4jnsgd1na2vs0mg"},{"bike_id":"cecd7c84-becb-41c3-9869-71d934006a59","system_id":"levelo_inurba_marseille","lat":43.2738,"lon":5.36247,"is_reserved":false,"is_disabled":true,"rental_uris":{"android":"levelo://app?vid=cecd7c84-becb-41c3-9869-71d934006a59","ios":"levelo://app?vid=cecd7c84-becb-41c3-9869-71d934006a59"},"vehicle_type_id":"4","last_reported":1745190545,"current_range_meters":3200,"station_id":"ce4bhbh2rcd13ifvqeo0","pricing_plan_id":"cebpf4jnsgd1na2vs0mg"},{"bike_id":"844db808-751e-4d57-805b-c6e5d3fe29c5","system_id":"levelo_inurba_marseille","lat":43.289976,"lon":5.356196,"is_reserved":false,"is_disabled":true,"rental_uris":{"android":"levelo://app?vid=844db808-751e-4d57-805b-c6e5d3fe29c5","ios":"levelo://app?vid=844db808-751e-4d57-805b-c6e5d3fe29c5"},"vehicle_type_id":"4","last_reported":1745190545,"current_range_meters":3200,"station_id":"ce4bhb92rcd13ifvqen0","pricing_plan_id":"cebpf4jnsgd1na2vs0mg"},{"bike_id":"59b8a710-c124-451a-a8fb-8229b190174f","system_id":"levelo_inurba_marseille","lat":43.24167,"lon":5.36399,"is_reserved":false,"is_disabled":true,"rental_uris":{"android":"levelo://app?vid=59b8a710-c124-451a-a8fb-8229b190174f","ios":"levelo://app?vid=59b8a710-c124-451a-a8fb-8229b190174f"},"vehicle_type_id":"4","last_reported":1745190545,"current_range_meters":3600,"station_id":"cpo36qri1sfpv3e86is0","pricing_plan_id":"cebpf4jnsgd1na2vs0mg"},{"bike_id":"b2824bf6-8552-4f18-8f40-49bc145757f1","system_id":"levelo_inurba_marseille","lat":43.29442,"lon":5.37875,"is_reserved":false,"is_disabled":false,"rental_uris":{"android":"levelo://app?vid=b2824bf6-8552-4f18-8f40-49bc145757f1","ios":"levelo://app?vid=b2824bf6-8552-4f18-8f40-49bc145757f1"},"vehicle_type_id":"4","last_reported":1745190545,"current_range_meters":3600,"station_id":"","pricing_plan_id":"cebpf4jnsgd1na2vs0mg"},{"bike_id":"afc6b544-cc5e-4c11-b5a3-201689e088c6","system_id":"levelo_inurba_marseille","lat":43.305963,"lon":5.393563,"is_reserved":false,"is_disabled":false,"rental_uris":{"android":"levelo://app?vid=afc6b544-cc5e-4c11-b5a3-201689e088c6","ios":"levelo://app?vid=afc6b544-cc5e-4c11-b5a3-201689e088c6"},"vehicle_type_id":"4","last_reported":1745190545,"current_range_meters":3600,"station_id":"ce4bh0p2rcd13ifvqd80","pricing_plan_id":"cebpf4jnsgd1na2vs0mg"},{"bike_id":"8a1dde72-6b8d-4113-a8d9-29ea6b05ede2","system_id":"levelo_inurba_marseille","lat":43.29272,"lon":5.38195,"is_reserved":false,"is_disabled":false,"rental_uris":{"android":"levelo://app?vid=8a1dde72-6b8d-4113-a8d9-29ea6b05ede2","ios":"levelo://app?vid=8a1dde72-6b8d-4113-a8d9-29ea6b05ede2"},"vehicle_type_id":"4","last_reported":1745190545,"current_range_meters":4000,"station_id":"","pricing_plan_id":"cebpf4jnsgd1na2vs0mg"},{"bike_id":"220ab7fa-a81f-4a51-805c-3d4feeb64942","system_id":"levelo_inurba_marseille","lat":43.28696,"lon":5.37392,"is_reserved":false,"is_disabled":true,"rental_uris":{"android":"levelo://app?vid=220ab7fa-a81f-4a51-805c-3d4feeb64942","ios":"levelo://app?vid=220ab7fa-a81f-4a51-805c-3d4feeb64942"},"vehicle_type_id":"4","last_reported":1745190545,"current_range_meters":4000,"station_id":"ce4bh3p2rcd13ifvqdq0","pricing_plan_id":"cebpf4jnsgd1na2vs0mg"},{"bike_id":"fb7bcb3b-0a2a-486a-8f1b-c159b865404b","system_id":"levelo_inurba_marseille","lat":43.306915,"lon":5.37195,"is_reserved":false,"is_disabled":false,"rental_uris":{"android":"levelo://app?vid=fb7bcb3b-0a2a-486a-8f1b-c159b865404b","ios":"levelo://app?vid=fb7bcb3b-0a2a-486a-8f1b-c159b865404b"},"vehicle_type_id":"4","last_reported":1745190545,"current_range_meters":4400,"station_id":"","pricing_plan_id":"cebpf4jnsgd1na2vs0mg"},{"bike_id":"186380b9-3dab-457b-b648-71d123fa0368","system_id":"levelo_inurba_marseille","lat":43.250988,"lon":5.403464,"is_reserved":false,"is_disabled":true,"rental_uris":{"android":"levelo://app?vid=186380b9-3dab-457b-b648-71d123fa0368","ios":"levelo://app?vid=186380b9-3dab-457b-b648-71d123fa0368"},"vehicle_type_id":"4","last_reported":1745190545,"current_range_meters":4400,"station_id":"ce4bhlh2rcd13ifvqgig","pricing_plan_id":"cebpf4jnsgd1na2vs0mg"},{"bike_id":"d2ba4413-c35f-41b1-8baf-f83e6001a359","system_id":"levelo_inurba_marseille","lat":43.29027,"lon":5.38646,"is_reserved":false,"is_disabled":true,"rental_uris":{"android":"levelo://app?vid=d2ba4413-c35f-41b1-8baf-f83e6001a359","ios":"levelo://app?vid=d2ba4413-c35f-41b1-8baf-f83e6001a359"},"vehicle_type_id":"4","last_reported":1745190545,"current_range_meters":4400,"station_id":"ce4bh4p2rcd13ifvqe0g","pricing_plan_id":"cebpf4jnsgd1na2vs0mg"},{"bike_id":"564fb40e-5fad-4e99-b12d-f5030eebc05e","system_id":"levelo_inurba_marseille","lat":43.265472,"lon":5.372858,"is_reserved":false,"is_disabled":true,"rental_uris":{"android":"levelo://app?vid=564fb40e-5fad-4e99-b12d-f5030eebc05e","ios":"levelo://app?vid=564fb40e-5fad-4e99-b12d-f5030eebc05e"},"vehicle_type_id":"4","last_reported":1745190545,"current_range_meters":4400,"station_id":"ce4bhap2rcd13ifvqek0","pricing_plan_id":"cebpf4jnsgd1na2vs0mg"},{"bike_id":"db0f8317-b82a-46f0-96bf-2bb2259a2f2b","system_id":"levelo_inurba_marseille","lat":43.28482,"lon":5.38566,"is_reserved":false,"is_disabled":false,"rental_uris":{"android":"levelo://app?vid=db0f8317-b82a-46f0-96bf-2bb2259a2f2b","ios":"levelo://app?vid=db0f8317-b82a-46f0-96bf-2bb2259a2f2b"},"vehicle_type_id":"4","last_reported":1745190545,"current_range_meters":4800,"station_id":"ce4bh8p2rcd13ifvqeb0","pricing_plan_id":"cebpf4jnsgd1na2vs0mg"},{"bike_id":"a4f53f83-a203-4112-88cd-432220291605","system_id":"levelo_inurba_marseille","lat":43.28451,"lon":5.34996,"is_reserved":false,"is_disabled":true,"rental_uris":{"android":"levelo://app?vid=a4f53f83-a203-4112-88cd-432220291605","ios":"levelo://app?vid=a4f53f83-a203-4112-88cd-432220291605"},"vehicle_type_id":"4","last_reported":1745190545,"current_range_meters":4800,"station_id":"ce4bhbh2rcd13ifvqepg","pricing_plan_id":"cebpf4jnsgd1na2vs0mg"},{"bike_id":"a389d44e-88d6-4373-942c-6121d426ebb1","system_id":"levelo_inurba_marseille","lat":43.31243,"lon":5.40244,"is_reserved":false,"is_disabled":false,"rental_uris":{"android":"levelo://app?vid=a389d44e-88d6-4373-942c-6121d426ebb1","ios":"levelo://app?vid=a389d44e-88d6-4373-942c-6121d426ebb1"},"vehicle_type_id":"4","last_reported":1745190545,"current_range_meters":4800,"station_id":"","pricing_plan_id":"cebpf4jnsgd1na2vs0mg"},{"bike_id":"0d21f9f9-922e-4003-8dc4-8224af9ef712","system_id":"levelo_inurba_marseille","lat":43.32638,"lon":5.3591,"is_reserved":false,"is_disabled":true,"rental_uris":{"android":"levelo://app?vid=0d21f9f9-922e-4003-8dc4-8224af9ef712","ios":"levelo://app?vid=0d21f9f9-922e-4003-8dc4-8224af9ef712"},"vehicle_type_id":"4","last_reported":1745190545,"current_range_meters":5600,"station_id":"","pricing_plan_id":"cebpf4jnsgd1na2vs0mg"},{"bike_id":"1965f819-3778-4654-96e5-aaaf9c36cc08","system_id":"levelo_inurba_marseille","lat":43.30375,"lon":5.42482,"is_reserved":false,"is_disabled":true,"rental_uris":{"android":"levelo://app?vid=1965f819-3778-4654-96e5-aaaf9c36cc08","ios":"levelo://app?vid=1965f819-3778-4654-96e5-aaaf9c36cc08"},"vehicle_type_id":"4","last_reported":1745190545,"current_range_meters":6000,"station_id":"ce4bhoh2rcd13ifvqh6g","pricing_plan_id":"cebpf4jnsgd1na2vs0mg"},{"bike_id":"1b4a8f9d-2faa-464e-b7a7-813f9c13d848","system_id":"levelo_inurba_marseille","lat":43.24166,"lon":5.36401,"is_reserved":false,"is_disabled":false,"rental_uris":{"android":"levelo://app?vid=1b4a8f9d-2faa-464e-b7a7-813f9c13d848","ios":"levelo://app?vid=1b4a8f9d-2faa-464e-b7a7-813f9c13d848"},"vehicle_type_id":"4","last_reported":1745190545,"current_range_meters":6000,"station_id":"cpo36qri1sfpv3e86is0","pricing_plan_id":"cebpf4jnsgd1na2vs0mg"},{"bike_id":"ee3bc386-0e88-4aad-a7fe-d262d012b13b","system_id":"levelo_inurba_marseille","lat":43.305442,"lon":5.365557,"is_reserved":false,"is_disabled":false,"rental_uris":{"android":"levelo://app?vid=ee3bc386-0e88-4aad-a7fe-d262d012b13b","ios":"levelo://app?vid=ee3bc386-0e88-4aad-a7fe-d262d012b13b"},"vehicle_type_id":"4","last_reported":1745190545,"current_range_meters":6000,"station_id":"ce4bgv92rcd13ifvqcq0","pricing_plan_id":"cebpf4jnsgd1na2vs0mg"},{"bike_id":"42ce6626-7686-4892-9c0d-b0d5d90c0674","system_id":"levelo_inurba_marseille","lat":43.30884,"lon":5.37187,"is_reserved":false,"is_disabled":false,"rental_uris":{"android":"levelo://app?vid=42ce6626-7686-4892-9c0d-b0d5d90c0674","ios":"levelo://app?vid=42ce6626-7686-4892-9c0d-b0d5d90c0674"},"vehicle_type_id":"4","last_reported":1745190545,"current_range_meters":6400,"station_id":"ce4bguh2rcd13ifvqckg","pricing_plan_id":"cebpf4jnsgd1na2vs0mg"},{"bike_id":"46823f52-b3ef-4ae1-acb9-1fbb1a724f7e","system_id":"levelo_inurba_marseille","lat":43.25513,"lon":5.37636,"is_reserved":false,"is_disabled":true,"rental_uris":{"android":"levelo://app?vid=46823f52-b3ef-4ae1-acb9-1fbb1a724f7e","ios":"levelo://app?vid=46823f52-b3ef-4ae1-acb9-1fbb1a724f7e"},"vehicle_type_id":"4","last_reported":1745190545,"current_range_meters":6400,"station_id":"ce4bhh12rcd13ifvqff0","pricing_plan_id":"cebpf4jnsgd1na2vs0mg"},{"bike_id":"1c585d5f-928b-4936-9632-b3dc2d2af080","system_id":"levelo_inurba_marseille","lat":43.24177,"lon":5.36385,"is_reserved":false,"is_disabled":false,"rental_uris":{"android":"levelo://app?vid=1c585d5f-928b-4936-9632-b3dc2d2af080","ios":"levelo://app?vid=1c585d5f-928b-4936-9632-b3dc2d2af080"},"vehicle_type_id":"4","last_reported":1745190545,"current_range_meters":6800,"station_id":"cpo36qri1sfpv3e86is0","pricing_plan_id":"cebpf4jnsgd1na2vs0mg"},{"bike_id":"0e188a25-e269-4e2d-9b73-085cf7f646be","system_id":"levelo_inurba_marseille","lat":43.29099,"lon":5.38126,"is_reserved":false,"is_disabled":false,"rental_uris":{"android":"levelo://app?vid=0e188a25-e269-4e2d-9b73-085cf7f646be","ios":"levelo://app?vid=0e188a25-e269-4e2d-9b73-085cf7f646be"},"vehicle_type_id":"4","last_reported":1745190545,"current_range_meters":6800,"station_id":"ce4bh512rcd13ifvqe2g","pricing_plan_id":"cebpf4jnsgd1na2vs0mg"},{"bike_id":"3a8e2db4-6dce-42b4-9863-58135c2f761b","system_id":"levelo_inurba_marseille","lat":43.303063,"lon":5.392216,"is_reserved":false,"is_disabled":false,"rental_uris":{"android":"levelo://app?vid=3a8e2db4-6dce-42b4-9863-58135c2f761b","ios":"levelo://app?vid=3a8e2db4-6dce-42b4-9863-58135c2f761b"},"vehicle_type_id":"4","last_reported":1745190545,"current_range_meters":6800,"station_id":"ce4bgkh2rcd13ifvqbk0","pricing_plan_id":"cebpf4jnsgd1na2vs0mg"},{"bike_id":"c7bcb425-6a3e-46d0-9451-728e5831e9b4","system_id":"levelo_inurba_marseille","lat":43.26682,"lon":5.38268,"is_reserved":false,"is_disabled":false,"rental_uris":{"android":"levelo://app?vid=c7bcb425-6a3e-46d0-9451-728e5831e9b4","ios":"levelo://app?vid=c7bcb425-6a3e-46d0-9451-728e5831e9b4"},"vehicle_type_id":"4","last_reported":1745190545,"current_range_meters":6800,"station_id":"ce4bhg92rcd13ifvqf90","pricing_plan_id":"cebpf4jnsgd1na2vs0mg"},{"bike_id":"24213b37-b766-4d9c-a174-f6bf34920497","system_id":"levelo_inurba_marseille","lat":43.28469,"lon":5.384178,"is_reserved":false,"is_disabled":false,"rental_uris":{"android":"levelo://app?vid=24213b37-b766-4d9c-a174-f6bf34920497","ios":"levelo://app?vid=24213b37-b766-4d9c-a174-f6bf34920497"},"vehicle_type_id":"4","last_reported":1745190545,"current_range_meters":6800,"station_id":"ce4bh512rcd13ifvqe3g","pricing_plan_id":"cebpf4jnsgd1na2vs0mg"},{"bike_id":"0dd13644-e942-427d-9540-f17eaef6dd89","system_id":"levelo_inurba_marseille","lat":43.26999,"lon":5.38786,"is_reserved":false,"is_disabled":true,"rental_uris":{"android":"levelo://app?vid=0dd13644-e942-427d-9540-f17eaef6dd89","ios":"levelo://app?vid=0dd13644-e942-427d-9540-f17eaef6dd89"},"vehicle_type_id":"4","last_reported":1745190545,"current_range_meters":6800,"station_id":"","pricing_plan_id":"cebpf4jnsgd1na2vs0mg"},{"bike_id":"8dcdbddf-c32e-4b31-8e8c-b20dbb5dcd33","system_id":"levelo_inurba_marseille","lat":43.279432,"lon":5.41053,"is_reserved":false,"is_disabled":false,"rental_uris":{"android":"levelo://app?vid=8dcdbddf-c32e-4b31-8e8c-b20dbb5dcd33","ios":"levelo://app?vid=8dcdbddf-c32e-4b31-8e8c-b20dbb5dcd33"},"vehicle_type_id":"4","last_reported":1745190545,"current_range_meters":6800,"station_id":"ce4bhnp2rcd13ifvqh0g","pricing_plan_id":"cebpf4jnsgd1na2vs0mg"},{"bike_id":"2d46f81e-bf83-4416-bba9-7e11b13652fc","system_id":"levelo_inurba_marseille","lat":43.30136,"lon":5.37394,"is_reserved":false,"is_disabled":true,"rental_uris":{"android":"levelo://app?vid=2d46f81e-bf83-4416-bba9-7e11b13652fc","ios":"levelo://app?vid=2d46f81e-bf83-4416-bba9-7e11b13652fc"},"vehicle_type_id":"4","last_reported":1745190545,"current_range_meters":6800,"station_id":"ce4bgs92rcd13ifvqcc0","pricing_plan_id":"cebpf4jnsgd1na2vs0mg"},{"bike_id":"2ba8c5c4-f0af-4f23-add7-feee032d7669","system_id":"levelo_inurba_marseille","lat":43.28283,"lon":5.35066,"is_reserved":false,"is_disabled":false,"rental_uris":{"android":"levelo://app?vid=2ba8c5c4-f0af-4f23-add7-feee032d7669","ios":"levelo://app?vid=2ba8c5c4-f0af-4f23-add7-feee032d7669"},"vehicle_type_id":"4","last_reported":1745190545,"current_range_meters":6800,"station_id":"ce4bhbp2rcd13ifvqerg","pricing_plan_id":"cebpf4jnsgd1na2vs0mg"},{"bike_id":"2d40730d-c2f9-481a-9727-409d766dceea","system_id":"levelo_inurba_marseille","lat":43.26498,"lon":5.39538,"is_reserved":false,"is_disabled":false,"rental_uris":{"android":"levelo://app?vid=2d40730d-c2f9-481a-9727-409d766dceea","ios":"levelo://app?vid=2d40730d-c2f9-481a-9727-409d766dceea"},"vehicle_type_id":"4","last_reported":1745190545,"current_range_meters":6800,"station_id":"ce4bhi12rcd13ifvqfq0","pricing_plan_id":"cebpf4jnsgd1na2vs0mg"},{"bike_id":"cb1906e0-eddc-4a43-b28c-29be8c0aa51a","system_id":"levelo_inurba_marseille","lat":43.27495,"lon":5.4246,"is_reserved":false,"is_disabled":true,"rental_uris":{"android":"levelo://app?vid=cb1906e0-eddc-4a43-b28c-29be8c0aa51a","ios":"levelo://app?vid=cb1906e0-eddc-4a43-b28c-29be8c0aa51a"},"vehicle_type_id":"4","last_reported":1745190545,"current_range_meters":7200,"station_id":"ce4bhn92rcd13ifvqgrg","pricing_plan_id":"cebpf4jnsgd1na2vs0mg"},{"bike_id":"ab9be9a2-b412-4e12-b774-0ac14e1c75f2","system_id":"levelo_inurba_marseille","lat":43.23202,"lon":5.35556,"is_reserved":false,"is_disabled":false,"rental_uris":{"android":"levelo://app?vid=ab9be9a2-b412-4e12-b774-0ac14e1c75f2","ios":"levelo://app?vid=ab9be9a2-b412-4e12-b774-0ac14e1c75f2"},"vehicle_type_id":"4","last_reported":1745190545,"current_range_meters":7200,"station_id":"ce4bhu92rcd13ifvqi70","pricing_plan_id":"cebpf4jnsgd1na2vs0mg"},{"bike_id":"4be6b500-ad98-466b-9e90-b4db29b8f640","system_id":"levelo_inurba_marseille","lat":43.2862,"lon":5.35109,"is_reserved":false,"is_disabled":false,"rental_uris":{"android":"levelo://app?vid=4be6b500-ad98-466b-9e90-b4db29b8f640","ios":"levelo://app?vid=4be6b500-ad98-466b-9e90-b4db29b8f640"},"vehicle_type_id":"4","last_reported":1745190545,"current_range_meters":7200,"station_id":"ce4bhch2rcd13ifvqeug","pricing_plan_id":"cebpf4jnsgd1na2vs0mg"},{"bike_id":"f0b6af0d-1cbf-47a3-af07-dab09fabbbf0","system_id":"levelo_inurba_marseille","lat":43.23206,"lon":5.35527,"is_reserved":false,"is_disabled":false,"rental_uris":{"android":"levelo://app?vid=f0b6af0d-1cbf-47a3-af07-dab09fabbbf0","ios":"levelo://app?vid=f0b6af0d-1cbf-47a3-af07-dab09fabbbf0"},"vehicle_type_id":"4","last_reported":1745190545,"current_range_meters":7200,"station_id":"ce4bhu92rcd13ifvqi70","pricing_plan_id":"cebpf4jnsgd1na2vs0mg"},{"bike_id":"94652236-4ef1-43be-ab0a-0a1df88e0ac9","system_id":"levelo_inurba_marseille","lat":43.30928,"lon":5.40149,"is_reserved":false,"is_disabled":false,"rental_uris":{"android":"levelo://app?vid=94652236-4ef1-43be-ab0a-0a1df88e0ac9","ios":"levelo://app?vid=94652236-4ef1-43be-ab0a-0a1df88e0ac9"},"vehicle_type_id":"4","last_reported":1745190545,"current_range_meters":7200,"station_id":"","pricing_plan_id":"cebpf4jnsgd1na2vs0mg"},{"bike_id":"6565ca44-2e63-4f42-a847-09fa2bdb37f3","system_id":"levelo_inurba_marseille","lat":43.32014,"lon":5.38163,"is_reserved":false,"is_disabled":true,"rental_uris":{"android":"levelo://app?vid=6565ca44-2e63-4f42-a847-09fa2bdb37f3","ios":"levelo://app?vid=6565ca44-2e63-4f42-a847-09fa2bdb37f3"},"vehicle_type_id":"4","last_reported":1745190545,"current_range_meters":7200,"station_id":"ce4bhr12rcd13ifvqhpg","pricing_plan_id":"cebpf4jnsgd1na2vs0mg"},{"bike_id":"a969d1ed-77d3-4189-b5a7-0bf8cf90d349","system_id":"levelo_inurba_marseille","lat":43.231942,"lon":5.355529,"is_reserved":false,"is_disabled":false,"rental_uris":{"android":"levelo://app?vid=a969d1ed-77d3-4189-b5a7-0bf8cf90d349","ios":"levelo://app?vid=a969d1ed-77d3-4189-b5a7-0bf8cf90d349"},"vehicle_type_id":"4","last_reported":1745190545,"current_range_meters":7200,"station_id":"ce4bhu92rcd13ifvqi70","pricing_plan_id":"cebpf4jnsgd1na2vs0mg"},{"bike_id":"138d6608-886e-4863-a664-7df6e5cc9a47","system_id":"levelo_inurba_marseille","lat":43.32656,"lon":5.42196,"is_reserved":false,"is_disabled":false,"rental_uris":{"android":"levelo://app?vid=138d6608-886e-4863-a664-7df6e5cc9a47","ios":"levelo://app?vid=138d6608-886e-4863-a664-7df6e5cc9a47"},"vehicle_type_id":"4","last_reported":1745190545,"current_range_meters":7200,"station_id":"","pricing_plan_id":"cebpf4jnsgd1na2vs0mg"},{"bike_id":"97e50bb0-9a70-481b-b370-e509345e710a","system_id":"levelo_inurba_marseille","lat":43.28043,"lon":5.36932,"is_reserved":false,"is_disabled":true,"rental_uris":{"android":"levelo://app?vid=97e50bb0-9a70-481b-b370-e509345e710a","ios":"levelo://app?vid=97e50bb0-9a70-481b-b370-e509345e710a"},"vehicle_type_id":"4","last_reported":1745190545,"current_range_meters":8000,"station_id":"ce4bha12rcd13ifvqef0","pricing_plan_id":"cebpf4jnsgd1na2vs0mg"},{"bike_id":"dc901913-7038-4881-86f2-f816646eb17a","system_id":"levelo_inurba_marseille","lat":43.24544,"lon":5.39522,"is_reserved":false,"is_disabled":false,"rental_uris":{"android":"levelo://app?vid=dc901913-7038-4881-86f2-f816646eb17a","ios":"levelo://app?vid=dc901913-7038-4881-86f2-f816646eb17a"},"vehicle_type_id":"4","last_reported":1745190545,"current_range_meters":8000,"station_id":"ce4bhlp2rcd13ifvqgjg","pricing_plan_id":"cebpf4jnsgd1na2vs0mg"},{"bike_id":"37388e1a-253d-422c-ba73-4a19c8b5c62e","system_id":"levelo_inurba_marseille","lat":43.29595,"lon":5.38089,"is_reserved":false,"is_disabled":false,"rental_uris":{"android":"levelo://app?vid=37388e1a-253d-422c-ba73-4a19c8b5c62e","ios":"levelo://app?vid=37388e1a-253d-422c-ba73-4a19c8b5c62e"},"vehicle_type_id":"4","last_reported":1745190545,"current_range_meters":8000,"station_id":"cki0cbj6b192h4jlfktg","pricing_plan_id":"cebpf4jnsgd1na2vs0mg"},{"bike_id":"7afeef51-2056-4d06-b296-c2c124d55600","system_id":"levelo_inurba_marseille","lat":43.317248,"lon":5.423928,"is_reserved":false,"is_disabled":false,"rental_uris":{"android":"levelo://app?vid=7afeef51-2056-4d06-b296-c2c124d55600","ios":"levelo://app?vid=7afeef51-2056-4d06-b296-c2c124d55600"},"vehicle_type_id":"4","last_reported":1745190545,"current_range_meters":8000,"station_id":"ce4bhp92rcd13ifvqhbg","pricing_plan_id":"cebpf4jnsgd1na2vs0mg"},{"bike_id":"d0395819-ea40-46d3-acfe-3a01d6c396c0","system_id":"levelo_inurba_marseille","lat":43.23195,"lon":5.39979,"is_reserved":false,"is_disabled":true,"rental_uris":{"android":"levelo://app?vid=d0395819-ea40-46d3-acfe-3a01d6c396c0","ios":"levelo://app?vid=d0395819-ea40-46d3-acfe-3a01d6c396c0"},"vehicle_type_id":"4","last_reported":1745190545,"current_range_meters":8000,"station_id":"ce4bhn12rcd13ifvqgqg","pricing_plan_id":"cebpf4jnsgd1na2vs0mg"},{"bike_id":"527fac75-0783-4b2c-bd4e-07f2f2fee902","system_id":"levelo_inurba_marseille","lat":43.31154,"lon":5.37838,"is_reserved":false,"is_disabled":true,"rental_uris":{"android":"levelo://app?vid=527fac75-0783-4b2c-bd4e-07f2f2fee902","ios":"levelo://app?vid=527fac75-0783-4b2c-bd4e-07f2f2fee902"},"vehicle_type_id":"4","last_reported":1745190545,"current_range_meters":8400,"station_id":"","pricing_plan_id":"cebpf4jnsgd1na2vs0mg"},{"bike_id":"1b64a06c-8c3f-4044-b435-0c5447524fd5","system_id":"levelo_inurba_marseille","lat":43.28732,"lon":5.37356,"is_reserved":false,"is_disabled":true,"rental_uris":{"android":"levelo://app?vid=1b64a06c-8c3f-4044-b435-0c5447524fd5","ios":"levelo://app?vid=1b64a06c-8c3f-4044-b435-0c5447524fd5"},"vehicle_type_id":"4","last_reported":1745190545,"current_range_meters":8400,"station_id":"ce4bh3p2rcd13ifvqdq0","pricing_plan_id":"cebpf4jnsgd1na2vs0mg"},{"bike_id":"dfc68462-ddc5-433d-ae35-3de92604bdbc","system_id":"levelo_inurba_marseille","lat":43.26807,"lon":5.40272,"is_reserved":false,"is_disabled":false,"rental_uris":{"android":"levelo://app?vid=dfc68462-ddc5-433d-ae35-3de92604bdbc","ios":"levelo://app?vid=dfc68462-ddc5-433d-ae35-3de92604bdbc"},"vehicle_type_id":"4","last_reported":1745190545,"current_range_meters":8400,"station_id":"ce501612rcd8frsf0b60","pricing_plan_id":"cebpf4jnsgd1na2vs0mg"},{"bike_id":"3838833b-4bc6-4cd3-aec4-b4c8b8738953","system_id":"levelo_inurba_marseille","lat":43.31327,"lon":5.38666,"is_reserved":false,"is_disabled":false,"rental_uris":{"android":"levelo://app?vid=3838833b-4bc6-4cd3-aec4-b4c8b8738953","ios":"levelo://app?vid=3838833b-4bc6-4cd3-aec4-b4c8b8738953"},"vehicle_type_id":"4","last_reported":1745190545,"current_range_meters":8400,"station_id":"","pricing_plan_id":"cebpf4jnsgd1na2vs0mg"},{"bike_id":"cb9127a5-76f8-4cfa-9e72-3f333449e26a","system_id":"levelo_inurba_marseille","lat":43.27942,"lon":5.4103,"is_reserved":false,"is_disabled":false,"rental_uris":{"android":"levelo://app?vid=cb9127a5-76f8-4cfa-9e72-3f333449e26a","ios":"levelo://app?vid=cb9127a5-76f8-4cfa-9e72-3f333449e26a"},"vehicle_type_id":"4","last_reported":1745190545,"current_range_meters":8800,"station_id":"ce4bhnp2rcd13ifvqh0g","pricing_plan_id":"cebpf4jnsgd1na2vs0mg"},{"bike_id":"4e6892ef-dbe3-43e4-bc69-b2da5d802c90","system_id":"levelo_inurba_marseille","lat":43.273799,"lon":5.362547,"is_reserved":false,"is_disabled":true,"rental_uris":{"android":"levelo://app?vid=4e6892ef-dbe3-43e4-bc69-b2da5d802c90","ios":"levelo://app?vid=4e6892ef-dbe3-43e4-bc69-b2da5d802c90"},"vehicle_type_id":"4","last_reported":1745190545,"current_range_meters":8800,"station_id":"ce4bhbh2rcd13ifvqeo0","pricing_plan_id":"cebpf4jnsgd1na2vs0mg"},{"bike_id":"1886fb80-2895-40f7-844d-7933f5d904dc","system_id":"levelo_inurba_marseille","lat":43.27886,"lon":5.39313,"is_reserved":false,"is_disabled":false,"rental_uris":{"android":"levelo://app?vid=1886fb80-2895-40f7-844d-7933f5d904dc","ios":"levelo://app?vid=1886fb80-2895-40f7-844d-7933f5d904dc"},"vehicle_type_id":"4","last_reported":1745190545,"current_range_meters":8800,"station_id":"","pricing_plan_id":"cebpf4jnsgd1na2vs0mg"},{"bike_id":"7c874957-fd8c-4332-809c-6583befbbac0","system_id":"levelo_inurba_marseille","lat":43.25869,"lon":5.39902,"is_reserved":false,"is_disabled":false,"rental_uris":{"android":"levelo://app?vid=7c874957-fd8c-4332-809c-6583befbbac0","ios":"levelo://app?vid=7c874957-fd8c-4332-809c-6583befbbac0"},"vehicle_type_id":"4","last_reported":1745190545,"current_range_meters":8800,"station_id":"ce4bhl92rcd13ifvqghg","pricing_plan_id":"cebpf4jnsgd1na2vs0mg"},{"bike_id":"f7d85225-c65d-4484-ac26-03a6b1fbb5c6","system_id":"levelo_inurba_marseille","lat":43.29603,"lon":5.38081,"is_reserved":false,"is_disabled":true,"rental_uris":{"android":"levelo://app?vid=f7d85225-c65d-4484-ac26-03a6b1fbb5c6","ios":"levelo://app?vid=f7d85225-c65d-4484-ac26-03a6b1fbb5c6"},"vehicle_type_id":"4","last_reported":1745190545,"current_range_meters":9200,"station_id":"ce4bgl12rcd13ifvqbo0","pricing_plan_id":"cebpf4jnsgd1na2vs0mg"},{"bike_id":"d8754dce-3ce6-4f68-ba47-f64cfc8b26ab","system_id":"levelo_inurba_marseille","lat":43.2319,"lon":5.355636,"is_reserved":false,"is_disabled":false,"rental_uris":{"android":"levelo://app?vid=d8754dce-3ce6-4f68-ba47-f64cfc8b26ab","ios":"levelo://app?vid=d8754dce-3ce6-4f68-ba47-f64cfc8b26ab"},"vehicle_type_id":"4","last_reported":1745190545,"current_range_meters":9200,"station_id":"ce4bhu92rcd13ifvqi70","pricing_plan_id":"cebpf4jnsgd1na2vs0mg"},{"bike_id":"575ecb3d-9a37-407e-bd15-e9b0ede0cfdd","system_id":"levelo_inurba_marseille","lat":43.292778,"lon":5.401144,"is_reserved":false,"is_disabled":false,"rental_uris":{"android":"levelo://app?vid=575ecb3d-9a37-407e-bd15-e9b0ede0cfdd","ios":"levelo://app?vid=575ecb3d-9a37-407e-bd15-e9b0ede0cfdd"},"vehicle_type_id":"4","last_reported":1745190545,"current_range_meters":9600,"station_id":"ce4bh312rcd13ifvqdk0","pricing_plan_id":"cebpf4jnsgd1na2vs0mg"},{"bike_id":"27fc9e89-85ef-468e-bdd6-486fe541609c","system_id":"levelo_inurba_marseille","lat":43.31329,"lon":5.37366,"is_reserved":false,"is_disabled":false,"rental_uris":{"android":"levelo://app?vid=27fc9e89-85ef-468e-bdd6-486fe541609c","ios":"levelo://app?vid=27fc9e89-85ef-468e-bdd6-486fe541609c"},"vehicle_type_id":"4","last_reported":1745190545,"current_range_meters":9200,"station_id":"","pricing_plan_id":"cebpf4jnsgd1na2vs0mg"},{"bike_id":"fa22f285-c123-45a4-984d-fec5c2b43250","system_id":"levelo_inurba_marseille","lat":43.251211,"lon":5.403254,"is_reserved":false,"is_disabled":false,"rental_uris":{"android":"levelo://app?vid=fa22f285-c123-45a4-984d-fec5c2b43250","ios":"levelo://app?vid=fa22f285-c123-45a4-984d-fec5c2b43250"},"vehicle_type_id":"4","last_reported":1745190545,"current_range_meters":9200,"station_id":"ce4bhlh2rcd13ifvqgig","pricing_plan_id":"cebpf4jnsgd1na2vs0mg"},{"bike_id":"6276c712-dc71-4137-9a44-e63299fa20b2","system_id":"levelo_inurba_marseille","lat":43.3272,"lon":5.35905,"is_reserved":false,"is_disabled":false,"rental_uris":{"android":"levelo://app?vid=6276c712-dc71-4137-9a44-e63299fa20b2","ios":"levelo://app?vid=6276c712-dc71-4137-9a44-e63299fa20b2"},"vehicle_type_id":"4","last_reported":1745190545,"current_range_meters":9600,"station_id":"","pricing_plan_id":"cebpf4jnsgd1na2vs0mg"},{"bike_id":"d177bdcb-ba4d-4c2e-8899-f6b0f9af395c","system_id":"levelo_inurba_marseille","lat":43.25977,"lon":5.40892,"is_reserved":false,"is_disabled":false,"rental_uris":{"android":"levelo://app?vid=d177bdcb-ba4d-4c2e-8899-f6b0f9af395c","ios":"levelo://app?vid=d177bdcb-ba4d-4c2e-8899-f6b0f9af395c"},"vehicle_type_id":"4","last_reported":1745190545,"current_range_meters":9600,"station_id":"ce4bhm92rcd13ifvqglg","pricing_plan_id":"cebpf4jnsgd1na2vs0mg"},{"bike_id":"ddf08875-1592-475b-ae64-af5865607585","system_id":"levelo_inurba_marseille","lat":43.30408,"lon":5.41289,"is_reserved":false,"is_disabled":false,"rental_uris":{"android":"levelo://app?vid=ddf08875-1592-475b-ae64-af5865607585","ios":"levelo://app?vid=ddf08875-1592-475b-ae64-af5865607585"},"vehicle_type_id":"4","last_reported":1745190545,"current_range_meters":9600,"station_id":"ce4bhop2rcd13ifvqh8g","pricing_plan_id":"cebpf4jnsgd1na2vs0mg"},{"bike_id":"33399c5a-7b71-4ae2-a964-55b2f2e618d0","system_id":"levelo_inurba_marseille","lat":43.302182,"lon":5.365843,"is_reserved":false,"is_disabled":true,"rental_uris":{"android":"levelo://app?vid=33399c5a-7b71-4ae2-a964-55b2f2e618d0","ios":"levelo://app?vid=33399c5a-7b71-4ae2-a964-55b2f2e618d0"},"vehicle_type_id":"4","last_reported":1745190545,"current_range_meters":9600,"station_id":"ce4bgrh2rcd13ifvqc8g","pricing_plan_id":"cebpf4jnsgd1na2vs0mg"},{"bike_id":"f189c969-32b5-44ac-9d90-7e5f9f22e08d","system_id":"levelo_inurba_marseille","lat":43.3112,"lon":5.37769,"is_reserved":false,"is_disabled":false,"rental_uris":{"android":"levelo://app?vid=f189c969-32b5-44ac-9d90-7e5f9f22e08d","ios":"levelo://app?vid=f189c969-32b5-44ac-9d90-7e5f9f22e08d"},"vehicle_type_id":"4","last_reported":1745190545,"current_range_meters":9600,"station_id":"ce4bgt92rcd13ifvqcg0","pricing_plan_id":"cebpf4jnsgd1na2vs0mg"},{"bike_id":"cc4e8daf-8846-4035-942b-a36b9137d061","system_id":"levelo_inurba_marseille","lat":43.254921,"lon":5.376501,"is_reserved":false,"is_disabled":true,"rental_uris":{"android":"levelo://app?vid=cc4e8daf-8846-4035-942b-a36b9137d061","ios":"levelo://app?vid=cc4e8daf-8846-4035-942b-a36b9137d061"},"vehicle_type_id":"4","last_reported":1745190545,"current_range_meters":9600,"station_id":"ce4bhh12rcd13ifvqff0","pricing_plan_id":"cebpf4jnsgd1na2vs0mg"},{"bike_id":"ae701c5e-5e0e-4431-9167-95d75c59ed1b","system_id":"levelo_inurba_marseille","lat":43.29597,"lon":5.38105,"is_reserved":false,"is_disabled":false,"rental_uris":{"android":"levelo://app?vid=ae701c5e-5e0e-4431-9167-95d75c59ed1b","ios":"levelo://app?vid=ae701c5e-5e0e-4431-9167-95d75c59ed1b"},"vehicle_type_id":"4","last_reported":1745190545,"current_range_meters":9600,"station_id":"ce4bgl12rcd13ifvqbo0","pricing_plan_id":"cebpf4jnsgd1na2vs0mg"},{"bike_id":"d5ef647d-00ca-43ce-8de2-a9826ded3f15","system_id":"levelo_inurba_marseille","lat":43.21211,"lon":5.35056,"is_reserved":false,"is_disabled":false,"rental_uris":{"android":"levelo://app?vid=d5ef647d-00ca-43ce-8de2-a9826ded3f15","ios":"levelo://app?vid=d5ef647d-00ca-43ce-8de2-a9826ded3f15"},"vehicle_type_id":"4","last_reported":1745190545,"current_range_meters":9600,"station_id":"st_cvj6sg6p6f1abm77japg","pricing_plan_id":"cebpf4jnsgd1na2vs0mg"},{"bike_id":"ff62b9d0-0cdf-448d-ada3-96d9918ce15c","system_id":"levelo_inurba_marseille","lat":43.31104,"lon":5.36934,"is_reserved":false,"is_disabled":false,"rental_uris":{"android":"levelo://app?vid=ff62b9d0-0cdf-448d-ada3-96d9918ce15c","ios":"levelo://app?vid=ff62b9d0-0cdf-448d-ada3-96d9918ce15c"},"vehicle_type_id":"4","last_reported":1745190545,"current_range_meters":10000,"station_id":"","pricing_plan_id":"cebpf4jnsgd1na2vs0mg"},{"bike_id":"6ce6abee-a9ab-481a-823c-2444ef2605e2","system_id":"levelo_inurba_marseille","lat":43.26481,"lon":5.39553,"is_reserved":false,"is_disabled":false,"rental_uris":{"android":"levelo://app?vid=6ce6abee-a9ab-481a-823c-2444ef2605e2","ios":"levelo://app?vid=6ce6abee-a9ab-481a-823c-2444ef2605e2"},"vehicle_type_id":"4","last_reported":1745190545,"current_range_meters":9600,"station_id":"ce4bhi12rcd13ifvqfq0","pricing_plan_id":"cebpf4jnsgd1na2vs0mg"},{"bike_id":"3c68d4af-f244-4d5b-a673-170645748e37","system_id":"levelo_inurba_marseille","lat":43.27685,"lon":5.39803,"is_reserved":false,"is_disabled":false,"rental_uris":{"android":"levelo://app?vid=3c68d4af-f244-4d5b-a673-170645748e37","ios":"levelo://app?vid=3c68d4af-f244-4d5b-a673-170645748e37"},"vehicle_type_id":"4","last_reported":1745190545,"current_range_meters":10000,"station_id":"","pricing_plan_id":"cebpf4jnsgd1na2vs0mg"},{"bike_id":"cb49a910-1800-4408-bc84-04aa9da501a9","system_id":"levelo_inurba_marseille","lat":43.30875,"lon":5.39629,"is_reserved":false,"is_disabled":false,"rental_uris":{"android":"levelo://app?vid=cb49a910-1800-4408-bc84-04aa9da501a9","ios":"levelo://app?vid=cb49a910-1800-4408-bc84-04aa9da501a9"},"vehicle_type_id":"4","last_reported":1745190545,"current_range_meters":10000,"station_id":"ce4bh012rcd13ifvqcv0","pricing_plan_id":"cebpf4jnsgd1na2vs0mg"},{"bike_id":"3f9b351e-24c7-4831-949f-a89b33917557","system_id":"levelo_inurba_marseille","lat":43.24059,"lon":5.37757,"is_reserved":false,"is_disabled":false,"rental_uris":{"android":"levelo://app?vid=3f9b351e-24c7-4831-949f-a89b33917557","ios":"levelo://app?vid=3f9b351e-24c7-4831-949f-a89b33917557"},"vehicle_type_id":"4","last_reported":1745190545,"current_range_meters":10000,"station_id":"ce4bhnp2rcd13ifvqgvg","pricing_plan_id":"cebpf4jnsgd1na2vs0mg"},{"bike_id":"4e0feb4b-9af5-4c5c-a215-eabded87c4f9","system_id":"levelo_inurba_marseille","lat":43.23198,"lon":5.35546,"is_reserved":false,"is_disabled":false,"rental_uris":{"android":"levelo://app?vid=4e0feb4b-9af5-4c5c-a215-eabded87c4f9","ios":"levelo://app?vid=4e0feb4b-9af5-4c5c-a215-eabded87c4f9"},"vehicle_type_id":"4","last_reported":1745190545,"current_range_meters":10000,"station_id":"ce4bhu92rcd13ifvqi70","pricing_plan_id":"cebpf4jnsgd1na2vs0mg"},{"bike_id":"9310a2aa-2017-4adc-b31b-aeb56406018d","system_id":"levelo_inurba_marseille","lat":43.29213,"lon":5.39321,"is_reserved":false,"is_disabled":false,"rental_uris":{"android":"levelo://app?vid=9310a2aa-2017-4adc-b31b-aeb56406018d","ios":"levelo://app?vid=9310a2aa-2017-4adc-b31b-aeb56406018d"},"vehicle_type_id":"4","last_reported":1745190545,"current_range_meters":10000,"station_id":"ce4bh192rcd13ifvqdd0","pricing_plan_id":"cebpf4jnsgd1na2vs0mg"},{"bike_id":"478adf2f-07e1-4396-965c-e1a74e1fa681","system_id":"levelo_inurba_marseille","lat":43.27901,"lon":5.38021,"is_reserved":false,"is_disabled":false,"rental_uris":{"android":"levelo://app?vid=478adf2f-07e1-4396-965c-e1a74e1fa681","ios":"levelo://app?vid=478adf2f-07e1-4396-965c-e1a74e1fa681"},"vehicle_type_id":"4","last_reported":1745190545,"current_range_meters":10000,"station_id":"ce4bhf92rcd13ifvqf50","pricing_plan_id":"cebpf4jnsgd1na2vs0mg"},{"bike_id":"64904af7-8595-4150-91ff-57ff6ea5c1cc","system_id":"levelo_inurba_marseille","lat":43.31522,"lon":5.37273,"is_reserved":false,"is_disabled":false,"rental_uris":{"android":"levelo://app?vid=64904af7-8595-4150-91ff-57ff6ea5c1cc","ios":"levelo://app?vid=64904af7-8595-4150-91ff-57ff6ea5c1cc"},"vehicle_type_id":"4","last_reported":1745190545,"current_range_meters":10800,"station_id":"","pricing_plan_id":"cebpf4jnsgd1na2vs0mg"},{"bike_id":"044b6cdf-529a-462e-b435-6c399001a1a6","system_id":"levelo_inurba_marseille","lat":43.309323,"lon":5.401406,"is_reserved":false,"is_disabled":false,"rental_uris":{"android":"levelo://app?vid=044b6cdf-529a-462e-b435-6c399001a1a6","ios":"levelo://app?vid=044b6cdf-529a-462e-b435-6c399001a1a6"},"vehicle_type_id":"4","last_reported":1745190545,"current_range_meters":10800,"station_id":"ce4bgvp2rcd13ifvqct0","pricing_plan_id":"cebpf4jnsgd1na2vs0mg"},{"bike_id":"59216526-d01c-4d77-b6e3-a6c766976571","system_id":"levelo_inurba_marseille","lat":43.22516,"lon":5.34757,"is_reserved":false,"is_disabled":false,"rental_uris":{"android":"levelo://app?vid=59216526-d01c-4d77-b6e3-a6c766976571","ios":"levelo://app?vid=59216526-d01c-4d77-b6e3-a6c766976571"},"vehicle_type_id":"4","last_reported":1745190545,"current_range_meters":10800,"station_id":"st_cvj5dfep6f1abm77gieg","pricing_plan_id":"cebpf4jnsgd1na2vs0mg"},{"bike_id":"9ec00016-bdd1-44d1-be62-4b7d926dd044","system_id":"levelo_inurba_marseille","lat":43.30919,"lon":5.37267,"is_reserved":false,"is_disabled":false,"rental_uris":{"android":"levelo://app?vid=9ec00016-bdd1-44d1-be62-4b7d926dd044","ios":"levelo://app?vid=9ec00016-bdd1-44d1-be62-4b7d926dd044"},"vehicle_type_id":"4","last_reported":1745190545,"current_range_meters":10800,"station_id":"","pricing_plan_id":"cebpf4jnsgd1na2vs0mg"},{"bike_id":"f01fc261-033f-49c7-b09e-b9967362bd76","system_id":"levelo_inurba_marseille","lat":43.288573,"lon":5.358338,"is_reserved":false,"is_disabled":true,"rental_uris":{"android":"levelo://app?vid=f01fc261-033f-49c7-b09e-b9967362bd76","ios":"levelo://app?vid=f01fc261-033f-49c7-b09e-b9967362bd76"},"vehicle_type_id":"4","last_reported":1745190545,"current_range_meters":10800,"station_id":"ce4bhb12rcd13ifvqem0","pricing_plan_id":"cebpf4jnsgd1na2vs0mg"},{"bike_id":"f15e6d6c-4e91-4850-86dd-4c3b99eca958","system_id":"levelo_inurba_marseille","lat":43.28077,"lon":5.39645,"is_reserved":false,"is_disabled":false,"rental_uris":{"android":"levelo://app?vid=f15e6d6c-4e91-4850-86dd-4c3b99eca958","ios":"levelo://app?vid=f15e6d6c-4e91-4850-86dd-4c3b99eca958"},"vehicle_type_id":"4","last_reported":1745190545,"current_range_meters":10800,"station_id":"ce4bho12rcd13ifvqh2g","pricing_plan_id":"cebpf4jnsgd1na2vs0mg"},{"bike_id":"6c270d04-4abb-4317-b860-014cc2de7a8e","system_id":"levelo_inurba_marseille","lat":43.298369,"lon":5.376891,"is_reserved":false,"is_disabled":false,"rental_uris":{"android":"levelo://app?vid=6c270d04-4abb-4317-b860-014cc2de7a8e","ios":"levelo://app?vid=6c270d04-4abb-4317-b860-014cc2de7a8e"},"vehicle_type_id":"4","last_reported":1745190545,"current_range_meters":11200,"station_id":"ce4bgrp2rcd13ifvqc9g","pricing_plan_id":"cebpf4jnsgd1na2vs0mg"},{"bike_id":"cab64969-2640-47ee-abb9-f11afb1f3a59","system_id":"levelo_inurba_marseille","lat":43.28626,"lon":5.35087,"is_reserved":false,"is_disabled":true,"rental_uris":{"android":"levelo://app?vid=cab64969-2640-47ee-abb9-f11afb1f3a59","ios":"levelo://app?vid=cab64969-2640-47ee-abb9-f11afb1f3a59"},"vehicle_type_id":"4","last_reported":1745190545,"current_range_meters":11200,"station_id":"ce4bhch2rcd13ifvqeug","pricing_plan_id":"cebpf4jnsgd1na2vs0mg"},{"bike_id":"1ace1b61-e2c8-4a41-a3cf-5c94b36f34ae","system_id":"levelo_inurba_marseille","lat":43.211958,"lon":5.350672,"is_reserved":false,"is_disabled":false,"rental_uris":{"android":"levelo://app?vid=1ace1b61-e2c8-4a41-a3cf-5c94b36f34ae","ios":"levelo://app?vid=1ace1b61-e2c8-4a41-a3cf-5c94b36f34ae"},"vehicle_type_id":"4","last_reported":1745190545,"current_range_meters":11200,"station_id":"st_cvj6sg6p6f1abm77japg","pricing_plan_id":"cebpf4jnsgd1na2vs0mg"},{"bike_id":"478b8553-2e4a-4e10-ada0-743a4ab35f36","system_id":"levelo_inurba_marseille","lat":43.31708,"lon":5.37746,"is_reserved":false,"is_disabled":false,"rental_uris":{"android":"levelo://app?vid=478b8553-2e4a-4e10-ada0-743a4ab35f36","ios":"levelo://app?vid=478b8553-2e4a-4e10-ada0-743a4ab35f36"},"vehicle_type_id":"4","last_reported":1745190545,"current_range_meters":11200,"station_id":"ce4bgth2rcd13ifvqch0","pricing_plan_id":"cebpf4jnsgd1na2vs0mg"},{"bike_id":"a3dd9a0b-1e95-49bd-9b52-a761b312f104","system_id":"levelo_inurba_marseille","lat":43.25593,"lon":5.3823,"is_reserved":false,"is_disabled":false,"rental_uris":{"android":"levelo://app?vid=a3dd9a0b-1e95-49bd-9b52-a761b312f104","ios":"levelo://app?vid=a3dd9a0b-1e95-49bd-9b52-a761b312f104"},"vehicle_type_id":"4","last_reported":1745190545,"current_range_meters":11600,"station_id":"ce4bhih2rcd13ifvqfs0","pricing_plan_id":"cebpf4jnsgd1na2vs0mg"},{"bike_id":"20358d47-fe57-4b4c-8c22-ee1219ba0dbb","system_id":"levelo_inurba_marseille","lat":43.28464,"lon":5.35874,"is_reserved":false,"is_disabled":false,"rental_uris":{"android":"levelo://app?vid=20358d47-fe57-4b4c-8c22-ee1219ba0dbb","ios":"levelo://app?vid=20358d47-fe57-4b4c-8c22-ee1219ba0dbb"},"vehicle_type_id":"4","last_reported":1745190545,"current_range_meters":11600,"station_id":"ce4bhah2rcd13ifvqei0","pricing_plan_id":"cebpf4jnsgd1na2vs0mg"},{"bike_id":"50720bbe-5512-41d7-86e0-3df313b565c6","system_id":"levelo_inurba_marseille","lat":43.32362,"lon":5.38896,"is_reserved":false,"is_disabled":true,"rental_uris":{"android":"levelo://app?vid=50720bbe-5512-41d7-86e0-3df313b565c6","ios":"levelo://app?vid=50720bbe-5512-41d7-86e0-3df313b565c6"},"vehicle_type_id":"4","last_reported":1745190545,"current_range_meters":11600,"station_id":"ce4bhqp2rcd13ifvqhog","pricing_plan_id":"cebpf4jnsgd1na2vs0mg"},{"bike_id":"f1e1bc98-6c86-455e-bb78-02898a313f74","system_id":"levelo_inurba_marseille","lat":43.31074,"lon":5.38351,"is_reserved":false,"is_disabled":false,"rental_uris":{"android":"levelo://app?vid=f1e1bc98-6c86-455e-bb78-02898a313f74","ios":"levelo://app?vid=f1e1bc98-6c86-455e-bb78-02898a313f74"},"vehicle_type_id":"4","last_reported":1745190545,"current_range_meters":11600,"station_id":"ce4bgv92rcd13ifvqcr0","pricing_plan_id":"cebpf4jnsgd1na2vs0mg"},{"bike_id":"b157dc81-51c5-45f3-a677-9e9c3cf6283b","system_id":"levelo_inurba_marseille","lat":43.30851,"lon":5.37101,"is_reserved":false,"is_disabled":false,"rental_uris":{"android":"levelo://app?vid=b157dc81-51c5-45f3-a677-9e9c3cf6283b","ios":"levelo://app?vid=b157dc81-51c5-45f3-a677-9e9c3cf6283b"},"vehicle_type_id":"4","last_reported":1745190545,"current_range_meters":11600,"station_id":"","pricing_plan_id":"cebpf4jnsgd1na2vs0mg"},{"bike_id":"1184e7cb-97e6-48bd-84cd-8e59c100c07b","system_id":"levelo_inurba_marseille","lat":43.29298,"lon":5.36788,"is_reserved":false,"is_disabled":true,"rental_uris":{"android":"levelo://app?vid=1184e7cb-97e6-48bd-84cd-8e59c100c07b","ios":"levelo://app?vid=1184e7cb-97e6-48bd-84cd-8e59c100c07b"},"vehicle_type_id":"4","last_reported":1745190545,"current_range_meters":12400,"station_id":"ce4bhbp2rcd13ifvqesg","pricing_plan_id":"cebpf4jnsgd1na2vs0mg"},{"bike_id":"31daaaea-e3d1-46f6-8391-a46d550b149c","system_id":"levelo_inurba_marseille","lat":43.27933,"lon":5.41027,"is_reserved":false,"is_disabled":false,"rental_uris":{"android":"levelo://app?vid=31daaaea-e3d1-46f6-8391-a46d550b149c","ios":"levelo://app?vid=31daaaea-e3d1-46f6-8391-a46d550b149c"},"vehicle_type_id":"4","last_reported":1745190545,"current_range_meters":12000,"station_id":"ce4bhnp2rcd13ifvqh0g","pricing_plan_id":"cebpf4jnsgd1na2vs0mg"},{"bike_id":"aa4956c6-6845-4783-8776-ee4b88f920ec","system_id":"levelo_inurba_marseille","lat":43.28636,"lon":5.37082,"is_reserved":false,"is_disabled":true,"rental_uris":{"android":"levelo://app?vid=aa4956c6-6845-4783-8776-ee4b88f920ec","ios":"levelo://app?vid=aa4956c6-6845-4783-8776-ee4b88f920ec"},"vehicle_type_id":"4","last_reported":1745190545,"current_range_meters":12000,"station_id":"ce4bht12rcd13ifvqi60","pricing_plan_id":"cebpf4jnsgd1na2vs0mg"},{"bike_id":"1737dea4-541f-4bc8-9731-1ab03c2deae6","system_id":"levelo_inurba_marseille","lat":43.23965,"lon":5.36615,"is_reserved":false,"is_disabled":true,"rental_uris":{"android":"levelo://app?vid=1737dea4-541f-4bc8-9731-1ab03c2deae6","ios":"levelo://app?vid=1737dea4-541f-4bc8-9731-1ab03c2deae6"},"vehicle_type_id":"4","last_reported":1745190545,"current_range_meters":12000,"station_id":"ce4bhi12rcd13ifvqfp0","pricing_plan_id":"cebpf4jnsgd1na2vs0mg"},{"bike_id":"74d161d5-7989-4bd8-8c2c-eabf0f619b35","system_id":"levelo_inurba_marseille","lat":43.30235,"lon":5.39455,"is_reserved":false,"is_disabled":false,"rental_uris":{"android":"levelo://app?vid=74d161d5-7989-4bd8-8c2c-eabf0f619b35","ios":"levelo://app?vid=74d161d5-7989-4bd8-8c2c-eabf0f619b35"},"vehicle_type_id":"4","last_reported":1745190545,"current_range_meters":12000,"station_id":"ce4bh0p2rcd13ifvqd70","pricing_plan_id":"cebpf4jnsgd1na2vs0mg"},{"bike_id":"4233b3a0-b043-4aa0-a1ea-c984fc662664","system_id":"levelo_inurba_marseille","lat":43.280352,"lon":5.369518,"is_reserved":false,"is_disabled":false,"rental_uris":{"android":"levelo://app?vid=4233b3a0-b043-4aa0-a1ea-c984fc662664","ios":"levelo://app?vid=4233b3a0-b043-4aa0-a1ea-c984fc662664"},"vehicle_type_id":"4","last_reported":1745190545,"current_range_meters":12400,"station_id":"ce4bha12rcd13ifvqef0","pricing_plan_id":"cebpf4jnsgd1na2vs0mg"},{"bike_id":"d53e964c-f934-484c-a259-3e8f23cdd819","system_id":"levelo_inurba_marseille","lat":43.3373,"lon":5.39187,"is_reserved":false,"is_disabled":false,"rental_uris":{"android":"levelo://app?vid=d53e964c-f934-484c-a259-3e8f23cdd819","ios":"levelo://app?vid=d53e964c-f934-484c-a259-3e8f23cdd819"},"vehicle_type_id":"4","last_reported":1745190545,"current_range_meters":12400,"station_id":"ce4bhr92rcd13ifvqhsg","pricing_plan_id":"cebpf4jnsgd1na2vs0mg"},{"bike_id":"54333f71-3852-4e7b-b374-b14e492e4962","system_id":"levelo_inurba_marseille","lat":43.3041,"lon":5.41271,"is_reserved":false,"is_disabled":true,"rental_uris":{"android":"levelo://app?vid=54333f71-3852-4e7b-b374-b14e492e4962","ios":"levelo://app?vid=54333f71-3852-4e7b-b374-b14e492e4962"},"vehicle_type_id":"4","last_reported":1745190545,"current_range_meters":12800,"station_id":"ce4bhop2rcd13ifvqh8g","pricing_plan_id":"cebpf4jnsgd1na2vs0mg"},{"bike_id":"879c4764-ec34-4053-99a8-4501c6e0ccc4","system_id":"levelo_inurba_marseille","lat":43.25206,"lon":5.4148,"is_reserved":false,"is_disabled":false,"rental_uris":{"android":"levelo://app?vid=879c4764-ec34-4053-99a8-4501c6e0ccc4","ios":"levelo://app?vid=879c4764-ec34-4053-99a8-4501c6e0ccc4"},"vehicle_type_id":"4","last_reported":1745190545,"current_range_meters":12800,"station_id":"ce4bhkp2rcd13ifvqgd0","pricing_plan_id":"cebpf4jnsgd1na2vs0mg"},{"bike_id":"b25b6470-ff43-4d6b-b299-0f21ec070f27","system_id":"levelo_inurba_marseille","lat":43.2991,"lon":5.38123,"is_reserved":false,"is_disabled":true,"rental_uris":{"android":"levelo://app?vid=b25b6470-ff43-4d6b-b299-0f21ec070f27","ios":"levelo://app?vid=b25b6470-ff43-4d6b-b299-0f21ec070f27"},"vehicle_type_id":"4","last_reported":1745190545,"current_range_meters":12800,"station_id":"ce4bgj12rcd13ifvqbc0","pricing_plan_id":"cebpf4jnsgd1na2vs0mg"},{"bike_id":"cb04d036-524e-497d-b1e8-d53251979b05","system_id":"levelo_inurba_marseille","lat":43.29888,"lon":5.39746,"is_reserved":false,"is_disabled":true,"rental_uris":{"android":"levelo://app?vid=cb04d036-524e-497d-b1e8-d53251979b05","ios":"levelo://app?vid=cb04d036-524e-497d-b1e8-d53251979b05"},"vehicle_type_id":"4","last_reported":1745190545,"current_range_meters":13600,"station_id":"ce4bh0h2rcd13ifvqd50","pricing_plan_id":"cebpf4jnsgd1na2vs0mg"},{"bike_id":"d66f2fbf-84c1-4006-a003-d92ef3aa9479","system_id":"levelo_inurba_marseille","lat":43.23192,"lon":5.35532,"is_reserved":false,"is_disabled":false,"rental_uris":{"android":"levelo://app?vid=d66f2fbf-84c1-4006-a003-d92ef3aa9479","ios":"levelo://app?vid=d66f2fbf-84c1-4006-a003-d92ef3aa9479"},"vehicle_type_id":"4","last_reported":1745190545,"current_range_meters":13600,"station_id":"ce4bhu92rcd13ifvqi70","pricing_plan_id":"cebpf4jnsgd1na2vs0mg"},{"bike_id":"a56f74a1-b420-4979-a668-12b6739988bd","system_id":"levelo_inurba_marseille","lat":43.29912,"lon":5.38133,"is_reserved":false,"is_disabled":false,"rental_uris":{"android":"levelo://app?vid=a56f74a1-b420-4979-a668-12b6739988bd","ios":"levelo://app?vid=a56f74a1-b420-4979-a668-12b6739988bd"},"vehicle_type_id":"4","last_reported":1745190545,"current_range_meters":13600,"station_id":"ce4bgj12rcd13ifvqbc0","pricing_plan_id":"cebpf4jnsgd1na2vs0mg"},{"bike_id":"4a7b1a03-2df0-4e20-8c86-9af3afa1180c","system_id":"levelo_inurba_marseille","lat":43.30889,"lon":5.39628,"is_reserved":false,"is_disabled":false,"rental_uris":{"android":"levelo://app?vid=4a7b1a03-2df0-4e20-8c86-9af3afa1180c","ios":"levelo://app?vid=4a7b1a03-2df0-4e20-8c86-9af3afa1180c"},"vehicle_type_id":"4","last_reported":1745190545,"current_range_meters":14000,"station_id":"ce4bh012rcd13ifvqcv0","pricing_plan_id":"cebpf4jnsgd1na2vs0mg"},{"bike_id":"aa2181d9-3a2b-43be-b087-866ee268284e","system_id":"levelo_inurba_marseille","lat":43.26796,"lon":5.39411,"is_reserved":false,"is_disabled":false,"rental_uris":{"android":"levelo://app?vid=aa2181d9-3a2b-43be-b087-866ee268284e","ios":"levelo://app?vid=aa2181d9-3a2b-43be-b087-866ee268284e"},"vehicle_type_id":"4","last_reported":1745190545,"current_range_meters":13600,"station_id":"ce4bhh12rcd13ifvqfg0","pricing_plan_id":"cebpf4jnsgd1na2vs0mg"},{"bike_id":"9fc1dd27-12bb-4c7c-855d-f82b71b82bf7","system_id":"levelo_inurba_marseille","lat":43.231922,"lon":5.355449,"is_reserved":false,"is_disabled":false,"rental_uris":{"android":"levelo://app?vid=9fc1dd27-12bb-4c7c-855d-f82b71b82bf7","ios":"levelo://app?vid=9fc1dd27-12bb-4c7c-855d-f82b71b82bf7"},"vehicle_type_id":"4","last_reported":1745190545,"current_range_meters":14000,"station_id":"ce4bhu92rcd13ifvqi70","pricing_plan_id":"cebpf4jnsgd1na2vs0mg"},{"bike_id":"0c740345-fc44-4114-9249-636a4f51975f","system_id":"levelo_inurba_marseille","lat":43.2797,"lon":5.38731,"is_reserved":false,"is_disabled":false,"rental_uris":{"android":"levelo://app?vid=0c740345-fc44-4114-9249-636a4f51975f","ios":"levelo://app?vid=0c740345-fc44-4114-9249-636a4f51975f"},"vehicle_type_id":"4","last_reported":1745190545,"current_range_meters":14400,"station_id":"ce4bhg12rcd13ifvqf80","pricing_plan_id":"cebpf4jnsgd1na2vs0mg"},{"bike_id":"4d8ee2c5-8346-4b66-ae86-f443b6bdd2d9","system_id":"levelo_inurba_marseille","lat":43.24543,"lon":5.41296,"is_reserved":false,"is_disabled":false,"rental_uris":{"android":"levelo://app?vid=4d8ee2c5-8346-4b66-ae86-f443b6bdd2d9","ios":"levelo://app?vid=4d8ee2c5-8346-4b66-ae86-f443b6bdd2d9"},"vehicle_type_id":"4","last_reported":1745190545,"current_range_meters":14400,"station_id":"","pricing_plan_id":"cebpf4jnsgd1na2vs0mg"},{"bike_id":"2d2e4840-713e-4771-ae07-2155d13a6672","system_id":"levelo_inurba_marseille","lat":43.29944,"lon":5.36543,"is_reserved":false,"is_disabled":true,"rental_uris":{"android":"levelo://app?vid=2d2e4840-713e-4771-ae07-2155d13a6672","ios":"levelo://app?vid=2d2e4840-713e-4771-ae07-2155d13a6672"},"vehicle_type_id":"4","last_reported":1745190545,"current_range_meters":14400,"station_id":"ce4bgm92rcd13ifvqbr0","pricing_plan_id":"cebpf4jnsgd1na2vs0mg"},{"bike_id":"9cd66f20-0974-44a3-a00c-3af08e74ebf2","system_id":"levelo_inurba_marseille","lat":43.25936,"lon":5.41806,"is_reserved":false,"is_disabled":false,"rental_uris":{"android":"levelo://app?vid=9cd66f20-0974-44a3-a00c-3af08e74ebf2","ios":"levelo://app?vid=9cd66f20-0974-44a3-a00c-3af08e74ebf2"},"vehicle_type_id":"4","last_reported":1745190545,"current_range_meters":14400,"station_id":"","pricing_plan_id":"cebpf4jnsgd1na2vs0mg"},{"bike_id":"f95b6ba3-4ffd-4dee-8387-c1e0a51dcdd2","system_id":"levelo_inurba_marseille","lat":43.27943,"lon":5.41041,"is_reserved":false,"is_disabled":false,"rental_uris":{"android":"levelo://app?vid=f95b6ba3-4ffd-4dee-8387-c1e0a51dcdd2","ios":"levelo://app?vid=f95b6ba3-4ffd-4dee-8387-c1e0a51dcdd2"},"vehicle_type_id":"4","last_reported":1745190545,"current_range_meters":14400,"station_id":"ce4bhnp2rcd13ifvqh0g","pricing_plan_id":"cebpf4jnsgd1na2vs0mg"},{"bike_id":"ad938c7c-0f1b-4f09-bc5a-4ef9087f361b","system_id":"levelo_inurba_marseille","lat":43.24082,"lon":5.37756,"is_reserved":false,"is_disabled":false,"rental_uris":{"android":"levelo://app?vid=ad938c7c-0f1b-4f09-bc5a-4ef9087f361b","ios":"levelo://app?vid=ad938c7c-0f1b-4f09-bc5a-4ef9087f361b"},"vehicle_type_id":"4","last_reported":1745190545,"current_range_meters":14000,"station_id":"ce4bhnp2rcd13ifvqgvg","pricing_plan_id":"cebpf4jnsgd1na2vs0mg"},{"bike_id":"46600b5c-7330-43b7-8392-789f98f83f0b","system_id":"levelo_inurba_marseille","lat":43.30932,"lon":5.40158,"is_reserved":false,"is_disabled":false,"rental_uris":{"android":"levelo://app?vid=46600b5c-7330-43b7-8392-789f98f83f0b","ios":"levelo://app?vid=46600b5c-7330-43b7-8392-789f98f83f0b"},"vehicle_type_id":"4","last_reported":1745190545,"current_range_meters":14800,"station_id":"ce4bgvp2rcd13ifvqct0","pricing_plan_id":"cebpf4jnsgd1na2vs0mg"},{"bike_id":"1e56c845-c052-465c-aa20-9f674f4c5764","system_id":"levelo_inurba_marseille","lat":43.30443,"lon":5.38895,"is_reserved":false,"is_disabled":false,"rental_uris":{"android":"levelo://app?vid=1e56c845-c052-465c-aa20-9f674f4c5764","ios":"levelo://app?vid=1e56c845-c052-465c-aa20-9f674f4c5764"},"vehicle_type_id":"4","last_reported":1745190545,"current_range_meters":14800,"station_id":"ce4bgk12rcd13ifvqbi0","pricing_plan_id":"cebpf4jnsgd1na2vs0mg"},{"bike_id":"f4f7624b-eec9-47f5-9227-aa44836a7a81","system_id":"levelo_inurba_marseille","lat":43.231942,"lon":5.355465,"is_reserved":false,"is_disabled":false,"rental_uris":{"android":"levelo://app?vid=f4f7624b-eec9-47f5-9227-aa44836a7a81","ios":"levelo://app?vid=f4f7624b-eec9-47f5-9227-aa44836a7a81"},"vehicle_type_id":"4","last_reported":1745190545,"current_range_meters":14800,"station_id":"ce4bhu92rcd13ifvqi70","pricing_plan_id":"cebpf4jnsgd1na2vs0mg"},{"bike_id":"53b3b9c9-bf4c-40f9-ba2e-ec3f8e3f866c","system_id":"levelo_inurba_marseille","lat":43.229241,"lon":5.353789,"is_reserved":false,"is_disabled":false,"rental_uris":{"android":"levelo://app?vid=53b3b9c9-bf4c-40f9-ba2e-ec3f8e3f866c","ios":"levelo://app?vid=53b3b9c9-bf4c-40f9-ba2e-ec3f8e3f866c"},"vehicle_type_id":"4","last_reported":1745190545,"current_range_meters":15200,"station_id":"cpo3532slgdg3j2ikp40","pricing_plan_id":"cebpf4jnsgd1na2vs0mg"},{"bike_id":"ee910e3a-4ec1-4a75-b39a-8a2ef121fc79","system_id":"levelo_inurba_marseille","lat":43.255,"lon":5.37644,"is_reserved":false,"is_disabled":false,"rental_uris":{"android":"levelo://app?vid=ee910e3a-4ec1-4a75-b39a-8a2ef121fc79","ios":"levelo://app?vid=ee910e3a-4ec1-4a75-b39a-8a2ef121fc79"},"vehicle_type_id":"4","last_reported":1745190545,"current_range_meters":15200,"station_id":"ce4bhh12rcd13ifvqff0","pricing_plan_id":"cebpf4jnsgd1na2vs0mg"},{"bike_id":"0d748dfc-aedf-4166-81ce-d31cfc22b690","system_id":"levelo_inurba_marseille","lat":43.29263,"lon":5.40903,"is_reserved":false,"is_disabled":false,"rental_uris":{"android":"levelo://app?vid=0d748dfc-aedf-4166-81ce-d31cfc22b690","ios":"levelo://app?vid=0d748dfc-aedf-4166-81ce-d31cfc22b690"},"vehicle_type_id":"4","last_reported":1745190545,"current_range_meters":15200,"station_id":"ce4bh192rcd13ifvqdc0","pricing_plan_id":"cebpf4jnsgd1na2vs0mg"},{"bike_id":"2db326d4-f1e6-40b9-a86d-5b7347aa84f7","system_id":"levelo_inurba_marseille","lat":43.31273,"lon":5.40168,"is_reserved":false,"is_disabled":false,"rental_uris":{"android":"levelo://app?vid=2db326d4-f1e6-40b9-a86d-5b7347aa84f7","ios":"levelo://app?vid=2db326d4-f1e6-40b9-a86d-5b7347aa84f7"},"vehicle_type_id":"4","last_reported":1745190545,"current_range_meters":15200,"station_id":"ce4bh092rcd13ifvqd30","pricing_plan_id":"cebpf4jnsgd1na2vs0mg"},{"bike_id":"5069dd58-c0a4-4a82-89c4-361b75ac07f9","system_id":"levelo_inurba_marseille","lat":43.25582,"lon":5.38257,"is_reserved":false,"is_disabled":false,"rental_uris":{"android":"levelo://app?vid=5069dd58-c0a4-4a82-89c4-361b75ac07f9","ios":"levelo://app?vid=5069dd58-c0a4-4a82-89c4-361b75ac07f9"},"vehicle_type_id":"4","last_reported":1745190545,"current_range_meters":15200,"station_id":"ce4bhih2rcd13ifvqfs0","pricing_plan_id":"cebpf4jnsgd1na2vs0mg"},{"bike_id":"eeda6042-4dd4-4852-b73d-ce3ebf7f669b","system_id":"levelo_inurba_marseille","lat":43.25119,"lon":5.40316,"is_reserved":false,"is_disabled":false,"rental_uris":{"android":"levelo://app?vid=eeda6042-4dd4-4852-b73d-ce3ebf7f669b","ios":"levelo://app?vid=eeda6042-4dd4-4852-b73d-ce3ebf7f669b"},"vehicle_type_id":"4","last_reported":1745190545,"current_range_meters":15200,"station_id":"ce4bhlh2rcd13ifvqgig","pricing_plan_id":"cebpf4jnsgd1na2vs0mg"},{"bike_id":"a5984312-2869-4820-8cb6-c49aefed6914","system_id":"levelo_inurba_marseille","lat":43.280342,"lon":5.369374,"is_reserved":false,"is_disabled":false,"rental_uris":{"android":"levelo://app?vid=a5984312-2869-4820-8cb6-c49aefed6914","ios":"levelo://app?vid=a5984312-2869-4820-8cb6-c49aefed6914"},"vehicle_type_id":"4","last_reported":1745190545,"current_range_meters":15200,"station_id":"ce4bha12rcd13ifvqef0","pricing_plan_id":"cebpf4jnsgd1na2vs0mg"},{"bike_id":"c4fc050b-7c58-4380-8033-ffe242748317","system_id":"levelo_inurba_marseille","lat":43.29532,"lon":5.39351,"is_reserved":false,"is_disabled":true,"rental_uris":{"android":"levelo://app?vid=c4fc050b-7c58-4380-8033-ffe242748317","ios":"levelo://app?vid=c4fc050b-7c58-4380-8033-ffe242748317"},"vehicle_type_id":"4","last_reported":1745190545,"current_range_meters":16000,"station_id":"ce4bh292rcd13ifvqdf0","pricing_plan_id":"cebpf4jnsgd1na2vs0mg"},{"bike_id":"b1a92491-f6da-45e2-a9a5-178685f0efe8","system_id":"levelo_inurba_marseille","lat":43.309375,"lon":5.401437,"is_reserved":false,"is_disabled":false,"rental_uris":{"android":"levelo://app?vid=b1a92491-f6da-45e2-a9a5-178685f0efe8","ios":"levelo://app?vid=b1a92491-f6da-45e2-a9a5-178685f0efe8"},"vehicle_type_id":"4","last_reported":1745190545,"current_range_meters":16000,"station_id":"ce4bgvp2rcd13ifvqct0","pricing_plan_id":"cebpf4jnsgd1na2vs0mg"},{"bike_id":"a049c569-0294-4594-b06b-589d19df1531","system_id":"levelo_inurba_marseille","lat":43.24864,"lon":5.38212,"is_reserved":false,"is_disabled":false,"rental_uris":{"android":"levelo://app?vid=a049c569-0294-4594-b06b-589d19df1531","ios":"levelo://app?vid=a049c569-0294-4594-b06b-589d19df1531"},"vehicle_type_id":"4","last_reported":1745190545,"current_range_meters":16000,"station_id":"","pricing_plan_id":"cebpf4jnsgd1na2vs0mg"},{"bike_id":"1496c68b-9915-4e58-a409-5e573a0a3a5b","system_id":"levelo_inurba_marseille","lat":43.31113,"lon":5.37761,"is_reserved":false,"is_disabled":false,"rental_uris":{"android":"levelo://app?vid=1496c68b-9915-4e58-a409-5e573a0a3a5b","ios":"levelo://app?vid=1496c68b-9915-4e58-a409-5e573a0a3a5b"},"vehicle_type_id":"4","last_reported":1745190545,"current_range_meters":16000,"station_id":"ce4bgt92rcd13ifvqcg0","pricing_plan_id":"cebpf4jnsgd1na2vs0mg"},{"bike_id":"3b1ca808-5708-40af-a19a-74a34d896b09","system_id":"levelo_inurba_marseille","lat":43.29013,"lon":5.35595,"is_reserved":false,"is_disabled":false,"rental_uris":{"android":"levelo://app?vid=3b1ca808-5708-40af-a19a-74a34d896b09","ios":"levelo://app?vid=3b1ca808-5708-40af-a19a-74a34d896b09"},"vehicle_type_id":"4","last_reported":1745190545,"current_range_meters":16000,"station_id":"ce4bhb92rcd13ifvqen0","pricing_plan_id":"cebpf4jnsgd1na2vs0mg"},{"bike_id":"75b267e2-fe72-4d9b-bb2b-ba72a547640a","system_id":"levelo_inurba_marseille","lat":43.2869,"lon":5.36307,"is_reserved":false,"is_disabled":false,"rental_uris":{"android":"levelo://app?vid=75b267e2-fe72-4d9b-bb2b-ba72a547640a","ios":"levelo://app?vid=75b267e2-fe72-4d9b-bb2b-ba72a547640a"},"vehicle_type_id":"4","last_reported":1745190545,"current_range_meters":15200,"station_id":"ce4bhah2rcd13ifvqej0","pricing_plan_id":"cebpf4jnsgd1na2vs0mg"},{"bike_id":"b63b7a5e-a38c-41b2-b8ca-03dcb2ce1a70","system_id":"levelo_inurba_marseille","lat":43.251,"lon":5.39523,"is_reserved":false,"is_disabled":true,"rental_uris":{"android":"levelo://app?vid=b63b7a5e-a38c-41b2-b8ca-03dcb2ce1a70","ios":"levelo://app?vid=b63b7a5e-a38c-41b2-b8ca-03dcb2ce1a70"},"vehicle_type_id":"4","last_reported":1745190545,"current_range_meters":16000,"station_id":"ce4bhm12rcd13ifvqgkg","pricing_plan_id":"cebpf4jnsgd1na2vs0mg"},{"bike_id":"04494bc7-45b7-4bae-8033-eab647359250","system_id":"levelo_inurba_marseille","lat":43.29193,"lon":5.39305,"is_reserved":false,"is_disabled":false,"rental_uris":{"android":"levelo://app?vid=04494bc7-45b7-4bae-8033-eab647359250","ios":"levelo://app?vid=04494bc7-45b7-4bae-8033-eab647359250"},"vehicle_type_id":"4","last_reported":1745190545,"current_range_meters":16400,"station_id":"ce4bh192rcd13ifvqdd0","pricing_plan_id":"cebpf4jnsgd1na2vs0mg"},{"bike_id":"acb337f8-9a02-4c16-ad32-3a6e67af21e4","system_id":"levelo_inurba_marseille","lat":43.284582,"lon":5.358913,"is_reserved":false,"is_disabled":true,"rental_uris":{"android":"levelo://app?vid=acb337f8-9a02-4c16-ad32-3a6e67af21e4","ios":"levelo://app?vid=acb337f8-9a02-4c16-ad32-3a6e67af21e4"},"vehicle_type_id":"4","last_reported":1745190545,"current_range_meters":16400,"station_id":"ce4bhah2rcd13ifvqei0","pricing_plan_id":"cebpf4jnsgd1na2vs0mg"},{"bike_id":"f0ec5bfa-658e-402a-a360-850ad57798c8","system_id":"levelo_inurba_marseille","lat":43.229278,"lon":5.353741,"is_reserved":false,"is_disabled":false,"rental_uris":{"android":"levelo://app?vid=f0ec5bfa-658e-402a-a360-850ad57798c8","ios":"levelo://app?vid=f0ec5bfa-658e-402a-a360-850ad57798c8"},"vehicle_type_id":"4","last_reported":1745190545,"current_range_meters":16400,"station_id":"cpo3532slgdg3j2ikp40","pricing_plan_id":"cebpf4jnsgd1na2vs0mg"},{"bike_id":"9d97d18c-0fe2-418f-a77a-bed090152543","system_id":"levelo_inurba_marseille","lat":43.30878,"lon":5.39667,"is_reserved":false,"is_disabled":false,"rental_uris":{"android":"levelo://app?vid=9d97d18c-0fe2-418f-a77a-bed090152543","ios":"levelo://app?vid=9d97d18c-0fe2-418f-a77a-bed090152543"},"vehicle_type_id":"4","last_reported":1745190545,"current_range_meters":16400,"station_id":"ce4bh012rcd13ifvqcv0","pricing_plan_id":"cebpf4jnsgd1na2vs0mg"},{"bike_id":"54f0d2d4-b0f8-4db8-a984-f8751855f3a9","system_id":"levelo_inurba_marseille","lat":43.25492,"lon":5.37646,"is_reserved":false,"is_disabled":true,"rental_uris":{"android":"levelo://app?vid=54f0d2d4-b0f8-4db8-a984-f8751855f3a9","ios":"levelo://app?vid=54f0d2d4-b0f8-4db8-a984-f8751855f3a9"},"vehicle_type_id":"4","last_reported":1745190545,"current_range_meters":16400,"station_id":"ce4bhh12rcd13ifvqff0","pricing_plan_id":"cebpf4jnsgd1na2vs0mg"},{"bike_id":"7974a0b9-d888-4717-8913-9d7bc8fa8019","system_id":"levelo_inurba_marseille","lat":43.300476,"lon":5.365529,"is_reserved":false,"is_disabled":false,"rental_uris":{"android":"levelo://app?vid=7974a0b9-d888-4717-8913-9d7bc8fa8019","ios":"levelo://app?vid=7974a0b9-d888-4717-8913-9d7bc8fa8019"},"vehicle_type_id":"4","last_reported":1745190545,"current_range_meters":16800,"station_id":"","pricing_plan_id":"cebpf4jnsgd1na2vs0mg"},{"bike_id":"4cec43c2-5f50-4b41-80bd-a9aa2383ae93","system_id":"levelo_inurba_marseille","lat":43.32355,"lon":5.40603,"is_reserved":false,"is_disabled":false,"rental_uris":{"android":"levelo://app?vid=4cec43c2-5f50-4b41-80bd-a9aa2383ae93","ios":"levelo://app?vid=4cec43c2-5f50-4b41-80bd-a9aa2383ae93"},"vehicle_type_id":"4","last_reported":1745190545,"current_range_meters":16800,"station_id":"ce4bhq92rcd13ifvqhjg","pricing_plan_id":"cebpf4jnsgd1na2vs0mg"},{"bike_id":"4d0c211d-cc3b-4460-a3c4-121acaf031ae","system_id":"levelo_inurba_marseille","lat":43.33723,"lon":5.391913,"is_reserved":false,"is_disabled":false,"rental_uris":{"android":"levelo://app?vid=4d0c211d-cc3b-4460-a3c4-121acaf031ae","ios":"levelo://app?vid=4d0c211d-cc3b-4460-a3c4-121acaf031ae"},"vehicle_type_id":"4","last_reported":1745190545,"current_range_meters":16800,"station_id":"ce4bhr92rcd13ifvqhsg","pricing_plan_id":"cebpf4jnsgd1na2vs0mg"},{"bike_id":"aa7ef1e1-bd4a-444c-9c3c-f952cd31efef","system_id":"levelo_inurba_marseille","lat":43.23149,"lon":5.43722,"is_reserved":false,"is_disabled":false,"rental_uris":{"android":"levelo://app?vid=aa7ef1e1-bd4a-444c-9c3c-f952cd31efef","ios":"levelo://app?vid=aa7ef1e1-bd4a-444c-9c3c-f952cd31efef"},"vehicle_type_id":"4","last_reported":1745190545,"current_range_meters":16400,"station_id":"ce4bhmp2rcd13ifvqgog","pricing_plan_id":"cebpf4jnsgd1na2vs0mg"},{"bike_id":"820f62be-9c86-4ba0-b470-a6efb3442528","system_id":"levelo_inurba_marseille","lat":43.24082,"lon":5.37727,"is_reserved":false,"is_disabled":true,"rental_uris":{"android":"levelo://app?vid=820f62be-9c86-4ba0-b470-a6efb3442528","ios":"levelo://app?vid=820f62be-9c86-4ba0-b470-a6efb3442528"},"vehicle_type_id":"4","last_reported":1745190545,"current_range_meters":16800,"station_id":"ce4bhnp2rcd13ifvqgvg","pricing_plan_id":"cebpf4jnsgd1na2vs0mg"},{"bike_id":"5421f91f-c5b9-4312-b8b1-ba44221bb5c0","system_id":"levelo_inurba_marseille","lat":43.26223,"lon":5.37884,"is_reserved":false,"is_disabled":true,"rental_uris":{"android":"levelo://app?vid=5421f91f-c5b9-4312-b8b1-ba44221bb5c0","ios":"levelo://app?vid=5421f91f-c5b9-4312-b8b1-ba44221bb5c0"},"vehicle_type_id":"4","last_reported":1745190545,"current_range_meters":16800,"station_id":"ce4bhjp2rcd13ifvqg90","pricing_plan_id":"cebpf4jnsgd1na2vs0mg"},{"bike_id":"1ac1b160-80aa-4c3d-8047-868b15af45f6","system_id":"levelo_inurba_marseille","lat":43.279151,"lon":5.395831,"is_reserved":false,"is_disabled":false,"rental_uris":{"android":"levelo://app?vid=1ac1b160-80aa-4c3d-8047-868b15af45f6","ios":"levelo://app?vid=1ac1b160-80aa-4c3d-8047-868b15af45f6"},"vehicle_type_id":"4","last_reported":1745190545,"current_range_meters":16800,"station_id":"ce4bhf92rcd13ifvqf40","pricing_plan_id":"cebpf4jnsgd1na2vs0mg"},{"bike_id":"b97abff4-9e84-4bd7-82f9-0be252d019ff","system_id":"levelo_inurba_marseille","lat":43.298,"lon":5.39346,"is_reserved":false,"is_disabled":false,"rental_uris":{"android":"levelo://app?vid=b97abff4-9e84-4bd7-82f9-0be252d019ff","ios":"levelo://app?vid=b97abff4-9e84-4bd7-82f9-0be252d019ff"},"vehicle_type_id":"4","last_reported":1745190545,"current_range_meters":16800,"station_id":"chh1huq6cuj3fo74tm60","pricing_plan_id":"cebpf4jnsgd1na2vs0mg"},{"bike_id":"3cd6e764-35d0-4055-a8a2-3896bb09f920","system_id":"levelo_inurba_marseille","lat":43.33649,"lon":5.39741,"is_reserved":false,"is_disabled":false,"rental_uris":{"android":"levelo://app?vid=3cd6e764-35d0-4055-a8a2-3896bb09f920","ios":"levelo://app?vid=3cd6e764-35d0-4055-a8a2-3896bb09f920"},"vehicle_type_id":"4","last_reported":1745190545,"current_range_meters":17200,"station_id":"","pricing_plan_id":"cebpf4jnsgd1na2vs0mg"},{"bike_id":"a7f91fb8-2846-493f-a68f-69867197cfa1","system_id":"levelo_inurba_marseille","lat":43.33679,"lon":5.39763,"is_reserved":false,"is_disabled":false,"rental_uris":{"android":"levelo://app?vid=a7f91fb8-2846-493f-a68f-69867197cfa1","ios":"levelo://app?vid=a7f91fb8-2846-493f-a68f-69867197cfa1"},"vehicle_type_id":"4","last_reported":1745190545,"current_range_meters":17200,"station_id":"","pricing_plan_id":"cebpf4jnsgd1na2vs0mg"},{"bike_id":"7f85cb0c-933e-490b-a0c3-bfacab605268","system_id":"levelo_inurba_marseille","lat":43.28862,"lon":5.35982,"is_reserved":false,"is_disabled":true,"rental_uris":{"android":"levelo://app?vid=7f85cb0c-933e-490b-a0c3-bfacab605268","ios":"levelo://app?vid=7f85cb0c-933e-490b-a0c3-bfacab605268"},"vehicle_type_id":"4","last_reported":1745190545,"current_range_meters":17200,"station_id":"","pricing_plan_id":"cebpf4jnsgd1na2vs0mg"},{"bike_id":"49e44546-d950-48d4-81ad-6ad303d08980","system_id":"levelo_inurba_marseille","lat":43.21758,"lon":5.34594,"is_reserved":false,"is_disabled":true,"rental_uris":{"android":"levelo://app?vid=49e44546-d950-48d4-81ad-6ad303d08980","ios":"levelo://app?vid=49e44546-d950-48d4-81ad-6ad303d08980"},"vehicle_type_id":"4","last_reported":1745190545,"current_range_meters":17200,"station_id":"","pricing_plan_id":"cebpf4jnsgd1na2vs0mg"},{"bike_id":"54547122-c9e3-44aa-92d3-ee29b2aa8445","system_id":"levelo_inurba_marseille","lat":43.284156,"lon":5.349975,"is_reserved":false,"is_disabled":true,"rental_uris":{"android":"levelo://app?vid=54547122-c9e3-44aa-92d3-ee29b2aa8445","ios":"levelo://app?vid=54547122-c9e3-44aa-92d3-ee29b2aa8445"},"vehicle_type_id":"4","last_reported":1745190545,"current_range_meters":17200,"station_id":"ce4bhbh2rcd13ifvqepg","pricing_plan_id":"cebpf4jnsgd1na2vs0mg"},{"bike_id":"0df66e0a-9fc8-4b65-8ac4-cdbc9cef329a","system_id":"levelo_inurba_marseille","lat":43.31064,"lon":5.38478,"is_reserved":false,"is_disabled":true,"rental_uris":{"android":"levelo://app?vid=0df66e0a-9fc8-4b65-8ac4-cdbc9cef329a","ios":"levelo://app?vid=0df66e0a-9fc8-4b65-8ac4-cdbc9cef329a"},"vehicle_type_id":"4","last_reported":1745190545,"current_range_meters":17200,"station_id":"","pricing_plan_id":"cebpf4jnsgd1na2vs0mg"},{"bike_id":"b27a9d1c-abb4-43c8-8463-09cd46049d42","system_id":"levelo_inurba_marseille","lat":43.261923,"lon":5.374462,"is_reserved":false,"is_disabled":true,"rental_uris":{"android":"levelo://app?vid=b27a9d1c-abb4-43c8-8463-09cd46049d42","ios":"levelo://app?vid=b27a9d1c-abb4-43c8-8463-09cd46049d42"},"vehicle_type_id":"4","last_reported":1745190545,"current_range_meters":17200,"station_id":"","pricing_plan_id":"cebpf4jnsgd1na2vs0mg"},{"bike_id":"dbaaf1ea-ade8-4f5f-b915-d93153091b62","system_id":"levelo_inurba_marseille","lat":43.25594,"lon":5.38247,"is_reserved":false,"is_disabled":false,"rental_uris":{"android":"levelo://app?vid=dbaaf1ea-ade8-4f5f-b915-d93153091b62","ios":"levelo://app?vid=dbaaf1ea-ade8-4f5f-b915-d93153091b62"},"vehicle_type_id":"4","last_reported":1745190545,"current_range_meters":17200,"station_id":"ce4bhih2rcd13ifvqfs0","pricing_plan_id":"cebpf4jnsgd1na2vs0mg"},{"bike_id":"608afa2a-e3df-4335-ae2c-e8de6a01e0fb","system_id":"levelo_inurba_marseille","lat":43.25009,"lon":5.38916,"is_reserved":false,"is_disabled":false,"rental_uris":{"android":"levelo://app?vid=608afa2a-e3df-4335-ae2c-e8de6a01e0fb","ios":"levelo://app?vid=608afa2a-e3df-4335-ae2c-e8de6a01e0fb"},"vehicle_type_id":"4","last_reported":1745190545,"current_range_meters":17200,"station_id":"ce4bhgp2rcd13ifvqfd0","pricing_plan_id":"cebpf4jnsgd1na2vs0mg"},{"bike_id":"8096c04b-cfef-4ce1-8c87-5ef38dc6881e","system_id":"levelo_inurba_marseille","lat":43.285757,"lon":5.394897,"is_reserved":false,"is_disabled":false,"rental_uris":{"android":"levelo://app?vid=8096c04b-cfef-4ce1-8c87-5ef38dc6881e","ios":"levelo://app?vid=8096c04b-cfef-4ce1-8c87-5ef38dc6881e"},"vehicle_type_id":"4","last_reported":1745190545,"current_range_meters":16800,"station_id":"ce4bh292rcd13ifvqdg0","pricing_plan_id":"cebpf4jnsgd1na2vs0mg"},{"bike_id":"b8cd5422-1e24-48d1-bc5d-5f973732c00b","system_id":"levelo_inurba_marseille","lat":43.231944,"lon":5.355601,"is_reserved":false,"is_disabled":false,"rental_uris":{"android":"levelo://app?vid=b8cd5422-1e24-48d1-bc5d-5f973732c00b","ios":"levelo://app?vid=b8cd5422-1e24-48d1-bc5d-5f973732c00b"},"vehicle_type_id":"4","last_reported":1745190545,"current_range_meters":17200,"station_id":"","pricing_plan_id":"cebpf4jnsgd1na2vs0mg"},{"bike_id":"2b9dc3a3-9ca1-4379-9bb7-4b8dbd4e17cf","system_id":"levelo_inurba_marseille","lat":43.23962,"lon":5.36615,"is_reserved":false,"is_disabled":true,"rental_uris":{"android":"levelo://app?vid=2b9dc3a3-9ca1-4379-9bb7-4b8dbd4e17cf","ios":"levelo://app?vid=2b9dc3a3-9ca1-4379-9bb7-4b8dbd4e17cf"},"vehicle_type_id":"4","last_reported":1745190545,"current_range_meters":17600,"station_id":"ce4bhi12rcd13ifvqfp0","pricing_plan_id":"cebpf4jnsgd1na2vs0mg"},{"bike_id":"af5ba08c-0730-4dda-a43c-3e08ff505b3c","system_id":"levelo_inurba_marseille","lat":43.231987,"lon":5.355593,"is_reserved":false,"is_disabled":false,"rental_uris":{"android":"levelo://app?vid=af5ba08c-0730-4dda-a43c-3e08ff505b3c","ios":"levelo://app?vid=af5ba08c-0730-4dda-a43c-3e08ff505b3c"},"vehicle_type_id":"4","last_reported":1745190545,"current_range_meters":17600,"station_id":"ce4bhu92rcd13ifvqi70","pricing_plan_id":"cebpf4jnsgd1na2vs0mg"},{"bike_id":"68501225-8cea-4f95-ae47-484785f78e68","system_id":"levelo_inurba_marseille","lat":43.32387,"lon":5.38879,"is_reserved":false,"is_disabled":true,"rental_uris":{"android":"levelo://app?vid=68501225-8cea-4f95-ae47-484785f78e68","ios":"levelo://app?vid=68501225-8cea-4f95-ae47-484785f78e68"},"vehicle_type_id":"4","last_reported":1745190545,"current_range_meters":17600,"station_id":"ce4bhqp2rcd13ifvqhog","pricing_plan_id":"cebpf4jnsgd1na2vs0mg"},{"bike_id":"f5082407-ad9f-416d-b3f3-a40cd04bfde3","system_id":"levelo_inurba_marseille","lat":43.230122,"lon":5.354852,"is_reserved":false,"is_disabled":false,"rental_uris":{"android":"levelo://app?vid=f5082407-ad9f-416d-b3f3-a40cd04bfde3","ios":"levelo://app?vid=f5082407-ad9f-416d-b3f3-a40cd04bfde3"},"vehicle_type_id":"4","last_reported":1745190545,"current_range_meters":17600,"station_id":"cpo3342slgdg3j2ifvpg","pricing_plan_id":"cebpf4jnsgd1na2vs0mg"},{"bike_id":"fd397a93-8f0f-4684-90df-7f1a6a5c6249","system_id":"levelo_inurba_marseille","lat":43.33059,"lon":5.40675,"is_reserved":false,"is_disabled":false,"rental_uris":{"android":"levelo://app?vid=fd397a93-8f0f-4684-90df-7f1a6a5c6249","ios":"levelo://app?vid=fd397a93-8f0f-4684-90df-7f1a6a5c6249"},"vehicle_type_id":"4","last_reported":1745190545,"current_range_meters":17600,"station_id":"","pricing_plan_id":"cebpf4jnsgd1na2vs0mg"},{"bike_id":"708a791d-3040-4b21-8706-33329d812143","system_id":"levelo_inurba_marseille","lat":43.30645,"lon":5.3927,"is_reserved":false,"is_disabled":true,"rental_uris":{"android":"levelo://app?vid=708a791d-3040-4b21-8706-33329d812143","ios":"levelo://app?vid=708a791d-3040-4b21-8706-33329d812143"},"vehicle_type_id":"4","last_reported":1745190545,"current_range_meters":17600,"station_id":"","pricing_plan_id":"cebpf4jnsgd1na2vs0mg"},{"bike_id":"da180f55-03d9-4223-9e7e-96b509a4f642","system_id":"levelo_inurba_marseille","lat":43.29583,"lon":5.36738,"is_reserved":false,"is_disabled":false,"rental_uris":{"android":"levelo://app?vid=da180f55-03d9-4223-9e7e-96b509a4f642","ios":"levelo://app?vid=da180f55-03d9-4223-9e7e-96b509a4f642"},"vehicle_type_id":"4","last_reported":1745190545,"current_range_meters":17600,"station_id":"ce4bgph2rcd13ifvqc2g","pricing_plan_id":"cebpf4jnsgd1na2vs0mg"},{"bike_id":"c12de0e3-51db-42b7-ae36-943ffa2373ae","system_id":"levelo_inurba_marseille","lat":43.304405,"lon":5.38896,"is_reserved":false,"is_disabled":false,"rental_uris":{"android":"levelo://app?vid=c12de0e3-51db-42b7-ae36-943ffa2373ae","ios":"levelo://app?vid=c12de0e3-51db-42b7-ae36-943ffa2373ae"},"vehicle_type_id":"4","last_reported":1745190545,"current_range_meters":18000,"station_id":"ce4bgk12rcd13ifvqbi0","pricing_plan_id":"cebpf4jnsgd1na2vs0mg"},{"bike_id":"e638de75-4e56-429b-92fc-801e3939313c","system_id":"levelo_inurba_marseille","lat":43.31496,"lon":5.37311,"is_reserved":false,"is_disabled":false,"rental_uris":{"android":"levelo://app?vid=e638de75-4e56-429b-92fc-801e3939313c","ios":"levelo://app?vid=e638de75-4e56-429b-92fc-801e3939313c"},"vehicle_type_id":"4","last_reported":1745190545,"current_range_meters":18000,"station_id":"ce4bgt12rcd13ifvqcd0","pricing_plan_id":"cebpf4jnsgd1na2vs0mg"},{"bike_id":"76453cd1-7d95-428f-9fac-4fd01a322ba9","system_id":"levelo_inurba_marseille","lat":43.29031,"lon":5.35613,"is_reserved":false,"is_disabled":true,"rental_uris":{"android":"levelo://app?vid=76453cd1-7d95-428f-9fac-4fd01a322ba9","ios":"levelo://app?vid=76453cd1-7d95-428f-9fac-4fd01a322ba9"},"vehicle_type_id":"4","last_reported":1745190545,"current_range_meters":18000,"station_id":"ce4bhb92rcd13ifvqen0","pricing_plan_id":"cebpf4jnsgd1na2vs0mg"},{"bike_id":"948d5a35-9c81-459d-880f-1bf6fdb9262c","system_id":"levelo_inurba_marseille","lat":43.33778,"lon":5.37467,"is_reserved":false,"is_disabled":false,"rental_uris":{"android":"levelo://app?vid=948d5a35-9c81-459d-880f-1bf6fdb9262c","ios":"levelo://app?vid=948d5a35-9c81-459d-880f-1bf6fdb9262c"},"vehicle_type_id":"4","last_reported":1745190545,"current_range_meters":18000,"station_id":"","pricing_plan_id":"cebpf4jnsgd1na2vs0mg"},{"bike_id":"1bee1f6b-dcb8-46b9-a0b3-876cad04fee4","system_id":"levelo_inurba_marseille","lat":43.24669,"lon":5.3815,"is_reserved":false,"is_disabled":false,"rental_uris":{"android":"levelo://app?vid=1bee1f6b-dcb8-46b9-a0b3-876cad04fee4","ios":"levelo://app?vid=1bee1f6b-dcb8-46b9-a0b3-876cad04fee4"},"vehicle_type_id":"4","last_reported":1745190545,"current_range_meters":18000,"station_id":"ce4bhih2rcd13ifvqfr0","pricing_plan_id":"cebpf4jnsgd1na2vs0mg"},{"bike_id":"e024b5f0-c8a8-4c59-83b8-9fea0a0da8d5","system_id":"levelo_inurba_marseille","lat":43.3108,"lon":5.38346,"is_reserved":false,"is_disabled":false,"rental_uris":{"android":"levelo://app?vid=e024b5f0-c8a8-4c59-83b8-9fea0a0da8d5","ios":"levelo://app?vid=e024b5f0-c8a8-4c59-83b8-9fea0a0da8d5"},"vehicle_type_id":"4","last_reported":1745190545,"current_range_meters":18000,"station_id":"ce4bgv92rcd13ifvqcr0","pricing_plan_id":"cebpf4jnsgd1na2vs0mg"},{"bike_id":"b3eec801-e14b-4c1a-ac15-531a25c956e2","system_id":"levelo_inurba_marseille","lat":43.29254,"lon":5.40904,"is_reserved":false,"is_disabled":false,"rental_uris":{"android":"levelo://app?vid=b3eec801-e14b-4c1a-ac15-531a25c956e2","ios":"levelo://app?vid=b3eec801-e14b-4c1a-ac15-531a25c956e2"},"vehicle_type_id":"4","last_reported":1745190545,"current_range_meters":18000,"station_id":"ce4bh192rcd13ifvqdc0","pricing_plan_id":"cebpf4jnsgd1na2vs0mg"},{"bike_id":"b58c3187-be06-4eda-9eef-706785b54415","system_id":"levelo_inurba_marseille","lat":43.312735,"lon":5.40173,"is_reserved":false,"is_disabled":false,"rental_uris":{"android":"levelo://app?vid=b58c3187-be06-4eda-9eef-706785b54415","ios":"levelo://app?vid=b58c3187-be06-4eda-9eef-706785b54415"},"vehicle_type_id":"4","last_reported":1745190545,"current_range_meters":18000,"station_id":"ce4bh092rcd13ifvqd30","pricing_plan_id":"cebpf4jnsgd1na2vs0mg"},{"bike_id":"90ce21df-5f7c-4551-a99a-0900c11e065d","system_id":"levelo_inurba_marseille","lat":43.28363,"lon":5.41855,"is_reserved":false,"is_disabled":false,"rental_uris":{"android":"levelo://app?vid=90ce21df-5f7c-4551-a99a-0900c11e065d","ios":"levelo://app?vid=90ce21df-5f7c-4551-a99a-0900c11e065d"},"vehicle_type_id":"4","last_reported":1745190545,"current_range_meters":18800,"station_id":"","pricing_plan_id":"cebpf4jnsgd1na2vs0mg"},{"bike_id":"2b22eb8e-177c-4ead-8259-66e572a51a0a","system_id":"levelo_inurba_marseille","lat":43.309286,"lon":5.401409,"is_reserved":false,"is_disabled":false,"rental_uris":{"android":"levelo://app?vid=2b22eb8e-177c-4ead-8259-66e572a51a0a","ios":"levelo://app?vid=2b22eb8e-177c-4ead-8259-66e572a51a0a"},"vehicle_type_id":"4","last_reported":1745190545,"current_range_meters":18800,"station_id":"ce4bgvp2rcd13ifvqct0","pricing_plan_id":"cebpf4jnsgd1na2vs0mg"},{"bike_id":"9ebb9e31-b181-4120-a985-5579f166c1c4","system_id":"levelo_inurba_marseille","lat":43.279889,"lon":5.400194,"is_reserved":false,"is_disabled":true,"rental_uris":{"android":"levelo://app?vid=9ebb9e31-b181-4120-a985-5579f166c1c4","ios":"levelo://app?vid=9ebb9e31-b181-4120-a985-5579f166c1c4"},"vehicle_type_id":"4","last_reported":1745190545,"current_range_meters":19200,"station_id":"ce4bho92rcd13ifvqh4g","pricing_plan_id":"cebpf4jnsgd1na2vs0mg"},{"bike_id":"3242031d-70ee-42c4-80dd-fc750a7fa2d1","system_id":"levelo_inurba_marseille","lat":43.3373,"lon":5.35593,"is_reserved":false,"is_disabled":false,"rental_uris":{"android":"levelo://app?vid=3242031d-70ee-42c4-80dd-fc750a7fa2d1","ios":"levelo://app?vid=3242031d-70ee-42c4-80dd-fc750a7fa2d1"},"vehicle_type_id":"4","last_reported":1745190545,"current_range_meters":19200,"station_id":"","pricing_plan_id":"cebpf4jnsgd1na2vs0mg"},{"bike_id":"495096e8-215c-4369-b42a-f8123bca3e0d","system_id":"levelo_inurba_marseille","lat":43.26228,"lon":5.40456,"is_reserved":false,"is_disabled":false,"rental_uris":{"android":"levelo://app?vid=495096e8-215c-4369-b42a-f8123bca3e0d","ios":"levelo://app?vid=495096e8-215c-4369-b42a-f8123bca3e0d"},"vehicle_type_id":"4","last_reported":1745190545,"current_range_meters":19200,"station_id":"ce4bhmh2rcd13ifvqgmg","pricing_plan_id":"cebpf4jnsgd1na2vs0mg"},{"bike_id":"57fa8f5b-772c-43d0-a9df-35a917243059","system_id":"levelo_inurba_marseille","lat":43.288543,"lon":5.358398,"is_reserved":false,"is_disabled":false,"rental_uris":{"android":"levelo://app?vid=57fa8f5b-772c-43d0-a9df-35a917243059","ios":"levelo://app?vid=57fa8f5b-772c-43d0-a9df-35a917243059"},"vehicle_type_id":"4","last_reported":1745190545,"current_range_meters":19200,"station_id":"ce4bhb12rcd13ifvqem0","pricing_plan_id":"cebpf4jnsgd1na2vs0mg"},{"bike_id":"da12a936-18fd-4cef-bde1-14ba30917661","system_id":"levelo_inurba_marseille","lat":43.32301,"lon":5.40626,"is_reserved":false,"is_disabled":false,"rental_uris":{"android":"levelo://app?vid=da12a936-18fd-4cef-bde1-14ba30917661","ios":"levelo://app?vid=da12a936-18fd-4cef-bde1-14ba30917661"},"vehicle_type_id":"4","last_reported":1745190545,"current_range_meters":19200,"station_id":"","pricing_plan_id":"cebpf4jnsgd1na2vs0mg"},{"bike_id":"c5e3d54c-a3b9-49be-b43b-87868e82f29e","system_id":"levelo_inurba_marseille","lat":43.26226,"lon":5.4043,"is_reserved":false,"is_disabled":false,"rental_uris":{"android":"levelo://app?vid=c5e3d54c-a3b9-49be-b43b-87868e82f29e","ios":"levelo://app?vid=c5e3d54c-a3b9-49be-b43b-87868e82f29e"},"vehicle_type_id":"4","last_reported":1745190545,"current_range_meters":19200,"station_id":"ce4bhmh2rcd13ifvqgmg","pricing_plan_id":"cebpf4jnsgd1na2vs0mg"},{"bike_id":"d2afc502-7c0e-4c30-953a-05089d63cf8f","system_id":"levelo_inurba_marseille","lat":43.30413,"lon":5.41292,"is_reserved":false,"is_disabled":false,"rental_uris":{"android":"levelo://app?vid=d2afc502-7c0e-4c30-953a-05089d63cf8f","ios":"levelo://app?vid=d2afc502-7c0e-4c30-953a-05089d63cf8f"},"vehicle_type_id":"4","last_reported":1745190545,"current_range_meters":19200,"station_id":"ce4bhop2rcd13ifvqh8g","pricing_plan_id":"cebpf4jnsgd1na2vs0mg"},{"bike_id":"4548ac9e-e96e-45c1-a769-0832297babba","system_id":"levelo_inurba_marseille","lat":43.32085,"lon":5.36778,"is_reserved":false,"is_disabled":false,"rental_uris":{"android":"levelo://app?vid=4548ac9e-e96e-45c1-a769-0832297babba","ios":"levelo://app?vid=4548ac9e-e96e-45c1-a769-0832297babba"},"vehicle_type_id":"4","last_reported":1745190545,"current_range_meters":19600,"station_id":"ce4bhrh2rcd13ifvqhug","pricing_plan_id":"cebpf4jnsgd1na2vs0mg"},{"bike_id":"00ffbdc2-2962-4e85-97f2-b2875d1e2753","system_id":"levelo_inurba_marseille","lat":43.28281,"lon":5.35071,"is_reserved":false,"is_disabled":true,"rental_uris":{"android":"levelo://app?vid=00ffbdc2-2962-4e85-97f2-b2875d1e2753","ios":"levelo://app?vid=00ffbdc2-2962-4e85-97f2-b2875d1e2753"},"vehicle_type_id":"4","last_reported":1745190545,"current_range_meters":19600,"station_id":"ce4bhbp2rcd13ifvqerg","pricing_plan_id":"cebpf4jnsgd1na2vs0mg"},{"bike_id":"33b68510-2c8c-4052-9650-1adbf3438ab0","system_id":"levelo_inurba_marseille","lat":43.32499,"lon":5.36547,"is_reserved":false,"is_disabled":false,"rental_uris":{"android":"levelo://app?vid=33b68510-2c8c-4052-9650-1adbf3438ab0","ios":"levelo://app?vid=33b68510-2c8c-4052-9650-1adbf3438ab0"},"vehicle_type_id":"4","last_reported":1745190545,"current_range_meters":19600,"station_id":"ce4bhs12rcd13ifvqhvg","pricing_plan_id":"cebpf4jnsgd1na2vs0mg"},{"bike_id":"58c22517-5d1f-473f-b4b6-8321c1f1f6df","system_id":"levelo_inurba_marseille","lat":43.28857,"lon":5.35854,"is_reserved":false,"is_disabled":false,"rental_uris":{"android":"levelo://app?vid=58c22517-5d1f-473f-b4b6-8321c1f1f6df","ios":"levelo://app?vid=58c22517-5d1f-473f-b4b6-8321c1f1f6df"},"vehicle_type_id":"4","last_reported":1745190545,"current_range_meters":19600,"station_id":"ce4bhb12rcd13ifvqem0","pricing_plan_id":"cebpf4jnsgd1na2vs0mg"},{"bike_id":"9235e989-b644-4df1-b668-556e4921b40e","system_id":"levelo_inurba_marseille","lat":43.2418,"lon":5.39705,"is_reserved":false,"is_disabled":true,"rental_uris":{"android":"levelo://app?vid=9235e989-b644-4df1-b668-556e4921b40e","ios":"levelo://app?vid=9235e989-b644-4df1-b668-556e4921b40e"},"vehicle_type_id":"4","last_reported":1745190545,"current_range_meters":20000,"station_id":"ce4bhn12rcd13ifvqgpg","pricing_plan_id":"cebpf4jnsgd1na2vs0mg"},{"bike_id":"15eee466-6043-4593-8c73-9cb226142b07","system_id":"levelo_inurba_marseille","lat":43.28357,"lon":5.38632,"is_reserved":false,"is_disabled":false,"rental_uris":{"android":"levelo://app?vid=15eee466-6043-4593-8c73-9cb226142b07","ios":"levelo://app?vid=15eee466-6043-4593-8c73-9cb226142b07"},"vehicle_type_id":"4","last_reported":1745190545,"current_range_meters":20000,"station_id":"ce4bh492rcd13ifvqdvg","pricing_plan_id":"cebpf4jnsgd1na2vs0mg"},{"bike_id":"f0d6e8c4-7d1a-4efb-9468-7eec61c289dd","system_id":"levelo_inurba_marseille","lat":43.29656,"lon":5.40626,"is_reserved":false,"is_disabled":false,"rental_uris":{"android":"levelo://app?vid=f0d6e8c4-7d1a-4efb-9468-7eec61c289dd","ios":"levelo://app?vid=f0d6e8c4-7d1a-4efb-9468-7eec61c289dd"},"vehicle_type_id":"4","last_reported":1745190545,"current_range_meters":20000,"station_id":"ce4bh0h2rcd13ifvqd60","pricing_plan_id":"cebpf4jnsgd1na2vs0mg"},{"bike_id":"cb0b1262-afa4-4911-953d-b2437a7ea098","system_id":"levelo_inurba_marseille","lat":43.25885,"lon":5.39885,"is_reserved":false,"is_disabled":false,"rental_uris":{"android":"levelo://app?vid=cb0b1262-afa4-4911-953d-b2437a7ea098","ios":"levelo://app?vid=cb0b1262-afa4-4911-953d-b2437a7ea098"},"vehicle_type_id":"4","last_reported":1745190545,"current_range_meters":19600,"station_id":"ce4bhl92rcd13ifvqghg","pricing_plan_id":"cebpf4jnsgd1na2vs0mg"},{"bike_id":"64c1e03b-2971-4be3-b430-369489f10b8e","system_id":"levelo_inurba_marseille","lat":43.29299,"lon":5.37438,"is_reserved":false,"is_disabled":true,"rental_uris":{"android":"levelo://app?vid=64c1e03b-2971-4be3-b430-369489f10b8e","ios":"levelo://app?vid=64c1e03b-2971-4be3-b430-369489f10b8e"},"vehicle_type_id":"4","last_reported":1745190545,"current_range_meters":20000,"station_id":"ce4bgi12rcd13ifvqb70","pricing_plan_id":"cebpf4jnsgd1na2vs0mg"},{"bike_id":"7fbfc9a0-3123-40fa-bbce-c6ce9edda5ed","system_id":"levelo_inurba_marseille","lat":43.27081,"lon":5.42279,"is_reserved":false,"is_disabled":true,"rental_uris":{"android":"levelo://app?vid=7fbfc9a0-3123-40fa-bbce-c6ce9edda5ed","ios":"levelo://app?vid=7fbfc9a0-3123-40fa-bbce-c6ce9edda5ed"},"vehicle_type_id":"4","last_reported":1745190545,"current_range_meters":20000,"station_id":"ce4bhk92rcd13ifvqgb0","pricing_plan_id":"cebpf4jnsgd1na2vs0mg"},{"bike_id":"7806dd9c-868f-4ffd-a1a9-a5b538daceb8","system_id":"levelo_inurba_marseille","lat":43.30517,"lon":5.36673,"is_reserved":false,"is_disabled":false,"rental_uris":{"android":"levelo://app?vid=7806dd9c-868f-4ffd-a1a9-a5b538daceb8","ios":"levelo://app?vid=7806dd9c-868f-4ffd-a1a9-a5b538daceb8"},"vehicle_type_id":"4","last_reported":1745190545,"current_range_meters":20400,"station_id":"","pricing_plan_id":"cebpf4jnsgd1na2vs0mg"},{"bike_id":"18e3b8e3-4921-4d42-8ca8-50d09a9007c8","system_id":"levelo_inurba_marseille","lat":43.30947,"lon":5.40158,"is_reserved":false,"is_disabled":false,"rental_uris":{"android":"levelo://app?vid=18e3b8e3-4921-4d42-8ca8-50d09a9007c8","ios":"levelo://app?vid=18e3b8e3-4921-4d42-8ca8-50d09a9007c8"},"vehicle_type_id":"4","last_reported":1745190545,"current_range_meters":20400,"station_id":"ce4bgvp2rcd13ifvqct0","pricing_plan_id":"cebpf4jnsgd1na2vs0mg"},{"bike_id":"edb5d909-a522-40a7-afb8-0b251bbbb305","system_id":"levelo_inurba_marseille","lat":43.26946,"lon":5.38624,"is_reserved":false,"is_disabled":true,"rental_uris":{"android":"levelo://app?vid=edb5d909-a522-40a7-afb8-0b251bbbb305","ios":"levelo://app?vid=edb5d909-a522-40a7-afb8-0b251bbbb305"},"vehicle_type_id":"4","last_reported":1745190545,"current_range_meters":20400,"station_id":"ce4bhh92rcd13ifvqfh0","pricing_plan_id":"cebpf4jnsgd1na2vs0mg"},{"bike_id":"657bade1-8f00-49d7-97a1-ed9c214df2b5","system_id":"levelo_inurba_marseille","lat":43.28832,"lon":5.39312,"is_reserved":false,"is_disabled":false,"rental_uris":{"android":"levelo://app?vid=657bade1-8f00-49d7-97a1-ed9c214df2b5","ios":"levelo://app?vid=657bade1-8f00-49d7-97a1-ed9c214df2b5"},"vehicle_type_id":"4","last_reported":1745190545,"current_range_meters":20400,"station_id":"ce4bh2p2rcd13ifvqdi0","pricing_plan_id":"cebpf4jnsgd1na2vs0mg"},{"bike_id":"8cb58f98-1b26-4f96-ae78-16ac9251cd0c","system_id":"levelo_inurba_marseille","lat":43.29008,"lon":5.35607,"is_reserved":false,"is_disabled":false,"rental_uris":{"android":"levelo://app?vid=8cb58f98-1b26-4f96-ae78-16ac9251cd0c","ios":"levelo://app?vid=8cb58f98-1b26-4f96-ae78-16ac9251cd0c"},"vehicle_type_id":"4","last_reported":1745190545,"current_range_meters":20000,"station_id":"ce4bhb92rcd13ifvqen0","pricing_plan_id":"cebpf4jnsgd1na2vs0mg"},{"bike_id":"f2578bcc-cf04-45b7-b6c9-54723449f9b1","system_id":"levelo_inurba_marseille","lat":43.28845,"lon":5.35866,"is_reserved":false,"is_disabled":false,"rental_uris":{"android":"levelo://app?vid=f2578bcc-cf04-45b7-b6c9-54723449f9b1","ios":"levelo://app?vid=f2578bcc-cf04-45b7-b6c9-54723449f9b1"},"vehicle_type_id":"4","last_reported":1745190545,"current_range_meters":20400,"station_id":"ce4bhb12rcd13ifvqem0","pricing_plan_id":"cebpf4jnsgd1na2vs0mg"},{"bike_id":"4123a38b-9901-40fa-880b-fb7bc3e6ad96","system_id":"levelo_inurba_marseille","lat":43.23182,"lon":5.39984,"is_reserved":false,"is_disabled":false,"rental_uris":{"android":"levelo://app?vid=4123a38b-9901-40fa-880b-fb7bc3e6ad96","ios":"levelo://app?vid=4123a38b-9901-40fa-880b-fb7bc3e6ad96"},"vehicle_type_id":"4","last_reported":1745190545,"current_range_meters":20000,"station_id":"ce4bhn12rcd13ifvqgqg","pricing_plan_id":"cebpf4jnsgd1na2vs0mg"},{"bike_id":"2cf5be3a-dd83-40ce-8a9d-0967a2587429","system_id":"levelo_inurba_marseille","lat":43.31609,"lon":5.37343,"is_reserved":false,"is_disabled":false,"rental_uris":{"android":"levelo://app?vid=2cf5be3a-dd83-40ce-8a9d-0967a2587429","ios":"levelo://app?vid=2cf5be3a-dd83-40ce-8a9d-0967a2587429"},"vehicle_type_id":"4","last_reported":1745190545,"current_range_meters":20400,"station_id":"","pricing_plan_id":"cebpf4jnsgd1na2vs0mg"},{"bike_id":"ffb1cd2c-6ba1-4cef-8bea-bfa65d25f7bd","system_id":"levelo_inurba_marseille","lat":43.292107,"lon":5.393232,"is_reserved":false,"is_disabled":false,"rental_uris":{"android":"levelo://app?vid=ffb1cd2c-6ba1-4cef-8bea-bfa65d25f7bd","ios":"levelo://app?vid=ffb1cd2c-6ba1-4cef-8bea-bfa65d25f7bd"},"vehicle_type_id":"4","last_reported":1745190545,"current_range_meters":20800,"station_id":"ce4bh192rcd13ifvqdd0","pricing_plan_id":"cebpf4jnsgd1na2vs0mg"},{"bike_id":"fc29c697-c8dc-4b48-8f04-ef505590e058","system_id":"levelo_inurba_marseille","lat":43.265892,"lon":5.389944,"is_reserved":false,"is_disabled":false,"rental_uris":{"android":"levelo://app?vid=fc29c697-c8dc-4b48-8f04-ef505590e058","ios":"levelo://app?vid=fc29c697-c8dc-4b48-8f04-ef505590e058"},"vehicle_type_id":"4","last_reported":1745190545,"current_range_meters":20800,"station_id":"","pricing_plan_id":"cebpf4jnsgd1na2vs0mg"},{"bike_id":"bee65c0e-3969-4a3e-9a94-ddda99c1298d","system_id":"levelo_inurba_marseille","lat":43.3043,"lon":5.4128,"is_reserved":false,"is_disabled":false,"rental_uris":{"android":"levelo://app?vid=bee65c0e-3969-4a3e-9a94-ddda99c1298d","ios":"levelo://app?vid=bee65c0e-3969-4a3e-9a94-ddda99c1298d"},"vehicle_type_id":"4","last_reported":1745190545,"current_range_meters":20800,"station_id":"","pricing_plan_id":"cebpf4jnsgd1na2vs0mg"},{"bike_id":"9341d702-e60c-4eb3-a384-8a55c2d8cc42","system_id":"levelo_inurba_marseille","lat":43.27985,"lon":5.36932,"is_reserved":false,"is_disabled":false,"rental_uris":{"android":"levelo://app?vid=9341d702-e60c-4eb3-a384-8a55c2d8cc42","ios":"levelo://app?vid=9341d702-e60c-4eb3-a384-8a55c2d8cc42"},"vehicle_type_id":"4","last_reported":1745190545,"current_range_meters":21600,"station_id":"ce4bha12rcd13ifvqef0","pricing_plan_id":"cebpf4jnsgd1na2vs0mg"},{"bike_id":"b261fe84-cd86-4730-b2ee-802177904fc1","system_id":"levelo_inurba_marseille","lat":43.31731,"lon":5.37776,"is_reserved":false,"is_disabled":false,"rental_uris":{"android":"levelo://app?vid=b261fe84-cd86-4730-b2ee-802177904fc1","ios":"levelo://app?vid=b261fe84-cd86-4730-b2ee-802177904fc1"},"vehicle_type_id":"4","last_reported":1745190545,"current_range_meters":21600,"station_id":"ce4bgth2rcd13ifvqch0","pricing_plan_id":"cebpf4jnsgd1na2vs0mg"},{"bike_id":"5a46db62-513a-4883-9f49-f4d5b01aab0e","system_id":"levelo_inurba_marseille","lat":43.315346,"lon":5.380267,"is_reserved":false,"is_disabled":false,"rental_uris":{"android":"levelo://app?vid=5a46db62-513a-4883-9f49-f4d5b01aab0e","ios":"levelo://app?vid=5a46db62-513a-4883-9f49-f4d5b01aab0e"},"vehicle_type_id":"4","last_reported":1745190545,"current_range_meters":21600,"station_id":"ce4bhsp2rcd13ifvqi50","pricing_plan_id":"cebpf4jnsgd1na2vs0mg"},{"bike_id":"47d156bc-0c5a-4817-a7c6-61efdecc5f20","system_id":"levelo_inurba_marseille","lat":43.28853,"lon":5.393095,"is_reserved":false,"is_disabled":false,"rental_uris":{"android":"levelo://app?vid=47d156bc-0c5a-4817-a7c6-61efdecc5f20","ios":"levelo://app?vid=47d156bc-0c5a-4817-a7c6-61efdecc5f20"},"vehicle_type_id":"4","last_reported":1745190545,"current_range_meters":20800,"station_id":"ce4bh2p2rcd13ifvqdi0","pricing_plan_id":"cebpf4jnsgd1na2vs0mg"},{"bike_id":"debe1e77-c170-4be2-958a-274567db90fa","system_id":"levelo_inurba_marseille","lat":43.3026,"lon":5.40075,"is_reserved":false,"is_disabled":false,"rental_uris":{"android":"levelo://app?vid=debe1e77-c170-4be2-958a-274567db90fa","ios":"levelo://app?vid=debe1e77-c170-4be2-958a-274567db90fa"},"vehicle_type_id":"4","last_reported":1745190545,"current_range_meters":21600,"station_id":"ce4bgvh2rcd13ifvqcs0","pricing_plan_id":"cebpf4jnsgd1na2vs0mg"},{"bike_id":"7677c4ef-d832-47d2-8cdb-18c973bf10e9","system_id":"levelo_inurba_marseille","lat":43.30887,"lon":5.39644,"is_reserved":false,"is_disabled":false,"rental_uris":{"android":"levelo://app?vid=7677c4ef-d832-47d2-8cdb-18c973bf10e9","ios":"levelo://app?vid=7677c4ef-d832-47d2-8cdb-18c973bf10e9"},"vehicle_type_id":"4","last_reported":1745190545,"current_range_meters":21600,"station_id":"ce4bh012rcd13ifvqcv0","pricing_plan_id":"cebpf4jnsgd1na2vs0mg"},{"bike_id":"c0ac41c5-c845-40e1-a3b6-89315ac1fad7","system_id":"levelo_inurba_marseille","lat":43.29917,"lon":5.40818,"is_reserved":false,"is_disabled":false,"rental_uris":{"android":"levelo://app?vid=c0ac41c5-c845-40e1-a3b6-89315ac1fad7","ios":"levelo://app?vid=c0ac41c5-c845-40e1-a3b6-89315ac1fad7"},"vehicle_type_id":"4","last_reported":1745190545,"current_range_meters":21600,"station_id":"","pricing_plan_id":"cebpf4jnsgd1na2vs0mg"},{"bike_id":"fd22bdfc-21da-4493-9112-704ec1a9482c","system_id":"levelo_inurba_marseille","lat":43.31886,"lon":5.4075,"is_reserved":false,"is_disabled":false,"rental_uris":{"android":"levelo://app?vid=fd22bdfc-21da-4493-9112-704ec1a9482c","ios":"levelo://app?vid=fd22bdfc-21da-4493-9112-704ec1a9482c"},"vehicle_type_id":"4","last_reported":1745190545,"current_range_meters":20800,"station_id":"ce4bhq12rcd13ifvqhig","pricing_plan_id":"cebpf4jnsgd1na2vs0mg"},{"bike_id":"11523877-2f6c-49d8-9233-0bd89a3be448","system_id":"levelo_inurba_marseille","lat":43.33734,"lon":5.39191,"is_reserved":false,"is_disabled":false,"rental_uris":{"android":"levelo://app?vid=11523877-2f6c-49d8-9233-0bd89a3be448","ios":"levelo://app?vid=11523877-2f6c-49d8-9233-0bd89a3be448"},"vehicle_type_id":"4","last_reported":1745190545,"current_range_meters":21600,"station_id":"ce4bhr92rcd13ifvqhsg","pricing_plan_id":"cebpf4jnsgd1na2vs0mg"},{"bike_id":"0af98c77-e735-4f11-8f26-a525403634d8","system_id":"levelo_inurba_marseille","lat":43.30889,"lon":5.37204,"is_reserved":false,"is_disabled":false,"rental_uris":{"android":"levelo://app?vid=0af98c77-e735-4f11-8f26-a525403634d8","ios":"levelo://app?vid=0af98c77-e735-4f11-8f26-a525403634d8"},"vehicle_type_id":"4","last_reported":1745190545,"current_range_meters":22000,"station_id":"ce4bguh2rcd13ifvqckg","pricing_plan_id":"cebpf4jnsgd1na2vs0mg"},{"bike_id":"d6f3a255-8161-4d45-919d-bd54887358d5","system_id":"levelo_inurba_marseille","lat":43.24076,"lon":5.3776,"is_reserved":false,"is_disabled":false,"rental_uris":{"android":"levelo://app?vid=d6f3a255-8161-4d45-919d-bd54887358d5","ios":"levelo://app?vid=d6f3a255-8161-4d45-919d-bd54887358d5"},"vehicle_type_id":"4","last_reported":1745190545,"current_range_meters":22000,"station_id":"ce4bhnp2rcd13ifvqgvg","pricing_plan_id":"cebpf4jnsgd1na2vs0mg"},{"bike_id":"59e0332a-055c-4a55-bbe7-35149d5556ed","system_id":"levelo_inurba_marseille","lat":43.240821,"lon":5.377441,"is_reserved":false,"is_disabled":false,"rental_uris":{"android":"levelo://app?vid=59e0332a-055c-4a55-bbe7-35149d5556ed","ios":"levelo://app?vid=59e0332a-055c-4a55-bbe7-35149d5556ed"},"vehicle_type_id":"4","last_reported":1745190545,"current_range_meters":22000,"station_id":"ce4bhnp2rcd13ifvqgvg","pricing_plan_id":"cebpf4jnsgd1na2vs0mg"},{"bike_id":"36308379-00ff-4d4b-909e-7efc6f877470","system_id":"levelo_inurba_marseille","lat":43.28107,"lon":5.37847,"is_reserved":false,"is_disabled":false,"rental_uris":{"android":"levelo://app?vid=36308379-00ff-4d4b-909e-7efc6f877470","ios":"levelo://app?vid=36308379-00ff-4d4b-909e-7efc6f877470"},"vehicle_type_id":"4","last_reported":1745190545,"current_range_meters":22000,"station_id":"ce4bha12rcd13ifvqee0","pricing_plan_id":"cebpf4jnsgd1na2vs0mg"},{"bike_id":"5582753f-e5a5-4f9b-b000-9e14fb17aee1","system_id":"levelo_inurba_marseille","lat":43.26056,"lon":5.394078,"is_reserved":false,"is_disabled":false,"rental_uris":{"android":"levelo://app?vid=5582753f-e5a5-4f9b-b000-9e14fb17aee1","ios":"levelo://app?vid=5582753f-e5a5-4f9b-b000-9e14fb17aee1"},"vehicle_type_id":"4","last_reported":1745190545,"current_range_meters":21600,"station_id":"ce4bhh92rcd13ifvqfj0","pricing_plan_id":"cebpf4jnsgd1na2vs0mg"},{"bike_id":"639eeb5b-bd61-4a3c-9435-62b25faa6a2f","system_id":"levelo_inurba_marseille","lat":43.31165,"lon":5.38726,"is_reserved":false,"is_disabled":false,"rental_uris":{"android":"levelo://app?vid=639eeb5b-bd61-4a3c-9435-62b25faa6a2f","ios":"levelo://app?vid=639eeb5b-bd61-4a3c-9435-62b25faa6a2f"},"vehicle_type_id":"4","last_reported":1745190545,"current_range_meters":22000,"station_id":"ce4bgv12rcd13ifvqcp0","pricing_plan_id":"cebpf4jnsgd1na2vs0mg"},{"bike_id":"b86c102c-2e6f-4fdf-b748-7c9ef19704fe","system_id":"levelo_inurba_marseille","lat":43.281184,"lon":5.438326,"is_reserved":false,"is_disabled":false,"rental_uris":{"android":"levelo://app?vid=b86c102c-2e6f-4fdf-b748-7c9ef19704fe","ios":"levelo://app?vid=b86c102c-2e6f-4fdf-b748-7c9ef19704fe"},"vehicle_type_id":"4","last_reported":1745190545,"current_range_meters":22000,"station_id":"","pricing_plan_id":"cebpf4jnsgd1na2vs0mg"},{"bike_id":"06839e26-45cf-4850-81ea-ca86cbed935d","system_id":"levelo_inurba_marseille","lat":43.30634,"lon":5.39318,"is_reserved":false,"is_disabled":false,"rental_uris":{"android":"levelo://app?vid=06839e26-45cf-4850-81ea-ca86cbed935d","ios":"levelo://app?vid=06839e26-45cf-4850-81ea-ca86cbed935d"},"vehicle_type_id":"4","last_reported":1745190545,"current_range_meters":22400,"station_id":"ce4bh0p2rcd13ifvqd80","pricing_plan_id":"cebpf4jnsgd1na2vs0mg"},{"bike_id":"0ea403e7-0bae-4fc6-85cb-2bcadf8a0a3b","system_id":"levelo_inurba_marseille","lat":43.31114,"lon":5.37773,"is_reserved":false,"is_disabled":false,"rental_uris":{"android":"levelo://app?vid=0ea403e7-0bae-4fc6-85cb-2bcadf8a0a3b","ios":"levelo://app?vid=0ea403e7-0bae-4fc6-85cb-2bcadf8a0a3b"},"vehicle_type_id":"4","last_reported":1745190545,"current_range_meters":22400,"station_id":"ce4bgt92rcd13ifvqcg0","pricing_plan_id":"cebpf4jnsgd1na2vs0mg"},{"bike_id":"74d0aab8-9e30-4aea-a456-957dcd2e874f","system_id":"levelo_inurba_marseille","lat":43.29802,"lon":5.39338,"is_reserved":false,"is_disabled":false,"rental_uris":{"android":"levelo://app?vid=74d0aab8-9e30-4aea-a456-957dcd2e874f","ios":"levelo://app?vid=74d0aab8-9e30-4aea-a456-957dcd2e874f"},"vehicle_type_id":"4","last_reported":1745190545,"current_range_meters":22000,"station_id":"chh1huq6cuj3fo74tm60","pricing_plan_id":"cebpf4jnsgd1na2vs0mg"},{"bike_id":"c8ba3045-a806-40b7-9f18-55b18047218f","system_id":"levelo_inurba_marseille","lat":43.265012,"lon":5.395532,"is_reserved":false,"is_disabled":true,"rental_uris":{"android":"levelo://app?vid=c8ba3045-a806-40b7-9f18-55b18047218f","ios":"levelo://app?vid=c8ba3045-a806-40b7-9f18-55b18047218f"},"vehicle_type_id":"4","last_reported":1745190545,"current_range_meters":22400,"station_id":"ce4bhi12rcd13ifvqfq0","pricing_plan_id":"cebpf4jnsgd1na2vs0mg"},