{"last_updated":1725898205,"ttl":30,"version":"2.2","data":{"bikes":[{"bike_id":"b028c7d7-3321-4e00-a7f0-ebfbf7d04338","system_id":"levelo_inurba_marseille","lat":43.312239,"lon":5.368562,"is_reserved":false,"is_disabled":false,"rental_uris":{"android":"levelo://app?vid=b028c7d7-3321-4e00-a7f0-ebfbf7d04338","ios":"levelo://app?vid=b028c7d7-3321-4e00-a7f0-ebfbf7d04338"},"vehicle_type_id":"4","last_reported":1725898205,"current_range_meters":30000,"station_id":"ce4bgl92rcd13ifvqbq0","pricing_plan_id":"cebpf4jnsgd1na2vs0mg"},{"bike_id":"4733e724-a300-4814-be50-d5629a68544f","system_id":"levelo_inurba_marseille","lat":43.30905,"lon":5.36851,"is_reserved":false,"is_disabled":false,"rental_uris":{"android":"levelo://app?vid=4733e724-a300-4814-be50-d5629a68544f","ios":"levelo://app?vid=4733e724-a300-4814-be50-d5629a68544f"},"vehicle_type_id":"4","last_reported":1725898205,"current_range_meters":31200,"station_id":"ce4bgn92rcd13ifvqbvg","pricing_plan_id":"cebpf4jnsgd1na2vs0mg"},{"bike_id":"fb9354a7-3761-4ab2-854f-2640f0bd51f9","system_id":"levelo_inurba_marseille","lat":43.314811,"lon":5.373103,"is_reserved":false,"is_disabled":false,"rental_uris":{"android":"levelo://app?vid=fb9354a7-3761-4ab2-854f-2640f0bd51f9","ios":"levelo://app?vid=fb9354a7-3761-4ab2-854f-2640f0bd51f9"},"vehicle_type_id":"4","last_reported":1725898205,"current_range_meters":12000,"station_id":"ce4bgt12rcd13ifvqcd0","pricing_plan_id":"cebpf4jnsgd1na2vs0mg"},{"bike_id":"59feee6e-88cc-46a2-b45b-556891709530","system_id":"levelo_inurba_marseille","lat":43.314811,"lon":5.373103,"is_reserved":false,"is_disabled":false,"rental_uris":{"android":"levelo://app?vid=59feee6e-88cc-46a2-b45b-556891709530","ios":"levelo://app?vid=59feee6e-88cc-46a2-b45b-556891709530"},"vehicle_type_id":"4","last_reported":1725898205,"current_range_meters":0,"station_id":"ce4bgt12rcd13ifvqcd0","pricing_plan_id":"cebpf4jnsgd1na2vs0mg"},{"bike_id":"fdf4664e-eeff-4102-b549-c0b6b9e6e2fa","system_id":"levelo_inurba_marseille","lat":43.315,"lon":5.37302,"is_reserved":false,"is_disabled":false,"rental_uris":{"android":"levelo://app?vid=fdf4664e-eeff-4102-b549-c0b6b9e6e2fa","ios":"levelo://app?vid=fdf4664e-eeff-4102-b549-c0b6b9e6e2fa"},"vehicle_type_id":"4","last_reported":1725898205,"current_range_meters":0,"station_id":"ce4bgt12rcd13ifvqcd0","pricing_plan_id":"cebpf4jnsgd1na2vs0mg"},{"bike_id":"cbab2eef-adc8-4c4b-b056-03a44ed69dd0","system_id":"levelo_inurba_marseille","lat":43.314811,"lon":5.373103,"is_reserved":false,"is_disabled":false,"rental_uris":{"android":"levelo://app?vid=cbab2eef-adc8-4c4b-b056-03a44ed69dd0","ios":"levelo://app?vid=cbab2eef-adc8-4c4b-b056-03a44ed69dd0"},"vehicle_type_id":"4","last_reported":1725898205,"current_range_meters":16800,"station_id":"ce4bgt12rcd13ifvqcd0","pricing_plan_id":"cebpf4jnsgd1na2vs0mg"},{"bike_id":"93d5ed32-4027-425b-b41d-263180ae761f","system_id":"levelo_inurba_marseille","lat":43.30889,"lon":5.37195,"is_reserved":false,"is_disabled":false,"rental_uris":{"android":"levelo://app?vid=93d5ed32-4027-425b-b41d-263180ae761f","ios":"levelo://app?vid=93d5ed32-4027-425b-b41d-263180ae761f"},"vehicle_type_id":"4","last_reported":1725898205,"current_range_meters":0,"station_id":"ce4bguh2rcd13ifvqckg","pricing_plan_id":"cebpf4jnsgd1na2vs0mg"},{"bike_id":"2f804787-2c1d-467f-8524-9ccf9991aad9","system_id":"levelo_inurba_marseille","lat":43.305459,"lon":5.365282,"is_reserved":false,"is_disabled":false,"rental_uris":{"android":"levelo://app?vid=2f804787-2c1d-467f-8524-9ccf9991aad9","ios":"levelo://app?vid=2f804787-2c1d-467f-8524-9ccf9991aad9"},"vehicle_type_id":"4","last_reported":1725898205,"current_range_meters":21200,"station_id":"ce4bgs12rcd13ifvqcag","pricing_plan_id":"cebpf4jnsgd1na2vs0mg"},{"bike_id":"ee1eecf2-bdf5-4301-aec3-51a577be1d3f","system_id":"levelo_inurba_marseille","lat":43.305395,"lon":5.365593,"is_reserved":false,"is_disabled":false,"rental_uris":{"android":"levelo://app?vid=ee1eecf2-bdf5-4301-aec3-51a577be1d3f","ios":"levelo://app?vid=ee1eecf2-bdf5-4301-aec3-51a577be1d3f"},"vehicle_type_id":"4","last_reported":1725898205,"current_range_meters":28800,"station_id":"ce4bgi92rcd13ifvqb90","pricing_plan_id":"cebpf4jnsgd1na2vs0mg"},{"bike_id":"a43f2586-b36b-44db-a6fa-99b4baa057e9","system_id":"levelo_inurba_marseille","lat":43.305714,"lon":5.365633,"is_reserved":false,"is_disabled":false,"rental_uris":{"android":"levelo://app?vid=a43f2586-b36b-44db-a6fa-99b4baa057e9","ios":"levelo://app?vid=a43f2586-b36b-44db-a6fa-99b4baa057e9"},"vehicle_type_id":"4","last_reported":1725898205,"current_range_meters":11600,"station_id":"ce4bgs12rcd13ifvqcag","pricing_plan_id":"cebpf4jnsgd1na2vs0mg"},{"bike_id":"b00a4c24-4f70-4fad-bc66-0e94158cf195","system_id":"levelo_inurba_marseille","lat":43.305714,"lon":5.365633,"is_reserved":false,"is_disabled":false,"rental_uris":{"android":"levelo://app?vid=b00a4c24-4f70-4fad-bc66-0e94158cf195","ios":"levelo://app?vid=b00a4c24-4f70-4fad-bc66-0e94158cf195"},"vehicle_type_id":"4","last_reported":1725898205,"current_range_meters":0,"station_id":"ce4bgs12rcd13ifvqcag","pricing_plan_id":"cebpf4jnsgd1na2vs0mg"},{"bike_id":"adcac41f-e9da-4d97-99a9-a497b2e79726","system_id":"levelo_inurba_marseille","lat":43.31118,"lon":5.3777,"is_reserved":false,"is_disabled":false,"rental_uris":{"android":"levelo://app?vid=adcac41f-e9da-4d97-99a9-a497b2e79726","ios":"levelo://app?vid=adcac41f-e9da-4d97-99a9-a497b2e79726"},"vehicle_type_id":"4","last_reported":1725898205,"current_range_meters":29200,"station_id":"ce4bgt92rcd13ifvqcg0","pricing_plan_id":"cebpf4jnsgd1na2vs0mg"},{"bike_id":"713b73e1-a601-411b-aa72-d6abd100dd08","system_id":"levelo_inurba_marseille","lat":43.311125,"lon":5.377624,"is_reserved":false,"is_disabled":false,"rental_uris":{"android":"levelo://app?vid=713b73e1-a601-411b-aa72-d6abd100dd08","ios":"levelo://app?vid=713b73e1-a601-411b-aa72-d6abd100dd08"},"vehicle_type_id":"4","last_reported":1725898205,"current_range_meters":20800,"station_id":"ce4bgt92rcd13ifvqcg0","pricing_plan_id":"cebpf4jnsgd1na2vs0mg"},{"bike_id":"e31fce12-834e-4c2c-94de-c90d23d5da82","system_id":"levelo_inurba_marseille","lat":43.307945,"lon":5.376487,"is_reserved":false,"is_disabled":false,"rental_uris":{"android":"levelo://app?vid=e31fce12-834e-4c2c-94de-c90d23d5da82","ios":"levelo://app?vid=e31fce12-834e-4c2c-94de-c90d23d5da82"},"vehicle_type_id":"4","last_reported":1725898205,"current_range_meters":10400,"station_id":"ce4bgv92rcd13ifvqcq0","pricing_plan_id":"cebpf4jnsgd1na2vs0mg"},{"bike_id":"cf3b6e80-42e0-47dc-98d1-375318a984c4","system_id":"levelo_inurba_marseille","lat":43.303046,"lon":5.368981,"is_reserved":false,"is_disabled":false,"rental_uris":{"android":"levelo://app?vid=cf3b6e80-42e0-47dc-98d1-375318a984c4","ios":"levelo://app?vid=cf3b6e80-42e0-47dc-98d1-375318a984c4"},"vehicle_type_id":"4","last_reported":1725898205,"current_range_meters":0,"station_id":"ce4bgqh2rcd13ifvqc5g","pricing_plan_id":"cebpf4jnsgd1na2vs0mg"},{"bike_id":"ca259165-b11a-4344-81fc-d811c1c46dd8","system_id":"levelo_inurba_marseille","lat":43.303046,"lon":5.368981,"is_reserved":false,"is_disabled":false,"rental_uris":{"android":"levelo://app?vid=ca259165-b11a-4344-81fc-d811c1c46dd8","ios":"levelo://app?vid=ca259165-b11a-4344-81fc-d811c1c46dd8"},"vehicle_type_id":"4","last_reported":1725898205,"current_range_meters":8400,"station_id":"ce4bgqh2rcd13ifvqc5g","pricing_plan_id":"cebpf4jnsgd1na2vs0mg"},{"bike_id":"72d57cdb-9f7f-41b9-b3ba-b0527e8d5253","system_id":"levelo_inurba_marseille","lat":43.303046,"lon":5.368981,"is_reserved":false,"is_disabled":false,"rental_uris":{"android":"levelo://app?vid=72d57cdb-9f7f-41b9-b3ba-b0527e8d5253","ios":"levelo://app?vid=72d57cdb-9f7f-41b9-b3ba-b0527e8d5253"},"vehicle_type_id":"4","last_reported":1725898205,"current_range_meters":0,"station_id":"ce4bgqh2rcd13ifvqc5g","pricing_plan_id":"cebpf4jnsgd1na2vs0mg"},{"bike_id":"80d56e26-458f-4eb5-9d96-c127d4f23f8a","system_id":"levelo_inurba_marseille","lat":43.315289,"lon":5.380349,"is_reserved":false,"is_disabled":false,"rental_uris":{"android":"levelo://app?vid=80d56e26-458f-4eb5-9d96-c127d4f23f8a","ios":"levelo://app?vid=80d56e26-458f-4eb5-9d96-c127d4f23f8a"},"vehicle_type_id":"4","last_reported":1725898205,"current_range_meters":4000,"station_id":"ce4bhsp2rcd13ifvqi50","pricing_plan_id":"cebpf4jnsgd1na2vs0mg"},{"bike_id":"557c3bad-b821-4eb4-8e5b-5247589617d0","system_id":"levelo_inurba_marseille","lat":43.315289,"lon":5.380349,"is_reserved":false,"is_disabled":false,"rental_uris":{"android":"levelo://app?vid=557c3bad-b821-4eb4-8e5b-5247589617d0","ios":"levelo://app?vid=557c3bad-b821-4eb4-8e5b-5247589617d0"},"vehicle_type_id":"4","last_reported":1725898205,"current_range_meters":4000,"station_id":"ce4bhsp2rcd13ifvqi50","pricing_plan_id":"cebpf4jnsgd1na2vs0mg"},{"bike_id":"4d4f23ec-34e8-45d5-ac18-bf34d910d31b","system_id":"levelo_inurba_marseille","lat":43.304606,"lon":5.379026,"is_reserved":false,"is_disabled":false,"rental_uris":{"android":"levelo://app?vid=4d4f23ec-34e8-45d5-ac18-bf34d910d31b","ios":"levelo://app?vid=4d4f23ec-34e8-45d5-ac18-bf34d910d31b"},"vehicle_type_id":"4","last_reported":1725898205,"current_range_meters":2400,"station_id":"ce4bgup2rcd13ifvqcn0","pricing_plan_id":"cebpf4jnsgd1na2vs0mg"},{"bike_id":"9482c4fa-cfe9-40f1-8069-1b3b9aa27cc9","system_id":"levelo_inurba_marseille","lat":43.324771,"lon":5.36557,"is_reserved":false,"is_disabled":false,"rental_uris":{"android":"levelo://app?vid=9482c4fa-cfe9-40f1-8069-1b3b9aa27cc9","ios":"levelo://app?vid=9482c4fa-cfe9-40f1-8069-1b3b9aa27cc9"},"vehicle_type_id":"4","last_reported":1725898205,"current_range_meters":7200,"station_id":"ce4bhs12rcd13ifvqhvg","pricing_plan_id":"cebpf4jnsgd1na2vs0mg"},{"bike_id":"ec47d5bc-e8be-437a-ac9d-9939947a2fdc","system_id":"levelo_inurba_marseille","lat":43.32475,"lon":5.36569,"is_reserved":false,"is_disabled":false,"rental_uris":{"android":"levelo://app?vid=ec47d5bc-e8be-437a-ac9d-9939947a2fdc","ios":"levelo://app?vid=ec47d5bc-e8be-437a-ac9d-9939947a2fdc"},"vehicle_type_id":"4","last_reported":1725898205,"current_range_meters":10000,"station_id":"ce4bhs12rcd13ifvqhvg","pricing_plan_id":"cebpf4jnsgd1na2vs0mg"},{"bike_id":"7c527ef0-df61-4a5d-8cd3-30970b5d08c4","system_id":"levelo_inurba_marseille","lat":43.324771,"lon":5.36557,"is_reserved":false,"is_disabled":false,"rental_uris":{"android":"levelo://app?vid=7c527ef0-df61-4a5d-8cd3-30970b5d08c4","ios":"levelo://app?vid=7c527ef0-df61-4a5d-8cd3-30970b5d08c4"},"vehicle_type_id":"4","last_reported":1725898205,"current_range_meters":4800,"station_id":"ce4bhs12rcd13ifvqhvg","pricing_plan_id":"cebpf4jnsgd1na2vs0mg"},{"bike_id":"4eb71b60-b970-40d0-8ef2-70deece76b18","system_id":"levelo_inurba_marseille","lat":43.324771,"lon":5.36557,"is_reserved":false,"is_disabled":false,"rental_uris":{"android":"levelo://app?vid=4eb71b60-b970-40d0-8ef2-70deece76b18","ios":"levelo://app?vid=4eb71b60-b970-40d0-8ef2-70deece76b18"},"vehicle_type_id":"4","last_reported":1725898205,"current_range_meters":800,"station_id":"ce4bhs12rcd13ifvqhvg","pricing_plan_id":"cebpf4jnsgd1na2vs0mg"},{"bike_id":"f7830d6e-5c95-4b3e-a755-067a8095051f","system_id":"levelo_inurba_marseille","lat":43.324825,"lon":5.365629,"is_reserved":false,"is_disabled":false,"rental_uris":{"android":"levelo://app?vid=f7830d6e-5c95-4b3e-a755-067a8095051f","ios":"levelo://app?vid=f7830d6e-5c95-4b3e-a755-067a8095051f"},"vehicle_type_id":"4","last_reported":1725898205,"current_range_meters":26800,"station_id":"ce4bhs12rcd13ifvqhvg","pricing_plan_id":"cebpf4jnsgd1na2vs0mg"},{"bike_id":"eb9a993b-a101-4724-ba8f-02a681b8e53c","system_id":"levelo_inurba_marseille","lat":43.324771,"lon":5.36557,"is_reserved":false,"is_disabled":false,"rental_uris":{"android":"levelo://app?vid=eb9a993b-a101-4724-ba8f-02a681b8e53c","ios":"levelo://app?vid=eb9a993b-a101-4724-ba8f-02a681b8e53c"},"vehicle_type_id":"4","last_reported":1725898205,"current_range_meters":24800,"station_id":"ce4bhs12rcd13ifvqhvg","pricing_plan_id":"cebpf4jnsgd1na2vs0mg"},{"bike_id":"a9bdf76d-66c4-41ff-a24c-5e4740457259","system_id":"levelo_inurba_marseille","lat":43.324771,"lon":5.36557,"is_reserved":false,"is_disabled":false,"rental_uris":{"android":"levelo://app?vid=a9bdf76d-66c4-41ff-a24c-5e4740457259","ios":"levelo://app?vid=a9bdf76d-66c4-41ff-a24c-5e4740457259"},"vehicle_type_id":"4","last_reported":1725898205,"current_range_meters":26000,"station_id":"ce4bhs12rcd13ifvqhvg","pricing_plan_id":"cebpf4jnsgd1na2vs0mg"},{"bike_id":"4e0fafec-7fef-432a-afe5-de672cba7d71","system_id":"levelo_inurba_marseille","lat":43.324771,"lon":5.36557,"is_reserved":false,"is_disabled":false,"rental_uris":{"android":"levelo://app?vid=4e0fafec-7fef-432a-afe5-de672cba7d71","ios":"levelo://app?vid=4e0fafec-7fef-432a-afe5-de672cba7d71"},"vehicle_type_id":"4","last_reported":1725898205,"current_range_meters":4800,"station_id":"ce4bhs12rcd13ifvqhvg","pricing_plan_id":"cebpf4jnsgd1na2vs0mg"},{"bike_id":"3bfb24ac-48e4-4a98-ad41-7bd246f5c5ce","system_id":"levelo_inurba_marseille","lat":43.324905,"lon":5.365786,"is_reserved":false,"is_disabled":false,"rental_uris":{"android":"levelo://app?vid=3bfb24ac-48e4-4a98-ad41-7bd246f5c5ce","ios":"levelo://app?vid=3bfb24ac-48e4-4a98-ad41-7bd246f5c5ce"},"vehicle_type_id":"4","last_reported":1725898205,"current_range_meters":800,"station_id":"ce4bhs12rcd13ifvqhvg","pricing_plan_id":"cebpf4jnsgd1na2vs0mg"},{"bike_id":"39ae64e3-458f-4325-a2ae-744313368351","system_id":"levelo_inurba_marseille","lat":43.324923,"lon":5.365673,"is_reserved":false,"is_disabled":false,"rental_uris":{"android":"levelo://app?vid=39ae64e3-458f-4325-a2ae-744313368351","ios":"levelo://app?vid=39ae64e3-458f-4325-a2ae-744313368351"},"vehicle_type_id":"4","last_reported":1725898205,"current_range_meters":0,"station_id":"ce4bhs12rcd13ifvqhvg","pricing_plan_id":"cebpf4jnsgd1na2vs0mg"},{"bike_id":"3791dbf2-8e72-4c30-8cda-7b5692abd8ea","system_id":"levelo_inurba_marseille","lat":43.32493,"lon":5.36576,"is_reserved":false,"is_disabled":false,"rental_uris":{"android":"levelo://app?vid=3791dbf2-8e72-4c30-8cda-7b5692abd8ea","ios":"levelo://app?vid=3791dbf2-8e72-4c30-8cda-7b5692abd8ea"},"vehicle_type_id":"4","last_reported":1725898205,"current_range_meters":7600,"station_id":"ce4bhs12rcd13ifvqhvg","pricing_plan_id":"cebpf4jnsgd1na2vs0mg"},{"bike_id":"e3d1f88a-db12-42dc-8a49-06ff60a624f7","system_id":"levelo_inurba_marseille","lat":43.310804,"lon":5.38359,"is_reserved":false,"is_disabled":false,"rental_uris":{"android":"levelo://app?vid=e3d1f88a-db12-42dc-8a49-06ff60a624f7","ios":"levelo://app?vid=e3d1f88a-db12-42dc-8a49-06ff60a624f7"},"vehicle_type_id":"4","last_reported":1725898205,"current_range_meters":31200,"station_id":"ce4bgv92rcd13ifvqcr0","pricing_plan_id":"cebpf4jnsgd1na2vs0mg"},{"bike_id":"9e9e7b1b-64ff-4924-9935-53086eddaa14","system_id":"levelo_inurba_marseille","lat":43.31629,"lon":5.38324,"is_reserved":false,"is_disabled":false,"rental_uris":{"android":"levelo://app?vid=9e9e7b1b-64ff-4924-9935-53086eddaa14","ios":"levelo://app?vid=9e9e7b1b-64ff-4924-9935-53086eddaa14"},"vehicle_type_id":"4","last_reported":1725898205,"current_range_meters":29600,"station_id":"","pricing_plan_id":"cebpf4jnsgd1na2vs0mg"},{"bike_id":"eff11ab3-4281-4d8a-86f3-1cadc4540320","system_id":"levelo_inurba_marseille","lat":43.319935,"lon":5.381699,"is_reserved":false,"is_disabled":false,"rental_uris":{"android":"levelo://app?vid=eff11ab3-4281-4d8a-86f3-1cadc4540320","ios":"levelo://app?vid=eff11ab3-4281-4d8a-86f3-1cadc4540320"},"vehicle_type_id":"4","last_reported":1725898205,"current_range_meters":5600,"station_id":"ce4bhr12rcd13ifvqhpg","pricing_plan_id":"cebpf4jnsgd1na2vs0mg"},{"bike_id":"2028638a-f472-4f11-b2f1-2ba9a3399d18","system_id":"levelo_inurba_marseille","lat":43.319935,"lon":5.381699,"is_reserved":false,"is_disabled":false,"rental_uris":{"android":"levelo://app?vid=2028638a-f472-4f11-b2f1-2ba9a3399d18","ios":"levelo://app?vid=2028638a-f472-4f11-b2f1-2ba9a3399d18"},"vehicle_type_id":"4","last_reported":1725898205,"current_range_meters":5600,"station_id":"ce4bhr12rcd13ifvqhpg","pricing_plan_id":"cebpf4jnsgd1na2vs0mg"},{"bike_id":"8ffdd186-15ba-4f6e-be0b-8ef236101fb9","system_id":"levelo_inurba_marseille","lat":43.313571,"lon":5.384829,"is_reserved":false,"is_disabled":false,"rental_uris":{"android":"levelo://app?vid=8ffdd186-15ba-4f6e-be0b-8ef236101fb9","ios":"levelo://app?vid=8ffdd186-15ba-4f6e-be0b-8ef236101fb9"},"vehicle_type_id":"4","last_reported":1725898205,"current_range_meters":26400,"station_id":"ce4bgt92rcd13ifvqcf0","pricing_plan_id":"cebpf4jnsgd1na2vs0mg"},{"bike_id":"35168969-bd42-4132-a0d9-c97aee49cf87","system_id":"levelo_inurba_marseille","lat":43.299222,"lon":5.365554,"is_reserved":false,"is_disabled":false,"rental_uris":{"android":"levelo://app?vid=35168969-bd42-4132-a0d9-c97aee49cf87","ios":"levelo://app?vid=35168969-bd42-4132-a0d9-c97aee49cf87"},"vehicle_type_id":"4","last_reported":1725898205,"current_range_meters":9200,"station_id":"ce4bgm92rcd13ifvqbr0","pricing_plan_id":"cebpf4jnsgd1na2vs0mg"},{"bike_id":"860bffc0-8095-4cba-ba65-b3ae45fff397","system_id":"levelo_inurba_marseille","lat":43.29976,"lon":5.37173,"is_reserved":false,"is_disabled":false,"rental_uris":{"android":"levelo://app?vid=860bffc0-8095-4cba-ba65-b3ae45fff397","ios":"levelo://app?vid=860bffc0-8095-4cba-ba65-b3ae45fff397"},"vehicle_type_id":"4","last_reported":1725898205,"current_range_meters":31200,"station_id":"","pricing_plan_id":"cebpf4jnsgd1na2vs0mg"},{"bike_id":"9aa449bc-7a38-4bf4-bb29-22e0c6ec42e4","system_id":"levelo_inurba_marseille","lat":43.298433,"lon":5.362774,"is_reserved":false,"is_disabled":false,"rental_uris":{"android":"levelo://app?vid=9aa449bc-7a38-4bf4-bb29-22e0c6ec42e4","ios":"levelo://app?vid=9aa449bc-7a38-4bf4-bb29-22e0c6ec42e4"},"vehicle_type_id":"4","last_reported":1725898205,"current_range_meters":29200,"station_id":"ce4bgpp2rcd13ifvqc3g","pricing_plan_id":"cebpf4jnsgd1na2vs0mg"},{"bike_id":"58792235-36b7-4490-82a6-85d9a33ffa78","system_id":"levelo_inurba_marseille","lat":43.298433,"lon":5.362774,"is_reserved":false,"is_disabled":false,"rental_uris":{"android":"levelo://app?vid=58792235-36b7-4490-82a6-85d9a33ffa78","ios":"levelo://app?vid=58792235-36b7-4490-82a6-85d9a33ffa78"},"vehicle_type_id":"4","last_reported":1725898205,"current_range_meters":4800,"station_id":"ce4bgpp2rcd13ifvqc3g","pricing_plan_id":"cebpf4jnsgd1na2vs0mg"},{"bike_id":"86c5b5cd-3f3b-4d0d-8a11-20ab17328492","system_id":"levelo_inurba_marseille","lat":43.298433,"lon":5.362774,"is_reserved":false,"is_disabled":false,"rental_uris":{"android":"levelo://app?vid=86c5b5cd-3f3b-4d0d-8a11-20ab17328492","ios":"levelo://app?vid=86c5b5cd-3f3b-4d0d-8a11-20ab17328492"},"vehicle_type_id":"4","last_reported":1725898205,"current_range_meters":0,"station_id":"ce4bgpp2rcd13ifvqc3g","pricing_plan_id":"cebpf4jnsgd1na2vs0mg"},{"bike_id":"4eb0652a-4663-4434-ad90-78856fb4d55f","system_id":"levelo_inurba_marseille","lat":43.305364,"lon":5.384119,"is_reserved":false,"is_disabled":false,"rental_uris":{"android":"levelo://app?vid=4eb0652a-4663-4434-ad90-78856fb4d55f","ios":"levelo://app?vid=4eb0652a-4663-4434-ad90-78856fb4d55f"},"vehicle_type_id":"4","last_reported":1725898205,"current_range_meters":0,"station_id":"ce4bgg92rcd13ifvqb30","pricing_plan_id":"cebpf4jnsgd1na2vs0mg"},{"bike_id":"43c55dbb-892d-4ec9-9c2a-50c58f087664","system_id":"levelo_inurba_marseille","lat":43.311722,"lon":5.387247,"is_reserved":false,"is_disabled":false,"rental_uris":{"android":"levelo://app?vid=43c55dbb-892d-4ec9-9c2a-50c58f087664","ios":"levelo://app?vid=43c55dbb-892d-4ec9-9c2a-50c58f087664"},"vehicle_type_id":"4","last_reported":1725898205,"current_range_meters":27200,"station_id":"ce4bgv12rcd13ifvqcp0","pricing_plan_id":"cebpf4jnsgd1na2vs0mg"},{"bike_id":"af10c5a0-4da8-485d-b140-a27409c8a80a","system_id":"levelo_inurba_marseille","lat":43.31169,"lon":5.38714,"is_reserved":false,"is_disabled":false,"rental_uris":{"android":"levelo://app?vid=af10c5a0-4da8-485d-b140-a27409c8a80a","ios":"levelo://app?vid=af10c5a0-4da8-485d-b140-a27409c8a80a"},"vehicle_type_id":"4","last_reported":1725898205,"current_range_meters":28000,"station_id":"ce4bgv12rcd13ifvqcp0","pricing_plan_id":"cebpf4jnsgd1na2vs0mg"},{"bike_id":"8f72ae9e-2524-4e23-82ce-dad49a79c839","system_id":"levelo_inurba_marseille","lat":43.311722,"lon":5.387247,"is_reserved":false,"is_disabled":false,"rental_uris":{"android":"levelo://app?vid=8f72ae9e-2524-4e23-82ce-dad49a79c839","ios":"levelo://app?vid=8f72ae9e-2524-4e23-82ce-dad49a79c839"},"vehicle_type_id":"4","last_reported":1725898205,"current_range_meters":25200,"station_id":"ce4bgv12rcd13ifvqcp0","pricing_plan_id":"cebpf4jnsgd1na2vs0mg"},{"bike_id":"1f6a9e6b-ea7a-4f6b-9900-d8d9c503c85b","system_id":"levelo_inurba_marseille","lat":43.311722,"lon":5.387247,"is_reserved":false,"is_disabled":false,"rental_uris":{"android":"levelo://app?vid=1f6a9e6b-ea7a-4f6b-9900-d8d9c503c85b","ios":"levelo://app?vid=1f6a9e6b-ea7a-4f6b-9900-d8d9c503c85b"},"vehicle_type_id":"4","last_reported":1725898205,"current_range_meters":21600,"station_id":"ce4bgv12rcd13ifvqcp0","pricing_plan_id":"cebpf4jnsgd1na2vs0mg"},{"bike_id":"e7cd8c1c-56a6-48ff-b22a-0f94eb757636","system_id":"levelo_inurba_marseille","lat":43.30141,"lon":5.38052,"is_reserved":false,"is_disabled":false,"rental_uris":{"android":"levelo://app?vid=e7cd8c1c-56a6-48ff-b22a-0f94eb757636","ios":"levelo://app?vid=e7cd8c1c-56a6-48ff-b22a-0f94eb757636"},"vehicle_type_id":"4","last_reported":1725898205,"current_range_meters":11600,"station_id":"ce4bgjp2rcd13ifvqbh0","pricing_plan_id":"cebpf4jnsgd1na2vs0mg"},{"bike_id":"bc7d9694-6beb-4661-9598-ebb278f83b4b","system_id":"levelo_inurba_marseille","lat":43.322868,"lon":5.382585,"is_reserved":false,"is_disabled":false,"rental_uris":{"android":"levelo://app?vid=bc7d9694-6beb-4661-9598-ebb278f83b4b","ios":"levelo://app?vid=bc7d9694-6beb-4661-9598-ebb278f83b4b"},"vehicle_type_id":"4","last_reported":1725898205,"current_range_meters":31200,"station_id":"ce4bhr12rcd13ifvqhqg","pricing_plan_id":"cebpf4jnsgd1na2vs0mg"},{"bike_id":"cce2cbc3-b0de-444c-b3af-a67a62d9c011","system_id":"levelo_inurba_marseille","lat":43.32292,"lon":5.38264,"is_reserved":false,"is_disabled":false,"rental_uris":{"android":"levelo://app?vid=cce2cbc3-b0de-444c-b3af-a67a62d9c011","ios":"levelo://app?vid=cce2cbc3-b0de-444c-b3af-a67a62d9c011"},"vehicle_type_id":"4","last_reported":1725898205,"current_range_meters":30000,"station_id":"ce4bhr12rcd13ifvqhqg","pricing_plan_id":"cebpf4jnsgd1na2vs0mg"},{"bike_id":"c883b54a-09a8-4c3b-ad3f-9dbdd1429f8c","system_id":"levelo_inurba_marseille","lat":43.322872,"lon":5.382756,"is_reserved":false,"is_disabled":false,"rental_uris":{"android":"levelo://app?vid=c883b54a-09a8-4c3b-ad3f-9dbdd1429f8c","ios":"levelo://app?vid=c883b54a-09a8-4c3b-ad3f-9dbdd1429f8c"},"vehicle_type_id":"4","last_reported":1725898205,"current_range_meters":6000,"station_id":"ce4bhr12rcd13ifvqhqg","pricing_plan_id":"cebpf4jnsgd1na2vs0mg"},{"bike_id":"83a17ab0-8e75-4386-be72-e04fb515cf54","system_id":"levelo_inurba_marseille","lat":43.322872,"lon":5.382756,"is_reserved":false,"is_disabled":false,"rental_uris":{"android":"levelo://app?vid=83a17ab0-8e75-4386-be72-e04fb515cf54","ios":"levelo://app?vid=83a17ab0-8e75-4386-be72-e04fb515cf54"},"vehicle_type_id":"4","last_reported":1725898205,"current_range_meters":15600,"station_id":"ce4bhr12rcd13ifvqhqg","pricing_plan_id":"cebpf4jnsgd1na2vs0mg"},{"bike_id":"e92128e1-9c4e-4b5e-8475-f4834ef1ca90","system_id":"levelo_inurba_marseille","lat":43.322996,"lon":5.382588,"is_reserved":false,"is_disabled":false,"rental_uris":{"android":"levelo://app?vid=e92128e1-9c4e-4b5e-8475-f4834ef1ca90","ios":"levelo://app?vid=e92128e1-9c4e-4b5e-8475-f4834ef1ca90"},"vehicle_type_id":"4","last_reported":1725898205,"current_range_meters":24800,"station_id":"ce4bhr12rcd13ifvqhqg","pricing_plan_id":"cebpf4jnsgd1na2vs0mg"},{"bike_id":"e8dbf825-2423-4190-abfa-7d8cec3f4a72","system_id":"levelo_inurba_marseille","lat":43.32286,"lon":5.38278,"is_reserved":false,"is_disabled":false,"rental_uris":{"android":"levelo://app?vid=e8dbf825-2423-4190-abfa-7d8cec3f4a72","ios":"levelo://app?vid=e8dbf825-2423-4190-abfa-7d8cec3f4a72"},"vehicle_type_id":"4","last_reported":1725898205,"current_range_meters":26000,"station_id":"ce4bhr12rcd13ifvqhqg","pricing_plan_id":"cebpf4jnsgd1na2vs0mg"},{"bike_id":"e58c3fa6-f4fa-40c5-8f12-6cc165172cc5","system_id":"levelo_inurba_marseille","lat":43.322872,"lon":5.382756,"is_reserved":false,"is_disabled":false,"rental_uris":{"android":"levelo://app?vid=e58c3fa6-f4fa-40c5-8f12-6cc165172cc5","ios":"levelo://app?vid=e58c3fa6-f4fa-40c5-8f12-6cc165172cc5"},"vehicle_type_id":"4","last_reported":1725898205,"current_range_meters":14000,"station_id":"ce4bhr12rcd13ifvqhqg","pricing_plan_id":"cebpf4jnsgd1na2vs0mg"},{"bike_id":"fedb6f27-1de1-4f22-89cc-18a3690d200b","system_id":"levelo_inurba_marseille","lat":43.322872,"lon":5.382756,"is_reserved":false,"is_disabled":false,"rental_uris":{"android":"levelo://app?vid=fedb6f27-1de1-4f22-89cc-18a3690d200b","ios":"levelo://app?vid=fedb6f27-1de1-4f22-89cc-18a3690d200b"},"vehicle_type_id":"4","last_reported":1725898205,"current_range_meters":28400,"station_id":"ce4bhr12rcd13ifvqhqg","pricing_plan_id":"cebpf4jnsgd1na2vs0mg"},{"bike_id":"bd5ae5e0-5564-4541-94fc-ca0a05fd7fbd","system_id":"levelo_inurba_marseille","lat":43.322872,"lon":5.382756,"is_reserved":false,"is_disabled":false,"rental_uris":{"android":"levelo://app?vid=bd5ae5e0-5564-4541-94fc-ca0a05fd7fbd","ios":"levelo://app?vid=bd5ae5e0-5564-4541-94fc-ca0a05fd7fbd"},"vehicle_type_id":"4","last_reported":1725898205,"current_range_meters":32000,"station_id":"ce4bhr12rcd13ifvqhqg","pricing_plan_id":"cebpf4jnsgd1na2vs0mg"},{"bike_id":"3d96f58d-148a-4dae-ac34-ed96f64bee81","system_id":"levelo_inurba_marseille","lat":43.32293,"lon":5.382753,"is_reserved":false,"is_disabled":false,"rental_uris":{"android":"levelo://app?vid=3d96f58d-148a-4dae-ac34-ed96f64bee81","ios":"levelo://app?vid=3d96f58d-148a-4dae-ac34-ed96f64bee81"},"vehicle_type_id":"4","last_reported":1725898205,"current_range_meters":8400,"station_id":"ce4bhr12rcd13ifvqhqg","pricing_plan_id":"cebpf4jnsgd1na2vs0mg"},{"bike_id":"e57c6050-55dd-4a7b-a30f-05f7abef2f6b","system_id":"levelo_inurba_marseille","lat":43.322938,"lon":5.382745,"is_reserved":false,"is_disabled":false,"rental_uris":{"android":"levelo://app?vid=e57c6050-55dd-4a7b-a30f-05f7abef2f6b","ios":"levelo://app?vid=e57c6050-55dd-4a7b-a30f-05f7abef2f6b"},"vehicle_type_id":"4","last_reported":1725898205,"current_range_meters":5600,"station_id":"ce4bhr12rcd13ifvqhqg","pricing_plan_id":"cebpf4jnsgd1na2vs0mg"},{"bike_id":"34813d65-4aaa-40d7-9ccb-c4aa0b5d199f","system_id":"levelo_inurba_marseille","lat":43.322872,"lon":5.382756,"is_reserved":false,"is_disabled":false,"rental_uris":{"android":"levelo://app?vid=34813d65-4aaa-40d7-9ccb-c4aa0b5d199f","ios":"levelo://app?vid=34813d65-4aaa-40d7-9ccb-c4aa0b5d199f"},"vehicle_type_id":"4","last_reported":1725898205,"current_range_meters":24400,"station_id":"ce4bhr12rcd13ifvqhqg","pricing_plan_id":"cebpf4jnsgd1na2vs0mg"},{"bike_id":"0a33aa5a-a1a5-4d69-9a05-4a109caf171e","system_id":"levelo_inurba_marseille","lat":43.322872,"lon":5.382756,"is_reserved":false,"is_disabled":false,"rental_uris":{"android":"levelo://app?vid=0a33aa5a-a1a5-4d69-9a05-4a109caf171e","ios":"levelo://app?vid=0a33aa5a-a1a5-4d69-9a05-4a109caf171e"},"vehicle_type_id":"4","last_reported":1725898205,"current_range_meters":25600,"station_id":"ce4bhr12rcd13ifvqhqg","pricing_plan_id":"cebpf4jnsgd1na2vs0mg"},{"bike_id":"c6e72481-beee-4a92-8ffe-22113bd8e550","system_id":"levelo_inurba_marseille","lat":43.297163,"lon":5.365866,"is_reserved":false,"is_disabled":false,"rental_uris":{"android":"levelo://app?vid=c6e72481-beee-4a92-8ffe-22113bd8e550","ios":"levelo://app?vid=c6e72481-beee-4a92-8ffe-22113bd8e550"},"vehicle_type_id":"4","last_reported":1725898205,"current_range_meters":8400,"station_id":"ce4bgn12rcd13ifvqbt0","pricing_plan_id":"cebpf4jnsgd1na2vs0mg"},{"bike_id":"c9d9079e-55a5-428a-8dc2-6dd972ed9340","system_id":"levelo_inurba_marseille","lat":43.297163,"lon":5.365866,"is_reserved":false,"is_disabled":false,"rental_uris":{"android":"levelo://app?vid=c9d9079e-55a5-428a-8dc2-6dd972ed9340","ios":"levelo://app?vid=c9d9079e-55a5-428a-8dc2-6dd972ed9340"},"vehicle_type_id":"4","last_reported":1725898205,"current_range_meters":31200,"station_id":"ce4bgn12rcd13ifvqbt0","pricing_plan_id":"cebpf4jnsgd1na2vs0mg"},{"bike_id":"a63c4bd1-d5a6-4025-965a-44bb72905f22","system_id":"levelo_inurba_marseille","lat":43.297163,"lon":5.365866,"is_reserved":false,"is_disabled":false,"rental_uris":{"android":"levelo://app?vid=a63c4bd1-d5a6-4025-965a-44bb72905f22","ios":"levelo://app?vid=a63c4bd1-d5a6-4025-965a-44bb72905f22"},"vehicle_type_id":"4","last_reported":1725898205,"current_range_meters":29600,"station_id":"ce4bgn12rcd13ifvqbt0","pricing_plan_id":"cebpf4jnsgd1na2vs0mg"},{"bike_id":"bc838d5b-cd5d-4283-8a33-be5a6e4c4a56","system_id":"levelo_inurba_marseille","lat":43.2968,"lon":5.37291,"is_reserved":false,"is_disabled":false,"rental_uris":{"android":"levelo://app?vid=bc838d5b-cd5d-4283-8a33-be5a6e4c4a56","ios":"levelo://app?vid=bc838d5b-cd5d-4283-8a33-be5a6e4c4a56"},"vehicle_type_id":"4","last_reported":1725898205,"current_range_meters":29200,"station_id":"ce4bgk12rcd13ifvqbj0","pricing_plan_id":"cebpf4jnsgd1na2vs0mg"},{"bike_id":"276ab480-1a09-4f05-8296-1b40ef14776a","system_id":"levelo_inurba_marseille","lat":43.29582,"lon":5.36738,"is_reserved":false,"is_disabled":false,"rental_uris":{"android":"levelo://app?vid=276ab480-1a09-4f05-8296-1b40ef14776a","ios":"levelo://app?vid=276ab480-1a09-4f05-8296-1b40ef14776a"},"vehicle_type_id":"4","last_reported":1725898205,"current_range_meters":30000,"station_id":"ce4bgph2rcd13ifvqc2g","pricing_plan_id":"cebpf4jnsgd1na2vs0mg"},{"bike_id":"cbe3aee4-d3e5-4e61-84ef-5b1bf21d4365","system_id":"levelo_inurba_marseille","lat":43.29573,"lon":5.367355,"is_reserved":false,"is_disabled":false,"rental_uris":{"android":"levelo://app?vid=cbe3aee4-d3e5-4e61-84ef-5b1bf21d4365","ios":"levelo://app?vid=cbe3aee4-d3e5-4e61-84ef-5b1bf21d4365"},"vehicle_type_id":"4","last_reported":1725898205,"current_range_meters":28400,"station_id":"ce4bgph2rcd13ifvqc2g","pricing_plan_id":"cebpf4jnsgd1na2vs0mg"},{"bike_id":"33006ddc-2565-42e9-b7be-55f765da56fa","system_id":"levelo_inurba_marseille","lat":43.29573,"lon":5.367355,"is_reserved":false,"is_disabled":false,"rental_uris":{"android":"levelo://app?vid=33006ddc-2565-42e9-b7be-55f765da56fa","ios":"levelo://app?vid=33006ddc-2565-42e9-b7be-55f765da56fa"},"vehicle_type_id":"4","last_reported":1725898205,"current_range_meters":10800,"station_id":"ce4bgph2rcd13ifvqc2g","pricing_plan_id":"cebpf4jnsgd1na2vs0mg"},{"bike_id":"0033a406-08af-4350-95c3-92d7d10f17dc","system_id":"levelo_inurba_marseille","lat":43.296921,"lon":5.376579,"is_reserved":false,"is_disabled":false,"rental_uris":{"android":"levelo://app?vid=0033a406-08af-4350-95c3-92d7d10f17dc","ios":"levelo://app?vid=0033a406-08af-4350-95c3-92d7d10f17dc"},"vehicle_type_id":"4","last_reported":1725898205,"current_range_meters":0,"station_id":"ce4bgkh2rcd13ifvqbl0","pricing_plan_id":"cebpf4jnsgd1na2vs0mg"},{"bike_id":"4ab82692-785d-4db8-af2b-b9342840588c","system_id":"levelo_inurba_marseille","lat":43.299028,"lon":5.381509,"is_reserved":false,"is_disabled":false,"rental_uris":{"android":"levelo://app?vid=4ab82692-785d-4db8-af2b-b9342840588c","ios":"levelo://app?vid=4ab82692-785d-4db8-af2b-b9342840588c"},"vehicle_type_id":"4","last_reported":1725898205,"current_range_meters":5600,"station_id":"ce4bgj12rcd13ifvqbc0","pricing_plan_id":"cebpf4jnsgd1na2vs0mg"},{"bike_id":"54203409-742c-4622-880e-01dab2dffb0d","system_id":"levelo_inurba_marseille","lat":43.309589,"lon":5.390258,"is_reserved":false,"is_disabled":false,"rental_uris":{"android":"levelo://app?vid=54203409-742c-4622-880e-01dab2dffb0d","ios":"levelo://app?vid=54203409-742c-4622-880e-01dab2dffb0d"},"vehicle_type_id":"4","last_reported":1725898205,"current_range_meters":24000,"station_id":"ce4bgup2rcd13ifvqco0","pricing_plan_id":"cebpf4jnsgd1na2vs0mg"},{"bike_id":"1152bee9-806f-49f3-b050-9f08d43a632d","system_id":"levelo_inurba_marseille","lat":43.299028,"lon":5.381509,"is_reserved":false,"is_disabled":false,"rental_uris":{"android":"levelo://app?vid=1152bee9-806f-49f3-b050-9f08d43a632d","ios":"levelo://app?vid=1152bee9-806f-49f3-b050-9f08d43a632d"},"vehicle_type_id":"4","last_reported":1725898205,"current_range_meters":23200,"station_id":"ce4bgj12rcd13ifvqbc0","pricing_plan_id":"cebpf4jnsgd1na2vs0mg"},{"bike_id":"4a2c3289-e5b4-43b2-8c5f-9f527d9603de","system_id":"levelo_inurba_marseille","lat":43.29698,"lon":5.37691,"is_reserved":false,"is_disabled":false,"rental_uris":{"android":"levelo://app?vid=4a2c3289-e5b4-43b2-8c5f-9f527d9603de","ios":"levelo://app?vid=4a2c3289-e5b4-43b2-8c5f-9f527d9603de"},"vehicle_type_id":"4","last_reported":1725898205,"current_range_meters":7200,"station_id":"ce4bgkh2rcd13ifvqbl0","pricing_plan_id":"cebpf4jnsgd1na2vs0mg"},{"bike_id":"071d5887-132e-4401-8ffb-8567f8b67c31","system_id":"levelo_inurba_marseille","lat":43.31759,"lon":5.3901,"is_reserved":false,"is_disabled":false,"rental_uris":{"android":"levelo://app?vid=071d5887-132e-4401-8ffb-8567f8b67c31","ios":"levelo://app?vid=071d5887-132e-4401-8ffb-8567f8b67c31"},"vehicle_type_id":"4","last_reported":1725898205,"current_range_meters":9600,"station_id":"ce4bhqp2rcd13ifvqhng","pricing_plan_id":"cebpf4jnsgd1na2vs0mg"},{"bike_id":"7da48e77-1a22-4c7e-a9dc-6f60aefa4f34","system_id":"levelo_inurba_marseille","lat":43.317557,"lon":5.390173,"is_reserved":false,"is_disabled":false,"rental_uris":{"android":"levelo://app?vid=7da48e77-1a22-4c7e-a9dc-6f60aefa4f34","ios":"levelo://app?vid=7da48e77-1a22-4c7e-a9dc-6f60aefa4f34"},"vehicle_type_id":"4","last_reported":1725898205,"current_range_meters":25200,"station_id":"ce4bhqp2rcd13ifvqhng","pricing_plan_id":"cebpf4jnsgd1na2vs0mg"},{"bike_id":"4d43ce63-2f86-4521-b911-0b32c647877d","system_id":"levelo_inurba_marseille","lat":43.317557,"lon":5.390173,"is_reserved":false,"is_disabled":false,"rental_uris":{"android":"levelo://app?vid=4d43ce63-2f86-4521-b911-0b32c647877d","ios":"levelo://app?vid=4d43ce63-2f86-4521-b911-0b32c647877d"},"vehicle_type_id":"4","last_reported":1725898205,"current_range_meters":7600,"station_id":"ce4bhqp2rcd13ifvqhng","pricing_plan_id":"cebpf4jnsgd1na2vs0mg"},{"bike_id":"42d96c00-ab41-452c-9d59-ceb10b89984c","system_id":"levelo_inurba_marseille","lat":43.3176,"lon":5.39018,"is_reserved":false,"is_disabled":false,"rental_uris":{"android":"levelo://app?vid=42d96c00-ab41-452c-9d59-ceb10b89984c","ios":"levelo://app?vid=42d96c00-ab41-452c-9d59-ceb10b89984c"},"vehicle_type_id":"4","last_reported":1725898205,"current_range_meters":30400,"station_id":"ce4bhqp2rcd13ifvqhng","pricing_plan_id":"cebpf4jnsgd1na2vs0mg"},{"bike_id":"c219aae8-5c7e-40b3-a125-f85289315ded","system_id":"levelo_inurba_marseille","lat":43.31756,"lon":5.3902,"is_reserved":false,"is_disabled":false,"rental_uris":{"android":"levelo://app?vid=c219aae8-5c7e-40b3-a125-f85289315ded","ios":"levelo://app?vid=c219aae8-5c7e-40b3-a125-f85289315ded"},"vehicle_type_id":"4","last_reported":1725898205,"current_range_meters":15200,"station_id":"ce4bhqp2rcd13ifvqhng","pricing_plan_id":"cebpf4jnsgd1na2vs0mg"},{"bike_id":"01cc83f9-9650-4e9d-8a3b-a55632f27eca","system_id":"levelo_inurba_marseille","lat":43.317557,"lon":5.390173,"is_reserved":false,"is_disabled":false,"rental_uris":{"android":"levelo://app?vid=01cc83f9-9650-4e9d-8a3b-a55632f27eca","ios":"levelo://app?vid=01cc83f9-9650-4e9d-8a3b-a55632f27eca"},"vehicle_type_id":"4","last_reported":1725898205,"current_range_meters":15200,"station_id":"ce4bhqp2rcd13ifvqhng","pricing_plan_id":"cebpf4jnsgd1na2vs0mg"},{"bike_id":"de7caba6-db14-41d8-9d63-3331144e9d95","system_id":"levelo_inurba_marseille","lat":43.3176,"lon":5.39023,"is_reserved":false,"is_disabled":false,"rental_uris":{"android":"levelo://app?vid=de7caba6-db14-41d8-9d63-3331144e9d95","ios":"levelo://app?vid=de7caba6-db14-41d8-9d63-3331144e9d95"},"vehicle_type_id":"4","last_reported":1725898205,"current_range_meters":2000,"station_id":"ce4bhqp2rcd13ifvqhng","pricing_plan_id":"cebpf4jnsgd1na2vs0mg"},{"bike_id":"9bfc7f83-9a3b-48db-89bc-7ba54061be6c","system_id":"levelo_inurba_marseille","lat":43.31751,"lon":5.3903,"is_reserved":false,"is_disabled":false,"rental_uris":{"android":"levelo://app?vid=9bfc7f83-9a3b-48db-89bc-7ba54061be6c","ios":"levelo://app?vid=9bfc7f83-9a3b-48db-89bc-7ba54061be6c"},"vehicle_type_id":"4","last_reported":1725898205,"current_range_meters":31200,"station_id":"ce4bhqp2rcd13ifvqhng","pricing_plan_id":"cebpf4jnsgd1na2vs0mg"},{"bike_id":"9f06a839-f860-4018-a8e8-92e7e332770b","system_id":"levelo_inurba_marseille","lat":43.295748,"lon":5.37522,"is_reserved":false,"is_disabled":false,"rental_uris":{"android":"levelo://app?vid=9f06a839-f860-4018-a8e8-92e7e332770b","ios":"levelo://app?vid=9f06a839-f860-4018-a8e8-92e7e332770b"},"vehicle_type_id":"4","last_reported":1725898205,"current_range_meters":0,"station_id":"ce4bgh92rcd13ifvqb50","pricing_plan_id":"cebpf4jnsgd1na2vs0mg"},{"bike_id":"48a620a2-ac6c-4eff-b52c-afe5611e4769","system_id":"levelo_inurba_marseille","lat":43.296263,"lon":5.377094,"is_reserved":false,"is_disabled":false,"rental_uris":{"android":"levelo://app?vid=48a620a2-ac6c-4eff-b52c-afe5611e4769","ios":"levelo://app?vid=48a620a2-ac6c-4eff-b52c-afe5611e4769"},"vehicle_type_id":"4","last_reported":1725898205,"current_range_meters":400,"station_id":"ce4bgi92rcd13ifvqb90","pricing_plan_id":"cebpf4jnsgd1na2vs0mg"},{"bike_id":"af7e40b9-4315-49e6-92ff-2e5f0138c821","system_id":"levelo_inurba_marseille","lat":43.295279,"lon":5.375048,"is_reserved":false,"is_disabled":false,"rental_uris":{"android":"levelo://app?vid=af7e40b9-4315-49e6-92ff-2e5f0138c821","ios":"levelo://app?vid=af7e40b9-4315-49e6-92ff-2e5f0138c821"},"vehicle_type_id":"4","last_reported":1725898205,"current_range_meters":0,"station_id":"ce4bgkp2rcd13ifvqbmg","pricing_plan_id":"cebpf4jnsgd1na2vs0mg"},{"bike_id":"c3369a07-1f9b-4828-a0ec-819829bee79f","system_id":"levelo_inurba_marseille","lat":43.301396,"lon":5.387812,"is_reserved":false,"is_disabled":false,"rental_uris":{"android":"levelo://app?vid=c3369a07-1f9b-4828-a0ec-819829bee79f","ios":"levelo://app?vid=c3369a07-1f9b-4828-a0ec-819829bee79f"},"vehicle_type_id":"4","last_reported":1725898205,"current_range_meters":28800,"station_id":"ce4bghh2rcd13ifvqb60","pricing_plan_id":"cebpf4jnsgd1na2vs0mg"},{"bike_id":"9dc9778f-e375-4378-89a3-de02bda70076","system_id":"levelo_inurba_marseille","lat":43.32367,"lon":5.388836,"is_reserved":false,"is_disabled":false,"rental_uris":{"android":"levelo://app?vid=9dc9778f-e375-4378-89a3-de02bda70076","ios":"levelo://app?vid=9dc9778f-e375-4378-89a3-de02bda70076"},"vehicle_type_id":"4","last_reported":1725898205,"current_range_meters":9600,"station_id":"ce4bhqp2rcd13ifvqhog","pricing_plan_id":"cebpf4jnsgd1na2vs0mg"},{"bike_id":"fcd6ef90-2dc6-43b6-90a7-b1b5e9d18e90","system_id":"levelo_inurba_marseille","lat":43.32367,"lon":5.388836,"is_reserved":false,"is_disabled":false,"rental_uris":{"android":"levelo://app?vid=fcd6ef90-2dc6-43b6-90a7-b1b5e9d18e90","ios":"levelo://app?vid=fcd6ef90-2dc6-43b6-90a7-b1b5e9d18e90"},"vehicle_type_id":"4","last_reported":1725898205,"current_range_meters":14000,"station_id":"ce4bhqp2rcd13ifvqhog","pricing_plan_id":"cebpf4jnsgd1na2vs0mg"},{"bike_id":"41a40d7a-734e-4da1-84c3-5ed717ec6424","system_id":"levelo_inurba_marseille","lat":43.32367,"lon":5.388836,"is_reserved":false,"is_disabled":false,"rental_uris":{"android":"levelo://app?vid=41a40d7a-734e-4da1-84c3-5ed717ec6424","ios":"levelo://app?vid=41a40d7a-734e-4da1-84c3-5ed717ec6424"},"vehicle_type_id":"4","last_reported":1725898205,"current_range_meters":2000,"station_id":"ce4bhqp2rcd13ifvqhog","pricing_plan_id":"cebpf4jnsgd1na2vs0mg"},{"bike_id":"6261086c-c6d8-4951-8399-1cb21f7cf9d6","system_id":"levelo_inurba_marseille","lat":43.32367,"lon":5.388836,"is_reserved":false,"is_disabled":false,"rental_uris":{"android":"levelo://app?vid=6261086c-c6d8-4951-8399-1cb21f7cf9d6","ios":"levelo://app?vid=6261086c-c6d8-4951-8399-1cb21f7cf9d6"},"vehicle_type_id":"4","last_reported":1725898205,"current_range_meters":800,"station_id":"ce4bhqp2rcd13ifvqhog","pricing_plan_id":"cebpf4jnsgd1na2vs0mg"},{"bike_id":"e70ee1bb-a26e-4052-9540-28721896adb2","system_id":"levelo_inurba_marseille","lat":43.32367,"lon":5.388836,"is_reserved":false,"is_disabled":false,"rental_uris":{"android":"levelo://app?vid=e70ee1bb-a26e-4052-9540-28721896adb2","ios":"levelo://app?vid=e70ee1bb-a26e-4052-9540-28721896adb2"},"vehicle_type_id":"4","last_reported":1725898205,"current_range_meters":5200,"station_id":"ce4bhqp2rcd13ifvqhog","pricing_plan_id":"cebpf4jnsgd1na2vs0mg"},{"bike_id":"67a2ded3-7337-46a4-bdf8-e125936dbc15","system_id":"levelo_inurba_marseille","lat":43.323683,"lon":5.388857,"is_reserved":false,"is_disabled":false,"rental_uris":{"android":"levelo://app?vid=67a2ded3-7337-46a4-bdf8-e125936dbc15","ios":"levelo://app?vid=67a2ded3-7337-46a4-bdf8-e125936dbc15"},"vehicle_type_id":"4","last_reported":1725898205,"current_range_meters":22400,"station_id":"ce4bhqp2rcd13ifvqhog","pricing_plan_id":"cebpf4jnsgd1na2vs0mg"},{"bike_id":"5ad86fd0-de56-4da1-8eff-844e8c9eeb22","system_id":"levelo_inurba_marseille","lat":43.3237,"lon":5.38926,"is_reserved":false,"is_disabled":false,"rental_uris":{"android":"levelo://app?vid=5ad86fd0-de56-4da1-8eff-844e8c9eeb22","ios":"levelo://app?vid=5ad86fd0-de56-4da1-8eff-844e8c9eeb22"},"vehicle_type_id":"4","last_reported":1725898205,"current_range_meters":17200,"station_id":"","pricing_plan_id":"cebpf4jnsgd1na2vs0mg"},{"bike_id":"555b9b1e-09c4-4138-9662-2f794664e041","system_id":"levelo_inurba_marseille","lat":43.292749,"lon":5.368402,"is_reserved":false,"is_disabled":false,"rental_uris":{"android":"levelo://app?vid=555b9b1e-09c4-4138-9662-2f794664e041","ios":"levelo://app?vid=555b9b1e-09c4-4138-9662-2f794664e041"},"vehicle_type_id":"4","last_reported":1725898205,"current_range_meters":0,"station_id":"ce4bhbp2rcd13ifvqesg","pricing_plan_id":"cebpf4jnsgd1na2vs0mg"},{"bike_id":"32fcfd7c-0678-4b24-828f-08501c5f3e02","system_id":"levelo_inurba_marseille","lat":43.29306,"lon":5.37179,"is_reserved":false,"is_disabled":false,"rental_uris":{"android":"levelo://app?vid=32fcfd7c-0678-4b24-828f-08501c5f3e02","ios":"levelo://app?vid=32fcfd7c-0678-4b24-828f-08501c5f3e02"},"vehicle_type_id":"4","last_reported":1725898205,"current_range_meters":20800,"station_id":"ce4bgh92rcd13ifvqb40","pricing_plan_id":"cebpf4jnsgd1na2vs0mg"},{"bike_id":"ebc0ab0f-367b-4b48-ab48-5d5687295003","system_id":"levelo_inurba_marseille","lat":43.292749,"lon":5.368402,"is_reserved":false,"is_disabled":false,"rental_uris":{"android":"levelo://app?vid=ebc0ab0f-367b-4b48-ab48-5d5687295003","ios":"levelo://app?vid=ebc0ab0f-367b-4b48-ab48-5d5687295003"},"vehicle_type_id":"4","last_reported":1725898205,"current_range_meters":31200,"station_id":"ce4bhbp2rcd13ifvqesg","pricing_plan_id":"cebpf4jnsgd1na2vs0mg"},{"bike_id":"596b48da-393e-4396-bc03-e29faad3b7e5","system_id":"levelo_inurba_marseille","lat":43.293,"lon":5.37179,"is_reserved":false,"is_disabled":false,"rental_uris":{"android":"levelo://app?vid=596b48da-393e-4396-bc03-e29faad3b7e5","ios":"levelo://app?vid=596b48da-393e-4396-bc03-e29faad3b7e5"},"vehicle_type_id":"4","last_reported":1725898205,"current_range_meters":0,"station_id":"ce4bgh92rcd13ifvqb40","pricing_plan_id":"cebpf4jnsgd1na2vs0mg"},{"bike_id":"8fe4fde2-4b15-4976-95a7-12928e1f0127","system_id":"levelo_inurba_marseille","lat":43.292749,"lon":5.368402,"is_reserved":false,"is_disabled":false,"rental_uris":{"android":"levelo://app?vid=8fe4fde2-4b15-4976-95a7-12928e1f0127","ios":"levelo://app?vid=8fe4fde2-4b15-4976-95a7-12928e1f0127"},"vehicle_type_id":"4","last_reported":1725898205,"current_range_meters":30400,"station_id":"ce4bhbp2rcd13ifvqesg","pricing_plan_id":"cebpf4jnsgd1na2vs0mg"},{"bike_id":"c507d5f4-8512-4bde-ba93-e4e8dd93070e","system_id":"levelo_inurba_marseille","lat":43.305994,"lon":5.393687,"is_reserved":false,"is_disabled":false,"rental_uris":{"android":"levelo://app?vid=c507d5f4-8512-4bde-ba93-e4e8dd93070e","ios":"levelo://app?vid=c507d5f4-8512-4bde-ba93-e4e8dd93070e"},"vehicle_type_id":"4","last_reported":1725898205,"current_range_meters":12400,"station_id":"ce4bh0p2rcd13ifvqd80","pricing_plan_id":"cebpf4jnsgd1na2vs0mg"},{"bike_id":"1f03e476-b272-47d3-b1ec-b5174a608714","system_id":"levelo_inurba_marseille","lat":43.293009,"lon":5.374584,"is_reserved":false,"is_disabled":false,"rental_uris":{"android":"levelo://app?vid=1f03e476-b272-47d3-b1ec-b5174a608714","ios":"levelo://app?vid=1f03e476-b272-47d3-b1ec-b5174a608714"},"vehicle_type_id":"4","last_reported":1725898205,"current_range_meters":16800,"station_id":"ce4bgi12rcd13ifvqb70","pricing_plan_id":"cebpf4jnsgd1na2vs0mg"},{"bike_id":"d8e758a9-7919-461c-a320-90a75f023ff6","system_id":"levelo_inurba_marseille","lat":43.303002,"lon":5.392142,"is_reserved":false,"is_disabled":false,"rental_uris":{"android":"levelo://app?vid=d8e758a9-7919-461c-a320-90a75f023ff6","ios":"levelo://app?vid=d8e758a9-7919-461c-a320-90a75f023ff6"},"vehicle_type_id":"4","last_reported":1725898205,"current_range_meters":400,"station_id":"ce4bgkh2rcd13ifvqbk0","pricing_plan_id":"cebpf4jnsgd1na2vs0mg"},{"bike_id":"40e8c905-d5f7-4884-a313-a02befcad8a4","system_id":"levelo_inurba_marseille","lat":43.2936,"lon":5.37835,"is_reserved":false,"is_disabled":false,"rental_uris":{"android":"levelo://app?vid=40e8c905-d5f7-4884-a313-a02befcad8a4","ios":"levelo://app?vid=40e8c905-d5f7-4884-a313-a02befcad8a4"},"vehicle_type_id":"4","last_reported":1725898205,"current_range_meters":0,"station_id":"ce4bgjh2rcd13ifvqbf0","pricing_plan_id":"cebpf4jnsgd1na2vs0mg"},{"bike_id":"1112f168-95a3-4fe2-9a02-2ea32ab51281","system_id":"levelo_inurba_marseille","lat":43.30293,"lon":5.39212,"is_reserved":false,"is_disabled":false,"rental_uris":{"android":"levelo://app?vid=1112f168-95a3-4fe2-9a02-2ea32ab51281","ios":"levelo://app?vid=1112f168-95a3-4fe2-9a02-2ea32ab51281"},"vehicle_type_id":"4","last_reported":1725898205,"current_range_meters":0,"station_id":"ce4bgkh2rcd13ifvqbk0","pricing_plan_id":"cebpf4jnsgd1na2vs0mg"},{"bike_id":"f74fe7a3-1bc4-4f60-a456-10da49ba28f2","system_id":"levelo_inurba_marseille","lat":43.300852,"lon":5.390859,"is_reserved":false,"is_disabled":false,"rental_uris":{"android":"levelo://app?vid=f74fe7a3-1bc4-4f60-a456-10da49ba28f2","ios":"levelo://app?vid=f74fe7a3-1bc4-4f60-a456-10da49ba28f2"},"vehicle_type_id":"4","last_reported":1725898205,"current_range_meters":800,"station_id":"ce4bh192rcd13ifvqdb0","pricing_plan_id":"cebpf4jnsgd1na2vs0mg"},{"bike_id":"d61d6513-bb20-48de-9786-def7e39991bf","system_id":"levelo_inurba_marseille","lat":43.300852,"lon":5.390859,"is_reserved":false,"is_disabled":false,"rental_uris":{"android":"levelo://app?vid=d61d6513-bb20-48de-9786-def7e39991bf","ios":"levelo://app?vid=d61d6513-bb20-48de-9786-def7e39991bf"},"vehicle_type_id":"4","last_reported":1725898205,"current_range_meters":0,"station_id":"ce4bh192rcd13ifvqdb0","pricing_plan_id":"cebpf4jnsgd1na2vs0mg"},{"bike_id":"595c5775-008c-4b29-a102-7379072ed59a","system_id":"levelo_inurba_marseille","lat":43.29225,"lon":5.36052,"is_reserved":false,"is_disabled":false,"rental_uris":{"android":"levelo://app?vid=595c5775-008c-4b29-a102-7379072ed59a","ios":"levelo://app?vid=595c5775-008c-4b29-a102-7379072ed59a"},"vehicle_type_id":"4","last_reported":1725898205,"current_range_meters":28000,"station_id":"ce4bhbh2rcd13ifvqeqg","pricing_plan_id":"cebpf4jnsgd1na2vs0mg"},{"bike_id":"132d1d5d-5cdb-49b2-94d1-b6616831c540","system_id":"levelo_inurba_marseille","lat":43.29223,"lon":5.36054,"is_reserved":false,"is_disabled":false,"rental_uris":{"android":"levelo://app?vid=132d1d5d-5cdb-49b2-94d1-b6616831c540","ios":"levelo://app?vid=132d1d5d-5cdb-49b2-94d1-b6616831c540"},"vehicle_type_id":"4","last_reported":1725898205,"current_range_meters":18400,"station_id":"ce4bhbh2rcd13ifvqeqg","pricing_plan_id":"cebpf4jnsgd1na2vs0mg"},{"bike_id":"b4b03c88-af70-465c-9c88-1896e637559f","system_id":"levelo_inurba_marseille","lat":43.29216,"lon":5.36053,"is_reserved":false,"is_disabled":false,"rental_uris":{"android":"levelo://app?vid=b4b03c88-af70-465c-9c88-1896e637559f","ios":"levelo://app?vid=b4b03c88-af70-465c-9c88-1896e637559f"},"vehicle_type_id":"4","last_reported":1725898205,"current_range_meters":31200,"station_id":"","pricing_plan_id":"cebpf4jnsgd1na2vs0mg"},{"bike_id":"1f010690-0b0b-4ecb-ac5d-3412a3d7cc18","system_id":"levelo_inurba_marseille","lat":43.29174,"lon":5.37155,"is_reserved":false,"is_disabled":false,"rental_uris":{"android":"levelo://app?vid=1f010690-0b0b-4ecb-ac5d-3412a3d7cc18","ios":"levelo://app?vid=1f010690-0b0b-4ecb-ac5d-3412a3d7cc18"},"vehicle_type_id":"4","last_reported":1725898205,"current_range_meters":0,"station_id":"ce4bha92rcd13ifvqeh0","pricing_plan_id":"cebpf4jnsgd1na2vs0mg"},{"bike_id":"7d53667c-2753-4217-b43b-205071691788","system_id":"levelo_inurba_marseille","lat":43.291675,"lon":5.371583,"is_reserved":false,"is_disabled":false,"rental_uris":{"android":"levelo://app?vid=7d53667c-2753-4217-b43b-205071691788","ios":"levelo://app?vid=7d53667c-2753-4217-b43b-205071691788"},"vehicle_type_id":"4","last_reported":1725898205,"current_range_meters":28000,"station_id":"ce4bha92rcd13ifvqeh0","pricing_plan_id":"cebpf4jnsgd1na2vs0mg"},{"bike_id":"54300b53-6c0c-4340-9f22-6123d15e1def","system_id":"levelo_inurba_marseille","lat":43.298764,"lon":5.388973,"is_reserved":false,"is_disabled":false,"rental_uris":{"android":"levelo://app?vid=54300b53-6c0c-4340-9f22-6123d15e1def","ios":"levelo://app?vid=54300b53-6c0c-4340-9f22-6123d15e1def"},"vehicle_type_id":"4","last_reported":1725898205,"current_range_meters":2000,"station_id":"ce4bh392rcd13ifvqdl0","pricing_plan_id":"cebpf4jnsgd1na2vs0mg"},{"bike_id":"0ef12b68-48da-4172-90e8-68da1715f275","system_id":"levelo_inurba_marseille","lat":43.291671,"lon":5.371575,"is_reserved":false,"is_disabled":false,"rental_uris":{"android":"levelo://app?vid=0ef12b68-48da-4172-90e8-68da1715f275","ios":"levelo://app?vid=0ef12b68-48da-4172-90e8-68da1715f275"},"vehicle_type_id":"4","last_reported":1725898205,"current_range_meters":4800,"station_id":"ce4bha92rcd13ifvqeh0","pricing_plan_id":"cebpf4jnsgd1na2vs0mg"},{"bike_id":"da877f5d-d10e-4be8-91ad-39010735c94d","system_id":"levelo_inurba_marseille","lat":43.298764,"lon":5.388973,"is_reserved":false,"is_disabled":false,"rental_uris":{"android":"levelo://app?vid=da877f5d-d10e-4be8-91ad-39010735c94d","ios":"levelo://app?vid=da877f5d-d10e-4be8-91ad-39010735c94d"},"vehicle_type_id":"4","last_reported":1725898205,"current_range_meters":6400,"station_id":"ce4bh392rcd13ifvqdl0","pricing_plan_id":"cebpf4jnsgd1na2vs0mg"},{"bike_id":"9bec2542-7b78-40b0-a43d-efa5b6d227c4","system_id":"levelo_inurba_marseille","lat":43.291675,"lon":5.371583,"is_reserved":false,"is_disabled":false,"rental_uris":{"android":"levelo://app?vid=9bec2542-7b78-40b0-a43d-efa5b6d227c4","ios":"levelo://app?vid=9bec2542-7b78-40b0-a43d-efa5b6d227c4"},"vehicle_type_id":"4","last_reported":1725898205,"current_range_meters":12000,"station_id":"ce4bha92rcd13ifvqeh0","pricing_plan_id":"cebpf4jnsgd1na2vs0mg"},{"bike_id":"21f6cb3c-01fd-436d-88ba-802488b93b50","system_id":"levelo_inurba_marseille","lat":43.29282,"lon":5.35554,"is_reserved":false,"is_disabled":false,"rental_uris":{"android":"levelo://app?vid=21f6cb3c-01fd-436d-88ba-802488b93b50","ios":"levelo://app?vid=21f6cb3c-01fd-436d-88ba-802488b93b50"},"vehicle_type_id":"4","last_reported":1725898205,"current_range_meters":19600,"station_id":"","pricing_plan_id":"cebpf4jnsgd1na2vs0mg"},{"bike_id":"96975217-0efe-4818-8d8c-761cd6ccf880","system_id":"levelo_inurba_marseille","lat":43.292005,"lon":5.357875,"is_reserved":false,"is_disabled":false,"rental_uris":{"android":"levelo://app?vid=96975217-0efe-4818-8d8c-761cd6ccf880","ios":"levelo://app?vid=96975217-0efe-4818-8d8c-761cd6ccf880"},"vehicle_type_id":"4","last_reported":1725898205,"current_range_meters":15600,"station_id":"ce4bhb12rcd13ifvqel0","pricing_plan_id":"cebpf4jnsgd1na2vs0mg"},{"bike_id":"7b1ef450-5b96-436d-8a93-65992aeb7b21","system_id":"levelo_inurba_marseille","lat":43.292005,"lon":5.357875,"is_reserved":false,"is_disabled":false,"rental_uris":{"android":"levelo://app?vid=7b1ef450-5b96-436d-8a93-65992aeb7b21","ios":"levelo://app?vid=7b1ef450-5b96-436d-8a93-65992aeb7b21"},"vehicle_type_id":"4","last_reported":1725898205,"current_range_meters":20800,"station_id":"ce4bhb12rcd13ifvqel0","pricing_plan_id":"cebpf4jnsgd1na2vs0mg"},{"bike_id":"a547dc43-ff9a-4bfa-8f5a-8fef413b925b","system_id":"levelo_inurba_marseille","lat":43.292005,"lon":5.357875,"is_reserved":false,"is_disabled":false,"rental_uris":{"android":"levelo://app?vid=a547dc43-ff9a-4bfa-8f5a-8fef413b925b","ios":"levelo://app?vid=a547dc43-ff9a-4bfa-8f5a-8fef413b925b"},"vehicle_type_id":"4","last_reported":1725898205,"current_range_meters":31200,"station_id":"ce4bhb12rcd13ifvqel0","pricing_plan_id":"cebpf4jnsgd1na2vs0mg"},{"bike_id":"2adf023e-db01-4c1b-b24a-d23b33f9ec29","system_id":"levelo_inurba_marseille","lat":43.292005,"lon":5.357875,"is_reserved":false,"is_disabled":false,"rental_uris":{"android":"levelo://app?vid=2adf023e-db01-4c1b-b24a-d23b33f9ec29","ios":"levelo://app?vid=2adf023e-db01-4c1b-b24a-d23b33f9ec29"},"vehicle_type_id":"4","last_reported":1725898205,"current_range_meters":7200,"station_id":"ce4bhb12rcd13ifvqel0","pricing_plan_id":"cebpf4jnsgd1na2vs0mg"},{"bike_id":"6ad66824-4598-4cf4-bf26-691dc6b55632","system_id":"levelo_inurba_marseille","lat":43.292005,"lon":5.357875,"is_reserved":false,"is_disabled":false,"rental_uris":{"android":"levelo://app?vid=6ad66824-4598-4cf4-bf26-691dc6b55632","ios":"levelo://app?vid=6ad66824-4598-4cf4-bf26-691dc6b55632"},"vehicle_type_id":"4","last_reported":1725898205,"current_range_meters":31200,"station_id":"ce4bhb12rcd13ifvqel0","pricing_plan_id":"cebpf4jnsgd1na2vs0mg"},{"bike_id":"0e7cd164-4cd5-4ee5-a84d-9f68e1d68912","system_id":"levelo_inurba_marseille","lat":43.292005,"lon":5.357875,"is_reserved":false,"is_disabled":false,"rental_uris":{"android":"levelo://app?vid=0e7cd164-4cd5-4ee5-a84d-9f68e1d68912","ios":"levelo://app?vid=0e7cd164-4cd5-4ee5-a84d-9f68e1d68912"},"vehicle_type_id":"4","last_reported":1725898205,"current_range_meters":2800,"station_id":"ce4bhb12rcd13ifvqel0","pricing_plan_id":"cebpf4jnsgd1na2vs0mg"},{"bike_id":"2d5d5ffe-89f7-4116-91f8-a0248dcf780e","system_id":"levelo_inurba_marseille","lat":43.313291,"lon":5.396838,"is_reserved":false,"is_disabled":false,"rental_uris":{"android":"levelo://app?vid=2d5d5ffe-89f7-4116-91f8-a0248dcf780e","ios":"levelo://app?vid=2d5d5ffe-89f7-4116-91f8-a0248dcf780e"},"vehicle_type_id":"4","last_reported":1725898205,"current_range_meters":2400,"station_id":"ce4bgvp2rcd13ifvqcu0","pricing_plan_id":"cebpf4jnsgd1na2vs0mg"},{"bike_id":"dd057850-5537-4aa1-b223-cf4f29f57ffb","system_id":"levelo_inurba_marseille","lat":43.313291,"lon":5.396838,"is_reserved":false,"is_disabled":false,"rental_uris":{"android":"levelo://app?vid=dd057850-5537-4aa1-b223-cf4f29f57ffb","ios":"levelo://app?vid=dd057850-5537-4aa1-b223-cf4f29f57ffb"},"vehicle_type_id":"4","last_reported":1725898205,"current_range_meters":5600,"station_id":"ce4bgvp2rcd13ifvqcu0","pricing_plan_id":"cebpf4jnsgd1na2vs0mg"},{"bike_id":"9cc06ff5-7a7b-4719-b6db-2ba597cfd165","system_id":"levelo_inurba_marseille","lat":43.29529,"lon":5.385581,"is_reserved":false,"is_disabled":false,"rental_uris":{"android":"levelo://app?vid=9cc06ff5-7a7b-4719-b6db-2ba597cfd165","ios":"levelo://app?vid=9cc06ff5-7a7b-4719-b6db-2ba597cfd165"},"vehicle_type_id":"4","last_reported":1725898205,"current_range_meters":0,"station_id":"ce4bgih2rcd13ifvqba0","pricing_plan_id":"cebpf4jnsgd1na2vs0mg"},{"bike_id":"b5957af2-c8e4-4992-9863-b90983bce00e","system_id":"levelo_inurba_marseille","lat":43.29529,"lon":5.385581,"is_reserved":false,"is_disabled":false,"rental_uris":{"android":"levelo://app?vid=b5957af2-c8e4-4992-9863-b90983bce00e","ios":"levelo://app?vid=b5957af2-c8e4-4992-9863-b90983bce00e"},"vehicle_type_id":"4","last_reported":1725898205,"current_range_meters":2400,"station_id":"ce4bgih2rcd13ifvqba0","pricing_plan_id":"cebpf4jnsgd1na2vs0mg"},{"bike_id":"f82850d3-2b70-4115-9ede-2f139a266d8b","system_id":"levelo_inurba_marseille","lat":43.29529,"lon":5.385581,"is_reserved":false,"is_disabled":false,"rental_uris":{"android":"levelo://app?vid=f82850d3-2b70-4115-9ede-2f139a266d8b","ios":"levelo://app?vid=f82850d3-2b70-4115-9ede-2f139a266d8b"},"vehicle_type_id":"4","last_reported":1725898205,"current_range_meters":28400,"station_id":"ce4bgih2rcd13ifvqba0","pricing_plan_id":"cebpf4jnsgd1na2vs0mg"},{"bike_id":"364a4d29-c446-4515-a6da-da88300a0786","system_id":"levelo_inurba_marseille","lat":43.29529,"lon":5.385581,"is_reserved":false,"is_disabled":false,"rental_uris":{"android":"levelo://app?vid=364a4d29-c446-4515-a6da-da88300a0786","ios":"levelo://app?vid=364a4d29-c446-4515-a6da-da88300a0786"},"vehicle_type_id":"4","last_reported":1725898205,"current_range_meters":11600,"station_id":"ce4bgih2rcd13ifvqba0","pricing_plan_id":"cebpf4jnsgd1na2vs0mg"},{"bike_id":"1271bcfb-054c-4895-948e-c8e8d7b70517","system_id":"levelo_inurba_marseille","lat":43.29529,"lon":5.385581,"is_reserved":false,"is_disabled":false,"rental_uris":{"android":"levelo://app?vid=1271bcfb-054c-4895-948e-c8e8d7b70517","ios":"levelo://app?vid=1271bcfb-054c-4895-948e-c8e8d7b70517"},"vehicle_type_id":"4","last_reported":1725898205,"current_range_meters":0,"station_id":"ce4bgih2rcd13ifvqba0","pricing_plan_id":"cebpf4jnsgd1na2vs0mg"},{"bike_id":"0a308672-5f9e-4397-8dbc-26ac5895de21","system_id":"levelo_inurba_marseille","lat":43.29529,"lon":5.385581,"is_reserved":false,"is_disabled":false,"rental_uris":{"android":"levelo://app?vid=0a308672-5f9e-4397-8dbc-26ac5895de21","ios":"levelo://app?vid=0a308672-5f9e-4397-8dbc-26ac5895de21"},"vehicle_type_id":"4","last_reported":1725898205,"current_range_meters":27600,"station_id":"ce4bgih2rcd13ifvqba0","pricing_plan_id":"cebpf4jnsgd1na2vs0mg"},{"bike_id":"612cbf46-e9f9-4c31-bb7b-b6b801bc1f92","system_id":"levelo_inurba_marseille","lat":43.290779,"lon":5.371482,"is_reserved":false,"is_disabled":false,"rental_uris":{"android":"levelo://app?vid=612cbf46-e9f9-4c31-bb7b-b6b801bc1f92","ios":"levelo://app?vid=612cbf46-e9f9-4c31-bb7b-b6b801bc1f92"},"vehicle_type_id":"4","last_reported":1725898205,"current_range_meters":8400,"station_id":"ce4bh5p2rcd13ifvqe4g","pricing_plan_id":"cebpf4jnsgd1na2vs0mg"},{"bike_id":"ea0a94f9-61a2-4d48-8b22-f62940fe2682","system_id":"levelo_inurba_marseille","lat":43.290779,"lon":5.371482,"is_reserved":false,"is_disabled":false,"rental_uris":{"android":"levelo://app?vid=ea0a94f9-61a2-4d48-8b22-f62940fe2682","ios":"levelo://app?vid=ea0a94f9-61a2-4d48-8b22-f62940fe2682"},"vehicle_type_id":"4","last_reported":1725898205,"current_range_meters":3600,"station_id":"ce4bh5p2rcd13ifvqe4g","pricing_plan_id":"cebpf4jnsgd1na2vs0mg"},{"bike_id":"eaaa6a87-a1ea-43e2-b1bd-cc559d02dbbf","system_id":"levelo_inurba_marseille","lat":43.3021,"lon":5.394339,"is_reserved":false,"is_disabled":false,"rental_uris":{"android":"levelo://app?vid=eaaa6a87-a1ea-43e2-b1bd-cc559d02dbbf","ios":"levelo://app?vid=eaaa6a87-a1ea-43e2-b1bd-cc559d02dbbf"},"vehicle_type_id":"4","last_reported":1725898205,"current_range_meters":16400,"station_id":"","pricing_plan_id":"cebpf4jnsgd1na2vs0mg"},{"bike_id":"5da34303-52c3-423b-b82d-1dd74f4515ab","system_id":"levelo_inurba_marseille","lat":43.302008,"lon":5.394694,"is_reserved":false,"is_disabled":false,"rental_uris":{"android":"levelo://app?vid=5da34303-52c3-423b-b82d-1dd74f4515ab","ios":"levelo://app?vid=5da34303-52c3-423b-b82d-1dd74f4515ab"},"vehicle_type_id":"4","last_reported":1725898205,"current_range_meters":800,"station_id":"ce4bh0p2rcd13ifvqd70","pricing_plan_id":"cebpf4jnsgd1na2vs0mg"},{"bike_id":"25e8d0a4-387c-427b-9019-dca3fae22bfa","system_id":"levelo_inurba_marseille","lat":43.302083,"lon":5.394643,"is_reserved":false,"is_disabled":false,"rental_uris":{"android":"levelo://app?vid=25e8d0a4-387c-427b-9019-dca3fae22bfa","ios":"levelo://app?vid=25e8d0a4-387c-427b-9019-dca3fae22bfa"},"vehicle_type_id":"4","last_reported":1725898205,"current_range_meters":0,"station_id":"ce4bh0p2rcd13ifvqd70","pricing_plan_id":"cebpf4jnsgd1na2vs0mg"},{"bike_id":"08efe745-c285-4a9d-8a8d-22b67798976f","system_id":"levelo_inurba_marseille","lat":43.302008,"lon":5.394694,"is_reserved":false,"is_disabled":false,"rental_uris":{"android":"levelo://app?vid=08efe745-c285-4a9d-8a8d-22b67798976f","ios":"levelo://app?vid=08efe745-c285-4a9d-8a8d-22b67798976f"},"vehicle_type_id":"4","last_reported":1725898205,"current_range_meters":16400,"station_id":"ce4bh0p2rcd13ifvqd70","pricing_plan_id":"cebpf4jnsgd1na2vs0mg"},{"bike_id":"81e4ee84-d155-4ea6-b113-3ff8fef54f7c","system_id":"levelo_inurba_marseille","lat":43.30206,"lon":5.39472,"is_reserved":false,"is_disabled":false,"rental_uris":{"android":"levelo://app?vid=81e4ee84-d155-4ea6-b113-3ff8fef54f7c","ios":"levelo://app?vid=81e4ee84-d155-4ea6-b113-3ff8fef54f7c"},"vehicle_type_id":"4","last_reported":1725898205,"current_range_meters":0,"station_id":"ce4bh0p2rcd13ifvqd70","pricing_plan_id":"cebpf4jnsgd1na2vs0mg"},{"bike_id":"4ea185b2-4a31-4f46-935d-8fd21c5b29f0","system_id":"levelo_inurba_marseille","lat":43.290624,"lon":5.359245,"is_reserved":false,"is_disabled":false,"rental_uris":{"android":"levelo://app?vid=4ea185b2-4a31-4f46-935d-8fd21c5b29f0","ios":"levelo://app?vid=4ea185b2-4a31-4f46-935d-8fd21c5b29f0"},"vehicle_type_id":"4","last_reported":1725898205,"current_range_meters":0,"station_id":"ce4bha92rcd13ifvqeg0","pricing_plan_id":"cebpf4jnsgd1na2vs0mg"},{"bike_id":"f94bfac7-ec33-488a-bcaa-5743f8bd04ac","system_id":"levelo_inurba_marseille","lat":43.294153,"lon":5.386305,"is_reserved":false,"is_disabled":false,"rental_uris":{"android":"levelo://app?vid=f94bfac7-ec33-488a-bcaa-5743f8bd04ac","ios":"levelo://app?vid=f94bfac7-ec33-488a-bcaa-5743f8bd04ac"},"vehicle_type_id":"4","last_reported":1725898205,"current_range_meters":1600,"station_id":"ce4bh2h2rcd13ifvqdh0","pricing_plan_id":"cebpf4jnsgd1na2vs0mg"},{"bike_id":"ae34f48a-799a-4c10-b60e-208fdbe399d3","system_id":"levelo_inurba_marseille","lat":43.294153,"lon":5.386305,"is_reserved":false,"is_disabled":false,"rental_uris":{"android":"levelo://app?vid=ae34f48a-799a-4c10-b60e-208fdbe399d3","ios":"levelo://app?vid=ae34f48a-799a-4c10-b60e-208fdbe399d3"},"vehicle_type_id":"4","last_reported":1725898205,"current_range_meters":23600,"station_id":"ce4bh2h2rcd13ifvqdh0","pricing_plan_id":"cebpf4jnsgd1na2vs0mg"},{"bike_id":"0ad6dc0b-d70b-4e8a-aa6b-61862d1876cc","system_id":"levelo_inurba_marseille","lat":43.294153,"lon":5.386305,"is_reserved":false,"is_disabled":false,"rental_uris":{"android":"levelo://app?vid=0ad6dc0b-d70b-4e8a-aa6b-61862d1876cc","ios":"levelo://app?vid=0ad6dc0b-d70b-4e8a-aa6b-61862d1876cc"},"vehicle_type_id":"4","last_reported":1725898205,"current_range_meters":0,"station_id":"ce4bh2h2rcd13ifvqdh0","pricing_plan_id":"cebpf4jnsgd1na2vs0mg"},{"bike_id":"21cebf7c-58a4-49e0-bc10-df130f573a80","system_id":"levelo_inurba_marseille","lat":43.294153,"lon":5.386305,"is_reserved":false,"is_disabled":false,"rental_uris":{"android":"levelo://app?vid=21cebf7c-58a4-49e0-bc10-df130f573a80","ios":"levelo://app?vid=21cebf7c-58a4-49e0-bc10-df130f573a80"},"vehicle_type_id":"4","last_reported":1725898205,"current_range_meters":800,"station_id":"ce4bh2h2rcd13ifvqdh0","pricing_plan_id":"cebpf4jnsgd1na2vs0mg"},{"bike_id":"f92320c7-78f8-4a5c-a613-61eda1a59100","system_id":"levelo_inurba_marseille","lat":43.294153,"lon":5.386305,"is_reserved":false,"is_disabled":false,"rental_uris":{"android":"levelo://app?vid=f92320c7-78f8-4a5c-a613-61eda1a59100","ios":"levelo://app?vid=f92320c7-78f8-4a5c-a613-61eda1a59100"},"vehicle_type_id":"4","last_reported":1725898205,"current_range_meters":9200,"station_id":"ce4bh2h2rcd13ifvqdh0","pricing_plan_id":"cebpf4jnsgd1na2vs0mg"},{"bike_id":"eb812f96-d7d3-4f17-a43c-01557ab7bc91","system_id":"levelo_inurba_marseille","lat":43.294162,"lon":5.386292,"is_reserved":false,"is_disabled":false,"rental_uris":{"android":"levelo://app?vid=eb812f96-d7d3-4f17-a43c-01557ab7bc91","ios":"levelo://app?vid=eb812f96-d7d3-4f17-a43c-01557ab7bc91"},"vehicle_type_id":"4","last_reported":1725898205,"current_range_meters":400,"station_id":"ce4bh2h2rcd13ifvqdh0","pricing_plan_id":"cebpf4jnsgd1na2vs0mg"},{"bike_id":"589190f4-b5c8-4ca7-9115-7565755dd977","system_id":"levelo_inurba_marseille","lat":43.290327,"lon":5.375711,"is_reserved":false,"is_disabled":false,"rental_uris":{"android":"levelo://app?vid=589190f4-b5c8-4ca7-9115-7565755dd977","ios":"levelo://app?vid=589190f4-b5c8-4ca7-9115-7565755dd977"},"vehicle_type_id":"4","last_reported":1725898205,"current_range_meters":4800,"station_id":"ce4bh692rcd13ifvqe90","pricing_plan_id":"cebpf4jnsgd1na2vs0mg"},{"bike_id":"cef39b7b-d84c-41c7-9aac-a08710b11e4a","system_id":"levelo_inurba_marseille","lat":43.294153,"lon":5.386305,"is_reserved":false,"is_disabled":false,"rental_uris":{"android":"levelo://app?vid=cef39b7b-d84c-41c7-9aac-a08710b11e4a","ios":"levelo://app?vid=cef39b7b-d84c-41c7-9aac-a08710b11e4a"},"vehicle_type_id":"4","last_reported":1725898205,"current_range_meters":0,"station_id":"ce4bh2h2rcd13ifvqdh0","pricing_plan_id":"cebpf4jnsgd1na2vs0mg"},{"bike_id":"b4c25b47-9765-48c1-bc7e-a8d4b9c71ffe","system_id":"levelo_inurba_marseille","lat":43.290319,"lon":5.375732,"is_reserved":false,"is_disabled":false,"rental_uris":{"android":"levelo://app?vid=b4c25b47-9765-48c1-bc7e-a8d4b9c71ffe","ios":"levelo://app?vid=b4c25b47-9765-48c1-bc7e-a8d4b9c71ffe"},"vehicle_type_id":"4","last_reported":1725898205,"current_range_meters":2400,"station_id":"ce4bh692rcd13ifvqe90","pricing_plan_id":"cebpf4jnsgd1na2vs0mg"},{"bike_id":"bd44d410-eef4-4073-9f1d-d3370b571deb","system_id":"levelo_inurba_marseille","lat":43.289184,"lon":5.366408,"is_reserved":false,"is_disabled":false,"rental_uris":{"android":"levelo://app?vid=bd44d410-eef4-4073-9f1d-d3370b571deb","ios":"levelo://app?vid=bd44d410-eef4-4073-9f1d-d3370b571deb"},"vehicle_type_id":"4","last_reported":1725898205,"current_range_meters":0,"station_id":"ce4bhap2rcd13ifvqek0","pricing_plan_id":"cebpf4jnsgd1na2vs0mg"},{"bike_id":"c64b88d8-e720-46a2-a186-3ae33a01988e","system_id":"levelo_inurba_marseille","lat":43.289468,"lon":5.363719,"is_reserved":false,"is_disabled":false,"rental_uris":{"android":"levelo://app?vid=c64b88d8-e720-46a2-a186-3ae33a01988e","ios":"levelo://app?vid=c64b88d8-e720-46a2-a186-3ae33a01988e"},"vehicle_type_id":"4","last_reported":1725898205,"current_range_meters":20000,"station_id":"ce4bhc92rcd13ifvqetg","pricing_plan_id":"cebpf4jnsgd1na2vs0mg"},{"bike_id":"43381268-ede9-4589-b9fd-d71f7c7eb992","system_id":"levelo_inurba_marseille","lat":43.289184,"lon":5.366408,"is_reserved":false,"is_disabled":false,"rental_uris":{"android":"levelo://app?vid=43381268-ede9-4589-b9fd-d71f7c7eb992","ios":"levelo://app?vid=43381268-ede9-4589-b9fd-d71f7c7eb992"},"vehicle_type_id":"4","last_reported":1725898205,"current_range_meters":23200,"station_id":"ce4bhap2rcd13ifvqek0","pricing_plan_id":"cebpf4jnsgd1na2vs0mg"},{"bike_id":"da023c6e-e5e3-4fee-82ac-d37d654d6d15","system_id":"levelo_inurba_marseille","lat":43.289468,"lon":5.363719,"is_reserved":false,"is_disabled":false,"rental_uris":{"android":"levelo://app?vid=da023c6e-e5e3-4fee-82ac-d37d654d6d15","ios":"levelo://app?vid=da023c6e-e5e3-4fee-82ac-d37d654d6d15"},"vehicle_type_id":"4","last_reported":1725898205,"current_range_meters":31600,"station_id":"ce4bhc92rcd13ifvqetg","pricing_plan_id":"cebpf4jnsgd1na2vs0mg"},{"bike_id":"3b9c9710-ffad-4625-ab8a-dcb14f3244c4","system_id":"levelo_inurba_marseille","lat":43.289361,"lon":5.364013,"is_reserved":false,"is_disabled":false,"rental_uris":{"android":"levelo://app?vid=3b9c9710-ffad-4625-ab8a-dcb14f3244c4","ios":"levelo://app?vid=3b9c9710-ffad-4625-ab8a-dcb14f3244c4"},"vehicle_type_id":"4","last_reported":1725898205,"current_range_meters":0,"station_id":"ce4bhc92rcd13ifvqetg","pricing_plan_id":"cebpf4jnsgd1na2vs0mg"},{"bike_id":"1151f8dc-853c-46ed-be74-36e39a9848bd","system_id":"levelo_inurba_marseille","lat":43.289363,"lon":5.363807,"is_reserved":false,"is_disabled":false,"rental_uris":{"android":"levelo://app?vid=1151f8dc-853c-46ed-be74-36e39a9848bd","ios":"levelo://app?vid=1151f8dc-853c-46ed-be74-36e39a9848bd"},"vehicle_type_id":"4","last_reported":1725898205,"current_range_meters":31200,"station_id":"ce4bhc92rcd13ifvqetg","pricing_plan_id":"cebpf4jnsgd1na2vs0mg"},{"bike_id":"78e6e8af-b6d0-4e32-b37c-1dd80f08b2dd","system_id":"levelo_inurba_marseille","lat":43.29006,"lon":5.35613,"is_reserved":false,"is_disabled":false,"rental_uris":{"android":"levelo://app?vid=78e6e8af-b6d0-4e32-b37c-1dd80f08b2dd","ios":"levelo://app?vid=78e6e8af-b6d0-4e32-b37c-1dd80f08b2dd"},"vehicle_type_id":"4","last_reported":1725898205,"current_range_meters":15600,"station_id":"ce4bhb92rcd13ifvqen0","pricing_plan_id":"cebpf4jnsgd1na2vs0mg"},{"bike_id":"114fbfd7-d8a7-4a52-84fa-6d80349ecc1b","system_id":"levelo_inurba_marseille","lat":43.29005,"lon":5.35615,"is_reserved":false,"is_disabled":false,"rental_uris":{"android":"levelo://app?vid=114fbfd7-d8a7-4a52-84fa-6d80349ecc1b","ios":"levelo://app?vid=114fbfd7-d8a7-4a52-84fa-6d80349ecc1b"},"vehicle_type_id":"4","last_reported":1725898205,"current_range_meters":13200,"station_id":"ce4bhb92rcd13ifvqen0","pricing_plan_id":"cebpf4jnsgd1na2vs0mg"},{"bike_id":"6ac4d5bb-2d30-4640-b24f-2a31977c7272","system_id":"levelo_inurba_marseille","lat":43.290104,"lon":5.356111,"is_reserved":false,"is_disabled":false,"rental_uris":{"android":"levelo://app?vid=6ac4d5bb-2d30-4640-b24f-2a31977c7272","ios":"levelo://app?vid=6ac4d5bb-2d30-4640-b24f-2a31977c7272"},"vehicle_type_id":"4","last_reported":1725898205,"current_range_meters":31200,"station_id":"ce4bhb92rcd13ifvqen0","pricing_plan_id":"cebpf4jnsgd1na2vs0mg"},{"bike_id":"75c5c119-b6a2-4e0d-b6d9-7849d8a5fc16","system_id":"levelo_inurba_marseille","lat":43.29002,"lon":5.3562,"is_reserved":false,"is_disabled":false,"rental_uris":{"android":"levelo://app?vid=75c5c119-b6a2-4e0d-b6d9-7849d8a5fc16","ios":"levelo://app?vid=75c5c119-b6a2-4e0d-b6d9-7849d8a5fc16"},"vehicle_type_id":"4","last_reported":1725898205,"current_range_meters":14800,"station_id":"ce4bhb92rcd13ifvqen0","pricing_plan_id":"cebpf4jnsgd1na2vs0mg"},{"bike_id":"c0d6c92e-6dc4-432e-b742-723e1358eb08","system_id":"levelo_inurba_marseille","lat":43.290104,"lon":5.356111,"is_reserved":false,"is_disabled":false,"rental_uris":{"android":"levelo://app?vid=c0d6c92e-6dc4-432e-b742-723e1358eb08","ios":"levelo://app?vid=c0d6c92e-6dc4-432e-b742-723e1358eb08"},"vehicle_type_id":"4","last_reported":1725898205,"current_range_meters":30400,"station_id":"ce4bhb92rcd13ifvqen0","pricing_plan_id":"cebpf4jnsgd1na2vs0mg"},{"bike_id":"dd2d501b-b7a4-45df-987a-b7346f6e91e4","system_id":"levelo_inurba_marseille","lat":43.290104,"lon":5.356111,"is_reserved":false,"is_disabled":false,"rental_uris":{"android":"levelo://app?vid=dd2d501b-b7a4-45df-987a-b7346f6e91e4","ios":"levelo://app?vid=dd2d501b-b7a4-45df-987a-b7346f6e91e4"},"vehicle_type_id":"4","last_reported":1725898205,"current_range_meters":16000,"station_id":"ce4bhb92rcd13ifvqen0","pricing_plan_id":"cebpf4jnsgd1na2vs0mg"},{"bike_id":"b8db1939-389c-4999-ad17-8bc1f03cba43","system_id":"levelo_inurba_marseille","lat":43.330442,"lon":5.389148,"is_reserved":false,"is_disabled":false,"rental_uris":{"android":"levelo://app?vid=b8db1939-389c-4999-ad17-8bc1f03cba43","ios":"levelo://app?vid=b8db1939-389c-4999-ad17-8bc1f03cba43"},"vehicle_type_id":"4","last_reported":1725898205,"current_range_meters":27200,"station_id":"ce4bhr92rcd13ifvqhrg","pricing_plan_id":"cebpf4jnsgd1na2vs0mg"},{"bike_id":"f74d0a23-bc4a-4b73-9784-20b17c93bb4e","system_id":"levelo_inurba_marseille","lat":43.297815,"lon":5.393548,"is_reserved":false,"is_disabled":false,"rental_uris":{"android":"levelo://app?vid=f74d0a23-bc4a-4b73-9784-20b17c93bb4e","ios":"levelo://app?vid=f74d0a23-bc4a-4b73-9784-20b17c93bb4e"},"vehicle_type_id":"4","last_reported":1725898205,"current_range_meters":27600,"station_id":"chh1huq6cuj3fo74tm60","pricing_plan_id":"cebpf4jnsgd1na2vs0mg"},{"bike_id":"bf7e9ead-a3b5-4253-a2b0-f75e4997bbb2","system_id":"levelo_inurba_marseille","lat":43.330442,"lon":5.389148,"is_reserved":false,"is_disabled":false,"rental_uris":{"android":"levelo://app?vid=bf7e9ead-a3b5-4253-a2b0-f75e4997bbb2","ios":"levelo://app?vid=bf7e9ead-a3b5-4253-a2b0-f75e4997bbb2"},"vehicle_type_id":"4","last_reported":1725898205,"current_range_meters":8400,"station_id":"ce4bhr92rcd13ifvqhrg","pricing_plan_id":"cebpf4jnsgd1na2vs0mg"},{"bike_id":"58b65d15-0aef-4913-a6b5-72845112dc04","system_id":"levelo_inurba_marseille","lat":43.330442,"lon":5.389148,"is_reserved":false,"is_disabled":false,"rental_uris":{"android":"levelo://app?vid=58b65d15-0aef-4913-a6b5-72845112dc04","ios":"levelo://app?vid=58b65d15-0aef-4913-a6b5-72845112dc04"},"vehicle_type_id":"4","last_reported":1725898205,"current_range_meters":16000,"station_id":"ce4bhr92rcd13ifvqhrg","pricing_plan_id":"cebpf4jnsgd1na2vs0mg"},{"bike_id":"63d5b0c4-3335-4a1e-a226-5180e0c65906","system_id":"levelo_inurba_marseille","lat":43.330442,"lon":5.389148,"is_reserved":false,"is_disabled":false,"rental_uris":{"android":"levelo://app?vid=63d5b0c4-3335-4a1e-a226-5180e0c65906","ios":"levelo://app?vid=63d5b0c4-3335-4a1e-a226-5180e0c65906"},"vehicle_type_id":"4","last_reported":1725898205,"current_range_meters":31600,"station_id":"ce4bhr92rcd13ifvqhrg","pricing_plan_id":"cebpf4jnsgd1na2vs0mg"},{"bike_id":"d98d5507-f96f-43c9-9a80-b3897d4b6125","system_id":"levelo_inurba_marseille","lat":43.330442,"lon":5.389148,"is_reserved":false,"is_disabled":false,"rental_uris":{"android":"levelo://app?vid=d98d5507-f96f-43c9-9a80-b3897d4b6125","ios":"levelo://app?vid=d98d5507-f96f-43c9-9a80-b3897d4b6125"},"vehicle_type_id":"4","last_reported":1725898205,"current_range_meters":8400,"station_id":"ce4bhr92rcd13ifvqhrg","pricing_plan_id":"cebpf4jnsgd1na2vs0mg"},{"bike_id":"80a7db97-b53f-49c1-ad3d-b367adfe3897","system_id":"levelo_inurba_marseille","lat":43.330442,"lon":5.389148,"is_reserved":false,"is_disabled":false,"rental_uris":{"android":"levelo://app?vid=80a7db97-b53f-49c1-ad3d-b367adfe3897","ios":"levelo://app?vid=80a7db97-b53f-49c1-ad3d-b367adfe3897"},"vehicle_type_id":"4","last_reported":1725898205,"current_range_meters":23200,"station_id":"ce4bhr92rcd13ifvqhrg","pricing_plan_id":"cebpf4jnsgd1na2vs0mg"},{"bike_id":"ffb83df5-3145-4c4b-a701-c52b5fca6397","system_id":"levelo_inurba_marseille","lat":43.330442,"lon":5.389148,"is_reserved":false,"is_disabled":false,"rental_uris":{"android":"levelo://app?vid=ffb83df5-3145-4c4b-a701-c52b5fca6397","ios":"levelo://app?vid=ffb83df5-3145-4c4b-a701-c52b5fca6397"},"vehicle_type_id":"4","last_reported":1725898205,"current_range_meters":19600,"station_id":"ce4bhr92rcd13ifvqhrg","pricing_plan_id":"cebpf4jnsgd1na2vs0mg"},{"bike_id":"ef4c5952-b63d-453c-990b-69ed3bb7c90f","system_id":"levelo_inurba_marseille","lat":43.33021,"lon":5.39046,"is_reserved":false,"is_disabled":false,"rental_uris":{"android":"levelo://app?vid=ef4c5952-b63d-453c-990b-69ed3bb7c90f","ios":"levelo://app?vid=ef4c5952-b63d-453c-990b-69ed3bb7c90f"},"vehicle_type_id":"4","last_reported":1725898205,"current_range_meters":7600,"station_id":"ce4bhr92rcd13ifvqhrg","pricing_plan_id":"cebpf4jnsgd1na2vs0mg"},{"bike_id":"10ffbc41-1b66-4004-a9a7-5eb173190009","system_id":"levelo_inurba_marseille","lat":43.330442,"lon":5.389148,"is_reserved":false,"is_disabled":false,"rental_uris":{"android":"levelo://app?vid=10ffbc41-1b66-4004-a9a7-5eb173190009","ios":"levelo://app?vid=10ffbc41-1b66-4004-a9a7-5eb173190009"},"vehicle_type_id":"4","last_reported":1725898205,"current_range_meters":22800,"station_id":"ce4bhr92rcd13ifvqhrg","pricing_plan_id":"cebpf4jnsgd1na2vs0mg"},{"bike_id":"a50e0854-fbd0-4f21-a51a-23ab6d13f904","system_id":"levelo_inurba_marseille","lat":43.330442,"lon":5.389148,"is_reserved":false,"is_disabled":false,"rental_uris":{"android":"levelo://app?vid=a50e0854-fbd0-4f21-a51a-23ab6d13f904","ios":"levelo://app?vid=a50e0854-fbd0-4f21-a51a-23ab6d13f904"},"vehicle_type_id":"4","last_reported":1725898205,"current_range_meters":4000,"station_id":"ce4bhr92rcd13ifvqhrg","pricing_plan_id":"cebpf4jnsgd1na2vs0mg"},{"bike_id":"d0dbf9d0-3416-46c6-a0c0-7429c02d9092","system_id":"levelo_inurba_marseille","lat":43.295169,"lon":5.390426,"is_reserved":false,"is_disabled":false,"rental_uris":{"android":"levelo://app?vid=d0dbf9d0-3416-46c6-a0c0-7429c02d9092","ios":"levelo://app?vid=d0dbf9d0-3416-46c6-a0c0-7429c02d9092"},"vehicle_type_id":"4","last_reported":1725898205,"current_range_meters":2000,"station_id":"ce4bh3p2rcd13ifvqdp0","pricing_plan_id":"cebpf4jnsgd1na2vs0mg"},{"bike_id":"f428575d-e8a7-4fd5-a85c-e210b751e68e","system_id":"levelo_inurba_marseille","lat":43.2901,"lon":5.381269,"is_reserved":false,"is_disabled":false,"rental_uris":{"android":"levelo://app?vid=f428575d-e8a7-4fd5-a85c-e210b751e68e","ios":"levelo://app?vid=f428575d-e8a7-4fd5-a85c-e210b751e68e"},"vehicle_type_id":"4","last_reported":1725898205,"current_range_meters":0,"station_id":"ce4bh4p2rcd13ifvqe1g","pricing_plan_id":"cebpf4jnsgd1na2vs0mg"},{"bike_id":"ac40be08-bf75-47a6-9859-689e0b1ec38f","system_id":"levelo_inurba_marseille","lat":43.2901,"lon":5.381269,"is_reserved":false,"is_disabled":false,"rental_uris":{"android":"levelo://app?vid=ac40be08-bf75-47a6-9859-689e0b1ec38f","ios":"levelo://app?vid=ac40be08-bf75-47a6-9859-689e0b1ec38f"},"vehicle_type_id":"4","last_reported":1725898205,"current_range_meters":11600,"station_id":"ce4bh4p2rcd13ifvqe1g","pricing_plan_id":"cebpf4jnsgd1na2vs0mg"},{"bike_id":"e4432bfe-4791-43c0-91c3-438f4fb60f4f","system_id":"levelo_inurba_marseille","lat":43.312609,"lon":5.401662,"is_reserved":false,"is_disabled":false,"rental_uris":{"android":"levelo://app?vid=e4432bfe-4791-43c0-91c3-438f4fb60f4f","ios":"levelo://app?vid=e4432bfe-4791-43c0-91c3-438f4fb60f4f"},"vehicle_type_id":"4","last_reported":1725898205,"current_range_meters":11600,"station_id":"ce4bh092rcd13ifvqd30","pricing_plan_id":"cebpf4jnsgd1na2vs0mg"},{"bike_id":"67046e15-3a62-40f3-af38-bab194c61406","system_id":"levelo_inurba_marseille","lat":43.28856,"lon":5.358371,"is_reserved":false,"is_disabled":false,"rental_uris":{"android":"levelo://app?vid=67046e15-3a62-40f3-af38-bab194c61406","ios":"levelo://app?vid=67046e15-3a62-40f3-af38-bab194c61406"},"vehicle_type_id":"4","last_reported":1725898205,"current_range_meters":32000,"station_id":"ce4bhb12rcd13ifvqem0","pricing_plan_id":"cebpf4jnsgd1na2vs0mg"},{"bike_id":"0ef05788-f8c7-46be-9e49-7f602cfbed65","system_id":"levelo_inurba_marseille","lat":43.28856,"lon":5.358371,"is_reserved":false,"is_disabled":false,"rental_uris":{"android":"levelo://app?vid=0ef05788-f8c7-46be-9e49-7f602cfbed65","ios":"levelo://app?vid=0ef05788-f8c7-46be-9e49-7f602cfbed65"},"vehicle_type_id":"4","last_reported":1725898205,"current_range_meters":28400,"station_id":"ce4bhb12rcd13ifvqem0","pricing_plan_id":"cebpf4jnsgd1na2vs0mg"},{"bike_id":"ae0e42ee-7698-457e-b1a1-bb157f4cb5d7","system_id":"levelo_inurba_marseille","lat":43.28856,"lon":5.358371,"is_reserved":false,"is_disabled":false,"rental_uris":{"android":"levelo://app?vid=ae0e42ee-7698-457e-b1a1-bb157f4cb5d7","ios":"levelo://app?vid=ae0e42ee-7698-457e-b1a1-bb157f4cb5d7"},"vehicle_type_id":"4","last_reported":1725898205,"current_range_meters":20400,"station_id":"ce4bhb12rcd13ifvqem0","pricing_plan_id":"cebpf4jnsgd1na2vs0mg"},{"bike_id":"e3f1f96b-d7ba-49b0-8254-605da78cbc29","system_id":"levelo_inurba_marseille","lat":43.28856,"lon":5.358371,"is_reserved":false,"is_disabled":false,"rental_uris":{"android":"levelo://app?vid=e3f1f96b-d7ba-49b0-8254-605da78cbc29","ios":"levelo://app?vid=e3f1f96b-d7ba-49b0-8254-605da78cbc29"},"vehicle_type_id":"4","last_reported":1725898205,"current_range_meters":10800,"station_id":"ce4bhb12rcd13ifvqem0","pricing_plan_id":"cebpf4jnsgd1na2vs0mg"},{"bike_id":"1e8892bd-3d33-4071-b104-6d6adfafa894","system_id":"levelo_inurba_marseille","lat":43.288512,"lon":5.358524,"is_reserved":false,"is_disabled":false,"rental_uris":{"android":"levelo://app?vid=1e8892bd-3d33-4071-b104-6d6adfafa894","ios":"levelo://app?vid=1e8892bd-3d33-4071-b104-6d6adfafa894"},"vehicle_type_id":"4","last_reported":1725898205,"current_range_meters":31200,"station_id":"ce4bhb12rcd13ifvqem0","pricing_plan_id":"cebpf4jnsgd1na2vs0mg"},{"bike_id":"18716a9b-ada4-4c62-a8ad-411dbf8c6d8b","system_id":"levelo_inurba_marseille","lat":43.337416,"lon":5.374579,"is_reserved":false,"is_disabled":false,"rental_uris":{"android":"levelo://app?vid=18716a9b-ada4-4c62-a8ad-411dbf8c6d8b","ios":"levelo://app?vid=18716a9b-ada4-4c62-a8ad-411dbf8c6d8b"},"vehicle_type_id":"4","last_reported":1725898205,"current_range_meters":17200,"station_id":"","pricing_plan_id":"cebpf4jnsgd1na2vs0mg"},{"bike_id":"b77d147a-93fe-4a18-8bef-2054ad3390c7","system_id":"levelo_inurba_marseille","lat":43.309371,"lon":5.401449,"is_reserved":false,"is_disabled":false,"rental_uris":{"android":"levelo://app?vid=b77d147a-93fe-4a18-8bef-2054ad3390c7","ios":"levelo://app?vid=b77d147a-93fe-4a18-8bef-2054ad3390c7"},"vehicle_type_id":"4","last_reported":1725898205,"current_range_meters":16800,"station_id":"ce4bgvp2rcd13ifvqct0","pricing_plan_id":"cebpf4jnsgd1na2vs0mg"},{"bike_id":"f494e39e-b911-477d-a78d-af49d1801f62","system_id":"levelo_inurba_marseille","lat":43.312609,"lon":5.401662,"is_reserved":false,"is_disabled":false,"rental_uris":{"android":"levelo://app?vid=f494e39e-b911-477d-a78d-af49d1801f62","ios":"levelo://app?vid=f494e39e-b911-477d-a78d-af49d1801f62"},"vehicle_type_id":"4","last_reported":1725898205,"current_range_meters":11600,"station_id":"ce4bh092rcd13ifvqd30","pricing_plan_id":"cebpf4jnsgd1na2vs0mg"},{"bike_id":"a8d30661-3929-470d-8e48-791789ff2b3f","system_id":"levelo_inurba_marseille","lat":43.337565,"lon":5.374522,"is_reserved":false,"is_disabled":false,"rental_uris":{"android":"levelo://app?vid=a8d30661-3929-470d-8e48-791789ff2b3f","ios":"levelo://app?vid=a8d30661-3929-470d-8e48-791789ff2b3f"},"vehicle_type_id":"4","last_reported":1725898205,"current_range_meters":30800,"station_id":"","pricing_plan_id":"cebpf4jnsgd1na2vs0mg"},{"bike_id":"d7fbe93c-a3da-4eab-bd1f-cd834108d146","system_id":"levelo_inurba_marseille","lat":43.33758,"lon":5.37465,"is_reserved":false,"is_disabled":false,"rental_uris":{"android":"levelo://app?vid=d7fbe93c-a3da-4eab-bd1f-cd834108d146","ios":"levelo://app?vid=d7fbe93c-a3da-4eab-bd1f-cd834108d146"},"vehicle_type_id":"4","last_reported":1725898205,"current_range_meters":28000,"station_id":"","pricing_plan_id":"cebpf4jnsgd1na2vs0mg"},{"bike_id":"7deab1b1-bb4f-4e22-92fb-9076dfd5a0e6","system_id":"levelo_inurba_marseille","lat":43.33759,"lon":5.37479,"is_reserved":false,"is_disabled":false,"rental_uris":{"android":"levelo://app?vid=7deab1b1-bb4f-4e22-92fb-9076dfd5a0e6","ios":"levelo://app?vid=7deab1b1-bb4f-4e22-92fb-9076dfd5a0e6"},"vehicle_type_id":"4","last_reported":1725898205,"current_range_meters":24000,"station_id":"","pricing_plan_id":"cebpf4jnsgd1na2vs0mg"},{"bike_id":"ba8272d9-3189-4abc-9ebf-f37f6a541912","system_id":"levelo_inurba_marseille","lat":43.30642,"lon":5.401031,"is_reserved":false,"is_disabled":false,"rental_uris":{"android":"levelo://app?vid=ba8272d9-3189-4abc-9ebf-f37f6a541912","ios":"levelo://app?vid=ba8272d9-3189-4abc-9ebf-f37f6a541912"},"vehicle_type_id":"4","last_reported":1725898205,"current_range_meters":21200,"station_id":"ce4bh112rcd13ifvqda0","pricing_plan_id":"cebpf4jnsgd1na2vs0mg"},{"bike_id":"866cd880-e098-4b0c-8f94-bd65e5c38c37","system_id":"levelo_inurba_marseille","lat":43.306412,"lon":5.401035,"is_reserved":false,"is_disabled":false,"rental_uris":{"android":"levelo://app?vid=866cd880-e098-4b0c-8f94-bd65e5c38c37","ios":"levelo://app?vid=866cd880-e098-4b0c-8f94-bd65e5c38c37"},"vehicle_type_id":"4","last_reported":1725898205,"current_range_meters":6000,"station_id":"ce4bh112rcd13ifvqda0","pricing_plan_id":"cebpf4jnsgd1na2vs0mg"},{"bike_id":"98b12773-73d6-4dae-99a7-4dc390235c8b","system_id":"levelo_inurba_marseille","lat":43.337696,"lon":5.374747,"is_reserved":false,"is_disabled":false,"rental_uris":{"android":"levelo://app?vid=98b12773-73d6-4dae-99a7-4dc390235c8b","ios":"levelo://app?vid=98b12773-73d6-4dae-99a7-4dc390235c8b"},"vehicle_type_id":"4","last_reported":1725898205,"current_range_meters":26400,"station_id":"","pricing_plan_id":"cebpf4jnsgd1na2vs0mg"},{"bike_id":"af0ea9e9-4fae-4f3b-8022-593d6ece380f","system_id":"levelo_inurba_marseille","lat":43.301347,"lon":5.39859,"is_reserved":false,"is_disabled":false,"rental_uris":{"android":"levelo://app?vid=af0ea9e9-4fae-4f3b-8022-593d6ece380f","ios":"levelo://app?vid=af0ea9e9-4fae-4f3b-8022-593d6ece380f"},"vehicle_type_id":"4","last_reported":1725898205,"current_range_meters":19200,"station_id":"ce4bh0h2rcd13ifvqd40","pricing_plan_id":"cebpf4jnsgd1na2vs0mg"},{"bike_id":"1c68582d-af8e-4ca8-a0d2-cd7058a22c9c","system_id":"levelo_inurba_marseille","lat":43.30131,"lon":5.3986,"is_reserved":false,"is_disabled":false,"rental_uris":{"android":"levelo://app?vid=1c68582d-af8e-4ca8-a0d2-cd7058a22c9c","ios":"levelo://app?vid=1c68582d-af8e-4ca8-a0d2-cd7058a22c9c"},"vehicle_type_id":"4","last_reported":1725898205,"current_range_meters":9600,"station_id":"ce4bh0h2rcd13ifvqd40","pricing_plan_id":"cebpf4jnsgd1na2vs0mg"},{"bike_id":"a7ae15e3-4e65-472f-9750-6108d4cae602","system_id":"levelo_inurba_marseille","lat":43.301117,"lon":5.398795,"is_reserved":false,"is_disabled":false,"rental_uris":{"android":"levelo://app?vid=a7ae15e3-4e65-472f-9750-6108d4cae602","ios":"levelo://app?vid=a7ae15e3-4e65-472f-9750-6108d4cae602"},"vehicle_type_id":"4","last_reported":1725898205,"current_range_meters":12400,"station_id":"ce4bh0h2rcd13ifvqd40","pricing_plan_id":"cebpf4jnsgd1na2vs0mg"},{"bike_id":"fbf55e31-27c8-445c-9d0b-f4648bb25fcc","system_id":"levelo_inurba_marseille","lat":43.301117,"lon":5.398795,"is_reserved":false,"is_disabled":false,"rental_uris":{"android":"levelo://app?vid=fbf55e31-27c8-445c-9d0b-f4648bb25fcc","ios":"levelo://app?vid=fbf55e31-27c8-445c-9d0b-f4648bb25fcc"},"vehicle_type_id":"4","last_reported":1725898205,"current_range_meters":7600,"station_id":"ce4bh0h2rcd13ifvqd40","pricing_plan_id":"cebpf4jnsgd1na2vs0mg"},{"bike_id":"558a2806-82b5-4f23-8643-568c0bd711e9","system_id":"levelo_inurba_marseille","lat":43.301117,"lon":5.398795,"is_reserved":false,"is_disabled":false,"rental_uris":{"android":"levelo://app?vid=558a2806-82b5-4f23-8643-568c0bd711e9","ios":"levelo://app?vid=558a2806-82b5-4f23-8643-568c0bd711e9"},"vehicle_type_id":"4","last_reported":1725898205,"current_range_meters":2800,"station_id":"ce4bh0h2rcd13ifvqd40","pricing_plan_id":"cebpf4jnsgd1na2vs0mg"},{"bike_id":"da163816-da81-44e9-ba1e-9ddcd4c9c1c1","system_id":"levelo_inurba_marseille","lat":43.301117,"lon":5.398795,"is_reserved":false,"is_disabled":false,"rental_uris":{"android":"levelo://app?vid=da163816-da81-44e9-ba1e-9ddcd4c9c1c1","ios":"levelo://app?vid=da163816-da81-44e9-ba1e-9ddcd4c9c1c1"},"vehicle_type_id":"4","last_reported":1725898205,"current_range_meters":0,"station_id":"ce4bh0h2rcd13ifvqd40","pricing_plan_id":"cebpf4jnsgd1na2vs0mg"},{"bike_id":"368c5e9c-8ee3-4b02-89fa-db814223b408","system_id":"levelo_inurba_marseille","lat":43.30133,"lon":5.3987,"is_reserved":false,"is_disabled":false,"rental_uris":{"android":"levelo://app?vid=368c5e9c-8ee3-4b02-89fa-db814223b408","ios":"levelo://app?vid=368c5e9c-8ee3-4b02-89fa-db814223b408"},"vehicle_type_id":"4","last_reported":1725898205,"current_range_meters":9600,"station_id":"ce4bh0h2rcd13ifvqd40","pricing_plan_id":"cebpf4jnsgd1na2vs0mg"},{"bike_id":"ab196772-d866-4b25-8420-9477c8d9909f","system_id":"levelo_inurba_marseille","lat":43.30123,"lon":5.39864,"is_reserved":false,"is_disabled":false,"rental_uris":{"android":"levelo://app?vid=ab196772-d866-4b25-8420-9477c8d9909f","ios":"levelo://app?vid=ab196772-d866-4b25-8420-9477c8d9909f"},"vehicle_type_id":"4","last_reported":1725898205,"current_range_meters":16400,"station_id":"ce4bh0h2rcd13ifvqd40","pricing_plan_id":"cebpf4jnsgd1na2vs0mg"},{"bike_id":"e2e1a9c7-2a25-429a-bf29-266e1f57810a","system_id":"levelo_inurba_marseille","lat":43.298681,"lon":5.397225,"is_reserved":false,"is_disabled":false,"rental_uris":{"android":"levelo://app?vid=e2e1a9c7-2a25-429a-bf29-266e1f57810a","ios":"levelo://app?vid=e2e1a9c7-2a25-429a-bf29-266e1f57810a"},"vehicle_type_id":"4","last_reported":1725898205,"current_range_meters":6000,"station_id":"ce4bh0h2rcd13ifvqd50","pricing_plan_id":"cebpf4jnsgd1na2vs0mg"},{"bike_id":"4a8aa6ef-c59d-45ae-b3aa-ea6761e2757a","system_id":"levelo_inurba_marseille","lat":43.286591,"lon":5.363346,"is_reserved":false,"is_disabled":false,"rental_uris":{"android":"levelo://app?vid=4a8aa6ef-c59d-45ae-b3aa-ea6761e2757a","ios":"levelo://app?vid=4a8aa6ef-c59d-45ae-b3aa-ea6761e2757a"},"vehicle_type_id":"4","last_reported":1725898205,"current_range_meters":7200,"station_id":"ce4bhah2rcd13ifvqej0","pricing_plan_id":"cebpf4jnsgd1na2vs0mg"},{"bike_id":"f5c466bc-e54f-433a-8d98-95935cdff118","system_id":"levelo_inurba_marseille","lat":43.28673,"lon":5.36355,"is_reserved":false,"is_disabled":false,"rental_uris":{"android":"levelo://app?vid=f5c466bc-e54f-433a-8d98-95935cdff118","ios":"levelo://app?vid=f5c466bc-e54f-433a-8d98-95935cdff118"},"vehicle_type_id":"4","last_reported":1725898205,"current_range_meters":26400,"station_id":"ce4bhah2rcd13ifvqej0","pricing_plan_id":"cebpf4jnsgd1na2vs0mg"},{"bike_id":"f0033ada-a703-4f6b-9786-320dba1801ee","system_id":"levelo_inurba_marseille","lat":43.298681,"lon":5.397225,"is_reserved":false,"is_disabled":false,"rental_uris":{"android":"levelo://app?vid=f0033ada-a703-4f6b-9786-320dba1801ee","ios":"levelo://app?vid=f0033ada-a703-4f6b-9786-320dba1801ee"},"vehicle_type_id":"4","last_reported":1725898205,"current_range_meters":18000,"station_id":"ce4bh0h2rcd13ifvqd50","pricing_plan_id":"cebpf4jnsgd1na2vs0mg"},{"bike_id":"54362efe-b473-40d4-bb3a-b76cb5152ed0","system_id":"levelo_inurba_marseille","lat":43.298681,"lon":5.397225,"is_reserved":false,"is_disabled":false,"rental_uris":{"android":"levelo://app?vid=54362efe-b473-40d4-bb3a-b76cb5152ed0","ios":"levelo://app?vid=54362efe-b473-40d4-bb3a-b76cb5152ed0"},"vehicle_type_id":"4","last_reported":1725898205,"current_range_meters":0,"station_id":"ce4bh0h2rcd13ifvqd50","pricing_plan_id":"cebpf4jnsgd1na2vs0mg"},{"bike_id":"cfa1b8de-d213-4eef-9244-1642f384ed94","system_id":"levelo_inurba_marseille","lat":43.298681,"lon":5.397225,"is_reserved":false,"is_disabled":false,"rental_uris":{"android":"levelo://app?vid=cfa1b8de-d213-4eef-9244-1642f384ed94","ios":"levelo://app?vid=cfa1b8de-d213-4eef-9244-1642f384ed94"},"vehicle_type_id":"4","last_reported":1725898205,"current_range_meters":25600,"station_id":"ce4bh0h2rcd13ifvqd50","pricing_plan_id":"cebpf4jnsgd1na2vs0mg"},{"bike_id":"35251b44-2ab3-46e6-9cdd-4dd8ca821389","system_id":"levelo_inurba_marseille","lat":43.298681,"lon":5.397225,"is_reserved":false,"is_disabled":false,"rental_uris":{"android":"levelo://app?vid=35251b44-2ab3-46e6-9cdd-4dd8ca821389","ios":"levelo://app?vid=35251b44-2ab3-46e6-9cdd-4dd8ca821389"},"vehicle_type_id":"4","last_reported":1725898205,"current_range_meters":22000,"station_id":"ce4bh0h2rcd13ifvqd50","pricing_plan_id":"cebpf4jnsgd1na2vs0mg"},{"bike_id":"5a668220-7cad-4bbe-bc91-4f2ea44b4621","system_id":"levelo_inurba_marseille","lat":43.28668,"lon":5.36349,"is_reserved":false,"is_disabled":false,"rental_uris":{"android":"levelo://app?vid=5a668220-7cad-4bbe-bc91-4f2ea44b4621","ios":"levelo://app?vid=5a668220-7cad-4bbe-bc91-4f2ea44b4621"},"vehicle_type_id":"4","last_reported":1725898205,"current_range_meters":18400,"station_id":"ce4bhah2rcd13ifvqej0","pricing_plan_id":"cebpf4jnsgd1na2vs0mg"},{"bike_id":"5f627727-34f1-4c2b-8944-af18396b6527","system_id":"levelo_inurba_marseille","lat":43.286961,"lon":5.373785,"is_reserved":false,"is_disabled":false,"rental_uris":{"android":"levelo://app?vid=5f627727-34f1-4c2b-8944-af18396b6527","ios":"levelo://app?vid=5f627727-34f1-4c2b-8944-af18396b6527"},"vehicle_type_id":"4","last_reported":1725898205,"current_range_meters":18000,"station_id":"ce4bh3p2rcd13ifvqdq0","pricing_plan_id":"cebpf4jnsgd1na2vs0mg"},{"bike_id":"97f766ee-42ca-49b4-ac68-6edfa028e12e","system_id":"levelo_inurba_marseille","lat":43.298681,"lon":5.397225,"is_reserved":false,"is_disabled":false,"rental_uris":{"android":"levelo://app?vid=97f766ee-42ca-49b4-ac68-6edfa028e12e","ios":"levelo://app?vid=97f766ee-42ca-49b4-ac68-6edfa028e12e"},"vehicle_type_id":"4","last_reported":1725898205,"current_range_meters":26400,"station_id":"ce4bh0h2rcd13ifvqd50","pricing_plan_id":"cebpf4jnsgd1na2vs0mg"},{"bike_id":"8dd50abc-16a4-4be4-a8c2-e9d80d19b511","system_id":"levelo_inurba_marseille","lat":43.298681,"lon":5.397225,"is_reserved":false,"is_disabled":false,"rental_uris":{"android":"levelo://app?vid=8dd50abc-16a4-4be4-a8c2-e9d80d19b511","ios":"levelo://app?vid=8dd50abc-16a4-4be4-a8c2-e9d80d19b511"},"vehicle_type_id":"4","last_reported":1725898205,"current_range_meters":400,"station_id":"ce4bh0h2rcd13ifvqd50","pricing_plan_id":"cebpf4jnsgd1na2vs0mg"},{"bike_id":"5bd7359f-48ee-4dbb-a72c-36d5cff62935","system_id":"levelo_inurba_marseille","lat":43.295196,"lon":5.39397,"is_reserved":false,"is_disabled":false,"rental_uris":{"android":"levelo://app?vid=5bd7359f-48ee-4dbb-a72c-36d5cff62935","ios":"levelo://app?vid=5bd7359f-48ee-4dbb-a72c-36d5cff62935"},"vehicle_type_id":"4","last_reported":1725898205,"current_range_meters":22800,"station_id":"ce4bh292rcd13ifvqdf0","pricing_plan_id":"cebpf4jnsgd1na2vs0mg"},{"bike_id":"de49a542-96d2-4983-b8ce-b50370a87793","system_id":"levelo_inurba_marseille","lat":43.302759,"lon":5.400793,"is_reserved":false,"is_disabled":false,"rental_uris":{"android":"levelo://app?vid=de49a542-96d2-4983-b8ce-b50370a87793","ios":"levelo://app?vid=de49a542-96d2-4983-b8ce-b50370a87793"},"vehicle_type_id":"4","last_reported":1725898205,"current_range_meters":1600,"station_id":"ce4bgvh2rcd13ifvqcs0","pricing_plan_id":"cebpf4jnsgd1na2vs0mg"},{"bike_id":"ca2a494e-2bdc-4aff-8535-d4094a29ec57","system_id":"levelo_inurba_marseille","lat":43.289307,"lon":5.38406,"is_reserved":false,"is_disabled":false,"rental_uris":{"android":"levelo://app?vid=ca2a494e-2bdc-4aff-8535-d4094a29ec57","ios":"levelo://app?vid=ca2a494e-2bdc-4aff-8535-d4094a29ec57"},"vehicle_type_id":"4","last_reported":1725898205,"current_range_meters":23600,"station_id":"ce4bh612rcd13ifvqe6g","pricing_plan_id":"cebpf4jnsgd1na2vs0mg"},{"bike_id":"6b18ba76-6aa3-48e5-a508-7314a2605dc7","system_id":"levelo_inurba_marseille","lat":43.289307,"lon":5.38406,"is_reserved":false,"is_disabled":false,"rental_uris":{"android":"levelo://app?vid=6b18ba76-6aa3-48e5-a508-7314a2605dc7","ios":"levelo://app?vid=6b18ba76-6aa3-48e5-a508-7314a2605dc7"},"vehicle_type_id":"4","last_reported":1725898205,"current_range_meters":0,"station_id":"ce4bh612rcd13ifvqe6g","pricing_plan_id":"cebpf4jnsgd1na2vs0mg"},{"bike_id":"907d6463-164f-49b2-ae80-d1cd0e1dd60b","system_id":"levelo_inurba_marseille","lat":43.289307,"lon":5.38406,"is_reserved":false,"is_disabled":false,"rental_uris":{"android":"levelo://app?vid=907d6463-164f-49b2-ae80-d1cd0e1dd60b","ios":"levelo://app?vid=907d6463-164f-49b2-ae80-d1cd0e1dd60b"},"vehicle_type_id":"4","last_reported":1725898205,"current_range_meters":16400,"station_id":"ce4bh612rcd13ifvqe6g","pricing_plan_id":"cebpf4jnsgd1na2vs0mg"},{"bike_id":"d0e7397a-48c1-496a-98bc-cc70eb03535f","system_id":"levelo_inurba_marseille","lat":43.289307,"lon":5.38406,"is_reserved":false,"is_disabled":false,"rental_uris":{"android":"levelo://app?vid=d0e7397a-48c1-496a-98bc-cc70eb03535f","ios":"levelo://app?vid=d0e7397a-48c1-496a-98bc-cc70eb03535f"},"vehicle_type_id":"4","last_reported":1725898205,"current_range_meters":17200,"station_id":"ce4bh612rcd13ifvqe6g","pricing_plan_id":"cebpf4jnsgd1na2vs0mg"},{"bike_id":"b16774db-d2c0-4ef0-950e-d302c2d59c3c","system_id":"levelo_inurba_marseille","lat":43.290336,"lon":5.386425,"is_reserved":false,"is_disabled":false,"rental_uris":{"android":"levelo://app?vid=b16774db-d2c0-4ef0-950e-d302c2d59c3c","ios":"levelo://app?vid=b16774db-d2c0-4ef0-950e-d302c2d59c3c"},"vehicle_type_id":"4","last_reported":1725898205,"current_range_meters":26800,"station_id":"ce4bh4p2rcd13ifvqe0g","pricing_plan_id":"cebpf4jnsgd1na2vs0mg"},{"bike_id":"fd0166eb-dad1-47ff-b367-6f2455fff2f7","system_id":"levelo_inurba_marseille","lat":43.29032,"lon":5.38647,"is_reserved":false,"is_disabled":false,"rental_uris":{"android":"levelo://app?vid=fd0166eb-dad1-47ff-b367-6f2455fff2f7","ios":"levelo://app?vid=fd0166eb-dad1-47ff-b367-6f2455fff2f7"},"vehicle_type_id":"4","last_reported":1725898205,"current_range_meters":5600,"station_id":"ce4bh4p2rcd13ifvqe0g","pricing_plan_id":"cebpf4jnsgd1na2vs0mg"},{"bike_id":"9316f3ab-779e-48f6-ac04-73c8df2af44a","system_id":"levelo_inurba_marseille","lat":43.289307,"lon":5.38406,"is_reserved":false,"is_disabled":false,"rental_uris":{"android":"levelo://app?vid=9316f3ab-779e-48f6-ac04-73c8df2af44a","ios":"levelo://app?vid=9316f3ab-779e-48f6-ac04-73c8df2af44a"},"vehicle_type_id":"4","last_reported":1725898205,"current_range_meters":4400,"station_id":"ce4bh612rcd13ifvqe6g","pricing_plan_id":"cebpf4jnsgd1na2vs0mg"},{"bike_id":"741cab87-49b9-4cf1-890d-d6cdedb3c9ea","system_id":"levelo_inurba_marseille","lat":43.290336,"lon":5.386425,"is_reserved":false,"is_disabled":false,"rental_uris":{"android":"levelo://app?vid=741cab87-49b9-4cf1-890d-d6cdedb3c9ea","ios":"levelo://app?vid=741cab87-49b9-4cf1-890d-d6cdedb3c9ea"},"vehicle_type_id":"4","last_reported":1725898205,"current_range_meters":31200,"station_id":"ce4bh4p2rcd13ifvqe0g","pricing_plan_id":"cebpf4jnsgd1na2vs0mg"},{"bike_id":"67df1879-c68c-4e24-b9ad-ad80f3273bec","system_id":"levelo_inurba_marseille","lat":43.282744,"lon":5.350533,"is_reserved":false,"is_disabled":false,"rental_uris":{"android":"levelo://app?vid=67df1879-c68c-4e24-b9ad-ad80f3273bec","ios":"levelo://app?vid=67df1879-c68c-4e24-b9ad-ad80f3273bec"},"vehicle_type_id":"4","last_reported":1725898205,"current_range_meters":13600,"station_id":"ce4bhbp2rcd13ifvqerg","pricing_plan_id":"cebpf4jnsgd1na2vs0mg"},{"bike_id":"04ede488-d3ed-4e85-9c74-a464d7446f4b","system_id":"levelo_inurba_marseille","lat":43.302759,"lon":5.400793,"is_reserved":false,"is_disabled":false,"rental_uris":{"android":"levelo://app?vid=04ede488-d3ed-4e85-9c74-a464d7446f4b","ios":"levelo://app?vid=04ede488-d3ed-4e85-9c74-a464d7446f4b"},"vehicle_type_id":"4","last_reported":1725898205,"current_range_meters":18000,"station_id":"ce4bgvh2rcd13ifvqcs0","pricing_plan_id":"cebpf4jnsgd1na2vs0mg"},{"bike_id":"586635bb-a72a-46a9-85a9-43022b7f9515","system_id":"levelo_inurba_marseille","lat":43.286039,"lon":5.370679,"is_reserved":false,"is_disabled":false,"rental_uris":{"android":"levelo://app?vid=586635bb-a72a-46a9-85a9-43022b7f9515","ios":"levelo://app?vid=586635bb-a72a-46a9-85a9-43022b7f9515"},"vehicle_type_id":"4","last_reported":1725898205,"current_range_meters":28400,"station_id":"ce4bht12rcd13ifvqi60","pricing_plan_id":"cebpf4jnsgd1na2vs0mg"},{"bike_id":"288253da-0d43-4947-9ba8-f48719c8afa4","system_id":"levelo_inurba_marseille","lat":43.28803,"lon":5.38242,"is_reserved":false,"is_disabled":false,"rental_uris":{"android":"levelo://app?vid=288253da-0d43-4947-9ba8-f48719c8afa4","ios":"levelo://app?vid=288253da-0d43-4947-9ba8-f48719c8afa4"},"vehicle_type_id":"4","last_reported":1725898205,"current_range_meters":24000,"station_id":"","pricing_plan_id":"cebpf4jnsgd1na2vs0mg"},{"bike_id":"0ec4c27d-82cb-43b7-990b-43b51c5e5380","system_id":"levelo_inurba_marseille","lat":43.316828,"lon":5.404723,"is_reserved":false,"is_disabled":false,"rental_uris":{"android":"levelo://app?vid=0ec4c27d-82cb-43b7-990b-43b51c5e5380","ios":"levelo://app?vid=0ec4c27d-82cb-43b7-990b-43b51c5e5380"},