{"last_updated":1745305840,"ttl":60,"version":"2.2","data":{"bikes":[{"bike_id":"7e044b77-3900-4b0a-a54b-6e90af0454c5","system_id":"levelo_inurba_marseille","lat":43.27979,"lon":5.3871,"is_reserved":false,"is_disabled":false,"rental_uris":{"android":"levelo://app?vid=7e044b77-3900-4b0a-a54b-6e90af0454c5","ios":"levelo://app?vid=7e044b77-3900-4b0a-a54b-6e90af0454c5"},"vehicle_type_id":"4","last_reported":1745305840,"current_range_meters":0,"station_id":"ce4bhg12rcd13ifvqf80","pricing_plan_id":"cebpf4jnsgd1na2vs0mg"},{"bike_id":"1d1a489f-20a3-46c4-b869-6d3fd062d097","system_id":"levelo_inurba_marseille","lat":43.296682,"lon":5.372948,"is_reserved":false,"is_disabled":false,"rental_uris":{"android":"levelo://app?vid=1d1a489f-20a3-46c4-b869-6d3fd062d097","ios":"levelo://app?vid=1d1a489f-20a3-46c4-b869-6d3fd062d097"},"vehicle_type_id":"4","last_reported":1745305840,"current_range_meters":3600,"station_id":"ce4bh512rcd13ifvqe2g","pricing_plan_id":"cebpf4jnsgd1na2vs0mg"},{"bike_id":"5e6e093b-2e29-46e9-a546-aa996680475b","system_id":"levelo_inurba_marseille","lat":43.2873,"lon":5.37935,"is_reserved":false,"is_disabled":false,"rental_uris":{"android":"levelo://app?vid=5e6e093b-2e29-46e9-a546-aa996680475b","ios":"levelo://app?vid=5e6e093b-2e29-46e9-a546-aa996680475b"},"vehicle_type_id":"4","last_reported":1745305840,"current_range_meters":2800,"station_id":"ce4bh9p2rcd13ifvqec0","pricing_plan_id":"cebpf4jnsgd1na2vs0mg"},{"bike_id":"2bdde4a3-7509-460a-b2c7-d172c5297380","system_id":"levelo_inurba_marseille","lat":43.21184,"lon":5.3508,"is_reserved":false,"is_disabled":true,"rental_uris":{"android":"levelo://app?vid=2bdde4a3-7509-460a-b2c7-d172c5297380","ios":"levelo://app?vid=2bdde4a3-7509-460a-b2c7-d172c5297380"},"vehicle_type_id":"4","last_reported":1745305840,"current_range_meters":3200,"station_id":"st_cvj6sg6p6f1abm77japg","pricing_plan_id":"cebpf4jnsgd1na2vs0mg"},{"bike_id":"13dcc10c-4cac-4cf2-9318-07e242720dc9","system_id":"levelo_inurba_marseille","lat":43.312,"lon":5.37715,"is_reserved":false,"is_disabled":true,"rental_uris":{"android":"levelo://app?vid=13dcc10c-4cac-4cf2-9318-07e242720dc9","ios":"levelo://app?vid=13dcc10c-4cac-4cf2-9318-07e242720dc9"},"vehicle_type_id":"4","last_reported":1745305840,"current_range_meters":3200,"station_id":"","pricing_plan_id":"cebpf4jnsgd1na2vs0mg"},{"bike_id":"a373f1b2-c1f8-4d57-bca1-4c97514ea92c","system_id":"levelo_inurba_marseille","lat":43.31218,"lon":5.36876,"is_reserved":false,"is_disabled":true,"rental_uris":{"android":"levelo://app?vid=a373f1b2-c1f8-4d57-bca1-4c97514ea92c","ios":"levelo://app?vid=a373f1b2-c1f8-4d57-bca1-4c97514ea92c"},"vehicle_type_id":"4","last_reported":1745305840,"current_range_meters":3600,"station_id":"ce4bgl92rcd13ifvqbq0","pricing_plan_id":"cebpf4jnsgd1na2vs0mg"},{"bike_id":"ca48c4cd-cfb6-4c0d-badd-0fc7184fcf12","system_id":"levelo_inurba_marseille","lat":43.29965,"lon":5.38499,"is_reserved":false,"is_disabled":false,"rental_uris":{"android":"levelo://app?vid=ca48c4cd-cfb6-4c0d-badd-0fc7184fcf12","ios":"levelo://app?vid=ca48c4cd-cfb6-4c0d-badd-0fc7184fcf12"},"vehicle_type_id":"4","last_reported":1745305840,"current_range_meters":3600,"station_id":"ce4bgj92rcd13ifvqbd0","pricing_plan_id":"cebpf4jnsgd1na2vs0mg"},{"bike_id":"bfefb57c-154e-4cbc-90d7-24ac4b95745f","system_id":"levelo_inurba_marseille","lat":43.31013,"lon":5.3712,"is_reserved":false,"is_disabled":false,"rental_uris":{"android":"levelo://app?vid=bfefb57c-154e-4cbc-90d7-24ac4b95745f","ios":"levelo://app?vid=bfefb57c-154e-4cbc-90d7-24ac4b95745f"},"vehicle_type_id":"4","last_reported":1745305840,"current_range_meters":3600,"station_id":"","pricing_plan_id":"cebpf4jnsgd1na2vs0mg"},{"bike_id":"d4615020-93da-4d23-9ad0-e7c072693487","system_id":"levelo_inurba_marseille","lat":43.2987,"lon":5.374428,"is_reserved":false,"is_disabled":false,"rental_uris":{"android":"levelo://app?vid=d4615020-93da-4d23-9ad0-e7c072693487","ios":"levelo://app?vid=d4615020-93da-4d23-9ad0-e7c072693487"},"vehicle_type_id":"4","last_reported":1745305840,"current_range_meters":4000,"station_id":"ce4bgs92rcd13ifvqcc0","pricing_plan_id":"cebpf4jnsgd1na2vs0mg"},{"bike_id":"6f6369a9-7acf-448d-b3cf-bbe82c57bb49","system_id":"levelo_inurba_marseille","lat":43.28931,"lon":5.36414,"is_reserved":false,"is_disabled":false,"rental_uris":{"android":"levelo://app?vid=6f6369a9-7acf-448d-b3cf-bbe82c57bb49","ios":"levelo://app?vid=6f6369a9-7acf-448d-b3cf-bbe82c57bb49"},"vehicle_type_id":"4","last_reported":1745305840,"current_range_meters":4000,"station_id":"ce4bhc92rcd13ifvqetg","pricing_plan_id":"cebpf4jnsgd1na2vs0mg"},{"bike_id":"6d0b1e09-0778-4875-a9ec-ebd4ab3c5c71","system_id":"levelo_inurba_marseille","lat":43.2118,"lon":5.35079,"is_reserved":false,"is_disabled":true,"rental_uris":{"android":"levelo://app?vid=6d0b1e09-0778-4875-a9ec-ebd4ab3c5c71","ios":"levelo://app?vid=6d0b1e09-0778-4875-a9ec-ebd4ab3c5c71"},"vehicle_type_id":"4","last_reported":1745305840,"current_range_meters":4000,"station_id":"st_cvj6sg6p6f1abm77japg","pricing_plan_id":"cebpf4jnsgd1na2vs0mg"},{"bike_id":"709e6602-c1db-4884-a60a-f401057fb1f3","system_id":"levelo_inurba_marseille","lat":43.27945,"lon":5.41051,"is_reserved":false,"is_disabled":false,"rental_uris":{"android":"levelo://app?vid=709e6602-c1db-4884-a60a-f401057fb1f3","ios":"levelo://app?vid=709e6602-c1db-4884-a60a-f401057fb1f3"},"vehicle_type_id":"4","last_reported":1745305840,"current_range_meters":4000,"station_id":"ce4bhnp2rcd13ifvqh0g","pricing_plan_id":"cebpf4jnsgd1na2vs0mg"},{"bike_id":"9b05a036-ff30-4b3e-a978-ede4f47e67c0","system_id":"levelo_inurba_marseille","lat":43.26566,"lon":5.39011,"is_reserved":false,"is_disabled":true,"rental_uris":{"android":"levelo://app?vid=9b05a036-ff30-4b3e-a978-ede4f47e67c0","ios":"levelo://app?vid=9b05a036-ff30-4b3e-a978-ede4f47e67c0"},"vehicle_type_id":"4","last_reported":1745305840,"current_range_meters":4000,"station_id":"ce4bhe12rcd13ifvqf30","pricing_plan_id":"cebpf4jnsgd1na2vs0mg"},{"bike_id":"8375cd84-8776-4dbf-a2fd-f21a6066ce8d","system_id":"levelo_inurba_marseille","lat":43.25941,"lon":5.4089,"is_reserved":false,"is_disabled":false,"rental_uris":{"android":"levelo://app?vid=8375cd84-8776-4dbf-a2fd-f21a6066ce8d","ios":"levelo://app?vid=8375cd84-8776-4dbf-a2fd-f21a6066ce8d"},"vehicle_type_id":"4","last_reported":1745305840,"current_range_meters":4400,"station_id":"ce4bhm92rcd13ifvqglg","pricing_plan_id":"cebpf4jnsgd1na2vs0mg"},{"bike_id":"0bbb1424-41af-4c9d-8fce-6d5d6666dd73","system_id":"levelo_inurba_marseille","lat":43.298486,"lon":5.362822,"is_reserved":false,"is_disabled":true,"rental_uris":{"android":"levelo://app?vid=0bbb1424-41af-4c9d-8fce-6d5d6666dd73","ios":"levelo://app?vid=0bbb1424-41af-4c9d-8fce-6d5d6666dd73"},"vehicle_type_id":"4","last_reported":1745305840,"current_range_meters":4400,"station_id":"","pricing_plan_id":"cebpf4jnsgd1na2vs0mg"},{"bike_id":"7455defd-239d-4e2a-beac-17a966c6dea7","system_id":"levelo_inurba_marseille","lat":43.26779,"lon":5.39418,"is_reserved":false,"is_disabled":false,"rental_uris":{"android":"levelo://app?vid=7455defd-239d-4e2a-beac-17a966c6dea7","ios":"levelo://app?vid=7455defd-239d-4e2a-beac-17a966c6dea7"},"vehicle_type_id":"4","last_reported":1745305840,"current_range_meters":4800,"station_id":"ce4bhh12rcd13ifvqfg0","pricing_plan_id":"cebpf4jnsgd1na2vs0mg"},{"bike_id":"c323d574-0ab5-4582-a054-717ede87c6f2","system_id":"levelo_inurba_marseille","lat":43.3053,"lon":5.36708,"is_reserved":false,"is_disabled":false,"rental_uris":{"android":"levelo://app?vid=c323d574-0ab5-4582-a054-717ede87c6f2","ios":"levelo://app?vid=c323d574-0ab5-4582-a054-717ede87c6f2"},"vehicle_type_id":"4","last_reported":1745305840,"current_range_meters":4800,"station_id":"ce4bgrp2rcd13ifvqc9g","pricing_plan_id":"cebpf4jnsgd1na2vs0mg"},{"bike_id":"6366329f-f4d9-4b22-b82a-a3079f337534","system_id":"levelo_inurba_marseille","lat":43.30139,"lon":5.37405,"is_reserved":false,"is_disabled":false,"rental_uris":{"android":"levelo://app?vid=6366329f-f4d9-4b22-b82a-a3079f337534","ios":"levelo://app?vid=6366329f-f4d9-4b22-b82a-a3079f337534"},"vehicle_type_id":"4","last_reported":1745305840,"current_range_meters":4800,"station_id":"ce4bgs92rcd13ifvqcc0","pricing_plan_id":"cebpf4jnsgd1na2vs0mg"},{"bike_id":"ab970e7e-af30-4dc9-a65c-0224afc6a5f0","system_id":"levelo_inurba_marseille","lat":43.30546,"lon":5.36521,"is_reserved":false,"is_disabled":false,"rental_uris":{"android":"levelo://app?vid=ab970e7e-af30-4dc9-a65c-0224afc6a5f0","ios":"levelo://app?vid=ab970e7e-af30-4dc9-a65c-0224afc6a5f0"},"vehicle_type_id":"4","last_reported":1745305840,"current_range_meters":5600,"station_id":"ce4bgs12rcd13ifvqcag","pricing_plan_id":"cebpf4jnsgd1na2vs0mg"},{"bike_id":"06c2af78-c570-45ce-9bef-61304873f31c","system_id":"levelo_inurba_marseille","lat":43.31335,"lon":5.36718,"is_reserved":false,"is_disabled":false,"rental_uris":{"android":"levelo://app?vid=06c2af78-c570-45ce-9bef-61304873f31c","ios":"levelo://app?vid=06c2af78-c570-45ce-9bef-61304873f31c"},"vehicle_type_id":"4","last_reported":1745305840,"current_range_meters":5600,"station_id":"ce4bgr92rcd13ifvqc6g","pricing_plan_id":"cebpf4jnsgd1na2vs0mg"},{"bike_id":"738204f6-8f8b-4dd8-adbd-8c49be6d0c87","system_id":"levelo_inurba_marseille","lat":43.29225,"lon":5.36076,"is_reserved":false,"is_disabled":false,"rental_uris":{"android":"levelo://app?vid=738204f6-8f8b-4dd8-adbd-8c49be6d0c87","ios":"levelo://app?vid=738204f6-8f8b-4dd8-adbd-8c49be6d0c87"},"vehicle_type_id":"4","last_reported":1745305840,"current_range_meters":5600,"station_id":"ce4bhbh2rcd13ifvqeqg","pricing_plan_id":"cebpf4jnsgd1na2vs0mg"},{"bike_id":"244b935e-066c-44b1-a7ef-a86d596a004b","system_id":"levelo_inurba_marseille","lat":43.33605,"lon":5.41005,"is_reserved":false,"is_disabled":false,"rental_uris":{"android":"levelo://app?vid=244b935e-066c-44b1-a7ef-a86d596a004b","ios":"levelo://app?vid=244b935e-066c-44b1-a7ef-a86d596a004b"},"vehicle_type_id":"4","last_reported":1745305840,"current_range_meters":5600,"station_id":"ce4bhqh2rcd13ifvqhmg","pricing_plan_id":"cebpf4jnsgd1na2vs0mg"},{"bike_id":"f7de865b-0d50-4b2b-ba99-ea8c31179080","system_id":"levelo_inurba_marseille","lat":43.24061,"lon":5.37767,"is_reserved":false,"is_disabled":false,"rental_uris":{"android":"levelo://app?vid=f7de865b-0d50-4b2b-ba99-ea8c31179080","ios":"levelo://app?vid=f7de865b-0d50-4b2b-ba99-ea8c31179080"},"vehicle_type_id":"4","last_reported":1745305840,"current_range_meters":5600,"station_id":"ce4bhnp2rcd13ifvqgvg","pricing_plan_id":"cebpf4jnsgd1na2vs0mg"},{"bike_id":"233c1f3c-9603-452b-9ace-3428d0af39d5","system_id":"levelo_inurba_marseille","lat":43.25932,"lon":5.40911,"is_reserved":false,"is_disabled":true,"rental_uris":{"android":"levelo://app?vid=233c1f3c-9603-452b-9ace-3428d0af39d5","ios":"levelo://app?vid=233c1f3c-9603-452b-9ace-3428d0af39d5"},"vehicle_type_id":"4","last_reported":1745305840,"current_range_meters":6000,"station_id":"ce4bhm92rcd13ifvqglg","pricing_plan_id":"cebpf4jnsgd1na2vs0mg"},{"bike_id":"8c1ee62c-e753-4fd4-86a0-a5255e4945c1","system_id":"levelo_inurba_marseille","lat":43.301483,"lon":5.380867,"is_reserved":false,"is_disabled":false,"rental_uris":{"android":"levelo://app?vid=8c1ee62c-e753-4fd4-86a0-a5255e4945c1","ios":"levelo://app?vid=8c1ee62c-e753-4fd4-86a0-a5255e4945c1"},"vehicle_type_id":"4","last_reported":1745305840,"current_range_meters":2800,"station_id":"ce4bgjp2rcd13ifvqbh0","pricing_plan_id":"cebpf4jnsgd1na2vs0mg"},{"bike_id":"14814e23-e7ca-4cbd-ab62-fe28199760a7","system_id":"levelo_inurba_marseille","lat":43.31225,"lon":5.36863,"is_reserved":false,"is_disabled":false,"rental_uris":{"android":"levelo://app?vid=14814e23-e7ca-4cbd-ab62-fe28199760a7","ios":"levelo://app?vid=14814e23-e7ca-4cbd-ab62-fe28199760a7"},"vehicle_type_id":"4","last_reported":1745305840,"current_range_meters":6000,"station_id":"ce4bgl92rcd13ifvqbq0","pricing_plan_id":"cebpf4jnsgd1na2vs0mg"},{"bike_id":"2eae6397-3f35-48cb-91a4-97f36e4dda21","system_id":"levelo_inurba_marseille","lat":43.2178,"lon":5.345903,"is_reserved":false,"is_disabled":true,"rental_uris":{"android":"levelo://app?vid=2eae6397-3f35-48cb-91a4-97f36e4dda21","ios":"levelo://app?vid=2eae6397-3f35-48cb-91a4-97f36e4dda21"},"vehicle_type_id":"4","last_reported":1745305840,"current_range_meters":6400,"station_id":"","pricing_plan_id":"cebpf4jnsgd1na2vs0mg"},{"bike_id":"31486f1d-8805-45be-b087-c75ae90d331f","system_id":"levelo_inurba_marseille","lat":43.30535,"lon":5.36554,"is_reserved":false,"is_disabled":false,"rental_uris":{"android":"levelo://app?vid=31486f1d-8805-45be-b087-c75ae90d331f","ios":"levelo://app?vid=31486f1d-8805-45be-b087-c75ae90d331f"},"vehicle_type_id":"4","last_reported":1745305840,"current_range_meters":6400,"station_id":"ce4bgs12rcd13ifvqcag","pricing_plan_id":"cebpf4jnsgd1na2vs0mg"},{"bike_id":"dacb9310-ef47-42d4-82c3-6f67b29ded17","system_id":"levelo_inurba_marseille","lat":43.31982,"lon":5.3814,"is_reserved":false,"is_disabled":true,"rental_uris":{"android":"levelo://app?vid=dacb9310-ef47-42d4-82c3-6f67b29ded17","ios":"levelo://app?vid=dacb9310-ef47-42d4-82c3-6f67b29ded17"},"vehicle_type_id":"4","last_reported":1745305840,"current_range_meters":6800,"station_id":"ce4bhr12rcd13ifvqhpg","pricing_plan_id":"cebpf4jnsgd1na2vs0mg"},{"bike_id":"48d55899-905b-43e1-a984-4b5da6921506","system_id":"levelo_inurba_marseille","lat":43.29877,"lon":5.37416,"is_reserved":false,"is_disabled":false,"rental_uris":{"android":"levelo://app?vid=48d55899-905b-43e1-a984-4b5da6921506","ios":"levelo://app?vid=48d55899-905b-43e1-a984-4b5da6921506"},"vehicle_type_id":"4","last_reported":1745305840,"current_range_meters":6800,"station_id":"","pricing_plan_id":"cebpf4jnsgd1na2vs0mg"},{"bike_id":"6acb589b-6f7d-4773-9100-ca6c5a1df232","system_id":"levelo_inurba_marseille","lat":43.34146,"lon":5.4091,"is_reserved":false,"is_disabled":false,"rental_uris":{"android":"levelo://app?vid=6acb589b-6f7d-4773-9100-ca6c5a1df232","ios":"levelo://app?vid=6acb589b-6f7d-4773-9100-ca6c5a1df232"},"vehicle_type_id":"4","last_reported":1745305840,"current_range_meters":6800,"station_id":"ce4bhqh2rcd13ifvqhlg","pricing_plan_id":"cebpf4jnsgd1na2vs0mg"},{"bike_id":"08adba7b-eac3-4cfc-9923-2ccf0cc4ffef","system_id":"levelo_inurba_marseille","lat":43.24564,"lon":5.41315,"is_reserved":false,"is_disabled":false,"rental_uris":{"android":"levelo://app?vid=08adba7b-eac3-4cfc-9923-2ccf0cc4ffef","ios":"levelo://app?vid=08adba7b-eac3-4cfc-9923-2ccf0cc4ffef"},"vehicle_type_id":"4","last_reported":1745305840,"current_range_meters":6800,"station_id":"","pricing_plan_id":"cebpf4jnsgd1na2vs0mg"},{"bike_id":"c9e7d843-e6fc-45bd-bc54-0b308cb33e79","system_id":"levelo_inurba_marseille","lat":43.25716,"lon":5.41116,"is_reserved":false,"is_disabled":false,"rental_uris":{"android":"levelo://app?vid=c9e7d843-e6fc-45bd-bc54-0b308cb33e79","ios":"levelo://app?vid=c9e7d843-e6fc-45bd-bc54-0b308cb33e79"},"vehicle_type_id":"4","last_reported":1745305840,"current_range_meters":6800,"station_id":"ce4bhkp2rcd13ifvqgd0","pricing_plan_id":"cebpf4jnsgd1na2vs0mg"},{"bike_id":"af586e94-4d03-4512-8548-804fd656c6da","system_id":"levelo_inurba_marseille","lat":43.26576,"lon":5.3904,"is_reserved":false,"is_disabled":false,"rental_uris":{"android":"levelo://app?vid=af586e94-4d03-4512-8548-804fd656c6da","ios":"levelo://app?vid=af586e94-4d03-4512-8548-804fd656c6da"},"vehicle_type_id":"4","last_reported":1745305840,"current_range_meters":6800,"station_id":"ce4bhe12rcd13ifvqf30","pricing_plan_id":"cebpf4jnsgd1na2vs0mg"},{"bike_id":"fdaa5725-ca39-49a7-a9cd-96b6eb72b7e3","system_id":"levelo_inurba_marseille","lat":43.32481,"lon":5.3656,"is_reserved":false,"is_disabled":false,"rental_uris":{"android":"levelo://app?vid=fdaa5725-ca39-49a7-a9cd-96b6eb72b7e3","ios":"levelo://app?vid=fdaa5725-ca39-49a7-a9cd-96b6eb72b7e3"},"vehicle_type_id":"4","last_reported":1745305840,"current_range_meters":6800,"station_id":"ce4bhs12rcd13ifvqhvg","pricing_plan_id":"cebpf4jnsgd1na2vs0mg"},{"bike_id":"15ee9b68-5b8d-4ba9-9fcb-2f0ac9b54f62","system_id":"levelo_inurba_marseille","lat":43.27072,"lon":5.4228,"is_reserved":false,"is_disabled":false,"rental_uris":{"android":"levelo://app?vid=15ee9b68-5b8d-4ba9-9fcb-2f0ac9b54f62","ios":"levelo://app?vid=15ee9b68-5b8d-4ba9-9fcb-2f0ac9b54f62"},"vehicle_type_id":"4","last_reported":1745305840,"current_range_meters":6800,"station_id":"ce4bhk92rcd13ifvqgb0","pricing_plan_id":"cebpf4jnsgd1na2vs0mg"},{"bike_id":"b025dbf8-36e8-483d-ad6b-b558d54b86cc","system_id":"levelo_inurba_marseille","lat":43.26217,"lon":5.40497,"is_reserved":false,"is_disabled":false,"rental_uris":{"android":"levelo://app?vid=b025dbf8-36e8-483d-ad6b-b558d54b86cc","ios":"levelo://app?vid=b025dbf8-36e8-483d-ad6b-b558d54b86cc"},"vehicle_type_id":"4","last_reported":1745305840,"current_range_meters":6800,"station_id":"ce4bhmh2rcd13ifvqgmg","pricing_plan_id":"cebpf4jnsgd1na2vs0mg"},{"bike_id":"eddf388e-8873-45ba-ad33-881fd27c608c","system_id":"levelo_inurba_marseille","lat":43.29286,"lon":5.37448,"is_reserved":false,"is_disabled":true,"rental_uris":{"android":"levelo://app?vid=eddf388e-8873-45ba-ad33-881fd27c608c","ios":"levelo://app?vid=eddf388e-8873-45ba-ad33-881fd27c608c"},"vehicle_type_id":"4","last_reported":1745305840,"current_range_meters":6800,"station_id":"ce4bgi12rcd13ifvqb70","pricing_plan_id":"cebpf4jnsgd1na2vs0mg"},{"bike_id":"998962b5-e87a-4aff-9b11-bfc8782aa762","system_id":"levelo_inurba_marseille","lat":43.23152,"lon":5.43708,"is_reserved":false,"is_disabled":false,"rental_uris":{"android":"levelo://app?vid=998962b5-e87a-4aff-9b11-bfc8782aa762","ios":"levelo://app?vid=998962b5-e87a-4aff-9b11-bfc8782aa762"},"vehicle_type_id":"4","last_reported":1745305840,"current_range_meters":6800,"station_id":"ce4bhmp2rcd13ifvqgog","pricing_plan_id":"cebpf4jnsgd1na2vs0mg"},{"bike_id":"71551676-8180-4eb6-9002-014f4759bfdb","system_id":"levelo_inurba_marseille","lat":43.28937,"lon":5.39637,"is_reserved":false,"is_disabled":false,"rental_uris":{"android":"levelo://app?vid=71551676-8180-4eb6-9002-014f4759bfdb","ios":"levelo://app?vid=71551676-8180-4eb6-9002-014f4759bfdb"},"vehicle_type_id":"4","last_reported":1745305840,"current_range_meters":6400,"station_id":"ce4bh3h2rcd13ifvqdn0","pricing_plan_id":"cebpf4jnsgd1na2vs0mg"},{"bike_id":"7a9e93f3-14c8-4ff5-b6ce-f66a16d9a59e","system_id":"levelo_inurba_marseille","lat":43.26947,"lon":5.38629,"is_reserved":false,"is_disabled":false,"rental_uris":{"android":"levelo://app?vid=7a9e93f3-14c8-4ff5-b6ce-f66a16d9a59e","ios":"levelo://app?vid=7a9e93f3-14c8-4ff5-b6ce-f66a16d9a59e"},"vehicle_type_id":"4","last_reported":1745305840,"current_range_meters":7200,"station_id":"ce4bhh92rcd13ifvqfh0","pricing_plan_id":"cebpf4jnsgd1na2vs0mg"},{"bike_id":"841fcf56-aca3-46be-bd84-cd7d4fe64498","system_id":"levelo_inurba_marseille","lat":43.28984,"lon":5.37836,"is_reserved":false,"is_disabled":false,"rental_uris":{"android":"levelo://app?vid=841fcf56-aca3-46be-bd84-cd7d4fe64498","ios":"levelo://app?vid=841fcf56-aca3-46be-bd84-cd7d4fe64498"},"vehicle_type_id":"4","last_reported":1745305840,"current_range_meters":6400,"station_id":"ce4bh9p2rcd13ifvqed0","pricing_plan_id":"cebpf4jnsgd1na2vs0mg"},{"bike_id":"39fa0447-b915-4d32-b1c5-df324dda8a4b","system_id":"levelo_inurba_marseille","lat":43.2749,"lon":5.42461,"is_reserved":false,"is_disabled":false,"rental_uris":{"android":"levelo://app?vid=39fa0447-b915-4d32-b1c5-df324dda8a4b","ios":"levelo://app?vid=39fa0447-b915-4d32-b1c5-df324dda8a4b"},"vehicle_type_id":"4","last_reported":1745305840,"current_range_meters":7200,"station_id":"ce4bhn92rcd13ifvqgrg","pricing_plan_id":"cebpf4jnsgd1na2vs0mg"},{"bike_id":"a52f9b74-9fd0-4567-be14-b8d8ebbfe417","system_id":"levelo_inurba_marseille","lat":43.29863,"lon":5.39727,"is_reserved":false,"is_disabled":false,"rental_uris":{"android":"levelo://app?vid=a52f9b74-9fd0-4567-be14-b8d8ebbfe417","ios":"levelo://app?vid=a52f9b74-9fd0-4567-be14-b8d8ebbfe417"},"vehicle_type_id":"4","last_reported":1745305840,"current_range_meters":6000,"station_id":"ce4bh0h2rcd13ifvqd50","pricing_plan_id":"cebpf4jnsgd1na2vs0mg"},{"bike_id":"5b9fc0fe-048a-42e5-9bb4-5b16e57afd9e","system_id":"levelo_inurba_marseille","lat":43.290676,"lon":5.371599,"is_reserved":false,"is_disabled":false,"rental_uris":{"android":"levelo://app?vid=5b9fc0fe-048a-42e5-9bb4-5b16e57afd9e","ios":"levelo://app?vid=5b9fc0fe-048a-42e5-9bb4-5b16e57afd9e"},"vehicle_type_id":"4","last_reported":1745305840,"current_range_meters":7200,"station_id":"ce4bh5p2rcd13ifvqe4g","pricing_plan_id":"cebpf4jnsgd1na2vs0mg"},{"bike_id":"f3f9cdb9-e31d-4c23-922b-4c8bc6ea6712","system_id":"levelo_inurba_marseille","lat":43.240829,"lon":5.377372,"is_reserved":false,"is_disabled":true,"rental_uris":{"android":"levelo://app?vid=f3f9cdb9-e31d-4c23-922b-4c8bc6ea6712","ios":"levelo://app?vid=f3f9cdb9-e31d-4c23-922b-4c8bc6ea6712"},"vehicle_type_id":"4","last_reported":1745305840,"current_range_meters":8000,"station_id":"ce4bhnp2rcd13ifvqgvg","pricing_plan_id":"cebpf4jnsgd1na2vs0mg"},{"bike_id":"80349d4c-4a0e-48a3-a927-7fee52468c5c","system_id":"levelo_inurba_marseille","lat":43.32364,"lon":5.3676,"is_reserved":false,"is_disabled":false,"rental_uris":{"android":"levelo://app?vid=80349d4c-4a0e-48a3-a927-7fee52468c5c","ios":"levelo://app?vid=80349d4c-4a0e-48a3-a927-7fee52468c5c"},"vehicle_type_id":"4","last_reported":1745305840,"current_range_meters":8000,"station_id":"ce4bhsh2rcd13ifvqi2g","pricing_plan_id":"cebpf4jnsgd1na2vs0mg"},{"bike_id":"a830789b-33aa-4925-99eb-ef31e10123e5","system_id":"levelo_inurba_marseille","lat":43.2833,"lon":5.38114,"is_reserved":false,"is_disabled":false,"rental_uris":{"android":"levelo://app?vid=a830789b-33aa-4925-99eb-ef31e10123e5","ios":"levelo://app?vid=a830789b-33aa-4925-99eb-ef31e10123e5"},"vehicle_type_id":"4","last_reported":1745305840,"current_range_meters":8000,"station_id":"ce4bh412rcd13ifvqdr0","pricing_plan_id":"cebpf4jnsgd1na2vs0mg"},{"bike_id":"6fd03af9-7c6e-4b0a-b29f-3c73b47dd294","system_id":"levelo_inurba_marseille","lat":43.28707,"lon":5.39979,"is_reserved":false,"is_disabled":true,"rental_uris":{"android":"levelo://app?vid=6fd03af9-7c6e-4b0a-b29f-3c73b47dd294","ios":"levelo://app?vid=6fd03af9-7c6e-4b0a-b29f-3c73b47dd294"},"vehicle_type_id":"4","last_reported":1745305840,"current_range_meters":8000,"station_id":"ce4bho92rcd13ifvqh3g","pricing_plan_id":"cebpf4jnsgd1na2vs0mg"},{"bike_id":"b9dca5bb-da7a-4595-b834-d5572efaa78c","system_id":"levelo_inurba_marseille","lat":43.27085,"lon":5.42256,"is_reserved":false,"is_disabled":true,"rental_uris":{"android":"levelo://app?vid=b9dca5bb-da7a-4595-b834-d5572efaa78c","ios":"levelo://app?vid=b9dca5bb-da7a-4595-b834-d5572efaa78c"},"vehicle_type_id":"4","last_reported":1745305840,"current_range_meters":8000,"station_id":"ce4bhk92rcd13ifvqgb0","pricing_plan_id":"cebpf4jnsgd1na2vs0mg"},{"bike_id":"e4c6b87b-eb88-4940-a92a-12c20f4641be","system_id":"levelo_inurba_marseille","lat":43.30304,"lon":5.36892,"is_reserved":false,"is_disabled":false,"rental_uris":{"android":"levelo://app?vid=e4c6b87b-eb88-4940-a92a-12c20f4641be","ios":"levelo://app?vid=e4c6b87b-eb88-4940-a92a-12c20f4641be"},"vehicle_type_id":"4","last_reported":1745305840,"current_range_meters":8000,"station_id":"ce4bgqh2rcd13ifvqc5g","pricing_plan_id":"cebpf4jnsgd1na2vs0mg"},{"bike_id":"34166cb2-24d1-48d4-88e5-65264e3a037d","system_id":"levelo_inurba_marseille","lat":43.31032,"lon":5.371,"is_reserved":false,"is_disabled":false,"rental_uris":{"android":"levelo://app?vid=34166cb2-24d1-48d4-88e5-65264e3a037d","ios":"levelo://app?vid=34166cb2-24d1-48d4-88e5-65264e3a037d"},"vehicle_type_id":"4","last_reported":1745305840,"current_range_meters":8000,"station_id":"","pricing_plan_id":"cebpf4jnsgd1na2vs0mg"},{"bike_id":"d3faec01-3223-4a4a-8518-bef381ec2d2e","system_id":"levelo_inurba_marseille","lat":43.30142,"lon":5.38109,"is_reserved":false,"is_disabled":true,"rental_uris":{"android":"levelo://app?vid=d3faec01-3223-4a4a-8518-bef381ec2d2e","ios":"levelo://app?vid=d3faec01-3223-4a4a-8518-bef381ec2d2e"},"vehicle_type_id":"4","last_reported":1745305840,"current_range_meters":8000,"station_id":"ce4bgjp2rcd13ifvqbh0","pricing_plan_id":"cebpf4jnsgd1na2vs0mg"},{"bike_id":"fed5d872-a190-4a9e-9cbb-cb28755be28e","system_id":"levelo_inurba_marseille","lat":43.25719,"lon":5.41114,"is_reserved":false,"is_disabled":false,"rental_uris":{"android":"levelo://app?vid=fed5d872-a190-4a9e-9cbb-cb28755be28e","ios":"levelo://app?vid=fed5d872-a190-4a9e-9cbb-cb28755be28e"},"vehicle_type_id":"4","last_reported":1745305840,"current_range_meters":8000,"station_id":"ce4bhkp2rcd13ifvqgd0","pricing_plan_id":"cebpf4jnsgd1na2vs0mg"},{"bike_id":"1eefdb70-f50e-4ba8-a3c9-f275b947e40e","system_id":"levelo_inurba_marseille","lat":43.27486,"lon":5.42458,"is_reserved":false,"is_disabled":false,"rental_uris":{"android":"levelo://app?vid=1eefdb70-f50e-4ba8-a3c9-f275b947e40e","ios":"levelo://app?vid=1eefdb70-f50e-4ba8-a3c9-f275b947e40e"},"vehicle_type_id":"4","last_reported":1745305840,"current_range_meters":8000,"station_id":"ce4bhn92rcd13ifvqgrg","pricing_plan_id":"cebpf4jnsgd1na2vs0mg"},{"bike_id":"97289f02-f39a-4953-b9db-e2f8c34ba04f","system_id":"levelo_inurba_marseille","lat":43.25939,"lon":5.40904,"is_reserved":false,"is_disabled":false,"rental_uris":{"android":"levelo://app?vid=97289f02-f39a-4953-b9db-e2f8c34ba04f","ios":"levelo://app?vid=97289f02-f39a-4953-b9db-e2f8c34ba04f"},"vehicle_type_id":"4","last_reported":1745305840,"current_range_meters":8000,"station_id":"ce4bhm92rcd13ifvqglg","pricing_plan_id":"cebpf4jnsgd1na2vs0mg"},{"bike_id":"89cfd28b-0c7c-4079-955f-194e937acbb9","system_id":"levelo_inurba_marseille","lat":43.29963,"lon":5.36344,"is_reserved":false,"is_disabled":false,"rental_uris":{"android":"levelo://app?vid=89cfd28b-0c7c-4079-955f-194e937acbb9","ios":"levelo://app?vid=89cfd28b-0c7c-4079-955f-194e937acbb9"},"vehicle_type_id":"4","last_reported":1745305840,"current_range_meters":8000,"station_id":"","pricing_plan_id":"cebpf4jnsgd1na2vs0mg"},{"bike_id":"fbb26b58-f767-46d6-bd15-8234ced2f083","system_id":"levelo_inurba_marseille","lat":43.31489,"lon":5.37314,"is_reserved":false,"is_disabled":false,"rental_uris":{"android":"levelo://app?vid=fbb26b58-f767-46d6-bd15-8234ced2f083","ios":"levelo://app?vid=fbb26b58-f767-46d6-bd15-8234ced2f083"},"vehicle_type_id":"4","last_reported":1745305840,"current_range_meters":8400,"station_id":"ce4bgt12rcd13ifvqcd0","pricing_plan_id":"cebpf4jnsgd1na2vs0mg"},{"bike_id":"55d9e67a-9573-4a45-b33a-e811aed6f0c4","system_id":"levelo_inurba_marseille","lat":43.30463,"lon":5.37909,"is_reserved":false,"is_disabled":false,"rental_uris":{"android":"levelo://app?vid=55d9e67a-9573-4a45-b33a-e811aed6f0c4","ios":"levelo://app?vid=55d9e67a-9573-4a45-b33a-e811aed6f0c4"},"vehicle_type_id":"4","last_reported":1745305840,"current_range_meters":2000,"station_id":"ce4bgup2rcd13ifvqcn0","pricing_plan_id":"cebpf4jnsgd1na2vs0mg"},{"bike_id":"a7ae4083-9696-425f-b1bb-42ed130f74b6","system_id":"levelo_inurba_marseille","lat":43.298645,"lon":5.397428,"is_reserved":false,"is_disabled":false,"rental_uris":{"android":"levelo://app?vid=a7ae4083-9696-425f-b1bb-42ed130f74b6","ios":"levelo://app?vid=a7ae4083-9696-425f-b1bb-42ed130f74b6"},"vehicle_type_id":"4","last_reported":1745305840,"current_range_meters":8400,"station_id":"ce4bhqh2rcd13ifvqhmg","pricing_plan_id":"cebpf4jnsgd1na2vs0mg"},{"bike_id":"474335e8-d828-4805-a07d-f2520f884378","system_id":"levelo_inurba_marseille","lat":43.29524,"lon":5.39035,"is_reserved":false,"is_disabled":false,"rental_uris":{"android":"levelo://app?vid=474335e8-d828-4805-a07d-f2520f884378","ios":"levelo://app?vid=474335e8-d828-4805-a07d-f2520f884378"},"vehicle_type_id":"4","last_reported":1745305840,"current_range_meters":7200,"station_id":"","pricing_plan_id":"cebpf4jnsgd1na2vs0mg"},{"bike_id":"f84aeb92-bc88-468c-8e91-798d331a8e11","system_id":"levelo_inurba_marseille","lat":43.32453,"lon":5.36569,"is_reserved":false,"is_disabled":false,"rental_uris":{"android":"levelo://app?vid=f84aeb92-bc88-468c-8e91-798d331a8e11","ios":"levelo://app?vid=f84aeb92-bc88-468c-8e91-798d331a8e11"},"vehicle_type_id":"4","last_reported":1745305840,"current_range_meters":8800,"station_id":"ce4bhs12rcd13ifvqhvg","pricing_plan_id":"cebpf4jnsgd1na2vs0mg"},{"bike_id":"afedb4a2-2d4c-48b8-ab87-145e4a55df0f","system_id":"levelo_inurba_marseille","lat":43.2749,"lon":5.42455,"is_reserved":false,"is_disabled":true,"rental_uris":{"android":"levelo://app?vid=afedb4a2-2d4c-48b8-ab87-145e4a55df0f","ios":"levelo://app?vid=afedb4a2-2d4c-48b8-ab87-145e4a55df0f"},"vehicle_type_id":"4","last_reported":1745305840,"current_range_meters":8800,"station_id":"ce4bhn92rcd13ifvqgrg","pricing_plan_id":"cebpf4jnsgd1na2vs0mg"},{"bike_id":"1c755526-7610-4241-9257-348acde561d3","system_id":"levelo_inurba_marseille","lat":43.24874,"lon":5.38201,"is_reserved":false,"is_disabled":false,"rental_uris":{"android":"levelo://app?vid=1c755526-7610-4241-9257-348acde561d3","ios":"levelo://app?vid=1c755526-7610-4241-9257-348acde561d3"},"vehicle_type_id":"4","last_reported":1745305840,"current_range_meters":8800,"station_id":"","pricing_plan_id":"cebpf4jnsgd1na2vs0mg"},{"bike_id":"3fec4cdb-b119-4e0a-8c33-3fb203c5ef64","system_id":"levelo_inurba_marseille","lat":43.27573,"lon":5.3841,"is_reserved":false,"is_disabled":false,"rental_uris":{"android":"levelo://app?vid=3fec4cdb-b119-4e0a-8c33-3fb203c5ef64","ios":"levelo://app?vid=3fec4cdb-b119-4e0a-8c33-3fb203c5ef64"},"vehicle_type_id":"4","last_reported":1745305840,"current_range_meters":8800,"station_id":"ce4bhh92rcd13ifvqfi0","pricing_plan_id":"cebpf4jnsgd1na2vs0mg"},{"bike_id":"4daf293c-27fa-4fd3-9732-b781377f0dd2","system_id":"levelo_inurba_marseille","lat":43.3153,"lon":5.38036,"is_reserved":false,"is_disabled":true,"rental_uris":{"android":"levelo://app?vid=4daf293c-27fa-4fd3-9732-b781377f0dd2","ios":"levelo://app?vid=4daf293c-27fa-4fd3-9732-b781377f0dd2"},"vehicle_type_id":"4","last_reported":1745305840,"current_range_meters":8800,"station_id":"ce4bhsp2rcd13ifvqi50","pricing_plan_id":"cebpf4jnsgd1na2vs0mg"},{"bike_id":"0cc7f4c1-0369-4594-8a37-765d15da624f","system_id":"levelo_inurba_marseille","lat":43.274985,"lon":5.424555,"is_reserved":false,"is_disabled":false,"rental_uris":{"android":"levelo://app?vid=0cc7f4c1-0369-4594-8a37-765d15da624f","ios":"levelo://app?vid=0cc7f4c1-0369-4594-8a37-765d15da624f"},"vehicle_type_id":"4","last_reported":1745305840,"current_range_meters":8800,"station_id":"ce4bhn92rcd13ifvqgrg","pricing_plan_id":"cebpf4jnsgd1na2vs0mg"},{"bike_id":"fe8b594a-1525-4084-8e05-931f2d1c230a","system_id":"levelo_inurba_marseille","lat":43.28409,"lon":5.3871,"is_reserved":false,"is_disabled":false,"rental_uris":{"android":"levelo://app?vid=fe8b594a-1525-4084-8e05-931f2d1c230a","ios":"levelo://app?vid=fe8b594a-1525-4084-8e05-931f2d1c230a"},"vehicle_type_id":"4","last_reported":1745305840,"current_range_meters":8800,"station_id":"ce4bh492rcd13ifvqdvg","pricing_plan_id":"cebpf4jnsgd1na2vs0mg"},{"bike_id":"6efbea2d-5eb1-4a4a-8c84-47a375f78190","system_id":"levelo_inurba_marseille","lat":43.29861,"lon":5.38924,"is_reserved":false,"is_disabled":true,"rental_uris":{"android":"levelo://app?vid=6efbea2d-5eb1-4a4a-8c84-47a375f78190","ios":"levelo://app?vid=6efbea2d-5eb1-4a4a-8c84-47a375f78190"},"vehicle_type_id":"4","last_reported":1745305840,"current_range_meters":9200,"station_id":"ce4bh392rcd13ifvqdl0","pricing_plan_id":"cebpf4jnsgd1na2vs0mg"},{"bike_id":"f98ee5c5-c089-43b6-ada2-477d964145e1","system_id":"levelo_inurba_marseille","lat":43.28922,"lon":5.38394,"is_reserved":false,"is_disabled":false,"rental_uris":{"android":"levelo://app?vid=f98ee5c5-c089-43b6-ada2-477d964145e1","ios":"levelo://app?vid=f98ee5c5-c089-43b6-ada2-477d964145e1"},"vehicle_type_id":"4","last_reported":1745305840,"current_range_meters":9200,"station_id":"ce4bh612rcd13ifvqe6g","pricing_plan_id":"cebpf4jnsgd1na2vs0mg"},{"bike_id":"5cfe6c39-60fa-4eaf-a34b-c3cc08587788","system_id":"levelo_inurba_marseille","lat":43.24385,"lon":5.37067,"is_reserved":false,"is_disabled":false,"rental_uris":{"android":"levelo://app?vid=5cfe6c39-60fa-4eaf-a34b-c3cc08587788","ios":"levelo://app?vid=5cfe6c39-60fa-4eaf-a34b-c3cc08587788"},"vehicle_type_id":"4","last_reported":1745305840,"current_range_meters":9200,"station_id":"ce4bhhh2rcd13ifvqfk0","pricing_plan_id":"cebpf4jnsgd1na2vs0mg"},{"bike_id":"066cfa18-cbe9-49a9-a6ec-50561dbad67e","system_id":"levelo_inurba_marseille","lat":43.25496,"lon":5.3765,"is_reserved":false,"is_disabled":false,"rental_uris":{"android":"levelo://app?vid=066cfa18-cbe9-49a9-a6ec-50561dbad67e","ios":"levelo://app?vid=066cfa18-cbe9-49a9-a6ec-50561dbad67e"},"vehicle_type_id":"4","last_reported":1745305840,"current_range_meters":9200,"station_id":"ce4bhh12rcd13ifvqff0","pricing_plan_id":"cebpf4jnsgd1na2vs0mg"},{"bike_id":"f84d09f7-73fc-400d-8934-1eb3550cf614","system_id":"levelo_inurba_marseille","lat":43.33587,"lon":5.40959,"is_reserved":false,"is_disabled":false,"rental_uris":{"android":"levelo://app?vid=f84d09f7-73fc-400d-8934-1eb3550cf614","ios":"levelo://app?vid=f84d09f7-73fc-400d-8934-1eb3550cf614"},"vehicle_type_id":"4","last_reported":1745305840,"current_range_meters":2800,"station_id":"","pricing_plan_id":"cebpf4jnsgd1na2vs0mg"},{"bike_id":"26c36a85-b7a6-4b79-acea-78a0d98d73d3","system_id":"levelo_inurba_marseille","lat":43.32481,"lon":5.36569,"is_reserved":false,"is_disabled":false,"rental_uris":{"android":"levelo://app?vid=26c36a85-b7a6-4b79-acea-78a0d98d73d3","ios":"levelo://app?vid=26c36a85-b7a6-4b79-acea-78a0d98d73d3"},"vehicle_type_id":"4","last_reported":1745305840,"current_range_meters":9600,"station_id":"ce4bhs12rcd13ifvqhvg","pricing_plan_id":"cebpf4jnsgd1na2vs0mg"},{"bike_id":"2d89b73f-4ea8-4684-8537-0d0236c59608","system_id":"levelo_inurba_marseille","lat":43.31336,"lon":5.39732,"is_reserved":false,"is_disabled":false,"rental_uris":{"android":"levelo://app?vid=2d89b73f-4ea8-4684-8537-0d0236c59608","ios":"levelo://app?vid=2d89b73f-4ea8-4684-8537-0d0236c59608"},"vehicle_type_id":"4","last_reported":1745305840,"current_range_meters":9600,"station_id":"ce4bgvp2rcd13ifvqcu0","pricing_plan_id":"cebpf4jnsgd1na2vs0mg"},{"bike_id":"ae6aafd1-d3ae-437f-9dcd-c9175311dab7","system_id":"levelo_inurba_marseille","lat":43.2799,"lon":5.400025,"is_reserved":false,"is_disabled":false,"rental_uris":{"android":"levelo://app?vid=ae6aafd1-d3ae-437f-9dcd-c9175311dab7","ios":"levelo://app?vid=ae6aafd1-d3ae-437f-9dcd-c9175311dab7"},"vehicle_type_id":"4","last_reported":1745305840,"current_range_meters":10000,"station_id":"ce4bho92rcd13ifvqh4g","pricing_plan_id":"cebpf4jnsgd1na2vs0mg"},{"bike_id":"ea8dd40d-d1c9-495b-acb7-79fe81df74e2","system_id":"levelo_inurba_marseille","lat":43.28722,"lon":5.39993,"is_reserved":false,"is_disabled":true,"rental_uris":{"android":"levelo://app?vid=ea8dd40d-d1c9-495b-acb7-79fe81df74e2","ios":"levelo://app?vid=ea8dd40d-d1c9-495b-acb7-79fe81df74e2"},"vehicle_type_id":"4","last_reported":1745305840,"current_range_meters":10000,"station_id":"ce4bho92rcd13ifvqh3g","pricing_plan_id":"cebpf4jnsgd1na2vs0mg"},{"bike_id":"96178f3b-5e1d-4641-af44-af76a97ad02b","system_id":"levelo_inurba_marseille","lat":43.30372,"lon":5.4248,"is_reserved":false,"is_disabled":false,"rental_uris":{"android":"levelo://app?vid=96178f3b-5e1d-4641-af44-af76a97ad02b","ios":"levelo://app?vid=96178f3b-5e1d-4641-af44-af76a97ad02b"},"vehicle_type_id":"4","last_reported":1745305840,"current_range_meters":10000,"station_id":"ce4bhoh2rcd13ifvqh6g","pricing_plan_id":"cebpf4jnsgd1na2vs0mg"},{"bike_id":"8d752f18-25a3-477c-ab63-d81aa9dc395d","system_id":"levelo_inurba_marseille","lat":43.25944,"lon":5.40899,"is_reserved":false,"is_disabled":false,"rental_uris":{"android":"levelo://app?vid=8d752f18-25a3-477c-ab63-d81aa9dc395d","ios":"levelo://app?vid=8d752f18-25a3-477c-ab63-d81aa9dc395d"},"vehicle_type_id":"4","last_reported":1745305840,"current_range_meters":10000,"station_id":"ce4bhm92rcd13ifvqglg","pricing_plan_id":"cebpf4jnsgd1na2vs0mg"},{"bike_id":"0ddec75f-fc8b-441e-bca0-14696acf7b2a","system_id":"levelo_inurba_marseille","lat":43.26786,"lon":5.39416,"is_reserved":false,"is_disabled":false,"rental_uris":{"android":"levelo://app?vid=0ddec75f-fc8b-441e-bca0-14696acf7b2a","ios":"levelo://app?vid=0ddec75f-fc8b-441e-bca0-14696acf7b2a"},"vehicle_type_id":"4","last_reported":1745305840,"current_range_meters":10000,"station_id":"ce4bhh12rcd13ifvqfg0","pricing_plan_id":"cebpf4jnsgd1na2vs0mg"},{"bike_id":"46c7040a-90d9-471e-9741-4cd0b5916360","system_id":"levelo_inurba_marseille","lat":43.33607,"lon":5.4102,"is_reserved":false,"is_disabled":false,"rental_uris":{"android":"levelo://app?vid=46c7040a-90d9-471e-9741-4cd0b5916360","ios":"levelo://app?vid=46c7040a-90d9-471e-9741-4cd0b5916360"},"vehicle_type_id":"4","last_reported":1745305840,"current_range_meters":10800,"station_id":"ce4bhqh2rcd13ifvqhmg","pricing_plan_id":"cebpf4jnsgd1na2vs0mg"},{"bike_id":"22ad8cd8-448d-4f6e-b2fe-740f8d592dd7","system_id":"levelo_inurba_marseille","lat":43.33772,"lon":5.37431,"is_reserved":false,"is_disabled":false,"rental_uris":{"android":"levelo://app?vid=22ad8cd8-448d-4f6e-b2fe-740f8d592dd7","ios":"levelo://app?vid=22ad8cd8-448d-4f6e-b2fe-740f8d592dd7"},"vehicle_type_id":"4","last_reported":1745305840,"current_range_meters":10800,"station_id":"","pricing_plan_id":"cebpf4jnsgd1na2vs0mg"},{"bike_id":"2dc4e79a-33a8-48b0-bf03-f6328f1dc1f6","system_id":"levelo_inurba_marseille","lat":43.32371,"lon":5.38888,"is_reserved":false,"is_disabled":true,"rental_uris":{"android":"levelo://app?vid=2dc4e79a-33a8-48b0-bf03-f6328f1dc1f6","ios":"levelo://app?vid=2dc4e79a-33a8-48b0-bf03-f6328f1dc1f6"},"vehicle_type_id":"4","last_reported":1745305840,"current_range_meters":10800,"station_id":"ce4bhqp2rcd13ifvqhog","pricing_plan_id":"cebpf4jnsgd1na2vs0mg"},{"bike_id":"60233ea3-89a8-4189-a4a0-776d2e44aa03","system_id":"levelo_inurba_marseille","lat":43.27492,"lon":5.42454,"is_reserved":false,"is_disabled":false,"rental_uris":{"android":"levelo://app?vid=60233ea3-89a8-4189-a4a0-776d2e44aa03","ios":"levelo://app?vid=60233ea3-89a8-4189-a4a0-776d2e44aa03"},"vehicle_type_id":"4","last_reported":1745305840,"current_range_meters":10800,"station_id":"ce4bhn92rcd13ifvqgrg","pricing_plan_id":"cebpf4jnsgd1na2vs0mg"},{"bike_id":"dd423d91-14d8-49a9-a870-2255b68945c9","system_id":"levelo_inurba_marseille","lat":43.295807,"lon":5.367347,"is_reserved":false,"is_disabled":false,"rental_uris":{"android":"levelo://app?vid=dd423d91-14d8-49a9-a870-2255b68945c9","ios":"levelo://app?vid=dd423d91-14d8-49a9-a870-2255b68945c9"},"vehicle_type_id":"4","last_reported":1745305840,"current_range_meters":10800,"station_id":"ce4bgjh2rcd13ifvqbg0","pricing_plan_id":"cebpf4jnsgd1na2vs0mg"},{"bike_id":"9ccc8b53-6188-42c7-91fc-d912de29febc","system_id":"levelo_inurba_marseille","lat":43.30949,"lon":5.39035,"is_reserved":false,"is_disabled":false,"rental_uris":{"android":"levelo://app?vid=9ccc8b53-6188-42c7-91fc-d912de29febc","ios":"levelo://app?vid=9ccc8b53-6188-42c7-91fc-d912de29febc"},"vehicle_type_id":"4","last_reported":1745305840,"current_range_meters":11200,"station_id":"ce4bgup2rcd13ifvqco0","pricing_plan_id":"cebpf4jnsgd1na2vs0mg"},{"bike_id":"d48a7abe-f076-40b1-9426-3208556bfcad","system_id":"levelo_inurba_marseille","lat":43.24086,"lon":5.37757,"is_reserved":false,"is_disabled":false,"rental_uris":{"android":"levelo://app?vid=d48a7abe-f076-40b1-9426-3208556bfcad","ios":"levelo://app?vid=d48a7abe-f076-40b1-9426-3208556bfcad"},"vehicle_type_id":"4","last_reported":1745305840,"current_range_meters":11200,"station_id":"ce4bhnp2rcd13ifvqgvg","pricing_plan_id":"cebpf4jnsgd1na2vs0mg"},{"bike_id":"57f7b582-4b24-4c71-b7c7-b6f27f52f117","system_id":"levelo_inurba_marseille","lat":43.27492,"lon":5.42451,"is_reserved":false,"is_disabled":false,"rental_uris":{"android":"levelo://app?vid=57f7b582-4b24-4c71-b7c7-b6f27f52f117","ios":"levelo://app?vid=57f7b582-4b24-4c71-b7c7-b6f27f52f117"},"vehicle_type_id":"4","last_reported":1745305840,"current_range_meters":11600,"station_id":"ce4bhn92rcd13ifvqgrg","pricing_plan_id":"cebpf4jnsgd1na2vs0mg"},{"bike_id":"b373a9fc-b19f-49e6-9414-e3e614041e34","system_id":"levelo_inurba_marseille","lat":43.27054,"lon":5.42291,"is_reserved":false,"is_disabled":true,"rental_uris":{"android":"levelo://app?vid=b373a9fc-b19f-49e6-9414-e3e614041e34","ios":"levelo://app?vid=b373a9fc-b19f-49e6-9414-e3e614041e34"},"vehicle_type_id":"4","last_reported":1745305840,"current_range_meters":11600,"station_id":"ce4bhk92rcd13ifvqgb0","pricing_plan_id":"cebpf4jnsgd1na2vs0mg"},{"bike_id":"0cc8691f-a082-4a9b-944f-91ae0092fb38","system_id":"levelo_inurba_marseille","lat":43.29313,"lon":5.4005,"is_reserved":false,"is_disabled":false,"rental_uris":{"android":"levelo://app?vid=0cc8691f-a082-4a9b-944f-91ae0092fb38","ios":"levelo://app?vid=0cc8691f-a082-4a9b-944f-91ae0092fb38"},"vehicle_type_id":"4","last_reported":1745305840,"current_range_meters":11600,"station_id":"","pricing_plan_id":"cebpf4jnsgd1na2vs0mg"},{"bike_id":"30098845-d153-4e18-90b0-5a8c39abe920","system_id":"levelo_inurba_marseille","lat":43.24166,"lon":5.3973,"is_reserved":false,"is_disabled":false,"rental_uris":{"android":"levelo://app?vid=30098845-d153-4e18-90b0-5a8c39abe920","ios":"levelo://app?vid=30098845-d153-4e18-90b0-5a8c39abe920"},"vehicle_type_id":"4","last_reported":1745305840,"current_range_meters":11600,"station_id":"ce4bhn12rcd13ifvqgpg","pricing_plan_id":"cebpf4jnsgd1na2vs0mg"},{"bike_id":"31dad1ac-0f84-44f8-a969-f5f6007b9b50","system_id":"levelo_inurba_marseille","lat":43.25007,"lon":5.38926,"is_reserved":false,"is_disabled":true,"rental_uris":{"android":"levelo://app?vid=31dad1ac-0f84-44f8-a969-f5f6007b9b50","ios":"levelo://app?vid=31dad1ac-0f84-44f8-a969-f5f6007b9b50"},"vehicle_type_id":"4","last_reported":1745305840,"current_range_meters":12000,"station_id":"ce4bhgp2rcd13ifvqfd0","pricing_plan_id":"cebpf4jnsgd1na2vs0mg"},{"bike_id":"afca05cb-9dea-4e13-bae3-b0bd83251e29","system_id":"levelo_inurba_marseille","lat":43.33796,"lon":5.37427,"is_reserved":false,"is_disabled":false,"rental_uris":{"android":"levelo://app?vid=afca05cb-9dea-4e13-bae3-b0bd83251e29","ios":"levelo://app?vid=afca05cb-9dea-4e13-bae3-b0bd83251e29"},"vehicle_type_id":"4","last_reported":1745305840,"current_range_meters":12000,"station_id":"","pricing_plan_id":"cebpf4jnsgd1na2vs0mg"},{"bike_id":"a6c18a54-c3c1-492f-8e28-515be5a1bfda","system_id":"levelo_inurba_marseille","lat":43.29935,"lon":5.36538,"is_reserved":false,"is_disabled":false,"rental_uris":{"android":"levelo://app?vid=a6c18a54-c3c1-492f-8e28-515be5a1bfda","ios":"levelo://app?vid=a6c18a54-c3c1-492f-8e28-515be5a1bfda"},"vehicle_type_id":"4","last_reported":1745305840,"current_range_meters":12000,"station_id":"ce4bgm92rcd13ifvqbr0","pricing_plan_id":"cebpf4jnsgd1na2vs0mg"},{"bike_id":"c02ec395-a132-4515-9fef-d378a24dbeb1","system_id":"levelo_inurba_marseille","lat":43.2961,"lon":5.37183,"is_reserved":false,"is_disabled":false,"rental_uris":{"android":"levelo://app?vid=c02ec395-a132-4515-9fef-d378a24dbeb1","ios":"levelo://app?vid=c02ec395-a132-4515-9fef-d378a24dbeb1"},"vehicle_type_id":"4","last_reported":1745305840,"current_range_meters":11600,"station_id":"ce4bgnh2rcd13ifvqc0g","pricing_plan_id":"cebpf4jnsgd1na2vs0mg"},{"bike_id":"89204b02-8d98-4a14-a9b5-dca0c626b4be","system_id":"levelo_inurba_marseille","lat":43.29306,"lon":5.37456,"is_reserved":false,"is_disabled":false,"rental_uris":{"android":"levelo://app?vid=89204b02-8d98-4a14-a9b5-dca0c626b4be","ios":"levelo://app?vid=89204b02-8d98-4a14-a9b5-dca0c626b4be"},"vehicle_type_id":"4","last_reported":1745305840,"current_range_meters":12000,"station_id":"ce4bgi12rcd13ifvqb70","pricing_plan_id":"cebpf4jnsgd1na2vs0mg"},{"bike_id":"aee02a5c-4c95-456b-99d3-72a3fd8ec2a1","system_id":"levelo_inurba_marseille","lat":43.30148,"lon":5.38107,"is_reserved":false,"is_disabled":true,"rental_uris":{"android":"levelo://app?vid=aee02a5c-4c95-456b-99d3-72a3fd8ec2a1","ios":"levelo://app?vid=aee02a5c-4c95-456b-99d3-72a3fd8ec2a1"},"vehicle_type_id":"4","last_reported":1745305840,"current_range_meters":12400,"station_id":"ce4bgjp2rcd13ifvqbh0","pricing_plan_id":"cebpf4jnsgd1na2vs0mg"},{"bike_id":"a7aa4f0d-dbae-40db-a193-3ad158f70ff8","system_id":"levelo_inurba_marseille","lat":43.310303,"lon":5.370952,"is_reserved":false,"is_disabled":false,"rental_uris":{"android":"levelo://app?vid=a7aa4f0d-dbae-40db-a193-3ad158f70ff8","ios":"levelo://app?vid=a7aa4f0d-dbae-40db-a193-3ad158f70ff8"},"vehicle_type_id":"4","last_reported":1745305840,"current_range_meters":12400,"station_id":"","pricing_plan_id":"cebpf4jnsgd1na2vs0mg"},{"bike_id":"8bc53f88-b709-4cae-8865-fc25bfa48835","system_id":"levelo_inurba_marseille","lat":43.307997,"lon":5.435307,"is_reserved":false,"is_disabled":false,"rental_uris":{"android":"levelo://app?vid=8bc53f88-b709-4cae-8865-fc25bfa48835","ios":"levelo://app?vid=8bc53f88-b709-4cae-8865-fc25bfa48835"},"vehicle_type_id":"4","last_reported":1745305840,"current_range_meters":12000,"station_id":"ce4bhph2rcd13ifvqheg","pricing_plan_id":"cebpf4jnsgd1na2vs0mg"},{"bike_id":"6b4282bc-9432-4c95-847b-7452cf13e716","system_id":"levelo_inurba_marseille","lat":43.29325,"lon":5.37171,"is_reserved":false,"is_disabled":false,"rental_uris":{"android":"levelo://app?vid=6b4282bc-9432-4c95-847b-7452cf13e716","ios":"levelo://app?vid=6b4282bc-9432-4c95-847b-7452cf13e716"},"vehicle_type_id":"4","last_reported":1745305840,"current_range_meters":12800,"station_id":"ce4bgh92rcd13ifvqb40","pricing_plan_id":"cebpf4jnsgd1na2vs0mg"},{"bike_id":"a5b6e271-13ad-4a80-b187-214f85f01c89","system_id":"levelo_inurba_marseille","lat":43.24171,"lon":5.39734,"is_reserved":false,"is_disabled":false,"rental_uris":{"android":"levelo://app?vid=a5b6e271-13ad-4a80-b187-214f85f01c89","ios":"levelo://app?vid=a5b6e271-13ad-4a80-b187-214f85f01c89"},"vehicle_type_id":"4","last_reported":1745305840,"current_range_meters":12800,"station_id":"ce4bhn12rcd13ifvqgpg","pricing_plan_id":"cebpf4jnsgd1na2vs0mg"},{"bike_id":"36e786ae-5820-4f77-ac74-341e04cdedaf","system_id":"levelo_inurba_marseille","lat":43.3091,"lon":5.36846,"is_reserved":false,"is_disabled":false,"rental_uris":{"android":"levelo://app?vid=36e786ae-5820-4f77-ac74-341e04cdedaf","ios":"levelo://app?vid=36e786ae-5820-4f77-ac74-341e04cdedaf"},"vehicle_type_id":"4","last_reported":1745305840,"current_range_meters":12800,"station_id":"ce4bgn92rcd13ifvqbvg","pricing_plan_id":"cebpf4jnsgd1na2vs0mg"},{"bike_id":"84d53afc-570e-4710-be21-8912352f92df","system_id":"levelo_inurba_marseille","lat":43.30904,"lon":5.36846,"is_reserved":false,"is_disabled":false,"rental_uris":{"android":"levelo://app?vid=84d53afc-570e-4710-be21-8912352f92df","ios":"levelo://app?vid=84d53afc-570e-4710-be21-8912352f92df"},"vehicle_type_id":"4","last_reported":1745305840,"current_range_meters":12800,"station_id":"ce4bgn92rcd13ifvqbvg","pricing_plan_id":"cebpf4jnsgd1na2vs0mg"},{"bike_id":"e8d5d107-35b9-418d-88a3-5114daa1d261","system_id":"levelo_inurba_marseille","lat":43.29049,"lon":5.39945,"is_reserved":false,"is_disabled":false,"rental_uris":{"android":"levelo://app?vid=e8d5d107-35b9-418d-88a3-5114daa1d261","ios":"levelo://app?vid=e8d5d107-35b9-418d-88a3-5114daa1d261"},"vehicle_type_id":"4","last_reported":1745305840,"current_range_meters":13600,"station_id":"ce4bh392rcd13ifvqdm0","pricing_plan_id":"cebpf4jnsgd1na2vs0mg"},{"bike_id":"a196ba33-74a4-44ed-b122-0a39b69924a6","system_id":"levelo_inurba_marseille","lat":43.249984,"lon":5.389194,"is_reserved":false,"is_disabled":false,"rental_uris":{"android":"levelo://app?vid=a196ba33-74a4-44ed-b122-0a39b69924a6","ios":"levelo://app?vid=a196ba33-74a4-44ed-b122-0a39b69924a6"},"vehicle_type_id":"4","last_reported":1745305840,"current_range_meters":13600,"station_id":"ce4bhi12rcd13ifvqfq0","pricing_plan_id":"cebpf4jnsgd1na2vs0mg"},{"bike_id":"53d48233-8a69-4e78-8e66-efe3d53a44f9","system_id":"levelo_inurba_marseille","lat":43.2721,"lon":5.39185,"is_reserved":false,"is_disabled":false,"rental_uris":{"android":"levelo://app?vid=53d48233-8a69-4e78-8e66-efe3d53a44f9","ios":"levelo://app?vid=53d48233-8a69-4e78-8e66-efe3d53a44f9"},"vehicle_type_id":"4","last_reported":1745305840,"current_range_meters":13600,"station_id":"ce4bhhp2rcd13ifvqfm0","pricing_plan_id":"cebpf4jnsgd1na2vs0mg"},{"bike_id":"2a35ab10-f416-439f-a4fa-784873cd587f","system_id":"levelo_inurba_marseille","lat":43.26936,"lon":5.38681,"is_reserved":false,"is_disabled":true,"rental_uris":{"android":"levelo://app?vid=2a35ab10-f416-439f-a4fa-784873cd587f","ios":"levelo://app?vid=2a35ab10-f416-439f-a4fa-784873cd587f"},"vehicle_type_id":"4","last_reported":1745305840,"current_range_meters":14000,"station_id":"ce4bhh92rcd13ifvqfh0","pricing_plan_id":"cebpf4jnsgd1na2vs0mg"},{"bike_id":"3f01f217-1313-400f-a4a3-89cce9a5a0f1","system_id":"levelo_inurba_marseille","lat":43.23154,"lon":5.4371,"is_reserved":false,"is_disabled":false,"rental_uris":{"android":"levelo://app?vid=3f01f217-1313-400f-a4a3-89cce9a5a0f1","ios":"levelo://app?vid=3f01f217-1313-400f-a4a3-89cce9a5a0f1"},"vehicle_type_id":"4","last_reported":1745305840,"current_range_meters":14000,"station_id":"ce4bhmp2rcd13ifvqgog","pricing_plan_id":"cebpf4jnsgd1na2vs0mg"},{"bike_id":"12505a0a-b14f-4f59-9be1-55ce43130db1","system_id":"levelo_inurba_marseille","lat":43.29593,"lon":5.3812,"is_reserved":false,"is_disabled":true,"rental_uris":{"android":"levelo://app?vid=12505a0a-b14f-4f59-9be1-55ce43130db1","ios":"levelo://app?vid=12505a0a-b14f-4f59-9be1-55ce43130db1"},"vehicle_type_id":"4","last_reported":1745305840,"current_range_meters":14000,"station_id":"ce4bgl12rcd13ifvqbo0","pricing_plan_id":"cebpf4jnsgd1na2vs0mg"},{"bike_id":"dd75730f-870a-4052-8b19-bf3f90caa8b1","system_id":"levelo_inurba_marseille","lat":43.29605,"lon":5.38103,"is_reserved":false,"is_disabled":false,"rental_uris":{"android":"levelo://app?vid=dd75730f-870a-4052-8b19-bf3f90caa8b1","ios":"levelo://app?vid=dd75730f-870a-4052-8b19-bf3f90caa8b1"},"vehicle_type_id":"4","last_reported":1745305840,"current_range_meters":14000,"station_id":"ce4bgl12rcd13ifvqbo0","pricing_plan_id":"cebpf4jnsgd1na2vs0mg"},{"bike_id":"26cd5f79-9cc0-439a-b94c-eae90f40f5ff","system_id":"levelo_inurba_marseille","lat":43.29306,"lon":5.37462,"is_reserved":false,"is_disabled":false,"rental_uris":{"android":"levelo://app?vid=26cd5f79-9cc0-439a-b94c-eae90f40f5ff","ios":"levelo://app?vid=26cd5f79-9cc0-439a-b94c-eae90f40f5ff"},"vehicle_type_id":"4","last_reported":1745305840,"current_range_meters":14000,"station_id":"ce4bgi12rcd13ifvqb70","pricing_plan_id":"cebpf4jnsgd1na2vs0mg"},{"bike_id":"5895f2b8-8751-4945-a891-d911a2a8183e","system_id":"levelo_inurba_marseille","lat":43.29259,"lon":5.40902,"is_reserved":false,"is_disabled":false,"rental_uris":{"android":"levelo://app?vid=5895f2b8-8751-4945-a891-d911a2a8183e","ios":"levelo://app?vid=5895f2b8-8751-4945-a891-d911a2a8183e"},"vehicle_type_id":"4","last_reported":1745305840,"current_range_meters":8000,"station_id":"ce4bh192rcd13ifvqdc0","pricing_plan_id":"cebpf4jnsgd1na2vs0mg"},{"bike_id":"a756bae3-49c1-4d6c-89e8-fcb7b0e7d2e2","system_id":"levelo_inurba_marseille","lat":43.29039,"lon":5.35933,"is_reserved":false,"is_disabled":true,"rental_uris":{"android":"levelo://app?vid=a756bae3-49c1-4d6c-89e8-fcb7b0e7d2e2","ios":"levelo://app?vid=a756bae3-49c1-4d6c-89e8-fcb7b0e7d2e2"},"vehicle_type_id":"4","last_reported":1745305840,"current_range_meters":14400,"station_id":"ce4bha92rcd13ifvqeg0","pricing_plan_id":"cebpf4jnsgd1na2vs0mg"},{"bike_id":"7d34937e-a487-46bc-8b3f-1b683c96b983","system_id":"levelo_inurba_marseille","lat":43.26232,"lon":5.40452,"is_reserved":false,"is_disabled":false,"rental_uris":{"android":"levelo://app?vid=7d34937e-a487-46bc-8b3f-1b683c96b983","ios":"levelo://app?vid=7d34937e-a487-46bc-8b3f-1b683c96b983"},"vehicle_type_id":"4","last_reported":1745305840,"current_range_meters":14400,"station_id":"ce4bhmh2rcd13ifvqgmg","pricing_plan_id":"cebpf4jnsgd1na2vs0mg"},{"bike_id":"41cd4d50-3bdd-4fa7-b5d1-d715f5a540e6","system_id":"levelo_inurba_marseille","lat":43.32375,"lon":5.36816,"is_reserved":false,"is_disabled":false,"rental_uris":{"android":"levelo://app?vid=41cd4d50-3bdd-4fa7-b5d1-d715f5a540e6","ios":"levelo://app?vid=41cd4d50-3bdd-4fa7-b5d1-d715f5a540e6"},"vehicle_type_id":"4","last_reported":1745305840,"current_range_meters":14400,"station_id":"ce4bhsh2rcd13ifvqi2g","pricing_plan_id":"cebpf4jnsgd1na2vs0mg"},{"bike_id":"f25d8672-7640-4033-8cc4-f80944c4dd44","system_id":"levelo_inurba_marseille","lat":43.27238,"lon":5.40114,"is_reserved":false,"is_disabled":false,"rental_uris":{"android":"levelo://app?vid=f25d8672-7640-4033-8cc4-f80944c4dd44","ios":"levelo://app?vid=f25d8672-7640-4033-8cc4-f80944c4dd44"},"vehicle_type_id":"4","last_reported":1745305840,"current_range_meters":14800,"station_id":"","pricing_plan_id":"cebpf4jnsgd1na2vs0mg"},{"bike_id":"665eb288-0395-41f4-82cd-24169b7c175d","system_id":"levelo_inurba_marseille","lat":43.27811,"lon":5.40711,"is_reserved":false,"is_disabled":false,"rental_uris":{"android":"levelo://app?vid=665eb288-0395-41f4-82cd-24169b7c175d","ios":"levelo://app?vid=665eb288-0395-41f4-82cd-24169b7c175d"},"vehicle_type_id":"4","last_reported":1745305840,"current_range_meters":14400,"station_id":"ce4bhnh2rcd13ifvqgtg","pricing_plan_id":"cebpf4jnsgd1na2vs0mg"},{"bike_id":"d67c064f-16fa-4450-bb99-fda2410154ab","system_id":"levelo_inurba_marseille","lat":43.2418,"lon":5.39727,"is_reserved":false,"is_disabled":false,"rental_uris":{"android":"levelo://app?vid=d67c064f-16fa-4450-bb99-fda2410154ab","ios":"levelo://app?vid=d67c064f-16fa-4450-bb99-fda2410154ab"},"vehicle_type_id":"4","last_reported":1745305840,"current_range_meters":14800,"station_id":"ce4bhn12rcd13ifvqgpg","pricing_plan_id":"cebpf4jnsgd1na2vs0mg"},{"bike_id":"1d917504-d08a-4f98-98c4-f2a7e4b4c735","system_id":"levelo_inurba_marseille","lat":43.30906,"lon":5.36844,"is_reserved":false,"is_disabled":false,"rental_uris":{"android":"levelo://app?vid=1d917504-d08a-4f98-98c4-f2a7e4b4c735","ios":"levelo://app?vid=1d917504-d08a-4f98-98c4-f2a7e4b4c735"},"vehicle_type_id":"4","last_reported":1745305840,"current_range_meters":15200,"station_id":"ce4bgn92rcd13ifvqbvg","pricing_plan_id":"cebpf4jnsgd1na2vs0mg"},{"bike_id":"013b0bba-3a8e-4176-aec5-9b030be1a006","system_id":"levelo_inurba_marseille","lat":43.31731,"lon":5.37776,"is_reserved":false,"is_disabled":false,"rental_uris":{"android":"levelo://app?vid=013b0bba-3a8e-4176-aec5-9b030be1a006","ios":"levelo://app?vid=013b0bba-3a8e-4176-aec5-9b030be1a006"},"vehicle_type_id":"4","last_reported":1745305840,"current_range_meters":15200,"station_id":"ce4bgth2rcd13ifvqch0","pricing_plan_id":"cebpf4jnsgd1na2vs0mg"},{"bike_id":"cd064d23-0437-42cd-82dd-e3505bb8536d","system_id":"levelo_inurba_marseille","lat":43.29298,"lon":5.38513,"is_reserved":false,"is_disabled":false,"rental_uris":{"android":"levelo://app?vid=cd064d23-0437-42cd-82dd-e3505bb8536d","ios":"levelo://app?vid=cd064d23-0437-42cd-82dd-e3505bb8536d"},"vehicle_type_id":"4","last_reported":1745305840,"current_range_meters":15200,"station_id":"","pricing_plan_id":"cebpf4jnsgd1na2vs0mg"},{"bike_id":"09a8d94b-03f7-48a3-a45c-a6fd62f61570","system_id":"levelo_inurba_marseille","lat":43.27488,"lon":5.42457,"is_reserved":false,"is_disabled":false,"rental_uris":{"android":"levelo://app?vid=09a8d94b-03f7-48a3-a45c-a6fd62f61570","ios":"levelo://app?vid=09a8d94b-03f7-48a3-a45c-a6fd62f61570"},"vehicle_type_id":"4","last_reported":1745305840,"current_range_meters":15200,"station_id":"ce4bhn92rcd13ifvqgrg","pricing_plan_id":"cebpf4jnsgd1na2vs0mg"},{"bike_id":"a984ea8e-a8ac-4ec0-9030-3de3f678c5fd","system_id":"levelo_inurba_marseille","lat":43.30967,"lon":5.36906,"is_reserved":false,"is_disabled":false,"rental_uris":{"android":"levelo://app?vid=a984ea8e-a8ac-4ec0-9030-3de3f678c5fd","ios":"levelo://app?vid=a984ea8e-a8ac-4ec0-9030-3de3f678c5fd"},"vehicle_type_id":"4","last_reported":1745305840,"current_range_meters":16000,"station_id":"ce4bgn92rcd13ifvqbvg","pricing_plan_id":"cebpf4jnsgd1na2vs0mg"},{"bike_id":"de9704f9-bc65-4f5a-9c6b-e4c83851fc93","system_id":"levelo_inurba_marseille","lat":43.21765,"lon":5.34589,"is_reserved":false,"is_disabled":true,"rental_uris":{"android":"levelo://app?vid=de9704f9-bc65-4f5a-9c6b-e4c83851fc93","ios":"levelo://app?vid=de9704f9-bc65-4f5a-9c6b-e4c83851fc93"},"vehicle_type_id":"4","last_reported":1745305840,"current_range_meters":16000,"station_id":"","pricing_plan_id":"cebpf4jnsgd1na2vs0mg"},{"bike_id":"6f3cc2d5-e1ec-4e33-b221-79513900b667","system_id":"levelo_inurba_marseille","lat":43.30549,"lon":5.36698,"is_reserved":false,"is_disabled":false,"rental_uris":{"android":"levelo://app?vid=6f3cc2d5-e1ec-4e33-b221-79513900b667","ios":"levelo://app?vid=6f3cc2d5-e1ec-4e33-b221-79513900b667"},"vehicle_type_id":"4","last_reported":1745305840,"current_range_meters":16000,"station_id":"ce4bgrp2rcd13ifvqc9g","pricing_plan_id":"cebpf4jnsgd1na2vs0mg"},{"bike_id":"e6451f69-e376-43ed-b5d7-8e97045f6242","system_id":"levelo_inurba_marseille","lat":43.30942,"lon":5.39052,"is_reserved":false,"is_disabled":false,"rental_uris":{"android":"levelo://app?vid=e6451f69-e376-43ed-b5d7-8e97045f6242","ios":"levelo://app?vid=e6451f69-e376-43ed-b5d7-8e97045f6242"},"vehicle_type_id":"4","last_reported":1745305840,"current_range_meters":16000,"station_id":"ce4bgup2rcd13ifvqco0","pricing_plan_id":"cebpf4jnsgd1na2vs0mg"},{"bike_id":"1f1f9885-6e62-4243-a5b0-45be9ddf4073","system_id":"levelo_inurba_marseille","lat":43.23954,"lon":5.3664,"is_reserved":false,"is_disabled":true,"rental_uris":{"android":"levelo://app?vid=1f1f9885-6e62-4243-a5b0-45be9ddf4073","ios":"levelo://app?vid=1f1f9885-6e62-4243-a5b0-45be9ddf4073"},"vehicle_type_id":"4","last_reported":1745305840,"current_range_meters":16000,"station_id":"ce4bhi12rcd13ifvqfp0","pricing_plan_id":"cebpf4jnsgd1na2vs0mg"},{"bike_id":"073666a2-3ea3-4eb3-a124-3b5c40d3d495","system_id":"levelo_inurba_marseille","lat":43.25934,"lon":5.40895,"is_reserved":false,"is_disabled":true,"rental_uris":{"android":"levelo://app?vid=073666a2-3ea3-4eb3-a124-3b5c40d3d495","ios":"levelo://app?vid=073666a2-3ea3-4eb3-a124-3b5c40d3d495"},"vehicle_type_id":"4","last_reported":1745305840,"current_range_meters":16400,"station_id":"ce4bhm92rcd13ifvqglg","pricing_plan_id":"cebpf4jnsgd1na2vs0mg"},{"bike_id":"0e661962-adc1-42c8-bd89-d44bd4a03bfc","system_id":"levelo_inurba_marseille","lat":43.31758,"lon":5.39016,"is_reserved":false,"is_disabled":false,"rental_uris":{"android":"levelo://app?vid=0e661962-adc1-42c8-bd89-d44bd4a03bfc","ios":"levelo://app?vid=0e661962-adc1-42c8-bd89-d44bd4a03bfc"},"vehicle_type_id":"4","last_reported":1745305840,"current_range_meters":16400,"station_id":"ce4bhqp2rcd13ifvqhng","pricing_plan_id":"cebpf4jnsgd1na2vs0mg"},{"bike_id":"bbebdc3a-d032-4c74-8002-0ae2c309b6fa","system_id":"levelo_inurba_marseille","lat":43.31228,"lon":5.36847,"is_reserved":false,"is_disabled":false,"rental_uris":{"android":"levelo://app?vid=bbebdc3a-d032-4c74-8002-0ae2c309b6fa","ios":"levelo://app?vid=bbebdc3a-d032-4c74-8002-0ae2c309b6fa"},"vehicle_type_id":"4","last_reported":1745305840,"current_range_meters":16400,"station_id":"ce4bgl92rcd13ifvqbq0","pricing_plan_id":"cebpf4jnsgd1na2vs0mg"},{"bike_id":"28c84287-4e4f-4880-861a-72bc6d88174c","system_id":"levelo_inurba_marseille","lat":43.26684,"lon":5.38277,"is_reserved":false,"is_disabled":false,"rental_uris":{"android":"levelo://app?vid=28c84287-4e4f-4880-861a-72bc6d88174c","ios":"levelo://app?vid=28c84287-4e4f-4880-861a-72bc6d88174c"},"vehicle_type_id":"4","last_reported":1745305840,"current_range_meters":16400,"station_id":"ce4bhg92rcd13ifvqf90","pricing_plan_id":"cebpf4jnsgd1na2vs0mg"},{"bike_id":"9a46d21e-2667-4ded-b602-6c83ed3d8ba8","system_id":"levelo_inurba_marseille","lat":43.30236,"lon":5.36472,"is_reserved":false,"is_disabled":false,"rental_uris":{"android":"levelo://app?vid=9a46d21e-2667-4ded-b602-6c83ed3d8ba8","ios":"levelo://app?vid=9a46d21e-2667-4ded-b602-6c83ed3d8ba8"},"vehicle_type_id":"4","last_reported":1745305840,"current_range_meters":16400,"station_id":"","pricing_plan_id":"cebpf4jnsgd1na2vs0mg"},{"bike_id":"04cc8723-0c90-4d3a-8e95-2c3a220394b5","system_id":"levelo_inurba_marseille","lat":43.30944,"lon":5.39027,"is_reserved":false,"is_disabled":false,"rental_uris":{"android":"levelo://app?vid=04cc8723-0c90-4d3a-8e95-2c3a220394b5","ios":"levelo://app?vid=04cc8723-0c90-4d3a-8e95-2c3a220394b5"},"vehicle_type_id":"4","last_reported":1745305840,"current_range_meters":16800,"station_id":"ce4bgup2rcd13ifvqco0","pricing_plan_id":"cebpf4jnsgd1na2vs0mg"},{"bike_id":"8a24f70c-ae05-4d58-b067-1c0737cd9e8f","system_id":"levelo_inurba_marseille","lat":43.27493,"lon":5.42459,"is_reserved":false,"is_disabled":false,"rental_uris":{"android":"levelo://app?vid=8a24f70c-ae05-4d58-b067-1c0737cd9e8f","ios":"levelo://app?vid=8a24f70c-ae05-4d58-b067-1c0737cd9e8f"},"vehicle_type_id":"4","last_reported":1745305840,"current_range_meters":16800,"station_id":"ce4bhn92rcd13ifvqgrg","pricing_plan_id":"cebpf4jnsgd1na2vs0mg"},{"bike_id":"5fd09fa1-290d-47ed-8206-8508aeb32cc9","system_id":"levelo_inurba_marseille","lat":43.29608,"lon":5.37726,"is_reserved":false,"is_disabled":false,"rental_uris":{"android":"levelo://app?vid=5fd09fa1-290d-47ed-8206-8508aeb32cc9","ios":"levelo://app?vid=5fd09fa1-290d-47ed-8206-8508aeb32cc9"},"vehicle_type_id":"4","last_reported":1745305840,"current_range_meters":16400,"station_id":"ce4bgi92rcd13ifvqb90","pricing_plan_id":"cebpf4jnsgd1na2vs0mg"},{"bike_id":"d5fa6a7e-ae6f-48cd-8dc8-6ec1473fc099","system_id":"levelo_inurba_marseille","lat":43.31347,"lon":5.36721,"is_reserved":false,"is_disabled":true,"rental_uris":{"android":"levelo://app?vid=d5fa6a7e-ae6f-48cd-8dc8-6ec1473fc099","ios":"levelo://app?vid=d5fa6a7e-ae6f-48cd-8dc8-6ec1473fc099"},"vehicle_type_id":"4","last_reported":1745305840,"current_range_meters":16800,"station_id":"ce4bgr92rcd13ifvqc6g","pricing_plan_id":"cebpf4jnsgd1na2vs0mg"},{"bike_id":"003cb4f8-2533-4790-82bc-9c90d7f25dbe","system_id":"levelo_inurba_marseille","lat":43.26784,"lon":5.39415,"is_reserved":false,"is_disabled":false,"rental_uris":{"android":"levelo://app?vid=003cb4f8-2533-4790-82bc-9c90d7f25dbe","ios":"levelo://app?vid=003cb4f8-2533-4790-82bc-9c90d7f25dbe"},"vehicle_type_id":"4","last_reported":1745305840,"current_range_meters":16800,"station_id":"ce4bhh12rcd13ifvqfg0","pricing_plan_id":"cebpf4jnsgd1na2vs0mg"},{"bike_id":"e35c5785-1951-4916-a3e3-c6c2d741b904","system_id":"levelo_inurba_marseille","lat":43.23151,"lon":5.43708,"is_reserved":false,"is_disabled":false,"rental_uris":{"android":"levelo://app?vid=e35c5785-1951-4916-a3e3-c6c2d741b904","ios":"levelo://app?vid=e35c5785-1951-4916-a3e3-c6c2d741b904"},"vehicle_type_id":"4","last_reported":1745305840,"current_range_meters":16800,"station_id":"ce4bhmp2rcd13ifvqgog","pricing_plan_id":"cebpf4jnsgd1na2vs0mg"},{"bike_id":"f9467f08-e826-4ecf-8c0b-3632795c6fc9","system_id":"levelo_inurba_marseille","lat":43.32542,"lon":5.41444,"is_reserved":false,"is_disabled":false,"rental_uris":{"android":"levelo://app?vid=f9467f08-e826-4ecf-8c0b-3632795c6fc9","ios":"levelo://app?vid=f9467f08-e826-4ecf-8c0b-3632795c6fc9"},"vehicle_type_id":"4","last_reported":1745305840,"current_range_meters":17200,"station_id":"ce4bhq12rcd13ifvqhhg","pricing_plan_id":"cebpf4jnsgd1na2vs0mg"},{"bike_id":"2338ddca-038c-48ff-8cef-ac18fe92d227","system_id":"levelo_inurba_marseille","lat":43.25937,"lon":5.40908,"is_reserved":false,"is_disabled":false,"rental_uris":{"android":"levelo://app?vid=2338ddca-038c-48ff-8cef-ac18fe92d227","ios":"levelo://app?vid=2338ddca-038c-48ff-8cef-ac18fe92d227"},"vehicle_type_id":"4","last_reported":1745305840,"current_range_meters":17200,"station_id":"ce4bhm92rcd13ifvqglg","pricing_plan_id":"cebpf4jnsgd1na2vs0mg"},{"bike_id":"e850fbbd-64e2-493c-a55f-2c9ba4c20b24","system_id":"levelo_inurba_marseille","lat":43.23958,"lon":5.36663,"is_reserved":false,"is_disabled":true,"rental_uris":{"android":"levelo://app?vid=e850fbbd-64e2-493c-a55f-2c9ba4c20b24","ios":"levelo://app?vid=e850fbbd-64e2-493c-a55f-2c9ba4c20b24"},"vehicle_type_id":"4","last_reported":1745305840,"current_range_meters":17200,"station_id":"ce4bhi12rcd13ifvqfp0","pricing_plan_id":"cebpf4jnsgd1na2vs0mg"},{"bike_id":"a5c99c9d-cb6f-49dc-8e56-818e702b00a0","system_id":"levelo_inurba_marseille","lat":43.30907,"lon":5.36842,"is_reserved":false,"is_disabled":true,"rental_uris":{"android":"levelo://app?vid=a5c99c9d-cb6f-49dc-8e56-818e702b00a0","ios":"levelo://app?vid=a5c99c9d-cb6f-49dc-8e56-818e702b00a0"},"vehicle_type_id":"4","last_reported":1745305840,"current_range_meters":17200,"station_id":"ce4bgn92rcd13ifvqbvg","pricing_plan_id":"cebpf4jnsgd1na2vs0mg"},{"bike_id":"584387b4-187d-4f80-b338-fcdc107989ef","system_id":"levelo_inurba_marseille","lat":43.247397,"lon":5.411607,"is_reserved":false,"is_disabled":false,"rental_uris":{"android":"levelo://app?vid=584387b4-187d-4f80-b338-fcdc107989ef","ios":"levelo://app?vid=584387b4-187d-4f80-b338-fcdc107989ef"},"vehicle_type_id":"4","last_reported":1745305840,"current_range_meters":17200,"station_id":"","pricing_plan_id":"cebpf4jnsgd1na2vs0mg"},{"bike_id":"04313f42-6027-40c2-ad10-63fc0b5db78c","system_id":"levelo_inurba_marseille","lat":43.288635,"lon":5.358387,"is_reserved":false,"is_disabled":false,"rental_uris":{"android":"levelo://app?vid=04313f42-6027-40c2-ad10-63fc0b5db78c","ios":"levelo://app?vid=04313f42-6027-40c2-ad10-63fc0b5db78c"},"vehicle_type_id":"4","last_reported":1745305840,"current_range_meters":17600,"station_id":"ce4bhb12rcd13ifvqem0","pricing_plan_id":"cebpf4jnsgd1na2vs0mg"},{"bike_id":"cb15f50a-d5cb-4017-b40b-b28b66eacf43","system_id":"levelo_inurba_marseille","lat":43.31221,"lon":5.36834,"is_reserved":false,"is_disabled":false,"rental_uris":{"android":"levelo://app?vid=cb15f50a-d5cb-4017-b40b-b28b66eacf43","ios":"levelo://app?vid=cb15f50a-d5cb-4017-b40b-b28b66eacf43"},"vehicle_type_id":"4","last_reported":1745305840,"current_range_meters":17600,"station_id":"ce4bgl92rcd13ifvqbq0","pricing_plan_id":"cebpf4jnsgd1na2vs0mg"},{"bike_id":"a19fbbb9-ae21-4945-93a3-20e688218926","system_id":"levelo_inurba_marseille","lat":43.25939,"lon":5.40904,"is_reserved":false,"is_disabled":false,"rental_uris":{"android":"levelo://app?vid=a19fbbb9-ae21-4945-93a3-20e688218926","ios":"levelo://app?vid=a19fbbb9-ae21-4945-93a3-20e688218926"},"vehicle_type_id":"4","last_reported":1745305840,"current_range_meters":17600,"station_id":"ce4bhm92rcd13ifvqglg","pricing_plan_id":"cebpf4jnsgd1na2vs0mg"},{"bike_id":"af301d1c-3583-48e5-94ec-393627ff97d1","system_id":"levelo_inurba_marseille","lat":43.31079,"lon":5.42432,"is_reserved":false,"is_disabled":false,"rental_uris":{"android":"levelo://app?vid=af301d1c-3583-48e5-94ec-393627ff97d1","ios":"levelo://app?vid=af301d1c-3583-48e5-94ec-393627ff97d1"},"vehicle_type_id":"4","last_reported":1745305840,"current_range_meters":17200,"station_id":"ce4bhp92rcd13ifvqhag","pricing_plan_id":"cebpf4jnsgd1na2vs0mg"},{"bike_id":"1ecece38-7183-4e61-ba21-0ad130dff4e7","system_id":"levelo_inurba_marseille","lat":43.31683,"lon":5.40474,"is_reserved":false,"is_disabled":false,"rental_uris":{"android":"levelo://app?vid=1ecece38-7183-4e61-ba21-0ad130dff4e7","ios":"levelo://app?vid=1ecece38-7183-4e61-ba21-0ad130dff4e7"},"vehicle_type_id":"4","last_reported":1745305840,"current_range_meters":17600,"station_id":"ce4bh012rcd13ifvqd00","pricing_plan_id":"cebpf4jnsgd1na2vs0mg"},{"bike_id":"27166011-9659-43f9-9d49-c158ddc3e57c","system_id":"levelo_inurba_marseille","lat":43.24248,"lon":5.39706,"is_reserved":false,"is_disabled":false,"rental_uris":{"android":"levelo://app?vid=27166011-9659-43f9-9d49-c158ddc3e57c","ios":"levelo://app?vid=27166011-9659-43f9-9d49-c158ddc3e57c"},"vehicle_type_id":"4","last_reported":1745305840,"current_range_meters":17600,"station_id":"ce4bhn12rcd13ifvqgpg","pricing_plan_id":"cebpf4jnsgd1na2vs0mg"},{"bike_id":"7b2dc864-a4e9-468c-9cee-f3075a20977d","system_id":"levelo_inurba_marseille","lat":43.31455,"lon":5.37377,"is_reserved":false,"is_disabled":false,"rental_uris":{"android":"levelo://app?vid=7b2dc864-a4e9-468c-9cee-f3075a20977d","ios":"levelo://app?vid=7b2dc864-a4e9-468c-9cee-f3075a20977d"},"vehicle_type_id":"4","last_reported":1745305840,"current_range_meters":18000,"station_id":"","pricing_plan_id":"cebpf4jnsgd1na2vs0mg"},{"bike_id":"abd226a8-d003-4133-b9d2-b7c952b7ead1","system_id":"levelo_inurba_marseille","lat":43.230563,"lon":5.35492,"is_reserved":false,"is_disabled":false,"rental_uris":{"android":"levelo://app?vid=abd226a8-d003-4133-b9d2-b7c952b7ead1","ios":"levelo://app?vid=abd226a8-d003-4133-b9d2-b7c952b7ead1"},"vehicle_type_id":"4","last_reported":1745305840,"current_range_meters":18000,"station_id":"cpo3342slgdg3j2ifvpg","pricing_plan_id":"cebpf4jnsgd1na2vs0mg"},{"bike_id":"bfb6a197-fb29-40f0-a2e8-984f700e18b4","system_id":"levelo_inurba_marseille","lat":43.34129,"lon":5.40911,"is_reserved":false,"is_disabled":true,"rental_uris":{"android":"levelo://app?vid=bfb6a197-fb29-40f0-a2e8-984f700e18b4","ios":"levelo://app?vid=bfb6a197-fb29-40f0-a2e8-984f700e18b4"},"vehicle_type_id":"4","last_reported":1745305840,"current_range_meters":18000,"station_id":"ce4bhqh2rcd13ifvqhlg","pricing_plan_id":"cebpf4jnsgd1na2vs0mg"},{"bike_id":"3eeaa5ee-7282-4572-8d60-4d266c5d718f","system_id":"levelo_inurba_marseille","lat":43.212,"lon":5.35094,"is_reserved":false,"is_disabled":true,"rental_uris":{"android":"levelo://app?vid=3eeaa5ee-7282-4572-8d60-4d266c5d718f","ios":"levelo://app?vid=3eeaa5ee-7282-4572-8d60-4d266c5d718f"},"vehicle_type_id":"4","last_reported":1745305840,"current_range_meters":18000,"station_id":"","pricing_plan_id":"cebpf4jnsgd1na2vs0mg"},{"bike_id":"7f420013-0055-40e6-87de-97d531f236c6","system_id":"levelo_inurba_marseille","lat":43.30908,"lon":5.36845,"is_reserved":false,"is_disabled":false,"rental_uris":{"android":"levelo://app?vid=7f420013-0055-40e6-87de-97d531f236c6","ios":"levelo://app?vid=7f420013-0055-40e6-87de-97d531f236c6"},"vehicle_type_id":"4","last_reported":1745305840,"current_range_meters":18800,"station_id":"ce4bgn92rcd13ifvqbvg","pricing_plan_id":"cebpf4jnsgd1na2vs0mg"},{"bike_id":"51c7250c-b46f-4406-bfd5-48ae2a6752e3","system_id":"levelo_inurba_marseille","lat":43.31482,"lon":5.37314,"is_reserved":false,"is_disabled":false,"rental_uris":{"android":"levelo://app?vid=51c7250c-b46f-4406-bfd5-48ae2a6752e3","ios":"levelo://app?vid=51c7250c-b46f-4406-bfd5-48ae2a6752e3"},"vehicle_type_id":"4","last_reported":1745305840,"current_range_meters":18800,"station_id":"ce4bgt12rcd13ifvqcd0","pricing_plan_id":"cebpf4jnsgd1na2vs0mg"},{"bike_id":"93d810f7-8b71-4f06-9b7b-492e0caaf5ec","system_id":"levelo_inurba_marseille","lat":43.24077,"lon":5.37766,"is_reserved":false,"is_disabled":false,"rental_uris":{"android":"levelo://app?vid=93d810f7-8b71-4f06-9b7b-492e0caaf5ec","ios":"levelo://app?vid=93d810f7-8b71-4f06-9b7b-492e0caaf5ec"},"vehicle_type_id":"4","last_reported":1745305840,"current_range_meters":18800,"station_id":"ce4bhnp2rcd13ifvqgvg","pricing_plan_id":"cebpf4jnsgd1na2vs0mg"},{"bike_id":"d974400f-ebe7-401e-8521-1085388dcb5a","system_id":"levelo_inurba_marseille","lat":43.31378,"lon":5.36712,"is_reserved":false,"is_disabled":false,"rental_uris":{"android":"levelo://app?vid=d974400f-ebe7-401e-8521-1085388dcb5a","ios":"levelo://app?vid=d974400f-ebe7-401e-8521-1085388dcb5a"},"vehicle_type_id":"4","last_reported":1745305840,"current_range_meters":18800,"station_id":"ce4bgr92rcd13ifvqc6g","pricing_plan_id":"cebpf4jnsgd1na2vs0mg"},{"bike_id":"3f5fab28-6a75-4a4a-8b2b-8b086db694c9","system_id":"levelo_inurba_marseille","lat":43.30538,"lon":5.36559,"is_reserved":false,"is_disabled":false,"rental_uris":{"android":"levelo://app?vid=3f5fab28-6a75-4a4a-8b2b-8b086db694c9","ios":"levelo://app?vid=3f5fab28-6a75-4a4a-8b2b-8b086db694c9"},"vehicle_type_id":"4","last_reported":1745305840,"current_range_meters":18000,"station_id":"ce4bgs12rcd13ifvqcag","pricing_plan_id":"cebpf4jnsgd1na2vs0mg"},{"bike_id":"0af145ac-dd03-4bfc-b2cc-8b6dea4f5bba","system_id":"levelo_inurba_marseille","lat":43.258176,"lon":5.394432,"is_reserved":false,"is_disabled":false,"rental_uris":{"android":"levelo://app?vid=0af145ac-dd03-4bfc-b2cc-8b6dea4f5bba","ios":"levelo://app?vid=0af145ac-dd03-4bfc-b2cc-8b6dea4f5bba"},"vehicle_type_id":"4","last_reported":1745305840,"current_range_meters":18800,"station_id":"ce4bhip2rcd13ifvqft0","pricing_plan_id":"cebpf4jnsgd1na2vs0mg"},{"bike_id":"1b903b38-38de-4714-9a2c-59836acfa168","system_id":"levelo_inurba_marseille","lat":43.31702,"lon":5.4365,"is_reserved":false,"is_disabled":true,"rental_uris":{"android":"levelo://app?vid=1b903b38-38de-4714-9a2c-59836acfa168","ios":"levelo://app?vid=1b903b38-38de-4714-9a2c-59836acfa168"},"vehicle_type_id":"4","last_reported":1745305840,"current_range_meters":18800,"station_id":"ce4bhp92rcd13ifvqhcg","pricing_plan_id":"cebpf4jnsgd1na2vs0mg"},{"bike_id":"95c8d072-4839-405f-ab92-73b94ca6168e","system_id":"levelo_inurba_marseille","lat":43.3134,"lon":5.366927,"is_reserved":false,"is_disabled":false,"rental_uris":{"android":"levelo://app?vid=95c8d072-4839-405f-ab92-73b94ca6168e","ios":"levelo://app?vid=95c8d072-4839-405f-ab92-73b94ca6168e"},"vehicle_type_id":"4","last_reported":1745305840,"current_range_meters":19200,"station_id":"ce4bgr92rcd13ifvqc6g","pricing_plan_id":"cebpf4jnsgd1na2vs0mg"},{"bike_id":"409bafcc-35cb-450f-8dd1-f1490f54e7e7","system_id":"levelo_inurba_marseille","lat":43.28263,"lon":5.35063,"is_reserved":false,"is_disabled":false,"rental_uris":{"android":"levelo://app?vid=409bafcc-35cb-450f-8dd1-f1490f54e7e7","ios":"levelo://app?vid=409bafcc-35cb-450f-8dd1-f1490f54e7e7"},"vehicle_type_id":"4","last_reported":1745305840,"current_range_meters":19200,"station_id":"ce4bhbp2rcd13ifvqerg","pricing_plan_id":"cebpf4jnsgd1na2vs0mg"},{"bike_id":"af062bcb-c0d8-4f82-b254-b3dfb315e067","system_id":"levelo_inurba_marseille","lat":43.33018,"lon":5.39053,"is_reserved":false,"is_disabled":false,"rental_uris":{"android":"levelo://app?vid=af062bcb-c0d8-4f82-b254-b3dfb315e067","ios":"levelo://app?vid=af062bcb-c0d8-4f82-b254-b3dfb315e067"},"vehicle_type_id":"4","last_reported":1745305840,"current_range_meters":18800,"station_id":"ce4bhr92rcd13ifvqhrg","pricing_plan_id":"cebpf4jnsgd1na2vs0mg"},{"bike_id":"5bde05e7-9c34-4bb8-b1b4-72876eb4fd51","system_id":"levelo_inurba_marseille","lat":43.27469,"lon":5.4245,"is_reserved":false,"is_disabled":false,"rental_uris":{"android":"levelo://app?vid=5bde05e7-9c34-4bb8-b1b4-72876eb4fd51","ios":"levelo://app?vid=5bde05e7-9c34-4bb8-b1b4-72876eb4fd51"},"vehicle_type_id":"4","last_reported":1745305840,"current_range_meters":19200,"station_id":"ce4bhn92rcd13ifvqgrg","pricing_plan_id":"cebpf4jnsgd1na2vs0mg"},{"bike_id":"de4c416f-6393-42ff-9430-ae7d5a101349","system_id":"levelo_inurba_marseille","lat":43.291673,"lon":5.371595,"is_reserved":false,"is_disabled":false,"rental_uris":{"android":"levelo://app?vid=de4c416f-6393-42ff-9430-ae7d5a101349","ios":"levelo://app?vid=de4c416f-6393-42ff-9430-ae7d5a101349"},"vehicle_type_id":"4","last_reported":1745305840,"current_range_meters":19200,"station_id":"ce4bha92rcd13ifvqeh0","pricing_plan_id":"cebpf4jnsgd1na2vs0mg"},{"bike_id":"ead1fb0c-95a3-4bfb-9e2c-fd2525d128d3","system_id":"levelo_inurba_marseille","lat":43.24167,"lon":5.39718,"is_reserved":false,"is_disabled":false,"rental_uris":{"android":"levelo://app?vid=ead1fb0c-95a3-4bfb-9e2c-fd2525d128d3","ios":"levelo://app?vid=ead1fb0c-95a3-4bfb-9e2c-fd2525d128d3"},"vehicle_type_id":"4","last_reported":1745305840,"current_range_meters":19600,"station_id":"ce4bhn12rcd13ifvqgpg","pricing_plan_id":"cebpf4jnsgd1na2vs0mg"},{"bike_id":"f7ad3bb2-f85e-4e6c-86ff-4184cbc627fe","system_id":"levelo_inurba_marseille","lat":43.24065,"lon":5.37767,"is_reserved":false,"is_disabled":false,"rental_uris":{"android":"levelo://app?vid=f7ad3bb2-f85e-4e6c-86ff-4184cbc627fe","ios":"levelo://app?vid=f7ad3bb2-f85e-4e6c-86ff-4184cbc627fe"},"vehicle_type_id":"4","last_reported":1745305840,"current_range_meters":19600,"station_id":"ce4bhnp2rcd13ifvqgvg","pricing_plan_id":"cebpf4jnsgd1na2vs0mg"},{"bike_id":"746f5d31-6bfc-43a3-bf0d-1061b4d66c76","system_id":"levelo_inurba_marseille","lat":43.23961,"lon":5.36638,"is_reserved":false,"is_disabled":false,"rental_uris":{"android":"levelo://app?vid=746f5d31-6bfc-43a3-bf0d-1061b4d66c76","ios":"levelo://app?vid=746f5d31-6bfc-43a3-bf0d-1061b4d66c76"},"vehicle_type_id":"4","last_reported":1745305840,"current_range_meters":19600,"station_id":"ce4bhi12rcd13ifvqfp0","pricing_plan_id":"cebpf4jnsgd1na2vs0mg"},{"bike_id":"28f798a3-56f2-4fbf-b12d-c540c66dbab9","system_id":"levelo_inurba_marseille","lat":43.337749,"lon":5.374531,"is_reserved":false,"is_disabled":false,"rental_uris":{"android":"levelo://app?vid=28f798a3-56f2-4fbf-b12d-c540c66dbab9","ios":"levelo://app?vid=28f798a3-56f2-4fbf-b12d-c540c66dbab9"},"vehicle_type_id":"4","last_reported":1745305840,"current_range_meters":19600,"station_id":"","pricing_plan_id":"cebpf4jnsgd1na2vs0mg"},{"bike_id":"b948c641-48b5-458e-a949-828e23a57c89","system_id":"levelo_inurba_marseille","lat":43.30261,"lon":5.37724,"is_reserved":false,"is_disabled":false,"rental_uris":{"android":"levelo://app?vid=b948c641-48b5-458e-a949-828e23a57c89","ios":"levelo://app?vid=b948c641-48b5-458e-a949-828e23a57c89"},"vehicle_type_id":"4","last_reported":1745305840,"current_range_meters":19600,"station_id":"ce4bguh2rcd13ifvqcj0","pricing_plan_id":"cebpf4jnsgd1na2vs0mg"},{"bike_id":"a42b8a93-88dd-442a-a571-5bf10f4155e4","system_id":"levelo_inurba_marseille","lat":43.2668,"lon":5.38269,"is_reserved":false,"is_disabled":false,"rental_uris":{"android":"levelo://app?vid=a42b8a93-88dd-442a-a571-5bf10f4155e4","ios":"levelo://app?vid=a42b8a93-88dd-442a-a571-5bf10f4155e4"},"vehicle_type_id":"4","last_reported":1745305840,"current_range_meters":19200,"station_id":"ce4bhg92rcd13ifvqf90","pricing_plan_id":"cebpf4jnsgd1na2vs0mg"},{"bike_id":"13f15703-245f-4707-ba26-40de724aee82","system_id":"levelo_inurba_marseille","lat":43.23153,"lon":5.43715,"is_reserved":false,"is_disabled":false,"rental_uris":{"android":"levelo://app?vid=13f15703-245f-4707-ba26-40de724aee82","ios":"levelo://app?vid=13f15703-245f-4707-ba26-40de724aee82"},"vehicle_type_id":"4","last_reported":1745305840,"current_range_meters":19600,"station_id":"ce4bhmp2rcd13ifvqgog","pricing_plan_id":"cebpf4jnsgd1na2vs0mg"},{"bike_id":"9db9b412-13b3-43d4-a27f-b9ea40d37116","system_id":"levelo_inurba_marseille","lat":43.29363,"lon":5.37844,"is_reserved":false,"is_disabled":false,"rental_uris":{"android":"levelo://app?vid=9db9b412-13b3-43d4-a27f-b9ea40d37116","ios":"levelo://app?vid=9db9b412-13b3-43d4-a27f-b9ea40d37116"},"vehicle_type_id":"4","last_reported":1745305840,"current_range_meters":19600,"station_id":"ce4bgjh2rcd13ifvqbf0","pricing_plan_id":"cebpf4jnsgd1na2vs0mg"},{"bike_id":"8dcb61d1-3d56-4d78-9a78-0493d634134a","system_id":"levelo_inurba_marseille","lat":43.29895,"lon":5.43672,"is_reserved":false,"is_disabled":false,"rental_uris":{"android":"levelo://app?vid=8dcb61d1-3d56-4d78-9a78-0493d634134a","ios":"levelo://app?vid=8dcb61d1-3d56-4d78-9a78-0493d634134a"},"vehicle_type_id":"4","last_reported":1745305840,"current_range_meters":20000,"station_id":"ce4bhpp2rcd13ifvqhfg","pricing_plan_id":"cebpf4jnsgd1na2vs0mg"},{"bike_id":"68c779f1-cdd0-4bb7-a2d1-87026f6b870b","system_id":"levelo_inurba_marseille","lat":43.2407,"lon":5.37761,"is_reserved":false,"is_disabled":false,"rental_uris":{"android":"levelo://app?vid=68c779f1-cdd0-4bb7-a2d1-87026f6b870b","ios":"levelo://app?vid=68c779f1-cdd0-4bb7-a2d1-87026f6b870b"},"vehicle_type_id":"4","last_reported":1745305840,"current_range_meters":20000,"station_id":"ce4bhnp2rcd13ifvqgvg","pricing_plan_id":"cebpf4jnsgd1na2vs0mg"},{"bike_id":"7abf4a4a-c1cd-48ba-b364-5ecc54b9c142","system_id":"levelo_inurba_marseille","lat":43.25719,"lon":5.41115,"is_reserved":false,"is_disabled":false,"rental_uris":{"android":"levelo://app?vid=7abf4a4a-c1cd-48ba-b364-5ecc54b9c142","ios":"levelo://app?vid=7abf4a4a-c1cd-48ba-b364-5ecc54b9c142"},"vehicle_type_id":"4","last_reported":1745305840,"current_range_meters":20000,"station_id":"ce4bhkp2rcd13ifvqgd0","pricing_plan_id":"cebpf4jnsgd1na2vs0mg"},{"bike_id":"3b823fab-22a8-4c02-9ac2-9d77227daa1a","system_id":"levelo_inurba_marseille","lat":43.25928,"lon":5.40914,"is_reserved":false,"is_disabled":false,"rental_uris":{"android":"levelo://app?vid=3b823fab-22a8-4c02-9ac2-9d77227daa1a","ios":"levelo://app?vid=3b823fab-22a8-4c02-9ac2-9d77227daa1a"},"vehicle_type_id":"4","last_reported":1745305840,"current_range_meters":20000,"station_id":"ce4bhm92rcd13ifvqglg","pricing_plan_id":"cebpf4jnsgd1na2vs0mg"},{"bike_id":"3590f6b8-6a72-4a95-869c-86322b48fcff","system_id":"levelo_inurba_marseille","lat":43.26952,"lon":5.38633,"is_reserved":false,"is_disabled":false,"rental_uris":{"android":"levelo://app?vid=3590f6b8-6a72-4a95-869c-86322b48fcff","ios":"levelo://app?vid=3590f6b8-6a72-4a95-869c-86322b48fcff"},"vehicle_type_id":"4","last_reported":1745305840,"current_range_meters":20400,"station_id":"ce4bhh92rcd13ifvqfh0","pricing_plan_id":"cebpf4jnsgd1na2vs0mg"},{"bike_id":"5292f775-aa53-42a8-a3e0-c63e6f16af9d","system_id":"levelo_inurba_marseille","lat":43.31482,"lon":5.37306,"is_reserved":false,"is_disabled":false,"rental_uris":{"android":"levelo://app?vid=5292f775-aa53-42a8-a3e0-c63e6f16af9d","ios":"levelo://app?vid=5292f775-aa53-42a8-a3e0-c63e6f16af9d"},"vehicle_type_id":"4","last_reported":1745305840,"current_range_meters":20400,"station_id":"ce4bgt12rcd13ifvqcd0","pricing_plan_id":"cebpf4jnsgd1na2vs0mg"},{"bike_id":"43f69d8d-df5e-425e-b41d-bcc37ca62603","system_id":"levelo_inurba_marseille","lat":43.27495,"lon":5.42453,"is_reserved":false,"is_disabled":true,"rental_uris":{"android":"levelo://app?vid=43f69d8d-df5e-425e-b41d-bcc37ca62603","ios":"levelo://app?vid=43f69d8d-df5e-425e-b41d-bcc37ca62603"},"vehicle_type_id":"4","last_reported":1745305840,"current_range_meters":20400,"station_id":"ce4bhn92rcd13ifvqgrg","pricing_plan_id":"cebpf4jnsgd1na2vs0mg"},{"bike_id":"6382d094-23f2-4d1e-9fc5-0b03894a7c4d","system_id":"levelo_inurba_marseille","lat":43.30414,"lon":5.39753,"is_reserved":false,"is_disabled":true,"rental_uris":{"android":"levelo://app?vid=6382d094-23f2-4d1e-9fc5-0b03894a7c4d","ios":"levelo://app?vid=6382d094-23f2-4d1e-9fc5-0b03894a7c4d"},"vehicle_type_id":"4","last_reported":1745305840,"current_range_meters":20400,"station_id":"ce4bh092rcd13ifvqd20","pricing_plan_id":"cebpf4jnsgd1na2vs0mg"},{"bike_id":"99ec252f-548c-4d6c-b8b9-6d16379373a8","system_id":"levelo_inurba_marseille","lat":43.29091,"lon":5.3813,"is_reserved":false,"is_disabled":false,"rental_uris":{"android":"levelo://app?vid=99ec252f-548c-4d6c-b8b9-6d16379373a8","ios":"levelo://app?vid=99ec252f-548c-4d6c-b8b9-6d16379373a8"},"vehicle_type_id":"4","last_reported":1745305840,"current_range_meters":20400,"station_id":"ce4bh512rcd13ifvqe2g","pricing_plan_id":"cebpf4jnsgd1na2vs0mg"},{"bike_id":"5630f52d-0448-4fa0-94dd-5eaa69c05d03","system_id":"levelo_inurba_marseille","lat":43.27066,"lon":5.42279,"is_reserved":false,"is_disabled":false,"rental_uris":{"android":"levelo://app?vid=5630f52d-0448-4fa0-94dd-5eaa69c05d03","ios":"levelo://app?vid=5630f52d-0448-4fa0-94dd-5eaa69c05d03"},"vehicle_type_id":"4","last_reported":1745305840,"current_range_meters":20800,"station_id":"ce4bhk92rcd13ifvqgb0","pricing_plan_id":"cebpf4jnsgd1na2vs0mg"},{"bike_id":"20ede925-27e6-407f-8bf5-4c244f8341b4","system_id":"levelo_inurba_marseille","lat":43.24171,"lon":5.36406,"is_reserved":false,"is_disabled":false,"rental_uris":{"android":"levelo://app?vid=20ede925-27e6-407f-8bf5-4c244f8341b4","ios":"levelo://app?vid=20ede925-27e6-407f-8bf5-4c244f8341b4"},"vehicle_type_id":"4","last_reported":1745305840,"current_range_meters":20800,"station_id":"cpo36qri1sfpv3e86is0","pricing_plan_id":"cebpf4jnsgd1na2vs0mg"},{"bike_id":"67f01c70-85b7-41c8-a044-e22ed0c12017","system_id":"levelo_inurba_marseille","lat":43.240725,"lon":5.377607,"is_reserved":false,"is_disabled":false,"rental_uris":{"android":"levelo://app?vid=67f01c70-85b7-41c8-a044-e22ed0c12017","ios":"levelo://app?vid=67f01c70-85b7-41c8-a044-e22ed0c12017"},"vehicle_type_id":"4","last_reported":1745305840,"current_range_meters":20800,"station_id":"ce4bhnp2rcd13ifvqgvg","pricing_plan_id":"cebpf4jnsgd1na2vs0mg"},{"bike_id":"17b41863-b834-47ef-82e2-cf0c8b0015a6","system_id":"levelo_inurba_marseille","lat":43.29047,"lon":5.400218,"is_reserved":false,"is_disabled":false,"rental_uris":{"android":"levelo://app?vid=17b41863-b834-47ef-82e2-cf0c8b0015a6","ios":"levelo://app?vid=17b41863-b834-47ef-82e2-cf0c8b0015a6"},"vehicle_type_id":"4","last_reported":1745305840,"current_range_meters":20800,"station_id":"ce4bh2p2rcd13ifvqdi0","pricing_plan_id":"cebpf4jnsgd1na2vs0mg"},{"bike_id":"b751c96e-9e1f-495a-ae96-cb08fd44250b","system_id":"levelo_inurba_marseille","lat":43.286095,"lon":5.351015,"is_reserved":false,"is_disabled":false,"rental_uris":{"android":"levelo://app?vid=b751c96e-9e1f-495a-ae96-cb08fd44250b","ios":"levelo://app?vid=b751c96e-9e1f-495a-ae96-cb08fd44250b"},"vehicle_type_id":"4","last_reported":1745305840,"current_range_meters":20800,"station_id":"ce4bhhh2rcd13ifvqfk0","pricing_plan_id":"cebpf4jnsgd1na2vs0mg"},{"bike_id":"5d7c1628-7b94-4ff7-95bc-98786bcd1352","system_id":"levelo_inurba_marseille","lat":43.30535,"lon":5.36709,"is_reserved":false,"is_disabled":false,"rental_uris":{"android":"levelo://app?vid=5d7c1628-7b94-4ff7-95bc-98786bcd1352","ios":"levelo://app?vid=5d7c1628-7b94-4ff7-95bc-98786bcd1352"},"vehicle_type_id":"4","last_reported":1745305840,"current_range_meters":20800,"station_id":"ce4bgrp2rcd13ifvqc9g","pricing_plan_id":"cebpf4jnsgd1na2vs0mg"},{"bike_id":"5710ae20-d914-4c2e-880b-c042da09cd54","system_id":"levelo_inurba_marseille","lat":43.31339,"lon":5.36729,"is_reserved":false,"is_disabled":false,"rental_uris":{"android":"levelo://app?vid=5710ae20-d914-4c2e-880b-c042da09cd54","ios":"levelo://app?vid=5710ae20-d914-4c2e-880b-c042da09cd54"},"vehicle_type_id":"4","last_reported":1745305840,"current_range_meters":20800,"station_id":"ce4bgr92rcd13ifvqc6g","pricing_plan_id":"cebpf4jnsgd1na2vs0mg"},{"bike_id":"6e57b811-06ca-4fdd-82a6-a071115e77f0","system_id":"levelo_inurba_marseille","lat":43.31338,"lon":5.36712,"is_reserved":false,"is_disabled":false,"rental_uris":{"android":"levelo://app?vid=6e57b811-06ca-4fdd-82a6-a071115e77f0","ios":"levelo://app?vid=6e57b811-06ca-4fdd-82a6-a071115e77f0"},"vehicle_type_id":"4","last_reported":1745305840,"current_range_meters":20800,"station_id":"ce4bgr92rcd13ifvqc6g","pricing_plan_id":"cebpf4jnsgd1na2vs0mg"},{"bike_id":"2b59a03b-8bdf-4a5c-a1d2-9dea24219ead","system_id":"levelo_inurba_marseille","lat":43.2593,"lon":5.408795,"is_reserved":false,"is_disabled":true,"rental_uris":{"android":"levelo://app?vid=2b59a03b-8bdf-4a5c-a1d2-9dea24219ead","ios":"levelo://app?vid=2b59a03b-8bdf-4a5c-a1d2-9dea24219ead"},"vehicle_type_id":"4","last_reported":1745305840,"current_range_meters":20800,"station_id":"ce4bhm92rcd13ifvqglg","pricing_plan_id":"cebpf4jnsgd1na2vs0mg"},{"bike_id":"97a1af6b-b232-4c2f-9e7b-6a58940921ce","system_id":"levelo_inurba_marseille","lat":43.27494,"lon":5.42454,"is_reserved":false,"is_disabled":false,"rental_uris":{"android":"levelo://app?vid=97a1af6b-b232-4c2f-9e7b-6a58940921ce","ios":"levelo://app?vid=97a1af6b-b232-4c2f-9e7b-6a58940921ce"},"vehicle_type_id":"4","last_reported":1745305840,"current_range_meters":20800,"station_id":"ce4bhn92rcd13ifvqgrg","pricing_plan_id":"cebpf4jnsgd1na2vs0mg"},{"bike_id":"a03827b7-7032-485e-b6d2-1a2a6e82d24e","system_id":"levelo_inurba_marseille","lat":43.26504,"lon":5.39531,"is_reserved":false,"is_disabled":false,"rental_uris":{"android":"levelo://app?vid=a03827b7-7032-485e-b6d2-1a2a6e82d24e","ios":"levelo://app?vid=a03827b7-7032-485e-b6d2-1a2a6e82d24e"},"vehicle_type_id":"4","last_reported":1745305840,"current_range_meters":21600,"station_id":"ce4bhi12rcd13ifvqfq0","pricing_plan_id":"cebpf4jnsgd1na2vs0mg"},{"bike_id":"110f1b66-5355-4e16-bb45-ba5316ef6925","system_id":"levelo_inurba_marseille","lat":43.29362,"lon":5.3784,"is_reserved":false,"is_disabled":false,"rental_uris":{"android":"levelo://app?vid=110f1b66-5355-4e16-bb45-ba5316ef6925","ios":"levelo://app?vid=110f1b66-5355-4e16-bb45-ba5316ef6925"},"vehicle_type_id":"4","last_reported":1745305840,"current_range_meters":20800,"station_id":"ce4bgjh2rcd13ifvqbf0","pricing_plan_id":"cebpf4jnsgd1na2vs0mg"},{"bike_id":"5d6ce0cf-9f03-41a4-849f-504bf29dfe65","system_id":"levelo_inurba_marseille","lat":43.2176,"lon":5.34594,"is_reserved":false,"is_disabled":false,"rental_uris":{"android":"levelo://app?vid=5d6ce0cf-9f03-41a4-849f-504bf29dfe65","ios":"levelo://app?vid=5d6ce0cf-9f03-41a4-849f-504bf29dfe65"},"vehicle_type_id":"4","last_reported":1745305840,"current_range_meters":21600,"station_id":"st_cvj6r9ubvosntc0bgbag","pricing_plan_id":"cebpf4jnsgd1na2vs0mg"},{"bike_id":"b18489aa-8663-48ee-bdcd-3ab20278e930","system_id":"levelo_inurba_marseille","lat":43.27941,"lon":5.41053,"is_reserved":false,"is_disabled":false,"rental_uris":{"android":"levelo://app?vid=b18489aa-8663-48ee-bdcd-3ab20278e930","ios":"levelo://app?vid=b18489aa-8663-48ee-bdcd-3ab20278e930"},"vehicle_type_id":"4","last_reported":1745305840,"current_range_meters":21600,"station_id":"ce4bhnp2rcd13ifvqh0g","pricing_plan_id":"cebpf4jnsgd1na2vs0mg"},{"bike_id":"f9d6e2e6-9be0-49a5-bbdb-abfa59585624","system_id":"levelo_inurba_marseille","lat":43.2749,"lon":5.42455,"is_reserved":false,"is_disabled":false,"rental_uris":{"android":"levelo://app?vid=f9d6e2e6-9be0-49a5-bbdb-abfa59585624","ios":"levelo://app?vid=f9d6e2e6-9be0-49a5-bbdb-abfa59585624"},"vehicle_type_id":"4","last_reported":1745305840,"current_range_meters":21600,"station_id":"ce4bhn92rcd13ifvqgrg","pricing_plan_id":"cebpf4jnsgd1na2vs0mg"},{"bike_id":"145e46db-4b84-41d2-9fbe-cff96f73e7c5","system_id":"levelo_inurba_marseille","lat":43.302704,"lon":5.377115,"is_reserved":false,"is_disabled":false,"rental_uris":{"android":"levelo://app?vid=145e46db-4b84-41d2-9fbe-cff96f73e7c5","ios":"levelo://app?vid=145e46db-4b84-41d2-9fbe-cff96f73e7c5"},"vehicle_type_id":"4","last_reported":1745305840,"current_range_meters":22000,"station_id":"ce4bguh2rcd13ifvqcj0","pricing_plan_id":"cebpf4jnsgd1na2vs0mg"},{"bike_id":"1b7a8bfb-c292-4b8c-9b9a-6f723c7d2347","system_id":"levelo_inurba_marseille","lat":43.27497,"lon":5.42467,"is_reserved":false,"is_disabled":false,"rental_uris":{"android":"levelo://app?vid=1b7a8bfb-c292-4b8c-9b9a-6f723c7d2347","ios":"levelo://app?vid=1b7a8bfb-c292-4b8c-9b9a-6f723c7d2347"},"vehicle_type_id":"4","last_reported":1745305840,"current_range_meters":22000,"station_id":"ce4bhn92rcd13ifvqgrg","pricing_plan_id":"cebpf4jnsgd1na2vs0mg"},{"bike_id":"b5d609bf-0c9b-49e3-9426-ce02cb8383b8","system_id":"levelo_inurba_marseille","lat":43.34164,"lon":5.40913,"is_reserved":false,"is_disabled":true,"rental_uris":{"android":"levelo://app?vid=b5d609bf-0c9b-49e3-9426-ce02cb8383b8","ios":"levelo://app?vid=b5d609bf-0c9b-49e3-9426-ce02cb8383b8"},"vehicle_type_id":"4","last_reported":1745305840,"current_range_meters":22000,"station_id":"ce4bhqh2rcd13ifvqhlg","pricing_plan_id":"cebpf4jnsgd1na2vs0mg"},{"bike_id":"bb62c84d-beaa-4a11-95d5-f78c13298df0","system_id":"levelo_inurba_marseille","lat":43.30463,"lon":5.37912,"is_reserved":false,"is_disabled":false,"rental_uris":{"android":"levelo://app?vid=bb62c84d-beaa-4a11-95d5-f78c13298df0","ios":"levelo://app?vid=bb62c84d-beaa-4a11-95d5-f78c13298df0"},"vehicle_type_id":"4","last_reported":1745305840,"current_range_meters":22000,"station_id":"ce4bgup2rcd13ifvqcn0","pricing_plan_id":"cebpf4jnsgd1na2vs0mg"},{"bike_id":"1bd8fd5d-56a1-47b9-9658-715e1f220b6a","system_id":"levelo_inurba_marseille","lat":43.29193,"lon":5.35809,"is_reserved":false,"is_disabled":false,"rental_uris":{"android":"levelo://app?vid=1bd8fd5d-56a1-47b9-9658-715e1f220b6a","ios":"levelo://app?vid=1bd8fd5d-56a1-47b9-9658-715e1f220b6a"},"vehicle_type_id":"4","last_reported":1745305840,"current_range_meters":22000,"station_id":"ce4bhb12rcd13ifvqel0","pricing_plan_id":"cebpf4jnsgd1na2vs0mg"},{"bike_id":"efa68cd4-f060-4283-bb59-c5c9482f59cc","system_id":"levelo_inurba_marseille","lat":43.29032,"lon":5.38135,"is_reserved":false,"is_disabled":false,"rental_uris":{"android":"levelo://app?vid=efa68cd4-f060-4283-bb59-c5c9482f59cc","ios":"levelo://app?vid=efa68cd4-f060-4283-bb59-c5c9482f59cc"},"vehicle_type_id":"4","last_reported":1745305840,"current_range_meters":22000,"station_id":"ce4bh4p2rcd13ifvqe1g","pricing_plan_id":"cebpf4jnsgd1na2vs0mg"},{"bike_id":"46374c49-3adc-4c5a-8966-e00f056c0d57","system_id":"levelo_inurba_marseille","lat":43.27846,"lon":5.35442,"is_reserved":false,"is_disabled":false,"rental_uris":{"android":"levelo://app?vid=46374c49-3adc-4c5a-8966-e00f056c0d57","ios":"levelo://app?vid=46374c49-3adc-4c5a-8966-e00f056c0d57"},"vehicle_type_id":"4","last_reported":1745305840,"current_range_meters":22000,"station_id":"","pricing_plan_id":"cebpf4jnsgd1na2vs0mg"},{"bike_id":"bbcfdd8b-de12-49a6-a603-9070191b1145","system_id":"levelo_inurba_marseille","lat":43.29223,"lon":5.36067,"is_reserved":false,"is_disabled":false,"rental_uris":{"android":"levelo://app?vid=bbcfdd8b-de12-49a6-a603-9070191b1145","ios":"levelo://app?vid=bbcfdd8b-de12-49a6-a603-9070191b1145"},"vehicle_type_id":"4","last_reported":1745305840,"current_range_meters":22000,"station_id":"ce4bhbh2rcd13ifvqeqg","pricing_plan_id":"cebpf4jnsgd1na2vs0mg"},{"bike_id":"36dee826-d706-4ee2-aeae-ceadb9e62a22","system_id":"levelo_inurba_marseille","lat":43.322867,"lon":5.382663,"is_reserved":false,"is_disabled":false,"rental_uris":{"android":"levelo://app?vid=36dee826-d706-4ee2-aeae-ceadb9e62a22","ios":"levelo://app?vid=36dee826-d706-4ee2-aeae-ceadb9e62a22"},"vehicle_type_id":"4","last_reported":1745305840,"current_range_meters":22000,"station_id":"ce4bh0h2rcd13ifvqd60","pricing_plan_id":"cebpf4jnsgd1na2vs0mg"},{"bike_id":"d9d975bc-1861-4214-b6db-271166d025a2","system_id":"levelo_inurba_marseille","lat":43.31491,"lon":5.37299,"is_reserved":false,"is_disabled":false,"rental_uris":{"android":"levelo://app?vid=d9d975bc-1861-4214-b6db-271166d025a2","ios":"levelo://app?vid=d9d975bc-1861-4214-b6db-271166d025a2"},"vehicle_type_id":"4","last_reported":1745305840,"current_range_meters":22000,"station_id":"ce4bgt12rcd13ifvqcd0","pricing_plan_id":"cebpf4jnsgd1na2vs0mg"},{"bike_id":"e7a535f8-ed78-40de-8cdc-f8a1d2d90b31","system_id":"levelo_inurba_marseille","lat":43.24818,"lon":5.37459,"is_reserved":false,"is_disabled":true,"rental_uris":{"android":"levelo://app?vid=e7a535f8-ed78-40de-8cdc-f8a1d2d90b31","ios":"levelo://app?vid=e7a535f8-ed78-40de-8cdc-f8a1d2d90b31"},"vehicle_type_id":"4","last_reported":1745305840,"current_range_meters":22000,"station_id":"ce4bhgh2rcd13ifvqfb0","pricing_plan_id":"cebpf4jnsgd1na2vs0mg"},{"bike_id":"06e0bcc9-ed28-4c26-a6e9-2713c37e868b","system_id":"levelo_inurba_marseille","lat":43.25944,"lon":5.40906,"is_reserved":false,"is_disabled":false,"rental_uris":{"android":"levelo://app?vid=06e0bcc9-ed28-4c26-a6e9-2713c37e868b","ios":"levelo://app?vid=06e0bcc9-ed28-4c26-a6e9-2713c37e868b"},"vehicle_type_id":"4","last_reported":1745305840,"current_range_meters":22000,"station_id":"ce4bhm92rcd13ifvqglg","pricing_plan_id":"cebpf4jnsgd1na2vs0mg"},{"bike_id":"72230011-10be-4bc5-b812-e255d2e856f3","system_id":"levelo_inurba_marseille","lat":43.27369,"lon":5.36255,"is_reserved":false,"is_disabled":false,"rental_uris":{"android":"levelo://app?vid=72230011-10be-4bc5-b812-e255d2e856f3","ios":"levelo://app?vid=72230011-10be-4bc5-b812-e255d2e856f3"},"vehicle_type_id":"4","last_reported":1745305840,"current_range_meters":22400,"station_id":"","pricing_plan_id":"cebpf4jnsgd1na2vs0mg"},{"bike_id":"b6765041-4316-4033-85c8-3f340c1596d9","system_id":"levelo_inurba_marseille","lat":43.29042,"lon":5.39972,"is_reserved":false,"is_disabled":true,"rental_uris":{"android":"levelo://app?vid=b6765041-4316-4033-85c8-3f340c1596d9","ios":"levelo://app?vid=b6765041-4316-4033-85c8-3f340c1596d9"},"vehicle_type_id":"4","last_reported":1745305840,"current_range_meters":22400,"station_id":"ce4bh392rcd13ifvqdm0","pricing_plan_id":"cebpf4jnsgd1na2vs0mg"},{"bike_id":"e8f37e9c-826e-49d9-8ec3-91ff15cfadf9","system_id":"levelo_inurba_marseille","lat":43.298362,"lon":5.36272,"is_reserved":false,"is_disabled":false,"rental_uris":{"android":"levelo://app?vid=e8f37e9c-826e-49d9-8ec3-91ff15cfadf9","ios":"levelo://app?vid=e8f37e9c-826e-49d9-8ec3-91ff15cfadf9"},"vehicle_type_id":"4","last_reported":1745305840,"current_range_meters":22400,"station_id":"","pricing_plan_id":"cebpf4jnsgd1na2vs0mg"},{"bike_id":"e2e8eb3a-7c3a-482f-bf3d-f49f99ae5d29","system_id":"levelo_inurba_marseille","lat":43.30884,"lon":5.39659,"is_reserved":false,"is_disabled":false,"rental_uris":{"android":"levelo://app?vid=e2e8eb3a-7c3a-482f-bf3d-f49f99ae5d29","ios":"levelo://app?vid=e2e8eb3a-7c3a-482f-bf3d-f49f99ae5d29"},"vehicle_type_id":"4","last_reported":1745305840,"current_range_meters":22400,"station_id":"ce4bh012rcd13ifvqcv0","pricing_plan_id":"cebpf4jnsgd1na2vs0mg"},{"bike_id":"193b9407-b6e1-4464-bf31-e16bc48f883b","system_id":"levelo_inurba_marseille","lat":43.27969,"lon":5.38733,"is_reserved":false,"is_disabled":false,"rental_uris":{"android":"levelo://app?vid=193b9407-b6e1-4464-bf31-e16bc48f883b","ios":"levelo://app?vid=193b9407-b6e1-4464-bf31-e16bc48f883b"},"vehicle_type_id":"4","last_reported":1745305840,"current_range_meters":22400,"station_id":"ce4bhg12rcd13ifvqf80","pricing_plan_id":"cebpf4jnsgd1na2vs0mg"},{"bike_id":"75400e05-e26d-4767-833b-29124dc8f1b8","system_id":"levelo_inurba_marseille","lat":43.27504,"lon":5.42437,"is_reserved":false,"is_disabled":false,"rental_uris":{"android":"levelo://app?vid=75400e05-e26d-4767-833b-29124dc8f1b8","ios":"levelo://app?vid=75400e05-e26d-4767-833b-29124dc8f1b8"},"vehicle_type_id":"4","last_reported":1745305840,"current_range_meters":22400,"station_id":"ce4bhn92rcd13ifvqgrg","pricing_plan_id":"cebpf4jnsgd1na2vs0mg"},{"bike_id":"fa15de24-cca3-4579-a312-f78f5ae8f6e1","system_id":"levelo_inurba_marseille","lat":43.24077,"lon":5.37759,"is_reserved":false,"is_disabled":false,"rental_uris":{"android":"levelo://app?vid=fa15de24-cca3-4579-a312-f78f5ae8f6e1","ios":"levelo://app?vid=fa15de24-cca3-4579-a312-f78f5ae8f6e1"},"vehicle_type_id":"4","last_reported":1745305840,"current_range_meters":22000,"station_id":"ce4bhnp2rcd13ifvqgvg","pricing_plan_id":"cebpf4jnsgd1na2vs0mg"},{"bike_id":"54cde150-7ab4-4ced-9487-e07fcbbcf23d","system_id":"levelo_inurba_marseille","lat":43.26948,"lon":5.38634,"is_reserved":false,"is_disabled":false,"rental_uris":{"android":"levelo://app?vid=54cde150-7ab4-4ced-9487-e07fcbbcf23d","ios":"levelo://app?vid=54cde150-7ab4-4ced-9487-e07fcbbcf23d"},"vehicle_type_id":"4","last_reported":1745305840,"current_range_meters":24000,"station_id":"ce4bhh92rcd13ifvqfh0","pricing_plan_id":"cebpf4jnsgd1na2vs0mg"},{"bike_id":"34d2c59c-0396-4e7e-a7f7-dec50229f609","system_id":"levelo_inurba_marseille","lat":43.29777,"lon":5.38118,"is_reserved":false,"is_disabled":false,"rental_uris":{"android":"levelo://app?vid=34d2c59c-0396-4e7e-a7f7-dec50229f609","ios":"levelo://app?vid=34d2c59c-0396-4e7e-a7f7-dec50229f609"},"vehicle_type_id":"4","last_reported":1745305840,"current_range_meters":22800,"station_id":"ce4bgip2rcd13ifvqbb0","pricing_plan_id":"cebpf4jnsgd1na2vs0mg"},{"bike_id":"5b10b683-b472-491a-acc8-7a59c8d12769","system_id":"levelo_inurba_marseille","lat":43.32473,"lon":5.36568,"is_reserved":false,"is_disabled":false,"rental_uris":{"android":"levelo://app?vid=5b10b683-b472-491a-acc8-7a59c8d12769","ios":"levelo://app?vid=5b10b683-b472-491a-acc8-7a59c8d12769"},"vehicle_type_id":"4","last_reported":1745305840,"current_range_meters":23200,"station_id":"ce4bhs12rcd13ifvqhvg","pricing_plan_id":"cebpf4jnsgd1na2vs0mg"},{"bike_id":"fa29dfd6-13db-44df-ba49-cf732146b122","system_id":"levelo_inurba_marseille","lat":43.30542,"lon":5.36554,"is_reserved":false,"is_disabled":false,"rental_uris":{"android":"levelo://app?vid=fa29dfd6-13db-44df-ba49-cf732146b122","ios":"levelo://app?vid=fa29dfd6-13db-44df-ba49-cf732146b122"},"vehicle_type_id":"4","last_reported":1745305840,"current_range_meters":22800,"station_id":"ce4bgs12rcd13ifvqcag","pricing_plan_id":"cebpf4jnsgd1na2vs0mg"},