{"last_updated":1735945763,"ttl":60,"version":"2.2","data":{"bikes":[{"bike_id":"7154701f-002c-42b6-98ab-87bbfea83729","system_id":"levelo_inurba_marseille","lat":43.30155,"lon":5.37408,"is_reserved":false,"is_disabled":false,"rental_uris":{"android":"levelo://app?vid=7154701f-002c-42b6-98ab-87bbfea83729","ios":"levelo://app?vid=7154701f-002c-42b6-98ab-87bbfea83729"},"vehicle_type_id":"4","last_reported":1735945764,"current_range_meters":36000,"station_id":"ce4bgs92rcd13ifvqcc0","pricing_plan_id":"cebpf4jnsgd1na2vs0mg"},{"bike_id":"2c3fe8fd-181c-4e7f-9dd5-00ebd530677f","system_id":"levelo_inurba_marseille","lat":43.31722,"lon":5.40467,"is_reserved":false,"is_disabled":false,"rental_uris":{"android":"levelo://app?vid=2c3fe8fd-181c-4e7f-9dd5-00ebd530677f","ios":"levelo://app?vid=2c3fe8fd-181c-4e7f-9dd5-00ebd530677f"},"vehicle_type_id":"4","last_reported":1735945764,"current_range_meters":36400,"station_id":"ce4bh012rcd13ifvqd00","pricing_plan_id":"cebpf4jnsgd1na2vs0mg"},{"bike_id":"bf54e88b-da3f-4189-8098-c83ac2078216","system_id":"levelo_inurba_marseille","lat":43.27949,"lon":5.41042,"is_reserved":false,"is_disabled":false,"rental_uris":{"android":"levelo://app?vid=bf54e88b-da3f-4189-8098-c83ac2078216","ios":"levelo://app?vid=bf54e88b-da3f-4189-8098-c83ac2078216"},"vehicle_type_id":"4","last_reported":1735945764,"current_range_meters":26000,"station_id":"ce4bhnp2rcd13ifvqh0g","pricing_plan_id":"cebpf4jnsgd1na2vs0mg"},{"bike_id":"7ebb8584-61a3-4124-a2af-8145a28fbd50","system_id":"levelo_inurba_marseille","lat":43.31169,"lon":5.38715,"is_reserved":false,"is_disabled":false,"rental_uris":{"android":"levelo://app?vid=7ebb8584-61a3-4124-a2af-8145a28fbd50","ios":"levelo://app?vid=7ebb8584-61a3-4124-a2af-8145a28fbd50"},"vehicle_type_id":"4","last_reported":1735945764,"current_range_meters":38800,"station_id":"ce4bgv12rcd13ifvqcp0","pricing_plan_id":"cebpf4jnsgd1na2vs0mg"},{"bike_id":"05793010-67bf-4cf9-85c1-266c8ecb0e3c","system_id":"levelo_inurba_marseille","lat":43.23969,"lon":5.3663,"is_reserved":false,"is_disabled":false,"rental_uris":{"android":"levelo://app?vid=05793010-67bf-4cf9-85c1-266c8ecb0e3c","ios":"levelo://app?vid=05793010-67bf-4cf9-85c1-266c8ecb0e3c"},"vehicle_type_id":"4","last_reported":1735945764,"current_range_meters":35600,"station_id":"ce4bhi12rcd13ifvqfp0","pricing_plan_id":"cebpf4jnsgd1na2vs0mg"},{"bike_id":"7997b089-1c2f-4581-af18-425903d8dc91","system_id":"levelo_inurba_marseille","lat":43.28928,"lon":5.38378,"is_reserved":false,"is_disabled":false,"rental_uris":{"android":"levelo://app?vid=7997b089-1c2f-4581-af18-425903d8dc91","ios":"levelo://app?vid=7997b089-1c2f-4581-af18-425903d8dc91"},"vehicle_type_id":"4","last_reported":1735945764,"current_range_meters":38000,"station_id":"ce4bh612rcd13ifvqe6g","pricing_plan_id":"cebpf4jnsgd1na2vs0mg"},{"bike_id":"ca4beb2c-c4d8-484f-9237-25798230877a","system_id":"levelo_inurba_marseille","lat":43.29003,"lon":5.35602,"is_reserved":false,"is_disabled":false,"rental_uris":{"android":"levelo://app?vid=ca4beb2c-c4d8-484f-9237-25798230877a","ios":"levelo://app?vid=ca4beb2c-c4d8-484f-9237-25798230877a"},"vehicle_type_id":"4","last_reported":1735945764,"current_range_meters":39200,"station_id":"ce4bhb92rcd13ifvqen0","pricing_plan_id":"cebpf4jnsgd1na2vs0mg"},{"bike_id":"cdc4b0cc-0711-4b56-904c-59d269c327ef","system_id":"levelo_inurba_marseille","lat":43.31324,"lon":5.39701,"is_reserved":false,"is_disabled":false,"rental_uris":{"android":"levelo://app?vid=cdc4b0cc-0711-4b56-904c-59d269c327ef","ios":"levelo://app?vid=cdc4b0cc-0711-4b56-904c-59d269c327ef"},"vehicle_type_id":"4","last_reported":1735945764,"current_range_meters":38800,"station_id":"ce4bgvp2rcd13ifvqcu0","pricing_plan_id":"cebpf4jnsgd1na2vs0mg"},{"bike_id":"e1dfcdee-18af-407f-9a6c-807a8fefbf81","system_id":"levelo_inurba_marseille","lat":43.29012,"lon":5.35603,"is_reserved":false,"is_disabled":false,"rental_uris":{"android":"levelo://app?vid=e1dfcdee-18af-407f-9a6c-807a8fefbf81","ios":"levelo://app?vid=e1dfcdee-18af-407f-9a6c-807a8fefbf81"},"vehicle_type_id":"4","last_reported":1735945764,"current_range_meters":38800,"station_id":"ce4bhb92rcd13ifvqen0","pricing_plan_id":"cebpf4jnsgd1na2vs0mg"},{"bike_id":"d983dea5-70b4-4f36-bbbe-3e06107ca98c","system_id":"levelo_inurba_marseille","lat":43.28679,"lon":5.38665,"is_reserved":false,"is_disabled":false,"rental_uris":{"android":"levelo://app?vid=d983dea5-70b4-4f36-bbbe-3e06107ca98c","ios":"levelo://app?vid=d983dea5-70b4-4f36-bbbe-3e06107ca98c"},"vehicle_type_id":"4","last_reported":1735945764,"current_range_meters":24000,"station_id":"ce4bh492rcd13ifvqdug","pricing_plan_id":"cebpf4jnsgd1na2vs0mg"},{"bike_id":"36d0910b-d540-4d75-b065-f044cb5b6555","system_id":"levelo_inurba_marseille","lat":43.295928,"lon":5.367366,"is_reserved":false,"is_disabled":false,"rental_uris":{"android":"levelo://app?vid=36d0910b-d540-4d75-b065-f044cb5b6555","ios":"levelo://app?vid=36d0910b-d540-4d75-b065-f044cb5b6555"},"vehicle_type_id":"4","last_reported":1735945764,"current_range_meters":38800,"station_id":"ce4bgph2rcd13ifvqc2g","pricing_plan_id":"cebpf4jnsgd1na2vs0mg"},{"bike_id":"0cc226b6-5f36-4e90-9e5b-497bf45d78e0","system_id":"levelo_inurba_marseille","lat":43.28001,"lon":5.40016,"is_reserved":false,"is_disabled":false,"rental_uris":{"android":"levelo://app?vid=0cc226b6-5f36-4e90-9e5b-497bf45d78e0","ios":"levelo://app?vid=0cc226b6-5f36-4e90-9e5b-497bf45d78e0"},"vehicle_type_id":"4","last_reported":1735945764,"current_range_meters":38800,"station_id":"ce4bho92rcd13ifvqh4g","pricing_plan_id":"cebpf4jnsgd1na2vs0mg"},{"bike_id":"386b715d-7f1b-4d3e-85cd-3b17a09bf14d","system_id":"levelo_inurba_marseille","lat":43.30153,"lon":5.36617,"is_reserved":false,"is_disabled":false,"rental_uris":{"android":"levelo://app?vid=386b715d-7f1b-4d3e-85cd-3b17a09bf14d","ios":"levelo://app?vid=386b715d-7f1b-4d3e-85cd-3b17a09bf14d"},"vehicle_type_id":"4","last_reported":1735945764,"current_range_meters":38800,"station_id":"ce4bgrh2rcd13ifvqc8g","pricing_plan_id":"cebpf4jnsgd1na2vs0mg"},{"bike_id":"fe3aafb8-a6b4-4a18-a86a-13b013e22a76","system_id":"levelo_inurba_marseille","lat":43.31495,"lon":5.37298,"is_reserved":false,"is_disabled":false,"rental_uris":{"android":"levelo://app?vid=fe3aafb8-a6b4-4a18-a86a-13b013e22a76","ios":"levelo://app?vid=fe3aafb8-a6b4-4a18-a86a-13b013e22a76"},"vehicle_type_id":"4","last_reported":1735945764,"current_range_meters":37600,"station_id":"ce4bgt12rcd13ifvqcd0","pricing_plan_id":"cebpf4jnsgd1na2vs0mg"},{"bike_id":"116f92ae-65b4-4f7c-a23b-1117c0a69b33","system_id":"levelo_inurba_marseille","lat":43.28619,"lon":5.3511,"is_reserved":false,"is_disabled":false,"rental_uris":{"android":"levelo://app?vid=116f92ae-65b4-4f7c-a23b-1117c0a69b33","ios":"levelo://app?vid=116f92ae-65b4-4f7c-a23b-1117c0a69b33"},"vehicle_type_id":"4","last_reported":1735945764,"current_range_meters":25600,"station_id":"ce4bhch2rcd13ifvqeug","pricing_plan_id":"cebpf4jnsgd1na2vs0mg"},{"bike_id":"efe82dc4-c15f-4046-9226-91dca361e6bd","system_id":"levelo_inurba_marseille","lat":43.25579,"lon":5.38237,"is_reserved":false,"is_disabled":false,"rental_uris":{"android":"levelo://app?vid=efe82dc4-c15f-4046-9226-91dca361e6bd","ios":"levelo://app?vid=efe82dc4-c15f-4046-9226-91dca361e6bd"},"vehicle_type_id":"4","last_reported":1735945764,"current_range_meters":39200,"station_id":"ce4bhih2rcd13ifvqfs0","pricing_plan_id":"cebpf4jnsgd1na2vs0mg"},{"bike_id":"0a72fabb-c385-470f-8026-c60effe2f3f0","system_id":"levelo_inurba_marseille","lat":43.29696,"lon":5.35972,"is_reserved":false,"is_disabled":false,"rental_uris":{"android":"levelo://app?vid=0a72fabb-c385-470f-8026-c60effe2f3f0","ios":"levelo://app?vid=0a72fabb-c385-470f-8026-c60effe2f3f0"},"vehicle_type_id":"4","last_reported":1735945764,"current_range_meters":24000,"station_id":"","pricing_plan_id":"cebpf4jnsgd1na2vs0mg"},{"bike_id":"6b65e966-5a1a-4003-9913-97f31fc37c8a","system_id":"levelo_inurba_marseille","lat":43.29035,"lon":5.38681,"is_reserved":false,"is_disabled":false,"rental_uris":{"android":"levelo://app?vid=6b65e966-5a1a-4003-9913-97f31fc37c8a","ios":"levelo://app?vid=6b65e966-5a1a-4003-9913-97f31fc37c8a"},"vehicle_type_id":"4","last_reported":1735945764,"current_range_meters":39200,"station_id":"ce4bh4p2rcd13ifvqe0g","pricing_plan_id":"cebpf4jnsgd1na2vs0mg"},{"bike_id":"76d392c8-6dd4-4fbf-b626-27c2990c047b","system_id":"levelo_inurba_marseille","lat":43.28157,"lon":5.42792,"is_reserved":false,"is_disabled":false,"rental_uris":{"android":"levelo://app?vid=76d392c8-6dd4-4fbf-b626-27c2990c047b","ios":"levelo://app?vid=76d392c8-6dd4-4fbf-b626-27c2990c047b"},"vehicle_type_id":"4","last_reported":1735945764,"current_range_meters":15200,"station_id":"","pricing_plan_id":"cebpf4jnsgd1na2vs0mg"},{"bike_id":"ebb56956-e2e2-4f51-8f7a-80ccc26c078c","system_id":"levelo_inurba_marseille","lat":43.28164,"lon":5.42625,"is_reserved":false,"is_disabled":false,"rental_uris":{"android":"levelo://app?vid=ebb56956-e2e2-4f51-8f7a-80ccc26c078c","ios":"levelo://app?vid=ebb56956-e2e2-4f51-8f7a-80ccc26c078c"},"vehicle_type_id":"4","last_reported":1735945764,"current_range_meters":29600,"station_id":"ce4bhnh2rcd13ifvqgug","pricing_plan_id":"cebpf4jnsgd1na2vs0mg"},{"bike_id":"7653e4dc-dde3-44a0-90b1-c01d8f4ac579","system_id":"levelo_inurba_marseille","lat":43.23969,"lon":5.36628,"is_reserved":false,"is_disabled":false,"rental_uris":{"android":"levelo://app?vid=7653e4dc-dde3-44a0-90b1-c01d8f4ac579","ios":"levelo://app?vid=7653e4dc-dde3-44a0-90b1-c01d8f4ac579"},"vehicle_type_id":"4","last_reported":1735945764,"current_range_meters":6400,"station_id":"ce4bhi12rcd13ifvqfp0","pricing_plan_id":"cebpf4jnsgd1na2vs0mg"},{"bike_id":"4c0c6329-61b7-44a9-8f31-f23f15dd5702","system_id":"levelo_inurba_marseille","lat":43.29259,"lon":5.38448,"is_reserved":false,"is_disabled":false,"rental_uris":{"android":"levelo://app?vid=4c0c6329-61b7-44a9-8f31-f23f15dd5702","ios":"levelo://app?vid=4c0c6329-61b7-44a9-8f31-f23f15dd5702"},"vehicle_type_id":"4","last_reported":1735945764,"current_range_meters":23200,"station_id":"ce4bh692rcd13ifvqea0","pricing_plan_id":"cebpf4jnsgd1na2vs0mg"},{"bike_id":"bf70612c-bb92-4866-a69d-98eaa351e40a","system_id":"levelo_inurba_marseille","lat":43.27967,"lon":5.38737,"is_reserved":false,"is_disabled":false,"rental_uris":{"android":"levelo://app?vid=bf70612c-bb92-4866-a69d-98eaa351e40a","ios":"levelo://app?vid=bf70612c-bb92-4866-a69d-98eaa351e40a"},"vehicle_type_id":"4","last_reported":1735945764,"current_range_meters":38800,"station_id":"ce4bhg12rcd13ifvqf80","pricing_plan_id":"cebpf4jnsgd1na2vs0mg"},{"bike_id":"53bf85fe-dd63-4844-ad95-abf78e8c02a9","system_id":"levelo_inurba_marseille","lat":43.30191,"lon":5.366,"is_reserved":false,"is_disabled":false,"rental_uris":{"android":"levelo://app?vid=53bf85fe-dd63-4844-ad95-abf78e8c02a9","ios":"levelo://app?vid=53bf85fe-dd63-4844-ad95-abf78e8c02a9"},"vehicle_type_id":"4","last_reported":1735945764,"current_range_meters":18000,"station_id":"ce4bgrh2rcd13ifvqc8g","pricing_plan_id":"cebpf4jnsgd1na2vs0mg"},{"bike_id":"abd32c9e-a529-4e38-ad39-05a794ca11f3","system_id":"levelo_inurba_marseille","lat":43.30444,"lon":5.37919,"is_reserved":false,"is_disabled":false,"rental_uris":{"android":"levelo://app?vid=abd32c9e-a529-4e38-ad39-05a794ca11f3","ios":"levelo://app?vid=abd32c9e-a529-4e38-ad39-05a794ca11f3"},"vehicle_type_id":"4","last_reported":1735945764,"current_range_meters":38000,"station_id":"ce4bgup2rcd13ifvqcn0","pricing_plan_id":"cebpf4jnsgd1na2vs0mg"},{"bike_id":"c1fbacba-07fa-4084-9309-d9b176bb6829","system_id":"levelo_inurba_marseille","lat":43.28675,"lon":5.36338,"is_reserved":false,"is_disabled":false,"rental_uris":{"android":"levelo://app?vid=c1fbacba-07fa-4084-9309-d9b176bb6829","ios":"levelo://app?vid=c1fbacba-07fa-4084-9309-d9b176bb6829"},"vehicle_type_id":"4","last_reported":1735945764,"current_range_meters":38800,"station_id":"ce4bhah2rcd13ifvqej0","pricing_plan_id":"cebpf4jnsgd1na2vs0mg"},{"bike_id":"c1271aaf-ee65-4fd7-920e-9bd36ec29ad2","system_id":"levelo_inurba_marseille","lat":43.31487,"lon":5.37292,"is_reserved":false,"is_disabled":false,"rental_uris":{"android":"levelo://app?vid=c1271aaf-ee65-4fd7-920e-9bd36ec29ad2","ios":"levelo://app?vid=c1271aaf-ee65-4fd7-920e-9bd36ec29ad2"},"vehicle_type_id":"4","last_reported":1735945764,"current_range_meters":26000,"station_id":"ce4bgt12rcd13ifvqcd0","pricing_plan_id":"cebpf4jnsgd1na2vs0mg"},{"bike_id":"15d7971b-eed3-4b6e-8e61-b40a5a6478e8","system_id":"levelo_inurba_marseille","lat":43.306,"lon":5.37231,"is_reserved":false,"is_disabled":false,"rental_uris":{"android":"levelo://app?vid=15d7971b-eed3-4b6e-8e61-b40a5a6478e8","ios":"levelo://app?vid=15d7971b-eed3-4b6e-8e61-b40a5a6478e8"},"vehicle_type_id":"4","last_reported":1735945764,"current_range_meters":36800,"station_id":"ce4bgqh2rcd13ifvqc4g","pricing_plan_id":"cebpf4jnsgd1na2vs0mg"},{"bike_id":"9d281a53-6992-4392-9438-72ec394ec5a5","system_id":"levelo_inurba_marseille","lat":43.24406,"lon":5.37027,"is_reserved":false,"is_disabled":false,"rental_uris":{"android":"levelo://app?vid=9d281a53-6992-4392-9438-72ec394ec5a5","ios":"levelo://app?vid=9d281a53-6992-4392-9438-72ec394ec5a5"},"vehicle_type_id":"4","last_reported":1735945764,"current_range_meters":8400,"station_id":"ce4bhhh2rcd13ifvqfk0","pricing_plan_id":"cebpf4jnsgd1na2vs0mg"},{"bike_id":"eb09bd5e-b0d3-4b59-b9d4-1e064baa5923","system_id":"levelo_inurba_marseille","lat":43.28038,"lon":5.36946,"is_reserved":false,"is_disabled":false,"rental_uris":{"android":"levelo://app?vid=eb09bd5e-b0d3-4b59-b9d4-1e064baa5923","ios":"levelo://app?vid=eb09bd5e-b0d3-4b59-b9d4-1e064baa5923"},"vehicle_type_id":"4","last_reported":1735945764,"current_range_meters":4000,"station_id":"ce4bha12rcd13ifvqef0","pricing_plan_id":"cebpf4jnsgd1na2vs0mg"},{"bike_id":"6c92faae-448f-4fcd-b837-c7db2ff4caee","system_id":"levelo_inurba_marseille","lat":43.306508,"lon":5.401005,"is_reserved":false,"is_disabled":false,"rental_uris":{"android":"levelo://app?vid=6c92faae-448f-4fcd-b837-c7db2ff4caee","ios":"levelo://app?vid=6c92faae-448f-4fcd-b837-c7db2ff4caee"},"vehicle_type_id":"4","last_reported":1735945764,"current_range_meters":38800,"station_id":"ce4bh112rcd13ifvqda0","pricing_plan_id":"cebpf4jnsgd1na2vs0mg"},{"bike_id":"2177261e-35d7-4ff7-809f-5327d29a51d9","system_id":"levelo_inurba_marseille","lat":43.29202,"lon":5.39316,"is_reserved":false,"is_disabled":false,"rental_uris":{"android":"levelo://app?vid=2177261e-35d7-4ff7-809f-5327d29a51d9","ios":"levelo://app?vid=2177261e-35d7-4ff7-809f-5327d29a51d9"},"vehicle_type_id":"4","last_reported":1735945764,"current_range_meters":38800,"station_id":"ce4bh192rcd13ifvqdd0","pricing_plan_id":"cebpf4jnsgd1na2vs0mg"},{"bike_id":"7816c12e-61a1-48b1-b7a9-75d01de1e070","system_id":"levelo_inurba_marseille","lat":43.28944,"lon":5.36395,"is_reserved":false,"is_disabled":false,"rental_uris":{"android":"levelo://app?vid=7816c12e-61a1-48b1-b7a9-75d01de1e070","ios":"levelo://app?vid=7816c12e-61a1-48b1-b7a9-75d01de1e070"},"vehicle_type_id":"4","last_reported":1735945764,"current_range_meters":39200,"station_id":"ce4bhc92rcd13ifvqetg","pricing_plan_id":"cebpf4jnsgd1na2vs0mg"},{"bike_id":"6a27b8ed-59a3-4765-b121-56acffc7b300","system_id":"levelo_inurba_marseille","lat":43.26563,"lon":5.39013,"is_reserved":false,"is_disabled":false,"rental_uris":{"android":"levelo://app?vid=6a27b8ed-59a3-4765-b121-56acffc7b300","ios":"levelo://app?vid=6a27b8ed-59a3-4765-b121-56acffc7b300"},"vehicle_type_id":"4","last_reported":1735945764,"current_range_meters":38400,"station_id":"ce4bhe12rcd13ifvqf30","pricing_plan_id":"cebpf4jnsgd1na2vs0mg"},{"bike_id":"08fcce35-f396-4621-8414-234605fdf5dd","system_id":"levelo_inurba_marseille","lat":43.29183,"lon":5.37158,"is_reserved":false,"is_disabled":false,"rental_uris":{"android":"levelo://app?vid=08fcce35-f396-4621-8414-234605fdf5dd","ios":"levelo://app?vid=08fcce35-f396-4621-8414-234605fdf5dd"},"vehicle_type_id":"4","last_reported":1735945764,"current_range_meters":26800,"station_id":"ce4bha92rcd13ifvqeh0","pricing_plan_id":"cebpf4jnsgd1na2vs0mg"},{"bike_id":"8b669bc4-271e-4048-84b4-b7d4fbd35ff6","system_id":"levelo_inurba_marseille","lat":43.289297,"lon":5.383904,"is_reserved":false,"is_disabled":false,"rental_uris":{"android":"levelo://app?vid=8b669bc4-271e-4048-84b4-b7d4fbd35ff6","ios":"levelo://app?vid=8b669bc4-271e-4048-84b4-b7d4fbd35ff6"},"vehicle_type_id":"4","last_reported":1735945764,"current_range_meters":39200,"station_id":"ce4bh612rcd13ifvqe6g","pricing_plan_id":"cebpf4jnsgd1na2vs0mg"},{"bike_id":"1edca33b-8d82-4613-945e-057a682428fe","system_id":"levelo_inurba_marseille","lat":43.33108,"lon":5.382,"is_reserved":false,"is_disabled":false,"rental_uris":{"android":"levelo://app?vid=1edca33b-8d82-4613-945e-057a682428fe","ios":"levelo://app?vid=1edca33b-8d82-4613-945e-057a682428fe"},"vehicle_type_id":"4","last_reported":1735945764,"current_range_meters":32000,"station_id":"","pricing_plan_id":"cebpf4jnsgd1na2vs0mg"},{"bike_id":"18f3cae1-31d6-4997-a825-88b4e3979bb4","system_id":"levelo_inurba_marseille","lat":43.25496,"lon":5.37643,"is_reserved":false,"is_disabled":false,"rental_uris":{"android":"levelo://app?vid=18f3cae1-31d6-4997-a825-88b4e3979bb4","ios":"levelo://app?vid=18f3cae1-31d6-4997-a825-88b4e3979bb4"},"vehicle_type_id":"4","last_reported":1735945764,"current_range_meters":39200,"station_id":"ce4bhh12rcd13ifvqff0","pricing_plan_id":"cebpf4jnsgd1na2vs0mg"},{"bike_id":"542a1ebb-0f94-4674-b7a9-021dc4d3f8a5","system_id":"levelo_inurba_marseille","lat":43.2893,"lon":5.36645,"is_reserved":false,"is_disabled":false,"rental_uris":{"android":"levelo://app?vid=542a1ebb-0f94-4674-b7a9-021dc4d3f8a5","ios":"levelo://app?vid=542a1ebb-0f94-4674-b7a9-021dc4d3f8a5"},"vehicle_type_id":"4","last_reported":1735945764,"current_range_meters":38800,"station_id":"ce4bhap2rcd13ifvqek0","pricing_plan_id":"cebpf4jnsgd1na2vs0mg"},{"bike_id":"fb0d5d50-2cba-4668-8a68-53b559a0ffc7","system_id":"levelo_inurba_marseille","lat":43.24678,"lon":5.38161,"is_reserved":false,"is_disabled":false,"rental_uris":{"android":"levelo://app?vid=fb0d5d50-2cba-4668-8a68-53b559a0ffc7","ios":"levelo://app?vid=fb0d5d50-2cba-4668-8a68-53b559a0ffc7"},"vehicle_type_id":"4","last_reported":1735945764,"current_range_meters":33200,"station_id":"ce4bhih2rcd13ifvqfr0","pricing_plan_id":"cebpf4jnsgd1na2vs0mg"},{"bike_id":"0c3b96ff-9de9-4b06-a81b-acb466115de3","system_id":"levelo_inurba_marseille","lat":43.25494,"lon":5.37649,"is_reserved":false,"is_disabled":false,"rental_uris":{"android":"levelo://app?vid=0c3b96ff-9de9-4b06-a81b-acb466115de3","ios":"levelo://app?vid=0c3b96ff-9de9-4b06-a81b-acb466115de3"},"vehicle_type_id":"4","last_reported":1735945764,"current_range_meters":38000,"station_id":"ce4bhh12rcd13ifvqff0","pricing_plan_id":"cebpf4jnsgd1na2vs0mg"},{"bike_id":"f653705f-a137-4eb5-b832-5d152bd99c2f","system_id":"levelo_inurba_marseille","lat":43.30515,"lon":5.36575,"is_reserved":false,"is_disabled":false,"rental_uris":{"android":"levelo://app?vid=f653705f-a137-4eb5-b832-5d152bd99c2f","ios":"levelo://app?vid=f653705f-a137-4eb5-b832-5d152bd99c2f"},"vehicle_type_id":"4","last_reported":1735945764,"current_range_meters":38000,"station_id":"ce4bgs12rcd13ifvqcag","pricing_plan_id":"cebpf4jnsgd1na2vs0mg"},{"bike_id":"da4df25d-b805-43d6-8806-56d930cd2264","system_id":"levelo_inurba_marseille","lat":43.29258,"lon":5.38434,"is_reserved":false,"is_disabled":false,"rental_uris":{"android":"levelo://app?vid=da4df25d-b805-43d6-8806-56d930cd2264","ios":"levelo://app?vid=da4df25d-b805-43d6-8806-56d930cd2264"},"vehicle_type_id":"4","last_reported":1735945764,"current_range_meters":33600,"station_id":"ce4bh692rcd13ifvqea0","pricing_plan_id":"cebpf4jnsgd1na2vs0mg"},{"bike_id":"a3a13d37-324b-4f71-8010-6efc8939585d","system_id":"levelo_inurba_marseille","lat":43.29186,"lon":5.37141,"is_reserved":false,"is_disabled":false,"rental_uris":{"android":"levelo://app?vid=a3a13d37-324b-4f71-8010-6efc8939585d","ios":"levelo://app?vid=a3a13d37-324b-4f71-8010-6efc8939585d"},"vehicle_type_id":"4","last_reported":1735945764,"current_range_meters":34800,"station_id":"ce4bha92rcd13ifvqeh0","pricing_plan_id":"cebpf4jnsgd1na2vs0mg"},{"bike_id":"22dcddca-903e-4320-8758-4e730ed46e04","system_id":"levelo_inurba_marseille","lat":43.30888,"lon":5.39636,"is_reserved":false,"is_disabled":false,"rental_uris":{"android":"levelo://app?vid=22dcddca-903e-4320-8758-4e730ed46e04","ios":"levelo://app?vid=22dcddca-903e-4320-8758-4e730ed46e04"},"vehicle_type_id":"4","last_reported":1735945764,"current_range_meters":14000,"station_id":"ce4bh012rcd13ifvqcv0","pricing_plan_id":"cebpf4jnsgd1na2vs0mg"},{"bike_id":"3126e039-f2e3-49b1-bc29-a722b3d3f659","system_id":"levelo_inurba_marseille","lat":43.2978,"lon":5.37111,"is_reserved":false,"is_disabled":false,"rental_uris":{"android":"levelo://app?vid=3126e039-f2e3-49b1-bc29-a722b3d3f659","ios":"levelo://app?vid=3126e039-f2e3-49b1-bc29-a722b3d3f659"},"vehicle_type_id":"4","last_reported":1735945764,"current_range_meters":37600,"station_id":"ce4bgop2rcd13ifvqc1g","pricing_plan_id":"cebpf4jnsgd1na2vs0mg"},{"bike_id":"e5403346-1340-42d8-86d6-6f7caa577628","system_id":"levelo_inurba_marseille","lat":43.3079,"lon":5.37638,"is_reserved":false,"is_disabled":false,"rental_uris":{"android":"levelo://app?vid=e5403346-1340-42d8-86d6-6f7caa577628","ios":"levelo://app?vid=e5403346-1340-42d8-86d6-6f7caa577628"},"vehicle_type_id":"4","last_reported":1735945764,"current_range_meters":36400,"station_id":"ce4bgv92rcd13ifvqcq0","pricing_plan_id":"cebpf4jnsgd1na2vs0mg"},{"bike_id":"162c53ef-4915-4a11-b510-6bc91dfb86ca","system_id":"levelo_inurba_marseille","lat":43.31121,"lon":5.37765,"is_reserved":false,"is_disabled":false,"rental_uris":{"android":"levelo://app?vid=162c53ef-4915-4a11-b510-6bc91dfb86ca","ios":"levelo://app?vid=162c53ef-4915-4a11-b510-6bc91dfb86ca"},"vehicle_type_id":"4","last_reported":1735945764,"current_range_meters":37600,"station_id":"ce4bgt92rcd13ifvqcg0","pricing_plan_id":"cebpf4jnsgd1na2vs0mg"},{"bike_id":"ec48cd5b-db60-4f45-92e1-00355225fff6","system_id":"levelo_inurba_marseille","lat":43.30935,"lon":5.4017,"is_reserved":false,"is_disabled":false,"rental_uris":{"android":"levelo://app?vid=ec48cd5b-db60-4f45-92e1-00355225fff6","ios":"levelo://app?vid=ec48cd5b-db60-4f45-92e1-00355225fff6"},"vehicle_type_id":"4","last_reported":1735945764,"current_range_meters":38000,"station_id":"ce4bgvp2rcd13ifvqct0","pricing_plan_id":"cebpf4jnsgd1na2vs0mg"},{"bike_id":"3c7472a4-a45c-4f46-a692-aa44ebf92f21","system_id":"levelo_inurba_marseille","lat":43.27406,"lon":5.39423,"is_reserved":false,"is_disabled":false,"rental_uris":{"android":"levelo://app?vid=3c7472a4-a45c-4f46-a692-aa44ebf92f21","ios":"levelo://app?vid=3c7472a4-a45c-4f46-a692-aa44ebf92f21"},"vehicle_type_id":"4","last_reported":1735945764,"current_range_meters":29600,"station_id":"ce4bhdp2rcd13ifvqf20","pricing_plan_id":"cebpf4jnsgd1na2vs0mg"},{"bike_id":"058ecb54-af3e-4e44-a703-6e3c9b29c958","system_id":"levelo_inurba_marseille","lat":43.29002,"lon":5.35617,"is_reserved":false,"is_disabled":false,"rental_uris":{"android":"levelo://app?vid=058ecb54-af3e-4e44-a703-6e3c9b29c958","ios":"levelo://app?vid=058ecb54-af3e-4e44-a703-6e3c9b29c958"},"vehicle_type_id":"4","last_reported":1735945764,"current_range_meters":38800,"station_id":"ce4bhb92rcd13ifvqen0","pricing_plan_id":"cebpf4jnsgd1na2vs0mg"},{"bike_id":"e8a5b97b-4d62-4d4b-b911-9dd59b78616f","system_id":"levelo_inurba_marseille","lat":43.25116,"lon":5.40322,"is_reserved":false,"is_disabled":false,"rental_uris":{"android":"levelo://app?vid=e8a5b97b-4d62-4d4b-b911-9dd59b78616f","ios":"levelo://app?vid=e8a5b97b-4d62-4d4b-b911-9dd59b78616f"},"vehicle_type_id":"4","last_reported":1735945764,"current_range_meters":8000,"station_id":"ce4bhlh2rcd13ifvqgig","pricing_plan_id":"cebpf4jnsgd1na2vs0mg"},{"bike_id":"b5b2166a-b0b8-4fc4-9960-24fcf8dddf0c","system_id":"levelo_inurba_marseille","lat":43.30825,"lon":5.38059,"is_reserved":false,"is_disabled":false,"rental_uris":{"android":"levelo://app?vid=b5b2166a-b0b8-4fc4-9960-24fcf8dddf0c","ios":"levelo://app?vid=b5b2166a-b0b8-4fc4-9960-24fcf8dddf0c"},"vehicle_type_id":"4","last_reported":1735945764,"current_range_meters":12800,"station_id":"","pricing_plan_id":"cebpf4jnsgd1na2vs0mg"},{"bike_id":"f10b1d7e-9531-4e8a-ba8b-72a1d75f42fc","system_id":"levelo_inurba_marseille","lat":43.29561,"lon":5.39089,"is_reserved":false,"is_disabled":false,"rental_uris":{"android":"levelo://app?vid=f10b1d7e-9531-4e8a-ba8b-72a1d75f42fc","ios":"levelo://app?vid=f10b1d7e-9531-4e8a-ba8b-72a1d75f42fc"},"vehicle_type_id":"4","last_reported":1735945764,"current_range_meters":20400,"station_id":"","pricing_plan_id":"cebpf4jnsgd1na2vs0mg"},{"bike_id":"ea7050ff-7aa9-43ba-b203-b876f0962480","system_id":"levelo_inurba_marseille","lat":43.280017,"lon":5.400158,"is_reserved":false,"is_disabled":true,"rental_uris":{"android":"levelo://app?vid=ea7050ff-7aa9-43ba-b203-b876f0962480","ios":"levelo://app?vid=ea7050ff-7aa9-43ba-b203-b876f0962480"},"vehicle_type_id":"4","last_reported":1735945764,"current_range_meters":0,"station_id":"ce4bho92rcd13ifvqh4g","pricing_plan_id":"cebpf4jnsgd1na2vs0mg"},{"bike_id":"2d37891b-3e35-407f-964b-7c262ae2b2d0","system_id":"levelo_inurba_marseille","lat":43.302951,"lon":5.386445,"is_reserved":false,"is_disabled":true,"rental_uris":{"android":"levelo://app?vid=2d37891b-3e35-407f-964b-7c262ae2b2d0","ios":"levelo://app?vid=2d37891b-3e35-407f-964b-7c262ae2b2d0"},"vehicle_type_id":"4","last_reported":1735945764,"current_range_meters":0,"station_id":"","pricing_plan_id":"cebpf4jnsgd1na2vs0mg"},{"bike_id":"13e1d001-5304-4440-8773-a99209b55da5","system_id":"levelo_inurba_marseille","lat":43.26784,"lon":5.39417,"is_reserved":false,"is_disabled":false,"rental_uris":{"android":"levelo://app?vid=13e1d001-5304-4440-8773-a99209b55da5","ios":"levelo://app?vid=13e1d001-5304-4440-8773-a99209b55da5"},"vehicle_type_id":"4","last_reported":1735945764,"current_range_meters":38800,"station_id":"ce4bhh12rcd13ifvqfg0","pricing_plan_id":"cebpf4jnsgd1na2vs0mg"},{"bike_id":"c35a770d-b1d6-4097-bd62-e64d5d9ed229","system_id":"levelo_inurba_marseille","lat":43.2931,"lon":5.37173,"is_reserved":false,"is_disabled":false,"rental_uris":{"android":"levelo://app?vid=c35a770d-b1d6-4097-bd62-e64d5d9ed229","ios":"levelo://app?vid=c35a770d-b1d6-4097-bd62-e64d5d9ed229"},"vehicle_type_id":"4","last_reported":1735945764,"current_range_meters":12000,"station_id":"ce4bgh92rcd13ifvqb40","pricing_plan_id":"cebpf4jnsgd1na2vs0mg"},{"bike_id":"2332862a-3884-4317-af82-ee9793e9b62c","system_id":"levelo_inurba_marseille","lat":43.24077,"lon":5.37712,"is_reserved":false,"is_disabled":false,"rental_uris":{"android":"levelo://app?vid=2332862a-3884-4317-af82-ee9793e9b62c","ios":"levelo://app?vid=2332862a-3884-4317-af82-ee9793e9b62c"},"vehicle_type_id":"4","last_reported":1735945764,"current_range_meters":19200,"station_id":"ce4bhnp2rcd13ifvqgvg","pricing_plan_id":"cebpf4jnsgd1na2vs0mg"},{"bike_id":"2dc8a66d-24cf-4895-80e5-0d94d1246134","system_id":"levelo_inurba_marseille","lat":43.28011,"lon":5.36927,"is_reserved":false,"is_disabled":false,"rental_uris":{"android":"levelo://app?vid=2dc8a66d-24cf-4895-80e5-0d94d1246134","ios":"levelo://app?vid=2dc8a66d-24cf-4895-80e5-0d94d1246134"},"vehicle_type_id":"4","last_reported":1735945764,"current_range_meters":19200,"station_id":"ce4bha12rcd13ifvqef0","pricing_plan_id":"cebpf4jnsgd1na2vs0mg"},{"bike_id":"2a583d9b-e42e-4633-b002-dbbb4f9b26aa","system_id":"levelo_inurba_marseille","lat":43.29952,"lon":5.36527,"is_reserved":false,"is_disabled":false,"rental_uris":{"android":"levelo://app?vid=2a583d9b-e42e-4633-b002-dbbb4f9b26aa","ios":"levelo://app?vid=2a583d9b-e42e-4633-b002-dbbb4f9b26aa"},"vehicle_type_id":"4","last_reported":1735945764,"current_range_meters":24000,"station_id":"ce4bgm92rcd13ifvqbr0","pricing_plan_id":"cebpf4jnsgd1na2vs0mg"},{"bike_id":"5c8cafdc-25d2-4431-8eef-e64b7220754a","system_id":"levelo_inurba_marseille","lat":43.29264,"lon":5.38435,"is_reserved":false,"is_disabled":false,"rental_uris":{"android":"levelo://app?vid=5c8cafdc-25d2-4431-8eef-e64b7220754a","ios":"levelo://app?vid=5c8cafdc-25d2-4431-8eef-e64b7220754a"},"vehicle_type_id":"4","last_reported":1735945764,"current_range_meters":27200,"station_id":"ce4bh692rcd13ifvqea0","pricing_plan_id":"cebpf4jnsgd1na2vs0mg"},{"bike_id":"b196ede2-15dc-4193-a4cf-026c9e7d182c","system_id":"levelo_inurba_marseille","lat":43.32661,"lon":5.40988,"is_reserved":false,"is_disabled":false,"rental_uris":{"android":"levelo://app?vid=b196ede2-15dc-4193-a4cf-026c9e7d182c","ios":"levelo://app?vid=b196ede2-15dc-4193-a4cf-026c9e7d182c"},"vehicle_type_id":"4","last_reported":1735945764,"current_range_meters":24000,"station_id":"ce4bhpp2rcd13ifvqhgg","pricing_plan_id":"cebpf4jnsgd1na2vs0mg"},{"bike_id":"af6f5cf6-fe33-49d4-9b2b-a069d115dde7","system_id":"levelo_inurba_marseille","lat":43.2985,"lon":5.36286,"is_reserved":false,"is_disabled":false,"rental_uris":{"android":"levelo://app?vid=af6f5cf6-fe33-49d4-9b2b-a069d115dde7","ios":"levelo://app?vid=af6f5cf6-fe33-49d4-9b2b-a069d115dde7"},"vehicle_type_id":"4","last_reported":1735945764,"current_range_meters":21600,"station_id":"ce4bgpp2rcd13ifvqc3g","pricing_plan_id":"cebpf4jnsgd1na2vs0mg"},{"bike_id":"f8552ddb-26a0-445d-9a6e-4525b17b7a2f","system_id":"levelo_inurba_marseille","lat":43.29,"lon":5.35629,"is_reserved":false,"is_disabled":false,"rental_uris":{"android":"levelo://app?vid=f8552ddb-26a0-445d-9a6e-4525b17b7a2f","ios":"levelo://app?vid=f8552ddb-26a0-445d-9a6e-4525b17b7a2f"},"vehicle_type_id":"4","last_reported":1735945764,"current_range_meters":17200,"station_id":"ce4bhb92rcd13ifvqen0","pricing_plan_id":"cebpf4jnsgd1na2vs0mg"},{"bike_id":"187242c6-6bf3-4f6c-be6f-031703a6b4d1","system_id":"levelo_inurba_marseille","lat":43.25123,"lon":5.40315,"is_reserved":false,"is_disabled":false,"rental_uris":{"android":"levelo://app?vid=187242c6-6bf3-4f6c-be6f-031703a6b4d1","ios":"levelo://app?vid=187242c6-6bf3-4f6c-be6f-031703a6b4d1"},"vehicle_type_id":"4","last_reported":1735945764,"current_range_meters":28400,"station_id":"ce4bhlh2rcd13ifvqgig","pricing_plan_id":"cebpf4jnsgd1na2vs0mg"},{"bike_id":"01a892c4-6d34-4a6b-9f97-5324cd46aa08","system_id":"levelo_inurba_marseille","lat":43.289683,"lon":5.378308,"is_reserved":false,"is_disabled":true,"rental_uris":{"android":"levelo://app?vid=01a892c4-6d34-4a6b-9f97-5324cd46aa08","ios":"levelo://app?vid=01a892c4-6d34-4a6b-9f97-5324cd46aa08"},"vehicle_type_id":"4","last_reported":1735945764,"current_range_meters":37600,"station_id":"ce4bh9p2rcd13ifvqed0","pricing_plan_id":"cebpf4jnsgd1na2vs0mg"},{"bike_id":"5cb436c4-f425-4cef-90f5-ba53cc2b9532","system_id":"levelo_inurba_marseille","lat":43.25115,"lon":5.40327,"is_reserved":false,"is_disabled":false,"rental_uris":{"android":"levelo://app?vid=5cb436c4-f425-4cef-90f5-ba53cc2b9532","ios":"levelo://app?vid=5cb436c4-f425-4cef-90f5-ba53cc2b9532"},"vehicle_type_id":"4","last_reported":1735945764,"current_range_meters":38800,"station_id":"ce4bhlh2rcd13ifvqgig","pricing_plan_id":"cebpf4jnsgd1na2vs0mg"},{"bike_id":"045b4ee9-8f80-41e9-9eae-65b99d8d56de","system_id":"levelo_inurba_marseille","lat":43.2872,"lon":5.3792,"is_reserved":false,"is_disabled":false,"rental_uris":{"android":"levelo://app?vid=045b4ee9-8f80-41e9-9eae-65b99d8d56de","ios":"levelo://app?vid=045b4ee9-8f80-41e9-9eae-65b99d8d56de"},"vehicle_type_id":"4","last_reported":1735945764,"current_range_meters":29600,"station_id":"ce4bh9p2rcd13ifvqec0","pricing_plan_id":"cebpf4jnsgd1na2vs0mg"},{"bike_id":"d085f58b-745f-4180-b55b-83a215dc4056","system_id":"levelo_inurba_marseille","lat":43.27962,"lon":5.38725,"is_reserved":false,"is_disabled":false,"rental_uris":{"android":"levelo://app?vid=d085f58b-745f-4180-b55b-83a215dc4056","ios":"levelo://app?vid=d085f58b-745f-4180-b55b-83a215dc4056"},"vehicle_type_id":"4","last_reported":1735945764,"current_range_meters":28400,"station_id":"ce4bhg12rcd13ifvqf80","pricing_plan_id":"cebpf4jnsgd1na2vs0mg"},{"bike_id":"51a517a4-450c-401a-9533-695a29698c85","system_id":"levelo_inurba_marseille","lat":43.28433,"lon":5.39205,"is_reserved":false,"is_disabled":false,"rental_uris":{"android":"levelo://app?vid=51a517a4-450c-401a-9533-695a29698c85","ios":"levelo://app?vid=51a517a4-450c-401a-9533-695a29698c85"},"vehicle_type_id":"4","last_reported":1735945764,"current_range_meters":36800,"station_id":"ce4bhoh2rcd13ifvqh5g","pricing_plan_id":"cebpf4jnsgd1na2vs0mg"},{"bike_id":"3a702068-46c9-4dcd-9bd2-a5f18ff10a66","system_id":"levelo_inurba_marseille","lat":43.29252,"lon":5.38444,"is_reserved":false,"is_disabled":false,"rental_uris":{"android":"levelo://app?vid=3a702068-46c9-4dcd-9bd2-a5f18ff10a66","ios":"levelo://app?vid=3a702068-46c9-4dcd-9bd2-a5f18ff10a66"},"vehicle_type_id":"4","last_reported":1735945764,"current_range_meters":36000,"station_id":"ce4bh692rcd13ifvqea0","pricing_plan_id":"cebpf4jnsgd1na2vs0mg"},{"bike_id":"c38119df-a0cc-4d53-851b-aebce98309d3","system_id":"levelo_inurba_marseille","lat":43.25015,"lon":5.38907,"is_reserved":false,"is_disabled":false,"rental_uris":{"android":"levelo://app?vid=c38119df-a0cc-4d53-851b-aebce98309d3","ios":"levelo://app?vid=c38119df-a0cc-4d53-851b-aebce98309d3"},"vehicle_type_id":"4","last_reported":1735945764,"current_range_meters":7200,"station_id":"ce4bhgp2rcd13ifvqfd0","pricing_plan_id":"cebpf4jnsgd1na2vs0mg"},{"bike_id":"1a13ecd6-e619-4649-a2de-be672c09fe9f","system_id":"levelo_inurba_marseille","lat":43.29868,"lon":5.39743,"is_reserved":false,"is_disabled":false,"rental_uris":{"android":"levelo://app?vid=1a13ecd6-e619-4649-a2de-be672c09fe9f","ios":"levelo://app?vid=1a13ecd6-e619-4649-a2de-be672c09fe9f"},"vehicle_type_id":"4","last_reported":1735945764,"current_range_meters":31200,"station_id":"ce4bh0h2rcd13ifvqd50","pricing_plan_id":"cebpf4jnsgd1na2vs0mg"},{"bike_id":"969c8a84-cf60-4395-8c81-a1d2e7dc81af","system_id":"levelo_inurba_marseille","lat":43.25867,"lon":5.39884,"is_reserved":false,"is_disabled":false,"rental_uris":{"android":"levelo://app?vid=969c8a84-cf60-4395-8c81-a1d2e7dc81af","ios":"levelo://app?vid=969c8a84-cf60-4395-8c81-a1d2e7dc81af"},"vehicle_type_id":"4","last_reported":1735945764,"current_range_meters":24000,"station_id":"ce4bhl92rcd13ifvqghg","pricing_plan_id":"cebpf4jnsgd1na2vs0mg"},{"bike_id":"d06765fb-ae36-4bd9-824c-0b5234000b68","system_id":"levelo_inurba_marseille","lat":43.2514,"lon":5.40315,"is_reserved":false,"is_disabled":false,"rental_uris":{"android":"levelo://app?vid=d06765fb-ae36-4bd9-824c-0b5234000b68","ios":"levelo://app?vid=d06765fb-ae36-4bd9-824c-0b5234000b68"},"vehicle_type_id":"4","last_reported":1735945764,"current_range_meters":38800,"station_id":"ce4bhlh2rcd13ifvqgig","pricing_plan_id":"cebpf4jnsgd1na2vs0mg"},{"bike_id":"e62a9961-12fa-4314-af24-7ed97deb9ffe","system_id":"levelo_inurba_marseille","lat":43.31377,"lon":5.38482,"is_reserved":false,"is_disabled":false,"rental_uris":{"android":"levelo://app?vid=e62a9961-12fa-4314-af24-7ed97deb9ffe","ios":"levelo://app?vid=e62a9961-12fa-4314-af24-7ed97deb9ffe"},"vehicle_type_id":"4","last_reported":1735945764,"current_range_meters":16000,"station_id":"ce4bgt92rcd13ifvqcf0","pricing_plan_id":"cebpf4jnsgd1na2vs0mg"},{"bike_id":"f3d41f41-839d-41a5-aa6d-f2ba87ff18f0","system_id":"levelo_inurba_marseille","lat":43.24076,"lon":5.37746,"is_reserved":false,"is_disabled":false,"rental_uris":{"android":"levelo://app?vid=f3d41f41-839d-41a5-aa6d-f2ba87ff18f0","ios":"levelo://app?vid=f3d41f41-839d-41a5-aa6d-f2ba87ff18f0"},"vehicle_type_id":"4","last_reported":1735945764,"current_range_meters":2800,"station_id":"ce4bhnp2rcd13ifvqgvg","pricing_plan_id":"cebpf4jnsgd1na2vs0mg"},{"bike_id":"6d14468d-d4fe-4fb2-b1d6-ebb52c384fb6","system_id":"levelo_inurba_marseille","lat":43.31999,"lon":5.38145,"is_reserved":false,"is_disabled":false,"rental_uris":{"android":"levelo://app?vid=6d14468d-d4fe-4fb2-b1d6-ebb52c384fb6","ios":"levelo://app?vid=6d14468d-d4fe-4fb2-b1d6-ebb52c384fb6"},"vehicle_type_id":"4","last_reported":1735945764,"current_range_meters":38800,"station_id":"ce4bhr12rcd13ifvqhpg","pricing_plan_id":"cebpf4jnsgd1na2vs0mg"},{"bike_id":"b2543f33-64b8-4de9-a8d4-d740919f4fb1","system_id":"levelo_inurba_marseille","lat":43.2869,"lon":5.3866,"is_reserved":false,"is_disabled":false,"rental_uris":{"android":"levelo://app?vid=b2543f33-64b8-4de9-a8d4-d740919f4fb1","ios":"levelo://app?vid=b2543f33-64b8-4de9-a8d4-d740919f4fb1"},"vehicle_type_id":"4","last_reported":1735945764,"current_range_meters":4800,"station_id":"ce4bh492rcd13ifvqdug","pricing_plan_id":"cebpf4jnsgd1na2vs0mg"},{"bike_id":"2f857458-45ae-4306-9ffb-5d94252d59a5","system_id":"levelo_inurba_marseille","lat":43.24638,"lon":5.38925,"is_reserved":false,"is_disabled":false,"rental_uris":{"android":"levelo://app?vid=2f857458-45ae-4306-9ffb-5d94252d59a5","ios":"levelo://app?vid=2f857458-45ae-4306-9ffb-5d94252d59a5"},"vehicle_type_id":"4","last_reported":1735945764,"current_range_meters":38800,"station_id":"ce4bhg12rcd13ifvqf60","pricing_plan_id":"cebpf4jnsgd1na2vs0mg"},{"bike_id":"6784e735-63a8-4472-8e88-26e242f2fae1","system_id":"levelo_inurba_marseille","lat":43.3236,"lon":5.36736,"is_reserved":false,"is_disabled":false,"rental_uris":{"android":"levelo://app?vid=6784e735-63a8-4472-8e88-26e242f2fae1","ios":"levelo://app?vid=6784e735-63a8-4472-8e88-26e242f2fae1"},"vehicle_type_id":"4","last_reported":1735945764,"current_range_meters":31200,"station_id":"ce4bhsh2rcd13ifvqi2g","pricing_plan_id":"cebpf4jnsgd1na2vs0mg"},{"bike_id":"7b78d5e2-5142-402d-a4f8-0f3037a6c533","system_id":"levelo_inurba_marseille","lat":43.26928,"lon":5.38668,"is_reserved":false,"is_disabled":true,"rental_uris":{"android":"levelo://app?vid=7b78d5e2-5142-402d-a4f8-0f3037a6c533","ios":"levelo://app?vid=7b78d5e2-5142-402d-a4f8-0f3037a6c533"},"vehicle_type_id":"4","last_reported":1735945764,"current_range_meters":15200,"station_id":"ce4bhh92rcd13ifvqfh0","pricing_plan_id":"cebpf4jnsgd1na2vs0mg"},{"bike_id":"cbb6eaa8-2a66-410e-9a99-0cc5daa01219","system_id":"levelo_inurba_marseille","lat":43.29002,"lon":5.35603,"is_reserved":false,"is_disabled":false,"rental_uris":{"android":"levelo://app?vid=cbb6eaa8-2a66-410e-9a99-0cc5daa01219","ios":"levelo://app?vid=cbb6eaa8-2a66-410e-9a99-0cc5daa01219"},"vehicle_type_id":"4","last_reported":1735945764,"current_range_meters":39200,"station_id":"ce4bhb92rcd13ifvqen0","pricing_plan_id":"cebpf4jnsgd1na2vs0mg"},{"bike_id":"00b0c897-4e8f-453d-8e9d-6135317dff3d","system_id":"levelo_inurba_marseille","lat":43.29555,"lon":5.42275,"is_reserved":false,"is_disabled":false,"rental_uris":{"android":"levelo://app?vid=00b0c897-4e8f-453d-8e9d-6135317dff3d","ios":"levelo://app?vid=00b0c897-4e8f-453d-8e9d-6135317dff3d"},"vehicle_type_id":"4","last_reported":1735945764,"current_range_meters":38800,"station_id":"ce4bhph2rcd13ifvqhdg","pricing_plan_id":"cebpf4jnsgd1na2vs0mg"},{"bike_id":"d0d21930-fe1d-478b-8251-bcf89564599d","system_id":"levelo_inurba_marseille","lat":43.29553,"lon":5.42287,"is_reserved":false,"is_disabled":false,"rental_uris":{"android":"levelo://app?vid=d0d21930-fe1d-478b-8251-bcf89564599d","ios":"levelo://app?vid=d0d21930-fe1d-478b-8251-bcf89564599d"},"vehicle_type_id":"4","last_reported":1735945764,"current_range_meters":31200,"station_id":"ce4bhph2rcd13ifvqhdg","pricing_plan_id":"cebpf4jnsgd1na2vs0mg"},{"bike_id":"177e1785-11e2-4ba1-8c2e-0766aed8947b","system_id":"levelo_inurba_marseille","lat":43.31357,"lon":5.38486,"is_reserved":false,"is_disabled":false,"rental_uris":{"android":"levelo://app?vid=177e1785-11e2-4ba1-8c2e-0766aed8947b","ios":"levelo://app?vid=177e1785-11e2-4ba1-8c2e-0766aed8947b"},"vehicle_type_id":"4","last_reported":1735945764,"current_range_meters":30400,"station_id":"ce4bgt92rcd13ifvqcf0","pricing_plan_id":"cebpf4jnsgd1na2vs0mg"},{"bike_id":"ef650c97-676b-47d7-bbac-7a4cdccbedab","system_id":"levelo_inurba_marseille","lat":43.30652,"lon":5.40078,"is_reserved":false,"is_disabled":false,"rental_uris":{"android":"levelo://app?vid=ef650c97-676b-47d7-bbac-7a4cdccbedab","ios":"levelo://app?vid=ef650c97-676b-47d7-bbac-7a4cdccbedab"},"vehicle_type_id":"4","last_reported":1735945764,"current_range_meters":37600,"station_id":"ce4bh112rcd13ifvqda0","pricing_plan_id":"cebpf4jnsgd1na2vs0mg"},{"bike_id":"7facf5dc-2dca-40fb-abf1-f4666c23c735","system_id":"levelo_inurba_marseille","lat":43.26682,"lon":5.38271,"is_reserved":false,"is_disabled":false,"rental_uris":{"android":"levelo://app?vid=7facf5dc-2dca-40fb-abf1-f4666c23c735","ios":"levelo://app?vid=7facf5dc-2dca-40fb-abf1-f4666c23c735"},"vehicle_type_id":"4","last_reported":1735945764,"current_range_meters":28400,"station_id":"ce4bhg92rcd13ifvqf90","pricing_plan_id":"cebpf4jnsgd1na2vs0mg"},{"bike_id":"1237c156-cfa6-45ec-9298-949dcdbd11b6","system_id":"levelo_inurba_marseille","lat":43.273795,"lon":5.362512,"is_reserved":false,"is_disabled":false,"rental_uris":{"android":"levelo://app?vid=1237c156-cfa6-45ec-9298-949dcdbd11b6","ios":"levelo://app?vid=1237c156-cfa6-45ec-9298-949dcdbd11b6"},"vehicle_type_id":"4","last_reported":1735945764,"current_range_meters":38400,"station_id":"ce4bhbh2rcd13ifvqeo0","pricing_plan_id":"cebpf4jnsgd1na2vs0mg"},{"bike_id":"cb9ddef6-e3ca-4d83-8257-6a73eb8266c6","system_id":"levelo_inurba_marseille","lat":43.32636,"lon":5.41032,"is_reserved":false,"is_disabled":false,"rental_uris":{"android":"levelo://app?vid=cb9ddef6-e3ca-4d83-8257-6a73eb8266c6","ios":"levelo://app?vid=cb9ddef6-e3ca-4d83-8257-6a73eb8266c6"},"vehicle_type_id":"4","last_reported":1735945764,"current_range_meters":38000,"station_id":"ce4bhpp2rcd13ifvqhgg","pricing_plan_id":"cebpf4jnsgd1na2vs0mg"},{"bike_id":"7b9e134f-1d5b-46f5-87f8-6cc312c5778f","system_id":"levelo_inurba_marseille","lat":43.22929,"lon":5.35384,"is_reserved":false,"is_disabled":false,"rental_uris":{"android":"levelo://app?vid=7b9e134f-1d5b-46f5-87f8-6cc312c5778f","ios":"levelo://app?vid=7b9e134f-1d5b-46f5-87f8-6cc312c5778f"},"vehicle_type_id":"4","last_reported":1735945764,"current_range_meters":38800,"station_id":"cpo3532slgdg3j2ikp40","pricing_plan_id":"cebpf4jnsgd1na2vs0mg"},{"bike_id":"c0a41200-1ce4-4b17-a1dd-d6d86b277ca4","system_id":"levelo_inurba_marseille","lat":43.28031,"lon":5.36947,"is_reserved":false,"is_disabled":false,"rental_uris":{"android":"levelo://app?vid=c0a41200-1ce4-4b17-a1dd-d6d86b277ca4","ios":"levelo://app?vid=c0a41200-1ce4-4b17-a1dd-d6d86b277ca4"},"vehicle_type_id":"4","last_reported":1735945764,"current_range_meters":38800,"station_id":"ce4bha12rcd13ifvqef0","pricing_plan_id":"cebpf4jnsgd1na2vs0mg"},{"bike_id":"135cf862-1e80-4855-8234-457b3ef98c02","system_id":"levelo_inurba_marseille","lat":43.295894,"lon":5.367394,"is_reserved":false,"is_disabled":false,"rental_uris":{"android":"levelo://app?vid=135cf862-1e80-4855-8234-457b3ef98c02","ios":"levelo://app?vid=135cf862-1e80-4855-8234-457b3ef98c02"},"vehicle_type_id":"4","last_reported":1735945764,"current_range_meters":10000,"station_id":"ce4bgph2rcd13ifvqc2g","pricing_plan_id":"cebpf4jnsgd1na2vs0mg"},{"bike_id":"46e25da2-6e23-48b8-9f30-ddeb892b8091","system_id":"levelo_inurba_marseille","lat":43.3079,"lon":5.38149,"is_reserved":false,"is_disabled":false,"rental_uris":{"android":"levelo://app?vid=46e25da2-6e23-48b8-9f30-ddeb892b8091","ios":"levelo://app?vid=46e25da2-6e23-48b8-9f30-ddeb892b8091"},"vehicle_type_id":"4","last_reported":1735945764,"current_range_meters":37600,"station_id":"ce4bgt12rcd13ifvqce0","pricing_plan_id":"cebpf4jnsgd1na2vs0mg"},{"bike_id":"b6bb9f04-4321-49e9-99be-1ec01f122623","system_id":"levelo_inurba_marseille","lat":43.27417,"lon":5.39395,"is_reserved":false,"is_disabled":false,"rental_uris":{"android":"levelo://app?vid=b6bb9f04-4321-49e9-99be-1ec01f122623","ios":"levelo://app?vid=b6bb9f04-4321-49e9-99be-1ec01f122623"},"vehicle_type_id":"4","last_reported":1735945764,"current_range_meters":39200,"station_id":"ce4bhdp2rcd13ifvqf20","pricing_plan_id":"cebpf4jnsgd1na2vs0mg"},{"bike_id":"34825794-d565-4dbd-8cbe-c88df4608f04","system_id":"levelo_inurba_marseille","lat":43.27796,"lon":5.4073,"is_reserved":false,"is_disabled":false,"rental_uris":{"android":"levelo://app?vid=34825794-d565-4dbd-8cbe-c88df4608f04","ios":"levelo://app?vid=34825794-d565-4dbd-8cbe-c88df4608f04"},"vehicle_type_id":"4","last_reported":1735945764,"current_range_meters":38800,"station_id":"ce4bhnh2rcd13ifvqgtg","pricing_plan_id":"cebpf4jnsgd1na2vs0mg"},{"bike_id":"9085f317-eea3-445b-8bdd-28ff00ca8048","system_id":"levelo_inurba_marseille","lat":43.26696,"lon":5.38259,"is_reserved":false,"is_disabled":false,"rental_uris":{"android":"levelo://app?vid=9085f317-eea3-445b-8bdd-28ff00ca8048","ios":"levelo://app?vid=9085f317-eea3-445b-8bdd-28ff00ca8048"},"vehicle_type_id":"4","last_reported":1735945764,"current_range_meters":33600,"station_id":"ce4bhg92rcd13ifvqf90","pricing_plan_id":"cebpf4jnsgd1na2vs0mg"},{"bike_id":"a6f828f1-5f97-4da7-bf33-7d48a155db3e","system_id":"levelo_inurba_marseille","lat":43.27849,"lon":5.39196,"is_reserved":false,"is_disabled":false,"rental_uris":{"android":"levelo://app?vid=a6f828f1-5f97-4da7-bf33-7d48a155db3e","ios":"levelo://app?vid=a6f828f1-5f97-4da7-bf33-7d48a155db3e"},"vehicle_type_id":"4","last_reported":1735945764,"current_range_meters":28800,"station_id":"ce4bhjp2rcd13ifvqga0","pricing_plan_id":"cebpf4jnsgd1na2vs0mg"},{"bike_id":"109249d2-7daf-4296-bfbc-45d5163d23df","system_id":"levelo_inurba_marseille","lat":43.30608,"lon":5.3718,"is_reserved":false,"is_disabled":true,"rental_uris":{"android":"levelo://app?vid=109249d2-7daf-4296-bfbc-45d5163d23df","ios":"levelo://app?vid=109249d2-7daf-4296-bfbc-45d5163d23df"},"vehicle_type_id":"4","last_reported":1735945764,"current_range_meters":31200,"station_id":"ce4bgqh2rcd13ifvqc4g","pricing_plan_id":"cebpf4jnsgd1na2vs0mg"},{"bike_id":"264e2b37-a7a8-43de-af6e-2a79e21accc7","system_id":"levelo_inurba_marseille","lat":43.29266,"lon":5.36827,"is_reserved":false,"is_disabled":false,"rental_uris":{"android":"levelo://app?vid=264e2b37-a7a8-43de-af6e-2a79e21accc7","ios":"levelo://app?vid=264e2b37-a7a8-43de-af6e-2a79e21accc7"},"vehicle_type_id":"4","last_reported":1735945764,"current_range_meters":27600,"station_id":"ce4bhbp2rcd13ifvqesg","pricing_plan_id":"cebpf4jnsgd1na2vs0mg"},{"bike_id":"48999c10-1906-4c71-bc6b-fae228c058f5","system_id":"levelo_inurba_marseille","lat":43.29314,"lon":5.37156,"is_reserved":false,"is_disabled":false,"rental_uris":{"android":"levelo://app?vid=48999c10-1906-4c71-bc6b-fae228c058f5","ios":"levelo://app?vid=48999c10-1906-4c71-bc6b-fae228c058f5"},"vehicle_type_id":"4","last_reported":1735945764,"current_range_meters":18800,"station_id":"ce4bgh92rcd13ifvqb40","pricing_plan_id":"cebpf4jnsgd1na2vs0mg"},{"bike_id":"03e0e2e1-c2d7-409a-a105-d70a732410b2","system_id":"levelo_inurba_marseille","lat":43.24547,"lon":5.39517,"is_reserved":false,"is_disabled":false,"rental_uris":{"android":"levelo://app?vid=03e0e2e1-c2d7-409a-a105-d70a732410b2","ios":"levelo://app?vid=03e0e2e1-c2d7-409a-a105-d70a732410b2"},"vehicle_type_id":"4","last_reported":1735945764,"current_range_meters":10000,"station_id":"ce4bhlp2rcd13ifvqgjg","pricing_plan_id":"cebpf4jnsgd1na2vs0mg"},{"bike_id":"8a94385a-5ec5-4b84-a374-9fa96b860c6e","system_id":"levelo_inurba_marseille","lat":43.31268,"lon":5.40136,"is_reserved":false,"is_disabled":false,"rental_uris":{"android":"levelo://app?vid=8a94385a-5ec5-4b84-a374-9fa96b860c6e","ios":"levelo://app?vid=8a94385a-5ec5-4b84-a374-9fa96b860c6e"},"vehicle_type_id":"4","last_reported":1735945764,"current_range_meters":28800,"station_id":"ce4bh092rcd13ifvqd30","pricing_plan_id":"cebpf4jnsgd1na2vs0mg"},{"bike_id":"40977940-0cd3-4c4e-ab13-342c16c738ab","system_id":"levelo_inurba_marseille","lat":43.24627,"lon":5.38942,"is_reserved":false,"is_disabled":false,"rental_uris":{"android":"levelo://app?vid=40977940-0cd3-4c4e-ab13-342c16c738ab","ios":"levelo://app?vid=40977940-0cd3-4c4e-ab13-342c16c738ab"},"vehicle_type_id":"4","last_reported":1735945764,"current_range_meters":16800,"station_id":"ce4bhg12rcd13ifvqf60","pricing_plan_id":"cebpf4jnsgd1na2vs0mg"},{"bike_id":"0fb09dc4-c559-469b-b944-d0167194cfca","system_id":"levelo_inurba_marseille","lat":43.27964,"lon":5.41021,"is_reserved":false,"is_disabled":false,"rental_uris":{"android":"levelo://app?vid=0fb09dc4-c559-469b-b944-d0167194cfca","ios":"levelo://app?vid=0fb09dc4-c559-469b-b944-d0167194cfca"},"vehicle_type_id":"4","last_reported":1735945764,"current_range_meters":38800,"station_id":"ce4bhnp2rcd13ifvqh0g","pricing_plan_id":"cebpf4jnsgd1na2vs0mg"},{"bike_id":"6befa724-a01f-4ce7-a943-40045c8a7a16","system_id":"levelo_inurba_marseille","lat":43.2694,"lon":5.38918,"is_reserved":false,"is_disabled":false,"rental_uris":{"android":"levelo://app?vid=6befa724-a01f-4ce7-a943-40045c8a7a16","ios":"levelo://app?vid=6befa724-a01f-4ce7-a943-40045c8a7a16"},"vehicle_type_id":"4","last_reported":1735945764,"current_range_meters":37600,"station_id":"ce4bhhh2rcd13ifvqfl0","pricing_plan_id":"cebpf4jnsgd1na2vs0mg"},{"bike_id":"ffaa7442-5806-4ded-827f-12be4a9f93f7","system_id":"levelo_inurba_marseille","lat":43.26211,"lon":5.37427,"is_reserved":false,"is_disabled":false,"rental_uris":{"android":"levelo://app?vid=ffaa7442-5806-4ded-827f-12be4a9f93f7","ios":"levelo://app?vid=ffaa7442-5806-4ded-827f-12be4a9f93f7"},"vehicle_type_id":"4","last_reported":1735945764,"current_range_meters":38800,"station_id":"ce4bhgp2rcd13ifvqfc0","pricing_plan_id":"cebpf4jnsgd1na2vs0mg"},{"bike_id":"6c0950ff-ad32-4545-a3b0-d009b8de7beb","system_id":"levelo_inurba_marseille","lat":43.26505,"lon":5.39542,"is_reserved":false,"is_disabled":false,"rental_uris":{"android":"levelo://app?vid=6c0950ff-ad32-4545-a3b0-d009b8de7beb","ios":"levelo://app?vid=6c0950ff-ad32-4545-a3b0-d009b8de7beb"},"vehicle_type_id":"4","last_reported":1735945764,"current_range_meters":39200,"station_id":"ce4bhi12rcd13ifvqfq0","pricing_plan_id":"cebpf4jnsgd1na2vs0mg"},{"bike_id":"641d8acc-50b2-4173-ab23-c70f2a11d28e","system_id":"levelo_inurba_marseille","lat":43.28145,"lon":5.42644,"is_reserved":false,"is_disabled":true,"rental_uris":{"android":"levelo://app?vid=641d8acc-50b2-4173-ab23-c70f2a11d28e","ios":"levelo://app?vid=641d8acc-50b2-4173-ab23-c70f2a11d28e"},"vehicle_type_id":"4","last_reported":1735945764,"current_range_meters":36800,"station_id":"ce4bhnh2rcd13ifvqgug","pricing_plan_id":"cebpf4jnsgd1na2vs0mg"},{"bike_id":"0a903dd4-aa5a-4030-b502-395f71036d16","system_id":"levelo_inurba_marseille","lat":43.24663,"lon":5.38163,"is_reserved":false,"is_disabled":false,"rental_uris":{"android":"levelo://app?vid=0a903dd4-aa5a-4030-b502-395f71036d16","ios":"levelo://app?vid=0a903dd4-aa5a-4030-b502-395f71036d16"},"vehicle_type_id":"4","last_reported":1735945764,"current_range_meters":30000,"station_id":"ce4bhih2rcd13ifvqfr0","pricing_plan_id":"cebpf4jnsgd1na2vs0mg"},{"bike_id":"8e936699-fb94-4c05-a18e-6a31521ab968","system_id":"levelo_inurba_marseille","lat":43.28471,"lon":5.35873,"is_reserved":false,"is_disabled":true,"rental_uris":{"android":"levelo://app?vid=8e936699-fb94-4c05-a18e-6a31521ab968","ios":"levelo://app?vid=8e936699-fb94-4c05-a18e-6a31521ab968"},"vehicle_type_id":"4","last_reported":1735945764,"current_range_meters":33200,"station_id":"ce4bhah2rcd13ifvqei0","pricing_plan_id":"cebpf4jnsgd1na2vs0mg"},{"bike_id":"237a0d5a-8195-4695-b7fc-17dfb3b6dfc0","system_id":"levelo_inurba_marseille","lat":43.28614,"lon":5.37054,"is_reserved":false,"is_disabled":false,"rental_uris":{"android":"levelo://app?vid=237a0d5a-8195-4695-b7fc-17dfb3b6dfc0","ios":"levelo://app?vid=237a0d5a-8195-4695-b7fc-17dfb3b6dfc0"},"vehicle_type_id":"4","last_reported":1735945764,"current_range_meters":19200,"station_id":"ce4bht12rcd13ifvqi60","pricing_plan_id":"cebpf4jnsgd1na2vs0mg"},{"bike_id":"d9039fb6-1526-43a5-ab47-bf6c74051347","system_id":"levelo_inurba_marseille","lat":43.28155,"lon":5.42674,"is_reserved":false,"is_disabled":false,"rental_uris":{"android":"levelo://app?vid=d9039fb6-1526-43a5-ab47-bf6c74051347","ios":"levelo://app?vid=d9039fb6-1526-43a5-ab47-bf6c74051347"},"vehicle_type_id":"4","last_reported":1735945764,"current_range_meters":36400,"station_id":"ce4bhnh2rcd13ifvqgug","pricing_plan_id":"cebpf4jnsgd1na2vs0mg"},{"bike_id":"3a3a4eb7-ea9e-4f95-973d-bbbd1fc7238b","system_id":"levelo_inurba_marseille","lat":43.27988,"lon":5.41619,"is_reserved":false,"is_disabled":false,"rental_uris":{"android":"levelo://app?vid=3a3a4eb7-ea9e-4f95-973d-bbbd1fc7238b","ios":"levelo://app?vid=3a3a4eb7-ea9e-4f95-973d-bbbd1fc7238b"},"vehicle_type_id":"4","last_reported":1735945764,"current_range_meters":38000,"station_id":"ce4bho12rcd13ifvqh1g","pricing_plan_id":"cebpf4jnsgd1na2vs0mg"},{"bike_id":"bd609247-c05b-4bfd-8224-3974e4956916","system_id":"levelo_inurba_marseille","lat":43.30889,"lon":5.3681,"is_reserved":false,"is_disabled":true,"rental_uris":{"android":"levelo://app?vid=bd609247-c05b-4bfd-8224-3974e4956916","ios":"levelo://app?vid=bd609247-c05b-4bfd-8224-3974e4956916"},"vehicle_type_id":"4","last_reported":1735945764,"current_range_meters":38000,"station_id":"ce4bgn92rcd13ifvqbvg","pricing_plan_id":"cebpf4jnsgd1na2vs0mg"},{"bike_id":"7023404b-8be7-4ebd-b50a-d6abd594a7f9","system_id":"levelo_inurba_marseille","lat":43.25731,"lon":5.41109,"is_reserved":false,"is_disabled":false,"rental_uris":{"android":"levelo://app?vid=7023404b-8be7-4ebd-b50a-d6abd594a7f9","ios":"levelo://app?vid=7023404b-8be7-4ebd-b50a-d6abd594a7f9"},"vehicle_type_id":"4","last_reported":1735945764,"current_range_meters":39200,"station_id":"ce4bhkp2rcd13ifvqgd0","pricing_plan_id":"cebpf4jnsgd1na2vs0mg"},{"bike_id":"8178d39c-9021-4534-8b9a-1c36931c5ae7","system_id":"levelo_inurba_marseille","lat":43.31883,"lon":5.40728,"is_reserved":false,"is_disabled":false,"rental_uris":{"android":"levelo://app?vid=8178d39c-9021-4534-8b9a-1c36931c5ae7","ios":"levelo://app?vid=8178d39c-9021-4534-8b9a-1c36931c5ae7"},"vehicle_type_id":"4","last_reported":1735945764,"current_range_meters":38800,"station_id":"ce4bhq12rcd13ifvqhig","pricing_plan_id":"cebpf4jnsgd1na2vs0mg"},{"bike_id":"b50c1e04-9c20-4daa-ad06-7d854e9beedd","system_id":"levelo_inurba_marseille","lat":43.26187,"lon":5.37457,"is_reserved":false,"is_disabled":false,"rental_uris":{"android":"levelo://app?vid=b50c1e04-9c20-4daa-ad06-7d854e9beedd","ios":"levelo://app?vid=b50c1e04-9c20-4daa-ad06-7d854e9beedd"},"vehicle_type_id":"4","last_reported":1735945764,"current_range_meters":33200,"station_id":"ce4bhgp2rcd13ifvqfc0","pricing_plan_id":"cebpf4jnsgd1na2vs0mg"},{"bike_id":"fe6f290f-0e15-46b1-9ee2-787dc5c43fe5","system_id":"levelo_inurba_marseille","lat":43.29566,"lon":5.42276,"is_reserved":false,"is_disabled":false,"rental_uris":{"android":"levelo://app?vid=fe6f290f-0e15-46b1-9ee2-787dc5c43fe5","ios":"levelo://app?vid=fe6f290f-0e15-46b1-9ee2-787dc5c43fe5"},"vehicle_type_id":"4","last_reported":1735945764,"current_range_meters":17200,"station_id":"ce4bhph2rcd13ifvqhdg","pricing_plan_id":"cebpf4jnsgd1na2vs0mg"},{"bike_id":"e17147ed-7c6a-4a29-b0c2-0d1a8c57ad92","system_id":"levelo_inurba_marseille","lat":43.29273,"lon":5.3684,"is_reserved":false,"is_disabled":false,"rental_uris":{"android":"levelo://app?vid=e17147ed-7c6a-4a29-b0c2-0d1a8c57ad92","ios":"levelo://app?vid=e17147ed-7c6a-4a29-b0c2-0d1a8c57ad92"},"vehicle_type_id":"4","last_reported":1735945764,"current_range_meters":38000,"station_id":"ce4bhbp2rcd13ifvqesg","pricing_plan_id":"cebpf4jnsgd1na2vs0mg"},{"bike_id":"1d0ee6fa-7e84-4bad-a513-32569bfb99a6","system_id":"levelo_inurba_marseille","lat":43.27406,"lon":5.39358,"is_reserved":false,"is_disabled":false,"rental_uris":{"android":"levelo://app?vid=1d0ee6fa-7e84-4bad-a513-32569bfb99a6","ios":"levelo://app?vid=1d0ee6fa-7e84-4bad-a513-32569bfb99a6"},"vehicle_type_id":"4","last_reported":1735945764,"current_range_meters":38800,"station_id":"ce4bhdp2rcd13ifvqf20","pricing_plan_id":"cebpf4jnsgd1na2vs0mg"},{"bike_id":"8978f7d9-23f5-4684-91f0-9f9259357d39","system_id":"levelo_inurba_marseille","lat":43.34145,"lon":5.40904,"is_reserved":false,"is_disabled":false,"rental_uris":{"android":"levelo://app?vid=8978f7d9-23f5-4684-91f0-9f9259357d39","ios":"levelo://app?vid=8978f7d9-23f5-4684-91f0-9f9259357d39"},"vehicle_type_id":"4","last_reported":1735945764,"current_range_meters":38000,"station_id":"ce4bhqh2rcd13ifvqhlg","pricing_plan_id":"cebpf4jnsgd1na2vs0mg"},{"bike_id":"53d21985-055d-4cfa-85de-50faec386d6d","system_id":"levelo_inurba_marseille","lat":43.29095,"lon":5.38139,"is_reserved":false,"is_disabled":false,"rental_uris":{"android":"levelo://app?vid=53d21985-055d-4cfa-85de-50faec386d6d","ios":"levelo://app?vid=53d21985-055d-4cfa-85de-50faec386d6d"},"vehicle_type_id":"4","last_reported":1735945764,"current_range_meters":38000,"station_id":"ce4bh512rcd13ifvqe2g","pricing_plan_id":"cebpf4jnsgd1na2vs0mg"},{"bike_id":"2ff0edbb-1120-44a4-b8a8-0b9a430d70c1","system_id":"levelo_inurba_marseille","lat":43.30455,"lon":5.38896,"is_reserved":false,"is_disabled":false,"rental_uris":{"android":"levelo://app?vid=2ff0edbb-1120-44a4-b8a8-0b9a430d70c1","ios":"levelo://app?vid=2ff0edbb-1120-44a4-b8a8-0b9a430d70c1"},"vehicle_type_id":"4","last_reported":1735945764,"current_range_meters":38400,"station_id":"ce4bgk12rcd13ifvqbi0","pricing_plan_id":"cebpf4jnsgd1na2vs0mg"},{"bike_id":"983a939f-0c90-4b41-8e07-1ba37a328643","system_id":"levelo_inurba_marseille","lat":43.24157,"lon":5.36424,"is_reserved":false,"is_disabled":false,"rental_uris":{"android":"levelo://app?vid=983a939f-0c90-4b41-8e07-1ba37a328643","ios":"levelo://app?vid=983a939f-0c90-4b41-8e07-1ba37a328643"},"vehicle_type_id":"4","last_reported":1735945764,"current_range_meters":27200,"station_id":"cpo36qri1sfpv3e86is0","pricing_plan_id":"cebpf4jnsgd1na2vs0mg"},{"bike_id":"0d36baca-b4e4-4eb6-85e9-d02c7038df15","system_id":"levelo_inurba_marseille","lat":43.30529,"lon":5.36558,"is_reserved":false,"is_disabled":true,"rental_uris":{"android":"levelo://app?vid=0d36baca-b4e4-4eb6-85e9-d02c7038df15","ios":"levelo://app?vid=0d36baca-b4e4-4eb6-85e9-d02c7038df15"},"vehicle_type_id":"4","last_reported":1735945764,"current_range_meters":29600,"station_id":"ce4bgs12rcd13ifvqcag","pricing_plan_id":"cebpf4jnsgd1na2vs0mg"},{"bike_id":"abc1d919-2210-4059-891f-1ba55ead0cad","system_id":"levelo_inurba_marseille","lat":43.29328,"lon":5.37183,"is_reserved":false,"is_disabled":false,"rental_uris":{"android":"levelo://app?vid=abc1d919-2210-4059-891f-1ba55ead0cad","ios":"levelo://app?vid=abc1d919-2210-4059-891f-1ba55ead0cad"},"vehicle_type_id":"4","last_reported":1735945764,"current_range_meters":38800,"station_id":"ce4bgh92rcd13ifvqb40","pricing_plan_id":"cebpf4jnsgd1na2vs0mg"},{"bike_id":"dbd7f6c9-df67-46d9-a336-d417ecad0d25","system_id":"levelo_inurba_marseille","lat":43.29901,"lon":5.43647,"is_reserved":false,"is_disabled":false,"rental_uris":{"android":"levelo://app?vid=dbd7f6c9-df67-46d9-a336-d417ecad0d25","ios":"levelo://app?vid=dbd7f6c9-df67-46d9-a336-d417ecad0d25"},"vehicle_type_id":"4","last_reported":1735945764,"current_range_meters":36400,"station_id":"ce4bhpp2rcd13ifvqhfg","pricing_plan_id":"cebpf4jnsgd1na2vs0mg"},{"bike_id":"376c5e24-8c99-4a45-b448-d5554cb31c99","system_id":"levelo_inurba_marseille","lat":43.28725,"lon":5.39969,"is_reserved":false,"is_disabled":true,"rental_uris":{"android":"levelo://app?vid=376c5e24-8c99-4a45-b448-d5554cb31c99","ios":"levelo://app?vid=376c5e24-8c99-4a45-b448-d5554cb31c99"},"vehicle_type_id":"4","last_reported":1735945764,"current_range_meters":37600,"station_id":"ce4bho92rcd13ifvqh3g","pricing_plan_id":"cebpf4jnsgd1na2vs0mg"},{"bike_id":"dfc8a5ce-5ff4-4c79-bd9d-48e6c81f2d38","system_id":"levelo_inurba_marseille","lat":43.2861,"lon":5.37059,"is_reserved":false,"is_disabled":false,"rental_uris":{"android":"levelo://app?vid=dfc8a5ce-5ff4-4c79-bd9d-48e6c81f2d38","ios":"levelo://app?vid=dfc8a5ce-5ff4-4c79-bd9d-48e6c81f2d38"},"vehicle_type_id":"4","last_reported":1735945764,"current_range_meters":27200,"station_id":"ce4bht12rcd13ifvqi60","pricing_plan_id":"cebpf4jnsgd1na2vs0mg"},{"bike_id":"7c863057-f1ae-4435-9460-2cc51ef60299","system_id":"levelo_inurba_marseille","lat":43.29225,"lon":5.36076,"is_reserved":false,"is_disabled":false,"rental_uris":{"android":"levelo://app?vid=7c863057-f1ae-4435-9460-2cc51ef60299","ios":"levelo://app?vid=7c863057-f1ae-4435-9460-2cc51ef60299"},"vehicle_type_id":"4","last_reported":1735945764,"current_range_meters":32800,"station_id":"ce4bhbh2rcd13ifvqeqg","pricing_plan_id":"cebpf4jnsgd1na2vs0mg"},{"bike_id":"349a4ab8-6f13-4948-be71-abaadb9466ee","system_id":"levelo_inurba_marseille","lat":43.24069,"lon":5.37699,"is_reserved":false,"is_disabled":false,"rental_uris":{"android":"levelo://app?vid=349a4ab8-6f13-4948-be71-abaadb9466ee","ios":"levelo://app?vid=349a4ab8-6f13-4948-be71-abaadb9466ee"},"vehicle_type_id":"4","last_reported":1735945764,"current_range_meters":38000,"station_id":"ce4bhnp2rcd13ifvqgvg","pricing_plan_id":"cebpf4jnsgd1na2vs0mg"},{"bike_id":"50e1035a-38ba-4105-93bb-00f1c81b01fc","system_id":"levelo_inurba_marseille","lat":43.29189,"lon":5.35798,"is_reserved":false,"is_disabled":false,"rental_uris":{"android":"levelo://app?vid=50e1035a-38ba-4105-93bb-00f1c81b01fc","ios":"levelo://app?vid=50e1035a-38ba-4105-93bb-00f1c81b01fc"},"vehicle_type_id":"4","last_reported":1735945764,"current_range_meters":38800,"station_id":"ce4bhb12rcd13ifvqel0","pricing_plan_id":"cebpf4jnsgd1na2vs0mg"},{"bike_id":"1b583702-c759-4470-9a5f-1586bacf880f","system_id":"levelo_inurba_marseille","lat":43.29425,"lon":5.38619,"is_reserved":false,"is_disabled":false,"rental_uris":{"android":"levelo://app?vid=1b583702-c759-4470-9a5f-1586bacf880f","ios":"levelo://app?vid=1b583702-c759-4470-9a5f-1586bacf880f"},"vehicle_type_id":"4","last_reported":1735945764,"current_range_meters":17200,"station_id":"ce4bh2h2rcd13ifvqdh0","pricing_plan_id":"cebpf4jnsgd1na2vs0mg"},{"bike_id":"a5857756-0478-41f2-bfa4-405eeda359bc","system_id":"levelo_inurba_marseille","lat":43.26656,"lon":5.38276,"is_reserved":false,"is_disabled":false,"rental_uris":{"android":"levelo://app?vid=a5857756-0478-41f2-bfa4-405eeda359bc","ios":"levelo://app?vid=a5857756-0478-41f2-bfa4-405eeda359bc"},"vehicle_type_id":"4","last_reported":1735945764,"current_range_meters":38800,"station_id":"ce4bhg92rcd13ifvqf90","pricing_plan_id":"cebpf4jnsgd1na2vs0mg"},{"bike_id":"e9c9ac99-6db0-4a19-9854-52585a709e6e","system_id":"levelo_inurba_marseille","lat":43.29596,"lon":5.36727,"is_reserved":false,"is_disabled":false,"rental_uris":{"android":"levelo://app?vid=e9c9ac99-6db0-4a19-9854-52585a709e6e","ios":"levelo://app?vid=e9c9ac99-6db0-4a19-9854-52585a709e6e"},"vehicle_type_id":"4","last_reported":1735945764,"current_range_meters":36400,"station_id":"ce4bgph2rcd13ifvqc2g","pricing_plan_id":"cebpf4jnsgd1na2vs0mg"},{"bike_id":"1f7cd740-2c18-4894-a0a5-47e69df84924","system_id":"levelo_inurba_marseille","lat":43.2498,"lon":5.38939,"is_reserved":false,"is_disabled":false,"rental_uris":{"android":"levelo://app?vid=1f7cd740-2c18-4894-a0a5-47e69df84924","ios":"levelo://app?vid=1f7cd740-2c18-4894-a0a5-47e69df84924"},"vehicle_type_id":"4","last_reported":1735945764,"current_range_meters":33600,"station_id":"ce4bhgp2rcd13ifvqfd0","pricing_plan_id":"cebpf4jnsgd1na2vs0mg"},{"bike_id":"f3998a04-3b93-4948-8eb7-aa16047370fd","system_id":"levelo_inurba_marseille","lat":43.27959,"lon":5.41039,"is_reserved":false,"is_disabled":false,"rental_uris":{"android":"levelo://app?vid=f3998a04-3b93-4948-8eb7-aa16047370fd","ios":"levelo://app?vid=f3998a04-3b93-4948-8eb7-aa16047370fd"},"vehicle_type_id":"4","last_reported":1735945764,"current_range_meters":16400,"station_id":"ce4bhnp2rcd13ifvqh0g","pricing_plan_id":"cebpf4jnsgd1na2vs0mg"},{"bike_id":"94978c18-c7ac-49d8-9c72-40484a75119d","system_id":"levelo_inurba_marseille","lat":43.29006,"lon":5.35635,"is_reserved":false,"is_disabled":false,"rental_uris":{"android":"levelo://app?vid=94978c18-c7ac-49d8-9c72-40484a75119d","ios":"levelo://app?vid=94978c18-c7ac-49d8-9c72-40484a75119d"},"vehicle_type_id":"4","last_reported":1735945764,"current_range_meters":39200,"station_id":"ce4bhb92rcd13ifvqen0","pricing_plan_id":"cebpf4jnsgd1na2vs0mg"},{"bike_id":"615d335b-2783-43cb-bf6f-82b705d68bf3","system_id":"levelo_inurba_marseille","lat":43.29291,"lon":5.36847,"is_reserved":false,"is_disabled":false,"rental_uris":{"android":"levelo://app?vid=615d335b-2783-43cb-bf6f-82b705d68bf3","ios":"levelo://app?vid=615d335b-2783-43cb-bf6f-82b705d68bf3"},"vehicle_type_id":"4","last_reported":1735945764,"current_range_meters":28000,"station_id":"ce4bhbp2rcd13ifvqesg","pricing_plan_id":"cebpf4jnsgd1na2vs0mg"},{"bike_id":"0a684e83-02b4-4924-8b8a-900409f1cd34","system_id":"levelo_inurba_marseille","lat":43.24635,"lon":5.3892,"is_reserved":false,"is_disabled":false,"rental_uris":{"android":"levelo://app?vid=0a684e83-02b4-4924-8b8a-900409f1cd34","ios":"levelo://app?vid=0a684e83-02b4-4924-8b8a-900409f1cd34"},"vehicle_type_id":"4","last_reported":1735945764,"current_range_meters":18000,"station_id":"ce4bhg12rcd13ifvqf60","pricing_plan_id":"cebpf4jnsgd1na2vs0mg"},{"bike_id":"c150b4c3-2169-48df-a9d5-cdbc11d0c0c7","system_id":"levelo_inurba_marseille","lat":43.2921,"lon":5.36047,"is_reserved":false,"is_disabled":true,"rental_uris":{"android":"levelo://app?vid=c150b4c3-2169-48df-a9d5-cdbc11d0c0c7","ios":"levelo://app?vid=c150b4c3-2169-48df-a9d5-cdbc11d0c0c7"},"vehicle_type_id":"4","last_reported":1735945764,"current_range_meters":11600,"station_id":"ce4bhbh2rcd13ifvqeqg","pricing_plan_id":"cebpf4jnsgd1na2vs0mg"},{"bike_id":"e593993a-57f7-4cce-bbdd-0884a2d271b4","system_id":"levelo_inurba_marseille","lat":43.28623,"lon":5.35105,"is_reserved":false,"is_disabled":false,"rental_uris":{"android":"levelo://app?vid=e593993a-57f7-4cce-bbdd-0884a2d271b4","ios":"levelo://app?vid=e593993a-57f7-4cce-bbdd-0884a2d271b4"},"vehicle_type_id":"4","last_reported":1735945764,"current_range_meters":22400,"station_id":"ce4bhch2rcd13ifvqeug","pricing_plan_id":"cebpf4jnsgd1na2vs0mg"},{"bike_id":"9a633b20-48e1-4d57-88ca-cc77983ef0f1","system_id":"levelo_inurba_marseille","lat":43.28156,"lon":5.42661,"is_reserved":false,"is_disabled":false,"rental_uris":{"android":"levelo://app?vid=9a633b20-48e1-4d57-88ca-cc77983ef0f1","ios":"levelo://app?vid=9a633b20-48e1-4d57-88ca-cc77983ef0f1"},"vehicle_type_id":"4","last_reported":1735945764,"current_range_meters":9200,"station_id":"ce4bhnh2rcd13ifvqgug","pricing_plan_id":"cebpf4jnsgd1na2vs0mg"},{"bike_id":"a4935dd6-48ad-47dd-8f6e-6bbdd0e6b116","system_id":"levelo_inurba_marseille","lat":43.29595,"lon":5.38072,"is_reserved":false,"is_disabled":false,"rental_uris":{"android":"levelo://app?vid=a4935dd6-48ad-47dd-8f6e-6bbdd0e6b116","ios":"levelo://app?vid=a4935dd6-48ad-47dd-8f6e-6bbdd0e6b116"},"vehicle_type_id":"4","last_reported":1735945764,"current_range_meters":38800,"station_id":"ce4bgl12rcd13ifvqbo0","pricing_plan_id":"cebpf4jnsgd1na2vs0mg"},{"bike_id":"8dea86a9-7af5-4537-90e0-994032c18dff","system_id":"levelo_inurba_marseille","lat":43.31687,"lon":5.40471,"is_reserved":false,"is_disabled":false,"rental_uris":{"android":"levelo://app?vid=8dea86a9-7af5-4537-90e0-994032c18dff","ios":"levelo://app?vid=8dea86a9-7af5-4537-90e0-994032c18dff"},"vehicle_type_id":"4","last_reported":1735945764,"current_range_meters":14800,"station_id":"ce4bh012rcd13ifvqd00","pricing_plan_id":"cebpf4jnsgd1na2vs0mg"},{"bike_id":"eaecfcca-aa89-4e9a-8d17-c5be1539665b","system_id":"levelo_inurba_marseille","lat":43.2828,"lon":5.35064,"is_reserved":false,"is_disabled":true,"rental_uris":{"android":"levelo://app?vid=eaecfcca-aa89-4e9a-8d17-c5be1539665b","ios":"levelo://app?vid=eaecfcca-aa89-4e9a-8d17-c5be1539665b"},"vehicle_type_id":"4","last_reported":1735945764,"current_range_meters":8800,"station_id":"ce4bhbp2rcd13ifvqerg","pricing_plan_id":"cebpf4jnsgd1na2vs0mg"},{"bike_id":"896797d5-e48c-435a-a4ff-c7d0b4682116","system_id":"levelo_inurba_marseille","lat":43.27811,"lon":5.40715,"is_reserved":false,"is_disabled":false,"rental_uris":{"android":"levelo://app?vid=896797d5-e48c-435a-a4ff-c7d0b4682116","ios":"levelo://app?vid=896797d5-e48c-435a-a4ff-c7d0b4682116"},"vehicle_type_id":"4","last_reported":1735945764,"current_range_meters":28800,"station_id":"ce4bhnh2rcd13ifvqgtg","pricing_plan_id":"cebpf4jnsgd1na2vs0mg"},{"bike_id":"13ef7d4c-1aac-463f-b78f-283376e4de16","system_id":"levelo_inurba_marseille","lat":43.22929,"lon":5.35368,"is_reserved":false,"is_disabled":false,"rental_uris":{"android":"levelo://app?vid=13ef7d4c-1aac-463f-b78f-283376e4de16","ios":"levelo://app?vid=13ef7d4c-1aac-463f-b78f-283376e4de16"},"vehicle_type_id":"4","last_reported":1735945764,"current_range_meters":38800,"station_id":"cpo3532slgdg3j2ikp40","pricing_plan_id":"cebpf4jnsgd1na2vs0mg"},{"bike_id":"cf54008b-27af-48d5-90e3-f17a9778834c","system_id":"levelo_inurba_marseille","lat":43.31307,"lon":5.38486,"is_reserved":false,"is_disabled":false,"rental_uris":{"android":"levelo://app?vid=cf54008b-27af-48d5-90e3-f17a9778834c","ios":"levelo://app?vid=cf54008b-27af-48d5-90e3-f17a9778834c"},"vehicle_type_id":"4","last_reported":1735945764,"current_range_meters":38400,"station_id":"","pricing_plan_id":"cebpf4jnsgd1na2vs0mg"},{"bike_id":"2a5f3b0a-f9d0-48ea-9bef-aa26f1f028b8","system_id":"levelo_inurba_marseille","lat":43.25719,"lon":5.41111,"is_reserved":false,"is_disabled":false,"rental_uris":{"android":"levelo://app?vid=2a5f3b0a-f9d0-48ea-9bef-aa26f1f028b8","ios":"levelo://app?vid=2a5f3b0a-f9d0-48ea-9bef-aa26f1f028b8"},"vehicle_type_id":"4","last_reported":1735945764,"current_range_meters":39200,"station_id":"ce4bhkp2rcd13ifvqgd0","pricing_plan_id":"cebpf4jnsgd1na2vs0mg"},{"bike_id":"3b123c2a-2f45-40a4-99ee-394de99fe1b6","system_id":"levelo_inurba_marseille","lat":43.29795,"lon":5.39354,"is_reserved":false,"is_disabled":false,"rental_uris":{"android":"levelo://app?vid=3b123c2a-2f45-40a4-99ee-394de99fe1b6","ios":"levelo://app?vid=3b123c2a-2f45-40a4-99ee-394de99fe1b6"},"vehicle_type_id":"4","last_reported":1735945764,"current_range_meters":26000,"station_id":"chh1huq6cuj3fo74tm60","pricing_plan_id":"cebpf4jnsgd1na2vs0mg"},{"bike_id":"0fe51e2a-6ba3-400a-8679-dc5ed19a829b","system_id":"levelo_inurba_marseille","lat":43.30937,"lon":5.40127,"is_reserved":false,"is_disabled":false,"rental_uris":{"android":"levelo://app?vid=0fe51e2a-6ba3-400a-8679-dc5ed19a829b","ios":"levelo://app?vid=0fe51e2a-6ba3-400a-8679-dc5ed19a829b"},"vehicle_type_id":"4","last_reported":1735945764,"current_range_meters":38800,"station_id":"ce4bgvp2rcd13ifvqct0","pricing_plan_id":"cebpf4jnsgd1na2vs0mg"},{"bike_id":"f3c12ef4-82bd-48ff-8ba6-8f2c9a44f8b9","system_id":"levelo_inurba_marseille","lat":43.24815,"lon":5.37452,"is_reserved":false,"is_disabled":false,"rental_uris":{"android":"levelo://app?vid=f3c12ef4-82bd-48ff-8ba6-8f2c9a44f8b9","ios":"levelo://app?vid=f3c12ef4-82bd-48ff-8ba6-8f2c9a44f8b9"},"vehicle_type_id":"4","last_reported":1735945764,"current_range_meters":38800,"station_id":"ce4bhgh2rcd13ifvqfb0","pricing_plan_id":"cebpf4jnsgd1na2vs0mg"},{"bike_id":"15ce9447-d0f3-490c-b730-1734410c942e","system_id":"levelo_inurba_marseille","lat":43.28106,"lon":5.37831,"is_reserved":false,"is_disabled":false,"rental_uris":{"android":"levelo://app?vid=15ce9447-d0f3-490c-b730-1734410c942e","ios":"levelo://app?vid=15ce9447-d0f3-490c-b730-1734410c942e"},"vehicle_type_id":"4","last_reported":1735945764,"current_range_meters":31200,"station_id":"ce4bha12rcd13ifvqee0","pricing_plan_id":"cebpf4jnsgd1na2vs0mg"},{"bike_id":"c023bde9-ffda-4fe0-b15d-b0ad0e628af2","system_id":"levelo_inurba_marseille","lat":43.25505,"lon":5.37658,"is_reserved":false,"is_disabled":false,"rental_uris":{"android":"levelo://app?vid=c023bde9-ffda-4fe0-b15d-b0ad0e628af2","ios":"levelo://app?vid=c023bde9-ffda-4fe0-b15d-b0ad0e628af2"},"vehicle_type_id":"4","last_reported":1735945764,"current_range_meters":33600,"station_id":"ce4bhh12rcd13ifvqff0","pricing_plan_id":"cebpf4jnsgd1na2vs0mg"},{"bike_id":"68ef66f0-dd96-424a-ba29-3c004929578e","system_id":"levelo_inurba_marseille","lat":43.23192,"lon":5.39967,"is_reserved":false,"is_disabled":false,"rental_uris":{"android":"levelo://app?vid=68ef66f0-dd96-424a-ba29-3c004929578e","ios":"levelo://app?vid=68ef66f0-dd96-424a-ba29-3c004929578e"},"vehicle_type_id":"4","last_reported":1735945764,"current_range_meters":38800,"station_id":"ce4bhn12rcd13ifvqgqg","pricing_plan_id":"cebpf4jnsgd1na2vs0mg"},{"bike_id":"725999bb-8b32-4e5b-95fc-d63880a1b626","system_id":"levelo_inurba_marseille","lat":43.32658,"lon":5.40987,"is_reserved":false,"is_disabled":false,"rental_uris":{"android":"levelo://app?vid=725999bb-8b32-4e5b-95fc-d63880a1b626","ios":"levelo://app?vid=725999bb-8b32-4e5b-95fc-d63880a1b626"},"vehicle_type_id":"4","last_reported":1735945764,"current_range_meters":38800,"station_id":"ce4bhpp2rcd13ifvqhgg","pricing_plan_id":"cebpf4jnsgd1na2vs0mg"},{"bike_id":"67c62abe-a15e-49fe-b0d4-1bad8abb85a1","system_id":"levelo_inurba_marseille","lat":43.29034,"lon":5.37552,"is_reserved":false,"is_disabled":false,"rental_uris":{"android":"levelo://app?vid=67c62abe-a15e-49fe-b0d4-1bad8abb85a1","ios":"levelo://app?vid=67c62abe-a15e-49fe-b0d4-1bad8abb85a1"},"vehicle_type_id":"4","last_reported":1735945764,"current_range_meters":38800,"station_id":"ce4bh692rcd13ifvqe90","pricing_plan_id":"cebpf4jnsgd1na2vs0mg"},{"bike_id":"eae11c21-0e68-4841-b456-38f5bd6f851c","system_id":"levelo_inurba_marseille","lat":43.26755,"lon":5.39429,"is_reserved":false,"is_disabled":false,"rental_uris":{"android":"levelo://app?vid=eae11c21-0e68-4841-b456-38f5bd6f851c","ios":"levelo://app?vid=eae11c21-0e68-4841-b456-38f5bd6f851c"},"vehicle_type_id":"4","last_reported":1735945764,"current_range_meters":19600,"station_id":"","pricing_plan_id":"cebpf4jnsgd1na2vs0mg"},{"bike_id":"270f72ca-6ff0-4006-b955-8701cfe72efd","system_id":"levelo_inurba_marseille","lat":43.2925,"lon":5.40152,"is_reserved":false,"is_disabled":true,"rental_uris":{"android":"levelo://app?vid=270f72ca-6ff0-4006-b955-8701cfe72efd","ios":"levelo://app?vid=270f72ca-6ff0-4006-b955-8701cfe72efd"},"vehicle_type_id":"4","last_reported":1735945764,"current_range_meters":8400,"station_id":"ce4bh312rcd13ifvqdk0","pricing_plan_id":"cebpf4jnsgd1na2vs0mg"},{"bike_id":"3603cabe-4957-48a6-b971-b737ca16a43d","system_id":"levelo_inurba_marseille","lat":43.32664,"lon":5.40993,"is_reserved":false,"is_disabled":false,"rental_uris":{"android":"levelo://app?vid=3603cabe-4957-48a6-b971-b737ca16a43d","ios":"levelo://app?vid=3603cabe-4957-48a6-b971-b737ca16a43d"},"vehicle_type_id":"4","last_reported":1735945764,"current_range_meters":20800,"station_id":"ce4bhpp2rcd13ifvqhgg","pricing_plan_id":"cebpf4jnsgd1na2vs0mg"},{"bike_id":"16ef519c-c129-4a25-869c-377cd2829023","system_id":"levelo_inurba_marseille","lat":43.32008,"lon":5.38144,"is_reserved":false,"is_disabled":false,"rental_uris":{"android":"levelo://app?vid=16ef519c-c129-4a25-869c-377cd2829023","ios":"levelo://app?vid=16ef519c-c129-4a25-869c-377cd2829023"},"vehicle_type_id":"4","last_reported":1735945764,"current_range_meters":26000,"station_id":"ce4bhr12rcd13ifvqhpg","pricing_plan_id":"cebpf4jnsgd1na2vs0mg"},{"bike_id":"53b06025-d8c9-4bda-94c7-740ea5b3c0ee","system_id":"levelo_inurba_marseille","lat":43.29698,"lon":5.36584,"is_reserved":false,"is_disabled":false,"rental_uris":{"android":"levelo://app?vid=53b06025-d8c9-4bda-94c7-740ea5b3c0ee","ios":"levelo://app?vid=53b06025-d8c9-4bda-94c7-740ea5b3c0ee"},"vehicle_type_id":"4","last_reported":1735945764,"current_range_meters":38800,"station_id":"ce4bgn12rcd13ifvqbt0","pricing_plan_id":"cebpf4jnsgd1na2vs0mg"},{"bike_id":"dcbbbac4-6615-48d1-aecd-87a0c7ad19b6","system_id":"levelo_inurba_marseille","lat":43.32511,"lon":5.36567,"is_reserved":false,"is_disabled":false,"rental_uris":{"android":"levelo://app?vid=dcbbbac4-6615-48d1-aecd-87a0c7ad19b6","ios":"levelo://app?vid=dcbbbac4-6615-48d1-aecd-87a0c7ad19b6"},"vehicle_type_id":"4","last_reported":1735945764,"current_range_meters":39200,"station_id":"ce4bhs12rcd13ifvqhvg","pricing_plan_id":"cebpf4jnsgd1na2vs0mg"},{"bike_id":"e314f4a2-d4ea-4bb6-ac0a-043a21c7cbec","system_id":"levelo_inurba_marseille","lat":43.27983,"lon":5.41649,"is_reserved":false,"is_disabled":false,"rental_uris":{"android":"levelo://app?vid=e314f4a2-d4ea-4bb6-ac0a-043a21c7cbec","ios":"levelo://app?vid=e314f4a2-d4ea-4bb6-ac0a-043a21c7cbec"},"vehicle_type_id":"4","last_reported":1735945764,"current_range_meters":30000,"station_id":"ce4bho12rcd13ifvqh1g","pricing_plan_id":"cebpf4jnsgd1na2vs0mg"},{"bike_id":"13a28414-459a-4707-9716-ef38899da2be","system_id":"levelo_inurba_marseille","lat":43.31122,"lon":5.3776,"is_reserved":false,"is_disabled":false,"rental_uris":{"android":"levelo://app?vid=13a28414-459a-4707-9716-ef38899da2be","ios":"levelo://app?vid=13a28414-459a-4707-9716-ef38899da2be"},"vehicle_type_id":"4","last_reported":1735945764,"current_range_meters":36000,"station_id":"ce4bgt92rcd13ifvqcg0","pricing_plan_id":"cebpf4jnsgd1na2vs0mg"},{"bike_id":"759be572-b19d-406e-a346-0fb62285ee94","system_id":"levelo_inurba_marseille","lat":43.28705,"lon":5.373893,"is_reserved":false,"is_disabled":false,"rental_uris":{"android":"levelo://app?vid=759be572-b19d-406e-a346-0fb62285ee94","ios":"levelo://app?vid=759be572-b19d-406e-a346-0fb62285ee94"},"vehicle_type_id":"4","last_reported":1735945764,"current_range_meters":30000,"station_id":"ce4bh3p2rcd13ifvqdq0","pricing_plan_id":"cebpf4jnsgd1na2vs0mg"},{"bike_id":"2bd213f6-7c3b-4206-a8d7-1b059cfadb7f","system_id":"levelo_inurba_marseille","lat":43.33758,"lon":5.39178,"is_reserved":false,"is_disabled":false,"rental_uris":{"android":"levelo://app?vid=2bd213f6-7c3b-4206-a8d7-1b059cfadb7f","ios":"levelo://app?vid=2bd213f6-7c3b-4206-a8d7-1b059cfadb7f"},"vehicle_type_id":"4","last_reported":1735945764,"current_range_meters":39200,"station_id":"ce4bhr92rcd13ifvqhsg","pricing_plan_id":"cebpf4jnsgd1na2vs0mg"},{"bike_id":"4e2e926a-cc62-4529-8b24-3abbcf0f0be2","system_id":"levelo_inurba_marseille","lat":43.23192,"lon":5.35542,"is_reserved":false,"is_disabled":false,"rental_uris":{"android":"levelo://app?vid=4e2e926a-cc62-4529-8b24-3abbcf0f0be2","ios":"levelo://app?vid=4e2e926a-cc62-4529-8b24-3abbcf0f0be2"},"vehicle_type_id":"4","last_reported":1735945764,"current_range_meters":30800,"station_id":"ce4bhu92rcd13ifvqi70","pricing_plan_id":"cebpf4jnsgd1na2vs0mg"},{"bike_id":"298f30db-03d5-4549-9f41-6471efa68298","system_id":"levelo_inurba_marseille","lat":43.29043,"lon":5.37569,"is_reserved":false,"is_disabled":false,"rental_uris":{"android":"levelo://app?vid=298f30db-03d5-4549-9f41-6471efa68298","ios":"levelo://app?vid=298f30db-03d5-4549-9f41-6471efa68298"},"vehicle_type_id":"4","last_reported":1735945764,"current_range_meters":14400,"station_id":"ce4bh692rcd13ifvqe90","pricing_plan_id":"cebpf4jnsgd1na2vs0mg"},{"bike_id":"7acb53f1-7658-4b7e-ac77-e476fe25e722","system_id":"levelo_inurba_marseille","lat":43.292,"lon":5.39316,"is_reserved":false,"is_disabled":false,"rental_uris":{"android":"levelo://app?vid=7acb53f1-7658-4b7e-ac77-e476fe25e722","ios":"levelo://app?vid=7acb53f1-7658-4b7e-ac77-e476fe25e722"},"vehicle_type_id":"4","last_reported":1735945764,"current_range_meters":39200,"station_id":"ce4bh192rcd13ifvqdd0","pricing_plan_id":"cebpf4jnsgd1na2vs0mg"},{"bike_id":"da7f6a8f-cc5d-41f0-a16f-94a4e12ee32c","system_id":"levelo_inurba_marseille","lat":43.29214,"lon":5.36049,"is_reserved":false,"is_disabled":false,"rental_uris":{"android":"levelo://app?vid=da7f6a8f-cc5d-41f0-a16f-94a4e12ee32c","ios":"levelo://app?vid=da7f6a8f-cc5d-41f0-a16f-94a4e12ee32c"},"vehicle_type_id":"4","last_reported":1735945764,"current_range_meters":32800,"station_id":"ce4bhbh2rcd13ifvqeqg","pricing_plan_id":"cebpf4jnsgd1na2vs0mg"},{"bike_id":"58fb77f5-e771-46fe-921c-89882575d4b1","system_id":"levelo_inurba_marseille","lat":43.30779,"lon":5.37657,"is_reserved":false,"is_disabled":false,"rental_uris":{"android":"levelo://app?vid=58fb77f5-e771-46fe-921c-89882575d4b1","ios":"levelo://app?vid=58fb77f5-e771-46fe-921c-89882575d4b1"},"vehicle_type_id":"4","last_reported":1735945764,"current_range_meters":24800,"station_id":"ce4bgv92rcd13ifvqcq0","pricing_plan_id":"cebpf4jnsgd1na2vs0mg"},{"bike_id":"fae838b5-30fa-4a51-b794-44c4c9a96d55","system_id":"levelo_inurba_marseille","lat":43.29536,"lon":5.38541,"is_reserved":false,"is_disabled":false,"rental_uris":{"android":"levelo://app?vid=fae838b5-30fa-4a51-b794-44c4c9a96d55","ios":"levelo://app?vid=fae838b5-30fa-4a51-b794-44c4c9a96d55"},"vehicle_type_id":"4","last_reported":1735945764,"current_range_meters":35600,"station_id":"ce4bgih2rcd13ifvqba0","pricing_plan_id":"cebpf4jnsgd1na2vs0mg"},{"bike_id":"5e584ae4-fb04-4605-b8fd-532b0218e039","system_id":"levelo_inurba_marseille","lat":43.33612,"lon":5.41035,"is_reserved":false,"is_disabled":false,"rental_uris":{"android":"levelo://app?vid=5e584ae4-fb04-4605-b8fd-532b0218e039","ios":"levelo://app?vid=5e584ae4-fb04-4605-b8fd-532b0218e039"},"vehicle_type_id":"4","last_reported":1735945764,"current_range_meters":17600,"station_id":"ce4bhqh2rcd13ifvqhmg","pricing_plan_id":"cebpf4jnsgd1na2vs0mg"},{"bike_id":"363691a1-1ab8-4ef9-ab2a-a84c265c101d","system_id":"levelo_inurba_marseille","lat":43.29174,"lon":5.37149,"is_reserved":false,"is_disabled":false,"rental_uris":{"android":"levelo://app?vid=363691a1-1ab8-4ef9-ab2a-a84c265c101d","ios":"levelo://app?vid=363691a1-1ab8-4ef9-ab2a-a84c265c101d"},"vehicle_type_id":"4","last_reported":1735945764,"current_range_meters":16000,"station_id":"ce4bha92rcd13ifvqeh0","pricing_plan_id":"cebpf4jnsgd1na2vs0mg"},{"bike_id":"93b0597b-4e60-4277-8289-d05658c8f11f","system_id":"levelo_inurba_marseille","lat":43.25125,"lon":5.40319,"is_reserved":false,"is_disabled":false,"rental_uris":{"android":"levelo://app?vid=93b0597b-4e60-4277-8289-d05658c8f11f","ios":"levelo://app?vid=93b0597b-4e60-4277-8289-d05658c8f11f"},"vehicle_type_id":"4","last_reported":1735945764,"current_range_meters":25600,"station_id":"ce4bhlh2rcd13ifvqgig","pricing_plan_id":"cebpf4jnsgd1na2vs0mg"},{"bike_id":"791dec88-10e9-48b5-9fc6-b0acca6d5c2e","system_id":"levelo_inurba_marseille","lat":43.29272,"lon":5.37458,"is_reserved":false,"is_disabled":true,"rental_uris":{"android":"levelo://app?vid=791dec88-10e9-48b5-9fc6-b0acca6d5c2e","ios":"levelo://app?vid=791dec88-10e9-48b5-9fc6-b0acca6d5c2e"},"vehicle_type_id":"4","last_reported":1735945764,"current_range_meters":800,"station_id":"ce4bgi12rcd13ifvqb70","pricing_plan_id":"cebpf4jnsgd1na2vs0mg"},{"bike_id":"2a8798a8-a505-47c3-a2e7-b103ccdcc712","system_id":"levelo_inurba_marseille","lat":43.3065,"lon":5.40067,"is_reserved":false,"is_disabled":false,"rental_uris":{"android":"levelo://app?vid=2a8798a8-a505-47c3-a2e7-b103ccdcc712","ios":"levelo://app?vid=2a8798a8-a505-47c3-a2e7-b103ccdcc712"},"vehicle_type_id":"4","last_reported":1735945764,"current_range_meters":38000,"station_id":"ce4bh112rcd13ifvqda0","pricing_plan_id":"cebpf4jnsgd1na2vs0mg"},{"bike_id":"97aabcd4-59ac-4cc3-878c-71e6bf45a696","system_id":"levelo_inurba_marseille","lat":43.29805,"lon":5.38089,"is_reserved":false,"is_disabled":false,"rental_uris":{"android":"levelo://app?vid=97aabcd4-59ac-4cc3-878c-71e6bf45a696","ios":"levelo://app?vid=97aabcd4-59ac-4cc3-878c-71e6bf45a696"},"vehicle_type_id":"4","last_reported":1735945764,"current_range_meters":38800,"station_id":"ce4bgip2rcd13ifvqbb0","pricing_plan_id":"cebpf4jnsgd1na2vs0mg"},{"bike_id":"34617586-430d-4b7a-9eab-a1013b7c582e","system_id":"levelo_inurba_marseille","lat":43.28975,"lon":5.37831,"is_reserved":false,"is_disabled":true,"rental_uris":{"android":"levelo://app?vid=34617586-430d-4b7a-9eab-a1013b7c582e","ios":"levelo://app?vid=34617586-430d-4b7a-9eab-a1013b7c582e"},"vehicle_type_id":"4","last_reported":1735945764,"current_range_meters":30000,"station_id":"ce4bh9p2rcd13ifvqed0","pricing_plan_id":"cebpf4jnsgd1na2vs0mg"},{"bike_id":"48d2688d-946c-4cd9-95b1-87f4dc14a3ad","system_id":"levelo_inurba_marseille","lat":43.27921,"lon":5.41168,"is_reserved":false,"is_disabled":false,"rental_uris":{"android":"levelo://app?vid=48d2688d-946c-4cd9-95b1-87f4dc14a3ad","ios":"levelo://app?vid=48d2688d-946c-4cd9-95b1-87f4dc14a3ad"},"vehicle_type_id":"4","last_reported":1735945764,"current_range_meters":16400,"station_id":"","pricing_plan_id":"cebpf4jnsgd1na2vs0mg"},{"bike_id":"e86e8a6b-2981-4147-9bb2-a5ab92db9450","system_id":"levelo_inurba_marseille","lat":43.28155,"lon":5.42664,"is_reserved":false,"is_disabled":false,"rental_uris":{"android":"levelo://app?vid=e86e8a6b-2981-4147-9bb2-a5ab92db9450","ios":"levelo://app?vid=e86e8a6b-2981-4147-9bb2-a5ab92db9450"},"vehicle_type_id":"4","last_reported":1735945764,"current_range_meters":36400,"station_id":"ce4bhnh2rcd13ifvqgug","pricing_plan_id":"cebpf4jnsgd1na2vs0mg"},{"bike_id":"96ba7f26-1810-4a4d-90e4-a07a1e6cacee","system_id":"levelo_inurba_marseille","lat":43.24807,"lon":5.37453,"is_reserved":false,"is_disabled":false,"rental_uris":{"android":"levelo://app?vid=96ba7f26-1810-4a4d-90e4-a07a1e6cacee","ios":"levelo://app?vid=96ba7f26-1810-4a4d-90e4-a07a1e6cacee"},"vehicle_type_id":"4","last_reported":1735945764,"current_range_meters":26800,"station_id":"ce4bhgh2rcd13ifvqfb0","pricing_plan_id":"cebpf4jnsgd1na2vs0mg"},{"bike_id":"d9676b1a-df49-429f-b317-1de61bb96597","system_id":"levelo_inurba_marseille","lat":43.28619,"lon":5.35099,"is_reserved":false,"is_disabled":false,"rental_uris":{"android":"levelo://app?vid=d9676b1a-df49-429f-b317-1de61bb96597","ios":"levelo://app?vid=d9676b1a-df49-429f-b317-1de61bb96597"},"vehicle_type_id":"4","last_reported":1735945764,"current_range_meters":32800,"station_id":"ce4bhch2rcd13ifvqeug","pricing_plan_id":"cebpf4jnsgd1na2vs0mg"},{"bike_id":"054d3ca4-b4c6-46ee-b62e-034be78c56f4","system_id":"levelo_inurba_marseille","lat":43.29308,"lon":5.37116,"is_reserved":false,"is_disabled":false,"rental_uris":{"android":"levelo://app?vid=054d3ca4-b4c6-46ee-b62e-034be78c56f4","ios":"levelo://app?vid=054d3ca4-b4c6-46ee-b62e-034be78c56f4"},"vehicle_type_id":"4","last_reported":1735945764,"current_range_meters":37600,"station_id":"ce4bgh92rcd13ifvqb40","pricing_plan_id":"cebpf4jnsgd1na2vs0mg"},{"bike_id":"e40b8873-a7cf-4e56-b106-d515344f64c4","system_id":"levelo_inurba_marseille","lat":43.23191,"lon":5.35561,"is_reserved":false,"is_disabled":false,"rental_uris":{"android":"levelo://app?vid=e40b8873-a7cf-4e56-b106-d515344f64c4","ios":"levelo://app?vid=e40b8873-a7cf-4e56-b106-d515344f64c4"},"vehicle_type_id":"4","last_reported":1735945764,"current_range_meters":39200,"station_id":"ce4bhu92rcd13ifvqi70","pricing_plan_id":"cebpf4jnsgd1na2vs0mg"},{"bike_id":"bbf998ea-d252-4590-8711-16d78ff4b07c","system_id":"levelo_inurba_marseille","lat":43.24637,"lon":5.38916,"is_reserved":false,"is_disabled":false,"rental_uris":{"android":"levelo://app?vid=bbf998ea-d252-4590-8711-16d78ff4b07c","ios":"levelo://app?vid=bbf998ea-d252-4590-8711-16d78ff4b07c"},"vehicle_type_id":"4","last_reported":1735945764,"current_range_meters":38800,"station_id":"ce4bhg12rcd13ifvqf60","pricing_plan_id":"cebpf4jnsgd1na2vs0mg"},{"bike_id":"224a5949-8a94-4e08-9f94-abbde3434518","system_id":"levelo_inurba_marseille","lat":43.29844,"lon":5.36269,"is_reserved":false,"is_disabled":false,"rental_uris":{"android":"levelo://app?vid=224a5949-8a94-4e08-9f94-abbde3434518","ios":"levelo://app?vid=224a5949-8a94-4e08-9f94-abbde3434518"},"vehicle_type_id":"4","last_reported":1735945764,"current_range_meters":39200,"station_id":"ce4bgpp2rcd13ifvqc3g","pricing_plan_id":"cebpf4jnsgd1na2vs0mg"},{"bike_id":"6986a939-ad68-46af-90c6-b23cfd43cb23","system_id":"levelo_inurba_marseille","lat":43.290263,"lon":5.386263,"is_reserved":false,"is_disabled":false,"rental_uris":{"android":"levelo://app?vid=6986a939-ad68-46af-90c6-b23cfd43cb23","ios":"levelo://app?vid=6986a939-ad68-46af-90c6-b23cfd43cb23"},"vehicle_type_id":"4","last_reported":1735945764,"current_range_meters":39200,"station_id":"ce4bh4p2rcd13ifvqe0g","pricing_plan_id":"cebpf4jnsgd1na2vs0mg"},{"bike_id":"5250f7d4-1da6-441d-b627-ab92cb7e088d","system_id":"levelo_inurba_marseille","lat":43.24796,"lon":5.37498,"is_reserved":false,"is_disabled":false,"rental_uris":{"android":"levelo://app?vid=5250f7d4-1da6-441d-b627-ab92cb7e088d","ios":"levelo://app?vid=5250f7d4-1da6-441d-b627-ab92cb7e088d"},"vehicle_type_id":"4","last_reported":1735945764,"current_range_meters":27600,"station_id":"ce4bhgh2rcd13ifvqfb0","pricing_plan_id":"cebpf4jnsgd1na2vs0mg"},{"bike_id":"ee808430-fc08-4e4b-b354-970dcaa7e3bb","system_id":"levelo_inurba_marseille","lat":43.29249,"lon":5.38447,"is_reserved":false,"is_disabled":false,"rental_uris":{"android":"levelo://app?vid=ee808430-fc08-4e4b-b354-970dcaa7e3bb","ios":"levelo://app?vid=ee808430-fc08-4e4b-b354-970dcaa7e3bb"},"vehicle_type_id":"4","last_reported":1735945764,"current_range_meters":38800,"station_id":"ce4bh692rcd13ifvqea0","pricing_plan_id":"cebpf4jnsgd1na2vs0mg"},{"bike_id":"c76f010e-8b23-4840-a7a5-a9a5d3648fa3","system_id":"levelo_inurba_marseille","lat":43.308794,"lon":5.371929,"is_reserved":false,"is_disabled":true,"rental_uris":{"android":"levelo://app?vid=c76f010e-8b23-4840-a7a5-a9a5d3648fa3","ios":"levelo://app?vid=c76f010e-8b23-4840-a7a5-a9a5d3648fa3"},"vehicle_type_id":"4","last_reported":1735945764,"current_range_meters":12000,"station_id":"ce4bguh2rcd13ifvqckg","pricing_plan_id":"cebpf4jnsgd1na2vs0mg"},{"bike_id":"6f21fba1-6f8e-47c4-a476-286cca5f9cc6","system_id":"levelo_inurba_marseille","lat":43.282705,"lon":5.350749,"is_reserved":false,"is_disabled":true,"rental_uris":{"android":"levelo://app?vid=6f21fba1-6f8e-47c4-a476-286cca5f9cc6","ios":"levelo://app?vid=6f21fba1-6f8e-47c4-a476-286cca5f9cc6"},"vehicle_type_id":"4","last_reported":1735945764,"current_range_meters":6000,"station_id":"ce4bhbp2rcd13ifvqerg","pricing_plan_id":"cebpf4jnsgd1na2vs0mg"},{"bike_id":"09e64385-2ecb-4bb9-b546-a98347585cb3","system_id":"levelo_inurba_marseille","lat":43.30583,"lon":5.37168,"is_reserved":false,"is_disabled":false,"rental_uris":{"android":"levelo://app?vid=09e64385-2ecb-4bb9-b546-a98347585cb3","ios":"levelo://app?vid=09e64385-2ecb-4bb9-b546-a98347585cb3"},"vehicle_type_id":"4","last_reported":1735945764,"current_range_meters":38800,"station_id":"ce4bgqh2rcd13ifvqc4g","pricing_plan_id":"cebpf4jnsgd1na2vs0mg"},{"bike_id":"067a14cd-d2e4-467c-88bd-28fc181bd951","system_id":"levelo_inurba_marseille","lat":43.28702,"lon":5.37375,"is_reserved":false,"is_disabled":false,"rental_uris":{"android":"levelo://app?vid=067a14cd-d2e4-467c-88bd-28fc181bd951","ios":"levelo://app?vid=067a14cd-d2e4-467c-88bd-28fc181bd951"},"vehicle_type_id":"4","last_reported":1735945764,"current_range_meters":38400,"station_id":"ce4bh3p2rcd13ifvqdq0","pricing_plan_id":"cebpf4jnsgd1na2vs0mg"},{"bike_id":"3b0bc8f7-79d8-4609-aaf2-0d56834403e5","system_id":"levelo_inurba_marseille","lat":43.30303,"lon":5.3919,"is_reserved":false,"is_disabled":false,"rental_uris":{"android":"levelo://app?vid=3b0bc8f7-79d8-4609-aaf2-0d56834403e5","ios":"levelo://app?vid=3b0bc8f7-79d8-4609-aaf2-0d56834403e5"},"vehicle_type_id":"4","last_reported":1735945764,"current_range_meters":36800,"station_id":"ce4bgkh2rcd13ifvqbk0","pricing_plan_id":"cebpf4jnsgd1na2vs0mg"},{"bike_id":"85e580bc-7d66-42fa-8c3f-c3b6d70250fa","system_id":"levelo_inurba_marseille","lat":43.29021,"lon":5.38135,"is_reserved":false,"is_disabled":false,"rental_uris":{"android":"levelo://app?vid=85e580bc-7d66-42fa-8c3f-c3b6d70250fa","ios":"levelo://app?vid=85e580bc-7d66-42fa-8c3f-c3b6d70250fa"},"vehicle_type_id":"4","last_reported":1735945764,"current_range_meters":38800,"station_id":"ce4bh4p2rcd13ifvqe1g","pricing_plan_id":"cebpf4jnsgd1na2vs0mg"},{"bike_id":"1c02ae40-e43c-4632-b75b-2df9308dc3fe","system_id":"levelo_inurba_marseille","lat":43.33758,"lon":5.37445,"is_reserved":false,"is_disabled":false,"rental_uris":{"android":"levelo://app?vid=1c02ae40-e43c-4632-b75b-2df9308dc3fe","ios":"levelo://app?vid=1c02ae40-e43c-4632-b75b-2df9308dc3fe"},"vehicle_type_id":"4","last_reported":1735945764,"current_range_meters":32800,"station_id":"","pricing_plan_id":"cebpf4jnsgd1na2vs0mg"},{"bike_id":"e0a17fdd-f816-499e-8295-a9ce94a610e8","system_id":"levelo_inurba_marseille","lat":43.29702,"lon":5.36588,"is_reserved":false,"is_disabled":false,"rental_uris":{"android":"levelo://app?vid=e0a17fdd-f816-499e-8295-a9ce94a610e8","ios":"levelo://app?vid=e0a17fdd-f816-499e-8295-a9ce94a610e8"},"vehicle_type_id":"4","last_reported":1735945764,"current_range_meters":31200,"station_id":"ce4bgn12rcd13ifvqbt0","pricing_plan_id":"cebpf4jnsgd1na2vs0mg"},{"bike_id":"380d9a3e-df22-4d70-b6c7-a9e2a1230a08","system_id":"levelo_inurba_marseille","lat":43.28148,"lon":5.4266,"is_reserved":false,"is_disabled":false,"rental_uris":{"android":"levelo://app?vid=380d9a3e-df22-4d70-b6c7-a9e2a1230a08","ios":"levelo://app?vid=380d9a3e-df22-4d70-b6c7-a9e2a1230a08"},"vehicle_type_id":"4","last_reported":1735945764,"current_range_meters":30000,"station_id":"ce4bhnh2rcd13ifvqgug","pricing_plan_id":"cebpf4jnsgd1na2vs0mg"},{"bike_id":"e6f0f3be-d7b1-4265-96ae-8f4aa53891e2","system_id":"levelo_inurba_marseille","lat":43.29306,"lon":5.37145,"is_reserved":false,"is_disabled":false,"rental_uris":{"android":"levelo://app?vid=e6f0f3be-d7b1-4265-96ae-8f4aa53891e2","ios":"levelo://app?vid=e6f0f3be-d7b1-4265-96ae-8f4aa53891e2"},"vehicle_type_id":"4","last_reported":1735945764,"current_range_meters":39200,"station_id":"ce4bgh92rcd13ifvqb40","pricing_plan_id":"cebpf4jnsgd1na2vs0mg"},{"bike_id":"b96d2856-7472-475d-a492-2a1ac8597f9d","system_id":"levelo_inurba_marseille","lat":43.28377,"lon":5.38625,"is_reserved":false,"is_disabled":false,"rental_uris":{"android":"levelo://app?vid=b96d2856-7472-475d-a492-2a1ac8597f9d","ios":"levelo://app?vid=b96d2856-7472-475d-a492-2a1ac8597f9d"},"vehicle_type_id":"4","last_reported":1735945764,"current_range_meters":38800,"station_id":"ce4bh492rcd13ifvqdvg","pricing_plan_id":"cebpf4jnsgd1na2vs0mg"},{"bike_id":"8d84443c-2f32-4d35-ba29-cc396841e9df","system_id":"levelo_inurba_marseille","lat":43.28469,"lon":5.384,"is_reserved":false,"is_disabled":false,"rental_uris":{"android":"levelo://app?vid=8d84443c-2f32-4d35-ba29-cc396841e9df","ios":"levelo://app?vid=8d84443c-2f32-4d35-ba29-cc396841e9df"},"vehicle_type_id":"4","last_reported":1735945764,"current_range_meters":32000,"station_id":"ce4bh512rcd13ifvqe3g","pricing_plan_id":"cebpf4jnsgd1na2vs0mg"},{"bike_id":"262b0d7a-b83b-40f1-bc54-810a9a289441","system_id":"levelo_inurba_marseille","lat":43.29198,"lon":5.35801,"is_reserved":false,"is_disabled":false,"rental_uris":{"android":"levelo://app?vid=262b0d7a-b83b-40f1-bc54-810a9a289441","ios":"levelo://app?vid=262b0d7a-b83b-40f1-bc54-810a9a289441"},"vehicle_type_id":"4","last_reported":1735945764,"current_range_meters":38800,"station_id":"ce4bhb12rcd13ifvqel0","pricing_plan_id":"cebpf4jnsgd1na2vs0mg"},{"bike_id":"85cba0a3-d6ec-4723-83bf-95316674cece","system_id":"levelo_inurba_marseille","lat":43.27566,"lon":5.38434,"is_reserved":false,"is_disabled":true,"rental_uris":{"android":"levelo://app?vid=85cba0a3-d6ec-4723-83bf-95316674cece","ios":"levelo://app?vid=85cba0a3-d6ec-4723-83bf-95316674cece"},"vehicle_type_id":"4","last_reported":1735945764,"current_range_meters":8400,"station_id":"ce4bhh92rcd13ifvqfi0","pricing_plan_id":"cebpf4jnsgd1na2vs0mg"},{"bike_id":"d5355d3d-6620-4d8e-801e-d620f116c682","system_id":"levelo_inurba_marseille","lat":43.23058,"lon":5.35492,"is_reserved":false,"is_disabled":false,"rental_uris":{"android":"levelo://app?vid=d5355d3d-6620-4d8e-801e-d620f116c682","ios":"levelo://app?vid=d5355d3d-6620-4d8e-801e-d620f116c682"},"vehicle_type_id":"4","last_reported":1735945764,"current_range_meters":22000,"station_id":"cpo3342slgdg3j2ifvpg","pricing_plan_id":"cebpf4jnsgd1na2vs0mg"},{"bike_id":"235534bd-ca53-418b-8c6c-404f024bf9f1","system_id":"levelo_inurba_marseille","lat":43.28038,"lon":5.36966,"is_reserved":false,"is_disabled":false,"rental_uris":{"android":"levelo://app?vid=235534bd-ca53-418b-8c6c-404f024bf9f1","ios":"levelo://app?vid=235534bd-ca53-418b-8c6c-404f024bf9f1"},"vehicle_type_id":"4","last_reported":1735945764,"current_range_meters":24400,"station_id":"ce4bha12rcd13ifvqef0","pricing_plan_id":"cebpf4jnsgd1na2vs0mg"},{"bike_id":"3498144d-bb2d-4193-ae5b-ba6d2f0a3b93","system_id":"levelo_inurba_marseille","lat":43.32493,"lon":5.36706,"is_reserved":false,"is_disabled":false,"rental_uris":{"android":"levelo://app?vid=3498144d-bb2d-4193-ae5b-ba6d2f0a3b93","ios":"levelo://app?vid=3498144d-bb2d-4193-ae5b-ba6d2f0a3b93"},"vehicle_type_id":"4","last_reported":1735945764,"current_range_meters":38800,"station_id":"","pricing_plan_id":"cebpf4jnsgd1na2vs0mg"},{"bike_id":"fed231b8-8d55-420b-88e1-a67f860fe4c7","system_id":"levelo_inurba_marseille","lat":43.31176,"lon":5.38724,"is_reserved":false,"is_disabled":false,"rental_uris":{"android":"levelo://app?vid=fed231b8-8d55-420b-88e1-a67f860fe4c7","ios":"levelo://app?vid=fed231b8-8d55-420b-88e1-a67f860fe4c7"},"vehicle_type_id":"4","last_reported":1735945764,"current_range_meters":18800,"station_id":"ce4bgv12rcd13ifvqcp0","pricing_plan_id":"cebpf4jnsgd1na2vs0mg"},{"bike_id":"9106d3ff-fc86-4d68-9c8d-6412f9d842de","system_id":"levelo_inurba_marseille","lat":43.25497,"lon":5.376376,"is_reserved":false,"is_disabled":false,"rental_uris":{"android":"levelo://app?vid=9106d3ff-fc86-4d68-9c8d-6412f9d842de","ios":"levelo://app?vid=9106d3ff-fc86-4d68-9c8d-6412f9d842de"},"vehicle_type_id":"4","last_reported":1735945764,"current_range_meters":39200,"station_id":"ce4bhh12rcd13ifvqff0","pricing_plan_id":"cebpf4jnsgd1na2vs0mg"},{"bike_id":"20a40771-05e4-4491-8593-80a44dd596df","system_id":"levelo_inurba_marseille","lat":43.28723,"lon":5.36073,"is_reserved":false,"is_disabled":false,"rental_uris":{"android":"levelo://app?vid=20a40771-05e4-4491-8593-80a44dd596df","ios":"levelo://app?vid=20a40771-05e4-4491-8593-80a44dd596df"},"vehicle_type_id":"4","last_reported":1735945764,"current_range_meters":22400,"station_id":"cki0cbj6b192h4jlfktg","pricing_plan_id":"cebpf4jnsgd1na2vs0mg"},{"bike_id":"05372724-ca51-4c9f-bdfb-9707238a88b4","system_id":"levelo_inurba_marseille","lat":43.29278,"lon":5.40107,"is_reserved":false,"is_disabled":false,"rental_uris":{"android":"levelo://app?vid=05372724-ca51-4c9f-bdfb-9707238a88b4","ios":"levelo://app?vid=05372724-ca51-4c9f-bdfb-9707238a88b4"},"vehicle_type_id":"4","last_reported":1735945764,"current_range_meters":38000,"station_id":"ce4bh312rcd13ifvqdk0","pricing_plan_id":"cebpf4jnsgd1na2vs0mg"},{"bike_id":"70c2848a-e325-4867-a87b-ec2e5af222ca","system_id":"levelo_inurba_marseille","lat":43.31081,"lon":5.42422,"is_reserved":false,"is_disabled":false,"rental_uris":{"android":"levelo://app?vid=70c2848a-e325-4867-a87b-ec2e5af222ca","ios":"levelo://app?vid=70c2848a-e325-4867-a87b-ec2e5af222ca"},"vehicle_type_id":"4","last_reported":1735945764,"current_range_meters":38000,"station_id":"ce4bhp92rcd13ifvqhag","pricing_plan_id":"cebpf4jnsgd1na2vs0mg"},{"bike_id":"a3e2ab21-81f2-4b57-8449-f6b06a85eff9","system_id":"levelo_inurba_marseille","lat":43.24798,"lon":5.37495,"is_reserved":false,"is_disabled":false,"rental_uris":{"android":"levelo://app?vid=a3e2ab21-81f2-4b57-8449-f6b06a85eff9","ios":"levelo://app?vid=a3e2ab21-81f2-4b57-8449-f6b06a85eff9"},"vehicle_type_id":"4","last_reported":1735945764,"current_range_meters":20000,"station_id":"ce4bhgh2rcd13ifvqfb0","pricing_plan_id":"cebpf4jnsgd1na2vs0mg"},{"bike_id":"48dab017-3f42-472f-871a-513ce2bb3aac","system_id":"levelo_inurba_marseille","lat":43.23142,"lon":5.4373,"is_reserved":false,"is_disabled":false,"rental_uris":{"android":"levelo://app?vid=48dab017-3f42-472f-871a-513ce2bb3aac","ios":"levelo://app?vid=48dab017-3f42-472f-871a-513ce2bb3aac"},"vehicle_type_id":"4","last_reported":1735945764,"current_range_meters":38800,"station_id":"ce4bhmp2rcd13ifvqgog","pricing_plan_id":"cebpf4jnsgd1na2vs0mg"},{"bike_id":"c2d3fd37-520e-47f5-9553-43dacdd55650","system_id":"levelo_inurba_marseille","lat":43.30543,"lon":5.38379,"is_reserved":false,"is_disabled":false,"rental_uris":{"android":"levelo://app?vid=c2d3fd37-520e-47f5-9553-43dacdd55650","ios":"levelo://app?vid=c2d3fd37-520e-47f5-9553-43dacdd55650"},"vehicle_type_id":"4","last_reported":1735945764,"current_range_meters":30400,"station_id":"ce4bgg92rcd13ifvqb30","pricing_plan_id":"cebpf4jnsgd1na2vs0mg"},