{"last_updated":1762366559,"ttl":60,"version":"2.2","data":{"bikes":[{"bike_id":"b7c5e96f-2666-418c-b8cc-36dfc613348c","system_id":"levelo_inurba_marseille","lat":43.337444,"lon":5.374475,"is_reserved":false,"is_disabled":false,"rental_uris":{"android":"levelo://app?vid=b7c5e96f-2666-418c-b8cc-36dfc613348c","ios":"levelo://app?vid=b7c5e96f-2666-418c-b8cc-36dfc613348c"},"vehicle_type_id":"4","last_reported":1762366559,"current_range_meters":0,"station_id":"","pricing_plan_id":"cebpf4jnsgd1na2vs0mg"},{"bike_id":"9c46a9f5-39cb-461a-ac28-286dc216524b","system_id":"levelo_inurba_marseille","lat":43.337444,"lon":5.374475,"is_reserved":false,"is_disabled":false,"rental_uris":{"android":"levelo://app?vid=9c46a9f5-39cb-461a-ac28-286dc216524b","ios":"levelo://app?vid=9c46a9f5-39cb-461a-ac28-286dc216524b"},"vehicle_type_id":"4","last_reported":1762366559,"current_range_meters":0,"station_id":"","pricing_plan_id":"cebpf4jnsgd1na2vs0mg"},{"bike_id":"2aa95e42-5a8c-4825-81d0-40d356e0168e","system_id":"levelo_inurba_marseille","lat":43.337444,"lon":5.374475,"is_reserved":false,"is_disabled":false,"rental_uris":{"android":"levelo://app?vid=2aa95e42-5a8c-4825-81d0-40d356e0168e","ios":"levelo://app?vid=2aa95e42-5a8c-4825-81d0-40d356e0168e"},"vehicle_type_id":"4","last_reported":1762366559,"current_range_meters":0,"station_id":"","pricing_plan_id":"cebpf4jnsgd1na2vs0mg"},{"bike_id":"23f7c00c-abd3-4b9e-b454-b625ef68ddce","system_id":"levelo_inurba_marseille","lat":43.337444,"lon":5.374475,"is_reserved":false,"is_disabled":false,"rental_uris":{"android":"levelo://app?vid=23f7c00c-abd3-4b9e-b454-b625ef68ddce","ios":"levelo://app?vid=23f7c00c-abd3-4b9e-b454-b625ef68ddce"},"vehicle_type_id":"4","last_reported":1762366559,"current_range_meters":0,"station_id":"","pricing_plan_id":"cebpf4jnsgd1na2vs0mg"},{"bike_id":"a3451d83-9c80-4ffa-96f9-a14c25634465","system_id":"levelo_inurba_marseille","lat":43.337444,"lon":5.374475,"is_reserved":false,"is_disabled":false,"rental_uris":{"android":"levelo://app?vid=a3451d83-9c80-4ffa-96f9-a14c25634465","ios":"levelo://app?vid=a3451d83-9c80-4ffa-96f9-a14c25634465"},"vehicle_type_id":"4","last_reported":1762366559,"current_range_meters":0,"station_id":"","pricing_plan_id":"cebpf4jnsgd1na2vs0mg"},{"bike_id":"19649598-fd0f-4237-a302-8b748132eb30","system_id":"levelo_inurba_marseille","lat":43.337444,"lon":5.374475,"is_reserved":false,"is_disabled":false,"rental_uris":{"android":"levelo://app?vid=19649598-fd0f-4237-a302-8b748132eb30","ios":"levelo://app?vid=19649598-fd0f-4237-a302-8b748132eb30"},"vehicle_type_id":"4","last_reported":1762366559,"current_range_meters":0,"station_id":"","pricing_plan_id":"cebpf4jnsgd1na2vs0mg"},{"bike_id":"79f0199f-1fbb-40b2-9337-191d82b520a7","system_id":"levelo_inurba_marseille","lat":43.337444,"lon":5.374475,"is_reserved":false,"is_disabled":false,"rental_uris":{"android":"levelo://app?vid=79f0199f-1fbb-40b2-9337-191d82b520a7","ios":"levelo://app?vid=79f0199f-1fbb-40b2-9337-191d82b520a7"},"vehicle_type_id":"4","last_reported":1762366559,"current_range_meters":0,"station_id":"","pricing_plan_id":"cebpf4jnsgd1na2vs0mg"},{"bike_id":"34a0d96e-bbf5-4ab6-8de8-a56cc767fd57","system_id":"levelo_inurba_marseille","lat":43.337444,"lon":5.374475,"is_reserved":false,"is_disabled":false,"rental_uris":{"android":"levelo://app?vid=34a0d96e-bbf5-4ab6-8de8-a56cc767fd57","ios":"levelo://app?vid=34a0d96e-bbf5-4ab6-8de8-a56cc767fd57"},"vehicle_type_id":"4","last_reported":1762366559,"current_range_meters":0,"station_id":"","pricing_plan_id":"cebpf4jnsgd1na2vs0mg"},{"bike_id":"30c4756b-2e3a-4ac9-b1fb-aa08283eecaa","system_id":"levelo_inurba_marseille","lat":43.337444,"lon":5.374475,"is_reserved":false,"is_disabled":false,"rental_uris":{"android":"levelo://app?vid=30c4756b-2e3a-4ac9-b1fb-aa08283eecaa","ios":"levelo://app?vid=30c4756b-2e3a-4ac9-b1fb-aa08283eecaa"},"vehicle_type_id":"4","last_reported":1762366559,"current_range_meters":0,"station_id":"","pricing_plan_id":"cebpf4jnsgd1na2vs0mg"},{"bike_id":"cb5b6ee7-3ef8-4299-a38d-cc32f035098b","system_id":"levelo_inurba_marseille","lat":43.337444,"lon":5.374475,"is_reserved":false,"is_disabled":false,"rental_uris":{"android":"levelo://app?vid=cb5b6ee7-3ef8-4299-a38d-cc32f035098b","ios":"levelo://app?vid=cb5b6ee7-3ef8-4299-a38d-cc32f035098b"},"vehicle_type_id":"4","last_reported":1762366559,"current_range_meters":0,"station_id":"","pricing_plan_id":"cebpf4jnsgd1na2vs0mg"},{"bike_id":"0dbf8834-1963-4427-879a-60d5139a1252","system_id":"levelo_inurba_marseille","lat":43.337444,"lon":5.374475,"is_reserved":false,"is_disabled":false,"rental_uris":{"android":"levelo://app?vid=0dbf8834-1963-4427-879a-60d5139a1252","ios":"levelo://app?vid=0dbf8834-1963-4427-879a-60d5139a1252"},"vehicle_type_id":"4","last_reported":1762366559,"current_range_meters":0,"station_id":"","pricing_plan_id":"cebpf4jnsgd1na2vs0mg"},{"bike_id":"c3d3ce5c-8075-4b42-9455-beadd1468f17","system_id":"levelo_inurba_marseille","lat":43.337444,"lon":5.374475,"is_reserved":false,"is_disabled":false,"rental_uris":{"android":"levelo://app?vid=c3d3ce5c-8075-4b42-9455-beadd1468f17","ios":"levelo://app?vid=c3d3ce5c-8075-4b42-9455-beadd1468f17"},"vehicle_type_id":"4","last_reported":1762366559,"current_range_meters":0,"station_id":"","pricing_plan_id":"cebpf4jnsgd1na2vs0mg"},{"bike_id":"2177a091-7ad7-4fcd-ad08-e78406d1a8ef","system_id":"levelo_inurba_marseille","lat":43.337444,"lon":5.374475,"is_reserved":false,"is_disabled":false,"rental_uris":{"android":"levelo://app?vid=2177a091-7ad7-4fcd-ad08-e78406d1a8ef","ios":"levelo://app?vid=2177a091-7ad7-4fcd-ad08-e78406d1a8ef"},"vehicle_type_id":"4","last_reported":1762366559,"current_range_meters":0,"station_id":"","pricing_plan_id":"cebpf4jnsgd1na2vs0mg"},{"bike_id":"ed2dc6ad-7a96-47d2-b4d0-3deee38fd62c","system_id":"levelo_inurba_marseille","lat":43.337444,"lon":5.374475,"is_reserved":false,"is_disabled":false,"rental_uris":{"android":"levelo://app?vid=ed2dc6ad-7a96-47d2-b4d0-3deee38fd62c","ios":"levelo://app?vid=ed2dc6ad-7a96-47d2-b4d0-3deee38fd62c"},"vehicle_type_id":"4","last_reported":1762366559,"current_range_meters":0,"station_id":"","pricing_plan_id":"cebpf4jnsgd1na2vs0mg"},{"bike_id":"42735ee1-244b-4d96-8480-f9806199924f","system_id":"levelo_inurba_marseille","lat":43.337444,"lon":5.374475,"is_reserved":false,"is_disabled":false,"rental_uris":{"android":"levelo://app?vid=42735ee1-244b-4d96-8480-f9806199924f","ios":"levelo://app?vid=42735ee1-244b-4d96-8480-f9806199924f"},"vehicle_type_id":"4","last_reported":1762366559,"current_range_meters":0,"station_id":"","pricing_plan_id":"cebpf4jnsgd1na2vs0mg"},{"bike_id":"0d7ab61a-02ec-456f-ab23-ba92f34594d5","system_id":"levelo_inurba_marseille","lat":43.337444,"lon":5.374475,"is_reserved":false,"is_disabled":false,"rental_uris":{"android":"levelo://app?vid=0d7ab61a-02ec-456f-ab23-ba92f34594d5","ios":"levelo://app?vid=0d7ab61a-02ec-456f-ab23-ba92f34594d5"},"vehicle_type_id":"4","last_reported":1762366559,"current_range_meters":0,"station_id":"","pricing_plan_id":"cebpf4jnsgd1na2vs0mg"},{"bike_id":"f68022fa-eb0a-4aac-8aea-6f2e14d0afb9","system_id":"levelo_inurba_marseille","lat":43.337444,"lon":5.374475,"is_reserved":false,"is_disabled":false,"rental_uris":{"android":"levelo://app?vid=f68022fa-eb0a-4aac-8aea-6f2e14d0afb9","ios":"levelo://app?vid=f68022fa-eb0a-4aac-8aea-6f2e14d0afb9"},"vehicle_type_id":"4","last_reported":1762366559,"current_range_meters":0,"station_id":"","pricing_plan_id":"cebpf4jnsgd1na2vs0mg"},{"bike_id":"386a9781-f1f4-4d33-8679-4d1163c3b9de","system_id":"levelo_inurba_marseille","lat":43.337444,"lon":5.374475,"is_reserved":false,"is_disabled":false,"rental_uris":{"android":"levelo://app?vid=386a9781-f1f4-4d33-8679-4d1163c3b9de","ios":"levelo://app?vid=386a9781-f1f4-4d33-8679-4d1163c3b9de"},"vehicle_type_id":"4","last_reported":1762366559,"current_range_meters":0,"station_id":"","pricing_plan_id":"cebpf4jnsgd1na2vs0mg"},{"bike_id":"4692d694-8a80-47c7-a7c6-1264ca94c6df","system_id":"levelo_inurba_marseille","lat":43.337444,"lon":5.374475,"is_reserved":false,"is_disabled":false,"rental_uris":{"android":"levelo://app?vid=4692d694-8a80-47c7-a7c6-1264ca94c6df","ios":"levelo://app?vid=4692d694-8a80-47c7-a7c6-1264ca94c6df"},"vehicle_type_id":"4","last_reported":1762366559,"current_range_meters":0,"station_id":"","pricing_plan_id":"cebpf4jnsgd1na2vs0mg"},{"bike_id":"4706d18d-408c-4dc1-a44f-b0f99f27bdf0","system_id":"levelo_inurba_marseille","lat":43.337444,"lon":5.374475,"is_reserved":false,"is_disabled":false,"rental_uris":{"android":"levelo://app?vid=4706d18d-408c-4dc1-a44f-b0f99f27bdf0","ios":"levelo://app?vid=4706d18d-408c-4dc1-a44f-b0f99f27bdf0"},"vehicle_type_id":"4","last_reported":1762366559,"current_range_meters":0,"station_id":"","pricing_plan_id":"cebpf4jnsgd1na2vs0mg"},{"bike_id":"abb77335-fe7b-4b75-9b2f-be4bb45cbb0d","system_id":"levelo_inurba_marseille","lat":43.337444,"lon":5.374475,"is_reserved":false,"is_disabled":false,"rental_uris":{"android":"levelo://app?vid=abb77335-fe7b-4b75-9b2f-be4bb45cbb0d","ios":"levelo://app?vid=abb77335-fe7b-4b75-9b2f-be4bb45cbb0d"},"vehicle_type_id":"4","last_reported":1762366559,"current_range_meters":0,"station_id":"","pricing_plan_id":"cebpf4jnsgd1na2vs0mg"},{"bike_id":"4bde9393-6919-41f3-8fef-f4b40f375cc0","system_id":"levelo_inurba_marseille","lat":43.337444,"lon":5.374475,"is_reserved":false,"is_disabled":false,"rental_uris":{"android":"levelo://app?vid=4bde9393-6919-41f3-8fef-f4b40f375cc0","ios":"levelo://app?vid=4bde9393-6919-41f3-8fef-f4b40f375cc0"},"vehicle_type_id":"4","last_reported":1762366559,"current_range_meters":0,"station_id":"","pricing_plan_id":"cebpf4jnsgd1na2vs0mg"},{"bike_id":"51f4e824-5009-4c5b-9283-cfda2d34404c","system_id":"levelo_inurba_marseille","lat":43.337444,"lon":5.374475,"is_reserved":false,"is_disabled":false,"rental_uris":{"android":"levelo://app?vid=51f4e824-5009-4c5b-9283-cfda2d34404c","ios":"levelo://app?vid=51f4e824-5009-4c5b-9283-cfda2d34404c"},"vehicle_type_id":"4","last_reported":1762366559,"current_range_meters":0,"station_id":"","pricing_plan_id":"cebpf4jnsgd1na2vs0mg"},{"bike_id":"d155d58c-f50a-4469-b126-b5af1b8d3f8a","system_id":"levelo_inurba_marseille","lat":43.337444,"lon":5.374475,"is_reserved":false,"is_disabled":false,"rental_uris":{"android":"levelo://app?vid=d155d58c-f50a-4469-b126-b5af1b8d3f8a","ios":"levelo://app?vid=d155d58c-f50a-4469-b126-b5af1b8d3f8a"},"vehicle_type_id":"4","last_reported":1762366559,"current_range_meters":0,"station_id":"","pricing_plan_id":"cebpf4jnsgd1na2vs0mg"},{"bike_id":"16f471c2-a8ed-4e61-ba2a-d83085a9c284","system_id":"levelo_inurba_marseille","lat":43.337444,"lon":5.374475,"is_reserved":false,"is_disabled":false,"rental_uris":{"android":"levelo://app?vid=16f471c2-a8ed-4e61-ba2a-d83085a9c284","ios":"levelo://app?vid=16f471c2-a8ed-4e61-ba2a-d83085a9c284"},"vehicle_type_id":"4","last_reported":1762366559,"current_range_meters":0,"station_id":"","pricing_plan_id":"cebpf4jnsgd1na2vs0mg"},{"bike_id":"b8bd4cc4-f519-43de-b194-2cc2cf75483c","system_id":"levelo_inurba_marseille","lat":43.337444,"lon":5.374475,"is_reserved":false,"is_disabled":false,"rental_uris":{"android":"levelo://app?vid=b8bd4cc4-f519-43de-b194-2cc2cf75483c","ios":"levelo://app?vid=b8bd4cc4-f519-43de-b194-2cc2cf75483c"},"vehicle_type_id":"4","last_reported":1762366559,"current_range_meters":0,"station_id":"","pricing_plan_id":"cebpf4jnsgd1na2vs0mg"},{"bike_id":"591b062c-0423-40a0-9120-f7c30f97e98f","system_id":"levelo_inurba_marseille","lat":43.337444,"lon":5.374475,"is_reserved":false,"is_disabled":false,"rental_uris":{"android":"levelo://app?vid=591b062c-0423-40a0-9120-f7c30f97e98f","ios":"levelo://app?vid=591b062c-0423-40a0-9120-f7c30f97e98f"},"vehicle_type_id":"4","last_reported":1762366559,"current_range_meters":0,"station_id":"","pricing_plan_id":"cebpf4jnsgd1na2vs0mg"},{"bike_id":"8fbb8d57-565e-4232-a867-846a316b3375","system_id":"levelo_inurba_marseille","lat":43.337444,"lon":5.374475,"is_reserved":false,"is_disabled":false,"rental_uris":{"android":"levelo://app?vid=8fbb8d57-565e-4232-a867-846a316b3375","ios":"levelo://app?vid=8fbb8d57-565e-4232-a867-846a316b3375"},"vehicle_type_id":"4","last_reported":1762366559,"current_range_meters":0,"station_id":"","pricing_plan_id":"cebpf4jnsgd1na2vs0mg"},{"bike_id":"e6134458-396f-46c5-87ab-a79cf2b6424c","system_id":"levelo_inurba_marseille","lat":43.337444,"lon":5.374475,"is_reserved":false,"is_disabled":false,"rental_uris":{"android":"levelo://app?vid=e6134458-396f-46c5-87ab-a79cf2b6424c","ios":"levelo://app?vid=e6134458-396f-46c5-87ab-a79cf2b6424c"},"vehicle_type_id":"4","last_reported":1762366559,"current_range_meters":0,"station_id":"","pricing_plan_id":"cebpf4jnsgd1na2vs0mg"},{"bike_id":"0a0d4295-fe5b-4614-b2ca-f5579d5190b0","system_id":"levelo_inurba_marseille","lat":43.337444,"lon":5.374475,"is_reserved":false,"is_disabled":false,"rental_uris":{"android":"levelo://app?vid=0a0d4295-fe5b-4614-b2ca-f5579d5190b0","ios":"levelo://app?vid=0a0d4295-fe5b-4614-b2ca-f5579d5190b0"},"vehicle_type_id":"4","last_reported":1762366559,"current_range_meters":0,"station_id":"","pricing_plan_id":"cebpf4jnsgd1na2vs0mg"},{"bike_id":"6f218935-5692-47c0-8a19-ff3fbfca43cc","system_id":"levelo_inurba_marseille","lat":43.28847,"lon":5.39314,"is_reserved":false,"is_disabled":false,"rental_uris":{"android":"levelo://app?vid=6f218935-5692-47c0-8a19-ff3fbfca43cc","ios":"levelo://app?vid=6f218935-5692-47c0-8a19-ff3fbfca43cc"},"vehicle_type_id":"4","last_reported":1762366559,"current_range_meters":2800,"station_id":"ce4bh2p2rcd13ifvqdi0","pricing_plan_id":"cebpf4jnsgd1na2vs0mg"},{"bike_id":"4206fd1c-fca5-4468-81b6-1c50d2a4a589","system_id":"levelo_inurba_marseille","lat":43.29783,"lon":5.43811,"is_reserved":false,"is_disabled":false,"rental_uris":{"android":"levelo://app?vid=4206fd1c-fca5-4468-81b6-1c50d2a4a589","ios":"levelo://app?vid=4206fd1c-fca5-4468-81b6-1c50d2a4a589"},"vehicle_type_id":"4","last_reported":1762366559,"current_range_meters":2800,"station_id":"","pricing_plan_id":"cebpf4jnsgd1na2vs0mg"},{"bike_id":"b5875f61-4fe0-4660-bf27-176a255d2c58","system_id":"levelo_inurba_marseille","lat":43.308852,"lon":5.396565,"is_reserved":false,"is_disabled":false,"rental_uris":{"android":"levelo://app?vid=b5875f61-4fe0-4660-bf27-176a255d2c58","ios":"levelo://app?vid=b5875f61-4fe0-4660-bf27-176a255d2c58"},"vehicle_type_id":"4","last_reported":1762366559,"current_range_meters":2800,"station_id":"ce4bh012rcd13ifvqcv0","pricing_plan_id":"cebpf4jnsgd1na2vs0mg"},{"bike_id":"b7274164-d104-4569-8e8d-d56b2a397565","system_id":"levelo_inurba_marseille","lat":43.284761,"lon":5.483943,"is_reserved":false,"is_disabled":false,"rental_uris":{"android":"levelo://app?vid=b7274164-d104-4569-8e8d-d56b2a397565","ios":"levelo://app?vid=b7274164-d104-4569-8e8d-d56b2a397565"},"vehicle_type_id":"4","last_reported":1762366559,"current_range_meters":2800,"station_id":"st_d3svhcjqgbts73a3dn0g","pricing_plan_id":"cebpf4jnsgd1na2vs0mg"},{"bike_id":"4f6ec53c-5535-42bb-9e9f-e29212c37e07","system_id":"levelo_inurba_marseille","lat":43.28151,"lon":5.42638,"is_reserved":false,"is_disabled":false,"rental_uris":{"android":"levelo://app?vid=4f6ec53c-5535-42bb-9e9f-e29212c37e07","ios":"levelo://app?vid=4f6ec53c-5535-42bb-9e9f-e29212c37e07"},"vehicle_type_id":"4","last_reported":1762366559,"current_range_meters":2800,"station_id":"ce4bhnh2rcd13ifvqgug","pricing_plan_id":"cebpf4jnsgd1na2vs0mg"},{"bike_id":"733cb90f-9278-4b29-a617-1188995dfdb1","system_id":"levelo_inurba_marseille","lat":43.29259,"lon":5.40911,"is_reserved":false,"is_disabled":false,"rental_uris":{"android":"levelo://app?vid=733cb90f-9278-4b29-a617-1188995dfdb1","ios":"levelo://app?vid=733cb90f-9278-4b29-a617-1188995dfdb1"},"vehicle_type_id":"4","last_reported":1762366559,"current_range_meters":2800,"station_id":"ce4bh192rcd13ifvqdc0","pricing_plan_id":"cebpf4jnsgd1na2vs0mg"},{"bike_id":"df901744-052b-4596-be21-45d27cbc1916","system_id":"levelo_inurba_marseille","lat":43.285106,"lon":5.440351,"is_reserved":false,"is_disabled":false,"rental_uris":{"android":"levelo://app?vid=df901744-052b-4596-be21-45d27cbc1916","ios":"levelo://app?vid=df901744-052b-4596-be21-45d27cbc1916"},"vehicle_type_id":"4","last_reported":1762366559,"current_range_meters":3200,"station_id":"ce4bgkh2rcd13ifvqbk0","pricing_plan_id":"cebpf4jnsgd1na2vs0mg"},{"bike_id":"9b941f90-4df9-4cf5-a4d1-18537cbc4b39","system_id":"levelo_inurba_marseille","lat":43.286652,"lon":5.363474,"is_reserved":false,"is_disabled":false,"rental_uris":{"android":"levelo://app?vid=9b941f90-4df9-4cf5-a4d1-18537cbc4b39","ios":"levelo://app?vid=9b941f90-4df9-4cf5-a4d1-18537cbc4b39"},"vehicle_type_id":"4","last_reported":1762366559,"current_range_meters":3200,"station_id":"ce4bhah2rcd13ifvqej0","pricing_plan_id":"cebpf4jnsgd1na2vs0mg"},{"bike_id":"7ff17b92-60d4-45f2-8ad6-c4cb8e6e4b93","system_id":"levelo_inurba_marseille","lat":43.27331,"lon":5.39107,"is_reserved":false,"is_disabled":false,"rental_uris":{"android":"levelo://app?vid=7ff17b92-60d4-45f2-8ad6-c4cb8e6e4b93","ios":"levelo://app?vid=7ff17b92-60d4-45f2-8ad6-c4cb8e6e4b93"},"vehicle_type_id":"4","last_reported":1762366559,"current_range_meters":3200,"station_id":"ce4bhgp2rcd13ifvqfe0","pricing_plan_id":"cebpf4jnsgd1na2vs0mg"},{"bike_id":"e4586e19-f842-4908-8ba3-32a97d9fb4d7","system_id":"levelo_inurba_marseille","lat":43.30424,"lon":5.41277,"is_reserved":false,"is_disabled":false,"rental_uris":{"android":"levelo://app?vid=e4586e19-f842-4908-8ba3-32a97d9fb4d7","ios":"levelo://app?vid=e4586e19-f842-4908-8ba3-32a97d9fb4d7"},"vehicle_type_id":"4","last_reported":1762366559,"current_range_meters":3200,"station_id":"ce4bhop2rcd13ifvqh8g","pricing_plan_id":"cebpf4jnsgd1na2vs0mg"},{"bike_id":"306843c2-2bf6-467f-aa15-9d5ea415e2fd","system_id":"levelo_inurba_marseille","lat":43.28698,"lon":5.40013,"is_reserved":false,"is_disabled":false,"rental_uris":{"android":"levelo://app?vid=306843c2-2bf6-467f-aa15-9d5ea415e2fd","ios":"levelo://app?vid=306843c2-2bf6-467f-aa15-9d5ea415e2fd"},"vehicle_type_id":"4","last_reported":1762366559,"current_range_meters":3200,"station_id":"ce4bho92rcd13ifvqh3g","pricing_plan_id":"cebpf4jnsgd1na2vs0mg"},{"bike_id":"58a599b6-ef35-4491-a0bb-68af9451564f","system_id":"levelo_inurba_marseille","lat":43.31267,"lon":5.4016,"is_reserved":false,"is_disabled":false,"rental_uris":{"android":"levelo://app?vid=58a599b6-ef35-4491-a0bb-68af9451564f","ios":"levelo://app?vid=58a599b6-ef35-4491-a0bb-68af9451564f"},"vehicle_type_id":"4","last_reported":1762366559,"current_range_meters":3200,"station_id":"ce4bh092rcd13ifvqd30","pricing_plan_id":"cebpf4jnsgd1na2vs0mg"},{"bike_id":"7a66af3a-751a-46f2-93ee-458bc7654cff","system_id":"levelo_inurba_marseille","lat":43.28842,"lon":5.39311,"is_reserved":false,"is_disabled":false,"rental_uris":{"android":"levelo://app?vid=7a66af3a-751a-46f2-93ee-458bc7654cff","ios":"levelo://app?vid=7a66af3a-751a-46f2-93ee-458bc7654cff"},"vehicle_type_id":"4","last_reported":1762366559,"current_range_meters":3200,"station_id":"ce4bh2p2rcd13ifvqdi0","pricing_plan_id":"cebpf4jnsgd1na2vs0mg"},{"bike_id":"e5c8bcdc-322d-41b7-b004-a9cbda25ea37","system_id":"levelo_inurba_marseille","lat":43.26233,"lon":5.40451,"is_reserved":false,"is_disabled":false,"rental_uris":{"android":"levelo://app?vid=e5c8bcdc-322d-41b7-b004-a9cbda25ea37","ios":"levelo://app?vid=e5c8bcdc-322d-41b7-b004-a9cbda25ea37"},"vehicle_type_id":"4","last_reported":1762366559,"current_range_meters":3200,"station_id":"ce4bhmh2rcd13ifvqgmg","pricing_plan_id":"cebpf4jnsgd1na2vs0mg"},{"bike_id":"385bcbde-93bf-47dd-9dcb-88b3c4e6096d","system_id":"levelo_inurba_marseille","lat":43.27673,"lon":5.38874,"is_reserved":false,"is_disabled":false,"rental_uris":{"android":"levelo://app?vid=385bcbde-93bf-47dd-9dcb-88b3c4e6096d","ios":"levelo://app?vid=385bcbde-93bf-47dd-9dcb-88b3c4e6096d"},"vehicle_type_id":"4","last_reported":1762366559,"current_range_meters":3600,"station_id":"ce4bhi12rcd13ifvqfo0","pricing_plan_id":"cebpf4jnsgd1na2vs0mg"},{"bike_id":"65a8827f-0440-47b5-88f9-0c25b29edb92","system_id":"levelo_inurba_marseille","lat":43.28836,"lon":5.3932,"is_reserved":false,"is_disabled":false,"rental_uris":{"android":"levelo://app?vid=65a8827f-0440-47b5-88f9-0c25b29edb92","ios":"levelo://app?vid=65a8827f-0440-47b5-88f9-0c25b29edb92"},"vehicle_type_id":"4","last_reported":1762366559,"current_range_meters":3600,"station_id":"ce4bh2p2rcd13ifvqdi0","pricing_plan_id":"cebpf4jnsgd1na2vs0mg"},{"bike_id":"6405b99a-b355-4ca1-805d-0620efedb817","system_id":"levelo_inurba_marseille","lat":43.23958,"lon":5.36628,"is_reserved":false,"is_disabled":false,"rental_uris":{"android":"levelo://app?vid=6405b99a-b355-4ca1-805d-0620efedb817","ios":"levelo://app?vid=6405b99a-b355-4ca1-805d-0620efedb817"},"vehicle_type_id":"4","last_reported":1762366559,"current_range_meters":3600,"station_id":"ce4bhi12rcd13ifvqfp0","pricing_plan_id":"cebpf4jnsgd1na2vs0mg"},{"bike_id":"e1d510dc-978c-4640-afb1-06538cda7701","system_id":"levelo_inurba_marseille","lat":43.29813,"lon":5.44067,"is_reserved":false,"is_disabled":false,"rental_uris":{"android":"levelo://app?vid=e1d510dc-978c-4640-afb1-06538cda7701","ios":"levelo://app?vid=e1d510dc-978c-4640-afb1-06538cda7701"},"vehicle_type_id":"4","last_reported":1762366559,"current_range_meters":3600,"station_id":"st_d3jp68qikq2c7381ktn0","pricing_plan_id":"cebpf4jnsgd1na2vs0mg"},{"bike_id":"e996b150-afa5-45df-9b37-f22cc0e570b1","system_id":"levelo_inurba_marseille","lat":43.28373,"lon":5.3862,"is_reserved":false,"is_disabled":false,"rental_uris":{"android":"levelo://app?vid=e996b150-afa5-45df-9b37-f22cc0e570b1","ios":"levelo://app?vid=e996b150-afa5-45df-9b37-f22cc0e570b1"},"vehicle_type_id":"4","last_reported":1762366559,"current_range_meters":3600,"station_id":"ce4bh492rcd13ifvqdvg","pricing_plan_id":"cebpf4jnsgd1na2vs0mg"},{"bike_id":"206e79d9-4434-4027-9efd-736fa5c03073","system_id":"levelo_inurba_marseille","lat":43.25935,"lon":5.40908,"is_reserved":false,"is_disabled":false,"rental_uris":{"android":"levelo://app?vid=206e79d9-4434-4027-9efd-736fa5c03073","ios":"levelo://app?vid=206e79d9-4434-4027-9efd-736fa5c03073"},"vehicle_type_id":"4","last_reported":1762366559,"current_range_meters":3600,"station_id":"ce4bhm92rcd13ifvqglg","pricing_plan_id":"cebpf4jnsgd1na2vs0mg"},{"bike_id":"ec654542-4401-4a32-9275-6babb31e0855","system_id":"levelo_inurba_marseille","lat":43.279942,"lon":5.416709,"is_reserved":false,"is_disabled":true,"rental_uris":{"android":"levelo://app?vid=ec654542-4401-4a32-9275-6babb31e0855","ios":"levelo://app?vid=ec654542-4401-4a32-9275-6babb31e0855"},"vehicle_type_id":"4","last_reported":1762366559,"current_range_meters":4000,"station_id":"ce4bho12rcd13ifvqh1g","pricing_plan_id":"cebpf4jnsgd1na2vs0mg"},{"bike_id":"9bebaa6a-4a8e-4d1b-82c7-da62aba7ffd2","system_id":"levelo_inurba_marseille","lat":43.26947,"lon":5.40244,"is_reserved":false,"is_disabled":false,"rental_uris":{"android":"levelo://app?vid=9bebaa6a-4a8e-4d1b-82c7-da62aba7ffd2","ios":"levelo://app?vid=9bebaa6a-4a8e-4d1b-82c7-da62aba7ffd2"},"vehicle_type_id":"4","last_reported":1762366559,"current_range_meters":4000,"station_id":"cjm6bp8fraef2m0cb0m0","pricing_plan_id":"cebpf4jnsgd1na2vs0mg"},{"bike_id":"60fd2392-832d-4279-bd39-5c03dbe5fbe8","system_id":"levelo_inurba_marseille","lat":43.286107,"lon":5.370654,"is_reserved":false,"is_disabled":false,"rental_uris":{"android":"levelo://app?vid=60fd2392-832d-4279-bd39-5c03dbe5fbe8","ios":"levelo://app?vid=60fd2392-832d-4279-bd39-5c03dbe5fbe8"},"vehicle_type_id":"4","last_reported":1762366559,"current_range_meters":4000,"station_id":"ce4bht12rcd13ifvqi60","pricing_plan_id":"cebpf4jnsgd1na2vs0mg"},{"bike_id":"e59f7271-f758-41c0-a0d8-3dc2ab8efa98","system_id":"levelo_inurba_marseille","lat":43.299572,"lon":5.365534,"is_reserved":false,"is_disabled":false,"rental_uris":{"android":"levelo://app?vid=e59f7271-f758-41c0-a0d8-3dc2ab8efa98","ios":"levelo://app?vid=e59f7271-f758-41c0-a0d8-3dc2ab8efa98"},"vehicle_type_id":"4","last_reported":1762366559,"current_range_meters":4000,"station_id":"","pricing_plan_id":"cebpf4jnsgd1na2vs0mg"},{"bike_id":"7fc76f10-5e3f-49e6-b0cf-062a2d850d47","system_id":"levelo_inurba_marseille","lat":43.27212,"lon":5.39176,"is_reserved":false,"is_disabled":false,"rental_uris":{"android":"levelo://app?vid=7fc76f10-5e3f-49e6-b0cf-062a2d850d47","ios":"levelo://app?vid=7fc76f10-5e3f-49e6-b0cf-062a2d850d47"},"vehicle_type_id":"4","last_reported":1762366559,"current_range_meters":4000,"station_id":"ce4bhhp2rcd13ifvqfm0","pricing_plan_id":"cebpf4jnsgd1na2vs0mg"},{"bike_id":"d4df777a-117d-4083-a62a-bf334344a02e","system_id":"levelo_inurba_marseille","lat":43.317238,"lon":5.423937,"is_reserved":false,"is_disabled":false,"rental_uris":{"android":"levelo://app?vid=d4df777a-117d-4083-a62a-bf334344a02e","ios":"levelo://app?vid=d4df777a-117d-4083-a62a-bf334344a02e"},"vehicle_type_id":"4","last_reported":1762366559,"current_range_meters":4000,"station_id":"ce4bhp92rcd13ifvqhbg","pricing_plan_id":"cebpf4jnsgd1na2vs0mg"},{"bike_id":"28b85111-1e3c-4e94-9d4a-5a837507bfee","system_id":"levelo_inurba_marseille","lat":43.2971,"lon":5.42632,"is_reserved":false,"is_disabled":false,"rental_uris":{"android":"levelo://app?vid=28b85111-1e3c-4e94-9d4a-5a837507bfee","ios":"levelo://app?vid=28b85111-1e3c-4e94-9d4a-5a837507bfee"},"vehicle_type_id":"4","last_reported":1762366559,"current_range_meters":4400,"station_id":"","pricing_plan_id":"cebpf4jnsgd1na2vs0mg"},{"bike_id":"c76b2c5b-16e9-4c55-870e-400171fa768d","system_id":"levelo_inurba_marseille","lat":43.29557,"lon":5.42266,"is_reserved":false,"is_disabled":false,"rental_uris":{"android":"levelo://app?vid=c76b2c5b-16e9-4c55-870e-400171fa768d","ios":"levelo://app?vid=c76b2c5b-16e9-4c55-870e-400171fa768d"},"vehicle_type_id":"4","last_reported":1762366559,"current_range_meters":4400,"station_id":"ce4bhph2rcd13ifvqhdg","pricing_plan_id":"cebpf4jnsgd1na2vs0mg"},{"bike_id":"ebddb370-d644-4dfb-a2c2-26834be21211","system_id":"levelo_inurba_marseille","lat":43.26927,"lon":5.39256,"is_reserved":false,"is_disabled":false,"rental_uris":{"android":"levelo://app?vid=ebddb370-d644-4dfb-a2c2-26834be21211","ios":"levelo://app?vid=ebddb370-d644-4dfb-a2c2-26834be21211"},"vehicle_type_id":"4","last_reported":1762366559,"current_range_meters":4400,"station_id":"","pricing_plan_id":"cebpf4jnsgd1na2vs0mg"},{"bike_id":"f6531ac6-191b-458e-8e06-c6f741705a62","system_id":"levelo_inurba_marseille","lat":43.27903,"lon":5.38011,"is_reserved":false,"is_disabled":false,"rental_uris":{"android":"levelo://app?vid=f6531ac6-191b-458e-8e06-c6f741705a62","ios":"levelo://app?vid=f6531ac6-191b-458e-8e06-c6f741705a62"},"vehicle_type_id":"4","last_reported":1762366559,"current_range_meters":4400,"station_id":"ce4bhf92rcd13ifvqf50","pricing_plan_id":"cebpf4jnsgd1na2vs0mg"},{"bike_id":"afa84c9a-bd02-434c-a767-3453b656efc5","system_id":"levelo_inurba_marseille","lat":43.25343,"lon":5.42179,"is_reserved":false,"is_disabled":false,"rental_uris":{"android":"levelo://app?vid=afa84c9a-bd02-434c-a767-3453b656efc5","ios":"levelo://app?vid=afa84c9a-bd02-434c-a767-3453b656efc5"},"vehicle_type_id":"4","last_reported":1762366559,"current_range_meters":4400,"station_id":"st_d2m65c5bi1j21697t3ng","pricing_plan_id":"cebpf4jnsgd1na2vs0mg"},{"bike_id":"2ab9ba53-90c6-4dbd-9db5-e9732365d7d4","system_id":"levelo_inurba_marseille","lat":43.24635,"lon":5.43146,"is_reserved":false,"is_disabled":false,"rental_uris":{"android":"levelo://app?vid=2ab9ba53-90c6-4dbd-9db5-e9732365d7d4","ios":"levelo://app?vid=2ab9ba53-90c6-4dbd-9db5-e9732365d7d4"},"vehicle_type_id":"4","last_reported":1762366559,"current_range_meters":4400,"station_id":"st_d2m6c4gdas8pm72e190g","pricing_plan_id":"cebpf4jnsgd1na2vs0mg"},{"bike_id":"aae69769-0d96-4ec0-a552-a916ee2fd560","system_id":"levelo_inurba_marseille","lat":43.22939,"lon":5.35377,"is_reserved":false,"is_disabled":false,"rental_uris":{"android":"levelo://app?vid=aae69769-0d96-4ec0-a552-a916ee2fd560","ios":"levelo://app?vid=aae69769-0d96-4ec0-a552-a916ee2fd560"},"vehicle_type_id":"4","last_reported":1762366559,"current_range_meters":4800,"station_id":"cpo3532slgdg3j2ikp40","pricing_plan_id":"cebpf4jnsgd1na2vs0mg"},{"bike_id":"5584b84b-53b3-4dc4-a52e-4cb9c193b852","system_id":"levelo_inurba_marseille","lat":43.30533,"lon":5.36549,"is_reserved":false,"is_disabled":false,"rental_uris":{"android":"levelo://app?vid=5584b84b-53b3-4dc4-a52e-4cb9c193b852","ios":"levelo://app?vid=5584b84b-53b3-4dc4-a52e-4cb9c193b852"},"vehicle_type_id":"4","last_reported":1762366559,"current_range_meters":4800,"station_id":"ce4bgs12rcd13ifvqcag","pricing_plan_id":"cebpf4jnsgd1na2vs0mg"},{"bike_id":"3ac41fca-6f80-4e3f-8c88-8657f5fdaf09","system_id":"levelo_inurba_marseille","lat":43.28407,"lon":5.37505,"is_reserved":false,"is_disabled":false,"rental_uris":{"android":"levelo://app?vid=3ac41fca-6f80-4e3f-8c88-8657f5fdaf09","ios":"levelo://app?vid=3ac41fca-6f80-4e3f-8c88-8657f5fdaf09"},"vehicle_type_id":"4","last_reported":1762366559,"current_range_meters":4800,"station_id":"ce4bh412rcd13ifvqds0","pricing_plan_id":"cebpf4jnsgd1na2vs0mg"},{"bike_id":"da5635aa-86ff-4239-8dba-b6c2aea8669a","system_id":"levelo_inurba_marseille","lat":43.301547,"lon":5.380718,"is_reserved":false,"is_disabled":false,"rental_uris":{"android":"levelo://app?vid=da5635aa-86ff-4239-8dba-b6c2aea8669a","ios":"levelo://app?vid=da5635aa-86ff-4239-8dba-b6c2aea8669a"},"vehicle_type_id":"4","last_reported":1762366559,"current_range_meters":4800,"station_id":"ce4bgjp2rcd13ifvqbh0","pricing_plan_id":"cebpf4jnsgd1na2vs0mg"},{"bike_id":"3b4cc208-39ad-4e58-84a6-6fce9ea8db3e","system_id":"levelo_inurba_marseille","lat":43.30934,"lon":5.4014,"is_reserved":false,"is_disabled":false,"rental_uris":{"android":"levelo://app?vid=3b4cc208-39ad-4e58-84a6-6fce9ea8db3e","ios":"levelo://app?vid=3b4cc208-39ad-4e58-84a6-6fce9ea8db3e"},"vehicle_type_id":"4","last_reported":1762366559,"current_range_meters":5600,"station_id":"ce4bgvp2rcd13ifvqct0","pricing_plan_id":"cebpf4jnsgd1na2vs0mg"},{"bike_id":"f4af6ef1-bdb7-4cdf-a9cf-4dc3d6a157c5","system_id":"levelo_inurba_marseille","lat":43.285295,"lon":5.440945,"is_reserved":false,"is_disabled":false,"rental_uris":{"android":"levelo://app?vid=f4af6ef1-bdb7-4cdf-a9cf-4dc3d6a157c5","ios":"levelo://app?vid=f4af6ef1-bdb7-4cdf-a9cf-4dc3d6a157c5"},"vehicle_type_id":"4","last_reported":1762366559,"current_range_meters":6000,"station_id":"st_d3j3df2ikq2c7380ej80","pricing_plan_id":"cebpf4jnsgd1na2vs0mg"},{"bike_id":"a52514b5-a722-4446-91d8-8d6b987e95a1","system_id":"levelo_inurba_marseille","lat":43.28859,"lon":5.42526,"is_reserved":false,"is_disabled":false,"rental_uris":{"android":"levelo://app?vid=a52514b5-a722-4446-91d8-8d6b987e95a1","ios":"levelo://app?vid=a52514b5-a722-4446-91d8-8d6b987e95a1"},"vehicle_type_id":"4","last_reported":1762366559,"current_range_meters":6000,"station_id":"st_d3b462108ojc7389ooeg","pricing_plan_id":"cebpf4jnsgd1na2vs0mg"},{"bike_id":"6dd7766c-38c3-45a4-b565-eeac613cc87d","system_id":"levelo_inurba_marseille","lat":43.2693,"lon":5.40256,"is_reserved":false,"is_disabled":false,"rental_uris":{"android":"levelo://app?vid=6dd7766c-38c3-45a4-b565-eeac613cc87d","ios":"levelo://app?vid=6dd7766c-38c3-45a4-b565-eeac613cc87d"},"vehicle_type_id":"4","last_reported":1762366559,"current_range_meters":6000,"station_id":"cjm6bp8fraef2m0cb0m0","pricing_plan_id":"cebpf4jnsgd1na2vs0mg"},{"bike_id":"1bede403-951f-4fc7-9913-52e220cf0c6a","system_id":"levelo_inurba_marseille","lat":43.28413,"lon":5.374956,"is_reserved":false,"is_disabled":false,"rental_uris":{"android":"levelo://app?vid=1bede403-951f-4fc7-9913-52e220cf0c6a","ios":"levelo://app?vid=1bede403-951f-4fc7-9913-52e220cf0c6a"},"vehicle_type_id":"4","last_reported":1762366559,"current_range_meters":6000,"station_id":"ce4bh412rcd13ifvqds0","pricing_plan_id":"cebpf4jnsgd1na2vs0mg"},{"bike_id":"22526b9d-b8da-492b-9792-08beb5b6470a","system_id":"levelo_inurba_marseille","lat":43.27572,"lon":5.384153,"is_reserved":false,"is_disabled":false,"rental_uris":{"android":"levelo://app?vid=22526b9d-b8da-492b-9792-08beb5b6470a","ios":"levelo://app?vid=22526b9d-b8da-492b-9792-08beb5b6470a"},"vehicle_type_id":"4","last_reported":1762366559,"current_range_meters":6000,"station_id":"ce4bhh92rcd13ifvqfi0","pricing_plan_id":"cebpf4jnsgd1na2vs0mg"},{"bike_id":"d1bc1147-656a-46da-a7e7-43a9a275eba7","system_id":"levelo_inurba_marseille","lat":43.248,"lon":5.37452,"is_reserved":false,"is_disabled":false,"rental_uris":{"android":"levelo://app?vid=d1bc1147-656a-46da-a7e7-43a9a275eba7","ios":"levelo://app?vid=d1bc1147-656a-46da-a7e7-43a9a275eba7"},"vehicle_type_id":"4","last_reported":1762366559,"current_range_meters":6000,"station_id":"ce4bhgh2rcd13ifvqfb0","pricing_plan_id":"cebpf4jnsgd1na2vs0mg"},{"bike_id":"1836afea-a02c-4ac9-9d2a-debd006486c9","system_id":"levelo_inurba_marseille","lat":43.24661,"lon":5.38168,"is_reserved":false,"is_disabled":false,"rental_uris":{"android":"levelo://app?vid=1836afea-a02c-4ac9-9d2a-debd006486c9","ios":"levelo://app?vid=1836afea-a02c-4ac9-9d2a-debd006486c9"},"vehicle_type_id":"4","last_reported":1762366559,"current_range_meters":6400,"station_id":"ce4bhih2rcd13ifvqfr0","pricing_plan_id":"cebpf4jnsgd1na2vs0mg"},{"bike_id":"3800314d-6410-4feb-bd76-28cb0729c673","system_id":"levelo_inurba_marseille","lat":43.303365,"lon":5.400793,"is_reserved":false,"is_disabled":false,"rental_uris":{"android":"levelo://app?vid=3800314d-6410-4feb-bd76-28cb0729c673","ios":"levelo://app?vid=3800314d-6410-4feb-bd76-28cb0729c673"},"vehicle_type_id":"4","last_reported":1762366559,"current_range_meters":6400,"station_id":"","pricing_plan_id":"cebpf4jnsgd1na2vs0mg"},{"bike_id":"c941b912-b4e6-46e0-bfb7-59d51a7cf6ed","system_id":"levelo_inurba_marseille","lat":43.27898,"lon":5.38016,"is_reserved":false,"is_disabled":false,"rental_uris":{"android":"levelo://app?vid=c941b912-b4e6-46e0-bfb7-59d51a7cf6ed","ios":"levelo://app?vid=c941b912-b4e6-46e0-bfb7-59d51a7cf6ed"},"vehicle_type_id":"4","last_reported":1762366559,"current_range_meters":6400,"station_id":"ce4bhf92rcd13ifvqf50","pricing_plan_id":"cebpf4jnsgd1na2vs0mg"},{"bike_id":"dbc11236-7cdc-47c9-b791-28747ef30694","system_id":"levelo_inurba_marseille","lat":43.24648,"lon":5.38884,"is_reserved":false,"is_disabled":false,"rental_uris":{"android":"levelo://app?vid=dbc11236-7cdc-47c9-b791-28747ef30694","ios":"levelo://app?vid=dbc11236-7cdc-47c9-b791-28747ef30694"},"vehicle_type_id":"4","last_reported":1762366559,"current_range_meters":6400,"station_id":"ce4bhg12rcd13ifvqf60","pricing_plan_id":"cebpf4jnsgd1na2vs0mg"},{"bike_id":"606a3fd0-4b6f-42c0-a14f-7f975da7f8f8","system_id":"levelo_inurba_marseille","lat":43.29519,"lon":5.39035,"is_reserved":false,"is_disabled":false,"rental_uris":{"android":"levelo://app?vid=606a3fd0-4b6f-42c0-a14f-7f975da7f8f8","ios":"levelo://app?vid=606a3fd0-4b6f-42c0-a14f-7f975da7f8f8"},"vehicle_type_id":"4","last_reported":1762366559,"current_range_meters":6400,"station_id":"ce4bh3p2rcd13ifvqdp0","pricing_plan_id":"cebpf4jnsgd1na2vs0mg"},{"bike_id":"ff420896-190c-4469-a623-7541d4f33707","system_id":"levelo_inurba_marseille","lat":43.2782,"lon":5.39198,"is_reserved":false,"is_disabled":false,"rental_uris":{"android":"levelo://app?vid=ff420896-190c-4469-a623-7541d4f33707","ios":"levelo://app?vid=ff420896-190c-4469-a623-7541d4f33707"},"vehicle_type_id":"4","last_reported":1762366559,"current_range_meters":6800,"station_id":"ce4bhjp2rcd13ifvqga0","pricing_plan_id":"cebpf4jnsgd1na2vs0mg"},{"bike_id":"61eb2c94-afd5-4102-8cab-72479f359695","system_id":"levelo_inurba_marseille","lat":43.283433,"lon":5.380937,"is_reserved":false,"is_disabled":false,"rental_uris":{"android":"levelo://app?vid=61eb2c94-afd5-4102-8cab-72479f359695","ios":"levelo://app?vid=61eb2c94-afd5-4102-8cab-72479f359695"},"vehicle_type_id":"4","last_reported":1762366559,"current_range_meters":6800,"station_id":"ce4bh412rcd13ifvqdr0","pricing_plan_id":"cebpf4jnsgd1na2vs0mg"},{"bike_id":"ca027186-72c6-4358-8d7a-70b219e6273a","system_id":"levelo_inurba_marseille","lat":43.35098,"lon":5.38084,"is_reserved":false,"is_disabled":false,"rental_uris":{"android":"levelo://app?vid=ca027186-72c6-4358-8d7a-70b219e6273a","ios":"levelo://app?vid=ca027186-72c6-4358-8d7a-70b219e6273a"},"vehicle_type_id":"4","last_reported":1762366559,"current_range_meters":6800,"station_id":"","pricing_plan_id":"cebpf4jnsgd1na2vs0mg"},{"bike_id":"654dc482-8458-4686-a09b-a5e21a822232","system_id":"levelo_inurba_marseille","lat":43.231855,"lon":5.355714,"is_reserved":false,"is_disabled":true,"rental_uris":{"android":"levelo://app?vid=654dc482-8458-4686-a09b-a5e21a822232","ios":"levelo://app?vid=654dc482-8458-4686-a09b-a5e21a822232"},"vehicle_type_id":"4","last_reported":1762366559,"current_range_meters":6800,"station_id":"ce4bhu92rcd13ifvqi70","pricing_plan_id":"cebpf4jnsgd1na2vs0mg"},{"bike_id":"c4ef3600-9b00-463d-9186-d70f1ac0dafb","system_id":"levelo_inurba_marseille","lat":43.28432,"lon":5.3918,"is_reserved":false,"is_disabled":false,"rental_uris":{"android":"levelo://app?vid=c4ef3600-9b00-463d-9186-d70f1ac0dafb","ios":"levelo://app?vid=c4ef3600-9b00-463d-9186-d70f1ac0dafb"},"vehicle_type_id":"4","last_reported":1762366559,"current_range_meters":6800,"station_id":"ce4bhoh2rcd13ifvqh5g","pricing_plan_id":"cebpf4jnsgd1na2vs0mg"},{"bike_id":"bb29fec8-c940-4dbe-8795-2d1a37768a87","system_id":"levelo_inurba_marseille","lat":43.25006,"lon":5.3891,"is_reserved":false,"is_disabled":false,"rental_uris":{"android":"levelo://app?vid=bb29fec8-c940-4dbe-8795-2d1a37768a87","ios":"levelo://app?vid=bb29fec8-c940-4dbe-8795-2d1a37768a87"},"vehicle_type_id":"4","last_reported":1762366559,"current_range_meters":6800,"station_id":"ce4bhgp2rcd13ifvqfd0","pricing_plan_id":"cebpf4jnsgd1na2vs0mg"},{"bike_id":"00b85705-752f-40f5-88f9-5e290a9ac4aa","system_id":"levelo_inurba_marseille","lat":43.246568,"lon":5.381599,"is_reserved":false,"is_disabled":false,"rental_uris":{"android":"levelo://app?vid=00b85705-752f-40f5-88f9-5e290a9ac4aa","ios":"levelo://app?vid=00b85705-752f-40f5-88f9-5e290a9ac4aa"},"vehicle_type_id":"4","last_reported":1762366559,"current_range_meters":6800,"station_id":"ce4bhih2rcd13ifvqfr0","pricing_plan_id":"cebpf4jnsgd1na2vs0mg"},{"bike_id":"e5f898f2-3800-4098-8f96-e4fe02398ff5","system_id":"levelo_inurba_marseille","lat":43.28579,"lon":5.39494,"is_reserved":false,"is_disabled":false,"rental_uris":{"android":"levelo://app?vid=e5f898f2-3800-4098-8f96-e4fe02398ff5","ios":"levelo://app?vid=e5f898f2-3800-4098-8f96-e4fe02398ff5"},"vehicle_type_id":"4","last_reported":1762366559,"current_range_meters":7200,"station_id":"ce4bh292rcd13ifvqdg0","pricing_plan_id":"cebpf4jnsgd1na2vs0mg"},{"bike_id":"a2005ad9-416c-4d48-8372-d11f3de809e5","system_id":"levelo_inurba_marseille","lat":43.29524,"lon":5.38549,"is_reserved":false,"is_disabled":false,"rental_uris":{"android":"levelo://app?vid=a2005ad9-416c-4d48-8372-d11f3de809e5","ios":"levelo://app?vid=a2005ad9-416c-4d48-8372-d11f3de809e5"},"vehicle_type_id":"4","last_reported":1762366559,"current_range_meters":7200,"station_id":"ce4bgih2rcd13ifvqba0","pricing_plan_id":"cebpf4jnsgd1na2vs0mg"},{"bike_id":"7c572724-d246-444c-a818-2550f93cae1a","system_id":"levelo_inurba_marseille","lat":43.28823,"lon":5.38619,"is_reserved":false,"is_disabled":false,"rental_uris":{"android":"levelo://app?vid=7c572724-d246-444c-a818-2550f93cae1a","ios":"levelo://app?vid=7c572724-d246-444c-a818-2550f93cae1a"},"vehicle_type_id":"4","last_reported":1762366559,"current_range_meters":7200,"station_id":"","pricing_plan_id":"cebpf4jnsgd1na2vs0mg"},{"bike_id":"8625fd71-52f7-4d25-987b-6e76164035a5","system_id":"levelo_inurba_marseille","lat":43.30798,"lon":5.40548,"is_reserved":false,"is_disabled":false,"rental_uris":{"android":"levelo://app?vid=8625fd71-52f7-4d25-987b-6e76164035a5","ios":"levelo://app?vid=8625fd71-52f7-4d25-987b-6e76164035a5"},"vehicle_type_id":"4","last_reported":1762366559,"current_range_meters":7200,"station_id":"","pricing_plan_id":"cebpf4jnsgd1na2vs0mg"},{"bike_id":"5e6b5e6b-9f8a-43ab-9eb8-b69e41a6c1e6","system_id":"levelo_inurba_marseille","lat":43.225298,"lon":5.348365,"is_reserved":false,"is_disabled":false,"rental_uris":{"android":"levelo://app?vid=5e6b5e6b-9f8a-43ab-9eb8-b69e41a6c1e6","ios":"levelo://app?vid=5e6b5e6b-9f8a-43ab-9eb8-b69e41a6c1e6"},"vehicle_type_id":"4","last_reported":1762366559,"current_range_meters":8000,"station_id":"","pricing_plan_id":"cebpf4jnsgd1na2vs0mg"},{"bike_id":"04c1e0e0-4e19-4bea-abe6-635c545af534","system_id":"levelo_inurba_marseille","lat":43.25868,"lon":5.39889,"is_reserved":false,"is_disabled":false,"rental_uris":{"android":"levelo://app?vid=04c1e0e0-4e19-4bea-abe6-635c545af534","ios":"levelo://app?vid=04c1e0e0-4e19-4bea-abe6-635c545af534"},"vehicle_type_id":"4","last_reported":1762366559,"current_range_meters":8000,"station_id":"ce4bhl92rcd13ifvqghg","pricing_plan_id":"cebpf4jnsgd1na2vs0mg"},{"bike_id":"5a54437d-930e-4bb0-8028-18befcf40ac0","system_id":"levelo_inurba_marseille","lat":43.26774,"lon":5.39418,"is_reserved":false,"is_disabled":false,"rental_uris":{"android":"levelo://app?vid=5a54437d-930e-4bb0-8028-18befcf40ac0","ios":"levelo://app?vid=5a54437d-930e-4bb0-8028-18befcf40ac0"},"vehicle_type_id":"4","last_reported":1762366559,"current_range_meters":8000,"station_id":"ce4bhh12rcd13ifvqfg0","pricing_plan_id":"cebpf4jnsgd1na2vs0mg"},{"bike_id":"47de9693-398c-4078-bb2e-bf0d38c76c57","system_id":"levelo_inurba_marseille","lat":43.28999,"lon":5.39036,"is_reserved":false,"is_disabled":false,"rental_uris":{"android":"levelo://app?vid=47de9693-398c-4078-bb2e-bf0d38c76c57","ios":"levelo://app?vid=47de9693-398c-4078-bb2e-bf0d38c76c57"},"vehicle_type_id":"4","last_reported":1762366559,"current_range_meters":8000,"station_id":"","pricing_plan_id":"cebpf4jnsgd1na2vs0mg"},{"bike_id":"c7173e1f-51a6-40ff-979f-aca44a8cad2b","system_id":"levelo_inurba_marseille","lat":43.266815,"lon":5.38284,"is_reserved":false,"is_disabled":false,"rental_uris":{"android":"levelo://app?vid=c7173e1f-51a6-40ff-979f-aca44a8cad2b","ios":"levelo://app?vid=c7173e1f-51a6-40ff-979f-aca44a8cad2b"},"vehicle_type_id":"4","last_reported":1762366559,"current_range_meters":8000,"station_id":"ce4bhbh2rcd13ifvqeqg","pricing_plan_id":"cebpf4jnsgd1na2vs0mg"},{"bike_id":"dbe83fc1-5783-48c3-91aa-350328eabbc6","system_id":"levelo_inurba_marseille","lat":43.279944,"lon":5.400108,"is_reserved":false,"is_disabled":false,"rental_uris":{"android":"levelo://app?vid=dbe83fc1-5783-48c3-91aa-350328eabbc6","ios":"levelo://app?vid=dbe83fc1-5783-48c3-91aa-350328eabbc6"},"vehicle_type_id":"4","last_reported":1762366559,"current_range_meters":8000,"station_id":"ce4bhdp2rcd13ifvqf20","pricing_plan_id":"cebpf4jnsgd1na2vs0mg"},{"bike_id":"ad483091-7411-4e16-8cc4-09042e8161f5","system_id":"levelo_inurba_marseille","lat":43.273468,"lon":5.385179,"is_reserved":false,"is_disabled":true,"rental_uris":{"android":"levelo://app?vid=ad483091-7411-4e16-8cc4-09042e8161f5","ios":"levelo://app?vid=ad483091-7411-4e16-8cc4-09042e8161f5"},"vehicle_type_id":"4","last_reported":1762366559,"current_range_meters":8000,"station_id":"","pricing_plan_id":"cebpf4jnsgd1na2vs0mg"},{"bike_id":"acd81334-a267-437e-ba40-eb801444243e","system_id":"levelo_inurba_marseille","lat":43.29258,"lon":5.37626,"is_reserved":false,"is_disabled":false,"rental_uris":{"android":"levelo://app?vid=acd81334-a267-437e-ba40-eb801444243e","ios":"levelo://app?vid=acd81334-a267-437e-ba40-eb801444243e"},"vehicle_type_id":"4","last_reported":1762366559,"current_range_meters":8000,"station_id":"ce4bgi12rcd13ifvqb80","pricing_plan_id":"cebpf4jnsgd1na2vs0mg"},{"bike_id":"43241b2a-4cb5-4e4c-8865-8a8693625499","system_id":"levelo_inurba_marseille","lat":43.31273,"lon":5.37846,"is_reserved":false,"is_disabled":false,"rental_uris":{"android":"levelo://app?vid=43241b2a-4cb5-4e4c-8865-8a8693625499","ios":"levelo://app?vid=43241b2a-4cb5-4e4c-8865-8a8693625499"},"vehicle_type_id":"4","last_reported":1762366559,"current_range_meters":8000,"station_id":"","pricing_plan_id":"cebpf4jnsgd1na2vs0mg"},{"bike_id":"b29f4980-aa7f-4c74-b964-5368d2943182","system_id":"levelo_inurba_marseille","lat":43.30333,"lon":5.40434,"is_reserved":false,"is_disabled":false,"rental_uris":{"android":"levelo://app?vid=b29f4980-aa7f-4c74-b964-5368d2943182","ios":"levelo://app?vid=b29f4980-aa7f-4c74-b964-5368d2943182"},"vehicle_type_id":"4","last_reported":1762366559,"current_range_meters":8400,"station_id":"ce4bh012rcd13ifvqd10","pricing_plan_id":"cebpf4jnsgd1na2vs0mg"},{"bike_id":"b3b3fcde-ef29-4ae9-9661-53fb5ec40466","system_id":"levelo_inurba_marseille","lat":43.31112,"lon":5.39389,"is_reserved":false,"is_disabled":false,"rental_uris":{"android":"levelo://app?vid=b3b3fcde-ef29-4ae9-9661-53fb5ec40466","ios":"levelo://app?vid=b3b3fcde-ef29-4ae9-9661-53fb5ec40466"},"vehicle_type_id":"4","last_reported":1762366559,"current_range_meters":8400,"station_id":"","pricing_plan_id":"cebpf4jnsgd1na2vs0mg"},{"bike_id":"f7a192fe-ecfa-451f-8d3a-3c4f39209fc4","system_id":"levelo_inurba_marseille","lat":43.32368,"lon":5.38886,"is_reserved":false,"is_disabled":false,"rental_uris":{"android":"levelo://app?vid=f7a192fe-ecfa-451f-8d3a-3c4f39209fc4","ios":"levelo://app?vid=f7a192fe-ecfa-451f-8d3a-3c4f39209fc4"},"vehicle_type_id":"4","last_reported":1762366559,"current_range_meters":8400,"station_id":"ce4bhqp2rcd13ifvqhog","pricing_plan_id":"cebpf4jnsgd1na2vs0mg"},{"bike_id":"c8679142-9d9d-454f-8b64-bb4287417755","system_id":"levelo_inurba_marseille","lat":43.29869,"lon":5.39729,"is_reserved":false,"is_disabled":false,"rental_uris":{"android":"levelo://app?vid=c8679142-9d9d-454f-8b64-bb4287417755","ios":"levelo://app?vid=c8679142-9d9d-454f-8b64-bb4287417755"},"vehicle_type_id":"4","last_reported":1762366559,"current_range_meters":8400,"station_id":"ce4bh0h2rcd13ifvqd50","pricing_plan_id":"cebpf4jnsgd1na2vs0mg"},{"bike_id":"f704352c-de1a-4f32-89e1-652273d373d2","system_id":"levelo_inurba_marseille","lat":43.311157,"lon":5.377593,"is_reserved":false,"is_disabled":false,"rental_uris":{"android":"levelo://app?vid=f704352c-de1a-4f32-89e1-652273d373d2","ios":"levelo://app?vid=f704352c-de1a-4f32-89e1-652273d373d2"},"vehicle_type_id":"4","last_reported":1762366559,"current_range_meters":8400,"station_id":"ce4bgt92rcd13ifvqcg0","pricing_plan_id":"cebpf4jnsgd1na2vs0mg"},{"bike_id":"ad336818-e861-480c-9f0e-305045cd2f64","system_id":"levelo_inurba_marseille","lat":43.28216,"lon":5.39056,"is_reserved":false,"is_disabled":false,"rental_uris":{"android":"levelo://app?vid=ad336818-e861-480c-9f0e-305045cd2f64","ios":"levelo://app?vid=ad336818-e861-480c-9f0e-305045cd2f64"},"vehicle_type_id":"4","last_reported":1762366559,"current_range_meters":8400,"station_id":"ce4bhn92rcd13ifvqgsg","pricing_plan_id":"cebpf4jnsgd1na2vs0mg"},{"bike_id":"fba7c09b-0b66-4128-a956-f2357e6176ef","system_id":"levelo_inurba_marseille","lat":43.26497,"lon":5.39531,"is_reserved":false,"is_disabled":false,"rental_uris":{"android":"levelo://app?vid=fba7c09b-0b66-4128-a956-f2357e6176ef","ios":"levelo://app?vid=fba7c09b-0b66-4128-a956-f2357e6176ef"},"vehicle_type_id":"4","last_reported":1762366559,"current_range_meters":8400,"station_id":"ce4bhi12rcd13ifvqfq0","pricing_plan_id":"cebpf4jnsgd1na2vs0mg"},{"bike_id":"8be49b90-6f25-4d30-8da0-e2ab2627b022","system_id":"levelo_inurba_marseille","lat":43.29801,"lon":5.38093,"is_reserved":false,"is_disabled":false,"rental_uris":{"android":"levelo://app?vid=8be49b90-6f25-4d30-8da0-e2ab2627b022","ios":"levelo://app?vid=8be49b90-6f25-4d30-8da0-e2ab2627b022"},"vehicle_type_id":"4","last_reported":1762366559,"current_range_meters":8400,"station_id":"ce4bgip2rcd13ifvqbb0","pricing_plan_id":"cebpf4jnsgd1na2vs0mg"},{"bike_id":"d3f65d51-37bb-44fa-aaaf-c267842a2765","system_id":"levelo_inurba_marseille","lat":43.229354,"lon":5.353717,"is_reserved":false,"is_disabled":false,"rental_uris":{"android":"levelo://app?vid=d3f65d51-37bb-44fa-aaaf-c267842a2765","ios":"levelo://app?vid=d3f65d51-37bb-44fa-aaaf-c267842a2765"},"vehicle_type_id":"4","last_reported":1762366559,"current_range_meters":8400,"station_id":"cpo3532slgdg3j2ikp40","pricing_plan_id":"cebpf4jnsgd1na2vs0mg"},{"bike_id":"4161bcf4-425d-4282-b811-4ad36a0b3992","system_id":"levelo_inurba_marseille","lat":43.274674,"lon":5.413398,"is_reserved":false,"is_disabled":false,"rental_uris":{"android":"levelo://app?vid=4161bcf4-425d-4282-b811-4ad36a0b3992","ios":"levelo://app?vid=4161bcf4-425d-4282-b811-4ad36a0b3992"},"vehicle_type_id":"4","last_reported":1762366559,"current_range_meters":8800,"station_id":"ce4bhl12rcd13ifvqgf0","pricing_plan_id":"cebpf4jnsgd1na2vs0mg"},{"bike_id":"0f8ff35c-743d-4d54-a7f7-e5cc108ffd8a","system_id":"levelo_inurba_marseille","lat":43.29972,"lon":5.399077,"is_reserved":false,"is_disabled":false,"rental_uris":{"android":"levelo://app?vid=0f8ff35c-743d-4d54-a7f7-e5cc108ffd8a","ios":"levelo://app?vid=0f8ff35c-743d-4d54-a7f7-e5cc108ffd8a"},"vehicle_type_id":"4","last_reported":1762366559,"current_range_meters":8800,"station_id":"","pricing_plan_id":"cebpf4jnsgd1na2vs0mg"},{"bike_id":"8fa1b78c-2ee2-4e39-a76e-41bcd48249e3","system_id":"levelo_inurba_marseille","lat":43.2737,"lon":5.36261,"is_reserved":false,"is_disabled":false,"rental_uris":{"android":"levelo://app?vid=8fa1b78c-2ee2-4e39-a76e-41bcd48249e3","ios":"levelo://app?vid=8fa1b78c-2ee2-4e39-a76e-41bcd48249e3"},"vehicle_type_id":"4","last_reported":1762366559,"current_range_meters":8800,"station_id":"ce4bhbh2rcd13ifvqeo0","pricing_plan_id":"cebpf4jnsgd1na2vs0mg"},{"bike_id":"cd9c6c8f-813a-4b2c-b0c7-7a3265cb2fa0","system_id":"levelo_inurba_marseille","lat":43.24245,"lon":5.39318,"is_reserved":false,"is_disabled":false,"rental_uris":{"android":"levelo://app?vid=cd9c6c8f-813a-4b2c-b0c7-7a3265cb2fa0","ios":"levelo://app?vid=cd9c6c8f-813a-4b2c-b0c7-7a3265cb2fa0"},"vehicle_type_id":"4","last_reported":1762366559,"current_range_meters":8800,"station_id":"","pricing_plan_id":"cebpf4jnsgd1na2vs0mg"},{"bike_id":"0db54a15-7c25-4841-b152-52adc30a5522","system_id":"levelo_inurba_marseille","lat":43.29755,"lon":5.42782,"is_reserved":false,"is_disabled":false,"rental_uris":{"android":"levelo://app?vid=0db54a15-7c25-4841-b152-52adc30a5522","ios":"levelo://app?vid=0db54a15-7c25-4841-b152-52adc30a5522"},"vehicle_type_id":"4","last_reported":1762366559,"current_range_meters":8800,"station_id":"st_d3md5207bmas73dh9klg","pricing_plan_id":"cebpf4jnsgd1na2vs0mg"},{"bike_id":"8238b597-6943-47b1-846e-b6ceb3bf4468","system_id":"levelo_inurba_marseille","lat":43.284441,"lon":5.376034,"is_reserved":false,"is_disabled":false,"rental_uris":{"android":"levelo://app?vid=8238b597-6943-47b1-846e-b6ceb3bf4468","ios":"levelo://app?vid=8238b597-6943-47b1-846e-b6ceb3bf4468"},"vehicle_type_id":"4","last_reported":1762366559,"current_range_meters":8800,"station_id":"","pricing_plan_id":"cebpf4jnsgd1na2vs0mg"},{"bike_id":"2de3ecf1-796a-422e-99c2-50e29f074c80","system_id":"levelo_inurba_marseille","lat":43.28265,"lon":5.35062,"is_reserved":false,"is_disabled":false,"rental_uris":{"android":"levelo://app?vid=2de3ecf1-796a-422e-99c2-50e29f074c80","ios":"levelo://app?vid=2de3ecf1-796a-422e-99c2-50e29f074c80"},"vehicle_type_id":"4","last_reported":1762366559,"current_range_meters":8800,"station_id":"ce4bhbp2rcd13ifvqerg","pricing_plan_id":"cebpf4jnsgd1na2vs0mg"},{"bike_id":"7dfb80b2-137e-41be-836d-8e903280b21e","system_id":"levelo_inurba_marseille","lat":43.26776,"lon":5.3942,"is_reserved":false,"is_disabled":false,"rental_uris":{"android":"levelo://app?vid=7dfb80b2-137e-41be-836d-8e903280b21e","ios":"levelo://app?vid=7dfb80b2-137e-41be-836d-8e903280b21e"},"vehicle_type_id":"4","last_reported":1762366559,"current_range_meters":9200,"station_id":"ce4bhh12rcd13ifvqfg0","pricing_plan_id":"cebpf4jnsgd1na2vs0mg"},{"bike_id":"36dadbf7-a228-4f6f-8b08-391008b68693","system_id":"levelo_inurba_marseille","lat":43.34564,"lon":5.36848,"is_reserved":false,"is_disabled":false,"rental_uris":{"android":"levelo://app?vid=36dadbf7-a228-4f6f-8b08-391008b68693","ios":"levelo://app?vid=36dadbf7-a228-4f6f-8b08-391008b68693"},"vehicle_type_id":"4","last_reported":1762366559,"current_range_meters":9200,"station_id":"","pricing_plan_id":"cebpf4jnsgd1na2vs0mg"},{"bike_id":"9465d862-db38-45cb-98a3-e49ecdfda4db","system_id":"levelo_inurba_marseille","lat":43.29492,"lon":5.43306,"is_reserved":false,"is_disabled":true,"rental_uris":{"android":"levelo://app?vid=9465d862-db38-45cb-98a3-e49ecdfda4db","ios":"levelo://app?vid=9465d862-db38-45cb-98a3-e49ecdfda4db"},"vehicle_type_id":"4","last_reported":1762366559,"current_range_meters":9200,"station_id":"st_d3j5ugp08ojc73fj9d10","pricing_plan_id":"cebpf4jnsgd1na2vs0mg"},{"bike_id":"521e492f-9633-4713-97a4-cd8cf7599fcc","system_id":"levelo_inurba_marseille","lat":43.27838,"lon":5.39206,"is_reserved":false,"is_disabled":false,"rental_uris":{"android":"levelo://app?vid=521e492f-9633-4713-97a4-cd8cf7599fcc","ios":"levelo://app?vid=521e492f-9633-4713-97a4-cd8cf7599fcc"},"vehicle_type_id":"4","last_reported":1762366559,"current_range_meters":9200,"station_id":"ce4bhjp2rcd13ifvqga0","pricing_plan_id":"cebpf4jnsgd1na2vs0mg"},{"bike_id":"bc59753b-c055-4fa5-9f16-f38922cd769a","system_id":"levelo_inurba_marseille","lat":43.287049,"lon":5.373846,"is_reserved":false,"is_disabled":false,"rental_uris":{"android":"levelo://app?vid=bc59753b-c055-4fa5-9f16-f38922cd769a","ios":"levelo://app?vid=bc59753b-c055-4fa5-9f16-f38922cd769a"},"vehicle_type_id":"4","last_reported":1762366559,"current_range_meters":9200,"station_id":"ce4bh3p2rcd13ifvqdq0","pricing_plan_id":"cebpf4jnsgd1na2vs0mg"},{"bike_id":"ea4f4b84-78b0-4180-a7f8-ecb8c6182713","system_id":"levelo_inurba_marseille","lat":43.2953,"lon":5.36104,"is_reserved":false,"is_disabled":true,"rental_uris":{"android":"levelo://app?vid=ea4f4b84-78b0-4180-a7f8-ecb8c6182713","ios":"levelo://app?vid=ea4f4b84-78b0-4180-a7f8-ecb8c6182713"},"vehicle_type_id":"4","last_reported":1762366559,"current_range_meters":9200,"station_id":"","pricing_plan_id":"cebpf4jnsgd1na2vs0mg"},{"bike_id":"3a504f41-9351-4999-935e-ef8adc7693a6","system_id":"levelo_inurba_marseille","lat":43.27804,"lon":5.40711,"is_reserved":false,"is_disabled":false,"rental_uris":{"android":"levelo://app?vid=3a504f41-9351-4999-935e-ef8adc7693a6","ios":"levelo://app?vid=3a504f41-9351-4999-935e-ef8adc7693a6"},"vehicle_type_id":"4","last_reported":1762366559,"current_range_meters":9200,"station_id":"ce4bhnh2rcd13ifvqgtg","pricing_plan_id":"cebpf4jnsgd1na2vs0mg"},{"bike_id":"756afdcc-3075-49ae-be99-2f161f6873e7","system_id":"levelo_inurba_marseille","lat":43.30416,"lon":5.41278,"is_reserved":false,"is_disabled":false,"rental_uris":{"android":"levelo://app?vid=756afdcc-3075-49ae-be99-2f161f6873e7","ios":"levelo://app?vid=756afdcc-3075-49ae-be99-2f161f6873e7"},"vehicle_type_id":"4","last_reported":1762366559,"current_range_meters":9600,"station_id":"ce4bhop2rcd13ifvqh8g","pricing_plan_id":"cebpf4jnsgd1na2vs0mg"},{"bike_id":"bd896429-63d2-4b53-a4b8-1e24876f266e","system_id":"levelo_inurba_marseille","lat":43.28883,"lon":5.37804,"is_reserved":false,"is_disabled":false,"rental_uris":{"android":"levelo://app?vid=bd896429-63d2-4b53-a4b8-1e24876f266e","ios":"levelo://app?vid=bd896429-63d2-4b53-a4b8-1e24876f266e"},"vehicle_type_id":"4","last_reported":1762366559,"current_range_meters":9600,"station_id":"","pricing_plan_id":"cebpf4jnsgd1na2vs0mg"},{"bike_id":"5df50cd3-c5ae-4177-af79-f0332f8dc63f","system_id":"levelo_inurba_marseille","lat":43.30596,"lon":5.37227,"is_reserved":false,"is_disabled":false,"rental_uris":{"android":"levelo://app?vid=5df50cd3-c5ae-4177-af79-f0332f8dc63f","ios":"levelo://app?vid=5df50cd3-c5ae-4177-af79-f0332f8dc63f"},"vehicle_type_id":"4","last_reported":1762366559,"current_range_meters":9600,"station_id":"ce4bgqh2rcd13ifvqc4g","pricing_plan_id":"cebpf4jnsgd1na2vs0mg"},{"bike_id":"0b08ad37-30c8-47ca-911b-244fca6e3568","system_id":"levelo_inurba_marseille","lat":43.26931,"lon":5.38918,"is_reserved":false,"is_disabled":false,"rental_uris":{"android":"levelo://app?vid=0b08ad37-30c8-47ca-911b-244fca6e3568","ios":"levelo://app?vid=0b08ad37-30c8-47ca-911b-244fca6e3568"},"vehicle_type_id":"4","last_reported":1762366559,"current_range_meters":10000,"station_id":"ce4bhhh2rcd13ifvqfl0","pricing_plan_id":"cebpf4jnsgd1na2vs0mg"},{"bike_id":"02c565c9-e1be-4475-b1a9-b37751cdb830","system_id":"levelo_inurba_marseille","lat":43.34403,"lon":5.34873,"is_reserved":false,"is_disabled":false,"rental_uris":{"android":"levelo://app?vid=02c565c9-e1be-4475-b1a9-b37751cdb830","ios":"levelo://app?vid=02c565c9-e1be-4475-b1a9-b37751cdb830"},"vehicle_type_id":"4","last_reported":1762366559,"current_range_meters":10000,"station_id":"","pricing_plan_id":"cebpf4jnsgd1na2vs0mg"},{"bike_id":"1f16b7e5-1eee-40b0-bef9-f1c4c100dfde","system_id":"levelo_inurba_marseille","lat":43.32363,"lon":5.3888,"is_reserved":false,"is_disabled":false,"rental_uris":{"android":"levelo://app?vid=1f16b7e5-1eee-40b0-bef9-f1c4c100dfde","ios":"levelo://app?vid=1f16b7e5-1eee-40b0-bef9-f1c4c100dfde"},"vehicle_type_id":"4","last_reported":1762366559,"current_range_meters":10000,"station_id":"ce4bhqp2rcd13ifvqhog","pricing_plan_id":"cebpf4jnsgd1na2vs0mg"},{"bike_id":"b4d8b566-0c95-4397-bb45-102614189431","system_id":"levelo_inurba_marseille","lat":43.30206,"lon":5.39459,"is_reserved":false,"is_disabled":false,"rental_uris":{"android":"levelo://app?vid=b4d8b566-0c95-4397-bb45-102614189431","ios":"levelo://app?vid=b4d8b566-0c95-4397-bb45-102614189431"},"vehicle_type_id":"4","last_reported":1762366559,"current_range_meters":10000,"station_id":"ce4bh0p2rcd13ifvqd70","pricing_plan_id":"cebpf4jnsgd1na2vs0mg"},{"bike_id":"b5b65005-6be8-4a91-8f40-e0e37f0be7c7","system_id":"levelo_inurba_marseille","lat":43.30135,"lon":5.39862,"is_reserved":false,"is_disabled":false,"rental_uris":{"android":"levelo://app?vid=b5b65005-6be8-4a91-8f40-e0e37f0be7c7","ios":"levelo://app?vid=b5b65005-6be8-4a91-8f40-e0e37f0be7c7"},"vehicle_type_id":"4","last_reported":1762366559,"current_range_meters":10000,"station_id":"ce4bh0h2rcd13ifvqd40","pricing_plan_id":"cebpf4jnsgd1na2vs0mg"},{"bike_id":"7dd6cbca-c578-48f5-9b54-b82f7d0855a7","system_id":"levelo_inurba_marseille","lat":43.27209,"lon":5.39173,"is_reserved":false,"is_disabled":false,"rental_uris":{"android":"levelo://app?vid=7dd6cbca-c578-48f5-9b54-b82f7d0855a7","ios":"levelo://app?vid=7dd6cbca-c578-48f5-9b54-b82f7d0855a7"},"vehicle_type_id":"4","last_reported":1762366559,"current_range_meters":10000,"station_id":"ce4bhhp2rcd13ifvqfm0","pricing_plan_id":"cebpf4jnsgd1na2vs0mg"},{"bike_id":"f44be6ba-3236-4220-a5d8-244fcb4f6ab1","system_id":"levelo_inurba_marseille","lat":43.25678,"lon":5.41945,"is_reserved":false,"is_disabled":false,"rental_uris":{"android":"levelo://app?vid=f44be6ba-3236-4220-a5d8-244fcb4f6ab1","ios":"levelo://app?vid=f44be6ba-3236-4220-a5d8-244fcb4f6ab1"},"vehicle_type_id":"4","last_reported":1762366559,"current_range_meters":10000,"station_id":"","pricing_plan_id":"cebpf4jnsgd1na2vs0mg"},{"bike_id":"d4dd6511-4dd4-439e-b285-f9df54431fe8","system_id":"levelo_inurba_marseille","lat":43.2853,"lon":5.44097,"is_reserved":false,"is_disabled":false,"rental_uris":{"android":"levelo://app?vid=d4dd6511-4dd4-439e-b285-f9df54431fe8","ios":"levelo://app?vid=d4dd6511-4dd4-439e-b285-f9df54431fe8"},"vehicle_type_id":"4","last_reported":1762366559,"current_range_meters":10000,"station_id":"st_d3j3df2ikq2c7380ej80","pricing_plan_id":"cebpf4jnsgd1na2vs0mg"},{"bike_id":"4b24dbba-41a5-4ecf-ade9-ac15d69f3a39","system_id":"levelo_inurba_marseille","lat":43.30277,"lon":5.37689,"is_reserved":false,"is_disabled":false,"rental_uris":{"android":"levelo://app?vid=4b24dbba-41a5-4ecf-ade9-ac15d69f3a39","ios":"levelo://app?vid=4b24dbba-41a5-4ecf-ade9-ac15d69f3a39"},"vehicle_type_id":"4","last_reported":1762366559,"current_range_meters":10800,"station_id":"ce4bguh2rcd13ifvqcj0","pricing_plan_id":"cebpf4jnsgd1na2vs0mg"},{"bike_id":"1dfba3a2-d473-4658-bff1-34784cb71114","system_id":"levelo_inurba_marseille","lat":43.29517,"lon":5.394,"is_reserved":false,"is_disabled":false,"rental_uris":{"android":"levelo://app?vid=1dfba3a2-d473-4658-bff1-34784cb71114","ios":"levelo://app?vid=1dfba3a2-d473-4658-bff1-34784cb71114"},"vehicle_type_id":"4","last_reported":1762366559,"current_range_meters":10800,"station_id":"ce4bh292rcd13ifvqdf0","pricing_plan_id":"cebpf4jnsgd1na2vs0mg"},{"bike_id":"dceb4beb-6bb5-4225-ae7e-d3c4b9815bbe","system_id":"levelo_inurba_marseille","lat":43.284737,"lon":5.484112,"is_reserved":false,"is_disabled":false,"rental_uris":{"android":"levelo://app?vid=dceb4beb-6bb5-4225-ae7e-d3c4b9815bbe","ios":"levelo://app?vid=dceb4beb-6bb5-4225-ae7e-d3c4b9815bbe"},"vehicle_type_id":"4","last_reported":1762366559,"current_range_meters":10800,"station_id":"st_d3svhcjqgbts73a3dn0g","pricing_plan_id":"cebpf4jnsgd1na2vs0mg"},{"bike_id":"66f4831f-84aa-4c06-ab3e-a3cbe4ddbd20","system_id":"levelo_inurba_marseille","lat":43.23178,"lon":5.39983,"is_reserved":false,"is_disabled":false,"rental_uris":{"android":"levelo://app?vid=66f4831f-84aa-4c06-ab3e-a3cbe4ddbd20","ios":"levelo://app?vid=66f4831f-84aa-4c06-ab3e-a3cbe4ddbd20"},"vehicle_type_id":"4","last_reported":1762366559,"current_range_meters":10800,"station_id":"ce4bhn12rcd13ifvqgqg","pricing_plan_id":"cebpf4jnsgd1na2vs0mg"},{"bike_id":"7479cfee-6f68-4a59-afc8-ceca6b83dba4","system_id":"levelo_inurba_marseille","lat":43.255794,"lon":5.382191,"is_reserved":false,"is_disabled":false,"rental_uris":{"android":"levelo://app?vid=7479cfee-6f68-4a59-afc8-ceca6b83dba4","ios":"levelo://app?vid=7479cfee-6f68-4a59-afc8-ceca6b83dba4"},"vehicle_type_id":"4","last_reported":1762366559,"current_range_meters":10800,"station_id":"ce4bhih2rcd13ifvqfs0","pricing_plan_id":"cebpf4jnsgd1na2vs0mg"},{"bike_id":"965b2df6-47f8-473a-b1b9-fa07a2d4912c","system_id":"levelo_inurba_marseille","lat":43.288391,"lon":5.393301,"is_reserved":false,"is_disabled":false,"rental_uris":{"android":"levelo://app?vid=965b2df6-47f8-473a-b1b9-fa07a2d4912c","ios":"levelo://app?vid=965b2df6-47f8-473a-b1b9-fa07a2d4912c"},"vehicle_type_id":"4","last_reported":1762366559,"current_range_meters":10800,"station_id":"ce4bh0p2rcd13ifvqd80","pricing_plan_id":"cebpf4jnsgd1na2vs0mg"},{"bike_id":"765b9661-2b24-4c0f-a9fb-732d7409b10c","system_id":"levelo_inurba_marseille","lat":43.21618,"lon":5.34433,"is_reserved":false,"is_disabled":false,"rental_uris":{"android":"levelo://app?vid=765b9661-2b24-4c0f-a9fb-732d7409b10c","ios":"levelo://app?vid=765b9661-2b24-4c0f-a9fb-732d7409b10c"},"vehicle_type_id":"4","last_reported":1762366559,"current_range_meters":10800,"station_id":"","pricing_plan_id":"cebpf4jnsgd1na2vs0mg"},{"bike_id":"7ae8f771-a76d-4651-aa53-124bad329e8b","system_id":"levelo_inurba_marseille","lat":43.30179,"lon":5.36592,"is_reserved":false,"is_disabled":false,"rental_uris":{"android":"levelo://app?vid=7ae8f771-a76d-4651-aa53-124bad329e8b","ios":"levelo://app?vid=7ae8f771-a76d-4651-aa53-124bad329e8b"},"vehicle_type_id":"4","last_reported":1762366559,"current_range_meters":10800,"station_id":"ce4bgrh2rcd13ifvqc8g","pricing_plan_id":"cebpf4jnsgd1na2vs0mg"},{"bike_id":"7c8c77e6-611f-4f5e-8374-da326e1729a3","system_id":"levelo_inurba_marseille","lat":43.29818,"lon":5.44058,"is_reserved":false,"is_disabled":false,"rental_uris":{"android":"levelo://app?vid=7c8c77e6-611f-4f5e-8374-da326e1729a3","ios":"levelo://app?vid=7c8c77e6-611f-4f5e-8374-da326e1729a3"},"vehicle_type_id":"4","last_reported":1762366559,"current_range_meters":10800,"station_id":"st_d3jp68qikq2c7381ktn0","pricing_plan_id":"cebpf4jnsgd1na2vs0mg"},{"bike_id":"e7002296-a724-4792-9c77-9aa7da662e7d","system_id":"levelo_inurba_marseille","lat":43.29752,"lon":5.36248,"is_reserved":false,"is_disabled":false,"rental_uris":{"android":"levelo://app?vid=e7002296-a724-4792-9c77-9aa7da662e7d","ios":"levelo://app?vid=e7002296-a724-4792-9c77-9aa7da662e7d"},"vehicle_type_id":"4","last_reported":1762366559,"current_range_meters":10800,"station_id":"","pricing_plan_id":"cebpf4jnsgd1na2vs0mg"},{"bike_id":"75a0e7d0-a4d6-4f7c-adce-b5f633c7cb4f","system_id":"levelo_inurba_marseille","lat":43.30595,"lon":5.37231,"is_reserved":false,"is_disabled":true,"rental_uris":{"android":"levelo://app?vid=75a0e7d0-a4d6-4f7c-adce-b5f633c7cb4f","ios":"levelo://app?vid=75a0e7d0-a4d6-4f7c-adce-b5f633c7cb4f"},"vehicle_type_id":"4","last_reported":1762366559,"current_range_meters":11200,"station_id":"ce4bgqh2rcd13ifvqc4g","pricing_plan_id":"cebpf4jnsgd1na2vs0mg"},{"bike_id":"b6ca4410-31f2-4bfa-a6d3-2f0a4f6b5118","system_id":"levelo_inurba_marseille","lat":43.292601,"lon":5.384332,"is_reserved":false,"is_disabled":true,"rental_uris":{"android":"levelo://app?vid=b6ca4410-31f2-4bfa-a6d3-2f0a4f6b5118","ios":"levelo://app?vid=b6ca4410-31f2-4bfa-a6d3-2f0a4f6b5118"},"vehicle_type_id":"4","last_reported":1762366559,"current_range_meters":11200,"station_id":"ce4bh692rcd13ifvqea0","pricing_plan_id":"cebpf4jnsgd1na2vs0mg"},{"bike_id":"cb87b9e0-8679-475b-a9fe-2a02324807a0","system_id":"levelo_inurba_marseille","lat":43.24994,"lon":5.38935,"is_reserved":false,"is_disabled":false,"rental_uris":{"android":"levelo://app?vid=cb87b9e0-8679-475b-a9fe-2a02324807a0","ios":"levelo://app?vid=cb87b9e0-8679-475b-a9fe-2a02324807a0"},"vehicle_type_id":"4","last_reported":1762366559,"current_range_meters":11200,"station_id":"ce4bhgp2rcd13ifvqfd0","pricing_plan_id":"cebpf4jnsgd1na2vs0mg"},{"bike_id":"13d984c8-48d8-4dfc-aa86-5f78c707cacf","system_id":"levelo_inurba_marseille","lat":43.28032,"lon":5.36945,"is_reserved":false,"is_disabled":true,"rental_uris":{"android":"levelo://app?vid=13d984c8-48d8-4dfc-aa86-5f78c707cacf","ios":"levelo://app?vid=13d984c8-48d8-4dfc-aa86-5f78c707cacf"},"vehicle_type_id":"4","last_reported":1762366559,"current_range_meters":11200,"station_id":"ce4bha12rcd13ifvqef0","pricing_plan_id":"cebpf4jnsgd1na2vs0mg"},{"bike_id":"e2104b6a-7e12-4a20-ae1b-cf4b446d5e26","system_id":"levelo_inurba_marseille","lat":43.28478,"lon":5.48401,"is_reserved":false,"is_disabled":false,"rental_uris":{"android":"levelo://app?vid=e2104b6a-7e12-4a20-ae1b-cf4b446d5e26","ios":"levelo://app?vid=e2104b6a-7e12-4a20-ae1b-cf4b446d5e26"},"vehicle_type_id":"4","last_reported":1762366559,"current_range_meters":11200,"station_id":"st_d3svhcjqgbts73a3dn0g","pricing_plan_id":"cebpf4jnsgd1na2vs0mg"},{"bike_id":"d6f3ff38-a8a1-4aa3-9897-c0611ddbf273","system_id":"levelo_inurba_marseille","lat":43.29701,"lon":5.36616,"is_reserved":false,"is_disabled":false,"rental_uris":{"android":"levelo://app?vid=d6f3ff38-a8a1-4aa3-9897-c0611ddbf273","ios":"levelo://app?vid=d6f3ff38-a8a1-4aa3-9897-c0611ddbf273"},"vehicle_type_id":"4","last_reported":1762366559,"current_range_meters":11200,"station_id":"ce4bgn12rcd13ifvqbt0","pricing_plan_id":"cebpf4jnsgd1na2vs0mg"},{"bike_id":"ac3661dd-248f-4b92-ad04-1fbf8e5c6660","system_id":"levelo_inurba_marseille","lat":43.28035,"lon":5.36933,"is_reserved":false,"is_disabled":true,"rental_uris":{"android":"levelo://app?vid=ac3661dd-248f-4b92-ad04-1fbf8e5c6660","ios":"levelo://app?vid=ac3661dd-248f-4b92-ad04-1fbf8e5c6660"},"vehicle_type_id":"4","last_reported":1762366559,"current_range_meters":11200,"station_id":"ce4bha12rcd13ifvqef0","pricing_plan_id":"cebpf4jnsgd1na2vs0mg"},{"bike_id":"d738b14d-2cbc-471a-9a79-074a1db975c9","system_id":"levelo_inurba_marseille","lat":43.28264,"lon":5.35056,"is_reserved":false,"is_disabled":false,"rental_uris":{"android":"levelo://app?vid=d738b14d-2cbc-471a-9a79-074a1db975c9","ios":"levelo://app?vid=d738b14d-2cbc-471a-9a79-074a1db975c9"},"vehicle_type_id":"4","last_reported":1762366559,"current_range_meters":11600,"station_id":"ce4bhbp2rcd13ifvqerg","pricing_plan_id":"cebpf4jnsgd1na2vs0mg"},{"bike_id":"e458a04e-8648-405c-ad83-b53d61f3e64a","system_id":"levelo_inurba_marseille","lat":43.22929,"lon":5.35378,"is_reserved":false,"is_disabled":false,"rental_uris":{"android":"levelo://app?vid=e458a04e-8648-405c-ad83-b53d61f3e64a","ios":"levelo://app?vid=e458a04e-8648-405c-ad83-b53d61f3e64a"},"vehicle_type_id":"4","last_reported":1762366559,"current_range_meters":11600,"station_id":"cpo3532slgdg3j2ikp40","pricing_plan_id":"cebpf4jnsgd1na2vs0mg"},{"bike_id":"a08cdfa2-a219-47b3-864f-ca1224c515f2","system_id":"levelo_inurba_marseille","lat":43.28095,"lon":5.37837,"is_reserved":false,"is_disabled":false,"rental_uris":{"android":"levelo://app?vid=a08cdfa2-a219-47b3-864f-ca1224c515f2","ios":"levelo://app?vid=a08cdfa2-a219-47b3-864f-ca1224c515f2"},"vehicle_type_id":"4","last_reported":1762366559,"current_range_meters":11600,"station_id":"ce4bha12rcd13ifvqee0","pricing_plan_id":"cebpf4jnsgd1na2vs0mg"},{"bike_id":"8f5c5e28-dca5-4cf0-8947-a5cfbda88464","system_id":"levelo_inurba_marseille","lat":43.2319,"lon":5.39984,"is_reserved":false,"is_disabled":false,"rental_uris":{"android":"levelo://app?vid=8f5c5e28-dca5-4cf0-8947-a5cfbda88464","ios":"levelo://app?vid=8f5c5e28-dca5-4cf0-8947-a5cfbda88464"},"vehicle_type_id":"4","last_reported":1762366559,"current_range_meters":11600,"station_id":"ce4bhn12rcd13ifvqgqg","pricing_plan_id":"cebpf4jnsgd1na2vs0mg"},{"bike_id":"8390cc25-302e-4848-9eeb-54ee31dd6fc5","system_id":"levelo_inurba_marseille","lat":43.28412,"lon":5.37527,"is_reserved":false,"is_disabled":false,"rental_uris":{"android":"levelo://app?vid=8390cc25-302e-4848-9eeb-54ee31dd6fc5","ios":"levelo://app?vid=8390cc25-302e-4848-9eeb-54ee31dd6fc5"},"vehicle_type_id":"4","last_reported":1762366559,"current_range_meters":11600,"station_id":"ce4bh412rcd13ifvqds0","pricing_plan_id":"cebpf4jnsgd1na2vs0mg"},{"bike_id":"629ef9f6-1c95-48e2-9094-bf1a2834248d","system_id":"levelo_inurba_marseille","lat":43.29522,"lon":5.39039,"is_reserved":false,"is_disabled":false,"rental_uris":{"android":"levelo://app?vid=629ef9f6-1c95-48e2-9094-bf1a2834248d","ios":"levelo://app?vid=629ef9f6-1c95-48e2-9094-bf1a2834248d"},"vehicle_type_id":"4","last_reported":1762366559,"current_range_meters":12000,"station_id":"ce4bh3p2rcd13ifvqdp0","pricing_plan_id":"cebpf4jnsgd1na2vs0mg"},{"bike_id":"a95d2b5f-93c8-486d-9b1c-ccfb1963b4a9","system_id":"levelo_inurba_marseille","lat":43.30895,"lon":5.37184,"is_reserved":false,"is_disabled":false,"rental_uris":{"android":"levelo://app?vid=a95d2b5f-93c8-486d-9b1c-ccfb1963b4a9","ios":"levelo://app?vid=a95d2b5f-93c8-486d-9b1c-ccfb1963b4a9"},"vehicle_type_id":"4","last_reported":1762366559,"current_range_meters":12000,"station_id":"ce4bguh2rcd13ifvqckg","pricing_plan_id":"cebpf4jnsgd1na2vs0mg"},{"bike_id":"359c0f3a-4e42-42b5-8ca9-4a59256db590","system_id":"levelo_inurba_marseille","lat":43.29256,"lon":5.38452,"is_reserved":false,"is_disabled":false,"rental_uris":{"android":"levelo://app?vid=359c0f3a-4e42-42b5-8ca9-4a59256db590","ios":"levelo://app?vid=359c0f3a-4e42-42b5-8ca9-4a59256db590"},"vehicle_type_id":"4","last_reported":1762366559,"current_range_meters":12000,"station_id":"ce4bh692rcd13ifvqea0","pricing_plan_id":"cebpf4jnsgd1na2vs0mg"},{"bike_id":"e881da7f-4618-457e-a745-347be0b7e3c4","system_id":"levelo_inurba_marseille","lat":43.313633,"lon":5.384894,"is_reserved":false,"is_disabled":false,"rental_uris":{"android":"levelo://app?vid=e881da7f-4618-457e-a745-347be0b7e3c4","ios":"levelo://app?vid=e881da7f-4618-457e-a745-347be0b7e3c4"},"vehicle_type_id":"4","last_reported":1762366559,"current_range_meters":12000,"station_id":"ce4bgt92rcd13ifvqcf0","pricing_plan_id":"cebpf4jnsgd1na2vs0mg"},{"bike_id":"b1393d54-d42e-4ed1-a672-cbb503620a84","system_id":"levelo_inurba_marseille","lat":43.29025,"lon":5.38643,"is_reserved":false,"is_disabled":false,"rental_uris":{"android":"levelo://app?vid=b1393d54-d42e-4ed1-a672-cbb503620a84","ios":"levelo://app?vid=b1393d54-d42e-4ed1-a672-cbb503620a84"},"vehicle_type_id":"4","last_reported":1762366559,"current_range_meters":12000,"station_id":"ce4bh4p2rcd13ifvqe0g","pricing_plan_id":"cebpf4jnsgd1na2vs0mg"},{"bike_id":"0950685d-ad5e-48d9-b370-cc57fc616866","system_id":"levelo_inurba_marseille","lat":43.26563,"lon":5.40327,"is_reserved":false,"is_disabled":false,"rental_uris":{"android":"levelo://app?vid=0950685d-ad5e-48d9-b370-cc57fc616866","ios":"levelo://app?vid=0950685d-ad5e-48d9-b370-cc57fc616866"},"vehicle_type_id":"4","last_reported":1762366559,"current_range_meters":12000,"station_id":"ce4bhmp2rcd13ifvqgng","pricing_plan_id":"cebpf4jnsgd1na2vs0mg"},{"bike_id":"a9e26923-eeba-4866-942e-ccb5a787a04c","system_id":"levelo_inurba_marseille","lat":43.29795,"lon":5.40408,"is_reserved":false,"is_disabled":false,"rental_uris":{"android":"levelo://app?vid=a9e26923-eeba-4866-942e-ccb5a787a04c","ios":"levelo://app?vid=a9e26923-eeba-4866-942e-ccb5a787a04c"},"vehicle_type_id":"4","last_reported":1762366559,"current_range_meters":12400,"station_id":"ce4bh112rcd13ifvqd90","pricing_plan_id":"cebpf4jnsgd1na2vs0mg"},{"bike_id":"571bd3a6-912b-44a3-9841-50c558a61481","system_id":"levelo_inurba_marseille","lat":43.2812,"lon":5.40598,"is_reserved":false,"is_disabled":false,"rental_uris":{"android":"levelo://app?vid=571bd3a6-912b-44a3-9841-50c558a61481","ios":"levelo://app?vid=571bd3a6-912b-44a3-9841-50c558a61481"},"vehicle_type_id":"4","last_reported":1762366559,"current_range_meters":12400,"station_id":"","pricing_plan_id":"cebpf4jnsgd1na2vs0mg"},{"bike_id":"dae30738-204c-4787-a9b5-e056fa94e0c9","system_id":"levelo_inurba_marseille","lat":43.22571,"lon":5.41632,"is_reserved":false,"is_disabled":false,"rental_uris":{"android":"levelo://app?vid=dae30738-204c-4787-a9b5-e056fa94e0c9","ios":"levelo://app?vid=dae30738-204c-4787-a9b5-e056fa94e0c9"},"vehicle_type_id":"4","last_reported":1762366559,"current_range_meters":12400,"station_id":"st_d2o4gvlbi1j2169b742g","pricing_plan_id":"cebpf4jnsgd1na2vs0mg"},{"bike_id":"ab9b2bcc-ea75-449d-adbb-4add292d38c4","system_id":"levelo_inurba_marseille","lat":43.34093,"lon":5.38017,"is_reserved":false,"is_disabled":false,"rental_uris":{"android":"levelo://app?vid=ab9b2bcc-ea75-449d-adbb-4add292d38c4","ios":"levelo://app?vid=ab9b2bcc-ea75-449d-adbb-4add292d38c4"},"vehicle_type_id":"4","last_reported":1762366559,"current_range_meters":12400,"station_id":"","pricing_plan_id":"cebpf4jnsgd1na2vs0mg"},{"bike_id":"8165fe4a-bb37-4e89-89a8-1c726b86fd4b","system_id":"levelo_inurba_marseille","lat":43.26962,"lon":5.38629,"is_reserved":false,"is_disabled":false,"rental_uris":{"android":"levelo://app?vid=8165fe4a-bb37-4e89-89a8-1c726b86fd4b","ios":"levelo://app?vid=8165fe4a-bb37-4e89-89a8-1c726b86fd4b"},"vehicle_type_id":"4","last_reported":1762366559,"current_range_meters":12400,"station_id":"ce4bhh92rcd13ifvqfh0","pricing_plan_id":"cebpf4jnsgd1na2vs0mg"},{"bike_id":"42ec1911-60d7-471a-a63f-881fc82a01dd","system_id":"levelo_inurba_marseille","lat":43.280154,"lon":5.400427,"is_reserved":false,"is_disabled":false,"rental_uris":{"android":"levelo://app?vid=42ec1911-60d7-471a-a63f-881fc82a01dd","ios":"levelo://app?vid=42ec1911-60d7-471a-a63f-881fc82a01dd"},"vehicle_type_id":"4","last_reported":1762366559,"current_range_meters":12800,"station_id":"ce4bho92rcd13ifvqh4g","pricing_plan_id":"cebpf4jnsgd1na2vs0mg"},{"bike_id":"3759964f-4442-4a33-ac7f-d123477a41ef","system_id":"levelo_inurba_marseille","lat":43.25338,"lon":5.42172,"is_reserved":false,"is_disabled":false,"rental_uris":{"android":"levelo://app?vid=3759964f-4442-4a33-ac7f-d123477a41ef","ios":"levelo://app?vid=3759964f-4442-4a33-ac7f-d123477a41ef"},"vehicle_type_id":"4","last_reported":1762366559,"current_range_meters":12800,"station_id":"st_d2m65c5bi1j21697t3ng","pricing_plan_id":"cebpf4jnsgd1na2vs0mg"},{"bike_id":"7d8ae923-0a59-4da4-90f3-109757a0d291","system_id":"levelo_inurba_marseille","lat":43.309874,"lon":5.396465,"is_reserved":false,"is_disabled":false,"rental_uris":{"android":"levelo://app?vid=7d8ae923-0a59-4da4-90f3-109757a0d291","ios":"levelo://app?vid=7d8ae923-0a59-4da4-90f3-109757a0d291"},"vehicle_type_id":"4","last_reported":1762366559,"current_range_meters":12800,"station_id":"ce4bgvp2rcd13ifvqcu0","pricing_plan_id":"cebpf4jnsgd1na2vs0mg"},{"bike_id":"ace75f8c-c3e3-4b33-9dfb-5363ca9ba92a","system_id":"levelo_inurba_marseille","lat":43.31113,"lon":5.37766,"is_reserved":false,"is_disabled":false,"rental_uris":{"android":"levelo://app?vid=ace75f8c-c3e3-4b33-9dfb-5363ca9ba92a","ios":"levelo://app?vid=ace75f8c-c3e3-4b33-9dfb-5363ca9ba92a"},"vehicle_type_id":"4","last_reported":1762366559,"current_range_meters":12800,"station_id":"ce4bgt92rcd13ifvqcg0","pricing_plan_id":"cebpf4jnsgd1na2vs0mg"},{"bike_id":"bff59efe-1231-4b69-aee4-c45401bb4097","system_id":"levelo_inurba_marseille","lat":43.28101,"lon":5.37831,"is_reserved":false,"is_disabled":false,"rental_uris":{"android":"levelo://app?vid=bff59efe-1231-4b69-aee4-c45401bb4097","ios":"levelo://app?vid=bff59efe-1231-4b69-aee4-c45401bb4097"},"vehicle_type_id":"4","last_reported":1762366559,"current_range_meters":12800,"station_id":"ce4bha12rcd13ifvqee0","pricing_plan_id":"cebpf4jnsgd1na2vs0mg"},{"bike_id":"c0f559ad-1aca-4bc3-bd31-d4c416944960","system_id":"levelo_inurba_marseille","lat":43.25867,"lon":5.39896,"is_reserved":false,"is_disabled":false,"rental_uris":{"android":"levelo://app?vid=c0f559ad-1aca-4bc3-bd31-d4c416944960","ios":"levelo://app?vid=c0f559ad-1aca-4bc3-bd31-d4c416944960"},"vehicle_type_id":"4","last_reported":1762366559,"current_range_meters":12800,"station_id":"ce4bhl92rcd13ifvqghg","pricing_plan_id":"cebpf4jnsgd1na2vs0mg"},{"bike_id":"6aaa5b7e-efe2-445a-9c69-83d5ad00f22d","system_id":"levelo_inurba_marseille","lat":43.30145,"lon":5.38076,"is_reserved":false,"is_disabled":false,"rental_uris":{"android":"levelo://app?vid=6aaa5b7e-efe2-445a-9c69-83d5ad00f22d","ios":"levelo://app?vid=6aaa5b7e-efe2-445a-9c69-83d5ad00f22d"},"vehicle_type_id":"4","last_reported":1762366559,"current_range_meters":12800,"station_id":"ce4bgjp2rcd13ifvqbh0","pricing_plan_id":"cebpf4jnsgd1na2vs0mg"},{"bike_id":"761b4093-e9a9-4035-8bc4-55a8ef848908","system_id":"levelo_inurba_marseille","lat":43.27621,"lon":5.36104,"is_reserved":false,"is_disabled":false,"rental_uris":{"android":"levelo://app?vid=761b4093-e9a9-4035-8bc4-55a8ef848908","ios":"levelo://app?vid=761b4093-e9a9-4035-8bc4-55a8ef848908"},"vehicle_type_id":"4","last_reported":1762366559,"current_range_meters":13600,"station_id":"ce4bgj92rcd13ifvqbe0","pricing_plan_id":"cebpf4jnsgd1na2vs0mg"},{"bike_id":"8db420a7-407a-4cd3-9095-5a8e96625979","system_id":"levelo_inurba_marseille","lat":43.22933,"lon":5.35365,"is_reserved":false,"is_disabled":false,"rental_uris":{"android":"levelo://app?vid=8db420a7-407a-4cd3-9095-5a8e96625979","ios":"levelo://app?vid=8db420a7-407a-4cd3-9095-5a8e96625979"},"vehicle_type_id":"4","last_reported":1762366559,"current_range_meters":13600,"station_id":"cpo3532slgdg3j2ikp40","pricing_plan_id":"cebpf4jnsgd1na2vs0mg"},{"bike_id":"b7d944cf-c4bb-455b-ad46-377fc384ad53","system_id":"levelo_inurba_marseille","lat":43.28457,"lon":5.35885,"is_reserved":false,"is_disabled":false,"rental_uris":{"android":"levelo://app?vid=b7d944cf-c4bb-455b-ad46-377fc384ad53","ios":"levelo://app?vid=b7d944cf-c4bb-455b-ad46-377fc384ad53"},"vehicle_type_id":"4","last_reported":1762366559,"current_range_meters":13600,"station_id":"ce4bhah2rcd13ifvqei0","pricing_plan_id":"cebpf4jnsgd1na2vs0mg"},{"bike_id":"94b06f3e-9c43-404e-899a-d1e48d6d7a76","system_id":"levelo_inurba_marseille","lat":43.287102,"lon":5.399967,"is_reserved":false,"is_disabled":false,"rental_uris":{"android":"levelo://app?vid=94b06f3e-9c43-404e-899a-d1e48d6d7a76","ios":"levelo://app?vid=94b06f3e-9c43-404e-899a-d1e48d6d7a76"},"vehicle_type_id":"4","last_reported":1762366559,"current_range_meters":14000,"station_id":"ce4bho92rcd13ifvqh3g","pricing_plan_id":"cebpf4jnsgd1na2vs0mg"},{"bike_id":"bcb3c39b-ec48-48ef-9eac-eb8b71840959","system_id":"levelo_inurba_marseille","lat":43.33757,"lon":5.37464,"is_reserved":false,"is_disabled":false,"rental_uris":{"android":"levelo://app?vid=bcb3c39b-ec48-48ef-9eac-eb8b71840959","ios":"levelo://app?vid=bcb3c39b-ec48-48ef-9eac-eb8b71840959"},"vehicle_type_id":"4","last_reported":1762366559,"current_range_meters":14000,"station_id":"","pricing_plan_id":"cebpf4jnsgd1na2vs0mg"},{"bike_id":"813d84df-d28e-442a-86a4-2693a3f1117d","system_id":"levelo_inurba_marseille","lat":43.230505,"lon":5.354915,"is_reserved":false,"is_disabled":false,"rental_uris":{"android":"levelo://app?vid=813d84df-d28e-442a-86a4-2693a3f1117d","ios":"levelo://app?vid=813d84df-d28e-442a-86a4-2693a3f1117d"},"vehicle_type_id":"4","last_reported":1762366559,"current_range_meters":14000,"station_id":"cpo3342slgdg3j2ifvpg","pricing_plan_id":"cebpf4jnsgd1na2vs0mg"},{"bike_id":"d3f934d8-97cb-4416-93fd-f748c8c54459","system_id":"levelo_inurba_marseille","lat":43.24384,"lon":5.3705,"is_reserved":false,"is_disabled":false,"rental_uris":{"android":"levelo://app?vid=d3f934d8-97cb-4416-93fd-f748c8c54459","ios":"levelo://app?vid=d3f934d8-97cb-4416-93fd-f748c8c54459"},"vehicle_type_id":"4","last_reported":1762366559,"current_range_meters":14000,"station_id":"ce4bhhh2rcd13ifvqfk0","pricing_plan_id":"cebpf4jnsgd1na2vs0mg"},{"bike_id":"c14b70b2-98d4-4848-a2d9-32722b8d1daf","system_id":"levelo_inurba_marseille","lat":43.32141,"lon":5.36754,"is_reserved":false,"is_disabled":false,"rental_uris":{"android":"levelo://app?vid=c14b70b2-98d4-4848-a2d9-32722b8d1daf","ios":"levelo://app?vid=c14b70b2-98d4-4848-a2d9-32722b8d1daf"},"vehicle_type_id":"4","last_reported":1762366559,"current_range_meters":14000,"station_id":"","pricing_plan_id":"cebpf4jnsgd1na2vs0mg"},{"bike_id":"42d2792a-88bd-48e5-afe0-4b6400cd337a","system_id":"levelo_inurba_marseille","lat":43.31702,"lon":5.38216,"is_reserved":false,"is_disabled":false,"rental_uris":{"android":"levelo://app?vid=42d2792a-88bd-48e5-afe0-4b6400cd337a","ios":"levelo://app?vid=42d2792a-88bd-48e5-afe0-4b6400cd337a"},"vehicle_type_id":"4","last_reported":1762366559,"current_range_meters":14000,"station_id":"","pricing_plan_id":"cebpf4jnsgd1na2vs0mg"},{"bike_id":"38bb7674-5179-4416-bfc2-d899cdde4476","system_id":"levelo_inurba_marseille","lat":43.2923,"lon":5.36077,"is_reserved":false,"is_disabled":false,"rental_uris":{"android":"levelo://app?vid=38bb7674-5179-4416-bfc2-d899cdde4476","ios":"levelo://app?vid=38bb7674-5179-4416-bfc2-d899cdde4476"},"vehicle_type_id":"4","last_reported":1762366559,"current_range_meters":14000,"station_id":"ce4bhbh2rcd13ifvqeqg","pricing_plan_id":"cebpf4jnsgd1na2vs0mg"},{"bike_id":"c3cd6b04-e9ba-4cc9-a618-8f38ef91fd0d","system_id":"levelo_inurba_marseille","lat":43.292604,"lon":5.384399,"is_reserved":false,"is_disabled":false,"rental_uris":{"android":"levelo://app?vid=c3cd6b04-e9ba-4cc9-a618-8f38ef91fd0d","ios":"levelo://app?vid=c3cd6b04-e9ba-4cc9-a618-8f38ef91fd0d"},"vehicle_type_id":"4","last_reported":1762366559,"current_range_meters":14000,"station_id":"ce4bh692rcd13ifvqea0","pricing_plan_id":"cebpf4jnsgd1na2vs0mg"},{"bike_id":"81dcc136-dea2-46c0-98af-42dbdee92b54","system_id":"levelo_inurba_marseille","lat":43.28478,"lon":5.484115,"is_reserved":false,"is_disabled":false,"rental_uris":{"android":"levelo://app?vid=81dcc136-dea2-46c0-98af-42dbdee92b54","ios":"levelo://app?vid=81dcc136-dea2-46c0-98af-42dbdee92b54"},"vehicle_type_id":"4","last_reported":1762366559,"current_range_meters":14000,"station_id":"","pricing_plan_id":"cebpf4jnsgd1na2vs0mg"},{"bike_id":"cff64f4e-5f37-43ea-ae7e-1ca574864a38","system_id":"levelo_inurba_marseille","lat":43.32476,"lon":5.42826,"is_reserved":false,"is_disabled":false,"rental_uris":{"android":"levelo://app?vid=cff64f4e-5f37-43ea-ae7e-1ca574864a38","ios":"levelo://app?vid=cff64f4e-5f37-43ea-ae7e-1ca574864a38"},"vehicle_type_id":"4","last_reported":1762366559,"current_range_meters":14400,"station_id":"","pricing_plan_id":"cebpf4jnsgd1na2vs0mg"},{"bike_id":"7a037b5d-f23a-4081-b1d1-e604de3ca482","system_id":"levelo_inurba_marseille","lat":43.272071,"lon":5.391906,"is_reserved":false,"is_disabled":false,"rental_uris":{"android":"levelo://app?vid=7a037b5d-f23a-4081-b1d1-e604de3ca482","ios":"levelo://app?vid=7a037b5d-f23a-4081-b1d1-e604de3ca482"},"vehicle_type_id":"4","last_reported":1762366559,"current_range_meters":14400,"station_id":"ce4bhhp2rcd13ifvqfm0","pricing_plan_id":"cebpf4jnsgd1na2vs0mg"},{"bike_id":"8f59ffbd-b024-4504-a6d8-dcc1194085c8","system_id":"levelo_inurba_marseille","lat":43.24818,"lon":5.4004,"is_reserved":false,"is_disabled":false,"rental_uris":{"android":"levelo://app?vid=8f59ffbd-b024-4504-a6d8-dcc1194085c8","ios":"levelo://app?vid=8f59ffbd-b024-4504-a6d8-dcc1194085c8"},"vehicle_type_id":"4","last_reported":1762366559,"current_range_meters":14400,"station_id":"","pricing_plan_id":"cebpf4jnsgd1na2vs0mg"},{"bike_id":"89668189-b95b-43c4-a0b4-cad5f1f90638","system_id":"levelo_inurba_marseille","lat":43.30135,"lon":5.38104,"is_reserved":false,"is_disabled":true,"rental_uris":{"android":"levelo://app?vid=89668189-b95b-43c4-a0b4-cad5f1f90638","ios":"levelo://app?vid=89668189-b95b-43c4-a0b4-cad5f1f90638"},"vehicle_type_id":"4","last_reported":1762366559,"current_range_meters":14400,"station_id":"ce4bgjp2rcd13ifvqbh0","pricing_plan_id":"cebpf4jnsgd1na2vs0mg"},{"bike_id":"05494d81-4a86-4ffa-98b4-159d396ed055","system_id":"levelo_inurba_marseille","lat":43.31305,"lon":5.39675,"is_reserved":false,"is_disabled":false,"rental_uris":{"android":"levelo://app?vid=05494d81-4a86-4ffa-98b4-159d396ed055","ios":"levelo://app?vid=05494d81-4a86-4ffa-98b4-159d396ed055"},"vehicle_type_id":"4","last_reported":1762366559,"current_range_meters":14400,"station_id":"ce4bgvp2rcd13ifvqcu0","pricing_plan_id":"cebpf4jnsgd1na2vs0mg"},{"bike_id":"53654568-0e6f-4d38-8420-3756e6508ddd","system_id":"levelo_inurba_marseille","lat":43.28703,"lon":5.37375,"is_reserved":false,"is_disabled":false,"rental_uris":{"android":"levelo://app?vid=53654568-0e6f-4d38-8420-3756e6508ddd","ios":"levelo://app?vid=53654568-0e6f-4d38-8420-3756e6508ddd"},"vehicle_type_id":"4","last_reported":1762366559,"current_range_meters":14400,"station_id":"ce4bh3p2rcd13ifvqdq0","pricing_plan_id":"cebpf4jnsgd1na2vs0mg"},{"bike_id":"27aefe03-bbd2-43d3-8d72-3a7105da9194","system_id":"levelo_inurba_marseille","lat":43.31356,"lon":5.37911,"is_reserved":false,"is_disabled":false,"rental_uris":{"android":"levelo://app?vid=27aefe03-bbd2-43d3-8d72-3a7105da9194","ios":"levelo://app?vid=27aefe03-bbd2-43d3-8d72-3a7105da9194"},"vehicle_type_id":"4","last_reported":1762366559,"current_range_meters":14400,"station_id":"","pricing_plan_id":"cebpf4jnsgd1na2vs0mg"},{"bike_id":"8cf54d33-efb5-4166-8509-df2cb57488b1","system_id":"levelo_inurba_marseille","lat":43.33409,"lon":5.40051,"is_reserved":false,"is_disabled":false,"rental_uris":{"android":"levelo://app?vid=8cf54d33-efb5-4166-8509-df2cb57488b1","ios":"levelo://app?vid=8cf54d33-efb5-4166-8509-df2cb57488b1"},"vehicle_type_id":"4","last_reported":1762366559,"current_range_meters":14400,"station_id":"","pricing_plan_id":"cebpf4jnsgd1na2vs0mg"},{"bike_id":"8466283d-e832-4a55-9e75-f6c3ad76e054","system_id":"levelo_inurba_marseille","lat":43.29764,"lon":5.39341,"is_reserved":false,"is_disabled":false,"rental_uris":{"android":"levelo://app?vid=8466283d-e832-4a55-9e75-f6c3ad76e054","ios":"levelo://app?vid=8466283d-e832-4a55-9e75-f6c3ad76e054"},"vehicle_type_id":"4","last_reported":1762366559,"current_range_meters":14400,"station_id":"chh1huq6cuj3fo74tm60","pricing_plan_id":"cebpf4jnsgd1na2vs0mg"},{"bike_id":"86417ae6-b978-464d-9e2c-2168f28e7e5f","system_id":"levelo_inurba_marseille","lat":43.30535,"lon":5.36696,"is_reserved":false,"is_disabled":false,"rental_uris":{"android":"levelo://app?vid=86417ae6-b978-464d-9e2c-2168f28e7e5f","ios":"levelo://app?vid=86417ae6-b978-464d-9e2c-2168f28e7e5f"},"vehicle_type_id":"4","last_reported":1762366559,"current_range_meters":14800,"station_id":"ce4bgrp2rcd13ifvqc9g","pricing_plan_id":"cebpf4jnsgd1na2vs0mg"},{"bike_id":"332ea5f8-d8ad-4878-bba6-2a32605882e6","system_id":"levelo_inurba_marseille","lat":43.32107,"lon":5.36767,"is_reserved":false,"is_disabled":false,"rental_uris":{"android":"levelo://app?vid=332ea5f8-d8ad-4878-bba6-2a32605882e6","ios":"levelo://app?vid=332ea5f8-d8ad-4878-bba6-2a32605882e6"},"vehicle_type_id":"4","last_reported":1762366559,"current_range_meters":14800,"station_id":"ce4bhrh2rcd13ifvqhug","pricing_plan_id":"cebpf4jnsgd1na2vs0mg"},{"bike_id":"ca46fdbd-ac89-432a-9c58-507605a7d54c","system_id":"levelo_inurba_marseille","lat":43.29269,"lon":5.37629,"is_reserved":false,"is_disabled":false,"rental_uris":{"android":"levelo://app?vid=ca46fdbd-ac89-432a-9c58-507605a7d54c","ios":"levelo://app?vid=ca46fdbd-ac89-432a-9c58-507605a7d54c"},"vehicle_type_id":"4","last_reported":1762366559,"current_range_meters":14800,"station_id":"ce4bgi12rcd13ifvqb80","pricing_plan_id":"cebpf4jnsgd1na2vs0mg"},{"bike_id":"16e016b5-b049-4c6d-872a-b0101fa02820","system_id":"levelo_inurba_marseille","lat":43.27333,"lon":5.3908,"is_reserved":false,"is_disabled":false,"rental_uris":{"android":"levelo://app?vid=16e016b5-b049-4c6d-872a-b0101fa02820","ios":"levelo://app?vid=16e016b5-b049-4c6d-872a-b0101fa02820"},"vehicle_type_id":"4","last_reported":1762366559,"current_range_meters":14800,"station_id":"","pricing_plan_id":"cebpf4jnsgd1na2vs0mg"},{"bike_id":"1ed57939-50ae-49da-ab0b-4cafdf98615b","system_id":"levelo_inurba_marseille","lat":43.29529,"lon":5.38539,"is_reserved":false,"is_disabled":false,"rental_uris":{"android":"levelo://app?vid=1ed57939-50ae-49da-ab0b-4cafdf98615b","ios":"levelo://app?vid=1ed57939-50ae-49da-ab0b-4cafdf98615b"},"vehicle_type_id":"4","last_reported":1762366559,"current_range_meters":15200,"station_id":"ce4bgih2rcd13ifvqba0","pricing_plan_id":"cebpf4jnsgd1na2vs0mg"},{"bike_id":"a6010974-670e-49c0-b408-8e5fee4c2775","system_id":"levelo_inurba_marseille","lat":43.24169,"lon":5.36402,"is_reserved":false,"is_disabled":false,"rental_uris":{"android":"levelo://app?vid=a6010974-670e-49c0-b408-8e5fee4c2775","ios":"levelo://app?vid=a6010974-670e-49c0-b408-8e5fee4c2775"},"vehicle_type_id":"4","last_reported":1762366559,"current_range_meters":15200,"station_id":"cpo36qri1sfpv3e86is0","pricing_plan_id":"cebpf4jnsgd1na2vs0mg"},{"bike_id":"c174055a-5793-4272-ab43-bc9c47647071","system_id":"levelo_inurba_marseille","lat":43.29031,"lon":5.386313,"is_reserved":false,"is_disabled":false,"rental_uris":{"android":"levelo://app?vid=c174055a-5793-4272-ab43-bc9c47647071","ios":"levelo://app?vid=c174055a-5793-4272-ab43-bc9c47647071"},"vehicle_type_id":"4","last_reported":1762366559,"current_range_meters":15200,"station_id":"ce4bh4p2rcd13ifvqe0g","pricing_plan_id":"cebpf4jnsgd1na2vs0mg"},{"bike_id":"c0462bdf-2858-4914-a377-421987398d1e","system_id":"levelo_inurba_marseille","lat":43.30124,"lon":5.43109,"is_reserved":false,"is_disabled":false,"rental_uris":{"android":"levelo://app?vid=c0462bdf-2858-4914-a377-421987398d1e","ios":"levelo://app?vid=c0462bdf-2858-4914-a377-421987398d1e"},"vehicle_type_id":"4","last_reported":1762366559,"current_range_meters":15200,"station_id":"st_d3js3co5814s73ftftug","pricing_plan_id":"cebpf4jnsgd1na2vs0mg"},{"bike_id":"b7b486da-2012-4b70-a638-c6b58adbc89a","system_id":"levelo_inurba_marseille","lat":43.32289,"lon":5.38275,"is_reserved":false,"is_disabled":false,"rental_uris":{"android":"levelo://app?vid=b7b486da-2012-4b70-a638-c6b58adbc89a","ios":"levelo://app?vid=b7b486da-2012-4b70-a638-c6b58adbc89a"},"vehicle_type_id":"4","last_reported":1762366559,"current_range_meters":15200,"station_id":"ce4bhr12rcd13ifvqhqg","pricing_plan_id":"cebpf4jnsgd1na2vs0mg"},{"bike_id":"8cbfebfc-6d68-4b68-8270-d866ef29a005","system_id":"levelo_inurba_marseille","lat":43.295288,"lon":5.385316,"is_reserved":false,"is_disabled":false,"rental_uris":{"android":"levelo://app?vid=8cbfebfc-6d68-4b68-8270-d866ef29a005","ios":"levelo://app?vid=8cbfebfc-6d68-4b68-8270-d866ef29a005"},"vehicle_type_id":"4","last_reported":1762366559,"current_range_meters":15200,"station_id":"ce4bgih2rcd13ifvqba0","pricing_plan_id":"cebpf4jnsgd1na2vs0mg"},{"bike_id":"3cf19423-4f24-4709-adcb-e1ca70cf4cef","system_id":"levelo_inurba_marseille","lat":43.31698,"lon":5.40472,"is_reserved":false,"is_disabled":true,"rental_uris":{"android":"levelo://app?vid=3cf19423-4f24-4709-adcb-e1ca70cf4cef","ios":"levelo://app?vid=3cf19423-4f24-4709-adcb-e1ca70cf4cef"},"vehicle_type_id":"4","last_reported":1762366559,"current_range_meters":16000,"station_id":"ce4bh012rcd13ifvqd00","pricing_plan_id":"cebpf4jnsgd1na2vs0mg"},{"bike_id":"543d2670-64ef-4fef-bbdb-43f6995ed406","system_id":"levelo_inurba_marseille","lat":43.29869,"lon":5.39727,"is_reserved":false,"is_disabled":false,"rental_uris":{"android":"levelo://app?vid=543d2670-64ef-4fef-bbdb-43f6995ed406","ios":"levelo://app?vid=543d2670-64ef-4fef-bbdb-43f6995ed406"},"vehicle_type_id":"4","last_reported":1762366559,"current_range_meters":16000,"station_id":"ce4bh0h2rcd13ifvqd50","pricing_plan_id":"cebpf4jnsgd1na2vs0mg"},{"bike_id":"fb29aac8-2a60-4004-9752-b457a9175a6b","system_id":"levelo_inurba_marseille","lat":43.31115,"lon":5.37762,"is_reserved":false,"is_disabled":false,"rental_uris":{"android":"levelo://app?vid=fb29aac8-2a60-4004-9752-b457a9175a6b","ios":"levelo://app?vid=fb29aac8-2a60-4004-9752-b457a9175a6b"},"vehicle_type_id":"4","last_reported":1762366559,"current_range_meters":16000,"station_id":"ce4bgt92rcd13ifvqcg0","pricing_plan_id":"cebpf4jnsgd1na2vs0mg"},{"bike_id":"ae2796bf-6d79-4f83-9c59-5d6ddfed7a8b","system_id":"levelo_inurba_marseille","lat":43.25863,"lon":5.3989,"is_reserved":false,"is_disabled":false,"rental_uris":{"android":"levelo://app?vid=ae2796bf-6d79-4f83-9c59-5d6ddfed7a8b","ios":"levelo://app?vid=ae2796bf-6d79-4f83-9c59-5d6ddfed7a8b"},"vehicle_type_id":"4","last_reported":1762366559,"current_range_meters":16000,"station_id":"ce4bhl92rcd13ifvqghg","pricing_plan_id":"cebpf4jnsgd1na2vs0mg"},{"bike_id":"929999a6-b071-4278-81b4-e68a96607eec","system_id":"levelo_inurba_marseille","lat":43.2407,"lon":5.3775,"is_reserved":false,"is_disabled":false,"rental_uris":{"android":"levelo://app?vid=929999a6-b071-4278-81b4-e68a96607eec","ios":"levelo://app?vid=929999a6-b071-4278-81b4-e68a96607eec"},"vehicle_type_id":"4","last_reported":1762366559,"current_range_meters":16000,"station_id":"ce4bhnp2rcd13ifvqgvg","pricing_plan_id":"cebpf4jnsgd1na2vs0mg"},{"bike_id":"21605b8f-b646-401e-b4d8-8553bc91e5ca","system_id":"levelo_inurba_marseille","lat":43.27059,"lon":5.40248,"is_reserved":false,"is_disabled":false,"rental_uris":{"android":"levelo://app?vid=21605b8f-b646-401e-b4d8-8553bc91e5ca","ios":"levelo://app?vid=21605b8f-b646-401e-b4d8-8553bc91e5ca"},"vehicle_type_id":"4","last_reported":1762366559,"current_range_meters":16000,"station_id":"ce4bhk92rcd13ifvqgc0","pricing_plan_id":"cebpf4jnsgd1na2vs0mg"},{"bike_id":"318e74e9-821c-401c-81f0-1edb0d4f5335","system_id":"levelo_inurba_marseille","lat":43.26804,"lon":5.40268,"is_reserved":false,"is_disabled":false,"rental_uris":{"android":"levelo://app?vid=318e74e9-821c-401c-81f0-1edb0d4f5335","ios":"levelo://app?vid=318e74e9-821c-401c-81f0-1edb0d4f5335"},"vehicle_type_id":"4","last_reported":1762366559,"current_range_meters":16000,"station_id":"ce501612rcd8frsf0b60","pricing_plan_id":"cebpf4jnsgd1na2vs0mg"},{"bike_id":"e82ca2d9-1e53-4b5e-9b3f-caf66b025cad","system_id":"levelo_inurba_marseille","lat":43.283356,"lon":5.350356,"is_reserved":false,"is_disabled":false,"rental_uris":{"android":"levelo://app?vid=e82ca2d9-1e53-4b5e-9b3f-caf66b025cad","ios":"levelo://app?vid=e82ca2d9-1e53-4b5e-9b3f-caf66b025cad"},"vehicle_type_id":"4","last_reported":1762366559,"current_range_meters":16000,"station_id":"ce4bhq12rcd13ifvqhhg","pricing_plan_id":"cebpf4jnsgd1na2vs0mg"},{"bike_id":"40e478f4-3bb3-4c65-aa90-4564427c0f6f","system_id":"levelo_inurba_marseille","lat":43.296,"lon":5.380813,"is_reserved":false,"is_disabled":false,"rental_uris":{"android":"levelo://app?vid=40e478f4-3bb3-4c65-aa90-4564427c0f6f","ios":"levelo://app?vid=40e478f4-3bb3-4c65-aa90-4564427c0f6f"},"vehicle_type_id":"4","last_reported":1762366559,"current_range_meters":16400,"station_id":"ce4bgl12rcd13ifvqbo0","pricing_plan_id":"cebpf4jnsgd1na2vs0mg"},{"bike_id":"cfd5df77-d836-475c-8600-1d683440158d","system_id":"levelo_inurba_marseille","lat":43.30885,"lon":5.39647,"is_reserved":false,"is_disabled":false,"rental_uris":{"android":"levelo://app?vid=cfd5df77-d836-475c-8600-1d683440158d","ios":"levelo://app?vid=cfd5df77-d836-475c-8600-1d683440158d"},"vehicle_type_id":"4","last_reported":1762366559,"current_range_meters":16400,"station_id":"ce4bh012rcd13ifvqcv0","pricing_plan_id":"cebpf4jnsgd1na2vs0mg"},{"bike_id":"c6d2dafc-fb2c-4b82-8b78-f3d7d347211b","system_id":"levelo_inurba_marseille","lat":43.32378,"lon":5.36747,"is_reserved":false,"is_disabled":false,"rental_uris":{"android":"levelo://app?vid=c6d2dafc-fb2c-4b82-8b78-f3d7d347211b","ios":"levelo://app?vid=c6d2dafc-fb2c-4b82-8b78-f3d7d347211b"},"vehicle_type_id":"4","last_reported":1762366559,"current_range_meters":16400,"station_id":"ce4bhsh2rcd13ifvqi2g","pricing_plan_id":"cebpf4jnsgd1na2vs0mg"},{"bike_id":"d77a88e5-20b9-4fe1-89df-69baec122738","system_id":"levelo_inurba_marseille","lat":43.29748,"lon":5.38075,"is_reserved":false,"is_disabled":false,"rental_uris":{"android":"levelo://app?vid=d77a88e5-20b9-4fe1-89df-69baec122738","ios":"levelo://app?vid=d77a88e5-20b9-4fe1-89df-69baec122738"},"vehicle_type_id":"4","last_reported":1762366559,"current_range_meters":16400,"station_id":"","pricing_plan_id":"cebpf4jnsgd1na2vs0mg"},{"bike_id":"51613ca5-e935-41ee-b54e-5525c5a597fd","system_id":"levelo_inurba_marseille","lat":43.27559,"lon":5.3841,"is_reserved":false,"is_disabled":false,"rental_uris":{"android":"levelo://app?vid=51613ca5-e935-41ee-b54e-5525c5a597fd","ios":"levelo://app?vid=51613ca5-e935-41ee-b54e-5525c5a597fd"},"vehicle_type_id":"4","last_reported":1762366559,"current_range_meters":16400,"station_id":"ce4bhh92rcd13ifvqfi0","pricing_plan_id":"cebpf4jnsgd1na2vs0mg"},{"bike_id":"797d9df9-6718-446b-a0b8-c309a8c856d3","system_id":"levelo_inurba_marseille","lat":43.27338,"lon":5.39048,"is_reserved":false,"is_disabled":false,"rental_uris":{"android":"levelo://app?vid=797d9df9-6718-446b-a0b8-c309a8c856d3","ios":"levelo://app?vid=797d9df9-6718-446b-a0b8-c309a8c856d3"},"vehicle_type_id":"4","last_reported":1762366559,"current_range_meters":16400,"station_id":"ce4bhgp2rcd13ifvqfe0","pricing_plan_id":"cebpf4jnsgd1na2vs0mg"},{"bike_id":"ecb46758-6057-4135-bd9d-3c28667711cf","system_id":"levelo_inurba_marseille","lat":43.29487,"lon":5.43302,"is_reserved":false,"is_disabled":false,"rental_uris":{"android":"levelo://app?vid=ecb46758-6057-4135-bd9d-3c28667711cf","ios":"levelo://app?vid=ecb46758-6057-4135-bd9d-3c28667711cf"},"vehicle_type_id":"4","last_reported":1762366559,"current_range_meters":16400,"station_id":"st_d3j5ugp08ojc73fj9d10","pricing_plan_id":"cebpf4jnsgd1na2vs0mg"},{"bike_id":"ddeaa719-beea-4500-8aff-3836fff83949","system_id":"levelo_inurba_marseille","lat":43.31271,"lon":5.4676,"is_reserved":false,"is_disabled":false,"rental_uris":{"android":"levelo://app?vid=ddeaa719-beea-4500-8aff-3836fff83949","ios":"levelo://app?vid=ddeaa719-beea-4500-8aff-3836fff83949"},"vehicle_type_id":"4","last_reported":1762366559,"current_range_meters":16400,"station_id":"","pricing_plan_id":"cebpf4jnsgd1na2vs0mg"},{"bike_id":"e96d0e88-93c2-4206-b748-2b60db1a227f","system_id":"levelo_inurba_marseille","lat":43.28413,"lon":5.34969,"is_reserved":false,"is_disabled":false,"rental_uris":{"android":"levelo://app?vid=e96d0e88-93c2-4206-b748-2b60db1a227f","ios":"levelo://app?vid=e96d0e88-93c2-4206-b748-2b60db1a227f"},"vehicle_type_id":"4","last_reported":1762366559,"current_range_meters":16400,"station_id":"ce4bhbh2rcd13ifvqepg","pricing_plan_id":"cebpf4jnsgd1na2vs0mg"},{"bike_id":"360927de-7cb0-4e8d-87fd-ae15ab62b6d0","system_id":"levelo_inurba_marseille","lat":43.29261,"lon":5.38432,"is_reserved":false,"is_disabled":false,"rental_uris":{"android":"levelo://app?vid=360927de-7cb0-4e8d-87fd-ae15ab62b6d0","ios":"levelo://app?vid=360927de-7cb0-4e8d-87fd-ae15ab62b6d0"},"vehicle_type_id":"4","last_reported":1762366559,"current_range_meters":16400,"station_id":"ce4bh692rcd13ifvqea0","pricing_plan_id":"cebpf4jnsgd1na2vs0mg"},{"bike_id":"3c43dbca-5044-4f5d-8f1c-926c06ffb4db","system_id":"levelo_inurba_marseille","lat":43.2951,"lon":5.3749,"is_reserved":false,"is_disabled":false,"rental_uris":{"android":"levelo://app?vid=3c43dbca-5044-4f5d-8f1c-926c06ffb4db","ios":"levelo://app?vid=3c43dbca-5044-4f5d-8f1c-926c06ffb4db"},