{"last_updated":1749543345,"ttl":60,"version":"2.2","data":{"bikes":[{"bike_id":"994fbbd1-7b7a-4973-8b72-780a5cbeda75","system_id":"levelo_inurba_marseille","lat":43.28989,"lon":5.37835,"is_reserved":false,"is_disabled":true,"rental_uris":{"android":"levelo://app?vid=994fbbd1-7b7a-4973-8b72-780a5cbeda75","ios":"levelo://app?vid=994fbbd1-7b7a-4973-8b72-780a5cbeda75"},"vehicle_type_id":"4","last_reported":1749543345,"current_range_meters":2800,"station_id":"ce4bh9p2rcd13ifvqed0","pricing_plan_id":"cebpf4jnsgd1na2vs0mg"},{"bike_id":"a61242dd-8369-4520-9963-a504224e1a30","system_id":"levelo_inurba_marseille","lat":43.2314,"lon":5.408,"is_reserved":false,"is_disabled":true,"rental_uris":{"android":"levelo://app?vid=a61242dd-8369-4520-9963-a504224e1a30","ios":"levelo://app?vid=a61242dd-8369-4520-9963-a504224e1a30"},"vehicle_type_id":"4","last_reported":1749543345,"current_range_meters":2800,"station_id":"","pricing_plan_id":"cebpf4jnsgd1na2vs0mg"},{"bike_id":"b2653685-400a-4fcf-8e62-2975ef2b7e7e","system_id":"levelo_inurba_marseille","lat":43.255793,"lon":5.38226,"is_reserved":false,"is_disabled":false,"rental_uris":{"android":"levelo://app?vid=b2653685-400a-4fcf-8e62-2975ef2b7e7e","ios":"levelo://app?vid=b2653685-400a-4fcf-8e62-2975ef2b7e7e"},"vehicle_type_id":"4","last_reported":1749543345,"current_range_meters":2800,"station_id":"ce4bhih2rcd13ifvqfs0","pricing_plan_id":"cebpf4jnsgd1na2vs0mg"},{"bike_id":"93361205-943d-40ed-8a2c-8e23a0bfa3d8","system_id":"levelo_inurba_marseille","lat":43.2885,"lon":5.3584,"is_reserved":false,"is_disabled":false,"rental_uris":{"android":"levelo://app?vid=93361205-943d-40ed-8a2c-8e23a0bfa3d8","ios":"levelo://app?vid=93361205-943d-40ed-8a2c-8e23a0bfa3d8"},"vehicle_type_id":"4","last_reported":1749543345,"current_range_meters":2800,"station_id":"ce4bhb12rcd13ifvqem0","pricing_plan_id":"cebpf4jnsgd1na2vs0mg"},{"bike_id":"5878f80c-b2bb-4352-99ea-67e3a7136bd9","system_id":"levelo_inurba_marseille","lat":43.33028,"lon":5.39034,"is_reserved":false,"is_disabled":false,"rental_uris":{"android":"levelo://app?vid=5878f80c-b2bb-4352-99ea-67e3a7136bd9","ios":"levelo://app?vid=5878f80c-b2bb-4352-99ea-67e3a7136bd9"},"vehicle_type_id":"4","last_reported":1749543345,"current_range_meters":2800,"station_id":"ce4bhr92rcd13ifvqhrg","pricing_plan_id":"cebpf4jnsgd1na2vs0mg"},{"bike_id":"ff070b99-0bfd-408f-8707-285044c8eda4","system_id":"levelo_inurba_marseille","lat":43.25582,"lon":5.3824,"is_reserved":false,"is_disabled":true,"rental_uris":{"android":"levelo://app?vid=ff070b99-0bfd-408f-8707-285044c8eda4","ios":"levelo://app?vid=ff070b99-0bfd-408f-8707-285044c8eda4"},"vehicle_type_id":"4","last_reported":1749543345,"current_range_meters":3200,"station_id":"ce4bhih2rcd13ifvqfs0","pricing_plan_id":"cebpf4jnsgd1na2vs0mg"},{"bike_id":"0d76b2bf-b6f4-4d78-b2e9-16012b75254b","system_id":"levelo_inurba_marseille","lat":43.28995,"lon":5.35604,"is_reserved":false,"is_disabled":false,"rental_uris":{"android":"levelo://app?vid=0d76b2bf-b6f4-4d78-b2e9-16012b75254b","ios":"levelo://app?vid=0d76b2bf-b6f4-4d78-b2e9-16012b75254b"},"vehicle_type_id":"4","last_reported":1749543345,"current_range_meters":3200,"station_id":"ce4bhb92rcd13ifvqen0","pricing_plan_id":"cebpf4jnsgd1na2vs0mg"},{"bike_id":"e85c2c6e-6986-4a93-bf0f-808d2d8ea1f6","system_id":"levelo_inurba_marseille","lat":43.31754,"lon":5.39017,"is_reserved":false,"is_disabled":false,"rental_uris":{"android":"levelo://app?vid=e85c2c6e-6986-4a93-bf0f-808d2d8ea1f6","ios":"levelo://app?vid=e85c2c6e-6986-4a93-bf0f-808d2d8ea1f6"},"vehicle_type_id":"4","last_reported":1749543345,"current_range_meters":3200,"station_id":"ce4bhqp2rcd13ifvqhng","pricing_plan_id":"cebpf4jnsgd1na2vs0mg"},{"bike_id":"c0b01f50-571c-4cae-9ea0-11d99f77112d","system_id":"levelo_inurba_marseille","lat":43.27489,"lon":5.42457,"is_reserved":false,"is_disabled":false,"rental_uris":{"android":"levelo://app?vid=c0b01f50-571c-4cae-9ea0-11d99f77112d","ios":"levelo://app?vid=c0b01f50-571c-4cae-9ea0-11d99f77112d"},"vehicle_type_id":"4","last_reported":1749543345,"current_range_meters":3600,"station_id":"ce4bhn92rcd13ifvqgrg","pricing_plan_id":"cebpf4jnsgd1na2vs0mg"},{"bike_id":"6d691a1f-e8cc-404e-aa28-71e3fdb381f1","system_id":"levelo_inurba_marseille","lat":43.33747,"lon":5.35551,"is_reserved":false,"is_disabled":false,"rental_uris":{"android":"levelo://app?vid=6d691a1f-e8cc-404e-aa28-71e3fdb381f1","ios":"levelo://app?vid=6d691a1f-e8cc-404e-aa28-71e3fdb381f1"},"vehicle_type_id":"4","last_reported":1749543345,"current_range_meters":3600,"station_id":"","pricing_plan_id":"cebpf4jnsgd1na2vs0mg"},{"bike_id":"f0580e16-03ab-4fa6-a23c-218f969e1ea0","system_id":"levelo_inurba_marseille","lat":43.3033,"lon":5.40433,"is_reserved":false,"is_disabled":false,"rental_uris":{"android":"levelo://app?vid=f0580e16-03ab-4fa6-a23c-218f969e1ea0","ios":"levelo://app?vid=f0580e16-03ab-4fa6-a23c-218f969e1ea0"},"vehicle_type_id":"4","last_reported":1749543345,"current_range_meters":3600,"station_id":"ce4bh012rcd13ifvqd10","pricing_plan_id":"cebpf4jnsgd1na2vs0mg"},{"bike_id":"8c03ec80-dc19-4c9d-b151-e0210828c13a","system_id":"levelo_inurba_marseille","lat":43.29665,"lon":5.39414,"is_reserved":false,"is_disabled":false,"rental_uris":{"android":"levelo://app?vid=8c03ec80-dc19-4c9d-b151-e0210828c13a","ios":"levelo://app?vid=8c03ec80-dc19-4c9d-b151-e0210828c13a"},"vehicle_type_id":"4","last_reported":1749543345,"current_range_meters":3600,"station_id":"","pricing_plan_id":"cebpf4jnsgd1na2vs0mg"},{"bike_id":"fed6d353-b26d-43ce-8da7-46b4f25cb1d9","system_id":"levelo_inurba_marseille","lat":43.3096,"lon":5.39059,"is_reserved":false,"is_disabled":false,"rental_uris":{"android":"levelo://app?vid=fed6d353-b26d-43ce-8da7-46b4f25cb1d9","ios":"levelo://app?vid=fed6d353-b26d-43ce-8da7-46b4f25cb1d9"},"vehicle_type_id":"4","last_reported":1749543345,"current_range_meters":4000,"station_id":"ce4bgup2rcd13ifvqco0","pricing_plan_id":"cebpf4jnsgd1na2vs0mg"},{"bike_id":"dedb97c1-14b6-4d23-b4cb-f5ba2d82a6ad","system_id":"levelo_inurba_marseille","lat":43.32357,"lon":5.3676,"is_reserved":false,"is_disabled":false,"rental_uris":{"android":"levelo://app?vid=dedb97c1-14b6-4d23-b4cb-f5ba2d82a6ad","ios":"levelo://app?vid=dedb97c1-14b6-4d23-b4cb-f5ba2d82a6ad"},"vehicle_type_id":"4","last_reported":1749543345,"current_range_meters":4400,"station_id":"ce4bhsh2rcd13ifvqi2g","pricing_plan_id":"cebpf4jnsgd1na2vs0mg"},{"bike_id":"03cc53d6-762a-4f51-8ef6-b9af3c270466","system_id":"levelo_inurba_marseille","lat":43.27964,"lon":5.38735,"is_reserved":false,"is_disabled":false,"rental_uris":{"android":"levelo://app?vid=03cc53d6-762a-4f51-8ef6-b9af3c270466","ios":"levelo://app?vid=03cc53d6-762a-4f51-8ef6-b9af3c270466"},"vehicle_type_id":"4","last_reported":1749543345,"current_range_meters":4800,"station_id":"ce4bhg12rcd13ifvqf80","pricing_plan_id":"cebpf4jnsgd1na2vs0mg"},{"bike_id":"39cdf7ed-89dc-4de2-aafe-6c9905ce3698","system_id":"levelo_inurba_marseille","lat":43.29787,"lon":5.36781,"is_reserved":false,"is_disabled":false,"rental_uris":{"android":"levelo://app?vid=39cdf7ed-89dc-4de2-aafe-6c9905ce3698","ios":"levelo://app?vid=39cdf7ed-89dc-4de2-aafe-6c9905ce3698"},"vehicle_type_id":"4","last_reported":1749543345,"current_range_meters":5600,"station_id":"","pricing_plan_id":"cebpf4jnsgd1na2vs0mg"},{"bike_id":"9cd7e3b6-3a6c-4599-87c4-09cad6e5304c","system_id":"levelo_inurba_marseille","lat":43.3236,"lon":5.3888,"is_reserved":false,"is_disabled":false,"rental_uris":{"android":"levelo://app?vid=9cd7e3b6-3a6c-4599-87c4-09cad6e5304c","ios":"levelo://app?vid=9cd7e3b6-3a6c-4599-87c4-09cad6e5304c"},"vehicle_type_id":"4","last_reported":1749543345,"current_range_meters":5600,"station_id":"ce4bhqp2rcd13ifvqhog","pricing_plan_id":"cebpf4jnsgd1na2vs0mg"},{"bike_id":"14d8c5c3-b515-4ae7-aab4-7d286f7cc72b","system_id":"levelo_inurba_marseille","lat":43.30955,"lon":5.3904,"is_reserved":false,"is_disabled":false,"rental_uris":{"android":"levelo://app?vid=14d8c5c3-b515-4ae7-aab4-7d286f7cc72b","ios":"levelo://app?vid=14d8c5c3-b515-4ae7-aab4-7d286f7cc72b"},"vehicle_type_id":"4","last_reported":1749543345,"current_range_meters":5600,"station_id":"ce4bgup2rcd13ifvqco0","pricing_plan_id":"cebpf4jnsgd1na2vs0mg"},{"bike_id":"8a860edc-a1f9-406b-b82a-f0557120d6b5","system_id":"levelo_inurba_marseille","lat":43.32368,"lon":5.3888,"is_reserved":false,"is_disabled":false,"rental_uris":{"android":"levelo://app?vid=8a860edc-a1f9-406b-b82a-f0557120d6b5","ios":"levelo://app?vid=8a860edc-a1f9-406b-b82a-f0557120d6b5"},"vehicle_type_id":"4","last_reported":1749543345,"current_range_meters":5600,"station_id":"ce4bhqp2rcd13ifvqhog","pricing_plan_id":"cebpf4jnsgd1na2vs0mg"},{"bike_id":"11d99533-1239-4522-b0b5-f8a3bff696e7","system_id":"levelo_inurba_marseille","lat":43.30138,"lon":5.4244,"is_reserved":false,"is_disabled":false,"rental_uris":{"android":"levelo://app?vid=11d99533-1239-4522-b0b5-f8a3bff696e7","ios":"levelo://app?vid=11d99533-1239-4522-b0b5-f8a3bff696e7"},"vehicle_type_id":"4","last_reported":1749543345,"current_range_meters":6000,"station_id":"","pricing_plan_id":"cebpf4jnsgd1na2vs0mg"},{"bike_id":"9ab5dcb2-22af-49e2-b2c1-32117ad578dc","system_id":"levelo_inurba_marseille","lat":43.29505,"lon":5.42542,"is_reserved":false,"is_disabled":false,"rental_uris":{"android":"levelo://app?vid=9ab5dcb2-22af-49e2-b2c1-32117ad578dc","ios":"levelo://app?vid=9ab5dcb2-22af-49e2-b2c1-32117ad578dc"},"vehicle_type_id":"4","last_reported":1749543345,"current_range_meters":6000,"station_id":"","pricing_plan_id":"cebpf4jnsgd1na2vs0mg"},{"bike_id":"8b4caff4-6ee7-47a5-a64f-5ccaa83c132f","system_id":"levelo_inurba_marseille","lat":43.29516,"lon":5.42509,"is_reserved":false,"is_disabled":false,"rental_uris":{"android":"levelo://app?vid=8b4caff4-6ee7-47a5-a64f-5ccaa83c132f","ios":"levelo://app?vid=8b4caff4-6ee7-47a5-a64f-5ccaa83c132f"},"vehicle_type_id":"4","last_reported":1749543345,"current_range_meters":6000,"station_id":"","pricing_plan_id":"cebpf4jnsgd1na2vs0mg"},{"bike_id":"5cab8021-47c8-4131-a2c2-7572304f54a4","system_id":"levelo_inurba_marseille","lat":43.28312,"lon":5.35092,"is_reserved":false,"is_disabled":true,"rental_uris":{"android":"levelo://app?vid=5cab8021-47c8-4131-a2c2-7572304f54a4","ios":"levelo://app?vid=5cab8021-47c8-4131-a2c2-7572304f54a4"},"vehicle_type_id":"4","last_reported":1749543345,"current_range_meters":6000,"station_id":"","pricing_plan_id":"cebpf4jnsgd1na2vs0mg"},{"bike_id":"59d9dd13-31b4-4e55-b752-63a9204c5d70","system_id":"levelo_inurba_marseille","lat":43.23157,"lon":5.43709,"is_reserved":false,"is_disabled":false,"rental_uris":{"android":"levelo://app?vid=59d9dd13-31b4-4e55-b752-63a9204c5d70","ios":"levelo://app?vid=59d9dd13-31b4-4e55-b752-63a9204c5d70"},"vehicle_type_id":"4","last_reported":1749543345,"current_range_meters":5600,"station_id":"ce4bhmp2rcd13ifvqgog","pricing_plan_id":"cebpf4jnsgd1na2vs0mg"},{"bike_id":"bfd183c5-5d90-417f-a644-00faab3fe5a5","system_id":"levelo_inurba_marseille","lat":43.295073,"lon":5.389337,"is_reserved":false,"is_disabled":false,"rental_uris":{"android":"levelo://app?vid=bfd183c5-5d90-417f-a644-00faab3fe5a5","ios":"levelo://app?vid=bfd183c5-5d90-417f-a644-00faab3fe5a5"},"vehicle_type_id":"4","last_reported":1749543345,"current_range_meters":6000,"station_id":"ce4bgl12rcd13ifvqbo0","pricing_plan_id":"cebpf4jnsgd1na2vs0mg"},{"bike_id":"6461e7ea-432a-4de3-8730-918ac832cdf5","system_id":"levelo_inurba_marseille","lat":43.28402,"lon":5.37521,"is_reserved":false,"is_disabled":false,"rental_uris":{"android":"levelo://app?vid=6461e7ea-432a-4de3-8730-918ac832cdf5","ios":"levelo://app?vid=6461e7ea-432a-4de3-8730-918ac832cdf5"},"vehicle_type_id":"4","last_reported":1749543345,"current_range_meters":6000,"station_id":"ce4bh412rcd13ifvqds0","pricing_plan_id":"cebpf4jnsgd1na2vs0mg"},{"bike_id":"d35ef91a-cab5-41bf-8871-ab5b0a71e561","system_id":"levelo_inurba_marseille","lat":43.29722,"lon":5.37709,"is_reserved":false,"is_disabled":false,"rental_uris":{"android":"levelo://app?vid=d35ef91a-cab5-41bf-8871-ab5b0a71e561","ios":"levelo://app?vid=d35ef91a-cab5-41bf-8871-ab5b0a71e561"},"vehicle_type_id":"4","last_reported":1749543345,"current_range_meters":6000,"station_id":"ce4bgkh2rcd13ifvqbl0","pricing_plan_id":"cebpf4jnsgd1na2vs0mg"},{"bike_id":"732689cd-1e11-4323-94ce-fac7b1a98ec0","system_id":"levelo_inurba_marseille","lat":43.31335,"lon":5.36684,"is_reserved":false,"is_disabled":false,"rental_uris":{"android":"levelo://app?vid=732689cd-1e11-4323-94ce-fac7b1a98ec0","ios":"levelo://app?vid=732689cd-1e11-4323-94ce-fac7b1a98ec0"},"vehicle_type_id":"4","last_reported":1749543345,"current_range_meters":6000,"station_id":"ce4bgr92rcd13ifvqc6g","pricing_plan_id":"cebpf4jnsgd1na2vs0mg"},{"bike_id":"d7862be4-192a-4756-b7ab-5b1f33417510","system_id":"levelo_inurba_marseille","lat":43.28486,"lon":5.3842,"is_reserved":false,"is_disabled":false,"rental_uris":{"android":"levelo://app?vid=d7862be4-192a-4756-b7ab-5b1f33417510","ios":"levelo://app?vid=d7862be4-192a-4756-b7ab-5b1f33417510"},"vehicle_type_id":"4","last_reported":1749543345,"current_range_meters":6400,"station_id":"ce4bh512rcd13ifvqe3g","pricing_plan_id":"cebpf4jnsgd1na2vs0mg"},{"bike_id":"285304bd-d98b-411f-b966-80702f64a41b","system_id":"levelo_inurba_marseille","lat":43.2417,"lon":5.36399,"is_reserved":false,"is_disabled":false,"rental_uris":{"android":"levelo://app?vid=285304bd-d98b-411f-b966-80702f64a41b","ios":"levelo://app?vid=285304bd-d98b-411f-b966-80702f64a41b"},"vehicle_type_id":"4","last_reported":1749543345,"current_range_meters":6400,"station_id":"cpo36qri1sfpv3e86is0","pricing_plan_id":"cebpf4jnsgd1na2vs0mg"},{"bike_id":"face3f4f-ed5e-448e-97cb-093774dcb28c","system_id":"levelo_inurba_marseille","lat":43.31482,"lon":5.37318,"is_reserved":false,"is_disabled":false,"rental_uris":{"android":"levelo://app?vid=face3f4f-ed5e-448e-97cb-093774dcb28c","ios":"levelo://app?vid=face3f4f-ed5e-448e-97cb-093774dcb28c"},"vehicle_type_id":"4","last_reported":1749543345,"current_range_meters":6400,"station_id":"ce4bgt12rcd13ifvqcd0","pricing_plan_id":"cebpf4jnsgd1na2vs0mg"},{"bike_id":"ac2c9a38-3fa4-450e-a536-694b6a605ae7","system_id":"levelo_inurba_marseille","lat":43.33608,"lon":5.41035,"is_reserved":false,"is_disabled":true,"rental_uris":{"android":"levelo://app?vid=ac2c9a38-3fa4-450e-a536-694b6a605ae7","ios":"levelo://app?vid=ac2c9a38-3fa4-450e-a536-694b6a605ae7"},"vehicle_type_id":"4","last_reported":1749543345,"current_range_meters":6400,"station_id":"ce4bhqh2rcd13ifvqhmg","pricing_plan_id":"cebpf4jnsgd1na2vs0mg"},{"bike_id":"e3883ef6-8731-4737-9b27-8973ba71059f","system_id":"levelo_inurba_marseille","lat":43.31387,"lon":5.36682,"is_reserved":false,"is_disabled":false,"rental_uris":{"android":"levelo://app?vid=e3883ef6-8731-4737-9b27-8973ba71059f","ios":"levelo://app?vid=e3883ef6-8731-4737-9b27-8973ba71059f"},"vehicle_type_id":"4","last_reported":1749543345,"current_range_meters":6400,"station_id":"","pricing_plan_id":"cebpf4jnsgd1na2vs0mg"},{"bike_id":"0bcbddd3-7c32-427d-a202-aa0f4626d4c7","system_id":"levelo_inurba_marseille","lat":43.24546,"lon":5.39523,"is_reserved":false,"is_disabled":false,"rental_uris":{"android":"levelo://app?vid=0bcbddd3-7c32-427d-a202-aa0f4626d4c7","ios":"levelo://app?vid=0bcbddd3-7c32-427d-a202-aa0f4626d4c7"},"vehicle_type_id":"4","last_reported":1749543345,"current_range_meters":6400,"station_id":"ce4bhlp2rcd13ifvqgjg","pricing_plan_id":"cebpf4jnsgd1na2vs0mg"},{"bike_id":"d5fe4636-8b81-43fd-8de0-8d77e82b7742","system_id":"levelo_inurba_marseille","lat":43.31236,"lon":5.36872,"is_reserved":false,"is_disabled":false,"rental_uris":{"android":"levelo://app?vid=d5fe4636-8b81-43fd-8de0-8d77e82b7742","ios":"levelo://app?vid=d5fe4636-8b81-43fd-8de0-8d77e82b7742"},"vehicle_type_id":"4","last_reported":1749543345,"current_range_meters":6400,"station_id":"ce4bgl92rcd13ifvqbq0","pricing_plan_id":"cebpf4jnsgd1na2vs0mg"},{"bike_id":"c4c7015c-e4c5-4406-80e5-b5425018a9ff","system_id":"levelo_inurba_marseille","lat":43.31486,"lon":5.37309,"is_reserved":false,"is_disabled":false,"rental_uris":{"android":"levelo://app?vid=c4c7015c-e4c5-4406-80e5-b5425018a9ff","ios":"levelo://app?vid=c4c7015c-e4c5-4406-80e5-b5425018a9ff"},"vehicle_type_id":"4","last_reported":1749543345,"current_range_meters":6400,"station_id":"ce4bgt12rcd13ifvqcd0","pricing_plan_id":"cebpf4jnsgd1na2vs0mg"},{"bike_id":"e6b9e684-3b7d-48b3-b193-faff7ae4e6d7","system_id":"levelo_inurba_marseille","lat":43.26549,"lon":5.37308,"is_reserved":false,"is_disabled":false,"rental_uris":{"android":"levelo://app?vid=e6b9e684-3b7d-48b3-b193-faff7ae4e6d7","ios":"levelo://app?vid=e6b9e684-3b7d-48b3-b193-faff7ae4e6d7"},"vehicle_type_id":"4","last_reported":1749543345,"current_range_meters":6400,"station_id":"ce4bhg12rcd13ifvqf70","pricing_plan_id":"cebpf4jnsgd1na2vs0mg"},{"bike_id":"dd67f108-95bf-4a1e-b619-4bb77e009c5b","system_id":"levelo_inurba_marseille","lat":43.290683,"lon":5.427682,"is_reserved":false,"is_disabled":false,"rental_uris":{"android":"levelo://app?vid=dd67f108-95bf-4a1e-b619-4bb77e009c5b","ios":"levelo://app?vid=dd67f108-95bf-4a1e-b619-4bb77e009c5b"},"vehicle_type_id":"4","last_reported":1749543345,"current_range_meters":6800,"station_id":"","pricing_plan_id":"cebpf4jnsgd1na2vs0mg"},{"bike_id":"b627a4bc-ec3d-4a3d-b098-2cb9e5bfa8f1","system_id":"levelo_inurba_marseille","lat":43.28972,"lon":5.47914,"is_reserved":false,"is_disabled":true,"rental_uris":{"android":"levelo://app?vid=b627a4bc-ec3d-4a3d-b098-2cb9e5bfa8f1","ios":"levelo://app?vid=b627a4bc-ec3d-4a3d-b098-2cb9e5bfa8f1"},"vehicle_type_id":"4","last_reported":1749543345,"current_range_meters":6800,"station_id":"","pricing_plan_id":"cebpf4jnsgd1na2vs0mg"},{"bike_id":"0fc7e70d-f200-483b-8a1a-65f695351b4a","system_id":"levelo_inurba_marseille","lat":43.32492,"lon":5.36561,"is_reserved":false,"is_disabled":false,"rental_uris":{"android":"levelo://app?vid=0fc7e70d-f200-483b-8a1a-65f695351b4a","ios":"levelo://app?vid=0fc7e70d-f200-483b-8a1a-65f695351b4a"},"vehicle_type_id":"4","last_reported":1749543345,"current_range_meters":6800,"station_id":"ce4bhs12rcd13ifvqhvg","pricing_plan_id":"cebpf4jnsgd1na2vs0mg"},{"bike_id":"9c7cc04b-260a-4c4d-abff-ddccd152cd76","system_id":"levelo_inurba_marseille","lat":43.24995,"lon":5.38937,"is_reserved":false,"is_disabled":false,"rental_uris":{"android":"levelo://app?vid=9c7cc04b-260a-4c4d-abff-ddccd152cd76","ios":"levelo://app?vid=9c7cc04b-260a-4c4d-abff-ddccd152cd76"},"vehicle_type_id":"4","last_reported":1749543345,"current_range_meters":7200,"station_id":"ce4bhgp2rcd13ifvqfd0","pricing_plan_id":"cebpf4jnsgd1na2vs0mg"},{"bike_id":"744fa010-b75f-4fd7-ac23-cc808ecd0bf7","system_id":"levelo_inurba_marseille","lat":43.31496,"lon":5.37311,"is_reserved":false,"is_disabled":false,"rental_uris":{"android":"levelo://app?vid=744fa010-b75f-4fd7-ac23-cc808ecd0bf7","ios":"levelo://app?vid=744fa010-b75f-4fd7-ac23-cc808ecd0bf7"},"vehicle_type_id":"4","last_reported":1749543345,"current_range_meters":7200,"station_id":"ce4bgt12rcd13ifvqcd0","pricing_plan_id":"cebpf4jnsgd1na2vs0mg"},{"bike_id":"f6fee909-8c7c-482b-a8a0-a055892561e0","system_id":"levelo_inurba_marseille","lat":43.31225,"lon":5.36871,"is_reserved":false,"is_disabled":false,"rental_uris":{"android":"levelo://app?vid=f6fee909-8c7c-482b-a8a0-a055892561e0","ios":"levelo://app?vid=f6fee909-8c7c-482b-a8a0-a055892561e0"},"vehicle_type_id":"4","last_reported":1749543345,"current_range_meters":7200,"station_id":"ce4bgl92rcd13ifvqbq0","pricing_plan_id":"cebpf4jnsgd1na2vs0mg"},{"bike_id":"ee7a2e6a-3e65-41f6-b8b3-501fb42682dc","system_id":"levelo_inurba_marseille","lat":43.275634,"lon":5.384205,"is_reserved":false,"is_disabled":true,"rental_uris":{"android":"levelo://app?vid=ee7a2e6a-3e65-41f6-b8b3-501fb42682dc","ios":"levelo://app?vid=ee7a2e6a-3e65-41f6-b8b3-501fb42682dc"},"vehicle_type_id":"4","last_reported":1749543345,"current_range_meters":7200,"station_id":"ce4bhh92rcd13ifvqfi0","pricing_plan_id":"cebpf4jnsgd1na2vs0mg"},{"bike_id":"2e5b7a2e-ae80-4b63-807c-0d74d0713d36","system_id":"levelo_inurba_marseille","lat":43.28411,"lon":5.34976,"is_reserved":false,"is_disabled":true,"rental_uris":{"android":"levelo://app?vid=2e5b7a2e-ae80-4b63-807c-0d74d0713d36","ios":"levelo://app?vid=2e5b7a2e-ae80-4b63-807c-0d74d0713d36"},"vehicle_type_id":"4","last_reported":1749543345,"current_range_meters":8000,"station_id":"","pricing_plan_id":"cebpf4jnsgd1na2vs0mg"},{"bike_id":"bff53a0e-8e29-41cf-bed6-c5595d352307","system_id":"levelo_inurba_marseille","lat":43.29165,"lon":5.37152,"is_reserved":false,"is_disabled":true,"rental_uris":{"android":"levelo://app?vid=bff53a0e-8e29-41cf-bed6-c5595d352307","ios":"levelo://app?vid=bff53a0e-8e29-41cf-bed6-c5595d352307"},"vehicle_type_id":"4","last_reported":1749543345,"current_range_meters":8000,"station_id":"ce4bha92rcd13ifvqeh0","pricing_plan_id":"cebpf4jnsgd1na2vs0mg"},{"bike_id":"7a286b17-17df-491a-a381-1330c2f7a715","system_id":"levelo_inurba_marseille","lat":43.299043,"lon":5.436638,"is_reserved":false,"is_disabled":false,"rental_uris":{"android":"levelo://app?vid=7a286b17-17df-491a-a381-1330c2f7a715","ios":"levelo://app?vid=7a286b17-17df-491a-a381-1330c2f7a715"},"vehicle_type_id":"4","last_reported":1749543345,"current_range_meters":8000,"station_id":"ce4bhpp2rcd13ifvqhfg","pricing_plan_id":"cebpf4jnsgd1na2vs0mg"},{"bike_id":"43a56205-4a34-4bff-89d5-084de43293df","system_id":"levelo_inurba_marseille","lat":43.33607,"lon":5.41023,"is_reserved":false,"is_disabled":false,"rental_uris":{"android":"levelo://app?vid=43a56205-4a34-4bff-89d5-084de43293df","ios":"levelo://app?vid=43a56205-4a34-4bff-89d5-084de43293df"},"vehicle_type_id":"4","last_reported":1749543345,"current_range_meters":8000,"station_id":"ce4bhqh2rcd13ifvqhmg","pricing_plan_id":"cebpf4jnsgd1na2vs0mg"},{"bike_id":"01c428a8-0455-4cfb-bb8a-0caa8286f64c","system_id":"levelo_inurba_marseille","lat":43.29175,"lon":5.37173,"is_reserved":false,"is_disabled":false,"rental_uris":{"android":"levelo://app?vid=01c428a8-0455-4cfb-bb8a-0caa8286f64c","ios":"levelo://app?vid=01c428a8-0455-4cfb-bb8a-0caa8286f64c"},"vehicle_type_id":"4","last_reported":1749543345,"current_range_meters":8400,"station_id":"ce4bha92rcd13ifvqeh0","pricing_plan_id":"cebpf4jnsgd1na2vs0mg"},{"bike_id":"c67abd80-82ef-4e01-a07a-97ef98fe4eef","system_id":"levelo_inurba_marseille","lat":43.30543,"lon":5.36705,"is_reserved":false,"is_disabled":false,"rental_uris":{"android":"levelo://app?vid=c67abd80-82ef-4e01-a07a-97ef98fe4eef","ios":"levelo://app?vid=c67abd80-82ef-4e01-a07a-97ef98fe4eef"},"vehicle_type_id":"4","last_reported":1749543345,"current_range_meters":11200,"station_id":"ce4bgrp2rcd13ifvqc9g","pricing_plan_id":"cebpf4jnsgd1na2vs0mg"},{"bike_id":"197c94b4-9e7a-43e9-8720-7fec8f5e30f9","system_id":"levelo_inurba_marseille","lat":43.28411,"lon":5.34977,"is_reserved":false,"is_disabled":false,"rental_uris":{"android":"levelo://app?vid=197c94b4-9e7a-43e9-8720-7fec8f5e30f9","ios":"levelo://app?vid=197c94b4-9e7a-43e9-8720-7fec8f5e30f9"},"vehicle_type_id":"4","last_reported":1749543345,"current_range_meters":8400,"station_id":"ce4bhbh2rcd13ifvqepg","pricing_plan_id":"cebpf4jnsgd1na2vs0mg"},{"bike_id":"403eb5ef-858b-4a02-9307-f82dbd925173","system_id":"levelo_inurba_marseille","lat":43.305969,"lon":5.393688,"is_reserved":false,"is_disabled":false,"rental_uris":{"android":"levelo://app?vid=403eb5ef-858b-4a02-9307-f82dbd925173","ios":"levelo://app?vid=403eb5ef-858b-4a02-9307-f82dbd925173"},"vehicle_type_id":"4","last_reported":1749543345,"current_range_meters":8400,"station_id":"ce4bh0p2rcd13ifvqd80","pricing_plan_id":"cebpf4jnsgd1na2vs0mg"},{"bike_id":"f98d6ea8-d34e-4734-b3d4-29cf15a5f230","system_id":"levelo_inurba_marseille","lat":43.30141,"lon":5.39868,"is_reserved":false,"is_disabled":false,"rental_uris":{"android":"levelo://app?vid=f98d6ea8-d34e-4734-b3d4-29cf15a5f230","ios":"levelo://app?vid=f98d6ea8-d34e-4734-b3d4-29cf15a5f230"},"vehicle_type_id":"4","last_reported":1749543345,"current_range_meters":8000,"station_id":"ce4bh0h2rcd13ifvqd40","pricing_plan_id":"cebpf4jnsgd1na2vs0mg"},{"bike_id":"54c94be1-c0a0-480e-baf3-cde6bf247775","system_id":"levelo_inurba_marseille","lat":43.29291,"lon":5.37461,"is_reserved":false,"is_disabled":false,"rental_uris":{"android":"levelo://app?vid=54c94be1-c0a0-480e-baf3-cde6bf247775","ios":"levelo://app?vid=54c94be1-c0a0-480e-baf3-cde6bf247775"},"vehicle_type_id":"4","last_reported":1749543345,"current_range_meters":8400,"station_id":"ce4bgi12rcd13ifvqb70","pricing_plan_id":"cebpf4jnsgd1na2vs0mg"},{"bike_id":"c09b1c1e-6d5b-4a72-8f97-eccd430a9e54","system_id":"levelo_inurba_marseille","lat":43.26677,"lon":5.38264,"is_reserved":false,"is_disabled":true,"rental_uris":{"android":"levelo://app?vid=c09b1c1e-6d5b-4a72-8f97-eccd430a9e54","ios":"levelo://app?vid=c09b1c1e-6d5b-4a72-8f97-eccd430a9e54"},"vehicle_type_id":"4","last_reported":1749543345,"current_range_meters":8400,"station_id":"ce4bhgp2rcd13ifvqfc0","pricing_plan_id":"cebpf4jnsgd1na2vs0mg"},{"bike_id":"799a81f7-17c6-468d-a848-32f1307afe19","system_id":"levelo_inurba_marseille","lat":43.293161,"lon":5.376476,"is_reserved":false,"is_disabled":false,"rental_uris":{"android":"levelo://app?vid=799a81f7-17c6-468d-a848-32f1307afe19","ios":"levelo://app?vid=799a81f7-17c6-468d-a848-32f1307afe19"},"vehicle_type_id":"4","last_reported":1749543345,"current_range_meters":8400,"station_id":"ce4bgi12rcd13ifvqb80","pricing_plan_id":"cebpf4jnsgd1na2vs0mg"},{"bike_id":"6fd4cd93-a409-4da9-ad4b-b6025023458d","system_id":"levelo_inurba_marseille","lat":43.30123,"lon":5.37132,"is_reserved":false,"is_disabled":false,"rental_uris":{"android":"levelo://app?vid=6fd4cd93-a409-4da9-ad4b-b6025023458d","ios":"levelo://app?vid=6fd4cd93-a409-4da9-ad4b-b6025023458d"},"vehicle_type_id":"4","last_reported":1749543345,"current_range_meters":8800,"station_id":"","pricing_plan_id":"cebpf4jnsgd1na2vs0mg"},{"bike_id":"a8fcb642-c8d4-48b7-bc7d-d92da8830f3d","system_id":"levelo_inurba_marseille","lat":43.29987,"lon":5.371726,"is_reserved":false,"is_disabled":true,"rental_uris":{"android":"levelo://app?vid=a8fcb642-c8d4-48b7-bc7d-d92da8830f3d","ios":"levelo://app?vid=a8fcb642-c8d4-48b7-bc7d-d92da8830f3d"},"vehicle_type_id":"4","last_reported":1749543345,"current_range_meters":8800,"station_id":"ce4bgr92rcd13ifvqc7g","pricing_plan_id":"cebpf4jnsgd1na2vs0mg"},{"bike_id":"b917c716-764c-4d37-a337-bb31d5ca52b8","system_id":"levelo_inurba_marseille","lat":43.21192,"lon":5.35077,"is_reserved":false,"is_disabled":false,"rental_uris":{"android":"levelo://app?vid=b917c716-764c-4d37-a337-bb31d5ca52b8","ios":"levelo://app?vid=b917c716-764c-4d37-a337-bb31d5ca52b8"},"vehicle_type_id":"4","last_reported":1749543345,"current_range_meters":8800,"station_id":"st_cvj6sg6p6f1abm77japg","pricing_plan_id":"cebpf4jnsgd1na2vs0mg"},{"bike_id":"da14da1f-7442-42b5-98f6-365f4fbd4c56","system_id":"levelo_inurba_marseille","lat":43.32443,"lon":5.4126,"is_reserved":false,"is_disabled":false,"rental_uris":{"android":"levelo://app?vid=da14da1f-7442-42b5-98f6-365f4fbd4c56","ios":"levelo://app?vid=da14da1f-7442-42b5-98f6-365f4fbd4c56"},"vehicle_type_id":"4","last_reported":1749543345,"current_range_meters":8800,"station_id":"","pricing_plan_id":"cebpf4jnsgd1na2vs0mg"},{"bike_id":"c741a253-77ef-4a64-a1b6-cfefac78b84d","system_id":"levelo_inurba_marseille","lat":43.287,"lon":5.39986,"is_reserved":false,"is_disabled":false,"rental_uris":{"android":"levelo://app?vid=c741a253-77ef-4a64-a1b6-cfefac78b84d","ios":"levelo://app?vid=c741a253-77ef-4a64-a1b6-cfefac78b84d"},"vehicle_type_id":"4","last_reported":1749543345,"current_range_meters":8800,"station_id":"ce4bho92rcd13ifvqh3g","pricing_plan_id":"cebpf4jnsgd1na2vs0mg"},{"bike_id":"5d211b94-dd2c-407d-8170-ad48ff5eef4b","system_id":"levelo_inurba_marseille","lat":43.26794,"lon":5.39415,"is_reserved":false,"is_disabled":false,"rental_uris":{"android":"levelo://app?vid=5d211b94-dd2c-407d-8170-ad48ff5eef4b","ios":"levelo://app?vid=5d211b94-dd2c-407d-8170-ad48ff5eef4b"},"vehicle_type_id":"4","last_reported":1749543345,"current_range_meters":9200,"station_id":"ce4bhh12rcd13ifvqfg0","pricing_plan_id":"cebpf4jnsgd1na2vs0mg"},{"bike_id":"601d88a0-3f1a-4482-82af-a92bc6d7bb84","system_id":"levelo_inurba_marseille","lat":43.28474,"lon":5.38426,"is_reserved":false,"is_disabled":false,"rental_uris":{"android":"levelo://app?vid=601d88a0-3f1a-4482-82af-a92bc6d7bb84","ios":"levelo://app?vid=601d88a0-3f1a-4482-82af-a92bc6d7bb84"},"vehicle_type_id":"4","last_reported":1749543345,"current_range_meters":9200,"station_id":"ce4bh512rcd13ifvqe3g","pricing_plan_id":"cebpf4jnsgd1na2vs0mg"},{"bike_id":"87f39434-7660-4eab-9926-1172e9d0c577","system_id":"levelo_inurba_marseille","lat":43.26029,"lon":5.37545,"is_reserved":false,"is_disabled":false,"rental_uris":{"android":"levelo://app?vid=87f39434-7660-4eab-9926-1172e9d0c577","ios":"levelo://app?vid=87f39434-7660-4eab-9926-1172e9d0c577"},"vehicle_type_id":"4","last_reported":1749543345,"current_range_meters":9200,"station_id":"ce4bhgh2rcd13ifvqfa0","pricing_plan_id":"cebpf4jnsgd1na2vs0mg"},{"bike_id":"4e1cf27a-7acb-4962-911a-c74cd794a788","system_id":"levelo_inurba_marseille","lat":43.29368,"lon":5.37832,"is_reserved":false,"is_disabled":false,"rental_uris":{"android":"levelo://app?vid=4e1cf27a-7acb-4962-911a-c74cd794a788","ios":"levelo://app?vid=4e1cf27a-7acb-4962-911a-c74cd794a788"},"vehicle_type_id":"4","last_reported":1749543345,"current_range_meters":9200,"station_id":"ce4bgjh2rcd13ifvqbf0","pricing_plan_id":"cebpf4jnsgd1na2vs0mg"},{"bike_id":"2f32b755-3ca4-4102-8e33-37fff5e1ff8d","system_id":"levelo_inurba_marseille","lat":43.27149,"lon":5.40174,"is_reserved":false,"is_disabled":false,"rental_uris":{"android":"levelo://app?vid=2f32b755-3ca4-4102-8e33-37fff5e1ff8d","ios":"levelo://app?vid=2f32b755-3ca4-4102-8e33-37fff5e1ff8d"},"vehicle_type_id":"4","last_reported":1749543345,"current_range_meters":9200,"station_id":"","pricing_plan_id":"cebpf4jnsgd1na2vs0mg"},{"bike_id":"5aee6e98-5d72-4a58-8068-559ee9f9703d","system_id":"levelo_inurba_marseille","lat":43.21195,"lon":5.35057,"is_reserved":false,"is_disabled":false,"rental_uris":{"android":"levelo://app?vid=5aee6e98-5d72-4a58-8068-559ee9f9703d","ios":"levelo://app?vid=5aee6e98-5d72-4a58-8068-559ee9f9703d"},"vehicle_type_id":"4","last_reported":1749543345,"current_range_meters":9200,"station_id":"st_cvj6sg6p6f1abm77japg","pricing_plan_id":"cebpf4jnsgd1na2vs0mg"},{"bike_id":"b85be41e-2140-41ca-9627-a0ca198e2d51","system_id":"levelo_inurba_marseille","lat":43.314784,"lon":5.372844,"is_reserved":false,"is_disabled":false,"rental_uris":{"android":"levelo://app?vid=b85be41e-2140-41ca-9627-a0ca198e2d51","ios":"levelo://app?vid=b85be41e-2140-41ca-9627-a0ca198e2d51"},"vehicle_type_id":"4","last_reported":1749543345,"current_range_meters":9600,"station_id":"ce4bgt12rcd13ifvqcd0","pricing_plan_id":"cebpf4jnsgd1na2vs0mg"},{"bike_id":"d61cd136-3af0-4370-afb9-4fce757a84f8","system_id":"levelo_inurba_marseille","lat":43.298867,"lon":5.436707,"is_reserved":false,"is_disabled":false,"rental_uris":{"android":"levelo://app?vid=d61cd136-3af0-4370-afb9-4fce757a84f8","ios":"levelo://app?vid=d61cd136-3af0-4370-afb9-4fce757a84f8"},"vehicle_type_id":"4","last_reported":1749543345,"current_range_meters":9600,"station_id":"ce4bhpp2rcd13ifvqhfg","pricing_plan_id":"cebpf4jnsgd1na2vs0mg"},{"bike_id":"4b9eb7f0-61d0-4628-a7e2-d737cbbeb8ac","system_id":"levelo_inurba_marseille","lat":43.25479,"lon":5.41994,"is_reserved":false,"is_disabled":false,"rental_uris":{"android":"levelo://app?vid=4b9eb7f0-61d0-4628-a7e2-d737cbbeb8ac","ios":"levelo://app?vid=4b9eb7f0-61d0-4628-a7e2-d737cbbeb8ac"},"vehicle_type_id":"4","last_reported":1749543345,"current_range_meters":9600,"station_id":"","pricing_plan_id":"cebpf4jnsgd1na2vs0mg"},{"bike_id":"2649ef45-0b6a-4349-a65a-a2f74f74f74f","system_id":"levelo_inurba_marseille","lat":43.26489,"lon":5.39241,"is_reserved":false,"is_disabled":false,"rental_uris":{"android":"levelo://app?vid=2649ef45-0b6a-4349-a65a-a2f74f74f74f","ios":"levelo://app?vid=2649ef45-0b6a-4349-a65a-a2f74f74f74f"},"vehicle_type_id":"4","last_reported":1749543345,"current_range_meters":9600,"station_id":"","pricing_plan_id":"cebpf4jnsgd1na2vs0mg"},{"bike_id":"88113087-f0bb-4133-ab2a-bbfce1f3d99a","system_id":"levelo_inurba_marseille","lat":43.31723,"lon":5.40465,"is_reserved":false,"is_disabled":true,"rental_uris":{"android":"levelo://app?vid=88113087-f0bb-4133-ab2a-bbfce1f3d99a","ios":"levelo://app?vid=88113087-f0bb-4133-ab2a-bbfce1f3d99a"},"vehicle_type_id":"4","last_reported":1749543345,"current_range_meters":9600,"station_id":"ce4bh012rcd13ifvqd00","pricing_plan_id":"cebpf4jnsgd1na2vs0mg"},{"bike_id":"91ec5a66-4ffe-4789-98b6-915951b0401f","system_id":"levelo_inurba_marseille","lat":43.29283,"lon":5.38454,"is_reserved":false,"is_disabled":false,"rental_uris":{"android":"levelo://app?vid=91ec5a66-4ffe-4789-98b6-915951b0401f","ios":"levelo://app?vid=91ec5a66-4ffe-4789-98b6-915951b0401f"},"vehicle_type_id":"4","last_reported":1749543345,"current_range_meters":9600,"station_id":"ce4bh692rcd13ifvqea0","pricing_plan_id":"cebpf4jnsgd1na2vs0mg"},{"bike_id":"c8c4af1d-070c-484a-a3f7-babd17d99646","system_id":"levelo_inurba_marseille","lat":43.33679,"lon":5.39201,"is_reserved":false,"is_disabled":false,"rental_uris":{"android":"levelo://app?vid=c8c4af1d-070c-484a-a3f7-babd17d99646","ios":"levelo://app?vid=c8c4af1d-070c-484a-a3f7-babd17d99646"},"vehicle_type_id":"4","last_reported":1749543345,"current_range_meters":9600,"station_id":"ce4bhr92rcd13ifvqhsg","pricing_plan_id":"cebpf4jnsgd1na2vs0mg"},{"bike_id":"82be120d-595b-4301-b926-71200afa0fe4","system_id":"levelo_inurba_marseille","lat":43.29258,"lon":5.3763,"is_reserved":false,"is_disabled":false,"rental_uris":{"android":"levelo://app?vid=82be120d-595b-4301-b926-71200afa0fe4","ios":"levelo://app?vid=82be120d-595b-4301-b926-71200afa0fe4"},"vehicle_type_id":"4","last_reported":1749543345,"current_range_meters":9600,"station_id":"ce4bgi12rcd13ifvqb80","pricing_plan_id":"cebpf4jnsgd1na2vs0mg"},{"bike_id":"05d515d4-f9a4-4d33-9344-77da9a44570b","system_id":"levelo_inurba_marseille","lat":43.27622,"lon":5.36111,"is_reserved":false,"is_disabled":false,"rental_uris":{"android":"levelo://app?vid=05d515d4-f9a4-4d33-9344-77da9a44570b","ios":"levelo://app?vid=05d515d4-f9a4-4d33-9344-77da9a44570b"},"vehicle_type_id":"4","last_reported":1749543345,"current_range_meters":9600,"station_id":"ce4bgj92rcd13ifvqbe0","pricing_plan_id":"cebpf4jnsgd1na2vs0mg"},{"bike_id":"1ef37c59-3b3d-4016-85d9-222ea0d08abb","system_id":"levelo_inurba_marseille","lat":43.23976,"lon":5.36626,"is_reserved":false,"is_disabled":false,"rental_uris":{"android":"levelo://app?vid=1ef37c59-3b3d-4016-85d9-222ea0d08abb","ios":"levelo://app?vid=1ef37c59-3b3d-4016-85d9-222ea0d08abb"},"vehicle_type_id":"4","last_reported":1749543345,"current_range_meters":9600,"station_id":"ce4bhi12rcd13ifvqfp0","pricing_plan_id":"cebpf4jnsgd1na2vs0mg"},{"bike_id":"1e849857-0792-475b-94bc-07b308ce8a67","system_id":"levelo_inurba_marseille","lat":43.30524,"lon":5.36706,"is_reserved":false,"is_disabled":false,"rental_uris":{"android":"levelo://app?vid=1e849857-0792-475b-94bc-07b308ce8a67","ios":"levelo://app?vid=1e849857-0792-475b-94bc-07b308ce8a67"},"vehicle_type_id":"4","last_reported":1749543345,"current_range_meters":9600,"station_id":"ce4bgrp2rcd13ifvqc9g","pricing_plan_id":"cebpf4jnsgd1na2vs0mg"},{"bike_id":"5fa2334e-3a20-495f-97ad-0f14556e6585","system_id":"levelo_inurba_marseille","lat":43.31372,"lon":5.36693,"is_reserved":false,"is_disabled":false,"rental_uris":{"android":"levelo://app?vid=5fa2334e-3a20-495f-97ad-0f14556e6585","ios":"levelo://app?vid=5fa2334e-3a20-495f-97ad-0f14556e6585"},"vehicle_type_id":"4","last_reported":1749543345,"current_range_meters":10000,"station_id":"ce4bgr92rcd13ifvqc6g","pricing_plan_id":"cebpf4jnsgd1na2vs0mg"},{"bike_id":"1aa16519-d685-4976-8de7-f71f9cc62b8f","system_id":"levelo_inurba_marseille","lat":43.278033,"lon":5.421113,"is_reserved":false,"is_disabled":true,"rental_uris":{"android":"levelo://app?vid=1aa16519-d685-4976-8de7-f71f9cc62b8f","ios":"levelo://app?vid=1aa16519-d685-4976-8de7-f71f9cc62b8f"},"vehicle_type_id":"4","last_reported":1749543345,"current_range_meters":10000,"station_id":"","pricing_plan_id":"cebpf4jnsgd1na2vs0mg"},{"bike_id":"f156dd16-bfc6-4d9c-8774-e71864afe86d","system_id":"levelo_inurba_marseille","lat":43.27995,"lon":5.41674,"is_reserved":false,"is_disabled":true,"rental_uris":{"android":"levelo://app?vid=f156dd16-bfc6-4d9c-8774-e71864afe86d","ios":"levelo://app?vid=f156dd16-bfc6-4d9c-8774-e71864afe86d"},"vehicle_type_id":"4","last_reported":1749543345,"current_range_meters":10000,"station_id":"ce4bho12rcd13ifvqh1g","pricing_plan_id":"cebpf4jnsgd1na2vs0mg"},{"bike_id":"db5bd6d6-c2d8-433c-92df-e29fb4da53b0","system_id":"levelo_inurba_marseille","lat":43.28417,"lon":5.34982,"is_reserved":false,"is_disabled":false,"rental_uris":{"android":"levelo://app?vid=db5bd6d6-c2d8-433c-92df-e29fb4da53b0","ios":"levelo://app?vid=db5bd6d6-c2d8-433c-92df-e29fb4da53b0"},"vehicle_type_id":"4","last_reported":1749543345,"current_range_meters":10000,"station_id":"ce4bhbh2rcd13ifvqepg","pricing_plan_id":"cebpf4jnsgd1na2vs0mg"},{"bike_id":"e088c544-b7c3-4688-b0cb-813036bb9d12","system_id":"levelo_inurba_marseille","lat":43.26565,"lon":5.37296,"is_reserved":false,"is_disabled":false,"rental_uris":{"android":"levelo://app?vid=e088c544-b7c3-4688-b0cb-813036bb9d12","ios":"levelo://app?vid=e088c544-b7c3-4688-b0cb-813036bb9d12"},"vehicle_type_id":"4","last_reported":1749543345,"current_range_meters":10000,"station_id":"ce4bhg12rcd13ifvqf70","pricing_plan_id":"cebpf4jnsgd1na2vs0mg"},{"bike_id":"2b41c602-d227-4359-8527-781dfc58202d","system_id":"levelo_inurba_marseille","lat":43.29049,"lon":5.37568,"is_reserved":false,"is_disabled":false,"rental_uris":{"android":"levelo://app?vid=2b41c602-d227-4359-8527-781dfc58202d","ios":"levelo://app?vid=2b41c602-d227-4359-8527-781dfc58202d"},"vehicle_type_id":"4","last_reported":1749543345,"current_range_meters":9600,"station_id":"ce4bh692rcd13ifvqe90","pricing_plan_id":"cebpf4jnsgd1na2vs0mg"},{"bike_id":"cb9b4231-7233-46cb-b7ed-07378a765e2d","system_id":"levelo_inurba_marseille","lat":43.28268,"lon":5.35063,"is_reserved":false,"is_disabled":false,"rental_uris":{"android":"levelo://app?vid=cb9b4231-7233-46cb-b7ed-07378a765e2d","ios":"levelo://app?vid=cb9b4231-7233-46cb-b7ed-07378a765e2d"},"vehicle_type_id":"4","last_reported":1749543345,"current_range_meters":10000,"station_id":"ce4bhbp2rcd13ifvqerg","pricing_plan_id":"cebpf4jnsgd1na2vs0mg"},{"bike_id":"b6285f6b-e9e7-470d-9b6d-1afe99ab71bf","system_id":"levelo_inurba_marseille","lat":43.261896,"lon":5.420721,"is_reserved":false,"is_disabled":false,"rental_uris":{"android":"levelo://app?vid=b6285f6b-e9e7-470d-9b6d-1afe99ab71bf","ios":"levelo://app?vid=b6285f6b-e9e7-470d-9b6d-1afe99ab71bf"},"vehicle_type_id":"4","last_reported":1749543345,"current_range_meters":10800,"station_id":"","pricing_plan_id":"cebpf4jnsgd1na2vs0mg"},{"bike_id":"660219bc-9f09-49e5-8bb8-0a89276755ae","system_id":"levelo_inurba_marseille","lat":43.29978,"lon":5.37158,"is_reserved":false,"is_disabled":true,"rental_uris":{"android":"levelo://app?vid=660219bc-9f09-49e5-8bb8-0a89276755ae","ios":"levelo://app?vid=660219bc-9f09-49e5-8bb8-0a89276755ae"},"vehicle_type_id":"4","last_reported":1749543345,"current_range_meters":10800,"station_id":"ce4bgr92rcd13ifvqc7g","pricing_plan_id":"cebpf4jnsgd1na2vs0mg"},{"bike_id":"9bf4b8a4-1a4c-431f-9723-f64c93ac652a","system_id":"levelo_inurba_marseille","lat":43.24651,"lon":5.38892,"is_reserved":false,"is_disabled":false,"rental_uris":{"android":"levelo://app?vid=9bf4b8a4-1a4c-431f-9723-f64c93ac652a","ios":"levelo://app?vid=9bf4b8a4-1a4c-431f-9723-f64c93ac652a"},"vehicle_type_id":"4","last_reported":1749543345,"current_range_meters":10800,"station_id":"ce4bhg12rcd13ifvqf60","pricing_plan_id":"cebpf4jnsgd1na2vs0mg"},{"bike_id":"8f957c09-cb4b-453c-9cb7-b922ce8003f6","system_id":"levelo_inurba_marseille","lat":43.27495,"lon":5.42454,"is_reserved":false,"is_disabled":false,"rental_uris":{"android":"levelo://app?vid=8f957c09-cb4b-453c-9cb7-b922ce8003f6","ios":"levelo://app?vid=8f957c09-cb4b-453c-9cb7-b922ce8003f6"},"vehicle_type_id":"4","last_reported":1749543345,"current_range_meters":10800,"station_id":"ce4bhn92rcd13ifvqgrg","pricing_plan_id":"cebpf4jnsgd1na2vs0mg"},{"bike_id":"8e317286-d121-41fb-88b8-5b957116b9fe","system_id":"levelo_inurba_marseille","lat":43.21191,"lon":5.35069,"is_reserved":false,"is_disabled":false,"rental_uris":{"android":"levelo://app?vid=8e317286-d121-41fb-88b8-5b957116b9fe","ios":"levelo://app?vid=8e317286-d121-41fb-88b8-5b957116b9fe"},"vehicle_type_id":"4","last_reported":1749543345,"current_range_meters":10800,"station_id":"st_cvj6sg6p6f1abm77japg","pricing_plan_id":"cebpf4jnsgd1na2vs0mg"},{"bike_id":"fea03510-d732-494e-a818-113e6eebaa67","system_id":"levelo_inurba_marseille","lat":43.22929,"lon":5.35379,"is_reserved":false,"is_disabled":false,"rental_uris":{"android":"levelo://app?vid=fea03510-d732-494e-a818-113e6eebaa67","ios":"levelo://app?vid=fea03510-d732-494e-a818-113e6eebaa67"},"vehicle_type_id":"4","last_reported":1749543345,"current_range_meters":10800,"station_id":"cpo3532slgdg3j2ikp40","pricing_plan_id":"cebpf4jnsgd1na2vs0mg"},{"bike_id":"c07a7351-aaaf-465f-b00c-b9ca4162fcb9","system_id":"levelo_inurba_marseille","lat":43.292663,"lon":5.376163,"is_reserved":false,"is_disabled":false,"rental_uris":{"android":"levelo://app?vid=c07a7351-aaaf-465f-b00c-b9ca4162fcb9","ios":"levelo://app?vid=c07a7351-aaaf-465f-b00c-b9ca4162fcb9"},"vehicle_type_id":"4","last_reported":1749543345,"current_range_meters":10800,"station_id":"ce4bgi12rcd13ifvqb80","pricing_plan_id":"cebpf4jnsgd1na2vs0mg"},{"bike_id":"81b4797e-6b59-48e8-9e92-7ad75b85e67b","system_id":"levelo_inurba_marseille","lat":43.24804,"lon":5.37457,"is_reserved":false,"is_disabled":false,"rental_uris":{"android":"levelo://app?vid=81b4797e-6b59-48e8-9e92-7ad75b85e67b","ios":"levelo://app?vid=81b4797e-6b59-48e8-9e92-7ad75b85e67b"},"vehicle_type_id":"4","last_reported":1749543345,"current_range_meters":10800,"station_id":"ce4bhgh2rcd13ifvqfb0","pricing_plan_id":"cebpf4jnsgd1na2vs0mg"},{"bike_id":"1aea7cfc-afca-4737-8f8d-ae60132524de","system_id":"levelo_inurba_marseille","lat":43.28784,"lon":5.39874,"is_reserved":false,"is_disabled":false,"rental_uris":{"android":"levelo://app?vid=1aea7cfc-afca-4737-8f8d-ae60132524de","ios":"levelo://app?vid=1aea7cfc-afca-4737-8f8d-ae60132524de"},"vehicle_type_id":"4","last_reported":1749543345,"current_range_meters":11200,"station_id":"","pricing_plan_id":"cebpf4jnsgd1na2vs0mg"},{"bike_id":"39d32260-51d5-455a-ba53-6471389bd255","system_id":"levelo_inurba_marseille","lat":43.320024,"lon":5.376146,"is_reserved":false,"is_disabled":false,"rental_uris":{"android":"levelo://app?vid=39d32260-51d5-455a-ba53-6471389bd255","ios":"levelo://app?vid=39d32260-51d5-455a-ba53-6471389bd255"},"vehicle_type_id":"4","last_reported":1749543345,"current_range_meters":11200,"station_id":"","pricing_plan_id":"cebpf4jnsgd1na2vs0mg"},{"bike_id":"65ea561a-2be8-4848-b6da-b760b05269f7","system_id":"levelo_inurba_marseille","lat":43.31281,"lon":5.40175,"is_reserved":false,"is_disabled":false,"rental_uris":{"android":"levelo://app?vid=65ea561a-2be8-4848-b6da-b760b05269f7","ios":"levelo://app?vid=65ea561a-2be8-4848-b6da-b760b05269f7"},"vehicle_type_id":"4","last_reported":1749543345,"current_range_meters":11600,"station_id":"ce4bh092rcd13ifvqd30","pricing_plan_id":"cebpf4jnsgd1na2vs0mg"},{"bike_id":"0053f0bd-3481-4f8f-a19e-7dd7a6624507","system_id":"levelo_inurba_marseille","lat":43.29893,"lon":5.43693,"is_reserved":false,"is_disabled":false,"rental_uris":{"android":"levelo://app?vid=0053f0bd-3481-4f8f-a19e-7dd7a6624507","ios":"levelo://app?vid=0053f0bd-3481-4f8f-a19e-7dd7a6624507"},"vehicle_type_id":"4","last_reported":1749543345,"current_range_meters":11600,"station_id":"ce4bhpp2rcd13ifvqhfg","pricing_plan_id":"cebpf4jnsgd1na2vs0mg"},{"bike_id":"6d064464-dec5-46b8-98bd-56bde5fb4740","system_id":"levelo_inurba_marseille","lat":43.29016,"lon":5.35634,"is_reserved":false,"is_disabled":true,"rental_uris":{"android":"levelo://app?vid=6d064464-dec5-46b8-98bd-56bde5fb4740","ios":"levelo://app?vid=6d064464-dec5-46b8-98bd-56bde5fb4740"},"vehicle_type_id":"4","last_reported":1749543345,"current_range_meters":11600,"station_id":"ce4bhb92rcd13ifvqen0","pricing_plan_id":"cebpf4jnsgd1na2vs0mg"},{"bike_id":"0b87baf5-0191-4be3-9088-26dcf479d979","system_id":"levelo_inurba_marseille","lat":43.32489,"lon":5.36547,"is_reserved":false,"is_disabled":false,"rental_uris":{"android":"levelo://app?vid=0b87baf5-0191-4be3-9088-26dcf479d979","ios":"levelo://app?vid=0b87baf5-0191-4be3-9088-26dcf479d979"},"vehicle_type_id":"4","last_reported":1749543345,"current_range_meters":11600,"station_id":"ce4bhs12rcd13ifvqhvg","pricing_plan_id":"cebpf4jnsgd1na2vs0mg"},{"bike_id":"844a9148-4d3f-469f-a01f-40c1356839ec","system_id":"levelo_inurba_marseille","lat":43.30132,"lon":5.39886,"is_reserved":false,"is_disabled":false,"rental_uris":{"android":"levelo://app?vid=844a9148-4d3f-469f-a01f-40c1356839ec","ios":"levelo://app?vid=844a9148-4d3f-469f-a01f-40c1356839ec"},"vehicle_type_id":"4","last_reported":1749543345,"current_range_meters":11600,"station_id":"ce4bh0h2rcd13ifvqd40","pricing_plan_id":"cebpf4jnsgd1na2vs0mg"},{"bike_id":"5a55eb0f-0567-487e-a6a7-2cfcfc5473aa","system_id":"levelo_inurba_marseille","lat":43.33768,"lon":5.37437,"is_reserved":false,"is_disabled":false,"rental_uris":{"android":"levelo://app?vid=5a55eb0f-0567-487e-a6a7-2cfcfc5473aa","ios":"levelo://app?vid=5a55eb0f-0567-487e-a6a7-2cfcfc5473aa"},"vehicle_type_id":"4","last_reported":1749543345,"current_range_meters":12000,"station_id":"","pricing_plan_id":"cebpf4jnsgd1na2vs0mg"},{"bike_id":"44df366e-3784-4e33-9762-5863e1004e64","system_id":"levelo_inurba_marseille","lat":43.28368,"lon":5.38626,"is_reserved":false,"is_disabled":false,"rental_uris":{"android":"levelo://app?vid=44df366e-3784-4e33-9762-5863e1004e64","ios":"levelo://app?vid=44df366e-3784-4e33-9762-5863e1004e64"},"vehicle_type_id":"4","last_reported":1749543345,"current_range_meters":12000,"station_id":"ce4bh492rcd13ifvqdvg","pricing_plan_id":"cebpf4jnsgd1na2vs0mg"},{"bike_id":"723463b1-0fed-42a8-b7db-10ce5befe814","system_id":"levelo_inurba_marseille","lat":43.30953,"lon":5.39034,"is_reserved":false,"is_disabled":false,"rental_uris":{"android":"levelo://app?vid=723463b1-0fed-42a8-b7db-10ce5befe814","ios":"levelo://app?vid=723463b1-0fed-42a8-b7db-10ce5befe814"},"vehicle_type_id":"4","last_reported":1749543345,"current_range_meters":12000,"station_id":"ce4bgup2rcd13ifvqco0","pricing_plan_id":"cebpf4jnsgd1na2vs0mg"},{"bike_id":"5077581b-cebb-46fc-ba69-4fa8272d4810","system_id":"levelo_inurba_marseille","lat":43.21336,"lon":5.35601,"is_reserved":false,"is_disabled":false,"rental_uris":{"android":"levelo://app?vid=5077581b-cebb-46fc-ba69-4fa8272d4810","ios":"levelo://app?vid=5077581b-cebb-46fc-ba69-4fa8272d4810"},"vehicle_type_id":"4","last_reported":1749543345,"current_range_meters":12400,"station_id":"","pricing_plan_id":"cebpf4jnsgd1na2vs0mg"},{"bike_id":"ef555bdb-3115-4b1f-9398-9c76776e1204","system_id":"levelo_inurba_marseille","lat":43.26029,"lon":5.37428,"is_reserved":false,"is_disabled":false,"rental_uris":{"android":"levelo://app?vid=ef555bdb-3115-4b1f-9398-9c76776e1204","ios":"levelo://app?vid=ef555bdb-3115-4b1f-9398-9c76776e1204"},"vehicle_type_id":"4","last_reported":1749543345,"current_range_meters":12400,"station_id":"","pricing_plan_id":"cebpf4jnsgd1na2vs0mg"},{"bike_id":"54902d6e-73f4-4adf-baf3-1b4db838a3c2","system_id":"levelo_inurba_marseille","lat":43.26676,"lon":5.3826,"is_reserved":false,"is_disabled":false,"rental_uris":{"android":"levelo://app?vid=54902d6e-73f4-4adf-baf3-1b4db838a3c2","ios":"levelo://app?vid=54902d6e-73f4-4adf-baf3-1b4db838a3c2"},"vehicle_type_id":"4","last_reported":1749543345,"current_range_meters":12400,"station_id":"ce4bhg92rcd13ifvqf90","pricing_plan_id":"cebpf4jnsgd1na2vs0mg"},{"bike_id":"402b268f-51d8-4319-85da-3f411d4d5d91","system_id":"levelo_inurba_marseille","lat":43.21196,"lon":5.35059,"is_reserved":false,"is_disabled":false,"rental_uris":{"android":"levelo://app?vid=402b268f-51d8-4319-85da-3f411d4d5d91","ios":"levelo://app?vid=402b268f-51d8-4319-85da-3f411d4d5d91"},"vehicle_type_id":"4","last_reported":1749543345,"current_range_meters":12400,"station_id":"st_cvj6sg6p6f1abm77japg","pricing_plan_id":"cebpf4jnsgd1na2vs0mg"},{"bike_id":"c4c3c022-7a2b-440c-8b8a-cec4a278a2a1","system_id":"levelo_inurba_marseille","lat":43.26211,"lon":5.374457,"is_reserved":false,"is_disabled":false,"rental_uris":{"android":"levelo://app?vid=c4c3c022-7a2b-440c-8b8a-cec4a278a2a1","ios":"levelo://app?vid=c4c3c022-7a2b-440c-8b8a-cec4a278a2a1"},"vehicle_type_id":"4","last_reported":1749543345,"current_range_meters":12800,"station_id":"ce4bhgp2rcd13ifvqfc0","pricing_plan_id":"cebpf4jnsgd1na2vs0mg"},{"bike_id":"c46183ac-8cca-4cdf-a8a9-22b7c63cf27e","system_id":"levelo_inurba_marseille","lat":43.28857,"lon":5.3584,"is_reserved":false,"is_disabled":true,"rental_uris":{"android":"levelo://app?vid=c46183ac-8cca-4cdf-a8a9-22b7c63cf27e","ios":"levelo://app?vid=c46183ac-8cca-4cdf-a8a9-22b7c63cf27e"},"vehicle_type_id":"4","last_reported":1749543345,"current_range_meters":12800,"station_id":"ce4bhb12rcd13ifvqem0","pricing_plan_id":"cebpf4jnsgd1na2vs0mg"},{"bike_id":"5a502358-1a60-4272-ad44-eb4b7b4c1799","system_id":"levelo_inurba_marseille","lat":43.30276,"lon":5.37706,"is_reserved":false,"is_disabled":false,"rental_uris":{"android":"levelo://app?vid=5a502358-1a60-4272-ad44-eb4b7b4c1799","ios":"levelo://app?vid=5a502358-1a60-4272-ad44-eb4b7b4c1799"},"vehicle_type_id":"4","last_reported":1749543345,"current_range_meters":12800,"station_id":"ce4bguh2rcd13ifvqcj0","pricing_plan_id":"cebpf4jnsgd1na2vs0mg"},{"bike_id":"c63f4860-73c6-489f-895c-b31b8d653c8d","system_id":"levelo_inurba_marseille","lat":43.28411,"lon":5.34991,"is_reserved":false,"is_disabled":true,"rental_uris":{"android":"levelo://app?vid=c63f4860-73c6-489f-895c-b31b8d653c8d","ios":"levelo://app?vid=c63f4860-73c6-489f-895c-b31b8d653c8d"},"vehicle_type_id":"4","last_reported":1749543345,"current_range_meters":12800,"station_id":"ce4bhbh2rcd13ifvqepg","pricing_plan_id":"cebpf4jnsgd1na2vs0mg"},{"bike_id":"23e89bac-e2bf-4e89-8e08-1f432b7a4188","system_id":"levelo_inurba_marseille","lat":43.21195,"lon":5.35066,"is_reserved":false,"is_disabled":true,"rental_uris":{"android":"levelo://app?vid=23e89bac-e2bf-4e89-8e08-1f432b7a4188","ios":"levelo://app?vid=23e89bac-e2bf-4e89-8e08-1f432b7a4188"},"vehicle_type_id":"4","last_reported":1749543345,"current_range_meters":13600,"station_id":"st_cvj6sg6p6f1abm77japg","pricing_plan_id":"cebpf4jnsgd1na2vs0mg"},{"bike_id":"b7651752-8eb3-4b67-91fc-0a6e006c8d1f","system_id":"levelo_inurba_marseille","lat":43.21195,"lon":5.35083,"is_reserved":false,"is_disabled":false,"rental_uris":{"android":"levelo://app?vid=b7651752-8eb3-4b67-91fc-0a6e006c8d1f","ios":"levelo://app?vid=b7651752-8eb3-4b67-91fc-0a6e006c8d1f"},"vehicle_type_id":"4","last_reported":1749543345,"current_range_meters":13600,"station_id":"st_cvj6sg6p6f1abm77japg","pricing_plan_id":"cebpf4jnsgd1na2vs0mg"},{"bike_id":"eabdb9d5-3ece-4218-8a07-0264360a5ead","system_id":"levelo_inurba_marseille","lat":43.31495,"lon":5.37281,"is_reserved":false,"is_disabled":false,"rental_uris":{"android":"levelo://app?vid=eabdb9d5-3ece-4218-8a07-0264360a5ead","ios":"levelo://app?vid=eabdb9d5-3ece-4218-8a07-0264360a5ead"},"vehicle_type_id":"4","last_reported":1749543345,"current_range_meters":13600,"station_id":"ce4bgt12rcd13ifvqcd0","pricing_plan_id":"cebpf4jnsgd1na2vs0mg"},{"bike_id":"154fe73d-3435-496e-b9d6-7f8cad0c5609","system_id":"levelo_inurba_marseille","lat":43.31345,"lon":5.36731,"is_reserved":false,"is_disabled":false,"rental_uris":{"android":"levelo://app?vid=154fe73d-3435-496e-b9d6-7f8cad0c5609","ios":"levelo://app?vid=154fe73d-3435-496e-b9d6-7f8cad0c5609"},"vehicle_type_id":"4","last_reported":1749543345,"current_range_meters":13600,"station_id":"ce4bgr92rcd13ifvqc6g","pricing_plan_id":"cebpf4jnsgd1na2vs0mg"},{"bike_id":"7d2d8a5a-d47c-4577-a9f6-abde2d069974","system_id":"levelo_inurba_marseille","lat":43.23151,"lon":5.43712,"is_reserved":false,"is_disabled":false,"rental_uris":{"android":"levelo://app?vid=7d2d8a5a-d47c-4577-a9f6-abde2d069974","ios":"levelo://app?vid=7d2d8a5a-d47c-4577-a9f6-abde2d069974"},"vehicle_type_id":"4","last_reported":1749543345,"current_range_meters":13600,"station_id":"ce4bhmp2rcd13ifvqgog","pricing_plan_id":"cebpf4jnsgd1na2vs0mg"},{"bike_id":"a4d5550e-84cc-45b3-9ece-5c1c87d2df49","system_id":"levelo_inurba_marseille","lat":43.25587,"lon":5.38234,"is_reserved":false,"is_disabled":false,"rental_uris":{"android":"levelo://app?vid=a4d5550e-84cc-45b3-9ece-5c1c87d2df49","ios":"levelo://app?vid=a4d5550e-84cc-45b3-9ece-5c1c87d2df49"},"vehicle_type_id":"4","last_reported":1749543345,"current_range_meters":14000,"station_id":"ce4bhih2rcd13ifvqfs0","pricing_plan_id":"cebpf4jnsgd1na2vs0mg"},{"bike_id":"a06a5e76-7a40-4637-ae47-ceef6131d43b","system_id":"levelo_inurba_marseille","lat":43.3029,"lon":5.3699,"is_reserved":false,"is_disabled":false,"rental_uris":{"android":"levelo://app?vid=a06a5e76-7a40-4637-ae47-ceef6131d43b","ios":"levelo://app?vid=a06a5e76-7a40-4637-ae47-ceef6131d43b"},"vehicle_type_id":"4","last_reported":1749543345,"current_range_meters":14000,"station_id":"","pricing_plan_id":"cebpf4jnsgd1na2vs0mg"},{"bike_id":"eba2c017-d17a-4eca-aa92-886ad3c19570","system_id":"levelo_inurba_marseille","lat":43.33471,"lon":5.3981,"is_reserved":false,"is_disabled":false,"rental_uris":{"android":"levelo://app?vid=eba2c017-d17a-4eca-aa92-886ad3c19570","ios":"levelo://app?vid=eba2c017-d17a-4eca-aa92-886ad3c19570"},"vehicle_type_id":"4","last_reported":1749543345,"current_range_meters":14000,"station_id":"","pricing_plan_id":"cebpf4jnsgd1na2vs0mg"},{"bike_id":"300c4962-758c-4fd7-b0ad-24cbd142cc06","system_id":"levelo_inurba_marseille","lat":43.30186,"lon":5.36631,"is_reserved":false,"is_disabled":false,"rental_uris":{"android":"levelo://app?vid=300c4962-758c-4fd7-b0ad-24cbd142cc06","ios":"levelo://app?vid=300c4962-758c-4fd7-b0ad-24cbd142cc06"},"vehicle_type_id":"4","last_reported":1749543345,"current_range_meters":14000,"station_id":"ce4bgrh2rcd13ifvqc8g","pricing_plan_id":"cebpf4jnsgd1na2vs0mg"},{"bike_id":"456fd0fb-6b00-49e3-944b-55516afdf508","system_id":"levelo_inurba_marseille","lat":43.282752,"lon":5.350704,"is_reserved":false,"is_disabled":true,"rental_uris":{"android":"levelo://app?vid=456fd0fb-6b00-49e3-944b-55516afdf508","ios":"levelo://app?vid=456fd0fb-6b00-49e3-944b-55516afdf508"},"vehicle_type_id":"4","last_reported":1749543345,"current_range_meters":14000,"station_id":"ce4bhbp2rcd13ifvqerg","pricing_plan_id":"cebpf4jnsgd1na2vs0mg"},{"bike_id":"9923286a-b765-4082-b715-0553a8391246","system_id":"levelo_inurba_marseille","lat":43.307958,"lon":5.381529,"is_reserved":false,"is_disabled":false,"rental_uris":{"android":"levelo://app?vid=9923286a-b765-4082-b715-0553a8391246","ios":"levelo://app?vid=9923286a-b765-4082-b715-0553a8391246"},"vehicle_type_id":"4","last_reported":1749543345,"current_range_meters":14000,"station_id":"ce4bgt12rcd13ifvqce0","pricing_plan_id":"cebpf4jnsgd1na2vs0mg"},{"bike_id":"028f3005-94d2-4a69-9d4d-b0684ce3537e","system_id":"levelo_inurba_marseille","lat":43.28342,"lon":5.38096,"is_reserved":false,"is_disabled":false,"rental_uris":{"android":"levelo://app?vid=028f3005-94d2-4a69-9d4d-b0684ce3537e","ios":"levelo://app?vid=028f3005-94d2-4a69-9d4d-b0684ce3537e"},"vehicle_type_id":"4","last_reported":1749543345,"current_range_meters":13600,"station_id":"ce4bh412rcd13ifvqdr0","pricing_plan_id":"cebpf4jnsgd1na2vs0mg"},{"bike_id":"31e172bb-94ca-4c3e-a13a-d7266f5ff40b","system_id":"levelo_inurba_marseille","lat":43.29846,"lon":5.36279,"is_reserved":false,"is_disabled":false,"rental_uris":{"android":"levelo://app?vid=31e172bb-94ca-4c3e-a13a-d7266f5ff40b","ios":"levelo://app?vid=31e172bb-94ca-4c3e-a13a-d7266f5ff40b"},"vehicle_type_id":"4","last_reported":1749543345,"current_range_meters":14000,"station_id":"ce4bgpp2rcd13ifvqc3g","pricing_plan_id":"cebpf4jnsgd1na2vs0mg"},{"bike_id":"d3bb4de2-759b-4fe9-9525-da9f14e62788","system_id":"levelo_inurba_marseille","lat":43.260766,"lon":5.387021,"is_reserved":false,"is_disabled":false,"rental_uris":{"android":"levelo://app?vid=d3bb4de2-759b-4fe9-9525-da9f14e62788","ios":"levelo://app?vid=d3bb4de2-759b-4fe9-9525-da9f14e62788"},"vehicle_type_id":"4","last_reported":1749543345,"current_range_meters":14000,"station_id":"ce4bhih2rcd13ifvqfs0","pricing_plan_id":"cebpf4jnsgd1na2vs0mg"},{"bike_id":"ca27e12a-1f2d-4cf2-be29-12a2b9ff1547","system_id":"levelo_inurba_marseille","lat":43.317203,"lon":5.423953,"is_reserved":false,"is_disabled":false,"rental_uris":{"android":"levelo://app?vid=ca27e12a-1f2d-4cf2-be29-12a2b9ff1547","ios":"levelo://app?vid=ca27e12a-1f2d-4cf2-be29-12a2b9ff1547"},"vehicle_type_id":"4","last_reported":1749543345,"current_range_meters":14000,"station_id":"ce4bhp92rcd13ifvqhbg","pricing_plan_id":"cebpf4jnsgd1na2vs0mg"},{"bike_id":"f800f7dd-3e67-4e35-8721-4206b2ba51ef","system_id":"levelo_inurba_marseille","lat":43.30951,"lon":5.39041,"is_reserved":false,"is_disabled":false,"rental_uris":{"android":"levelo://app?vid=f800f7dd-3e67-4e35-8721-4206b2ba51ef","ios":"levelo://app?vid=f800f7dd-3e67-4e35-8721-4206b2ba51ef"},"vehicle_type_id":"4","last_reported":1749543345,"current_range_meters":14000,"station_id":"ce4bgup2rcd13ifvqco0","pricing_plan_id":"cebpf4jnsgd1na2vs0mg"},{"bike_id":"e2358e1f-b642-4fc1-9915-20b828dd6d4d","system_id":"levelo_inurba_marseille","lat":43.29029,"lon":5.39991,"is_reserved":false,"is_disabled":false,"rental_uris":{"android":"levelo://app?vid=e2358e1f-b642-4fc1-9915-20b828dd6d4d","ios":"levelo://app?vid=e2358e1f-b642-4fc1-9915-20b828dd6d4d"},"vehicle_type_id":"4","last_reported":1749543345,"current_range_meters":14000,"station_id":"ce4bh392rcd13ifvqdm0","pricing_plan_id":"cebpf4jnsgd1na2vs0mg"},{"bike_id":"0becd17c-6589-454e-af0e-5c9eec1d2ca7","system_id":"levelo_inurba_marseille","lat":43.23146,"lon":5.43726,"is_reserved":false,"is_disabled":false,"rental_uris":{"android":"levelo://app?vid=0becd17c-6589-454e-af0e-5c9eec1d2ca7","ios":"levelo://app?vid=0becd17c-6589-454e-af0e-5c9eec1d2ca7"},"vehicle_type_id":"4","last_reported":1749543345,"current_range_meters":14400,"station_id":"ce4bhmp2rcd13ifvqgog","pricing_plan_id":"cebpf4jnsgd1na2vs0mg"},{"bike_id":"41230260-2359-4710-ab51-c6e7d2660e1d","system_id":"levelo_inurba_marseille","lat":43.26795,"lon":5.39414,"is_reserved":false,"is_disabled":false,"rental_uris":{"android":"levelo://app?vid=41230260-2359-4710-ab51-c6e7d2660e1d","ios":"levelo://app?vid=41230260-2359-4710-ab51-c6e7d2660e1d"},"vehicle_type_id":"4","last_reported":1749543345,"current_range_meters":14000,"station_id":"ce4bhh12rcd13ifvqfg0","pricing_plan_id":"cebpf4jnsgd1na2vs0mg"},{"bike_id":"8e401600-8bcb-4aca-a609-303bd5c43190","system_id":"levelo_inurba_marseille","lat":43.31228,"lon":5.36857,"is_reserved":false,"is_disabled":false,"rental_uris":{"android":"levelo://app?vid=8e401600-8bcb-4aca-a609-303bd5c43190","ios":"levelo://app?vid=8e401600-8bcb-4aca-a609-303bd5c43190"},"vehicle_type_id":"4","last_reported":1749543345,"current_range_meters":14400,"station_id":"ce4bgl92rcd13ifvqbq0","pricing_plan_id":"cebpf4jnsgd1na2vs0mg"},{"bike_id":"b2a55171-9e11-4eba-beeb-f2e7c5d27df2","system_id":"levelo_inurba_marseille","lat":43.211849,"lon":5.350814,"is_reserved":false,"is_disabled":false,"rental_uris":{"android":"levelo://app?vid=b2a55171-9e11-4eba-beeb-f2e7c5d27df2","ios":"levelo://app?vid=b2a55171-9e11-4eba-beeb-f2e7c5d27df2"},"vehicle_type_id":"4","last_reported":1749543345,"current_range_meters":14400,"station_id":"st_cvj6sg6p6f1abm77japg","pricing_plan_id":"cebpf4jnsgd1na2vs0mg"},{"bike_id":"e925ed2b-babc-4cf9-b75b-bac898fd5635","system_id":"levelo_inurba_marseille","lat":43.21185,"lon":5.35077,"is_reserved":false,"is_disabled":false,"rental_uris":{"android":"levelo://app?vid=e925ed2b-babc-4cf9-b75b-bac898fd5635","ios":"levelo://app?vid=e925ed2b-babc-4cf9-b75b-bac898fd5635"},"vehicle_type_id":"4","last_reported":1749543345,"current_range_meters":14400,"station_id":"st_cvj6sg6p6f1abm77japg","pricing_plan_id":"cebpf4jnsgd1na2vs0mg"},{"bike_id":"e41836ef-ffcd-4335-8a3f-2080427c4f7b","system_id":"levelo_inurba_marseille","lat":43.26198,"lon":5.37932,"is_reserved":false,"is_disabled":false,"rental_uris":{"android":"levelo://app?vid=e41836ef-ffcd-4335-8a3f-2080427c4f7b","ios":"levelo://app?vid=e41836ef-ffcd-4335-8a3f-2080427c4f7b"},"vehicle_type_id":"4","last_reported":1749543345,"current_range_meters":14800,"station_id":"ce4bhjp2rcd13ifvqg90","pricing_plan_id":"cebpf4jnsgd1na2vs0mg"},{"bike_id":"e4c92553-820d-4bab-bd78-8b1843ca23ce","system_id":"levelo_inurba_marseille","lat":43.24182,"lon":5.39721,"is_reserved":false,"is_disabled":false,"rental_uris":{"android":"levelo://app?vid=e4c92553-820d-4bab-bd78-8b1843ca23ce","ios":"levelo://app?vid=e4c92553-820d-4bab-bd78-8b1843ca23ce"},"vehicle_type_id":"4","last_reported":1749543345,"current_range_meters":14800,"station_id":"ce4bhn12rcd13ifvqgpg","pricing_plan_id":"cebpf4jnsgd1na2vs0mg"},{"bike_id":"f79292e4-f3c3-4e7a-bd5f-6ad7145387ef","system_id":"levelo_inurba_marseille","lat":43.274313,"lon":5.394073,"is_reserved":false,"is_disabled":true,"rental_uris":{"android":"levelo://app?vid=f79292e4-f3c3-4e7a-bd5f-6ad7145387ef","ios":"levelo://app?vid=f79292e4-f3c3-4e7a-bd5f-6ad7145387ef"},"vehicle_type_id":"4","last_reported":1749543345,"current_range_meters":14800,"station_id":"ce4bhdp2rcd13ifvqf20","pricing_plan_id":"cebpf4jnsgd1na2vs0mg"},{"bike_id":"29a207e6-b15a-414d-8198-522627b7f792","system_id":"levelo_inurba_marseille","lat":43.31368,"lon":5.38494,"is_reserved":false,"is_disabled":false,"rental_uris":{"android":"levelo://app?vid=29a207e6-b15a-414d-8198-522627b7f792","ios":"levelo://app?vid=29a207e6-b15a-414d-8198-522627b7f792"},"vehicle_type_id":"4","last_reported":1749543345,"current_range_meters":14800,"station_id":"ce4bgt92rcd13ifvqcf0","pricing_plan_id":"cebpf4jnsgd1na2vs0mg"},{"bike_id":"c6830c0d-e468-46fa-b9c2-96c1aec56a2d","system_id":"levelo_inurba_marseille","lat":43.272821,"lon":5.431065,"is_reserved":false,"is_disabled":false,"rental_uris":{"android":"levelo://app?vid=c6830c0d-e468-46fa-b9c2-96c1aec56a2d","ios":"levelo://app?vid=c6830c0d-e468-46fa-b9c2-96c1aec56a2d"},"vehicle_type_id":"4","last_reported":1749543345,"current_range_meters":14800,"station_id":"","pricing_plan_id":"cebpf4jnsgd1na2vs0mg"},{"bike_id":"4eada35f-a65e-4d4e-b60d-b88e9a624416","system_id":"levelo_inurba_marseille","lat":43.24385,"lon":5.37063,"is_reserved":false,"is_disabled":false,"rental_uris":{"android":"levelo://app?vid=4eada35f-a65e-4d4e-b60d-b88e9a624416","ios":"levelo://app?vid=4eada35f-a65e-4d4e-b60d-b88e9a624416"},"vehicle_type_id":"4","last_reported":1749543345,"current_range_meters":15200,"station_id":"ce4bhhh2rcd13ifvqfk0","pricing_plan_id":"cebpf4jnsgd1na2vs0mg"},{"bike_id":"7fbb8cf5-f563-4c4a-90cf-1a5ac10b01c4","system_id":"levelo_inurba_marseille","lat":43.21217,"lon":5.35078,"is_reserved":false,"is_disabled":false,"rental_uris":{"android":"levelo://app?vid=7fbb8cf5-f563-4c4a-90cf-1a5ac10b01c4","ios":"levelo://app?vid=7fbb8cf5-f563-4c4a-90cf-1a5ac10b01c4"},"vehicle_type_id":"4","last_reported":1749543345,"current_range_meters":15200,"station_id":"st_cvj6sg6p6f1abm77japg","pricing_plan_id":"cebpf4jnsgd1na2vs0mg"},{"bike_id":"a7e979e5-7afa-4658-b3e7-2502946031d3","system_id":"levelo_inurba_marseille","lat":43.255155,"lon":5.420335,"is_reserved":false,"is_disabled":false,"rental_uris":{"android":"levelo://app?vid=a7e979e5-7afa-4658-b3e7-2502946031d3","ios":"levelo://app?vid=a7e979e5-7afa-4658-b3e7-2502946031d3"},"vehicle_type_id":"4","last_reported":1749543345,"current_range_meters":16000,"station_id":"","pricing_plan_id":"cebpf4jnsgd1na2vs0mg"},{"bike_id":"4497bc7b-bd64-47d5-92de-a3021c6fff2f","system_id":"levelo_inurba_marseille","lat":43.324771,"lon":5.365591,"is_reserved":false,"is_disabled":false,"rental_uris":{"android":"levelo://app?vid=4497bc7b-bd64-47d5-92de-a3021c6fff2f","ios":"levelo://app?vid=4497bc7b-bd64-47d5-92de-a3021c6fff2f"},"vehicle_type_id":"4","last_reported":1749543345,"current_range_meters":16000,"station_id":"ce4bhs12rcd13ifvqhvg","pricing_plan_id":"cebpf4jnsgd1na2vs0mg"},{"bike_id":"abcd2dc9-4396-440f-85b3-9d9064401860","system_id":"levelo_inurba_marseille","lat":43.31363,"lon":5.36706,"is_reserved":false,"is_disabled":false,"rental_uris":{"android":"levelo://app?vid=abcd2dc9-4396-440f-85b3-9d9064401860","ios":"levelo://app?vid=abcd2dc9-4396-440f-85b3-9d9064401860"},"vehicle_type_id":"4","last_reported":1749543345,"current_range_meters":16000,"station_id":"ce4bgr92rcd13ifvqc6g","pricing_plan_id":"cebpf4jnsgd1na2vs0mg"},{"bike_id":"dcbcf1b8-0781-4dcf-bfea-dca98c89ba40","system_id":"levelo_inurba_marseille","lat":43.28598,"lon":5.351008,"is_reserved":false,"is_disabled":false,"rental_uris":{"android":"levelo://app?vid=dcbcf1b8-0781-4dcf-bfea-dca98c89ba40","ios":"levelo://app?vid=dcbcf1b8-0781-4dcf-bfea-dca98c89ba40"},"vehicle_type_id":"4","last_reported":1749543345,"current_range_meters":16000,"station_id":"ce4bgv92rcd13ifvqcq0","pricing_plan_id":"cebpf4jnsgd1na2vs0mg"},{"bike_id":"8d40b566-02c8-4dfb-ae5f-53cce8dc604c","system_id":"levelo_inurba_marseille","lat":43.28153,"lon":5.42639,"is_reserved":false,"is_disabled":false,"rental_uris":{"android":"levelo://app?vid=8d40b566-02c8-4dfb-ae5f-53cce8dc604c","ios":"levelo://app?vid=8d40b566-02c8-4dfb-ae5f-53cce8dc604c"},"vehicle_type_id":"4","last_reported":1749543345,"current_range_meters":16000,"station_id":"ce4bhnh2rcd13ifvqgug","pricing_plan_id":"cebpf4jnsgd1na2vs0mg"},{"bike_id":"187b0a7b-e256-4c19-9794-bb250a6c5653","system_id":"levelo_inurba_marseille","lat":43.31865,"lon":5.37947,"is_reserved":false,"is_disabled":false,"rental_uris":{"android":"levelo://app?vid=187b0a7b-e256-4c19-9794-bb250a6c5653","ios":"levelo://app?vid=187b0a7b-e256-4c19-9794-bb250a6c5653"},"vehicle_type_id":"4","last_reported":1749543345,"current_range_meters":16000,"station_id":"","pricing_plan_id":"cebpf4jnsgd1na2vs0mg"},{"bike_id":"fc0685b8-fc6b-483e-b3c2-e1c5bc9ee111","system_id":"levelo_inurba_marseille","lat":43.26776,"lon":5.39446,"is_reserved":false,"is_disabled":false,"rental_uris":{"android":"levelo://app?vid=fc0685b8-fc6b-483e-b3c2-e1c5bc9ee111","ios":"levelo://app?vid=fc0685b8-fc6b-483e-b3c2-e1c5bc9ee111"},"vehicle_type_id":"4","last_reported":1749543345,"current_range_meters":16000,"station_id":"ce4bhh12rcd13ifvqfg0","pricing_plan_id":"cebpf4jnsgd1na2vs0mg"},{"bike_id":"1a22e168-8710-40d1-b452-e1b78d1c1291","system_id":"levelo_inurba_marseille","lat":43.30537,"lon":5.36545,"is_reserved":false,"is_disabled":false,"rental_uris":{"android":"levelo://app?vid=1a22e168-8710-40d1-b452-e1b78d1c1291","ios":"levelo://app?vid=1a22e168-8710-40d1-b452-e1b78d1c1291"},"vehicle_type_id":"4","last_reported":1749543345,"current_range_meters":15200,"station_id":"ce4bgs12rcd13ifvqcag","pricing_plan_id":"cebpf4jnsgd1na2vs0mg"},{"bike_id":"5cb543f8-627a-4392-8dfd-1391f785eb3c","system_id":"levelo_inurba_marseille","lat":43.244,"lon":5.37056,"is_reserved":false,"is_disabled":false,"rental_uris":{"android":"levelo://app?vid=5cb543f8-627a-4392-8dfd-1391f785eb3c","ios":"levelo://app?vid=5cb543f8-627a-4392-8dfd-1391f785eb3c"},"vehicle_type_id":"4","last_reported":1749543345,"current_range_meters":16400,"station_id":"ce4bhhh2rcd13ifvqfk0","pricing_plan_id":"cebpf4jnsgd1na2vs0mg"},{"bike_id":"0197ce67-c2bc-4d03-bc9a-15f201693bd4","system_id":"levelo_inurba_marseille","lat":43.31761,"lon":5.3901,"is_reserved":false,"is_disabled":false,"rental_uris":{"android":"levelo://app?vid=0197ce67-c2bc-4d03-bc9a-15f201693bd4","ios":"levelo://app?vid=0197ce67-c2bc-4d03-bc9a-15f201693bd4"},"vehicle_type_id":"4","last_reported":1749543345,"current_range_meters":16400,"station_id":"ce4bhqp2rcd13ifvqhng","pricing_plan_id":"cebpf4jnsgd1na2vs0mg"},{"bike_id":"c30dbedc-c866-492b-a092-32c1ee0c1f22","system_id":"levelo_inurba_marseille","lat":43.29543,"lon":5.38552,"is_reserved":false,"is_disabled":true,"rental_uris":{"android":"levelo://app?vid=c30dbedc-c866-492b-a092-32c1ee0c1f22","ios":"levelo://app?vid=c30dbedc-c866-492b-a092-32c1ee0c1f22"},"vehicle_type_id":"4","last_reported":1749543345,"current_range_meters":16400,"station_id":"ce4bgih2rcd13ifvqba0","pricing_plan_id":"cebpf4jnsgd1na2vs0mg"},{"bike_id":"557104e5-12ad-4811-8d87-d8392375329d","system_id":"levelo_inurba_marseille","lat":43.28268,"lon":5.35061,"is_reserved":false,"is_disabled":false,"rental_uris":{"android":"levelo://app?vid=557104e5-12ad-4811-8d87-d8392375329d","ios":"levelo://app?vid=557104e5-12ad-4811-8d87-d8392375329d"},"vehicle_type_id":"4","last_reported":1749543345,"current_range_meters":16400,"station_id":"ce4bhbp2rcd13ifvqerg","pricing_plan_id":"cebpf4jnsgd1na2vs0mg"},{"bike_id":"fad9b98f-1bfd-41b0-be76-c725e485d072","system_id":"levelo_inurba_marseille","lat":43.2119,"lon":5.35076,"is_reserved":false,"is_disabled":false,"rental_uris":{"android":"levelo://app?vid=fad9b98f-1bfd-41b0-be76-c725e485d072","ios":"levelo://app?vid=fad9b98f-1bfd-41b0-be76-c725e485d072"},"vehicle_type_id":"4","last_reported":1749543345,"current_range_meters":16400,"station_id":"st_cvj6sg6p6f1abm77japg","pricing_plan_id":"cebpf4jnsgd1na2vs0mg"},{"bike_id":"030837b3-ec22-4215-84b2-ec76b9e092a2","system_id":"levelo_inurba_marseille","lat":43.29068,"lon":5.3716,"is_reserved":false,"is_disabled":false,"rental_uris":{"android":"levelo://app?vid=030837b3-ec22-4215-84b2-ec76b9e092a2","ios":"levelo://app?vid=030837b3-ec22-4215-84b2-ec76b9e092a2"},"vehicle_type_id":"4","last_reported":1749543345,"current_range_meters":16400,"station_id":"ce4bh5p2rcd13ifvqe4g","pricing_plan_id":"cebpf4jnsgd1na2vs0mg"},{"bike_id":"1771f2e9-6d27-4df4-9241-5254080aa8b5","system_id":"levelo_inurba_marseille","lat":43.26195,"lon":5.37924,"is_reserved":false,"is_disabled":false,"rental_uris":{"android":"levelo://app?vid=1771f2e9-6d27-4df4-9241-5254080aa8b5","ios":"levelo://app?vid=1771f2e9-6d27-4df4-9241-5254080aa8b5"},"vehicle_type_id":"4","last_reported":1749543345,"current_range_meters":16400,"station_id":"ce4bhjp2rcd13ifvqg90","pricing_plan_id":"cebpf4jnsgd1na2vs0mg"},{"bike_id":"f54b4879-e5d1-4fbe-881a-1d124b520d80","system_id":"levelo_inurba_marseille","lat":43.29906,"lon":5.38156,"is_reserved":false,"is_disabled":false,"rental_uris":{"android":"levelo://app?vid=f54b4879-e5d1-4fbe-881a-1d124b520d80","ios":"levelo://app?vid=f54b4879-e5d1-4fbe-881a-1d124b520d80"},"vehicle_type_id":"4","last_reported":1749543345,"current_range_meters":16400,"station_id":"ce4bgj12rcd13ifvqbc0","pricing_plan_id":"cebpf4jnsgd1na2vs0mg"},{"bike_id":"99cf8bb9-9808-4e04-8fe5-347943656c14","system_id":"levelo_inurba_marseille","lat":43.30466,"lon":5.37904,"is_reserved":false,"is_disabled":false,"rental_uris":{"android":"levelo://app?vid=99cf8bb9-9808-4e04-8fe5-347943656c14","ios":"levelo://app?vid=99cf8bb9-9808-4e04-8fe5-347943656c14"},"vehicle_type_id":"4","last_reported":1749543345,"current_range_meters":16400,"station_id":"ce4bgup2rcd13ifvqcn0","pricing_plan_id":"cebpf4jnsgd1na2vs0mg"},{"bike_id":"1e20f032-0f6a-40b2-ad29-e4d2225496fa","system_id":"levelo_inurba_marseille","lat":43.30313,"lon":5.37077,"is_reserved":false,"is_disabled":false,"rental_uris":{"android":"levelo://app?vid=1e20f032-0f6a-40b2-ad29-e4d2225496fa","ios":"levelo://app?vid=1e20f032-0f6a-40b2-ad29-e4d2225496fa"},"vehicle_type_id":"4","last_reported":1749543345,"current_range_meters":16400,"station_id":"","pricing_plan_id":"cebpf4jnsgd1na2vs0mg"},{"bike_id":"f47be119-bfcb-4a6a-b442-d0ce0aaf9e3f","system_id":"levelo_inurba_marseille","lat":43.29237,"lon":5.40921,"is_reserved":false,"is_disabled":true,"rental_uris":{"android":"levelo://app?vid=f47be119-bfcb-4a6a-b442-d0ce0aaf9e3f","ios":"levelo://app?vid=f47be119-bfcb-4a6a-b442-d0ce0aaf9e3f"},"vehicle_type_id":"4","last_reported":1749543345,"current_range_meters":16400,"station_id":"ce4bh192rcd13ifvqdc0","pricing_plan_id":"cebpf4jnsgd1na2vs0mg"},{"bike_id":"95177de9-fb00-42c1-a3e5-2dc6a890ea2e","system_id":"levelo_inurba_marseille","lat":43.30539,"lon":5.36732,"is_reserved":false,"is_disabled":false,"rental_uris":{"android":"levelo://app?vid=95177de9-fb00-42c1-a3e5-2dc6a890ea2e","ios":"levelo://app?vid=95177de9-fb00-42c1-a3e5-2dc6a890ea2e"},"vehicle_type_id":"4","last_reported":1749543345,"current_range_meters":16800,"station_id":"ce4bgrp2rcd13ifvqc9g","pricing_plan_id":"cebpf4jnsgd1na2vs0mg"},{"bike_id":"85a352ba-bdf6-4265-bf9a-db4de6dcf522","system_id":"levelo_inurba_marseille","lat":43.305328,"lon":5.367049,"is_reserved":false,"is_disabled":false,"rental_uris":{"android":"levelo://app?vid=85a352ba-bdf6-4265-bf9a-db4de6dcf522","ios":"levelo://app?vid=85a352ba-bdf6-4265-bf9a-db4de6dcf522"},"vehicle_type_id":"4","last_reported":1749543345,"current_range_meters":16800,"station_id":"ce4bgrp2rcd13ifvqc9g","pricing_plan_id":"cebpf4jnsgd1na2vs0mg"},{"bike_id":"84f5a926-1dd6-4535-b647-2764ce0ca103","system_id":"levelo_inurba_marseille","lat":43.32095,"lon":5.36806,"is_reserved":false,"is_disabled":false,"rental_uris":{"android":"levelo://app?vid=84f5a926-1dd6-4535-b647-2764ce0ca103","ios":"levelo://app?vid=84f5a926-1dd6-4535-b647-2764ce0ca103"},"vehicle_type_id":"4","last_reported":1749543345,"current_range_meters":16800,"station_id":"ce4bhrh2rcd13ifvqhug","pricing_plan_id":"cebpf4jnsgd1na2vs0mg"},{"bike_id":"787e4fac-022a-42a6-a25c-cb35361bbd97","system_id":"levelo_inurba_marseille","lat":43.29206,"lon":5.35806,"is_reserved":false,"is_disabled":false,"rental_uris":{"android":"levelo://app?vid=787e4fac-022a-42a6-a25c-cb35361bbd97","ios":"levelo://app?vid=787e4fac-022a-42a6-a25c-cb35361bbd97"},"vehicle_type_id":"4","last_reported":1749543345,"current_range_meters":16800,"station_id":"ce4bhb12rcd13ifvqel0","pricing_plan_id":"cebpf4jnsgd1na2vs0mg"},{"bike_id":"38f3574c-6050-4f7b-b824-25609fb7b634","system_id":"levelo_inurba_marseille","lat":43.29979,"lon":5.3851,"is_reserved":false,"is_disabled":true,"rental_uris":{"android":"levelo://app?vid=38f3574c-6050-4f7b-b824-25609fb7b634","ios":"levelo://app?vid=38f3574c-6050-4f7b-b824-25609fb7b634"},"vehicle_type_id":"4","last_reported":1749543345,"current_range_meters":16800,"station_id":"ce4bgj92rcd13ifvqbd0","pricing_plan_id":"cebpf4jnsgd1na2vs0mg"},{"bike_id":"262903a9-22b9-4b2d-96c2-2e5dbd155090","system_id":"levelo_inurba_marseille","lat":43.324777,"lon":5.365705,"is_reserved":false,"is_disabled":false,"rental_uris":{"android":"levelo://app?vid=262903a9-22b9-4b2d-96c2-2e5dbd155090","ios":"levelo://app?vid=262903a9-22b9-4b2d-96c2-2e5dbd155090"},"vehicle_type_id":"4","last_reported":1749543345,"current_range_meters":17200,"station_id":"ce4bhs12rcd13ifvqhvg","pricing_plan_id":"cebpf4jnsgd1na2vs0mg"},{"bike_id":"83b3f903-524d-46a9-af69-dd0f2e00c085","system_id":"levelo_inurba_marseille","lat":43.2872,"lon":5.37946,"is_reserved":false,"is_disabled":false,"rental_uris":{"android":"levelo://app?vid=83b3f903-524d-46a9-af69-dd0f2e00c085","ios":"levelo://app?vid=83b3f903-524d-46a9-af69-dd0f2e00c085"},"vehicle_type_id":"4","last_reported":1749543345,"current_range_meters":17200,"station_id":"ce4bh9p2rcd13ifvqec0","pricing_plan_id":"cebpf4jnsgd1na2vs0mg"},{"bike_id":"b0f39c6b-d7da-4e83-881b-6c0b5f546bf0","system_id":"levelo_inurba_marseille","lat":43.3173,"lon":5.4046,"is_reserved":false,"is_disabled":false,"rental_uris":{"android":"levelo://app?vid=b0f39c6b-d7da-4e83-881b-6c0b5f546bf0","ios":"levelo://app?vid=b0f39c6b-d7da-4e83-881b-6c0b5f546bf0"},"vehicle_type_id":"4","last_reported":1749543345,"current_range_meters":17200,"station_id":"ce4bh012rcd13ifvqd00","pricing_plan_id":"cebpf4jnsgd1na2vs0mg"},{"bike_id":"4db8dc74-924f-4f15-a41b-a10c28e053ad","system_id":"levelo_inurba_marseille","lat":43.2985,"lon":5.36276,"is_reserved":false,"is_disabled":false,"rental_uris":{"android":"levelo://app?vid=4db8dc74-924f-4f15-a41b-a10c28e053ad","ios":"levelo://app?vid=4db8dc74-924f-4f15-a41b-a10c28e053ad"},"vehicle_type_id":"4","last_reported":1749543345,"current_range_meters":17200,"station_id":"ce4bgpp2rcd13ifvqc3g","pricing_plan_id":"cebpf4jnsgd1na2vs0mg"},{"bike_id":"62bb4961-b701-40c9-b1d4-6e943835a464","system_id":"levelo_inurba_marseille","lat":43.23149,"lon":5.43707,"is_reserved":false,"is_disabled":false,"rental_uris":{"android":"levelo://app?vid=62bb4961-b701-40c9-b1d4-6e943835a464","ios":"levelo://app?vid=62bb4961-b701-40c9-b1d4-6e943835a464"},"vehicle_type_id":"4","last_reported":1749543345,"current_range_meters":17200,"station_id":"ce4bhmp2rcd13ifvqgog","pricing_plan_id":"cebpf4jnsgd1na2vs0mg"},{"bike_id":"002ad4e8-6140-4bdd-b14b-f38ee707447e","system_id":"levelo_inurba_marseille","lat":43.30987,"lon":5.38578,"is_reserved":false,"is_disabled":false,"rental_uris":{"android":"levelo://app?vid=002ad4e8-6140-4bdd-b14b-f38ee707447e","ios":"levelo://app?vid=002ad4e8-6140-4bdd-b14b-f38ee707447e"},"vehicle_type_id":"4","last_reported":1749543345,"current_range_meters":17200,"station_id":"","pricing_plan_id":"cebpf4jnsgd1na2vs0mg"},{"bike_id":"ab029e3a-3228-4de5-9917-9a7580fe9aa7","system_id":"levelo_inurba_marseille","lat":43.26064,"lon":5.39402,"is_reserved":false,"is_disabled":false,"rental_uris":{"android":"levelo://app?vid=ab029e3a-3228-4de5-9917-9a7580fe9aa7","ios":"levelo://app?vid=ab029e3a-3228-4de5-9917-9a7580fe9aa7"},"vehicle_type_id":"4","last_reported":1749543345,"current_range_meters":17200,"station_id":"ce4bhh92rcd13ifvqfj0","pricing_plan_id":"cebpf4jnsgd1na2vs0mg"},{"bike_id":"a910c4a2-1e81-4def-ab41-30b306bd9aae","system_id":"levelo_inurba_marseille","lat":43.30309,"lon":5.36902,"is_reserved":false,"is_disabled":false,"rental_uris":{"android":"levelo://app?vid=a910c4a2-1e81-4def-ab41-30b306bd9aae","ios":"levelo://app?vid=a910c4a2-1e81-4def-ab41-30b306bd9aae"},"vehicle_type_id":"4","last_reported":1749543345,"current_range_meters":17200,"station_id":"ce4bgqh2rcd13ifvqc5g","pricing_plan_id":"cebpf4jnsgd1na2vs0mg"},{"bike_id":"3edb570d-33ed-40cf-b0a7-0867fc7745c1","system_id":"levelo_inurba_marseille","lat":43.2963,"lon":5.40599,"is_reserved":false,"is_disabled":false,"rental_uris":{"android":"levelo://app?vid=3edb570d-33ed-40cf-b0a7-0867fc7745c1","ios":"levelo://app?vid=3edb570d-33ed-40cf-b0a7-0867fc7745c1"},"vehicle_type_id":"4","last_reported":1749543345,"current_range_meters":17200,"station_id":"ce4bh0h2rcd13ifvqd60","pricing_plan_id":"cebpf4jnsgd1na2vs0mg"},{"bike_id":"0d4074b4-67cb-44c1-b0f9-275fe53c1766","system_id":"levelo_inurba_marseille","lat":43.25943,"lon":5.40893,"is_reserved":false,"is_disabled":false,"rental_uris":{"android":"levelo://app?vid=0d4074b4-67cb-44c1-b0f9-275fe53c1766","ios":"levelo://app?vid=0d4074b4-67cb-44c1-b0f9-275fe53c1766"},"vehicle_type_id":"4","last_reported":1749543345,"current_range_meters":17600,"station_id":"ce4bhm92rcd13ifvqglg","pricing_plan_id":"cebpf4jnsgd1na2vs0mg"},{"bike_id":"dd811bf3-0181-407a-8576-29b1b5c691ec","system_id":"levelo_inurba_marseille","lat":43.29636,"lon":5.42731,"is_reserved":false,"is_disabled":false,"rental_uris":{"android":"levelo://app?vid=dd811bf3-0181-407a-8576-29b1b5c691ec","ios":"levelo://app?vid=dd811bf3-0181-407a-8576-29b1b5c691ec"},"vehicle_type_id":"4","last_reported":1749543345,"current_range_meters":17600,"station_id":"","pricing_plan_id":"cebpf4jnsgd1na2vs0mg"},{"bike_id":"9ad6aa03-4539-41a2-81bb-1c68d920eb2d","system_id":"levelo_inurba_marseille","lat":43.28972,"lon":5.37836,"is_reserved":false,"is_disabled":false,"rental_uris":{"android":"levelo://app?vid=9ad6aa03-4539-41a2-81bb-1c68d920eb2d","ios":"levelo://app?vid=9ad6aa03-4539-41a2-81bb-1c68d920eb2d"},"vehicle_type_id":"4","last_reported":1749543345,"current_range_meters":17600,"station_id":"ce4bh9p2rcd13ifvqed0","pricing_plan_id":"cebpf4jnsgd1na2vs0mg"},{"bike_id":"f86c871e-5691-4061-a487-aa146b09dc41","system_id":"levelo_inurba_marseille","lat":43.28424,"lon":5.34987,"is_reserved":false,"is_disabled":false,"rental_uris":{"android":"levelo://app?vid=f86c871e-5691-4061-a487-aa146b09dc41","ios":"levelo://app?vid=f86c871e-5691-4061-a487-aa146b09dc41"},"vehicle_type_id":"4","last_reported":1749543345,"current_range_meters":17600,"station_id":"ce4bhbh2rcd13ifvqepg","pricing_plan_id":"cebpf4jnsgd1na2vs0mg"},{"bike_id":"c71d12b6-b2de-4af1-bac8-1918910b90a7","system_id":"levelo_inurba_marseille","lat":43.24177,"lon":5.39731,"is_reserved":false,"is_disabled":false,"rental_uris":{"android":"levelo://app?vid=c71d12b6-b2de-4af1-bac8-1918910b90a7","ios":"levelo://app?vid=c71d12b6-b2de-4af1-bac8-1918910b90a7"},"vehicle_type_id":"4","last_reported":1749543345,"current_range_meters":17600,"station_id":"ce4bhn12rcd13ifvqgpg","pricing_plan_id":"cebpf4jnsgd1na2vs0mg"},{"bike_id":"2e3c4673-5f68-4031-832e-3bc76af6981e","system_id":"levelo_inurba_marseille","lat":43.29501,"lon":5.37524,"is_reserved":false,"is_disabled":false,"rental_uris":{"android":"levelo://app?vid=2e3c4673-5f68-4031-832e-3bc76af6981e","ios":"levelo://app?vid=2e3c4673-5f68-4031-832e-3bc76af6981e"},"vehicle_type_id":"4","last_reported":1749543345,"current_range_meters":17600,"station_id":"ce4bgkp2rcd13ifvqbmg","pricing_plan_id":"cebpf4jnsgd1na2vs0mg"},{"bike_id":"7eb627a3-9497-4182-b493-6a37af98b078","system_id":"levelo_inurba_marseille","lat":43.317244,"lon":5.423931,"is_reserved":false,"is_disabled":false,"rental_uris":{"android":"levelo://app?vid=7eb627a3-9497-4182-b493-6a37af98b078","ios":"levelo://app?vid=7eb627a3-9497-4182-b493-6a37af98b078"},"vehicle_type_id":"4","last_reported":1749543345,"current_range_meters":17600,"station_id":"ce4bhp92rcd13ifvqhbg","pricing_plan_id":"cebpf4jnsgd1na2vs0mg"},{"bike_id":"0abd7fe4-085c-4c8b-a77f-174bd23fa865","system_id":"levelo_inurba_marseille","lat":43.30957,"lon":5.39039,"is_reserved":false,"is_disabled":false,"rental_uris":{"android":"levelo://app?vid=0abd7fe4-085c-4c8b-a77f-174bd23fa865","ios":"levelo://app?vid=0abd7fe4-085c-4c8b-a77f-174bd23fa865"},"vehicle_type_id":"4","last_reported":1749543345,"current_range_meters":17600,"station_id":"ce4bgup2rcd13ifvqco0","pricing_plan_id":"cebpf4jnsgd1na2vs0mg"},{"bike_id":"2dd36baf-6a31-492c-991b-c1531f4583d5","system_id":"levelo_inurba_marseille","lat":43.26938,"lon":5.40244,"is_reserved":false,"is_disabled":false,"rental_uris":{"android":"levelo://app?vid=2dd36baf-6a31-492c-991b-c1531f4583d5","ios":"levelo://app?vid=2dd36baf-6a31-492c-991b-c1531f4583d5"},"vehicle_type_id":"4","last_reported":1749543345,"current_range_meters":17600,"station_id":"cjm6bp8fraef2m0cb0m0","pricing_plan_id":"cebpf4jnsgd1na2vs0mg"},{"bike_id":"9b2525c3-f3db-41a5-888b-c51489407439","system_id":"levelo_inurba_marseille","lat":43.28999,"lon":5.3561,"is_reserved":false,"is_disabled":false,"rental_uris":{"android":"levelo://app?vid=9b2525c3-f3db-41a5-888b-c51489407439","ios":"levelo://app?vid=9b2525c3-f3db-41a5-888b-c51489407439"},"vehicle_type_id":"4","last_reported":1749543345,"current_range_meters":17600,"station_id":"ce4bhb92rcd13ifvqen0","pricing_plan_id":"cebpf4jnsgd1na2vs0mg"},{"bike_id":"ca3fa9cd-94fb-4f46-b916-f9d02288793c","system_id":"levelo_inurba_marseille","lat":43.27501,"lon":5.42459,"is_reserved":false,"is_disabled":false,"rental_uris":{"android":"levelo://app?vid=ca3fa9cd-94fb-4f46-b916-f9d02288793c","ios":"levelo://app?vid=ca3fa9cd-94fb-4f46-b916-f9d02288793c"},"vehicle_type_id":"4","last_reported":1749543345,"current_range_meters":17600,"station_id":"ce4bhn92rcd13ifvqgrg","pricing_plan_id":"cebpf4jnsgd1na2vs0mg"},{"bike_id":"74270b3d-89a4-4e3c-976c-62373a4ee1b7","system_id":"levelo_inurba_marseille","lat":43.30538,"lon":5.36533,"is_reserved":false,"is_disabled":false,"rental_uris":{"android":"levelo://app?vid=74270b3d-89a4-4e3c-976c-62373a4ee1b7","ios":"levelo://app?vid=74270b3d-89a4-4e3c-976c-62373a4ee1b7"},"vehicle_type_id":"4","last_reported":1749543345,"current_range_meters":18000,"station_id":"ce4bgs12rcd13ifvqcag","pricing_plan_id":"cebpf4jnsgd1na2vs0mg"},{"bike_id":"fa185753-3794-480a-a16f-f1cd2396c7b0","system_id":"levelo_inurba_marseille","lat":43.31358,"lon":5.36725,"is_reserved":false,"is_disabled":false,"rental_uris":{"android":"levelo://app?vid=fa185753-3794-480a-a16f-f1cd2396c7b0","ios":"levelo://app?vid=fa185753-3794-480a-a16f-f1cd2396c7b0"},"vehicle_type_id":"4","last_reported":1749543345,"current_range_meters":18000,"station_id":"ce4bgr92rcd13ifvqc6g","pricing_plan_id":"cebpf4jnsgd1na2vs0mg"},{"bike_id":"0d6aaa64-d76a-4802-a904-32b7989d41bf","system_id":"levelo_inurba_marseille","lat":43.28466,"lon":5.3842,"is_reserved":false,"is_disabled":false,"rental_uris":{"android":"levelo://app?vid=0d6aaa64-d76a-4802-a904-32b7989d41bf","ios":"levelo://app?vid=0d6aaa64-d76a-4802-a904-32b7989d41bf"},"vehicle_type_id":"4","last_reported":1749543345,"current_range_meters":18000,"station_id":"ce4bh512rcd13ifvqe3g","pricing_plan_id":"cebpf4jnsgd1na2vs0mg"},{"bike_id":"5d3016e0-312c-4b72-8484-4c5d7ec442ef","system_id":"levelo_inurba_marseille","lat":43.36843,"lon":5.34322,"is_reserved":false,"is_disabled":false,"rental_uris":{"android":"levelo://app?vid=5d3016e0-312c-4b72-8484-4c5d7ec442ef","ios":"levelo://app?vid=5d3016e0-312c-4b72-8484-4c5d7ec442ef"},"vehicle_type_id":"4","last_reported":1749543345,"current_range_meters":18000,"station_id":"","pricing_plan_id":"cebpf4jnsgd1na2vs0mg"},{"bike_id":"2dfb1439-d102-48c6-8268-1b39c5e28a08","system_id":"levelo_inurba_marseille","lat":43.29295,"lon":5.37431,"is_reserved":false,"is_disabled":false,"rental_uris":{"android":"levelo://app?vid=2dfb1439-d102-48c6-8268-1b39c5e28a08","ios":"levelo://app?vid=2dfb1439-d102-48c6-8268-1b39c5e28a08"},"vehicle_type_id":"4","last_reported":1749543345,"current_range_meters":18000,"station_id":"ce4bgi12rcd13ifvqb70","pricing_plan_id":"cebpf4jnsgd1na2vs0mg"},{"bike_id":"1acfb620-cad7-48c0-8901-d7a5b74a5b65","system_id":"levelo_inurba_marseille","lat":43.33751,"lon":5.37456,"is_reserved":false,"is_disabled":false,"rental_uris":{"android":"levelo://app?vid=1acfb620-cad7-48c0-8901-d7a5b74a5b65","ios":"levelo://app?vid=1acfb620-cad7-48c0-8901-d7a5b74a5b65"},"vehicle_type_id":"4","last_reported":1749543345,"current_range_meters":18000,"station_id":"","pricing_plan_id":"cebpf4jnsgd1na2vs0mg"},{"bike_id":"f53bc08c-3129-4fc3-9174-862ec7b43c8b","system_id":"levelo_inurba_marseille","lat":43.28271,"lon":5.35093,"is_reserved":false,"is_disabled":false,"rental_uris":{"android":"levelo://app?vid=f53bc08c-3129-4fc3-9174-862ec7b43c8b","ios":"levelo://app?vid=f53bc08c-3129-4fc3-9174-862ec7b43c8b"},"vehicle_type_id":"4","last_reported":1749543345,"current_range_meters":18800,"station_id":"ce4bhbp2rcd13ifvqerg","pricing_plan_id":"cebpf4jnsgd1na2vs0mg"},{"bike_id":"7722e534-bd57-43ff-88e0-47a2e003863a","system_id":"levelo_inurba_marseille","lat":43.26212,"lon":5.37442,"is_reserved":false,"is_disabled":false,"rental_uris":{"android":"levelo://app?vid=7722e534-bd57-43ff-88e0-47a2e003863a","ios":"levelo://app?vid=7722e534-bd57-43ff-88e0-47a2e003863a"},"vehicle_type_id":"4","last_reported":1749543345,"current_range_meters":18800,"station_id":"ce4bhgp2rcd13ifvqfc0","pricing_plan_id":"cebpf4jnsgd1na2vs0mg"},{"bike_id":"bd64d60f-1298-42b4-a581-3abd65b8a7c4","system_id":"levelo_inurba_marseille","lat":43.29274,"lon":5.36846,"is_reserved":false,"is_disabled":false,"rental_uris":{"android":"levelo://app?vid=bd64d60f-1298-42b4-a581-3abd65b8a7c4","ios":"levelo://app?vid=bd64d60f-1298-42b4-a581-3abd65b8a7c4"},"vehicle_type_id":"4","last_reported":1749543345,"current_range_meters":18800,"station_id":"ce4bhbp2rcd13ifvqesg","pricing_plan_id":"cebpf4jnsgd1na2vs0mg"},{"bike_id":"22d46380-b24d-42a3-bc73-e4b43baa9af2","system_id":"levelo_inurba_marseille","lat":43.27367,"lon":5.36264,"is_reserved":false,"is_disabled":false,"rental_uris":{"android":"levelo://app?vid=22d46380-b24d-42a3-bc73-e4b43baa9af2","ios":"levelo://app?vid=22d46380-b24d-42a3-bc73-e4b43baa9af2"},"vehicle_type_id":"4","last_reported":1749543345,"current_range_meters":18800,"station_id":"ce4bhbh2rcd13ifvqeo0","pricing_plan_id":"cebpf4jnsgd1na2vs0mg"},{"bike_id":"f6a61804-330d-4f30-8fcc-2bb88b5a7142","system_id":"levelo_inurba_marseille","lat":43.25727,"lon":5.4111,"is_reserved":false,"is_disabled":false,"rental_uris":{"android":"levelo://app?vid=f6a61804-330d-4f30-8fcc-2bb88b5a7142","ios":"levelo://app?vid=f6a61804-330d-4f30-8fcc-2bb88b5a7142"},"vehicle_type_id":"4","last_reported":1749543345,"current_range_meters":18800,"station_id":"ce4bhkp2rcd13ifvqgd0","pricing_plan_id":"cebpf4jnsgd1na2vs0mg"},{"bike_id":"13fb34c7-e031-4ac3-b767-57d60d27e30e","system_id":"levelo_inurba_marseille","lat":43.30193,"lon":5.36614,"is_reserved":false,"is_disabled":false,"rental_uris":{"android":"levelo://app?vid=13fb34c7-e031-4ac3-b767-57d60d27e30e","ios":"levelo://app?vid=13fb34c7-e031-4ac3-b767-57d60d27e30e"},"vehicle_type_id":"4","last_reported":1749543345,"current_range_meters":19200,"station_id":"ce4bgrh2rcd13ifvqc8g","pricing_plan_id":"cebpf4jnsgd1na2vs0mg"},{"bike_id":"7eadaca4-7291-4af3-aa03-494ad516aa44","system_id":"levelo_inurba_marseille","lat":43.29247,"lon":5.3762,"is_reserved":false,"is_disabled":false,"rental_uris":{"android":"levelo://app?vid=7eadaca4-7291-4af3-aa03-494ad516aa44","ios":"levelo://app?vid=7eadaca4-7291-4af3-aa03-494ad516aa44"},"vehicle_type_id":"4","last_reported":1749543345,"current_range_meters":19200,"station_id":"ce4bgi12rcd13ifvqb80","pricing_plan_id":"cebpf4jnsgd1na2vs0mg"},{"bike_id":"afa6bb1c-31a6-49e8-b005-bab4d37768be","system_id":"levelo_inurba_marseille","lat":43.29297,"lon":5.37469,"is_reserved":false,"is_disabled":false,"rental_uris":{"android":"levelo://app?vid=afa6bb1c-31a6-49e8-b005-bab4d37768be","ios":"levelo://app?vid=afa6bb1c-31a6-49e8-b005-bab4d37768be"},"vehicle_type_id":"4","last_reported":1749543345,"current_range_meters":19200,"station_id":"ce4bgi12rcd13ifvqb70","pricing_plan_id":"cebpf4jnsgd1na2vs0mg"},{"bike_id":"57656fed-84ae-496a-bb1e-270a341ff568","system_id":"levelo_inurba_marseille","lat":43.26555,"lon":5.37285,"is_reserved":false,"is_disabled":false,"rental_uris":{"android":"levelo://app?vid=57656fed-84ae-496a-bb1e-270a341ff568","ios":"levelo://app?vid=57656fed-84ae-496a-bb1e-270a341ff568"},"vehicle_type_id":"4","last_reported":1749543345,"current_range_meters":19200,"station_id":"ce4bhg12rcd13ifvqf70","pricing_plan_id":"cebpf4jnsgd1na2vs0mg"},{"bike_id":"bf33fda3-6885-4003-b51e-b96e59916347","system_id":"levelo_inurba_marseille","lat":43.24399,"lon":5.37056,"is_reserved":false,"is_disabled":false,"rental_uris":{"android":"levelo://app?vid=bf33fda3-6885-4003-b51e-b96e59916347","ios":"levelo://app?vid=bf33fda3-6885-4003-b51e-b96e59916347"},"vehicle_type_id":"4","last_reported":1749543345,"current_range_meters":19200,"station_id":"ce4bhhh2rcd13ifvqfk0","pricing_plan_id":"cebpf4jnsgd1na2vs0mg"},{"bike_id":"58ec3aed-ce4e-407e-9f67-a8ebcf03f8a9","system_id":"levelo_inurba_marseille","lat":43.24184,"lon":5.39719,"is_reserved":false,"is_disabled":false,"rental_uris":{"android":"levelo://app?vid=58ec3aed-ce4e-407e-9f67-a8ebcf03f8a9","ios":"levelo://app?vid=58ec3aed-ce4e-407e-9f67-a8ebcf03f8a9"},"vehicle_type_id":"4","last_reported":1749543345,"current_range_meters":19200,"station_id":"ce4bhn12rcd13ifvqgpg","pricing_plan_id":"cebpf4jnsgd1na2vs0mg"},{"bike_id":"b61f65ab-7e73-4706-bd15-5bdbfb7cbb14","system_id":"levelo_inurba_marseille","lat":43.25615,"lon":5.41218,"is_reserved":false,"is_disabled":true,"rental_uris":{"android":"levelo://app?vid=b61f65ab-7e73-4706-bd15-5bdbfb7cbb14","ios":"levelo://app?vid=b61f65ab-7e73-4706-bd15-5bdbfb7cbb14"},"vehicle_type_id":"4","last_reported":1749543345,"current_range_meters":19200,"station_id":"","pricing_plan_id":"cebpf4jnsgd1na2vs0mg"},{"bike_id":"bb5e03e6-560a-4ab1-84cb-d010646a2ee4","system_id":"levelo_inurba_marseille","lat":43.23151,"lon":5.43716,"is_reserved":false,"is_disabled":false,"rental_uris":{"android":"levelo://app?vid=bb5e03e6-560a-4ab1-84cb-d010646a2ee4","ios":"levelo://app?vid=bb5e03e6-560a-4ab1-84cb-d010646a2ee4"},"vehicle_type_id":"4","last_reported":1749543345,"current_range_meters":19200,"station_id":"ce4bhmp2rcd13ifvqgog","pricing_plan_id":"cebpf4jnsgd1na2vs0mg"},{"bike_id":"72c1ffbe-b6ca-406d-960d-a9616882f308","system_id":"levelo_inurba_marseille","lat":43.241628,"lon":5.397303,"is_reserved":false,"is_disabled":false,"rental_uris":{"android":"levelo://app?vid=72c1ffbe-b6ca-406d-960d-a9616882f308","ios":"levelo://app?vid=72c1ffbe-b6ca-406d-960d-a9616882f308"},"vehicle_type_id":"4","last_reported":1749543345,"current_range_meters":19200,"station_id":"ce4bhn12rcd13ifvqgpg","pricing_plan_id":"cebpf4jnsgd1na2vs0mg"},{"bike_id":"c24128ee-cd14-41fb-849a-bbed2f9cd4b1","system_id":"levelo_inurba_marseille","lat":43.31496,"lon":5.37293,"is_reserved":false,"is_disabled":false,"rental_uris":{"android":"levelo://app?vid=c24128ee-cd14-41fb-849a-bbed2f9cd4b1","ios":"levelo://app?vid=c24128ee-cd14-41fb-849a-bbed2f9cd4b1"},"vehicle_type_id":"4","last_reported":1749543345,"current_range_meters":19200,"station_id":"ce4bgt12rcd13ifvqcd0","pricing_plan_id":"cebpf4jnsgd1na2vs0mg"},{"bike_id":"cff174c6-6ba3-44b0-a9d2-aee572f9c64a","system_id":"levelo_inurba_marseille","lat":43.29719,"lon":5.3612,"is_reserved":false,"is_disabled":true,"rental_uris":{"android":"levelo://app?vid=cff174c6-6ba3-44b0-a9d2-aee572f9c64a","ios":"levelo://app?vid=cff174c6-6ba3-44b0-a9d2-aee572f9c64a"},"vehicle_type_id":"4","last_reported":1749543345,"current_range_meters":19200,"station_id":"","pricing_plan_id":"cebpf4jnsgd1na2vs0mg"},{"bike_id":"035e1f3a-d3d4-4c3f-ba01-23ba92700bc3","system_id":"levelo_inurba_marseille","lat":43.30957,"lon":5.39077,"is_reserved":false,"is_disabled":false,"rental_uris":{"android":"levelo://app?vid=035e1f3a-d3d4-4c3f-ba01-23ba92700bc3","ios":"levelo://app?vid=035e1f3a-d3d4-4c3f-ba01-23ba92700bc3"},"vehicle_type_id":"4","last_reported":1749543345,"current_range_meters":19200,"station_id":"ce4bgup2rcd13ifvqco0","pricing_plan_id":"cebpf4jnsgd1na2vs0mg"},{"bike_id":"514dae38-668e-4d4f-8a6c-e53dd4e1c4fe","system_id":"levelo_inurba_marseille","lat":43.25936,"lon":5.40941,"is_reserved":false,"is_disabled":false,"rental_uris":{"android":"levelo://app?vid=514dae38-668e-4d4f-8a6c-e53dd4e1c4fe","ios":"levelo://app?vid=514dae38-668e-4d4f-8a6c-e53dd4e1c4fe"},"vehicle_type_id":"4","last_reported":1749543345,"current_range_meters":19200,"station_id":"ce4bhm92rcd13ifvqglg","pricing_plan_id":"cebpf4jnsgd1na2vs0mg"},{"bike_id":"1d858e21-5af7-4d59-8db9-2d86851a5116","system_id":"levelo_inurba_marseille","lat":43.29046,"lon":5.35921,"is_reserved":false,"is_disabled":false,"rental_uris":{"android":"levelo://app?vid=1d858e21-5af7-4d59-8db9-2d86851a5116","ios":"levelo://app?vid=1d858e21-5af7-4d59-8db9-2d86851a5116"},"vehicle_type_id":"4","last_reported":1749543345,"current_range_meters":19200,"station_id":"ce4bha92rcd13ifvqeg0","pricing_plan_id":"cebpf4jnsgd1na2vs0mg"},{"bike_id":"821b9850-5239-4189-a2b1-e5322e55f75e","system_id":"levelo_inurba_marseille","lat":43.3135,"lon":5.36701,"is_reserved":false,"is_disabled":false,"rental_uris":{"android":"levelo://app?vid=821b9850-5239-4189-a2b1-e5322e55f75e","ios":"levelo://app?vid=821b9850-5239-4189-a2b1-e5322e55f75e"},"vehicle_type_id":"4","last_reported":1749543345,"current_range_meters":19200,"station_id":"ce4bgr92rcd13ifvqc6g","pricing_plan_id":"cebpf4jnsgd1na2vs0mg"},{"bike_id":"61c3047c-933c-413d-91fb-0a1b2df9ed6e","system_id":"levelo_inurba_marseille","lat":43.2993,"lon":5.36556,"is_reserved":false,"is_disabled":false,"rental_uris":{"android":"levelo://app?vid=61c3047c-933c-413d-91fb-0a1b2df9ed6e","ios":"levelo://app?vid=61c3047c-933c-413d-91fb-0a1b2df9ed6e"},"vehicle_type_id":"4","last_reported":1749543345,"current_range_meters":19200,"station_id":"ce4bgm92rcd13ifvqbr0","pricing_plan_id":"cebpf4jnsgd1na2vs0mg"},{"bike_id":"d7857a2f-6084-4a40-bf08-15f2dada4587","system_id":"levelo_inurba_marseille","lat":43.25108,"lon":5.40329,"is_reserved":false,"is_disabled":false,"rental_uris":{"android":"levelo://app?vid=d7857a2f-6084-4a40-bf08-15f2dada4587","ios":"levelo://app?vid=d7857a2f-6084-4a40-bf08-15f2dada4587"},"vehicle_type_id":"4","last_reported":1749543345,"current_range_meters":19200,"station_id":"ce4bhlh2rcd13ifvqgig","pricing_plan_id":"cebpf4jnsgd1na2vs0mg"},{"bike_id":"0c2cd831-dce1-4444-b808-d346232c5b6b","system_id":"levelo_inurba_marseille","lat":43.26211,"lon":5.37441,"is_reserved":false,"is_disabled":false,"rental_uris":{"android":"levelo://app?vid=0c2cd831-dce1-4444-b808-d346232c5b6b","ios":"levelo://app?vid=0c2cd831-dce1-4444-b808-d346232c5b6b"},"vehicle_type_id":"4","last_reported":1749543345,"current_range_meters":19600,"station_id":"ce4bhgp2rcd13ifvqfc0","pricing_plan_id":"cebpf4jnsgd1na2vs0mg"},{"bike_id":"fd698331-8a13-47e3-b1ca-510d4bd09a00","system_id":"levelo_inurba_marseille","lat":43.30299,"lon":5.36901,"is_reserved":false,"is_disabled":false,"rental_uris":{"android":"levelo://app?vid=fd698331-8a13-47e3-b1ca-510d4bd09a00","ios":"levelo://app?vid=fd698331-8a13-47e3-b1ca-510d4bd09a00"},"vehicle_type_id":"4","last_reported":1749543345,"current_range_meters":19600,"station_id":"ce4bgqh2rcd13ifvqc5g","pricing_plan_id":"cebpf4jnsgd1na2vs0mg"},{"bike_id":"9fed7935-0e05-4611-8412-b176c6a74123","system_id":"levelo_inurba_marseille","lat":43.3172,"lon":5.40461,"is_reserved":false,"is_disabled":false,"rental_uris":{"android":"levelo://app?vid=9fed7935-0e05-4611-8412-b176c6a74123","ios":"levelo://app?vid=9fed7935-0e05-4611-8412-b176c6a74123"},"vehicle_type_id":"4","last_reported":1749543345,"current_range_meters":19600,"station_id":"ce4bh012rcd13ifvqd00","pricing_plan_id":"cebpf4jnsgd1na2vs0mg"},{"bike_id":"5f3ed2f5-788c-45f6-a4a1-ce37c944e88e","system_id":"levelo_inurba_marseille","lat":43.284,"lon":5.37527,"is_reserved":false,"is_disabled":false,"rental_uris":{"android":"levelo://app?vid=5f3ed2f5-788c-45f6-a4a1-ce37c944e88e","ios":"levelo://app?vid=5f3ed2f5-788c-45f6-a4a1-ce37c944e88e"},"vehicle_type_id":"4","last_reported":1749543345,"current_range_meters":19600,"station_id":"ce4bh412rcd13ifvqds0","pricing_plan_id":"cebpf4jnsgd1na2vs0mg"},{"bike_id":"bd2b5ad2-cb63-4ebf-a47c-94d133a5bb64","system_id":"levelo_inurba_marseille","lat":43.30952,"lon":5.39076,"is_reserved":false,"is_disabled":false,"rental_uris":{"android":"levelo://app?vid=bd2b5ad2-cb63-4ebf-a47c-94d133a5bb64","ios":"levelo://app?vid=bd2b5ad2-cb63-4ebf-a47c-94d133a5bb64"},"vehicle_type_id":"4","last_reported":1749543345,"current_range_meters":19600,"station_id":"ce4bgup2rcd13ifvqco0","pricing_plan_id":"cebpf4jnsgd1na2vs0mg"},{"bike_id":"0a61a83d-30f6-461d-afb3-c145799620b8","system_id":"levelo_inurba_marseille","lat":43.324773,"lon":5.365688,"is_reserved":false,"is_disabled":false,"rental_uris":{"android":"levelo://app?vid=0a61a83d-30f6-461d-afb3-c145799620b8","ios":"levelo://app?vid=0a61a83d-30f6-461d-afb3-c145799620b8"},"vehicle_type_id":"4","last_reported":1749543345,"current_range_meters":19600,"station_id":"ce4bhs12rcd13ifvqhvg","pricing_plan_id":"cebpf4jnsgd1na2vs0mg"},{"bike_id":"ef707bd4-3204-4871-b398-11837cc340f2","system_id":"levelo_inurba_marseille","lat":43.28345,"lon":5.38111,"is_reserved":false,"is_disabled":false,"rental_uris":{"android":"levelo://app?vid=ef707bd4-3204-4871-b398-11837cc340f2","ios":"levelo://app?vid=ef707bd4-3204-4871-b398-11837cc340f2"},"vehicle_type_id":"4","last_reported":1749543345,"current_range_meters":19600,"station_id":"ce4bh412rcd13ifvqdr0","pricing_plan_id":"cebpf4jnsgd1na2vs0mg"},{"bike_id":"4cb78e2c-8e63-4812-81ef-1980f9de8b37","system_id":"levelo_inurba_marseille","lat":43.32396,"lon":5.38933,"is_reserved":false,"is_disabled":false,"rental_uris":{"android":"levelo://app?vid=4cb78e2c-8e63-4812-81ef-1980f9de8b37","ios":"levelo://app?vid=4cb78e2c-8e63-4812-81ef-1980f9de8b37"},"vehicle_type_id":"4","last_reported":1749543345,"current_range_meters":19600,"station_id":"","pricing_plan_id":"cebpf4jnsgd1na2vs0mg"},